[{"lat":"38.110643569","long":"127.39642","imageIndex":7,"items":[{"name":"GEO키즈글램핑","tel":"","addr":"경기도 포천시 이동면 도평리 585-6번지","indutype":"음료식품 - 기타음료식품","category":"food"}]},{"lat":"38.070508497","long":"127.39913366","imageIndex":7,"items":[{"name":"강원상회","tel":"031-531-1824","addr":"경기도 포천시 이동면 도평리 52번지","indutype":"음료식품 - 농·축·수산품","category":"food"}]},{"lat":"38.068482983","long":"127.39600032","imageIndex":7,"items":[{"name":"고향 청정육","tel":"031-535-8119","addr":"경기도 포천시 이동면 도평리 58-2번지 1","indutype":"음료식품 - 정육점","category":"food"},{"name":"대흥휴게소","tel":"031-535-0065","addr":"경기도 포천시 이동면 도평리 58-2번지","indutype":"음료식품 - 기타음료식품","category":"food"}]},{"lat":"38.100365618","long":"127.42210749","imageIndex":7,"items":[{"name":"광덕물산","tel":"033-441-8848","addr":"경기도 포천시 이동면 도평리 산1 백운계곡정상","indutype":"음료식품 - 농·축·수산품","category":"food"}]},{"lat":"38.078006755","long":"127.39019315","imageIndex":7,"items":[{"name":"김혜식소매점","tel":"031-535-3842","addr":"경기도 포천시 이동면 도평리 512-10번지","indutype":"음료식품 - 기타음료식품","category":"food"}]},{"lat":"38.063535232","long":"127.38838483","imageIndex":7,"items":[{"name":"남매매점","tel":"031-532-1455","addr":"경기도 포천시 이동면 도평리 720번지","indutype":"음료식품 - 기타음료식품","category":"food"},{"name":"모닥불매점","tel":"031-535-7615","addr":"경기도 포천시 이동면 도평리 720번지","indutype":"음료식품 - 기타음료식품","category":"food"},{"name":"선비촌","tel":"031-535-4740","addr":"경기도 포천시 이동면 도평리 720번지","indutype":"음료식품 - 기타음료식품","category":"food"},{"name":"신남매계곡휴게소","tel":"","addr":"경기도 포천시 이동면 도평리 720번지 남매휴게소","indutype":"음료식품 - 기타음료식품","category":"food"}]},{"lat":"38.075230625","long":"127.38786497","imageIndex":7,"items":[{"name":"뉴힐링캠프","tel":"031-535-0825","addr":"경기도 포천시 이동면 도평리 490-4번지","indutype":"음료식품 - 기타음료식품","category":"food"}]},{"lat":"38.112309812","long":"127.39922255","imageIndex":7,"items":[{"name":"대아농원","tel":"031-111-1111","addr":"경기도 포천시 이동면 도평리 582-13번지","indutype":"음료식품 - 기타음료식품","category":"food"}]},{"lat":"38.059094196","long":"127.38550158","imageIndex":7,"items":[{"name":"뚜뚜유통","tel":"031-563-7358","addr":"경기도 포천시 이동면 도평리 160-14번지","indutype":"음료식품 - 기타음료식품","category":"food"}]},{"lat":"38.057012925","long":"127.38555911","imageIndex":7,"items":[{"name":"매점","tel":"031-535-2330","addr":"경기도 포천시 이동면 도평리 155-3번지","indutype":"음료식품 - 기타음료식품","category":"food"}]},{"lat":"38.075232669","long":"127.41643659","imageIndex":7,"items":[{"name":"백운계곡매점","tel":"031-535-7205","addr":"경기도 포천시 이동면 도평리 27번지 1층","indutype":"음료식품 - 기타음료식품","category":"food"}]},{"lat":"38.06948476","long":"127.40611379","imageIndex":7,"items":[{"name":"백운계곡산장","tel":"031-535-4154","addr":"경기도 포천시 이동면 도평리 45번지","indutype":"음료식품 - 기타음료식품","category":"food"}]},{"lat":"38.075647475","long":"127.41632495","imageIndex":7,"items":[{"name":"백운도소매","tel":"031-535-8814","addr":"경기도 포천시 이동면 도평리 28번지","indutype":"음료식품 - 정육점","category":"food"}]},{"lat":"38.056789519","long":"127.38499964","imageIndex":7,"items":[{"name":"백운산약초","tel":"031-536-4028","addr":"경기도 포천시 이동면 도평리 166-13","indutype":"음료식품 - 농·축·수산품","category":"food"}]},{"lat":"38.066480496","long":"127.39132889","imageIndex":7,"items":[{"name":"백운하우스팬션","tel":"031-535-7452","addr":"경기도 포천시 이동면 도평리 90-4번지","indutype":"음료식품 - 기타음료식품","category":"food"},{"name":"백운하우스팬션","tel":"031-535-7452","addr":"경기도 포천시 이동면 도평리 90-4번지","indutype":"음료식품 - 기타음료식품","category":"food"}]},{"lat":"38.090590048","long":"127.37128","imageIndex":7,"items":[{"name":"산중호걸 글램핑","tel":"","addr":"경기도 포천시 이동면 도평리 659-8번지","indutype":"음료식품 - 기타음료식품","category":"food"}]},{"lat":"38.065120454","long":"127.3884957","imageIndex":7,"items":[{"name":"서원유통","tel":"031-1111-1111","addr":"경기도 포천시 이동면 도평리 93-2번지","indutype":"음료식품 - 주류 판매점","category":"food"}]},{"lat":"38.077261746","long":"127.4184083","imageIndex":7,"items":[{"name":"양념마을","tel":"031-535-8685","addr":"경기도 포천시 이동면 도평리 23-2번지","indutype":"음료식품 - 기타음료식품","category":"food"}]},{"lat":"38.05054194","long":"127.38355445","imageIndex":7,"items":[{"name":"우정식자재","tel":"031-532-4779","addr":"경기도 포천시 이동면 도평리 269-1번지","indutype":"음료식품 - 기타음료식품","category":"food"}]},{"lat":"38.081814614","long":"127.41232487","imageIndex":7,"items":[{"name":"이모네 휴게실","tel":"031-535-8059","addr":"경기도 포천시 이동면 도평리 산75번지","indutype":"음료식품 - 기타음료식품","category":"food"}]},{"lat":"38.062624114","long":"127.38599854","imageIndex":7,"items":[{"name":"일호상회","tel":"031-535-7150","addr":"경기도 포천시 이동면 도평리 120-8","indutype":"음료식품 - 기타음료식품","category":"food"}]},{"lat":"38.056706734","long":"127.38552333","imageIndex":7,"items":[{"name":"포천농축특산품 협동조합","tel":"031-535-2219","addr":"경기도 포천시 이동면 도평리 155-8번지","indutype":"음료식품 - 정육점","category":"food"}]},{"lat":"38.064761632","long":"127.38802662","imageIndex":7,"items":[{"name":"포천이동갈비직판장 백운계곡점","tel":"031-535-5242","addr":"경기도 포천시 이동면 도평리 463-2번지","indutype":"음료식품 - 정육점","category":"food"}]},{"lat":"38.048616996","long":"127.37983049","imageIndex":7,"items":[{"name":"풍차식당","tel":"031-531-0954","addr":"경기도 포천시 이동면 도평리 323-4번지","indutype":"음료식품 - 정육점","category":"food"}]},{"lat":"38.062063631","long":"127.38658814","imageIndex":7,"items":[{"name":"한일상회","tel":"031-535-7881","addr":"경기도 포천시 이동면 도평리 112-1","indutype":"음료식품 - 기타음료식품","category":"food"}]},{"lat":"38.064177847","long":"127.3874766","imageIndex":7,"items":[{"name":"해나네","tel":"031-536-9200","addr":"경기도 포천시 이동면 도평리 463-6","indutype":"음료식품 - 정육점","category":"food"}]},{"lat":"38.049870215","long":"127.38233194","imageIndex":7,"items":[{"name":"해피타임","tel":"031-536-6101","addr":"경기도 포천시 이동면 도평리 281-4번지","indutype":"음료식품 - 기타음료식품","category":"food"}]},{"lat":"38.042598825","long":"127.38267034","imageIndex":7,"items":[{"name":"협성농장","tel":"031-531-6075","addr":"경기도 포천시 이동면 도평리 303번지","indutype":"음료식품 - 농·축·수산품","category":"food"}]},{"lat":"38.074004787","long":"127.38805229","imageIndex":7,"items":[{"name":"형제고개 캠핑장","tel":"031-535-7026","addr":"경기도 포천시 이동면 도평리 489-3번지 외2필지","indutype":"음료식품 - 기타음료식품","category":"food"}]}]