[{"lat":"37.30883783","long":"126.83221399","imageIndex":7,"items":[{"name":"(주)다농식자재센터","tel":"031-475-1180","addr":"경기도 안산시 단원구 고잔동 774-2번지 1,2층","indutype":"유통업 영리 - 슈퍼마켓","category":"mart"}]},{"lat":"37.308120964","long":"126.82874137","imageIndex":7,"items":[{"name":"(주)쿱스토어경기동남부 고잔점","tel":"031-485-0606","addr":"경기도 안산시 단원구 고잔동 718-3번지","indutype":"유통업 영리 - 슈퍼마켓","category":"mart"}]},{"lat":"37.3268664020","long":"126.8196041957","imageIndex":7,"items":[{"name":"88슈퍼코사마트","tel":"031-411-7622","addr":"경기도 안산시 단원구 고잔동 656-30번지","indutype":"도매 및 소매업 - 슈퍼마켓","category":"mart"}]},{"lat":"37.328918963","long":"126.8184709","imageIndex":7,"items":[{"name":"O.K유통","tel":"","addr":"경기도 안산시 단원구 고잔동 650-12번지 그린상가 1층 101호","indutype":"유통업 영리 - 슈퍼마켓","category":"mart"}]},{"lat":"37.3106156340","long":"126.8341614736","imageIndex":7,"items":[{"name":"OK마트","tel":"031-414-9700","addr":"경기도 안산시 단원구 고잔동 767번지 네오빌주공아파트","indutype":"도매 및 소매업 - 슈퍼마켓 담배","category":"mart"}]},{"lat":"37.312424393","long":"126.83894042","imageIndex":7,"items":[{"name":"OK마트","tel":"031-414-9700","addr":"경기도 안산시 단원구 고잔동 757번지 네오빌 상가 103호","indutype":"유통업 영리 - 슈퍼마켓","category":"mart"}]},{"lat":"37.309836688","long":"126.83133187","imageIndex":7,"items":[{"name":"everyday진로","tel":"031-475-3850","addr":"경기도 안산시 단원구 고잔동 770-8번지 금성센터빌딩 102,103,104,105호","indutype":"유통업 영리 - 슈퍼마켓","category":"mart"},{"name":"진로마트","tel":"031-475-3850","addr":"경기도 안산시 단원구 고잔동 770-8번지 금성센터빌딩 1층 102-105호","indutype":"유통업 영리 - 슈퍼마켓","category":"mart"},{"name":"진로할인마트","tel":"031-475-3850","addr":"경기도 안산시 단원구 고잔동 770-8번지 금성센터빌딩 1층","indutype":"유통업 영리 - 슈퍼마켓","category":"mart"}]},{"lat":"37.319255407","long":"126.82727164","imageIndex":7,"items":[{"name":"가나마트","tel":"","addr":"경기도 안산시 단원구 고잔동 520번지 122호","indutype":"유통업 영리 - 슈퍼마켓","category":"mart"},{"name":"미도슈퍼","tel":"031-111-1111","addr":"경기도 안산시 단원구 고잔동 520번지 에비뉴큐브시티 1동 119호","indutype":"유통업 영리 - 슈퍼마켓","category":"mart"}]},{"lat":"37.3144230777","long":"126.8253538397","imageIndex":7,"items":[{"name":"경기남부두레생협","tel":"031-413-5094","addr":"경기도 안산시 단원구 고잔동 684-1번지","indutype":"도매 및 소매업 - 슈퍼","category":"mart"}]},{"lat":"37.313199294","long":"126.8325764","imageIndex":7,"items":[{"name":"경기남부두레생협 양지자활점","tel":"031-405-9844","addr":"경기도 안산시 단원구 고잔동 727-2번지 현대타운 110호","indutype":"유통업 영리 - 슈퍼마켓","category":"mart"}]},{"lat":"37.3131992939","long":"126.8325763952","imageIndex":7,"items":[{"name":"경기남부두레생협 양지자활점","tel":"031-405-9844","addr":"경기도 안산시 단원구 고잔동 727-2번지","indutype":"도매 및 소매업 - 슈퍼","category":"mart"}]},{"lat":"37.313475414","long":"126.82429567","imageIndex":7,"items":[{"name":"경기남부두레생협(고잔점)","tel":"031-413-9747","addr":"경기도 안산시 단원구 고잔동 698-11번지 명화빌딩 1층","indutype":"유통업 영리 - 슈퍼마켓","category":"mart"}]},{"lat":"37.309395826","long":"126.8317728","imageIndex":7,"items":[{"name":"고잔도깨비","tel":"031-402-1553","addr":"경기도 안산시 단원구 고잔동 773번지 신화빌딩 102,201,2호","indutype":"유통업 영리 - 슈퍼마켓","category":"mart"}]},{"lat":"37.3093958257","long":"126.8317728014","imageIndex":7,"items":[{"name":"고잔도깨비마트","tel":"031-402-1553","addr":"경기도 안산시 단원구 고잔동 773번지","indutype":"도매 및 소매업 - 슈퍼, 생활잡화","category":"mart"}]},{"lat":"37.313037741","long":"126.83941288","imageIndex":7,"items":[{"name":"고잔할인마트","tel":"031-403-9230","addr":"경기도 안산시 단원구 고잔동 755-5번지 101호","indutype":"유통업 영리 - 슈퍼마켓","category":"mart"}]},{"lat":"37.311982513","long":"126.83229713","imageIndex":7,"items":[{"name":"광장슈퍼","tel":"031-507-2121","addr":"경기도 안산시 단원구 고잔동 768-2번지 화승타운 1층 124호","indutype":"유통업 영리 - 슈퍼마켓","category":"mart"}]},{"lat":"37.313947276","long":"126.82651689","imageIndex":7,"items":[{"name":"그린마트","tel":"031-411-0741","addr":"경기도 안산시 단원구 고잔동 702번지 대우푸르지오4차 상가동 101호","indutype":"유통업 영리 - 슈퍼마켓","category":"mart"},{"name":"백만수퍼","tel":"031-411-0741","addr":"경기도 안산시 단원구 고잔동 702 안산고잔4차푸르지오상가-101","indutype":"유통업 영리 - 슈퍼마켓","category":"mart"},{"name":"백만슈퍼","tel":"031-408-5654","addr":"경기도 안산시 단원구 고잔동 702 안산고잔4차푸르지오 상가-101","indutype":"유통업 영리 - 슈퍼마켓","category":"mart"}]},{"lat":"37.3139472758","long":"126.8265168869","imageIndex":7,"items":[{"name":"그린마트","tel":"031-411-0741","addr":"경기도 안산시 단원구 고잔동 702번지","indutype":"도매 및 소매업 - 슈퍼마켓","category":"mart"}]},{"lat":"37.3102547595","long":"126.8402649266","imageIndex":7,"items":[{"name":"그린빌9단지마트","tel":"031-410-4450","addr":"경기도 안산시 단원구 고잔동 765번지 그린빌주공9단지아파트","indutype":"도매 및 소매업 - 슈퍼","category":"mart"}]},{"lat":"37.305925392","long":"126.83704827","imageIndex":7,"items":[{"name":"금강마트","tel":"031-411-5301","addr":"경기도 안산시 단원구 고잔동 780양지마을분산상가402-107","indutype":"유통업 영리 - 슈퍼마켓","category":"mart"},{"name":"양지홈마트","tel":"031-411-8884","addr":"경기도 안산시 단원구 고잔동 780양지마을주상가105","indutype":"유통업 영리 - 슈퍼마켓","category":"mart"}]},{"lat":"37.3059253919","long":"126.8370482667","imageIndex":7,"items":[{"name":"금강마트","tel":"031-411-5301","addr":"경기도 안산시 단원구 고잔동 780번지 양지마을아파트","indutype":"도매 및 소매업 - 슈퍼","category":"mart"}]},{"lat":"37.3284256819","long":"126.8199388990","imageIndex":7,"items":[{"name":"농심가고잔점","tel":"031-485-5377","addr":"경기도 안산시 단원구 고잔동 657-3번지","indutype":"도매 및 소매업 - 슈퍼","category":"mart"}]},{"lat":"37.328425682","long":"126.8199389","imageIndex":7,"items":[{"name":"농심가고잔점","tel":"031-485-5377","addr":"경기도 안산시 단원구 고잔동 657-3번지","indutype":"유통업 영리 - 슈퍼마켓","category":"mart"}]},{"lat":"37.330227265","long":"126.83802165","imageIndex":7,"items":[{"name":"농심가믿음하이퍼","tel":"031-485-1735","addr":"경기도 안산시 단원구 고잔동 636-4번지","indutype":"유통업 영리 - 슈퍼마켓","category":"mart"}]},{"lat":"37.329417944","long":"126.82662741","imageIndex":7,"items":[{"name":"농심슈퍼","tel":"031-403-2786","addr":"경기도 안산시 단원구 고잔동 608번지 대동15차빌라 상가 9동 103호","indutype":"유통업 영리 - 슈퍼마켓","category":"mart"}]},{"lat":"37.3294179440","long":"126.8266274129","imageIndex":7,"items":[{"name":"농심슈퍼","tel":"031-403-2786","addr":"경기도 안산시 단원구 고잔동 608번지 대동15차빌라","indutype":"도매 및 소매업 - 슈퍼마켓","category":"mart"}]},{"lat":"37.330390072","long":"126.83210883","imageIndex":7,"items":[{"name":"늘푸름마트","tel":"031-401-0534","addr":"경기도 안산시 단원구 고잔동 618-10번지 101호","indutype":"유통업 영리 - 슈퍼마켓","category":"mart"}]},{"lat":"37.3303900717","long":"126.8321088337","imageIndex":7,"items":[{"name":"늘푸름마트","tel":"031-401-0534","addr":"경기도 안산시 단원구 고잔동 618-10번지","indutype":"도매 및 소매업 - 슈퍼","category":"mart"},{"name":"늘푸름마트","tel":"031-401-0534","addr":"경기도 안산시 단원구 고잔동 618-10번지","indutype":"도매 및 소매업 - 슈퍼마켓","category":"mart"}]},{"lat":"37.32633775","long":"126.84010616","imageIndex":7,"items":[{"name":"대광슈퍼","tel":"031-487-0055","addr":"경기도 안산시 단원구 고잔동 670-1번지 복합마 상가 101호","indutype":"유통업 영리 - 슈퍼마켓","category":"mart"}]},{"lat":"37.313536812","long":"126.82319001","imageIndex":7,"items":[{"name":"대농마트","tel":"070-4118-1133","addr":"경기도 안산시 단원구 고잔동 694-7번지 1층","indutype":"유통업 영리 - 슈퍼마켓","category":"mart"}]},{"lat":"37.3063384138","long":"126.8236921690","imageIndex":7,"items":[{"name":"대림할인마트","tel":"031-439-7990","addr":"경기도 안산시 단원구 고잔동 720번지","indutype":"도매 및 소매업 - 슈퍼마켓","category":"mart"}]},{"lat":"37.3112306175","long":"126.8234662305","imageIndex":7,"items":[{"name":"대우할인마트","tel":"031-486-8090","addr":"경기도 안산시 단원구 고잔동 712번지","indutype":"도매 및 소매업 - 슈퍼,야채","category":"mart"}]},{"lat":"37.313535575","long":"126.83460618","imageIndex":7,"items":[{"name":"대우홈마트","tel":"031-405-0335","addr":"경기도 안산시 단원구 고잔동 728번지 안산고잔3차푸르지오 상가동 107호","indutype":"유통업 영리 - 슈퍼마켓","category":"mart"}]},{"lat":"37.322784699","long":"126.8379138","imageIndex":7,"items":[{"name":"동산준마트","tel":"031-401-4900","addr":"경기도 안산시 단원구 고잔동 672-6번지 동산빌딩 101호","indutype":"유통업 영리 - 슈퍼마켓","category":"mart"}]},{"lat":"37.323337532","long":"126.82163229","imageIndex":7,"items":[{"name":"두꺼비마트","tel":"031-410-3860","addr":"경기도 안산시 단원구 고잔동 665-1번지 신원빌라7차 지층","indutype":"유통업 영리 - 슈퍼마켓","category":"mart"},{"name":"하나마트","tel":"031-411-2792","addr":"경기도 안산시 단원구 고잔동 665-1번지 신원연립 상가동 109호","indutype":"유통업 영리 - 슈퍼마켓","category":"mart"}]},{"lat":"37.329641981","long":"126.83829372","imageIndex":7,"items":[{"name":"롯데마켓999안산예술대학가맹점","tel":"","addr":"경기도 안산시 단원구 고잔동 634-2번지 1층 101호","indutype":"유통업 영리 - 슈퍼마켓","category":"mart"}]},{"lat":"37.326536068","long":"126.82157948","imageIndex":7,"items":[{"name":"모아슈퍼","tel":"031-410-0495","addr":"경기도 안산시 단원구 고잔동 661현대연립상가동제1층103","indutype":"유통업 영리 - 슈퍼마켓","category":"mart"}]},{"lat":"37.324838906","long":"126.83783034","imageIndex":7,"items":[{"name":"반도슈퍼","tel":"031-480-4023","addr":"경기도 안산시 단원구 고잔동 671-2번지 주공바상가 1층 111호","indutype":"유통업 영리 - 슈퍼마켓","category":"mart"}]},{"lat":"37.318814026","long":"126.82735164","imageIndex":7,"items":[{"name":"반월매점","tel":"031-482-5633","addr":"경기도 안산시 단원구 고잔동 520-4번지","indutype":"유통업 영리 - 슈퍼마켓","category":"mart"}]},{"lat":"37.3122589519","long":"126.8366056930","imageIndex":7,"items":[{"name":"베스트마트","tel":"","addr":"경기도 안산시 단원구 고잔동 741번지","indutype":"도매 및 소매업 - 마트,담배","category":"mart"}]},{"lat":"37.312258952","long":"126.83660569","imageIndex":7,"items":[{"name":"베스트마트","tel":"070-4254-0160","addr":"경기도 안산시 단원구 고잔동 741번지 101호","indutype":"유통업 영리 - 슈퍼마켓","category":"mart"}]},{"lat":"37.317481761","long":"126.84085855","imageIndex":7,"items":[{"name":"부라보마트","tel":"031-483-4333","addr":"경기도 안산시 단원구 고잔동 540-11번지 대성빌딩 117호","indutype":"유통업 영리 - 슈퍼마켓","category":"mart"}]},{"lat":"37.330031188","long":"126.82699833","imageIndex":7,"items":[{"name":"삼성중앙슈퍼","tel":"031-482-1500","addr":"경기도 안산시 단원구 고잔동 610번지 삼성연립상가 106호","indutype":"유통업 영리 - 슈퍼마켓","category":"mart"}]},{"lat":"37.3300311883","long":"126.8269983281","imageIndex":7,"items":[{"name":"삼성중앙슈퍼","tel":"031-482-1500","addr":"경기도 안산시 단원구 고잔동 610번지 삼성중앙빌라","indutype":"도매 및 소매업 - 슈퍼마켓,담배","category":"mart"},{"name":"삼성중앙슈퍼","tel":"031-482-1500","addr":"경기도 안산시 단원구 고잔동 610번지","indutype":"도매 및 소매업 - 슈퍼마켓","category":"mart"}]},{"lat":"37.318227539","long":"126.8329599","imageIndex":7,"items":[{"name":"스카이마트","tel":"031-405-5556","addr":"경기도 안산시 단원구 고잔동 530-2번지 스카이팰리스 117호","indutype":"유통업 영리 - 슈퍼마켓","category":"mart"}]},{"lat":"37.3182275391","long":"126.8329599035","imageIndex":7,"items":[{"name":"스카이마트","tel":"031-405-5556","addr":"경기도 안산시 단원구 고잔동 530-2번지","indutype":"도매 및 소매업 - 슈퍼마켓,담배","category":"mart"}]},{"lat":"37.317143655","long":"126.83744103","imageIndex":7,"items":[{"name":"아라유통","tel":"031-483-6661","addr":"경기도 안산시 단원구 고잔동 541번지 안산종합상가지 1-4호","indutype":"유통업 영리 - 슈퍼마켓","category":"mart"}]},{"lat":"37.317954917","long":"126.83768745","imageIndex":7,"items":[{"name":"아이지에이마트 중앙점","tel":"02-3453-0708","addr":"경기도 안산시 단원구 고잔동 540-1번지 동원빌딩 105호","indutype":"유통업 영리 - 슈퍼마켓","category":"mart"}]},{"lat":"37.3289536505","long":"126.8294944052","imageIndex":7,"items":[{"name":"안산소비자유통","tel":"031-486-2416","addr":"경기도 안산시 단원구 고잔동 612번지","indutype":"도매 및 소매업 - 슈퍼,쌀,담배","category":"mart"}]},{"lat":"37.322036774","long":"126.83151851","imageIndex":7,"items":[{"name":"안산시청신용협동조합","tel":"031-481-3136","addr":"경기도 안산시 단원구 고잔동 515번지","indutype":"유통업 영리 - 슈퍼마켓","category":"mart"}]},{"lat":"37.3175605920","long":"126.8328260281","imageIndex":7,"items":[{"name":"열린상사","tel":"031-405-5691","addr":"경기도 안산시 단원구 고잔동 531-2번지","indutype":"도매 및 소매업 - 슈퍼","category":"mart"}]},{"lat":"37.317560592","long":"126.83282603","imageIndex":7,"items":[{"name":"열린상사","tel":"031-405-5691","addr":"경기도 안산시 단원구 고잔동 531-2번지","indutype":"유통업 영리 - 슈퍼마켓","category":"mart"}]},{"lat":"37.324342259","long":"126.83705293","imageIndex":7,"items":[{"name":"영진","tel":"02-1111-1111","addr":"경기도 안산시 단원구 고잔동 675-1번지 1층 101호","indutype":"유통업 영리 - 슈퍼마켓","category":"mart"}]},{"lat":"37.3243422587","long":"126.8370529347","imageIndex":7,"items":[{"name":"영진","tel":"","addr":"경기도 안산시 단원구 고잔동 675-1번지","indutype":"도매 및 소매업 - 슈퍼마켓","category":"mart"}]},{"lat":"37.331254768","long":"126.83826764","imageIndex":7,"items":[{"name":"예대마트","tel":"031-480-3507","addr":"경기도 안산시 단원구 고잔동 638-8번지 103호","indutype":"유통업 영리 - 슈퍼마켓","category":"mart"}]},{"lat":"37.309147477","long":"126.82829908","imageIndex":7,"items":[{"name":"예스마트","tel":"031-439-9320","addr":"경기도 안산시 단원구 고잔동 716-2번지 현대프라자 105호","indutype":"유통업 영리 - 슈퍼마켓","category":"mart"}]},{"lat":"37.312649147","long":"126.83857895","imageIndex":7,"items":[{"name":"예스마트","tel":"031-480-0992","addr":"경기도 안산시 단원구 고잔동 745-5.101호~102호","indutype":"유통업 영리 - 슈퍼마켓","category":"mart"}]},{"lat":"37.322534285","long":"126.82671118","imageIndex":7,"items":[{"name":"우성마트","tel":"031-482-5490","addr":"경기도 안산시 단원구 고잔동 852번지 상가 106호,107호,108호","indutype":"유통업 영리 - 슈퍼마켓","category":"mart"}]},{"lat":"37.320420632","long":"126.82924325","imageIndex":7,"items":[{"name":"위드미안산마이빌","tel":"031-485-5199","addr":"경기도 안산시 단원구 고잔동 523-6번지 대우마이빌 117호","indutype":"유통업 영리 - 슈퍼마켓","category":"mart"}]},{"lat":"37.31375597","long":"126.83754999","imageIndex":7,"items":[{"name":"점프25","tel":"031-401-6727","addr":"경기도 안산시 단원구 고잔동 736-1번지 1층 101호","indutype":"유통업 영리 - 슈퍼마켓","category":"mart"}]},{"lat":"37.330140115","long":"126.84015438","imageIndex":7,"items":[{"name":"제일하이퍼","tel":"031-411-2944","addr":"경기도 안산시 단원구 고잔동 644-10번지","indutype":"유통업 영리 - 슈퍼마켓","category":"mart"}]},{"lat":"37.315229213","long":"126.82219325","imageIndex":7,"items":[{"name":"주식회사 고잔홈마트","tel":"031-487-7344","addr":"경기도 안산시 단원구 고잔동 681번지","indutype":"유통업 영리 - 슈퍼마켓","category":"mart"},{"name":"한국유통","tel":"031-487-7344","addr":"경기도 안산시 단원구 고잔동 681번지 106호 외 55개 구분점포","indutype":"유통업 영리 - 슈퍼마켓","category":"mart"}]},{"lat":"37.318140859","long":"126.84184991","imageIndex":7,"items":[{"name":"주식회사 중앙식자재센터","tel":"031-414-3636","addr":"경기도 안산시 단원구 고잔동 539-10번지 중앙하이츠빌 1003,1009호","indutype":"유통업 영리 - 슈퍼마켓","category":"mart"},{"name":"주식회사 중앙유통","tel":"031-414-3636","addr":"경기도 안산시 단원구 고잔동 539-10번지 1003호,1009호","indutype":"유통업 영리 - 슈퍼마켓","category":"mart"}]},{"lat":"37.3179210475","long":"126.8328590604","imageIndex":7,"items":[{"name":"진양마트","tel":"031-483-4183","addr":"경기도 안산시 단원구 고잔동 530-3번지","indutype":"도매 및 소매업 - 슈퍼,담배","category":"mart"}]},{"lat":"37.317921048","long":"126.83285906","imageIndex":7,"items":[{"name":"진양마트","tel":"031-483-4183","addr":"경기도 안산시 단원구 고잔동 530-3,104번지","indutype":"유통업 영리 - 슈퍼마켓","category":"mart"}]},{"lat":"37.309342481","long":"126.83226925","imageIndex":7,"items":[{"name":"초록마을 안산고잔신도시점","tel":"031-411-8833","addr":"경기도 안산시 단원구 고잔동 774번지 21세기프라자 110호","indutype":"유통업 영리 - 슈퍼마켓","category":"mart"}]},{"lat":"37.331756253","long":"126.82979262","imageIndex":7,"items":[{"name":"초이마트고잔","tel":"031-403-0006","addr":"경기도 안산시 단원구 고잔동 624-1번지","indutype":"유통업 영리 - 슈퍼마켓","category":"mart"}]},{"lat":"37.33003467","long":"126.82935652","imageIndex":7,"items":[{"name":"태양슈퍼","tel":"031-401-4711","addr":"경기도 안산시 단원구 고잔동 613번지 태양종합 1호","indutype":"유통업 영리 - 슈퍼마켓","category":"mart"}]},{"lat":"37.3299461852","long":"126.8304624839","imageIndex":7,"items":[{"name":"태양슈퍼","tel":"031-401-4711","addr":"경기도 안산시 단원구 고잔동 613-1번지 태양아트빌라","indutype":"도매 및 소매업 - 슈퍼마켓,담배","category":"mart"}]},{"lat":"37.311090668","long":"126.83241195","imageIndex":7,"items":[{"name":"파워DC 마트","tel":"031-410-7789","addr":"경기도 안산시 단원구 고잔동 769번지 사또타워 105호","indutype":"유통업 영리 - 슈퍼마켓","category":"mart"},{"name":"하모니마트 (안산사또점)","tel":"031-405-8928","addr":"경기도 안산시 단원구 고잔동 769번지 사또타워 101호","indutype":"유통업 영리 - 슈퍼마켓","category":"mart"}]},{"lat":"37.3313954841","long":"126.8295452110","imageIndex":7,"items":[{"name":"파워DC마트","tel":"031-410-7789","addr":"경기도 안산시 단원구 고잔동 622-9번지","indutype":"도매 및 소매업 - 슈퍼마켓","category":"mart"}]},{"lat":"37.3296403116","long":"126.8370977073","imageIndex":7,"items":[{"name":"플러스 할인마트","tel":"031-482-2141","addr":"경기도 안산시 단원구 고잔동 633-5번지","indutype":"도매 및 소매업 - 슈퍼마켓","category":"mart"}]},{"lat":"37.329640312","long":"126.83709771","imageIndex":7,"items":[{"name":"플러스할인마트","tel":"031-414-2141","addr":"경기도 안산시 단원구 고잔동 633-5번지 102호","indutype":"유통업 영리 - 슈퍼마켓","category":"mart"}]},{"lat":"37.313981494","long":"126.82529847","imageIndex":7,"items":[{"name":"하모니마트(고잔점)","tel":"041-564-4774","addr":"경기도 안산시 단원구 고잔동 684-4번지 1층 101호","indutype":"유통업 영리 - 슈퍼마켓","category":"mart"}]},{"lat":"37.3247037612","long":"126.8253860702","imageIndex":7,"items":[{"name":"한국유통","tel":"031-482-1694","addr":"경기도 안산시 단원구 고잔동 576번지 정원빌라","indutype":"도매 및 소매업 - 슈퍼","category":"mart"}]},{"lat":"37.324703761","long":"126.82538607","imageIndex":7,"items":[{"name":"한국유통","tel":"031-482-1694","addr":"경기도 안산시 단원구 고잔동 576번지 정원상가 지하층","indutype":"유통업 영리 - 슈퍼마켓","category":"mart"}]},{"lat":"37.3152292125","long":"126.8221932502","imageIndex":7,"items":[{"name":"한국유통 고잔역점","tel":"","addr":"경기도 안산시 단원구 고잔동 681번지","indutype":"도매 및 소매업 - 슈퍼마켓","category":"mart"}]},{"lat":"37.319893154","long":"126.83207618","imageIndex":7,"items":[{"name":"한국유통 시청점","tel":"031-402-4980","addr":"경기도 안산시 단원구 고잔동 527-3번지 1층 102,103호","indutype":"유통업 영리 - 슈퍼마켓","category":"mart"}]},{"lat":"37.313504191","long":"126.83157172","imageIndex":7,"items":[{"name":"한살림경기남부생활협동조합안산매장","tel":"031-405-6253","addr":"경기도 안산시 단원구 고잔동 726-9번지 그린타운 1층 109호","indutype":"유통업 영리 - 슈퍼마켓","category":"mart"}]},{"lat":"37.3255089107","long":"126.8215819451","imageIndex":7,"items":[{"name":"한양마트","tel":"031-486-2743","addr":"경기도 안산시 단원구 고잔동 661-3번지","indutype":"도매 및 소매업 - 슈퍼마켓","category":"mart"}]},{"lat":"37.325508911","long":"126.82158195","imageIndex":7,"items":[{"name":"한양마트","tel":"031-486-2743","addr":"경기도 안산시 단원구 고잔동 661-3번지 현대아트빌라 상가 106호 107호","indutype":"유통업 영리 - 슈퍼마켓","category":"mart"},{"name":"한양슈퍼","tel":"031-486-2743","addr":"경기도 안산시 단원구 고잔동 661-3,107","indutype":"유통업 영리 - 슈퍼마켓","category":"mart"}]},{"lat":"37.317867352","long":"126.83951523","imageIndex":7,"items":[{"name":"한일슈퍼","tel":"031-484-2509","addr":"경기도 안산시 단원구 고잔동 540-5번지 한일빌딩 111호","indutype":"유통업 영리 - 슈퍼마켓","category":"mart"}]},{"lat":"37.314699244","long":"126.82326621","imageIndex":7,"items":[{"name":"해피마트","tel":"031-482-4568","addr":"경기도 안산시 단원구 고잔동 682-6번지 신우빌딩 101동 102호","indutype":"유통업 영리 - 슈퍼마켓","category":"mart"}]},{"lat":"37.322449998","long":"126.83696684","imageIndex":7,"items":[{"name":"형제슈퍼","tel":"031-480-7298","addr":"경기도 안산시 단원구 고잔동 674-1번지 주공5단지 상가 가동 103호","indutype":"유통업 영리 - 슈퍼마켓","category":"mart"}]},{"lat":"37.330002466","long":"126.83834935","imageIndex":7,"items":[{"name":"홈W마트","tel":"031-413-0097","addr":"경기도 안산시 단원구 고잔동 634번지","indutype":"유통업 영리 - 슈퍼마켓","category":"mart"}]},{"lat":"37.3300024661","long":"126.8383493534","imageIndex":7,"items":[{"name":"홈더블마트","tel":"031-413-0097","addr":"경기도 안산시 단원구 고잔동 634번지","indutype":"도매 및 소매업 - 정육,슈퍼,담배","category":"mart"}]}]