[{"lat":"37.328700428","long":"126.92023343","imageIndex":16,"items":[{"name":"(ZENA)그림공작소미술교습소","tel":"070-7727-8536","addr":"경기도 군포시 대야미동 652-1번지 1층 일부","indutype":"학원 - 예·체능계학원","category":"study"}]},{"lat":"37.329228374","long":"126.91515544","imageIndex":16,"items":[{"name":"군포대야초등학교병설유치원[아이행복]","tel":"031-501-4066","addr":"경기도 군포시 대야미동 220-4번지 대야초등학교","indutype":"학원 - 유치원","category":"study"}]},{"lat":"37.331976521","long":"126.91520866","imageIndex":16,"items":[{"name":"군포시립대야동아이파크어린이집[아이행복]","tel":"031-502-7907","addr":"경기도 군포시 대야미동 636-3번지","indutype":"학원 - 유아원","category":"study"},{"name":"백선생중국어교습소","tel":"","addr":"경기도 군포시 대야미동 636-3번지 제지1층 104호 센트럴아이파트 상가","indutype":"학원 - 외국어학원","category":"study"},{"name":"아카데미창대야미논술교습소","tel":"031-502-3409","addr":"경기도 군포시 대야미동 636-3번지 제상가동제지 1층 114호","indutype":"학원 - 보습학원","category":"study"},{"name":"잉글리시아이 대야초점영어교습소","tel":"031-501-8070","addr":"경기도 군포시 대야미동 636-3번지 센트럴아이파트 103호","indutype":"학원 - 외국어학원","category":"study"}]},{"lat":"37.332229463","long":"126.91609977","imageIndex":16,"items":[{"name":"그랑필 무용학원","tel":"031-437-2741","addr":"경기도 군포시 대야미동 637-6번지 영인빌딩 3층","indutype":"학원 - 예·체능계학원","category":"study"}]},{"lat":"37.333976864","long":"126.91531917","imageIndex":16,"items":[{"name":"달개비숲","tel":"","addr":"경기도 군포시 대야미동 634-3번지 미래해피빌 402호","indutype":"학원 - 기타 교육기관","category":"study"}]},{"lat":"37.325201593","long":"126.91620939","imageIndex":16,"items":[{"name":"대림해법영수학원","tel":"031-438-7992","addr":"경기도 군포시 대야미동 667-3번지 군포대야미이편한세상 상가 102.103호","indutype":"학원 - 보습학원","category":"study"},{"name":"예솜어린이집[아이행복]","tel":"031-438-5579","addr":"경기도 군포시 대야미동 667-3번지 군포대야미 이-편한세상 관리동어린이집","indutype":"학원 - 유아원","category":"study"},{"name":"월드태권도","tel":"031-502-7999","addr":"경기도 군포시 대야미동 667-3번지 군포대야미이-편한세상 201~203호","indutype":"학원 - 예·체능계학원","category":"study"}]},{"lat":"37.326725421","long":"126.91773082","imageIndex":16,"items":[{"name":"대야미마을협동조합","tel":"031-502-0689","addr":"경기도 군포시 대야미동 660-2번지 송천빌딩 201호","indutype":"학원 - 기타 교육기관","category":"study"}]},{"lat":"37.330536175","long":"126.91695925","imageIndex":16,"items":[{"name":"대야자연어린이집[아이행복]","tel":"031-502-0505","addr":"경기도 군포시 대야미동 642-9번지","indutype":"학원 - 유아원","category":"study"}]},{"lat":"37.328565118","long":"126.92000792","imageIndex":16,"items":[{"name":"대야행복한어린이집[아이행복]","tel":"031-501-8116","addr":"경기도 군포시 대야미동 652-5번지 ,6","indutype":"학원 - 유아원","category":"study"}]},{"lat":"37.329481737","long":"126.91662196","imageIndex":16,"items":[{"name":"드래곤 짐 합기도","tel":"031-416-6566","addr":"경기도 군포시 대야미동 644-7번지 3층","indutype":"학원 - 예·체능계학원","category":"study"}]},{"lat":"37.331896161","long":"126.9162017","imageIndex":16,"items":[{"name":"뮤엠영어잇츠수학학원","tel":"031-501-8988","addr":"경기도 군포시 대야미동 639-1번지 현대프라자 301호","indutype":"회원제형태 - 학원","category":"study"},{"name":"필음악학원","tel":"031-501-7116","addr":"경기도 군포시 대야미동 639-1번지 현대프라자 202호","indutype":"학원 - 예·체능계학원","category":"study"},{"name":"필음악학원","tel":"031-501-7116","addr":"경기도 군포시 대야미동 639-1번지 현대프라자 202호","indutype":"학원 - 예·체능계학원","category":"study"}]},{"lat":"37.327870176","long":"126.91837266","imageIndex":16,"items":[{"name":"뮤직컴스토리","tel":"","addr":"경기도 군포시 대야미동 654-13번지 현대프라자 402호","indutype":"회원제형태 - 학원","category":"study"}]},{"lat":"37.325372588","long":"126.91593842","imageIndex":16,"items":[{"name":"비상 잉글리시아이 대야미점","tel":"031-000-0000","addr":"경기도 군포시 대야미동 667-3번지 군포대야미이-편한세상 107동 101호","indutype":"학원 - 기타 교육기관","category":"study"}]},{"lat":"37.333156854","long":"126.91520729","imageIndex":16,"items":[{"name":"삼성영어대야학원","tel":"031-502-3409","addr":"경기도 군포시 대야미동 636-3번지 112,113호","indutype":"학원 - 외국어학원","category":"study"},{"name":"삼성영어대야학원(수학)","tel":"031-502-3409","addr":"경기도 군포시 대야미동 636-3번지 112,113호","indutype":"학원 - 보습학원","category":"study"}]},{"lat":"37.326951177","long":"126.9184301","imageIndex":16,"items":[{"name":"새중앙요양보호사교육원","tel":"070-7674-8291","addr":"경기도 군포시 대야미동 657-1번지 대성프라자 404,405호","indutype":"학원 - 기능학원","category":"study"}]},{"lat":"37.328482788","long":"126.91825914","imageIndex":16,"items":[{"name":"샘물공동육아어린이집[아이행복]","tel":"031-437-3212","addr":"경기도 군포시 대야미동 648-11번지","indutype":"학원 - 유아원","category":"study"}]},{"lat":"37.324732532","long":"126.91548785","imageIndex":16,"items":[{"name":"손놀이터","tel":"070-8242-3701","addr":"경기도 군포시 대야미동 667-3번지 군포대야미이-편한세상","indutype":"학원 - 기타 교육기관","category":"study"}]},{"lat":"37.331958776","long":"126.91558104","imageIndex":16,"items":[{"name":"숲속해밀어린이집[아이행복]","tel":"031-501-4774","addr":"경기도 군포시 대야미동 636-3번지 현대센트럴아이파크 106동 101호","indutype":"학원 - 유아원","category":"study"}]},{"lat":"37.325706518","long":"126.91669397","imageIndex":16,"items":[{"name":"아이꿈어린이집[아이행복]","tel":"031-502-8870","addr":"경기도 군포시 대야미동 대림e-편한세상","indutype":"학원 - 유아원","category":"study"}]},{"lat":"37.32989655","long":"126.91709538","imageIndex":16,"items":[{"name":"아이사랑아트센터","tel":"031-502-3693","addr":"경기도 군포시 대야미동 645-8번지 2층","indutype":"학원 - 예·체능계학원","category":"study"}]},{"lat":"37.330309946","long":"126.91562808","imageIndex":16,"items":[{"name":"이현희음악학원","tel":"031-502-3502","addr":"경기도 군포시 대야미동 636-8번지 2층","indutype":"학원 - 예·체능계학원","category":"study"}]},{"lat":"37.326563157","long":"126.91761817","imageIndex":16,"items":[{"name":"중앙석사태권도","tel":"031-437-8581","addr":"경기도 군포시 대야미동 660-3번지 3층","indutype":"학원 - 예·체능계학원","category":"study"}]},{"lat":"37.325093322","long":"126.91600643","imageIndex":16,"items":[{"name":"피아노숲뮤직피아노교습소","tel":"031-501-5355","addr":"경기도 군포시 대야미동 667-5 군포대야미이편한세상상가동204,205호","indutype":"학원 - 예·체능계학원","category":"study"}]}]