[{"lat":"37.606032398","long":"127.13875724","imageIndex":17,"items":[{"name":"#Mini (미니샵)","tel":"031-577-4747","addr":"경기도 구리시 인창동 343-15번지 거성빌라 1층 101호","indutype":"의류 - 정장","category":"other"}]},{"lat":"37.618394352","long":"127.13825871","imageIndex":17,"items":[{"name":"(사법)구리문화원","tel":"031-557-6383","addr":"경기도 구리시 인창동 56-36","indutype":"문화.취미 - 문화취미기타","category":"other"}]},{"lat":"37.602701704","long":"127.14394905","imageIndex":17,"items":[{"name":"(주) 별빛투어","tel":"031-550-7681","addr":"경기도 구리시 인창동 677번지 롯데백화점구리점 8층","indutype":"여행 - 관광여행","category":"other"},{"name":"에벤에셀","tel":"031-550-7389","addr":"경기도 구리시 인창동 677번지 GS스퀘어 3층","indutype":"수리서비스 - 세탁소","category":"other"},{"name":"옷수선","tel":"031-550-7489","addr":"경기도 구리시 인창동 677번지 롯데백화점 4층","indutype":"수리서비스 - 세탁소","category":"other"}]},{"lat":"37.611646932","long":"127.13748766","imageIndex":17,"items":[{"name":"(주) 영인","tel":"031-554-1700","addr":"경기도 구리시 인창동 450-9번지 3층 좌측","indutype":"의류 - 정장","category":"other"},{"name":"아비투스샵","tel":"031-565-9136","addr":"경기도 구리시 인창동 450-9번지 인창450-9,450-1,450-8,450-17","indutype":"레져용품 - 스포츠·레져용품","category":"other"},{"name":"하나네트관광 주식회사","tel":"031-564-1600","addr":"경기도 구리시 인창동 450-9번지 2층","indutype":"여행 - 관광여행","category":"other"}]},{"lat":"37.605389252","long":"127.13384114","imageIndex":17,"items":[{"name":"(주)가나정보통신","tel":"0031-0567-0016","addr":"경기도 구리시 인창동 527-30번지 KT대리점 1층","indutype":"별도관리 - 자체물품대금","category":"other"},{"name":"(주)가나정보통신","tel":"0031-0563-4900","addr":"경기도 구리시 인창동 527-30번지 1층","indutype":"별도관리 - 자체물품대금","category":"other"},{"name":"에넥스구리디샵","tel":"031-552-7200","addr":"경기도 구리시 인창동 527-30번지","indutype":"주방용구 - 주방용구","category":"other"},{"name":"주원","tel":"070-4400-5532","addr":"경기도 구리시 인창동 527-30번지 2층","indutype":"주방용구 - 주방용구","category":"other"}]},{"lat":"37.620833128","long":"127.14073243","imageIndex":17,"items":[{"name":"(주)가온산업","tel":"031-566-1233","addr":"경기도 구리시 인창동 14-13번지 101호","indutype":"용역 서비스 - 기타용역서비스","category":"other"},{"name":"대호전기LED조명","tel":"031-555-4519","addr":"경기도 구리시 인창동 14-13번지","indutype":"건축자재 - 조명기구","category":"other"}]},{"lat":"37.611647084","long":"127.14504188","imageIndex":17,"items":[{"name":"(주)거송유통","tel":"031-568-8365","addr":"경기도 구리시 인창동 127번지 산물동 11436호","indutype":"유통업 영리 - 농축수산 가공품","category":"other"},{"name":"(주)동신유통","tel":"031-551-4708","addr":"경기도 구리시 인창동 127번지 219호","indutype":"유통업 영리 - 농축수산 가공품","category":"other"},{"name":"(주)큰바위문화복지","tel":"031-567-0439","addr":"경기도 구리시 인창동 127번지 구리농수산물도매시장내3층 53147호","indutype":"유통업 영리 - 기타유통업","category":"other"},{"name":"광명유통(주)","tel":"031-552-5923","addr":"경기도 구리시 인창동 127번지 구리농수산물시장 268호","indutype":"유통업 영리 - 농축수산 가공품","category":"other"},{"name":"대영유통(주)","tel":"031-555-6066","addr":"경기도 구리시 인창동 127번지 농산물도매시장 428호","indutype":"유통업 영리 - 농축수산 가공품","category":"other"},{"name":"도영유통(주)","tel":"031-554-0982","addr":"경기도 구리시 인창동 127번지 농협과일 32","indutype":"유통업 영리 - 농축수산 가공품","category":"other"},{"name":"디지털웨이브","tel":"070-8864-3706","addr":"경기도 구리시 인창동 127 구리농수산물시장3층구리시벤처창업보육센터 310","indutype":"사무통신 - 컴퓨터","category":"other"},{"name":"백번청과(주)","tel":"031-555-5277","addr":"경기도 구리시 인창동 127번지 46","indutype":"유통업 영리 - 농축수산 가공품","category":"other"},{"name":"법사랑 구리지구협의회","tel":"031-557-6677","addr":"경기도 구리시 인창동 127번지 구리농수산물도매시장청과 303호","indutype":"기타 - 기타 전문점","category":"other"},{"name":"부여청과(주)","tel":"031-567-6784","addr":"경기도 구리시 인창동 127번지 농협 8호","indutype":"유통업 영리 - 농축수산 가공품","category":"other"},{"name":"삼웅농산(주)","tel":"031-565-0509","addr":"경기도 구리시 인창동 127번지 구리농수산물시장 509호","indutype":"유통업 영리 - 농축수산 가공품","category":"other"},{"name":"성주청과(주)","tel":"031-557-3432","addr":"경기도 구리시 인창동 127번지 구리농수산물도매시장 14호","indutype":"유통업 영리 - 농축수산 가공품","category":"other"},{"name":"신광청과(주)","tel":"031-555-6293","addr":"경기도 구리시 인창동 191번지 농수산물도매시장 132","indutype":"유통업 영리 - 농축수산 가공품","category":"other"},{"name":"신동세무회계사무소","tel":"031-556-0586","addr":"경기도 구리시 인창동 127번지","indutype":"용역 서비스 - 법률회계서비스(개인)","category":"other"},{"name":"싱그린농산 주식회사","tel":"031-556-4838","addr":"경기도 구리시 인창동 127번지 구리농수산물도매시장 259호","indutype":"유통업 영리 - 농축수산 가공품","category":"other"},{"name":"싱싱농산(주)","tel":"031-557-7152","addr":"경기도 구리시 인창동 127번지 구리농수산물도매시장 241호","indutype":"유통업 영리 - 농축수산 가공품","category":"other"},{"name":"쏠라닉스","tel":"031-576-2050","addr":"경기도 구리시 인창동 127번지 구리농수산물도매시장청과동창업보육센터 3층 301호","indutype":"사무통신 - 컴퓨터","category":"other"},{"name":"씨유구리도매시장점","tel":"080-080-3663","addr":"경기도 구리시 인창동 127번지 구리농수산물도매시장 과동 2층 52143호","indutype":"유통업 영리 - 편 의 점","category":"other"},{"name":"아이엠컴퓨터","tel":"031-566-4272","addr":"경기도 구리시 인창동 127번지","indutype":"사무통신 - 컴퓨터","category":"other"},{"name":"에이스","tel":"031-1544-3785","addr":"경기도 구리시 인창동 127번지 구리농산물도매시장 내청과동 3층 53119호","indutype":"사무통신 - 통신기기","category":"other"},{"name":"에이스","tel":"0000-1544-3785","addr":"경기도 구리시 인창동 127번지 구리농산물도매시장 내청과동 3층 53119호","indutype":"별도관리 - 자체물품대금","category":"other"},{"name":"여미지청과주식회사","tel":"031-552-5100","addr":"경기도 구리시 인창동 127번지 인터넷청과 과일 102호","indutype":"유통업 영리 - 농축수산 가공품","category":"other"},{"name":"용문청과(주)","tel":"031-556-0485","addr":"경기도 구리시 인창동 191구리농수산물시장65","indutype":"유통업 영리 - 농축수산 가공품","category":"other"},{"name":"웨이브링크(주)","tel":"031-566-4004","addr":"경기도 구리시 인창동 127번지 구리농수산물도매시장 2층 52135호","indutype":"주방용구 - 주방용구","category":"other"},{"name":"은광청과(주)","tel":"031-567-0382","addr":"경기도 구리시 인창동 127번지","indutype":"유통업 영리 - 농축수산 가공품","category":"other"},{"name":"장원농산(주)","tel":"","addr":"경기도 구리시 인창동 127번지 구리농수산물도매시장439","indutype":"유통업 영리 - 농축수산 가공품","category":"other"},{"name":"주식회사맛향청과유통","tel":"031-555-7741","addr":"경기도 구리시 인창동 127구리농수산물시장69","indutype":"유통업 영리 - 농축수산 가공품","category":"other"},{"name":"주식회사우리얼음","tel":"031-569-2230","addr":"경기도 구리시 인창동 127번지 구리농수산물도매시장내기타동1층82004호","indutype":"유통업 영리 - 기타유통업","category":"other"},{"name":"주식회사참센전기자전거","tel":"031-557-5335","addr":"경기도 구리시 인창동 127 구리농수산물도매시장3층구리벤처창업보육센터 306","indutype":"레져용품 - 스포츠·레져용품","category":"other"},{"name":"창보유통(주)","tel":"031-557-5356","addr":"경기도 구리시 인창동 191구리농수산물시장68","indutype":"유통업 영리 - 농축수산 가공품","category":"other"},{"name":"칠성청과(주)","tel":"031-568-3088","addr":"경기도 구리시 인창동 127번지 19","indutype":"유통업 영리 - 농축수산 가공품","category":"other"},{"name":"하루청과 주식회사","tel":"031-554-2625","addr":"경기도 구리시 인창동 127번지 인터넷청과(과일) 127호","indutype":"유통업 영리 - 농축수산 가공품","category":"other"},{"name":"한국얼음","tel":"031-562-3515","addr":"경기도 구리시 인창동 127번지 구리농수산물공사 수산2동 앞","indutype":"유통업 영리 - 기타유통업","category":"other"},{"name":"해성유통주식회사","tel":"031-553-1045","addr":"경기도 구리시 인창동 127번지","indutype":"유통업 영리 - 농축수산 가공품","category":"other"},{"name":"햇살인테리어","tel":"","addr":"경기도 구리시 인창동 127번지 청과동 3층 53131호","indutype":"건축자재 - 인테리어전문","category":"other"},{"name":"홍성청과(주)","tel":"031-557-0204","addr":"경기도 구리시 인창동 127번지 구리농수산물시장 204호","indutype":"유통업 영리 - 농축수산 가공품","category":"other"}]},{"lat":"37.61200465","long":"127.13981008","imageIndex":17,"items":[{"name":"(주)그린투모로우","tel":"031-562-0088","addr":"경기도 구리시 인창동 701번지 아이원로데오타운 A동 103호","indutype":"사무통신 - 컴퓨터","category":"other"},{"name":"(주)신세계렌트카","tel":"031-552-1414","addr":"경기도 구리시 인창동 701번지 아이원패션로데오타운 A동 201호","indutype":"여행 - 렌터카","category":"other"},{"name":"더 좋은여행","tel":"031-566-7856","addr":"경기도 구리시 인창동 701번지 아이원패션로데오타운 A동 205호","indutype":"여행 - 관광여행","category":"other"},{"name":"사다새","tel":"031-565-8003","addr":"경기도 구리시 인창동 701번지 아이원패션로데오타운 A동 2층 211호","indutype":"사무통신 - 컴퓨터","category":"other"},{"name":"윈도우스토리 구리인창점","tel":"031-563-8466","addr":"경기도 구리시 인창동 701번지 아이원패션로데오타운 A동 2층 202호","indutype":"직물 - 카페트,커튼,천막,지물","category":"other"},{"name":"인터텔레콤","tel":"02-1644-9776","addr":"경기도 구리시 인창동 701번지 아이원패션로데오타운 A동 210호","indutype":"사무통신 - 통신기기","category":"other"}]},{"lat":"37.60133622","long":"127.14056056","imageIndex":17,"items":[{"name":"(주)뷰티라이프그룹","tel":"070-7594-2442","addr":"경기도 구리시 인창동 266-8번지 흥화브라운오피스텔 616호","indutype":"신변잡화 - 기타잡화","category":"other"},{"name":"자연미","tel":"031-562-3259","addr":"경기도 구리시 인창동 266-8번지 흥화브라운오피스텔 309.310호","indutype":"회원제형태 - 기타4","category":"other"},{"name":"젤라(JELLA)","tel":"031-564-8546","addr":"경기도 구리시 인창동 266-8번지 흥화브라운오피스텔 309호~310호","indutype":"회원제형태 - 기타4","category":"other"},{"name":"참편한세상","tel":"031-511-6212","addr":"경기도 구리시 인창동 266-8번지 홍화브라운오피스텔 804호","indutype":"주방용구 - 주방용구","category":"other"}]},{"lat":"37.604309146","long":"127.14081518","imageIndex":17,"items":[{"name":"(주)세림전자시스템","tel":"070-8242-4900","addr":"경기도 구리시 인창동 670-9번지 세신리빙프라자 708호","indutype":"사무통신 - 통신기기","category":"other"},{"name":"(주)제일렌트카구리지점","tel":"031-569-0180","addr":"경기도 구리시 인창동 670-9번지 세신리빙프라자제비 103호","indutype":"여행 - 렌터카","category":"other"},{"name":"The she's","tel":"031-558-6032","addr":"경기도 구리시 인창동 670-9번지 세신리빙 상가 104호","indutype":"의류 - 정장","category":"other"},{"name":"도서출판보는소리","tel":"031-512-3329","addr":"경기도 구리시 인창동 670-9번지 세신리빙프라자 907호","indutype":"서적문구 - 일반서적","category":"other"},{"name":"디자인허브","tel":"02-2268-8563","addr":"경기도 구리시 인창동 670-9번지 세신리빙프라자 704호","indutype":"서적문구 - 출판 및 인쇄물","category":"other"},{"name":"미디어주노","tel":"031-551-0807","addr":"경기도 구리시 인창동 670-9번지 세신리빙프라자 406,407호","indutype":"용역 서비스 - 종합용역","category":"other"},{"name":"법무사김영철사무소","tel":"031-552-1181","addr":"경기도 구리시 인창동 670-9 세신리빙프라자 4층 408호~410호","indutype":"용역 서비스 - 법률회계서비스(개인)","category":"other"},{"name":"법무사최종태사무소","tel":"031-566-1442","addr":"경기도 구리시 인창동 670-9번지 세신리빙프라자 7층 706호","indutype":"용역 서비스 - 법률회계서비스(개인)","category":"other"},{"name":"세림전자시스템","tel":"070-8242-4900","addr":"경기도 구리시 인창동 670-9번지 세신리빙프라자 708호","indutype":"사무통신 - 통신기기","category":"other"},{"name":"오르다코리아구리,하남지사","tel":"031-568-4021","addr":"경기도 구리시 인창동 670-9번지 세신리빙프라자 505호","indutype":"회원제형태 - 서적","category":"other"},{"name":"온땅가득","tel":"070-8240-5975","addr":"경기도 구리시 인창동 670-9번지 세신리빙프라자 B107호","indutype":"서적문구 - 출판 및 인쇄물","category":"other"},{"name":"장인 손","tel":"031-551-1555","addr":"경기도 구리시 인창동 670-9번지 세신리빙프라자 103호","indutype":"수리서비스 - 신변잡화수리","category":"other"},{"name":"주식회사 행복한여행","tel":"070-8233-5695","addr":"경기도 구리시 인창동 670-9번지 세신리빙프라자 701호","indutype":"여행 - 관광여행","category":"other"},{"name":"쿰비전코칭센터","tel":"","addr":"경기도 구리시 인창동 670-9번지 세신리빙프라자 5층 508호","indutype":"용역 서비스 - 사무서비스","category":"other"}]},{"lat":"37.601533255","long":"127.14156877","imageIndex":17,"items":[{"name":"(주)세이브커뮤니케이션","tel":"031-567-8107","addr":"경기도 구리시 인창동 676-1번지 리맥스빌딩 2층 245호","indutype":"여행 - 관광여행","category":"other"},{"name":"e착한학생복경기1호점","tel":"031-563-0666","addr":"경기도 구리시 인창동 676-1번지 두진에코엑스 369호 370호","indutype":"의류 - 정장","category":"other"},{"name":"골드라인","tel":"031-555-6376","addr":"경기도 구리시 인창동 676-1번지 두진에코멕스지상 1층 138호","indutype":"신변잡화 - 기타잡화","category":"other"},{"name":"구리수족관","tel":"031-555-3399","addr":"경기도 구리시 인창동 676-1번지 두진에코맥스 109호","indutype":"문화.취미 - 수족관","category":"other"},{"name":"구리중고폰매입 소녀폰","tel":"031-565-4959","addr":"경기도 구리시 인창동 676-1번지 두진에코맥스 1층 112호","indutype":"사무통신 - 통신기기","category":"other"},{"name":"꾸미오-몰","tel":"","addr":"경기도 구리시 인창동 676-1번지 리맥스빌딩 102호","indutype":"의류 - 정장","category":"other"},{"name":"더스타일","tel":"031-563-3242","addr":"경기도 구리시 인창동 676-1번지 두진에코맥스 1층 115호","indutype":"의류 - 정장","category":"other"},{"name":"동부연합주식회사","tel":"0002-0986-4300","addr":"경기도 구리시 인창동 676-1번지 리맥스빌딩 1층","indutype":"별도관리 - 자체물품대금","category":"other"},{"name":"라오누리","tel":"031-516-5720","addr":"경기도 구리시 인창동 676-1번지 두진에코맥스 1층 137호","indutype":"의류 - 정장","category":"other"},{"name":"레이디벅스","tel":"031-567-3758","addr":"경기도 구리시 인창동 676-1번지 리맥스빌딩 269호","indutype":"의류 - 정장","category":"other"},{"name":"리맥스관리단","tel":"031-512-6200","addr":"경기도 구리시 인창동 676-1번지 리맥스빌딩 지하4층","indutype":"용역 서비스 - 종합용역","category":"other"},{"name":"리맥스스튜디오","tel":"031-514-0120","addr":"경기도 구리시 인창동 676-1번지 두진에코맥스 103호","indutype":"광학제품 - 사진관","category":"other"},{"name":"미가엘","tel":"031-512-1252","addr":"경기도 구리시 인창동 676-1번지 두진에코맥스 230호","indutype":"신변잡화 - 기타잡화","category":"other"},{"name":"미리내","tel":"031-567-9019","addr":"경기도 구리시 인창동 676-1번지","indutype":"의류 - 내의판매","category":"other"},{"name":"미쉘원","tel":"031-555-4815","addr":"경기도 구리시 인창동 676-1번지 두진에코맥스 206호","indutype":"의류 - 정장","category":"other"},{"name":"바니스","tel":"031-566-2225","addr":"경기도 구리시 인창동 676-1번지 두진에코맥스 1층 110호","indutype":"신변잡화 - 가방","category":"other"},{"name":"바니스뉴욕","tel":"031-566-2225","addr":"경기도 구리시 인창동 676-1번지 리맥스빌딩 113호","indutype":"신변잡화 - 신발","category":"other"},{"name":"법무법인 정언","tel":"031-565-3300","addr":"경기도 구리시 인창동 676-1번지 두진에코맥스 7층 707호~708호","indutype":"용역 서비스 - 법률회계서비스(법인)","category":"other"},{"name":"블루페페","tel":"031-562-0336","addr":"경기도 구리시 인창동 676-1번지 두진에코맥스 235호","indutype":"의류 - 정장","category":"other"},{"name":"수경이네","tel":"","addr":"경기도 구리시 인창동 676-1번지 리맥스빌딩 118호","indutype":"의류 - 정장","category":"other"},{"name":"수제화","tel":"031-511-3846","addr":"경기도 구리시 인창동 676-1번지 리맥스타운내판매시설1층 32호","indutype":"신변잡화 - 제화","category":"other"},{"name":"스칼렛","tel":"031-514-4279","addr":"경기도 구리시 인창동 676-1번지 리맥스 2층 230호","indutype":"의류 - 정장","category":"other"},{"name":"시크릿해븐","tel":"031-563-8740","addr":"경기도 구리시 인창동 676-1번지 리멕스타운 216호","indutype":"신변잡화 - 기타잡화","category":"other"},{"name":"십자수매니아","tel":"031-568-0338","addr":"경기도 구리시 인창동 676-1두진에코맥스247.256","indutype":"직물 - 침구·수예점","category":"other"},{"name":"아모르 쥬얼리 (Amor)","tel":"","addr":"경기도 구리시 인창동 676-1번지 리맥스빌딩 124호","indutype":"신변잡화 - 액세서리","category":"other"},{"name":"아이폰리페어 구리 아이폰수리센터","tel":"","addr":"경기도 구리시 인창동 676-1번지 두진에코맥스 1층 129호","indutype":"사무통신 - 통신기기","category":"other"},{"name":"엘레강스","tel":"031-516-6433","addr":"경기도 구리시 인창동 676-1번지 두진에코멕스빌딩 2층 224호","indutype":"의류 - 내의판매","category":"other"},{"name":"예은","tel":"031-554-1726","addr":"경기도 구리시 인창동 676-1번지 리맥스빌딩 218호","indutype":"의류 - 정장","category":"other"},{"name":"올리브","tel":"031-564-3514","addr":"경기도 구리시 인창동 676-1번지 리맥스타운 2층 217호","indutype":"의류 - 정장","category":"other"},{"name":"요안나","tel":"031-564-0801","addr":"경기도 구리시 인창동 676-1번지 두진에코맥스 2층 234동 235호","indutype":"의류 - 정장","category":"other"},{"name":"유럽풍십자수","tel":"031-562-3616","addr":"경기도 구리시 인창동 676-1번지 리맥스빌딩 1층 42호","indutype":"직물 - 침구·수예점","category":"other"},{"name":"유진상회","tel":"031-552-1158","addr":"경기도 구리시 인창동 676-1번지 리맥스빌딩 1층 125호","indutype":"신변잡화 - 신발","category":"other"},{"name":"은가비","tel":"031-554-1015","addr":"경기도 구리시 인창동 676-1번지 두진에코맥스 222호","indutype":"의류 - 정장","category":"other"},{"name":"이스트밸리","tel":"031-565-1170","addr":"경기도 구리시 인창동 676-1리맥스빌딩1층27","indutype":"의류 - 스포츠의류","category":"other"},{"name":"인테리어소품","tel":"031-568-6616","addr":"경기도 구리시 인창동 676-1번지 두진에코맥스 204호","indutype":"신변잡화 - 기타잡화","category":"other"},{"name":"잔디","tel":"031-553-3500","addr":"경기도 구리시 인창동 676-1번지","indutype":"의류 - 내의판매","category":"other"},{"name":"쟈스민","tel":"031-512-1252","addr":"경기도 구리시 인창동 676-1번지 리맥스빌딩 2층 231호","indutype":"의류 - 정장","category":"other"},{"name":"제이제이","tel":"031-563-1132","addr":"경기도 구리시 인창동 676-1번지 두진에코멕스 141호","indutype":"신변잡화 - 액세서리","category":"other"},{"name":"주식회사 대성","tel":"031-567-0501","addr":"경기도 구리시 인창동 676-1번지 리맥스빌딩 202호","indutype":"의류 - 정장","category":"other"},{"name":"책나라서점","tel":"031-555-0988","addr":"경기도 구리시 인창동 676-1번지 두진에코맥스제2층212,213,269호","indutype":"서적문구 - 일반서적","category":"other"},{"name":"콩쥐","tel":"031-513-3583","addr":"경기도 구리시 인창동 676-1번지 두진에코맥스 101호","indutype":"의류 - 정장","category":"other"},{"name":"탑센스","tel":"031-552-5992","addr":"경기도 구리시 인창동 676-1번지 리맥스빌딩 1층 121호","indutype":"신변잡화 - 액세서리","category":"other"},{"name":"푸시케","tel":"031-565-1170","addr":"경기도 구리시 인창동 676-1번지 리맥스빌딩 127호","indutype":"의류 - 정장","category":"other"},{"name":"핑크리본","tel":"031-557-7743","addr":"경기도 구리시 인창동 676-1번지 리맥스빌딩 123호","indutype":"신변잡화 - 기타잡화","category":"other"},{"name":"한솔여행사","tel":"031-567-2222","addr":"경기도 구리시 인창동 676-1번지 두진에코멕스 2동 238호","indutype":"여행 - 관광여행","category":"other"},{"name":"해라","tel":"031-512-2535","addr":"경기도 구리시 인창동 676-1번지 리맥스빌딩 2층 267호","indutype":"의류 - 정장","category":"other"},{"name":"현갤러리","tel":"031-562-0336","addr":"경기도 구리시 인창동 676-1번지 두진에코맥스 2층 234호","indutype":"의류 - 기타의류","category":"other"},{"name":"현숙패션","tel":"031-558-5587","addr":"경기도 구리시 인창동 676-1번지 두진에코맥스 209호","indutype":"의류 - 정장","category":"other"},{"name":"화인(FINE)","tel":"031-558-1201","addr":"경기도 구리시 인창동 676-1번지 두진에코맥스 1층 116호","indutype":"의류 - 기타의류","category":"other"}]},{"lat":"37.603393004","long":"127.13025913","imageIndex":17,"items":[{"name":"(주)씨이오인사이트그룹 (CEOINSIGHTGROUP","tel":"02-6959-5122","addr":"경기도 구리시 인창동 713번지 구리더샵그린포레1단지상가 지2층 비207호","indutype":"용역 서비스 - 사무서비스","category":"other"},{"name":"반값창고","tel":"","addr":"경기도 구리시 인창동 713번지 구리더샵그린포레1단지상가 G동 2층 비207호","indutype":"신변잡화 - 기타잡화","category":"other"},{"name":"세븐일레븐구리더샵점","tel":"","addr":"경기도 구리시 인창동 713번지 구리더샵그린포레1단지","indutype":"유통업 영리 - 편 의 점","category":"other"},{"name":"예인","tel":"031-564-6959","addr":"경기도 구리시 인창동 713번지 구리더샵그린포레 102동 701호","indutype":"용역 서비스 - 사무서비스","category":"other"},{"name":"펫러버","tel":"031-111-1111","addr":"경기도 구리시 인창동 713번지 구리더샵그린포레1단지 상가동 2층 202호","indutype":"문화.취미 - 애완동물","category":"other"}]},{"lat":"37.60084133","long":"127.14000477","imageIndex":17,"items":[{"name":"(주)액트윈","tel":"031-555-7801","addr":"경기도 구리시 인창동 280-4번지 명동빌딩 306호","indutype":"사무통신 - 통신기기","category":"other"},{"name":"명동열쇠","tel":"","addr":"경기도 구리시 인창동 280-4번지 명동빌딩 1층","indutype":"건축자재 - 목재·석재·철물","category":"other"},{"name":"씨유구리명동점","tel":"080-080-3663","addr":"경기도 구리시 인창동 280-4번지 명동빌딩 112호","indutype":"유통업 영리 - 편 의 점","category":"other"}]},{"lat":"37.621139525","long":"127.14067636","imageIndex":17,"items":[{"name":"(주)정도정보통신","tel":"031-564-1232","addr":"경기도 구리시 인창동 15-3번지 203호","indutype":"용역 서비스 - 기타용역서비스","category":"other"}]},{"lat":"37.604336625","long":"127.1404302","imageIndex":17,"items":[{"name":"(주)커스텀리테일","tel":"031-568-5113","addr":"경기도 구리시 인창동 670-7번지 화성골드프라자 305호","indutype":"신변잡화 - 액세서리","category":"other"},{"name":"구리마음수련회","tel":"031-567-9932","addr":"경기도 구리시 인창동 670-7번지 화성골프프라자 제 1층 405호","indutype":"기타 - 기타 전문점","category":"other"},{"name":"금사랑","tel":"031-552-2888","addr":"경기도 구리시 인창동 670-7번지 화성골드프라자 101호","indutype":"신변잡화 - 액세서리","category":"other"},{"name":"김연우심리상담센타","tel":"031-564-0300","addr":"경기도 구리시 인창동 670-7번지 화성골드프라자 702호","indutype":"회원제형태 - 기타4","category":"other"},{"name":"다름세무회계사무소","tel":"031-566-1500","addr":"경기도 구리시 인창동 670-7번지 화성골드프라자 403호","indutype":"용역 서비스 - 법률회계서비스(개인)","category":"other"},{"name":"엔젤포토","tel":"031-566-4104","addr":"경기도 구리시 인창동 670-7번지 화성골드프라자 201호","indutype":"광학제품 - 사진관","category":"other"},{"name":"우리렌트카주식회사","tel":"031-564-0127","addr":"경기도 구리시 인창동 670-7번지 화성골드프라자 110호","indutype":"여행 - 렌터카","category":"other"},{"name":"주식회사 유토피아","tel":"031-565-9010","addr":"경기도 구리시 인창동 670-7번지 화성골드프라자 1층 112호","indutype":"사무통신 - 통신기기","category":"other"},{"name":"커브스인창클럽","tel":"031-558-3077","addr":"경기도 구리시 인창동 670-7번지 화성골드프라자 202호","indutype":"회원제형태 - 레져업소","category":"other"},{"name":"투앤모바일","tel":"031-554-7500","addr":"경기도 구리시 인창동 670-7번지 화성골드프라자 1층 112호","indutype":"사무통신 - 통신기기","category":"other"},{"name":"팅커벨","tel":"031-564-0330","addr":"경기도 구리시 인창동 670-7번지 화성골드프라자 1층 115호","indutype":"문화.취미 - 화원","category":"other"},{"name":"한나커텐","tel":"031-556-4474","addr":"경기도 구리시 인창동 670-7번지 화성골프프라자 107호","indutype":"직물 - 카페트,커튼,천막,지물","category":"other"}]},{"lat":"37.604751244","long":"127.14028374","imageIndex":17,"items":[{"name":"(주)코네츠/원격지","tel":"031-563-9661","addr":"경기도 구리시 인창동 670-5번지 삼원골드프라자 301호","indutype":"기타 - 기타 전문점","category":"other"},{"name":"가온 법무사사무소","tel":"031-551-4560","addr":"경기도 구리시 인창동 670-5번지 삼원골드프라자 8층 808호","indutype":"용역 서비스 - 법률회계서비스(개인)","category":"other"},{"name":"구리S핫요가","tel":"031-565-0058","addr":"경기도 구리시 인창동 670-5번지 삼원골드프라자 607,608,613,614호","indutype":"회원제형태 - 레져업소","category":"other"},{"name":"그린애드","tel":"031-569-6100","addr":"경기도 구리시 인창동 670-5번지 삼원골드프라자 314호","indutype":"유통업 영리 - 기타유통업","category":"other"},{"name":"금잔디 스크린골프존","tel":"031-568-1598","addr":"경기도 구리시 인창동 670-5번지 삼원골드프라자지하1층","indutype":"회원제형태 - 레져업소","category":"other"},{"name":"미니스톱구리인창점","tel":"02-2103-9500","addr":"경기도 구리시 인창동 670-5,111호~113호","indutype":"유통업 영리 - 편 의 점","category":"other"},{"name":"씨앤씨","tel":"031-557-4333","addr":"경기도 구리시 인창동 670-5번지 삼원골드프라자 114호","indutype":"의류 - 정장","category":"other"},{"name":"엔투피씨 (N2PC)","tel":"070-7724-0528","addr":"경기도 구리시 인창동 670-5번지 삼원골드프라자 B 101-130호","indutype":"수리서비스 - 사무·통신기기수리","category":"other"},{"name":"이즈바","tel":"031-555-0489","addr":"경기도 구리시 인창동 670-5번지 삼원골드프라자 4층 411호","indutype":"문화.취미 - 애완동물","category":"other"},{"name":"좋은잉크굳웰잉크충전","tel":"031-554-3337","addr":"경기도 구리시 인창동 670-5번지 삼원골드 1층 106호","indutype":"사무통신 - 사무용 OA기기","category":"other"},{"name":"주식회사 뉴서울고속관광","tel":"031-555-5080","addr":"경기도 구리시 인창동 670-5번지 삼원골드프라자 714호","indutype":"여행 - 관광여행","category":"other"},{"name":"주식회사 아임뉴 구리지점","tel":"031-565-5551","addr":"경기도 구리시 인창동 670-5번지 207호-212호, 216호-218호","indutype":"용역 서비스 - 사무서비스","category":"other"},{"name":"플래그아트","tel":"031-557-8686","addr":"경기도 구리시 인창동 670-5번지 삼원골드프라자 303호","indutype":"용역 서비스 - 종합용역","category":"other"},{"name":"한복사랑","tel":"031-1111-1111","addr":"경기도 구리시 인창동 670-5번지 삼원골드프라자 3층 302호","indutype":"의류 - 맞춤복점","category":"other"}]},{"lat":"37.602672821","long":"127.12970301","imageIndex":17,"items":[{"name":"12월27일","tel":"02-000-0000","addr":"경기도 구리시 인창동 616-4번지 동부순복음교회 103호","indutype":"의류 - 아동의류","category":"other"}]},{"lat":"37.618034468","long":"127.13781632","imageIndex":17,"items":[{"name":"1급동구자동차공업사","tel":"031-554-9944","addr":"경기도 구리시 인창동 56-3번지","indutype":"기타 - 기계공구","category":"other"}]},{"lat":"37.609944479","long":"127.13714483","imageIndex":17,"items":[{"name":"Bikepool(바이크풀)","tel":"031-558-3001","addr":"경기도 구리시 인창동 408-12번지 1층","indutype":"레져용품 - 스포츠·레져용품","category":"other"},{"name":"스케치","tel":"","addr":"경기도 구리시 인창동 408-12번지 화성빌딩 1층","indutype":"의류 - 정장","category":"other"},{"name":"열방통신","tel":"031-567-1793","addr":"경기도 구리시 인창동 408-12번지 화성빌딩","indutype":"사무통신 - 통신기기","category":"other"},{"name":"토즈멤버십라운지 인창센터","tel":"031-555-4162","addr":"경기도 구리시 인창동 408-12번지 화성빌딩 5층","indutype":"용역 서비스 - 사무서비스","category":"other"},{"name":"한국전화번호모바일주식회사","tel":"031-6323-2083","addr":"경기도 구리시 인창동 408-12번지 화성빌딩","indutype":"용역 서비스 - 소프트웨어","category":"other"}]},{"lat":"37.602724288","long":"127.13209253","imageIndex":17,"items":[{"name":"CCTV렌탈","tel":"031-566-7440","addr":"경기도 구리시 인창동 563-98번지 흥남빌딩 4층","indutype":"용역 서비스 - 기타용역서비스","category":"other"},{"name":"샤인조명전기","tel":"031-553-5537","addr":"경기도 구리시 인창동 563-98번지 빌딩 1층","indutype":"건축자재 - 조명기구","category":"other"},{"name":"주식회사 클로버항공여행사","tel":"031-572-6988","addr":"경기도 구리시 인창동 563-98번지 흥남빌딩 301호","indutype":"여행 - 관광여행","category":"other"},{"name":"클로버기획 주식회사","tel":"031-872-6988","addr":"경기도 구리시 인창동 563-98번지 흥남빌딩 301호","indutype":"여행 - 관광여행","category":"other"},{"name":"토비시스","tel":"070-7716-6182","addr":"경기도 구리시 인창동 563-98번지 흥남빌딩 401호","indutype":"사무통신 - 사무용 OA기기","category":"other"}]},{"lat":"37.606253254","long":"127.1346807","imageIndex":17,"items":[{"name":"D.C.클럽","tel":"031-556-0442","addr":"경기도 구리시 인창동 515-14번지","indutype":"회원제형태 - 기타4","category":"other"}]},{"lat":"37.602145981","long":"127.1336203","imageIndex":17,"items":[{"name":"GS25구리대명점","tel":"","addr":"경기도 구리시 인창동 610-93번지","indutype":"유통업 영리 - 편 의 점","category":"other"},{"name":"강남태양열(주)구리","tel":"031-552-8007","addr":"경기도 구리시 인창동 610-93번지","indutype":"전기제품 - 냉열기기","category":"other"}]},{"lat":"37.601201654","long":"127.14006205","imageIndex":17,"items":[{"name":"GS25구리돌다리점","tel":"","addr":"경기도 구리시 인창동 277-7번지 104호","indutype":"유통업 영리 - 편 의 점","category":"other"},{"name":"더줄리아","tel":"031-565-1201","addr":"경기도 구리시 인창동 277-7번지 2층일부","indutype":"회원제형태 - 기타4","category":"other"}]},{"lat":"37.608255152","long":"127.13312136","imageIndex":17,"items":[{"name":"GS25구리동원점","tel":"","addr":"경기도 구리시 인창동 651-30번지","indutype":"유통업 영리 - 편 의 점","category":"other"},{"name":"더 베스트","tel":"031-566-0335","addr":"경기도 구리시 인창동 651-30번지","indutype":"사무통신 - 통신기기","category":"other"},{"name":"백마크리닝","tel":"","addr":"경기도 구리시 인창동 651-30번지 1층","indutype":"수리서비스 - 세탁소","category":"other"}]},{"lat":"37.612978632","long":"127.13900772","imageIndex":17,"items":[{"name":"GS25구리원일점","tel":"","addr":"경기도 구리시 인창동 691번지 원일가대라곡아파트 103호","indutype":"유통업 영리 - 편 의 점","category":"other"}]},{"lat":"37.609143677","long":"127.13620339","imageIndex":17,"items":[{"name":"GS25구리홈타운점","tel":"02-2006-2485","addr":"경기도 구리시 인창동 407-1번지 1층","indutype":"유통업 영리 - 편 의 점","category":"other"}]},{"lat":"37.605505319","long":"127.13479263","imageIndex":17,"items":[{"name":"GS25인창대림점","tel":"02-2006-2485","addr":"경기도 구리시 인창동 309-6 인창e-편한세상지하111호 101","indutype":"유통업 영리 - 편 의 점","category":"other"},{"name":"삼보컴퓨터구리점","tel":"031-565-3582","addr":"경기도 구리시 인창동 309-6번지 인창e-편한세상 101동 제비 102호","indutype":"사무통신 - 컴퓨터","category":"other"},{"name":"예빛","tel":"02-3477-4577","addr":"경기도 구리시 인창동 309-6 대림상가 101동제지층제비101호","indutype":"건축자재 - 조명기구","category":"other"}]},{"lat":"37.60783487","long":"127.13021007","imageIndex":17,"items":[{"name":"GS25인창부영점","tel":"","addr":"경기도 구리시 인창동 641-7번지 부영아파트","indutype":"유통업 영리 - 편 의 점","category":"other"}]},{"lat":"37.609869091","long":"127.13203693","imageIndex":17,"items":[{"name":"GS25인창삼성점","tel":"02-2006-2118","addr":"경기도 구리시 인창동 487-15삼성상가 101~102호","indutype":"유통업 영리 - 편 의 점","category":"other"}]},{"lat":"37.601778699","long":"127.13970074","imageIndex":17,"items":[{"name":"HIMAZONE","tel":"02-543-2336","addr":"경기도 구리시 인창동 277-26번지","indutype":"레져용품 - 스포츠·레져용품","category":"other"}]},{"lat":"37.623167292","long":"127.1401817","imageIndex":17,"items":[{"name":"KENOSIS","tel":"070-8231-1703","addr":"경기도 구리시 인창동 10-1","indutype":"건축자재 - 인테리어전문","category":"other"},{"name":"한울종합공구","tel":"031-553-8909","addr":"경기도 구리시 인창동 10-1","indutype":"농업 - 농기계","category":"other"}]},{"lat":"37.603030135","long":"127.13253471","imageIndex":17,"items":[{"name":"MBK","tel":"031-553-0410","addr":"경기도 구리시 인창동 563-64번지","indutype":"건축자재 - 인테리어전문","category":"other"},{"name":"대주건축","tel":"02-2215-3650","addr":"경기도 구리시 인창동 563-64번지","indutype":"건축자재 - 보일러·펌프·샷시","category":"other"}]},{"lat":"37.609063559","long":"127.13534252","imageIndex":17,"items":[{"name":"MD뷰티연구소","tel":"031-558-5204","addr":"경기도 구리시 인창동 495-24번지 2층","indutype":"회원제형태 - 기타4","category":"other"}]},{"lat":"37.601092825","long":"127.14067335","imageIndex":17,"items":[{"name":"MJ미디어플러스","tel":"031-558-3069","addr":"경기도 구리시 인창동 264-4번지 쌍용플래티넘선스타워 503호","indutype":"전기제품 - 가전제품","category":"other"},{"name":"골드쉘 구리점","tel":"031-566-9930","addr":"경기도 구리시 인창동 264-4번지 쌍용오피스텔 110호","indutype":"신변잡화 - 귀금속","category":"other"},{"name":"도도기획","tel":"070-4194-0100","addr":"경기도 구리시 인창동 264-4번지 쌍용오피스텔 5층 502호","indutype":"용역 서비스 - 종합용역","category":"other"},{"name":"미래대리점 구리직영점","tel":"031-111-1111","addr":"경기도 구리시 인창동 264-4번지 쌍용오피스텔 105호,106호","indutype":"사무통신 - 통신기기","category":"other"},{"name":"애플클리닉 구리점","tel":"031-550-6866","addr":"경기도 구리시 인창동 264-4번지 쌍용플래티넘선스타워 303호","indutype":"수리서비스 - 사무·통신기기수리","category":"other"},{"name":"에스엠(SM)텔레콤","tel":"031-513-3366","addr":"경기도 구리시 인창동 264-4번지 쌍용오피스텔 1층","indutype":"사무통신 - 통신기기","category":"other"},{"name":"올리비아로렌","tel":"031-550-6969","addr":"경기도 구리시 인창동 264-4번지 쌍용프래티넘선스타워 104호","indutype":"레져용품 - 스포츠·레져용품","category":"other"},{"name":"월드써플라이","tel":"043-836-0166","addr":"경기도 구리시 인창동 264-4번지 쌍용플래티넘 1520호","indutype":"직물 - 침구·수예점","category":"other"},{"name":"주식회사엔프로덕션","tel":"02-558-6828","addr":"경기도 구리시 인창동 264-4번지 쌍용플래티넘 509호","indutype":"광학제품 - 사진관","category":"other"},{"name":"파워썬탠","tel":"031-550-6700","addr":"경기도 구리시 인창동 264-4번지 쌍용오피스텔 303호","indutype":"회원제형태 - 기타4","category":"other"},{"name":"폭스스토리","tel":"031-558-1659","addr":"경기도 구리시 인창동 264-4번지 쌍용오피스텔 1층 103호","indutype":"신변잡화 - 귀금속","category":"other"}]},{"lat":"37.603786156","long":"127.13326078","imageIndex":17,"items":[{"name":"S&","tel":"031-565-0721","addr":"경기도 구리시 인창동 573-20번지","indutype":"회원제형태 - 기타4","category":"other"},{"name":"노블인테리어","tel":"031-1599-1730","addr":"경기도 구리시 인창동 573-20번지","indutype":"직물 - 카페트,커튼,천막,지물","category":"other"}]},{"lat":"37.606888701","long":"127.13843038","imageIndex":17,"items":[{"name":"S.K애드","tel":"031-552-2199","addr":"경기도 구리시 인창동 383-104번지","indutype":"건축자재 - 인테리어전문","category":"other"}]},{"lat":"37.604425716","long":"127.14129103","imageIndex":17,"items":[{"name":"TS엔지니어링","tel":"031-565-8079","addr":"경기도 구리시 인창동 672-4번지 세신훼미리타운 B126호","indutype":"회원제형태 - 기타4","category":"other"},{"name":"대동메디패스","tel":"031-555-0999","addr":"경기도 구리시 인창동 672-4번지 세신훼미리타운 908호","indutype":"기타의료기관 - 기타의료기관 및 기타","category":"other"},{"name":"민률법무사사무소","tel":"031-555-2030","addr":"경기도 구리시 인창동 672-4번지","indutype":"용역 서비스 - 법률회계서비스(개인)","category":"other"},{"name":"바른자세교정운동","tel":"031-567-0708","addr":"경기도 구리시 인창동 672-4번지 세신훼미리타운 321호","indutype":"회원제형태 - 레져업소","category":"other"},{"name":"바이오메디사이언스","tel":"031-569-1730","addr":"경기도 구리시 인창동 672-4번지 세신훼미리 상가 318호","indutype":"서적문구 - 과학기자재","category":"other"},{"name":"법무사박동석사무소","tel":"031-555-8376","addr":"경기도 구리시 인창동 672-4번지 세신훼미리타운","indutype":"용역 서비스 - 법률회계서비스(개인)","category":"other"},{"name":"법무사신동환사무소","tel":"031-564-4477","addr":"경기도 구리시 인창동 672-4번지 세신훼미리타운 218호","indutype":"용역 서비스 - 법률회계서비스(개인)","category":"other"},{"name":"법무사하찬용사무소","tel":"031-555-4952","addr":"경기도 구리시 인창동 672-4번지 세신훼미리 상가 104호","indutype":"용역 서비스 - 법률회계서비스(개인)","category":"other"},{"name":"브랜드존","tel":"02-3424-1274","addr":"경기도 구리시 인창동 672-4번지 세신훼미리타운 609호","indutype":"의류 - 정장","category":"other"},{"name":"삼봉환경시스템","tel":"031-557-6655","addr":"경기도 구리시 인창동 672-4번지 세신훼미리타운 B115호","indutype":"기타 - 기계공구","category":"other"},{"name":"서종건축사사무소","tel":"031-564-4563","addr":"경기도 구리시 인창동 672-4번지 세신훼미리타운 702호","indutype":"용역 서비스 - 법률회계서비스(개인)","category":"other"},{"name":"솔체압화","tel":"031-566-4228","addr":"경기도 구리시 인창동 672-4번지 세신훼미리타운 6층 614호","indutype":"문화.취미 - 화원","category":"other"},{"name":"송월타올(구리인창점)","tel":"031-569-5924","addr":"경기도 구리시 인창동 672-4번지 세신훼미리 상가 1동 105호","indutype":"직물 - 옷감·직물","category":"other"},{"name":"에버환경","tel":"031-511-3291","addr":"경기도 구리시 인창동 672-4번지 세신훼미리타운 지하층 117호","indutype":"용역 서비스 - 종합용역","category":"other"},{"name":"예손에스테틱","tel":"031-566-2533","addr":"경기도 구리시 인창동 672-4번지 세신훼미리 320호","indutype":"회원제형태 - 기타4","category":"other"},{"name":"윈디정보통신","tel":"031-515-2400","addr":"경기도 구리시 인창동 672-4번지 세신훼미리 B동 119호","indutype":"사무통신 - 통신기기","category":"other"},{"name":"유림테크","tel":"02-941-9564","addr":"경기도 구리시 인창동 672-4번지 세신훼밀리 상가 906호","indutype":"사무통신 - 사무용 OA기기","category":"other"},{"name":"이태형법무사사무소","tel":"031-556-0600","addr":"경기도 구리시 인창동 672-4번지","indutype":"용역 서비스 - 법률회계서비스(개인)","category":"other"},{"name":"정민법무사사무소","tel":"031-556-2555","addr":"경기도 구리시 인창동 672-4번지 세신웨미리타운 5층 509호","indutype":"용역 서비스 - 법률회계서비스(개인)","category":"other"},{"name":"정진에너지(주)","tel":"031-555-1851","addr":"경기도 구리시 인창동 672-4번지 세신훼미리타운 410호","indutype":"용역 서비스 - 기타용역서비스","category":"other"},{"name":"제타에이치피씨 주식회사","tel":"031-555-3226","addr":"경기도 구리시 인창동 672-4번지 세신훼미리타운 401호","indutype":"사무통신 - 컴퓨터","category":"other"},{"name":"주식회사 한가지","tel":"","addr":"경기도 구리시 인창동 672-4번지 501-1호","indutype":"용역 서비스 - 기타용역서비스","category":"other"},{"name":"주식회사프로토콜마스터","tel":"031-567-1457","addr":"경기도 구리시 인창동 672-4번지 세신훼미리타운 905호","indutype":"전기제품 - 기타전기제품","category":"other"}]},{"lat":"37.606615997","long":"127.14051367","imageIndex":17,"items":[{"name":"e-푸른골프","tel":"031-357-2400","addr":"경기도 구리시 인창동 665-1비15","indutype":"회원제형태 - 레져업소","category":"other"},{"name":"꽃마루","tel":"031-553-1155","addr":"경기도 구리시 인창동 665-1 128","indutype":"문화.취미 - 화원","category":"other"},{"name":"삼보인테리어","tel":"031-565-5653","addr":"경기도 구리시 인창동 665-1삼보상사가132","indutype":"건축자재 - 인테리어전문","category":"other"}]},{"lat":"37.604145403","long":"127.13429194","imageIndex":17,"items":[{"name":"가구아울렛","tel":"031-558-4945","addr":"경기도 구리시 인창동 576-9번지","indutype":"가구 - 일반가구","category":"other"},{"name":"뉴대박공인중개사사무소","tel":"031-562-4989","addr":"경기도 구리시 인창동 576-9번지","indutype":"용역 서비스 - 부동산 중개·임대","category":"other"},{"name":"새서울 건축 종합설비","tel":"031-566-9113","addr":"경기도 구리시 인창동 576-9번지 응달말로 41","indutype":"건축자재 - 인테리어전문","category":"other"}]},{"lat":"37.608006584","long":"127.1378435","imageIndex":17,"items":[{"name":"가람토탈인테리어","tel":"","addr":"경기도 구리시 인창동 383-62번지","indutype":"건축자재 - 인테리어전문","category":"other"}]},{"lat":"37.600700647","long":"127.136981","imageIndex":17,"items":[{"name":"경기통신","tel":"031-568-7878","addr":"경기도 구리시 인창동 286-1번지 1층","indutype":"용역 서비스 - 기타용역서비스","category":"other"},{"name":"대양상사","tel":"031-566-3939","addr":"경기도 구리시 인창동 286-1번지","indutype":"건축자재 - 기타건축자재","category":"other"},{"name":"저울프라자","tel":"031-552-7321","addr":"경기도 구리시 인창동 286-1번지","indutype":"기타 - 기타 전문점","category":"other"}]},{"lat":"37.605419148","long":"127.13926574","imageIndex":17,"items":[{"name":"경락세무회계사무소","tel":"02-455-1455","addr":"경기도 구리시 인창동 344-7번지 창일빌딩 5층","indutype":"용역 서비스 - 법률회계서비스(개인)","category":"other"},{"name":"마루앤캔디스튜디오(maru&candy studio)","tel":"031-591-0087","addr":"경기도 구리시 인창동 344-7번지 창일빌딩 6층","indutype":"광학제품 - 사진관","category":"other"},{"name":"빅마운트앤컴퍼니","tel":"","addr":"경기도 구리시 인창동 344-7번지 창일빌딩 350호","indutype":"의류 - 아동의류","category":"other"}]},{"lat":"37.60200052","long":"127.14262279","imageIndex":17,"items":[{"name":"고은박이 사진관","tel":"031-555-7150","addr":"경기도 구리시 인창동 676-6번지 동원플에이스테이션 403호","indutype":"광학제품 - 사진관","category":"other"},{"name":"구리2호점 (댑)","tel":"031-111-1111","addr":"경기도 구리시 인창동 676-6번지 동원플에이스테이션 1층 106호","indutype":"의류 - 내의판매","category":"other"},{"name":"꼼빠니아구리점","tel":"031-551-5954","addr":"경기도 구리시 인창동 676-6번지 황금시계빌딩 103호","indutype":"의류 - 기타의류","category":"other"},{"name":"아이픽스구리아이폰수리센터","tel":"070-7719-6153","addr":"경기도 구리시 인창동 676-6번지 동원플레이스테이션 404호","indutype":"수리서비스 - 사무·통신기기수리","category":"other"},{"name":"혜인정보통신","tel":"031-565-8573","addr":"경기도 구리시 인창동 6767-6동원파크빌딩406","indutype":"사무통신 - 통신기기","category":"other"}]},{"lat":"37.602144286","long":"127.14295146","imageIndex":17,"items":[{"name":"골드패션","tel":"031-111-1111","addr":"경기도 구리시 인창동 676-7번지","indutype":"의류 - 정장","category":"other"},{"name":"명품사","tel":"031-553-5551","addr":"경기도 구리시 인창동 676-7번지 황금시계상가 1층 116호","indutype":"수리서비스 - 세탁소","category":"other"},{"name":"밍키플라워","tel":"031-551-9001","addr":"경기도 구리시 인창동 676-7번지 다우스퀘어빌딩 114호","indutype":"문화.취미 - 화원","category":"other"},{"name":"브랜드스타일맥(BRAND STYLE MEC)","tel":"031-553-6595","addr":"경기도 구리시 인창동 676-7번지 다우스퀘어 지하1층 b01,b02,b03,b04호","indutype":"의류 - 정장","category":"other"},{"name":"에이치와이서비스","tel":"031-567-4511","addr":"경기도 구리시 인창동 676-7번지 다우스퀘어 110호","indutype":"회원제형태 - 기타4","category":"other"},{"name":"캐럿","tel":"031-553-4377","addr":"경기도 구리시 인창동 676-7번지 황금시계빌딩 1층 101호","indutype":"신변잡화 - 액세서리","category":"other"}]},{"lat":"37.608255975","long":"127.1323739","imageIndex":17,"items":[{"name":"공간인테리어","tel":"031-551-5882","addr":"경기도 구리시 인창동 651-31번지","indutype":"건축자재 - 인테리어전문","category":"other"},{"name":"크린토피아 GM마트점","tel":"031-554-1255","addr":"경기도 구리시 인창동 651-31번지 세탁전문점 크린토피아(GM 상가,인창동)","indutype":"수리서비스 - 세탁소","category":"other"}]},{"lat":"37.606866573","long":"127.13409288","imageIndex":17,"items":[{"name":"광동기업주식회사","tel":"031-563-0097","addr":"경기도 구리시 인창동 527-17번지","indutype":"건축자재 - 인테리어전문","category":"other"}]},{"lat":"37.604758824","long":"127.14150681","imageIndex":17,"items":[{"name":"교학사(인창)","tel":"031-556-5522","addr":"경기도 구리시 인창동 672-2번지 세신인창종합상가 1006호","indutype":"회원제형태 - 서적","category":"other"},{"name":"구리정보통신","tel":"031-553-8115","addr":"경기도 구리시 인창동 672-2번지 세신인창종합상가 3층 319호","indutype":"사무통신 - 통신기기","category":"other"},{"name":"구리지역경상도민회","tel":"031-567-1472","addr":"경기도 구리시 인창동 672-2번지 세신인창종합상가 1006,1007호","indutype":"기타 - 비영리/비대상","category":"other"},{"name":"글사임당","tel":"031-565-1939","addr":"경기도 구리시 인창동 672-2번지 세신인창종합상가 803호","indutype":"회원제형태 - 서적","category":"other"},{"name":"다손 아뜰리에","tel":"031-774-0392","addr":"경기도 구리시 인창동 672-2번지 세신인창종합상가 4층 403호","indutype":"문화.취미 - 문화취미기타","category":"other"},{"name":"동산보청기","tel":"031-569-0300","addr":"경기도 구리시 인창동 672-2번지 세신인창종합상가 326호","indutype":"기타의료기관 - 기타의료기관 및 기타","category":"other"},{"name":"디에이치바이오","tel":"031-567-7629","addr":"경기도 구리시 인창동 672-2번지 세신인창종합상가 1001-A호","indutype":"사무통신 - 컴퓨터","category":"other"},{"name":"리뷰스토리","tel":"02-6455-7148","addr":"경기도 구리시 인창동 672-2번지 세신인창종합상가 905호","indutype":"용역 서비스 - 소프트웨어","category":"other"},{"name":"리소OA","tel":"031-552-5211","addr":"경기도 구리시 인창동 672-2번지 세신인창종합상가 지층 133호","indutype":"사무통신 - 사무용 OA기기","category":"other"},{"name":"마코코리아","tel":"031-562-3830","addr":"경기도 구리시 인창동 672-2번지 세신인창종합상가 8층 809호","indutype":"광학제품 - 기타광학제품","category":"other"},{"name":"미랜바이오구리총판","tel":"031-4220-7298","addr":"경기도 구리시 인창동 672-2번지 세신인창종합상가 8층 810호","indutype":"주방용구 - 주방용구","category":"other"},{"name":"빅사이언스","tel":"","addr":"경기도 구리시 인창동 672-2번지 세신인창종합상가 108호","indutype":"서적문구 - 과학기자재","category":"other"},{"name":"스타일","tel":"031-553-8115","addr":"경기도 구리시 인창동 672-2번지 세신인창종합상가 104호","indutype":"의류 - 정장","category":"other"},{"name":"신나는독서학교","tel":"031-556-4833","addr":"경기도 구리시 인창동 672-2번지 세신인창종합상가 607호","indutype":"회원제형태 - 서적","category":"other"},{"name":"아이넷정보통신","tel":"031-551-8181","addr":"경기도 구리시 인창동 672-2번지 세신인창종합상가 802호","indutype":"사무통신 - 컴퓨터","category":"other"},{"name":"아이와 잉글리쉬","tel":"031-558-8919","addr":"경기도 구리시 인창동 672-2번지 세신인창종합상가424호~430호 424호","indutype":"서적문구 - 일반서적","category":"other"},{"name":"아트빔","tel":"031-562-1679","addr":"경기도 구리시 인창동 672-2번지 세신인창종합상가 210호","indutype":"서적문구 - 출판 및 인쇄물","category":"other"},{"name":"알리바바 공조산업","tel":"070-5111-1243","addr":"경기도 구리시 인창동 672-2번지 세신인창종합상가 611호","indutype":"용역 서비스 - 기타용역서비스","category":"other"},{"name":"엘리","tel":"031-557-2833","addr":"경기도 구리시 인창동 672-2번지 세신인창종합상가 1층 105호","indutype":"의류 - 정장","category":"other"},{"name":"올리브","tel":"031-516-2997","addr":"경기도 구리시 인창동 672-2번지 세신인창종합상가 1층 122호","indutype":"의류 - 정장","category":"other"},{"name":"원일전기안전(주)","tel":"031-557-4566","addr":"경기도 구리시 인창동 672-2번지 세신인창종합상가","indutype":"용역 서비스 - 기타용역서비스","category":"other"},{"name":"이레피앤알","tel":"031-1588-8897","addr":"경기도 구리시 인창동 672-2번지 세신인창종합상가 B1층 120호","indutype":"용역 서비스 - 종합용역","category":"other"},{"name":"인터존","tel":"031-553-2323","addr":"경기도 구리시 인창동 672-2번지","indutype":"사무통신 - 기타 사무용품","category":"other"},{"name":"장원교육남양주지점","tel":"031-568-5711","addr":"경기도 구리시 인창동 672-2번지 세신종합지하상가 120호","indutype":"서적문구 - 일반서적","category":"other"},{"name":"재아","tel":"031-565-0856","addr":"경기도 구리시 인창동 672-2번지 세신인창종합상가 1층 122호","indutype":"의류 - 정장","category":"other"},{"name":"주식회사아비가엘","tel":"031-565-8180","addr":"경기도 구리시 인창동 672-2번지 세신인창종합상가제 지하층 제118호","indutype":"신변잡화 - 귀금속","category":"other"},{"name":"주식회사킨섹트","tel":"041-532-1168","addr":"경기도 구리시 인창동 672-2번지 세신인창종합상가 805호","indutype":"기타 - 기타 전문점","category":"other"},{"name":"코코","tel":"000-0000-0000","addr":"경기도 구리시 인창동 672-2번지 세신인창종합상가 120호","indutype":"의류 - 정장","category":"other"},{"name":"킹스월드","tel":"031-111-1111","addr":"경기도 구리시 인창동 672-2번지 세신인창종합상가 813-1호","indutype":"서적문구 - 일반서적","category":"other"},{"name":"파치(Perch)","tel":"","addr":"경기도 구리시 인창동 672-2번지 세신인창종합상가 6층 613호","indutype":"신변잡화 - 가방","category":"other"},{"name":"평화정보","tel":"031-558-6847","addr":"경기도 구리시 인창동 672-2번지 세신인창종합상가 1009호","indutype":"용역 서비스 - 소프트웨어","category":"other"},{"name":"필그린인카운터 종암특약점","tel":"033-244-8486","addr":"경기도 구리시 인창동 672-2번지 세신인창종합상가 819호","indutype":"주방용구 - 주방용구","category":"other"},{"name":"하나로어닝 프린팅","tel":"070-7781-8281","addr":"경기도 구리시 인창동 672-2번지 세신인창종합상가 202호","indutype":"서적문구 - 출판 및 인쇄물","category":"other"},{"name":"향림조경개발(주)","tel":"031-555-6461","addr":"경기도 구리시 인창동 672-2번지 세신인창종합상가 709호","indutype":"건축자재 - 인테리어전문","category":"other"},{"name":"히어(HERE)","tel":"031-564-7038","addr":"경기도 구리시 인창동 672-2번지 세신인창종합상가 116호","indutype":"의류 - 정장","category":"other"}]},{"lat":"37.603364611","long":"127.13953378","imageIndex":17,"items":[{"name":"구리강화","tel":"02-564-2637","addr":"경기도 구리시 인창동 319-8","indutype":"용역 서비스 - 기타용역서비스","category":"other"}]},{"lat":"37.619588285","long":"127.14201007","imageIndex":17,"items":[{"name":"구리상사","tel":"031-565-0260","addr":"경기도 구리시 인창동 25번지","indutype":"기타 - 기계공구","category":"other"}]},{"lat":"37.60072567","long":"127.13873627","imageIndex":17,"items":[{"name":"구리소비조합","tel":"031-551-5989","addr":"경기도 구리시 인창동 293번지 교보빌딩 6층","indutype":"유통업 영리 - 복지매장","category":"other"}]},{"lat":"37.604754594","long":"127.14506274","imageIndex":17,"items":[{"name":"구리시보건소","tel":"031-550-8616","addr":"경기도 구리시 인창동 674-3번지","indutype":"기타의료기관 - 기타의료기관 및 기타","category":"other"}]},{"lat":"37.602446073","long":"127.13109551","imageIndex":17,"items":[{"name":"구리시재활용마트","tel":"031-558-7272","addr":"경기도 구리시 인창동 562-38번지","indutype":"기타 - 기타 전문점","category":"other"}]},{"lat":"37.60508627","long":"127.13884612","imageIndex":17,"items":[{"name":"구리시현수막 봉봉애드","tel":"031-567-4313","addr":"경기도 구리시 인창동 325-1번지 2층 201호","indutype":"건축자재 - 인테리어전문","category":"other"},{"name":"르시크 (lechic)","tel":"070-8822-1920","addr":"경기도 구리시 인창동 325-1번지 3동 303호","indutype":"신변잡화 - 가방","category":"other"},{"name":"세광음악사","tel":"031-568-8233","addr":"경기도 구리시 인창동 325-1번지","indutype":"서적문구 - 출판 및 인쇄물","category":"other"}]},{"lat":"37.604144947","long":"127.14253621","imageIndex":17,"items":[{"name":"구리우체국","tel":"031-563-2828","addr":"경기도 구리시 인창동 674-1번지","indutype":"용역 서비스 - 공공요금대행서비스/소","category":"other"}]},{"lat":"37.603611272","long":"127.13656722","imageIndex":17,"items":[{"name":"구리컴퓨터(마이컴)","tel":"031-569-0119","addr":"경기도 구리시 인창동 307-21번지 103호","indutype":"사무통신 - 컴퓨터","category":"other"}]},{"lat":"37.600727484","long":"127.13715091","imageIndex":17,"items":[{"name":"구리타일","tel":"031-563-5100","addr":"경기도 구리시 인창동 286-3번지 1층","indutype":"건축자재 - 건축용 요업제품","category":"other"},{"name":"세무사김문진사무소","tel":"031-566-2577","addr":"경기도 구리시 인창동 286-3번지 태림빌딩 4층","indutype":"용역 서비스 - 법률회계서비스(개인)","category":"other"},{"name":"한일자동펌프","tel":"031-563-2178","addr":"경기도 구리시 인창동 286-3번지 1층","indutype":"수리서비스 - 기타수리서비스","category":"other"}]},{"lat":"37.607057219","long":"127.13279084","imageIndex":17,"items":[{"name":"구리호남향우회","tel":"031-566-1517","addr":"경기도 구리시 인창동 527-23번지","indutype":"기타 - 비영리/비대상","category":"other"}]},{"lat":"37.618034092","long":"127.13814479","imageIndex":17,"items":[{"name":"굿모닝 & 규수방 구리점","tel":"031-567-6667","addr":"경기도 구리시 인창동 56-1번지 지하1층","indutype":"가구 - 일반가구","category":"other"}]},{"lat":"37.604948501","long":"127.13318354","imageIndex":17,"items":[{"name":"굿바이오텍","tel":"02-458-0793","addr":"경기도 구리시 인창동 706번지 인창2차동문굿모닝힐 204동 1305호","indutype":"서적문구 - 과학기자재","category":"other"}]},{"lat":"37.605362586","long":"127.13351268","imageIndex":17,"items":[{"name":"굿샵 인창점","tel":"031-562-5323","addr":"경기도 구리시 인창동 543번지 100,106호","indutype":"유통업 영리 - 편 의 점","category":"other"},{"name":"세븐일레븐구리동진점","tel":"031-1577-0711","addr":"경기도 구리시 인창동 543번지 108,109호","indutype":"유통업 영리 - 편 의 점","category":"other"},{"name":"실로그린","tel":"031-552-8555","addr":"경기도 구리시 인창동 543번지 동진오피스텔 상가 1층 107호","indutype":"의류 - 기타의류","category":"other"},{"name":"폰하우스","tel":"070-8615-4728","addr":"경기도 구리시 인창동 543번지 109호","indutype":"사무통신 - 통신기기","category":"other"}]},{"lat":"37.60366752","long":"127.13461951","imageIndex":17,"items":[{"name":"귀부인우리옷","tel":"031-555-0013","addr":"경기도 구리시 인창동 570-6번지 1층 2층 귀부인한복","indutype":"의류 - 맞춤복점","category":"other"}]},{"lat":"37.61663982","long":"127.14393007","imageIndex":17,"items":[{"name":"글로벌라테스그룹","tel":"031-556-4234","addr":"경기도 구리시 인창동 134-1번지 인창빌딩 4층 1호","indutype":"레져용품 - 스포츠·레져용품","category":"other"}]},{"lat":"37.603922101","long":"127.13253625","imageIndex":17,"items":[{"name":"금성경기서비스","tel":"031-552-8272","addr":"경기도 구리시 인창동 555-14번지","indutype":"기타 - 기타 전문점","category":"other"},{"name":"금성경기서비스/삼원(일반)","tel":"031-552-8272","addr":"경기도 구리시 인창동 555-14번지 1층","indutype":"회원제형태 - 기타4","category":"other"}]},{"lat":"37.604089109","long":"127.13628496","imageIndex":17,"items":[{"name":"나누다에어컨","tel":"","addr":"경기도 구리시 인창동 582-40번지 1층 일부","indutype":"전기제품 - 냉열기기","category":"other"}]},{"lat":"37.601503898","long":"127.13575944","imageIndex":17,"items":[{"name":"남양전기","tel":"031-554-9210","addr":"경기도 구리시 인창동 607-9번지","indutype":"전기제품 - 기타전기제품","category":"other"}]},{"lat":"37.609305789","long":"127.1362603","imageIndex":17,"items":[{"name":"뉴미래부동산공인중개사사무소","tel":"031-569-4500","addr":"경기도 구리시 인창동 498-5번지 1층","indutype":"용역 서비스 - 부동산 중개·임대","category":"other"}]},{"lat":"37.607532891","long":"127.13445645","imageIndex":17,"items":[{"name":"닛시","tel":"070-4922-1261","addr":"경기도 구리시 인창동 523-5번지","indutype":"의류 - 정장","category":"other"}]},{"lat":"37.604833932","long":"127.13890229","imageIndex":17,"items":[{"name":"다모아잉크","tel":"031-556-3456","addr":"경기도 구리시 인창동 312번지 청림하이츠빌라트 304호","indutype":"사무통신 - 기타 사무용품","category":"other"}]},{"lat":"37.602224615","long":"127.13581734","imageIndex":17,"items":[{"name":"다음세대NG","tel":"031-527-9958","addr":"경기도 구리시 인창동 603-7번지","indutype":"서적문구 - 기타서적문구","category":"other"}]},{"lat":"37.612892104","long":"127.12762507","imageIndex":17,"items":[{"name":"다이아","tel":"031-551-8381","addr":"경기도 구리시 인창동 산2-72번지","indutype":"의류 - 정장","category":"other"}]},{"lat":"37.609611646","long":"127.13667989","imageIndex":17,"items":[{"name":"달콤창고","tel":"","addr":"경기도 구리시 인창동 408-27번지 외1필지 구일빌딩","indutype":"의류 - 기타의류","category":"other"}]},{"lat":"37.605617663","long":"127.13900564","imageIndex":17,"items":[{"name":"당지기획","tel":"031-564-5588","addr":"경기도 구리시 인창동 343-7번지 1층","indutype":"용역 서비스 - 종합용역","category":"other"},{"name":"동구세탁소","tel":"031-569-3720","addr":"경기도 구리시 인창동 343-7번지","indutype":"수리서비스 - 세탁소","category":"other"},{"name":"라보떼","tel":"031-555-4152","addr":"경기도 구리시 인창동 343-7번지 1층 우측","indutype":"의류 - 정장","category":"other"},{"name":"웰빙프라자","tel":"031-569-0959","addr":"경기도 구리시 인창동 343-7번지 힐공인중개사 G동 지하층","indutype":"신변잡화 - 기타잡화","category":"other"}]},{"lat":"37.604672033","long":"127.13058972","imageIndex":17,"items":[{"name":"대광냉열시스템","tel":"","addr":"경기도 구리시 인창동 621-9번지 108호","indutype":"용역 서비스 - 기타용역서비스","category":"other"}]},{"lat":"37.606361498","long":"127.13456764","imageIndex":17,"items":[{"name":"대명전기전자","tel":"031-569-9283","addr":"경기도 구리시 인창동 515-12번지","indutype":"전기제품 - 기타전기제품","category":"other"},{"name":"바늘&실","tel":"031-553-1260","addr":"경기도 구리시 인창동 515-12번지 1층","indutype":"문화.취미 - 문화취미기타","category":"other"}]},{"lat":"37.602040506","long":"127.13924825","imageIndex":17,"items":[{"name":"대박몰","tel":"","addr":"경기도 구리시 인창동 276-8번지 동아빌라 나동 8층 202호","indutype":"신변잡화 - 신발","category":"other"}]},{"lat":"37.603003317","long":"127.13234215","imageIndex":17,"items":[{"name":"대성인테리어","tel":"031-562-1656","addr":"경기도 구리시 인창동 563-69번지","indutype":"직물 - 카페트,커튼,천막,지물","category":"other"}]},{"lat":"37.608914587","long":"127.13956658","imageIndex":17,"items":[{"name":"대신기획","tel":"031-872-8497","addr":"경기도 구리시 인창동 663-1번지 인창1단지주공아파트 104동 1301호","indutype":"용역 서비스 - 종합용역","category":"other"}]},{"lat":"37.602697383","long":"127.13197924","imageIndex":17,"items":[{"name":"대원타일","tel":"031-562-5999","addr":"경기도 구리시 인창동 563-133번지","indutype":"건축자재 - 기타건축자재","category":"other"}]},{"lat":"37.604784413","long":"127.1349046","imageIndex":17,"items":[{"name":"도깨비 에어컨","tel":"070-7774-5004","addr":"경기도 구리시 인창동 710번지 정은스카이빌 101동 5층 1호","indutype":"용역 서비스 - 기타용역서비스","category":"other"}]},{"lat":"37.617083087","long":"127.14242448","imageIndex":17,"items":[{"name":"도시상자","tel":"","addr":"경기도 구리시 인창동 715번지 클레시움더테라스하우스 102동 2층 204호","indutype":"서적문구 - 출판 및 인쇄물","category":"other"}]},{"lat":"37.604506352","long":"127.14167621","imageIndex":17,"items":[{"name":"도예공방 꽃그릇","tel":"","addr":"경기도 구리시 인창동 672-3번지 신아월드코아 6층 606호","indutype":"문화.취미 - 민예·공예품","category":"other"},{"name":"르하임스터디카페 구리인창점","tel":"031-523-9677","addr":"경기도 구리시 인창동 672-3번지 신아월드코아 601호 ,602,603호","indutype":"용역 서비스 - 사무서비스","category":"other"},{"name":"정 텔레콤","tel":"031-566-0010","addr":"경기도 구리시 인창동 672-3번지 신아월드코아 105호","indutype":"사무통신 - 통신기기","category":"other"}]},{"lat":"37.615141645","long":"127.1384227","imageIndex":17,"items":[{"name":"도원산업","tel":"031-567-0161","addr":"경기도 구리시 인창동 84번지","indutype":"기타 - 기계공구","category":"other"}]},{"lat":"37.603533946","long":"127.13320372","imageIndex":17,"items":[{"name":"동남북레미콘운송협동조합","tel":"","addr":"경기도 구리시 인창동 563-84번지 지층","indutype":"건축자재 - 기타건축자재","category":"other"}]},{"lat":"37.602841328","long":"127.132172","imageIndex":17,"items":[{"name":"동방박사(구리점)","tel":"031-564-3200","addr":"경기도 구리시 인창동 563-99번지 한성빌딩","indutype":"용역 서비스 - 종합용역","category":"other"},{"name":"하이파오피스","tel":"","addr":"경기도 구리시 인창동 563-99번지 한성빌딩 2층","indutype":"가구 - 기타가구","category":"other"}]},{"lat":"37.611673508","long":"127.12976359","imageIndex":17,"items":[{"name":"동서울물류","tel":"031-558-8338","addr":"경기도 구리시 인창동 487-10번지","indutype":"건축자재 - 기타건축자재","category":"other"}]},{"lat":"37.60122302","long":"127.1371518","imageIndex":17,"items":[{"name":"동아세탁","tel":"031-551-3969","addr":"경기도 구리시 인창동 289-22번지","indutype":"수리서비스 - 세탁소","category":"other"}]},{"lat":"37.607361744","long":"127.13442218","imageIndex":17,"items":[{"name":"동양상회","tel":"031-568-8651","addr":"경기도 구리시 인창동 519-20번지","indutype":"레져용품 - 스포츠·레져용품","category":"other"}]},{"lat":"37.60561452","long":"127.13381889","imageIndex":17,"items":[{"name":"동일공사","tel":"031-562-3344","addr":"경기도 구리시 인창동 527-21번지","indutype":"용역 서비스 - 종합용역","category":"other"},{"name":"백향꽃집","tel":"031-556-7890","addr":"경기도 구리시 인창동 527-21번지","indutype":"문화.취미 - 화원","category":"other"},{"name":"빛그림포토","tel":"031-564-1394","addr":"경기도 구리시 인창동 527-21번지","indutype":"광학제품 - 사진관","category":"other"},{"name":"인창만물열쇠","tel":"031-552-1314","addr":"경기도 구리시 인창동 527-21번지","indutype":"기타 - 기계공구","category":"other"},{"name":"하나로정보통신","tel":"031-563-8011","addr":"경기도 구리시 인창동 527-21번지","indutype":"사무통신 - 통신기기","category":"other"}]},{"lat":"37.607032831","long":"127.13845329","imageIndex":17,"items":[{"name":"레몬이네 그루밍샵","tel":"031-3003-5695","addr":"경기도 구리시 인창동 384-1번지 201호","indutype":"문화.취미 - 애완동물","category":"other"},{"name":"쏠쏠샵","tel":"031-000-0000","addr":"경기도 구리시 인창동 384-1번지","indutype":"의류 - 기타의류","category":"other"}]},{"lat":"37.607785378","long":"127.13426437","imageIndex":17,"items":[{"name":"레몬테라스","tel":"070-8600-8549","addr":"경기도 구리시 인창동 523-9번지 외1필지","indutype":"의류 - 정장","category":"other"},{"name":"엘지아트하우징","tel":"031-551-0488","addr":"경기도 구리시 인창동 523-9번지","indutype":"건축자재 - 인테리어전문","category":"other"}]},{"lat":"37.601453927","long":"127.14006252","imageIndex":17,"items":[{"name":"레야샵","tel":"","addr":"경기도 구리시 인창동 277-18번지","indutype":"서적문구 - 완구점","category":"other"}]},{"lat":"37.611617219","long":"127.13982069","imageIndex":17,"items":[{"name":"롱런골프","tel":"031-564-7890","addr":"경기도 구리시 인창동 701-1번지 아이원패션로데오타운 B동 106,107호","indutype":"레져용품 - 골프용품 전문점","category":"other"},{"name":"만물토탈철물","tel":"031-567-0948","addr":"경기도 구리시 인창동 701-1번지 아이원패션로데오타운 104호","indutype":"건축자재 - 목재·석재·철물","category":"other"}]},{"lat":"37.601168716","long":"127.13736686","imageIndex":17,"items":[{"name":"린나이중랑구판매수리점","tel":"080-3651-0482","addr":"경기도 구리시 인창동 289-24번지","indutype":"용역 서비스 - 기타용역서비스","category":"other"}]},{"lat":"37.604508849","long":"127.13953587","imageIndex":17,"items":[{"name":"마리본산후조리원","tel":"031-551-2700","addr":"경기도 구리시 인창동 323번지","indutype":"기타의료기관 - 산후조리원","category":"other"}]},{"lat":"37.602786311","long":"127.13304388","imageIndex":17,"items":[{"name":"매직코리아","tel":"070-7570-5900","addr":"경기도 구리시 인창동 563-38번지 2층","indutype":"회원제형태 - 기타4","category":"other"}]},{"lat":"37.611283767","long":"127.13989936","imageIndex":17,"items":[{"name":"메토요 (주)","tel":"031-574-0401","addr":"경기도 구리시 인창동 701-2번지 경기벤처창업지원센터 2층 201호","indutype":"문화.취미 - 애완동물","category":"other"},{"name":"주식회사 크레아큐브","tel":"031-000-0000","addr":"경기도 구리시 인창동 701-2번지 3층","indutype":"서적문구 - 기타서적문구","category":"other"}]},{"lat":"37.602116","long":"127.13625879","imageIndex":17,"items":[{"name":"명성공조시스템","tel":"070-4415-5363","addr":"경기도 구리시 인창동 603-6번지 101호","indutype":"전기제품 - 냉열기기","category":"other"},{"name":"한몰","tel":"02-452-0663","addr":"경기도 구리시 인창동 603-6번지 지층","indutype":"신변잡화 - 기타잡화","category":"other"}]},{"lat":"37.618888987","long":"127.13904115","imageIndex":17,"items":[{"name":"명음국악사","tel":"031-552-5533","addr":"경기도 구리시 인창동 51-2번지","indutype":"레져용품 - 악기점","category":"other"}]},{"lat":"37.60422591","long":"127.13481302","imageIndex":17,"items":[{"name":"모다2호점","tel":"070-4119-1002","addr":"경기도 구리시 인창동 576-49번지 103호, 104호","indutype":"의류 - 정장","category":"other"}]},{"lat":"37.607641197","long":"127.13428677","imageIndex":17,"items":[{"name":"모터포크 아트 웍 (Motorfork art work)","tel":"031-000-0000","addr":"경기도 구리시 인창동 523-16번지","indutype":"용역 서비스 - 사무서비스","category":"other"}]},{"lat":"37.601757352","long":"127.13470674","imageIndex":17,"items":[{"name":"몬내니쥬","tel":"","addr":"경기도 구리시 인창동 605-90번지 인창프리빌 201호","indutype":"신변잡화 - 액세서리","category":"other"}]},{"lat":"37.607780639","long":"127.13845465","imageIndex":17,"items":[{"name":"뮤직플러스","tel":"","addr":"경기도 구리시 인창동 383-82번지 지층","indutype":"용역 서비스 - 사무서비스","category":"other"}]},{"lat":"37.60269139","long":"127.13734695","imageIndex":17,"items":[{"name":"미금진로","tel":"","addr":"경기도 구리시 인창동 302-10번지 인창그린빌라 102-304","indutype":"유통업 영리 - 기타유통업","category":"other"}]},{"lat":"37.608784144","long":"127.14323572","imageIndex":17,"items":[{"name":"미니스톱 구리주공점","tel":"031-1577-9621","addr":"경기도 구리시 인창동 664-8번지 주공2단지 101호","indutype":"유통업 영리 - 편 의 점","category":"other"}]},{"lat":"37.608058467","long":"127.13172802","imageIndex":17,"items":[{"name":"미니스톱구리원일점","tel":"031-1577-9621","addr":"경기도 구리시 인창동 530-1번지 1층","indutype":"유통업 영리 - 편 의 점","category":"other"}]},{"lat":"37.60939683","long":"127.13542239","imageIndex":17,"items":[{"name":"미래기획","tel":"070-4325-7063","addr":"경기도 구리시 인창동 497-5번지 대웅빌라 401호","indutype":"용역 서비스 - 종합용역","category":"other"}]},{"lat":"37.610360707","long":"127.13557133","imageIndex":17,"items":[{"name":"미래앤피부관리샵","tel":"031-562-4441","addr":"경기도 구리시 인창동 705번지 대림2차 상가 2층 202호","indutype":"회원제형태 - 기타4","category":"other"}]},{"lat":"37.607862104","long":"127.13812637","imageIndex":17,"items":[{"name":"미림전자.미림화원","tel":"031-566-2105","addr":"경기도 구리시 인창동 383-78번지","indutype":"전기제품 - 가전제품","category":"other"}]},{"lat":"37.604395274","long":"127.13643273","imageIndex":17,"items":[{"name":"바니라스","tel":"070-4300-7815","addr":"경기도 구리시 인창동 582-24번지 둥지타운 104동 203호","indutype":"회원제형태 - 기타4","category":"other"},{"name":"우리정","tel":"031-515-6160","addr":"경기도 구리시 인창동 582-24번지 둥지타운 104동 301호","indutype":"신변잡화 - 액세서리","category":"other"}]},{"lat":"37.603223287","long":"127.1370648","imageIndex":17,"items":[{"name":"백마크리닝 (구리6호점)","tel":"","addr":"경기도 구리시 인창동 305-3번지 트윈빌 102,103호","indutype":"수리서비스 - 세탁소","category":"other"}]},{"lat":"37.605003609","long":"127.14020493","imageIndex":17,"items":[{"name":"베스트문구구리","tel":"031-555-7300","addr":"경기도 구리시 인창동 670-1번지 태영빌딩 102호","indutype":"서적문구 - 문구용품","category":"other"},{"name":"씨유구리태영점","tel":"031-556-0053","addr":"경기도 구리시 인창동 670-1번지 태영프라자 113호","indutype":"유통업 영리 - 편 의 점","category":"other"}]},{"lat":"37.610782345","long":"127.13718031","imageIndex":17,"items":[{"name":"보라매건축","tel":"031-553-0677","addr":"경기도 구리시 인창동 458-63번지","indutype":"건축자재 - 건축용 요업제품","category":"other"},{"name":"홈퍼니싱 플래닝(H.P)","tel":"031-513-9560","addr":"경기도 구리시 인창동 458-63번지 3층","indutype":"건축자재 - 인테리어전문","category":"other"}]},{"lat":"37.608282519","long":"127.13281563","imageIndex":17,"items":[{"name":"보물찾기","tel":"031-551-5492","addr":"경기도 구리시 인창동 651-83번지 1층","indutype":"의류 - 정장","category":"other"},{"name":"쥬얼리꾼","tel":"031-555-2008","addr":"경기도 구리시 인창동 651-83번지 1층","indutype":"신변잡화 - 귀금속","category":"other"}]},{"lat":"37.607889431","long":"127.13786594","imageIndex":17,"items":[{"name":"복산상사","tel":"031-552-2199","addr":"경기도 구리시 인창동 383-63번지 지층 안쪽호","indutype":"신변잡화 - 기타잡화","category":"other"}]},{"lat":"37.611680208","long":"127.13988876","imageIndex":17,"items":[{"name":"부라더 소잉팩토리 구리점","tel":"031-569-2525","addr":"경기도 구리시 인창동 701-1번지 아이원패션로대오타운 B동 210호 211호","indutype":"기타 - 기계공구","category":"other"},{"name":"에스엔에이치통상","tel":"031-554-1882","addr":"경기도 구리시 인창동 701-1번지 아이원패션로데오타운 B동 109호","indutype":"레져용품 - 스포츠·레져용품","category":"other"}]},{"lat":"37.608172279","long":"127.13472938","imageIndex":17,"items":[{"name":"북트리 구리남양주지사","tel":"031-555-6667","addr":"경기도 구리시 인창동 520-3번지","indutype":"서적문구 - 완구점","category":"other"}]},{"lat":"37.61269716","long":"127.14087597","imageIndex":17,"items":[{"name":"블럭버스","tel":"031-569-0246","addr":"경기도 구리시 인창동 430번지 롯데마트 2층","indutype":"서적문구 - 완구점","category":"other"},{"name":"펫프렌즈동물병원","tel":"031-565-5275","addr":"경기도 구리시 인창동 430번지 롯데마트구리점 1층","indutype":"문화.취미 - 애완동물","category":"other"}]},{"lat":"37.606891076","long":"127.12812467","imageIndex":17,"items":[{"name":"블루밍 스완","tel":"031-569-3109","addr":"경기도 구리시 인창동 648-14번지","indutype":"문화.취미 - 문화취미기타","category":"other"}]},{"lat":"37.60955847","long":"127.13589834","imageIndex":17,"items":[{"name":"비누사랑","tel":"031-562-1286","addr":"경기도 구리시 인창동 458-20번지 대웅빌딩 1층","indutype":"신변잡화 - 기타잡화","category":"other"},{"name":"알파 구리인창점","tel":"031-563-0306","addr":"경기도 구리시 인창동 458-20번지 대웅빌딩 지층 1호","indutype":"서적문구 - 문구용품","category":"other"},{"name":"예원플라워 앤 카페","tel":"031-556-4654","addr":"경기도 구리시 인창동 458-20번지 대웅빌딩 1층","indutype":"문화.취미 - 화원","category":"other"}]},{"lat":"37.600727895","long":"127.13678854","imageIndex":17,"items":[{"name":"비단비단","tel":"031-567-7321","addr":"경기도 구리시 인창동 287-1번지","indutype":"의류 - 맞춤복점","category":"other"},{"name":"삼천리자전거","tel":"031-567-3456","addr":"경기도 구리시 인창동 287-1번지","indutype":"레져용품 - 스포츠·레져용품","category":"other"},{"name":"서일전자샤프대리점","tel":"031-562-4700","addr":"경기도 구리시 인창동 287-1번지","indutype":"전기제품 - 가전제품","category":"other"}]},{"lat":"37.617114802","long":"127.13840363","imageIndex":17,"items":[{"name":"빌보드 당구유통","tel":"031-565-3949","addr":"경기도 구리시 인창동 31-11번지 1동 2층","indutype":"레져용품 - 스포츠·레져용품","category":"other"},{"name":"페인트매직","tel":"02-562-7707","addr":"경기도 구리시 인창동 31-11번지","indutype":"건축자재 - 페인트","category":"other"}]},{"lat":"37.608613161","long":"127.13526245","imageIndex":17,"items":[{"name":"빨간지붕구리점","tel":"031-555-7553","addr":"경기도 구리시 인창동 520-7번지 1층","indutype":"의류 - 정장","category":"other"}]},{"lat":"37.603973383","long":"127.13503906","imageIndex":17,"items":[{"name":"삼광LED전기조명","tel":"031-568-7713","addr":"경기도 구리시 인창동 576-40번지 신동흥빌라 1층 시호","indutype":"전기제품 - 기타전기제품","category":"other"}]},{"lat":"37.606284279","long":"127.13909745","imageIndex":17,"items":[{"name":"삼성서울에스테틱","tel":"031-565-2479","addr":"경기도 구리시 인창동 383-100번지 3층","indutype":"회원제형태 - 기타1","category":"other"}]},{"lat":"37.617340694","long":"127.13783771","imageIndex":17,"items":[{"name":"삼육지물건재","tel":"031-557-6575","addr":"경기도 구리시 인창동 31-17번지","indutype":"건축자재 - 기타건축자재","category":"other"},{"name":"시스코","tel":"031-562-8730","addr":"경기도 구리시 인창동 31-17번지","indutype":"기타 - 기계공구","category":"other"}]},{"lat":"37.608865065","long":"127.13559133","imageIndex":17,"items":[{"name":"삼일통신","tel":"031-553-1018","addr":"경기도 구리시 인창동 520-16번지","indutype":"사무통신 - 통신기기","category":"other"}]},{"lat":"37.603757276","long":"127.13492543","imageIndex":17,"items":[{"name":"삼정종합상사","tel":"031-565-9000","addr":"경기도 구리시 인창동 569번지","indutype":"건축자재 - 기타건축자재","category":"other"}]},{"lat":"37.602391051","long":"127.13197871","imageIndex":17,"items":[{"name":"상도철물","tel":"031-563-7584","addr":"경기도 구리시 인창동 612-7번지","indutype":"건축자재 - 목재·석재·철물","category":"other"}]},{"lat":"37.604891666","long":"127.13567486","imageIndex":17,"items":[{"name":"샛별대리점","tel":"031-555-5025","addr":"경기도 구리시 인창동 582-46번지 3층","indutype":"보험 - 손해보험","category":"other"}]},{"lat":"37.604810769","long":"127.13550485","imageIndex":17,"items":[{"name":"샛별사","tel":"031-563-7450","addr":"경기도 구리시 인창동 581번지","indutype":"수리서비스 - 세탁소","category":"other"},{"name":"신앙촌상회","tel":"031-564-9292","addr":"경기도 구리시 인창동 581번지 1동 103호","indutype":"신변잡화 - 기타잡화","category":"other"}]},{"lat":"37.602698346","long":"127.13109594","imageIndex":17,"items":[{"name":"서해광고","tel":"031-551-3455","addr":"경기도 구리시 인창동 562-37번지","indutype":"용역 서비스 - 종합용역","category":"other"}]},{"lat":"37.606028074","long":"127.13462368","imageIndex":17,"items":[{"name":"성림오토바이","tel":"031-563-9429","addr":"경기도 구리시 인창동 583-52번지","indutype":"수리서비스 - 기타수리서비스","category":"other"}]},{"lat":"37.607528562","long":"127.13828431","imageIndex":17,"items":[{"name":"세무사전복조사무소","tel":"031-551-3169","addr":"경기도 구리시 인창동 383-51번지 402호,403호","indutype":"용역 서비스 - 법률회계서비스(개인)","category":"other"},{"name":"세무사정석균사무소","tel":"031-551-3166","addr":"경기도 구리시 인창동 383-51번지 살롬빌딩 4층","indutype":"용역 서비스 - 법률회계서비스(개인)","category":"other"}]},{"lat":"37.608255902","long":"127.14040344","imageIndex":17,"items":[{"name":"세아종합장식","tel":"031-563-0110","addr":"경기도 구리시 인창동 663-4번지","indutype":"직물 - 카페트,커튼,천막,지물","category":"other"}]},{"lat":"37.618780936","long":"127.13898432","imageIndex":17,"items":[{"name":"세영산업","tel":"031-567-9962","addr":"경기도 구리시 인창동 52-7번지 1층","indutype":"기타 - 기계공구","category":"other"}]},{"lat":"37.605726639","long":"127.1382584","imageIndex":17,"items":[{"name":"셀빨래방 인창동문점","tel":"","addr":"경기도 구리시 인창동 707번지 동문굿모닝힐 상가동 101호","indutype":"수리서비스 - 세탁소","category":"other"},{"name":"씨유구리굿모닝점","tel":"031-554-2935","addr":"경기도 구리시 인창동 707번지 동문굿모닝힐 상가동 1층 102,103호","indutype":"유통업 영리 - 편 의 점","category":"other"}]},{"lat":"37.600728741","long":"127.13604116","imageIndex":17,"items":[{"name":"솔리드 세라믹","tel":"031-565-3377","addr":"경기도 구리시 인창동 609-1번지","indutype":"건축자재 - 건축용 요업제품","category":"other"}]},{"lat":"37.604202701","long":"127.13937677","imageIndex":17,"items":[{"name":"수컴퓨터","tel":"031-513-0119","addr":"경기도 구리시 인창동 313-33번지","indutype":"수리서비스 - 사무·통신기기수리","category":"other"},{"name":"아이베스","tel":"031-512-1370","addr":"경기도 구리시 인창동 313-33번지 1층","indutype":"의류 - 정장","category":"other"}]},{"lat":"37.60927992","long":"127.13522965","imageIndex":17,"items":[{"name":"수퍼피","tel":"031-556-3987","addr":"경기도 구리시 인창동 497-6번지","indutype":"문화.취미 - 애완동물","category":"other"},{"name":"태인엔터프라이즈","tel":"02-2217-3127","addr":"경기도 구리시 인창동 497-6번지","indutype":"전기제품 - 가전제품","category":"other"}]},{"lat":"37.607091968","long":"127.13395738","imageIndex":17,"items":[{"name":"스터디카페공간구리인창점","tel":"031-568-0381","addr":"경기도 구리시 인창동 527-22번지 상빈빌딩 201호","indutype":"용역 서비스 - 사무서비스","category":"other"}]},{"lat":"37.604536362","long":"127.13911691","imageIndex":17,"items":[{"name":"실리","tel":"031-552-0312","addr":"경기도 구리시 인창동 313-52번지","indutype":"의류 - 정장","category":"other"}]},{"lat":"37.608507425","long":"127.1331218","imageIndex":17,"items":[{"name":"씨유구리원일점","tel":"031-567-2262","addr":"경기도 구리시 인창동 651-72번지","indutype":"유통업 영리 - 편 의 점","category":"other"}]},{"lat":"37.608421252","long":"127.13765172","imageIndex":17,"items":[{"name":"씨유인창현대점","tel":"031-564-8342","addr":"경기도 구리시 인창동 383-19번지","indutype":"유통업 영리 - 편 의 점","category":"other"},{"name":"크린위드현대홈타운점","tel":"031-568-8525","addr":"경기도 구리시 인창동 383-19번지","indutype":"수리서비스 - 세탁소","category":"other"}]},{"lat":"37.61177863","long":"127.14047788","imageIndex":17,"items":[{"name":"아름사","tel":"031-8034-2299","addr":"경기도 구리시 인창동 419-7번지 구리롯데아울렛 2층","indutype":"수리서비스 - 세탁소","category":"other"}]},{"lat":"37.604585118","long":"127.13586684","imageIndex":17,"items":[{"name":"아름창","tel":"031-567-3364","addr":"경기도 구리시 인창동 582-18번지 지층","indutype":"직물 - 카페트,커튼,천막,지물","category":"other"}]},{"lat":"37.608723846","long":"127.1329523","imageIndex":17,"items":[{"name":"아이로","tel":"031-554-0113","addr":"경기도 구리시 인창동 493-3번지 301호","indutype":"서적문구 - 완구점","category":"other"}]},{"lat":"37.604534482","long":"127.14073633","imageIndex":17,"items":[{"name":"아이로보","tel":"031-551-2569","addr":"경기도 구리시 인창동 670-8번지 브이샤르망 602호","indutype":"서적문구 - 완구점","category":"other"},{"name":"에스엠프린팅","tel":"031-552-5721","addr":"경기도 구리시 인창동 670-8번지 구리브이샤르망 603호","indutype":"용역 서비스 - 종합용역","category":"other"},{"name":"지능로봇교육연구회구리센터","tel":"031-555-1535","addr":"경기도 구리시 인창동 670-8 샤르망 1001-2호","indutype":"회원제형태 - 기타4","category":"other"}]},{"lat":"37.60408939","long":"127.13603582","imageIndex":17,"items":[{"name":"양지건설","tel":"031-566-2778","addr":"경기도 구리시 인창동 587번지","indutype":"용역 서비스 - 기타용역서비스","category":"other"}]},{"lat":"37.60450568","long":"127.1343945","imageIndex":17,"items":[{"name":"양지세탁소","tel":"031-557-8333","addr":"경기도 구리시 인창동 576-10번지 성림 상가 108호","indutype":"수리서비스 - 세탁소","category":"other"},{"name":"천일부속","tel":"031-563-6189","addr":"경기도 구리시 인창동 576-10번지 성림상가연립 101호","indutype":"기타 - 기계공구","category":"other"}]},{"lat":"37.609168996","long":"127.1377097","imageIndex":17,"items":[{"name":"얼룩빼기 이박사","tel":"031-551-3788","addr":"경기도 구리시 인창동 412-16번지 1층","indutype":"수리서비스 - 세탁소","category":"other"}]},{"lat":"37.610090923","long":"127.13511784","imageIndex":17,"items":[{"name":"에스제이코리아","tel":"","addr":"경기도 구리시 인창동 705번지 인창2차이-편한세상 105동 1002호","indutype":"신변잡화 - 기타잡화","category":"other"}]},{"lat":"37.613341843","long":"127.13653933","imageIndex":17,"items":[{"name":"에스케이 시스템","tel":"","addr":"경기도 구리시 인창동 480번지 우방아이유쉘 102동 1403호","indutype":"용역 서비스 - 종합용역","category":"other"},{"name":"휴","tel":"","addr":"경기도 구리시 인창동 480번지 우방아이유쉘 102동 105호","indutype":"의류 - 정장","category":"other"}]},{"lat":"37.60156253","long":"127.13964372","imageIndex":17,"items":[{"name":"에어컨트리","tel":"","addr":"경기도 구리시 인창동 277-14번지 백합주택 지층 3호","indutype":"용역 서비스 - 기타용역서비스","category":"other"}]},{"lat":"37.603119897","long":"127.13284062","imageIndex":17,"items":[{"name":"엘엔티코리아","tel":"031-563-3382","addr":"경기도 구리시 인창동 563-79번지","indutype":"기타 - 기타 전문점","category":"other"},{"name":"영남미싱상사","tel":"031-567-3540","addr":"경기도 구리시 인창동 563-79번지","indutype":"기타 - 기계공구","category":"other"}]},{"lat":"37.609285811","long":"127.13798172","imageIndex":17,"items":[{"name":"엘지전자(주) 구리서비스센터","tel":"02-3777-1114","addr":"경기도 구리시 인창동 412-15번지 인창프라자 3층","indutype":"수리서비스 - 가정용품수리","category":"other"}]},{"lat":"37.600618008","long":"127.13833973","imageIndex":17,"items":[{"name":"엘케이대박통신 구리점","tel":"031-565-7770","addr":"경기도 구리시 인창동 285-1번지 1층","indutype":"사무통신 - 통신기기","category":"other"}]},{"lat":"37.6068342","long":"127.13881533","imageIndex":17,"items":[{"name":"여왕산후조리원","tel":"031-555-4530","addr":"경기도 구리시 인창동 383-101번지","indutype":"기타의료기관 - 산후조리원","category":"other"},{"name":"웰빙휘트니스","tel":"031-551-1044","addr":"경기도 구리시 인창동 383-101번지 한진빌딩 3층","indutype":"회원제형태 - 레져업소","category":"other"}]},{"lat":"37.603838769","long":"127.13456319","imageIndex":17,"items":[{"name":"여운","tel":"","addr":"경기도 구리시 인창동 570-12번지 리버타운 402호","indutype":"주방용구 - 주방용식기","category":"other"}]},{"lat":"37.607618334","long":"127.1385676","imageIndex":17,"items":[{"name":"연율통신","tel":"031-514-6010","addr":"경기도 구리시 인창동 383-52번지","indutype":"사무통신 - 통신기기","category":"other"}]},{"lat":"37.60161626","long":"127.13992693","imageIndex":17,"items":[{"name":"영원인테리어","tel":"031-554-7833","addr":"경기도 구리시 인창동 277-16번지","indutype":"직물 - 카페트,커튼,천막,지물","category":"other"},{"name":"크로바패션","tel":"070-8866-7412","addr":"경기도 구리시 인창동 277-16번지 2층","indutype":"신변잡화 - 가방","category":"other"}]},{"lat":"37.602117869","long":"127.13459413","imageIndex":17,"items":[{"name":"와이에이취(YH)냉동","tel":"","addr":"경기도 구리시 인창동 605-115번지 301호","indutype":"용역 서비스 - 기타용역서비스","category":"other"}]},{"lat":"37.603669217","long":"127.13309071","imageIndex":17,"items":[{"name":"우림유니폼","tel":"031-567-9925","addr":"경기도 구리시 인창동 573-18번지","indutype":"의류 - 정장","category":"other"}]},{"lat":"37.617257297","long":"127.13984236","imageIndex":17,"items":[{"name":"원더마켓","tel":"070-8659-5999","addr":"경기도 구리시 인창동 30-18번지 E","indutype":"의류 - 아동의류","category":"other"}]},{"lat":"37.60303609","long":"127.13528654","imageIndex":17,"items":[{"name":"월드크리닝 구리인창점","tel":"031-556-5300","addr":"경기도 구리시 인창동 568-12번지 1층","indutype":"수리서비스 - 세탁소","category":"other"}]},{"lat":"37.603367636","long":"127.13689519","imageIndex":17,"items":[{"name":"위우부띠끄(WIW Boutique)","tel":"","addr":"경기도 구리시 인창동 305번지 트윈빌 102호","indutype":"의류 - 정장","category":"other"}]},{"lat":"37.609503696","long":"127.13653246","imageIndex":17,"items":[{"name":"유리항공여행사","tel":"031-552-2531","addr":"경기도 구리시 인창동 498-4번지","indutype":"여행 - 관광여행","category":"other"}]},{"lat":"37.6124106","long":"127.13936911","imageIndex":17,"items":[{"name":"유앤아이","tel":"","addr":"경기도 구리시 인창동 691번지 원일가대라곡아파트 201동 12층 5호","indutype":"용역 서비스 - 기타용역서비스","category":"other"}]},{"lat":"37.609418169","long":"127.13243254","imageIndex":17,"items":[{"name":"이사인","tel":"031-636-1163","addr":"경기도 구리시 인창동 493-16번지 현산빌딩","indutype":"용역 서비스 - 기타용역서비스","category":"other"}]},{"lat":"37.607447084","long":"127.13862392","imageIndex":17,"items":[{"name":"이승현플라워","tel":"031-555-8886","addr":"경기도 구리시 인창동 383-17번지","indutype":"문화.취미 - 화원","category":"other"}]},{"lat":"37.603619045","long":"127.13765438","imageIndex":17,"items":[{"name":"이지디자인","tel":"031-569-2323","addr":"경기도 구리시 인창동 309-24번지 201호","indutype":"서적문구 - 출판 및 인쇄물","category":"other"}]},{"lat":"37.622697849","long":"127.14098507","imageIndex":17,"items":[{"name":"인스라이팅","tel":"031-567-8132","addr":"경기도 구리시 인창동 20-1번지","indutype":"건축자재 - 조명기구","category":"other"}]},{"lat":"37.608200103","long":"127.13401595","imageIndex":17,"items":[{"name":"인창B&G","tel":"031-516-2283","addr":"경기도 구리시 인창동 487-49번지 인창빌딩 지층","indutype":"회원제형태 - 레져업소","category":"other"},{"name":"인창B&G","tel":"031-516-2283","addr":"경기도 구리시 인창동 487-49번지","indutype":"회원제형태 - 레져업소","category":"other"}]},{"lat":"37.605478255","long":"127.14265195","imageIndex":17,"items":[{"name":"인창인테리어","tel":"031-568-1104","addr":"경기도 구리시 인창동 667-1 삼보상가 124","indutype":"건축자재 - 인테리어전문","category":"other"}]},{"lat":"37.606695325","long":"127.13414921","imageIndex":17,"items":[{"name":"장에이앤디인테리어예","tel":"031-562-3759","addr":"경기도 구리시 인창동 527-73번지","indutype":"건축자재 - 인테리어전문","category":"other"},{"name":"칼라앤크린","tel":"031-567-8284","addr":"경기도 구리시 인창동 527-73번지","indutype":"의류 - 기타의류","category":"other"},{"name":"큰옷 137","tel":"031-551-0137","addr":"경기도 구리시 인창동 527-73번지 104호","indutype":"의류 - 정장","category":"other"}]},{"lat":"37.606784956","long":"127.13456839","imageIndex":17,"items":[{"name":"전자담배","tel":"031-3213-3758","addr":"경기도 구리시 인창동 517-3번지 1층","indutype":"기타 - 기타 전문점","category":"other"}]},{"lat":"37.60556417","long":"127.1304327","imageIndex":17,"items":[{"name":"제이에이치(JH)공조","tel":"02-3390-4824","addr":"경기도 구리시 인창동 622-6번지","indutype":"용역 서비스 - 기타용역서비스","category":"other"}]},{"lat":"37.600952702","long":"127.13717396","imageIndex":17,"items":[{"name":"제일전파사","tel":"031-563-2111","addr":"경기도 구리시 인창동 288-1번지","indutype":"수리서비스 - 가정용품수리","category":"other"}]},{"lat":"37.613250987","long":"127.1372074","imageIndex":17,"items":[{"name":"조경패션","tel":"","addr":"경기도 구리시 인창동 712번지 인창풍림아이원 101동 1202호","indutype":"의류 - 내의판매","category":"other"}]},{"lat":"37.603728655","long":"127.13634094","imageIndex":17,"items":[{"name":"조선일보 인창,서인창 센터","tel":"031-553-1887","addr":"경기도 구리시 인창동 589-2번지 평강교회 103호","indutype":"서적문구 - 정기간행물","category":"other"}]},{"lat":"37.609756748","long":"127.13584207","imageIndex":17,"items":[{"name":"조아스포츠","tel":"070-8741-6691","addr":"경기도 구리시 인창동 458-17번지 1층","indutype":"레져용품 - 스포츠·레져용품","category":"other"}]},{"lat":"37.607141389","long":"127.13806844","imageIndex":17,"items":[{"name":"조이엠랩","tel":"070-8286-9614","addr":"경기도 구리시 인창동 384-5번지 장자정육점 401호","indutype":"용역 서비스 - 종합용역","category":"other"},{"name":"홈스토리 생활 구리남양주지사","tel":"070-7404-8255","addr":"경기도 구리시 인창동 384-5번지 장자정육점 302호","indutype":"용역 서비스 - 종합용역","category":"other"}]},{"lat":"37.606808184","long":"127.13793194","imageIndex":17,"items":[{"name":"주식회사 이룸기업","tel":"031-1544-3131","addr":"경기도 구리시 인창동 386번지 2층","indutype":"용역 서비스 - 기타용역서비스","category":"other"}]},{"lat":"37.620059137","long":"127.14000608","imageIndex":17,"items":[{"name":"주식회사 화성방염","tel":"031-563-3893","addr":"경기도 구리시 인창동 14-25번지 1층","indutype":"용역 서비스 - 기타용역서비스","category":"other"}]},{"lat":"37.617916732","long":"127.13834845","imageIndex":17,"items":[{"name":"주식회사거성렌트카구리영업소","tel":"031-551-0041","addr":"경기도 구리시 인창동 59-1번지 1층","indutype":"여행 - 렌터카","category":"other"}]},{"lat":"37.606142206","long":"127.12912","imageIndex":17,"items":[{"name":"주차금지","tel":"","addr":"경기도 구리시 인창동 629-1번지","indutype":"기타 - 기계공구","category":"other"}]},{"lat":"37.607339604","long":"127.1380688","imageIndex":17,"items":[{"name":"지나스킨케어","tel":"031-555-6505","addr":"경기도 구리시 인창동 383-55번지 2층","indutype":"회원제형태 - 기타4","category":"other"}]},{"lat":"37.617834889","long":"127.13900525","imageIndex":17,"items":[{"name":"진영금속","tel":"031-554-5013","addr":"경기도 구리시 인창동 32-8번지","indutype":"건축자재 - 기타건축자재","category":"other"}]},{"lat":"37.619420692","long":"127.13892885","imageIndex":17,"items":[{"name":"창대종합포장","tel":"031-527-7337","addr":"경기도 구리시 인창동 50-2번지","indutype":"유통업 영리 - 기타유통업","category":"other"}]},{"lat":"37.611980202","long":"127.13756754","imageIndex":17,"items":[{"name":"천일ENG","tel":"","addr":"경기도 구리시 인창동 450-3번지 1층","indutype":"건축자재 - 인테리어전문","category":"other"}]},{"lat":"37.602089851","long":"127.13547737","imageIndex":17,"items":[{"name":"컴랜드","tel":"031-552-8822","addr":"경기도 구리시 인창동 604-3번지 컴퓨터랜드 1층","indutype":"사무통신 - 컴퓨터","category":"other"}]},{"lat":"37.600645349","long":"127.13806801","imageIndex":17,"items":[{"name":"코레스무역","tel":"031-555-1121","addr":"경기도 구리시 인창동 284-1번지","indutype":"레져용품 - 스포츠·레져용품","category":"other"}]},{"lat":"37.608892717","long":"127.13503644","imageIndex":17,"items":[{"name":"퀸즈스킨앤바디","tel":"031-562-4441","addr":"경기도 구리시 인창동 495-25번지 202호","indutype":"회원제형태 - 기타4","category":"other"}]},{"lat":"37.607556263","long":"127.12956407","imageIndex":17,"items":[{"name":"크린에이드아름점","tel":"031-557-4806","addr":"경기도 구리시 인창동 640-34번지 1동 101호","indutype":"수리서비스 - 세탁소","category":"other"}]},{"lat":"37.606864435","long":"127.14376439","imageIndex":17,"items":[{"name":"크린토피아(인창점)","tel":"031-567-7474","addr":"경기도 구리시 인창동 666-6번지 인창4단지주공단지 상가 103호","indutype":"수리서비스 - 세탁소","category":"other"}]},{"lat":"37.611174745","long":"127.13273005","imageIndex":17,"items":[{"name":"파퍼무스","tel":"02-6951-1515","addr":"경기도 구리시 인창동 491-1번지 아름마을인창래미안 502동 702호","indutype":"신변잡화 - 기타잡화","category":"other"}]},{"lat":"37.615728895","long":"127.13700798","imageIndex":17,"items":[{"name":"팝스DVD구리점","tel":"031-566-9095","addr":"경기도 구리시 인창동 67-6동원플레테이션 5층","indutype":"문화.취미 - 문화취미기타","category":"other"}]},{"lat":"37.617088577","long":"127.13770134","imageIndex":17,"items":[{"name":"페인터즈","tel":"031-551-7789","addr":"경기도 구리시 인창동 31-6번지 1층(건물중앙2칸)","indutype":"가구 - 기타가구","category":"other"}]},{"lat":"37.609755519","long":"127.1369293","imageIndex":17,"items":[{"name":"플랜A 스터디카페 구리 인창점","tel":"031-513-0933","addr":"경기도 구리시 인창동 408-28번지 인성빌딩 6층","indutype":"용역 서비스 - 사무서비스","category":"other"}]},{"lat":"37.609229857","long":"127.13161679","imageIndex":17,"items":[{"name":"플레이어 (Zahir)","tel":"","addr":"경기도 구리시 인창동 651-27번지 아름마을원일아파트","indutype":"의류 - 정장","category":"other"}]},{"lat":"37.602948923","long":"127.13264781","imageIndex":17,"items":[{"name":"피앤엘실업","tel":"","addr":"경기도 구리시 인창동 563-22번지 2층","indutype":"직물 - 침구·수예점","category":"other"}]},{"lat":"37.618362695","long":"127.14223432","imageIndex":17,"items":[{"name":"하울","tel":"031-000-0000","addr":"경기도 구리시 인창동 29번지 한진그랑빌 상가동 3층 303호","indutype":"신변잡화 - 액세서리","category":"other"},{"name":"한진세탁소","tel":"031-558-1555","addr":"경기도 구리시 인창동 29번지 한진그랑빌 110호","indutype":"수리서비스 - 세탁소","category":"other"}]},{"lat":"37.616781611","long":"127.13825578","imageIndex":17,"items":[{"name":"한강정보통신","tel":"02-1111-1111","addr":"경기도 구리시 인창동 31-13번지","indutype":"사무통신 - 통신기기","category":"other"},{"name":"혼자두지말개/주식회사 잡을손","tel":"031-551-5353","addr":"경기도 구리시 인창동 31-13번지 2층","indutype":"문화.취미 - 애완동물","category":"other"}]},{"lat":"37.611532354","long":"127.13523364","imageIndex":17,"items":[{"name":"한나문구","tel":"031-552-0734","addr":"경기도 구리시 인창동 469-1번지","indutype":"서적문구 - 문구용품","category":"other"}]},{"lat":"37.609198641","long":"127.13539939","imageIndex":17,"items":[{"name":"한도공사","tel":"031-556-5764","addr":"경기도 구리시 인창동 495-6번지","indutype":"용역 서비스 - 종합용역","category":"other"}]},{"lat":"37.619140684","long":"127.13953999","imageIndex":17,"items":[{"name":"한진종합배관","tel":"031-569-8331","addr":"경기도 구리시 인창동 49-3번지","indutype":"건축자재 - 보일러·펌프·샷시","category":"other"}]},{"lat":"37.6074515","long":"127.13472811","imageIndex":17,"items":[{"name":"해뜰","tel":"031-565-0996","addr":"경기도 구리시 인창동 519-11번지","indutype":"기타 - 기타 전문점","category":"other"}]},{"lat":"37.608891775","long":"127.1358745","imageIndex":17,"items":[{"name":"행복애짐","tel":"031-556-0179","addr":"경기도 구리시 인창동 506번지 경산빌딩","indutype":"회원제형태 - 레져업소","category":"other"}]},{"lat":"37.609616607","long":"127.13222903","imageIndex":17,"items":[{"name":"행복한세상","tel":"031-567-0640","addr":"경기도 구리시 인창동 493-1번지 승호빌딩 106호","indutype":"회원제형태 - 기타4","category":"other"}]},{"lat":"37.607650936","long":"127.13362993","imageIndex":17,"items":[{"name":"협동조합 온","tel":"","addr":"경기도 구리시 인창동 703번지 동원베네스트 104동 301호","indutype":"신변잡화 - 기타잡화","category":"other"}]}]