[{"lat":"37.3295925147","long":"126.9524008837","imageIndex":4,"items":[{"name":"(주)행복푸드","tel":"","addr":"경기도 의왕시 이동 218-68번지 1층","indutype":"일반휴게음식 - 일반한식","category":"restaurant"}]},{"lat":"37.3382266887","long":"126.9584210288","imageIndex":4,"items":[{"name":"꽃게별곡","tel":"031-461-1690","addr":"경기도 의왕시 이동 347-1번지 1층","indutype":"일반휴게음식 - 일반한식","category":"restaurant"},{"name":"식도락","tel":"","addr":"경기도 의왕시 이동 347-1번지 1층","indutype":"일반휴게음식 - 일반한식","category":"restaurant"}]},{"lat":"37.3305581753","long":"126.9562252946","imageIndex":4,"items":[{"name":"덕성식당","tel":"031-461-8998","addr":"경기도 의왕시 이동 595번지 부곡덕성주유소 1층","indutype":"일반휴게음식 - 일반한식","category":"restaurant"}]},{"lat":"37.3297541225","long":"126.9510693540","imageIndex":4,"items":[{"name":"두꺼비","tel":"031-462-2623","addr":"경기도 의왕시 이동 218-40번지 그린빌 101호","indutype":"일반휴게음식 - 일반한식","category":"restaurant"}]},{"lat":"37.3290608170","long":"126.9521755769","imageIndex":4,"items":[{"name":"베이징","tel":"031-461-9887","addr":"경기도 의왕시 이동 204-1번지 금천빌딩 1층 101호","indutype":"일반휴게음식 - 중국식","category":"restaurant"}]},{"lat":"37.3296733303","long":"126.9517576860","imageIndex":4,"items":[{"name":"병천순대 나주곰탕","tel":"031-461-3834","addr":"경기도 의왕시 이동 218-56번지 101호","indutype":"일반휴게음식 - 일반한식","category":"restaurant"}]},{"lat":"37.3298987985","long":"126.9522539965","imageIndex":4,"items":[{"name":"복이랑아구랑","tel":"031-461-8894","addr":"경기도 의왕시 이동 218-63번지","indutype":"일반휴게음식 - 일반한식","category":"restaurant"}]},{"lat":"37.3303699437","long":"126.9587867261","imageIndex":4,"items":[{"name":"삼일푸드시스템","tel":"031-462-0832","addr":"경기도 의왕시 이동 614-1번지 의왕ICD제2터미널 지하층","indutype":"일반휴게음식 - 위탁급식업","category":"restaurant"}]},{"lat":"37.3361982548","long":"126.9554770489","imageIndex":4,"items":[{"name":"삼일푸드시스템1","tel":"031-462-4752","addr":"경기도 의왕시 이동 40-16번지 의왕아이시디 후생관 1층","indutype":"일반휴게음식 - 위탁급식업","category":"restaurant"}]},{"lat":"37.3295656711","long":"126.9528409467","imageIndex":4,"items":[{"name":"샛집","tel":"031-461-0466","addr":"경기도 의왕시 이동 218-77번지","indutype":"일반휴게음식 - 일반한식","category":"restaurant"}]},{"lat":"37.3297272004","long":"126.9513176035","imageIndex":4,"items":[{"name":"이동불백","tel":"031-461-9664","addr":"경기도 의왕시 이동 218-46번지 효창빌딩 101호","indutype":"일반휴게음식 - 일반한식","category":"restaurant"}]},{"lat":"37.3295655898","long":"126.9526491323","imageIndex":4,"items":[{"name":"카페큐브(Cafe CUBE)","tel":"070-7804-3505","addr":"경기도 의왕시 이동 218-74번지 현대블루빌 103호","indutype":"일반휴게음식 - 서양음식","category":"restaurant"}]},{"lat":"37.3296463824","long":"126.9519495190","imageIndex":4,"items":[{"name":"토속정","tel":"031-461-6634","addr":"경기도 의왕시 이동 218-59번지 102호","indutype":"일반휴게음식 - 일반한식","category":"restaurant"}]},{"lat":"37.3410902396","long":"126.9541423522","imageIndex":4,"items":[{"name":"홍성참숯갈비","tel":"031-462-9000","addr":"경기도 의왕시 이동 35번지","indutype":"일반휴게음식 - 일반한식","category":"restaurant"}]}]