[{"lat":"37.296241276","long":"127.64063966","imageIndex":0,"items":[{"name":"국도상사","tel":"031-884-8555","addr":"경기도 여주시 상동 276번지","indutype":"자동차정비 유지 - 가타자동차서비스","category":"car"}]},{"lat":"37.29443622","long":"127.64619564","imageIndex":0,"items":[{"name":"국제칼라","tel":"031-883-7782","addr":"경기도 여주시 상동 139-7번지","indutype":"자동차정비 유지 - 카인테리어","category":"car"},{"name":"스팀손세차","tel":"","addr":"경기도 여주시 상동 139-7번지","indutype":"자동차정비 유지 - 세차장","category":"car"}]},{"lat":"37.2923604958","long":"127.6451629955","imageIndex":0,"items":[{"name":"대흥카센타","tel":"031-885-1648","addr":"경기도 여주시 상동 122-2","indutype":"자동차정비 유지 - 자동차정비","category":"car"}]},{"lat":"37.293023784","long":"127.64580018","imageIndex":0,"items":[{"name":"또깡","tel":"031-885-1335","addr":"경기도 여주시 상동 121-4번지","indutype":"자동차정비 유지 - 자동차부품","category":"car"}]},{"lat":"37.291800953","long":"127.64366963","imageIndex":0,"items":[{"name":"또깡 II","tel":"031-885-1335","addr":"경기도 여주시 상동 107-1번지","indutype":"자동차정비 유지 - 자동차부품","category":"car"},{"name":"세종자동차유리","tel":"031-885-7766","addr":"경기도 여주시 상동 107-1번지","indutype":"자동차정비 유지 - 자동차부품","category":"car"}]},{"lat":"37.2915200165","long":"127.6406336400","imageIndex":0,"items":[{"name":"만능카오디오","tel":"031-886-6569","addr":"경기도 여주시 상동 370-7번지","indutype":"자동차정비 유지 - 자동차부품","category":"car"}]},{"lat":"37.292192336","long":"127.64293991","imageIndex":0,"items":[{"name":"삼양카쎈타","tel":"031-885-4131","addr":"경기도 여주시 상동 341-2번지","indutype":"자동차정비 유지 - 자동차정비","category":"car"}]},{"lat":"37.295499195","long":"127.64291154","imageIndex":0,"items":[{"name":"세종오토바이","tel":"031-884-1149","addr":"경기도 여주시 상동 317-2번지","indutype":"자동차판매 - 이륜차판매","category":"car"}]},{"lat":"37.291691626","long":"127.64055615","imageIndex":0,"items":[{"name":"세종자동차공업사","tel":"031-884-8854","addr":"경기도 여주시 상동 370-8번지","indutype":"자동차정비 유지 - 자동차정비","category":"car"}]},{"lat":"37.294660114","long":"127.64644566","imageIndex":0,"items":[{"name":"에이치제이모터스","tel":"031-886-8002","addr":"경기도 여주시 상동 140-10번지","indutype":"자동차정비 유지 - 자동차정비","category":"car"}]},{"lat":"37.2949413012","long":"127.6444405980","imageIndex":0,"items":[{"name":"영광오토바이","tel":"031-885-4595","addr":"경기도 여주시 상동 156-1번지","indutype":"자동차판매 - 이륜차판매","category":"car"}]},{"lat":"37.289384454","long":"127.64897188","imageIndex":0,"items":[{"name":"영진자동차공업사","tel":"031-883-6258","addr":"경기도 여주시 상동 482-19번지","indutype":"자동차정비 유지 - 자동차정비","category":"car"}]},{"lat":"37.293277878","long":"127.64046804","imageIndex":0,"items":[{"name":"파워자동차공업사","tel":"031-885-6033","addr":"경기도 여주시 상동 368-4번지","indutype":"자동차정비 유지 - 자동차정비","category":"car"}]},{"lat":"37.294827924","long":"127.64540953","imageIndex":0,"items":[{"name":"한국타이어신여주총판","tel":"031-883-2747","addr":"경기도 여주시 상동 141-2번지","indutype":"자동차정비 유지 - 자동차시트·타이어","category":"car"}]}]