[{"lat":"37.226462116","long":"126.9911747","imageIndex":17,"items":[{"name":"(주)동성전자","tel":"031-222-6360","addr":"경기도 화성시 배양동 66-2번지","indutype":"전기제품 - 기타전기제품","category":"other"},{"name":"태성하이테크/원격지","tel":"031-222-9201","addr":"경기도 화성시 배양동 66-2번지","indutype":"기타 - 기타 전문점","category":"other"}]},{"lat":"37.226047854","long":"126.99358607","imageIndex":17,"items":[{"name":"B&M","tel":"031-226-2398","addr":"경기도 화성시 배양동 62-7번지","indutype":"전기제품 - 기타전기제품","category":"other"}]},{"lat":"37.225300038","long":"126.99414955","imageIndex":17,"items":[{"name":"가산기획","tel":"031-224-4045","addr":"경기도 화성시 배양동 61번지","indutype":"용역 서비스 - 종합용역","category":"other"}]},{"lat":"37.220461356","long":"126.9926516","imageIndex":17,"items":[{"name":"고원","tel":"031-239-2902","addr":"경기도 화성시 배양동 69-412번지","indutype":"가구 - 일반가구","category":"other"}]},{"lat":"37.222524514","long":"126.99042041","imageIndex":17,"items":[{"name":"꽃피는 솜사탕","tel":"031-000-0000","addr":"경기도 화성시 배양동 69-443번지","indutype":"주방용구 - 주방용구","category":"other"}]},{"lat":"37.226768645","long":"126.993124","imageIndex":17,"items":[{"name":"꾸러기체육교실","tel":"031-293-5031","addr":"경기도 화성시 배양동 62-3번지","indutype":"용역 서비스 - 종합용역","category":"other"}]},{"lat":"37.22088483","long":"126.99250507","imageIndex":17,"items":[{"name":"늘솜","tel":"031-222-5430","addr":"경기도 화성시 배양동 69-86번지","indutype":"문화.취미 - 문화취미기타","category":"other"}]},{"lat":"37.225273054","long":"126.99481434","imageIndex":17,"items":[{"name":"대신기업","tel":"031-226-5237","addr":"경기도 화성시 배양동 60-1번지","indutype":"수리서비스 - 세탁소","category":"other"}]},{"lat":"37.226048072","long":"126.99697767","imageIndex":17,"items":[{"name":"대은포장","tel":"031-223-4422","addr":"경기도 화성시 배양동 29번지","indutype":"유통업 영리 - 기타유통업","category":"other"}]},{"lat":"37.22332644","long":"126.99045408","imageIndex":17,"items":[{"name":"드림자동화","tel":"02-886-1871","addr":"경기도 화성시 배양동 69-169번지 드림자동화","indutype":"기타 - 기계공구","category":"other"}]},{"lat":"37.218713392","long":"126.9932039","imageIndex":17,"items":[{"name":"디자인타임","tel":"","addr":"경기도 화성시 배양동 15-235번지","indutype":"용역 서비스 - 사무서비스","category":"other"}]},{"lat":"37.224489103","long":"126.99411584","imageIndex":17,"items":[{"name":"렌탈세븐/주식회사 세븐 (seven)","tel":"031-1599-6545","addr":"경기도 화성시 배양동 61-24번지","indutype":"신변잡화 - 기타잡화","category":"other"}]},{"lat":"37.220992985","long":"126.9928656","imageIndex":17,"items":[{"name":"명성크린세탁","tel":"031-292-8789","addr":"경기도 화성시 배양동 69-352","indutype":"수리서비스 - 세탁소","category":"other"}]},{"lat":"37.226579581","long":"126.99519731","imageIndex":17,"items":[{"name":"봉담중기 (한신중기)","tel":"031-227-9874","addr":"경기도 화성시 배양동 36번지","indutype":"기타 - 기계공구","category":"other"}]},{"lat":"37.22535418","long":"126.99531011","imageIndex":17,"items":[{"name":"비에이테크21","tel":"031-293-4319","addr":"경기도 화성시 배양동 19-1번지","indutype":"기타 - 기계공구","category":"other"}]},{"lat":"37.222191525","long":"126.99500621","imageIndex":17,"items":[{"name":"소리테크","tel":"031-221-6192","addr":"경기도 화성시 배양동 19-18번지","indutype":"기타 - 기계공구","category":"other"},{"name":"주식회사 진성머신","tel":"031-237-8604","addr":"경기도 화성시 배양동 19-18번지","indutype":"기타 - 기계공구","category":"other"}]},{"lat":"37.22140736","long":"126.99172757","imageIndex":17,"items":[{"name":"스타우드가구","tel":"031-236-7249","addr":"경기도 화성시 배양동 69-130번지 A동","indutype":"가구 - 일반가구","category":"other"}]},{"lat":"37.225129007","long":"126.99680873","imageIndex":17,"items":[{"name":"신영전산품","tel":"031-256-2342","addr":"경기도 화성시 배양동 24-4번지","indutype":"유통업 영리 - 기타유통업","category":"other"}]},{"lat":"37.225408034","long":"126.99256079","imageIndex":17,"items":[{"name":"신진전기","tel":"031-366-6658","addr":"경기도 화성시 배양동 65-114번지","indutype":"전기제품 - 기타전기제품","category":"other"}]},{"lat":"37.226993804","long":"126.99197464","imageIndex":17,"items":[{"name":"씨유화성배양점","tel":"080-080-3663","addr":"경기도 화성시 배양동 55-1번지 1층","indutype":"유통업 영리 - 편 의 점","category":"other"}]},{"lat":"37.221218356","long":"126.99428522","imageIndex":17,"items":[{"name":"아름다운포장","tel":"031-338-0178","addr":"경기도 화성시 배양동 19-305","indutype":"유통업 영리 - 기타유통업","category":"other"}]},{"lat":"37.220551515","long":"126.99331634","imageIndex":17,"items":[{"name":"애니텍","tel":"031-224-3293","addr":"경기도 화성시 배양동 15-262번지","indutype":"기타 - 기계공구","category":"other"}]},{"lat":"37.224245915","long":"126.9954567","imageIndex":17,"items":[{"name":"에스케이/게이트뱅크(일반)","tel":"031-359-8898","addr":"경기도 화성시 배양동 19-274번지","indutype":"기타 - 기타 전문점","category":"other"}]},{"lat":"37.219217574","long":"126.98917034","imageIndex":17,"items":[{"name":"예쁜집인테리어","tel":"031-223-2468","addr":"경기도 화성시 배양동 69-304번지 1층 1-6호","indutype":"건축자재 - 인테리어전문","category":"other"}]},{"lat":"37.225435355","long":"126.99672983","imageIndex":17,"items":[{"name":"용수정밀/원격지","tel":"031-225-1894","addr":"경기도 화성시 배양동 24-1번지","indutype":"기타 - 기타 전문점","category":"other"}]},{"lat":"37.227020747","long":"126.99106194","imageIndex":17,"items":[{"name":"유니디자인","tel":"","addr":"경기도 화성시 배양동 57-10번지","indutype":"용역 서비스 - 종합용역","category":"other"}]},{"lat":"37.218604993","long":"126.99028585","imageIndex":17,"items":[{"name":"인덕산업","tel":"031-235-3201","addr":"경기도 화성시 배양동 69-420번지","indutype":"기타 - 기계공구","category":"other"}]},{"lat":"37.219244711","long":"126.99011675","imageIndex":17,"items":[{"name":"제이에스 이밴트&기획(J.S이밴트&기획)","tel":"","addr":"경기도 화성시 배양동 69-423번지 외 1필지","indutype":"용역 서비스 - 종합용역","category":"other"}]},{"lat":"37.224218592","long":"126.99172716","imageIndex":17,"items":[{"name":"주식회사 덕연산업","tel":"031-613-5818","addr":"경기도 화성시 배양동 65-82번지","indutype":"건축자재 - 인테리어전문","category":"other"}]},{"lat":"37.218658829","long":"126.98831418","imageIndex":17,"items":[{"name":"주식회사 동화금속산업","tel":"031-296-0297","addr":"경기도 화성시 배양동 69-309번지","indutype":"건축자재 - 목재·석재·철물","category":"other"}]},{"lat":"37.224660318","long":"126.9943637","imageIndex":17,"items":[{"name":"진선물산","tel":"031-221-0885","addr":"경기도 화성시 배양동 61-1번지","indutype":"회원제형태 - 기타4","category":"other"}]},{"lat":"37.226543552","long":"126.99540013","imageIndex":17,"items":[{"name":"진성E.N.G","tel":"031-222-6835","addr":"경기도 화성시 배양동 35-9번지","indutype":"용역 서비스 - 기타용역서비스","category":"other"}]},{"lat":"37.217631454","long":"126.98681593","imageIndex":17,"items":[{"name":"청담 민속품. 중고물품 경매장","tel":"031-234-8775","addr":"경기도 화성시 배양동 69-620번지","indutype":"문화.취미 - 민예·공예품","category":"other"}]},{"lat":"37.218497134","long":"126.99309127","imageIndex":17,"items":[{"name":"케이엠디 이엔지(KMD ENG)","tel":"031-224-5712","addr":"경기도 화성시 배양동 15-292번지 B동","indutype":"기타 - 기계공구","category":"other"}]},{"lat":"37.224822621","long":"126.99617777","imageIndex":17,"items":[{"name":"하나로기획","tel":"031-222-4338","addr":"경기도 화성시 배양동 19-10번지","indutype":"건축자재 - 인테리어전문","category":"other"}]},{"lat":"37.22140732","long":"126.99131069","imageIndex":17,"items":[{"name":"한진산업건설정보통신","tel":"031-223-2368","addr":"경기도 화성시 배양동 69-139번지","indutype":"건축자재 - 보일러·펌프·샷시","category":"other"}]},{"lat":"37.224299948","long":"126.99500599","imageIndex":17,"items":[{"name":"현대세탁용역","tel":"031-226-9594","addr":"경기도 화성시 배양동 19-217번지","indutype":"수리서비스 - 세탁소","category":"other"}]}]