[{"lat":"37.485234054","long":"126.79130215","imageIndex":0,"items":[{"name":"금성자동차공업사","tel":"032-349-2846","addr":"경기도 부천시 소사동 8-13번지","indutype":"자동차정비 유지 - 자동차정비","category":"car"}]},{"lat":"37.483874735","long":"126.79707222","imageIndex":0,"items":[{"name":"남양카써비스","tel":"032-341-7899","addr":"경기도 부천시 소사동 41-3번지","indutype":"자동차정비 유지 - 자동차정비","category":"car"}]},{"lat":"37.484207135","long":"126.79651729","imageIndex":0,"items":[{"name":"뉴모텍부천","tel":"032-344-4020","addr":"경기도 부천시 소사동 27-13번지 우리하이츠 101,102호","indutype":"자동차정비 유지 - 자동차부품","category":"car"}]},{"lat":"37.484512208","long":"126.79071625","imageIndex":0,"items":[{"name":"달리 이펙트","tel":"070-3231-9094","addr":"경기도 부천시 소사동 79-16번지 1층","indutype":"자동차정비 유지 - 자동차부품","category":"car"}]},{"lat":"37.486150809","long":"126.79004452","imageIndex":0,"items":[{"name":"대성오토바이매매상사","tel":"032-684-5282","addr":"경기도 부천시 소사동 6-1번지","indutype":"자동차판매 - 이륜차판매","category":"car"}]},{"lat":"37.483820242","long":"126.79682363","imageIndex":0,"items":[{"name":"덴트하우스","tel":"032-341-0585","addr":"경기도 부천시 소사동 41-1번지","indutype":"자동차정비 유지 - 가타자동차서비스","category":"car"}]},{"lat":"37.484960214","long":"126.79437829","imageIndex":0,"items":[{"name":"명성기업","tel":"032-349-1054","addr":"경기도 부천시 소사동 22-7번지 1층","indutype":"자동차정비 유지 - 자동차부품","category":"car"}]},{"lat":"37.485265812","long":"126.7939591","imageIndex":0,"items":[{"name":"미래서비스","tel":"032-341-6544","addr":"경기도 부천시 소사동 22-44번지","indutype":"자동차정비 유지 - 자동차부품","category":"car"}]},{"lat":"37.484565515","long":"126.79029776","imageIndex":0,"items":[{"name":"삼진카프라자","tel":"032-344-6668","addr":"경기도 부천시 소사동 80-83번지","indutype":"자동차정비 유지 - 자동차정비","category":"car"}]},{"lat":"37.485377847","long":"126.79109822","imageIndex":0,"items":[{"name":"성가자동차공업사","tel":"032-343-2074","addr":"경기도 부천시 소사동 8번지","indutype":"자동차정비 유지 - 자동차정비","category":"car"}]},{"lat":"37.484820287","long":"126.79168773","imageIndex":0,"items":[{"name":"은성카스테레오","tel":"032-349-1101","addr":"경기도 부천시 소사동 8-20번지","indutype":"자동차정비 유지 - 자동차부품","category":"car"}]},{"lat":"37.485710422","long":"126.79065633","imageIndex":0,"items":[{"name":"카덴","tel":"032-351-8277","addr":"경기도 부천시 소사동 6-23번지 1층","indutype":"자동차정비 유지 - 카인테리어","category":"car"}]},{"lat":"37.483814217","long":"126.79854221","imageIndex":0,"items":[{"name":"토토차동차공업사","tel":"032-345-7712","addr":"경기도 부천시 소사동 37-19번지 1층","indutype":"자동차정비 유지 - 자동차정비","category":"car"}]},{"lat":"37.485100139","long":"126.79199222","imageIndex":0,"items":[{"name":"하마카센타","tel":"032-348-1377","addr":"경기도 부천시 소사동 9-15번지","indutype":"자동차정비 유지 - 자동차정비","category":"car"}]},{"lat":"37.485315831","long":"126.79168634","imageIndex":0,"items":[{"name":"협성상사","tel":"032-347-9449","addr":"경기도 부천시 소사동 9-18번지","indutype":"자동차정비 유지 - 자동차부품","category":"car"}]}]