[{"lat":"37.3527830175","long":"126.9743153764","imageIndex":0,"items":[{"name":"고려엔지니어링","tel":"031-457-3653","addr":"경기도 의왕시 오전동 309-16번지","indutype":"자동차정비 유지 - 자동차부품","category":"car"}]},{"lat":"37.3596463766","long":"126.9657566922","imageIndex":0,"items":[{"name":"금성윤활유상사","tel":"031-458-0234","addr":"경기도 의왕시 오전동 813-31번지 1층","indutype":"자동차정비 유지 - 자동차정비","category":"car"}]},{"lat":"37.3510348197","long":"126.9733905527","imageIndex":0,"items":[{"name":"네비게이션서비스센터","tel":"031-427-7459","addr":"경기도 의왕시 오전동 324-10번지 덕암빌딩 101호","indutype":"자동차정비 유지 - 자동차부품","category":"car"}]},{"lat":"37.3572228437","long":"126.9663899774","imageIndex":0,"items":[{"name":"대명E.N.G","tel":"031-429-6618","addr":"경기도 의왕시 오전동 214-2번지","indutype":"자동차정비 유지 - 자동차부품","category":"car"}]},{"lat":"37.3667555739","long":"126.9663853604","imageIndex":0,"items":[{"name":"더 클린(The Clean)","tel":"070-9852-9080","addr":"경기도 의왕시 오전동 21번지 진달래아파트","indutype":"자동차정비 유지 - 세차장","category":"car"}]},{"lat":"37.3603930024","long":"126.9620652074","imageIndex":0,"items":[{"name":"루이스 스틸","tel":"031-464-7770","addr":"경기도 의왕시 오전동 37-1번지","indutype":"자동차정비 유지 - 카인테리어","category":"car"}]},{"lat":"37.3610327304","long":"126.9620874367","imageIndex":0,"items":[{"name":"삼흥차유리","tel":"031-455-2114","addr":"경기도 의왕시 오전동 35-6번지","indutype":"자동차정비 유지 - 자동차부품","category":"car"},{"name":"제웅상사","tel":"031-453-4767","addr":"경기도 의왕시 오전동 35-6번지","indutype":"자동차정비 유지 - 자동차부품","category":"car"}]},{"lat":"37.3501701635","long":"126.9747001005","imageIndex":0,"items":[{"name":"세일카프라자","tel":"031-457-1402","addr":"경기도 의왕시 오전동 334-1번지","indutype":"자동차정비 유지 - 자동차정비","category":"car"}]},{"lat":"37.3498378064","long":"126.9793614416","imageIndex":0,"items":[{"name":"시트명가","tel":"031-449-0511","addr":"경기도 의왕시 오전동 390번지 1층","indutype":"자동차정비 유지 - 자동차시트·타이어","category":"car"}]},{"lat":"37.3554745459","long":"126.9653411252","imageIndex":0,"items":[{"name":"신오오토넷","tel":"070-4366-2377","addr":"경기도 의왕시 오전동 172번지 동영벤처스텔 602호","indutype":"자동차정비 유지 - 자동차부품","category":"car"}]},{"lat":"37.3499458354","long":"126.9788986714","imageIndex":0,"items":[{"name":"신일오토","tel":"031-443-8694","addr":"경기도 의왕시 오전동 383-6번지","indutype":"자동차정비 유지 - 자동차정비","category":"car"}]},{"lat":"37.3560866867","long":"126.9636477441","imageIndex":0,"items":[{"name":"신현대자동차정비 주식회사","tel":"031-455-4972","addr":"경기도 의왕시 오전동 150-42","indutype":"자동차정비 유지 - 자동차정비","category":"car"}]},{"lat":"37.3580327586","long":"126.9632855321","imageIndex":0,"items":[{"name":"안양모터스","tel":"031-457-8898","addr":"경기도 의왕시 오전동 131-3번지","indutype":"자동차정비 유지 - 자동차정비","category":"car"}]},{"lat":"37.3515571571","long":"126.9723971366","imageIndex":0,"items":[{"name":"안양자동차배터리","tel":"031-429-5422","addr":"경기도 의왕시 오전동 315-48번지","indutype":"자동차정비 유지 - 자동차부품","category":"car"}]},{"lat":"37.3503142259","long":"126.9742824531","imageIndex":0,"items":[{"name":"애니카랜드 의왕점(세차장)","tel":"031-456-0842","addr":"경기도 의왕시 오전동 324-5번지","indutype":"자동차정비 유지 - 세차장","category":"car"}]},{"lat":"37.3540888137","long":"126.9716398919","imageIndex":0,"items":[{"name":"오전카센타","tel":"031-457-8776","addr":"경기도 의왕시 오전동 846-3번지","indutype":"자동차정비 유지 - 카인테리어","category":"car"}]},{"lat":"37.3682241348","long":"126.9660911351","imageIndex":0,"items":[{"name":"오토오아시스열린스타","tel":"031-453-8576","addr":"경기도 의왕시 오전동 11-9번지","indutype":"자동차정비 유지 - 자동차정비","category":"car"}]},{"lat":"37.3579511747","long":"126.9618407809","imageIndex":0,"items":[{"name":"우림카써비스","tel":"031-458-2553","addr":"경기도 의왕시 오전동 128번지","indutype":"자동차정비 유지 - 세차장","category":"car"}]},{"lat":"37.3592228749","long":"126.9656778873","imageIndex":0,"items":[{"name":"의왕자동차매매상사","tel":"031-457-6400","addr":"경기도 의왕시 오전동 107-3번지","indutype":"자동차판매 - 중고자동차판매","category":"car"}]},{"lat":"37.3539173604","long":"126.9706692939","imageIndex":0,"items":[{"name":"의왕특수렉카","tel":"031-455-6688","addr":"경기도 의왕시 오전동 843-3번지","indutype":"자동차정비 유지 - 견인서비스","category":"car"}]},{"lat":"37.3500090553","long":"126.9796435448","imageIndex":0,"items":[{"name":"인덕카센타(세차장)","tel":"031-453-1085","addr":"경기도 의왕시 오전동 399-2번지","indutype":"자동차정비 유지 - 세차장","category":"car"},{"name":"인덕카센타(세차장)","tel":"031-453-1085","addr":"경기도 의왕시 오전동 399-2번지","indutype":"자동차정비 유지 - 세차장","category":"car"},{"name":"현대오토피아","tel":"031-427-1660","addr":"경기도 의왕시 오전동 399-2번지","indutype":"자동차정비 유지 - 자동차정비","category":"car"}]},{"lat":"37.3605822621","long":"126.9622005590","imageIndex":0,"items":[{"name":"주식회사 루이스모터스","tel":"031-1522-2218","addr":"경기도 의왕시 오전동 36번지","indutype":"자동차정비 유지 - 자동차부품","category":"car"}]},{"lat":"37.3557815928","long":"126.9676209723","imageIndex":0,"items":[{"name":"주식회사의왕모터스","tel":"031-451-3112","addr":"경기도 의왕시 오전동 201번지","indutype":"자동차정비 유지 - 자동차정비","category":"car"}]},{"lat":"37.3618638640","long":"126.9690629953","imageIndex":0,"items":[{"name":"중앙실업","tel":"031-574-9786","addr":"경기도 의왕시 오전동 100","indutype":"자동차정비 유지 - 윤활유 전문 판매","category":"car"}]},{"lat":"37.3565483710","long":"126.9708374780","imageIndex":0,"items":[{"name":"카앤스팀","tel":"","addr":"경기도 의왕시 오전동 849번지 동백아파트","indutype":"자동차정비 유지 - 세차장","category":"car"}]},{"lat":"37.3543958680","long":"126.9744502081","imageIndex":0,"items":[{"name":"킹카 워시 의왕점","tel":"","addr":"경기도 의왕시 오전동 299-4번지 1층 201호","indutype":"자동차정비 유지 - 세차장","category":"car"}]},{"lat":"37.3593123833","long":"126.9638379549","imageIndex":0,"items":[{"name":"티카서비스","tel":"070-8991-3819","addr":"경기도 의왕시 오전동 38-10번지","indutype":"자동차정비 유지 - 자동차정비","category":"car"}]},{"lat":"37.3575548063","long":"126.9620667446","imageIndex":0,"items":[{"name":"파워테크","tel":"031-457-8166","addr":"경기도 의왕시 오전동 139-2번지 1층 103호","indutype":"자동차정비 유지 - 자동차부품","category":"car"}]},{"lat":"37.3596654436","long":"126.9692558730","imageIndex":0,"items":[{"name":"판교외형복원","tel":"070-8637-2238","addr":"경기도 의왕시 오전동 104-20번지 성원이화아파트","indutype":"자동차정비 유지 - 카인테리어","category":"car"}]},{"lat":"37.3562859917","long":"126.9670563761","imageIndex":0,"items":[{"name":"프로카센타세차장","tel":"031-454-1011","addr":"경기도 의왕시 오전동 205-5번지 A동","indutype":"자동차정비 유지 - 세차장","category":"car"}]},{"lat":"37.3561149347","long":"126.9675079445","imageIndex":0,"items":[{"name":"현대세차장","tel":"031-429-8519","addr":"경기도 의왕시 오전동 204-4번지","indutype":"자동차정비 유지 - 세차장","category":"car"}]},{"lat":"37.3505578846","long":"126.9759188810","imageIndex":0,"items":[{"name":"홍가네경정비카센타","tel":"031-56-2777","addr":"경기도 의왕시 오전동 342-5번지","indutype":"자동차정비 유지 - 자동차정비","category":"car"}]}]