[{"lat":"37.206269762","long":"126.99000628","imageIndex":4,"items":[{"name":"가마솥토종순대국","tel":"031-222-8070","addr":"경기도 화성시 안녕동 186-182번지","indutype":"일반휴게음식 - 일반한식","category":"restaurant"}]},{"lat":"37.206386734","long":"126.98858689","imageIndex":4,"items":[{"name":"가야한정식","tel":"031-222-6389","addr":"경기도 화성시 안녕동 186-69번지","indutype":"일반휴게음식 - 일반한식","category":"restaurant"}]},{"lat":"37.205386129","long":"126.9852302","imageIndex":4,"items":[{"name":"강릉짬뽕순두부","tel":"031-222-9692","addr":"경기도 화성시 안녕동 180-122번지","indutype":"일반휴게음식 - 일반한식","category":"restaurant"},{"name":"너와집","tel":"070-1111-1111","addr":"경기도 화성시 안녕동 180-122번지","indutype":"일반휴게음식 - 일반한식","category":"restaurant"}]},{"lat":"37.206188942","long":"127.01295272","imageIndex":4,"items":[{"name":"고깃집","tel":"031-222-8145","addr":"경기도 화성시 안녕동 25-21번지 1층","indutype":"일반휴게음식 - 일반한식","category":"restaurant"}]},{"lat":"37.195106494","long":"126.99817398","imageIndex":4,"items":[{"name":"고향한식부페","tel":"031-226-5527","addr":"경기도 화성시 안녕동 146-93번지 1층","indutype":"일반휴게음식 - 일반한식","category":"restaurant"}]},{"lat":"37.196944238","long":"126.99231687","imageIndex":4,"items":[{"name":"공단식당","tel":"031-226-5291","addr":"경기도 화성시 안녕동 178-35번지","indutype":"일반휴게음식 - 일반한식","category":"restaurant"}]},{"lat":"37.204828311","long":"127.01367348","imageIndex":4,"items":[{"name":"구구막창","tel":"031-222-8290","addr":"경기도 화성시 안녕동 37-1,대성빌딩102~103호","indutype":"일반휴게음식 - 일반한식","category":"restaurant"}]},{"lat":"37.20030501","long":"126.99120128","imageIndex":4,"items":[{"name":"그린한식부페","tel":"031-222-6110","addr":"경기도 화성시 안녕동 175-6번지","indutype":"일반휴게음식 - 일반한식","category":"restaurant"}]},{"lat":"37.206332415","long":"126.98659303","imageIndex":4,"items":[{"name":"길성이백숙","tel":"031-222-0594","addr":"경기도 화성시 안녕동 188-216번지","indutype":"일반휴게음식 - 일반한식","category":"restaurant"}]},{"lat":"37.205413863","long":"127.01494647","imageIndex":4,"items":[{"name":"김밥명가","tel":"031-237-9344","addr":"경기도 화성시 안녕동 19-1번지","indutype":"일반휴게음식 - 스넥","category":"restaurant"},{"name":"작은","tel":"031-234-2426","addr":"경기도 화성시 안녕동 19-1번지 1층","indutype":"일반휴게음식 - 서양음식","category":"restaurant"}]},{"lat":"37.203999306","long":"127.01420279","imageIndex":4,"items":[{"name":"까미소주방","tel":"031-297-3401","addr":"경기도 화성시 안녕동 71-190번지 102 (1층102호~103호)","indutype":"일반휴게음식 - 주점","category":"restaurant"},{"name":"선빈원적외선구이","tel":"031-252-7115","addr":"경기도 화성시 안녕동 71-190번지 외1필지 119호","indutype":"일반휴게음식 - 일반한식","category":"restaurant"},{"name":"추오정남원추어탕","tel":"031-226-4632","addr":"경기도 화성시 안녕동 71-190번지","indutype":"일반휴게음식 - 일반한식","category":"restaurant"},{"name":"화성토종순대국","tel":"031-234-0633","addr":"경기도 화성시 안녕동 71-190번지 외1필지","indutype":"일반휴게음식 - 일반한식","category":"restaurant"}]},{"lat":"37.202025267","long":"126.98530984","imageIndex":4,"items":[{"name":"꽃피는산골국빈","tel":"031-226-3322","addr":"경기도 화성시 안녕동 180-238번지","indutype":"일반휴게음식 - 일반한식","category":"restaurant"}]},{"lat":"37.205801423","long":"126.99201149","imageIndex":4,"items":[{"name":"낙지마당 동태탕 찜","tel":"031-232-0735","addr":"경기도 화성시 안녕동 186-129번지 나동","indutype":"일반휴게음식 - 일반한식","category":"restaurant"}]},{"lat":"37.205603238","long":"126.99248464","imageIndex":4,"items":[{"name":"내사랑동까스","tel":"031-225-3982","addr":"경기도 화성시 안녕동 186-97번지","indutype":"일반휴게음식 - 서양음식","category":"restaurant"}]},{"lat":"37.210990339","long":"126.98365172","imageIndex":4,"items":[{"name":"노블레스","tel":"031-246-2225","addr":"경기도 화성시 안녕동 188-70번지 1층","indutype":"일반휴게음식 - 일반한식","category":"restaurant"}]},{"lat":"37.203855179","long":"127.01378599","imageIndex":4,"items":[{"name":"농민맛고을","tel":"031-225-2178","addr":"경기도 화성시 안녕동 37-156번지","indutype":"일반휴게음식 - 일반한식","category":"restaurant"},{"name":"언니S 포차","tel":"","addr":"경기도 화성시 안녕동 37-156번지 1층 일부","indutype":"일반휴게음식 - 주점","category":"restaurant"}]},{"lat":"37.197943041","long":"127.02367457","imageIndex":4,"items":[{"name":"대광생막창연탄구이","tel":"031-224-9204","addr":"경기도 화성시 안녕동 1-11번지","indutype":"일반휴게음식 - 일반한식","category":"restaurant"}]},{"lat":"37.206386795","long":"126.98909381","imageIndex":4,"items":[{"name":"도이창카페 융건릉점","tel":"031-238-9220","addr":"경기도 화성시 안녕동 186-19번지 2동 1-2층","indutype":"일반휴게음식 - 서양음식","category":"restaurant"}]},{"lat":"37.205332934","long":"127.01320043","imageIndex":4,"items":[{"name":"돈천년","tel":"031-233-1210","addr":"경기도 화성시 안녕동 37-113번지","indutype":"일반휴게음식 - 일반한식","category":"restaurant"},{"name":"시골보리밥집","tel":"031-234-3151","addr":"경기도 화성시 안녕동 37-113번지","indutype":"일반휴게음식 - 일반한식","category":"restaurant"}]},{"lat":"37.205493783","long":"126.98231262","imageIndex":4,"items":[{"name":"돈핑","tel":"031-236-1253","addr":"경기도 화성시 안녕동 180-609번지 1층","indutype":"일반휴게음식 - 일반한식","category":"restaurant"}]},{"lat":"37.205692367","long":"126.9844754","imageIndex":4,"items":[{"name":"두래촌","tel":"031-225-0047","addr":"경기도 화성시 안녕동 180-111번지","indutype":"일반휴게음식 - 일반한식","category":"restaurant"}]},{"lat":"37.204494891","long":"127.01405643","imageIndex":4,"items":[{"name":"땅콩분식","tel":"031-352-1673","addr":"경기도 화성시 안녕동 38-1번지 1층 일부호","indutype":"일반휴게음식 - 일반한식","category":"restaurant"},{"name":"푸짐한 한식부폐","tel":"031-239-6781","addr":"경기도 화성시 안녕동 38-1번지 나루빌딩 1층","indutype":"일반휴게음식 - 일반한식","category":"restaurant"}]},{"lat":"37.203026261","long":"127.01336909","imageIndex":4,"items":[{"name":"롯데리아 화성화산DT점","tel":"031-232-5353","addr":"경기도 화성시 안녕동 37-89번지 1층","indutype":"일반휴게음식 - 서양음식","category":"restaurant"}]},{"lat":"37.204999491","long":"127.013865","imageIndex":4,"items":[{"name":"마로니에 광장호프","tel":"031-236-0999","addr":"경기도 화성시 안녕동 19-8번지","indutype":"일반휴게음식 - 주점","category":"restaurant"}]},{"lat":"37.204962774","long":"126.98614274","imageIndex":4,"items":[{"name":"마스로","tel":"031-223-6688","addr":"경기도 화성시 안녕동 180-133번지","indutype":"일반휴게음식 - 일반한식","category":"restaurant"}]},{"lat":"37.193106264","long":"127.00480793","imageIndex":4,"items":[{"name":"만다린","tel":"031-233-8890","addr":"경기도 화성시 안녕동 119-18번지","indutype":"일반휴게음식 - 중국식","category":"restaurant"}]},{"lat":"37.20260318","long":"126.99923235","imageIndex":4,"items":[{"name":"맑은곰탕","tel":"031-233-9933","addr":"경기도 화성시 안녕동 164-7번지 1층 일부호","indutype":"일반휴게음식 - 일반한식","category":"restaurant"}]},{"lat":"37.207630014","long":"126.98737004","imageIndex":4,"items":[{"name":"메밀헌동치미막국수","tel":"031-222-7945","addr":"경기도 화성시 안녕동 188-618번지 1,2층","indutype":"일반휴게음식 - 일반한식","category":"restaurant"}]},{"lat":"37.210413011","long":"126.97992301","imageIndex":4,"items":[{"name":"멕시칸치킨,뿅가곱창,오리사냥","tel":"031-298-7864","addr":"경기도 화성시 안녕동 188-394번지 2층","indutype":"일반휴게음식 - 일반한식","category":"restaurant"}]},{"lat":"37.204666124","long":"127.01367346","imageIndex":4,"items":[{"name":"무한상회","tel":"031-236-0236","addr":"경기도 화성시 안녕동 37-106번지 2층","indutype":"일반휴게음식 - 일반한식","category":"restaurant"}]},{"lat":"37.205854924","long":"126.98703246","imageIndex":4,"items":[{"name":"문상호속초코다리냉면","tel":"031-236-5111","addr":"경기도 화성시 안녕동 188-217번지 7동1, 2층","indutype":"일반휴게음식 - 일반한식","category":"restaurant"},{"name":"미림","tel":"","addr":"경기도 화성시 안녕동 188-217번지 SM스퀘어 2동 1층","indutype":"일반휴게음식 - 일반한식","category":"restaurant"},{"name":"안방손님","tel":"031-221-2289","addr":"경기도 화성시 안녕동 188-217번지 에스엠스퀘어 6층","indutype":"일반휴게음식 - 일반한식","category":"restaurant"},{"name":"카페더율(cafe the youl)","tel":"","addr":"경기도 화성시 안녕동 188-217번지 2동 2층","indutype":"일반휴게음식 - 서양음식","category":"restaurant"}]},{"lat":"37.198466067","long":"126.9846799","imageIndex":4,"items":[{"name":"미가웰빙한식부페","tel":"070-8796-0608","addr":"경기도 화성시 안녕동 180-299번지 외1필지 1층 전부","indutype":"일반휴게음식 - 일반한식","category":"restaurant"}]},{"lat":"37.201772964","long":"126.98523105","imageIndex":4,"items":[{"name":"미담","tel":"031-354-4985","addr":"경기도 화성시 안녕동 180-342번지 1층 일부호","indutype":"일반휴게음식 - 일반한식","category":"restaurant"}]},{"lat":"37.207052631","long":"126.98261635","imageIndex":4,"items":[{"name":"민우분식","tel":"031-222-4549","addr":"경기도 화성시 안녕동 188-453번지","indutype":"일반휴게음식 - 일반한식","category":"restaurant"}]},{"lat":"37.207468021","long":"126.98892464","imageIndex":4,"items":[{"name":"바링고빈스","tel":"031-223-3052","addr":"경기도 화성시 안녕동 186-95번지","indutype":"일반휴게음식 - 서양음식","category":"restaurant"}]},{"lat":"37.205963571","long":"126.99159467","imageIndex":4,"items":[{"name":"반반한명태가/주식회사 장보고푸드시스템","tel":"031-226-0202","addr":"경기도 화성시 안녕동 186-39번지 다동","indutype":"일반휴게음식 - 일반한식","category":"restaurant"}]},{"lat":"37.209296709","long":"126.98573623","imageIndex":4,"items":[{"name":"본만두","tel":"031-223-1333","addr":"경기도 화성시 안녕동 188-509번지","indutype":"일반휴게음식 - 일반한식","category":"restaurant"}]},{"lat":"37.202358676","long":"126.98547872","imageIndex":4,"items":[{"name":"산내들가든","tel":"","addr":"경기도 화성시 안녕동 180-256번지","indutype":"일반휴게음식 - 일반한식","category":"restaurant"}]},{"lat":"37.197187806","long":"126.99628158","imageIndex":4,"items":[{"name":"살미집밥","tel":"031-221-5211","addr":"경기도 화성시 안녕동 158-104번지","indutype":"일반휴게음식 - 일반한식","category":"restaurant"}]},{"lat":"37.200719608","long":"126.99248531","imageIndex":4,"items":[{"name":"삼거리집","tel":"031-222-1554","addr":"경기도 화성시 안녕동 175-4번지","indutype":"일반휴게음식 - 일반한식","category":"restaurant"}]},{"lat":"37.206936177","long":"126.98708856","imageIndex":4,"items":[{"name":"상황진삼계탕","tel":"031-221-2452","addr":"경기도 화성시 안녕동 188-543번지 1층","indutype":"일반휴게음식 - 일반한식","category":"restaurant"}]},{"lat":"37.204520831","long":"126.98331543","imageIndex":4,"items":[{"name":"성경만두요리전문점","tel":"031-111-1111","addr":"경기도 화성시 안녕동 180-125번지 1층","indutype":"일반휴게음식 - 일반한식","category":"restaurant"}]},{"lat":"37.203971293","long":"126.98390132","imageIndex":4,"items":[{"name":"성문감자탕순대국","tel":"031-262-5526","addr":"경기도 화성시 안녕동 188-559번지 1층","indutype":"일반휴게음식 - 일반한식","category":"restaurant"}]},{"lat":"37.207629959","long":"126.98695323","imageIndex":4,"items":[{"name":"성북동불고기","tel":"031-224-2949","addr":"경기도 화성시 안녕동 188-645번지 2층","indutype":"일반휴게음식 - 서양음식","category":"restaurant"},{"name":"성북동불고기","tel":"031-224-2949","addr":"경기도 화성시 안녕동 188-645번지","indutype":"일반휴게음식 - 일반한식","category":"restaurant"}]},{"lat":"37.198069771","long":"126.9857613","imageIndex":4,"items":[{"name":"소담한식뷔페","tel":"031-236-3729","addr":"경기도 화성시 안녕동 176-77번지 나동 1층","indutype":"일반휴게음식 - 일반한식","category":"restaurant"}]},{"lat":"37.203215452","long":"127.01367325","imageIndex":4,"items":[{"name":"속초회집","tel":"031-35-3072","addr":"경기도 화성시 안녕동 37-87번지","indutype":"일반휴게음식 - 일식·회집","category":"restaurant"}]},{"lat":"37.204467898","long":"127.01363963","imageIndex":4,"items":[{"name":"숲속에미로","tel":"031-234-6444","addr":"경기도 화성시 안녕동 37-46번지 1층","indutype":"일반휴게음식 - 일반한식","category":"restaurant"},{"name":"용주골","tel":"031-225-9050","addr":"경기도 화성시 안녕동 37-46번지","indutype":"일반휴게음식 - 일반한식","category":"restaurant"}]},{"lat":"37.204296663","long":"127.0140564","imageIndex":4,"items":[{"name":"시골칼국수보쌈","tel":"031-222-4913","addr":"경기도 화성시 안녕동 38-12번지 1층","indutype":"일반휴게음식 - 일반한식","category":"restaurant"}]},{"lat":"37.206692927","long":"126.9873139","imageIndex":4,"items":[{"name":"안녕불백","tel":"031-221-8811","addr":"경기도 화성시 안녕동 188-180번지","indutype":"일반휴게음식 - 일반한식","category":"restaurant"}]},{"lat":"37.204521995","long":"127.01325665","imageIndex":4,"items":[{"name":"안녕치킨","tel":"031-234-9939","addr":"경기도 화성시 안녕동 37-57번지","indutype":"일반휴게음식 - 일반한식","category":"restaurant"}]},{"lat":"37.207440722","long":"126.98681809","imageIndex":4,"items":[{"name":"어죽이네철렵국","tel":"031-231-0088","addr":"경기도 화성시 안녕동 188-646번지 1층","indutype":"일반휴게음식 - 일반한식","category":"restaurant"},{"name":"카페이엘","tel":"031-221-9476","addr":"경기도 화성시 안녕동 188-646번지 2층 일부호","indutype":"일반휴게음식 - 서양음식","category":"restaurant"}]},{"lat":"37.206602927","long":"126.98812499","imageIndex":4,"items":[{"name":"어찌이맛을잊으리","tel":"031-222-9363","addr":"경기도 화성시 안녕동 186-91번지 1층","indutype":"일반휴게음식 - 일반한식","category":"restaurant"}]},{"lat":"37.209800541","long":"126.98117365","imageIndex":4,"items":[{"name":"예담한식뷔페","tel":"031-225-1221","addr":"경기도 화성시 안녕동 188-257번지","indutype":"일반휴게음식 - 일반한식","category":"restaurant"}]},{"lat":"37.204358667","long":"126.98345065","imageIndex":4,"items":[{"name":"예당미꾸라지매운탕","tel":"031-224-7004","addr":"경기도 화성시 안녕동 180-126번지","indutype":"일반휴게음식 - 일반한식","category":"restaurant"}]},{"lat":"37.206161143","long":"126.98606362","imageIndex":4,"items":[{"name":"예촌","tel":"031-223-3263","addr":"경기도 화성시 안녕동 180-118번지","indutype":"일반휴게음식 - 일반한식","category":"restaurant"},{"name":"차마시는뜰","tel":"031-232-2593","addr":"경기도 화성시 안녕동 180-118번지","indutype":"일반휴게음식 - 서양음식","category":"restaurant"}]},{"lat":"37.204746168","long":"126.98378848","imageIndex":4,"items":[{"name":"와우리장작구이(화성점)","tel":"031-223-3382","addr":"경기도 화성시 안녕동 180-401번지","indutype":"일반휴게음식 - 일반한식","category":"restaurant"}]},{"lat":"37.205107653","long":"127.01344823","imageIndex":4,"items":[{"name":"우리닭발","tel":"031-291-4622","addr":"경기도 화성시 안녕동 37-2번지 1층","indutype":"일반휴게음식 - 일반한식","category":"restaurant"}]},{"lat":"37.203331483","long":"126.98345091","imageIndex":4,"items":[{"name":"이두형홍두깨칼국수","tel":"031-224-0099","addr":"경기도 화성시 안녕동 180-230번지","indutype":"일반휴게음식 - 일반한식","category":"restaurant"}]},{"lat":"37.207909298","long":"126.98708835","imageIndex":4,"items":[{"name":"이화수전통육개장 안녕점","tel":"031-225-6677","addr":"경기도 화성시 안녕동 188-21번지 1층,2층 전부호","indutype":"일반휴게음식 - 일반한식","category":"restaurant"}]},{"lat":"37.199384723","long":"127.02356232","imageIndex":4,"items":[{"name":"자매밥상","tel":"031-224-8948","addr":"경기도 화성시 안녕동 8-124번지 1층 일부호","indutype":"일반휴게음식 - 일반한식","category":"restaurant"}]},{"lat":"37.204133338","long":"126.98303392","imageIndex":4,"items":[{"name":"장쟁이쌈선생","tel":"031-238-0035","addr":"경기도 화성시 안녕동 180-128번지","indutype":"일반휴게음식 - 일반한식","category":"restaurant"}]},{"lat":"37.204800261","long":"126.98397997","imageIndex":4,"items":[{"name":"잭아저씨족발보쌈","tel":"031-222-5779","addr":"경기도 화성시 안녕동 180-400번지 11층","indutype":"일반휴게음식 - 중국식","category":"restaurant"}]},{"lat":"37.19552096","long":"126.99786985","imageIndex":4,"items":[{"name":"전주한식부페","tel":"031-222-8827","addr":"경기도 화성시 안녕동 146-89번지 102호","indutype":"일반휴게음식 - 일반한식","category":"restaurant"}]},{"lat":"37.197358331","long":"126.98864492","imageIndex":4,"items":[{"name":"정다운푸드","tel":"031-225-7544","addr":"경기도 화성시 안녕동 176-328번지","indutype":"일반휴게음식 - 일반한식","category":"restaurant"}]},{"lat":"37.196520481","long":"126.98964751","imageIndex":4,"items":[{"name":"조은하루316","tel":"","addr":"경기도 화성시 안녕동 176-320번지 가동 1층 일부호","indutype":"일반휴게음식 - 서양음식","category":"restaurant"},{"name":"한샘한식뷔페","tel":"031-222-4223","addr":"경기도 화성시 안녕동 176-320번지","indutype":"일반휴게음식 - 일반한식","category":"restaurant"}]},{"lat":"37.206188421","long":"126.98789978","imageIndex":4,"items":[{"name":"짬뽕지존(윤건릉)","tel":"031-222-5161","addr":"경기도 화성시 안녕동 185-1번지","indutype":"일반휴게음식 - 일반한식","category":"restaurant"}]},{"lat":"37.203107702","long":"126.99764406","imageIndex":4,"items":[{"name":"천년면가 교동짬뽕/주식회사 씨엔투에프앤","tel":"031-226-2176","addr":"경기도 화성시 안녕동 168-11번지 1층","indutype":"일반휴게음식 - 중국식","category":"restaurant"}]},{"lat":"37.207576095","long":"126.98850781","imageIndex":4,"items":[{"name":"카페.미쁘담","tel":"","addr":"경기도 화성시 안녕동 187-10번지 1,2층","indutype":"일반휴게음식 - 서양음식","category":"restaurant"}]},{"lat":"37.204746063","long":"126.9831464","imageIndex":4,"items":[{"name":"콩이야기","tel":"031-224-0892","addr":"경기도 화성시 안녕동 180-105번지","indutype":"일반휴게음식 - 일반한식","category":"restaurant"}]},{"lat":"37.193746","long":"127.00495437","imageIndex":4,"items":[{"name":"토담우렁쌈밥","tel":"031-297-3401","addr":"경기도 화성시 안녕동 121-10번지","indutype":"일반휴게음식 - 일반한식","category":"restaurant"}]},{"lat":"37.205666427","long":"127.01187124","imageIndex":4,"items":[{"name":"투다리","tel":"031-233-5255","addr":"경기도 화성시 안녕동 36-1번지","indutype":"일반휴게음식 - 주점","category":"restaurant"}]},{"lat":"37.204241883","long":"126.98572611","imageIndex":4,"items":[{"name":"팔각정","tel":"031-222-8817","addr":"경기도 화성시 안녕동 180-137번지","indutype":"일반휴게음식 - 일반한식","category":"restaurant"}]},{"lat":"37.205107631","long":"127.01369605","imageIndex":4,"items":[{"name":"페리카나(안녕.송산점)","tel":"031-238-7789","addr":"경기도 화성시 안녕동 19-12번지 1층 일부호","indutype":"일반휴게음식 - 스넥","category":"restaurant"}]},{"lat":"37.205693321","long":"126.99225933","imageIndex":4,"items":[{"name":"풍미대가","tel":"031-235-0521","addr":"경기도 화성시 안녕동 186-127번지","indutype":"일반휴게음식 - 중국식","category":"restaurant"}]},{"lat":"37.196187824","long":"127.00456022","imageIndex":4,"items":[{"name":"하늘소","tel":"031-235-7179","addr":"경기도 화성시 안녕동 135-100번지","indutype":"일반휴게음식 - 일반한식","category":"restaurant"}]},{"lat":"37.213387208","long":"126.98433833","imageIndex":4,"items":[{"name":"한라산가든","tel":"031-222-3792","addr":"경기도 화성시 안녕동 188-52번지","indutype":"일반휴게음식 - 일반한식","category":"restaurant"}]},{"lat":"37.206053651","long":"126.99134683","imageIndex":4,"items":[{"name":"한식을그리다","tel":"031-272-9999","addr":"경기도 화성시 안녕동 186-156번지 530","indutype":"일반휴게음식 - 일반한식","category":"restaurant"}]},{"lat":"37.207549043","long":"126.98833884","imageIndex":4,"items":[{"name":"할리스화성융건릉점","tel":"031-224-6999","addr":"경기도 화성시 안녕동 187-9번지 1,2층","indutype":"일반휴게음식 - 서양음식","category":"restaurant"}]},{"lat":"37.206800653","long":"126.98453145","imageIndex":4,"items":[{"name":"함지박","tel":"031-223-5891","addr":"경기도 화성시 안녕동 188-315번지","indutype":"일반휴게음식 - 일반한식","category":"restaurant"}]},{"lat":"37.206990503","long":"126.98920635","imageIndex":4,"items":[{"name":"해장촌","tel":"031-223-2922","addr":"경기도 화성시 안녕동 186-99번지","indutype":"일반휴게음식 - 일반한식","category":"restaurant"}]},{"lat":"37.198214852","long":"126.99414141","imageIndex":4,"items":[{"name":"현대한식뷔페","tel":"031-0000-0000","addr":"경기도 화성시 안녕동 176-109번지","indutype":"일반휴게음식 - 일반한식","category":"restaurant"}]},{"lat":"37.210629245","long":"126.97984409","imageIndex":4,"items":[{"name":"화사랑분식","tel":"031-222-2691","addr":"경기도 화성시 안녕동 180-393","indutype":"일반휴게음식 - 스넥","category":"restaurant"}]},{"lat":"37.205936504","long":"127.01456355","imageIndex":4,"items":[{"name":"화성시니어클럽 노노카페 (근로복지관점)","tel":"031-8059-4349","addr":"경기도 화성시 안녕동 20-9번지 근로자종합복지관 1동 1층","indutype":"일반휴게음식 - 서양음식","category":"restaurant"},{"name":"화성시니어클럽 노노카페(근로자복지관점)","tel":"031-8059-4349","addr":"경기도 화성시 안녕동 20-9번지 근로자종합복지관","indutype":"일반휴게음식 - 서양음식","category":"restaurant"}]},{"lat":"37.205774375","long":"127.01395523","imageIndex":4,"items":[{"name":"화성시니어클럽 노노카페 태안도서관점","tel":"031-8059-4348","addr":"경기도 화성시 안녕동 20-5번지 태안도서관 1층 104호","indutype":"일반휴게음식 - 서양음식","category":"restaurant"}]},{"lat":"37.207027065","long":"127.01089135","imageIndex":4,"items":[{"name":"효원가든","tel":"031-235-7140","addr":"경기도 화성시 안녕동 35-43번지","indutype":"일반휴게음식 - 일반한식","category":"restaurant"}]}]