[{"lat":"37.052656265","long":"127.41219401","imageIndex":17,"items":[{"name":"(주)빅바이오젠","tel":"031-674-3228","addr":"경기도 안성시 죽산면 장계리 616","indutype":"문화.취미 - 애완동물","category":"other"}]},{"lat":"37.058717589","long":"127.41038273","imageIndex":17,"items":[{"name":"(주)신동서건업","tel":"031-676-8812","addr":"경기도 안성시 죽산면 장계리 179-8번지","indutype":"건축자재 - 목재·석재·철물","category":"other"}]},{"lat":"37.053295925","long":"127.41221993","imageIndex":17,"items":[{"name":"(주)와이케이내쇼날","tel":"02-917-1277","addr":"경기도 안성시 죽산면 장계리 255-1","indutype":"신변잡화 - 기타잡화","category":"other"}]},{"lat":"37.056822665","long":"127.41117082","imageIndex":17,"items":[{"name":"MARRE(마레)","tel":"031-591-4620","addr":"경기도 안성시 죽산면 장계리 211-1번지","indutype":"레져용품 - 스포츠·레져용품","category":"other"}]},{"lat":"37.045304098","long":"127.40680386","imageIndex":17,"items":[{"name":"믿음공업사","tel":"031-336-3729","addr":"경기도 안성시 죽산면 장계리 739-1, 2번지","indutype":"건축자재 - 목재·석재·철물","category":"other"}]},{"lat":"37.053602931","long":"127.40941104","imageIndex":17,"items":[{"name":"삼목상사","tel":"031-677-6644","addr":"경기도 안성시 죽산면 장계리 238-4번지","indutype":"건축자재 - 기타건축자재","category":"other"}]},{"lat":"37.063382384","long":"127.40588776","imageIndex":17,"items":[{"name":"솔로몬 테크놀로지","tel":"031-671-9733","addr":"경기도 안성시 죽산면 장계리 2-1번지 가동","indutype":"용역 서비스 - 기타용역서비스","category":"other"}]},{"lat":"37.058183","long":"127.41124557","imageIndex":17,"items":[{"name":"신동서조경목재","tel":"031-676-8813","addr":"경기도 안성시 죽산면 장계리 179-6 외3필지","indutype":"건축자재 - 기타건축자재","category":"other"}]},{"lat":"37.050938418","long":"127.4112742","imageIndex":17,"items":[{"name":"씨유안성장계리점","tel":"031-672-4020","addr":"경기도 안성시 죽산면 장계리 580번지 외1필지","indutype":"유통업 영리 - 편 의 점","category":"other"}]},{"lat":"37.058356865","long":"127.41047074","imageIndex":17,"items":[{"name":"주식회사 평강산업","tel":"031-675-1404","addr":"경기도 안성시 죽산면 장계리 179-15번지","indutype":"건축자재 - 인테리어전문","category":"other"}]},{"lat":"37.04490782","long":"127.41461416","imageIndex":17,"items":[{"name":"주식회사반도철강","tel":"031-676-7801","addr":"경기도 안성시 죽산면 장계리 766","indutype":"건축자재 - 기타건축자재","category":"other"}]}]