[{"lat":"37.908575321","long":"127.05698533","imageIndex":8,"items":[{"name":"경남약국","tel":"031-865-2150","addr":"경기도 동두천시 중앙동 622-11번지","indutype":"약국 - 약국","category":"medical"}]},{"lat":"37.908774145","long":"127.05562094","imageIndex":8,"items":[{"name":"박소아과의원","tel":"031-862-2690","addr":"경기도 동두천시 중앙동 615-28번지","indutype":"의원 - 의원","category":"medical"}]},{"lat":"37.906162376","long":"127.05350413","imageIndex":7,"items":[{"name":"대규네 야채","tel":"031-862-4230","addr":"경기도 동두천시 중앙동 603번지","indutype":"음료식품 - 농·축·수산품","category":"food"}]},{"lat":"37.905576674","long":"127.05373114","imageIndex":7,"items":[{"name":"파리바게뜨","tel":"031-865-5956","addr":"경기도 동두천시 중앙동 593-10번지","indutype":"음료식품 - 제과점","category":"food"}]},{"lat":"37.904467525","long":"127.05600446","imageIndex":17,"items":[{"name":"미래O&C","tel":"031-867-1531","addr":"경기도 동두천시 중앙동 642번지","indutype":"사무통신 - 컴퓨터","category":"other"}]},{"lat":"37.904964314","long":"127.05309398","imageIndex":17,"items":[{"name":"성일사","tel":"031-865-2218","addr":"경기도 동두천시 중앙동 592-11호","indutype":"신변잡화 - 시계","category":"other"}]},{"lat":"37.905441715","long":"127.05331034","imageIndex":17,"items":[{"name":"잉걸스","tel":"031-864-2907","addr":"경기도 동두천시 중앙동 592-2번지 바다쇼핑내","indutype":"의류 - 정장","category":"other"}]},{"lat":"37.906108578","long":"127.05290145","imageIndex":13,"items":[{"name":"아트당구장","tel":"031-863-0770","addr":"경기도 동두천시 중앙동 590-9번지 1/4","indutype":"레저업소 - 당 구 장","category":"leisure"}]},{"lat":"37.913684011","long":"127.05606795","imageIndex":4,"items":[{"name":"핫피자","tel":"031-861-0075","addr":"경기도 동두천시 중앙동 542-14번지","indutype":"일반휴게음식 - 서양음식","category":"restaurant"}]}]