[{"lat":"37.4170527","long":"127.1277401","imageIndex":17,"items":[{"name":"292짬떡 성남시청점","tel":"031-721-0292","addr":"경기도 성남시 중원구 여수동 189번지","indutype":"","category":"other"},{"name":"아라고","tel":"031-755-9951","addr":"경기도 성남시 중원구 여수동 189번지","indutype":"","category":"other"}]},{"lat":"37.4179948","long":"127.1314469","imageIndex":17,"items":[{"name":"59쌀피자","tel":"031-722-5982","addr":"경기도 성남시 중원구 여수동 600번지 센트럴타운3단지","indutype":"","category":"other"},{"name":"나이스가이프리미엄","tel":"","addr":"경기도 성남시 중원구 여수동 600번지 센트럴타운3단지","indutype":"","category":"other"},{"name":"우리할인마트","tel":"031-759-0089","addr":"경기도 성남시 중원구 여수동 600번지 센트럴타운3단지","indutype":"","category":"other"}]},{"lat":"37.4176408","long":"127.1253801","imageIndex":17,"items":[{"name":"STUDIO 330","tel":"070-4111-0330","addr":"경기도 성남시 중원구 여수동 330번지","indutype":"","category":"other"},{"name":"제이카","tel":"031-751-6665","addr":"경기도 성남시 중원구 여수동 330번지","indutype":"","category":"other"}]},{"lat":"37.4200543","long":"127.1265024","imageIndex":17,"items":[{"name":"㈜우리에프엔지(울릉도자매결연시군 직거래장터 관련)","tel":"031-768-1373","addr":"경기도 성남시 중원구 여수동 200번지","indutype":"","category":"other"},{"name":"가평축산업협동조합경제사업본부","tel":"","addr":"경기도 성남시 중원구 여수동 200번지","indutype":"","category":"other"},{"name":"주식회사 고려인삼 창영 성남시청(시청 연금매점) 구내매점","tel":"031-729-4763","addr":"경기도 성남시 중원구 여수동 200번지","indutype":"","category":"other"}]},{"lat":"37.4175857","long":"127.1263515","imageIndex":17,"items":[{"name":"감미","tel":"031-723-8288","addr":"경기도 성남시 중원구 여수동 211번지","indutype":"","category":"other"},{"name":"백채김치찌개 성남시청점","tel":"031-752-0505","addr":"경기도 성남시 중원구 여수동 211번지","indutype":"","category":"other"}]},{"lat":"37.4192746","long":"127.1310763","imageIndex":17,"items":[{"name":"고궁","tel":"031-723-8810","addr":"경기도 성남시 중원구 여수동 442번지","indutype":"","category":"other"}]},{"lat":"37.4171623","long":"127.1263508","imageIndex":17,"items":[{"name":"고은","tel":"","addr":"경기도 성남시 중원구 여수동 208번지","indutype":"","category":"other"}]},{"lat":"37.4188873","long":"127.1309062","imageIndex":17,"items":[{"name":"국가대표 생 바지락칼국수","tel":"031-751-3800","addr":"경기도 성남시 중원구 여수동 403번지","indutype":"","category":"other"},{"name":"봉마켓 (Bon Market)","tel":"031-758-8284","addr":"경기도 성남시 중원구 여수동 403번지","indutype":"","category":"other"}]},{"lat":"37.4171978","long":"127.1268253","imageIndex":17,"items":[{"name":"네이처키친","tel":"031-755-4274","addr":"경기도 성남시 중원구 여수동 205번지","indutype":"","category":"other"},{"name":"롤링라이스","tel":"031-752-0002","addr":"경기도 성남시 중원구 여수동 205번지","indutype":"","category":"other"},{"name":"포츈차이니즈레스토랑","tel":"031-721-9829","addr":"경기도 성남시 중원구 여수동 205번지","indutype":"","category":"other"}]},{"lat":"37.4182531","long":"127.1257087","imageIndex":17,"items":[{"name":"놀부부대찌개&철판구이","tel":"031-722-5988","addr":"경기도 성남시 중원구 여수동 369번지","indutype":"","category":"other"}]},{"lat":"37.4212195","long":"127.1322658","imageIndex":17,"items":[{"name":"느티울공원갈비","tel":"031-721-1516","addr":"경기도 성남시 중원구 여수동 385번지","indutype":"","category":"other"}]},{"lat":"37.4201123","long":"127.1312697","imageIndex":17,"items":[{"name":"다문","tel":"031-731-8777","addr":"경기도 성남시 중원구 여수동 467번지","indutype":"","category":"other"}]},{"lat":"37.4173883","long":"127.1255491","imageIndex":17,"items":[{"name":"다연","tel":"031-751-4505","addr":"경기도 성남시 중원구 여수동 325번지","indutype":"","category":"other"}]},{"lat":"37.4199411","long":"127.1312695","imageIndex":17,"items":[{"name":"다우할인마트","tel":"031-752-4581","addr":"경기도 성남시 중원구 여수동 460번지","indutype":"","category":"other"}]},{"lat":"37.4170559","long":"127.1330945","imageIndex":17,"items":[{"name":"다원","tel":"031-751-7155","addr":"경기도 성남시 중원구 여수동 580번지","indutype":"","category":"other"}]},{"lat":"37.4191382","long":"127.1321831","imageIndex":17,"items":[{"name":"단비","tel":"031-751-7443","addr":"경기도 성남시 중원구 여수동 427번지","indutype":"","category":"other"}]},{"lat":"37.4181618","long":"127.1268495","imageIndex":17,"items":[{"name":"단양빈대떡","tel":"031-757-7152","addr":"경기도 성남시 중원구 여수동 202번지","indutype":"","category":"other"},{"name":"비비큐(bb.q)치킨앤비어","tel":"031-757-9277","addr":"경기도 성남시 중원구 여수동 202번지","indutype":"","category":"other"},{"name":"찌개애감동 성남시청점","tel":"031-722-2588","addr":"경기도 성남시 중원구 여수동 202번지","indutype":"","category":"other"},{"name":"카페라리 성남시청점","tel":"031-752-4242","addr":"경기도 성남시 중원구 여수동 202번지","indutype":"","category":"other"}]},{"lat":"37.4175852","long":"127.126826","imageIndex":17,"items":[{"name":"단춘떡 전문점","tel":"031-711-0231","addr":"경기도 성남시 중원구 여수동 204번지","indutype":"","category":"other"},{"name":"멜리사초이 파티셔리&슈가크래프트","tel":"031-706-6837","addr":"경기도 성남시 중원구 여수동 204번지","indutype":"","category":"other"},{"name":"미스터아울","tel":"","addr":"경기도 성남시 중원구 여수동 204번지","indutype":"","category":"other"},{"name":"키친바락","tel":"031-756-1232","addr":"경기도 성남시 중원구 여수동 204번지","indutype":"","category":"other"}]},{"lat":"37.4169745","long":"127.1249046","imageIndex":17,"items":[{"name":"더로드 (THE road)","tel":"","addr":"경기도 성남시 중원구 여수동 299번지","indutype":"","category":"other"}]},{"lat":"37.4173875","long":"127.1263512","imageIndex":17,"items":[{"name":"델리치올레","tel":"","addr":"경기도 성남시 중원구 여수동 210번지","indutype":"","category":"other"},{"name":"밀온","tel":"031-756-5001","addr":"경기도 성남시 중원구 여수동 210번지","indutype":"","category":"other"}]},{"lat":"37.4188861","long":"127.1320132","imageIndex":17,"items":[{"name":"동영태권도","tel":"031-759-2001","addr":"경기도 성남시 중원구 여수동 425번지","indutype":"","category":"other"}]},{"lat":"37.4201113","long":"127.1321848","imageIndex":17,"items":[{"name":"딜리카롱 (DELICARON)","tel":"","addr":"경기도 성남시 중원구 여수동 472번지","indutype":"","category":"other"}]},{"lat":"37.4180813","long":"127.1263523","imageIndex":17,"items":[{"name":"또봉이통닭","tel":"031-752-9290","addr":"경기도 성남시 중원구 여수동 213번지","indutype":"","category":"other"},{"name":"뚱뚜루","tel":"031-758-9585","addr":"경기도 성남시 중원구 여수동 213번지","indutype":"","category":"other"},{"name":"비비큐참숯바베큐치킨","tel":"031-756-0600","addr":"경기도 성남시 중원구 여수동 213번지","indutype":"","category":"other"},{"name":"하나로식당","tel":"031-753-8875","addr":"경기도 성남시 중원구 여수동 213번지","indutype":"","category":"other"}]},{"lat":"37.4169737","long":"127.125684","imageIndex":17,"items":[{"name":"라라멘","tel":"031-797-9530","addr":"경기도 성남시 중원구 여수동 309번지","indutype":"","category":"other"}]},{"lat":"37.4191388","long":"127.1316861","imageIndex":17,"items":[{"name":"라라스페이스","tel":"031-759-5696","addr":"경기도 성남시 중원구 여수동 430번지","indutype":"","category":"other"}]},{"lat":"37.4176411","long":"127.1250412","imageIndex":17,"items":[{"name":"레드애플","tel":"031-1566-6480","addr":"경기도 성남시 중원구 여수동 332번지","indutype":"","category":"other"}]},{"lat":"37.417226","long":"127.125707","imageIndex":17,"items":[{"name":"마슬왕소금구이","tel":"031-721-9595","addr":"경기도 성남시 중원구 여수동 317번지","indutype":"","category":"other"}]},{"lat":"37.4180819","long":"127.1257084","imageIndex":17,"items":[{"name":"미다원 성남시청점","tel":"031-758-5800","addr":"경기도 성남시 중원구 여수동 359번지","indutype":"","category":"other"}]},{"lat":"37.4176406","long":"127.1255496","imageIndex":17,"items":[{"name":"베스트빈","tel":"031-755-4217","addr":"경기도 성남시 중원구 여수동 329번지","indutype":"","category":"other"}]},{"lat":"37.4169735","long":"127.1259099","imageIndex":17,"items":[{"name":"분당밝은아이동물병원","tel":"","addr":"경기도 성남시 중원구 여수동 312번지","indutype":"","category":"other"}]},{"lat":"37.417191","long":"127.1247355","imageIndex":17,"items":[{"name":"분당삼칠일 (분당371)","tel":"031-781-0371","addr":"경기도 성남시 중원구 여수동 250번지","indutype":"","category":"other"}]},{"lat":"37.4178577","long":"127.1247366","imageIndex":17,"items":[{"name":"사랑채 샤브","tel":"031-751-0022","addr":"경기도 성남시 중원구 여수동 247번지","indutype":"","category":"other"},{"name":"사랑채샤브샤브","tel":"031-751-0022","addr":"경기도 성남시 중원구 여수동 247번지","indutype":"","category":"other"}]},{"lat":"37.4188869","long":"127.1312677","imageIndex":17,"items":[{"name":"소리숲음악학원","tel":"031-723-7909","addr":"경기도 성남시 중원구 여수동 405번지","indutype":"","category":"other"}]},{"lat":"37.4172171","long":"127.1255489","imageIndex":17,"items":[{"name":"수향","tel":"031-707-0500","addr":"경기도 성남시 중원구 여수동 318번지","indutype":"","category":"other"}]},{"lat":"37.418497","long":"127.1251556","imageIndex":17,"items":[{"name":"시청앞대박집","tel":"031-751-5442","addr":"경기도 성남시 중원구 여수동 221번지","indutype":"","category":"other"}]},{"lat":"37.4188867","long":"127.1314936","imageIndex":17,"items":[{"name":"신동태권도장","tel":"031-758-5001","addr":"경기도 성남시 중원구 여수동 422번지","indutype":"","category":"other"},{"name":"오레시피 성남여수점","tel":"031-759-7279","addr":"경기도 성남시 중원구 여수동 422번지","indutype":"","category":"other"}]},{"lat":"37.4191398","long":"127.1307371","imageIndex":17,"items":[{"name":"싸다GO아이스크림할인마트","tel":"","addr":"경기도 성남시 중원구 여수동 435번지","indutype":"","category":"other"}]},{"lat":"37.4170001","long":"127.1263167","imageIndex":17,"items":[{"name":"써브웨이 성남시청점","tel":"031-745-3030","addr":"경기도 성남시 중원구 여수동 207번지","indutype":"","category":"other"},{"name":"헤어스튜디오예찬","tel":"031-721-4046","addr":"경기도 성남시 중원구 여수동 207번지","indutype":"","category":"other"}]},{"lat":"37.4176415","long":"127.1247362","imageIndex":17,"items":[{"name":"아그배","tel":"","addr":"경기도 성남시 중원구 여수동 248번지","indutype":"","category":"other"},{"name":"커리 1978","tel":"031-722-2904","addr":"경기도 성남시 중원구 여수동 248번지","indutype":"","category":"other"}]},{"lat":"37.4188863","long":"127.1318551","imageIndex":17,"items":[{"name":"아이리스 안경","tel":"031-722-1090","addr":"경기도 성남시 중원구 여수동 424번지","indutype":"","category":"other"}]},{"lat":"37.4169194","long":"127.1343256","imageIndex":17,"items":[{"name":"아이언스 안경","tel":"031-756-8009","addr":"경기도 성남시 중원구 여수동 584번지","indutype":"","category":"other"},{"name":"해밀약국","tel":"031-722-4727","addr":"경기도 성남시 중원구 여수동 584번지","indutype":"","category":"other"}]},{"lat":"37.4169742","long":"127.1252435","imageIndex":17,"items":[{"name":"아이지에이마트","tel":"","addr":"경기도 성남시 중원구 여수동 301번지","indutype":"","category":"other"}]},{"lat":"37.4182795","long":"127.1263526","imageIndex":17,"items":[{"name":"아임초콜릿티어","tel":"070-8273-4347","addr":"경기도 성남시 중원구 여수동 214번지","indutype":"","category":"other"}]},{"lat":"37.4184687","long":"127.126353","imageIndex":17,"items":[{"name":"어반프레소","tel":"070-7721-9004","addr":"경기도 성남시 중원구 여수동 215번지","indutype":"","category":"other"}]},{"lat":"37.4170284","long":"127.1334899","imageIndex":17,"items":[{"name":"에스마트 S마트 야탑점","tel":"031-759-8259","addr":"경기도 성남시 중원구 여수동 582번지","indutype":"","category":"other"},{"name":"온더데스크 야탑","tel":"031-752-2400","addr":"경기도 성남시 중원구 여수동 582번지","indutype":"","category":"other"}]},{"lat":"37.4172175","long":"127.12521","imageIndex":17,"items":[{"name":"오일튠 (OIL TUNE)","tel":"","addr":"경기도 성남시 중원구 여수동 320번지","indutype":"","category":"other"}]},{"lat":"37.4173594","long":"127.1273452","imageIndex":17,"items":[{"name":"온가족스튜디오","tel":"031-756-9779","addr":"경기도 성남시 중원구 여수동 191번지","indutype":"","category":"other"}]},{"lat":"37.4180818","long":"127.1258779","imageIndex":17,"items":[{"name":"요기","tel":"031-759-8985","addr":"경기도 성남시 중원구 여수동 358번지","indutype":"","category":"other"}]},{"lat":"37.4169744","long":"127.125074","imageIndex":17,"items":[{"name":"유헤어네일","tel":"031-759-0288","addr":"경기도 성남시 중원구 여수동 300번지","indutype":"","category":"other"}]},{"lat":"37.4181911","long":"127.1247371","imageIndex":17,"items":[{"name":"정직한 대게","tel":"031-722-0377","addr":"경기도 성남시 중원구 여수동 245번지","indutype":"","category":"other"}]},{"lat":"37.4178304","long":"127.1250415","imageIndex":17,"items":[{"name":"주문진항 물회 세꼬시","tel":"031-722-5910","addr":"경기도 성남시 중원구 여수동 333번지","indutype":"","category":"other"}]},{"lat":"37.4178302","long":"127.125211","imageIndex":17,"items":[{"name":"주식회사 피엠티에스","tel":"031-758-8979","addr":"경기도 성남시 중원구 여수동 334번지","indutype":"","category":"other"}]},{"lat":"37.4178921","long":"127.126352","imageIndex":17,"items":[{"name":"청마루","tel":"031-755-5289","addr":"경기도 성남시 중원구 여수동 212번지","indutype":"","category":"other"},{"name":"커피베이 성남시청점","tel":"031-758-7716","addr":"경기도 성남시 중원구 여수동 212번지","indutype":"","category":"other"}]},{"lat":"37.4180821","long":"127.125539","imageIndex":17,"items":[{"name":"카존","tel":"","addr":"경기도 성남시 중원구 여수동 360번지","indutype":"","category":"other"}]},{"lat":"37.4191384","long":"127.1320137","imageIndex":17,"items":[{"name":"코드지커피&펍","tel":"070-8834-5444","addr":"경기도 성남시 중원구 여수동 428번지","indutype":"","category":"other"}]},{"lat":"37.4184966","long":"127.1254945","imageIndex":17,"items":[{"name":"코페아커피 성남시청점","tel":"031-721-9778","addr":"경기도 성남시 중원구 여수동 219번지","indutype":"","category":"other"}]},{"lat":"37.4191396","long":"127.1309066","imageIndex":17,"items":[{"name":"토마토(tomato)의 농비어천가","tel":"070-4209-1800","addr":"경기도 성남시 중원구 여수동 434번지","indutype":"","category":"other"}]},{"lat":"37.4184968","long":"127.125325","imageIndex":17,"items":[{"name":"판교토종순대국","tel":"031-722-5362","addr":"경기도 성남시 중원구 여수동 220번지","indutype":"","category":"other"}]},{"lat":"37.4184961","long":"127.1259915","imageIndex":17,"items":[{"name":"폭풍낙지","tel":"031-751-1660","addr":"경기도 성남시 중원구 여수동 217번지","indutype":"","category":"other"}]},{"lat":"37.4175847","long":"127.1273456","imageIndex":17,"items":[{"name":"하모니마트 성남시청점","tel":"031-721-9063","addr":"경기도 성남시 중원구 여수동 194번지","indutype":"","category":"other"}]},{"lat":"37.417641","long":"127.1252107","imageIndex":17,"items":[{"name":"향원","tel":"031-759-1159","addr":"경기도 성남시 중원구 여수동 331번지","indutype":"","category":"other"}]}]