[{"lat":"37.630221045","long":"126.83059815","imageIndex":5,"items":[{"name":"꿈의궁전","tel":"031-972-0029","addr":"경기도 고양시 덕양구 화정동 1002-5번지","indutype":"숙박업 - 여관/기타숙박업","category":"hotel"},{"name":"호텔 쉘","tel":"031-972-0229","addr":"경기도 고양시 덕양구 화정동","indutype":"숙박업 - 여관/기타숙박업","category":"hotel"}]},{"lat":"37.631467718","long":"126.83289499","imageIndex":5,"items":[{"name":"람세스호텔","tel":"031-972-2780","addr":"경기도 고양시 덕양구 화정동 986-1번지","indutype":"숙박업 - 여관/기타숙박업","category":"hotel"}]},{"lat":"37.635664611","long":"126.83176383","imageIndex":5,"items":[{"name":"리비에라모텔","tel":"031-967-6304","addr":"경기도 고양시 덕양구 화정동 968-4번지","indutype":"숙박업 - 여관/기타숙박업","category":"hotel"},{"name":"볼모텔","tel":"031-967-6304","addr":"경기도 고양시 덕양구 화정동 968-4번지","indutype":"숙박업 - 여관/기타숙박업","category":"hotel"}]},{"lat":"37.633574791","long":"126.83206317","imageIndex":5,"items":[{"name":"모텔(준)","tel":"031-971-5292","addr":"경기도 고양시 덕양구 화정동 972번지","indutype":"숙박업 - 여관/기타숙박업","category":"hotel"}]},{"lat":"37.630492096","long":"126.83111863","imageIndex":5,"items":[{"name":"밀레니엄","tel":"031-938-8711","addr":"경기도 고양시 덕양구 화정동 1002-2번지","indutype":"숙박업 - 여관/기타숙박업","category":"hotel"},{"name":"페이지호텔","tel":"031-978-2626","addr":"경기도 고양시 덕양구 화정동 1002-2번지","indutype":"숙박업 - 여관/기타숙박업","category":"hotel"}]},{"lat":"37.63205356","long":"126.83304093","imageIndex":5,"items":[{"name":"빅토리아","tel":"031-973-3945","addr":"경기도 고양시 덕양구 화정동 977번지","indutype":"숙박업 - 여관/기타숙박업","category":"hotel"},{"name":"빅토리아","tel":"031-973-3945","addr":"경기도 고양시 덕양구 화정동 977번지","indutype":"숙박업 - 여관/기타숙박업","category":"hotel"}]},{"lat":"37.641801415","long":"126.83258819","imageIndex":5,"items":[{"name":"웰스테이(Well stay)","tel":"031-000-0000","addr":"경기도 고양시 덕양구 화정동 868번지 달빛마을4단지아파트","indutype":"숙박업 - 여관/기타숙박업","category":"hotel"}]},{"lat":"37.637884241","long":"126.83401334","imageIndex":5,"items":[{"name":"카르마","tel":"031-962-7070","addr":"경기도 고양시 덕양구 화정동 908-3번지","indutype":"숙박업 - 여관/기타숙박업","category":"hotel"}]},{"lat":"37.633052065","long":"126.83195108","imageIndex":5,"items":[{"name":"카사미아여관","tel":"031-979-5253","addr":"경기도 고양시 덕양구 화정동 981번지","indutype":"숙박업 - 여관/기타숙박업","category":"hotel"}]},{"lat":"37.635386147","long":"126.83234226","imageIndex":5,"items":[{"name":"프라자파크","tel":"031-969-0182","addr":"경기도 고양시 덕양구 화정동 967-3번지","indutype":"숙박업 - 여관/기타숙박업","category":"hotel"}]},{"lat":"37.632304064","long":"126.83181685","imageIndex":5,"items":[{"name":"호텔야자 화정역점","tel":"031-938-3399","addr":"경기도 고양시 덕양구 화정동 980-1번지","indutype":"숙박업 - 여관/기타숙박업","category":"hotel"}]}]