[{"lat":"37.610198114","long":"127.17122357","imageIndex":7,"items":[{"name":"(사)경기도여성단체협의회남양주시지회","tel":"031-590-2267","addr":"경기도 남양주시 다산동 3159-7번지 남양주시청제2청사","indutype":"음료식품 - 기타음료식품","category":"food"},{"name":"남양주시청2청사매점","tel":"031-553-5779","addr":"경기도 남양주시 다산동 3159-7번지 남양주시청2청사별관1층매점","indutype":"음료식품 - 기타음료식품","category":"food"}]},{"lat":"37.614226416","long":"127.15031341","imageIndex":7,"items":[{"name":"(주)양원산업","tel":"031-568-7365","addr":"경기도 남양주시 다산동 4344-1번지","indutype":"음료식품 - 농·축·수산품","category":"food"},{"name":"예진물류","tel":"031-568-7365","addr":"경기도 남양주시 다산동 4344-1번지","indutype":"음료식품 - 농·축·수산품","category":"food"},{"name":"예진유통(주)","tel":"031-568-7365","addr":"경기도 남양주시 다산동 4344-1번지","indutype":"음료식품 - 농·축·수산품","category":"food"}]},{"lat":"37.615221892","long":"127.16083743","imageIndex":7,"items":[{"name":"(주)한식세계화명인셰프","tel":"000-1544-0415","addr":"경기도 남양주시 다산동 3391-55번지 비젼빌딩 1층","indutype":"음료식품 - 기타음료식품","category":"food"}]},{"lat":"37.599112701","long":"127.16064484","imageIndex":7,"items":[{"name":"가운고등학교 매점","tel":"","addr":"경기도 남양주시 다산동 684번지 가운고등학교","indutype":"음료식품 - 기타음료식품","category":"food"},{"name":"가운고등학교 매점","tel":"02-900-1544","addr":"경기도 남양주시 다산동 684번지 가운고등학교","indutype":"음료식품 - 기타음료식품","category":"food"}]},{"lat":"37.600838631","long":"127.15680964","imageIndex":7,"items":[{"name":"가운농축산","tel":"031-551-0105","addr":"경기도 남양주시 다산동 676-3번지 101~203호","indutype":"음료식품 - 정육점","category":"food"}]},{"lat":"37.6101985","long":"127.15075848","imageIndex":7,"items":[{"name":"가을","tel":"031-565-6670","addr":"경기도 남양주시 다산동 4336-82번지 1층 102호","indutype":"음료식품 - 기타음료식품","category":"food"}]},{"lat":"37.608700356","long":"127.15276008","imageIndex":7,"items":[{"name":"강원농산","tel":"031-563-1255","addr":"경기도 남양주시 다산동 4299-23번지","indutype":"음료식품 - 제과점","category":"food"}]},{"lat":"37.608557629","long":"127.15861492","imageIndex":7,"items":[{"name":"강진댁반찬","tel":"031-569-0456","addr":"경기도 남양주시 다산동 4001-29번지 부영애시앙사랑관 181호","indutype":"음료식품 - 기타음료식품","category":"food"},{"name":"강진반찬","tel":"031-569-0456","addr":"경기도 남양주시 다산동 4001-29번지 부영애시앙 사랑관 183호","indutype":"음료식품 - 기타음료식품","category":"food"},{"name":"누리 허브 앤 씨드","tel":"031-551-5515","addr":"경기도 남양주시 다산동 4001-29번지 부영애시앙 사랑관 175호","indutype":"음료식품 - 농·축·수산품","category":"food"},{"name":"다산떡집","tel":"031-567-4900","addr":"경기도 남양주시 다산동 4001-29번지 부영애시앙원앙관104호","indutype":"음료식품 - 제과점","category":"food"},{"name":"두부장수","tel":"070-4696-2806","addr":"경기도 남양주시 다산동 4001-29번지 부영애시앙","indutype":"음료식품 - 기타음료식품","category":"food"},{"name":"뚜레쥬르카페도농점","tel":"031-568-0033","addr":"경기도 남양주시 다산동 4001-29번지 부영애시앙 상가동 113호","indutype":"음료식품 - 제과점","category":"food"},{"name":"양희상회","tel":"031-573-3717","addr":"경기도 남양주시 다산동 4001-29번지 부영애시앙 901동 1506호","indutype":"음료식품 - 농·축·수산품","category":"food"},{"name":"오행생식원","tel":"031-554-5656","addr":"경기도 남양주시 다산동 4001-29번지 부영애시앙상가동사랑관225호","indutype":"음료식품 - 농·축·수산품","category":"food"},{"name":"참다한 홍삼 도농점","tel":"031-554-5838","addr":"경기도 남양주시 다산동 4001-29번지 부영에시앙 상가동 사랑관 131호,138호","indutype":"건강식품 - 홍삼제품","category":"food"},{"name":"청인유산균사랑","tel":"070-8955-5562","addr":"경기도 남양주시 다산동 4001-29번지 부영애시앙","indutype":"회원제형태 - 건강식품","category":"food"},{"name":"코코호도(도농점)","tel":"031-556-5455","addr":"경기도 남양주시 다산동 4001-29번지 부영애시앙사랑관 118호","indutype":"음료식품 - 제과점","category":"food"},{"name":"픽미픽미아이스 다산점","tel":"031-111-1111","addr":"경기도 남양주시 다산동 4001-29번지 부영애시앙 1층 103호","indutype":"음료식품 - 기타음료식품","category":"food"}]},{"lat":"37.609647826","long":"127.16528784","imageIndex":7,"items":[{"name":"경춘정육점","tel":"031-552-1239","addr":"경기도 남양주시 다산동 3136-9번지","indutype":"음료식품 - 정육점","category":"food"},{"name":"럭키양곡","tel":"031-553-4466","addr":"경기도 남양주시 다산동 3136-9번지","indutype":"음료식품 - 미곡상","category":"food"}]},{"lat":"37.626948989","long":"127.15672752","imageIndex":7,"items":[{"name":"과일달다","tel":"","addr":"경기도 남양주시 다산동 6031번지 다산아이파크 상가동 1층 120 일부호","indutype":"음료식품 - 농·축·수산품","category":"food"}]},{"lat":"37.6196409","long":"127.15764127","imageIndex":7,"items":[{"name":"국사랑 다산신도시점","tel":"031-111-1111","addr":"경기도 남양주시 다산동 6130-2번지 다산진건지구 근생3-1-3 102호","indutype":"음료식품 - 기타음료식품","category":"food"},{"name":"달콤창고","tel":"031-1111-1111","addr":"경기도 남양주시 다산동 6130-2번지 성산플레이스2 다산산건지구근린생활시설용지3-1-3블럭 1층 103호","indutype":"음료식품 - 기타음료식품","category":"food"},{"name":"아부찌부대찌개","tel":"031-562-7773","addr":"경기도 남양주시 다산동 6130-2번지 성산타워플레이스 1층 101호","indutype":"음료식품 - 기타음료식품","category":"food"}]},{"lat":"37.611591805","long":"127.16020684","imageIndex":7,"items":[{"name":"국제","tel":"","addr":"경기도 남양주시 다산동 4002-1번지 부영그린타운 213동 1701호","indutype":"음료식품 - 미곡상","category":"food"},{"name":"동호농산","tel":"070-8154-6025","addr":"경기도 남양주시 다산동 4002-1번지 부영그린타운 214동 201호","indutype":"음료식품 - 농·축·수산품","category":"food"},{"name":"월드유통","tel":"02-2247-9277","addr":"경기도 남양주시 다산동 4002-1번지 부영그린타운 506동 904호","indutype":"음료식품 - 농·축·수산품","category":"food"},{"name":"하늘미에프앤씨(FNC)","tel":"070-2701-3407","addr":"경기도 남양주시 다산동 4002-1번지 부영그린타운 511동 1805호","indutype":"음료식품 - 미곡상","category":"food"}]},{"lat":"37.623361361","long":"127.1580681","imageIndex":7,"items":[{"name":"굿푸드 유통","tel":"","addr":"경기도 남양주시 다산동 6092번지 힐스테이트다산 5202동 1604호","indutype":"음료식품 - 기타음료식품","category":"food"},{"name":"아이스크림 할인점","tel":"070-8744-2008","addr":"경기도 남양주시 다산동 6092번지 힐스테이트다산근린생활시설 108호","indutype":"음료식품 - 기타음료식품","category":"food"}]},{"lat":"37.606396207","long":"127.15089818","imageIndex":7,"items":[{"name":"금성건강원","tel":"031-565-3480","addr":"경기도 남양주시 다산동 4308-10번지","indutype":"건강식품 - 기타건강식품","category":"food"}]},{"lat":"37.608361851","long":"127.15675719","imageIndex":7,"items":[{"name":"까망시루","tel":"031-558-5919","addr":"경기도 남양주시 다산동 4065번지 부영프라자 1층 113호","indutype":"음료식품 - 제과점","category":"food"},{"name":"던킨도너츠(도농점)","tel":"031-569-9944","addr":"경기도 남양주시 다산동 4065번지","indutype":"음료식품 - 제과점","category":"food"}]},{"lat":"37.614753417","long":"127.16081379","imageIndex":7,"items":[{"name":"나현야채","tel":"031-568-8644","addr":"경기도 남양주시 다산동 3391-49번지","indutype":"음료식품 - 농·축·수산품","category":"food"}]},{"lat":"37.609615898","long":"127.16880996","imageIndex":7,"items":[{"name":"남양주건강생활","tel":"031-556-4170","addr":"경기도 남양주시 다산동 3073-1번지 다산타임프라자 4층 406호","indutype":"건강식품 - 기타건강식품","category":"food"},{"name":"다산 제이케이(JK) 매점","tel":"","addr":"경기도 남양주시 다산동 3073-1번지 다산타임프라자 605-606호일부","indutype":"음료식품 - 기타음료식품","category":"food"}]},{"lat":"37.609861703","long":"127.15347591","imageIndex":7,"items":[{"name":"노마진아이스크림(도농점)","tel":"02-1111-1111","addr":"경기도 남양주시 다산동 4027-16번지 1층","indutype":"음료식품 - 제과점","category":"food"}]},{"lat":"37.609339599","long":"127.16003222","imageIndex":7,"items":[{"name":"늘봄축산사랑","tel":"031-552-8955","addr":"경기도 남양주시 다산동 4001-10번지 부영그린타운 상가 1동 1층 117호","indutype":"음료식품 - 정육점","category":"food"},{"name":"파리바게뜨","tel":"031-558-1200","addr":"경기도 남양주시 다산동 4001-10번지 부영그린타운중앙상가109,116,B103호","indutype":"음료식품 - 제과점","category":"food"}]},{"lat":"37.598202514","long":"127.16739181","imageIndex":7,"items":[{"name":"다다종합식품","tel":"031-566-5581","addr":"경기도 남양주시 다산동 480-2,나동","indutype":"음료식품 - 기타음료식품","category":"food"}]},{"lat":"37.601726191","long":"127.17314092","imageIndex":7,"items":[{"name":"다산최고 공인중개사무소","tel":"031-553-9911","addr":"경기도 남양주시 다산동 6218-5번지 다산지금지구 F3-1-6 103호","indutype":"음료식품 - 기타음료식품","category":"food"}]},{"lat":"37.597592297","long":"127.15895442","imageIndex":7,"items":[{"name":"다성","tel":"031-111-1111","addr":"경기도 남양주시 다산동 691-1번지","indutype":"음료식품 - 기타음료식품","category":"food"}]},{"lat":"37.608782847","long":"127.15165037","imageIndex":7,"items":[{"name":"다움FS(다움푸드서비스)","tel":"031-528-6263","addr":"경기도 남양주시 다산동 4306-37번지 삼중카센타 1층 101호","indutype":"음료식품 - 기타음료식품","category":"food"}]},{"lat":"37.612529766","long":"127.16614354","imageIndex":7,"items":[{"name":"담아담아 아아스크림 할인점 도농점2","tel":"","addr":"경기도 남양주시 다산동 6175번지 다산지금지구 F2-8-1 1층 103호","indutype":"음료식품 - 기타음료식품","category":"food"}]},{"lat":"37.608947558","long":"127.15670177","imageIndex":7,"items":[{"name":"담아담아 아이스크림 할인점","tel":"070-7539-9547","addr":"경기도 남양주시 다산동 4002-3번지 1층 101호","indutype":"음료식품 - 기타음료식품","category":"food"}]},{"lat":"37.600203169","long":"127.1733979","imageIndex":7,"items":[{"name":"더 까까주까","tel":"031-565-9901","addr":"경기도 남양주시 다산동 6217-6번지 대길프라자 109호","indutype":"음료식품 - 기타음료식품","category":"food"}]},{"lat":"37.628112184","long":"127.15600492","imageIndex":7,"items":[{"name":"더(The)달달 아이스크림 할인점","tel":"070-7423-6603","addr":"경기도 남양주시 다산동 6030번지 다산노블레스빌딩 111호","indutype":"음료식품 - 기타음료식품","category":"food"},{"name":"한나식빵","tel":"031-569-7701","addr":"경기도 남양주시 다산동 6030번지 다산진건지구 근생1-1-1 1층 106호","indutype":"음료식품 - 제과점","category":"food"}]},{"lat":"37.606809923","long":"127.17158966","imageIndex":7,"items":[{"name":"더달달(다산지금점)","tel":"070-7423-6603","addr":"경기도 남양주시 다산동 6208번지 다산에일린의뜰 상가 B232호","indutype":"음료식품 - 기타음료식품","category":"food"}]},{"lat":"37.62811127","long":"127.15670726","imageIndex":7,"items":[{"name":"더디씨다산점","tel":"031-111-1111","addr":"경기도 남양주시 다산동 6030-2번지 다산진건지구 근생1-1-3 111호","indutype":"음료식품 - 기타음료식품","category":"food"},{"name":"던킨도너츠남양주다산점","tel":"","addr":"경기도 남양주시 다산동 6030-2번지 106호, 107호","indutype":"음료식품 - 제과점","category":"food"}]},{"lat":"37.598507743","long":"127.1616174","imageIndex":7,"items":[{"name":"더치앤빈","tel":"070-8844-7223","addr":"경기도 남양주시 다산동 685-5번지 지에스프라자 4층 403호","indutype":"음료식품 - 기타음료식품","category":"food"}]},{"lat":"37.625809076","long":"127.16689756","imageIndex":7,"items":[{"name":"덕남농원","tel":"031-564-6732","addr":"경기도 남양주시 다산동 3315-1번지","indutype":"음료식품 - 농·축·수산품","category":"food"},{"name":"푸드존","tel":"031-595-7854","addr":"경기도 남양주시 다산동 3315-1번지 외1필지","indutype":"음료식품 - 농·축·수산품","category":"food"},{"name":"하나농원","tel":"031-577-2482","addr":"경기도 남양주시 다산동 3315-1번지","indutype":"음료식품 - 농·축·수산품","category":"food"}]},{"lat":"37.607451676","long":"127.15690254","imageIndex":7,"items":[{"name":"데이스베이커리","tel":"031-565-6306","addr":"경기도 남양주시 다산동 4045-2번지 1층","indutype":"음료식품 - 제과점","category":"food"}]},{"lat":"37.607007836","long":"127.15870229","imageIndex":7,"items":[{"name":"도농도서관 매점","tel":"070-4126-2277","addr":"경기도 남양주시 다산동 4053-1번지","indutype":"음료식품 - 기타음료식품","category":"food"}]},{"lat":"37.606528221","long":"127.16690052","imageIndex":7,"items":[{"name":"동진유통","tel":"031-559-6321","addr":"경기도 남양주시 다산동 3103-30번지","indutype":"음료식품 - 기타음료식품","category":"food"}]},{"lat":"37.60702978","long":"127.16250753","imageIndex":7,"items":[{"name":"동화매점","tel":"031-563-4909","addr":"경기도 남양주시 다산동 4106번지 동화중고교","indutype":"음료식품 - 기타음료식품","category":"food"}]},{"lat":"37.609507998","long":"127.15528725","imageIndex":7,"items":[{"name":"두란노커피","tel":"070-8225-0365","addr":"경기도 남양주시 다산동 4029-17번지 1층","indutype":"음료식품 - 기타음료식품","category":"food"}]},{"lat":"37.625726222","long":"127.15475397","imageIndex":7,"items":[{"name":"땅스부대찌개구리다산점","tel":"031-556-8599","addr":"경기도 남양주시 다산동 6055-3번지 가하프라자 상가동 109호","indutype":"음료식품 - 기타음료식품","category":"food"}]},{"lat":"37.606505772","long":"127.15680999","imageIndex":7,"items":[{"name":"떡고을","tel":"031-567-8990","addr":"경기도 남양주시 다산동 4046-6번지 1층","indutype":"음료식품 - 제과점","category":"food"},{"name":"제일스마일유통","tel":"070-8273-4418","addr":"경기도 남양주시 다산동 4046-6번지","indutype":"음료식품 - 기타음료식품","category":"food"},{"name":"총각네정육점","tel":"031-1111-1111","addr":"경기도 남양주시 다산동 4046-6번지 103호","indutype":"음료식품 - 정육점","category":"food"}]},{"lat":"37.620141266","long":"127.14670046","imageIndex":7,"items":[{"name":"뚜레쥬르 다산신도시점","tel":"","addr":"경기도 남양주시 다산동 6075번지 다산한양수자인리버파크 1층 5,6호","indutype":"음료식품 - 제과점","category":"food"}]},{"lat":"37.610007298","long":"127.15234366","imageIndex":7,"items":[{"name":"마마베이커리","tel":"","addr":"경기도 남양주시 다산동 4338-31번지 1층","indutype":"음료식품 - 제과점","category":"food"}]},{"lat":"37.628111742","long":"127.15634476","imageIndex":7,"items":[{"name":"마마쿡(다산점)","tel":"031-565-4866","addr":"경기도 남양주시 다산동 6030-1번지 109,110호","indutype":"음료식품 - 기타음료식품","category":"food"}]},{"lat":"37.607812405","long":"127.1566428","imageIndex":7,"items":[{"name":"명성방앗간","tel":"031-562-1882","addr":"경기도 남양주시 다산동 4045-32번지","indutype":"음료식품 - 제과점","category":"food"}]},{"lat":"37.623361921","long":"127.16436616","imageIndex":7,"items":[{"name":"명호농원","tel":"031-566-3186","addr":"경기도 남양주시 다산동 3324번지","indutype":"음료식품 - 농·축·수산품","category":"food"}]},{"lat":"37.607752237","long":"127.15440031","imageIndex":7,"items":[{"name":"모메존푸드","tel":"031-555-5088","addr":"경기도 남양주시 다산동 4036-7번지 풍림빌딩 2층","indutype":"음료식품 - 기타음료식품","category":"food"}]},{"lat":"37.597393664","long":"127.16592929","imageIndex":7,"items":[{"name":"미소로또","tel":"031-555-7663","addr":"경기도 남양주시 다산동 산44-1번지 1층 104호","indutype":"음료식품 - 기타음료식품","category":"food"}]},{"lat":"37.622945159","long":"127.15244885","imageIndex":7,"items":[{"name":"미식도감","tel":"","addr":"경기도 남양주시 다산동 6087-3번지 다산퍼스트타워 101호","indutype":"음료식품 - 기타음료식품","category":"food"}]},{"lat":"37.608395114","long":"127.15189875","imageIndex":7,"items":[{"name":"미향","tel":"031-516-7353","addr":"경기도 남양주시 다산동 4306-47번지 1층","indutype":"음료식품 - 기타음료식품","category":"food"}]},{"lat":"37.609897482","long":"127.15367984","imageIndex":7,"items":[{"name":"밍디저트","tel":"031-553-9747","addr":"경기도 남양주시 다산동 4027-18번지 2층 일부","indutype":"음료식품 - 기타음료식품","category":"food"}]},{"lat":"37.62453147","long":"127.15197627","imageIndex":7,"items":[{"name":"바이블룸","tel":"","addr":"경기도 남양주시 다산동 6060-4번지 다산진건지구 상업4-4-5 5층 504호","indutype":"음료식품 - 기타음료식품","category":"food"}]},{"lat":"37.609416565","long":"127.15631767","imageIndex":7,"items":[{"name":"반찬나루","tel":"031-567-8835","addr":"경기도 남양주시 다산동 4025-35번지 1층 101호","indutype":"음료식품 - 기타음료식품","category":"food"}]},{"lat":"37.600204018","long":"127.17280905","imageIndex":7,"items":[{"name":"반찬나루 다산점","tel":"02-411-1111","addr":"경기도 남양주시 다산동 6222번지 1층","indutype":"음료식품 - 기타음료식품","category":"food"}]},{"lat":"37.625754284","long":"127.15394975","imageIndex":7,"items":[{"name":"배스킨라빈스 다산롯데캐슬점","tel":"031-554-2007","addr":"경기도 남양주시 다산동 6055번지 1층 101호,102호","indutype":"음료식품 - 제과점","category":"food"}]},{"lat":"37.611279892","long":"127.16434004","imageIndex":7,"items":[{"name":"배스킨라빈스 다산법조타운점","tel":"031-554-3131","addr":"경기도 남양주시 다산동 3198-21번지 다산지금지구 근생4-1 1층 105호","indutype":"음료식품 - 제과점","category":"food"}]},{"lat":"37.620199502","long":"127.15764243","imageIndex":7,"items":[{"name":"배스킨라빈스 다산이편한세상점","tel":"031-567-5557","addr":"경기도 남양주시 다산동 6130번지 메인프라자(다산진건지구 근생3-1-1) 106호 105호,106호","indutype":"음료식품 - 제과점","category":"food"},{"name":"파리바게뜨(다산이편한점)","tel":"031-510-9677","addr":"경기도 남양주시 다산동 6130번지 메인프라자 제1동 102,103호","indutype":"음료식품 - 제과점","category":"food"}]},{"lat":"37.604534331","long":"127.1555036","imageIndex":7,"items":[{"name":"배스킨라빈스남양주가운점","tel":"031-554-4753","addr":"경기도 남양주시 다산동 668-3번지 브릭스타워 107호","indutype":"음료식품 - 제과점","category":"food"},{"name":"한우장터마을","tel":"031-555-2361","addr":"경기도 남양주시 다산동 668-3번지 브릭스타워 131호","indutype":"음료식품 - 정육점","category":"food"}]},{"lat":"37.600065127","long":"127.17539059","imageIndex":7,"items":[{"name":"복음자리 북부지점","tel":"031-569-2759","addr":"경기도 남양주시 다산동 6215번지 다산펜테리움리버테라스I 7304동 2404호","indutype":"음료식품 - 기타음료식품","category":"food"},{"name":"올마망 (All Maman)","tel":"","addr":"경기도 남양주시 다산동 6215번지 다산펜테리움리버테라스I 7301동 9층 3호","indutype":"건강식품 - 기타건강식품","category":"food"}]},{"lat":"37.608088712","long":"127.15195477","imageIndex":7,"items":[{"name":"분홍식탁반찬전문점","tel":"031-1111-1111","addr":"경기도 남양주시 다산동 4306-56번지 1층 일부","indutype":"음료식품 - 기타음료식품","category":"food"}]},{"lat":"37.608173516","long":"127.15608862","imageIndex":7,"items":[{"name":"빈앤기프트","tel":"031-556-2010","addr":"경기도 남양주시 다산동 4044-11번지 102호","indutype":"음료식품 - 기타음료식품","category":"food"}]},{"lat":"37.612395121","long":"127.16578082","imageIndex":7,"items":[{"name":"빵 양과자 공방 사계의 오후","tel":"","addr":"경기도 남양주시 다산동 6170-6번지 1층","indutype":"음료식품 - 제과점","category":"food"}]},{"lat":"37.607146039","long":"127.15636963","imageIndex":7,"items":[{"name":"빵식이야채","tel":"031-565-3436","addr":"경기도 남양주시 다산동 4045-7번지 소망빌라 B동 101호","indutype":"음료식품 - 농·축·수산품","category":"food"}]},{"lat":"37.627114677","long":"127.15400914","imageIndex":7,"items":[{"name":"쁘왈란","tel":"","addr":"경기도 남양주시 다산동 6029번지 다산자연앤롯데캐슬 상가동 1층 101,102호","indutype":"음료식품 - 제과점","category":"food"},{"name":"신세계축산","tel":"031-557-0400","addr":"경기도 남양주시 다산동 6029번지 다산자연앤롯데캐슬 상가동 104호","indutype":"음료식품 - 정육점","category":"food"}]},{"lat":"37.625528009","long":"127.15475356","imageIndex":7,"items":[{"name":"사부작케이크","tel":"","addr":"경기도 남양주시 다산동 6055-4번지 마운틴프라자 4층 403호","indutype":"음료식품 - 기타음료식품","category":"food"}]},{"lat":"37.605628657","long":"127.15922036","imageIndex":7,"items":[{"name":"성하농산","tel":"070-7786-8871","addr":"경기도 남양주시 다산동 617-60번지 대성빌라 4동 102호","indutype":"음료식품 - 농·축·수산품","category":"food"}]},{"lat":"37.606583843","long":"127.15214429","imageIndex":7,"items":[{"name":"세계로축산","tel":"031-557-8234","addr":"경기도 남양주시 다산동 4305-4번지","indutype":"음료식품 - 정육점","category":"food"}]},{"lat":"37.6218373","long":"127.15914102","imageIndex":7,"items":[{"name":"세븐 아이스크림","tel":"031-555-3465","addr":"경기도 남양주시 다산동 6096번지 101호일부","indutype":"음료식품 - 기타음료식품","category":"food"}]},{"lat":"37.599946001","long":"127.15731737","imageIndex":7,"items":[{"name":"속편한 현미 누룽지","tel":"","addr":"경기도 남양주시 다산동 679-1번지 삼원프라자 102호","indutype":"음료식품 - 기타음료식품","category":"food"}]},{"lat":"37.601172198","long":"127.15665179","imageIndex":7,"items":[{"name":"솜씨예찬","tel":"031-563-3886","addr":"경기도 남양주시 다산동 676-1번지 주공프라자 101호","indutype":"음료식품 - 기타음료식품","category":"food"}]},{"lat":"37.607836825","long":"127.15164849","imageIndex":7,"items":[{"name":"쉐마망","tel":"031-5091-0772","addr":"경기도 남양주시 다산동 4306-50번지 A동 1층","indutype":"음료식품 - 제과점","category":"food"}]},{"lat":"37.608890793","long":"127.15178649","imageIndex":7,"items":[{"name":"신선야채 상큼과일","tel":"031-565-5289","addr":"경기도 남양주시 다산동 4306-35번지","indutype":"음료식품 - 농·축·수산품","category":"food"}]},{"lat":"37.60880929","long":"127.15211476","imageIndex":7,"items":[{"name":"신우정육점","tel":"031-566-3853","addr":"경기도 남양주시 다산동 4302-20번지","indutype":"음료식품 - 정육점","category":"food"}]},{"lat":"37.62211582","long":"127.15973062","imageIndex":7,"items":[{"name":"아뱅베이커리","tel":"","addr":"경기도 남양주시 다산동 6095-3번지 다산진건지구 F2-1-4 상가동 102호","indutype":"음료식품 - 제과점","category":"food"}]},{"lat":"37.623142379","long":"127.15323084","imageIndex":7,"items":[{"name":"아빠  정육점","tel":"031-111-1111","addr":"경기도 남양주시 다산동 6089-2번지 리페온빌 106호","indutype":"음료식품 - 정육점","category":"food"}]},{"lat":"37.607088798","long":"127.1654748","imageIndex":7,"items":[{"name":"아이스크림 하우스","tel":"","addr":"경기도 남양주시 다산동 3720번지 힐스테이트황금산 상가동 106호 일부","indutype":"음료식품 - 기타음료식품","category":"food"},{"name":"아이스크림 할인점","tel":"","addr":"경기도 남양주시 다산동 3720번지 힐스테이트황금산 상가동 106호 일부","indutype":"음료식품 - 기타음료식품","category":"food"}]},{"lat":"37.600369755","long":"127.15709177","imageIndex":7,"items":[{"name":"아이스크림할인점 더달달 (다산점)","tel":"","addr":"경기도 남양주시 다산동 676-6번지 금산프라자 101호","indutype":"음료식품 - 기타음료식품","category":"food"}]},{"lat":"37.60747552","long":"127.15237257","imageIndex":7,"items":[{"name":"약손건강원","tel":"031-592-7373","addr":"경기도 남양주시 다산동 4296-4번지 1층 1호","indutype":"건강식품 - 기타건강식품","category":"food"}]},{"lat":"37.610728005","long":"127.15240173","imageIndex":7,"items":[{"name":"오션 랍스터","tel":"031-603-8778","addr":"경기도 남양주시 다산동 4338-21번지","indutype":"음료식품 - 농·축·수산품","category":"food"}]},{"lat":"37.602894544","long":"127.15551157","imageIndex":7,"items":[{"name":"용이네축산","tel":"031-557-7868","addr":"경기도 남양주시 다산동 669번지 남양주가운마을휴먼시아1단지 1층 104호","indutype":"음료식품 - 정육점","category":"food"},{"name":"청화F&B","tel":"031-576-9154","addr":"경기도 남양주시 다산동 669번지 남양주가운마을휴먼시아1단지 102동 408호","indutype":"음료식품 - 기타음료식품","category":"food"}]},{"lat":"37.609197124","long":"127.1517871","imageIndex":7,"items":[{"name":"우성건강원","tel":"031-511-2594","addr":"경기도 남양주시 다산동 4306-60번지","indutype":"건강식품 - 기타건강식품","category":"food"}]},{"lat":"37.623586511","long":"127.1648424","imageIndex":7,"items":[{"name":"은빛농원","tel":"031-555-1160","addr":"경기도 남양주시 다산동 3310-5번지","indutype":"음료식품 - 농·축·수산품","category":"food"}]},{"lat":"37.612251528","long":"127.16537278","imageIndex":7,"items":[{"name":"이듦","tel":"","addr":"경기도 남양주시 다산동 6170-3번지 다산지금지구 F2-7-4 103호","indutype":"음료식품 - 기타음료식품","category":"food"}]},{"lat":"37.62266603","long":"127.15231236","imageIndex":7,"items":[{"name":"잭슨바나나(JB푸드)","tel":"","addr":"경기도 남양주시 다산동 3666-10번지 다산퍼스트타워1층 105호","indutype":"음료식품 - 농·축·수산품","category":"food"}]},{"lat":"37.605783571","long":"127.15789568","imageIndex":7,"items":[{"name":"정관장홍삼도농역점","tel":"031-565-2304","addr":"경기도 남양주시 다산동 4114-23번지 ,114-35","indutype":"건강식품 - 홍삼제품","category":"food"},{"name":"정관장홍삼도농역점","tel":"031-565-2304","addr":"경기도 남양주시 다산동 4114-23번지 ,114-35","indutype":"건강식품 - 홍삼제품","category":"food"}]},{"lat":"37.609835582","long":"127.15276236","imageIndex":7,"items":[{"name":"조은닥종합유통","tel":"031-562-2434","addr":"경기도 남양주시 다산동 4299번지","indutype":"음료식품 - 정육점","category":"food"}]},{"lat":"37.598088548","long":"127.171536","imageIndex":7,"items":[{"name":"종합민속제과","tel":"070-4325-8005","addr":"경기도 남양주시 다산동 6235번지 금강펜테리움리버테라스2 7509동 2001호","indutype":"음료식품 - 기타음료식품","category":"food"}]},{"lat":"37.607252798","long":"127.1503676","imageIndex":7,"items":[{"name":"착한푸줏간","tel":"031-528-6263","addr":"경기도 남양주시 다산동 4432-2번지 남양아이좋은집 2층 208호","indutype":"음료식품 - 정육점","category":"food"}]},{"lat":"37.608813604","long":"127.15578415","imageIndex":7,"items":[{"name":"천마정육점","tel":"031-563-6631","addr":"경기도 남양주시 다산동 4032번지","indutype":"음료식품 - 정육점","category":"food"}]},{"lat":"37.601535166","long":"127.17439746","imageIndex":7,"items":[{"name":"청도한우한돈정육점","tel":"031-562-9888","addr":"경기도 남양주시 다산동 6216번지 보람프라자 2층 201,202호","indutype":"음료식품 - 정육점","category":"food"}]},{"lat":"37.606142497","long":"127.15900626","imageIndex":7,"items":[{"name":"충남건강원","tel":"031-563-2584","addr":"경기도 남양주시 다산동 617-64번지 가운상가 1층 101호","indutype":"건강식품 - 기타건강식품","category":"food"}]},{"lat":"37.606141447","long":"127.15286819","imageIndex":7,"items":[{"name":"커닝시티(kerning city)","tel":"","addr":"경기도 남양주시 다산동 4436-1번지 도농센트레빌 상가동 1층 105호","indutype":"음료식품 - 제과점","category":"food"}]},{"lat":"37.622256329","long":"127.15564176","imageIndex":7,"items":[{"name":"커피체리","tel":"","addr":"경기도 남양주시 다산동 6091번지 다산자연앤e편한세상 5105동 1602호","indutype":"음료식품 - 기타음료식품","category":"food"}]},{"lat":"37.619305435","long":"127.15228298","imageIndex":7,"items":[{"name":"코리아축산(다산중앙)","tel":"","addr":"경기도 남양주시 다산동 6133번지 다산이편한세상자이 108호","indutype":"음료식품 - 정육점","category":"food"}]},{"lat":"37.611449631","long":"127.16539369","imageIndex":7,"items":[{"name":"코스트몰(COST Mall)","tel":"","addr":"경기도 남양주시 다산동 6180번지 다산지금지구 F2-10-1 101호","indutype":"음료식품 - 기타음료식품","category":"food"}]},{"lat":"37.608142427","long":"127.15222668","imageIndex":7,"items":[{"name":"큰마당정육마트","tel":"031-554-3939","addr":"경기도 남양주시 다산동 4302-31번지","indutype":"음료식품 - 정육점","category":"food"}]},{"lat":"37.604341238","long":"127.15848156","imageIndex":7,"items":[{"name":"파리바게뜨 가운지구","tel":"031-553-8245","addr":"경기도 남양주시 다산동 666-3번지 외1필지드림프라자 110호","indutype":"음료식품 - 제과점","category":"food"}]},{"lat":"37.620031234","long":"127.14826337","imageIndex":7,"items":[{"name":"파리바게뜨 다산가람초교점","tel":"031-522-1977","addr":"경기도 남양주시 다산동 6079-2번지 105,106호","indutype":"음료식품 - 제과점","category":"food"}]},{"lat":"37.625200139","long":"127.1504257","imageIndex":7,"items":[{"name":"파리바게뜨 다산역점","tel":"","addr":"경기도 남양주시 다산동 6063번지 1층 105호 106호","indutype":"음료식품 - 제과점","category":"food"}]},{"lat":"37.600203774","long":"127.17297891","imageIndex":7,"items":[{"name":"파리바게뜨(다산한강초교점)","tel":"031-565-8233","addr":"경기도 남양주시 다산동 6222-1번지 1층 일부","indutype":"음료식품 - 제과점","category":"food"}]},{"lat":"37.608251173","long":"127.15172859","imageIndex":7,"items":[{"name":"파리바게트-도농남양점","tel":"031-552-9222","addr":"경기도 남양주시 다산동 4306-5번지 연성프라자 108호","indutype":"음료식품 - 제과점","category":"food"}]},{"lat":"37.618562103","long":"127.16262279","imageIndex":7,"items":[{"name":"판도라런치","tel":"","addr":"경기도 남양주시 다산동 6119-2번지 다산지금지구 F1-2-3 202호","indutype":"음료식품 - 기타음료식품","category":"food"}]},{"lat":"37.618534178","long":"127.14942711","imageIndex":7,"items":[{"name":"포천농장","tel":"031-552-0926","addr":"경기도 남양주시 다산동 4366-2번지 창고2동중1동내","indutype":"음료식품 - 기타음료식품","category":"food"}]},{"lat":"37.623639962","long":"127.16528429","imageIndex":7,"items":[{"name":"푸드인월드","tel":"031-565-5115","addr":"경기도 남양주시 다산동 3309번지 ,310","indutype":"음료식품 - 기타음료식품","category":"food"}]},{"lat":"37.621140625","long":"127.1472914","imageIndex":7,"items":[{"name":"한돈한우 정육점","tel":"031-553-1515","addr":"경기도 남양주시 다산동 6077번지 화성프라자 201호","indutype":"음료식품 - 정육점","category":"food"},{"name":"황금떡방","tel":"031-566-7696","addr":"경기도 남양주시 다산동 6077번지 화성프라자 1층 105호","indutype":"음료식품 - 제과점","category":"food"}]},{"lat":"37.605980905","long":"127.15856425","imageIndex":7,"items":[{"name":"한우암소판매","tel":"031-569-1786","addr":"경기도 남양주시 다산동 567-9번지","indutype":"음료식품 - 정육점","category":"food"}]},{"lat":"37.607863026","long":"127.15925901","imageIndex":7,"items":[{"name":"핫브레드 도농역점","tel":"031-569-0964","addr":"경기도 남양주시 다산동 4056-1번지 3층","indutype":"음료식품 - 제과점","category":"food"}]},{"lat":"37.614806396","long":"127.16161806","imageIndex":7,"items":[{"name":"해성한우촌정육점","tel":"031-551-2159","addr":"경기도 남양주시 다산동 3391-58번지","indutype":"음료식품 - 정육점","category":"food"}]},{"lat":"37.622116331","long":"127.15934549","imageIndex":7,"items":[{"name":"현대정육점","tel":"031-555-5492","addr":"경기도 남양주시 다산동 6095-1번지 다산진건지구 F2-1-2 101호","indutype":"음료식품 - 정육점","category":"food"}]},{"lat":"37.629700505","long":"127.15398039","imageIndex":7,"items":[{"name":"횡성한우","tel":"031-552-5252","addr":"경기도 남양주시 다산동 6014번지 다산반도유보라메이플타운 2동 111호","indutype":"음료식품 - 정육점","category":"food"},{"name":"횡성한우마을","tel":"031-552-5252","addr":"경기도 남양주시 다산동 6014번지 다산반도유보라메이플타운 2동 111호","indutype":"음료식품 - 정육점","category":"food"}]}]