[{"lat":"37.158919116","long":"127.07108172","imageIndex":13,"items":[{"name":"300th당구장","tel":"031-378-0950","addr":"경기도 오산시 은계동 94번지","indutype":"레저업소 - 당 구 장","category":"leisure"}]},{"lat":"37.159199196","long":"127.06975354","imageIndex":13,"items":[{"name":"블랙스크린골프","tel":"031-376-8270","addr":"경기도 오산시 은계동 67-17번지","indutype":"레저업소 - 스크린골프","category":"leisure"}]},{"lat":"37.159721522","long":"127.07024935","imageIndex":13,"items":[{"name":"스카이노래방","tel":"031-372-5429","addr":"경기도 오산시 은계동 67-15번지","indutype":"레저업소 - 노 래 방","category":"leisure"},{"name":"헬스타임","tel":"031-373-8679","addr":"경기도 오산시 은계동 67-15번지 스카이노래방 C동 2층","indutype":"레저업소 - 헬스클럽","category":"leisure"}]},{"lat":"37.160681027","long":"127.0779282","imageIndex":13,"items":[{"name":"운암노래연습장","tel":"031-374-3861","addr":"경기도 오산시 은계동 7번지 105동 201호","indutype":"레저업소 - 노 래 방","category":"leisure"}]},{"lat":"37.162386539","long":"127.07380934","imageIndex":13,"items":[{"name":"원티드짐","tel":"031-376-2271","addr":"경기도 오산시 은계동 22번지 2층","indutype":"레저업소 - 헬스클럽","category":"leisure"}]},{"lat":"37.159478035","long":"127.07060939","imageIndex":13,"items":[{"name":"은계당구장","tel":"031-372-6952","addr":"경기도 오산시 은계동 95번지 관인은계태권도체육관 2층 1호","indutype":"레저업소 - 당 구 장","category":"leisure"},{"name":"팡팡노래연습장","tel":"031-375-0712","addr":"경기도 오산시 은계동 95번지 관인은계태권도체육관 지층 2호","indutype":"레저업소 - 노 래 방","category":"leisure"}]},{"lat":"37.160747544","long":"127.07227671","imageIndex":7,"items":[{"name":"EDP동탄2점","tel":"031-472-5606","addr":"경기도 오산시 은계동 37-1번지","indutype":"음료식품 - 기타음료식품","category":"food"}]},{"lat":"37.161838293","long":"127.0714446","imageIndex":7,"items":[{"name":"강화상회","tel":"031-682-4793","addr":"경기도 오산시 은계동 61-8번지 선경하이츠 303호","indutype":"음료식품 - 농·축·수산품","category":"food"}]},{"lat":"37.160681027","long":"127.0779282","imageIndex":7,"items":[{"name":"달아","tel":"070-4649-1101","addr":"경기도 오산시 은계동 7번지 오산가구단지 105동 110호","indutype":"음료식품 - 기타음료식품","category":"food"}]},{"lat":"37.160807444","long":"127.07750051","imageIndex":7,"items":[{"name":"동탄축산물판매장","tel":"031-372-6733","addr":"경기도 오산시 은계동 7번지 운암 상가 106동 101호","indutype":"음료식품 - 정육점","category":"food"},{"name":"민속떡백화점","tel":"031-372-0022","addr":"경기도 오산시 은계동 7번지","indutype":"음료식품 - 제과점","category":"food"},{"name":"오복수산","tel":"031-375-1931","addr":"경기도 오산시 은계동 7번지","indutype":"음료식품 - 농·축·수산품","category":"food"}]},{"lat":"37.160617969","long":"127.07790562","imageIndex":7,"items":[{"name":"맑은샘건강원","tel":"031-223-4338","addr":"경기도 오산시 은계동 7-31번지 105동 112호","indutype":"건강식품 - 기타건강식품","category":"food"}]},{"lat":"37.159532219","long":"127.07039554","imageIndex":7,"items":[{"name":"불로장수건강원","tel":"031-373-8887","addr":"경기도 오산시 은계동 67번지","indutype":"건강식품 - 기타건강식품","category":"food"}]},{"lat":"37.159279753","long":"127.07069927","imageIndex":7,"items":[{"name":"영진축산유통","tel":"031-372-5059","addr":"경기도 오산시 은계동 95-17번지 1층","indutype":"음료식품 - 정육점","category":"food"}]},{"lat":"37.159810325","long":"127.07250102","imageIndex":7,"items":[{"name":"은계떡방앗간","tel":"031-374-6196","addr":"경기도 오산시 은계동 84-8번지","indutype":"음료식품 - 제과점","category":"food"},{"name":"은계떡방앗간","tel":"031-374-6196","addr":"경기도 오산시 은계동 84-8번지","indutype":"음료식품 - 미곡상","category":"food"}]},{"lat":"37.160442562","long":"127.06988973","imageIndex":7,"items":[{"name":"은계식당","tel":"031-373-0998","addr":"경기도 오산시 은계동 71-5번지","indutype":"음료식품 - 정육점","category":"food"}]},{"lat":"37.161158367","long":"127.07826641","imageIndex":7,"items":[{"name":"일오수산","tel":"031-372-1580","addr":"경기도 오산시 은계동 7번지 104동 103호","indutype":"음료식품 - 농·축·수산품","category":"food"}]},{"lat":"37.160744236","long":"127.07771436","imageIndex":7,"items":[{"name":"티도장보이차웰빙","tel":"070-8210-1974","addr":"경기도 오산시 은계동 7번지 102동 105호","indutype":"음료식품 - 기타음료식품","category":"food"}]},{"lat":"37.160836512","long":"127.07419067","imageIndex":7,"items":[{"name":"희망축산물 판매장","tel":"031-373-3447","addr":"경기도 오산시 은계동 29-6번지","indutype":"음료식품 - 정육점","category":"food"}]},{"lat":"37.16122159","long":"127.07803005","imageIndex":17,"items":[{"name":"HJA씨스템","tel":"031-376-4066","addr":"경기도 오산시 은계동 7-32,103-107","indutype":"농업 - 농기계","category":"other"}]},{"lat":"37.159198756","long":"127.07053033","imageIndex":17,"items":[{"name":"가나타일","tel":"031-374-2895","addr":"경기도 오산시 은계동 96-7번지 101,102,103호","indutype":"건축자재 - 건축용 요업제품","category":"other"},{"name":"극동특수OMT","tel":"031-375-5185","addr":"경기도 오산시 은계동 96-7번지","indutype":"기타 - 기계공구","category":"other"},{"name":"극동특수OMT","tel":"031-375-5185","addr":"경기도 오산시 은계동 96-7번지","indutype":"기타 - 기계공구","category":"other"},{"name":"정진철물건재","tel":"031-377-2324","addr":"경기도 오산시 은계동 96-7번지 상가 1층","indutype":"건축자재 - 기타건축자재","category":"other"},{"name":"해일나염","tel":"031-377-0337","addr":"경기도 오산시 은계동 96-7번지","indutype":"건축자재 - 인테리어전문","category":"other"}]},{"lat":"37.160334576","long":"127.06964196","imageIndex":17,"items":[{"name":"규수방","tel":"031-373-4880","addr":"경기도 오산시 은계동 67-1번지","indutype":"가구 - 일반가구","category":"other"},{"name":"삼성종합주방","tel":"031-375-8837","addr":"경기도 오산시 은계동 67-1번지","indutype":"주방용구 - 주방용구","category":"other"},{"name":"신제일사무용가구","tel":"031-378-3691","addr":"경기도 오산시 은계동 67-1번지","indutype":"사무통신 - 사무용 OA기기","category":"other"}]},{"lat":"37.160197463","long":"127.0730305","imageIndex":17,"items":[{"name":"그린크리닝세탁소","tel":"031-375-1993","addr":"경기도 오산시 은계동 35-1번지","indutype":"수리서비스 - 세탁소","category":"other"}]},{"lat":"37.160393295","long":"127.07697098","imageIndex":17,"items":[{"name":"대한벤더주식회사","tel":"031-376-8851","addr":"경기도 오산시 은계동 7-24","indutype":"유통업 영리 - 기타유통업","category":"other"}]},{"lat":"37.159478208","long":"127.07030542","imageIndex":17,"items":[{"name":"도그하우스애견샵","tel":"031-372-6640","addr":"경기도 오산시 은계동 69-3번지","indutype":"문화.취미 - 애완동물","category":"other"},{"name":"아로하인테리어,방수타일건재","tel":"031-238-8204","addr":"경기도 오산시 은계동 69-3번지","indutype":"건축자재 - 기타건축자재","category":"other"},{"name":"오산전기앤조명","tel":"031-375-3068","addr":"경기도 오산시 은계동 69-3번지","indutype":"건축자재 - 조명기구","category":"other"},{"name":"전국계기","tel":"031-376-7896","addr":"경기도 오산시 은계동 69-3번지","indutype":"주방용구 - 주방용구","category":"other"},{"name":"행운하우스","tel":"031-377-5070","addr":"경기도 오산시 은계동 69-3번지 방수타일공사 1층 2호","indutype":"기타 - 기계공구","category":"other"}]},{"lat":"37.160854337","long":"127.07451717","imageIndex":17,"items":[{"name":"도양철물보일러","tel":"031-376-6774","addr":"경기도 오산시 은계동 29-2번지 대영빌라 B동 102호","indutype":"건축자재 - 목재·석재·철물","category":"other"}]},{"lat":"37.158919116","long":"127.07108172","imageIndex":17,"items":[{"name":"동현전기","tel":"031-374-6986","addr":"경기도 오산시 은계동 94","indutype":"전기제품 - 기타전기제품","category":"other"},{"name":"창조장식","tel":"031-377-2270","addr":"경기도 오산시 은계동 94번지","indutype":"건축자재 - 인테리어전문","category":"other"}]},{"lat":"37.158720802","long":"127.07122789","imageIndex":17,"items":[{"name":"드림창호금속","tel":"031-372-5515","addr":"경기도 오산시 은계동 94-1번지 1층","indutype":"건축자재 - 기타건축자재","category":"other"},{"name":"이화다이아몬드상사","tel":"031-375-7717","addr":"경기도 오산시 은계동 94-1번지","indutype":"기타 - 기계공구","category":"other"},{"name":"케이원","tel":"00-1644-1899","addr":"경기도 오산시 은계동 94-1번지","indutype":"사무통신 - 통신기기","category":"other"}]},{"lat":"37.161142922","long":"127.07410089","imageIndex":17,"items":[{"name":"모든클리닝","tel":"","addr":"경기도 오산시 은계동 28-2번지 우성그린빌라 103동 102호","indutype":"용역 서비스 - 종합용역","category":"other"},{"name":"씨앤에스","tel":"070-7758-4495","addr":"경기도 오산시 은계동 28-2번지 우성그린빌라 103동 101호","indutype":"용역 서비스 - 기타용역서비스","category":"other"}]},{"lat":"37.16122444","long":"127.0733917","imageIndex":17,"items":[{"name":"미소리빙","tel":"031-1111-1111","addr":"경기도 오산시 은계동 44-31번지 퀸즈타운 603동 301호","indutype":"가구 - 기타가구","category":"other"}]},{"lat":"37.16186282","long":"127.07564394","imageIndex":17,"items":[{"name":"세븐일레븐오산은계지유점","tel":"","addr":"경기도 오산시 은계동 13-15번지","indutype":"유통업 영리 - 편 의 점","category":"other"}]},{"lat":"37.162081477","long":"127.07161369","imageIndex":17,"items":[{"name":"스카이 공조시스템","tel":"","addr":"경기도 오산시 은계동 45번지 701동 301호","indutype":"용역 서비스 - 기타용역서비스","category":"other"}]},{"lat":"37.158865702","long":"127.06994463","imageIndex":17,"items":[{"name":"시큐리티시스템","tel":"031-278-2016","addr":"경기도 오산시 은계동 96번지 1층","indutype":"용역 서비스 - 기타용역서비스","category":"other"},{"name":"조일공업","tel":"031-374-4506","addr":"경기도 오산시 은계동 96번지","indutype":"기타 - 기계공구","category":"other"}]},{"lat":"37.160864792","long":"127.07208543","imageIndex":17,"items":[{"name":"씨유오산은여울점","tel":"070-4118-8353","addr":"경기도 오산시 은계동 41번지","indutype":"유통업 영리 - 편 의 점","category":"other"}]},{"lat":"37.160681027","long":"127.0779282","imageIndex":17,"items":[{"name":"아르페지오","tel":"031-376-1412","addr":"경기도 오산시 은계동 7번지 105동 101호","indutype":"직물 - 침구·수예점","category":"other"},{"name":"황금수족관","tel":"031-377-1566","addr":"경기도 오산시 은계동 7번지 105동 116호","indutype":"문화.취미 - 수족관","category":"other"}]},{"lat":"37.160356473","long":"127.07820933","imageIndex":17,"items":[{"name":"아이지에이마트 오산무지개점","tel":"031-768-0708","addr":"경기도 오산시 은계동 7번지 106동 103호","indutype":"유통업 영리 - 편 의 점","category":"other"}]},{"lat":"37.161891052","long":"127.07366252","imageIndex":17,"items":[{"name":"에띠임","tel":"031-377-9884","addr":"경기도 오산시 은계동 25-2번지","indutype":"회원제형태 - 기타1","category":"other"}]},{"lat":"37.16083932","long":"127.06936095","imageIndex":17,"items":[{"name":"에프알엘코리아(주)오산은계점","tel":"02-771-6303","addr":"경기도 오산시 은계동 65-3번지","indutype":"의류 - 기타의류","category":"other"}]},{"lat":"37.162638008","long":"127.07517184","imageIndex":17,"items":[{"name":"왕자와공주","tel":"031-1599-2103","addr":"경기도 오산시 은계동 3-7번지 2층","indutype":"회원제형태 - 기타1","category":"other"}]},{"lat":"37.159478035","long":"127.07060939","imageIndex":17,"items":[{"name":"은계세탁소","tel":"031-374-7911","addr":"경기도 오산시 은계동 95번지","indutype":"수리서비스 - 세탁소","category":"other"}]},{"lat":"37.162306836","long":"127.07144502","imageIndex":17,"items":[{"name":"이마트24 오산은계점","tel":"031-000-0000","addr":"경기도 오산시 은계동 55-3번지","indutype":"유통업 영리 - 편 의 점","category":"other"},{"name":"이마트24 오산은계점","tel":"031-000-0000","addr":"경기도 오산시 은계동 55-3번지","indutype":"유통업 영리 - 편 의 점","category":"other"}]},{"lat":"37.1601951","long":"127.0769145","imageIndex":17,"items":[{"name":"재단법인 오산문화재단","tel":"031-379-9926","addr":"경기도 오산시 은계동 7-7번지","indutype":"문화.취미 - 티켓","category":"other"}]},{"lat":"37.161388314","long":"127.07049851","imageIndex":17,"items":[{"name":"주식회사 동하건설","tel":"031-372-0479","addr":"경기도 오산시 은계동 74번지","indutype":"용역 서비스 - 기타용역서비스","category":"other"}]},{"lat":"37.162252916","long":"127.07119729","imageIndex":17,"items":[{"name":"주식회사스틸브로","tel":"070-1111-1111","addr":"경기도 오산시 은계동 55-2번지 404호","indutype":"수리서비스 - 가정용품수리","category":"other"}]},{"lat":"37.157892573","long":"127.06994377","imageIndex":17,"items":[{"name":"주식회사현대하이캅","tel":"031-372-6978","addr":"경기도 오산시 은계동 97-3번지","indutype":"용역 서비스 - 종합용역","category":"other"}]},{"lat":"37.160109207","long":"127.06983315","imageIndex":17,"items":[{"name":"주은상사","tel":"031-372-6714","addr":"경기도 오산시 은계동 67-7번지","indutype":"건축자재 - 기타건축자재","category":"other"}]},{"lat":"37.159585505","long":"127.07174653","imageIndex":17,"items":[{"name":"중심 텔레콤","tel":"031-376-8350","addr":"경기도 오산시 은계동 84-13번지","indutype":"사무통신 - 통신기기","category":"other"}]},{"lat":"37.160530239","long":"127.07405528","imageIndex":17,"items":[{"name":"창신철강","tel":"031-375-7888","addr":"경기도 오산시 은계동 31-1번지","indutype":"기타 - 기계공구","category":"other"}]},{"lat":"37.161019084","long":"127.07014918","imageIndex":17,"items":[{"name":"태영공조","tel":"031-000-0000","addr":"경기도 오산시 은계동 71-1번지 쌍용연립 가동 107호","indutype":"용역 서비스 - 기타용역서비스","category":"other"}]},{"lat":"37.160807444","long":"127.07750051","imageIndex":17,"items":[{"name":"파티&풍선","tel":"070-8252-8359","addr":"경기도 오산시 은계동 7번지 운암 상가 106동 107호","indutype":"신변잡화 - 기타잡화","category":"other"},{"name":"화인하우스","tel":"031-372-7519","addr":"경기도 오산시 은계동 7번지","indutype":"가구 - 일반가구","category":"other"}]},{"lat":"37.161691863","long":"127.07524974","imageIndex":17,"items":[{"name":"합동기계","tel":"031-375-7025","addr":"경기도 오산시 은계동 13","indutype":"기타 - 기계공구","category":"other"}]},{"lat":"37.159279753","long":"127.07069927","imageIndex":4,"items":[{"name":"경애닭발","tel":"031-376-1330","addr":"경기도 오산시 은계동 95-17번지 새한의원 102호","indutype":"일반휴게음식 - 일반한식","category":"restaurant"},{"name":"영진식당","tel":"070-4922-1261","addr":"경기도 오산시 은계동 95-17번지 1층 일부호","indutype":"일반휴게음식 - 일반한식","category":"restaurant"}]},{"lat":"37.160744236","long":"127.07771436","imageIndex":4,"items":[{"name":"구구닭발","tel":"031-375-9901","addr":"경기도 오산시 은계동 7 102-113","indutype":"일반휴게음식 - 일반한식","category":"restaurant"},{"name":"새말집","tel":"031-373-5929","addr":"경기도 오산시 은계동 7번지 102동 102호","indutype":"일반휴게음식 - 일반한식","category":"restaurant"},{"name":"프로석쇠불고기","tel":"031-376-1107","addr":"경기도 오산시 은계동 7번지 오산가구단지 상가 102동 110~111호","indutype":"일반휴게음식 - 일반한식","category":"restaurant"}]},{"lat":"37.159667138","long":"127.0708122","imageIndex":4,"items":[{"name":"까투리은계대박점","tel":"031-373-0273","addr":"경기도 오산시 은계동 80-4번지 은계주공 상가 104호","indutype":"일반휴게음식 - 일반한식","category":"restaurant"}]},{"lat":"37.160807444","long":"127.07750051","imageIndex":4,"items":[{"name":"담소사골순대오산은계점","tel":"031-377-1821","addr":"경기도 오산시 은계동 7번지 104동 1층 104~107호","indutype":"일반휴게음식 - 일반한식","category":"restaurant"},{"name":"동탄정육식당","tel":"031-377-4004","addr":"경기도 오산시 은계동 7번지 105,106,107호","indutype":"일반휴게음식 - 일반한식","category":"restaurant"},{"name":"새말해장국","tel":"031-373-5929","addr":"경기도 오산시 은계동 7번지 1층 102101호~103호","indutype":"일반휴게음식 - 일반한식","category":"restaurant"},{"name":"선미식당","tel":"031-372-6341","addr":"경기도 오산시 은계동 7번지 105동 102호~104호","indutype":"일반휴게음식 - 일반한식","category":"restaurant"},{"name":"설악칡냉면","tel":"031-373-4334","addr":"경기도 오산시 은계동 7번지 운암 상가 104동 105호","indutype":"일반휴게음식 - 일반한식","category":"restaurant"},{"name":"영식이 닭발","tel":"","addr":"경기도 오산시 은계동 7번지 1층 104-106호","indutype":"일반휴게음식 - 일반한식","category":"restaurant"},{"name":"옛날짜장","tel":"031-375-1006","addr":"경기도 오산시 은계동 7번지 106동 1층 104,105,106호","indutype":"일반휴게음식 - 중국식","category":"restaurant"},{"name":"오산수산","tel":"031-376-5388","addr":"경기도 오산시 은계동 7번지 운암 상가 103동 101호","indutype":"일반휴게음식 - 일반한식","category":"restaurant"},{"name":"우리끼리 아지트","tel":"031-378-5548","addr":"경기도 오산시 은계동 7번지 운암 상가 101동 102~103호","indutype":"일반휴게음식 - 일반한식","category":"restaurant"},{"name":"주식회사 자연공간","tel":"070-7793-5004","addr":"경기도 오산시 은계동 7번지","indutype":"일반휴게음식 - 서양음식","category":"restaurant"},{"name":"호남식당","tel":"031-376-1317","addr":"경기도 오산시 은계동 7번지 운암 상가 104동 112호","indutype":"일반휴게음식 - 일반한식","category":"restaurant"}]},{"lat":"37.160681027","long":"127.0779282","imageIndex":4,"items":[{"name":"먹거리식당","tel":"031-375-0575","addr":"경기도 오산시 은계동 7번지 105동 1층 114호","indutype":"일반휴게음식 - 일반한식","category":"restaurant"}]},{"lat":"37.159198756","long":"127.07053033","imageIndex":4,"items":[{"name":"미니분식","tel":"031-374-4025","addr":"경기도 오산시 은계동 96-7번지","indutype":"일반휴게음식 - 스넥","category":"restaurant"}]},{"lat":"37.158720802","long":"127.07122789","imageIndex":4,"items":[{"name":"복실네국밥","tel":"031-373-5665","addr":"경기도 오산시 은계동 94-1번지 1층","indutype":"일반휴게음식 - 일반한식","category":"restaurant"},{"name":"차차 (CHA-CHA)","tel":"031-378-7608","addr":"경기도 오산시 은계동 94-1번지 1층 3호","indutype":"일반휴게음식 - 서양음식","category":"restaurant"}]},{"lat":"37.159478035","long":"127.07060939","imageIndex":4,"items":[{"name":"봉이치킨오산은계점","tel":"031-374-0334","addr":"경기도 오산시 은계동 95번지 관인은계태권도체육관 102호","indutype":"일반휴게음식 - 스넥","category":"restaurant"},{"name":"조코만삼겹떡볶이","tel":"031-374-0092","addr":"경기도 오산시 은계동 95번지 1층","indutype":"일반휴게음식 - 스넥","category":"restaurant"},{"name":"카페인","tel":"","addr":"경기도 오산시 은계동 95번지 관인은계태권도체육관 104호","indutype":"일반휴게음식 - 서양음식","category":"restaurant"}]},{"lat":"37.158694331","long":"127.07024844","imageIndex":4,"items":[{"name":"봉평메밀밭","tel":"031-377-8737","addr":"경기도 오산시 은계동 96-2번지","indutype":"일반휴게음식 - 일반한식","category":"restaurant"}]},{"lat":"37.159918025","long":"127.07322162","imageIndex":4,"items":[{"name":"소담한식","tel":"031-378-6422","addr":"경기도 오산시 은계동 86-8번지 다동 101호","indutype":"일반휴게음식 - 일반한식","category":"restaurant"}]},{"lat":"37.162386539","long":"127.07380934","imageIndex":4,"items":[{"name":"수성궁곰탕","tel":"031-378-4997","addr":"경기도 오산시 은계동 22번지 2층","indutype":"일반휴게음식 - 일반한식","category":"restaurant"}]},{"lat":"37.162476777","long":"127.07358426","imageIndex":4,"items":[{"name":"약수터곤드레보리밥","tel":"031-375-1192","addr":"경기도 오산시 은계동 21번지","indutype":"일반휴게음식 - 일반한식","category":"restaurant"}]},{"lat":"37.158919116","long":"127.07108172","imageIndex":4,"items":[{"name":"옆집쭈꾸미","tel":"","addr":"경기도 오산시 은계동 94번지 은계빌딩 103호","indutype":"일반휴게음식 - 일반한식","category":"restaurant"},{"name":"해두리치킨","tel":"031-663-0447","addr":"경기도 오산시 은계동 94번지 은계빌딩 1층 101호","indutype":"일반휴게음식 - 스넥","category":"restaurant"}]},{"lat":"37.157892573","long":"127.06994377","imageIndex":4,"items":[{"name":"오뫼천","tel":"031-375-3392","addr":"경기도 오산시 은계동 97-3번지","indutype":"일반휴게음식 - 일식·회집","category":"restaurant"}]},{"lat":"37.1601951","long":"127.0769145","imageIndex":4,"items":[{"name":"오산지역자활센터카페사업단","tel":"031-375-3322","addr":"경기도 오산시 은계동 7-7번지 1층 문화공장","indutype":"일반휴게음식 - 서양음식","category":"restaurant"}]},{"lat":"37.160747544","long":"127.07227671","imageIndex":4,"items":[{"name":"우리동네솥뚜껑","tel":"070-8260-3322","addr":"경기도 오산시 은계동 37-1번지","indutype":"일반휴게음식 - 일반한식","category":"restaurant"}]},{"lat":"37.161437912","long":"127.07791769","imageIndex":4,"items":[{"name":"원더랜드/주식회사디벨로프로퍼티즈원더랜","tel":"031-111-1111","addr":"경기도 오산시 은계동 7번지 103동 108~114호","indutype":"일반휴게음식 - 일반한식","category":"restaurant"}]},{"lat":"37.159865817","long":"127.07002432","imageIndex":4,"items":[{"name":"은계왕족발","tel":"031-372-4515","addr":"경기도 오산시 은계동 67-9번지","indutype":"일반휴게음식 - 일반한식","category":"restaurant"}]},{"lat":"37.162838289","long":"127.07172696","imageIndex":4,"items":[{"name":"장가네 추어탕","tel":"031-373-8380","addr":"경기도 오산시 은계동 53-3번지 1층","indutype":"일반휴게음식 - 일반한식","category":"restaurant"}]},{"lat":"37.160197363","long":"127.07319936","imageIndex":4,"items":[{"name":"처가집양념치킨은계점","tel":"031-377-9245","addr":"경기도 오산시 은계동 33-3번지","indutype":"일반휴게음식 - 스넥","category":"restaurant"}]},{"lat":"37.161890565","long":"127.07447311","imageIndex":4,"items":[{"name":"콩미가순두부","tel":"031-377-1990","addr":"경기도 오산시 은계동 25번지 1층 A","indutype":"일반휴게음식 - 일반한식","category":"restaurant"}]},{"lat":"37.162052936","long":"127.07416929","imageIndex":4,"items":[{"name":"필봉쌈밥","tel":"031-375-5584","addr":"경기도 오산시 은계동 25-6번지","indutype":"일반휴게음식 - 일반한식","category":"restaurant"}]},{"lat":"37.159478208","long":"127.07030542","imageIndex":4,"items":[{"name":"하우스홀드(은계점)","tel":"031-372-8152","addr":"경기도 오산시 은계동 69-3번지","indutype":"일반휴게음식 - 일반한식","category":"restaurant"}]},{"lat":"37.159775489","long":"127.07041827","imageIndex":4,"items":[{"name":"훌랄라숯불바베큐(은계점)","tel":"031-375-6333","addr":"경기도 오산시 은계동 70-1번지","indutype":"일반휴게음식 - 칵테일바","category":"restaurant"}]},{"lat":"37.160584745","long":"127.0733123","imageIndex":16,"items":[{"name":"구세군샛별어린이집[아이행복]","tel":"031-375-8990","addr":"경기도 오산시 은계동 33번지","indutype":"학원 - 유아원","category":"study"}]},{"lat":"37.16302534","long":"127.0753636","imageIndex":16,"items":[{"name":"동부어린이집[아이행복]","tel":"031-372-0898","addr":"경기도 오산시 은계동 2-5번지 대한예수교장로회 동부교회","indutype":"학원 - 유아원","category":"study"}]},{"lat":"37.162638008","long":"127.07517184","imageIndex":16,"items":[{"name":"베이비캐슬어린이집[아이행복]","tel":"031-375-5235","addr":"경기도 오산시 은계동 3-7번지 63호","indutype":"학원 - 유아원","category":"study"}]},{"lat":"37.16258495","long":"127.07350555","imageIndex":16,"items":[{"name":"새싹뜰어린이집[아이행복]","tel":"031-372-5952","addr":"경기도 오산시 은계동 20-1번지 지혜샘어린이집","indutype":"학원 - 유아원","category":"study"}]},{"lat":"37.159199196","long":"127.06975354","imageIndex":16,"items":[{"name":"엘리엘음악학원","tel":"031-374-5439","addr":"경기도 오산시 은계동 67-17번지 3층 303-1호","indutype":"학원 - 예·체능계학원","category":"study"}]},{"lat":"37.159478035","long":"127.07060939","imageIndex":16,"items":[{"name":"용인대청룡태권도","tel":"031-373-9321","addr":"경기도 오산시 은계동 95번지","indutype":"학원 - 예·체능계학원","category":"study"}]},{"lat":"37.160585533","long":"127.0719726","imageIndex":16,"items":[{"name":"지구촌어린이집[아이행복]","tel":"031-372-0738","addr":"경기도 오산시 은계동 78번지","indutype":"학원 - 유아원","category":"study"}]},{"lat":"37.161054972","long":"127.07041941","imageIndex":16,"items":[{"name":"해에게서소년에게","tel":"031-372-8815","addr":"경기도 오산시 은계동 72-7번지","indutype":"학원 - 유치원","category":"study"},{"name":"해에게서소년에게어린이집[아이행복]","tel":"031-372-8816","addr":"경기도 오산시 은계동 72-7번지","indutype":"학원 - 유아원","category":"study"}]},{"lat":"37.161253138","long":"127.07053216","imageIndex":16,"items":[{"name":"해에게서소년에게유치원[아이행복]","tel":"031-372-8815","addr":"경기도 오산시 은계동 72","indutype":"학원 - 유치원","category":"study"}]},{"lat":"37.157892573","long":"127.06994377","imageIndex":7,"items":[{"name":"굿마트오산은계점","tel":"031-376-1355","addr":"경기도 오산시 은계동 97-3번지 1층","indutype":"유통업 영리 - 슈퍼마켓","category":"mart"}]},{"lat":"37.160422497","long":"127.07341348","imageIndex":7,"items":[{"name":"럭키할인마트","tel":"031-374-9778","addr":"경기도 오산시 은계동 33-2번지","indutype":"유통업 영리 - 슈퍼마켓","category":"mart"}]},{"lat":"37.161586098","long":"127.0712755","imageIndex":7,"items":[{"name":"부부슈퍼마켓","tel":"","addr":"경기도 오산시 은계동 75번지 101,102호","indutype":"유통업 영리 - 슈퍼마켓","category":"mart"}]},{"lat":"37.159199196","long":"127.06975354","imageIndex":7,"items":[{"name":"엔오에스마트 은계점","tel":"031-377-8284","addr":"경기도 오산시 은계동 67-17번지 22.24.28.6총 5필지","indutype":"유통업 영리 - 슈퍼마켓","category":"mart"}]},{"lat":"37.159721522","long":"127.07024935","imageIndex":7,"items":[{"name":"중국식품","tel":"","addr":"경기도 오산시 은계동 67-15번지 스카이노래방 A동 102호","indutype":"유통업 영리 - 슈퍼마켓","category":"mart"}]},{"lat":"37.162081477","long":"127.07161369","imageIndex":7,"items":[{"name":"필마트","tel":"031-377-1701","addr":"경기도 오산시 은계동 45번지 901동 101호","indutype":"유통업 영리 - 슈퍼마켓","category":"mart"}]},{"lat":"37.16233261","long":"127.07358412","imageIndex":0,"items":[{"name":"명성파워트레인","tel":"031-372-2205","addr":"경기도 오산시 은계동 22-1번지 (주)명성","indutype":"자동차정비 유지 - 자동차정비","category":"car"}]},{"lat":"37.161671473","long":"127.07903248","imageIndex":0,"items":[{"name":"서부자동차","tel":"031-378-0555","addr":"경기도 오산시 은계동 7번지 및주차장 가동 102호","indutype":"자동차판매 - 중고자동차판매","category":"car"}]},{"lat":"37.159865817","long":"127.07002432","imageIndex":0,"items":[{"name":"세덴","tel":"031-372-6252","addr":"경기도 오산시 은계동 67-9번지","indutype":"자동차정비 유지 - 세차장","category":"car"},{"name":"애니카랜드은계점","tel":"031-373-1009","addr":"경기도 오산시 은계동 67-9번지","indutype":"자동차정비 유지 - 자동차정비","category":"car"},{"name":"오산블랙박스","tel":"031-377-5848","addr":"경기도 오산시 은계동 67-9번지 1층","indutype":"자동차정비 유지 - 자동차부품","category":"car"},{"name":"오산블랙박스","tel":"031-377-5848","addr":"경기도 오산시 은계동 67-9번지","indutype":"자동차정비 유지 - 가타자동차서비스","category":"car"},{"name":"코스모씨엔티주식회사","tel":"031-373-1009","addr":"경기도 오산시 은계동 67-9번지","indutype":"자동차정비 유지 - 자동차정비","category":"car"}]},{"lat":"37.162197184","long":"127.07403433","imageIndex":0,"items":[{"name":"스마트커먼레일","tel":"031-374-7924","addr":"경기도 오산시 은계동 23번지","indutype":"자동차정비 유지 - 자동차정비","category":"car"}]},{"lat":"37.160482152","long":"127.07894122","imageIndex":0,"items":[{"name":"스카이자동차공업사","tel":"031-378-0744","addr":"경기도 오산시 은계동 7번지 109동","indutype":"자동차정비 유지 - 자동차부품","category":"car"}]},{"lat":"37.160807444","long":"127.07750051","imageIndex":0,"items":[{"name":"에이치씨에이에스 주식회사 오산경매장","tel":"031-1566-8212","addr":"경기도 오산시 은계동 7번지","indutype":"자동차판매 - 중고자동차판매","category":"car"},{"name":"에이치씨에이에스 주식회사 오산동탄지점","tel":"031-378-2930","addr":"경기도 오산시 은계동 7번지","indutype":"자동차판매 - 중고자동차판매","category":"car"}]},{"lat":"37.160692325","long":"127.07422431","imageIndex":0,"items":[{"name":"영화세차장","tel":"031-000-0000","addr":"경기도 오산시 은계동 111-17번지","indutype":"자동차정비 유지 - 세차장","category":"car"},{"name":"영화카써비스","tel":"031-375-5435","addr":"경기도 오산시 은계동 111-17번지","indutype":"자동차정비 유지 - 자동차정비","category":"car"}]},{"lat":"37.161158367","long":"127.07826641","imageIndex":0,"items":[{"name":"트윈모터스","tel":"031-373-8121","addr":"경기도 오산시 은계동 7번지 104동 111,112호","indutype":"자동차정비 유지 - 자동차부품","category":"car"}]},{"lat":"37.162141943","long":"127.0759707","imageIndex":0,"items":[{"name":"한국지엠오산바로서비스","tel":"031-374-8294","addr":"경기도 오산시 은계동 4-2번지","indutype":"자동차정비 유지 - 자동차정비","category":"car"}]},{"lat":"37.162081477","long":"127.07161369","imageIndex":13,"items":[{"name":"미사랑헤어","tel":"031-374-7227","addr":"경기도 오산시 은계동 45번지 1001동 101호","indutype":"보건위생 - 미용원","category":"beauty"},{"name":"한은영 헤어 (hair)","tel":"031-000-0000","addr":"경기도 오산시 은계동 45번지 101동 101호","indutype":"보건위생 - 미용원","category":"beauty"}]},{"lat":"37.159585505","long":"127.07174653","imageIndex":13,"items":[{"name":"샤인헤어","tel":"031-377-3981","addr":"경기도 오산시 은계동 84-13번지","indutype":"보건위생 - 미용원","category":"beauty"}]},{"lat":"37.160197463","long":"127.0730305","imageIndex":13,"items":[{"name":"송헤어뉴스","tel":"031-376-1007","addr":"경기도 오산시 은계동 35-1번지","indutype":"보건위생 - 미용원","category":"beauty"}]},{"lat":"37.15989134","long":"127.07263618","imageIndex":13,"items":[{"name":"지니헤어","tel":"031-372-0063","addr":"경기도 오산시 은계동 86-12번지 1층","indutype":"보건위생 - 미용원","category":"beauty"}]},{"lat":"37.161053879","long":"127.07231077","imageIndex":13,"items":[{"name":"천하대리","tel":"1877-5445-0000","addr":"경기도 오산시 은계동 42번지","indutype":"보건위생 - 기타대인서비스","category":"beauty"}]},{"lat":"37.158919116","long":"127.07108172","imageIndex":13,"items":[{"name":"카라헤어샵","tel":"031-378-9092","addr":"경기도 오산시 은계동 94번지 은계빌딩 1층","indutype":"보건위생 - 미용원","category":"beauty"}]},{"lat":"37.158865702","long":"127.06994463","imageIndex":13,"items":[{"name":"코스모스 미용실","tel":"031-373-7416","addr":"경기도 오산시 은계동 96번지 조일공업사 101호","indutype":"보건위생 - 미용원","category":"beauty"}]},{"lat":"37.159198756","long":"127.07053033","imageIndex":13,"items":[{"name":"태령헤어","tel":"031-376-1615","addr":"경기도 오산시 은계동 96-7번지","indutype":"보건위생 - 미용원","category":"beauty"}]},{"lat":"37.16133148","long":"127.07519311","imageIndex":13,"items":[{"name":"헤어상그레나은계점","tel":"","addr":"경기도 오산시 은계동 9번지 , 1,2층","indutype":"보건위생 - 미용원","category":"beauty"}]},{"lat":"37.158694331","long":"127.07024844","imageIndex":5,"items":[{"name":"세종여관","tel":"031-372-1975","addr":"경기도 오산시 은계동 96-2번지","indutype":"숙박업 - 여관/기타숙박업","category":"hotel"}]},{"lat":"37.159199196","long":"127.06975354","imageIndex":8,"items":[{"name":"주식회사 빅코(VICCO Inc.)","tel":"","addr":"경기도 오산시 은계동 67-17번지 304호","indutype":"약국 - 제약회사","category":"medical"}]}]