[{"lat":"37.063401334","long":"127.06600394","imageIndex":7,"items":[{"name":"D.C아울렛","tel":"031-611-5949","addr":"경기도 평택시 서정동 805-2번지 101호","indutype":"유통업 영리 - 슈퍼마켓","category":"mart"},{"name":"홈쇼핑DC아울렛","tel":"031-662-2872","addr":"경기도 평택시 서정동 805-2번지","indutype":"소매업 - 슈퍼","category":"mart"}]},{"lat":"37.065377751","long":"127.05988887","imageIndex":7,"items":[{"name":"건영마트","tel":"031-664-2999","addr":"경기도 평택시 서정동 852-9번지 건영마트","indutype":"유통업 영리 - 슈퍼마켓","category":"mart"},{"name":"건영마트 서정","tel":"031-664-8767","addr":"경기도 평택시 서정동 852-9번지","indutype":"소매업 - 슈퍼","category":"mart"}]},{"lat":"37.071181975","long":"127.05689084","imageIndex":7,"items":[{"name":"그린슈퍼","tel":"","addr":"경기도 평택시 서정동 62-8번지","indutype":"소매업 - 슈퍼","category":"mart"},{"name":"그린슈퍼","tel":"031-668-1537","addr":"경기도 평택시 서정동 62-8번지 1층","indutype":"유통업 영리 - 슈퍼마켓","category":"mart"}]},{"lat":"37.068792346","long":"127.06075725","imageIndex":7,"items":[{"name":"농심마트","tel":"031-666-4349","addr":"경기도 평택시 서정동 793번지 동산 상가 지하층 101호","indutype":"유통업 영리 - 슈퍼마켓","category":"mart"}]},{"lat":"37.056261251","long":"127.05503648","imageIndex":7,"items":[{"name":"대성미니슈퍼","tel":"031-665-0333","addr":"경기도 평택시 서정동 335-23번지","indutype":"유통업 영리 - 슈퍼마켓","category":"mart"}]},{"lat":"37.072870206","long":"127.04920042","imageIndex":7,"items":[{"name":"대호슈퍼","tel":"031-665-9282","addr":"경기도 평택시 서정동 590-136번지","indutype":"소매업 - 슈퍼","category":"mart"},{"name":"대호슈퍼","tel":"031-665-5085","addr":"경기도 평택시 서정동 590-136번지","indutype":"유통업 영리 - 슈퍼마켓","category":"mart"}]},{"lat":"37.0632085","long":"127.05487258","imageIndex":7,"items":[{"name":"도현DC마트","tel":"031-662-4416","addr":"경기도 평택시 서정동 895-14번지 1층 1호","indutype":"유통업 영리 - 슈퍼마켓","category":"mart"},{"name":"도현DC마트","tel":"031-668-7144","addr":"경기도 평택시 서정동 895-14번지 101호","indutype":"소매업 - 슈퍼","category":"mart"}]},{"lat":"37.072345703","long":"127.05381054","imageIndex":7,"items":[{"name":"마켓25","tel":"070-7527-2934","addr":"경기도 평택시 서정동 552-28번지","indutype":"유통업 영리 - 슈퍼마켓","category":"mart"}]},{"lat":"37.070655849","long":"127.06412084","imageIndex":7,"items":[{"name":"멀티샵","tel":"031-662-5182","addr":"경기도 평택시 서정동 779-1번지","indutype":"유통업 영리 - 슈퍼마켓","category":"mart"}]},{"lat":"37.074954261","long":"127.04194842","imageIndex":7,"items":[{"name":"명성D/C할인마트","tel":"031-611-3378","addr":"경기도 평택시 서정동 603-168번지","indutype":"유통업 영리 - 슈퍼마켓","category":"mart"}]},{"lat":"37.064708162","long":"127.06545408","imageIndex":7,"items":[{"name":"무지개슈퍼","tel":"031-667-1991","addr":"경기도 평택시 서정동 807번지","indutype":"유통업 영리 - 슈퍼마켓","category":"mart"}]},{"lat":"37.058457911","long":"127.05925409","imageIndex":7,"items":[{"name":"서정천하명당","tel":"031-611-4097","addr":"경기도 평택시 서정동 262-5번지","indutype":"유통업 영리 - 슈퍼마켓","category":"mart"}]},{"lat":"37.067845506","long":"127.06222953","imageIndex":7,"items":[{"name":"세경마트","tel":"031-667-6737","addr":"경기도 평택시 서정동 815-3번지 1층","indutype":"유통업 영리 - 슈퍼마켓","category":"mart"}]},{"lat":"37.071539158","long":"127.06359304","imageIndex":7,"items":[{"name":"솔슈퍼","tel":"031-665-2120","addr":"경기도 평택시 서정동 775번지","indutype":"유통업 영리 - 슈퍼마켓","category":"mart"}]},{"lat":"37.07212153","long":"127.05120156","imageIndex":7,"items":[{"name":"송서슈퍼","tel":"031-666-1456","addr":"경기도 평택시 서정동 557-10번지","indutype":"소매업 - 슈퍼","category":"mart"},{"name":"송서슈퍼","tel":"031-666-3089","addr":"경기도 평택시 서정동 557-10번지","indutype":"유통업 영리 - 슈퍼마켓","category":"mart"}]},{"lat":"37.065432184","long":"127.05911307","imageIndex":7,"items":[{"name":"신대관령","tel":"031-611-5098","addr":"경기도 평택시 서정동 852-15번지","indutype":"유통업 영리 - 슈퍼마켓","category":"mart"}]},{"lat":"37.062288361","long":"127.05723309","imageIndex":7,"items":[{"name":"애경DC마트","tel":"031-665-0691","addr":"경기도 평택시 서정동 890-3번지","indutype":"유통업 영리 - 슈퍼마켓","category":"mart"}]},{"lat":"37.064072552","long":"127.05703197","imageIndex":7,"items":[{"name":"엠에스(MS)중고마트","tel":"031-662-7443","addr":"경기도 평택시 서정동 885-1번지","indutype":"유통업 영리 - 슈퍼마켓","category":"mart"}]},{"lat":"37.066097753","long":"127.06162099","imageIndex":7,"items":[{"name":"우리 홈 마트","tel":"031-665-5676","addr":"경기도 평택시 서정동 848-21번지 1층","indutype":"유통업 영리 - 슈퍼마켓","category":"mart"}]},{"lat":"37.0623433","long":"127.055288","imageIndex":7,"items":[{"name":"원마트","tel":"031-656-7351","addr":"경기도 평택시 서정동 894-16번지","indutype":"유통업 영리 - 슈퍼마켓","category":"mart"}]},{"lat":"37.057513457","long":"127.05564445","imageIndex":7,"items":[{"name":"월드마트","tel":"070-7727-8536","addr":"경기도 평택시 서정동 328-16번지 301호","indutype":"유통업 영리 - 슈퍼마켓","category":"mart"}]},{"lat":"37.064181142","long":"127.05600887","imageIndex":7,"items":[{"name":"웰마트","tel":"","addr":"경기도 평택시 서정동 883-1번지","indutype":"소매업 - 슈퍼","category":"mart"},{"name":"웰마트","tel":"031-611-3892","addr":"경기도 평택시 서정동 883-1번지","indutype":"유통업 영리 - 슈퍼마켓","category":"mart"}]},{"lat":"37.059727921","long":"127.06026691","imageIndex":7,"items":[{"name":"이마트24 서정롯데캐슬점","tel":"","addr":"경기도 평택시 서정동 1121번지 평택롯데캐슬 상가 112,113호","indutype":"유통업 영리 - 슈퍼마켓","category":"mart"}]},{"lat":"37.06598126","long":"127.06030535","imageIndex":7,"items":[{"name":"주은슈퍼","tel":"","addr":"경기도 평택시 서정동 843번지","indutype":"유통업 영리 - 슈퍼마켓","category":"mart"}]},{"lat":"37.05831566","long":"127.05506037","imageIndex":7,"items":[{"name":"청북공판장","tel":"031-662-1620","addr":"경기도 평택시 서정동 308-9번지","indutype":"소매업 - 슈퍼","category":"mart"},{"name":"청북공판장","tel":"031-663-5900","addr":"경기도 평택시 서정동 308-9번지","indutype":"유통업 영리 - 슈퍼마켓","category":"mart"}]},{"lat":"37.062154408","long":"127.05453456","imageIndex":7,"items":[{"name":"태양마트","tel":"031-663-9993","addr":"경기도 평택시 서정동 898번지 103호","indutype":"유통업 영리 - 슈퍼마켓","category":"mart"}]},{"lat":"37.070316727","long":"127.05739624","imageIndex":7,"items":[{"name":"판다팜","tel":"031-611-6574","addr":"경기도 평택시 서정동 788-1번지","indutype":"소매업 - 슈퍼","category":"mart"},{"name":"판다팜(송탄 서정점)","tel":"031-666-9577","addr":"경기도 평택시 서정동 788-1번지","indutype":"유통업 영리 - 슈퍼마켓","category":"mart"}]},{"lat":"37.064045164","long":"127.05780777","imageIndex":7,"items":[{"name":"편의점사랑마트","tel":"","addr":"경기도 평택시 서정동 887번지","indutype":"유통업 영리 - 슈퍼마켓","category":"mart"}]},{"lat":"37.066488079","long":"127.05550449","imageIndex":7,"items":[{"name":"포시즌마트","tel":"031-668-4913","addr":"경기도 평택시 서정동 835-11번지 스카이하우스 101호","indutype":"유통업 영리 - 슈퍼마켓","category":"mart"}]},{"lat":"37.067232367","long":"127.06306113","imageIndex":7,"items":[{"name":"포유25송탄중앙","tel":"031-664-6384","addr":"경기도 평택시 서정동 816-11번지","indutype":"유통업 영리 - 슈퍼마켓","category":"mart"}]},{"lat":"37.057566985","long":"127.05683622","imageIndex":7,"items":[{"name":"하나로마트(송탄농협본점)","tel":"031-665-0691","addr":"경기도 평택시 서정동 270-21번지","indutype":"소매업 - 슈퍼","category":"mart"}]},{"lat":"37.068647268","long":"127.06258998","imageIndex":7,"items":[{"name":"하나마트","tel":"031-664-0358","addr":"경기도 평택시 서정동 794번지 세경아파트","indutype":"유통업 영리 - 슈퍼마켓","category":"mart"}]},{"lat":"37.057180397","long":"127.05489096","imageIndex":7,"items":[{"name":"하나마트","tel":"031-663-5558","addr":"경기도 평택시 서정동 317-15번지","indutype":"유통업 영리 - 슈퍼마켓","category":"mart"}]},{"lat":"37.070397646","long":"127.05777862","imageIndex":7,"items":[{"name":"해피마트","tel":"031-664-2229","addr":"경기도 평택시 서정동 788-2번지","indutype":"소매업 - 슈퍼","category":"mart"}]}]