[{"lat":"37.751736774","long":"127.07801041","imageIndex":13,"items":[{"name":"(주)AMS코리아 의정부시지점","tel":"031-531-3920","addr":"경기도 의정부시 신곡동 769-2번지 101호","indutype":"보건위생 - 기타대인서비스","category":"beauty"}]},{"lat":"37.749290941","long":"127.07012203","imageIndex":13,"items":[{"name":"(주)루이스토리","tel":"062-973-8778","addr":"경기도 의정부시 신곡동 761-7번지 골드프라자 301호","indutype":"보건위생 - 화장품","category":"beauty"},{"name":"클럽밸런스5의정부금오점","tel":"031-851-1154","addr":"경기도 의정부시 신곡동 761-7번지 골드프라자 5층 501호","indutype":"보건위생 - 피부미용실","category":"beauty"}]},{"lat":"37.742484286","long":"127.06157265","imageIndex":13,"items":[{"name":"120%쿨 (신곡점)","tel":"031-111-1111","addr":"경기도 의정부시 신곡동 489-5번지 1층","indutype":"보건위생 - 미용원","category":"beauty"},{"name":"삼도피부관리실","tel":"031-821-7775","addr":"경기도 의정부시 신곡동 489-5번지 2층","indutype":"보건위생 - 피부미용실","category":"beauty"}]},{"lat":"37.729376061","long":"127.0601557","imageIndex":13,"items":[{"name":"120%쿨엘리시아점","tel":"031-847-4105","addr":"경기도 의정부시 신곡동 358-2번지 개성빌딩 1층","indutype":"보건위생 - 미용원","category":"beauty"}]},{"lat":"37.750370877","long":"127.07221082","imageIndex":13,"items":[{"name":"3R메디칼","tel":"031-851-1124","addr":"경기도 의정부시 신곡동 765-1번지 금오종합상가 A동 8층 801(2)호","indutype":"보건위생 - 의료용품","category":"beauty"},{"name":"리본뷰티(reborn beauty)","tel":"031-853-5005","addr":"경기도 의정부시 신곡동 765-1번지 금오종합상가 B동 104호","indutype":"보건위생 - 피부미용실","category":"beauty"},{"name":"소미네미장원","tel":"031-823-3561","addr":"경기도 의정부시 신곡동 765-1번지 금오종합상가 1층 103호","indutype":"보건위생 - 미용원","category":"beauty"},{"name":"쉬어테라피(금오점)","tel":"031-8083-5457","addr":"경기도 의정부시 신곡동 765-1번지 금오종합상가 A동 508호","indutype":"보건위생 - 화장품","category":"beauty"},{"name":"아이스펠","tel":"","addr":"경기도 의정부시 신곡동 765-1번지 금오종합상가 A동 1층 108호","indutype":"보건위생 - 미용원","category":"beauty"},{"name":"정민주DeLeve","tel":"031-827-1544","addr":"경기도 의정부시 신곡동 765-1번지 금오종합상가 A동 101호","indutype":"보건위생 - 미용원","category":"beauty"},{"name":"젬 메딕스","tel":"031-852-8659","addr":"경기도 의정부시 신곡동 765-1번지 금오종합상가 B동 1001호","indutype":"보건위생 - 의료용품","category":"beauty"}]},{"lat":"37.729095914","long":"127.0618797","imageIndex":13,"items":[{"name":"B&K운동처방센터","tel":"034-846-0366","addr":"경기도 의정부시 신곡동 362-4번지 3층","indutype":"보건위생 - 기타대인서비스","category":"beauty"}]},{"lat":"37.742927936","long":"127.05701205","imageIndex":13,"items":[{"name":"CL헤어샵","tel":"031-821-5102","addr":"경기도 의정부시 신곡동 673번지 휴먼시티 2층 203호","indutype":"보건위생 - 미용원","category":"beauty"},{"name":"문","tel":"031-821-8886","addr":"경기도 의정부시 신곡동 673번지 휴먼시티 307호 ,308,309호","indutype":"보건위생 - 화장품","category":"beauty"},{"name":"미스터엠","tel":"031-821-8077","addr":"경기도 의정부시 신곡동 673번지 휴먼씨티 112호","indutype":"보건위생 - 미용원","category":"beauty"},{"name":"신곡뷰티","tel":"031-848-6032","addr":"경기도 의정부시 신곡동 673번지 휴먼시티 103호","indutype":"보건위생 - 화장품","category":"beauty"},{"name":"아이러브안경타운","tel":"031-844-0880","addr":"경기도 의정부시 신곡동 673번지 휴먼시티빌딩 101호","indutype":"보건위생 - 안경","category":"beauty"},{"name":"의정부 공간대여","tel":"031-842-9106","addr":"경기도 의정부시 신곡동 673번지 휴먼시티 406호","indutype":"보건위생 - 미용재료","category":"beauty"},{"name":"체형교정원","tel":"031-6280-0037","addr":"경기도 의정부시 신곡동 673번지 휴먼시티 509-1호","indutype":"보건위생 - 피부미용실","category":"beauty"}]},{"lat":"37.735429676","long":"127.06181666","imageIndex":13,"items":[{"name":"GaGa헤어스토리","tel":"031-821-1982","addr":"경기도 의정부시 신곡동 447-18번지","indutype":"보건위생 - 미용원","category":"beauty"},{"name":"클리오헤어","tel":"031-848-6948","addr":"경기도 의정부시 신곡동 447-18번지 1층","indutype":"보건위생 - 미용원","category":"beauty"}]},{"lat":"37.747319866","long":"127.06648942","imageIndex":13,"items":[{"name":"HAIR by YUN","tel":"031-853-6397","addr":"경기도 의정부시 신곡동 805-2번지 1층 102호","indutype":"보건위생 - 미용원","category":"beauty"}]},{"lat":"37.737099515","long":"127.05531743","imageIndex":13,"items":[{"name":"J(제이)헤어샵","tel":"031-821-7886","addr":"경기도 의정부시 신곡동 570-1번지 1층","indutype":"보건위생 - 미용원","category":"beauty"}]},{"lat":"37.730963848","long":"127.05565342","imageIndex":13,"items":[{"name":"JM인터내셔날","tel":"031-826-3595","addr":"경기도 의정부시 신곡동 719-2번지 백상프라자빌딩 2층 213호","indutype":"보건위생 - 화장품","category":"beauty"},{"name":"난나#","tel":"070-8614-5315","addr":"경기도 의정부시 신곡동 719-2번지 백상프라자빌딩 1층 118호","indutype":"보건위생 - 미용원","category":"beauty"},{"name":"마임 의정부남부지사","tel":"031-829-0644","addr":"경기도 의정부시 신곡동 719-2번지 백상프라자빌딩 2층 215호","indutype":"보건위생 - 화장품","category":"beauty"},{"name":"미녀들의수다","tel":"031-838-7661","addr":"경기도 의정부시 신곡동 719-2 3,6,7백상프라자 1층 109","indutype":"보건위생 - 피부미용실","category":"beauty"},{"name":"미르30000헤어","tel":"031-851-3303","addr":"경기도 의정부시 신곡동 719-2번지 백상프라자빌딩 3층 304호","indutype":"보건위생 - 미용원","category":"beauty"},{"name":"아모레카운셀러","tel":"031-879-4533","addr":"경기도 의정부시 신곡동 719-2번지","indutype":"보건위생 - 화장품","category":"beauty"},{"name":"이쁜여자들","tel":"031-855-5710","addr":"경기도 의정부시 신곡동 719-2번지 백상프라자빌딩 214호","indutype":"보건위생 - 화장품","category":"beauty"},{"name":"진미용실","tel":"070-8912-5061","addr":"경기도 의정부시 신곡동 719-2번지 백상프라자빌딩 3층 312호","indutype":"보건위생 - 미용원","category":"beauty"},{"name":"찬이미지사이클","tel":"031-855-4482","addr":"경기도 의정부시 신곡동 719-2번지 백상프라자빌딩 106호","indutype":"보건위생 - 미용원","category":"beauty"},{"name":"헤바미용실","tel":"031-837-7373","addr":"경기도 의정부시 신곡동 719-2번지 백상프라자상가지하1층 112호","indutype":"보건위생 - 미용원","category":"beauty"}]},{"lat":"37.731792288","long":"127.05662959","imageIndex":13,"items":[{"name":"J헤어","tel":"031-878-6152","addr":"경기도 의정부시 신곡동 709-8번지","indutype":"보건위생 - 미용원","category":"beauty"}]},{"lat":"37.736379156","long":"127.05439801","imageIndex":13,"items":[{"name":"S beauty","tel":"","addr":"경기도 의정부시 신곡동 569-30번지","indutype":"보건위생 - 화장품","category":"beauty"}]},{"lat":"37.748041648","long":"127.06457249","imageIndex":13,"items":[{"name":"가가헤어스토리","tel":"031-852-5159","addr":"경기도 의정부시 신곡동 757-5번지 1층 GM프라자","indutype":"보건위생 - 미용원","category":"beauty"},{"name":"수네일(Soo Nail)","tel":"","addr":"경기도 의정부시 신곡동 757-5번지 1층 107호","indutype":"보건위생 - 피부미용실","category":"beauty"}]},{"lat":"37.744288493","long":"127.05676343","imageIndex":13,"items":[{"name":"갈색머리","tel":"031-821-5056","addr":"경기도 의정부시 신곡동 676-7번지","indutype":"보건위생 - 미용원","category":"beauty"}]},{"lat":"37.747816368","long":"127.06465173","imageIndex":13,"items":[{"name":"감동헤어샵","tel":"031-851-7289","addr":"경기도 의정부시 신곡동 757-6번지 풍림프라자 106호","indutype":"보건위생 - 미용원","category":"beauty"}]},{"lat":"37.74943369","long":"127.072539","imageIndex":13,"items":[{"name":"강주화 피부&바디","tel":"031-851-7677","addr":"경기도 의정부시 신곡동 765-5번지 금오프라자 109호","indutype":"보건위생 - 피부미용실","category":"beauty"},{"name":"수지네일 (Suzie Nail)","tel":"031-111-1111","addr":"경기도 의정부시 신곡동 765-5번지 금오프라자 103호","indutype":"보건위생 - 피부미용실","category":"beauty"},{"name":"수치과기공소","tel":"031-853-2275","addr":"경기도 의정부시 신곡동 765-5번지 금오프라자 1001호","indutype":"보건위생 - 의료용품","category":"beauty"},{"name":"쏘티스네일","tel":"070-8808-9669","addr":"경기도 의정부시 신곡동 765-5번지 금오프라자 113호","indutype":"보건위생 - 피부미용실","category":"beauty"},{"name":"아모레 카운셀러","tel":"031-852-6021","addr":"경기도 의정부시 신곡동 765-5번지 금오프라자 4층","indutype":"보건위생 - 화장품","category":"beauty"},{"name":"아모레 카운셀러","tel":"031-852-6021","addr":"경기도 의정부시 신곡동 765-5번지 금오프라자 4층","indutype":"보건위생 - 화장품","category":"beauty"},{"name":"아모레 카운셀러","tel":"031-852-6021","addr":"경기도 의정부시 신곡동 765-5번지 금오프라자 4층","indutype":"보건위생 - 화장품","category":"beauty"},{"name":"아모레 카운셀러","tel":"031-852-6021","addr":"경기도 의정부시 신곡동 765-5번지 4층","indutype":"보건위생 - 화장품","category":"beauty"},{"name":"아모레 카운셀러","tel":"031-852-6021","addr":"경기도 의정부시 신곡동 765-5번지 금오프라자 4층","indutype":"보건위생 - 화장품","category":"beauty"},{"name":"아모레카운셀러","tel":"031-852-6021","addr":"경기도 의정부시 신곡동 765-5번지 금오프라자 4층","indutype":"보건위생 - 화장품","category":"beauty"},{"name":"아모레카운셀러","tel":"031-852-6023","addr":"경기도 의정부시 신곡동 765-5번지","indutype":"보건위생 - 화장품","category":"beauty"},{"name":"아모레카운셀러","tel":"031-852-6021","addr":"경기도 의정부시 신곡동 765-5번지 금오프라자 4층","indutype":"보건위생 - 화장품","category":"beauty"},{"name":"아모레카운셀러","tel":"031-841-8451","addr":"경기도 의정부시 신곡동 765-5번지 금오프라자 4층 404호","indutype":"보건위생 - 화장품","category":"beauty"},{"name":"아모레카운셀러","tel":"031-852-6022","addr":"경기도 의정부시 신곡동 765-5번지 금오프라자 4층","indutype":"보건위생 - 화장품","category":"beauty"},{"name":"아모레카운셀러","tel":"031-852-6021","addr":"경기도 의정부시 신곡동 765-5번지 금오프라자 4층","indutype":"보건위생 - 화장품","category":"beauty"},{"name":"아모레카운셀러","tel":"031-852-6021","addr":"경기도 의정부시 신곡동 765-5번지 금오프라자 4층","indutype":"보건위생 - 화장품","category":"beauty"},{"name":"아모레카운셀러","tel":"031-844-6232","addr":"경기도 의정부시 신곡동 765-5번지 금오프라자 4층 404호","indutype":"보건위생 - 화장품","category":"beauty"},{"name":"아모레카운셀러","tel":"031-844-6232","addr":"경기도 의정부시 신곡동 765-5번지 금오프라자 4층 404호","indutype":"보건위생 - 화장품","category":"beauty"},{"name":"아모레카운셀러","tel":"031-844-6232","addr":"경기도 의정부시 신곡동 765-5번지 금오프라자 4층 404호","indutype":"보건위생 - 화장품","category":"beauty"},{"name":"아모레카운셀러","tel":"031-852-6021","addr":"경기도 의정부시 신곡동 765-5번지 금오프라자 4층 404호","indutype":"보건위생 - 화장품","category":"beauty"},{"name":"아모레카운셀러","tel":"031-852-6021","addr":"경기도 의정부시 신곡동 765-5번지 금오프라자 4층","indutype":"보건위생 - 화장품","category":"beauty"},{"name":"아모레카운셀러","tel":"031-852-6021","addr":"경기도 의정부시 신곡동 765-5번지 금오프라자 403호~404호","indutype":"보건위생 - 화장품","category":"beauty"},{"name":"아모레카운셀러","tel":"031-844-6232","addr":"경기도 의정부시 신곡동 765-5번지 금오프라자 4층 404호","indutype":"보건위생 - 화장품","category":"beauty"},{"name":"아모레카운셀러","tel":"031-844-6232","addr":"경기도 의정부시 신곡동 765-5번지 금오프라자 4층 404호","indutype":"보건위생 - 화장품","category":"beauty"},{"name":"아모레카운셀러","tel":"031-844-6232","addr":"경기도 의정부시 신곡동 765-5번지 금오프라자 4층 404호","indutype":"보건위생 - 화장품","category":"beauty"},{"name":"아모레카운셀러","tel":"031-844-6232","addr":"경기도 의정부시 신곡동 765-5번지 금오프라자 4층","indutype":"보건위생 - 화장품","category":"beauty"},{"name":"아모레카운셀러","tel":"031-852-6021","addr":"경기도 의정부시 신곡동 765-5번지 금오프라자","indutype":"보건위생 - 화장품","category":"beauty"},{"name":"아모레카운셀러","tel":"031-852-6021","addr":"경기도 의정부시 신곡동 765-5번지 금오프라자 4층","indutype":"보건위생 - 화장품","category":"beauty"},{"name":"아모레카운셀러","tel":"031-844-6232","addr":"경기도 의정부시 신곡동 765-5번지 금오프라자 4층 404호","indutype":"보건위생 - 화장품","category":"beauty"},{"name":"아모레카운셀러","tel":"031-844-6232","addr":"경기도 의정부시 신곡동 765-5번지 금오프라자 4층 404호","indutype":"보건위생 - 화장품","category":"beauty"},{"name":"아모레카운셀러","tel":"031-852-6022","addr":"경기도 의정부시 신곡동 765-5번지 금오프라자 4층 404호","indutype":"보건위생 - 화장품","category":"beauty"},{"name":"아모레카운셀러","tel":"031-944-6232","addr":"경기도 의정부시 신곡동 765-5번지 금오프라자 4층 404호","indutype":"보건위생 - 화장품","category":"beauty"},{"name":"아모레카운셀러","tel":"031-844-6232","addr":"경기도 의정부시 신곡동 765-5번지 금오프라자 4층 404호","indutype":"보건위생 - 화장품","category":"beauty"},{"name":"아모레카운셀러","tel":"031-844-6232","addr":"경기도 의정부시 신곡동 765-5번지 금오프라자 4층 404호","indutype":"보건위생 - 화장품","category":"beauty"},{"name":"아모레카운셀러","tel":"031-852-6021","addr":"경기도 의정부시 신곡동 765-5번지 금오프라자 4층","indutype":"보건위생 - 화장품","category":"beauty"},{"name":"아모레카운셀러","tel":"031-852-6021","addr":"경기도 의정부시 신곡동 765-5번지 금오프라자 4층","indutype":"보건위생 - 화장품","category":"beauty"},{"name":"아모레카운셀러","tel":"031-852-6021","addr":"경기도 의정부시 신곡동 765-5번지 금오프라자 4층","indutype":"보건위생 - 화장품","category":"beauty"},{"name":"아모레카운셀러","tel":"031-852-6021","addr":"경기도 의정부시 신곡동 765-5번지 금오프라자 4층","indutype":"보건위생 - 화장품","category":"beauty"},{"name":"아모레카운셀러","tel":"031-852-6021","addr":"경기도 의정부시 신곡동 765-5번지 금오프라자 4층","indutype":"보건위생 - 화장품","category":"beauty"},{"name":"아모레카운셀러","tel":"031-852-6021","addr":"경기도 의정부시 신곡동 765-5번지 금오프라자 4층","indutype":"보건위생 - 화장품","category":"beauty"},{"name":"아모레카운셀러","tel":"031-844-6232","addr":"경기도 의정부시 신곡동 765-5번지 금오프라자 4층 404호","indutype":"보건위생 - 화장품","category":"beauty"},{"name":"아모레카운셀러","tel":"031-844-6232","addr":"경기도 의정부시 신곡동 765-5번지 금오프라자 4층 404호","indutype":"보건위생 - 화장품","category":"beauty"},{"name":"아모레카운셀러","tel":"031-852-6021","addr":"경기도 의정부시 신곡동 765-5번지 금오프라자 4층","indutype":"보건위생 - 화장품","category":"beauty"},{"name":"아모레카운셀러","tel":"031-852-6021","addr":"경기도 의정부시 신곡동 765-5번지 금오프라자 4층","indutype":"보건위생 - 화장품","category":"beauty"},{"name":"아모레카운셀러","tel":"031-844-6232","addr":"경기도 의정부시 신곡동 765-5번지 금오프라자 4층 404호","indutype":"보건위생 - 화장품","category":"beauty"},{"name":"아모레카운셀러","tel":"031-852-6021","addr":"경기도 의정부시 신곡동 765-5번지 금오프라자 4층","indutype":"보건위생 - 화장품","category":"beauty"},{"name":"아모레카운셀러/이명화","tel":"031-852-6021","addr":"경기도 의정부시 신곡동 765-5번지 금오프라자 4층 404호","indutype":"보건위생 - 화장품","category":"beauty"},{"name":"아모레카운셀러/최옥순","tel":"031-852-6021","addr":"경기도 의정부시 신곡동 765-5번지 금오프라자 4층 404호","indutype":"보건위생 - 화장품","category":"beauty"},{"name":"엠앤비에스테틱(M&B)","tel":"031-852-0662","addr":"경기도 의정부시 신곡동 765-5번지 금오프라자 1층 109호","indutype":"보건위생 - 피부미용실","category":"beauty"}]},{"lat":"37.74173703","long":"127.06048289","imageIndex":13,"items":[{"name":"거울아거울아","tel":"031-867-3285","addr":"경기도 의정부시 신곡동 686삼도세라믹상가-201","indutype":"보건위생 - 미용원","category":"beauty"}]},{"lat":"37.732233643","long":"127.05687948","imageIndex":13,"items":[{"name":"경서산업","tel":"031-846-4709","addr":"경기도 의정부시 신곡동 711-2번지","indutype":"보건위생 - 의료용품","category":"beauty"}]},{"lat":"37.73551932","long":"127.06271295","imageIndex":13,"items":[{"name":"고을안경","tel":"031-847-8484","addr":"경기도 의정부시 신곡동 450-1번지 1층","indutype":"보건위생 - 안경","category":"beauty"}]},{"lat":"37.749651824","long":"127.06923732","imageIndex":13,"items":[{"name":"골드미용실","tel":"031-875-0511","addr":"경기도 의정부시 신곡동 760-1번지 월드프라자빌딩 103호","indutype":"보건위생 - 미용원","category":"beauty"},{"name":"성모안경원 북부청사점","tel":"031-827-6029","addr":"경기도 의정부시 신곡동 760-1번지 월드프라자 1층 101호","indutype":"보건위생 - 안경","category":"beauty"},{"name":"안경박사","tel":"031-853-0201","addr":"경기도 의정부시 신곡동 760-1월드프라자101","indutype":"보건위생 - 안경","category":"beauty"},{"name":"태후사랑","tel":"031-853-1515","addr":"경기도 의정부시 신곡동 760-1번지 월드프라자빌딩 106호","indutype":"보건위생 - 화장품","category":"beauty"},{"name":"파인드엠","tel":"031-853-2809","addr":"경기도 의정부시 신곡동 760-1번지 월드프라자빌딩 805-1호","indutype":"보건위생 - 의료용품","category":"beauty"}]},{"lat":"37.738595027","long":"127.05548866","imageIndex":13,"items":[{"name":"구인쑥뜸방","tel":"070-8623-2002","addr":"경기도 의정부시 신곡동 574번지 3층","indutype":"보건위생 - 피부미용실","category":"beauty"},{"name":"코람데오(Coramdeo)","tel":"","addr":"경기도 의정부시 신곡동 574번지 1층","indutype":"보건위생 - 미용원","category":"beauty"}]},{"lat":"37.741070005","long":"127.06112906","imageIndex":13,"items":[{"name":"그랑프리안경콘택트신곡점","tel":"031-847-9082","addr":"경기도 의정부시 신곡동 493-3번지 벽산프라자 1층","indutype":"보건위생 - 안경","category":"beauty"},{"name":"쏠로아떼","tel":"031-848-9745","addr":"경기도 의정부시 신곡동 493-3번지 벽산프라자 104호","indutype":"보건위생 - 미용원","category":"beauty"}]},{"lat":"37.735519435","long":"127.06248606","imageIndex":13,"items":[{"name":"그레이스헤어","tel":"031-847-0011","addr":"경기도 의정부시 신곡동 448-38번지","indutype":"보건위생 - 미용원","category":"beauty"}]},{"lat":"37.726764029","long":"127.05859967","imageIndex":13,"items":[{"name":"그리심헤어","tel":"031-848-7875","addr":"경기도 의정부시 신곡동 725-6번지 장암주공5단지 상가 202호","indutype":"보건위생 - 미용원","category":"beauty"}]},{"lat":"37.749399512","long":"127.06931652","imageIndex":13,"items":[{"name":"그리에이트의정부지사","tel":"031-853-0188","addr":"경기도 의정부시 신곡동 760-2번지 세명프라자 703호","indutype":"보건위생 - 미용재료","category":"beauty"},{"name":"데일리헤어","tel":"031-852-0408","addr":"경기도 의정부시 신곡동 760-2번지 세명프라자 1층 103호","indutype":"보건위생 - 미용원","category":"beauty"},{"name":"데일리헤어","tel":"","addr":"경기도 의정부시 신곡동 760-2번지 세명프라자 103호","indutype":"보건위생 - 미용원","category":"beauty"},{"name":"진선미뷰티샵","tel":"031-852-9580","addr":"경기도 의정부시 신곡동 760-2번지 세명프라자 701호","indutype":"보건위생 - 피부미용실","category":"beauty"},{"name":"힐링아로마","tel":"031-851-4872","addr":"경기도 의정부시 신곡동 760-2번지 세명프라자 304호","indutype":"보건위생 - 기타대인서비스","category":"beauty"}]},{"lat":"37.750263121","long":"127.07159799","imageIndex":13,"items":[{"name":"금오아쿠아월드","tel":"031-851-1600","addr":"경기도 의정부시 신곡동 763-1번지","indutype":"보건위생 - 사우나","category":"beauty"},{"name":"금오아쿠아월드사우나","tel":"","addr":"경기도 의정부시 신곡동 763-1번지 지하1층","indutype":"보건위생 - 기타대인서비스","category":"beauty"},{"name":"금오아쿠아월드사우나(세신)","tel":"031-851-1600","addr":"경기도 의정부시 신곡동 763-1번지","indutype":"보건위생 - 기타대인서비스","category":"beauty"}]},{"lat":"37.750564959","long":"127.07890562","imageIndex":13,"items":[{"name":"금희 바디&스킨","tel":"","addr":"경기도 의정부시 신곡동 782-3번지 1층","indutype":"보건위생 - 피부미용실","category":"beauty"},{"name":"이수헤어(isu)","tel":"031-851-0955","addr":"경기도 의정부시 신곡동 782-3번지 1층","indutype":"보건위생 - 미용원","category":"beauty"}]},{"lat":"37.742738938","long":"127.05656943","imageIndex":13,"items":[{"name":"김은영헤어아트","tel":"031-821-0456","addr":"경기도 의정부시 신곡동 680-7번지 1층","indutype":"보건위생 - 미용원","category":"beauty"}]},{"lat":"37.731016274","long":"127.05918139","imageIndex":13,"items":[{"name":"까까머리","tel":"031-851-3815","addr":"경기도 의정부시 신곡동 352-35번지 1층 102호","indutype":"보건위생 - 미용원","category":"beauty"}]},{"lat":"37.729239748","long":"127.06251506","imageIndex":13,"items":[{"name":"끌레오","tel":"031-821-0970","addr":"경기도 의정부시 신곡동 331-14번지 서해프라자 102호","indutype":"보건위생 - 미용원","category":"beauty"}]},{"lat":"37.750347718","long":"127.08045991","imageIndex":13,"items":[{"name":"나무그늘","tel":"031-852-0808","addr":"경기도 의정부시 신곡동 779-3번지 1층","indutype":"보건위생 - 화장품","category":"beauty"},{"name":"진헤어","tel":"070-8119-2414","addr":"경기도 의정부시 신곡동 779-3번지 1층","indutype":"보건위생 - 미용원","category":"beauty"}]},{"lat":"37.729178037","long":"127.05976987","imageIndex":13,"items":[{"name":"나이스 가이","tel":"031-848-9903","addr":"경기도 의정부시 신곡동 331-1번지 미림빌딩 1층 101호","indutype":"보건위생 - 미용원","category":"beauty"}]},{"lat":"37.735150363","long":"127.06185047","imageIndex":13,"items":[{"name":"남영숙헤어","tel":"031-846-5243","addr":"경기도 의정부시 신곡동 447-28번지","indutype":"보건위생 - 미용원","category":"beauty"}]},{"lat":"37.744628241","long":"127.06220971","imageIndex":13,"items":[{"name":"네일제이(Nail J)","tel":"","addr":"경기도 의정부시 신곡동 519-10번지 2층","indutype":"보건위생 - 피부미용실","category":"beauty"}]},{"lat":"37.748600371","long":"127.06432334","imageIndex":13,"items":[{"name":"네일하루","tel":"031-000-0000","addr":"경기도 의정부시 신곡동 757-2번지 광장빌딩 109호","indutype":"보건위생 - 피부미용실","category":"beauty"},{"name":"도도헤어","tel":"031-853-6992","addr":"경기도 의정부시 신곡동 757-2번지 광장골드 상가 101호","indutype":"보건위생 - 미용원","category":"beauty"}]},{"lat":"37.731323331","long":"127.05762751","imageIndex":13,"items":[{"name":"다미헤어(신곡점)","tel":"031-855-1192","addr":"경기도 의정부시 신곡동 717-9번지 1층","indutype":"보건위생 - 미용원","category":"beauty"}]},{"lat":"37.7466798","long":"127.06720369","imageIndex":13,"items":[{"name":"다올메디칼","tel":"031-527-0850","addr":"경기도 의정부시 신곡동 121-1번지 퍼스트스포렉스1관 1층 103호","indutype":"보건위생 - 의료용품","category":"beauty"}]},{"lat":"37.749676995","long":"127.0724598","imageIndex":13,"items":[{"name":"더메디","tel":"070-7543-3260","addr":"경기도 의정부시 신곡동 765-4번지 상상플러스 6층 603-3호","indutype":"보건위생 - 의료용품","category":"beauty"},{"name":"드메르 에스테틱","tel":"031-000-0000","addr":"경기도 의정부시 신곡동 765-4번지 삼성플러스 109호","indutype":"보건위생 - 피부미용실","category":"beauty"},{"name":"보니헤어","tel":"031-837-2867","addr":"경기도 의정부시 신곡동 765-4번지 삼성플러스제1층 103","indutype":"보건위생 - 미용원","category":"beauty"},{"name":"지연헤어","tel":"031-853-6440","addr":"경기도 의정부시 신곡동 765-4번지 삼성플러스 203호","indutype":"보건위생 - 미용원","category":"beauty"}]},{"lat":"37.750042355","long":"127.07898452","imageIndex":13,"items":[{"name":"더뷰티샵","tel":"031-852-0113","addr":"경기도 의정부시 신곡동 787-1번지","indutype":"보건위생 - 미용원","category":"beauty"}]},{"lat":"37.747319205","long":"127.06770348","imageIndex":13,"items":[{"name":"데이데이네일&뷰티(DAY.DAY Nail&beauty)","tel":"031-829-8309","addr":"경기도 의정부시 신곡동 69-5번지 1층 102호","indutype":"보건위생 - 피부미용실","category":"beauty"}]},{"lat":"37.730818365","long":"127.05854599","imageIndex":13,"items":[{"name":"동인비 의정부지사","tel":"031-852-6050","addr":"경기도 의정부시 신곡동 721-1번지 장암프라자 4층","indutype":"보건위생 - 화장품","category":"beauty"},{"name":"마이헤어샵","tel":"031-826-5202","addr":"경기도 의정부시 신곡동 721-1번지 105호","indutype":"보건위생 - 미용원","category":"beauty"}]},{"lat":"37.748984977","long":"127.06948635","imageIndex":13,"items":[{"name":"드림메디칼","tel":"031-8083-7130","addr":"경기도 의정부시 신곡동 760-4번지 골드타워 504호","indutype":"보건위생 - 의료용품","category":"beauty"},{"name":"아로마랜드","tel":"031-853-4279","addr":"경기도 의정부시 신곡동 760-4번지 골드타워 9층 901호","indutype":"보건위생 - 화장품","category":"beauty"}]},{"lat":"37.74945672","long":"127.07900661","imageIndex":13,"items":[{"name":"라리헤어클럽","tel":"031-853-5610","addr":"경기도 의정부시 신곡동 788-1번지 1층","indutype":"보건위생 - 미용원","category":"beauty"}]},{"lat":"37.747510275","long":"127.06420897","imageIndex":13,"items":[{"name":"라피네헤어J","tel":"031-853-1660","addr":"경기도 의정부시 신곡동 757-9번지 대성빌딩 2층 203호","indutype":"보건위생 - 미용원","category":"beauty"}]},{"lat":"37.73040353","long":"127.05937377","imageIndex":13,"items":[{"name":"레이나뷰티","tel":"050-4370-0000","addr":"경기도 의정부시 신곡동 352-80번지 2층","indutype":"보건위생 - 미용원","category":"beauty"}]},{"lat":"37.728907777","long":"127.05971294","imageIndex":13,"items":[{"name":"리본뷰티","tel":"031-853-9961","addr":"경기도 의정부시 신곡동 726-1번지 박사빌딩 1층 109호","indutype":"보건위생 - 화장품","category":"beauty"},{"name":"안경매니아 장암점","tel":"031-877-1001","addr":"경기도 의정부시 신곡동 726-1번지 박사빌딩 101동 103호","indutype":"보건위생 - 안경","category":"beauty"},{"name":"착한머리","tel":"031-845-3434","addr":"경기도 의정부시 신곡동 726-1번지 박사빌딩 2층 201호","indutype":"보건위생 - 미용원","category":"beauty"}]},{"lat":"37.73554621","long":"127.06298524","imageIndex":13,"items":[{"name":"리사헤어#","tel":"031-852-3610","addr":"경기도 의정부시 신곡동 450-6번지 1층","indutype":"보건위생 - 미용원","category":"beauty"}]},{"lat":"37.740844822","long":"127.06101543","imageIndex":13,"items":[{"name":"리안헤어신곡점","tel":"031-840-2650","addr":"경기도 의정부시 신곡동 487번지","indutype":"보건위생 - 미용원","category":"beauty"}]},{"lat":"37.746536971","long":"127.06473009","imageIndex":13,"items":[{"name":"마루남성컷","tel":"031-848-8725","addr":"경기도 의정부시 신곡동 87-13번지 서희빌 1층 103호","indutype":"보건위생 - 미용원","category":"beauty"}]},{"lat":"37.734852659","long":"127.06262166","imageIndex":13,"items":[{"name":"마린메디칼","tel":"031-841-8897","addr":"경기도 의정부시 신곡동 397-15번지 1층","indutype":"보건위생 - 의료용품","category":"beauty"},{"name":"머리나라","tel":"031-821-8814","addr":"경기도 의정부시 신곡동 397-15번지","indutype":"보건위생 - 미용원","category":"beauty"}]},{"lat":"37.727297827","long":"127.0536544","imageIndex":13,"items":[{"name":"마스터구내매점","tel":"031-879-2200","addr":"경기도 의정부시 신곡동 664번지 지하1층","indutype":"보건위생 - 의료용품","category":"beauty"}]},{"lat":"37.743260954","long":"127.05773841","imageIndex":13,"items":[{"name":"마임 의정부신곡지사","tel":"031-853-1158","addr":"경기도 의정부시 신곡동 673-4번지 대명프라자 401호","indutype":"보건위생 - 화장품","category":"beauty"},{"name":"블루컷","tel":"031-847-1290","addr":"경기도 의정부시 신곡동 673-4번지 대명프라자 111호","indutype":"보건위생 - 미용원","category":"beauty"},{"name":"퀸즈에스테틱","tel":"031-821-2266","addr":"경기도 의정부시 신곡동 673-4번지 204호","indutype":"보건위생 - 피부미용실","category":"beauty"},{"name":"하나뷰티","tel":"031-848-3569","addr":"경기도 의정부시 신곡동 673-4번지 대명프라자 지하층 101호","indutype":"보건위생 - 의료용품","category":"beauty"}]},{"lat":"37.731737093","long":"127.0590685","imageIndex":13,"items":[{"name":"모드나헤어","tel":"070-7319-8942","addr":"경기도 의정부시 신곡동 353-59번지 1층","indutype":"보건위생 - 미용원","category":"beauty"}]},{"lat":"37.749065651","long":"127.0702126","imageIndex":13,"items":[{"name":"모유이야기","tel":"031-852-5682","addr":"경기도 의정부시 신곡동 761-6번지 씨티메디타운 10층 1002호","indutype":"보건위생 - 기타대인서비스","category":"beauty"}]},{"lat":"37.750150146","long":"127.07948388","imageIndex":13,"items":[{"name":"미미살롱","tel":"031-852-7754","addr":"경기도 의정부시 신곡동 780-3번지 1층","indutype":"보건위생 - 미용원","category":"beauty"}]},{"lat":"37.730963587","long":"127.05623196","imageIndex":13,"items":[{"name":"미소","tel":"031-874-9335","addr":"경기도 의정부시 신곡동 719-4우신프라자205-1","indutype":"보건위생 - 화장품","category":"beauty"},{"name":"방수현스킨케어","tel":"031-842-8643","addr":"경기도 의정부시 신곡동 719-4번지 우신프라자 301호","indutype":"보건위생 - 피부미용실","category":"beauty"},{"name":"백두산 불가마사우나","tel":"031-875-4040","addr":"경기도 의정부시 신곡동 719-4번지 우신프라자제비층제101,102호","indutype":"보건위생 - 사우나","category":"beauty"},{"name":"블루클럽(장암점)","tel":"031-829-5959","addr":"경기도 의정부시 신곡동 719-4번지 외1필지 우신프라자 105호","indutype":"보건위생 - 미용원","category":"beauty"},{"name":"아름다운 머리","tel":"031-878-3331","addr":"경기도 의정부시 신곡동 719-4번지 우신프라자 111호","indutype":"보건위생 - 미용원","category":"beauty"},{"name":"여우메이크업","tel":"031-837-0002","addr":"경기도 의정부시 신곡동 719-4번지 우신프라자 2층 205호","indutype":"보건위생 - 미용원","category":"beauty"},{"name":"연안경","tel":"031-855-2009","addr":"경기도 의정부시 신곡동 719-4번지 우신프라자 106호","indutype":"보건위생 - 안경","category":"beauty"}]},{"lat":"37.742901223","long":"127.05631994","imageIndex":13,"items":[{"name":"미치과기공소","tel":"031-841-2804","addr":"경기도 의정부시 신곡동 680-4번지","indutype":"보건위생 - 의료용품","category":"beauty"}]},{"lat":"37.743044883","long":"127.05739788","imageIndex":13,"items":[{"name":"박가람헤어디자인","tel":"031-842-0934","addr":"경기도 의정부시 신곡동 673-6번지","indutype":"보건위생 - 미용원","category":"beauty"},{"name":"차이나","tel":"031-847-7577","addr":"경기도 의정부시 신곡동 673-6번지 2층","indutype":"보건위생 - 화장품","category":"beauty"}]},{"lat":"37.751925509","long":"127.07873681","imageIndex":13,"items":[{"name":"박스인(Box in)","tel":"031-851-5537","addr":"경기도 의정부시 신곡동 771-1번지 303호","indutype":"보건위생 - 화장품","category":"beauty"}]},{"lat":"37.74951052","long":"127.0794038","imageIndex":13,"items":[{"name":"박은정헤어","tel":"031-851-1335","addr":"경기도 의정부시 신곡동 788-6번지 101호","indutype":"보건위생 - 미용원","category":"beauty"}]},{"lat":"37.736267594","long":"127.0617606","imageIndex":13,"items":[{"name":"박지은의 다올헤어#","tel":"031-825-3669","addr":"경기도 의정부시 신곡동 455-3번지 제나-102","indutype":"보건위생 - 미용원","category":"beauty"}]},{"lat":"37.740205059","long":"127.06118511","imageIndex":13,"items":[{"name":"보보헤어샵","tel":"031-821-1230","addr":"경기도 의정부시 신곡동 484번지 1층","indutype":"보건위생 - 미용원","category":"beauty"}]},{"lat":"37.730934789","long":"127.06000943","imageIndex":13,"items":[{"name":"뷰티 더 채움","tel":"","addr":"경기도 의정부시 신곡동 352-63번지 192호","indutype":"보건위생 - 미용재료","category":"beauty"}]},{"lat":"37.735484511","long":"127.06023981","imageIndex":13,"items":[{"name":"블링블링헤어","tel":"070-8958-1360","addr":"경기도 의정부시 신곡동 447-35번지","indutype":"보건위생 - 미용원","category":"beauty"}]},{"lat":"37.749183232","long":"127.0694071","imageIndex":13,"items":[{"name":"비에스덴탈","tel":"","addr":"경기도 의정부시 신곡동 760-3번지 우정프라자 604호","indutype":"보건위생 - 의료용품","category":"beauty"},{"name":"세림헤어","tel":"031-851-6113","addr":"경기도 의정부시 신곡동 760-3번지 우정프라자 106호","indutype":"보건위생 - 미용원","category":"beauty"},{"name":"캣츠아이","tel":"031-985-3308","addr":"경기도 의정부시 신곡동 760-3번지 우정프라자 404호","indutype":"보건위생 - 화장품","category":"beauty"}]},{"lat":"37.749816519","long":"127.07990337","imageIndex":13,"items":[{"name":"빛나는 네일","tel":"031-853-7730","addr":"경기도 의정부시 신곡동 780-8번지 103호","indutype":"보건위생 - 피부미용실","category":"beauty"}]},{"lat":"37.736847248","long":"127.05531725","imageIndex":13,"items":[{"name":"사단법인한국전통민족종교총연합회 백호신","tel":"","addr":"경기도 의정부시 신곡동 571-24번지","indutype":"보건위생 - 기타대인서비스","category":"beauty"}]},{"lat":"37.732098768","long":"127.05628949","imageIndex":13,"items":[{"name":"살롱 오 시크","tel":"070-7343-7473","addr":"경기도 의정부시 신곡동 707-1번지 1층","indutype":"보건위생 - 미용원","category":"beauty"}]},{"lat":"37.731178326","long":"127.05943108","imageIndex":13,"items":[{"name":"선우미용실","tel":"031-821-0635","addr":"경기도 의정부시 신곡동 352-30번지 1층","indutype":"보건위생 - 미용원","category":"beauty"}]},{"lat":"37.749426271","long":"127.0697931","imageIndex":13,"items":[{"name":"설레이는 네일","tel":"","addr":"경기도 의정부시 신곡동 761-1번지 센타프라자 116호","indutype":"보건위생 - 피부미용실","category":"beauty"},{"name":"에듀플렉스금오","tel":"031-851-6285","addr":"경기도 의정부시 신곡동 761-1번지 센터프라자 6층 603호 일부","indutype":"보건위생 - 기타대인서비스","category":"beauty"}]},{"lat":"37.73479118","long":"127.05939979","imageIndex":13,"items":[{"name":"설헤어라인","tel":"031-841-1211","addr":"경기도 의정부시 신곡동 420-16번지 1층","indutype":"보건위생 - 미용원","category":"beauty"}]},{"lat":"37.749876639","long":"127.0699864","imageIndex":13,"items":[{"name":"성주현헤어샵","tel":"031-853-8528","addr":"경기도 의정부시 신곡동 762-2번지 엘리트타운 103호","indutype":"보건위생 - 미용원","category":"beauty"},{"name":"엠(M) 스타일","tel":"031-852-1140","addr":"경기도 의정부시 신곡동 762-2번지 엘리트타운 108호","indutype":"보건위생 - 미용원","category":"beauty"},{"name":"제이케이메디칼","tel":"031-226-0128","addr":"경기도 의정부시 신곡동 762-2번지 엘리트타운 6층 603호","indutype":"보건위생 - 의료용품","category":"beauty"},{"name":"조은네일","tel":"070-7543-2124","addr":"경기도 의정부시 신곡동 762-2번지 엘리트타운 1층 110호","indutype":"보건위생 - 피부미용실","category":"beauty"}]},{"lat":"37.730737965","long":"127.05707124","imageIndex":13,"items":[{"name":"세나네일아트","tel":"031-879-3441","addr":"경기도 의정부시 신곡동 720-9번지 101호","indutype":"보건위생 - 피부미용실","category":"beauty"}]},{"lat":"37.735266972","long":"127.06287157","imageIndex":13,"items":[{"name":"세움보조기","tel":"02-821-5708","addr":"경기도 의정부시 신곡동 448-45번지 101호","indutype":"보건위생 - 의료용품","category":"beauty"},{"name":"허브헤어샵","tel":"031-847-3336","addr":"경기도 의정부시 신곡동 448-45번지 1층 104호","indutype":"보건위생 - 미용원","category":"beauty"}]},{"lat":"37.728600597","long":"127.0614596","imageIndex":13,"items":[{"name":"세정미용실","tel":"031-821-4554","addr":"경기도 의정부시 신곡동 313-9번지 1층","indutype":"보건위생 - 미용원","category":"beauty"}]},{"lat":"37.747906783","long":"127.0640391","imageIndex":13,"items":[{"name":"수피아 스킨앤바디(skin&body)","tel":"031-851-6700","addr":"경기도 의정부시 신곡동 756-3번지 아이원빌딩 2층 일부","indutype":"보건위생 - 피부미용실","category":"beauty"}]},{"lat":"37.731458279","long":"127.05804734","imageIndex":13,"items":[{"name":"시연스킨&바디","tel":"031-837-3683","addr":"경기도 의정부시 신곡동 717-4번지 1층","indutype":"보건위생 - 피부미용실","category":"beauty"}]},{"lat":"37.746818267","long":"127.06079318","imageIndex":13,"items":[{"name":"시크헤어","tel":"031-852-2270","addr":"경기도 의정부시 신곡동 755-1번지 금오주공그린빌4단지 상가동 102호","indutype":"보건위생 - 미용원","category":"beauty"}]},{"lat":"37.730655863","long":"127.05923784","imageIndex":13,"items":[{"name":"아리따움 신곡점","tel":"031-847-7988","addr":"경기도 의정부시 신곡동 352-18번지 1층","indutype":"보건위생 - 화장품","category":"beauty"}]},{"lat":"37.730738745","long":"127.05534698","imageIndex":13,"items":[{"name":"아모레","tel":"031-879-4533","addr":"경기도 의정부시 신곡동 719-8번지 백상플러스 2층 양재화","indutype":"보건위생 - 화장품","category":"beauty"},{"name":"아모레","tel":"031-879-4533","addr":"경기도 의정부시 신곡동 719-8번지 백상플러스 2층","indutype":"보건위생 - 화장품","category":"beauty"},{"name":"아모레","tel":"031-879-4533","addr":"경기도 의정부시 신곡동 719-8번지 백상플러스 2층","indutype":"보건위생 - 화장품","category":"beauty"},{"name":"아모레","tel":"031-879-4534","addr":"경기도 의정부시 신곡동 719-8번지 백상플러스 2층","indutype":"보건위생 - 화장품","category":"beauty"},{"name":"아모레 카운셀러","tel":"031-879-4533","addr":"경기도 의정부시 신곡동 719-8번지 백상플러스 2층","indutype":"보건위생 - 화장품","category":"beauty"},{"name":"아모레 카운셀러","tel":"031-879-4533","addr":"경기도 의정부시 신곡동 719-8번지 백상플러스 2층","indutype":"보건위생 - 화장품","category":"beauty"},{"name":"아모레 카운셀러","tel":"031-879-4533","addr":"경기도 의정부시 신곡동 719-8번지 백상플러스 2층","indutype":"보건위생 - 화장품","category":"beauty"},{"name":"아모레/김현숙","tel":"031-879-4533","addr":"경기도 의정부시 신곡동 719-8번지 백상플러스 2층","indutype":"보건위생 - 화장품","category":"beauty"},{"name":"아모레장암특약점","tel":"031-879-4533","addr":"경기도 의정부시 신곡동 719-8번지 백상플러스 2층","indutype":"보건위생 - 화장품","category":"beauty"},{"name":"아모레장암특약점","tel":"031-879-4533","addr":"경기도 의정부시 신곡동 719-8 백상플러스2층","indutype":"보건위생 - 화장품","category":"beauty"},{"name":"아모레장암특약점","tel":"031-879-4533","addr":"경기도 의정부시 신곡동 719-8번지 2층","indutype":"보건위생 - 화장품","category":"beauty"},{"name":"아모레장암특약점","tel":"031-879-4533","addr":"경기도 의정부시 신곡동 719-8번지 백상플러스 2층","indutype":"보건위생 - 화장품","category":"beauty"},{"name":"아모레장암특약점","tel":"031-855-6950","addr":"경기도 의정부시 신곡동 719-8번지 백상플러스 2층","indutype":"보건위생 - 화장품","category":"beauty"},{"name":"아모레장암특약점","tel":"031-837-5554","addr":"경기도 의정부시 신곡동 719-8번지 백상플러스 2층","indutype":"보건위생 - 화장품","category":"beauty"},{"name":"아모레장암특약점","tel":"031-879-4533","addr":"경기도 의정부시 신곡동 719-8번지 백상플러스 2층","indutype":"보건위생 - 화장품","category":"beauty"},{"name":"아모레장암특약점","tel":"031-879-4533","addr":"경기도 의정부시 신곡동 719-8번지 백상플러스 2층","indutype":"보건위생 - 화장품","category":"beauty"},{"name":"아모레장암특약점","tel":"031-879-4533","addr":"경기도 의정부시 신곡동 719-8번지 백상플러스 2층","indutype":"보건위생 - 화장품","category":"beauty"},{"name":"아모레카운셀러","tel":"031-879-4533","addr":"경기도 의정부시 신곡동 719-8번지 2층","indutype":"보건위생 - 화장품","category":"beauty"},{"name":"아모레카운셀러","tel":"031-879-4533","addr":"경기도 의정부시 신곡동 719-8번지 2층","indutype":"보건위생 - 화장품","category":"beauty"},{"name":"아모레카운셀러","tel":"031-879-4533","addr":"경기도 의정부시 신곡동 719-8번지 2층","indutype":"보건위생 - 화장품","category":"beauty"},{"name":"아모레카운셀러","tel":"031-879-4533","addr":"경기도 의정부시 신곡동 719-8번지 백상플러스 2층","indutype":"보건위생 - 화장품","category":"beauty"},{"name":"아모레카운셀러","tel":"031-879-4533","addr":"경기도 의정부시 신곡동 719-8번지 백상플러스 2층","indutype":"보건위생 - 화장품","category":"beauty"},{"name":"아모레카운셀러","tel":"031-879-4533","addr":"경기도 의정부시 신곡동 719-8번지 백상플러스 2층","indutype":"보건위생 - 화장품","category":"beauty"},{"name":"아모레카운셀러","tel":"031-879-4533","addr":"경기도 의정부시 신곡동 719-8번지 백상플러스 2층","indutype":"보건위생 - 화장품","category":"beauty"},{"name":"아모레카운셀러","tel":"031-879-4533","addr":"경기도 의정부시 신곡동 719-8번지 백상플러스 2층","indutype":"보건위생 - 화장품","category":"beauty"},{"name":"아모레카운셀러","tel":"031-879-4533","addr":"경기도 의정부시 신곡동 719-8번지 2층 백상플러스","indutype":"보건위생 - 화장품","category":"beauty"},{"name":"아모레카운셀러","tel":"031-879-4533","addr":"경기도 의정부시 신곡동 719-8번지 백상플러스 2층","indutype":"보건위생 - 화장품","category":"beauty"},{"name":"아모레카운셀러","tel":"031-879-4533","addr":"경기도 의정부시 신곡동 719-8번지 백상플러스 2층","indutype":"보건위생 - 화장품","category":"beauty"},{"name":"아모레카운셀러","tel":"031-879-4533","addr":"경기도 의정부시 신곡동 719-8번지 2층","indutype":"보건위생 - 화장품","category":"beauty"},{"name":"아모레카운셀러","tel":"031-879-4533","addr":"경기도 의정부시 신곡동 719-8번지 백상플러스 2층","indutype":"보건위생 - 화장품","category":"beauty"},{"name":"아모레카운셀러","tel":"031-879-4533","addr":"경기도 의정부시 신곡동 719-8번지 백상플러스 2층","indutype":"보건위생 - 화장품","category":"beauty"},{"name":"아모레카운셀러","tel":"031-879-4533","addr":"경기도 의정부시 신곡동 719-8번지 2층","indutype":"보건위생 - 화장품","category":"beauty"},{"name":"아모레카운셀러","tel":"031-879-4533","addr":"경기도 의정부시 신곡동 719-8번지 백상플러스 2층","indutype":"보건위생 - 화장품","category":"beauty"},{"name":"아모레카운셀러","tel":"031-879-4533","addr":"경기도 의정부시 신곡동 719-8 백상플러스2층","indutype":"보건위생 - 화장품","category":"beauty"},{"name":"아모레카운셀러","tel":"","addr":"경기도 의정부시 신곡동 719-8번지 2층 백상플러스","indutype":"보건위생 - 화장품","category":"beauty"},{"name":"아모레카운셀러","tel":"031-879-4533","addr":"경기도 의정부시 신곡동 719-8번지 백상플러스 2층","indutype":"보건위생 - 화장품","category":"beauty"},{"name":"아모레카운셀러","tel":"031-879-4533","addr":"경기도 의정부시 신곡동 719-8번지 백상플러스 2층","indutype":"보건위생 - 화장품","category":"beauty"},{"name":"아모레카운셀러","tel":"031-879-4533","addr":"경기도 의정부시 신곡동 719-8번지 2층","indutype":"보건위생 - 화장품","category":"beauty"},{"name":"아모레카운셀러","tel":"031-879-4533","addr":"경기도 의정부시 신곡동 719-8번지 백상플러스 2층","indutype":"보건위생 - 화장품","category":"beauty"},{"name":"아모레카운셀러","tel":"031-879-4533","addr":"경기도 의정부시 신곡동 719-8번지 2층","indutype":"보건위생 - 화장품","category":"beauty"},{"name":"아모레카운셀러","tel":"031-879-4533","addr":"경기도 의정부시 신곡동 719-8번지 2층","indutype":"보건위생 - 화장품","category":"beauty"},{"name":"아모레카운셀러","tel":"031-879-4533","addr":"경기도 의정부시 신곡동 719-8번지 2층","indutype":"보건위생 - 화장품","category":"beauty"},{"name":"아모레카운셀러","tel":"031-879-4533","addr":"경기도 의정부시 신곡동 719-8번지 백상플러스 2층","indutype":"보건위생 - 화장품","category":"beauty"},{"name":"아모레카운셀러","tel":"031-879-4533","addr":"경기도 의정부시 신곡동 719-8번지 2층","indutype":"보건위생 - 화장품","category":"beauty"},{"name":"아모레카운셀러","tel":"031-879-4533","addr":"경기도 의정부시 신곡동 719-8번지 백상플러스 2층","indutype":"보건위생 - 화장품","category":"beauty"},{"name":"아모레카운셀러","tel":"031-879-4533","addr":"경기도 의정부시 신곡동 719-8번지 백상플러스 2층","indutype":"보건위생 - 화장품","category":"beauty"},{"name":"힐링공감","tel":"","addr":"경기도 의정부시 신곡동 719-8번지 301,302호","indutype":"보건위생 - 화장품","category":"beauty"}]},{"lat":"37.744432443","long":"127.05720602","imageIndex":13,"items":[{"name":"아쿠아familyhair","tel":"031-821-0235","addr":"경기도 의정부시 신곡동 671-15번지","indutype":"보건위생 - 미용원","category":"beauty"}]},{"lat":"37.735961001","long":"127.06229355","imageIndex":13,"items":[{"name":"안경드림","tel":"031-847-7008","addr":"경기도 의정부시 신곡동 451-1번지 남훈빌딩 1층","indutype":"보건위생 - 안경","category":"beauty"}]},{"lat":"37.749988224","long":"127.07909793","imageIndex":13,"items":[{"name":"안경의집","tel":"031-851-3338","addr":"경기도 의정부시 신곡동 787-2번지","indutype":"보건위생 - 안경","category":"beauty"}]},{"lat":"37.75026707","long":"127.07979037","imageIndex":13,"items":[{"name":"알샘","tel":"031-853-1102","addr":"경기도 의정부시 신곡동 778-4번지 202호","indutype":"보건위생 - 화장품","category":"beauty"}]},{"lat":"37.74145732","long":"127.06132224","imageIndex":13,"items":[{"name":"에스(S)헤어샵","tel":"031-848-5088","addr":"경기도 의정부시 신곡동 493-1번지 우측상가 1층","indutype":"보건위생 - 미용원","category":"beauty"}]},{"lat":"37.747627138","long":"127.06470831","imageIndex":13,"items":[{"name":"에코헤어파크","tel":"031-853-3222","addr":"경기도 의정부시 신곡동 757-7번지 한남프라자 106호~107호","indutype":"보건위생 - 미용원","category":"beauty"},{"name":"탑월드안경원","tel":"031-853-9393","addr":"경기도 의정부시 신곡동 757-7번지 구자훈담당자님앞","indutype":"보건위생 - 안경","category":"beauty"}]},{"lat":"37.734513445","long":"127.05604165","imageIndex":13,"items":[{"name":"연우궁","tel":"","addr":"경기도 의정부시 신곡동 602-11번지","indutype":"보건위생 - 기타대인서비스","category":"beauty"}]},{"lat":"37.735934212","long":"127.06181706","imageIndex":13,"items":[{"name":"영광사","tel":"031-841-1010","addr":"경기도 의정부시 신곡동 445-1번지 104호","indutype":"보건위생 - 안경","category":"beauty"},{"name":"헤어탑원","tel":"031-826-5992","addr":"경기도 의정부시 신곡동 445-1번지 1층 107호","indutype":"보건위생 - 미용원","category":"beauty"}]},{"lat":"37.729069846","long":"127.05992859","imageIndex":13,"items":[{"name":"영헤어","tel":"031-848-5410","addr":"경기도 의정부시 신곡동 331-17번지 1층","indutype":"보건위생 - 미용원","category":"beauty"}]},{"lat":"37.744815674","long":"127.06562499","imageIndex":13,"items":[{"name":"우두머리미용실","tel":"031-848-9511","addr":"경기도 의정부시 신곡동 108-14 신명스카이뷰상가 101","indutype":"보건위생 - 미용원","category":"beauty"}]},{"lat":"37.734015117","long":"127.06192898","imageIndex":13,"items":[{"name":"원미용실","tel":"031-821-0459","addr":"경기도 의정부시 신곡동 409-9번지 1층","indutype":"보건위생 - 미용원","category":"beauty"}]},{"lat":"37.734789815","long":"127.06217917","imageIndex":13,"items":[{"name":"유나헤어","tel":"031-843-5813","addr":"경기도 의정부시 신곡동 397-16번지 1층","indutype":"보건위생 - 미용원","category":"beauty"}]},{"lat":"37.735070247","long":"127.05987647","imageIndex":13,"items":[{"name":"유앤정맘스케어","tel":"031-6315-5050","addr":"경기도 의정부시 신곡동 435-3번지 동진빌라 다동 107호","indutype":"보건위생 - 화장품","category":"beauty"}]},{"lat":"37.727492447","long":"127.06140201","imageIndex":13,"items":[{"name":"유찬헤어드레서","tel":"031-875-5959","addr":"경기도 의정부시 신곡동 727-1풍림상가203","indutype":"보건위생 - 미용원","category":"beauty"},{"name":"조은화장품","tel":"031-876-7319","addr":"경기도 의정부시 신곡동 727-1풍림상가120","indutype":"보건위생 - 화장품","category":"beauty"}]},{"lat":"37.747093716","long":"127.06815714","imageIndex":13,"items":[{"name":"윤헤어","tel":"031-111-1111","addr":"경기도 의정부시 신곡동 803-1번지 104호","indutype":"보건위생 - 미용원","category":"beauty"}]},{"lat":"37.728681958","long":"127.06090383","imageIndex":13,"items":[{"name":"이룸헤어","tel":"031-848-6069","addr":"경기도 의정부시 신곡동 317-1번지 1층","indutype":"보건위생 - 미용원","category":"beauty"}]},{"lat":"37.729096112","long":"127.06148268","imageIndex":13,"items":[{"name":"이연헤어","tel":"031-821-3208","addr":"경기도 의정부시 신곡동 355-4번지","indutype":"보건위생 - 미용원","category":"beauty"}]},{"lat":"37.730097205","long":"127.05937354","imageIndex":13,"items":[{"name":"일공공일(신곡장암점)","tel":"031-856-8018","addr":"경기도 의정부시 신곡동 336-1번지","indutype":"보건위생 - 안경","category":"beauty"}]},{"lat":"37.735512102","long":"127.05907135","imageIndex":13,"items":[{"name":"정메디칼","tel":"070-8785-7132","addr":"경기도 의정부시 신곡동 441-14번지","indutype":"보건위생 - 의료용품","category":"beauty"}]},{"lat":"37.746374722","long":"127.06487746","imageIndex":13,"items":[{"name":"주연헤어","tel":"031-821-3990","addr":"경기도 의정부시 신곡동 88-15번지 가동 106호","indutype":"보건위생 - 미용원","category":"beauty"}]},{"lat":"37.737153669","long":"127.05510192","imageIndex":13,"items":[{"name":"준이미용실","tel":"031-846-5406","addr":"경기도 의정부시 신곡동 571-11번지","indutype":"보건위생 - 미용원","category":"beauty"}]},{"lat":"37.730963037","long":"127.0574344","imageIndex":13,"items":[{"name":"지니위니아동발달센터","tel":"031-825-2767","addr":"경기도 의정부시 신곡동 720-3번지 서울프라자 404호","indutype":"보건위생 - 기타대인서비스","category":"beauty"},{"name":"헤어살롱벨","tel":"031-873-4096","addr":"경기도 의정부시 신곡동 720-3번지 서울프라자 101호","indutype":"보건위생 - 미용원","category":"beauty"},{"name":"힐링타임 명상체험실","tel":"031-837-7650","addr":"경기도 의정부시 신곡동 720-3번지 401호","indutype":"보건위생 - 피부미용실","category":"beauty"}]},{"lat":"37.744906106","long":"127.06498969","imageIndex":13,"items":[{"name":"지원뷰티헤어샵","tel":"031-846-9811","addr":"경기도 의정부시 신곡동 107-6번지","indutype":"보건위생 - 미용원","category":"beauty"}]},{"lat":"37.736649586","long":"127.0540692","imageIndex":13,"items":[{"name":"천지신당/천지암","tel":"031-111-1111","addr":"경기도 의정부시 신곡동 568-6번지","indutype":"보건위생 - 기타대인서비스","category":"beauty"}]},{"lat":"37.747762601","long":"127.06409571","imageIndex":13,"items":[{"name":"최혜진헤어스토리","tel":"","addr":"경기도 의정부시 신곡동 756-4번지 성광빌딩 1층","indutype":"보건위생 - 미용원","category":"beauty"}]},{"lat":"37.751708507","long":"127.07992802","imageIndex":13,"items":[{"name":"카페드림 (cafe dream)","tel":"031-853-6235","addr":"경기도 의정부시 신곡동 772-15번지 지상 1층","indutype":"보건위생 - 화장품","category":"beauty"}]},{"lat":"37.735567804","long":"127.05550921","imageIndex":13,"items":[{"name":"케이팜","tel":"031-826-8821","addr":"경기도 의정부시 신곡동 602-1번지 1층","indutype":"보건위생 - 의료용품","category":"beauty"}]},{"lat":"37.745707577","long":"127.06570517","imageIndex":13,"items":[{"name":"쿨가이(Cool Guy)","tel":"031-856-1253","addr":"경기도 의정부시 신곡동 112-38번지 예은교회 1층 2호","indutype":"보건위생 - 미용원","category":"beauty"}]},{"lat":"37.737622668","long":"127.05395642","imageIndex":13,"items":[{"name":"태양미용실","tel":"031-842-6110","addr":"경기도 의정부시 신곡동 567-24번지","indutype":"보건위생 - 미용원","category":"beauty"}]},{"lat":"37.730484655","long":"127.05929443","imageIndex":13,"items":[{"name":"트리니티헤어","tel":"031-821-7575","addr":"경기도 의정부시 신곡동 352-13번지 2층","indutype":"보건위생 - 미용원","category":"beauty"}]},{"lat":"37.751457615","long":"127.07779453","imageIndex":13,"items":[{"name":"티나헤어","tel":"031-851-0403","addr":"경기도 의정부시 신곡동 772-1번지","indutype":"보건위생 - 미용원","category":"beauty"}]},{"lat":"37.740457136","long":"127.06157105","imageIndex":13,"items":[{"name":"티나헤어","tel":"031-846-8227","addr":"경기도 의정부시 신곡동 485-4번지 3층","indutype":"보건위생 - 미용원","category":"beauty"}]},{"lat":"37.730845591","long":"127.05812629","imageIndex":13,"items":[{"name":"팜스스파(신곡점)","tel":"031-872-1086","addr":"경기도 의정부시 신곡동 720-5번지 3층","indutype":"보건위생 - 피부미용실","category":"beauty"}]},{"lat":"37.736793869","long":"127.07154016","imageIndex":13,"items":[{"name":"펄스헤어","tel":"031-853-6948","addr":"경기도 의정부시 신곡동 169-25번지","indutype":"보건위생 - 미용원","category":"beauty"}]},{"lat":"37.73990689","long":"127.06288666","imageIndex":13,"items":[{"name":"하현 Hada","tel":"","addr":"경기도 의정부시 신곡동 471번지 건영아파트 102동 507호","indutype":"보건위생 - 기타대인서비스","category":"beauty"}]},{"lat":"37.749204555","long":"127.0788475","imageIndex":13,"items":[{"name":"행복이 머무는 자리","tel":"031-111-1111","addr":"경기도 의정부시 신곡동 785-8번지 효자프린스빌 101호","indutype":"보건위생 - 미용원","category":"beauty"}]},{"lat":"37.744763815","long":"127.06134753","imageIndex":13,"items":[{"name":"헤어갤러리","tel":"031-843-5445","addr":"경기도 의정부시 신곡동 522-1번지 대영프라자빌딩 105호","indutype":"보건위생 - 미용원","category":"beauty"}]},{"lat":"37.73145849","long":"127.05759358","imageIndex":13,"items":[{"name":"헤어살롱리꼬르도","tel":"031-871-4278","addr":"경기도 의정부시 신곡동 717-1번지 1층","indutype":"보건위생 - 미용원","category":"beauty"}]},{"lat":"37.730962885","long":"127.05776337","imageIndex":13,"items":[{"name":"헤어스토리","tel":"031-841-4022","addr":"경기도 의정부시 신곡동 720-4번지 미리타운 101호","indutype":"보건위생 - 미용원","category":"beauty"}]},{"lat":"37.733819306","long":"127.056926","imageIndex":13,"items":[{"name":"헤어오클리","tel":"031-842-2155","addr":"경기도 의정부시 신곡동 603-38번지","indutype":"보건위생 - 미용원","category":"beauty"}]},{"lat":"37.74570774","long":"127.06539882","imageIndex":13,"items":[{"name":"헤어퀸","tel":"031-856-5952","addr":"경기도 의정부시 신곡동 89-5번지","indutype":"보건위생 - 미용원","category":"beauty"}]},{"lat":"37.734735332","long":"127.06301862","imageIndex":13,"items":[{"name":"홍은미헤어이벤트","tel":"031-845-9688","addr":"경기도 의정부시 신곡동 416-18번지","indutype":"보건위생 - 미용원","category":"beauty"}]}]