[{"lat":"37.550653998","long":"127.19383561","imageIndex":4,"items":[{"name":"(주)아워홈 코스트코하남점","tel":"02-1111-1111","addr":"경기도 하남시 풍산동 609번지","indutype":"일반휴게음식 - 위탁급식업","category":"restaurant"}]},{"lat":"37.547536039","long":"127.18853179","imageIndex":4,"items":[{"name":"(주)지호/지호한방삼계탕하남직영점","tel":"031-795-9996","addr":"경기도 하남시 풍산동 234-2번지","indutype":"일반휴게음식 - 일반한식","category":"restaurant"}]},{"lat":"37.550516271","long":"127.18403524","imageIndex":4,"items":[{"name":"32치킨","tel":"031-5175-3299","addr":"경기도 하남시 풍산동 493번지 미사센텀비즈 R143,144호","indutype":"일반휴게음식 - 스넥","category":"restaurant"},{"name":"H예닮","tel":"031-5175-3060","addr":"경기도 하남시 풍산동 493번지 미사센텀비즈 1층 R137호","indutype":"일반휴게음식 - 일반한식","category":"restaurant"},{"name":"강창구 진순대 미사센텀비즈점","tel":"031-5175-3433","addr":"경기도 하남시 풍산동 493번지 R131,R132,R133호","indutype":"일반휴게음식 - 일반한식","category":"restaurant"},{"name":"강촌식당 하남미사점","tel":"031-5175-3678","addr":"경기도 하남시 풍산동 493번지 알비 118,119호","indutype":"일반휴게음식 - 일반한식","category":"restaurant"},{"name":"두루치기 하남?","tel":"","addr":"경기도 하남시 풍산동 493번지 2층 미사센텀비즈 R203호","indutype":"일반휴게음식 - 일반한식","category":"restaurant"},{"name":"명인만두 하남미사센텀비즈점","tel":"031-5175-3550","addr":"경기도 하남시 풍산동 493번지 미사센텀비즈 1층 R106,R107호","indutype":"일반휴게음식 - 일반한식","category":"restaurant"},{"name":"미스터 스시","tel":"031-5175-3457","addr":"경기도 하남시 풍산동 493번지 미사센텀비즈 지하1층 RB 120호","indutype":"일반휴게음식 - 일식·회집","category":"restaurant"},{"name":"사미반점","tel":"031-5175-3255","addr":"경기도 하남시 풍산동 493번지 미사센텀비즈 R134 ,R135,R136호","indutype":"일반휴게음식 - 중국식","category":"restaurant"},{"name":"셀렉토커피(SELECTO COFFEE)","tel":"031-5175-3450","addr":"경기도 하남시 풍산동 493번지 미사센텀비즈 1층 R112, 113호","indutype":"일반휴게음식 - 서양음식","category":"restaurant"},{"name":"쉬즈베이글하남점","tel":"070-1111-1111","addr":"경기도 하남시 풍산동 493번지 1층 R109호","indutype":"일반휴게음식 - 서양음식","category":"restaurant"},{"name":"오늘은 맑음","tel":"02-574-7764","addr":"경기도 하남시 풍산동 493번지 2층 알201호","indutype":"일반휴게음식 - 일반한식","category":"restaurant"},{"name":"오방냉면","tel":"","addr":"경기도 하남시 풍산동 493번지 1층 R104호,R105호 미사센텀비즈","indutype":"일반휴게음식 - 일반한식","category":"restaurant"},{"name":"이디야 센텀비즈","tel":"","addr":"경기도 하남시 풍산동 493번지 미사센텀비즈 지하1층 122호","indutype":"일반휴게음식 - 서양음식","category":"restaurant"},{"name":"케그오공 (KEG50)","tel":"031-5175-3449","addr":"경기도 하남시 풍산동 493번지 R101호","indutype":"일반휴게음식 - 주점","category":"restaurant"},{"name":"포시애틀하남미사직영점","tel":"031-5175-3204","addr":"경기도 하남시 풍산동 493번지 이사센텀비즈 2층 R204호","indutype":"일반휴게음식 - 일반한식","category":"restaurant"},{"name":"풍경","tel":"031-5175-3201","addr":"경기도 하남시 풍산동 493번지 미사센텀비즈 지하2층 RB201호","indutype":"일반휴게음식 - 일반한식","category":"restaurant"},{"name":"해와달 양평해장국","tel":"031-796-0129","addr":"경기도 하남시 풍산동 493번지 미사센텀비즈 139,140,141호","indutype":"일반휴게음식 - 일반한식","category":"restaurant"}]},{"lat":"37.556703158","long":"127.19162152","imageIndex":4,"items":[{"name":"Hello 카페","tel":"031-793-2290","addr":"경기도 하남시 풍산동 550-5번지 1층","indutype":"일반휴게음식 - 서양음식","category":"restaurant"},{"name":"이디야 청아초교점","tel":"031-794-6467","addr":"경기도 하남시 풍산동 550-5번지 101호","indutype":"일반휴게음식 - 서양음식","category":"restaurant"},{"name":"추닭집","tel":"031-111-1111","addr":"경기도 하남시 풍산동 550-5번지 1층 102호","indutype":"일반휴게음식 - 스넥","category":"restaurant"}]},{"lat":"37.558623454","long":"127.19086809","imageIndex":4,"items":[{"name":"Toastar(토스타)","tel":"070-7613-7872","addr":"경기도 하남시 풍산동 544-3번지 101호","indutype":"일반휴게음식 - 일반한식","category":"restaurant"}]},{"lat":"37.549097604","long":"127.18670243","imageIndex":4,"items":[{"name":"가운소곱창","tel":"031-795-8117","addr":"경기도 하남시 풍산동 산39-2번지 1층","indutype":"일반휴게음식 - 일반한식","category":"restaurant"}]},{"lat":"37.557262975","long":"127.19086467","imageIndex":4,"items":[{"name":"가은능이백숙","tel":"031-791-1192","addr":"경기도 하남시 풍산동 551번지 1층 103호","indutype":"일반휴게음식 - 일반한식","category":"restaurant"}]},{"lat":"37.549262672","long":"127.18483566","imageIndex":4,"items":[{"name":"강영감네 닭내장","tel":"031-795-1821","addr":"경기도 하남시 풍산동 218-29번지 1층","indutype":"일반휴게음식 - 일반한식","category":"restaurant"}]},{"lat":"37.55576272","long":"127.18808818","imageIndex":4,"items":[{"name":"계경순대국","tel":"","addr":"경기도 하남시 풍산동 517-1번지 미사스타프라자 2층 205호","indutype":"일반휴게음식 - 일반한식","category":"restaurant"}]},{"lat":"37.558479567","long":"127.19069796","imageIndex":4,"items":[{"name":"고래식당 미사중앙로점","tel":"031-793-8111","addr":"경기도 하남시 풍산동 543-5번지","indutype":"일반휴게음식 - 일반한식","category":"restaurant"}]},{"lat":"37.555455159","long":"127.18886831","imageIndex":4,"items":[{"name":"고메 에비뉴(Gourmet Ave)","tel":"031-796-7915","addr":"경기도 하남시 풍산동 519-5번지 미사센트럴타워 1층 105호","indutype":"일반휴게음식 - 서양음식","category":"restaurant"},{"name":"챙이족발","tel":"","addr":"경기도 하남시 풍산동 519-5번지 미사센트럴타워 104호","indutype":"일반휴게음식 - 일반한식","category":"restaurant"}]},{"lat":"37.557456704","long":"127.18800184","imageIndex":4,"items":[{"name":"고양이부엌하남","tel":"031-792-0410","addr":"경기도 하남시 풍산동 504번지 미사탑프라자 1층 112호","indutype":"일반휴게음식 - 스넥","category":"restaurant"},{"name":"삼다애","tel":"031-792-9787","addr":"경기도 하남시 풍산동 504번지 미사탑프라자 207동 208호","indutype":"일반휴게음식 - 일반한식","category":"restaurant"},{"name":"셀렉토커피 미사강변점","tel":"031-791-6117","addr":"경기도 하남시 풍산동 504번지 미사탑프라자 104호","indutype":"일반휴게음식 - 서양음식","category":"restaurant"}]},{"lat":"37.558398785","long":"127.19050536","imageIndex":4,"items":[{"name":"국수나무 미사청아초점","tel":"031-793-6760","addr":"경기도 하남시 풍산동 543-6번지","indutype":"일반휴게음식 - 일반한식","category":"restaurant"},{"name":"본도시락 하남미사점","tel":"031-796-4282","addr":"경기도 하남시 풍산동 543-6번지 1층","indutype":"일반휴게음식 - 스넥","category":"restaurant"}]},{"lat":"37.557091644","long":"127.19095478","imageIndex":4,"items":[{"name":"굽네치킨미사수변점","tel":"","addr":"경기도 하남시 풍산동 551-10번지 1층","indutype":"일반휴게음식 - 스넥","category":"restaurant"}]},{"lat":"37.552591291","long":"127.18222959","imageIndex":4,"items":[{"name":"굿푸드","tel":"02-3289-0793","addr":"경기도 하남시 풍산동 489번지 미사테스타타워 지식산업센터 2층 R215,R216,R217,R218호","indutype":"일반휴게음식 - 일반한식","category":"restaurant"},{"name":"김가네김밥","tel":"031-5175-6868","addr":"경기도 하남시 풍산동 489번지 미사테스타타워지식산업센터 지하1층 RB103호","indutype":"일반휴게음식 - 스넥","category":"restaurant"}]},{"lat":"37.556952492","long":"127.18778556","imageIndex":4,"items":[{"name":"그린한식뷔페","tel":"031-793-5404","addr":"경기도 하남시 풍산동 504-2번지 그린프라자 302,303,304호","indutype":"일반휴게음식 - 일반한식","category":"restaurant"},{"name":"맘스터치 미사강변대로점","tel":"031-793-0605","addr":"경기도 하남시 풍산동 504-2번지 그린프라자 201호","indutype":"일반휴게음식 - 서양음식","category":"restaurant"},{"name":"본죽&비빔밥Cafe 미사센트럴점","tel":"031-795-6255","addr":"경기도 하남시 풍산동 504-2번지 그린프라자 1층 104호","indutype":"일반휴게음식 - 일반한식","category":"restaurant"},{"name":"전주콩각시콩나물국밥","tel":"031-794-2438","addr":"경기도 하남시 풍산동 504-2번지 1층 105,106호","indutype":"일반휴게음식 - 일반한식","category":"restaurant"},{"name":"한끼","tel":"031-796-8788","addr":"경기도 하남시 풍산동 504-2번지 그린프라자 1층 109호","indutype":"일반휴게음식 - 일반한식","category":"restaurant"}]},{"lat":"37.549262969","long":"127.18464329","imageIndex":4,"items":[{"name":"금강산감자탕해장국","tel":"031-793-8677","addr":"경기도 하남시 풍산동 218-26번지","indutype":"일반휴게음식 - 일반한식","category":"restaurant"},{"name":"홍박사 꼬막.코다리","tel":"031-793-8677","addr":"경기도 하남시 풍산동 218-26번지 1층","indutype":"일반휴게음식 - 일반한식","category":"restaurant"}]},{"lat":"37.557149749","long":"127.18839719","imageIndex":4,"items":[{"name":"김가네","tel":"031-792-7311","addr":"경기도 하남시 풍산동 506번지 한강프라자 110호","indutype":"일반휴게음식 - 스넥","category":"restaurant"},{"name":"차한우곱창","tel":"031-796-0069","addr":"경기도 하남시 풍산동 506번지 102호 101호, 102호","indutype":"일반휴게음식 - 일반한식","category":"restaurant"},{"name":"펀비어킹","tel":"031-0000-0000","addr":"경기도 하남시 풍산동 506번지 203,204호","indutype":"일반휴게음식 - 주점","category":"restaurant"}]},{"lat":"37.557677695","long":"127.19069595","imageIndex":4,"items":[{"name":"꽃그리는아이 2호점","tel":"031-1111-1111","addr":"경기도 하남시 풍산동 548-5번지","indutype":"일반휴게음식 - 서양음식","category":"restaurant"}]},{"lat":"37.559682035","long":"127.18806393","imageIndex":4,"items":[{"name":"나누미카페/하남시장애인복지관","tel":"070-8859-2959","addr":"경기도 하남시 풍산동 산58-5번지","indutype":"일반휴게음식 - 서양음식","category":"restaurant"},{"name":"하남시장애인복지관 나누미카페","tel":"031-794-2266","addr":"경기도 하남시 풍산동 산58-5번지","indutype":"일반휴게음식 - 서양음식","category":"restaurant"}]},{"lat":"37.548677192","long":"127.18473239","imageIndex":4,"items":[{"name":"나벨라(NAVELLA)","tel":"031-791-3320","addr":"경기도 하남시 풍산동 218-55번지 204호","indutype":"일반휴게음식 - 서양음식","category":"restaurant"}]},{"lat":"37.548037965","long":"127.18442531","imageIndex":4,"items":[{"name":"낙현횟집","tel":"031-794-5024","addr":"경기도 하남시 풍산동 248-1번지 2층 202호","indutype":"일반휴게음식 - 일반한식","category":"restaurant"},{"name":"와글와글횟집","tel":"031-791-3952","addr":"경기도 하남시 풍산동 248-1번지 C1동 201호 근린생활시설","indutype":"일반휴게음식 - 일반한식","category":"restaurant"},{"name":"해궁마당","tel":"031-792-0983","addr":"경기도 하남시 풍산동 248-1번지 C1동 202,203호","indutype":"일반휴게음식 - 일반한식","category":"restaurant"}]},{"lat":"37.556095425","long":"127.18850775","imageIndex":4,"items":[{"name":"날마다","tel":"","addr":"경기도 하남시 풍산동 515-2번지 홍우프라자 1층 117호","indutype":"일반휴게음식 - 서양음식","category":"restaurant"}]},{"lat":"37.556902006","long":"127.19122592","imageIndex":4,"items":[{"name":"날쌘카페","tel":"031-794-8582","addr":"경기도 하남시 풍산동 551-4번지 1층","indutype":"일반휴게음식 - 서양음식","category":"restaurant"}]},{"lat":"37.548928489","long":"127.18536671","imageIndex":4,"items":[{"name":"남대감댁물회냉면","tel":"031-793-4301","addr":"경기도 하남시 풍산동 223-12번지 1층 B호","indutype":"일반휴게음식 - 스넥","category":"restaurant"}]},{"lat":"37.556929342","long":"127.19103359","imageIndex":4,"items":[{"name":"노랑통닭 미사2호점","tel":"031-791-5288","addr":"경기도 하남시 풍산동 551-9번지 파크빌 1층","indutype":"일반휴게음식 - 일반한식","category":"restaurant"}]},{"lat":"37.557758153","long":"127.19109226","imageIndex":4,"items":[{"name":"달콤테이블","tel":"","addr":"경기도 하남시 풍산동 549-3번지 103호","indutype":"일반휴게음식 - 서양음식","category":"restaurant"}]},{"lat":"37.556150266","long":"127.18800992","imageIndex":4,"items":[{"name":"대독장 미사강변점","tel":"070-7529-8843","addr":"경기도 하남시 풍산동 515번지 골드프라자 1층 102호","indutype":"일반휴게음식 - 일반한식","category":"restaurant"},{"name":"동궁찜닭 하남미사점","tel":"031-792-9756","addr":"경기도 하남시 풍산동 515번지 골드프라자 2층 205호","indutype":"일반휴게음식 - 일반한식","category":"restaurant"},{"name":"오븐마루","tel":"031-794-5092","addr":"경기도 하남시 풍산동 515번지 103,104호","indutype":"일반휴게음식 - 스넥","category":"restaurant"},{"name":"이디야(EDIYA)","tel":"","addr":"경기도 하남시 풍산동 515번지 골드프라자 116,117,118호","indutype":"일반휴게음식 - 서양음식","category":"restaurant"},{"name":"훈마루","tel":"031-791-3121","addr":"경기도 하남시 풍산동 515번지 201~204.208호","indutype":"일반휴게음식 - 일반한식","category":"restaurant"}]},{"lat":"37.555646974","long":"127.18720516","imageIndex":4,"items":[{"name":"대왕참치","tel":"031-793-3787","addr":"경기도 하남시 풍산동 514번지 제일아이조움 2층 204호","indutype":"일반휴게음식 - 일식·회집","category":"restaurant"}]},{"lat":"37.546397966","long":"127.19591817","imageIndex":4,"items":[{"name":"도레도레","tel":"031-795-5132","addr":"경기도 하남시 풍산동 386-1번지 3층","indutype":"일반휴게음식 - 스넥","category":"restaurant"}]},{"lat":"37.552903453","long":"127.18431262","imageIndex":4,"items":[{"name":"도미노피자 하남미사점","tel":"031-796-0028","addr":"경기도 하남시 풍산동 490번지 지식산업센터 1층 103호","indutype":"일반휴게음식 - 서양음식","category":"restaurant"},{"name":"화덕고깃간 미사강변점","tel":"031-791-7895","addr":"경기도 하남시 풍산동 490번지 지식산업센터 104호","indutype":"일반휴게음식 - 일반한식","category":"restaurant"}]},{"lat":"37.558119787","long":"127.19031226","imageIndex":4,"items":[{"name":"돈떡","tel":"031-795-1190","addr":"경기도 하남시 풍산동 546-2번지 1층 102호","indutype":"일반휴게음식 - 일반한식","category":"restaurant"},{"name":"라떼킹","tel":"02-0000-0000","addr":"경기도 하남시 풍산동 546-2번지 1층","indutype":"일반휴게음식 - 일반한식","category":"restaurant"}]},{"lat":"37.554427134","long":"127.18364861","imageIndex":4,"items":[{"name":"또래오래 미사1점","tel":"031-793-9291","addr":"경기도 하남시 풍산동 477번지 미사강변동원로얄듀크 상가 307동 116호","indutype":"일반휴게음식 - 스넥","category":"restaurant"},{"name":"명가교동짬뽕미사강변점","tel":"031-793-6619","addr":"경기도 하남시 풍산동 477번지 미사강변동원로얄듀크 307동 107,108호","indutype":"일반휴게음식 - 일반한식","category":"restaurant"},{"name":"명품회수산","tel":"031-795-8998","addr":"경기도 하남시 풍산동 477번지 미사강변동원로얄듀크 상가 308동 1층 101호","indutype":"일반휴게음식 - 일식·회집","category":"restaurant"},{"name":"아이러브 피자앤치킨","tel":"031-794-8744","addr":"경기도 하남시 풍산동 477번지 미사강변동원로얄듀크 1층 109호","indutype":"일반휴게음식 - 서양음식","category":"restaurant"},{"name":"얌얌치킨 미사점","tel":"031-791-2454","addr":"경기도 하남시 풍산동 477번지 미사강변동원로얄듀크 307동 111호","indutype":"일반휴게음식 - 일반한식","category":"restaurant"},{"name":"커피베이","tel":"031-793-0980","addr":"경기도 하남시 풍산동 477번지 미사강변동원로얄듀크 308동 112호","indutype":"일반휴게음식 - 서양음식","category":"restaurant"}]},{"lat":"37.553649085","long":"127.18572904","imageIndex":4,"items":[{"name":"락파스타","tel":"","addr":"경기도 하남시 풍산동 522-3번지 위너스프라자 2층","indutype":"일반휴게음식 - 서양음식","category":"restaurant"},{"name":"바비박스 하남미사점","tel":"031-794-7388","addr":"경기도 하남시 풍산동 522-3번지 위너스프라자 2층 210호","indutype":"일반휴게음식 - 일반한식","category":"restaurant"},{"name":"빚짜 딜리버리 미사점","tel":"","addr":"경기도 하남시 풍산동 522-3번지 위너스프라자 2층 209,209-1호","indutype":"일반휴게음식 - 서양음식","category":"restaurant"},{"name":"지구아이(Gkooi)","tel":"","addr":"경기도 하남시 풍산동 522-3번지 위너스프라자 2층 210-1호","indutype":"일반휴게음식 - 일반한식","category":"restaurant"}]},{"lat":"37.556595673","long":"127.19122515","imageIndex":4,"items":[{"name":"록시드갸토 하남미사점","tel":"031-793-2969","addr":"경기도 하남시 풍산동 551-7번지 101호","indutype":"일반휴게음식 - 서양음식","category":"restaurant"}]},{"lat":"37.558007559","long":"127.18719965","imageIndex":4,"items":[{"name":"마노분식","tel":"031-791-5059","addr":"경기도 하남시 풍산동 480번지 미사강변센트럴자이 1층","indutype":"일반휴게음식 - 일반한식","category":"restaurant"},{"name":"오마뎅 미사강변센트럴자이점","tel":"031-791-6544","addr":"경기도 하남시 풍산동 480번지 미사강변센트럴자이 상가 2동 1층 114호","indutype":"일반휴게음식 - 스넥","category":"restaurant"},{"name":"죽이야기 미사한홀초교점","tel":"031-790-6233","addr":"경기도 하남시 풍산동 480번지 미사강변센트럴자이 상가 2동 109호","indutype":"일반휴게음식 - 일반한식","category":"restaurant"}]},{"lat":"37.548460747","long":"127.18486766","imageIndex":4,"items":[{"name":"만돌만","tel":"031-796-3112","addr":"경기도 하남시 풍산동 218-95번지 E2동 202호","indutype":"일반휴게음식 - 일식·회집","category":"restaurant"}]},{"lat":"37.557789978","long":"127.18805925","imageIndex":4,"items":[{"name":"맛에 반하다","tel":"031-796-3326","addr":"경기도 하남시 풍산동 502번지 승리타워 203호","indutype":"일반휴게음식 - 일반한식","category":"restaurant"},{"name":"메가커피","tel":"031-792-5180","addr":"경기도 하남시 풍산동 502번지 승리타워 1층 108호","indutype":"일반휴게음식 - 서양음식","category":"restaurant"},{"name":"이삭토스트(하남고교점)","tel":"031-796-0301","addr":"경기도 하남시 풍산동 502번지 승리타워 107호","indutype":"일반휴게음식 - 서양음식","category":"restaurant"},{"name":"찰스치킨 미사강변점","tel":"031-792-3535","addr":"경기도 하남시 풍산동 502번지 승리타워 201호","indutype":"일반휴게음식 - 서양음식","category":"restaurant"}]},{"lat":"37.558903423","long":"127.19045003","imageIndex":4,"items":[{"name":"매일매일","tel":"","addr":"경기도 하남시 풍산동 543-9번지 1층 101호","indutype":"일반휴게음식 - 일반한식","category":"restaurant"}]},{"lat":"37.555313876","long":"127.18703458","imageIndex":4,"items":[{"name":"멕시카나 미사강변점","tel":"031-792-9293","addr":"경기도 하남시 풍산동 514-1번지 바토프라자 1층 110호","indutype":"일반휴게음식 - 스넥","category":"restaurant"},{"name":"영쓰데이","tel":"070-6631-7884","addr":"경기도 하남시 풍산동 514-1번지 바토프라자 101호","indutype":"일반휴게음식 - 서양음식","category":"restaurant"},{"name":"우주최강도시락 미사강변점","tel":"031-794-3849","addr":"경기도 하남시 풍산동 514-1번지 바토프라자 108호","indutype":"일반휴게음식 - 일반한식","category":"restaurant"},{"name":"한돈한우푸줏간(풍산점)","tel":"031-791-9193","addr":"경기도 하남시 풍산동 514-1번지 바토프라자 202, 203호","indutype":"일반휴게음식 - 일반한식","category":"restaurant"}]},{"lat":"37.556563357","long":"127.18306527","imageIndex":4,"items":[{"name":"미사동커피","tel":"031-792-2727","addr":"경기도 하남시 풍산동 471번지 미사강변제일풍경채 107호","indutype":"일반휴게음식 - 서양음식","category":"restaurant"}]},{"lat":"37.554677496","long":"127.18489409","imageIndex":4,"items":[{"name":"미사불닭발","tel":"031-795-4492","addr":"경기도 하남시 풍산동 486번지 미사강변더샵센트럴포레 105호","indutype":"일반휴게음식 - 일반한식","category":"restaurant"},{"name":"불불이족발","tel":"031-791-7092","addr":"경기도 하남시 풍산동 486번지 미사강변더샵센트럴포레 2308(상가)동 1층 104호","indutype":"일반휴게음식 - 일반한식","category":"restaurant"},{"name":"비비큐(BBQ)미사강변점","tel":"031-791-7272","addr":"경기도 하남시 풍산동 486번지 상가동 101, 102호","indutype":"일반휴게음식 - 스넥","category":"restaurant"}]},{"lat":"37.557816439","long":"127.18842148","imageIndex":4,"items":[{"name":"미사상회","tel":"070-7737-9900","addr":"경기도 하남시 풍산동 502-1번지 상아프라자 108호","indutype":"일반휴게음식 - 일반한식","category":"restaurant"}]},{"lat":"37.54637776","long":"127.19169733","imageIndex":4,"items":[{"name":"미사풍천장어","tel":"031-793-2237","addr":"경기도 하남시 풍산동 448-4번지","indutype":"일반휴게음식 - 일반한식","category":"restaurant"}]},{"lat":"37.54876584","long":"127.18567185","imageIndex":4,"items":[{"name":"미사한우요리전문점","tel":"031-792-0500","addr":"경기도 하남시 풍산동 223-38번지","indutype":"일반휴게음식 - 일반한식","category":"restaurant"}]},{"lat":"37.548954958","long":"127.18572889","imageIndex":4,"items":[{"name":"믿음 용역/도시락","tel":"031-796-2121","addr":"경기도 하남시 풍산동 223-35번지 1층","indutype":"일반휴게음식 - 일반한식","category":"restaurant"}]},{"lat":"37.558930237","long":"127.19058591","imageIndex":4,"items":[{"name":"베베플로르","tel":"031-111-1111","addr":"경기도 하남시 풍산동 543-2번지 지하1층","indutype":"일반휴게음식 - 서양음식","category":"restaurant"}]},{"lat":"37.556423945","long":"127.19156423","imageIndex":4,"items":[{"name":"본스테이크(bone steak)","tel":"031-791-3345","addr":"경기도 하남시 풍산동 552-1번지 1층","indutype":"일반휴게음식 - 서양음식","category":"restaurant"}]},{"lat":"37.558291063","long":"127.1902561","imageIndex":4,"items":[{"name":"블랙캡 피자","tel":"031-795-9287","addr":"경기도 하남시 풍산동 546-1번지","indutype":"일반휴게음식 - 서양음식","category":"restaurant"}]},{"lat":"37.557569254","long":"127.19089939","imageIndex":4,"items":[{"name":"뽁짝뽁짝","tel":"031-791-1158","addr":"경기도 하남시 풍산동 548-3번지","indutype":"일반휴게음식 - 일반한식","category":"restaurant"}]},{"lat":"37.557815905","long":"127.188761","imageIndex":4,"items":[{"name":"석관동떡볶이 미사점","tel":"","addr":"경기도 하남시 풍산동 502-2번지 연세아란빌딩 1층 103호","indutype":"일반휴게음식 - 스넥","category":"restaurant"}]},{"lat":"37.550265054","long":"127.18334434","imageIndex":4,"items":[{"name":"소풍","tel":"","addr":"경기도 하남시 풍산동 492번지 미사하우스디엘타워 RB층 202호","indutype":"일반휴게음식 - 일반한식","category":"restaurant"},{"name":"엘타워함바식당","tel":"031-575-4545","addr":"경기도 하남시 풍산동 492번지 미사하우스디엘타워 R동 104호","indutype":"일반휴게음식 - 일반한식","category":"restaurant"}]},{"lat":"37.556709405","long":"127.18767179","imageIndex":4,"items":[{"name":"안녕숯불&올리브도시락하남미사점","tel":"031-000-0000","addr":"경기도 하남시 풍산동 504-3번지 미사베스트프라자 206호","indutype":"일반휴게음식 - 일반한식","category":"restaurant"},{"name":"하동갈비","tel":"031-795-8005","addr":"경기도 하남시 풍산동 504-3번지 미사베스트프라자 208호","indutype":"일반휴게음식 - 일반한식","category":"restaurant"}]},{"lat":"37.557262253","long":"127.19131736","imageIndex":4,"items":[{"name":"알볼로피자 (미사점)","tel":"","addr":"경기도 하남시 풍산동 550-1번지 102호","indutype":"일반휴게음식 - 서양음식","category":"restaurant"}]},{"lat":"37.556757939","long":"127.19116897","imageIndex":4,"items":[{"name":"엘레판트(Elefant)","tel":"031-796-0255","addr":"경기도 하남시 풍산동 551-8번지 (R7 7-4) 1층 전체","indutype":"일반휴게음식 - 서양음식","category":"restaurant"}]},{"lat":"37.559092017","long":"127.19083531","imageIndex":4,"items":[{"name":"오마뎅 미사강변중앙점","tel":"031-793-5330","addr":"경기도 하남시 풍산동 544번지 1층 103호","indutype":"일반휴게음식 - 서양음식","category":"restaurant"}]},{"lat":"37.547731597","long":"127.1844472","imageIndex":4,"items":[{"name":"오양씨푸드","tel":"031-794-3758","addr":"경기도 하남시 풍산동 247-1번지 202호 203호","indutype":"일반휴게음식 - 일반한식","category":"restaurant"},{"name":"오양씨푸드","tel":"031-794-3758","addr":"경기도 하남시 풍산동 247-1번지 하남수산물단지 c2103호,2층202,203","indutype":"일반휴게음식 - 일반한식","category":"restaurant"}]},{"lat":"37.556622467","long":"127.19137234","imageIndex":4,"items":[{"name":"오오일-육(551-6)","tel":"","addr":"경기도 하남시 풍산동 551-6번지 101호","indutype":"일반휴게음식 - 서양음식","category":"restaurant"}]},{"lat":"37.547986619","long":"127.18847632","imageIndex":4,"items":[{"name":"오형제 손짜장","tel":"031-792-6430","addr":"경기도 하남시 풍산동 232-3번지","indutype":"일반휴게음식 - 중국식","category":"restaurant"}]},{"lat":"37.558426246","long":"127.1902338","imageIndex":4,"items":[{"name":"우동쯔요시","tel":"","addr":"경기도 하남시 풍산동 546번지 101호","indutype":"일반휴게음식 - 일식·회집","category":"restaurant"},{"name":"청아 스시&참치","tel":"","addr":"경기도 하남시 풍산동 546번지 1층 102호","indutype":"일반휴게음식 - 일식·회집","category":"restaurant"}]},{"lat":"37.558570007","long":"127.19048315","imageIndex":4,"items":[{"name":"유(U 중식당)","tel":"070-7789-1569","addr":"경기도 하남시 풍산동 543-7번지 1층","indutype":"일반휴게음식 - 중국식","category":"restaurant"}]},{"lat":"37.556397132","long":"127.19142836","imageIndex":4,"items":[{"name":"이에스에스 ESS","tel":"031-796-2976","addr":"경기도 하남시 풍산동 552번지 1층 101호","indutype":"일반휴게음식 - 서양음식","category":"restaurant"}]},{"lat":"37.549040099","long":"127.18309243","imageIndex":4,"items":[{"name":"전주식당","tel":"","addr":"경기도 하남시 풍산동 218-38번지 1층","indutype":"일반휴게음식 - 일반한식","category":"restaurant"}]},{"lat":"37.5579024","long":"127.19103604","imageIndex":4,"items":[{"name":"주식회사 베스타홍돈가","tel":"031-794-6692","addr":"경기도 하남시 풍산동 549-2번지","indutype":"일반휴게음식 - 일반한식","category":"restaurant"}]},{"lat":"37.546233331","long":"127.19186671","imageIndex":4,"items":[{"name":"주식회사 푸주옥","tel":"031-796-3982","addr":"경기도 하남시 풍산동 448-5번지","indutype":"일반휴게음식 - 일반한식","category":"restaurant"}]},{"lat":"37.54928944","long":"127.18500547","imageIndex":4,"items":[{"name":"진청진동해장국","tel":"031-795-8905","addr":"경기도 하남시 풍산동 218-30번지","indutype":"일반휴게음식 - 일반한식","category":"restaurant"}]},{"lat":"37.55739749","long":"127.19126112","imageIndex":4,"items":[{"name":"쭈꾸미와친구들","tel":"031-792-7776","addr":"경기도 하남시 풍산동 550번지 102호","indutype":"일반휴게음식 - 일반한식","category":"restaurant"}]},{"lat":"37.55859682","long":"127.19061903","imageIndex":4,"items":[{"name":"찜닭먹는 즐거움","tel":"","addr":"경기도 하남시 풍산동 543-4번지","indutype":"일반휴게음식 - 일반한식","category":"restaurant"}]},{"lat":"37.546902546","long":"127.19030681","imageIndex":4,"items":[{"name":"청수","tel":"031-791-7872","addr":"경기도 하남시 풍산동 280-1번지 2층","indutype":"일반휴게음식 - 일반한식","category":"restaurant"}]},{"lat":"37.556043158","long":"127.18736457","imageIndex":4,"items":[{"name":"촌놈집","tel":"031-792-3591","addr":"경기도 하남시 풍산동 512번지 해오름프라자 201호-205호","indutype":"일반휴게음식 - 일반한식","category":"restaurant"}]},{"lat":"37.558732237","long":"127.19044961","imageIndex":4,"items":[{"name":"최고집 평양만두","tel":"031-000-0000","addr":"경기도 하남시 풍산동 543-8번지 1층 101호","indutype":"일반휴게음식 - 일반한식","category":"restaurant"}]},{"lat":"37.556788841","long":"127.1887245","imageIndex":4,"items":[{"name":"충무손칼국수","tel":"031-792-8991","addr":"경기도 하남시 풍산동 507-1번지 203호","indutype":"일반휴게음식 - 일반한식","category":"restaurant"}]},{"lat":"37.544651446","long":"127.19506501","imageIndex":4,"items":[{"name":"카페 933(cafe 933)","tel":"","addr":"경기도 하남시 풍산동 400-1번지 2층","indutype":"일반휴게음식 - 서양음식","category":"restaurant"},{"name":"해송푸드","tel":"031-794-2939","addr":"경기도 하남시 풍산동 400-1번지 외3필지","indutype":"일반휴게음식 - 일반한식","category":"restaurant"}]},{"lat":"37.55711797","long":"127.19139622","imageIndex":4,"items":[{"name":"카페루시","tel":"031-794-5165","addr":"경기도 하남시 풍산동 550-2번지 1층","indutype":"일반휴게음식 - 서양음식","category":"restaurant"}]},{"lat":"37.556483326","long":"127.18820314","imageIndex":4,"items":[{"name":"카페소화","tel":"","addr":"경기도 하남시 풍산동 507-3번지 메인프라자 3층 305호","indutype":"일반휴게음식 - 서양음식","category":"restaurant"}]},{"lat":"37.549289004","long":"127.18528838","imageIndex":4,"items":[{"name":"크랩씨푸드","tel":"031-000-0000","addr":"경기도 하남시 풍산동 244-13번지 2층","indutype":"일반휴게음식 - 일반한식","category":"restaurant"}]},{"lat":"37.549066956","long":"127.18320565","imageIndex":4,"items":[{"name":"풍년식당","tel":"031-792-4575","addr":"경기도 하남시 풍산동 218-43번지","indutype":"일반휴게음식 - 일반한식","category":"restaurant"}]},{"lat":"37.554566961","long":"127.18645557","imageIndex":4,"items":[{"name":"하남미사비턴","tel":"","addr":"경기도 하남시 풍산동 522번지 미사강변블루 7층 705호","indutype":"일반휴게음식 - 주점","category":"restaurant"},{"name":"홍짜장(미사강변대로점)","tel":"031-794-1492","addr":"경기도 하남시 풍산동 522번지 미사강변블루 111호","indutype":"일반휴게음식 - 중국식","category":"restaurant"}]},{"lat":"37.548766137","long":"127.18547948","imageIndex":4,"items":[{"name":"하남성풍천장어","tel":"031-793-4304","addr":"경기도 하남시 풍산동 223-37번지 1층","indutype":"일반휴게음식 - 일반한식","category":"restaurant"}]},{"lat":"37.548425526","long":"127.18433572","imageIndex":4,"items":[{"name":"해랑","tel":"031-794-2228","addr":"경기도 하남시 풍산동 250-5번지 외5필지2층202,203호","indutype":"일반휴게음식 - 일반한식","category":"restaurant"},{"name":"해랑","tel":"031-794-2228","addr":"경기도 하남시 풍산동 250-5번지 외5필지,하남수산물복합단지 E1동202,203호","indutype":"일반휴게음식 - 일반한식","category":"restaurant"},{"name":"해랑","tel":"031-794-2228","addr":"경기도 하남시 풍산동 250-5번지 2층 202호,203호","indutype":"일반휴게음식 - 일반한식","category":"restaurant"}]},{"lat":"37.555736258","long":"127.18772597","imageIndex":4,"items":[{"name":"허스키 미사점","tel":"031-793-9490","addr":"경기도 하남시 풍산동 517번지 골든프라자 302호","indutype":"일반휴게음식 - 일식·회집","category":"restaurant"}]},{"lat":"37.547541607","long":"127.18495595","imageIndex":4,"items":[{"name":"황산뻘","tel":"031-791-7140","addr":"경기도 하남시 풍산동 243-32번지","indutype":"일반휴게음식 - 일반한식","category":"restaurant"}]},{"lat":"37.549066022","long":"127.18381673","imageIndex":4,"items":[{"name":"황산장어","tel":"031-791-0989","addr":"경기도 하남시 풍산동 218-10번지 1층","indutype":"일반휴게음식 - 일반한식","category":"restaurant"}]},{"lat":"37.556426946","long":"127.19528763","imageIndex":4,"items":[{"name":"후암농원","tel":"031-794-4811","addr":"경기도 하남시 풍산동 39-2","indutype":"일반휴게음식 - 일반한식","category":"restaurant"}]},{"lat":"37.556982697","long":"127.1914751","imageIndex":4,"items":[{"name":"후야분식","tel":"031-795-8784","addr":"경기도 하남시 풍산동 550-3번지 104호","indutype":"일반휴게음식 - 스넥","category":"restaurant"}]},{"lat":"37.54920753","long":"127.18553713","imageIndex":4,"items":[{"name":"흑산도","tel":"031-791-8884","addr":"경기도 하남시 풍산동 244-7 18","indutype":"일반휴게음식 - 일식·회집","category":"restaurant"}]}]