[{"lat":"37.205091058","long":"127.67546756","imageIndex":4,"items":[{"name":"가래울해장국","tel":"031-884-1977","addr":"경기도 여주시 점동면 사곡리 372번지","indutype":"일반휴게음식 - 일반한식","category":"restaurant"},{"name":"산티아고가는길","tel":"031-884-1977","addr":"경기도 여주시 점동면 사곡리 372번지","indutype":"일반휴게음식 - 일반한식","category":"restaurant"}]},{"lat":"37.205534135","long":"127.67518988","imageIndex":4,"items":[{"name":"동원통종닭","tel":"031-881-5211","addr":"경기도 여주시 점동면 사곡리 371번지 1층","indutype":"일반휴게음식 - 일반한식","category":"restaurant"},{"name":"옛맛시골집","tel":"031-884-9767","addr":"경기도 여주시 점동면 사곡리 371번지","indutype":"일반휴게음식 - 일반한식","category":"restaurant"}]},{"lat":"37.202983962","long":"127.683131","imageIndex":4,"items":[{"name":"명주한정식","tel":"031-884-6177","addr":"경기도 여주시 점동면 사곡리 165-5번지","indutype":"일반휴게음식 - 일반한식","category":"restaurant"}]},{"lat":"37.201338431","long":"127.69499962","imageIndex":4,"items":[{"name":"소나무집바람난오리","tel":"031-883-5293","addr":"경기도 여주시 점동면 사곡리 85-4번지","indutype":"일반휴게음식 - 일반한식","category":"restaurant"}]},{"lat":"37.205225795","long":"127.67235977","imageIndex":4,"items":[{"name":"장터골","tel":"031-884-3385","addr":"경기도 여주시 점동면 사곡리 356-1번지","indutype":"일반휴게음식 - 일반한식","category":"restaurant"}]},{"lat":"37.203814507","long":"127.68127985","imageIndex":4,"items":[{"name":"한우만세","tel":"031-884-7050","addr":"경기도 여주시 점동면 사곡리 286-11번지","indutype":"일반휴게음식 - 일반한식","category":"restaurant"}]}]