[{"lat":"37.252523217","long":"127.10310999","imageIndex":17,"items":[{"name":"(주)기흥장례식장","tel":"031-275-4444","addr":"경기도 용인시 기흥구 하갈동 163번지","indutype":"용역 서비스 - 가례서비스업","category":"other"},{"name":"만다라꽃화원","tel":"031-283-4411","addr":"경기도 용인시 기흥구 하갈동 163번지","indutype":"문화.취미 - 화원","category":"other"}]},{"lat":"37.255119666","long":"127.08983491","imageIndex":17,"items":[{"name":"(주)디엔","tel":"070-4139-3060","addr":"경기도 용인시 기흥구 하갈동 631번지 청명호수마을신안인스빌1단지","indutype":"레져용품 - 스포츠·레져용품","category":"other"},{"name":"플로리스트플라워","tel":"031-247-5344","addr":"경기도 용인시 기흥구 하갈동 631번지 청명호수마을신안인스빌1단지","indutype":"회원제형태 - 기타4","category":"other"}]},{"lat":"37.249349048","long":"127.08274994","imageIndex":17,"items":[{"name":"(주)에스에스 엠","tel":"031-208-8880","addr":"경기도 용인시 기흥구 하갈동 490","indutype":"회원제형태 - 레져업소","category":"other"},{"name":"씨유노블카운티점","tel":"031-208-8660","addr":"경기도 용인시 기흥구 하갈동 490","indutype":"유통업 영리 - 편 의 점","category":"other"},{"name":"주식회사 삼성토탈웨딩","tel":"031-208-8605","addr":"경기도 용인시 기흥구 하갈동 490 생활문화센터1층","indutype":"회원제형태 - 기타4","category":"other"}]},{"lat":"37.249743849","long":"127.09724524","imageIndex":17,"items":[{"name":"GS25SK행복드림구장점","tel":"","addr":"경기도 용인시 기흥구 하갈동 110-1번지","indutype":"유통업 영리 - 편 의 점","category":"other"},{"name":"GS25포항선린대1호점","tel":"","addr":"경기도 용인시 기흥구 하갈동 110-1번지","indutype":"유통업 영리 - 편 의 점","category":"other"},{"name":"GS25포항선린대2호점","tel":"","addr":"경기도 용인시 기흥구 하갈동 110-1번지","indutype":"유통업 영리 - 편 의 점","category":"other"},{"name":"씨유대한항공큐브에스점","tel":"02-1577-8007","addr":"경기도 용인시 기흥구 하갈동 110-1번지","indutype":"유통업 영리 - 편 의 점","category":"other"},{"name":"씨유블랙스톤벨포레점","tel":"02-1577-8007","addr":"경기도 용인시 기흥구 하갈동 110-1번지","indutype":"유통업 영리 - 편 의 점","category":"other"},{"name":"씨유아산유성기업매점점","tel":"02-1577-8007","addr":"경기도 용인시 기흥구 하갈동 110-1번지","indutype":"유통업 영리 - 편 의 점","category":"other"},{"name":"씨유여수디아크점","tel":"080-080-3663","addr":"경기도 용인시 기흥구 하갈동 110-1번지","indutype":"유통업 영리 - 편 의 점","category":"other"},{"name":"씨유울산큐로점","tel":"02-1577-8007","addr":"경기도 용인시 기흥구 하갈동 110-1번지","indutype":"유통업 영리 - 편 의 점","category":"other"}]},{"lat":"37.249939434","long":"127.08888217","imageIndex":17,"items":[{"name":"경희골프용품점","tel":"031-202-2313","addr":"경기도 용인시 기흥구 하갈동 456-4번지 지하1층","indutype":"레져용품 - 골프용품 전문점","category":"other"}]},{"lat":"37.249543538","long":"127.09982611","imageIndex":17,"items":[{"name":"굿배스","tel":"031-281-1064","addr":"경기도 용인시 기흥구 하갈동 87번지","indutype":"레져용품 - 스포츠·레져용품","category":"other"},{"name":"피싱마트","tel":"031-285-9546","addr":"경기도 용인시 기흥구 하갈동 87번지","indutype":"레져용품 - 스포츠·레져용품","category":"other"}]},{"lat":"37.251155051","long":"127.10144","imageIndex":17,"items":[{"name":"대한불교조계종대덕사","tel":"031-283-3656","addr":"경기도 용인시 기흥구 하갈동 156-11번지","indutype":"기타 - 비영리/대상","category":"other"}]},{"lat":"37.25646646","long":"127.09608131","imageIndex":17,"items":[{"name":"두성산업","tel":"031-284-5962","addr":"경기도 용인시 기흥구 하갈동 219-8번지","indutype":"기타 - 기타 전문점","category":"other"},{"name":"이마트24 하갈점","tel":"031-282-7417","addr":"경기도 용인시 기흥구 하갈동 219-8번지","indutype":"유통업 영리 - 편 의 점","category":"other"}]},{"lat":"37.250183832","long":"127.087327","imageIndex":17,"items":[{"name":"드림통상영통점","tel":"031-205-0111","addr":"경기도 용인시 기흥구 하갈동 477-1번지 LaKeGolf 1동","indutype":"레져용품 - 골프용품 전문점","category":"other"},{"name":"레이크골프클럽","tel":"031-251-0808","addr":"경기도 용인시 기흥구 하갈동 477-1번지","indutype":"회원제형태 - 레져업소","category":"other"}]},{"lat":"37.257880336","long":"127.09701867","imageIndex":17,"items":[{"name":"민속농원","tel":"031-285-4080","addr":"경기도 용인시 기흥구 하갈동 261-23번지","indutype":"문화.취미 - 화원","category":"other"}]},{"lat":"37.254884105","long":"127.10288768","imageIndex":17,"items":[{"name":"백암천막산업","tel":"031-282-9140","addr":"경기도 용인시 기흥구 하갈동 176-2번지 1층","indutype":"직물 - 카페트,커튼,천막,지물","category":"other"}]},{"lat":"37.262492493","long":"127.09841101","imageIndex":17,"items":[{"name":"삼일안전공사","tel":"031-283-3104","addr":"경기도 용인시 기흥구 하갈동 303-6번지","indutype":"건축자재 - 기타건축자재","category":"other"}]},{"lat":"37.262041733","long":"127.09871481","imageIndex":17,"items":[{"name":"세븐일레븐용인청명점","tel":"","addr":"경기도 용인시 기흥구 하갈동 279-22번지 101호","indutype":"유통업 영리 - 편 의 점","category":"other"}]},{"lat":"37.255363774","long":"127.0886967","imageIndex":17,"items":[{"name":"썬버드","tel":"031-298-8720","addr":"경기도 용인시 기흥구 하갈동 631번지 청명호수마을신안인스빌1단지","indutype":"회원제형태 - 기타4","category":"other"}]},{"lat":"37.254820198","long":"127.09268639","imageIndex":17,"items":[{"name":"씨유청명아이씨점","tel":"031-206-0091","addr":"경기도 용인시 기흥구 하갈동 389-1번지 1층 1호","indutype":"유통업 영리 - 편 의 점","category":"other"}]},{"lat":"37.255696581","long":"127.08948613","imageIndex":17,"items":[{"name":"안선영프로","tel":"02-529-9400","addr":"경기도 용인시 기흥구 하갈동 631번지 청명호수마을신안인스빌1단지","indutype":"회원제형태 - 레져업소","category":"other"},{"name":"주식회사 케어매니저유통","tel":"031-708-2621","addr":"경기도 용인시 기흥구 하갈동 631번지 청명호수마을신안인스빌1단지","indutype":"유통업 영리 - 기타유통업","category":"other"}]},{"lat":"37.255293598","long":"127.09799612","imageIndex":17,"items":[{"name":"에스엠아이","tel":"031-693-5452","addr":"경기도 용인시 기흥구 하갈동 239-2번지","indutype":"서적문구 - 과학기자재","category":"other"}]},{"lat":"37.253741884","long":"127.10038381","imageIndex":17,"items":[{"name":"우양수산","tel":"031-8041-8809","addr":"경기도 용인시 기흥구 하갈동 150 세종주택 15-201 37/","indutype":"회원제형태 - 기타1","category":"other"}]},{"lat":"37.253895291","long":"127.10010221","imageIndex":17,"items":[{"name":"윈도우페인팅","tel":"031-338-8911","addr":"경기도 용인시 기흥구 하갈동 150-13번지 세종주택 13동 301호","indutype":"용역 서비스 - 기타용역서비스","category":"other"}]},{"lat":"37.255499724","long":"127.08759219","imageIndex":17,"items":[{"name":"임박사","tel":"","addr":"경기도 용인시 기흥구 하갈동 631번지 청명호수마을신안인스빌1단지","indutype":"수리서비스 - 신변잡화수리","category":"other"}]},{"lat":"37.254298929","long":"127.09091607","imageIndex":17,"items":[{"name":"제이케이와이스포츠 기흥점","tel":"","addr":"경기도 용인시 기흥구 하갈동 403-3번지 1층","indutype":"레져용품 - 골프용품 전문점","category":"other"}]},{"lat":"37.249741387","long":"127.08863397","imageIndex":17,"items":[{"name":"제트라무역","tel":"031-286-2651","addr":"경기도 용인시 기흥구 하갈동 455-3번지 1층","indutype":"기타 - 기타 전문점","category":"other"}]},{"lat":"37.256242269","long":"127.09471709","imageIndex":17,"items":[{"name":"주식회사 블루넷","tel":"070-8809-0711","addr":"경기도 용인시 기흥구 하갈동 253-3번지","indutype":"레져용품 - 스포츠·레져용품","category":"other"}]},{"lat":"37.247246039","long":"127.09966537","imageIndex":17,"items":[{"name":"주식회사 인투이","tel":"070-7761-3790","addr":"경기도 용인시 기흥구 하갈동 78-31번지","indutype":"용역 서비스 - 소프트웨어","category":"other"}]},{"lat":"37.255507653","long":"127.08909139","imageIndex":17,"items":[{"name":"지씨엠스포츠","tel":"031-892-6700","addr":"경기도 용인시 기흥구 하갈동 631번지 청명호수마을신한인스빌휘트니스센터","indutype":"회원제형태 - 레져업소","category":"other"}]},{"lat":"37.25468441","long":"127.10461203","imageIndex":17,"items":[{"name":"지후개발","tel":"031-1111-1111","addr":"경기도 용인시 기흥구 하갈동 143-10번지 별관","indutype":"건축자재 - 부동산 분양","category":"other"}]},{"lat":"37.249128013","long":"127.08955752","imageIndex":17,"items":[{"name":"코엠ise","tel":"031-236-2479","addr":"경기도 용인시 기흥구 하갈동 440-10번지","indutype":"전기제품 - 가전제품","category":"other"}]},{"lat":"37.261493193","long":"127.09736135","imageIndex":17,"items":[{"name":"평화에스엔씨","tel":"031-282-9133","addr":"경기도 용인시 기흥구 하갈동 278-2번지","indutype":"기타 - 기계공구","category":"other"}]},{"lat":"37.258211018","long":"127.10035575","imageIndex":17,"items":[{"name":"풀빛","tel":"031-000-0000","addr":"경기도 용인시 기흥구 하갈동 207-1번지","indutype":"문화.취미 - 화원","category":"other"}]},{"lat":"37.253624213","long":"127.08948376","imageIndex":17,"items":[{"name":"퓨어골드(PUREGOLD)","tel":"","addr":"경기도 용인시 기흥구 하갈동 631번지 청명호수마을신안인스빌1단지","indutype":"신변잡화 - 귀금속","category":"other"}]},{"lat":"37.26173647","long":"127.09736166","imageIndex":17,"items":[{"name":"프랜드","tel":"031-286-1516","addr":"경기도 용인시 기흥구 하갈동 278번지 우성빌라 102호","indutype":"회원제형태 - 기타4","category":"other"}]},{"lat":"37.245849533","long":"127.09955088","imageIndex":17,"items":[{"name":"피아이씨(PIC)","tel":"031-282-2020","addr":"경기도 용인시 기흥구 하갈동 80-3번지","indutype":"신변잡화 - 기타잡화","category":"other"}]},{"lat":"37.252909236","long":"127.10477872","imageIndex":17,"items":[{"name":"현대철물열쇠","tel":"031-286-2552","addr":"경기도 용인시 기흥구 하갈동 168-2","indutype":"기타 - 기계공구","category":"other"}]},{"lat":"37.250128347","long":"127.08929942","imageIndex":17,"items":[{"name":"화이트스포츠","tel":"031-205-1872","addr":"경기도 용인시 기흥구 하갈동 460-2번지","indutype":"레져용품 - 골프용품 전문점","category":"other"}]},{"lat":"37.256336559","long":"127.0891487","imageIndex":17,"items":[{"name":"흥겹스튜디오","tel":"02-877-3921","addr":"경기도 용인시 기흥구 하갈동 631번지 청명호수마을신안인스빌1단지","indutype":"용역 서비스 - 소프트웨어","category":"other"}]},{"lat":"37.262017259","long":"127.09550194","imageIndex":17,"items":[{"name":"힐링그래스","tel":"031-412-3786","addr":"경기도 용인시 기흥구 하갈동 311-3번지","indutype":"신변잡화 - 가방","category":"other"}]}]