[{"lat":"37.32990247","long":"127.3384117","imageIndex":4,"items":[{"name":"(주)에스엠지/카페드코스타","tel":"031-763-9459","addr":"경기도 광주시 도척면 진우리 133-4","indutype":"일반휴게음식 - 서양음식","category":"restaurant"}]},{"lat":"37.32515069","long":"127.3364387","imageIndex":4,"items":[{"name":"TAMAC","tel":"031-761-9001","addr":"경기도 광주시 도척면 진우리 214-4번지 1층","indutype":"일반휴게음식 - 서양음식","category":"restaurant"},{"name":"와우 소문난 감자탕","tel":"","addr":"경기도 광주시 도척면 진우리 214-4번지 1층","indutype":"일반휴게음식 - 일반한식","category":"restaurant"},{"name":"진우리옛날통닭","tel":"031-761-5775","addr":"경기도 광주시 도척면 진우리 214-4번지","indutype":"일반휴게음식 - 스넥","category":"restaurant"},{"name":"진우수산","tel":"031-765-8886","addr":"경기도 광주시 도척면 진우리 214-4번지 1층","indutype":"일반휴게음식 - 일식·회집","category":"restaurant"}]},{"lat":"37.32215101","long":"127.3361885","imageIndex":4,"items":[{"name":"가가21","tel":"031-763-2420","addr":"경기도 광주시 도척면 진우리 473-1번지 1층","indutype":"일반휴게음식 - 일반한식","category":"restaurant"}]},{"lat":"37.32353887","long":"127.3360818","imageIndex":4,"items":[{"name":"김기석만두찐빵전문점","tel":"031-761-5011","addr":"경기도 광주시 도척면 진우리 207-1번지","indutype":"일반휴게음식 - 스넥","category":"restaurant"},{"name":"맛집또바기","tel":"031-797-7975","addr":"경기도 광주시 도척면 진우리 207-1번지 B동","indutype":"일반휴게음식 - 일반한식","category":"restaurant"},{"name":"삼대째손두부","tel":"031-798-4586","addr":"경기도 광주시 도척면 진우리 207-1번지","indutype":"일반휴게음식 - 일반한식","category":"restaurant"},{"name":"우리밥집","tel":"031-634-3722","addr":"경기도 광주시 도척면 진우리 207-1번지","indutype":"일반휴게음식 - 일반한식","category":"restaurant"},{"name":"율's커피","tel":"031-766-7557","addr":"경기도 광주시 도척면 진우리 207-1번지","indutype":"일반휴게음식 - 서양음식","category":"restaurant"},{"name":"해오름","tel":"031-797-1686","addr":"경기도 광주시 도척면 진우리 207-1번지","indutype":"일반휴게음식 - 일반한식","category":"restaurant"}]},{"lat":"37.32248508","long":"127.3359418","imageIndex":4,"items":[{"name":"냉면사랑","tel":"031-761-2524","addr":"경기도 광주시 도척면 진우리 471-7번지","indutype":"일반휴게음식 - 일반한식","category":"restaurant"},{"name":"신의정부부대찌개","tel":"031-769-3345","addr":"경기도 광주시 도척면 진우리 471-7번지","indutype":"일반휴게음식 - 일반한식","category":"restaurant"}]},{"lat":"37.32181926","long":"127.3356116","imageIndex":4,"items":[{"name":"다손백반","tel":"031-761-9853","addr":"경기도 광주시 도척면 진우리 438-2","indutype":"일반휴게음식 - 일반한식","category":"restaurant"},{"name":"취향","tel":"031-798-8820","addr":"경기도 광주시 도척면 진우리 438-2","indutype":"일반휴게음식 - 중국식","category":"restaurant"}]},{"lat":"37.33576502","long":"127.3363051","imageIndex":4,"items":[{"name":"대가","tel":"031-4336-1333","addr":"경기도 광주시 도척면 진우리 26번지 명성빌딩","indutype":"일반휴게음식 - 일반한식","category":"restaurant"}]},{"lat":"37.31590326","long":"127.3342995","imageIndex":4,"items":[{"name":"대포항 코다리찜","tel":"031-769-5135","addr":"경기도 광주시 도척면 진우리 351-3번지 1층","indutype":"일반휴게음식 - 일반한식","category":"restaurant"}]},{"lat":"37.32326756","long":"127.3364416","imageIndex":4,"items":[{"name":"동화식당","tel":"001-0000-0000","addr":"경기도 광주시 도척면 진우리 204-4번지 1층 101호","indutype":"일반휴게음식 - 일반한식","category":"restaurant"}]},{"lat":"37.33348208","long":"127.3375023","imageIndex":4,"items":[{"name":"명가","tel":"031-768-4488","addr":"경기도 광주시 도척면 진우리 65-1번지","indutype":"일반휴게음식 - 일반한식","category":"restaurant"}]},{"lat":"37.32795848","long":"127.3376358","imageIndex":4,"items":[{"name":"목향","tel":"031-764-4179","addr":"경기도 광주시 도척면 진우리 128-1번지 1층","indutype":"일반휴게음식 - 중국식","category":"restaurant"}]},{"lat":"37.32537616","long":"127.3363607","imageIndex":4,"items":[{"name":"무지개","tel":"031-761-1046","addr":"경기도 광주시 도척면 진우리 214-3번지","indutype":"일반휴게음식 - 일반한식","category":"restaurant"}]},{"lat":"37.3174018","long":"127.3332795","imageIndex":4,"items":[{"name":"바로쿡치킨","tel":"031-763-8593","addr":"경기도 광주시 도척면 진우리 1002번지 광주근형심포니아파트 1층 102호","indutype":"일반휴게음식 - 일반한식","category":"restaurant"}]},{"lat":"37.33684664","long":"127.3361631","imageIndex":4,"items":[{"name":"봉쌈보리밥","tel":"031-797-0797","addr":"경기도 광주시 도척면 진우리 21-2번지","indutype":"일반휴게음식 - 일반한식","category":"restaurant"}]},{"lat":"37.317405","long":"127.3479453","imageIndex":4,"items":[{"name":"소라실","tel":"070-4123-8236","addr":"경기도 광주시 도척면 진우리 670","indutype":"일반휴게음식 - 일반한식","category":"restaurant"}]},{"lat":"37.33606754","long":"127.3376605","imageIndex":4,"items":[{"name":"숲속의사철탕","tel":"031-767-4777","addr":"경기도 광주시 도척면 진우리 24","indutype":"일반휴게음식 - 일반한식","category":"restaurant"}]},{"lat":"37.31551535","long":"127.334467","imageIndex":4,"items":[{"name":"옛날김치찌게","tel":"031-766-2219","addr":"경기도 광주시 도척면 진우리 349번지","indutype":"일반휴게음식 - 일반한식","category":"restaurant"}]},{"lat":"37.33778844","long":"127.3344746","imageIndex":4,"items":[{"name":"오씨한마당","tel":"031-762-7347","addr":"경기도 광주시 도척면 진우리 4-1번지","indutype":"일반휴게음식 - 일반한식","category":"restaurant"}]},{"lat":"37.32254627","long":"127.3366077","imageIndex":4,"items":[{"name":"용인토종순대국","tel":"031-762-4483","addr":"경기도 광주시 도척면 진우리 478-1번지","indutype":"일반휴게음식 - 일반한식","category":"restaurant"}]},{"lat":"37.32193435","long":"127.3363342","imageIndex":4,"items":[{"name":"원대감감자탕","tel":"031-761-6010","addr":"경기도 광주시 도척면 진우리 415-4번지","indutype":"일반휴게음식 - 일반한식","category":"restaurant"},{"name":"커피하임","tel":"","addr":"경기도 광주시 도척면 진우리 415-4번지 1층","indutype":"일반휴게음식 - 서양음식","category":"restaurant"}]},{"lat":"37.32276299","long":"127.3364394","imageIndex":4,"items":[{"name":"이모네포차","tel":"031-762-5554","addr":"경기도 광주시 도척면 진우리 476-1번지 1층","indutype":"일반휴게음식 - 일반한식","category":"restaurant"}]},{"lat":"37.33393204","long":"127.3376961","imageIndex":4,"items":[{"name":"장가네","tel":"031-797-8891","addr":"경기도 광주시 도척면 진우리 66-5번지 1층","indutype":"일반휴게음식 - 일반한식","category":"restaurant"}]},{"lat":"37.32376289","long":"127.3365228","imageIndex":4,"items":[{"name":"장재울순대국","tel":"031-768-7333","addr":"경기도 광주시 도척면 진우리 205","indutype":"일반휴게음식 - 일반한식","category":"restaurant"}]},{"lat":"37.32317917","long":"127.335832","imageIndex":4,"items":[{"name":"주막한식부페","tel":"031-798-4151","addr":"경기도 광주시 도척면 진우리 470-3번지","indutype":"일반휴게음식 - 일반한식","category":"restaurant"},{"name":"향돈촌","tel":"031-762-0330","addr":"경기도 광주시 도척면 진우리 470-3번지","indutype":"일반휴게음식 - 일반한식","category":"restaurant"}]},{"lat":"37.32389928","long":"127.3360834","imageIndex":4,"items":[{"name":"쭈꾸미쭈꾸미","tel":"031-000-0000","addr":"경기도 광주시 도척면 진우리 207-11번지 B동 1층","indutype":"일반휴게음식 - 일반한식","category":"restaurant"}]},{"lat":"37.3229358","long":"127.3358648","imageIndex":4,"items":[{"name":"카페인스","tel":"031-764-9931","addr":"경기도 광주시 도척면 진우리 470-4번지 현빌딩","indutype":"일반휴게음식 - 서양음식","category":"restaurant"}]},{"lat":"37.31659662","long":"127.3344492","imageIndex":4,"items":[{"name":"토방","tel":"031-764-7874","addr":"경기도 광주시 도척면 진우리 369-1번지","indutype":"일반휴게음식 - 일반한식","category":"restaurant"}]},{"lat":"37.32687319","long":"127.3294171","imageIndex":4,"items":[{"name":"한일식당","tel":"031-762-7887","addr":"경기도 광주시 도척면 진우리 252번지","indutype":"일반휴게음식 - 일반한식","category":"restaurant"}]},{"lat":"37.32626385","long":"127.3378878","imageIndex":4,"items":[{"name":"해송","tel":"031-763-5982","addr":"경기도 광주시 도척면 진우리 161-1번지","indutype":"일반휴게음식 - 일반한식","category":"restaurant"}]},{"lat":"37.33728621","long":"127.3336374","imageIndex":4,"items":[{"name":"황우","tel":"031-761-3444","addr":"경기도 광주시 도척면 진우리 10번지","indutype":"일반휴게음식 - 일반한식","category":"restaurant"}]}]