[{"lat":"37.261104399","long":"127.02953132","imageIndex":13,"items":[{"name":"(주)금성메디텍","tel":"031-217-7197","addr":"경기도 수원시 권선구 권선동 1013-1번지 세종그랑시아오피스텔 313호","indutype":"보건위생 - 의료용품","category":"beauty"},{"name":"마멘도러스(Mamen dorus)","tel":"","addr":"경기도 수원시 권선구 권선동 1013-1번지 세종그랑시아 상가동 101호","indutype":"보건위생 - 미용원","category":"beauty"},{"name":"모블링슈왁싱","tel":"031-000-0000","addr":"경기도 수원시 권선구 권선동 1013-1번지 상가동 105-1호","indutype":"보건위생 - 피부미용실","category":"beauty"},{"name":"봄네일","tel":"070-8272-8966","addr":"경기도 수원시 권선구 권선동 1013-1번지 세종그랑시아 1층 104호","indutype":"보건위생 - 피부미용실","category":"beauty"},{"name":"채움에이비에이연구소(채움ABA연구소)","tel":"031-000-0000","addr":"경기도 수원시 권선구 권선동 1013-1번지 세종그랑시아오피스텔 1415호","indutype":"보건위생 - 기타대인서비스","category":"beauty"}]},{"lat":"37.25090342","long":"127.03483658","imageIndex":13,"items":[{"name":"1001안경콘택트","tel":"031-226-2029","addr":"경기도 수원시 권선구 권선동 1296-2번지 B01호","indutype":"보건위생 - 안경","category":"beauty"},{"name":"마음뜰아동청소년발달센터","tel":"031-225-4023","addr":"경기도 수원시 권선구 권선동 1296-2번지 502호일부","indutype":"보건위생 - 기타대인서비스","category":"beauty"},{"name":"바디클래식","tel":"031-238-7202","addr":"경기도 수원시 권선구 권선동 1296-2번지 504호","indutype":"보건위생 - 화장품","category":"beauty"},{"name":"아모레 카운셀러","tel":"031-238-7903","addr":"경기도 수원시 권선구 권선동 1296-2번지 501호","indutype":"보건위생 - 화장품","category":"beauty"},{"name":"아모레 카운셀러","tel":"031-238-7904","addr":"경기도 수원시 권선구 권선동 1296-2번지 501호","indutype":"보건위생 - 화장품","category":"beauty"},{"name":"아모레카운셀러","tel":"031-238-7903","addr":"경기도 수원시 권선구 권선동 1296-2번지 501호","indutype":"보건위생 - 화장품","category":"beauty"},{"name":"아모레카운셀러","tel":"031-238-7903","addr":"경기도 수원시 권선구 권선동 1296-2번지 501호","indutype":"보건위생 - 화장품","category":"beauty"},{"name":"아모레카운셀러","tel":"031-238-7903","addr":"경기도 수원시 권선구 권선동 1296-2번지 501호","indutype":"보건위생 - 화장품","category":"beauty"},{"name":"아모레카운셀러","tel":"031-238-7903","addr":"경기도 수원시 권선구 권선동 1296-2번지 501호","indutype":"보건위생 - 화장품","category":"beauty"},{"name":"아모레카운셀러","tel":"031-238-7903","addr":"경기도 수원시 권선구 권선동 1296-2번지 나눔프라자 501호","indutype":"보건위생 - 화장품","category":"beauty"},{"name":"아모레카운셀러","tel":"031-238-7903","addr":"경기도 수원시 권선구 권선동 1296-2번지 501호","indutype":"보건위생 - 화장품","category":"beauty"},{"name":"아모레카운셀러","tel":"031-238-7903","addr":"경기도 수원시 권선구 권선동 1296-2번지 나눔프라자 501호","indutype":"보건위생 - 화장품","category":"beauty"},{"name":"아모레카운셀러","tel":"031-238-7903","addr":"경기도 수원시 권선구 권선동 1296-2번지 나눔프라자 501호","indutype":"보건위생 - 화장품","category":"beauty"},{"name":"아모레카운셀러","tel":"031-238-7903","addr":"경기도 수원시 권선구 권선동 1296-2번지 나눔프라자 501호","indutype":"보건위생 - 화장품","category":"beauty"},{"name":"아모레카운셀러","tel":"031-238-7903","addr":"경기도 수원시 권선구 권선동 1296-2번지 나눔프라자 501호","indutype":"보건위생 - 화장품","category":"beauty"},{"name":"아모레카운셀러","tel":"031-238-7903","addr":"경기도 수원시 권선구 권선동 1296-2번지 나눔프라자 501호","indutype":"보건위생 - 화장품","category":"beauty"},{"name":"아모레카운셀러","tel":"031-238-7803","addr":"경기도 수원시 권선구 권선동 1296-2번지 501호","indutype":"보건위생 - 화장품","category":"beauty"},{"name":"아모레카운셀러","tel":"031-238-7904","addr":"경기도 수원시 권선구 권선동 1296-2번지 501호","indutype":"보건위생 - 화장품","category":"beauty"},{"name":"아모레카운셀러","tel":"031-238-7904","addr":"경기도 수원시 권선구 권선동 1296-2번지 나눔프라자 501호","indutype":"보건위생 - 화장품","category":"beauty"},{"name":"아모레카운셀러","tel":"031-238-7903","addr":"경기도 수원시 권선구 권선동 1296-2번지 501호","indutype":"보건위생 - 화장품","category":"beauty"},{"name":"아모레카운셀러","tel":"031-238-7903","addr":"경기도 수원시 권선구 권선동 1296-2번지 나눔프라자 501호","indutype":"보건위생 - 화장품","category":"beauty"},{"name":"아모레카운셀러","tel":"031-238-7903","addr":"경기도 수원시 권선구 권선동 1296-2번지 나눔프라자 501호","indutype":"보건위생 - 화장품","category":"beauty"},{"name":"아모레카운셀러","tel":"031-238-7903","addr":"경기도 수원시 권선구 권선동 1296-2번지 501호","indutype":"보건위생 - 화장품","category":"beauty"},{"name":"아모레카운셀러","tel":"031-238-7903","addr":"경기도 수원시 권선구 권선동 1296-2번지 나눔프라자 501호","indutype":"보건위생 - 화장품","category":"beauty"},{"name":"아모레카운셀러","tel":"031-238-7903","addr":"경기도 수원시 권선구 권선동 1296-2번지 나눔프라자 501호","indutype":"보건위생 - 화장품","category":"beauty"},{"name":"아모레카운셀러","tel":"031-238-7903","addr":"경기도 수원시 권선구 권선동 1296-2번지 나눔프라자 501호","indutype":"보건위생 - 화장품","category":"beauty"},{"name":"아모레카운셀러","tel":"031-238-7903","addr":"경기도 수원시 권선구 권선동 1296-2번지 나눔프라자 501호","indutype":"보건위생 - 화장품","category":"beauty"},{"name":"아모레카운셀러","tel":"031-238-7904","addr":"경기도 수원시 권선구 권선동 1296-2번지 501호","indutype":"보건위생 - 화장품","category":"beauty"},{"name":"아모레카운셀러","tel":"031-238-7904","addr":"경기도 수원시 권선구 권선동 1296-2번지 501호","indutype":"보건위생 - 화장품","category":"beauty"},{"name":"아모레카운셀러","tel":"031-298-1514","addr":"경기도 수원시 권선구 권선동 1296-2번지 나눔프라자 234동 501호","indutype":"보건위생 - 화장품","category":"beauty"},{"name":"아모레카운셀러","tel":"031-238-7904","addr":"경기도 수원시 권선구 권선동 1296-2번지 501호","indutype":"보건위생 - 화장품","category":"beauty"},{"name":"아모레카운셀러","tel":"031-238-7904","addr":"경기도 수원시 권선구 권선동 1296-2번지 나눔프라자 501호","indutype":"보건위생 - 화장품","category":"beauty"},{"name":"아모레카운셀러","tel":"031-238-7904","addr":"경기도 수원시 권선구 권선동 1296-2번지 501호","indutype":"보건위생 - 화장품","category":"beauty"},{"name":"아모레카운셀러","tel":"031-238-7903","addr":"경기도 수원시 권선구 권선동 1296-2번지 나눔프라자 501호","indutype":"보건위생 - 화장품","category":"beauty"},{"name":"아모레카운셀러","tel":"031-538-7903","addr":"경기도 수원시 권선구 권선동 1296-2번지 나눔프라자 501호","indutype":"보건위생 - 화장품","category":"beauty"},{"name":"아모레카운셀러","tel":"031-238-7903","addr":"경기도 수원시 권선구 권선동 1296-2번지 나눔프라자 501호","indutype":"보건위생 - 화장품","category":"beauty"},{"name":"아모레카운셀러","tel":"031-238-7903","addr":"경기도 수원시 권선구 권선동 1296-2번지 501호","indutype":"보건위생 - 화장품","category":"beauty"},{"name":"아모레카운셀러","tel":"031-238-7903","addr":"경기도 수원시 권선구 권선동 1296-2번지 나눔프라자 501호","indutype":"보건위생 - 화장품","category":"beauty"},{"name":"아모레카운셀러","tel":"031-238-7904","addr":"경기도 수원시 권선구 권선동 1296-2번지 501호","indutype":"보건위생 - 화장품","category":"beauty"},{"name":"아모레카운셀러","tel":"031-238-7903","addr":"경기도 수원시 권선구 권선동 1296-2번지 501호","indutype":"보건위생 - 화장품","category":"beauty"},{"name":"아모레카운셀러","tel":"031-238-7904","addr":"경기도 수원시 권선구 권선동 1296-2번지 501호","indutype":"보건위생 - 화장품","category":"beauty"},{"name":"아모레카운셀러","tel":"031-238-7904","addr":"경기도 수원시 권선구 권선동 1296-2번지 501호","indutype":"보건위생 - 화장품","category":"beauty"},{"name":"아모레카운셀러","tel":"031-238-7903","addr":"경기도 수원시 권선구 권선동 1296-2번지 나눔프라자 501호","indutype":"보건위생 - 화장품","category":"beauty"},{"name":"아모레카운셀러","tel":"031-238-7904","addr":"경기도 수원시 권선구 권선동 1296-2번지 나눔프라자 501호","indutype":"보건위생 - 화장품","category":"beauty"},{"name":"아모레카운셀러","tel":"031-238-7903","addr":"경기도 수원시 권선구 권선동 1296-2번지 나눔프라자 501호","indutype":"보건위생 - 화장품","category":"beauty"},{"name":"아모레카운셀러","tel":"031-238-7903","addr":"경기도 수원시 권선구 권선동 1296-2번지 나눔프라자 501호","indutype":"보건위생 - 화장품","category":"beauty"},{"name":"아모레카운셀러","tel":"031-238-7903","addr":"경기도 수원시 권선구 권선동 1296-2번지 나눔프라자 501호","indutype":"보건위생 - 화장품","category":"beauty"},{"name":"아모레카운셀러","tel":"031-238-7903","addr":"경기도 수원시 권선구 권선동 1296-2번지 501호","indutype":"보건위생 - 화장품","category":"beauty"},{"name":"아모레카운셀러","tel":"031-238-7903","addr":"경기도 수원시 권선구 권선동 1296-2번지 501호","indutype":"보건위생 - 화장품","category":"beauty"},{"name":"아모레카운셀러","tel":"031-238-7903","addr":"경기도 수원시 권선구 권선동 1296-2번지 501호","indutype":"보건위생 - 화장품","category":"beauty"},{"name":"아모레카운셀러","tel":"031-238-7903","addr":"경기도 수원시 권선구 권선동 1296-2번지 501호","indutype":"보건위생 - 화장품","category":"beauty"},{"name":"아모레카운셀러","tel":"031-238-7903","addr":"경기도 수원시 권선구 권선동 1296-2번지 501호","indutype":"보건위생 - 화장품","category":"beauty"},{"name":"아모레카운셀러","tel":"031-238-7903","addr":"경기도 수원시 권선구 권선동 1296-2번지 501호","indutype":"보건위생 - 화장품","category":"beauty"},{"name":"아모레카운셀러","tel":"031-238-7903","addr":"경기도 수원시 권선구 권선동 1296-2번지 나눔프라자 501호","indutype":"보건위생 - 화장품","category":"beauty"},{"name":"아모레카운셀러","tel":"031-238-7903","addr":"경기도 수원시 권선구 권선동 1296-2번지 나눔프라자 501호","indutype":"보건위생 - 화장품","category":"beauty"},{"name":"아모레카운셀러","tel":"031-238-7903","addr":"경기도 수원시 권선구 권선동 1296-2번지 501호","indutype":"보건위생 - 화장품","category":"beauty"},{"name":"아모레카운셀러","tel":"031-238-7903","addr":"경기도 수원시 권선구 권선동 1296-2번지 501호","indutype":"보건위생 - 화장품","category":"beauty"},{"name":"아모레카운셀러","tel":"031-238-7903","addr":"경기도 수원시 권선구 권선동 1296-2번지 나눔프라자 501호","indutype":"보건위생 - 화장품","category":"beauty"},{"name":"아모레카운셀러","tel":"031-238-7903","addr":"경기도 수원시 권선구 권선동 1296-2번지 501호","indutype":"보건위생 - 화장품","category":"beauty"},{"name":"아모레카운셀러","tel":"031-238-7903","addr":"경기도 수원시 권선구 권선동 1296-2번지 501호","indutype":"보건위생 - 화장품","category":"beauty"},{"name":"아모레카운셀러","tel":"031-238-7904","addr":"경기도 수원시 권선구 권선동 1296-2번지 나눔프라자 501호","indutype":"보건위생 - 화장품","category":"beauty"},{"name":"아모레카운셀러","tel":"031-238-7904","addr":"경기도 수원시 권선구 권선동 1296-2번지 나눔프라자 501호","indutype":"보건위생 - 화장품","category":"beauty"},{"name":"아모레카운셀러","tel":"031-238-7904","addr":"경기도 수원시 권선구 권선동 1296-2번지 501호","indutype":"보건위생 - 화장품","category":"beauty"},{"name":"아모레카운셀러","tel":"031-238-7903","addr":"경기도 수원시 권선구 권선동 1296-2번지 501호","indutype":"보건위생 - 화장품","category":"beauty"},{"name":"아모레카운셀러","tel":"031-238-7903","addr":"경기도 수원시 권선구 권선동 1296-2번지 501호","indutype":"보건위생 - 화장품","category":"beauty"},{"name":"아모레카운셀러","tel":"031-238-7903","addr":"경기도 수원시 권선구 권선동 1296-2번지 501호","indutype":"보건위생 - 화장품","category":"beauty"},{"name":"아모레카운셀러","tel":"031-238-7903","addr":"경기도 수원시 권선구 권선동 1296-2번지 나눔프라자 501호","indutype":"보건위생 - 화장품","category":"beauty"},{"name":"아모레카운셀러","tel":"031-238-7903","addr":"경기도 수원시 권선구 권선동 1296-2번지 501호","indutype":"보건위생 - 화장품","category":"beauty"},{"name":"아모레카운셀러","tel":"031-238-7904","addr":"경기도 수원시 권선구 권선동 1296-2번지 501호","indutype":"보건위생 - 화장품","category":"beauty"},{"name":"아모레카운셀러","tel":"031-238-7904","addr":"경기도 수원시 권선구 권선동 1296-2번지 나눔프라자 501호","indutype":"보건위생 - 화장품","category":"beauty"},{"name":"아모레카운셀러","tel":"031-228-7904","addr":"경기도 수원시 권선구 권선동 1296-2번지 501호","indutype":"보건위생 - 화장품","category":"beauty"},{"name":"아모레카운셀러","tel":"031-238-7904","addr":"경기도 수원시 권선구 권선동 1296-2번지 501호","indutype":"보건위생 - 화장품","category":"beauty"},{"name":"아모레카운셀러","tel":"031-238-7904","addr":"경기도 수원시 권선구 권선동 1296-2번지 501호","indutype":"보건위생 - 화장품","category":"beauty"},{"name":"아모레카운셀러","tel":"031-238-7904","addr":"경기도 수원시 권선구 권선동 1296-2번지 나눔프라자 501호","indutype":"보건위생 - 화장품","category":"beauty"},{"name":"아모레카운셀러","tel":"031-238-7903","addr":"경기도 수원시 권선구 권선동 1296-2번지 나눔프라자 501호","indutype":"보건위생 - 화장품","category":"beauty"},{"name":"아모레카운셀러","tel":"031-238-7904","addr":"경기도 수원시 권선구 권선동 1296-2번지 501호","indutype":"보건위생 - 화장품","category":"beauty"},{"name":"아모레카운셀러","tel":"031-238-7904","addr":"경기도 수원시 권선구 권선동 1296-2번지 나눔프라자 501호","indutype":"보건위생 - 화장품","category":"beauty"},{"name":"힐링피부사랑","tel":"","addr":"경기도 수원시 권선구 권선동 1296-2번지 203-1호","indutype":"보건위생 - 피부미용실","category":"beauty"}]},{"lat":"37.252769804","long":"127.02981017","imageIndex":13,"items":[{"name":"21세기화장품","tel":"031-235-9842","addr":"경기도 수원시 권선구 권선동 1255-5번지","indutype":"보건위생 - 화장품","category":"beauty"}]},{"lat":"37.246383317","long":"127.01997977","imageIndex":13,"items":[{"name":"M헤어","tel":"031-222-4760","addr":"경기도 수원시 권선구 권선동 1337번지 수원아이파크시티7단지 211,212","indutype":"보건위생 - 미용원","category":"beauty"},{"name":"손에 물들다","tel":"","addr":"경기도 수원시 권선구 권선동 1337번지 수원아이파크시티7단지 상가 718동 106호","indutype":"보건위생 - 피부미용실","category":"beauty"},{"name":"올가스킨","tel":"","addr":"경기도 수원시 권선구 권선동 1337번지 수원아이파크시티7단지 707동 213호","indutype":"보건위생 - 피부미용실","category":"beauty"},{"name":"천연화장품","tel":"","addr":"경기도 수원시 권선구 권선동 1337번지 수원아이파크시티7단지 713동 304호","indutype":"보건위생 - 화장품","category":"beauty"},{"name":"헤어스토리","tel":"031-202-6870","addr":"경기도 수원시 권선구 권선동 1337번지 수원아이파크시티7단지 104~105호","indutype":"보건위생 - 미용원","category":"beauty"},{"name":"헤어엣지","tel":"031-237-2001","addr":"경기도 수원시 권선구 권선동 1337번지 수원아이파크시티7단지 상가동 103호","indutype":"보건위생 - 미용원","category":"beauty"}]},{"lat":"37.25534798","long":"127.02372414","imageIndex":13,"items":[{"name":"ON HAIR(온헤어)","tel":"070-4755-4788","addr":"경기도 수원시 권선구 권선동 1061-10번지 1층","indutype":"보건위생 - 미용원","category":"beauty"}]},{"lat":"37.257068675","long":"127.02522384","imageIndex":13,"items":[{"name":"Q(큐)사랑뷰티","tel":"031-227-3377","addr":"경기도 수원시 권선구 권선동 1053-2번지 101호","indutype":"보건위생 - 미용재료","category":"beauty"}]},{"lat":"37.250326569","long":"127.03553517","imageIndex":13,"items":[{"name":"RG안경점","tel":"031-238-2970","addr":"경기도 수원시 권선구 권선동 1297-5번지 태양프라자 제 1층 108호","indutype":"보건위생 - 안경","category":"beauty"},{"name":"백옥생","tel":"031-233-9805","addr":"경기도 수원시 권선구 권선동 1297-5번지 태양프라자 503호","indutype":"보건위생 - 화장품","category":"beauty"},{"name":"블루클럽(권선3지구)","tel":"031-234-2131","addr":"경기도 수원시 권선구 권선동 1297-5번지 태양프라자 104호","indutype":"보건위생 - 미용원","category":"beauty"},{"name":"제이앤코아","tel":"031-233-2280","addr":"경기도 수원시 권선구 권선동 1297-5번지 태양프라자 110호","indutype":"보건위생 - 미용원","category":"beauty"},{"name":"제이엔코아에스","tel":"031-233-2280","addr":"경기도 수원시 권선구 권선동 1297-5번지 태양프라자 110호","indutype":"보건위생 - 화장품","category":"beauty"},{"name":"행복제작소","tel":"031-221-3887","addr":"경기도 수원시 권선구 권선동 1297-5번지 태양프라자 603호","indutype":"보건위생 - 기타대인서비스","category":"beauty"},{"name":"헤라","tel":"031-235-3256","addr":"경기도 수원시 권선구 권선동 1297-5번지 태양프라자 109호","indutype":"보건위생 - 화장품","category":"beauty"}]},{"lat":"37.25677119","long":"127.025979","imageIndex":13,"items":[{"name":"THE가꾸다","tel":"031-238-1053","addr":"경기도 수원시 권선구 권선동 1053-7번지 SK프라자 203호","indutype":"보건위생 - 피부미용실","category":"beauty"},{"name":"보떼권선점","tel":"031-225-8084","addr":"경기도 수원시 권선구 권선동 1053-7번지 SK프라자 105호","indutype":"보건위생 - 화장품","category":"beauty"},{"name":"뷰티ON","tel":"","addr":"경기도 수원시 권선구 권선동 1053-7번지 SK프라자 101호 일부","indutype":"보건위생 - 피부미용실","category":"beauty"},{"name":"피카소헤어","tel":"031-234-4631","addr":"경기도 수원시 권선구 권선동 1053-7번지 SK프라자 108호","indutype":"보건위생 - 미용원","category":"beauty"},{"name":"헤어본 (HAIR BORN)","tel":"070-8822-8467","addr":"경기도 수원시 권선구 권선동 1053-7번지 SK프라자 104호","indutype":"보건위생 - 미용원","category":"beauty"},{"name":"힐스템 수원센터","tel":"031-224-1102","addr":"경기도 수원시 권선구 권선동 1053-7번지 SK프라자 2층 203호","indutype":"보건위생 - 피부미용실","category":"beauty"}]},{"lat":"37.257076738","long":"127.02977789","imageIndex":13,"items":[{"name":"가비스킨케어","tel":"031-222-4448","addr":"경기도 수원시 권선구 권선동 1038-17번지 산호빌딩 301호","indutype":"보건위생 - 피부미용실","category":"beauty"}]},{"lat":"37.255014357","long":"127.02505416","imageIndex":13,"items":[{"name":"가위소리미용실","tel":"031-226-8145","addr":"경기도 수원시 권선구 권선동 1062-8번지","indutype":"보건위생 - 미용원","category":"beauty"},{"name":"네일리","tel":"031-8015-2437","addr":"경기도 수원시 권선구 권선동 1062-8번지","indutype":"보건위생 - 피부미용실","category":"beauty"}]},{"lat":"37.248659555","long":"127.03591767","imageIndex":13,"items":[{"name":"가인에스테틱","tel":"070-8839-6119","addr":"경기도 수원시 권선구 권선동 1311-8번지 권선종합프라자 1층 101호","indutype":"보건위생 - 피부미용실","category":"beauty"},{"name":"머리못하는집(128호점)","tel":"031-225-0128","addr":"경기도 수원시 권선구 권선동 1311-8번지 권선종합프라자","indutype":"보건위생 - 미용원","category":"beauty"},{"name":"모던헤어","tel":"031-238-7518","addr":"경기도 수원시 권선구 권선동 1311-8번지 권선프라자 112호","indutype":"보건위생 - 미용원","category":"beauty"}]},{"lat":"37.260241146","long":"127.02017454","imageIndex":13,"items":[{"name":"가희헤어갤러리","tel":"031-233-4702","addr":"경기도 수원시 권선구 권선동 975번지","indutype":"보건위생 - 미용원","category":"beauty"}]},{"lat":"37.254933204","long":"127.02536975","imageIndex":13,"items":[{"name":"감동을 전하다","tel":"","addr":"경기도 수원시 권선구 권선동 1062-5번지 1층","indutype":"보건위생 - 미용원","category":"beauty"}]},{"lat":"37.258763602","long":"127.01914839","imageIndex":13,"items":[{"name":"감이조아 태우염색방","tel":"031-221-5471","addr":"경기도 수원시 권선구 권선동 981-8번지 1층","indutype":"보건위생 - 미용원","category":"beauty"}]},{"lat":"37.253490567","long":"127.03008096","imageIndex":13,"items":[{"name":"공부잘되는독서실","tel":"031-221-0008","addr":"경기도 수원시 권선구 권선동 1250-3번지 가림프라자 4층","indutype":"보건위생 - 기타대인서비스","category":"beauty"}]},{"lat":"37.260015549","long":"127.02236142","imageIndex":13,"items":[{"name":"국제의료기","tel":"031-233-0379","addr":"경기도 수원시 권선구 권선동 967번지","indutype":"보건위생 - 의료용품","category":"beauty"}]},{"lat":"37.258401788","long":"127.02730966","imageIndex":13,"items":[{"name":"권선불대중탕","tel":"031-233-5957","addr":"경기도 수원시 권선구 권선동 1028-11번지","indutype":"보건위생 - 사우나","category":"beauty"}]},{"lat":"37.255320824","long":"127.02442301","imageIndex":13,"items":[{"name":"권선재래시장화장품","tel":"031-890-4242","addr":"경기도 수원시 권선구 권선동 1062-12번지 1층 101호","indutype":"보건위생 - 화장품","category":"beauty"}]},{"lat":"37.255825231","long":"127.0253362","imageIndex":13,"items":[{"name":"권선황토자수정사우나","tel":"031-233-6517","addr":"경기도 수원시 권선구 권선동 1050번지 권선종합상가","indutype":"보건위생 - 사우나","category":"beauty"},{"name":"마리앤 아이래쉬","tel":"","addr":"경기도 수원시 권선구 권선동 1050번지 권선종합상가 1층 20호","indutype":"보건위생 - 피부미용실","category":"beauty"},{"name":"세이헤어샵","tel":"031-309-5776","addr":"경기도 수원시 권선구 권선동 1050번지 131호 , 권선종합상가","indutype":"보건위생 - 미용원","category":"beauty"},{"name":"여자의행복","tel":"070-8202-0503","addr":"경기도 수원시 권선구 권선동 1050번지 93호 , 권선종합상가","indutype":"보건위생 - 화장품","category":"beauty"},{"name":"원네일","tel":"","addr":"경기도 수원시 권선구 권선동 1050번지 권선종합상가 1층 124호","indutype":"보건위생 - 피부미용실","category":"beauty"},{"name":"큐사랑","tel":"031-898-7508","addr":"경기도 수원시 권선구 권선동 1050번지 권선종합상가 1층 20호","indutype":"보건위생 - 미용재료","category":"beauty"},{"name":"톡","tel":"031-233-3021","addr":"경기도 수원시 권선구 권선동 1050번지 권선종합상가 118호","indutype":"보건위생 - 화장품","category":"beauty"},{"name":"행복한하루","tel":"031-241-1687","addr":"경기도 수원시 권선구 권선동 1050번지 권선 종합상가 48호","indutype":"보건위생 - 화장품","category":"beauty"},{"name":"헤어미카","tel":"031-293-0610","addr":"경기도 수원시 권선구 권선동 1050번지 권선종합상가 1층,125,126호","indutype":"보건위생 - 미용원","category":"beauty"}]},{"lat":"37.250597556","long":"127.03297667","imageIndex":13,"items":[{"name":"그린헤어라인","tel":"031-225-1642","addr":"경기도 수원시 권선구 권선동 1270번지 벽산 상가 412동 106호","indutype":"보건위생 - 미용원","category":"beauty"}]},{"lat":"37.250326501","long":"127.03578314","imageIndex":13,"items":[{"name":"김기숙헤어스케치","tel":"031-222-5698","addr":"경기도 수원시 권선구 권선동 1297-2번지 삼성프라자 201호","indutype":"보건위생 - 미용원","category":"beauty"}]},{"lat":"37.257907142","long":"127.02233833","imageIndex":13,"items":[{"name":"김단","tel":"031-226-7074","addr":"경기도 수원시 권선구 권선동 989-4번지 102호","indutype":"보건위생 - 미용재료","category":"beauty"}]},{"lat":"37.257015597","long":"127.01919311","imageIndex":13,"items":[{"name":"까뮈헤어아트","tel":"03-1235-5557","addr":"경기도 수원시 권선구 권선동 1000-5번지","indutype":"보건위생 - 미용원","category":"beauty"}]},{"lat":"37.25138012","long":"127.03783501","imageIndex":13,"items":[{"name":"까미유헤어&에스테틱","tel":"031-236-7664","addr":"경기도 수원시 권선구 권선동 1286-9번지 뉴빌","indutype":"보건위생 - 미용원","category":"beauty"}]},{"lat":"37.260986899","long":"127.03110949","imageIndex":13,"items":[{"name":"꿀화장품","tel":"031--265--8551","addr":"경기도 수원시 권선구 권선동 안동빌딩 2층 포에버의원 내","indutype":"보건위생 - 화장품","category":"beauty"}]},{"lat":"37.250686471","long":"127.03733875","imageIndex":13,"items":[{"name":"나경헤어","tel":"031-222-7717","addr":"경기도 수원시 권선구 권선동 1291-4번지 1층 3호","indutype":"보건위생 - 미용원","category":"beauty"}]},{"lat":"37.255041402","long":"127.02497526","imageIndex":13,"items":[{"name":"나수연미용실","tel":"031-237-5982","addr":"경기도 수원시 권선구 권선동 1062-9번지","indutype":"보건위생 - 미용원","category":"beauty"}]},{"lat":"37.250050074","long":"127.0228097","imageIndex":13,"items":[{"name":"나이스헤어클럽","tel":"031-235-8256","addr":"경기도 수원시 권선구 권선동 1192번지 효림트윈타워 104호","indutype":"보건위생 - 미용원","category":"beauty"},{"name":"토리헤어 (수원터미널점)","tel":"031-226-6764","addr":"경기도 수원시 권선구 권선동 1192번지 효림트윈타워 201호","indutype":"보건위생 - 미용원","category":"beauty"}]},{"lat":"37.249878887","long":"127.0227533","imageIndex":13,"items":[{"name":"내맘엔심리상담(수원점)","tel":"031-239-7800","addr":"경기도 수원시 권선구 권선동 1192-1번지 효림트윈타워 401호","indutype":"보건위생 - 기타대인서비스","category":"beauty"},{"name":"수와미테라피&스파","tel":"02-1111-1111","addr":"경기도 수원시 권선구 권선동 1192-1번지 효림트윈타워 5층 502호","indutype":"보건위생 - 피부미용실","category":"beauty"}]},{"lat":"37.252129937","long":"127.03039607","imageIndex":13,"items":[{"name":"네일#가영","tel":"070-4388-9311","addr":"경기도 수원시 권선구 권선동 1258-7번지 1층","indutype":"보건위생 - 피부미용실","category":"beauty"}]},{"lat":"37.26101507","long":"127.02583375","imageIndex":13,"items":[{"name":"네일가든","tel":"070-4108-0468","addr":"경기도 수원시 권선구 권선동 1011-14번지 올림픽공원대우미래사랑 102호","indutype":"보건위생 - 피부미용실","category":"beauty"}]},{"lat":"37.252463484","long":"127.02967481","imageIndex":13,"items":[{"name":"네일바이미","tel":"031-897-6692","addr":"경기도 수원시 권선구 권선동 1259-5번지 1층 102호","indutype":"보건위생 - 피부미용실","category":"beauty"}]},{"lat":"37.260680581","long":"127.0309741","imageIndex":13,"items":[{"name":"네일아이","tel":"031-223-4484","addr":"경기도 수원시 권선구 권선동 1023-2번지 이오스오피스텔","indutype":"보건위생 - 화장품","category":"beauty"},{"name":"멤버쉽홀딩스카운실","tel":"070-4063-2818","addr":"경기도 수원시 권선구 권선동 1023-2번지 이오스오피스텔 408호","indutype":"보건위생 - 기타대인서비스","category":"beauty"},{"name":"아이통곡모유육아상담실","tel":"031-239-3115","addr":"경기도 수원시 권선구 권선동 1023-2번지 이오스오피스텔 512호","indutype":"보건위생 - 기타대인서비스","category":"beauty"},{"name":"이오스헤어","tel":"031-224-0355","addr":"경기도 수원시 권선구 권선동 1023-2번지 이오스오피스텔 203호","indutype":"보건위생 - 미용원","category":"beauty"},{"name":"헬프","tel":"070-8279-1870","addr":"경기도 수원시 권선구 권선동 1023-2번지 이오스오피스텔 1011호","indutype":"보건위생 - 화장품","category":"beauty"}]},{"lat":"37.250966273","long":"127.03563689","imageIndex":13,"items":[{"name":"네일엔젤","tel":"031-235-3540","addr":"경기도 수원시 권선구 권선동 1295-4번지 101호","indutype":"보건위생 - 피부미용실","category":"beauty"}]},{"lat":"37.246660754","long":"127.03005596","imageIndex":13,"items":[{"name":"누블리","tel":"031-222-8907","addr":"경기도 수원시 권선구 권선동 1364번지 수원아이파크시티8단지 상가 800동 218호","indutype":"보건위생 - 피부미용실","category":"beauty"},{"name":"눈썹방","tel":"","addr":"경기도 수원시 권선구 권선동 1364번지 수원아이파크시티5차 상가 800동 160호","indutype":"보건위생 - 미용원","category":"beauty"},{"name":"도담네일","tel":"031-225-8844","addr":"경기도 수원시 권선구 권선동 1364번지 수원아이파크시티8단지 1층 140호","indutype":"보건위생 - 피부미용실","category":"beauty"},{"name":"레드벨","tel":"031-000-0000","addr":"경기도 수원시 권선구 권선동 1364번지 수원아이파크시티8단지 2층 220호","indutype":"보건위생 - 미용원","category":"beauty"},{"name":"르씨엘(LECIEL)","tel":"031-232-1012","addr":"경기도 수원시 권선구 권선동 1364번지 권선동수원아이파크시티 800동 227호","indutype":"보건위생 - 피부미용실","category":"beauty"},{"name":"수아브헤어","tel":"031-273-7708","addr":"경기도 수원시 권선구 권선동 1364번지 수원아이파크시티8단지 1층 135호","indutype":"보건위생 - 미용원","category":"beauty"},{"name":"씬스네일","tel":"031-239-8259","addr":"경기도 수원시 권선구 권선동 1364번지 수원아이파크시티8단지 800동 125호","indutype":"보건위생 - 피부미용실","category":"beauty"},{"name":"아르보 (arvo)","tel":"02-1111-1111","addr":"경기도 수원시 권선구 권선동 1364번지 수원아이파크시티8단지 1층 161호","indutype":"보건위생 - 미용원","category":"beauty"},{"name":"여기. 미장원 by H","tel":"031-223-4284","addr":"경기도 수원시 권선구 권선동 1364번지 수원아이파크시티8단지 상가동 137호","indutype":"보건위생 - 미용원","category":"beauty"},{"name":"오늘.예쁨 뷰티샵","tel":"","addr":"경기도 수원시 권선구 권선동 1364번지 수원아이파크시티8단지 상가 126호","indutype":"보건위생 - 피부미용실","category":"beauty"},{"name":"제이제이네일","tel":"031-223-5214","addr":"경기도 수원시 권선구 권선동 1364번지 수원아이파크시티8단지 상가동 205호","indutype":"보건위생 - 피부미용실","category":"beauty"},{"name":"질경이와함께하는조은염색","tel":"","addr":"경기도 수원시 권선구 권선동 1364번지 수원아이파크시티8단지 2층 228호","indutype":"보건위생 - 미용원","category":"beauty"},{"name":"체리헤어","tel":"031-8013-1592","addr":"경기도 수원시 권선구 권선동 1364번지 수원아이파크시티9단지 1층 119호","indutype":"보건위생 - 미용원","category":"beauty"},{"name":"플라노 (PLANO)안경원","tel":"031-233-1001","addr":"경기도 수원시 권선구 권선동 1364번지 수원아이파크시티8단지 상가동 114호","indutype":"보건위생 - 안경","category":"beauty"},{"name":"헤어살롱봄","tel":"031-233-5234","addr":"경기도 수원시 권선구 권선동 1364번지 수원아이파크시티 800동 106호","indutype":"보건위생 - 미용원","category":"beauty"},{"name":"화이트 속눈썹","tel":"","addr":"경기도 수원시 권선구 권선동 1364번지 수원아이파크시티8단지 150호","indutype":"보건위생 - 미용원","category":"beauty"}]},{"lat":"37.259376425","long":"127.01822416","imageIndex":13,"items":[{"name":"뉴가위소리미용실","tel":"031-221-6063","addr":"경기도 수원시 권선구 권선동 979-6번지","indutype":"보건위생 - 미용원","category":"beauty"}]},{"lat":"37.255104396","long":"127.02539234","imageIndex":13,"items":[{"name":"뉴한독안경","tel":"031-232-8885","addr":"경기도 수원시 권선구 권선동 1062-16번지","indutype":"보건위생 - 안경","category":"beauty"}]},{"lat":"37.256906384","long":"127.02577614","imageIndex":13,"items":[{"name":"뉴현미용실","tel":"031-239-5102","addr":"경기도 수원시 권선구 권선동 1053-6번지","indutype":"보건위생 - 미용원","category":"beauty"}]},{"lat":"37.250686695","long":"127.03656102","imageIndex":13,"items":[{"name":"늘봄처럼","tel":"031-225-0501","addr":"경기도 수원시 권선구 권선동 1291-9번지 102호","indutype":"보건위생 - 피부미용실","category":"beauty"}]},{"lat":"37.252986317","long":"127.02861544","imageIndex":13,"items":[{"name":"다본안경(권선)","tel":"031-232-8588","addr":"경기도 수원시 권선구 권선동 1254-2번지 1층","indutype":"보건위생 - 안경","category":"beauty"}]},{"lat":"37.251848532","long":"127.03825228","imageIndex":13,"items":[{"name":"다올헤어","tel":"031-221-7923","addr":"경기도 수원시 권선구 권선동 1283-13번지 1층","indutype":"보건위생 - 미용원","category":"beauty"}]},{"lat":"37.251992798","long":"127.0379142","imageIndex":13,"items":[{"name":"달달뷰티.왁싱","tel":"070-7748-2902","addr":"경기도 수원시 권선구 권선동 1283-11번지 102호","indutype":"보건위생 - 피부미용실","category":"beauty"}]},{"lat":"37.257104741","long":"127.02508859","imageIndex":13,"items":[{"name":"더끌림헤어(The 끌림hair)","tel":"031-224-3588","addr":"경기도 수원시 권선구 권선동 1053-1번지 101호","indutype":"보건위생 - 미용원","category":"beauty"}]},{"lat":"37.258573114","long":"127.02666718","imageIndex":13,"items":[{"name":"더네일","tel":"","addr":"경기도 수원시 권선구 권선동 1029-4번지 1층","indutype":"보건위생 - 피부미용실","category":"beauty"},{"name":"스토리헤어아트","tel":"031-221-4621","addr":"경기도 수원시 권선구 권선동 1029-4번지","indutype":"보건위생 - 미용원","category":"beauty"},{"name":"오휘","tel":"","addr":"경기도 수원시 권선구 권선동 1029-4번지 2층","indutype":"보건위생 - 화장품","category":"beauty"},{"name":"오휘","tel":"","addr":"경기도 수원시 권선구 권선동 1029-4번지 2층","indutype":"보건위생 - 화장품","category":"beauty"},{"name":"오휘 표미순","tel":"031-216-4500","addr":"경기도 수원시 권선구 권선동 1029-4번지","indutype":"보건위생 - 화장품","category":"beauty"},{"name":"오휘(이명화)","tel":"","addr":"경기도 수원시 권선구 권선동 1029-4번지 2층","indutype":"보건위생 - 화장품","category":"beauty"},{"name":"오휘나선미","tel":"031-216-4500","addr":"경기도 수원시 권선구 권선동 1029-4번지 2층","indutype":"보건위생 - 화장품","category":"beauty"},{"name":"오휘수원대한점","tel":"031-216-4500","addr":"경기도 수원시 권선구 권선동 1029-4,2층1","indutype":"보건위생 - 화장품","category":"beauty"},{"name":"오휘컨설턴트","tel":"031-216-4500","addr":"경기도 수원시 권선구 권선동 1029-4,2층 1","indutype":"보건위생 - 화장품","category":"beauty"},{"name":"오휘컨설턴트","tel":"031-216-4500","addr":"경기도 수원시 권선구 권선동 1029-4번지 2층","indutype":"보건위생 - 화장품","category":"beauty"},{"name":"오휘컨설턴트","tel":"031-216-4500","addr":"경기도 수원시 권선구 권선동 1029-4번지 2층 1호","indutype":"보건위생 - 화장품","category":"beauty"},{"name":"오휘컨설턴트","tel":"031-216-4500","addr":"경기도 수원시 권선구 권선동 1029-4번지 2층 1호","indutype":"보건위생 - 화장품","category":"beauty"},{"name":"오휘컨설턴트","tel":"031-216-4500","addr":"경기도 수원시 권선구 권선동 1029-4번지 2층 1호","indutype":"보건위생 - 화장품","category":"beauty"},{"name":"오휘컨설턴트","tel":"031-216-4500","addr":"경기도 수원시 권선구 권선동 1029-4번지 2층 1호","indutype":"보건위생 - 화장품","category":"beauty"},{"name":"오휘컨설턴트","tel":"031-216-4500","addr":"경기도 수원시 권선구 권선동 1029-4번지","indutype":"보건위생 - 화장품","category":"beauty"},{"name":"오휘컨설턴트","tel":"031-216-4500","addr":"경기도 수원시 권선구 권선동 1029-4번지 2층 1호","indutype":"보건위생 - 화장품","category":"beauty"},{"name":"힐더헤나","tel":"","addr":"경기도 수원시 권선구 권선동 1029-4번지 302호","indutype":"보건위생 - 미용원","category":"beauty"}]},{"lat":"37.260932968","long":"127.03055709","imageIndex":13,"items":[{"name":"더레이디","tel":"070-7629-7204","addr":"경기도 수원시 권선구 권선동 1014-2번지 한성빌딩 203호","indutype":"보건위생 - 미용재료","category":"beauty"},{"name":"휴","tel":"031-221-4702","addr":"경기도 수원시 권선구 권선동 1014-2번지 한성빌딩 2층 2호","indutype":"보건위생 - 화장품","category":"beauty"}]},{"lat":"37.255933216","long":"127.02605765","imageIndex":13,"items":[{"name":"더맨","tel":"031-234-8686","addr":"경기도 수원시 권선구 권선동 1048번지 세륜빌딩 1층","indutype":"보건위생 - 미용원","category":"beauty"},{"name":"승리상사","tel":"031-235-6607","addr":"경기도 수원시 권선구 권선동 1048번지 인륜빌딩 102호","indutype":"보건위생 - 미용재료","category":"beauty"}]},{"lat":"37.255653691","long":"127.02708333","imageIndex":13,"items":[{"name":"더샵스킨앤바디","tel":"","addr":"경기도 수원시 권선구 권선동 1048-17번지 1층 105호","indutype":"보건위생 - 화장품","category":"beauty"},{"name":"자유미용실","tel":"031-222-6762","addr":"경기도 수원시 권선구 권선동 1048-17번지","indutype":"보건위생 - 미용원","category":"beauty"}]},{"lat":"37.260771048","long":"127.02939592","imageIndex":13,"items":[{"name":"더티샵(DIRTY#)","tel":"","addr":"경기도 수원시 권선구 권선동 1013-3번지 나동 2층","indutype":"보건위생 - 화장품","category":"beauty"},{"name":"탑클래스헤어","tel":"031-235-8881","addr":"경기도 수원시 권선구 권선동 1013-3번지 나동 103호","indutype":"보건위생 - 미용원","category":"beauty"}]},{"lat":"37.261572896","long":"127.02970058","imageIndex":13,"items":[{"name":"도도왁싱","tel":"070-7626-8622","addr":"경기도 수원시 권선구 권선동 1013번지 지오베르크 1층 109-1호","indutype":"보건위생 - 피부미용실","category":"beauty"},{"name":"마음지기 심리상담센터","tel":"031-304-4985","addr":"경기도 수원시 권선구 권선동 1013번지 지오베르크디아뜨 1111호","indutype":"보건위생 - 기타대인서비스","category":"beauty"},{"name":"스타일왁싱","tel":"031-224-7889","addr":"경기도 수원시 권선구 권선동 1013번지 지오베르크 607호","indutype":"보건위생 - 미용재료","category":"beauty"}]},{"lat":"37.254184737","long":"127.02839041","imageIndex":13,"items":[{"name":"동안스킨#","tel":"031-225-7709","addr":"경기도 수원시 권선구 권선동 1065-4번지 1층","indutype":"보건위생 - 화장품","category":"beauty"},{"name":"일로헤어(lllo hair)","tel":"","addr":"경기도 수원시 권선구 권선동 1065-4번지 1층","indutype":"보건위생 - 미용원","category":"beauty"}]},{"lat":"37.261015865","long":"127.02127947","imageIndex":13,"items":[{"name":"드림(콜)센타","tel":"031-225-8886","addr":"경기도 수원시 권선구 권선동 964-13번지 1415동 301호","indutype":"보건위생 - 기타대인서비스","category":"beauty"}]},{"lat":"37.256679614","long":"127.03258456","imageIndex":13,"items":[{"name":"디오나맘","tel":"","addr":"경기도 수원시 권선구 권선동 1158-2번지 2층","indutype":"보건위생 - 기타대인서비스","category":"beauty"}]},{"lat":"37.252851631","long":"127.02636105","imageIndex":13,"items":[{"name":"디테일헤어","tel":"031-235-7530","addr":"경기도 수원시 권선구 권선동 1330번지 권선자이이편한세상 1동 110호","indutype":"보건위생 - 미용원","category":"beauty"},{"name":"레삐","tel":"031-232-7585","addr":"경기도 수원시 권선구 권선동 1330번지 권선자이이편한세상 108호","indutype":"보건위생 - 미용원","category":"beauty"},{"name":"미소예인스킨","tel":"031-225-5001","addr":"경기도 수원시 권선구 권선동 1330번지 권선자이이편한세상 B동 204호","indutype":"보건위생 - 화장품","category":"beauty"},{"name":"봄봄헤어","tel":"031-232-0878","addr":"경기도 수원시 권선구 권선동 1330번지 권선자이이편한세상 상가 1동 1층 119호","indutype":"보건위생 - 미용원","category":"beauty"},{"name":"수네일앤뷰티","tel":"031-223-4800","addr":"경기도 수원시 권선구 권선동 1330번지 권선자이e-편한세상상가2동B208호","indutype":"보건위생 - 피부미용실","category":"beauty"},{"name":"안경창고 싸군 권선점","tel":"031-224-5006","addr":"경기도 수원시 권선구 권선동 1330번지 권선자이이편한세상 1동 107호 상가","indutype":"보건위생 - 안경","category":"beauty"},{"name":"야마노헤어","tel":"031-222-2020","addr":"경기도 수원시 권선구 권선동 1330번지 권선자이이편한세상 상가2동 B-110호","indutype":"보건위생 - 미용원","category":"beauty"},{"name":"테마헤어","tel":"","addr":"경기도 수원시 권선구 권선동 1330번지 권선자이이편한세상 1층 A113호","indutype":"보건위생 - 미용원","category":"beauty"},{"name":"헤어프랜드(권선점)","tel":"031-234-1368","addr":"경기도 수원시 권선구 권선동 1330번지 권선자이이편한세상 B108호 상가 2","indutype":"보건위생 - 미용원","category":"beauty"}]},{"lat":"37.260320571","long":"127.02922667","imageIndex":13,"items":[{"name":"라렌뷰티 붙임머리 전문","tel":"031-225-0999","addr":"경기도 수원시 권선구 권선동 1013-4번지 한라비발디파크 111호,112호","indutype":"보건위생 - 미용재료","category":"beauty"},{"name":"빠이오수원점","tel":"031-898-5199","addr":"경기도 수원시 권선구 권선동 한라비발디파크 1005호","indutype":"보건위생 - 화장품","category":"beauty"},{"name":"주네일","tel":"031-232-9225","addr":"경기도 수원시 권선구 권선동 1013-4번지 한라비발디파크 105호","indutype":"보건위생 - 피부미용실","category":"beauty"}]},{"lat":"37.255076512","long":"127.02950665","imageIndex":13,"items":[{"name":"라이프앤진 뷰티마스터","tel":"070-4649-1101","addr":"경기도 수원시 권선구 권선동 1041-4번지 탑동서수상가 2층 202호","indutype":"보건위생 - 화장품","category":"beauty"},{"name":"알로미미","tel":"031-234-5234","addr":"경기도 수원시 권선구 권선동 1041-4번지 2층","indutype":"보건위생 - 피부미용실","category":"beauty"},{"name":"케이지씨 라이프앤진 뷰티마스터","tel":"031-296-0398","addr":"경기도 수원시 권선구 권선동 1041-4번지 탑동서수상가 202호","indutype":"보건위생 - 화장품","category":"beauty"},{"name":"케이지씨라이프앤진 수원시청대리점","tel":"070-4649-1101","addr":"경기도 수원시 권선구 권선동 1041-4번지 탑동수서 상가 2층","indutype":"보건위생 - 화장품","category":"beauty"}]},{"lat":"37.257239998","long":"127.02453628","imageIndex":13,"items":[{"name":"러블리","tel":"031-221-8565","addr":"경기도 수원시 권선구 권선동 1054-11번지 1층","indutype":"보건위생 - 화장품","category":"beauty"},{"name":"러블리","tel":"031-221-8565","addr":"경기도 수원시 권선구 권선동 1054-11번지 1층 왼쪽상가","indutype":"보건위생 - 화장품","category":"beauty"}]},{"lat":"37.254076468","long":"127.02905542","imageIndex":13,"items":[{"name":"런앤런헤어샵","tel":"031-223-3811","addr":"경기도 수원시 권선구 권선동 1066번지","indutype":"보건위생 - 미용원","category":"beauty"}]},{"lat":"37.259853629","long":"127.02067045","imageIndex":13,"items":[{"name":"레드홀릭헤어","tel":"031-234-8202","addr":"경기도 수원시 권선구 권선동 974-7번지 1층","indutype":"보건위생 - 미용원","category":"beauty"}]},{"lat":"37.251013916","long":"127.02430907","imageIndex":13,"items":[{"name":"렛츠헤어","tel":"070-7618-0033","addr":"경기도 수원시 권선구 권선동 1194-4번지","indutype":"보건위생 - 미용원","category":"beauty"}]},{"lat":"37.245048062","long":"127.02936787","imageIndex":13,"items":[{"name":"루시아헤어","tel":"031-232-3060","addr":"경기도 수원시 권선구 권선동 1361번지 수원아이파크시티2단지 1층 110호","indutype":"보건위생 - 미용원","category":"beauty"},{"name":"헤어샬롱숲","tel":"031-222-4049","addr":"경기도 수원시 권선구 권선동 1361번지 수원아이파크시티2단지 상가 1동 107호","indutype":"보건위생 - 미용원","category":"beauty"}]},{"lat":"37.258934858","long":"127.01869752","imageIndex":13,"items":[{"name":"리나헤어","tel":"031-123-4567","addr":"경기도 수원시 권선구 권선동 980-5번지 101호","indutype":"보건위생 - 미용원","category":"beauty"}]},{"lat":"37.25642943","long":"127.02247322","imageIndex":13,"items":[{"name":"리뷰티왁싱","tel":"","addr":"경기도 수원시 권선구 권선동 1004번지 3층 301호","indutype":"보건위생 - 피부미용실","category":"beauty"}]},{"lat":"37.256518043","long":"127.03002568","imageIndex":13,"items":[{"name":"리안 권선동점","tel":"031-236-0303","addr":"경기도 수원시 권선구 권선동 1039-14번지 2층","indutype":"보건위생 - 미용원","category":"beauty"}]},{"lat":"37.250020191","long":"127.03563648","imageIndex":13,"items":[{"name":"리젤스켄엔바디","tel":"070-4250-5936","addr":"경기도 수원시 권선구 권선동 1297-3번지 권선프라자 304호","indutype":"보건위생 - 화장품","category":"beauty"},{"name":"예원헤어아카데미","tel":"031-236-7772","addr":"경기도 수원시 권선구 권선동 1297-3번지 권선프라자 203호","indutype":"보건위생 - 미용원","category":"beauty"},{"name":"헤어 이노베이션","tel":"031-232-2915","addr":"경기도 수원시 권선구 권선동 1297-3번지 권선프라자 105호","indutype":"보건위생 - 미용원","category":"beauty"}]},{"lat":"37.256402081","long":"127.02431059","imageIndex":13,"items":[{"name":"머리가살롱살롱","tel":"","addr":"경기도 수원시 권선구 권선동 1056-7번지 1층 102호","indutype":"보건위생 - 미용원","category":"beauty"}]},{"lat":"37.25043726","long":"127.02428636","imageIndex":13,"items":[{"name":"머리나라미용실","tel":"031-224-4438","addr":"경기도 수원시 권선구 권선동 1197-3번지","indutype":"보건위생 - 미용원","category":"beauty"}]},{"lat":"37.261268082","long":"127.02173045","imageIndex":13,"items":[{"name":"머리만들기","tel":"031-233-3799","addr":"경기도 수원시 권선구 권선동 956-7번지","indutype":"보건위생 - 미용원","category":"beauty"}]},{"lat":"37.241993859","long":"127.02800312","imageIndex":13,"items":[{"name":"머리못하는집","tel":"031-225-3001","addr":"경기도 수원시 권선구 권선동 1357번지 수원아이파크시티4단지","indutype":"보건위생 - 미용원","category":"beauty"},{"name":"아띠헤어","tel":"031-221-7847","addr":"경기도 수원시 권선구 권선동 1357번지 수원아이파크시티4단지 상가 1동 105호","indutype":"보건위생 - 미용원","category":"beauty"}]},{"lat":"37.259322092","long":"127.02019687","imageIndex":13,"items":[{"name":"머리하는훈","tel":"","addr":"경기도 수원시 권선구 권선동 983번지 1층 2호","indutype":"보건위생 - 미용원","category":"beauty"}]},{"lat":"37.259680981","long":"127.0285839","imageIndex":13,"items":[{"name":"명품","tel":"031-223-5214","addr":"경기도 수원시 권선구 권선동 1016-2번지 2층","indutype":"보건위생 - 화장품","category":"beauty"}]},{"lat":"37.25179466","long":"127.03760977","imageIndex":13,"items":[{"name":"모아모아헤어","tel":"070-8115-3320","addr":"경기도 수원시 권선구 권선동 1286-5번지","indutype":"보건위생 - 미용원","category":"beauty"}]},{"lat":"37.260907688","long":"127.02161763","imageIndex":13,"items":[{"name":"문영미미용실","tel":"031-238-3966","addr":"경기도 수원시 권선구 권선동 963번지","indutype":"보건위생 - 미용원","category":"beauty"}]},{"lat":"37.25487866","long":"127.02778195","imageIndex":13,"items":[{"name":"미백스토리","tel":"031-215-4579","addr":"경기도 수원시 권선구 권선동 1043-15번지","indutype":"보건위생 - 화장품","category":"beauty"}]},{"lat":"37.249185134","long":"127.02250515","imageIndex":13,"items":[{"name":"미본","tel":"031-336-3530","addr":"경기도 수원시 권선구 권선동 1193-2번지 미래타운빌딩 403호","indutype":"보건위생 - 피부미용실","category":"beauty"},{"name":"비비앤뷰티","tel":"031-223-0908","addr":"경기도 수원시 권선구 권선동 1193-2번지 미래타운빌딩 501호","indutype":"보건위생 - 피부미용실","category":"beauty"},{"name":"에스포웹 (주)","tel":"031-223-7773","addr":"경기도 수원시 권선구 권선동 1193-2번지 미래타운빌딩 7층","indutype":"보건위생 - 미용재료","category":"beauty"},{"name":"오휘 신수원지사","tel":"031-234-0202","addr":"경기도 수원시 권선구 권선동 1193-2번지 미래타운빌딩 601,602,603호","indutype":"보건위생 - 화장품","category":"beauty"},{"name":"오휘 컨설턴트","tel":"031-234-0202","addr":"경기도 수원시 권선구 권선동 1193-2번지 미래타운빌딩 603호","indutype":"보건위생 - 화장품","category":"beauty"},{"name":"유니베라남수원","tel":"031-898-5001","addr":"경기도 수원시 권선구 권선동 1193-2번지 미래타운 제 4층 404호","indutype":"보건위생 - 화장품","category":"beauty"},{"name":"인스타헤어","tel":"031-237-8259","addr":"경기도 수원시 권선구 권선동 1193-2번지 미래타운빌딩 2층 202호","indutype":"보건위생 - 미용원","category":"beauty"}]},{"lat":"37.259989015","long":"127.01905847","imageIndex":13,"items":[{"name":"미쎄쓰Lee hair","tel":"","addr":"경기도 수원시 권선구 권선동 977-5번지 1층","indutype":"보건위생 - 미용원","category":"beauty"}]},{"lat":"37.255797394","long":"127.02924764","imageIndex":13,"items":[{"name":"미앤미헤어","tel":"031-221-0515","addr":"경기도 수원시 권선구 권선동 1042-16번지","indutype":"보건위생 - 미용원","category":"beauty"}]},{"lat":"37.257763397","long":"127.0195878","imageIndex":13,"items":[{"name":"미용나라","tel":"","addr":"경기도 수원시 권선구 권선동 995-7번지 2층","indutype":"보건위생 - 미용재료","category":"beauty"}]},{"lat":"37.25532052","long":"127.02603492","imageIndex":13,"items":[{"name":"미용클럽메이","tel":"031-892-9872","addr":"경기도 수원시 권선구 권선동 1049-11,102","indutype":"보건위생 - 미용원","category":"beauty"}]},{"lat":"37.257574328","long":"127.01850561","imageIndex":13,"items":[{"name":"미의창조","tel":"031-224-0223","addr":"경기도 수원시 권선구 권선동 997-16번지","indutype":"보건위생 - 미용원","category":"beauty"}]},{"lat":"37.255185132","long":"127.02719591","imageIndex":13,"items":[{"name":"미인손톱","tel":"031-233-4871","addr":"경기도 수원시 권선구 권선동 1043번지","indutype":"보건위생 - 피부미용실","category":"beauty"},{"name":"엣지네일","tel":"031-222-8422","addr":"경기도 수원시 권선구 권선동 1043번지 1층 102호","indutype":"보건위생 - 피부미용실","category":"beauty"},{"name":"엣지피부","tel":"031-238-0190","addr":"경기도 수원시 권선구 권선동 1043번지 1층 101호","indutype":"보건위생 - 피부미용실","category":"beauty"}]},{"lat":"37.259437914","long":"127.02759182","imageIndex":13,"items":[{"name":"미인아로마","tel":"02-1111-1111","addr":"경기도 수원시 권선구 권선동 1020-5번지","indutype":"보건위생 - 화장품","category":"beauty"}]},{"lat":"37.257736323","long":"127.01989215","imageIndex":13,"items":[{"name":"밀실","tel":"031-000-0000","addr":"경기도 수원시 권선구 권선동 994-18번지","indutype":"보건위생 - 화장품","category":"beauty"},{"name":"지원헤어","tel":"031-226-1089","addr":"경기도 수원시 권선구 권선동 994-18번지 1층","indutype":"보건위생 - 미용원","category":"beauty"}]},{"lat":"37.256771119","long":"127.02633972","imageIndex":13,"items":[{"name":"바디케어힐링센터","tel":"031-8001-1314","addr":"경기도 수원시 권선구 권선동 1046번지 2층","indutype":"보건위생 - 피부미용실","category":"beauty"}]},{"lat":"37.260070171","long":"127.01858503","imageIndex":13,"items":[{"name":"바비헤어","tel":"031-221-3898","addr":"경기도 수원시 권선구 권선동 978-8번지","indutype":"보건위생 - 미용원","category":"beauty"},{"name":"키위네일","tel":"031-893-4568","addr":"경기도 수원시 권선구 권선동 978-8번지","indutype":"보건위생 - 화장품","category":"beauty"}]},{"lat":"37.251938686","long":"127.03808325","imageIndex":13,"items":[{"name":"바비헤어","tel":"031-238-6069","addr":"경기도 수원시 권선구 권선동 1283-12번지 1층","indutype":"보건위생 - 미용원","category":"beauty"}]},{"lat":"37.25034773","long":"127.02083729","imageIndex":13,"items":[{"name":"박승철헤어스튜디오(NC백화점)","tel":"031-8065-3798","addr":"경기도 수원시 권선구 권선동 1189번지 4층","indutype":"보건위생 - 미용원","category":"beauty"},{"name":"벨르헤어","tel":"031-267-5700","addr":"경기도 수원시 권선구 권선동 1189번지 터미널-2307호","indutype":"보건위생 - 미용원","category":"beauty"},{"name":"아이랜드","tel":"031-267-5300","addr":"경기도 수원시 권선구 권선동 1189번지 패션아이랜드 4층","indutype":"보건위생 - 안경","category":"beauty"}]},{"lat":"37.263267925","long":"127.02433508","imageIndex":13,"items":[{"name":"박은영 동물매개치료 연구소","tel":"031-547-9513","addr":"경기도 수원시 권선구 권선동 941-3번지 원진빌딩 5층","indutype":"보건위생 - 기타대인서비스","category":"beauty"}]},{"lat":"37.252129789","long":"127.03102728","imageIndex":13,"items":[{"name":"밝은세상안경원","tel":"031-236-1001","addr":"경기도 수원시 권선구 권선동 1257-3번지","indutype":"보건위생 - 안경","category":"beauty"}]},{"lat":"37.249518497","long":"127.02261795","imageIndex":13,"items":[{"name":"밝은안경원","tel":"031-225-0540","addr":"경기도 수원시 권선구 권선동 1193번지 3층 301호","indutype":"보건위생 - 안경","category":"beauty"},{"name":"안경박사권선점","tel":"031-267-0990","addr":"경기도 수원시 권선구 권선동 1193번지 효림트위타워 1층","indutype":"보건위생 - 안경","category":"beauty"}]},{"lat":"37.252743063","long":"127.02850264","imageIndex":13,"items":[{"name":"방희옥머리사랑","tel":"031-239-2829","addr":"경기도 수원시 권선구 권선동 1260번지 1층","indutype":"보건위생 - 미용원","category":"beauty"}]},{"lat":"37.253933726","long":"127.021537","imageIndex":13,"items":[{"name":"배소영헤어갤럽","tel":"031-236-7762","addr":"경기도 수원시 권선구 권선동 1185번지 신명아 상가 108호","indutype":"보건위생 - 미용원","category":"beauty"},{"name":"표용회헤어겔러리","tel":"031-236-2325","addr":"경기도 수원시 권선구 권선동 1185번지 신명상가 108동 109호","indutype":"보건위생 - 미용원","category":"beauty"}]},{"lat":"37.256635511","long":"127.02852651","imageIndex":13,"items":[{"name":"백마사","tel":"031-239-9091","addr":"경기도 수원시 권선구 권선동 1036번지 권선SKVIEW 213동 103호","indutype":"보건위생 - 기타대인서비스","category":"beauty"}]},{"lat":"37.246352476","long":"127.03744949","imageIndex":13,"items":[{"name":"벨라헤어샵","tel":"031-234-2134","addr":"경기도 수원시 권선구 권선동 1323번지 써미트빌 상가동 2층 201,203호","indutype":"보건위생 - 미용원","category":"beauty"},{"name":"세이프존 수원권선점","tel":"031-234-3457","addr":"경기도 수원시 권선구 권선동 1323번지 권선3지구써미트빌 상가동 102호","indutype":"보건위생 - 미용원","category":"beauty"}]},{"lat":"37.248850709","long":"127.02802794","imageIndex":13,"items":[{"name":"보성헤어클리닉","tel":"031-235-9830","addr":"경기도 수원시 권선구 권선동 1265번지 보성유원 상가 102호","indutype":"보건위생 - 미용원","category":"beauty"}]},{"lat":"37.240463085","long":"127.02284099","imageIndex":13,"items":[{"name":"복지회관미용실","tel":"031-236-6120","addr":"경기도 수원시 권선구 권선동 224-1번지","indutype":"보건위생 - 미용원","category":"beauty"}]},{"lat":"37.259520414","long":"127.01953183","imageIndex":13,"items":[{"name":"뷰티","tel":"070-4231-9350","addr":"경기도 수원시 권선구 권선동 981-12번지","indutype":"보건위생 - 화장품","category":"beauty"}]},{"lat":"37.25629166","long":"127.03455705","imageIndex":13,"items":[{"name":"블링헤어","tel":"031-234-5847","addr":"경기도 수원시 권선구 권선동 1167-12번지 1층 102호","indutype":"보건위생 - 미용원","category":"beauty"}]},{"lat":"37.254182319","long":"127.03785885","imageIndex":13,"items":[{"name":"비비추헤어(권선매탄역점)","tel":"031-235-5990","addr":"경기도 수원시 권선구 권선동 1238번지 삼천리권선2차아파트 106호","indutype":"보건위생 - 미용원","category":"beauty"},{"name":"한마음미용실","tel":"031-223-6257","addr":"경기도 수원시 권선구 권선동 1238번지 삼천리권선2차 207동 208호","indutype":"보건위생 - 미용원","category":"beauty"}]},{"lat":"37.263601647","long":"127.02236234","imageIndex":13,"items":[{"name":"살롱드에스(살롱드S)","tel":"","addr":"경기도 수원시 권선구 권선동 939-22번지 1층 102호","indutype":"보건위생 - 미용원","category":"beauty"}]},{"lat":"37.25965542","long":"127.02055768","imageIndex":13,"items":[{"name":"새까치헤어타운","tel":"031-224-7270","addr":"경기도 수원시 권선구 권선동 974-5번지","indutype":"보건위생 - 미용원","category":"beauty"}]},{"lat":"37.260151257","long":"127.01864141","imageIndex":13,"items":[{"name":"세미화장품","tel":"031-238-3686","addr":"경기도 수원시 권선구 권선동 978-7번지","indutype":"보건위생 - 화장품","category":"beauty"}]},{"lat":"37.256238854","long":"127.0294507","imageIndex":13,"items":[{"name":"세실리아미용실","tel":"031-238-5025","addr":"경기도 수원시 권선구 권선동 1038-6번지","indutype":"보건위생 - 미용원","category":"beauty"}]},{"lat":"37.255291169","long":"127.03583038","imageIndex":13,"items":[{"name":"센스헤어샵","tel":"031-237-6804","addr":"경기도 수원시 권선구 권선동 1172-4번지","indutype":"보건위생 - 미용원","category":"beauty"}]},{"lat":"37.258491266","long":"127.03017293","imageIndex":13,"items":[{"name":"소녀감성","tel":"031-233-3211","addr":"경기도 수원시 권선구 권선동 1022-5번지 행복빌딩 2층","indutype":"보건위생 - 미용원","category":"beauty"}]},{"lat":"37.258015964","long":"127.0174799","imageIndex":13,"items":[{"name":"손꾸락발꾸락","tel":"031-305-5886","addr":"경기도 수원시 권선구 권선동 999-7번지","indutype":"보건위생 - 피부미용실","category":"beauty"}]},{"lat":"37.250821593","long":"127.03745153","imageIndex":13,"items":[{"name":"수가인","tel":"031-233-9555","addr":"경기도 수원시 권선구 권선동 1291-3번지 1동 102호","indutype":"보건위생 - 피부미용실","category":"beauty"},{"name":"신가위소리미용실","tel":"031-232-9788","addr":"경기도 수원시 권선구 권선동 1291-3번지 1층 4호","indutype":"보건위생 - 미용원","category":"beauty"}]},{"lat":"37.261934801","long":"127.02200117","imageIndex":13,"items":[{"name":"수빈헤어","tel":"031-223-7856","addr":"경기도 수원시 권선구 권선동 956-1번지 1층 103호","indutype":"보건위생 - 미용원","category":"beauty"}]},{"lat":"37.24721094","long":"127.02750893","imageIndex":13,"items":[{"name":"수아로킨스킨케어","tel":"031-000-0000","addr":"경기도 수원시 권선구 권선동 1362번지 수원아이파크시티9단지 E2블럭 138호","indutype":"보건위생 - 피부미용실","category":"beauty"},{"name":"오늘,네일해","tel":"","addr":"경기도 수원시 권선구 권선동 1362번지 수원아이파크시티9단지 102호","indutype":"보건위생 - 피부미용실","category":"beauty"},{"name":"이가자헤어비스(수원아이파크에비뉴점)","tel":"031-233-8322","addr":"경기도 수원시 권선구 권선동 1362번지 수원아이파크시티9단지 10층 109,11,111호","indutype":"보건위생 - 미용원","category":"beauty"}]},{"lat":"37.259853294","long":"127.02277847","imageIndex":13,"items":[{"name":"수원중앙안경원","tel":"031-221-8120","addr":"경기도 수원시 권선구 권선동 967-1번지","indutype":"보건위생 - 안경","category":"beauty"},{"name":"수원중앙안경원","tel":"031-221-8120","addr":"경기도 수원시 권선구 권선동 967-1번지 수원중앙병원 2층","indutype":"보건위생 - 의료용품","category":"beauty"}]},{"lat":"37.255906618","long":"127.0237243","imageIndex":13,"items":[{"name":"숨네일&타로","tel":"031-233-1257","addr":"경기도 수원시 권선구 권선동 1057-20번지 1층 102호","indutype":"보건위생 - 피부미용실","category":"beauty"}]},{"lat":"37.259151182","long":"127.01811139","imageIndex":13,"items":[{"name":"슈어엔벨르","tel":"031-239-0063","addr":"경기도 수원시 권선구 권선동 979-8번지 1층","indutype":"보건위생 - 미용원","category":"beauty"}]},{"lat":"37.256401906","long":"127.02525746","imageIndex":13,"items":[{"name":"스마일치과기공소","tel":"031-224-2878","addr":"경기도 수원시 권선구 권선동 1052-11번지 2층 201호","indutype":"보건위생 - 의료용품","category":"beauty"}]},{"lat":"37.258464911","long":"127.02706169","imageIndex":13,"items":[{"name":"스포츠솔루션","tel":"","addr":"경기도 수원시 권선구 권선동 1028-12번지 성광제일교회 2층 201호","indutype":"보건위생 - 의료용품","category":"beauty"}]},{"lat":"37.250740814","long":"127.03635816","imageIndex":13,"items":[{"name":"신까까머리미용실","tel":"031-267-1108","addr":"경기도 수원시 권선구 권선동 1291-10번지","indutype":"보건위생 - 미용원","category":"beauty"}]},{"lat":"37.259599971","long":"127.0282006","imageIndex":13,"items":[{"name":"신데렐라","tel":"","addr":"경기도 수원시 권선구 권선동 1016-14번지 104호","indutype":"보건위생 - 피부미용실","category":"beauty"}]},{"lat":"37.257457253","long":"127.01805468","imageIndex":13,"items":[{"name":"썬스킨","tel":"","addr":"경기도 수원시 권선구 권선동 1000-2번지 1층 101호","indutype":"보건위생 - 화장품","category":"beauty"}]},{"lat":"37.263213839","long":"127.02447035","imageIndex":13,"items":[{"name":"아다모","tel":"031-212-1255","addr":"경기도 수원시 권선구 권선동 941-4번지 타워빌딩 2층 201호","indutype":"보건위생 - 미용재료","category":"beauty"}]},{"lat":"37.259736645","long":"127.0196446","imageIndex":13,"items":[{"name":"아띠헤어","tel":"031-223-3692","addr":"경기도 수원시 권선구 권선동 976-6번지 1층","indutype":"보건위생 - 미용원","category":"beauty"}]},{"lat":"37.258159746","long":"127.02030933","imageIndex":13,"items":[{"name":"아루화코스메틱","tel":"031-222-8850","addr":"경기도 수원시 권선구 권선동 994-14번지 진성빌딩 3층","indutype":"보건위생 - 화장품","category":"beauty"}]},{"lat":"37.258348163","long":"127.02508895","imageIndex":13,"items":[{"name":"아름다운메이크업","tel":"070-8245-7519","addr":"경기도 수원시 권선구 권선동 1032-22번지 104호","indutype":"보건위생 - 화장품","category":"beauty"}]},{"lat":"37.249743742","long":"127.02269691","imageIndex":13,"items":[{"name":"아모레카운셀러","tel":"031-238-7903","addr":"경기도 수원시 권선구 권선동 1192-2번지 세일프라자 6층","indutype":"보건위생 - 화장품","category":"beauty"},{"name":"아모레카운셀러","tel":"031-238-7903","addr":"경기도 수원시 권선구 권선동 1192-2번지 세일프라자 6층","indutype":"보건위생 - 화장품","category":"beauty"},{"name":"아모레카운셀러","tel":"031-238-7903","addr":"경기도 수원시 권선구 권선동 1192-2번지 세일프라자 6층","indutype":"보건위생 - 화장품","category":"beauty"},{"name":"아모레카운셀러","tel":"031-238-7903","addr":"경기도 수원시 권선구 권선동 1192-2번지","indutype":"보건위생 - 화장품","category":"beauty"},{"name":"어울림안경원","tel":"031-222-1911","addr":"경기도 수원시 권선구 권선동 1192-2번지 세일프라자 102호","indutype":"보건위생 - 안경","category":"beauty"}]},{"lat":"37.250966553","long":"127.03461118","imageIndex":13,"items":[{"name":"아모레카운셀러","tel":"031-238-7409","addr":"경기도 수원시 권선구 권선동 1296-1,2,3,4나눔프라자501호","indutype":"보건위생 - 화장품","category":"beauty"},{"name":"아모레카운셀러","tel":"031-238-7904","addr":"경기도 수원시 권선구 권선동 1296-1 나눔프라자 501","indutype":"보건위생 - 화장품","category":"beauty"},{"name":"아모레카운셀러","tel":"031-238-7903","addr":"경기도 수원시 권선구 권선동 1296-1나눔프라자 501호","indutype":"보건위생 - 화장품","category":"beauty"}]},{"lat":"37.26109615","long":"127.02590141","imageIndex":13,"items":[{"name":"아사미용실","tel":"031-238-9987","addr":"경기도 수원시 권선구 권선동 1011-14번지 올림픽공원대우미래사랑 101동 103-2호","indutype":"보건위생 - 미용원","category":"beauty"}]},{"lat":"37.256437837","long":"127.02583236","imageIndex":13,"items":[{"name":"아우라네일#(샵)","tel":"","addr":"경기도 수원시 권선구 권선동 1052-3번지","indutype":"보건위생 - 피부미용실","category":"beauty"},{"name":"유진헤어","tel":"031-238-0056","addr":"경기도 수원시 권선구 권선동 1052-3번지","indutype":"보건위생 - 미용원","category":"beauty"}]},{"lat":"37.260268078","long":"127.02083964","imageIndex":13,"items":[{"name":"아이브로우","tel":"031-235-8978","addr":"경기도 수원시 권선구 권선동 965-17번지 1층","indutype":"보건위생 - 피부미용실","category":"beauty"}]},{"lat":"37.245571216","long":"127.02675326","imageIndex":13,"items":[{"name":"아이파크안경","tel":"031-226-0802","addr":"경기도 수원시 권선구 권선동 1360번지 수원아이파크시티1단지","indutype":"보건위생 - 안경","category":"beauty"},{"name":"어바웃네일 (ABOUT NAIL)","tel":"031-232-2202","addr":"경기도 수원시 권선구 권선동 1360번지 수원아이파크시티1단지 제상가-2동 1층 114호","indutype":"보건위생 - 피부미용실","category":"beauty"},{"name":"크크헤어샵","tel":"031-223-9159","addr":"경기도 수원시 권선구 권선동 1360번지 수원아이파크시티1단지 상가동 106호","indutype":"보건위생 - 미용원","category":"beauty"},{"name":"한가닥머리손톱싸롱","tel":"070-7756-0047","addr":"경기도 수원시 권선구 권선동 1360번지 수원아이파크시티1단지 2동 117호","indutype":"보건위생 - 미용원","category":"beauty"}]},{"lat":"37.250184987","long":"127.02419612","imageIndex":13,"items":[{"name":"아쿠아(AQUA)","tel":"031-223-5276","addr":"경기도 수원시 권선구 권선동 1197-5번지","indutype":"보건위생 - 미용원","category":"beauty"}]},{"lat":"37.249542743","long":"127.03527559","imageIndex":13,"items":[{"name":"안경나라(권선점)","tel":"031-222-2088","addr":"경기도 수원시 권선구 권선동 1296-7번지 베스토아빌딩 115호","indutype":"보건위생 - 안경","category":"beauty"}]},{"lat":"37.258520208","long":"127.01997124","imageIndex":13,"items":[{"name":"앙포레모리노헤어(권선점)","tel":"031-223-9919","addr":"경기도 수원시 권선구 권선동 983-8번지","indutype":"보건위생 - 미용원","category":"beauty"}]},{"lat":"37.258123541","long":"127.02139149","imageIndex":13,"items":[{"name":"약손마사지","tel":"031-237-2698","addr":"경기도 수원시 권선구 권선동 987-14번지 2층","indutype":"보건위생 - 피부미용실","category":"beauty"}]},{"lat":"37.238876897","long":"127.02492546","imageIndex":13,"items":[{"name":"어반헤어","tel":"031-225-7565","addr":"경기도 수원시 권선구 권선동 1355번지 수원아이파크시티5단지 상가동 1층 103호","indutype":"보건위생 - 미용원","category":"beauty"}]},{"lat":"37.24926378","long":"127.03394547","imageIndex":13,"items":[{"name":"에덴의료기","tel":"031-221-7575","addr":"경기도 수원시 권선구 권선동 1311-1번지 에덴메디빌 1층","indutype":"보건위생 - 의료용품","category":"beauty"}]},{"lat":"37.263349072","long":"127.02403073","imageIndex":13,"items":[{"name":"에스뷰티","tel":"031-236-1230","addr":"경기도 수원시 권선구 권선동 941-1번지 Eco city (B동) 3동 2층","indutype":"보건위생 - 피부미용실","category":"beauty"}]},{"lat":"37.256408785","long":"127.03459092","imageIndex":13,"items":[{"name":"에이메디","tel":"","addr":"경기도 수원시 권선구 권선동 1167-13번지 1층","indutype":"보건위생 - 의료용품","category":"beauty"}]},{"lat":"37.255627385","long":"127.02322824","imageIndex":13,"items":[{"name":"엘지럭셔리뷰티 권선지사","tel":"031-223-6006","addr":"경기도 수원시 권선구 권선동 1061-3번지 L-Tower 201호","indutype":"보건위생 - 화장품","category":"beauty"}]},{"lat":"37.261293228","long":"127.03119979","imageIndex":13,"items":[{"name":"엠엔케이메종드헤어","tel":"031-234-3191","addr":"경기도 수원시 권선구 권선동 1023번지 리안빌딩 3층","indutype":"보건위생 - 미용원","category":"beauty"}]},{"lat":"37.25226493","long":"127.03108369","imageIndex":13,"items":[{"name":"영맨","tel":"031-221-0401","addr":"경기도 수원시 권선구 권선동 1257-2번지","indutype":"보건위생 - 미용원","category":"beauty"}]},{"lat":"37.255402094","long":"127.02341981","imageIndex":13,"items":[{"name":"영머리방","tel":"031-233-9081","addr":"경기도 수원시 권선구 권선동 1061-12번지","indutype":"보건위생 - 미용원","category":"beauty"}]},{"lat":"37.25793443","long":"127.02070382","imageIndex":13,"items":[{"name":"예가인헤어","tel":"070-7641-2580","addr":"경기도 수원시 권선구 권선동 993-9번지","indutype":"보건위생 - 미용원","category":"beauty"}]},{"lat":"37.261988631","long":"127.02338778","imageIndex":13,"items":[{"name":"예담헤어","tel":"031-222-3558","addr":"경기도 수원시 권선구 권선동 944-9번지 1층","indutype":"보건위생 - 미용원","category":"beauty"}]},{"lat":"37.252436256","long":"127.03053144","imageIndex":13,"items":[{"name":"예미원중앙약수점","tel":"031-221-3901","addr":"경기도 수원시 권선구 권선동 1256-7번지 1층","indutype":"보건위생 - 이용원","category":"beauty"}]},{"lat":"37.262267968","long":"127.02328639","imageIndex":13,"items":[{"name":"예뻐지는날","tel":"","addr":"경기도 수원시 권선구 권선동 944-5번지 204호","indutype":"보건위생 - 미용재료","category":"beauty"}]},{"lat":"37.258825396","long":"127.02670108","imageIndex":13,"items":[{"name":"오휘김현숙","tel":"031-216-4500","addr":"경기도 수원시 권선구 권선동 1029 2층 4/","indutype":"보건위생 - 화장품","category":"beauty"}]},{"lat":"37.259014773","long":"127.02588951","imageIndex":13,"items":[{"name":"오휘컨설턴트","tel":"031-216-4500","addr":"경기도 수원시 권선구 권선동 1029번지","indutype":"보건위생 - 화장품","category":"beauty"},{"name":"한빛헤어숍","tel":"031-224-4286","addr":"경기도 수원시 권선구 권선동 1029번지","indutype":"보건위생 - 미용원","category":"beauty"}]},{"lat":"37.252103148","long":"127.02933653","imageIndex":13,"items":[{"name":"온누리안경","tel":"031-223-2255","addr":"경기도 수원시 권선구 권선동 1262번지 1층","indutype":"보건위생 - 안경","category":"beauty"},{"name":"훈헤어클럽","tel":"031-235-4177","addr":"경기도 수원시 권선구 권선동 1262번지","indutype":"보건위생 - 미용원","category":"beauty"}]},{"lat":"37.238245904","long":"127.02633398","imageIndex":13,"items":[{"name":"올가스킨","tel":"070-7848-9305","addr":"경기도 수원시 권선구 권선동 1356번지 수원아이파크시티6단지 상가 1층 106호","indutype":"보건위생 - 화장품","category":"beauty"},{"name":"한건헤어","tel":"031-222-6929","addr":"경기도 수원시 권선구 권선동 1356번지 수원아이파크시티6단지 상가 1층 105호","indutype":"보건위생 - 미용원","category":"beauty"}]},{"lat":"37.260403431","long":"127.01947566","imageIndex":13,"items":[{"name":"올리브헤어","tel":"031-237-2708","addr":"경기도 수원시 권선구 권선동 977-12번지","indutype":"보건위생 - 미용원","category":"beauty"}]},{"lat":"37.257158835","long":"127.02491951","imageIndex":13,"items":[{"name":"요술가위미용실","tel":"031-235-3852","addr":"경기도 수원시 권선구 권선동 1053번지","indutype":"보건위생 - 미용원","category":"beauty"}]},{"lat":"37.259763105","long":"127.02328572","imageIndex":13,"items":[{"name":"우리동네상담센터","tel":"031-306-2640","addr":"경기도 수원시 권선구 권선동 968번지 2층","indutype":"보건위생 - 기타대인서비스","category":"beauty"}]},{"lat":"37.260131835","long":"127.02697204","imageIndex":13,"items":[{"name":"유스플코리아","tel":"02-1588-8987","addr":"경기도 수원시 권선구 권선동 1017-2번지 3층 201호","indutype":"보건위생 - 화장품","category":"beauty"}]},{"lat":"37.257267004","long":"127.02467155","imageIndex":13,"items":[{"name":"유엔라헤어샵","tel":"031-221-2364","addr":"경기도 수원시 권선구 권선동 1054-12번지","indutype":"보건위생 - 미용원","category":"beauty"}]},{"lat":"37.250569441","long":"127.03697801","imageIndex":13,"items":[{"name":"은혜미용실","tel":"031-225-5521","addr":"경기도 수원시 권선구 권선동 1291-7번지","indutype":"보건위생 - 미용원","category":"beauty"}]},{"lat":"37.262853233","long":"127.02550738","imageIndex":13,"items":[{"name":"이지모맞춤가발","tel":"031-221-9969","addr":"경기도 수원시 권선구 권선동 1010번지 케이엘빌딩 503호","indutype":"보건위생 - 미용재료","category":"beauty"}]},{"lat":"37.257547397","long":"127.0177278","imageIndex":13,"items":[{"name":"이채민피부관리","tel":"031-233-3456","addr":"경기도 수원시 권선구 권선동 1000-1번지 1층","indutype":"보건위생 - 피부미용실","category":"beauty"}]},{"lat":"37.25557339","long":"127.0228337","imageIndex":13,"items":[{"name":"인스타일","tel":"070-8816-8255","addr":"경기도 수원시 권선구 권선동 1061-15번지 5층 502호","indutype":"보건위생 - 기타대인서비스","category":"beauty"}]},{"lat":"37.250653493","long":"127.02436532","imageIndex":13,"items":[{"name":"임성은헤어랩","tel":"031-225-3245","addr":"경기도 수원시 권선구 권선동 1197-1번지 1층","indutype":"보건위생 - 미용원","category":"beauty"},{"name":"프린세스","tel":"031-244-0910","addr":"경기도 수원시 권선구 권선동 1197-1번지 1층","indutype":"보건위생 - 화장품","category":"beauty"}]},{"lat":"37.250464525","long":"127.02294507","imageIndex":13,"items":[{"name":"장''S미용원","tel":"031-234-4341","addr":"경기도 수원시 권선구 권선동 1191-1번지 2층","indutype":"보건위생 - 미용원","category":"beauty"},{"name":"하나메디컬","tel":"031-238-0100","addr":"경기도 수원시 권선구 권선동 1191-1번지 3층","indutype":"보건위생 - 의료용품","category":"beauty"}]},{"lat":"37.257906499","long":"127.02592299","imageIndex":13,"items":[{"name":"전은실헤어","tel":"031-237-9111","addr":"경기도 수원시 권선구 권선동 1035번지 권선SKVIEW 222동 104호","indutype":"보건위생 - 미용원","category":"beauty"},{"name":"하츠헤어","tel":"","addr":"경기도 수원시 권선구 권선동 1035번지 권선SKVIEW 222동 103동 1호","indutype":"보건위생 - 미용원","category":"beauty"}]},{"lat":"37.255293311","long":"127.02692541","imageIndex":13,"items":[{"name":"정옥수헤어폼","tel":"031-238-5532","addr":"경기도 수원시 권선구 권선동 1049-7번지","indutype":"보건위생 - 미용원","category":"beauty"}]},{"lat":"37.255770198","long":"127.02998032","imageIndex":13,"items":[{"name":"정자이발","tel":"031-226-9938","addr":"경기도 수원시 권선구 권선동 1041-8번지","indutype":"보건위생 - 이용원","category":"beauty"}]},{"lat":"37.259123798","long":"127.02064774","imageIndex":13,"items":[{"name":"제이뷰티#","tel":"","addr":"경기도 수원시 권선구 권선동 984번지 1층","indutype":"보건위생 - 피부미용실","category":"beauty"}]},{"lat":"37.255185557","long":"127.02503166","imageIndex":13,"items":[{"name":"제이앤에스헤어(J&S HAIR)","tel":"","addr":"경기도 수원시 권선구 권선동 1062-3번지","indutype":"보건위생 - 미용원","category":"beauty"}]},{"lat":"37.255680883","long":"127.02628302","imageIndex":13,"items":[{"name":"제이엠(J.M)헤어","tel":"031-000-0000","addr":"경기도 수원시 권선구 권선동 1048-14번지 101,102호","indutype":"보건위생 - 미용원","category":"beauty"}]},{"lat":"37.256987528","long":"127.02550563","imageIndex":13,"items":[{"name":"제이케이(JK)미용재료","tel":"031-207-2093","addr":"경기도 수원시 권선구 권선동 1053-4번지 1층","indutype":"보건위생 - 미용재료","category":"beauty"}]},{"lat":"37.25646502","long":"127.02503204","imageIndex":13,"items":[{"name":"제이헤어(J Hair)","tel":"031-225-2636","addr":"경기도 수원시 권선구 권선동 1052-7번지","indutype":"보건위생 - 미용원","category":"beauty"}]},{"lat":"37.261763667","long":"127.02161784","imageIndex":13,"items":[{"name":"조하영 헤어갤러리","tel":"031-297-5404","addr":"경기도 수원시 권선구 권선동 955-13번지","indutype":"보건위생 - 미용원","category":"beauty"}]},{"lat":"37.25704236","long":"127.02103051","imageIndex":13,"items":[{"name":"주식회사 알씨에이치","tel":"031-232-8289","addr":"경기도 수원시 권선구 권선동 992-20번지","indutype":"보건위생 - 화장품","category":"beauty"}]},{"lat":"37.262151088","long":"127.02175322","imageIndex":13,"items":[{"name":"주연헤어샵","tel":"031-226-2216","addr":"경기도 수원시 권선구 권선동 955-16번지 1층","indutype":"보건위생 - 미용원","category":"beauty"}]},{"lat":"37.261789887","long":"127.02618345","imageIndex":13,"items":[{"name":"쥴리래쉬","tel":"","addr":"경기도 수원시 권선구 권선동 1011-10번지 올림픽공원대우미래사랑 102동 103호","indutype":"보건위생 - 피부미용실","category":"beauty"}]},{"lat":"37.255401671","long":"127.0257306","imageIndex":13,"items":[{"name":"지나헤어","tel":"031-225-2182","addr":"경기도 수원시 권선구 권선동 1049-12번지 권선빌딩 1층","indutype":"보건위생 - 미용원","category":"beauty"}]},{"lat":"37.264178568","long":"127.02069402","imageIndex":13,"items":[{"name":"지나헤어(Jina Hair)","tel":"031-235-0255","addr":"경기도 수원시 권선구 권선동 939번지 1층","indutype":"보건위생 - 미용원","category":"beauty"}]},{"lat":"37.252409503","long":"127.02931409","imageIndex":13,"items":[{"name":"진","tel":"031-232-6062","addr":"경기도 수원시 권선구 권선동 1259-8번지 1층","indutype":"보건위생 - 미용원","category":"beauty"}]},{"lat":"37.258069318","long":"127.02239473","imageIndex":13,"items":[{"name":"차바타이","tel":"","addr":"경기도 수원시 권선구 권선동 989-3번지 세광빌딩 7층","indutype":"보건위생 - 화장품","category":"beauty"}]},{"lat":"37.263520508","long":"127.02264415","imageIndex":13,"items":[{"name":"창조프로페셔날(CHANGJO Professional)","tel":"031-893-8522","addr":"경기도 수원시 권선구 권선동 940-7번지","indutype":"보건위생 - 미용재료","category":"beauty"}]},{"lat":"37.255796219","long":"127.03408341","imageIndex":13,"items":[{"name":"창포헤어샵","tel":"031-225-0126","addr":"경기도 수원시 권선구 권선동 1162-8번지","indutype":"보건위생 - 미용원","category":"beauty"}]},{"lat":"37.25523965","long":"127.0248626","imageIndex":13,"items":[{"name":"챠밍클럽","tel":"031-234-4744","addr":"경기도 수원시 권선구 권선동 1062-2번지","indutype":"보건위생 - 피부미용실","category":"beauty"}]},{"lat":"37.25529423","long":"127.02186423","imageIndex":13,"items":[{"name":"청담르블랑","tel":"031-223-3313","addr":"경기도 수원시 권선구 권선동 1058-9번지 천일빌딩 201,202호","indutype":"보건위생 - 미용원","category":"beauty"}]},{"lat":"37.25693437","long":"127.02013997","imageIndex":13,"items":[{"name":"칠성","tel":"031-000-0000","addr":"경기도 수원시 권선구 권선동 1001-4번지 2층","indutype":"보건위생 - 화장품","category":"beauty"}]},{"lat":"37.257627381","long":"127.02486329","imageIndex":13,"items":[{"name":"컬러하우스헤어샵","tel":"031-233-4707","addr":"경기도 수원시 권선구 권선동 1034-7번지","indutype":"보건위생 - 미용원","category":"beauty"}]},{"lat":"37.255798088","long":"127.02592234","imageIndex":13,"items":[{"name":"컷&맨","tel":"031-225-8937","addr":"경기도 수원시 권선구 권선동 1048-16번지 1층","indutype":"보건위생 - 미용원","category":"beauty"}]},{"lat":"37.257238329","long":"127.03228042","imageIndex":13,"items":[{"name":"케이메디","tel":"031-309-2525","addr":"경기도 수원시 권선구 권선동 1159-13번지","indutype":"보건위생 - 의료용품","category":"beauty"}]},{"lat":"37.259932908","long":"127.030196","imageIndex":13,"items":[{"name":"쿨","tel":"031-267-3857","addr":"경기도 수원시 권선구 권선동 1015번지 동양덱스빌아파트 109호","indutype":"보건위생 - 화장품","category":"beauty"}]},{"lat":"37.256077146","long":"127.02723001","imageIndex":13,"items":[{"name":"큐(Q)사랑헤어","tel":"","addr":"경기도 수원시 권선구 권선동 1047-18번지 1층","indutype":"보건위생 - 미용원","category":"beauty"}]},{"lat":"37.2603217","long":"127.02353387","imageIndex":13,"items":[{"name":"태국샵","tel":"031-267-1080","addr":"경기도 수원시 권선구 권선동 961번지 2층","indutype":"보건위생 - 화장품","category":"beauty"}]},{"lat":"37.258655349","long":"127.02006145","imageIndex":13,"items":[{"name":"태연","tel":"031-233-1038","addr":"경기도 수원시 권선구 권선동 983-9번지","indutype":"보건위생 - 화장품","category":"beauty"}]},{"lat":"37.25084903","long":"127.03603134","imageIndex":13,"items":[{"name":"태후사랑","tel":"031-234-7772","addr":"경기도 수원시 권선구 권선동 1295-6번지 103호","indutype":"보건위생 - 미용원","category":"beauty"}]},{"lat":"37.250680548","long":"127.02423007","imageIndex":13,"items":[{"name":"태후사랑염색방","tel":"031-223-4394","addr":"경기도 수원시 권선구 권선동 1197번지 1층","indutype":"보건위생 - 이용원","category":"beauty"}]},{"lat":"37.250569748","long":"127.03589596","imageIndex":13,"items":[{"name":"티지헤어","tel":"031-239-5459","addr":"경기도 수원시 권선구 권선동 1297-1번지","indutype":"보건위생 - 미용원","category":"beauty"}]},{"lat":"37.255652004","long":"127.03427498","imageIndex":13,"items":[{"name":"파스텔화장품","tel":"02-2066-9469","addr":"경기도 수원시 권선구 권선동 1167-7번지 201호","indutype":"보건위생 - 화장품","category":"beauty"}]},{"lat":"37.252131557","long":"127.02220158","imageIndex":13,"items":[{"name":"펄헤어아트","tel":"031-236-2310","addr":"경기도 수원시 권선구 권선동 1188-1번지 성지아파트","indutype":"보건위생 - 미용원","category":"beauty"},{"name":"한스뷰티","tel":"031-225-2369","addr":"경기도 수원시 권선구 권선동 1188-1번지 성지아파트 2층 201호","indutype":"보건위생 - 화장품","category":"beauty"}]},{"lat":"37.261123927","long":"127.02167405","imageIndex":13,"items":[{"name":"포맨","tel":"031-222-2612","addr":"경기도 수원시 권선구 권선동 956-8번지 1층","indutype":"보건위생 - 미용원","category":"beauty"}]},{"lat":"37.251158175","long":"127.02377935","imageIndex":13,"items":[{"name":"포맨헤어샵","tel":"031-236-9902","addr":"경기도 수원시 권선구 권선동 1194-1번지","indutype":"보건위생 - 미용원","category":"beauty"}]},{"lat":"37.259375862","long":"127.02209071","imageIndex":13,"items":[{"name":"하나그룹","tel":"053-1588-5541","addr":"경기도 수원시 권선구 권선동 971-17번지","indutype":"보건위생 - 기타대인서비스","category":"beauty"}]},{"lat":"37.259096821","long":"127.020287","imageIndex":13,"items":[{"name":"향 화장품","tel":"","addr":"경기도 수원시 권선구 권선동 983-13번지 1층","indutype":"보건위생 - 화장품","category":"beauty"}]},{"lat":"37.25354489","long":"127.02891997","imageIndex":13,"items":[{"name":"헤어 클로제","tel":"031-212-8002","addr":"경기도 수원시 권선구 권선동 1066-1번지 1층 102호","indutype":"보건위생 - 미용원","category":"beauty"}]},{"lat":"37.259547609","long":"127.01831438","imageIndex":13,"items":[{"name":"헤어넷","tel":"031-238-1360","addr":"경기도 수원시 권선구 권선동 979-4번지","indutype":"보건위생 - 미용원","category":"beauty"}]},{"lat":"37.254770455","long":"127.02816517","imageIndex":13,"items":[{"name":"헤어리그","tel":"031-237-2224","addr":"경기도 수원시 권선구 권선동 1043-9번지","indutype":"보건위생 - 미용원","category":"beauty"}]},{"lat":"37.262573936","long":"127.02539457","imageIndex":13,"items":[{"name":"헤어메이드","tel":"031-8013-1001","addr":"경기도 수원시 권선구 권선동 1010-1번지 청광 노블하임 103호","indutype":"보건위생 - 미용원","category":"beauty"}]},{"lat":"37.258403033","long":"127.02025303","imageIndex":13,"items":[{"name":"헤어테마","tel":"031-224-8377","addr":"경기도 수원시 권선구 권선동 984-7번지","indutype":"보건위생 - 미용원","category":"beauty"}]},{"lat":"37.258376082","long":"127.01970066","imageIndex":13,"items":[{"name":"헤어힐링랩","tel":"031-236-6519","addr":"경기도 수원시 권선구 권선동 995-11번지 1층","indutype":"보건위생 - 미용원","category":"beauty"}]},{"lat":"37.258429973","long":"127.02086175","imageIndex":13,"items":[{"name":"현대사우나","tel":"031-224-1039","addr":"경기도 수원시 권선구 권선동 986번지","indutype":"보건위생 - 사우나","category":"beauty"}]},{"lat":"37.257211146","long":"127.03288912","imageIndex":13,"items":[{"name":"홍콩안경","tel":"031-236-4223","addr":"경기도 수원시 권선구 권선동 1159-4번지","indutype":"보건위생 - 안경","category":"beauty"}]},{"lat":"37.251127887","long":"127.03764328","imageIndex":13,"items":[{"name":"화보리헤어36.5 (권선점 )","tel":"031-225-8960","addr":"경기도 수원시 권선구 권선동 1291-1번지 1층","indutype":"보건위생 - 미용원","category":"beauty"}]},{"lat":"37.256934468","long":"127.01945235","imageIndex":13,"items":[{"name":"휴","tel":"031-223-5214","addr":"경기도 수원시 권선구 권선동 1001-9번지 2층","indutype":"보건위생 - 화장품","category":"beauty"}]},{"lat":"37.257376208","long":"127.01767141","imageIndex":13,"items":[{"name":"휴먼레이저","tel":"031-255-7577","addr":"경기도 수원시 권선구 권선동 1000-8번지 외1필지 2층","indutype":"보건위생 - 의료용품","category":"beauty"}]},{"lat":"37.263520391","long":"127.02333183","imageIndex":13,"items":[{"name":"힐링케어","tel":"","addr":"경기도 수원시 권선구 권선동 940-2번지 2층","indutype":"보건위생 - 미용재료","category":"beauty"}]}]