[{"lat":"37.022714923","long":"127.23979436","imageIndex":17,"items":[{"name":"(주)삼성우드","tel":"031-675-3669","addr":"경기도 안성시 대덕면 모산리 412-13번지","indutype":"건축자재 - 목재·석재·철물","category":"other"}]},{"lat":"37.024964977","long":"127.24554395","imageIndex":17,"items":[{"name":"(주)진행지앤텍","tel":"02-3488-8000","addr":"경기도 안성시 대덕면 모산리 478-12","indutype":"주방용구 - 정수기","category":"other"}]},{"lat":"37.03965548","long":"127.24398335","imageIndex":17,"items":[{"name":"경기지게차정비","tel":"033-618-0094","addr":"경기도 안성시 대덕면 모산리 96번지","indutype":"수리서비스 - 기타수리서비스","category":"other"}]},{"lat":"37.030156877","long":"127.24021082","imageIndex":17,"items":[{"name":"굳싸인","tel":"070-4652-0048","addr":"경기도 안성시 대덕면 모산리 360-2번지","indutype":"건축자재 - 인테리어전문","category":"other"}]},{"lat":"37.030801324","long":"127.23785267","imageIndex":17,"items":[{"name":"닐넬코","tel":"070-8779-6388","addr":"경기도 안성시 대덕면 모산리 359-6번지 1층","indutype":"전기제품 - 가전제품","category":"other"}]},{"lat":"37.042991255","long":"127.24307216","imageIndex":17,"items":[{"name":"부자산업기계","tel":"031-671-3652","addr":"경기도 안성시 대덕면 모산리 20-4번지","indutype":"기타 - 기계공구","category":"other"}]},{"lat":"37.02574339","long":"127.243827","imageIndex":17,"items":[{"name":"세븐일레븐안성대덕본점","tel":"031-1577-0711","addr":"경기도 안성시 대덕면 모산리 479-5번지","indutype":"유통업 영리 - 편 의 점","category":"other"}]},{"lat":"37.040213344","long":"127.23990491","imageIndex":17,"items":[{"name":"신영가설산업","tel":"031-672-2996","addr":"경기도 안성시 대덕면 모산리 53-5","indutype":"건축자재 - 기타건축자재","category":"other"}]},{"lat":"37.0368224","long":"127.24137802","imageIndex":17,"items":[{"name":"에스에이산업","tel":"031-673-5210","addr":"경기도 안성시 대덕면 모산리 213-13번지 나동","indutype":"기타 - 기계공구","category":"other"}]},{"lat":"37.029408706","long":"127.24481633","imageIndex":17,"items":[{"name":"엘케이","tel":"031-671-3577","addr":"경기도 안성시 대덕면 모산리 328-5번지","indutype":"기타 - 기계공구","category":"other"}]},{"lat":"37.025634913","long":"127.23495982","imageIndex":17,"items":[{"name":"오피스텔","tel":"","addr":"경기도 안성시 대덕면 모산리 397-4번지","indutype":"용역 서비스 - 부동산 중개·임대","category":"other"}]},{"lat":"37.039078059","long":"127.24873607","imageIndex":17,"items":[{"name":"주식회사 엔아이","tel":"031-676-3301","addr":"경기도 안성시 대덕면 모산리 127-6번지","indutype":"기타 - 기계공구","category":"other"}]},{"lat":"37.025655861","long":"127.23805035","imageIndex":17,"items":[{"name":"중앙중장비센타","tel":"031-675-2328","addr":"경기도 안성시 대덕면 모산리 402-2","indutype":"수리서비스 - 기타수리서비스","category":"other"}]},{"lat":"37.026328027","long":"127.2443458","imageIndex":17,"items":[{"name":"초롱수퍼","tel":"031-000-0000","addr":"경기도 안성시 대덕면 모산리 474번지","indutype":"신변잡화 - 기타잡화","category":"other"}]}]