[{"lat":"37.859952234","long":"127.51446812","imageIndex":16,"items":[{"name":"가평마장초등학교","tel":"031-581-2755","addr":"경기도 가평군 가평읍 마장리 357번지 마장초등학교","indutype":"학원 - 초중고교육기관","category":"study"},{"name":"가평마장초병설유치원[아이행복]","tel":"031-582-2756","addr":"경기도 가평군 가평읍 마장리 357번지 마장초등학교","indutype":"학원 - 유치원","category":"study"}]},{"lat":"37.850867774","long":"127.50682685","imageIndex":13,"items":[{"name":"가평스마일골프연습장","tel":"031-581-0070","addr":"경기도 가평군 가평읍 마장리 718-8번지","indutype":"레저업소 - 골프연습장","category":"leisure"}]},{"lat":"37.851201011","long":"127.50685185","imageIndex":13,"items":[{"name":"골프존파크 가평스마일골프점","tel":"031-581-0707","addr":"경기도 가평군 가평읍 마장리 718-1번지","indutype":"레저업소 - 스크린골프","category":"leisure"}]},{"lat":"37.844704679","long":"127.50488761","imageIndex":7,"items":[{"name":"가평잣진우농산","tel":"031-582-0859","addr":"경기도 가평군 가평읍 마장리 738-4번지","indutype":"음료식품 - 농·축·수산품","category":"food"}]},{"lat":"37.86731265","long":"127.52068997","imageIndex":7,"items":[{"name":"노루목휴양지","tel":"031-582-5609","addr":"경기도 가평군 가평읍 마장리 175","indutype":"음료식품 - 기타음료식품","category":"food"}]},{"lat":"37.865978168","long":"127.52094202","imageIndex":7,"items":[{"name":"농업회사법인 주식회사 태복","tel":"031-1111-1111","addr":"경기도 가평군 가평읍 마장리 167-1번지","indutype":"음료식품 - 농·축·수산품","category":"food"}]},{"lat":"37.859010142","long":"127.51771152","imageIndex":7,"items":[{"name":"잣이야기농원","tel":"031-581-5669","addr":"경기도 가평군 가평읍 마장리 375번지","indutype":"음료식품 - 농·축·수산품","category":"food"}]},{"lat":"37.843983228","long":"127.50505313","imageIndex":7,"items":[{"name":"차이나","tel":"031-582-5501","addr":"경기도 가평군 가평읍 마장리 737-5번지","indutype":"음료식품 - 농·축·수산품","category":"food"}]},{"lat":"37.867170204","long":"127.52030258","imageIndex":7,"items":[{"name":"휴","tel":"031-582-5609","addr":"경기도 가평군 가평읍 마장리 178번지","indutype":"음료식품 - 기타음료식품","category":"food"}]},{"lat":"37.842702634","long":"127.50535119","imageIndex":9,"items":[{"name":"가평종합가스","tel":"031-582-4150","addr":"경기도 가평군 가평읍 마장리 730번지","indutype":"연료판매점 - LPG 취급점","category":"oil"},{"name":"가평종합가스","tel":"031-582-4150","addr":"경기도 가평군 가평읍 마장리 730번지","indutype":"연료판매점 - LPG 취급점","category":"oil"}]},{"lat":"37.857395893","long":"127.51393912","imageIndex":17,"items":[{"name":"남양판넬","tel":"031-582-9919","addr":"경기도 가평군 가평읍 마장리 337-3번지","indutype":"건축자재 - 기타건축자재","category":"other"}]},{"lat":"37.856838268","long":"127.50954916","imageIndex":17,"items":[{"name":"마장건업","tel":"031-582-1442","addr":"경기도 가평군 가평읍 마장리 420-11번지","indutype":"용역 서비스 - 기타용역서비스","category":"other"},{"name":"행복씽크","tel":"031-581-0442","addr":"경기도 가평군 가평읍 마장리 420-11번지","indutype":"주방용구 - 주방용구","category":"other"}]},{"lat":"37.852373256","long":"127.50660985","imageIndex":17,"items":[{"name":"마장종합상사","tel":"031-581-6511","addr":"경기도 가평군 가평읍 마장리 396-22번지 1층","indutype":"기타 - 기계공구","category":"other"}]},{"lat":"37.851201011","long":"127.50685185","imageIndex":17,"items":[{"name":"성룡가설재","tel":"031-581-7510","addr":"경기도 가평군 가평읍 마장리 718-1번지","indutype":"건축자재 - 기타건축자재","category":"other"}]},{"lat":"37.857344254","long":"127.51338197","imageIndex":17,"items":[{"name":"성심씽크","tel":"031-582-2038","addr":"경기도 가평군 가평읍 마장리 337-8번지","indutype":"주방용구 - 주방용구","category":"other"}]},{"lat":"37.845397843","long":"127.50501728","imageIndex":17,"items":[{"name":"오렌지 스윗","tel":"070-4686-9412","addr":"경기도 가평군 가평읍 마장리 740번지","indutype":"문화.취미 - 문화취미기타","category":"other"}]},{"lat":"37.853202622","long":"127.50649051","imageIndex":17,"items":[{"name":"집꾸미기","tel":"031-582-7888","addr":"경기도 가평군 가평읍 마장리 714번지 715-1","indutype":"건축자재 - 인테리어전문","category":"other"}]},{"lat":"37.84522993","long":"127.50213039","imageIndex":17,"items":[{"name":"한얼산업","tel":"","addr":"경기도 가평군 가평읍 마장리 761-7번지","indutype":"건축자재 - 인테리어전문","category":"other"}]},{"lat":"37.851456228","long":"127.50616049","imageIndex":4,"items":[{"name":"다주리진곰탕","tel":"070-7778-2407","addr":"경기도 가평군 가평읍 마장리 710-3번지","indutype":"일반휴게음식 - 일반한식","category":"restaurant"}]},{"lat":"37.846978975","long":"127.50607325","imageIndex":4,"items":[{"name":"두메막국수","tel":"031-582-4188","addr":"경기도 가평군 가평읍 마장리 800-14번지","indutype":"일반휴게음식 - 일반한식","category":"restaurant"}]},{"lat":"37.859259092","long":"127.51640647","imageIndex":4,"items":[{"name":"벌떡장어","tel":"031-581-5335","addr":"경기도 가평군 가평읍 마장리 373번지","indutype":"일반휴게음식 - 일반한식","category":"restaurant"},{"name":"벌떡장어","tel":"031-581-5335","addr":"경기도 가평군 가평읍 마장리 373번지 외1필지","indutype":"일반휴게음식 - 일반한식","category":"restaurant"}]},{"lat":"37.846588357","long":"127.50046943","imageIndex":4,"items":[{"name":"소나무집","tel":"","addr":"경기도 가평군 가평읍 마장리 833-2번지 1층","indutype":"일반휴게음식 - 일반한식","category":"restaurant"}]},{"lat":"37.86731265","long":"127.52068997","imageIndex":4,"items":[{"name":"손수 쌈과 함께","tel":"031-582-5609","addr":"경기도 가평군 가평읍 마장리 175번지","indutype":"일반휴게음식 - 일반한식","category":"restaurant"}]},{"lat":"37.857395893","long":"127.51393912","imageIndex":4,"items":[{"name":"앙크바르만커피하우스","tel":"031-582-5878","addr":"경기도 가평군 가평읍 마장리 337-3번지 1층","indutype":"일반휴게음식 - 서양음식","category":"restaurant"},{"name":"청대문","tel":"031-582-5157","addr":"경기도 가평군 가평읍 마장리 337-3번지","indutype":"일반휴게음식 - 일반한식","category":"restaurant"}]},{"lat":"37.844902442","long":"127.5049912","imageIndex":4,"items":[{"name":"오방불고기","tel":"","addr":"경기도 가평군 가평읍 마장리 738-1번지 청산식당 가동 1층","indutype":"일반휴게음식 - 일반한식","category":"restaurant"}]},{"lat":"37.853147839","long":"127.50666057","imageIndex":4,"items":[{"name":"원조곰탕사골","tel":"031-584-6109","addr":"경기도 가평군 가평읍 마장리 396-21번지","indutype":"일반휴게음식 - 일반한식","category":"restaurant"}]},{"lat":"37.85870478","long":"127.51749349","imageIndex":4,"items":[{"name":"웬장어","tel":"031-582-2565","addr":"경기도 가평군 가평읍 마장리 376","indutype":"일반휴게음식 - 일반한식","category":"restaurant"}]},{"lat":"37.858059849","long":"127.52279561","imageIndex":4,"items":[{"name":"이모네추어탕","tel":"031-581-4457","addr":"경기도 가평군 가평읍 마장리 105번지","indutype":"일반휴게음식 - 일반한식","category":"restaurant"}]},{"lat":"37.859010142","long":"127.51771152","imageIndex":4,"items":[{"name":"장수뼈해장국","tel":"031-582-2122","addr":"경기도 가평군 가평읍 마장리 375번지","indutype":"일반휴게음식 - 일반한식","category":"restaurant"}]},{"lat":"37.843983228","long":"127.50505313","imageIndex":4,"items":[{"name":"차이나타운","tel":"031-582-5501","addr":"경기도 가평군 가평읍 마장리 737-5번지","indutype":"일반휴게음식 - 중국식","category":"restaurant"}]},{"lat":"37.860869586","long":"127.51896309","imageIndex":4,"items":[{"name":"찬미네해물칼국수","tel":"031-582-8289","addr":"경기도 가평군 가평읍 마장리 121-1번지","indutype":"일반휴게음식 - 일반한식","category":"restaurant"},{"name":"찬미네해물칼국수","tel":"031-582-8289","addr":"경기도 가평군 가평읍 마장리 121-1번지","indutype":"일반휴게음식 - 일반한식","category":"restaurant"},{"name":"파주닭국수","tel":"031-581-1000","addr":"경기도 가평군 가평읍 마장리 712-9번지","indutype":"일반휴게음식-일반한식","category":"restaurant"}]},{"lat":"37.857643456","long":"127.51502032","imageIndex":4,"items":[{"name":"투에이","tel":"031-581-6606","addr":"경기도 가평군 가평읍 마장리 340번지 B,D동","indutype":"일반휴게음식 - 서양음식","category":"restaurant"}]},{"lat":"37.85206066","long":"127.50597144","imageIndex":4,"items":[{"name":"파주 닭국수 가평점","tel":"031-581-1000","addr":"경기도 가평군 가평읍 마장리 712-9번지 외 1C동","indutype":"일반휴게음식 - 일반한식","category":"restaurant"}]},{"lat":"37.853093734","long":"127.50877361","imageIndex":5,"items":[{"name":"동화카라반","tel":"031-581-4647","addr":"경기도 가평군 가평읍 마장리 395-12 외3필지","indutype":"숙박업 - 여관/기타숙박업","category":"hotel"}]},{"lat":"37.859088173","long":"127.52859812","imageIndex":5,"items":[{"name":"버블버블펜션","tel":"031-582-5716","addr":"경기도 가평군 가평읍 마장리 61-14 62/5","indutype":"숙박업 - 여관/기타숙박업","category":"hotel"}]},{"lat":"37.859593287","long":"127.52644267","imageIndex":7,"items":[{"name":"세인트21","tel":"031-582-0021","addr":"경기도 가평군 가평읍 마장리 60-8번지 1층","indutype":"유통업 영리 - 슈퍼마켓","category":"mart"}]},{"lat":"37.84522993","long":"127.50213039","imageIndex":13,"items":[{"name":"인스메디","tel":"","addr":"경기도 가평군 가평읍 마장리 761-7번지","indutype":"보건위생 - 화장품","category":"beauty"}]}]