[{"lat":"37.728548811","long":"127.50432939","imageIndex":13,"items":[{"name":"(주)클럽에덴","tel":"031-582-8206","addr":"경기도 가평군 가평읍 복장리 451-5번지","indutype":"레저업소 - 기타레져업소","category":"leisure"}]},{"lat":"37.735413907","long":"127.5064744","imageIndex":13,"items":[{"name":"그린수상레저","tel":"031-582-0375","addr":"경기도 가평군 가평읍 복장리 391-1번지","indutype":"레저업소 - 기타레져업소","category":"leisure"}]},{"lat":"37.74105388","long":"127.5127525","imageIndex":13,"items":[{"name":"스마일 수상레저","tel":"","addr":"경기도 가평군 가평읍 복장리 38번지 1층","indutype":"레저업소 - 기타레져업소","category":"leisure"}]},{"lat":"37.729856115","long":"127.50411134","imageIndex":13,"items":[{"name":"여름이야기","tel":"031-584-2500","addr":"경기도 가평군 가평읍 복장리 454-1","indutype":"레저업소 - 기타레져업소","category":"leisure"}]},{"lat":"37.736802828","long":"127.50613213","imageIndex":5,"items":[{"name":"강.산.해","tel":"031-582-5157","addr":"경기도 가평군 가평읍 복장리 361-2번지","indutype":"숙박업 - 여관/기타숙박업","category":"hotel"}]},{"lat":"37.743851486","long":"127.50325266","imageIndex":5,"items":[{"name":"귀족펜션","tel":"070-5022-4846","addr":"경기도 가평군 가평읍 복장리 212-3번지","indutype":"숙박업 - 여관/기타숙박업","category":"hotel"}]},{"lat":"37.747600564","long":"127.49441647","imageIndex":5,"items":[{"name":"메모리메이커","tel":"070-8822-2164","addr":"경기도 가평군 가평읍 복장리 626번지","indutype":"숙박업 - 여관/기타숙박업","category":"hotel"}]},{"lat":"37.744104225","long":"127.5031409","imageIndex":5,"items":[{"name":"주식회사 세미리조트귀족","tel":"031-111-1111","addr":"경기도 가평군 가평읍 복장리 212-4번지","indutype":"숙박업 - 여관/기타숙박업","category":"hotel"},{"name":"주식회사 풀빌라귀족","tel":"","addr":"경기도 가평군 가평읍 복장리 228-2번지","indutype":"숙박업 - 여관/기타숙박업","category":"hotel"},{"name":"풀빌라귀족펜션","tel":"","addr":"경기도 가평군 가평읍 복장리 212-4번지","indutype":"숙박업 - 여관/기타숙박업","category":"hotel"}]},{"lat":"37.742692426","long":"127.51302469","imageIndex":5,"items":[{"name":"포시즌스","tel":"070-7725-0406","addr":"경기도 가평군 가평읍 복장리 21-4번지 2동","indutype":"숙박업 - 여관/기타숙박업","category":"hotel"}]},{"lat":"37.74204808","long":"127.50572516","imageIndex":5,"items":[{"name":"학산촌","tel":"031-582-4881","addr":"경기도 가평군 가평읍 복장리 119번지","indutype":"숙박업 - 여관/기타숙박업","category":"hotel"}]},{"lat":"37.729910894","long":"127.50394155","imageIndex":4,"items":[{"name":"강이좋은사람들","tel":"031-581-2119","addr":"경기도 가평군 가평읍 복장리 454-3번지","indutype":"일반휴게음식 - 일반한식","category":"restaurant"}]},{"lat":"37.739079583","long":"127.50463866","imageIndex":4,"items":[{"name":"개가 사는 그집","tel":"","addr":"경기도 가평군 가평읍 복장리 253-4번지 2층","indutype":"일반휴게음식 - 서양음식","category":"restaurant"}]},{"lat":"37.727107952","long":"127.49991854","imageIndex":4,"items":[{"name":"고원","tel":"031-582-8006","addr":"경기도 가평군 가평읍 복장리 481번지","indutype":"일반휴게음식 - 일반한식","category":"restaurant"}]},{"lat":"37.74029809","long":"127.49985923","imageIndex":4,"items":[{"name":"라틴정원","tel":"","addr":"경기도 가평군 가평읍 복장리 580-3번지","indutype":"일반휴게음식 - 서양음식","category":"restaurant"}]},{"lat":"37.747135194","long":"127.49797609","imageIndex":4,"items":[{"name":"로코갤러리","tel":"070-4210-8555","addr":"경기도 가평군 가평읍 복장리 618번지","indutype":"일반휴게음식 - 서양음식","category":"restaurant"}]},{"lat":"37.743269999","long":"127.51071415","imageIndex":4,"items":[{"name":"메르몽아트카페/(주)메르몽아트센터","tel":"031-581-9956","addr":"경기도 가평군 가평읍 복장리 140번지","indutype":"일반휴게음식 - 서양음식","category":"restaurant"}]},{"lat":"37.736798898","long":"127.50494092","imageIndex":4,"items":[{"name":"삼거리진짜네식당","tel":"031-582-3588","addr":"경기도 가평군 가평읍 복장리 339-1번지","indutype":"일반휴게음식 - 일반한식","category":"restaurant"}]},{"lat":"37.739796446","long":"127.50766129","imageIndex":4,"items":[{"name":"신향각","tel":"031-582-8433","addr":"경기도 가평군 가평읍 복장리 108-2","indutype":"일반휴게음식 - 중국식","category":"restaurant"}]},{"lat":"37.733769237","long":"127.5055217","imageIndex":4,"items":[{"name":"인너가든","tel":"031-000-0000","addr":"경기도 가평군 가평읍 복장리 399번지","indutype":"일반휴게음식 - 일반한식","category":"restaurant"}]},{"lat":"37.742189335","long":"127.51060466","imageIndex":4,"items":[{"name":"코미호미(COME HOME)","tel":"031-581-3546","addr":"경기도 가평군 가평읍 복장리 70-1번지","indutype":"일반휴게음식 - 서양음식","category":"restaurant"}]},{"lat":"37.739264859","long":"127.50131583","imageIndex":4,"items":[{"name":"플레이스 나인","tel":"","addr":"경기도 가평군 가평읍 복장리 262번지 1동 1층","indutype":"일반휴게음식 - 일반한식","category":"restaurant"}]},{"lat":"37.733769237","long":"127.5055217","imageIndex":17,"items":[{"name":"이마트24 인너가든점","tel":"","addr":"경기도 가평군 가평읍 복장리 399번지 A동 2층","indutype":"유통업 영리 - 편 의 점","category":"other"}]},{"lat":"37.736909857","long":"127.50427233","imageIndex":17,"items":[{"name":"친절부동산중개사사무소","tel":"031-582-0857","addr":"경기도 가평군 가평읍 복장리 320-1","indutype":"용역 서비스 - 부동산 중개·임대","category":"other"}]},{"lat":"37.74690963","long":"127.49805402","imageIndex":17,"items":[{"name":"커피반(Coffee Bann)","tel":"031-584-6910","addr":"경기도 가평군 가평읍 복장리 618-2번지","indutype":"신변잡화 - 기타잡화","category":"other"}]},{"lat":"37.736717235","long":"127.5050765","imageIndex":17,"items":[{"name":"하로시이 플라워(HAROSHI flower)","tel":"031-111-1111","addr":"경기도 가평군 가평읍 복장리 338-1번지","indutype":"문화.취미 - 화원","category":"other"}]},{"lat":"37.742657371","long":"127.51279753","imageIndex":7,"items":[{"name":"포시즌","tel":"070-7725-0406","addr":"경기도 가평군 가평읍 복장리 21-3번지","indutype":"유통업 영리 - 슈퍼마켓","category":"mart"}]}]