[{"lat":"37.237223996","long":"127.49759703","imageIndex":13,"items":[{"name":"그린파크골프클럽","tel":"031-638-0478","addr":"경기도 이천시 대월면 사동리 27-1번지","indutype":"레저업소 - 골프연습장","category":"leisure"}]},{"lat":"37.243217432","long":"127.49504405","imageIndex":13,"items":[{"name":"대성당구장","tel":"031-637-3949","addr":"경기도 이천시 대월면 사동리 347-117번지 2층 201호","indutype":"레저업소 - 당 구 장","category":"leisure"}]},{"lat":"37.23586024","long":"127.49403835","imageIndex":13,"items":[{"name":"대월당구장","tel":"031-631-3823","addr":"경기도 이천시 대월면 사동리 110-5번지","indutype":"레저업소 - 당 구 장","category":"leisure"}]},{"lat":"37.243134374","long":"127.49551686","imageIndex":13,"items":[{"name":"더샵PC방","tel":"031-000-0000","addr":"경기도 이천시 대월면 사동리 347-210번지 외1필지","indutype":"레저업소 - 기타레져업소","category":"leisure"},{"name":"임페럴짐","tel":"031-631-3830","addr":"경기도 이천시 대월면 사동리 347-210번지","indutype":"레저업소 - 헬스클럽","category":"leisure"}]},{"lat":"37.236254248","long":"127.4946269","imageIndex":13,"items":[{"name":"땡큐노래연습장","tel":"031-637-3374","addr":"경기도 이천시 대월면 사동리 108-2번지 지하","indutype":"레저업소 - 노 래 방","category":"leisure"}]},{"lat":"37.244500527","long":"127.48318466","imageIndex":13,"items":[{"name":"라온휘트나스PT","tel":"031-635-2000","addr":"경기도 이천시 대월면 사동리 441-1번지 현대아이파크 상가동 308호","indutype":"레저업소 - 헬스클럽","category":"leisure"}]},{"lat":"37.24419215","long":"127.49465593","imageIndex":13,"items":[{"name":"모이세 노래연습장","tel":"031-636-7673","addr":"경기도 이천시 대월면 사동리 347-95번지","indutype":"레저업소 - 노 래 방","category":"leisure"}]},{"lat":"37.243386794","long":"127.49548469","imageIndex":13,"items":[{"name":"사동당구장","tel":"031-638-6383","addr":"경기도 이천시 대월면 사동리 347-208번지","indutype":"레저업소 - 당 구 장","category":"leisure"},{"name":"큐노래연습장","tel":"031-633-1997","addr":"경기도 이천시 대월면 사동리 347-208번지 지하1층","indutype":"레저업소 - 노 래 방","category":"leisure"}]},{"lat":"37.243415886","long":"127.49498899","imageIndex":13,"items":[{"name":"사동리PC방","tel":"02-222-2222","addr":"경기도 이천시 대월면 사동리 347-101번지 201호","indutype":"레저업소 - 기타레져업소","category":"leisure"}]},{"lat":"37.233834883","long":"127.49573807","imageIndex":13,"items":[{"name":"써니롤러장","tel":"","addr":"경기도 이천시 대월면 사동리 182-6번지 1동","indutype":"레저업소 - 기타레져업소","category":"leisure"}]},{"lat":"37.242919106","long":"127.4909285","imageIndex":13,"items":[{"name":"오르고클라이밍","tel":"031-000-0000","addr":"경기도 이천시 대월면 사동리 324-19번지 201호 ,202,203호","indutype":"레저업소 - 기타레져업소","category":"leisure"}]},{"lat":"37.242251762","long":"127.49107071","imageIndex":13,"items":[{"name":"오르고클라이밍","tel":"","addr":"경기도 이천시 대월면 사동리 312-10번지","indutype":"레저업소 - 기타레져업소","category":"leisure"}]}]