[{"lat":"38.013682308","long":"127.24551008","imageIndex":4,"items":[{"name":"3.8토속가든","tel":"031-536-6737","addr":"경기도 포천시 영중면 성동리 895-11번지 1층","indutype":"일반휴게음식 - 일반한식","category":"restaurant"},{"name":"3.8토속가든","tel":"536-6737","addr":"경기도 포천시 영중면 성동리 895-11번지","indutype":"음식 - 한식","category":"restaurant"}]},{"lat":"38.021292134","long":"127.28326497","imageIndex":4,"items":[{"name":"고향손두부","tel":"533-8061","addr":"경기도 포천시 영중면 성동리 39-7번지","indutype":"음식 - 한식","category":"restaurant"}]},{"lat":"38.014148589","long":"127.24657064","imageIndex":4,"items":[{"name":"광명휴게소","tel":"031-531-3876","addr":"경기도 포천시 영중면 성동리 895-3번지 외1필지","indutype":"일반휴게음식 - 일반한식","category":"restaurant"}]},{"lat":"38.020346106","long":"127.25123757","imageIndex":4,"items":[{"name":"나운식당","tel":"534-6608","addr":"경기도 포천시 영중면 성동리 876-6번지","indutype":"음식 - 한식","category":"restaurant"}]},{"lat":"38.030343357","long":"127.26092987","imageIndex":4,"items":[{"name":"만석가든","tel":"070-7743-0462","addr":"경기도 포천시 영중면 성동리 436-1번지","indutype":"일반휴게음식 - 일반한식","category":"restaurant"}]},{"lat":"38.038148118","long":"127.26370249","imageIndex":4,"items":[{"name":"미리내","tel":"-","addr":"경기도 포천시 영중면 성동리 357-4번지","indutype":"음식 - 커피 등","category":"restaurant"},{"name":"미리내","tel":"070-8254-1333","addr":"경기도 포천시 영중면 성동리 357-4번지 1층","indutype":"일반휴게음식 - 서양음식","category":"restaurant"}]},{"lat":"38.015792458","long":"127.24887636","imageIndex":4,"items":[{"name":"방일해장국","tel":"031-533-4220","addr":"경기도 포천시 영중면 성동리 892-2번지","indutype":"일반휴게음식 - 일반한식","category":"restaurant"},{"name":"방일해장국","tel":"533-4220","addr":"경기도 포천시 영중면 성동리 892-2번지","indutype":"음식 - 한식","category":"restaurant"}]},{"lat":"38.025012034","long":"127.25998867","imageIndex":4,"items":[{"name":"비움의 해독밥상","tel":"031-532-9872","addr":"경기도 포천시 영중면 성동리 453-7번지","indutype":"일반휴게음식 - 일반한식","category":"restaurant"},{"name":"비움의해독밥상","tel":"532-9872","addr":"경기도 포천시 영중면 성동리 453-7번지","indutype":"음식 - 한식","category":"restaurant"},{"name":"산정원","tel":"031-531-7737","addr":"경기도 포천시 영중면 성동리 453-7번지","indutype":"일반휴게음식 - 일반한식","category":"restaurant"},{"name":"산정원흑염소","tel":"531-7737","addr":"경기도 포천시 영중면 성동리 453-7번지","indutype":"음식 - 한식","category":"restaurant"},{"name":"우리식당","tel":"031-532-7083","addr":"경기도 포천시 영중면 성동리 453-7번지 1층","indutype":"일반휴게음식 - 일반한식","category":"restaurant"},{"name":"커피카니","tel":"070-7789-2200","addr":"경기도 포천시 영중면 성동리 453-7번지","indutype":"음식 - 커피 등","category":"restaurant"},{"name":"커피카니","tel":"031-798-5767","addr":"경기도 포천시 영중면 성동리 453-7번지","indutype":"일반휴게음식 - 서양음식","category":"restaurant"}]},{"lat":"38.025010163","long":"127.26084284","imageIndex":4,"items":[{"name":"산내지막국수","tel":"","addr":"경기도 포천시 영중면 성동리 447-5번지 1층","indutype":"일반휴게음식 - 일반한식","category":"restaurant"}]},{"lat":"38.015039754","long":"127.2469266","imageIndex":4,"items":[{"name":"성동리고기농장","tel":"","addr":"경기도 포천시 영중면 성동리 886-10번지","indutype":"일반휴게음식 - 일반한식","category":"restaurant"}]},{"lat":"38.026732824","long":"127.27595102","imageIndex":4,"items":[{"name":"소나무집","tel":"","addr":"경기도 포천시 영중면 성동리 153-2번지","indutype":"음식 - 커피 등","category":"restaurant"}]},{"lat":"38.024039382","long":"127.25568029","imageIndex":4,"items":[{"name":"아리짬뽕","tel":"031-535-1666","addr":"경기도 포천시 영중면 성동리 679-3번지 1층","indutype":"일반휴게음식 - 중국식","category":"restaurant"}]},{"lat":"38.014869314","long":"127.24657302","imageIndex":4,"items":[{"name":"얼큰이네","tel":"031-534-8934","addr":"경기도 포천시 영중면 성동리 886-8번지","indutype":"일반휴게음식 - 일반한식","category":"restaurant"}]},{"lat":"38.024675252","long":"127.28128479","imageIndex":4,"items":[{"name":"여기.꽃자리","tel":"","addr":"경기도 포천시 영중면 성동리 85-8번지 1층","indutype":"일반휴게음식 - 서양음식","category":"restaurant"}]},{"lat":"38.027708507","long":"127.27865393","imageIndex":4,"items":[{"name":"원조파주골순두부","tel":"532-6590","addr":"경기도 포천시 영중면 성동리 135-8번지","indutype":"음식 - 한식","category":"restaurant"}]},{"lat":"38.037005488","long":"127.26301499","imageIndex":4,"items":[{"name":"천리향","tel":"531-7767","addr":"경기도 포천시 영중면 성동리 375-3번지","indutype":"음식 - 중식","category":"restaurant"},{"name":"천리향","tel":"031-531-7767","addr":"경기도 포천시 영중면 성동리 375-3번지","indutype":"일반휴게음식 - 중국식","category":"restaurant"}]},{"lat":"38.022537304","long":"127.28246112","imageIndex":4,"items":[{"name":"카페243","tel":"070-7720-0243","addr":"경기도 포천시 영중면 성동리 39-9번지","indutype":"음식 - 양식","category":"restaurant"},{"name":"카페243","tel":"","addr":"경기도 포천시 영중면 성동리 39-9번지","indutype":"일반휴게음식 - 서양음식","category":"restaurant"}]},{"lat":"38.020289603","long":"127.28432025","imageIndex":4,"items":[{"name":"파주골이동갈비","tel":"031-531-2202","addr":"경기도 포천시 영중면 성동리 25-1번지","indutype":"일반휴게음식 - 일반한식","category":"restaurant"}]},{"lat":"38.020425283","long":"127.28409301","imageIndex":4,"items":[{"name":"파주골이동갈비","tel":"531-2202","addr":"경기도 포천시 영중면 성동리 33-1번지","indutype":"음식 - 한식","category":"restaurant"}]},{"lat":"38.027037303","long":"127.27673801","imageIndex":4,"items":[{"name":"파주골토박이순두부","tel":"031-532-6566","addr":"경기도 포천시 영중면 성동리 140번지","indutype":"일반휴게음식 - 일반한식","category":"restaurant"}]},{"lat":"38.0274271","long":"127.27570303","imageIndex":4,"items":[{"name":"파주골토속촌","tel":"534-6390","addr":"경기도 포천시 영중면 성동리 139번지","indutype":"음식 - 한식","category":"restaurant"}]},{"lat":"38.02503609","long":"127.26134404","imageIndex":4,"items":[{"name":"포안","tel":"531-9531","addr":"경기도 포천시 영중면 성동리 445-5번지","indutype":"음식 - 분식","category":"restaurant"},{"name":"포안","tel":"031-531-9531","addr":"경기도 포천시 영중면 성동리 445-5","indutype":"일반휴게음식 - 일반한식","category":"restaurant"}]},{"lat":"38.02664666","long":"127.28195283","imageIndex":4,"items":[{"name":"풀빛농원","tel":"031-31-2222","addr":"경기도 포천시 영중면 성동리 75번지","indutype":"일반휴게음식 - 일반한식","category":"restaurant"}]},{"lat":"38.025125203","long":"127.26178853","imageIndex":4,"items":[{"name":"항아리손칼국수","tel":"-","addr":"경기도 포천시 영중면 성동리 445-9번지","indutype":"음식 - 한식","category":"restaurant"},{"name":"항아리손칼국수","tel":"031-533-3432","addr":"경기도 포천시 영중면 성동리 445-9번지","indutype":"일반휴게음식 - 일반한식","category":"restaurant"}]}]