[{"lat":"37.810101354","long":"127.47621827","imageIndex":17,"items":[{"name":"(주)가평카라반파크타운","tel":"02-583-4568","addr":"경기도 가평군 가평읍 하색리 716번지 가평카라반파크타운","indutype":"레져용품 - 스포츠·레져용품","category":"other"}]},{"lat":"37.809709341","long":"127.49277248","imageIndex":17,"items":[{"name":"(주)에이치에스","tel":"031-582-8411","addr":"경기도 가평군 가평읍 하색리 431-1번지","indutype":"여행 - 렌터카","category":"other"},{"name":"아일랜드투어","tel":"031-582-8411","addr":"경기도 가평군 가평읍 하색리 431-1","indutype":"여행 - 렌터카","category":"other"}]},{"lat":"37.806621109","long":"127.48132865","imageIndex":17,"items":[{"name":"경원특수음향","tel":"070-8252-7536","addr":"경기도 가평군 가평읍 하색리 664번지","indutype":"전기제품 - 가전제품","category":"other"}]},{"lat":"37.816844726","long":"127.48182619","imageIndex":17,"items":[{"name":"대한불교천도불사","tel":"031-582-3245","addr":"경기도 가평군 가평읍 하색리 619","indutype":"기타 - 비영리/대상","category":"other"}]},{"lat":"37.814238178","long":"127.49991154","imageIndex":17,"items":[{"name":"레드엔젤(주)","tel":"070-8808-1365","addr":"경기도 가평군 가평읍 하색리 297-1번지","indutype":"용역 서비스 - 종합용역","category":"other"}]},{"lat":"37.800823645","long":"127.49336099","imageIndex":17,"items":[{"name":"삼 야전 군장","tel":"","addr":"경기도 가평군 가평읍 하색리 472번지","indutype":"신변잡화 - 기념품점","category":"other"}]},{"lat":"37.816100417","long":"127.49841358","imageIndex":17,"items":[{"name":"승진산업","tel":"031-582-0133","addr":"경기도 가평군 가평읍 하색리 302-3번지","indutype":"건축자재 - 기타건축자재","category":"other"},{"name":"휴 목공방연구소","tel":"031-581-6612","addr":"경기도 가평군 가평읍 하색리 302-3번지 14동","indutype":"가구 - 일반가구","category":"other"}]},{"lat":"37.812487907","long":"127.49835537","imageIndex":17,"items":[{"name":"우림목재","tel":"031-582-8000","addr":"경기도 가평군 가평읍 하색리 279-2번지","indutype":"건축자재 - 기타건축자재","category":"other"}]},{"lat":"37.811069428","long":"127.49716487","imageIndex":17,"items":[{"name":"화이트산업","tel":"031-582-3990","addr":"경기도 가평군 가평읍 하색리 261-1","indutype":"건축자재 - 기타건축자재","category":"other"},{"name":"화이트판넬","tel":"031-582-3990","addr":"경기도 가평군 가평읍 하색리 261-1번지","indutype":"건축자재 - 기타건축자재","category":"other"}]},{"lat":"37.816038007","long":"127.5025243","imageIndex":9,"items":[{"name":"가평Self주유소","tel":"031-581-8770","addr":"경기도 가평군 가평읍 하색리 39-1번지","indutype":"연료판매점 - 현대정유(오일뱅크)","category":"oil"}]},{"lat":"37.809987953","long":"127.4972485","imageIndex":9,"items":[{"name":"성원에너지 주식회사","tel":"031-582-9950","addr":"경기도 가평군 가평읍 하색리 248-2번지","indutype":"연료판매점 - 쌍용S-OIL 가스충전","category":"oil"}]},{"lat":"37.813097276","long":"127.49913167","imageIndex":9,"items":[{"name":"이화주유소","tel":"031-581-5149","addr":"경기도 가평군 가평읍 하색리 290-1번지","indutype":"연료판매점 - 현대정유(오일뱅크)","category":"oil"}]},{"lat":"37.810956403","long":"127.4961875","imageIndex":9,"items":[{"name":"하나종합가스","tel":"031-581-3336","addr":"경기도 가평군 가평읍 하색리 261-4번지","indutype":"연료판매점 - LPG 취급점","category":"oil"}]},{"lat":"37.814238178","long":"127.49991154","imageIndex":5,"items":[{"name":"가평남이섬케이팝호텔","tel":"031-581-7555","addr":"경기도 가평군 가평읍 하색리 297-1번지","indutype":"숙박업 - 여관/기타숙박업","category":"hotel"}]},{"lat":"37.813707186","long":"127.46663379","imageIndex":5,"items":[{"name":"남이섬별펜션","tel":"031-582-9345","addr":"경기도 가평군 가평읍 하색리 778","indutype":"숙박업 - 여관/기타숙박업","category":"hotel"}]},{"lat":"37.814123822","long":"127.47063387","imageIndex":5,"items":[{"name":"뉴아이리스","tel":"031-581-0108","addr":"경기도 가평군 가평읍 하색리 770-1번지","indutype":"숙박업 - 여관/기타숙박업","category":"hotel"}]},{"lat":"37.811232873","long":"127.47488549","imageIndex":5,"items":[{"name":"다이아펜션","tel":"031-581-2772","addr":"경기도 가평군 가평읍 하색리 748-5번지","indutype":"숙박업 - 여관/기타숙박업","category":"hotel"}]},{"lat":"37.815092001","long":"127.46730114","imageIndex":5,"items":[{"name":"레드펜션","tel":"031-581-5755","addr":"경기도 가평군 가평읍 하색리 778-28","indutype":"숙박업 - 여관/기타숙박업","category":"hotel"}]},{"lat":"37.814766642","long":"127.4675603","imageIndex":5,"items":[{"name":"로제펜션","tel":"031-581-3883","addr":"경기도 가평군 가평읍 하색리 778-7번지","indutype":"숙박업 - 여관/기타숙박업","category":"hotel"}]},{"lat":"37.814620924","long":"127.47249947","imageIndex":5,"items":[{"name":"모닝밸리","tel":"031-581-0777","addr":"경기도 가평군 가평읍 하색리 762-1번지","indutype":"숙박업 - 여관/기타숙박업","category":"hotel"}]},{"lat":"37.813981974","long":"127.4700538","imageIndex":5,"items":[{"name":"산이랑 물이랑","tel":"031-582-6125","addr":"경기도 가평군 가평읍 하색리 771","indutype":"숙박업 - 여관/기타숙박업","category":"hotel"}]},{"lat":"37.812651679","long":"127.46927319","imageIndex":5,"items":[{"name":"세이지","tel":"031-581-3721","addr":"경기도 가평군 가평읍 하색리 779-1번지","indutype":"숙박업 - 여관/기타숙박업","category":"hotel"}]},{"lat":"37.81478663","long":"127.46706074","imageIndex":5,"items":[{"name":"썬시티","tel":"031-582-8877","addr":"경기도 가평군 가평읍 하색리 778-9번지 1동 2동","indutype":"숙박업 - 여관/기타숙박업","category":"hotel"}]},{"lat":"37.814928179","long":"127.4677203","imageIndex":5,"items":[{"name":"씨엘펜션","tel":"031-581-1032","addr":"경기도 가평군 가평읍 하색리 778-6번지","indutype":"숙박업 - 여관/기타숙박업","category":"hotel"}]},{"lat":"37.81323704","long":"127.47386482","imageIndex":5,"items":[{"name":"이노센트 딥","tel":"","addr":"경기도 가평군 가평읍 하색리 758-18번지","indutype":"숙박업 - 여관/기타숙박업","category":"hotel"}]},{"lat":"37.805961221","long":"127.47741821","imageIndex":5,"items":[{"name":"파인휴펜션","tel":"031-582-1423","addr":"경기도 가평군 가평읍 하색리 701-17번지","indutype":"숙박업 - 여관/기타숙박업","category":"hotel"}]},{"lat":"37.813488226","long":"127.46960779","imageIndex":5,"items":[{"name":"풀꽃펜션","tel":"031-582-9008","addr":"경기도 가평군 가평읍 하색리 771-5번지","indutype":"숙박업 - 여관/기타숙박업","category":"hotel"}]},{"lat":"37.814648537","long":"127.4678094","imageIndex":5,"items":[{"name":"휴아일랜드","tel":"031-581-0767","addr":"경기도 가평군 가평읍 하색리 778-3번지","indutype":"숙박업 - 여관/기타숙박업","category":"hotel"}]},{"lat":"37.806179132","long":"127.47699946","imageIndex":5,"items":[{"name":"흙집펜션","tel":"031-582-1423","addr":"경기도 가평군 가평읍 하색리 701-15번지","indutype":"숙박업 - 여관/기타숙박업","category":"hotel"}]},{"lat":"37.806483111","long":"127.48203179","imageIndex":7,"items":[{"name":"가평태봉농원","tel":"","addr":"경기도 가평군 가평읍 하색리 669-3번지","indutype":"음료식품 - 농·축·수산품","category":"food"}]},{"lat":"37.816100417","long":"127.49841358","imageIndex":7,"items":[{"name":"농수산마켓","tel":"031-582-0133","addr":"경기도 가평군 가평읍 하색리 302-3번지","indutype":"음료식품 - 기타음료식품","category":"food"}]},{"lat":"37.808541411","long":"127.47430058","imageIndex":7,"items":[{"name":"한국사슴백화점","tel":"031-581-2017","addr":"경기도 가평군 가평읍 하색리 735-2번지 37/1","indutype":"건강식품 - 기타건강식품","category":"food"}]},{"lat":"37.812820671","long":"127.49849387","imageIndex":0,"items":[{"name":"광수카 자동차 외장관리","tel":"031-1577-7253","addr":"경기도 가평군 가평읍 하색리 289-1번지 안흥진빵 1층 101호","indutype":"자동차정비 유지 - 카인테리어","category":"car"}]},{"lat":"37.803928286","long":"127.48988422","imageIndex":0,"items":[{"name":"광진종합카센타","tel":"031-582-3554","addr":"경기도 가평군 가평읍 하색리 447-7","indutype":"자동차정비 유지 - 자동차정비","category":"car"}]},{"lat":"37.815097439","long":"127.50124602","imageIndex":0,"items":[{"name":"명보카센타","tel":"031-582-4948","addr":"경기도 가평군 가평읍 하색리 63-2번지","indutype":"자동차정비 유지 - 자동차정비","category":"car"}]},{"lat":"37.811373871","long":"127.47342146","imageIndex":4,"items":[{"name":"끈과끈사이","tel":"031-582-4647","addr":"경기도 가평군 가평읍 하색리 742-1번지","indutype":"일반휴게음식 - 서양음식","category":"restaurant"}]},{"lat":"37.813321451","long":"127.499383","imageIndex":4,"items":[{"name":"대청마루","tel":"031-582-5762","addr":"경기도 가평군 가평읍 하색리 292-5","indutype":"일반휴게음식 - 중국식","category":"restaurant"}]},{"lat":"37.808515474","long":"127.47402788","imageIndex":4,"items":[{"name":"두밀리 산닭, 오리","tel":"031-582-2665","addr":"경기도 가평군 가평읍 하색리 735-1번지","indutype":"일반휴게음식 - 일반한식","category":"restaurant"}]},{"lat":"37.806179132","long":"127.47699946","imageIndex":4,"items":[{"name":"두밀리흙집","tel":"031-582-1423","addr":"경기도 가평군 가평읍 하색리 701-15번지","indutype":"일반휴게음식 - 일반한식","category":"restaurant"}]},{"lat":"37.8130972763","long":"127.4991316655","imageIndex":4,"items":[{"name":"무교동낙지","tel":"031-582-7644","addr":"경기도 가평군 가평읍 하색리 290-1","indutype":"일반휴게음식 - 일반한식","category":"restaurant"}]},{"lat":"37.816345409","long":"127.50650124","imageIndex":4,"items":[{"name":"북경","tel":"031-581-8878","addr":"경기도 가평군 가평읍 하색리 3-4번지","indutype":"일반휴게음식 - 중국식","category":"restaurant"}]},{"lat":"37.812651679","long":"127.46927319","imageIndex":4,"items":[{"name":"불기산장","tel":"031-581-3721","addr":"경기도 가평군 가평읍 하색리 779-1번지","indutype":"일반휴게음식 - 일반한식","category":"restaurant"}]},{"lat":"37.809203767","long":"127.47538358","imageIndex":4,"items":[{"name":"왕장어촌","tel":"031-582-9933","addr":"경기도 가평군 가평읍 하색리 726-4번지","indutype":"일반휴게음식 - 일반한식","category":"restaurant"},{"name":"왕장어촌","tel":"031-582-9933","addr":"경기도 가평군 가평읍 하색리 726-4번지","indutype":"일반휴게음식 - 일반한식","category":"restaurant"}]},{"lat":"37.804738951","long":"127.48774344","imageIndex":4,"items":[{"name":"초원가든","tel":"031-581-1861","addr":"경기도 가평군 가평읍 하색리 489번지","indutype":"일반휴게음식 - 일반한식","category":"restaurant"}]},{"lat":"37.814182032","long":"127.46730679","imageIndex":4,"items":[{"name":"파이어플레이스","tel":"031-582-9345","addr":"경기도 가평군 가평읍 하색리 778-1번지","indutype":"일반휴게음식 - 일반한식","category":"restaurant"}]},{"lat":"37.810375488","long":"127.49721702","imageIndex":4,"items":[{"name":"행복한도까비","tel":"031-581-6733","addr":"경기도 가평군 가평읍 하색리 245-5번지","indutype":"일반휴게음식 - 서양음식","category":"restaurant"}]},{"lat":"37.813568427","long":"127.49849886","imageIndex":16,"items":[{"name":"사랑해체험마을","tel":"031-582-5159","addr":"경기도 가평군 가평읍 하색리 289-5번지","indutype":"학원 - 기타 교육기관","category":"study"}]}]