[{"lat":"37.184243829","long":"126.71217656","imageIndex":17,"items":[{"name":"(주)태호가스프라자","tel":"031-247-3002","addr":"경기도 화성시 서신면 상안리 160-4번지","indutype":"건축자재 - 보일러·펌프·샷시","category":"other"}]},{"lat":"37.190269447","long":"126.71122994","imageIndex":17,"items":[{"name":"YS Corporation","tel":"031-354-5960","addr":"경기도 화성시 서신면 상안리 92-15번지 1층","indutype":"기타 - 기계공구","category":"other"}]},{"lat":"37.184441226","long":"126.71183796","imageIndex":17,"items":[{"name":"대성천막","tel":"031-355-2407","addr":"경기도 화성시 서신면 상안리 165","indutype":"직물 - 카페트,커튼,천막,지물","category":"other"}]},{"lat":"37.173470338","long":"126.70609244","imageIndex":17,"items":[{"name":"동산철물점","tel":"031-366-8938","addr":"경기도 화성시 서신면 상안리 711-3번지","indutype":"건축자재 - 목재·석재·철물","category":"other"}]},{"lat":"37.180579041","long":"126.70951049","imageIndex":17,"items":[{"name":"마니공구,철물","tel":"031-355-0919","addr":"경기도 화성시 서신면 상안리 278번지","indutype":"건축자재 - 목재·석재·철물","category":"other"}]},{"lat":"37.182827305","long":"126.70061663","imageIndex":17,"items":[{"name":"명산","tel":"070-8116-3115","addr":"경기도 화성시 서신면 상안리 469번지","indutype":"신변잡화 - 기념품점","category":"other"}]},{"lat":"37.184271274","long":"126.71234538","imageIndex":17,"items":[{"name":"삼천리프라자","tel":"031-247-3002","addr":"경기도 화성시 서신면 상안리 164-1번지","indutype":"건축자재 - 보일러·펌프·샷시","category":"other"}]},{"lat":"37.185074405","long":"126.71283781","imageIndex":17,"items":[{"name":"올데이즈","tel":"031-366-7869","addr":"경기도 화성시 서신면 상안리 150-1번지","indutype":"레져용품 - 스포츠·레져용품","category":"other"}]},{"lat":"37.179412758","long":"126.71156447","imageIndex":17,"items":[{"name":"주식회사세라이트","tel":"070-4680-0040","addr":"경기도 화성시 서신면 상안리 267-34번지 1층","indutype":"건축자재 - 건축용 요업제품","category":"other"}]}]