[{"lat":"37.790448999","long":"126.68418322","imageIndex":4,"items":[{"name":"(주)테이블마운틴","tel":"02-2047-1881","addr":"경기도 파주시 탄현면 성동리 83번지","indutype":"일반휴게음식 - 서양음식","category":"restaurant"},{"name":"더치by쿠쿠오나","tel":"031-000-0000","addr":"경기도 파주시 탄현면 성동리 83번지","indutype":"일반휴게음식 - 서양음식","category":"restaurant"}]},{"lat":"37.786194386","long":"126.69010464","imageIndex":4,"items":[{"name":"CAFE 미제/케이제이에스멀티샵(주)","tel":"031-111-1111","addr":"경기도 파주시 탄현면 성동리 279-1번지","indutype":"일반휴게음식 - 서양음식","category":"restaurant"}]},{"lat":"37.790471153","long":"126.68571576","imageIndex":4,"items":[{"name":"가림시골밥상","tel":"02-1234-1234","addr":"경기도 파주시 탄현면 성동리 86번지","indutype":"일반휴게음식 - 일반한식","category":"restaurant"}]},{"lat":"37.78152624","long":"126.6896362","imageIndex":4,"items":[{"name":"고구려최강달인의집","tel":"031-957-9252","addr":"경기도 파주시 탄현면 성동리 671-2번지","indutype":"일반휴게음식 - 일반한식","category":"restaurant"}]},{"lat":"37.791110144","long":"126.68546326","imageIndex":4,"items":[{"name":"고궁","tel":"","addr":"경기도 파주시 탄현면 성동리 87번지","indutype":"일반휴게음식 - 일반한식","category":"restaurant"},{"name":"전통프로방스","tel":"031-945-0230","addr":"경기도 파주시 탄현면 성동리 87번지","indutype":"일반휴게음식 - 일반한식","category":"restaurant"}]},{"lat":"37.776755868","long":"126.68799911","imageIndex":4,"items":[{"name":"골든힐 레스토랑","tel":"031-942-0222","addr":"경기도 파주시 탄현면 성동리 679-6번지","indutype":"일반휴게음식 - 서양음식","category":"restaurant"}]},{"lat":"37.784525573","long":"126.68932839","imageIndex":4,"items":[{"name":"금이네 바지락칼국수.손만두","tel":"070-7872-8733","addr":"경기도 파주시 탄현면 성동리 663-3번지","indutype":"일반휴게음식 - 일반한식","category":"restaurant"},{"name":"파주수평선","tel":"031-947-9300","addr":"경기도 파주시 탄현면 성동리 663-3번지","indutype":"일반휴게음식 - 일반한식","category":"restaurant"}]},{"lat":"37.798330849","long":"126.68366113","imageIndex":4,"items":[{"name":"나는 애견인이다","tel":"031-947-5354","addr":"경기도 파주시 탄현면 성동리 124-51번지","indutype":"일반휴게음식 - 서양음식","category":"restaurant"}]},{"lat":"37.787560274","long":"126.68877065","imageIndex":4,"items":[{"name":"나테라스","tel":"031-948-6868","addr":"경기도 파주시 탄현면 성동리 206-6 2층","indutype":"일반휴게음식 - 주점","category":"restaurant"}]},{"lat":"37.781972928","long":"126.68821537","imageIndex":4,"items":[{"name":"낙지, 쭈꾸미 철판","tel":"031-949-2750","addr":"경기도 파주시 탄현면 성동리 665-1번지","indutype":"일반휴게음식 - 일반한식","category":"restaurant"},{"name":"춘천닭갈비","tel":"031-944-1020","addr":"경기도 파주시 탄현면 성동리 665-1번지","indutype":"일반휴게음식 - 일반한식","category":"restaurant"}]},{"lat":"37.78436437","long":"126.68969233","imageIndex":4,"items":[{"name":"느루(Nroo)","tel":"031-000-0000","addr":"경기도 파주시 탄현면 성동리 663-10번지","indutype":"일반휴게음식 - 서양음식","category":"restaurant"},{"name":"산내음","tel":"031-946-8155","addr":"경기도 파주시 탄현면 성동리 663-10번지","indutype":"일반휴게음식 - 일반한식","category":"restaurant"}]},{"lat":"37.779589226","long":"126.68627306","imageIndex":4,"items":[{"name":"닭한마리","tel":"031-944-2096","addr":"경기도 파주시 탄현면 성동리 667번지","indutype":"일반휴게음식 - 일반한식","category":"restaurant"},{"name":"벌교꼬막","tel":"031-942-1690","addr":"경기도 파주시 탄현면 성동리 667번지 디지털실내자동차영화관 다동 110호","indutype":"일반휴게음식 - 일반한식","category":"restaurant"},{"name":"양스","tel":"031-944-5239","addr":"경기도 파주시 탄현면 성동리 667번지","indutype":"일반휴게음식 - 일반한식","category":"restaurant"},{"name":"요술","tel":"031-957-5239","addr":"경기도 파주시 탄현면 성동리 667번지","indutype":"일반휴게음식 - 일반한식","category":"restaurant"},{"name":"으리","tel":"031-945-4957","addr":"경기도 파주시 탄현면 성동리 667번지","indutype":"일반휴게음식 - 일반한식","category":"restaurant"},{"name":"짱 짱구네","tel":"031-947-3222","addr":"경기도 파주시 탄현면 성동리 667번지","indutype":"일반휴게음식 - 일반한식","category":"restaurant"},{"name":"쭈꾸미쪽갈비","tel":"031-942-9601","addr":"경기도 파주시 탄현면 성동리 667번지","indutype":"일반휴게음식 - 일반한식","category":"restaurant"},{"name":"회랑구이랑포차","tel":"031-957-0346","addr":"경기도 파주시 탄현면 성동리 667번지","indutype":"일반휴게음식 - 일반한식","category":"restaurant"}]},{"lat":"37.790722738","long":"126.68882538","imageIndex":4,"items":[{"name":"대승매운탕","tel":"031-941-1155","addr":"경기도 파주시 탄현면 성동리 34","indutype":"일반휴게음식 - 일반한식","category":"restaurant"}]},{"lat":"37.795088084","long":"126.68724011","imageIndex":4,"items":[{"name":"대청마루 참나무 장작구이","tel":"031-943-2536","addr":"경기도 파주시 탄현면 성동리 100-6번지","indutype":"일반휴게음식 - 일반한식","category":"restaurant"}]},{"lat":"37.776340527","long":"126.68766035","imageIndex":4,"items":[{"name":"더위즈 (The WIZ)","tel":"031-944-7779","addr":"경기도 파주시 탄현면 성동리 679-4번지","indutype":"일반휴게음식 - 일반한식","category":"restaurant"}]},{"lat":"37.797778126","long":"126.68583212","imageIndex":4,"items":[{"name":"돝고기집","tel":"031-111-1111","addr":"경기도 파주시 탄현면 성동리 124-29번지","indutype":"일반휴게음식 - 일반한식","category":"restaurant"}]},{"lat":"37.779167188","long":"126.68679702","imageIndex":4,"items":[{"name":"땅끝마을","tel":"070-4114-9050","addr":"경기도 파주시 탄현면 성동리 674번지","indutype":"일반휴게음식 - 일반한식","category":"restaurant"},{"name":"라이브음악인클럽","tel":"031-947-7901","addr":"경기도 파주시 탄현면 성동리 674번지","indutype":"일반휴게음식 - 일반한식","category":"restaurant"},{"name":"브니엘","tel":"031-945-8628","addr":"경기도 파주시 탄현면 성동리 674번지","indutype":"일반휴게음식 - 서양음식","category":"restaurant"},{"name":"차니","tel":"031-000-0000","addr":"경기도 파주시 탄현면 성동리 674번지","indutype":"일반휴게음식 - 주점","category":"restaurant"}]},{"lat":"37.781501945","long":"126.68393785","imageIndex":4,"items":[{"name":"뜰","tel":"031-949-6580","addr":"경기도 파주시 탄현면 성동리 248-43","indutype":"일반휴게음식 - 일반한식","category":"restaurant"}]},{"lat":"37.787477494","long":"126.68813527","imageIndex":4,"items":[{"name":"라치오비엘","tel":"031-947-5672","addr":"경기도 파주시 탄현면 성동리 231-1","indutype":"일반휴게음식 - 서양음식","category":"restaurant"}]},{"lat":"37.790031191","long":"126.68627393","imageIndex":4,"items":[{"name":"락빈칼국수","tel":"031-942-1436","addr":"경기도 파주시 탄현면 성동리 52-3번지","indutype":"일반휴게음식 - 일반한식","category":"restaurant"}]},{"lat":"37.790226406","long":"126.68852096","imageIndex":4,"items":[{"name":"루트66","tel":"031-947-6066","addr":"경기도 파주시 탄현면 성동리 66번지","indutype":"일반휴게음식 - 일반한식","category":"restaurant"}]},{"lat":"37.79083815","long":"126.68482866","imageIndex":4,"items":[{"name":"르바인/(주) 바인트리","tel":"031-949-2603","addr":"경기도 파주시 탄현면 성동리 82-1번지","indutype":"일반휴게음식 - 서양음식","category":"restaurant"},{"name":"올리브크릭","tel":"02-000-0000","addr":"경기도 파주시 탄현면 성동리 82-1번지","indutype":"일반휴게음식 - 서양음식","category":"restaurant"},{"name":"용호낙지 프로방스점","tel":"031-8071-5444","addr":"경기도 파주시 탄현면 성동리 82-1번지","indutype":"일반휴게음식 - 일반한식","category":"restaurant"},{"name":"자운삼계탕/다이닝트리 주식회사","tel":"031-8071-5444","addr":"경기도 파주시 탄현면 성동리 82-1번지","indutype":"일반휴게음식 - 일반한식","category":"restaurant"},{"name":"자운삼계탕/다이닝트리주식회사","tel":"031-8071-5444","addr":"경기도 파주시 탄현면 성동리 82-1번지","indutype":"일반휴게음식 - 일반한식","category":"restaurant"},{"name":"프로방스레스토랑본점","tel":"070-8778-3100","addr":"경기도 파주시 탄현면 성동리 82-1번지","indutype":"일반휴게음식 - 일반한식","category":"restaurant"}]},{"lat":"37.784779223","long":"126.68984951","imageIndex":4,"items":[{"name":"맘스의정부부대찌개","tel":"","addr":"경기도 파주시 탄현면 성동리 663-2번지 로드빌","indutype":"일반휴게음식 - 일반한식","category":"restaurant"},{"name":"바다 양푼이 동태탕","tel":"031-948-7363","addr":"경기도 파주시 탄현면 성동리 663-2번지 로드빌","indutype":"일반휴게음식 - 일반한식","category":"restaurant"},{"name":"산오징어눈빠지는날","tel":"031-8071-1233","addr":"경기도 파주시 탄현면 성동리 663-2번지 로드빌","indutype":"일반휴게음식 - 일반한식","category":"restaurant"},{"name":"시골토종닭","tel":"031-946-0053","addr":"경기도 파주시 탄현면 성동리 663-2번지 로드빌","indutype":"일반휴게음식 - 일반한식","category":"restaurant"},{"name":"원인1컵(one in 1 cup)","tel":"","addr":"경기도 파주시 탄현면 성동리 663-2번지 로드빌","indutype":"일반휴게음식 - 서양음식","category":"restaurant"},{"name":"윤설참치","tel":"","addr":"경기도 파주시 탄현면 성동리 663-2번지 로드빌","indutype":"일반휴게음식 - 일식·회집","category":"restaurant"},{"name":"윤설참치","tel":"031-111-1111","addr":"경기도 파주시 탄현면 성동리 663-2번지 로드빌","indutype":"일반휴게음식 - 일식·회집","category":"restaurant"},{"name":"이상순아바이순대국","tel":"031-947-9203","addr":"경기도 파주시 탄현면 성동리 663-2번지 로드빌","indutype":"일반휴게음식 - 일반한식","category":"restaurant"},{"name":"잎새쌈밥","tel":"000-000-0000","addr":"경기도 파주시 탄현면 성동리 663-2번지 로드빌","indutype":"일반휴게음식 - 일반한식","category":"restaurant"},{"name":"통일동산 한우마을","tel":"031-987-6543","addr":"경기도 파주시 탄현면 성동리 663-2번지 로드빌","indutype":"일반휴게음식 - 일반한식","category":"restaurant"},{"name":"통일양평해장국","tel":"031-948-0189","addr":"경기도 파주시 탄현면 성동리 663-2번지 로드빌","indutype":"일반휴게음식 - 일반한식","category":"restaurant"},{"name":"함흥냉면","tel":"031-944-9698","addr":"경기도 파주시 탄현면 성동리 663-2번지 로드빌","indutype":"일반휴게음식 - 일반한식","category":"restaurant"},{"name":"호돌이관광식당","tel":"031-957-0301","addr":"경기도 파주시 탄현면 성동리 663-2번지 201호 202 로드빌상가 (로드빌)","indutype":"일반휴게음식 - 일반한식","category":"restaurant"},{"name":"호식이두마리치킨(통일동산점)","tel":"031-944-9698","addr":"경기도 파주시 탄현면 성동리 663-2번지 로드빌","indutype":"일반휴게음식 - 스넥","category":"restaurant"},{"name":"화로향","tel":"031-945-8591","addr":"경기도 파주시 탄현면 성동리 663-2번지 로드빌","indutype":"일반휴게음식 - 일반한식","category":"restaurant"}]},{"lat":"37.796307187","long":"126.68494146","imageIndex":4,"items":[{"name":"매료","tel":"031-949-1127","addr":"경기도 파주시 탄현면 성동리 118번지","indutype":"일반휴게음식 - 서양음식","category":"restaurant"},{"name":"어화둥둥","tel":"","addr":"경기도 파주시 탄현면 성동리 118번지","indutype":"일반휴게음식 - 일반한식","category":"restaurant"}]},{"lat":"37.788305747","long":"126.6879047","imageIndex":4,"items":[{"name":"메이찬","tel":"031-941-4858","addr":"경기도 파주시 탄현면 성동리 204번지","indutype":"일반휴게음식 - 중국식","category":"restaurant"}]},{"lat":"37.782694858","long":"126.68865502","imageIndex":4,"items":[{"name":"발효공방/(주)힐팜바이오농업회사법인","tel":"031-945-8576","addr":"경기도 파주시 탄현면 성동리 664-3번지","indutype":"일반휴게음식 - 서양음식","category":"restaurant"}]},{"lat":"37.792444383","long":"126.68577544","imageIndex":4,"items":[{"name":"버즈커피","tel":"031-949-7797","addr":"경기도 파주시 탄현면 성동리 94번지 2층","indutype":"일반휴게음식 - 일반한식","category":"restaurant"},{"name":"오백년누룽지백숙","tel":"031-8071-6500","addr":"경기도 파주시 탄현면 성동리 94번지","indutype":"일반휴게음식 - 일반한식","category":"restaurant"}]},{"lat":"37.790776952","long":"126.68552145","imageIndex":4,"items":[{"name":"베로키오","tel":"031-945-3071","addr":"경기도 파주시 탄현면 성동리 87-3번지 1층","indutype":"일반휴게음식 - 일반한식","category":"restaurant"}]},{"lat":"37.789001256","long":"126.68857156","imageIndex":4,"items":[{"name":"보름다리","tel":"031-947-9555","addr":"경기도 파주시 탄현면 성동리 33-11번지","indutype":"일반휴게음식 - 서양음식","category":"restaurant"}]},{"lat":"37.789168883","long":"126.68724258","imageIndex":4,"items":[{"name":"복드림한우고기","tel":"031-944-8060","addr":"경기도 파주시 탄현면 성동리 67-12번지","indutype":"일반휴게음식 - 일반한식","category":"restaurant"}]},{"lat":"37.789445126","long":"126.68610614","imageIndex":4,"items":[{"name":"불끈 힘쎈장어","tel":"031-941-8808","addr":"경기도 파주시 탄현면 성동리 186-1번지","indutype":"일반휴게음식 - 일반한식","category":"restaurant"}]},{"lat":"37.781056122","long":"126.68902521","imageIndex":4,"items":[{"name":"산에들에","tel":"031-943-8592","addr":"경기도 파주시 탄현면 성동리 672-1번지","indutype":"일반휴게음식 - 일반한식","category":"restaurant"}]},{"lat":"37.781725207","long":"126.68654774","imageIndex":4,"items":[{"name":"소풍가는길","tel":"031-942-3542","addr":"경기도 파주시 탄현면 성동리 331번지","indutype":"일반휴게음식 - 주점","category":"restaurant"}]},{"lat":"37.783614418","long":"126.68887817","imageIndex":4,"items":[{"name":"숯피는 한우마을","tel":"031-947-6147","addr":"경기도 파주시 탄현면 성동리 663-6번지","indutype":"일반휴게음식 - 일반한식","category":"restaurant"}]},{"lat":"37.789557318","long":"126.68762692","imageIndex":4,"items":[{"name":"신성아구찜","tel":"031-946-9920","addr":"경기도 파주시 탄현면 성동리 67-13","indutype":"일반휴게음식 - 일반한식","category":"restaurant"}]},{"lat":"37.789366267","long":"126.68693522","imageIndex":4,"items":[{"name":"아침의향기","tel":"032-957-7721","addr":"경기도 파주시 탄현면 성동리 67-3번지","indutype":"일반휴게음식 - 일반한식","category":"restaurant"}]},{"lat":"37.789638158","long":"126.6841867","imageIndex":4,"items":[{"name":"약산정","tel":"031-945-3369","addr":"경기도 파주시 탄현면 성동리 193-1번지","indutype":"일반휴게음식 - 일반한식","category":"restaurant"}]},{"lat":"37.791136339","long":"126.6818302","imageIndex":4,"items":[{"name":"여미지","tel":"031-945-8185","addr":"경기도 파주시 탄현면 성동리 154-3번지","indutype":"일반휴게음식 - 일반한식","category":"restaurant"}]},{"lat":"37.791449282","long":"126.68426974","imageIndex":4,"items":[{"name":"열한시사십오분 어 헝그리타임","tel":"031-111-1111","addr":"경기도 파주시 탄현면 성동리 80-14번지","indutype":"일반휴게음식 - 서양음식","category":"restaurant"}]},{"lat":"37.782866499","long":"126.68213841","imageIndex":4,"items":[{"name":"오두산전망대농장","tel":"031-944-8865","addr":"경기도 파주시 탄현면 성동리 473번지 1층","indutype":"일반휴게음식 - 일반한식","category":"restaurant"}]},{"lat":"37.789615021","long":"126.6856286","imageIndex":4,"items":[{"name":"오리엔탈비스트로포맨","tel":"031-943-2218","addr":"경기도 파주시 탄현면 성동리 196-1번지","indutype":"일반휴게음식 - 서양음식","category":"restaurant"}]},{"lat":"37.797643872","long":"126.68616196","imageIndex":4,"items":[{"name":"오리촌","tel":"031-943-5295","addr":"경기도 파주시 탄현면 성동리 124-18번지","indutype":"일반휴게음식 - 일반한식","category":"restaurant"}]},{"lat":"37.790141637","long":"126.68379854","imageIndex":4,"items":[{"name":"용궁칼국수","tel":"031-944-8805","addr":"경기도 파주시 탄현면 성동리 77-1번지","indutype":"일반휴게음식 - 일반한식","category":"restaurant"}]},{"lat":"37.783419769","long":"126.68349824","imageIndex":4,"items":[{"name":"우신성동숯불고기","tel":"031-944-1740","addr":"경기도 파주시 탄현면 성동리 248-6번지","indutype":"일반휴게음식 - 일반한식","category":"restaurant"}]},{"lat":"37.786776158","long":"126.68866045","imageIndex":4,"items":[{"name":"윤랩의카페더스킬","tel":"031-949-4679","addr":"경기도 파주시 탄현면 성동리 235번지","indutype":"일반휴게음식 - 서양음식","category":"restaurant"}]},{"lat":"37.783253892","long":"126.68882293","imageIndex":4,"items":[{"name":"일미터갈치","tel":"031-948-7798","addr":"경기도 파주시 탄현면 성동리 664-1번지","indutype":"일반휴게음식 - 일반한식","category":"restaurant"},{"name":"케냐","tel":"031-944-9007","addr":"경기도 파주시 탄현면 성동리 664-1 부림프라자1층104,105호","indutype":"일반휴게음식 - 일반한식","category":"restaurant"}]},{"lat":"37.794391318","long":"126.68610773","imageIndex":4,"items":[{"name":"자유가든","tel":"031-945-1508","addr":"경기도 파주시 탄현면 성동리 산13-4번지","indutype":"일반휴게음식 - 일반한식","category":"restaurant"}]},{"lat":"37.790364598","long":"126.68629521","imageIndex":4,"items":[{"name":"전라도갈치찜전문점","tel":"031-949-7771","addr":"경기도 파주시 탄현면 성동리 52-1번지","indutype":"일반휴게음식 - 일반한식","category":"restaurant"}]},{"lat":"37.781783064","long":"126.68796644","imageIndex":4,"items":[{"name":"전라도식당","tel":"031-944-3524","addr":"경기도 파주시 탄현면 성동리 665-2번지","indutype":"일반휴게음식 - 일반한식","category":"restaurant"},{"name":"통일동산한우촌","tel":"031-949-2332","addr":"경기도 파주시 탄현면 성동리 665-2번지","indutype":"일반휴게음식 - 일반한식","category":"restaurant"}]},{"lat":"37.78633751","long":"126.68971806","imageIndex":4,"items":[{"name":"주막보리밥 통일동산점","tel":"031-945-0700","addr":"경기도 파주시 탄현면 성동리 279-6번지","indutype":"일반휴게음식 - 일반한식","category":"restaurant"}]},{"lat":"37.784254778","long":"126.68913655","imageIndex":4,"items":[{"name":"지향막국수","tel":"031-944-0555","addr":"경기도 파주시 탄현면 성동리 663-4번지","indutype":"일반휴게음식 - 일반한식","category":"restaurant"}]},{"lat":"37.789112299","long":"126.68630055","imageIndex":4,"items":[{"name":"천진","tel":"031-947-5558","addr":"경기도 파주시 탄현면 성동리 186-12번지","indutype":"일반휴게음식 - 일반한식","category":"restaurant"}]},{"lat":"37.792913694","long":"126.68607998","imageIndex":4,"items":[{"name":"청순보리밥 돈까스","tel":"031-529-8188","addr":"경기도 파주시 탄현면 성동리 95-1번지","indutype":"일반휴게음식 - 일반한식","category":"restaurant"}]},{"lat":"37.792165307","long":"126.68585611","imageIndex":4,"items":[{"name":"춘자의 완당 공자의 우동","tel":"031-944-7404","addr":"경기도 파주시 탄현면 성동리 93-2번지","indutype":"일반휴게음식 - 일반한식","category":"restaurant"}]},{"lat":"37.790333902","long":"126.684933","imageIndex":4,"items":[{"name":"카페 퀴너스","tel":"031-947-0321","addr":"경기도 파주시 탄현면 성동리 84번지 프로방스힐B2층 201호","indutype":"일반휴게음식 - 스넥","category":"restaurant"},{"name":"카페비","tel":"070-4468-6688","addr":"경기도 파주시 탄현면 성동리 84번지","indutype":"일반휴게음식 - 서양음식","category":"restaurant"},{"name":"카페쁘아","tel":"070-7858-8680","addr":"경기도 파주시 탄현면 성동리 84번지 B2층217호 프로방스힐","indutype":"일반휴게음식 - 서양음식","category":"restaurant"},{"name":"프로방스524향기가게","tel":"031-957-0524","addr":"경기도 파주시 탄현면 성동리 84번지 B317호 외6필지프로방스힐","indutype":"일반휴게음식 - 서양음식","category":"restaurant"}]},{"lat":"37.781860612","long":"126.69002074","imageIndex":4,"items":[{"name":"카페토향","tel":"031-945-1511","addr":"경기도 파주시 탄현면 성동리 671-1번지","indutype":"일반휴게음식 - 서양음식","category":"restaurant"}]},{"lat":"37.797921358","long":"126.68549089","imageIndex":4,"items":[{"name":"카페화이트버찌","tel":"031-945-0424","addr":"경기도 파주시 탄현면 성동리 124-4번지","indutype":"일반휴게음식 - 서양음식","category":"restaurant"}]},{"lat":"37.788808144","long":"126.68710789","imageIndex":4,"items":[{"name":"콩밭 뜰","tel":"031-941-0017","addr":"경기도 파주시 탄현면 성동리 186-16번지","indutype":"일반휴게음식 - 일반한식","category":"restaurant"}]},{"lat":"37.796024325","long":"126.68696364","imageIndex":4,"items":[{"name":"파주맛고을낙지마당","tel":"031-944-8381","addr":"경기도 파주시 탄현면 성동리 109-3번지","indutype":"일반휴게음식 - 서양음식","category":"restaurant"}]},{"lat":"37.781584099","long":"126.68768349","imageIndex":4,"items":[{"name":"평양옥","tel":"031-945-1195","addr":"경기도 파주시 탄현면 성동리 665-3번지","indutype":"일반휴게음식 - 일반한식","category":"restaurant"}]},{"lat":"37.781756753","long":"126.68487893","imageIndex":4,"items":[{"name":"풍금한정식","tel":"031-949-2828","addr":"경기도 파주시 탄현면 성동리 251-24번지","indutype":"일반휴게음식 - 일반한식","category":"restaurant"}]},{"lat":"37.791446515","long":"126.68324798","imageIndex":4,"items":[{"name":"허브테라스","tel":"031-945-6315","addr":"경기도 파주시 탄현면 성동리 81번지","indutype":"일반휴게음식 - 서양음식","category":"restaurant"}]},{"lat":"37.789415561","long":"126.68516399","imageIndex":4,"items":[{"name":"흔적","tel":"031-948-8585","addr":"경기도 파주시 탄현면 성동리 196-2","indutype":"일반휴게음식 - 서양음식","category":"restaurant"}]},{"lat":"37.795058619","long":"126.68633195","imageIndex":4,"items":[{"name":"힐하우스","tel":"031-945-9666","addr":"경기도 파주시 탄현면 성동리 100-2번지","indutype":"일반휴게음식 - 서양음식","category":"restaurant"}]}]