[{"lat":"37.50746108","long":"127.319469","imageIndex":13,"items":[{"name":"(주)귀여랜드","tel":"031-767-0119","addr":"경기도 광주시 남종면 귀여리 319-6번지","indutype":"레저업소 - 기타레져업소","category":"leisure"}]},{"lat":"37.50787828","long":"127.3184415","imageIndex":7,"items":[{"name":"공원농장","tel":"031-764-0958","addr":"경기도 광주시 남종면 귀여리 318-3번지","indutype":"음료식품 - 농·축·수산품","category":"food"}]},{"lat":"37.50276742","long":"127.332466","imageIndex":7,"items":[{"name":"정암산 배 농원","tel":"031-767-3022","addr":"경기도 광주시 남종면 귀여리 85번지","indutype":"음료식품 - 농·축·수산품","category":"food"}]},{"lat":"37.50787828","long":"127.3184415","imageIndex":4,"items":[{"name":"공원식당","tel":"031-764-0958","addr":"경기도 광주시 남종면 귀여리 318-3번지","indutype":"일반휴게음식 - 일반한식","category":"restaurant"}]},{"lat":"37.50851894","long":"127.3180823","imageIndex":4,"items":[{"name":"친구네밥집","tel":"","addr":"경기도 광주시 남종면 귀여리 267-12번지","indutype":"일반휴게음식 - 일반한식","category":"restaurant"}]},{"lat":"37.50746108","long":"127.319469","imageIndex":17,"items":[{"name":"귀여랜드","tel":"031-768-0200","addr":"경기도 광주시 남종면 귀여리 319-6번지 1층","indutype":"레져용품 - 스포츠·레져용품","category":"other"},{"name":"주식회사 귀여랜드","tel":"031-767-0119","addr":"경기도 광주시 남종면 귀여리 319-6번지","indutype":"레져용품 - 스포츠·레져용품","category":"other"}]},{"lat":"37.50832082","long":"127.3180475","imageIndex":17,"items":[{"name":"물안개공원 해피푸드 편의점","tel":"031-763-3523","addr":"경기도 광주시 남종면 귀여리 267-9번지","indutype":"유통업 영리 - 편 의 점","category":"other"}]},{"lat":"37.50785304","long":"127.3211332","imageIndex":17,"items":[{"name":"후계자농장","tel":"031-764-6800","addr":"경기도 광주시 남종면 귀여리 295-4번지","indutype":"회원제형태 - 기타1","category":"other"}]}]