[{"lat":"37.148419746","long":"127.07477559","imageIndex":7,"items":[{"name":"FOR YOU 25(운암점)","tel":"031-372-4558","addr":"경기도 오산시 원동 811-5번지 오산메디칼프라자 101호","indutype":"유통업 영리 - 슈퍼마켓","category":"mart"}]},{"lat":"37.135979465","long":"127.06930544","imageIndex":7,"items":[{"name":"NOS마트(원동점)","tel":"031-377-7733","addr":"경기도 오산시 원동 439-6번지","indutype":"유통업 영리 - 슈퍼마켓","category":"mart"}]},{"lat":"37.147447926","long":"127.07257973","imageIndex":7,"items":[{"name":"나래슈퍼","tel":"031-372-0201","addr":"경기도 오산시 원동 759-9번지","indutype":"유통업 영리 - 슈퍼마켓","category":"mart"}]},{"lat":"37.136171165","long":"127.08008734","imageIndex":7,"items":[{"name":"더존마트","tel":"031-375-5533","addr":"경기도 오산시 원동 535번지 1층","indutype":"유통업 영리 - 슈퍼마켓","category":"mart"},{"name":"오산농축수식자재마트 주식회사","tel":"031-376-5559","addr":"경기도 오산시 원동 535번지","indutype":"유통업 영리 - 슈퍼마켓","category":"mart"},{"name":"제로마켓","tel":"","addr":"경기도 오산시 원동 535번지 1층","indutype":"유통업 영리 - 슈퍼마켓","category":"mart"}]},{"lat":"37.148530465","long":"127.07036324","imageIndex":7,"items":[{"name":"럼마트","tel":"031-374-7287","addr":"경기도 오산시 원동 750-2번지","indutype":"유통업 영리 - 슈퍼마켓","category":"mart"},{"name":"중국마트","tel":"031-373-0018","addr":"경기도 오산시 원동 750-2번지","indutype":"유통업 영리 - 슈퍼마켓","category":"mart"}]},{"lat":"37.143365918","long":"127.07302621","imageIndex":7,"items":[{"name":"병원마트","tel":"031-372-0227","addr":"경기도 오산시 원동 789-12번지","indutype":"유통업 영리 - 슈퍼마켓","category":"mart"},{"name":"서울어린이병원마트","tel":"031-373-4913","addr":"경기도 오산시 원동 789-12번지 1층","indutype":"유통업 영리 - 슈퍼마켓","category":"mart"}]},{"lat":"37.138445729","long":"127.0738095","imageIndex":7,"items":[{"name":"세이브코스트","tel":"031-372-7790","addr":"경기도 오산시 원동 391-1번지 폴라리스프라자 112호","indutype":"유통업 영리 - 슈퍼마켓","category":"mart"},{"name":"초록마을","tel":"031-372-7230","addr":"경기도 오산시 원동 391-1번지 패션폴라리스 114호","indutype":"유통업 영리 - 슈퍼마켓","category":"mart"},{"name":"하늘편의점","tel":"031-372-9250","addr":"경기도 오산시 원동 391-1번지 폴라리스프라자 110호","indutype":"유통업 영리 - 슈퍼마켓","category":"mart"}]},{"lat":"37.148116016","long":"127.07030659","imageIndex":7,"items":[{"name":"아시아넷","tel":"070-8232-5588","addr":"경기도 오산시 원동 751-1번지 1층","indutype":"유통업 영리 - 슈퍼마켓","category":"mart"}]},{"lat":"37.143140755","long":"127.0867464","imageIndex":7,"items":[{"name":"아주할인마트","tel":"031-372-6901","addr":"경기도 오산시 원동 31-1번지","indutype":"유통업 영리 - 슈퍼마켓","category":"mart"}]},{"lat":"37.143223235","long":"127.07047108","imageIndex":7,"items":[{"name":"오뚜기슈퍼","tel":"031-374-5037","addr":"경기도 오산시 원동 782-8번지","indutype":"유통업 영리 - 슈퍼마켓","category":"mart"}]},{"lat":"37.141364507","long":"127.07483645","imageIndex":7,"items":[{"name":"우리할인마트","tel":"031-372-2745","addr":"경기도 오산시 원동 560-3번지","indutype":"유통업 영리 - 슈퍼마켓","category":"mart"}]},{"lat":"37.137949515","long":"127.07486698","imageIndex":7,"items":[{"name":"우주할인마트","tel":"031-374-1356","addr":"경기도 오산시 원동 379-12번지 우주마루 101동 102,103호","indutype":"유통업 영리 - 슈퍼마켓","category":"mart"}]},{"lat":"37.145166556","long":"127.07544786","imageIndex":7,"items":[{"name":"운암제로마트","tel":"031-376-0073","addr":"경기도 오산시 원동 815-1번지 주공5단지 가동 B1호","indutype":"유통업 영리 - 슈퍼마켓","category":"mart"}]},{"lat":"37.145950141","long":"127.07597763","imageIndex":7,"items":[{"name":"운암제로마트","tel":"031-376-0073","addr":"경기도 오산시 원동 815-10번지 운암주공5단지 상가 지층 1호","indutype":"유통업 영리 - 슈퍼마켓","category":"mart"},{"name":"해피마트","tel":"","addr":"경기도 오산시 원동 815-10번지 운암5단지제가 101호","indutype":"유통업 영리 - 슈퍼마켓","category":"mart"}]},{"lat":"37.144310767","long":"127.07510937","imageIndex":7,"items":[{"name":"운암주공슈퍼","tel":"031-372-5105","addr":"경기도 오산시 원동 815-11번지 주공상가나 101호","indutype":"유통업 영리 - 슈퍼마켓","category":"mart"}]},{"lat":"37.143114226","long":"127.07200173","imageIndex":7,"items":[{"name":"원동DC마트","tel":"031-374-8625","addr":"경기도 오산시 원동 785-10번지","indutype":"유통업 영리 - 슈퍼마켓","category":"mart"}]},{"lat":"37.141644469","long":"127.07377872","imageIndex":7,"items":[{"name":"원리마트","tel":"031-375-9966","addr":"경기도 오산시 원동 299-32번지 주공 상가 107호","indutype":"유통업 영리 - 슈퍼마켓","category":"mart"}]},{"lat":"37.135948249","long":"127.07639568","imageIndex":7,"items":[{"name":"이화매점","tel":"031-373-9042","addr":"경기도 오산시 원동 520번지 이화다이아몬드내","indutype":"유통업 영리 - 슈퍼마켓","category":"mart"}]},{"lat":"37.143530031","long":"127.06969473","imageIndex":7,"items":[{"name":"제로마트","tel":"","addr":"경기도 오산시 원동 783-3번지 오산센트럴타워 1층 101호","indutype":"유통업 영리 - 슈퍼마켓","category":"mart"}]},{"lat":"37.144336856","long":"127.07664016","imageIndex":7,"items":[{"name":"진마트","tel":"031-373-0774","addr":"경기도 오산시 원동 815-12번지 운암6단지 상가 104호","indutype":"유통업 영리 - 슈퍼마켓","category":"mart"}]},{"lat":"37.137561763","long":"127.07536181","imageIndex":7,"items":[{"name":"태영슈퍼","tel":"031-372-4938","addr":"경기도 오산시 원동 380-6번지","indutype":"유통업 영리 - 슈퍼마켓","category":"mart"}]},{"lat":"37.1397788","long":"127.07460985","imageIndex":7,"items":[{"name":"포유25시","tel":"031-378-9005","addr":"경기도 오산시 원동 558-5번지","indutype":"유통업 영리 - 슈퍼마켓","category":"mart"}]},{"lat":"37.142701207","long":"127.06944638","imageIndex":7,"items":[{"name":"포유25시 만점","tel":"031-378-7377","addr":"경기도 오산시 원동 781-15번지 1층","indutype":"유통업 영리 - 슈퍼마켓","category":"mart"}]},{"lat":"37.137589014","long":"127.07500169","imageIndex":7,"items":[{"name":"포유25원동점","tel":"031-376-2055","addr":"경기도 오산시 원동 380-30번지","indutype":"유통업 영리 - 슈퍼마켓","category":"mart"}]},{"lat":"37.144808994","long":"127.07061882","imageIndex":7,"items":[{"name":"하모니마트(오산점)","tel":"031-376-0211","addr":"경기도 오산시 원동 775-30번지","indutype":"유통업 영리 - 슈퍼마켓","category":"mart"}]},{"lat":"37.145924227","long":"127.0741429","imageIndex":7,"items":[{"name":"한살림경기서남부 오산매장","tel":"031-374-1720","addr":"경기도 오산시 원동 275-1번지 라이온스빌딩 102동 103호","indutype":"유통업 영리 - 슈퍼마켓","category":"mart"}]}]