[{"lat":"37.2924810809","long":"127.0075283699","imageIndex":17,"items":[{"name":"(주) 이팀스","tel":"031-243-1871","addr":"경기도 수원시 장안구 정자동 81-8번지","indutype":"가구 - 기타가구","category":"other"},{"name":"수원신도판매장안지점","tel":"031-244-9339","addr":"경기도 수원시 장안구 정자동 81-8번지","indutype":"사무통신 - 사무용 OA기기","category":"other"}]},{"lat":"37.292481059","long":"127.00805842","imageIndex":17,"items":[{"name":"(주)가로수정보","tel":"031-253-4364","addr":"경기도 수원시 장안구 정자동 82-16번지","indutype":"용역 서비스 - 종합용역","category":"other"},{"name":"(주)가로수정보/수기","tel":"031-258-0033","addr":"경기도 수원시 장안구 정자동 82-16번지","indutype":"용역 서비스 - 종합용역","category":"other"},{"name":"나래항공여행사(주)","tel":"031-241-0301","addr":"경기도 수원시 장안구 정자동 82-16번지 서일빌딩 303호","indutype":"여행 - 관광여행","category":"other"},{"name":"비앤비로얄","tel":"031-251-3424","addr":"경기도 수원시 장안구 정자동 82-16번지","indutype":"건축자재 - 건축용 요업제품","category":"other"},{"name":"율림종합상조(주)","tel":"031-242-2160","addr":"경기도 수원시 장안구 정자동 82-16번지 서일빌딩 301호","indutype":"회원제형태 - 기타4","category":"other"},{"name":"진영종합기획","tel":"031-243-1983","addr":"경기도 수원시 장안구 정자동 82-16번지 서일빌딩 107호","indutype":"서적문구 - 출판 및 인쇄물","category":"other"},{"name":"휴대폰마트","tel":"070-7565-2324","addr":"경기도 수원시 장안구 정자동 82-16번지 창신빌딩 105,106호","indutype":"사무통신 - 통신기기","category":"other"}]},{"lat":"37.304509272","long":"126.99125284","imageIndex":17,"items":[{"name":"(주)대일계장","tel":"031-292-5361","addr":"경기도 수원시 장안구 정자동 438-1번지","indutype":"기타 - 기계공구","category":"other"}]},{"lat":"37.305967835","long":"126.98302973","imageIndex":17,"items":[{"name":"(주)동구","tel":"070-4025-8784","addr":"경기도 수원시 장안구 정자동 945번지 SK스카이뷰아타트 120동 1602호","indutype":"용역 서비스 - 종합용역","category":"other"}]},{"lat":"37.292841501","long":"126.99850622","imageIndex":17,"items":[{"name":"(주)디데이컴퍼니 바른청년 통신지점2호점","tel":"070-4640-3964","addr":"경기도 수원시 장안구 정자동 43-105번지 1층","indutype":"사무통신 - 통신기기","category":"other"},{"name":"퍼스트올로","tel":"031-297-5808","addr":"경기도 수원시 장안구 정자동 43-105번지 1층","indutype":"의류 - 스포츠의류","category":"other"}]},{"lat":"37.307869936","long":"126.98980849","imageIndex":17,"items":[{"name":"(주)디와이환경연구소","tel":"031-291-8407","addr":"경기도 수원시 장안구 정자동 541-46번지 4층","indutype":"용역 서비스 - 사무서비스","category":"other"},{"name":"(주)케이투제이개발","tel":"031-268-7270","addr":"경기도 수원시 장안구 정자동 541-46번지 2층","indutype":"용역 서비스 - 기타용역서비스","category":"other"}]},{"lat":"37.303454426","long":"126.98589534","imageIndex":17,"items":[{"name":"(주)에스케이씨새마을금고/삼원(담배)","tel":"031-250-7637","addr":"경기도 수원시 장안구 정자동 633번지","indutype":"기타 - 기타 전문점","category":"other"}]},{"lat":"37.294039869","long":"126.99864148","imageIndex":17,"items":[{"name":"(주)유명전기공사","tel":"031-242-6040","addr":"경기도 수원시 장안구 정자동 30-1 1층 제4,5호","indutype":"용역 서비스 - 기타용역서비스","category":"other"}]},{"lat":"37.294760745","long":"127.00505863","imageIndex":17,"items":[{"name":"(주)피플컴퍼니","tel":"","addr":"경기도 수원시 장안구 정자동 51-13번지","indutype":"서적문구 - 문구용품","category":"other"},{"name":"피플산업","tel":"031-713-5070","addr":"경기도 수원시 장안구 정자동 51-13번지 2층","indutype":"서적문구 - 문구용품","category":"other"}]},{"lat":"37.299040039","long":"126.99106195","imageIndex":17,"items":[{"name":"(주)혜민복지","tel":"031-242-1332","addr":"경기도 수원시 장안구 정자동 266-3번지 파크프라자 206호","indutype":"기타의료기관 - 기타의료기관 및 기타","category":"other"},{"name":"명은전문요양원","tel":"031-268-8875","addr":"경기도 수원시 장안구 정자동 266-3번지 파크프라자 206호","indutype":"기타의료기관 - 기타의료기관 및 기타","category":"other"},{"name":"색연필정자본점","tel":"031-271-9991","addr":"경기도 수원시 장안구 정자동 266-3번지 파크프라자 113호","indutype":"서적문구 - 문구용품","category":"other"},{"name":"오드리될뻔","tel":"031-268-7737","addr":"경기도 수원시 장안구 정자동 266-3번지 파크프라자 109호","indutype":"의류 - 정장","category":"other"},{"name":"오션스카이","tel":"031-269-7129","addr":"경기도 수원시 장안구 정자동 266-3번지 외6필지제1층 제119호","indutype":"의류 - 정장","category":"other"},{"name":"오션스카이","tel":"031-269-7129","addr":"경기도 수원시 장안구 정자동 266-3번지 외6필지 파크프라자 1층 119호","indutype":"의류 - 정장","category":"other"},{"name":"이마트24 수원정자점","tel":"","addr":"경기도 수원시 장안구 정자동 266-3번지 파크프라자 114호","indutype":"유통업 영리 - 편 의 점","category":"other"},{"name":"주식회사 지벤","tel":"031-268-0681","addr":"경기도 수원시 장안구 정자동 266-3번지 파크프라자 118호","indutype":"건축자재 - 인테리어전문","category":"other"},{"name":"타이혼체육관","tel":"031-269-0340","addr":"경기도 수원시 장안구 정자동 266-3번지 파크프라자 406호","indutype":"회원제형태 - 레져업소","category":"other"}]},{"lat":"37.293012703","long":"126.99873176","imageIndex":17,"items":[{"name":"2buna(이버바)","tel":"031-269-3185","addr":"경기도 수원시 장안구 정자동 42-67번지","indutype":"의류 - 정장","category":"other"},{"name":"뜰안  플라워","tel":"031-255-0054","addr":"경기도 수원시 장안구 정자동 42-67번지 송정빌딩 105호","indutype":"문화.취미 - 화원","category":"other"}]},{"lat":"37.306257302","long":"126.99172632","imageIndex":17,"items":[{"name":"5&UPS","tel":"031-255-1334","addr":"경기도 수원시 장안구 정자동 436-3번지","indutype":"의류 - 정장","category":"other"},{"name":"킹스양화점","tel":"031-243-0620","addr":"경기도 수원시 장안구 정자동 436-3번지","indutype":"신변잡화 - 신발","category":"other"}]},{"lat":"37.291318849","long":"127.00294964","imageIndex":17,"items":[{"name":"A/C씨스템","tel":"031-242-6729","addr":"경기도 수원시 장안구 정자동 71-4번지 오성카서비스센터 102호","indutype":"전기제품 - 냉열기기","category":"other"},{"name":"국제앵글","tel":"031-252-9877","addr":"경기도 수원시 장안구 정자동 71-4번지 1층","indutype":"건축자재 - 기타건축자재","category":"other"},{"name":"대호상사","tel":"031-245-1173","addr":"경기도 수원시 장안구 정자동 71-4번지 오성카서비스센터 105호","indutype":"용역 서비스 - 기타용역서비스","category":"other"},{"name":"삼칠실내건축설비","tel":"031-271-3777","addr":"경기도 수원시 장안구 정자동 71-4번지","indutype":"건축자재 - 인테리어전문","category":"other"},{"name":"조은에어컨","tel":"031-252-8244","addr":"경기도 수원시 장안구 정자동 71-4번지","indutype":"전기제품 - 냉열기기","category":"other"}]},{"lat":"37.296238086","long":"126.99366766","imageIndex":17,"items":[{"name":"Balance","tel":"031-268-0251","addr":"경기도 수원시 장안구 정자동 876-8번지 대일프라자 1층 102호","indutype":"의류 - 정장","category":"other"},{"name":"골드뱅크","tel":"031-269-8949","addr":"경기도 수원시 장안구 정자동 876-8번지 대일프라자 103호","indutype":"신변잡화 - 귀금속","category":"other"},{"name":"홍승아스킨앤바디","tel":"031-246-9986","addr":"경기도 수원시 장안구 정자동 876-8번지 대일프라자 303호","indutype":"회원제형태 - 기타4","category":"other"}]},{"lat":"37.306815123","long":"126.98508243","imageIndex":17,"items":[{"name":"GS25수원SK뷰점","tel":"","addr":"경기도 수원시 장안구 정자동 945번지 수원에스케이스카이뷰 602동107호,108호","indutype":"유통업 영리 - 편 의 점","category":"other"},{"name":"백마크리닝 정자스카이뷰점","tel":"031-000-0000","addr":"경기도 수원시 장안구 정자동 945번지 수원SKSKYVIEW 104호","indutype":"수리서비스 - 세탁소","category":"other"},{"name":"씨유수원SK뷰점","tel":"080-080-3663","addr":"경기도 수원시 장안구 정자동 945번지 604동 1층 101호,102호","indutype":"유통업 영리 - 편 의 점","category":"other"},{"name":"월드크리닝 에스케이스카이뷰점","tel":"031-268-1668","addr":"경기도 수원시 장안구 정자동 945번지 수원에스케이스카이뷰 604동 1층 103호","indutype":"수리서비스 - 세탁소","category":"other"},{"name":"크린토피아 수원정자SK다솔점","tel":"031-268-3960","addr":"경기도 수원시 장안구 정자동 945번지 수원에스케이스카이뷰 601동 118호","indutype":"수리서비스 - 세탁소","category":"other"}]},{"lat":"37.292210781","long":"127.00733663","imageIndex":17,"items":[{"name":"GS25수원수성로점","tel":"","addr":"경기도 수원시 장안구 정자동 81-15번지","indutype":"유통업 영리 - 편 의 점","category":"other"},{"name":"베델라사","tel":"031-48-1437","addr":"경기도 수원시 장안구 정자동 81-15번지","indutype":"의류 - 맞춤복점","category":"other"}]},{"lat":"37.295481217","long":"126.99356625","imageIndex":17,"items":[{"name":"GS25수원정연점","tel":"","addr":"경기도 수원시 장안구 정자동 877-4번지 정연메이저 106,120호","indutype":"유통업 영리 - 편 의 점","category":"other"},{"name":"동주","tel":"031-255-3507","addr":"경기도 수원시 장안구 정자동 877-4번지 정연메이져 1층 124호","indutype":"건축자재 - 목재·석재·철물","category":"other"},{"name":"리틀테이블","tel":"031-111-1111","addr":"경기도 수원시 장안구 정자동 877-4번지 1동 414호","indutype":"문화.취미 - 화원","category":"other"},{"name":"미영","tel":"","addr":"경기도 수원시 장안구 정자동 877-4번지 정연메이져 204호","indutype":"용역 서비스 - 부동산 중개·임대","category":"other"},{"name":"부동산","tel":"031-253-4730","addr":"경기도 수원시 장안구 정자동 877-4번지 정연메이저 102호","indutype":"용역 서비스 - 부동산 중개·임대","category":"other"},{"name":"빠리걸","tel":"031-268-2582","addr":"경기도 수원시 장안구 정자동 877-4번지 103호","indutype":"의류 - 정장","category":"other"},{"name":"소망희망","tel":"031-269-4600","addr":"경기도 수원시 장안구 정자동 877-4번지 정연메이져비 13호","indutype":"서적문구 - 문구용품","category":"other"},{"name":"아카데미사진관","tel":"031-247-0123","addr":"경기도 수원시 장안구 정자동 877-4번지 정연메이져 205호","indutype":"광학제품 - 사진관","category":"other"},{"name":"에듀케어스터디카페","tel":"031-251-8159","addr":"경기도 수원시 장안구 정자동 877-4번지 8층 806,807호","indutype":"용역 서비스 - 사무서비스","category":"other"},{"name":"와이피통신","tel":"070-7803-0110","addr":"경기도 수원시 장안구 정자동 877-4번지 일부 104호","indutype":"사무통신 - 통신기기","category":"other"},{"name":"이브자리","tel":"031-268-8228","addr":"경기도 수원시 장안구 정자동 877-4번지 정연메이저 112동 113호","indutype":"직물 - 침구·수예점","category":"other"},{"name":"이플러스 오피스","tel":"070-7797-8433","addr":"경기도 수원시 장안구 정자동 877-4번지 124호","indutype":"서적문구 - 문구용품","category":"other"},{"name":"장안문고(주)","tel":"031-269-4600","addr":"경기도 수원시 장안구 정자동 877-4번지 정연메이져 지하 B13호","indutype":"서적문구 - 일반서적","category":"other"},{"name":"정자서점","tel":"031-268-5999","addr":"경기도 수원시 장안구 정자동 877-4번지 정연메이져 1동 B06호, B07호","indutype":"서적문구 - 일반서적","category":"other"},{"name":"취향","tel":"02-111-1111","addr":"경기도 수원시 장안구 정자동 877-4번지 1동 지층 B07호","indutype":"문화.취미 - 화원","category":"other"},{"name":"커브스 정자클럽","tel":"031-269-7030","addr":"경기도 수원시 장안구 정자동 877-4번지 정연메이저 8층 808호","indutype":"회원제형태 - 레져업소","category":"other"},{"name":"프라임파노라마","tel":"031-891-4884","addr":"경기도 수원시 장안구 정자동 877-4번지 정연빌딩 1126호","indutype":"광학제품 - 사진관","category":"other"}]},{"lat":"37.305653563","long":"126.99117371","imageIndex":17,"items":[{"name":"GS25수원정자점","tel":"031-243-3329","addr":"경기도 수원시 장안구 정자동 528-6번지","indutype":"유통업 영리 - 편 의 점","category":"other"}]},{"lat":"37.294760682","long":"127.00731423","imageIndex":17,"items":[{"name":"GS25수원팰리스점","tel":"","addr":"경기도 수원시 장안구 정자동 12-2번지","indutype":"유통업 영리 - 편 의 점","category":"other"},{"name":"주식회사에이치이테크(지점)","tel":"02-536-3852","addr":"경기도 수원시 장안구 정자동 12-2번지 103호","indutype":"건축자재 - 보일러·펌프·샷시","category":"other"}]},{"lat":"37.300788045","long":"126.99125342","imageIndex":17,"items":[{"name":"GS25장안대평로점","tel":"","addr":"경기도 수원시 장안구 정자동 327-13번지 1층","indutype":"유통업 영리 - 편 의 점","category":"other"}]},{"lat":"37.292598282","long":"127.00522773","imageIndex":17,"items":[{"name":"GS25장안수성점","tel":"","addr":"경기도 수원시 장안구 정자동 69-45번지 수원정자금강에스쁘아아파트 1층 상가동","indutype":"유통업 영리 - 편 의 점","category":"other"}]},{"lat":"37.298013088","long":"126.99347571","imageIndex":17,"items":[{"name":"GS25장안풍림점","tel":"","addr":"경기도 수원시 장안구 정자동 872-1번지 연꽃마을풍림아파트 상가동 106호","indutype":"유통업 영리 - 편 의 점","category":"other"}]},{"lat":"37.294598528","long":"126.99936324","imageIndex":17,"items":[{"name":"GS25정자권호점","tel":"","addr":"경기도 수원시 장안구 정자동 31-11번지 1층","indutype":"유통업 영리 - 편 의 점","category":"other"}]},{"lat":"37.294400236","long":"126.99759261","imageIndex":17,"items":[{"name":"GS25정자벽산점","tel":"","addr":"경기도 수원시 장안구 정자동 29-3번지 1층","indutype":"유통업 영리 - 편 의 점","category":"other"},{"name":"에스티라이브문예센타","tel":"031-000-0000","addr":"경기도 수원시 장안구 정자동 29-3번지 지하1층","indutype":"문화.취미 - 티켓","category":"other"}]},{"lat":"37.292346016","long":"127.00214892","imageIndex":17,"items":[{"name":"GS25정자스카이점","tel":"","addr":"경기도 수원시 장안구 정자동 48-8번지","indutype":"유통업 영리 - 편 의 점","category":"other"},{"name":"별빛LED조명","tel":"031-241-1590","addr":"경기도 수원시 장안구 정자동 48-8번지 태범빌딩","indutype":"건축자재 - 조명기구","category":"other"},{"name":"에듀스포츠","tel":"031-252-7679","addr":"경기도 수원시 장안구 정자동 48-8번지 안김빌딩 5층","indutype":"회원제형태 - 레져업소","category":"other"}]},{"lat":"37.301707276","long":"126.9933399","imageIndex":17,"items":[{"name":"GzoneMD(지존엠디)","tel":"031-892-5215","addr":"경기도 수원시 장안구 정자동 383번지 범야 상가 120호","indutype":"의류 - 정장","category":"other"},{"name":"닥이랑종이랑","tel":"031-268-8168","addr":"경기도 수원시 장안구 정자동 383번지 범야건설주식회사 1층 119호","indutype":"문화.취미 - 문화취미기타","category":"other"},{"name":"리츠","tel":"031-252-2598","addr":"경기도 수원시 장안구 정자동 383번지 범야 상가 139호","indutype":"의류 - 정장","category":"other"},{"name":"명화디지탈스튜디오","tel":"031-245-5080","addr":"경기도 수원시 장안구 정자동 383번지 범야 상가 105호","indutype":"광학제품 - 사진관","category":"other"},{"name":"모나미문구","tel":"031-243-1831","addr":"경기도 수원시 장안구 정자동 383번지 범야 상가 115호","indutype":"서적문구 - 문구용품","category":"other"},{"name":"미시라인","tel":"031-252-7718","addr":"경기도 수원시 장안구 정자동 383번지 범야상가 1층 122호","indutype":"의류 - 정장","category":"other"},{"name":"소소 스티치","tel":"","addr":"경기도 수원시 장안구 정자동 383번지 범야 상가 123호","indutype":"문화.취미 - 문화취미기타","category":"other"},{"name":"옷까게","tel":"070-7543-5425","addr":"경기도 수원시 장안구 정자동 383번지 범야건설주식회사 상가 110호","indutype":"의류 - 정장","category":"other"},{"name":"유니맥스","tel":"031-268-7879","addr":"경기도 수원시 장안구 정자동 383번지 범야상가 206호","indutype":"사무통신 - 컴퓨터","category":"other"},{"name":"이삭타일","tel":"031-248-9923","addr":"경기도 수원시 장안구 정자동 383번지 범야상가 114호","indutype":"용역 서비스 - 기타용역서비스","category":"other"},{"name":"장미경코스메틱","tel":"031-381-3732","addr":"경기도 수원시 장안구 정자동 383번지 범야건설주식회사 209호","indutype":"회원제형태 - 기타4","category":"other"},{"name":"크린토피아","tel":"031-258-0254","addr":"경기도 수원시 장안구 정자동 383번지 범야상가 1층 124호","indutype":"수리서비스 - 세탁소","category":"other"},{"name":"하일테크","tel":"","addr":"경기도 수원시 장안구 정자동 383번지 범야건설주식회사 204호","indutype":"건축자재 - 기타건축자재","category":"other"}]},{"lat":"37.293733582","long":"127.0010324","imageIndex":17,"items":[{"name":"JM노인요양통합지원센터","tel":"070-4843-7237","addr":"경기도 수원시 장안구 정자동 40-5번지 평산시티텔 3층 311호","indutype":"서적문구 - 일반서적","category":"other"},{"name":"바이오서비스","tel":"070-8202-0749","addr":"경기도 수원시 장안구 정자동 40-5번지 평산시티텔 303호","indutype":"서적문구 - 과학기자재","category":"other"},{"name":"반도사진관","tel":"031-269-3204","addr":"경기도 수원시 장안구 정자동 40-5번지 평산시티텔","indutype":"광학제품 - 사진관","category":"other"},{"name":"에듀라인","tel":"031-254-0928","addr":"경기도 수원시 장안구 정자동 40-5번지 평산시티텔 203호","indutype":"회원제형태 - 서적","category":"other"},{"name":"태경가발","tel":"031-244-6666","addr":"경기도 수원시 장안구 정자동 40-5번지 평산시티텔 101호","indutype":"기타 - 기타 전문점","category":"other"},{"name":"팰콘테크","tel":"031-244-3322","addr":"경기도 수원시 장안구 정자동 40-5번지 평산시티텔 413호","indutype":"기타 - 기타 전문점","category":"other"}]},{"lat":"37.302626554","long":"126.996904","imageIndex":17,"items":[{"name":"JT예티","tel":"031-0000-0000","addr":"경기도 수원시 장안구 정자동 297-2번지 경남아너스빌 103동 1106호","indutype":"의류 - 정장","category":"other"},{"name":"베베륀(BeBeLune)","tel":"","addr":"경기도 수원시 장안구 정자동 297-2번지 경남아너스빌 103동 907호","indutype":"의류 - 아동의류","category":"other"}]},{"lat":"37.303068048","long":"126.99675734","imageIndex":17,"items":[{"name":"J포토","tel":"031-245-0757","addr":"경기도 수원시 장안구 정자동 297-4번지 경남프라임코아 5층 502호","indutype":"광학제품 - 사진관","category":"other"},{"name":"주식회사 하나상사","tel":"070-7607-3939","addr":"경기도 수원시 장안구 정자동 297-4번지 경남프라임코아 305호","indutype":"신변잡화 - 신발","category":"other"},{"name":"하나트레이딩","tel":"070-7607-3939","addr":"경기도 수원시 장안구 정자동 297-4번지 경남프라임코아 3층 305호","indutype":"신변잡화 - 신발","category":"other"}]},{"lat":"37.294841857","long":"127.00291581","imageIndex":17,"items":[{"name":"KY플랜","tel":"02-2157-8896","addr":"경기도 수원시 장안구 정자동 35-29번지","indutype":"기타 - 기계공구","category":"other"}]},{"lat":"37.289651912","long":"126.99981456","imageIndex":17,"items":[{"name":"OPCNET컴퓨터","tel":"031-245-7220","addr":"경기도 수원시 장안구 정자동 75-6번지","indutype":"사무통신 - 컴퓨터","category":"other"},{"name":"그린조이(수원장안점)","tel":"031-253-1569","addr":"경기도 수원시 장안구 정자동 75-6번지 102,103호","indutype":"레져용품 - 스포츠·레져용품","category":"other"},{"name":"꼬맹이창고","tel":"031-202-2242","addr":"경기도 수원시 장안구 정자동 75-6번지 그린컴퓨터 107호","indutype":"의류 - 정장","category":"other"},{"name":"드림상사","tel":"031-255-3781","addr":"경기도 수원시 장안구 정자동 75-6번지","indutype":"레져용품 - 스포츠·레져용품","category":"other"},{"name":"수선 아비또","tel":"031-227-8304","addr":"경기도 수원시 장안구 정자동 75-6번지 그린컴퓨터 101호","indutype":"수리서비스 - 세탁소","category":"other"},{"name":"안나주단","tel":"031-243-5469","addr":"경기도 수원시 장안구 정자동 75-6번지 그린컴퓨터 101호","indutype":"의류 - 맞춤복점","category":"other"}]},{"lat":"37.297094061","long":"126.99370139","imageIndex":17,"items":[{"name":"PAT 서수원점","tel":"070-8807-6770","addr":"경기도 수원시 장안구 정자동 872-2번지 라이프스포츠 수원 101호","indutype":"의류 - 스포츠의류","category":"other"},{"name":"글램나인","tel":"031-251-4818","addr":"경기도 수원시 장안구 정자동 872-2번지 라이프스포츠 139호","indutype":"의류 - 정장","category":"other"},{"name":"금이랑 은이랑","tel":"031-271-5335","addr":"경기도 수원시 장안구 정자동 872-2번지 라이프스포츠수원 1층 111호","indutype":"신변잡화 - 귀금속","category":"other"},{"name":"대운실업","tel":"0700-7789-4717","addr":"경기도 수원시 장안구 정자동 872-2번지 라이프스포츠수원 226호","indutype":"유통업 영리 - 기타유통업","category":"other"},{"name":"들꽃스케치","tel":"031-268-4569","addr":"경기도 수원시 장안구 정자동 872-2번지 라이프스포츠수원 제 1층 132호","indutype":"의류 - 스포츠의류","category":"other"},{"name":"라이프레포츠","tel":"031-268-6766","addr":"경기도 수원시 장안구 정자동 872-2번지 라이프스포츠수원 내 1층 140호","indutype":"레져용품 - 스포츠·레져용품","category":"other"},{"name":"라이프레포츠","tel":"031-268-6766","addr":"경기도 수원시 장안구 정자동 872-2번지 라이프스포츠수원내1층 140호","indutype":"레져용품 - 스포츠·레져용품","category":"other"},{"name":"란스킨아트","tel":"031-246-2577","addr":"경기도 수원시 장안구 정자동 872-2번지 라이프스포츠수원 325호","indutype":"회원제형태 - 기타4","category":"other"},{"name":"모우이(mooi)","tel":"070-5201-0434","addr":"경기도 수원시 장안구 정자동 872-2번지 라이프스포츠 수원 130호","indutype":"의류 - 정장","category":"other"},{"name":"바른체형","tel":"031-223-5214","addr":"경기도 수원시 장안구 정자동 872-2번지 라이프스포츠수원 지하 1,2층","indutype":"회원제형태 - 기타4","category":"other"},{"name":"베리베리 (very berry)","tel":"031-546-0980","addr":"경기도 수원시 장안구 정자동 872-2번지 라이프스포츠수원 213호","indutype":"서적문구 - 완구점","category":"other"},{"name":"보석십자수 수재샵","tel":"","addr":"경기도 수원시 장안구 정자동 872-2번지 라이프스포츠 수원 1층 136호","indutype":"직물 - 침구·수예점","category":"other"},{"name":"블럭스쿨","tel":"031-269-6138","addr":"경기도 수원시 장안구 정자동 872-2번지 라이프스포츠 수원 3층 324호","indutype":"서적문구 - 완구점","category":"other"},{"name":"소소한즐거움","tel":"","addr":"경기도 수원시 장안구 정자동 872-2번지 라이프스포츠 수원 104호","indutype":"의류 - 정장","category":"other"},{"name":"수원통신정자점","tel":"031-282-0061","addr":"경기도 수원시 장안구 정자동 872-2번지","indutype":"사무통신 - 통신기기","category":"other"},{"name":"스포츠미슬림하우스","tel":"031-234-5936","addr":"경기도 수원시 장안구 정자동 872-2번지 라이프스포츠수원 130호","indutype":"회원제형태 - 기타4","category":"other"},{"name":"쓰임샵정자","tel":"031-269-2339","addr":"경기도 수원시 장안구 정자동 872-2 라이프스포츠수원109-1호","indutype":"신변잡화 - 기타잡화","category":"other"},{"name":"아이러브제이(수원정자점)","tel":"031-271-1478","addr":"경기도 수원시 장안구 정자동 872-2번지 라이프스포츠 수원 110호","indutype":"의류 - 정장","category":"other"},{"name":"에코포르테","tel":"070-7715-4645","addr":"경기도 수원시 장안구 정자동 872-2번지 라이프스포츠수원 119호","indutype":"레져용품 - 스포츠·레져용품","category":"other"},{"name":"영필라테스","tel":"031-221-6404","addr":"경기도 수원시 장안구 정자동 872-2번지 라이프스포츠수원 323호","indutype":"회원제형태 - 레져업소","category":"other"},{"name":"우성티에스","tel":"031-268-2660","addr":"경기도 수원시 장안구 정자동 872-2번지 라이프스포츠수원 215호","indutype":"신변잡화 - 기타잡화","category":"other"},{"name":"이야기꽃","tel":"031-307-8518","addr":"경기도 수원시 장안구 정자동 872-2번지 라이프스포츠 수원 129호","indutype":"주방용구 - 주방용식기","category":"other"},{"name":"작은꽃가게...꽃담","tel":"070-7557-5068","addr":"경기도 수원시 장안구 정자동 872-2번지 라이프스포츠 수원 130호","indutype":"문화.취미 - 화원","category":"other"},{"name":"좋은통번역원","tel":"070-7592-8900","addr":"경기도 수원시 장안구 정자동 872-2번지 라이프스포츠 수원 226호","indutype":"용역 서비스 - 사무서비스","category":"other"},{"name":"주식회사라이프스포츠","tel":"031-240-0020","addr":"경기도 수원시 장안구 정자동 872-2번지 라이프스포츠수원 209호","indutype":"회원제형태 - 레져업소","category":"other"},{"name":"주식회사삼정티앤씨투어","tel":"031-268-8726","addr":"경기도 수원시 장안구 정자동 872-2번지 라이프스포츠 212호","indutype":"여행 - 관광여행","category":"other"},{"name":"천연비누화장품만들기(쪽빛공방)","tel":"031-271-0790","addr":"경기도 수원시 장안구 정자동 872-2번지 라이프스포츠 수원 329호","indutype":"기타 - 기타 전문점","category":"other"},{"name":"크림","tel":"070-4235-7832","addr":"경기도 수원시 장안구 정자동 872-2번지 라이프스포츠 수원 103호","indutype":"의류 - 정장","category":"other"},{"name":"한샘리하우스 라이프대리점","tel":"031-271-9628","addr":"경기도 수원시 장안구 정자동 872-2번지 134,135호","indutype":"건축자재 - 인테리어전문","category":"other"},{"name":"해바라기","tel":"031-269-2054","addr":"경기도 수원시 장안구 정자동 872-2번지 라이프스포츠 수원 2층 219호","indutype":"신변잡화 - 기타잡화","category":"other"},{"name":"홈스마일","tel":"031-268-2544","addr":"경기도 수원시 장안구 정자동 872-2번지 라이프스포츠수원 1층 102호","indutype":"직물 - 침구·수예점","category":"other"},{"name":"황제고려홍삼","tel":"031-269-1987","addr":"경기도 수원시 장안구 정자동 872-2번지 라이프스포츠수원 138호","indutype":"전기제품 - 기타전기제품","category":"other"}]},{"lat":"37.298896336","long":"126.99733289","imageIndex":17,"items":[{"name":"SK청솔노인복지관","tel":"031-257-6811","addr":"경기도 수원시 장안구 정자동 286번지 외9필지","indutype":"기타의료기관 - 기타의료기관 및 기타","category":"other"},{"name":"sk청솔노인복지관","tel":"031-257-6811","addr":"경기도 수원시 장안구 정자동 286","indutype":"기타의료기관 - 기타의료기관 및 기타","category":"other"},{"name":"sk청솔노인복지관","tel":"031-257-6811","addr":"경기도 수원시 장안구 정자동 286","indutype":"기타의료기관 - 기타의료기관 및 기타","category":"other"}]},{"lat":"37.311040994","long":"126.98558906","imageIndex":17,"items":[{"name":"[지로](복)천주교수원교구사회복지","tel":"031-268-1996","addr":"경기도 수원시 장안구 정자동 578번지","indutype":"유통업 영리 - 인터넷 Mall","category":"other"}]},{"lat":"37.308230305","long":"126.98944747","imageIndex":17,"items":[{"name":"jinnys 지니스","tel":"","addr":"경기도 수원시 장안구 정자동 547-46번지 1층","indutype":"의류 - 정장","category":"other"},{"name":"스토리#","tel":"031-269-0345","addr":"경기도 수원시 장안구 정자동 547-46번지 영빈관 1동","indutype":"의류 - 기타의류","category":"other"}]},{"lat":"37.296040195","long":"127.00050227","imageIndex":17,"items":[{"name":"가나공사","tel":"031-255-0411","addr":"경기도 수원시 장안구 정자동 27-33번지","indutype":"용역 서비스 - 기타용역서비스","category":"other"}]},{"lat":"37.308536582","long":"126.98883829","imageIndex":17,"items":[{"name":"가나냉동","tel":"031-45-0353","addr":"경기도 수원시 장안구 정자동 547-1번지","indutype":"수리서비스 - 가정용품수리","category":"other"}]},{"lat":"37.292012601","long":"127.00587053","imageIndex":17,"items":[{"name":"가람세무회계컨설팅","tel":"031-241-4579","addr":"경기도 수원시 장안구 정자동 80-17번지 수원상공회의소 205호","indutype":"용역 서비스 - 법률회계서비스(개인)","category":"other"}]},{"lat":"37.29226487","long":"126.99925057","imageIndex":17,"items":[{"name":"가온이동통신","tel":"031-244-0204","addr":"경기도 수원시 장안구 정자동 42-29번지 1층","indutype":"사무통신 - 통신기기","category":"other"}]},{"lat":"37.296904961","long":"126.99531421","imageIndex":17,"items":[{"name":"감로쥬얼리","tel":"031-255-9484","addr":"경기도 수원시 장안구 정자동 874-1번지 선일프라자 1층 107호","indutype":"신변잡화 - 귀금속","category":"other"},{"name":"미진플라워샵","tel":"031-269-4880","addr":"경기도 수원시 장안구 정자동 874-1번지","indutype":"문화.취미 - 화원","category":"other"},{"name":"엠PC방","tel":"","addr":"경기도 수원시 장안구 정자동 874-1번지 선일프라자 201동 203호","indutype":"수리서비스 - 사무·통신기기수리","category":"other"},{"name":"전자담배","tel":"031-271-5558","addr":"경기도 수원시 장안구 정자동 874-1번지 선일프라자 110호","indutype":"기타 - 기타 전문점","category":"other"},{"name":"토마토II","tel":"031-257-7174","addr":"경기도 수원시 장안구 정자동 874-1번지 선일프라자 1층 105호","indutype":"의류 - 정장","category":"other"},{"name":"홈즈","tel":"031-268-5321","addr":"경기도 수원시 장안구 정자동 874-1번지 선일프라자 103동 104호","indutype":"직물 - 침구·수예점","category":"other"}]},{"lat":"37.294841774","long":"126.99847227","imageIndex":17,"items":[{"name":"거성블라인드","tel":"031-254-6633","addr":"경기도 수원시 장안구 정자동 29-27번지","indutype":"직물 - 카페트,커튼,천막,지물","category":"other"}]},{"lat":"37.291625198","long":"127.00261131","imageIndex":17,"items":[{"name":"경기그린플라워","tel":"070-5732-2744","addr":"경기도 수원시 장안구 정자동 71-29번지 1층","indutype":"문화.취미 - 화원","category":"other"}]},{"lat":"37.307455547","long":"126.99056432","imageIndex":17,"items":[{"name":"경남인테리어","tel":"031-252-7083","addr":"경기도 수원시 장안구 정자동 534-12번지 에브리 1층 1호","indutype":"주방용구 - 주방용구","category":"other"},{"name":"미주어패럴","tel":"031-0000-0000","addr":"경기도 수원시 장안구 정자동 534-12번지 에브리 1층 2호","indutype":"의류 - 정장","category":"other"}]},{"lat":"37.293120891","long":"127.0014497","imageIndex":17,"items":[{"name":"경수진열대인테리어","tel":"031-271-9023","addr":"경기도 수원시 장안구 정자동 48-2번지","indutype":"가구 - 기타가구","category":"other"},{"name":"진원전자","tel":"031-251-7447","addr":"경기도 수원시 장안구 정자동 48-2번지","indutype":"수리서비스 - 가정용품수리","category":"other"}]},{"lat":"37.29167925","long":"127.00439316","imageIndex":17,"items":[{"name":"경안전기","tel":"031-254-5044","addr":"경기도 수원시 장안구 정자동 79-39번지","indutype":"전기제품 - 기타전기제품","category":"other"}]},{"lat":"37.296508688","long":"126.99900225","imageIndex":17,"items":[{"name":"경희문화사","tel":"031-247-1567","addr":"경기도 수원시 장안구 정자동 25-2번지 2층","indutype":"서적문구 - 출판 및 인쇄물","category":"other"}]},{"lat":"37.290652014","long":"126.99861912","imageIndex":17,"items":[{"name":"고마워 Thank. u","tel":"","addr":"경기도 수원시 장안구 정자동 44-15번지 대원빌딩 103호","indutype":"의류 - 정장","category":"other"},{"name":"도도한카페","tel":"031-309-2020","addr":"경기도 수원시 장안구 정자동 44-15번지 대원빌딩 101호","indutype":"문화.취미 - 화원","category":"other"}]},{"lat":"37.307068141","long":"126.9908915","imageIndex":17,"items":[{"name":"골드보석","tel":"031-241-9414","addr":"경기도 수원시 장안구 정자동 534-2번지 건우까사미아 1층 105호","indutype":"신변잡화 - 시계","category":"other"},{"name":"오로라","tel":"031-269-7142","addr":"경기도 수원시 장안구 정자동 534-2번지 1층","indutype":"신변잡화 - 기타잡화","category":"other"}]},{"lat":"37.294346269","long":"127.00050232","imageIndex":17,"items":[{"name":"공간디자인","tel":"031-309-2625","addr":"경기도 수원시 장안구 정자동 32-15번지 옹산빌딩","indutype":"건축자재 - 인테리어전문","category":"other"},{"name":"사인포유","tel":"031-244-0310","addr":"경기도 수원시 장안구 정자동 32-15번지","indutype":"용역 서비스 - 종합용역","category":"other"},{"name":"영신종합알뜰매장","tel":"031-244-4989","addr":"경기도 수원시 장안구 정자동 32-15번지 1층","indutype":"신변잡화 - 기타잡화","category":"other"},{"name":"자전거119","tel":"031-241-3475","addr":"경기도 수원시 장안구 정자동 32-15번지 옹산빌딩 1층 4호","indutype":"레져용품 - 스포츠·레져용품","category":"other"},{"name":"홍진타일","tel":"031-234-3113","addr":"경기도 수원시 장안구 정자동 32-15번지","indutype":"건축자재 - 건축용 요업제품","category":"other"}]},{"lat":"37.296481484","long":"126.9953932","imageIndex":17,"items":[{"name":"공간샘 24시간 스터디카페","tel":"","addr":"경기도 수원시 장안구 정자동 874-2번지 롯데프라자 3층 301호","indutype":"용역 서비스 - 사무서비스","category":"other"},{"name":"공간샘 수원정자점","tel":"031-000-0000","addr":"경기도 수원시 장안구 정자동 874-2번지 롯데프라자 301호","indutype":"용역 서비스 - 사무서비스","category":"other"},{"name":"레몬스튜디오","tel":"031-252-2383","addr":"경기도 수원시 장안구 정자동 874-2번지","indutype":"광학제품 - 사진관","category":"other"},{"name":"스타정보","tel":"070-8746-3292","addr":"경기도 수원시 장안구 정자동 874-2번지 롯데프라자 1층 102호","indutype":"사무통신 - 통신기기","category":"other"},{"name":"에이플러스굿모닝전문요양센터","tel":"031-214-7090","addr":"경기도 수원시 장안구 정자동 874-2번지 롯데프라자 207호","indutype":"기타의료기관 - 기타의료기관 및 기타","category":"other"},{"name":"투개더","tel":"031-268-1116","addr":"경기도 수원시 장안구 정자동 874-2번지 롯데프라자 1층 103호","indutype":"의류 - 정장","category":"other"},{"name":"행복플러스","tel":"031-271-5002","addr":"경기도 수원시 장안구 정자동 874-2번지 롯데프라자 101호","indutype":"신변잡화 - 액세서리","category":"other"}]},{"lat":"37.295040064","long":"127.00078425","imageIndex":17,"items":[{"name":"광성인테리어","tel":"031-247-7701","addr":"경기도 수원시 장안구 정자동 32-45번지 드림하우스 1층 101호","indutype":"건축자재 - 인테리어전문","category":"other"}]},{"lat":"37.306734751","long":"126.99077875","imageIndex":17,"items":[{"name":"국일세탁소","tel":"031-244-4332","addr":"경기도 수원시 장안구 정자동 533-110번지","indutype":"수리서비스 - 세탁소","category":"other"},{"name":"제현철물","tel":"031-253-4584","addr":"경기도 수원시 장안구 정자동 533-110번지","indutype":"건축자재 - 목재·석재·철물","category":"other"}]},{"lat":"37.293760407","long":"127.01011108","imageIndex":17,"items":[{"name":"국제철물건재","tel":"031-244-5999","addr":"경기도 수원시 장안구 정자동 2-5번지","indutype":"건축자재 - 기타건축자재","category":"other"},{"name":"한샘목재","tel":"031-241-8333","addr":"경기도 수원시 장안구 정자동 2-5","indutype":"건축자재 - 기타건축자재","category":"other"}]},{"lat":"37.294319149","long":"126.99769412","imageIndex":17,"items":[{"name":"굿모닝인테리어","tel":"031-247-4850","addr":"경기도 수원시 장안구 정자동 29-5번지","indutype":"직물 - 카페트,커튼,천막,지물","category":"other"}]},{"lat":"37.290372748","long":"127.0004799","imageIndex":17,"items":[{"name":"귀부인","tel":"031-247-4138","addr":"경기도 수원시 장안구 정자동 74-34번지","indutype":"의류 - 정장","category":"other"},{"name":"정자보석","tel":"031-252-0975","addr":"경기도 수원시 장안구 정자동 74-34번지","indutype":"신변잡화 - 귀금속","category":"other"}]},{"lat":"37.293625402","long":"127.00700966","imageIndex":17,"items":[{"name":"그린건축설비","tel":"031-253-8152","addr":"경기도 수원시 장안구 정자동 67-2번지","indutype":"용역 서비스 - 기타용역서비스","category":"other"},{"name":"기산화원","tel":"031-258-6541","addr":"경기도 수원시 장안구 정자동 67-2번지 1층","indutype":"문화.취미 - 화원","category":"other"}]},{"lat":"37.304256968","long":"126.99108369","imageIndex":17,"items":[{"name":"그린냉동시스템","tel":"031-233-8681","addr":"경기도 수원시 장안구 정자동 473-1번지","indutype":"전기제품 - 냉열기기","category":"other"}]},{"lat":"37.2942652","long":"127.00228424","imageIndex":17,"items":[{"name":"그린라이너","tel":"","addr":"경기도 수원시 장안구 정자동 38-30번지 동호빌라 402호","indutype":"수리서비스 - 기타수리서비스","category":"other"}]},{"lat":"37.294733395","long":"126.99392724","imageIndex":17,"items":[{"name":"금나라","tel":"031-269-6600","addr":"경기도 수원시 장안구 정자동 878-6번지 선프라자 103호","indutype":"신변잡화 - 귀금속","category":"other"},{"name":"맘스가든","tel":"031-269-8018","addr":"경기도 수원시 장안구 정자동 878-6번지 선일프라자 2층 203,204호","indutype":"직물 - 침구·수예점","category":"other"},{"name":"죠프(정자점)","tel":"031-269-4554","addr":"경기도 수원시 장안구 정자동 878-6번지 선일프라자 104호","indutype":"의류 - 정장","category":"other"},{"name":"지니에듀","tel":"031-291-0975","addr":"경기도 수원시 장안구 정자동 878-6번지 선일프라자 3층 302호","indutype":"서적문구 - 기타서적문구","category":"other"}]},{"lat":"37.296148011","long":"126.99402857","imageIndex":17,"items":[{"name":"금성PNT","tel":"031-258-6171","addr":"경기도 수원시 장안구 정자동 876-2번지 투대일타운 302호","indutype":"서적문구 - 출판 및 인쇄물","category":"other"},{"name":"마녀의손길","tel":"031-891-8720","addr":"경기도 수원시 장안구 정자동 876-2번지 투대일타운 404호","indutype":"회원제형태 - 기타4","category":"other"},{"name":"세무사양미라사무소","tel":"03-271-7078","addr":"경기도 수원시 장안구 정자동 876-2번지 투대일타운 501호","indutype":"용역 서비스 - 법률회계서비스(개인)","category":"other"}]},{"lat":"37.290814243","long":"127.000119","imageIndex":17,"items":[{"name":"기분좋은날","tel":"031-255-9718","addr":"경기도 수원시 장안구 정자동 74-42번지 1층","indutype":"의류 - 기타의류","category":"other"}]},{"lat":"37.291814391","long":"127.00517132","imageIndex":17,"items":[{"name":"기산건축인테리어","tel":"031-296-3265","addr":"경기도 수원시 장안구 정자동 80-3번지","indutype":"건축자재 - 인테리어전문","category":"other"},{"name":"맵시라인","tel":"031-305-0710","addr":"경기도 수원시 장안구 정자동 80-3번지 1층","indutype":"의류 - 정장","category":"other"}]},{"lat":"37.293625415","long":"127.00661494","imageIndex":17,"items":[{"name":"기산세탁소","tel":"031-243-4892","addr":"경기도 수원시 장안구 정자동 68-4번지","indutype":"수리서비스 - 세탁소","category":"other"}]},{"lat":"37.296346229","long":"126.99392705","imageIndex":17,"items":[{"name":"기타하우스","tel":"031-268-4414","addr":"경기도 수원시 장안구 정자동 876-1번지 엔타운 제 5층 501호","indutype":"레져용품 - 악기점","category":"other"},{"name":"튼튼영어 수원중앙","tel":"031-269-8205","addr":"경기도 수원시 장안구 정자동 876-1번지 엔타운빌딩 301동 302호","indutype":"회원제형태 - 서적","category":"other"}]},{"lat":"37.293120875","long":"127.00050236","imageIndex":17,"items":[{"name":"길경유통","tel":"031-257-0343","addr":"경기도 수원시 장안구 정자동 41-6번지","indutype":"회원제형태 - 기타1","category":"other"}]},{"lat":"37.305653782","long":"126.99364395","imageIndex":17,"items":[{"name":"꾸밈나라","tel":"031-255-2036","addr":"경기도 수원시 장안구 정자동 430-6번지","indutype":"직물 - 침구·수예점","category":"other"},{"name":"케이원인계점","tel":"031-222-9016","addr":"경기도 수원시 장안구 정자동 430-6번지 1층 1호 2호","indutype":"사무통신 - 통신기기","category":"other"},{"name":"휴대폰일번가 수원점","tel":"070-7534-6661","addr":"경기도 수원시 장안구 정자동 430-6번지 1층","indutype":"사무통신 - 통신기기","category":"other"}]},{"lat":"37.294292147","long":"127.00737059","imageIndex":17,"items":[{"name":"나무도서","tel":"031-241-3381","addr":"경기도 수원시 장안구 정자동 13번지 기산아파트 1층","indutype":"서적문구 - 일반서적","category":"other"},{"name":"문파크크리에이티브","tel":"031-8007-6056","addr":"경기도 수원시 장안구 정자동 13번지 기산프라자 1층 13호","indutype":"용역 서비스 - 소프트웨어","category":"other"}]},{"lat":"37.301562981","long":"126.99183981","imageIndex":17,"items":[{"name":"남강컴퍼니","tel":"031-271-2420","addr":"경기도 수원시 장안구 정자동 376-3번지","indutype":"전기제품 - 기타전기제품","category":"other"}]},{"lat":"37.304590413","long":"126.99176041","imageIndex":17,"items":[{"name":"남부전단","tel":"031-268-5458","addr":"경기도 수원시 장안구 정자동 440-5 1층","indutype":"용역 서비스 - 종합용역","category":"other"}]},{"lat":"37.301706267","long":"126.98472271","imageIndex":17,"items":[{"name":"남중앙낚시","tel":"031-243-1457","addr":"경기도 수원시 장안구 정자동 683-3번지","indutype":"레져용품 - 스포츠·레져용품","category":"other"}]},{"lat":"37.30692395","long":"126.9906208","imageIndex":17,"items":[{"name":"노블인테리어","tel":"031-269-3458","addr":"경기도 수원시 장안구 정자동 533-103번지 1층전체","indutype":"건축자재 - 인테리어전문","category":"other"}]},{"lat":"37.292481168","long":"127.00200231","imageIndex":17,"items":[{"name":"뉴맥스전기","tel":"031-233-1989","addr":"경기도 수원시 장안구 정자동 48-5번지 1층","indutype":"전기제품 - 기타전기제품","category":"other"}]},{"lat":"37.295238209","long":"127.00773154","imageIndex":17,"items":[{"name":"늘푸른요양원","tel":"031-251-0044","addr":"경기도 수원시 장안구 정자동 9-2번지 벽산그랜드코아 401호","indutype":"기타의료기관 - 기타의료기관 및 기타","category":"other"},{"name":"수원어르신간호센터","tel":"031-258-1001","addr":"경기도 수원시 장안구 정자동 9-2번지 벽산그랜드코아 5층","indutype":"기타의료기관 - 기타의료기관 및 기타","category":"other"}]},{"lat":"37.307230268","long":"126.99033876","imageIndex":17,"items":[{"name":"다림꽃문화원","tel":"031-242-0633","addr":"경기도 수원시 장안구 정자동 534-5번지","indutype":"문화.취미 - 민예·공예품","category":"other"},{"name":"디자인 가현","tel":"031-268-5225","addr":"경기도 수원시 장안구 정자동 534-5번지","indutype":"건축자재 - 인테리어전문","category":"other"}]},{"lat":"37.302788026","long":"126.98859122","imageIndex":17,"items":[{"name":"다복하우징","tel":"070-8458-5536","addr":"경기도 수원시 장안구 정자동 508-1번지 303호","indutype":"용역 서비스 - 기타용역서비스","category":"other"}]},{"lat":"37.292291892","long":"126.99897991","imageIndex":17,"items":[{"name":"다운업","tel":"031-248-4971","addr":"경기도 수원시 장안구 정자동 43-8번지 1층","indutype":"의류 - 정장","category":"other"}]},{"lat":"37.291544106","long":"127.00270153","imageIndex":17,"items":[{"name":"달인컴퓨터","tel":"031-251-1577","addr":"경기도 수원시 장안구 정자동 71-31번지","indutype":"수리서비스 - 사무·통신기기수리","category":"other"},{"name":"민광고","tel":"031-111-1111","addr":"경기도 수원시 장안구 정자동 71-31번지 1층","indutype":"용역 서비스 - 종합용역","category":"other"}]},{"lat":"37.309373796","long":"126.98360413","imageIndex":17,"items":[{"name":"달콤달(안양지사)","tel":"031-222-2222","addr":"경기도 수원시 장안구 정자동 945번지 수원SK스카이뷰 101동 2803호","indutype":"문화.취미 - 문화취미기타","category":"other"}]},{"lat":"37.294012896","long":"127.00080684","imageIndex":17,"items":[{"name":"대림씽크","tel":"031-247-6667","addr":"경기도 수원시 장안구 정자동 40-3번지","indutype":"주방용구 - 주방용구","category":"other"},{"name":"주식회사 비에이치건설","tel":"031-257-0066","addr":"경기도 수원시 장안구 정자동 40-3번지","indutype":"건축자재 - 기타건축자재","category":"other"}]},{"lat":"37.291571106","long":"127.00558858","imageIndex":17,"items":[{"name":"대성","tel":"031-242-6300","addr":"경기도 수원시 장안구 정자동 80-8번지","indutype":"용역 서비스 - 부동산 중개·임대","category":"other"},{"name":"산재119공인노무사사무소","tel":"031-248-8400","addr":"경기도 수원시 장안구 정자동 80-8번지 화진빌딩 2층","indutype":"용역 서비스 - 사무서비스","category":"other"},{"name":"유리화원","tel":"031-235-3695","addr":"경기도 수원시 장안구 정자동 80-8번지","indutype":"문화.취미 - 화원","category":"other"}]},{"lat":"37.295571664","long":"127.00519399","imageIndex":17,"items":[{"name":"대성컴퓨터","tel":"031-268-6119","addr":"경기도 수원시 장안구 정자동 36-22번지 1층","indutype":"사무통신 - 컴퓨터","category":"other"},{"name":"원기프트","tel":"031-256-0910","addr":"경기도 수원시 장안구 정자동 36-22번지 1층","indutype":"유통업 영리 - 기타유통업","category":"other"}]},{"lat":"37.293066776","long":"127.00672769","imageIndex":17,"items":[{"name":"대영유리","tel":"031-255-3252","addr":"경기도 수원시 장안구 정자동 68-8번지 광일빌딩 101호","indutype":"건축자재 - 유리","category":"other"}]},{"lat":"37.294625545","long":"126.99894595","imageIndex":17,"items":[{"name":"대학서점","tel":"031-253-1510","addr":"경기도 수원시 장안구 정자동 29-23번지","indutype":"서적문구 - 일반서적","category":"other"}]},{"lat":"37.296012785","long":"126.99311506","imageIndex":17,"items":[{"name":"대한사진","tel":"031-271-4411","addr":"경기도 수원시 장안구 정자동 877-1번지 화이트쇼핑타운 206호","indutype":"광학제품 - 사진관","category":"other"},{"name":"더 채움 스터디카페","tel":"031-000-0000","addr":"경기도 수원시 장안구 정자동 877-1번지 605호","indutype":"용역 서비스 - 사무서비스","category":"other"},{"name":"벌툰 수원정자점","tel":"031-268-2475","addr":"경기도 수원시 장안구 정자동 877-1번지 401호","indutype":"서적문구 - 일반서적","category":"other"},{"name":"수원문고","tel":"031-268-8833","addr":"경기도 수원시 장안구 정자동 877-1번지 202호","indutype":"서적문구 - 일반서적","category":"other"},{"name":"아방수원정자점","tel":"031-244-5496","addr":"경기도 수원시 장안구 정자동 877-1번지 화이트쇼핑몰 3층 306호","indutype":"회원제형태 - 기타4","category":"other"},{"name":"장안플랜에이","tel":"031-247-0903","addr":"경기도 수원시 장안구 정자동 877-1번지 화이트쇼핑몰 907호 일부, 909호 일부","indutype":"용역 서비스 - 사무서비스","category":"other"},{"name":"제이텔레콤","tel":"031-269-8955","addr":"경기도 수원시 장안구 정자동 877-1번지 103호","indutype":"사무통신 - 통신기기","category":"other"},{"name":"하나철물.전기","tel":"031-269-5444","addr":"경기도 수원시 장안구 정자동 877-1번지 1층 112호","indutype":"건축자재 - 목재·석재·철물","category":"other"}]},{"lat":"37.302707177","long":"126.9907794","imageIndex":17,"items":[{"name":"대한전기조명","tel":"031-269-5588","addr":"경기도 수원시 장안구 정자동 466-2번지","indutype":"전기제품 - 기타전기제품","category":"other"}]},{"lat":"37.304509553","long":"126.99459157","imageIndex":17,"items":[{"name":"대현컴퓨터","tel":"031-245-0026","addr":"경기도 수원시 장안구 정자동 423-1번지 정자벽산블루밍 상가 3동 104호","indutype":"사무통신 - 컴퓨터","category":"other"},{"name":"블룸(Bloom)","tel":"","addr":"경기도 수원시 장안구 정자동 423-1번지 정자벽산블루밍 상가 1동 101호","indutype":"의류 - 정장","category":"other"},{"name":"토옵","tel":"031-8013-5949","addr":"경기도 수원시 장안구 정자동 423-1번지 정자벽산블루밍 상가 107호","indutype":"가구 - 일반가구","category":"other"}]},{"lat":"37.2940397474","long":"127.0097276559","imageIndex":17,"items":[{"name":"대화설비공사","tel":"031-243-8588","addr":"경기도 수원시 장안구 정자동 2-1번지","indutype":"건축자재 - 보일러·펌프·샷시","category":"other"},{"name":"로드종합바이크","tel":"031-242-6995","addr":"경기도 수원시 장안구 정자동 2-1번지 1층","indutype":"레져용품 - 스포츠·레져용품","category":"other"},{"name":"벽산타일","tel":"031-255-5118","addr":"경기도 수원시 장안구 정자동 2-1번지","indutype":"건축자재 - 건축용 요업제품","category":"other"}]},{"lat":"37.290625042","long":"127.00084076","imageIndex":17,"items":[{"name":"더고어","tel":"","addr":"경기도 수원시 장안구 정자동 73-10번지 정자종합시장 307호(3072호)","indutype":"신변잡화 - 기타잡화","category":"other"},{"name":"삼우에스피","tel":"031-244-7751","addr":"경기도 수원시 장안구 정자동 73-10번지 정자종합시장","indutype":"주방용구 - 정수기","category":"other"},{"name":"성주상사","tel":"031-268-1044","addr":"경기도 수원시 장안구 정자동 73-10번지 210호","indutype":"직물 - 기타직물","category":"other"},{"name":"성호아이템","tel":"031-256-9469","addr":"경기도 수원시 장안구 정자동 73-10번지 109호","indutype":"건축자재 - 인테리어전문","category":"other"},{"name":"어나더리썸(Another Lissom)","tel":"","addr":"경기도 수원시 장안구 정자동 73-10번지 정자종합상가 제2층 218호","indutype":"신변잡화 - 액세서리","category":"other"},{"name":"유니크","tel":"070-4350-6593","addr":"경기도 수원시 장안구 정자동 73-10번지 정자종합시장 3층 305호","indutype":"사무통신 - 통신기기","category":"other"},{"name":"자전거문화사회적협동조합","tel":"031-271-7771","addr":"경기도 수원시 장안구 정자동 73-10번지 305호 일부","indutype":"레져용품 - 스포츠·레져용품","category":"other"},{"name":"제일정보통신","tel":"031-251-6080","addr":"경기도 수원시 장안구 정자동 73-10번지 정자 종합상가 306호","indutype":"사무통신 - 통신기기","category":"other"},{"name":"해마루","tel":"","addr":"경기도 수원시 장안구 정자동 73-10번지 정자종합시장 2층 220호","indutype":"건축자재 - 기타건축자재","category":"other"}]},{"lat":"37.293427163","long":"126.9983934","imageIndex":17,"items":[{"name":"더난 인테리어","tel":"031-296-8786","addr":"경기도 수원시 장안구 정자동 30-27번지","indutype":"건축자재 - 인테리어전문","category":"other"}]},{"lat":"37.303040298","long":"126.98847838","imageIndex":17,"items":[{"name":"더블유원","tel":"031-306-9195","addr":"경기도 수원시 장안구 정자동 508-4번지","indutype":"전기제품 - 기타전기제품","category":"other"}]},{"lat":"37.297040233","long":"126.99747964","imageIndex":17,"items":[{"name":"더엠","tel":"031-8001-2800","addr":"경기도 수원시 장안구 정자동 23-1번지 세종리바트 1동 702호","indutype":"전기제품 - 가전제품","category":"other"},{"name":"최영애스킨클리닉","tel":"031-254-8757","addr":"경기도 수원시 장안구 정자동 23-1번지 세종리바트 602호","indutype":"회원제형태 - 기타4","category":"other"}]},{"lat":"37.290652089","long":"127.00236321","imageIndex":17,"items":[{"name":"더유스토리","tel":"070-8031-4038","addr":"경기도 수원시 장안구 정자동 76-12번지 1층 101호","indutype":"신변잡화 - 기타잡화","category":"other"},{"name":"아이손","tel":"031-253-7466","addr":"경기도 수원시 장안구 정자동 76-12번지","indutype":"기타 - 기타 전문점","category":"other"}]},{"lat":"37.29373357","long":"127.00038957","imageIndex":17,"items":[{"name":"도서출판 담백한사람들","tel":"031-271-6992","addr":"경기도 수원시 장안구 정자동 41-2번지 3층 302호","indutype":"서적문구 - 출판 및 인쇄물","category":"other"},{"name":"씨앤디자인","tel":"031-251-1244","addr":"경기도 수원시 장안구 정자동 41-2번지 탑빌딩301동","indutype":"서적문구 - 출판 및 인쇄물","category":"other"},{"name":"제이에스 (JS)메디칼","tel":"031-307-2351","addr":"경기도 수원시 장안구 정자동 41-2번지 탑오피스텔프라자 4층 401호","indutype":"사무통신 - 컴퓨터","category":"other"},{"name":"포크아트공예학원","tel":"031-256-2166","addr":"경기도 수원시 장안구 정자동 41-2번지 탑프라자 4층 403호","indutype":"문화.취미 - 문화취미기타","category":"other"}]},{"lat":"37.300652897","long":"126.99130983","imageIndex":17,"items":[{"name":"동남세탁소","tel":"031-253-1414","addr":"경기도 수원시 장안구 정자동 327-12번지 1층","indutype":"수리서비스 - 세탁소","category":"other"}]},{"lat":"37.294012864","long":"127.00633301","imageIndex":17,"items":[{"name":"동남전력","tel":"031-258-0333","addr":"경기도 수원시 장안구 정자동 68-47번지 1층","indutype":"용역 서비스 - 기타용역서비스","category":"other"}]},{"lat":"37.294427383","long":"127.00209251","imageIndex":17,"items":[{"name":"동네종합공사","tel":"","addr":"경기도 수원시 장안구 정자동 39-43번지 B02호","indutype":"건축자재 - 목재·석재·철물","category":"other"}]},{"lat":"37.304229834","long":"126.99009111","imageIndex":17,"items":[{"name":"동아일보신정자센타","tel":"031-269-3175","addr":"경기도 수원시 장안구 정자동 517-1번지 석우건설 102호","indutype":"서적문구 - 정기간행물","category":"other"},{"name":"퓨어(Pure)렌탈","tel":"","addr":"경기도 수원시 장안구 정자동 517-1번지","indutype":"신변잡화 - 기타잡화","category":"other"}]},{"lat":"37.291904452","long":"126.99900248","imageIndex":17,"items":[{"name":"동원씽크","tel":"070-4135-1357","addr":"경기도 수원시 장안구 정자동 44-20번지 상가 1층","indutype":"주방용구 - 주방용구","category":"other"}]},{"lat":"37.295625744","long":"127.003897","imageIndex":17,"items":[{"name":"동진농산물","tel":"031-255-4714","addr":"경기도 수원시 장안구 정자동 36-4","indutype":"회원제형태 - 기타1","category":"other"}]},{"lat":"37.302761637","long":"126.99564072","imageIndex":17,"items":[{"name":"동흥인테리어","tel":"031-244-6465","addr":"경기도 수원시 장안구 정자동 401번지 동신 상가 1층 26호","indutype":"건축자재 - 인테리어전문","category":"other"},{"name":"워터프리코리아경인","tel":"031-306-2655","addr":"경기도 수원시 장안구 정자동 401번지 동신 종합상가 302호","indutype":"건축자재 - 건축용 요업제품","category":"other"},{"name":"잉크충전","tel":"031-247-0205","addr":"경기도 수원시 장안구 정자동 401번지 동신아파트 지하 6호","indutype":"사무통신 - 기타 사무용품","category":"other"}]},{"lat":"37.292093092","long":"126.99058938","imageIndex":17,"items":[{"name":"둘리문구점","tel":"031-268-1895","addr":"경기도 수원시 장안구 정자동 882-5번지 꽃뫼노을마을한국아파트","indutype":"서적문구 - 문구용품","category":"other"},{"name":"크로스핏아우라","tel":"031-8880-5119","addr":"경기도 수원시 장안구 정자동 882-5번지 지하101~105호,107호~108호","indutype":"회원제형태 - 레져업소","category":"other"}]},{"lat":"37.303896634","long":"126.99186202","imageIndex":17,"items":[{"name":"디앤에스 디자인","tel":"031-891-3691","addr":"경기도 수원시 장안구 정자동 444-4번지 예사랑미술학원 1층 101호","indutype":"용역 서비스 - 종합용역","category":"other"},{"name":"진성종합장식","tel":"031-247-7503","addr":"경기도 수원시 장안구 정자동 444-4번지 1층","indutype":"직물 - 카페트,커튼,천막,지물","category":"other"}]},{"lat":"37.294931924","long":"127.00000607","imageIndex":17,"items":[{"name":"디자인풍경","tel":"031-268-7188","addr":"경기도 수원시 장안구 정자동 32-37번지","indutype":"용역 서비스 - 사무서비스","category":"other"}]},{"lat":"37.302680115","long":"126.99047486","imageIndex":17,"items":[{"name":"디지털소프트","tel":"031-244-8597","addr":"경기도 수원시 장안구 정자동 490-1번지","indutype":"사무통신 - 컴퓨터","category":"other"},{"name":"서원인테리어","tel":"","addr":"경기도 수원시 장안구 정자동 490-1번지 1층 우측호","indutype":"건축자재 - 인테리어전문","category":"other"}]},{"lat":"37.294931611","long":"126.99381443","imageIndex":17,"items":[{"name":"디플레이스 스터디카페 수원정자점","tel":"","addr":"경기도 수원시 장안구 정자동 878-8번지 금강프라자 402,403호","indutype":"용역 서비스 - 사무서비스","category":"other"},{"name":"모닝글로리","tel":"031-269-8448","addr":"경기도 수원시 장안구 정자동 878-8번지","indutype":"서적문구 - 문구용품","category":"other"}]},{"lat":"37.289814093","long":"126.99966795","imageIndex":17,"items":[{"name":"라그라스","tel":"031-891-9122","addr":"경기도 수원시 장안구 정자동 75-3번지","indutype":"문화.취미 - 문화취미기타","category":"other"},{"name":"세븐일레븐수원정자의료원점","tel":"031-1577-0711","addr":"경기도 수원시 장안구 정자동 75-3번지 1층 101호","indutype":"유통업 영리 - 편 의 점","category":"other"},{"name":"이쁜사람들","tel":"031-256-7944","addr":"경기도 수원시 장안구 정자동 75-3번지","indutype":"의류 - 정장","category":"other"}]},{"lat":"37.29170629","long":"127.00253237","imageIndex":17,"items":[{"name":"라미야전자담배","tel":"031-257-7044","addr":"경기도 수원시 장안구 정자동 71-23번지 신일서비스센타 2호","indutype":"기타 - 기타 전문점","category":"other"},{"name":"중부수리센터","tel":"031-223-8589","addr":"경기도 수원시 장안구 정자동 71-23번지 1층","indutype":"수리서비스 - 기타수리서비스","category":"other"}]},{"lat":"37.292012619","long":"127.00505855","imageIndex":17,"items":[{"name":"럭키열쇠","tel":"031-241-0044","addr":"경기도 수원시 장안구 정자동 80-1번지","indutype":"기타 - 기계공구","category":"other"}]},{"lat":"37.304041137","long":"126.99645272","imageIndex":17,"items":[{"name":"럭키인테리어","tel":"031-247-3405","addr":"경기도 수원시 장안구 정자동 418-1번지","indutype":"건축자재 - 인테리어전문","category":"other"},{"name":"서초숙녀복할인점","tel":"031-257-8555","addr":"경기도 수원시 장안구 정자동 418-1번지","indutype":"의류 - 정장","category":"other"},{"name":"소오컴퍼니. 루쏘뱅크","tel":"031-333-3289","addr":"경기도 수원시 장안구 정자동 418-1번지 목한의원 지하1층 1호","indutype":"신변잡화 - 기타잡화","category":"other"},{"name":"장안자전거할인매장","tel":"070-8614-5315","addr":"경기도 수원시 장안구 정자동 418-1번지 목한의원 지하 1호","indutype":"레져용품 - 스포츠·레져용품","category":"other"}]},{"lat":"37.292787502","long":"127.00078432","imageIndex":17,"items":[{"name":"런던세탁소","tel":"031-242-7756","addr":"경기도 수원시 장안구 정자동 46-1번지 1층","indutype":"수리서비스 - 세탁소","category":"other"}]},{"lat":"37.296066992","long":"126.99506618","imageIndex":17,"items":[{"name":"레몬 스터디 카페","tel":"02-854-8255","addr":"경기도 수원시 장안구 정자동 874-5번지 레온스포렉스 3층 301호","indutype":"용역 서비스 - 사무서비스","category":"other"},{"name":"마이존(MY ZONE)","tel":"031-258-2717","addr":"경기도 수원시 장안구 정자동 874-5 레몬스포렉스 15","indutype":"의류 - 정장","category":"other"},{"name":"썬휘트니스","tel":"031-241-2666","addr":"경기도 수원시 장안구 정자동 874-5번지 레온스포렉스 504호~506호","indutype":"회원제형태 - 레져업소","category":"other"},{"name":"이벤트홀","tel":"031-268-7306","addr":"경기도 수원시 장안구 정자동 874-5번지 레몬스포렉스 상가 114호","indutype":"의류 - 정장","category":"other"},{"name":"이지잉크","tel":"031-243-3133","addr":"경기도 수원시 장안구 정자동 874-5번지 레몬스포렉스 1층 102호","indutype":"사무통신 - 기타 사무용품","category":"other"},{"name":"주식회사한아름","tel":"031-207-7903","addr":"경기도 수원시 장안구 정자동 874-5번지 레몬스포렉스빌딩 209호","indutype":"건축자재 - 인테리어전문","category":"other"},{"name":"튼튼영어(수원장안지사)","tel":"031-269-4545","addr":"경기도 수원시 장안구 정자동 874-5번지 레몬스포렉스 407호","indutype":"회원제형태 - 서적","category":"other"}]},{"lat":"37.292346003","long":"127.00475406","imageIndex":17,"items":[{"name":"레인보우빈티지","tel":"031-000-0000","addr":"경기도 수원시 장안구 정자동 69-46번지 어부수산 상가동 1층 6호","indutype":"의류 - 정장","category":"other"}]},{"lat":"37.306599175","long":"126.98718052","imageIndex":17,"items":[{"name":"로라쏘잉","tel":"","addr":"경기도 수원시 장안구 정자동 945번지 수원에스케이스카이뷰 110동 1102호","indutype":"문화.취미 - 문화취미기타","category":"other"}]},{"lat":"37.307148415","long":"126.98451836","imageIndex":17,"items":[{"name":"로로블라인드","tel":"031-247-9634","addr":"경기도 수원시 장안구 정자동 945번지 수원에스케이스카이뷰 113동 32층 3203호","indutype":"직물 - 카페트,커튼,천막,지물","category":"other"}]},{"lat":"37.292237884","long":"127.00128055","imageIndex":17,"items":[{"name":"로샤 속옷에 반하다","tel":"","addr":"경기도 수원시 장안구 정자동 46-35번지","indutype":"의류 - 내의판매","category":"other"}]},{"lat":"37.298841905","long":"126.99200938","imageIndex":17,"items":[{"name":"로첸","tel":"031-271-5479","addr":"경기도 수원시 장안구 정자동 333-5번지 1층","indutype":"의류 - 정장","category":"other"}]},{"lat":"37.289543782","long":"126.99953263","imageIndex":17,"items":[{"name":"류공방","tel":"031-566-8629","addr":"경기도 수원시 장안구 정자동 75-5번지","indutype":"문화.취미 - 문화취미기타","category":"other"}]},{"lat":"37.311869937","long":"126.98561143","imageIndex":17,"items":[{"name":"류희도","tel":"031-271-6223","addr":"경기도 수원시 장안구 정자동 575-2번지 힐스테이트 프라자 107~109호","indutype":"문화.취미 - 민예·공예품","category":"other"},{"name":"미호스크린골프","tel":"031-271-5599","addr":"경기도 수원시 장안구 정자동 575-2번지 힐스테이트프라자 4층","indutype":"회원제형태 - 레져업소","category":"other"}]},{"lat":"37.296454633","long":"126.99919398","imageIndex":17,"items":[{"name":"리드갤러리","tel":"031-243-3048","addr":"경기도 수원시 장안구 정자동 25-5번지","indutype":"가구 - 일반가구","category":"other"}]},{"lat":"37.306815835","long":"126.99069978","imageIndex":17,"items":[{"name":"마샹스","tel":"","addr":"경기도 수원시 장안구 정자동 533-105번지","indutype":"의류 - 정장","category":"other"},{"name":"위더스","tel":"031-269-8824","addr":"경기도 수원시 장안구 정자동 533-105번지","indutype":"수리서비스 - 세탁소","category":"other"}]},{"lat":"37.291291805","long":"127.00467509","imageIndex":17,"items":[{"name":"만경건설주식회사","tel":"031-245-1173","addr":"경기도 수원시 장안구 정자동 79-36번지 1층 101호 102호","indutype":"건축자재 - 페인트","category":"other"},{"name":"발안상사","tel":"031-248-5350","addr":"경기도 수원시 장안구 정자동 79-36번지 평화인쇄사 102호","indutype":"레져용품 - 스포츠·레져용품","category":"other"},{"name":"새로나전기철물","tel":"070-7699-3160","addr":"경기도 수원시 장안구 정자동 79-36번지","indutype":"건축자재 - 목재·석재·철물","category":"other"},{"name":"주식회사 대건산업","tel":"070-1111-1111","addr":"경기도 수원시 장안구 정자동 79-36번지 기인빌딩 301호","indutype":"용역 서비스 - 기타용역서비스","category":"other"}]},{"lat":"37.296427369","long":"126.99459245","imageIndex":17,"items":[{"name":"맘스가든","tel":"031-269-8026","addr":"경기도 수원시 장안구 정자동 875번지 선일주카타운빌딩 103호","indutype":"직물 - 침구·수예점","category":"other"},{"name":"백합꽃직매장","tel":"031-244-1378","addr":"경기도 수원시 장안구 정자동 875번지 선일주차타운빌딩 109호","indutype":"문화.취미 - 화원","category":"other"},{"name":"수영과헬스","tel":"031-247-6221","addr":"경기도 수원시 장안구 정자동 875 선일주차타운 118-1호","indutype":"의류 - 스포츠의류","category":"other"},{"name":"어게인비","tel":"031-268-1054","addr":"경기도 수원시 장안구 정자동 875번지 선일주차타운빌딩 1층 112호","indutype":"의류 - 정장","category":"other"},{"name":"제이빈스","tel":"031-268-3331","addr":"경기도 수원시 장안구 정자동 875번지 선일주타차운 111호","indutype":"의류 - 정장","category":"other"},{"name":"제이와이인베스트먼트(주)","tel":"02-414-3486","addr":"경기도 수원시 장안구 정자동 875번지 선일주차타운빌딩 303호","indutype":"가구 - 기타가구","category":"other"}]},{"lat":"37.29257124","long":"127.00572395","imageIndex":17,"items":[{"name":"메이앤데이지(may&daisy)","tel":"","addr":"경기도 수원시 장안구 정자동 69-13번지 1층 좌측","indutype":"문화.취미 - 문화취미기타","category":"other"},{"name":"첼로걸(CELLO GIRL)","tel":"070-8174-7610","addr":"경기도 수원시 장안구 정자동 69-13번지 1층","indutype":"의류 - 정장","category":"other"}]},{"lat":"37.305347168","long":"126.99070002","imageIndex":17,"items":[{"name":"메이저크린","tel":"031-268-2005","addr":"경기도 수원시 장안구 정자동 529-1번지 1층","indutype":"수리서비스 - 세탁소","category":"other"}]},{"lat":"37.294535401","long":"126.99784072","imageIndex":17,"items":[{"name":"메종드볼(Maison de BOWL)","tel":"","addr":"경기도 수원시 장안구 정자동 29-6번지 1층","indutype":"주방용구 - 주방용식기","category":"other"}]},{"lat":"37.290651407","long":"126.99017235","imageIndex":17,"items":[{"name":"메종인테리어","tel":"031-254-6699","addr":"경기도 수원시 장안구 정자동 900-1번지 꽃뫼노을마을장안아파트 제상가동제1층 104호","indutype":"건축자재 - 인테리어전문","category":"other"}]},{"lat":"37.296066605","long":"126.99053234","imageIndex":17,"items":[{"name":"모닝글로리 정자백설마을점","tel":"031-268-3866","addr":"경기도 수원시 장안구 정자동 871-4번지 백설마을 상가 101호","indutype":"서적문구 - 문구용품","category":"other"}]},{"lat":"37.309536158","long":"126.98473211","imageIndex":17,"items":[{"name":"모닝글로리수원정자점","tel":"031-268-5710","addr":"경기도 수원시 장안구 정자동 600-28번지 1층 111호","indutype":"서적문구 - 문구용품","category":"other"},{"name":"이에스씨 (ESC)","tel":"031-268-9707","addr":"경기도 수원시 장안구 정자동 600-28번지 1층 102호","indutype":"사무통신 - 통신기기","category":"other"}]},{"lat":"37.292877614","long":"127.00437063","imageIndex":17,"items":[{"name":"못난이옷장","tel":"031-352-8357","addr":"경기도 수원시 장안구 정자동 69-29번지 1층","indutype":"의류 - 정장","category":"other"}]},{"lat":"37.291426953","long":"127.00503598","imageIndex":17,"items":[{"name":"무릉","tel":"031-243-6898","addr":"경기도 수원시 장안구 정자동 79-16번지","indutype":"문화.취미 - 화원","category":"other"}]},{"lat":"37.306428389","long":"126.99064344","imageIndex":17,"items":[{"name":"문화인테리어","tel":"031-268-5810","addr":"경기도 수원시 장안구 정자동 533-32번지","indutype":"건축자재 - 인테리어전문","category":"other"}]},{"lat":"37.292958702","long":"127.00111137","imageIndex":17,"items":[{"name":"미니스톱수원정자점","tel":"031-214-0670","addr":"경기도 수원시 장안구 정자동 46-2번지 1층","indutype":"유통업 영리 - 편 의 점","category":"other"}]},{"lat":"37.305950986","long":"126.99206476","imageIndex":17,"items":[{"name":"미니스톱수원파장점","tel":"031-291-3309","addr":"경기도 수원시 장안구 정자동 435-1번지 1층","indutype":"유통업 영리 - 편 의 점","category":"other"},{"name":"슈에뜨","tel":"031-223-5214","addr":"경기도 수원시 장안구 정자동 435-1번지 에이동 1층","indutype":"의류 - 정장","category":"other"}]},{"lat":"37.302563072","long":"126.99136594","imageIndex":17,"items":[{"name":"미도문구","tel":"031-255-9233","addr":"경기도 수원시 장안구 정자동 464-3번지","indutype":"서적문구 - 문구용품","category":"other"},{"name":"베란다목공소","tel":"070-4922-1261","addr":"경기도 수원시 장안구 정자동 464-3번지 1층 우측 상가","indutype":"가구 - 일반가구","category":"other"}]},{"lat":"37.295292364","long":"127.00181055","imageIndex":17,"items":[{"name":"미래상사","tel":"031-241-2700","addr":"경기도 수원시 장안구 정자동 33-7번지 102호","indutype":"레져용품 - 스포츠·레져용품","category":"other"}]},{"lat":"37.306374373","long":"126.99108336","imageIndex":17,"items":[{"name":"미성상회","tel":"031-245-2936","addr":"경기도 수원시 장안구 정자동 535-25번지","indutype":"유통업 영리 - 기타유통업","category":"other"}]},{"lat":"37.292373001","long":"126.99950995","imageIndex":17,"items":[{"name":"믿음열쇠","tel":"031-252-1313","addr":"경기도 수원시 장안구 정자동 42-24번지 1층","indutype":"건축자재 - 목재·석재·철물","category":"other"}]},{"lat":"37.292877577","long":"127.00619762","imageIndex":17,"items":[{"name":"바르게살기운동수원시협의회","tel":"031-242-9563","addr":"경기도 수원시 장안구 정자동 68-18번지 3층","indutype":"기타 - 비영리/비대상","category":"other"}]},{"lat":"37.307815902","long":"126.99005666","imageIndex":17,"items":[{"name":"바른교육","tel":"070-7518-7299","addr":"경기도 수원시 장안구 정자동 541-49번지 2층 202호","indutype":"서적문구 - 기타서적문구","category":"other"},{"name":"에스와이하우징(SY Housing)","tel":"031-244-4420","addr":"경기도 수원시 장안구 정자동 541-49번지 201호","indutype":"건축자재 - 인테리어전문","category":"other"}]},{"lat":"37.295067","long":"127.0080586","imageIndex":17,"items":[{"name":"바른인성","tel":"031-339-3303","addr":"경기도 수원시 장안구 정자동 9-7번지 부성주택 801호","indutype":"서적문구 - 기타서적문구","category":"other"}]},{"lat":"37.290958411","long":"127.00028816","imageIndex":17,"items":[{"name":"발모아","tel":"031-269-0287","addr":"경기도 수원시 장안구 정자동 73-37번지","indutype":"신변잡화 - 신발","category":"other"}]},{"lat":"37.293877743","long":"127.00492327","imageIndex":17,"items":[{"name":"방주정보통신","tel":"031-297-2995","addr":"경기도 수원시 장안구 정자동 50-31번지 202호","indutype":"회원제형태 - 기타1","category":"other"}]},{"lat":"37.29209372","long":"127.0045285","imageIndex":17,"items":[{"name":"백양세탁소","tel":"031-241-4773","addr":"경기도 수원시 장안구 정자동 70-46번지","indutype":"수리서비스 - 세탁소","category":"other"},{"name":"홍익아트 수원장안지사","tel":"031-246-7891","addr":"경기도 수원시 장안구 정자동 70-46번지 B동 2층 2호","indutype":"서적문구 - 일반서적","category":"other"}]},{"lat":"37.306041027","long":"126.9914218","imageIndex":17,"items":[{"name":"백운대주얼리","tel":"031-269-8472","addr":"경기도 수원시 장안구 정자동 528-12번지","indutype":"신변잡화 - 귀금속","category":"other"},{"name":"싸커통신","tel":"070-7808-4493","addr":"경기도 수원시 장안구 정자동 528-12번지","indutype":"사무통신 - 통신기기","category":"other"}]},{"lat":"37.301734046","long":"126.99053141","imageIndex":17,"items":[{"name":"밴키즈","tel":"070-8779-3010","addr":"경기도 수원시 장안구 정자동 359-10번지 3층","indutype":"의류 - 아동의류","category":"other"}]},{"lat":"37.294760573","long":"126.996149","imageIndex":17,"items":[{"name":"벽산세탁소","tel":"031-268-2333","addr":"경기도 수원시 장안구 정자동 884-4번지 두견마을3차벽산아파트","indutype":"수리서비스 - 세탁소","category":"other"},{"name":"한인테리어2호점","tel":"031-268-9988","addr":"경기도 수원시 장안구 정자동 884-4번지 두견마을3차벽산아파트","indutype":"건축자재 - 인테리어전문","category":"other"}]},{"lat":"37.291174657","long":"127.00028815","imageIndex":17,"items":[{"name":"보니따","tel":"","addr":"경기도 수원시 장안구 정자동 73-40번지","indutype":"의류 - 정장","category":"other"}]},{"lat":"37.307590679","long":"126.99036126","imageIndex":17,"items":[{"name":"보성정보통신","tel":"031-248-7016","addr":"경기도 수원시 장안구 정자동 540-6번지","indutype":"사무통신 - 통신기기","category":"other"}]},{"lat":"37.301094406","long":"126.99138872","imageIndex":17,"items":[{"name":"복도배장판인테리어","tel":"031-267-6671","addr":"경기도 수원시 장안구 정자동 327-2번지 영비디오 102호","indutype":"직물 - 카페트,커튼,천막,지물","category":"other"}]},{"lat":"37.29054386","long":"126.99784098","imageIndex":17,"items":[{"name":"봄봄이벤트","tel":"031-268-0616","addr":"경기도 수원시 장안구 정자동 887-1번지 두견마을영남,우방,한솔아파트 317동 1201호","indutype":"의류 - 정장","category":"other"}]},{"lat":"37.294535494","long":"127.00473156","imageIndex":17,"items":[{"name":"부국설비전기","tel":"031-255-0958","addr":"경기도 수원시 장안구 정자동 51-3번지","indutype":"전기제품 - 기타전기제품","category":"other"}]},{"lat":"37.292544144","long":"127.00775393","imageIndex":17,"items":[{"name":"부동산갤러리공인중개사사무소","tel":"031-207-8881","addr":"경기도 수원시 장안구 정자동 82-15번지","indutype":"용역 서비스 - 부동산 중개·임대","category":"other"}]},{"lat":"37.29287761","long":"127.00116776","imageIndex":17,"items":[{"name":"부성인테리어","tel":"031-241-2282","addr":"경기도 수원시 장안구 정자동 46-41번지","indutype":"건축자재 - 인테리어전문","category":"other"}]},{"lat":"37.295625748","long":"127.00294964","imageIndex":17,"items":[{"name":"붐.곳.드라이빙","tel":"070-4259-0883","addr":"경기도 수원시 장안구 정자동 35-45번지 청도주택 101호","indutype":"용역 서비스 - 정보서비스","category":"other"}]},{"lat":"37.293841541","long":"127.0093893","imageIndex":17,"items":[{"name":"블리앤제이","tel":"","addr":"경기도 수원시 장안구 정자동 6-5번지 동해주택 501호","indutype":"광학제품 - 사진관","category":"other"}]},{"lat":"37.299562752","long":"126.99231381","imageIndex":17,"items":[{"name":"비알시스템","tel":"070-7338-7352","addr":"경기도 수원시 장안구 정자동 325-20번지 현준맨션 1동 303호","indutype":"용역 서비스 - 기타용역서비스","category":"other"}]},{"lat":"37.290147501","long":"127.00095355","imageIndex":17,"items":[{"name":"비와이씨(BYC)정자점","tel":"031-253-6761","addr":"경기도 수원시 장안구 정자동 76-1번지","indutype":"의류 - 내의판매","category":"other"},{"name":"헬스박스","tel":"031-254-6191","addr":"경기도 수원시 장안구 정자동 76-1번지 성집빌딩 402호","indutype":"회원제형태 - 레져업소","category":"other"}]},{"lat":"37.291508027","long":"126.99991598","imageIndex":17,"items":[{"name":"비와이씨속옷","tel":"032-0000-0000","addr":"경기도 수원시 장안구 정자동 45-47번지 1층","indutype":"의류 - 내의판매","category":"other"}]},{"lat":"37.290399733","long":"126.99881085","imageIndex":17,"items":[{"name":"빌드인테리어","tel":"031-243-2624","addr":"경기도 수원시 장안구 정자동 74-16번지 103호","indutype":"건축자재 - 인테리어전문","category":"other"},{"name":"엠모바일","tel":"031-243-2220","addr":"경기도 수원시 장안구 정자동 74-16번지 102호","indutype":"수리서비스 - 사무·통신기기수리","category":"other"}]},{"lat":"37.295535601","long":"126.99964515","imageIndex":17,"items":[{"name":"사단법인 한국체육진흥원","tel":"02-702-3395","addr":"경기도 수원시 장안구 정자동 27-10번지 경기도체육회관","indutype":"기타 - 비영리/비대상","category":"other"}]},{"lat":"37.289787078","long":"127.0002882","imageIndex":17,"items":[{"name":"사반나","tel":"031-247-6700","addr":"경기도 수원시 장안구 정자동 75-8번지","indutype":"의류 - 정장","category":"other"}]},{"lat":"37.293625248","long":"127.01020129","imageIndex":17,"items":[{"name":"사임당우리옷","tel":"031-253-8774","addr":"경기도 수원시 장안구 정자동 2-8번지","indutype":"의류 - 맞춤복점","category":"other"},{"name":"서현악기사","tel":"031-247-8778","addr":"경기도 수원시 장안구 정자동 2-8번지 2층","indutype":"레져용품 - 악기점","category":"other"},{"name":"착한썬팅블랙박스","tel":"031-246-7711","addr":"경기도 수원시 장안구 정자동 2-8번지 1층","indutype":"전기제품 - 기타전기제품","category":"other"}]},{"lat":"37.293319118","long":"127.00420147","imageIndex":17,"items":[{"name":"삼보세탁소","tel":"031-255-5242","addr":"경기도 수원시 장안구 정자동 50-54번지","indutype":"수리서비스 - 세탁소","category":"other"}]},{"lat":"37.295760624","long":"126.99478425","imageIndex":17,"items":[{"name":"삼천리자전거(정자점)","tel":"031-269-4192","addr":"경기도 수원시 장안구 정자동 874-7번지","indutype":"레져용품 - 스포츠·레져용품","category":"other"}]},{"lat":"37.30761762","long":"126.98953782","imageIndex":17,"items":[{"name":"삼천리자전거장안점","tel":"031-258-2447","addr":"경기도 수원시 장안구 정자동 547-14번지","indutype":"레져용품 - 스포츠·레져용품","category":"other"}]},{"lat":"37.295121171","long":"127.00386316","imageIndex":17,"items":[{"name":"삼호실업","tel":"031-242-0968","addr":"경기도 수원시 장안구 정자동 37-32번지","indutype":"용역 서비스 - 종합용역","category":"other"}]},{"lat":"37.295571686","long":"127.00331054","imageIndex":17,"items":[{"name":"새롬클린","tel":"031-258-1099","addr":"경기도 수원시 장안구 정자동 35-15번지","indutype":"용역 서비스 - 종합용역","category":"other"}]},{"lat":"37.295679808","long":"127.00361505","imageIndex":17,"items":[{"name":"새미나세탁소","tel":"031-243-8003","addr":"경기도 수원시 장안구 정자동 35-10번지","indutype":"수리서비스 - 세탁소","category":"other"}]},{"lat":"37.296040198","long":"127.00064889","imageIndex":17,"items":[{"name":"새별 인테리어.가구.씽크","tel":"031-247-1404","addr":"경기도 수원시 장안구 정자동 27-34번지","indutype":"가구 - 일반가구","category":"other"}]},{"lat":"37.293787623","long":"127.00575783","imageIndex":17,"items":[{"name":"새한방역공사","tel":"031-241-4306","addr":"경기도 수원시 장안구 정자동 68-53번지 102호","indutype":"용역 서비스 - 종합용역","category":"other"}]},{"lat":"37.295787932","long":"127.00327671","imageIndex":17,"items":[{"name":"생활용품 스마일 D.C 백화점","tel":"031-111-1111","addr":"경기도 수원시 장안구 정자동 35-7번지 1층","indutype":"신변잡화 - 기타잡화","category":"other"}]},{"lat":"37.291877439","long":"126.99961147","imageIndex":17,"items":[{"name":"생활용품D/C백화점","tel":"031-214-0579","addr":"경기도 수원시 장안구 정자동 45-4번지","indutype":"신변잡화 - 기타잡화","category":"other"}]},{"lat":"37.291508063","long":"127.00353607","imageIndex":17,"items":[{"name":"샤라라네","tel":"031-548-1316","addr":"경기도 수원시 장안구 정자동 70-59번지 90브릭 1층","indutype":"문화.취미 - 애완동물","category":"other"}]},{"lat":"37.295238184","long":"127.00830673","imageIndex":17,"items":[{"name":"샤인앤텔레콤","tel":"031-306-2776","addr":"경기도 수원시 장안구 정자동 9-1번지 2층","indutype":"사무통신 - 통신기기","category":"other"}]},{"lat":"37.294508326","long":"127.00889313","imageIndex":17,"items":[{"name":"서울화원","tel":"031-241-1121","addr":"경기도 수원시 장안구 정자동 7-1번지 국제반석교회 102호","indutype":"문화.취미 - 화원","category":"other"}]},{"lat":"37.294598065","long":"126.99184083","imageIndex":17,"items":[{"name":"서울화훼","tel":"02-529-9639","addr":"경기도 수원시 장안구 정자동 879-1번지 백설마을성지,동양고속아파트","indutype":"문화.취미 - 화원","category":"other"}]},{"lat":"37.293147782","long":"127.00881408","imageIndex":17,"items":[{"name":"선일사","tel":"031-246-2579","addr":"경기도 수원시 장안구 정자동 5-4번지","indutype":"유통업 영리 - 기타유통업","category":"other"},{"name":"예인광고기획","tel":"031-241-1169","addr":"경기도 수원시 장안구 정자동 5-4번지 1층","indutype":"용역 서비스 - 종합용역","category":"other"}]},{"lat":"37.295373385","long":"127.00714509","imageIndex":17,"items":[{"name":"선재노인전문요양원","tel":"031-244-5007","addr":"경기도 수원시 장안구 정자동 9-5번지 메디플라자 502,503호","indutype":"기타의료기관 - 기타의료기관 및 기타","category":"other"},{"name":"킴스모바일","tel":"0505-354-4730","addr":"경기도 수원시 장안구 정자동 9-5번지 메디플라자7층703호 111호","indutype":"전기제품 - 기타전기제품","category":"other"}]},{"lat":"37.305896971","long":"126.99258363","imageIndex":17,"items":[{"name":"세무사박춘유사무소","tel":"031-248-6335","addr":"경기도 수원시 장안구 정자동 432번지 3층","indutype":"용역 서비스 - 법률회계서비스(개인)","category":"other"}]},{"lat":"37.293292015","long":"127.00722392","imageIndex":17,"items":[{"name":"세븐일레븐수원정자송정점","tel":"","addr":"경기도 수원시 장안구 정자동 67-13번지","indutype":"유통업 영리 - 편 의 점","category":"other"},{"name":"편의점사랑(정자점)","tel":"070-7012-1308","addr":"경기도 수원시 장안구 정자동 67-13번지","indutype":"유통업 영리 - 편 의 점","category":"other"}]},{"lat":"37.291652222","long":"127.00167527","imageIndex":17,"items":[{"name":"세븐일레븐수원정자중앙점","tel":"031-1577-0711","addr":"경기도 수원시 장안구 정자동 72-6번지 수성아파트 1층 101호","indutype":"유통업 영리 - 편 의 점","category":"other"}]},{"lat":"37.291066557","long":"127.00178806","imageIndex":17,"items":[{"name":"세이퍼컴퓨터","tel":"031-251-5657","addr":"경기도 수원시 장안구 정자동 73-62번지","indutype":"사무통신 - 컴퓨터","category":"other"},{"name":"수성정보","tel":"031-244-3515","addr":"경기도 수원시 장안구 정자동 73-62번지 201호","indutype":"사무통신 - 통신기기","category":"other"}]},{"lat":"37.301959351","long":"126.9910051","imageIndex":17,"items":[{"name":"세이프존","tel":"031-268-4611","addr":"경기도 수원시 장안구 정자동 359-19번지","indutype":"용역 서비스 - 종합용역","category":"other"}]},{"lat":"37.29540018","long":"126.99428806","imageIndex":17,"items":[{"name":"세종서림","tel":"031-269-1245","addr":"경기도 수원시 장안구 정자동 878-11번지 효신빌딩 101호","indutype":"서적문구 - 일반서적","category":"other"}]},{"lat":"37.303040465","long":"126.98992212","imageIndex":17,"items":[{"name":"세탁나라","tel":"031-247-3080","addr":"경기도 수원시 장안구 정자동 486번지","indutype":"수리서비스 - 세탁소","category":"other"},{"name":"스마트정보기기","tel":"031-223-2322","addr":"경기도 수원시 장안구 정자동 486번지 104호","indutype":"기타 - 기계공구","category":"other"}]},{"lat":"37.294742601","long":"127.00870142","imageIndex":17,"items":[{"name":"송림골프","tel":"031-235-3994","addr":"경기도 수원시 장안구 정자동 8-15번지 동산주택 1동 202호","indutype":"회원제형태 - 레져업소","category":"other"},{"name":"아날로그라벨","tel":"031-214-3333","addr":"경기도 수원시 장안구 정자동 8-15번지 동산주택 1동 202호","indutype":"회원제형태 - 기타4","category":"other"}]},{"lat":"37.29350825","long":"127.00750588","imageIndex":17,"items":[{"name":"수능교육평가원","tel":"031-947-8500","addr":"경기도 수원시 장안구 정자동 67-4번지","indutype":"서적문구 - 출판 및 인쇄물","category":"other"}]},{"lat":"37.306617647","long":"126.99106076","imageIndex":17,"items":[{"name":"수도유치원","tel":"031-255-1237","addr":"경기도 수원시 장안구 정자동 533-101번지","indutype":"기타 - 비영리/대상","category":"other"}]},{"lat":"37.293066627","long":"127.00995312","imageIndex":17,"items":[{"name":"수성종합기획","tel":"031-251-1030","addr":"경기도 수원시 장안구 정자동 5-9번지","indutype":"기타 - 기계공구","category":"other"}]},{"lat":"37.294148068","long":"127.00311881","imageIndex":17,"items":[{"name":"수성컴퓨터세탁소","tel":"031-252-2254","addr":"경기도 수원시 장안구 정자동 38-41번지","indutype":"수리서비스 - 세탁소","category":"other"}]},{"lat":"37.293931816","long":"127.00175418","imageIndex":17,"items":[{"name":"수원","tel":"","addr":"경기도 수원시 장안구 정자동 39-57번지","indutype":"용역 서비스 - 기타용역서비스","category":"other"}]},{"lat":"37.290318707","long":"127.0019234","imageIndex":17,"items":[{"name":"수원 24시전자담배","tel":"070-7793-9888","addr":"경기도 수원시 장안구 정자동 76-9번지 1층","indutype":"기타 - 기타 전문점","category":"other"},{"name":"심도커텐","tel":"031-241-2227","addr":"경기도 수원시 장안구 정자동 76-9번지","indutype":"직물 - 카페트,커튼,천막,지물","category":"other"},{"name":"우리진","tel":"031-258-2583","addr":"경기도 수원시 장안구 정자동 76-9번지","indutype":"의류 - 기타의류","category":"other"}]},{"lat":"37.291786874","long":"126.99192018","imageIndex":17,"items":[{"name":"수원YWCA방문요양센터","tel":"031-252-5125","addr":"경기도 수원시 장안구 정자동 889-2번지 3층","indutype":"기타의료기관 - 기타의료기관 및 기타","category":"other"},{"name":"수원YWCA요양원","tel":"031-252-5125","addr":"경기도 수원시 장안구 정자동 889-2번지 3층","indutype":"기타의료기관 - 기타의료기관 및 기타","category":"other"}]},{"lat":"37.302067907","long":"126.99666719","imageIndex":17,"items":[{"name":"수원꽃도매(한일꽃농원)","tel":"031-255-6677","addr":"경기도 수원시 장안구 정자동 297-2번지 경남아너스빌","indutype":"문화.취미 - 화원","category":"other"},{"name":"지비지비츠","tel":"070-8282-7169","addr":"경기도 수원시 장안구 정자동 297-2번지 경남아너스빌","indutype":"문화.취미 - 화원","category":"other"}]},{"lat":"37.292760478","long":"127.00125798","imageIndex":17,"items":[{"name":"수원불교전시관","tel":"031-256-4499","addr":"경기도 수원시 장안구 정자동 46-39번지 1층","indutype":"신변잡화 - 기념품점","category":"other"}]},{"lat":"37.293346144","long":"127.00125797","imageIndex":17,"items":[{"name":"수원장식","tel":"070-7724-8820","addr":"경기도 수원시 장안구 정자동 40-11번지 1층","indutype":"직물 - 카페트,커튼,천막,지물","category":"other"},{"name":"하늘서비스","tel":"031-298-7420","addr":"경기도 수원시 장안구 정자동 40-11번지 101호","indutype":"가구 - 기타가구","category":"other"}]},{"lat":"37.292759931","long":"126.99138999","imageIndex":17,"items":[{"name":"수원정자동우체국","tel":"031-269-2401","addr":"경기도 수원시 장안구 정자동 882-3번지","indutype":"용역 서비스 - 공공요금대행서비스/소","category":"other"}]},{"lat":"37.297788039","long":"126.99658859","imageIndex":17,"items":[{"name":"수원중부경찰서 복지위원회/식당","tel":"031-299-5394","addr":"경기도 수원시 장안구 정자동 873-4번지","indutype":"유통업 비영리 - 구내매점(국가기관","category":"other"},{"name":"수원중부경찰서복지위원회/매점","tel":"031-299-5394","addr":"경기도 수원시 장안구 정자동 873-4번지","indutype":"유통업 비영리 - 구내매점(국가기관","category":"other"}]},{"lat":"37.292967621","long":"127.00786673","imageIndex":17,"items":[{"name":"수원탑설비","tel":"031-255-1744","addr":"경기도 수원시 장안구 정자동 82-21번지 영광빌라 A동 202호","indutype":"용역 서비스 - 종합용역","category":"other"}]},{"lat":"37.29409397","long":"126.99997227","imageIndex":17,"items":[{"name":"수원피아노조율","tel":"031-247-3366","addr":"경기도 수원시 장안구 정자동 31-3 보은맨션 306 15/1","indutype":"용역 서비스 - 종합용역","category":"other"}]},{"lat":"37.290120474","long":"127.00122421","imageIndex":17,"items":[{"name":"슈올즈 기능성신발","tel":"","addr":"경기도 수원시 장안구 정자동 76-3번지","indutype":"신변잡화 - 신발","category":"other"},{"name":"하늘스튜디오","tel":"031-244-0038","addr":"경기도 수원시 장안구 정자동 76-3번지 휘테스 202호","indutype":"광학제품 - 사진관","category":"other"}]},{"lat":"37.29181319","long":"126.9858754","imageIndex":17,"items":[{"name":"스위스위너컨설팅","tel":"031-8003-1337","addr":"경기도 수원시 장안구 정자동 922번지 청솔마을주공아파트 613동 1603호","indutype":"용역 서비스 - 사무서비스","category":"other"}]},{"lat":"37.305769938","long":"126.98509396","imageIndex":17,"items":[{"name":"스타랩(STAR LAB)","tel":"031-268-2565","addr":"경기도 수원시 장안구 정자동 945번지 수원에스케이스카이뷰 122동 1802호","indutype":"서적문구 - 과학기자재","category":"other"}]},{"lat":"37.299427455","long":"126.99081376","imageIndex":17,"items":[{"name":"스피드복싱클럽","tel":"031-893-9973","addr":"경기도 수원시 장안구 정자동 336-3번지 3층","indutype":"회원제형태 - 레져업소","category":"other"}]},{"lat":"37.306401453","long":"126.99159095","imageIndex":17,"items":[{"name":"승리열쇠","tel":"031-252-0006","addr":"경기도 수원시 장안구 정자동 537-2번지","indutype":"기타 - 기계공구","category":"other"}]},{"lat":"37.29240007","long":"127.00439318","imageIndex":17,"items":[{"name":"신성종합공사","tel":"031-243-1009","addr":"경기도 수원시 장안구 정자동 70-78번지 수성프라자 101호","indutype":"용역 서비스 - 기타용역서비스","category":"other"}]},{"lat":"37.291399906","long":"127.00000621","imageIndex":17,"items":[{"name":"신신고","tel":"070-4667-4322","addr":"경기도 수원시 장안구 정자동 45-13번지 1층","indutype":"신변잡화 - 신발","category":"other"},{"name":"포토디즈니","tel":"031-242-6935","addr":"경기도 수원시 장안구 정자동 45-13번지","indutype":"광학제품 - 사진관","category":"other"}]},{"lat":"37.29370653","long":"126.99997229","imageIndex":17,"items":[{"name":"신영인테리어","tel":"031-268-0084","addr":"경기도 수원시 장안구 정자동 41-4번지","indutype":"건축자재 - 인테리어전문","category":"other"}]},{"lat":"37.303653286","long":"126.99111762","imageIndex":17,"items":[{"name":"신영종합건업","tel":"031-268-0492","addr":"경기도 수원시 장안구 정자동 471-23번지","indutype":"용역 서비스 - 기타용역서비스","category":"other"}]},{"lat":"37.290237496","long":"126.99750268","imageIndex":17,"items":[{"name":"신한러브투어","tel":"031-252-2882","addr":"경기도 수원시 장안구 정자동 887-1화이트쇼핑몰204","indutype":"회원제형태 - 기타4","category":"other"},{"name":"씨유수원두견마을점","tel":"02-1577-8007","addr":"경기도 수원시 장안구 정자동 887-1번지 상가동 1층 110,111호","indutype":"유통업 영리 - 편 의 점","category":"other"},{"name":"아이엠 (i aM)","tel":"","addr":"경기도 수원시 장안구 정자동 887-6번지 우주유치원 104호","indutype":"의류 - 정장","category":"other"}]},{"lat":"37.304428264","long":"126.99214393","imageIndex":17,"items":[{"name":"신한세무회계사무소","tel":"031-268-6890","addr":"경기도 수원시 장안구 정자동 840-77번지 센타프라자빌딩 302호","indutype":"용역 서비스 - 법률회계서비스(개인)","category":"other"},{"name":"주식회사온주택난방관리","tel":"031-1588-2996","addr":"경기도 수원시 장안구 정자동 840-77번지 센타프라자빌딩 504호","indutype":"용역 서비스 - 종합용역","category":"other"}]},{"lat":"37.295292349","long":"127.00069402","imageIndex":17,"items":[{"name":"신현대종합건재","tel":"031-243-9527","addr":"경기도 수원시 장안구 정자동 32-1번지","indutype":"건축자재 - 기타건축자재","category":"other"}]},{"lat":"37.29184144","long":"127.00389695","imageIndex":17,"items":[{"name":"쏘가리닷컴(ssogar y .com)","tel":"031-363-2780","addr":"경기도 수원시 장안구 정자동 70-18번지 경희연립 305호","indutype":"레져용품 - 스포츠·레져용품","category":"other"},{"name":"진흥종합건축","tel":"031-248-7733","addr":"경기도 수원시 장안구 정자동 70-18번지 경희연립 2층 203호","indutype":"용역 서비스 - 기타용역서비스","category":"other"}]},{"lat":"37.296400561","long":"126.99886691","imageIndex":17,"items":[{"name":"씨앤에스","tel":"031-258-3304","addr":"경기도 수원시 장안구 정자동 25-3","indutype":"사무통신 - 컴퓨터","category":"other"}]},{"lat":"37.29326484","long":"127.01016742","imageIndex":17,"items":[{"name":"씨유수성대로점","tel":"031-242-3483","addr":"경기도 수원시 장안구 정자동 2-14번지 비전타워","indutype":"유통업 영리 - 편 의 점","category":"other"}]},{"lat":"37.295679476","long":"126.99400607","imageIndex":17,"items":[{"name":"씨유수원정자점","tel":"031-269-3658","addr":"경기도 수원시 장안구 정자동 876-5번지 뱅뱅프라자 104동 105호","indutype":"유통업 영리 - 편 의 점","category":"other"}]},{"lat":"37.293508253","long":"126.99833701","imageIndex":17,"items":[{"name":"씨유수원현대베스트점","tel":"080-080-3663","addr":"경기도 수원시 장안구 정자동 30-11번지 1층","indutype":"유통업 영리 - 편 의 점","category":"other"}]},{"lat":"37.290985433","long":"126.99994984","imageIndex":17,"items":[{"name":"아바스캔(AVASCAN)","tel":"031-8025-9071","addr":"경기도 수원시 장안구 정자동 74-44번지 화장품직매장상가3층","indutype":"용역 서비스 - 사무서비스","category":"other"}]},{"lat":"37.291652204","long":"127.00530664","imageIndex":17,"items":[{"name":"아이위드(eyewith)","tel":"070-8758-0202","addr":"경기도 수원시 장안구 정자동 80-5번지","indutype":"회원제형태 - 기타2","category":"other"}]},{"lat":"37.304292848","long":"126.98956096","imageIndex":17,"items":[{"name":"아이테크","tel":"031-244-2670","addr":"경기도 수원시 장안구 정자동 520-1번지","indutype":"기타 - 기타 전문점","category":"other"}]},{"lat":"37.294346288","long":"127.00397593","imageIndex":17,"items":[{"name":"아이티엔에스","tel":"031-251-3212","addr":"경기도 수원시 장안구 정자동 50-19번지 B-202","indutype":"사무통신 - 기타 사무용품","category":"other"}]},{"lat":"37.310311242","long":"126.9861194","imageIndex":17,"items":[{"name":"어썸 북카페","tel":"031-268-0218","addr":"경기도 수원시 장안구 정자동 582-3번지 2층","indutype":"용역 서비스 - 사무서비스","category":"other"}]},{"lat":"37.304536652","long":"126.99564055","imageIndex":17,"items":[{"name":"엄마랑아가랑","tel":"031-252-2153","addr":"경기도 수원시 장안구 정자동 417번지 101-2호","indutype":"신변잡화 - 기타잡화","category":"other"}]},{"lat":"37.306094878","long":"126.98942529","imageIndex":17,"items":[{"name":"에스웰테크","tel":"070-7533-8506","addr":"경기도 수원시 장안구 정자동 532-22번지","indutype":"기타 - 기계공구","category":"other"},{"name":"온누리타브 (onnuri TAV)","tel":"","addr":"경기도 수원시 장안구 정자동 532-22번지","indutype":"전기제품 - 가전제품","category":"other"}]},{"lat":"37.293958807","long":"127.00617511","imageIndex":17,"items":[{"name":"에스제이마스터","tel":"031-252-8122","addr":"경기도 수원시 장안구 정자동 68-46번지 101호","indutype":"건축자재 - 목재·석재·철물","category":"other"}]},{"lat":"37.307041077","long":"126.99056438","imageIndex":17,"items":[{"name":"에이원테크","tel":"031-271-1194","addr":"경기도 수원시 장안구 정자동 533-1번지 1층","indutype":"사무통신 - 컴퓨터","category":"other"}]},{"lat":"37.306949914","long":"126.98281516","imageIndex":17,"items":[{"name":"에이피테크","tel":"031-8081-7441","addr":"경기도 수원시 장안구 정자동 945번지 수원에스케이스카이뷰 118동 2005호","indutype":"서적문구 - 과학기자재","category":"other"}]},{"lat":"37.302194046","long":"126.9965995","imageIndex":17,"items":[{"name":"엘지냉난방","tel":"","addr":"경기도 수원시 장안구 정자동 297-2번지 경남아너스빌 104동 404호","indutype":"용역 서비스 - 기타용역서비스","category":"other"}]},{"lat":"37.290850316","long":"127.00328796","imageIndex":17,"items":[{"name":"엘지전자(주) 북수원서비스센터","tel":"031-247-9595","addr":"경기도 수원시 장안구 정자동 79-2번지 LGBESTSH오피스텔 3층","indutype":"수리서비스 - 가정용품수리","category":"other"}]},{"lat":"37.304815741","long":"126.99256122","imageIndex":17,"items":[{"name":"엠케이텔레콤","tel":"031-269-2691","addr":"경기도 수원시 장안구 정자동 389-2번지","indutype":"사무통신 - 통신기기","category":"other"}]},{"lat":"37.293625432","long":"126.99975801","imageIndex":17,"items":[{"name":"영신조명","tel":"031-221-0859","addr":"경기도 수원시 장안구 정자동 42-1번지 1층","indutype":"건축자재 - 조명기구","category":"other"}]},{"lat":"37.303482108","long":"126.99128684","imageIndex":17,"items":[{"name":"영크린","tel":"031-242-0014","addr":"경기도 수원시 장안구 정자동 444-28번지","indutype":"회원제형태 - 기타4","category":"other"}]},{"lat":"37.300400798","long":"126.99341902","imageIndex":17,"items":[{"name":"예일서점","tel":"031-246-4775","addr":"경기도 수원시 장안구 정자동 313-1번지 동신아파트","indutype":"서적문구 - 일반서적","category":"other"}]},{"lat":"37.307734828","long":"126.99022587","imageIndex":17,"items":[{"name":"오늘도 예쁘개","tel":"","addr":"경기도 수원시 장안구 정자동 540-2번지 상아다방 1층 2호","indutype":"문화.취미 - 애완동물","category":"other"}]},{"lat":"37.293571244","long":"127.00919756","imageIndex":17,"items":[{"name":"오도독(ODODOG)","tel":"070-4143-4496","addr":"경기도 수원시 장안구 정자동 6-21번지 101호","indutype":"문화.취미 - 애완동물","category":"other"}]},{"lat":"37.291453982","long":"127.00514875","imageIndex":17,"items":[{"name":"오손도손","tel":"","addr":"경기도 수원시 장안구 정자동 79-17번지 3층 301-A호","indutype":"서적문구 - 일반서적","category":"other"}]},{"lat":"37.294346282","long":"127.0012805","imageIndex":17,"items":[{"name":"오캐이애드산업 협동조합","tel":"031-548-2234","addr":"경기도 수원시 장안구 정자동 39-15번지 1층","indutype":"건축자재 - 인테리어전문","category":"other"}]},{"lat":"37.29367942","long":"127.00811489","imageIndex":17,"items":[{"name":"오픈투올","tel":"","addr":"경기도 수원시 장안구 정자동 14-22번지 1층","indutype":"신변잡화 - 가방","category":"other"}]},{"lat":"37.292706284","long":"127.00872382","imageIndex":17,"items":[{"name":"오피스웨이","tel":"031-253-4082","addr":"경기도 수원시 장안구 정자동 16-2번지 롯데슈퍼 1층","indutype":"서적문구 - 문구용품","category":"other"},{"name":"우먼로드영화점","tel":"031-225-5284","addr":"경기도 수원시 장안구 정자동 16-2번지","indutype":"직물 - 침구·수예점","category":"other"}]},{"lat":"37.303374035","long":"126.9918057","imageIndex":17,"items":[{"name":"올 플라이","tel":"","addr":"경기도 수원시 장안구 정자동 447-8번지 301호","indutype":"서적문구 - 기타서적문구","category":"other"}]},{"lat":"37.300995544","long":"126.99435509","imageIndex":17,"items":[{"name":"올댓레더","tel":"","addr":"경기도 수원시 장안구 정자동 313-1번지 동신아파트 207동 401호","indutype":"신변잡화 - 가방","category":"other"}]},{"lat":"37.292877534","long":"126.99831449","imageIndex":17,"items":[{"name":"올리브","tel":"031-253-0430","addr":"경기도 수원시 장안구 정자동 43-1번지 1층","indutype":"의류 - 정장","category":"other"}]},{"lat":"37.294986019","long":"127.00361504","imageIndex":17,"items":[{"name":"우리데코타일","tel":"031-719-4104","addr":"경기도 수원시 장안구 정자동 37-5번지 진빌라 1층","indutype":"건축자재 - 기타건축자재","category":"other"}]},{"lat":"37.302013384","long":"126.99072311","imageIndex":17,"items":[{"name":"원테크","tel":"031-257-0932","addr":"경기도 수원시 장안구 정자동 359-13번지","indutype":"전기제품 - 기타전기제품","category":"other"}]},{"lat":"37.295571384","long":"126.99442338","imageIndex":17,"items":[{"name":"월드노래짱","tel":"031-269-9330","addr":"경기도 수원시 장안구 정자동 878-1번지","indutype":"용역 서비스 - 종합용역","category":"other"}]},{"lat":"37.304617403","long":"126.99134306","imageIndex":17,"items":[{"name":"월드북","tel":"031-244-1046","addr":"경기도 수원시 장안구 정자동 437-2","indutype":"서적문구 - 기타서적문구","category":"other"}]},{"lat":"37.294292231","long":"127.00336692","imageIndex":17,"items":[{"name":"위드미편의점(수원수성고점)","tel":"02-6916-1500","addr":"경기도 수원시 장안구 정자동 37-27번지","indutype":"유통업 영리 - 편 의 점","category":"other"}]},{"lat":"37.292237874","long":"127.00067156","imageIndex":17,"items":[{"name":"유니온펫","tel":"031-548-0306","addr":"경기도 수원시 장안구 정자동 45-38번지 1층 102호","indutype":"문화.취미 - 애완동물","category":"other"}]},{"lat":"37.290147491","long":"127.00044607","imageIndex":17,"items":[{"name":"유베라","tel":"031-258-5458","addr":"경기도 수원시 장안구 정자동 75-1번지","indutype":"의류 - 아동의류","category":"other"}]},{"lat":"37.291291785","long":"127.00008515","imageIndex":17,"items":[{"name":"유진공인중개사무소","tel":"031-247-7788","addr":"경기도 수원시 장안구 정자동 45-55번지","indutype":"용역 서비스 - 부동산 중개·임대","category":"other"},{"name":"정자재클린","tel":"031-242-9495","addr":"경기도 수원시 장안구 정자동 45-55번지 1층","indutype":"의류 - 정장","category":"other"}]},{"lat":"37.293841691","long":"127.00028806","imageIndex":17,"items":[{"name":"유진산업","tel":"031-892-5007","addr":"경기도 수원시 장안구 정자동 41-1번지","indutype":"농업 - 농기계","category":"other"}]},{"lat":"37.295706834","long":"127.00411129","imageIndex":17,"items":[{"name":"윤정리폼하우스","tel":"","addr":"경기도 수원시 장안구 정자동 36-2번지","indutype":"수리서비스 - 세탁소","category":"other"}]},{"lat":"37.306428381","long":"126.99056448","imageIndex":17,"items":[{"name":"으뜸전자","tel":"031-247-4343","addr":"경기도 수원시 장안구 정자동 533-117번지 1층","indutype":"사무통신 - 기타 사무용품","category":"other"}]},{"lat":"37.305842214","long":"126.98643622","imageIndex":17,"items":[{"name":"은비네","tel":"","addr":"경기도 수원시 장안구 정자동 945번지 수원에스케이스카이뷰 124동 703호","indutype":"의류 - 정장","category":"other"}]},{"lat":"37.295121104","long":"127.00697591","imageIndex":17,"items":[{"name":"이길상사","tel":"031-251-9800","addr":"경기도 수원시 장안구 정자동 11-3번지 경화빌딩 1층","indutype":"서적문구 - 과학기자재","category":"other"}]},{"lat":"37.306257207","long":"126.99075627","imageIndex":17,"items":[{"name":"이동우패션","tel":"031-244-5659","addr":"경기도 수원시 장안구 정자동 535-32번지","indutype":"의류 - 정장","category":"other"}]},{"lat":"37.306509452","long":"126.99036144","imageIndex":17,"items":[{"name":"이맥스테크","tel":"031-269-3393","addr":"경기도 수원시 장안구 정자동 533-52번지 1층 102호","indutype":"서적문구 - 과학기자재","category":"other"}]},{"lat":"37.291120616","long":"127.00425782","imageIndex":17,"items":[{"name":"이찬진컴퓨터교실","tel":"031-242-5369","addr":"경기도 수원시 장안구 정자동 79-18번지","indutype":"서적문구 - 전문서적","category":"other"},{"name":"주연테크컴퓨터/PC119","tel":"031-252-6119","addr":"경기도 수원시 장안구 정자동 79-18번지 1층","indutype":"전기제품 - 가전제품","category":"other"},{"name":"필앤하우스","tel":"031-255-8575","addr":"경기도 수원시 장안구 정자동 79-18번지","indutype":"기타 - 기타 전문점","category":"other"}]},{"lat":"37.292571201","long":"127.00705471","imageIndex":17,"items":[{"name":"인우종합상사","tel":"031-269-1663","addr":"경기도 수원시 장안구 정자동 81-10번지","indutype":"기타 - 기계공구","category":"other"}]},{"lat":"37.296292458","long":"126.99950978","imageIndex":17,"items":[{"name":"잉크나라","tel":"031-253-6543","addr":"경기도 수원시 장안구 정자동 25-9번지","indutype":"사무통신 - 기타 사무용품","category":"other"}]},{"lat":"37.292544234","long":"127.00141587","imageIndex":17,"items":[{"name":"장락꽃화원","tel":"031-244-2245","addr":"경기도 수원시 장안구 정자동 46-7번지","indutype":"문화.취미 - 화원","category":"other"}]},{"lat":"37.296013172","long":"127.00089701","imageIndex":17,"items":[{"name":"정애드기획","tel":"031-207-8224","addr":"경기도 수원시 장안구 정자동 33-1번지","indutype":"건축자재 - 인테리어전문","category":"other"}]},{"lat":"37.294454406","long":"127.00447216","imageIndex":17,"items":[{"name":"정인테리어","tel":"031-714-8470","addr":"경기도 수원시 장안구 정자동 50-5 103","indutype":"건축자재 - 인테리어전문","category":"other"}]},{"lat":"37.302121541","long":"126.99106147","imageIndex":17,"items":[{"name":"정자1동주민자치위원회","tel":"031-228-5431","addr":"경기도 수원시 장안구 정자동 840-96번지","indutype":"기타 - 비영리/비대상","category":"other"}]},{"lat":"37.294931934","long":"127.00044592","imageIndex":17,"items":[{"name":"정자2동주민자치위원회","tel":"031-228-5518","addr":"경기도 수원시 장안구 정자동 32-7번지","indutype":"문화.취미 - 문화취미기타","category":"other"}]},{"lat":"37.295733413","long":"126.99247224","imageIndex":17,"items":[{"name":"정자3동주민자치위원회","tel":"031-228-5612","addr":"경기도 수원시 장안구 정자동 879-4번지","indutype":"문화.취미 - 문화취미기타","category":"other"}]},{"lat":"37.290039362","long":"127.00014159","imageIndex":17,"items":[{"name":"정자유리","tel":"031-246-8315","addr":"경기도 수원시 장안구 정자동 75-13번지","indutype":"건축자재 - 유리","category":"other"}]},{"lat":"37.289958282","long":"127.0007844","imageIndex":17,"items":[{"name":"정자트라이","tel":"031-257-6842","addr":"경기도 수원시 장안구 정자동 75-11번지","indutype":"의류 - 내의판매","category":"other"},{"name":"주식회사성운컴퍼니","tel":"031-224-0011","addr":"경기도 수원시 장안구 정자동 75-11번지 캐슬노래방 305호","indutype":"사무통신 - 사무용 OA기기","category":"other"}]},{"lat":"37.29614828","long":"126.9990361","imageIndex":17,"items":[{"name":"제너럴엔터프라이즈","tel":"031-243-1772","addr":"경기도 수원시 장안구 정자동 25-16번지 서광조명 203호","indutype":"전기제품 - 기타전기제품","category":"other"},{"name":"제일장식","tel":"031-257-0088","addr":"경기도 수원시 장안구 정자동 25-16번지","indutype":"직물 - 카페트,커튼,천막,지물","category":"other"}]},{"lat":"37.295094044","long":"126.99803241","imageIndex":17,"items":[{"name":"제일세탁소","tel":"031-248-1093","addr":"경기도 수원시 장안구 정자동 29-1번지 신미주상가 111호","indutype":"수리서비스 - 세탁소","category":"other"}]},{"lat":"37.303482174","long":"126.99197488","imageIndex":17,"items":[{"name":"제일유리","tel":"031-256-1649","addr":"경기도 수원시 장안구 정자동 447-12번지","indutype":"건축자재 - 유리","category":"other"}]},{"lat":"37.307563632","long":"126.99020334","imageIndex":17,"items":[{"name":"조은센추리","tel":"031-258-3719","addr":"경기도 수원시 장안구 정자동 540-5번지 1층","indutype":"기타 - 기계공구","category":"other"}]},{"lat":"37.291093562","long":"127.00019794","imageIndex":17,"items":[{"name":"조은침구","tel":"031-245-0502","addr":"경기도 수원시 장안구 정자동 73-7번지","indutype":"직물 - 침구·수예점","category":"other"}]},{"lat":"37.292841423","long":"127.00902833","imageIndex":17,"items":[{"name":"주식회사 엠에스건설","tel":"031-251-0404","addr":"경기도 수원시 장안구 정자동 5-5번지","indutype":"건축자재 - 기타건축자재","category":"other"}]},{"lat":"37.301400741","long":"126.99125332","imageIndex":17,"items":[{"name":"주식회사 크린아트","tel":"031-000-0000","addr":"경기도 수원시 장안구 정자동 372-9번지 1층","indutype":"용역 서비스 - 종합용역","category":"other"},{"name":"진성건축.철물","tel":"031-424-4353","addr":"경기도 수원시 장안구 정자동 372-9번지 104호","indutype":"기타 - 기계공구","category":"other"}]},{"lat":"37.293787611","long":"127.0062315","imageIndex":17,"items":[{"name":"주식회사 필엔터테이먼트","tel":"031-256-4427","addr":"경기도 수원시 장안구 정자동 68-11번지 준영빌리지 204호","indutype":"문화.취미 - 티켓","category":"other"}]},{"lat":"37.305455423","long":"126.99206483","imageIndex":17,"items":[{"name":"주식회사에스오시스템","tel":"031-890-9009","addr":"경기도 수원시 장안구 정자동 434-10번지 동우빌딩 5층 502호","indutype":"전기제품 - 냉열기기","category":"other"}]},{"lat":"37.307563613","long":"126.99003414","imageIndex":17,"items":[{"name":"주은상사","tel":"031-269-9292","addr":"경기도 수원시 장안구 정자동 541-53번지","indutype":"건축자재 - 목재·석재·철물","category":"other"}]},{"lat":"37.290012303","long":"126.99914919","imageIndex":17,"items":[{"name":"줄리엣","tel":"031-243-7275","addr":"경기도 수원시 장안구 정자동 74-19번지 정승빌딩 1층 103호","indutype":"의류 - 정장","category":"other"}]},{"lat":"37.292679396","long":"127.00331052","imageIndex":17,"items":[{"name":"중문박사","tel":"031-247-9028","addr":"경기도 수원시 장안구 정자동 70-30번지 401호","indutype":"건축자재 - 기타건축자재","category":"other"}]},{"lat":"37.293400185","long":"127.00564503","imageIndex":17,"items":[{"name":"지벤산업","tel":"031-252-4353","addr":"경기도 수원시 장안구 정자동 68-14번지","indutype":"주방용구 - 주방용구","category":"other"}]},{"lat":"37.291507988","long":"126.99861907","imageIndex":17,"items":[{"name":"지오","tel":"","addr":"경기도 수원시 장안구 정자동 44-81번지 로즈빌 B동 401호","indutype":"건축자재 - 인테리어전문","category":"other"}]},{"lat":"37.294931789","long":"127.0092315","imageIndex":17,"items":[{"name":"진디자인","tel":"031-257-3188","addr":"경기도 수원시 장안구 정자동 1-8번지 2층","indutype":"서적문구 - 출판 및 인쇄물","category":"other"}]},{"lat":"37.302562941","long":"126.99009139","imageIndex":17,"items":[{"name":"진성상사","tel":"031-247-8578","addr":"경기도 수원시 장안구 정자동 489-6번지","indutype":"신변잡화 - 기타잡화","category":"other"}]},{"lat":"37.293265053","long":"127.00133691","imageIndex":17,"items":[{"name":"진송광고","tel":"031-243-2385","addr":"경기도 수원시 장안구 정자동 40-14번지","indutype":"용역 서비스 - 종합용역","category":"other"}]},{"lat":"37.292427041","long":"126.99883329","imageIndex":17,"items":[{"name":"진파리열쇠","tel":"031-243-1389","addr":"경기도 수원시 장안구 정자동 43-51번지","indutype":"건축자재 - 목재·석재·철물","category":"other"}]},{"lat":"37.295454502","long":"127.00638946","imageIndex":17,"items":[{"name":"채움","tel":"031-242-6994","addr":"경기도 수원시 장안구 정자동 10번지 1층","indutype":"건축자재 - 인테리어전문","category":"other"}]},{"lat":"37.295265014","long":"126.9941189","imageIndex":17,"items":[{"name":"채플린노래","tel":"031-242-2777","addr":"경기도 수원시 장안구 정자동 878-10번지 3층","indutype":"용역 서비스 - 종합용역","category":"other"}]},{"lat":"37.30470767","long":"126.99317033","imageIndex":17,"items":[{"name":"초월 프로덕션","tel":"","addr":"경기도 수원시 장안구 정자동 390번지 동남타운 101동 1005호","indutype":"용역 서비스 - 종합용역","category":"other"}]},{"lat":"37.292093665","long":"126.99892353","imageIndex":17,"items":[{"name":"최경애약손스킨케어","tel":"031-243-7232","addr":"경기도 수원시 장안구 정자동 43-107번지","indutype":"회원제형태 - 기타4","category":"other"}]},{"lat":"37.2957609","long":"127.0035361","imageIndex":17,"items":[{"name":"칠성당","tel":"031-244-8475","addr":"경기도 수원시 장안구 정자동 35-9번지","indutype":"신변잡화 - 시계","category":"other"}]},{"lat":"37.306320217","long":"126.99016971","imageIndex":17,"items":[{"name":"칠칠상사","tel":"070-8171-6528","addr":"경기도 수원시 장안구 정자동 533-41번지 장안빌딩","indutype":"용역 서비스 - 기타용역서비스","category":"other"}]},{"lat":"37.296067222","long":"127.00031054","imageIndex":17,"items":[{"name":"컴구루","tel":"031-257-0339","addr":"경기도 수원시 장안구 정자동 27-44번지","indutype":"사무통신 - 컴퓨터","category":"other"}]},{"lat":"37.305401621","long":"126.99542616","imageIndex":17,"items":[{"name":"코렉스자전거","tel":"031-246-2528","addr":"경기도 수원시 장안구 정자동 419번지","indutype":"레져용품 - 스포츠·레져용품","category":"other"},{"name":"홈메이드","tel":"","addr":"경기도 수원시 장안구 정자동 419번지","indutype":"직물 - 침구·수예점","category":"other"}]},{"lat":"37.301824608","long":"126.99624988","imageIndex":17,"items":[{"name":"크린존","tel":"","addr":"경기도 수원시 장안구 정자동 297-2번지 경남아너스빌 105동 902호","indutype":"용역 서비스 - 종합용역","category":"other"}]},{"lat":"37.301788216","long":"126.99161419","imageIndex":17,"items":[{"name":"클린상사","tel":"031-268-1667","addr":"경기도 수원시 장안구 정자동 374-9번지 1층","indutype":"신변잡화 - 기타잡화","category":"other"}]},{"lat":"37.295760902","long":"127.00308498","imageIndex":17,"items":[{"name":"키위모바일","tel":"031-253-7275","addr":"경기도 수원시 장안구 정자동 35-6번지","indutype":"사무통신 - 통신기기","category":"other"}]},{"lat":"37.290985468","long":"127.00228427","imageIndex":17,"items":[{"name":"키즈미르","tel":"031-211-0904","addr":"경기도 수원시 장안구 정자동 72-16번지","indutype":"용역 서비스 - 기타용역서비스","category":"other"}]},{"lat":"37.291138642","long":"127.00361501","imageIndex":17,"items":[{"name":"킨더드림","tel":"","addr":"경기도 수원시 장안구 정자동 79-4번지 삼성빌라 1동 402호 신성파크빌라","indutype":"서적문구 - 기타서적문구","category":"other"}]},{"lat":"37.304923801","long":"126.99186187","imageIndex":17,"items":[{"name":"태광페인트","tel":"031-251-7972","addr":"경기도 수원시 장안구 정자동 441-2번지","indutype":"건축자재 - 페인트","category":"other"}]},{"lat":"37.296093893","long":"126.99330677","imageIndex":17,"items":[{"name":"토즈멤버십라운지 정자센터","tel":"031-271-0109","addr":"경기도 수원시 장안구 정자동 877-2번지 한빛프라자 6층 601,602호","indutype":"용역 서비스 - 사무서비스","category":"other"}]},{"lat":"37.305842813","long":"126.99153463","imageIndex":17,"items":[{"name":"튼튼열쇠정자점","tel":"031-664-2246","addr":"경기도 수원시 장안구 정자동 436-6번지","indutype":"기타 - 기계공구","category":"other"}]},{"lat":"37.291237676","long":"126.99850631","imageIndex":17,"items":[{"name":"티비공장","tel":"","addr":"경기도 수원시 장안구 정자동 44-73번지 302호","indutype":"용역 서비스 - 기타용역서비스","category":"other"}]},{"lat":"37.307383184","long":"126.98810531","imageIndex":17,"items":[{"name":"페퍼민트","tel":"","addr":"경기도 수원시 장안구 정자동 945번지 수원에스케이스카이뷰 108동 3301호","indutype":"문화.취미 - 문화취미기타","category":"other"}]},{"lat":"37.291481007","long":"127.00539686","imageIndex":17,"items":[{"name":"평화인쇄사","tel":"031-251-0314","addr":"경기도 수원시 장안구 정자동 80-7번지 2층","indutype":"서적문구 - 출판 및 인쇄물","category":"other"}]},{"lat":"37.298508811","long":"126.99575392","imageIndex":17,"items":[{"name":"플라워멘토","tel":"031-256-9082","addr":"경기도 수원시 장안구 정자동 873-3번지 벽산 분산상가 104호","indutype":"문화.취미 - 화원","category":"other"}]},{"lat":"37.307815835","long":"126.98944754","imageIndex":17,"items":[{"name":"플로라","tel":"031-1661-5945","addr":"경기도 수원시 장안구 정자동 547-35번지","indutype":"문화.취미 - 화원","category":"other"}]},{"lat":"37.309256853","long":"126.98481113","imageIndex":17,"items":[{"name":"플로르까르따(Flor Carta)","tel":"031-268-9100","addr":"경기도 수원시 장안구 정자동 600-31번지 1층 106호","indutype":"문화.취미 - 화원","category":"other"}]},{"lat":"37.292066628","long":"126.99875437","imageIndex":17,"items":[{"name":"피치 블라썸(Peach blossom)","tel":"","addr":"경기도 수원시 장안구 정자동 43-91번지 삼성주택 나동 302호","indutype":"서적문구 - 완구점","category":"other"}]},{"lat":"37.295373167","long":"126.99453618","imageIndex":17,"items":[{"name":"필그린","tel":"070-4111-6686","addr":"경기도 수원시 장안구 정자동 878-2번지 3층","indutype":"주방용구 - 주방용구","category":"other"}]},{"lat":"37.307176212","long":"126.99039516","imageIndex":17,"items":[{"name":"하나인쇄광고","tel":"031-242-8702","addr":"경기도 수원시 장안구 정자동 534-6번지","indutype":"서적문구 - 출판 및 인쇄물","category":"other"}]},{"lat":"37.292427078","long":"127.00011895","imageIndex":17,"items":[{"name":"하늘정원","tel":"031-253-2025","addr":"경기도 수원시 장안구 정자동 45-1번지","indutype":"광학제품 - 사진관","category":"other"}]},{"lat":"37.301761114","long":"126.99089234","imageIndex":17,"items":[{"name":"하동종합장식","tel":"","addr":"경기도 수원시 장안구 정자동 359-1번지 1층","indutype":"직물 - 카페트,커튼,천막,지물","category":"other"}]},{"lat":"37.295040019","long":"126.99900232","imageIndex":17,"items":[{"name":"하얀장식","tel":"031-251-6203","addr":"경기도 수원시 장안구 정자동 28-12번지 청도연립 1층 101호","indutype":"건축자재 - 인테리어전문","category":"other"}]},{"lat":"37.306815885","long":"126.99119609","imageIndex":17,"items":[{"name":"하와이안 캣 (HAWAI IANCAT)","tel":"02-1111-1111","addr":"경기도 수원시 장안구 정자동 534-16번지 3층 301호","indutype":"문화.취미 - 애완동물","category":"other"}]},{"lat":"37.306869826","long":"126.99003426","imageIndex":17,"items":[{"name":"한국 바이러스 센터(경기 남부지사)","tel":"031-258-2991","addr":"경기도 수원시 장안구 정자동 533-47번지 1층","indutype":"신변잡화 - 기타잡화","category":"other"}]},{"lat":"37.294427346","long":"126.99983692","imageIndex":17,"items":[{"name":"한국건업건재상사","tel":"031-252-6473","addr":"경기도 수원시 장안구 정자동 31-7번지 1층","indutype":"용역 서비스 - 기타용역서비스","category":"other"}]},{"lat":"37.290453863","long":"127.00219405","imageIndex":17,"items":[{"name":"한빛전기조명","tel":"031-247-3441","addr":"경기도 수원시 장안구 정자동 76-6번지 동호빌딩 1층","indutype":"건축자재 - 조명기구","category":"other"}]},{"lat":"37.291598165","long":"127.00214893","imageIndex":17,"items":[{"name":"한신디자인","tel":"031-251-3738","addr":"경기도 수원시 장안구 정자동 72-9번지 1층","indutype":"용역 서비스 - 종합용역","category":"other"}]},{"lat":"37.292371764","long":"126.98544672","imageIndex":17,"items":[{"name":"한인테리어","tel":"031-243-5656","addr":"경기도 수원시 장안구 정자동 922번지 주공그린빌단지 상가 104호","indutype":"건축자재 - 인테리어전문","category":"other"}]},{"lat":"37.292120757","long":"127.00178804","imageIndex":17,"items":[{"name":"행복한 강아지","tel":"031-244-4564","addr":"경기도 수원시 장안구 정자동 46-34번지","indutype":"문화.취미 - 애완동물","category":"other"}]},{"lat":"37.294292186","long":"126.99961137","imageIndex":17,"items":[{"name":"현대세탁소","tel":"031-241-5415","addr":"경기도 수원시 장안구 정자동 31-8번지 상가주택 1층","indutype":"수리서비스 - 세탁소","category":"other"}]},{"lat":"37.293318979","long":"126.99700624","imageIndex":17,"items":[{"name":"현대옷수선","tel":"031-271-2329","addr":"경기도 수원시 장안구 정자동 886-1번지 현대벽산 상가 105호","indutype":"수리서비스 - 세탁소","category":"other"}]},{"lat":"37.296147414","long":"126.9880624","imageIndex":17,"items":[{"name":"현대장식","tel":"031-247-2104","addr":"경기도 수원시 장안구 정자동 870-1번지 현대코오롱단지 상가 103호","indutype":"직물 - 카페트,커튼,천막,지물","category":"other"}]},{"lat":"37.296040176","long":"126.99966768","imageIndex":17,"items":[{"name":"현대창호공사","tel":"031-245-4281","addr":"경기도 수원시 장안구 정자동 27-19번지 1층","indutype":"용역 서비스 - 기타용역서비스","category":"other"}]},{"lat":"37.303148788","long":"126.99189597","imageIndex":17,"items":[{"name":"현이베베","tel":"","addr":"경기도 수원시 장안구 정자동 452-2번지 401호","indutype":"의류 - 아동의류","category":"other"}]},{"lat":"37.293481191","long":"127.00819382","imageIndex":17,"items":[{"name":"현진솔루션","tel":"070-9756-9656","addr":"경기도 수원시 장안구 정자동 15-1번지 103호","indutype":"신변잡화 - 기타잡화","category":"other"}]},{"lat":"37.290958437","long":"127.00214894","imageIndex":17,"items":[{"name":"호라이즌(Horizon)","tel":"070-7568-3652","addr":"경기도 수원시 장안구 정자동 72-17번지 지하1층","indutype":"전기제품 - 가전제품","category":"other"}]},{"lat":"37.293543001","long":"126.9848149","imageIndex":17,"items":[{"name":"홍디자인","tel":"031-269-7900","addr":"경기도 수원시 장안구 정자동 920번지 예인빌딩 101호","indutype":"건축자재 - 인테리어전문","category":"other"}]},{"lat":"37.292291945","long":"127.00450595","imageIndex":17,"items":[{"name":"화인이엔지","tel":"031-254-1440","addr":"경기도 수원시 장안구 정자동 70-12번지 1층","indutype":"용역 서비스 - 기타용역서비스","category":"other"}]}]