[{"lat":"37.794028618","long":"126.78911899","imageIndex":17,"items":[{"name":"(주)대일건설기계","tel":"031-8071-4407","addr":"경기도 파주시 월롱면 위전리 581-22번지","indutype":"기타 - 기계공구","category":"other"},{"name":"대일건설기계","tel":"031-953-9979","addr":"경기도 파주시 월롱면 위전리 581-22번지","indutype":"기타 - 기계공구","category":"other"},{"name":"목련SK미니포크레인","tel":"031-946-3594","addr":"경기도 파주시 월롱면 위전리 581-22번지","indutype":"기타 - 기계공구","category":"other"},{"name":"영운공사","tel":"070-4038-4825","addr":"경기도 파주시 월롱면 위전리 581-22번지","indutype":"용역 서비스 - 사무서비스","category":"other"}]},{"lat":"37.790088338","long":"126.79237725","imageIndex":17,"items":[{"name":"(주)리싸이클오피스","tel":"031-1600-8173","addr":"경기도 파주시 월롱면 위전리 463-2번지","indutype":"가구 - 일반가구","category":"other"}]},{"lat":"37.795419595","long":"126.79106781","imageIndex":17,"items":[{"name":"GS25월롱역점","tel":"","addr":"경기도 파주시 월롱면 위전리 430-20번지","indutype":"유통업 영리 - 편 의 점","category":"other"}]},{"lat":"37.797722951","long":"126.78936949","imageIndex":17,"items":[{"name":"가민인테리어","tel":"","addr":"경기도 파주시 월롱면 위전리 294-2번지","indutype":"건축자재 - 인테리어전문","category":"other"}]},{"lat":"37.789305045","long":"126.79267465","imageIndex":17,"items":[{"name":"거산인쇄","tel":"031-945-8926","addr":"경기도 파주시 월롱면 위전리 541-18번지","indutype":"서적문구 - 출판 및 인쇄물","category":"other"},{"name":"국제설비","tel":"031-945-9131","addr":"경기도 파주시 월롱면 위전리 541-18번지","indutype":"용역 서비스 - 기타용역서비스","category":"other"}]},{"lat":"37.792229034","long":"126.7854571","imageIndex":17,"items":[{"name":"그린빌","tel":"031-957-6771","addr":"경기도 파주시 월롱면 위전리 574-10번지","indutype":"가구 - 일반가구","category":"other"},{"name":"주식회사메자닌프로젝트","tel":"031-8071-5311","addr":"경기도 파주시 월롱면 위전리 574-10번지","indutype":"가구 - 일반가구","category":"other"}]},{"lat":"37.787229913","long":"126.7960976","imageIndex":17,"items":[{"name":"금성 best one","tel":"031-946-8129","addr":"경기도 파주시 월롱면 위전리 525-3번지","indutype":"수리서비스 - 세탁소","category":"other"}]},{"lat":"37.797282086","long":"126.78970002","imageIndex":17,"items":[{"name":"다이소파주월롱점","tel":"031-945-5520","addr":"경기도 파주시 월롱면 위전리 296-1번지","indutype":"신변잡화 - 기타잡화","category":"other"}]},{"lat":"37.788672008","long":"126.79134818","imageIndex":17,"items":[{"name":"대명중기","tel":"031-947-0308","addr":"경기도 파주시 월롱면 위전리 545-6번지","indutype":"기타 - 기계공구","category":"other"},{"name":"제일크레인","tel":"031-947-2000","addr":"경기도 파주시 월롱면 위전리 545-6번지","indutype":"기타 - 기계공구","category":"other"},{"name":"제일크레인","tel":"031-947-2000","addr":"경기도 파주시 월롱면 위전리 545-6번지","indutype":"기타 - 기계공구","category":"other"},{"name":"제일크레인","tel":"031-947-2000","addr":"경기도 파주시 월롱면 위전리 545-6번지","indutype":"기타 - 기계공구","category":"other"},{"name":"파주크레인","tel":"031-943-6000","addr":"경기도 파주시 월롱면 위전리 545-6번지","indutype":"기타 - 기계공구","category":"other"}]},{"lat":"37.790309921","long":"126.79539649","imageIndex":17,"items":[{"name":"동해농자재","tel":"031-958-6480","addr":"경기도 파주시 월롱면 위전리 510-2번지","indutype":"건축자재 - 기타건축자재","category":"other"}]},{"lat":"37.78955542","long":"126.79161813","imageIndex":17,"items":[{"name":"민들레편의점","tel":"031-947-9723","addr":"경기도 파주시 월롱면 위전리 173-2번지","indutype":"유통업 영리 - 편 의 점","category":"other"},{"name":"파이 스튜디오 주식회사","tel":"031-942-2415","addr":"경기도 파주시 월롱면 위전리 173-2번지","indutype":"용역 서비스 - 소프트웨어","category":"other"}]},{"lat":"37.796834032","long":"126.79104106","imageIndex":17,"items":[{"name":"스마일스크린골프","tel":"031-944-0406","addr":"경기도 파주시 월롱면 위전리 421-4","indutype":"회원제형태 - 레져업소","category":"other"}]},{"lat":"37.791146736","long":"126.79995806","imageIndex":17,"items":[{"name":"아이채널여행사","tel":"02-1899-1491","addr":"경기도 파주시 월롱면 위전리 89-1번지","indutype":"여행 - 관광여행","category":"other"},{"name":"이마트24 금강산랜드점","tel":"","addr":"경기도 파주시 월롱면 위전리 89-1번지","indutype":"유통업 영리 - 편 의 점","category":"other"}]},{"lat":"37.795887982","long":"126.7910097","imageIndex":17,"items":[{"name":"월릉공구","tel":"031-945-4259","addr":"경기도 파주시 월롱면 위전리 427-11번지","indutype":"기타 - 기계공구","category":"other"}]},{"lat":"37.791171271","long":"126.78837792","imageIndex":17,"items":[{"name":"주식회사 더윈테크","tel":"070-4194-9110","addr":"경기도 파주시 월롱면 위전리 568-17번지","indutype":"기타 - 기계공구","category":"other"}]},{"lat":"37.788979427","long":"126.79196035","imageIndex":17,"items":[{"name":"주식회사 싱크미코리아","tel":"031-1688-3417","addr":"경기도 파주시 월롱면 위전리 541-4번지","indutype":"주방용구 - 주방용구","category":"other"}]},{"lat":"37.787535097","long":"126.79544966","imageIndex":17,"items":[{"name":"주식회사 애플퍼니처","tel":"031-947-3479","addr":"경기도 파주시 월롱면 위전리 525-6번지","indutype":"가구 - 일반가구","category":"other"}]},{"lat":"37.797888378","long":"126.7911743","imageIndex":17,"items":[{"name":"중앙건철 주식회사","tel":"031-954-2700","addr":"경기도 파주시 월롱면 위전리 319-4번지","indutype":"건축자재 - 기타건축자재","category":"other"}]},{"lat":"37.797892873","long":"126.7886764","imageIndex":17,"items":[{"name":"캐리어문산센타","tel":"02-303-0253","addr":"경기도 파주시 월롱면 위전리 293-3번지","indutype":"수리서비스 - 가정용품수리","category":"other"}]},{"lat":"37.796472552","long":"126.79042899","imageIndex":17,"items":[{"name":"코끼리광고","tel":"031-954-2095","addr":"경기도 파주시 월롱면 위전리 421-2번지","indutype":"건축자재 - 인테리어전문","category":"other"}]},{"lat":"37.789394551","long":"126.79234516","imageIndex":17,"items":[{"name":"푸드콕콕","tel":"070-8242-7951","addr":"경기도 파주시 월롱면 위전리 541-16번지","indutype":"문화.취미 - 애완동물","category":"other"}]},{"lat":"37.792000903","long":"126.79381367","imageIndex":17,"items":[{"name":"한성보드","tel":"031-943-9492","addr":"경기도 파주시 월롱면 위전리 475번지","indutype":"건축자재 - 목재·석재·철물","category":"other"}]},{"lat":"37.796221739","long":"126.79123583","imageIndex":17,"items":[{"name":"황금부동산중개인사무소","tel":"031-944-5777","addr":"경기도 파주시 월롱면 위전리 426번지","indutype":"용역 서비스 - 부동산 중개·임대","category":"other"}]},{"lat":"37.791146736","long":"126.79995806","imageIndex":13,"items":[{"name":"(주)소디프비엠티금강산랜드","tel":"070-7096-0723","addr":"경기도 파주시 월롱면 위전리 89-1번지","indutype":"레저업소 - 기타레져업소","category":"leisure"},{"name":"문성기골프아카데미","tel":"031-957-1415","addr":"경기도 파주시 월롱면 위전리 89-1번지","indutype":"레저업소 - 골프연습장","category":"leisure"}]},{"lat":"37.796861509","long":"126.79129077","imageIndex":13,"items":[{"name":"원당구장","tel":"031-942-9940","addr":"경기도 파주시 월롱면 위전리 422-6번지","indutype":"레저업소 - 당 구 장","category":"leisure"},{"name":"필립스 노래연습장","tel":"031-941-1303","addr":"경기도 파주시 월롱면 위전리 422-6번지","indutype":"레저업소 - 노 래 방","category":"leisure"}]},{"lat":"37.796923227","long":"126.79054124","imageIndex":13,"items":[{"name":"차차차노래연습장","tel":"031-944-4983","addr":"경기도 파주시 월롱면 위전리 321-5번지","indutype":"레저업소 - 노 래 방","category":"leisure"}]},{"lat":"37.800665393","long":"126.79234724","imageIndex":4,"items":[{"name":"강변가든","tel":"031-000-0000","addr":"경기도 파주시 월롱면 위전리 153-6","indutype":"일반휴게음식 - 일반한식","category":"restaurant"}]},{"lat":"37.796840173","long":"126.7894515","imageIndex":4,"items":[{"name":"구여사낙지명가","tel":"031-943-3332","addr":"경기도 파주시 월롱면 위전리 608-3번지","indutype":"일반휴게음식 - 일반한식","category":"restaurant"}]},{"lat":"37.795004998","long":"126.79097816","imageIndex":4,"items":[{"name":"그뤠잇","tel":"031-942-7702","addr":"경기도 파주시 월롱면 위전리 430-43번지","indutype":"일반휴게음식 - 스넥","category":"restaurant"}]},{"lat":"37.797892873","long":"126.7886764","imageIndex":4,"items":[{"name":"금촌가마솥해장국","tel":"031-941-1087","addr":"경기도 파주시 월롱면 위전리 293-3번지 2동","indutype":"일반휴게음식 - 일반한식","category":"restaurant"},{"name":"와우피치","tel":"070-111-1111","addr":"경기도 파주시 월롱면 위전리 293-3번지","indutype":"일반휴게음식 - 일반한식","category":"restaurant"},{"name":"행복한밥상","tel":"031-941-8639","addr":"경기도 파주시 월롱면 위전리 293-3번지","indutype":"일반휴게음식 - 일반한식","category":"restaurant"}]},{"lat":"37.797420195","long":"126.79134595","imageIndex":4,"items":[{"name":"나주곰탕","tel":"031-942-0898","addr":"경기도 파주시 월롱면 위전리 321-1번지","indutype":"일반휴게음식 - 일반한식","category":"restaurant"}]},{"lat":"37.791146736","long":"126.79995806","imageIndex":4,"items":[{"name":"동일B&F","tel":"02-423-5584","addr":"경기도 파주시 월롱면 위전리 89-1번지","indutype":"일반휴게음식 - 일반한식","category":"restaurant"}]},{"lat":"37.790446279","long":"126.79608863","imageIndex":4,"items":[{"name":"뚱뚱이할머니족발보쌈","tel":"031-945-2150","addr":"경기도 파주시 월롱면 위전리 506-6번지 1층","indutype":"일반휴게음식 - 일반한식","category":"restaurant"}]},{"lat":"37.790785236","long":"126.80459105","imageIndex":4,"items":[{"name":"복진이네","tel":"031-947-1835","addr":"경기도 파주시 월롱면 위전리 203-10번지, 1층 일부","indutype":"일반휴게음식 - 일반한식","category":"restaurant"}]},{"lat":"37.796310485","long":"126.79048622","imageIndex":4,"items":[{"name":"삼시세끼","tel":"031-943-2945","addr":"경기도 파주시 월롱면 위전리 422-4번지","indutype":"일반휴게음식 - 일반한식","category":"restaurant"},{"name":"스마일찹쌀꽈베기","tel":"031-947-8830","addr":"경기도 파주시 월롱면 위전리 422-4번지","indutype":"일반휴게음식 - 일반한식","category":"restaurant"}]},{"lat":"37.794283059","long":"126.79032172","imageIndex":4,"items":[{"name":"시골개장국","tel":"031-945-0451","addr":"경기도 파주시 월롱면 위전리 583-1번지","indutype":"일반휴게음식 - 일반한식","category":"restaurant"}]},{"lat":"37.796534572","long":"126.78984977","imageIndex":4,"items":[{"name":"신작로해장","tel":"031-941-2381","addr":"경기도 파주시 월롱면 위전리 608-10번지","indutype":"일반휴게음식 - 일반한식","category":"restaurant"}]},{"lat":"37.796778175","long":"126.79004208","imageIndex":4,"items":[{"name":"암소식당","tel":"031-945-9238","addr":"경기도 파주시 월롱면 위전리 608-1번지","indutype":"일반휴게음식 - 일반한식","category":"restaurant"},{"name":"월롱암소곰탕","tel":"031-945-1451","addr":"경기도 파주시 월롱면 위전리 608-1번지","indutype":"일반휴게음식 - 일반한식","category":"restaurant"}]},{"lat":"37.796221739","long":"126.79123583","imageIndex":4,"items":[{"name":"옛날수타손짜장","tel":"031-945-5959","addr":"경기도 파주시 월롱면 위전리 426번지","indutype":"일반휴게음식 - 중국식","category":"restaurant"},{"name":"커피트레인","tel":"031-944-9405","addr":"경기도 파주시 월롱면 위전리 426번지","indutype":"일반휴게음식 - 서양음식","category":"restaurant"}]},{"lat":"37.796031827","long":"126.79083899","imageIndex":4,"items":[{"name":"옥돌례","tel":"031-945-0021","addr":"경기도 파주시 월롱면 위전리 427-7번지","indutype":"일반휴게음식 - 일반한식","category":"restaurant"},{"name":"옥돌례","tel":"","addr":"경기도 파주시 월롱면 위전리 427-7번지","indutype":"일반휴게음식 - 일반한식","category":"restaurant"}]},{"lat":"37.796922121","long":"126.78992813","imageIndex":4,"items":[{"name":"용지촌","tel":"","addr":"경기도 파주시 월롱면 위전리 608-8번지","indutype":"일반휴게음식 - 일반한식","category":"restaurant"}]},{"lat":"37.796112728","long":"126.79073657","imageIndex":4,"items":[{"name":"우리술한잔할까","tel":"031-952-0010","addr":"경기도 파주시 월롱면 위전리 423-8번지","indutype":"일반휴게음식 - 주점","category":"restaurant"},{"name":"월롱양푼이통김치찌개","tel":"031-944-4356","addr":"경기도 파주시 월롱면 위전리 423-8번지","indutype":"일반휴게음식 - 일반한식","category":"restaurant"}]},{"lat":"37.796695528","long":"126.78917943","imageIndex":4,"items":[{"name":"월롱면고기리","tel":"031-000-0000","addr":"경기도 파주시 월롱면 위전리 607-1번지","indutype":"일반휴게음식 - 일반한식","category":"restaurant"}]},{"lat":"37.796861509","long":"126.79129077","imageIndex":4,"items":[{"name":"월롱부대찌개","tel":"031-942-5979","addr":"경기도 파주시 월롱면 위전리 422-6번지","indutype":"일반휴게음식 - 일반한식","category":"restaurant"}]},{"lat":"37.795248457","long":"126.79109101","imageIndex":4,"items":[{"name":"유일곰탕","tel":"031-944-3691","addr":"경기도 파주시 월롱면 위전리 430-27번지","indutype":"일반휴게음식 - 일반한식","category":"restaurant"}]},{"lat":"37.796895585","long":"126.7902007","imageIndex":4,"items":[{"name":"윤가네 진수성찬","tel":"031-947-5502","addr":"경기도 파주시 월롱면 위전리 298-12번지","indutype":"일반휴게음식 - 일반한식","category":"restaurant"}]},{"lat":"37.797587666","long":"126.7892904","imageIndex":4,"items":[{"name":"이가네순대국전통육개장","tel":"031-944-6840","addr":"경기도 파주시 월롱면 위전리 294-5번지","indutype":"일반휴게음식 - 일반한식","category":"restaurant"}]},{"lat":"37.794644275","long":"126.79078618","imageIndex":4,"items":[{"name":"주식회사 착한패션소","tel":"031-945-9295","addr":"경기도 파주시 월롱면 위전리 431번지","indutype":"일반휴게음식 - 일반한식","category":"restaurant"}]},{"lat":"37.797056049","long":"126.78925787","imageIndex":4,"items":[{"name":"참두루두루치기","tel":"031-946-0278","addr":"경기도 파주시 월롱면 위전리 609번지","indutype":"일반휴게음식 - 일반한식","category":"restaurant"}]},{"lat":"37.794365228","long":"126.79092322","imageIndex":4,"items":[{"name":"창삼덕돌판오리구이","tel":"031-942-8852","addr":"경기도 파주시 월롱면 위전리 592-13번지","indutype":"일반휴게음식 - 일반한식","category":"restaurant"}]},{"lat":"37.797470996","long":"126.78954052","imageIndex":4,"items":[{"name":"풍년마을 의정부 부대찌개","tel":"031-945-0051","addr":"경기도 파주시 월롱면 위전리 295-1번지","indutype":"일반휴게음식 - 일반한식","category":"restaurant"}]},{"lat":"37.795887329","long":"126.79064639","imageIndex":4,"items":[{"name":"한백년능이한방백숙","tel":"031-946-1854","addr":"경기도 파주시 월롱면 위전리 427-3번지","indutype":"일반휴게음식 - 일반한식","category":"restaurant"}]},{"lat":"37.795861158","long":"126.79112332","imageIndex":8,"items":[{"name":"녹십자약국","tel":"031-944-3394","addr":"경기도 파주시 월롱면 위전리 427-13번지 4","indutype":"약국 - 약국","category":"medical"}]},{"lat":"37.796221739","long":"126.79123583","imageIndex":8,"items":[{"name":"우리약국","tel":"031-947-5156","addr":"경기도 파주시 월롱면 위전리 426번지","indutype":"약국 - 약국","category":"medical"}]},{"lat":"37.796278964","long":"126.79300685","imageIndex":7,"items":[{"name":"느티나무","tel":"031-948-2578","addr":"경기도 파주시 월롱면 위전리 178번지","indutype":"유통업 영리 - 슈퍼마켓","category":"mart"}]},{"lat":"37.789868464","long":"126.79034572","imageIndex":7,"items":[{"name":"다온푸드","tel":"031-947-2025","addr":"경기도 파주시 월롱면 위전리 174-4번지","indutype":"음료식품 - 농·축·수산품","category":"food"}]},{"lat":"37.791225301","long":"126.8037611","imageIndex":7,"items":[{"name":"동진","tel":"031-941-3010","addr":"경기도 파주시 월롱면 위전리 201-3번지 외1필지","indutype":"음료식품 - 기타음료식품","category":"food"}]},{"lat":"37.796778175","long":"126.79004208","imageIndex":7,"items":[{"name":"월롱1등급생고기","tel":"031-945-9238","addr":"경기도 파주시 월롱면 위전리 608-1번지","indutype":"음료식품 - 정육점","category":"food"}]},{"lat":"37.791146736","long":"126.79995806","imageIndex":7,"items":[{"name":"윤매점","tel":"","addr":"경기도 파주시 월롱면 위전리 89-1번지","indutype":"음료식품 - 기타음료식품","category":"food"},{"name":"휴","tel":"031-948-4015","addr":"경기도 파주시 월롱면 위전리 89-1번지","indutype":"음료식품 - 기타음료식품","category":"food"}]},{"lat":"37.794644275","long":"126.79078618","imageIndex":7,"items":[{"name":"착한고기금촌지점","tel":"031-945-9295","addr":"경기도 파주시 월롱면 위전리 431번지","indutype":"음료식품 - 정육점","category":"food"}]},{"lat":"37.78955542","long":"126.79161813","imageIndex":7,"items":[{"name":"참진유통","tel":"031-943-5746","addr":"경기도 파주시 월롱면 위전리 173-2번지","indutype":"음료식품 - 기타음료식품","category":"food"}]},{"lat":"37.793923317","long":"126.79067471","imageIndex":7,"items":[{"name":"폴콘베이커리까페/주식회사 제이디코퍼레이","tel":"031-111-1111","addr":"경기도 파주시 월롱면 위전리 435-8번지","indutype":"음료식품 - 제과점","category":"food"}]},{"lat":"37.79441575","long":"126.79398853","imageIndex":0,"items":[{"name":"맥과이어스","tel":"031-945-1007","addr":"경기도 파주시 월롱면 위전리 192-3번지 189-1","indutype":"자동차정비 유지 - 자동차부품","category":"car"}]},{"lat":"37.791367894","long":"126.80284113","imageIndex":0,"items":[{"name":"보꾸보꾸MOTORS","tel":"031-944-2085","addr":"경기도 파주시 월롱면 위전리 193-1번지","indutype":"자동차정비 유지 - 자동차정비","category":"car"},{"name":"점보코리아써비스주식회사","tel":"031-957-3401","addr":"경기도 파주시 월롱면 위전리 193-1","indutype":"자동차정비 유지 - 중장비수리","category":"car"}]},{"lat":"37.7967234","long":"126.78964485","imageIndex":0,"items":[{"name":"오토오아시스 파주월릉점","tel":"031-944-3053","addr":"경기도 파주시 월롱면 위전리 608-9번지","indutype":"자동차정비 유지 - 자동차정비","category":"car"}]},{"lat":"37.788916889","long":"126.7922557","imageIndex":0,"items":[{"name":"이피텍","tel":"031-427-0274","addr":"경기도 파주시 월롱면 위전리 541-21번지","indutype":"자동차정비 유지 - 자동차부품","category":"car"}]},{"lat":"37.796310485","long":"126.79048622","imageIndex":5,"items":[{"name":"선호장","tel":"031-945-2335","addr":"경기도 파주시 월롱면 위전리 422-4번지","indutype":"숙박업 - 여관/기타숙박업","category":"hotel"}]},{"lat":"37.787170941","long":"126.80370387","imageIndex":16,"items":[{"name":"영도초등학교병설유치원[아이행복]","tel":"031-945-4048","addr":"경기도 파주시 월롱면 위전리 32-12번지","indutype":"학원 - 유치원","category":"study"}]},{"lat":"37.791862331","long":"126.80220402","imageIndex":9,"items":[{"name":"한성주유소","tel":"031-945-5129","addr":"경기도 파주시 월롱면 위전리 193번지","indutype":"연료판매점 - 현대정유(오일뱅크)","category":"oil"},{"name":"한성주유소","tel":"031-945-5129","addr":"경기도 파주시 월롱면 위전리 193번지","indutype":"연료판매점 - 현대정유(오일뱅크)","category":"oil"}]}]