[{"lat":"37.368305361","long":"126.94412269","imageIndex":4,"items":[{"name":"(신)풍천장어","tel":"031-461-6109","addr":"경기도 군포시 금정동 44-11번지 1층","indutype":"일반휴게음식 - 일반한식","category":"restaurant"}]},{"lat":"37.361361008","long":"126.94930928","imageIndex":4,"items":[{"name":"(주) 미라클브루어리","tel":"031-451-6110","addr":"경기도 군포시 금정동 206-13번지","indutype":"일반휴게음식 - 일반한식","category":"restaurant"}]},{"lat":"37.366665236","long":"126.94355953","imageIndex":4,"items":[{"name":"1등치킨","tel":"031-477-1888","addr":"경기도 군포시 금정동 81-18번지 1층 101호","indutype":"일반휴게음식 - 스넥","category":"restaurant"},{"name":"진선미고깃집","tel":"031-453-5355","addr":"경기도 군포시 금정동 81-18번지 1층","indutype":"일반휴게음식 - 일반한식","category":"restaurant"}]},{"lat":"37.361978688","long":"126.94106856","imageIndex":4,"items":[{"name":"24시순대국","tel":"031-454-3377","addr":"경기도 군포시 금정동 744-4번지 1층","indutype":"일반휴게음식 - 일반한식","category":"restaurant"},{"name":"걸작떡볶이산본점","tel":"031-392-0555","addr":"경기도 군포시 금정동 744-4번지 1층","indutype":"일반휴게음식 - 스넥","category":"restaurant"}]},{"lat":"37.370386226","long":"126.94317277","imageIndex":4,"items":[{"name":"갓포시키","tel":"031-390-6165","addr":"경기도 군포시 금정동 40-20번지 1,2층","indutype":"일반휴게음식 - 주점","category":"restaurant"},{"name":"놀부부대찌개&철판구이","tel":"031-399-6161","addr":"경기도 군포시 금정동 40-20번지 1-2층","indutype":"일반휴게음식 - 일반한식","category":"restaurant"}]},{"lat":"37.356946094","long":"126.93225731","imageIndex":4,"items":[{"name":"강정구의피자생각군포산본점","tel":"031-395-8599","addr":"경기도 군포시 금정동 873-4번지 명산빌딩 101호","indutype":"일반휴게음식 - 서양음식","category":"restaurant"},{"name":"설(  )","tel":"031-392-9108","addr":"경기도 군포시 금정동 873-4번지 명산빌딩 107호","indutype":"일반휴게음식 - 스넥","category":"restaurant"}]},{"lat":"37.368503539","long":"126.94403223","imageIndex":4,"items":[{"name":"개코포장마차","tel":"031-477-0766","addr":"경기도 군포시 금정동 44-13번지","indutype":"일반휴게음식 - 주점","category":"restaurant"},{"name":"거미포차","tel":"031-454-2323","addr":"경기도 군포시 금정동 44-13번지 1층","indutype":"일반휴게음식 - 주점","category":"restaurant"},{"name":"키스맥주","tel":"031-427-6761","addr":"경기도 군포시 금정동 44-13번지","indutype":"일반휴게음식 - 주점","category":"restaurant"}]},{"lat":"37.359916222","long":"126.94272955","imageIndex":4,"items":[{"name":"갯벌","tel":"031-397-4466","addr":"경기도 군포시 금정동 856-3번지","indutype":"일반휴게음식 - 일반한식","category":"restaurant"}]},{"lat":"37.357306862","long":"126.93286649","imageIndex":4,"items":[{"name":"고래김밥","tel":"031-329-9388","addr":"경기도 군포시 금정동 874번지 산본빌딩 102호","indutype":"일반휴게음식 - 스넥","category":"restaurant"},{"name":"더리터산본역점","tel":"031-393-1550","addr":"경기도 군포시 금정동 874번지 산본빌딩 1층 103호","indutype":"일반휴게음식 - 서양음식","category":"restaurant"},{"name":"디디치킨 산본역점","tel":"031-392-9277","addr":"경기도 군포시 금정동 874번지 산본빌딩 105호","indutype":"일반휴게음식 - 스넥","category":"restaurant"},{"name":"이공사공호프","tel":"031-396-2040","addr":"경기도 군포시 금정동 874번지 산본빌딩 202호","indutype":"일반휴게음식 - 주점","category":"restaurant"}]},{"lat":"37.366836321","long":"126.94334491","imageIndex":4,"items":[{"name":"고향식당","tel":"031-427-0888","addr":"경기도 군포시 금정동 79-13번지 1층","indutype":"일반휴게음식 - 일반한식","category":"restaurant"}]},{"lat":"37.368665558","long":"126.94370472","imageIndex":4,"items":[{"name":"고향왕족발","tel":"031-455-1627","addr":"경기도 군포시 금정동 43-6번지","indutype":"일반휴게음식 - 일반한식","category":"restaurant"},{"name":"스카이호프","tel":"031-466-7858","addr":"경기도 군포시 금정동 43-6번지 1층","indutype":"일반휴게음식 - 일반한식","category":"restaurant"}]},{"lat":"37.370115837","long":"126.94300364","imageIndex":4,"items":[{"name":"공동만남구역","tel":"031-392-3270","addr":"경기도 군포시 금정동 41-1번지","indutype":"일반휴게음식 - 주점","category":"restaurant"},{"name":"동해해물탕","tel":"031-394-7070","addr":"경기도 군포시 금정동 41-1번지 1층","indutype":"일반휴게음식 - 일반한식","category":"restaurant"},{"name":"묵호항세꼬시","tel":"031-399-8806","addr":"경기도 군포시 금정동 41-1번지 1층","indutype":"일반휴게음식 - 일반한식","category":"restaurant"}]},{"lat":"37.360448174","long":"126.94342897","imageIndex":4,"items":[{"name":"공원호프","tel":"031-455-7733","addr":"경기도 군포시 금정동 748-3번지","indutype":"일반휴게음식 - 주점","category":"restaurant"}]},{"lat":"37.363475818","long":"126.94390069","imageIndex":4,"items":[{"name":"광어9900원","tel":"031-427-1288","addr":"경기도 군포시 금정동 742번지 1층","indutype":"일반휴게음식 - 일반한식","category":"restaurant"},{"name":"금정쪽갈비","tel":"031-398-0849","addr":"경기도 군포시 금정동 742번지","indutype":"일반휴게음식 - 주점","category":"restaurant"},{"name":"양선생김밥","tel":"031-452-5252","addr":"경기도 군포시 금정동 742번지 1층","indutype":"일반휴게음식 - 일반한식","category":"restaurant"},{"name":"짬뽕명가","tel":"031-453-6618","addr":"경기도 군포시 금정동 742번지 1층","indutype":"일반휴게음식 - 중국식","category":"restaurant"},{"name":"짬뽕명가","tel":"031-453-6618","addr":"경기도 군포시 금정동 742번지 1층","indutype":"일반휴게음식 - 중국식","category":"restaurant"}]},{"lat":"37.37008896","long":"126.94330847","imageIndex":4,"items":[{"name":"교동전선생","tel":"031-399-2753","addr":"경기도 군포시 금정동 40-17번지 1층","indutype":"일반휴게음식 - 일반한식","category":"restaurant"},{"name":"맛닭꼬(금정역점)","tel":"031-392-8892","addr":"경기도 군포시 금정동 40-17번지 1층","indutype":"일반휴게음식 - 스넥","category":"restaurant"},{"name":"왕십리곱창","tel":"031-398-4848","addr":"경기도 군포시 금정동 40-17번지 1층","indutype":"일반휴게음식 - 일반한식","category":"restaurant"}]},{"lat":"37.361783248","long":"126.94664501","imageIndex":4,"items":[{"name":"구름나무히트슬라임","tel":"02-111-1111","addr":"경기도 군포시 금정동 766-11번지 1층 103호","indutype":"일반휴게음식 - 서양음식","category":"restaurant"}]},{"lat":"37.369026003","long":"126.94378346","imageIndex":4,"items":[{"name":"국보삼계탕","tel":"031-452-8039","addr":"경기도 군포시 금정동 44-18번지 (1층우측상가)","indutype":"일반휴게음식 - 일반한식","category":"restaurant"},{"name":"황금오징어보쌈","tel":"031-444-3113","addr":"경기도 군포시 금정동 44-18번지","indutype":"일반휴게음식 - 일반한식","category":"restaurant"}]},{"lat":"37.36258425","long":"126.94478187","imageIndex":4,"items":[{"name":"군포정육식당","tel":"031-456-2700","addr":"경기도 군포시 금정동 761-1번지 1층","indutype":"일반휴게음식 - 일반한식","category":"restaurant"}]},{"lat":"37.365781741","long":"126.94256683","imageIndex":4,"items":[{"name":"군포탕수육","tel":"","addr":"경기도 군포시 금정동 731-10번지 101호","indutype":"일반휴게음식 - 중국식","category":"restaurant"},{"name":"친구포차","tel":"031-443-0982","addr":"경기도 군포시 금정동 731-10번지 1층","indutype":"일반휴게음식 - 일반한식","category":"restaurant"}]},{"lat":"37.361201547","long":"126.93687009","imageIndex":4,"items":[{"name":"굽네치킨","tel":"031-452-9288","addr":"경기도 군포시 금정동 719번지 1층","indutype":"일반휴게음식 - 주점","category":"restaurant"}]},{"lat":"37.36978269","long":"126.94345548","imageIndex":4,"items":[{"name":"굿뉴스","tel":"031-396-9185","addr":"경기도 군포시 금정동 40-14번지 1층","indutype":"일반휴게음식 - 주점","category":"restaurant"},{"name":"두꺼비","tel":"031-398-6828","addr":"경기도 군포시 금정동 40-14번지 1층","indutype":"일반휴게음식 - 일반한식","category":"restaurant"},{"name":"흥왕양꼬치","tel":"031-393-6888","addr":"경기도 군포시 금정동 40-14번지 1층","indutype":"일반휴게음식 - 중국식","category":"restaurant"}]},{"lat":"37.366890256","long":"126.94309652","imageIndex":4,"items":[{"name":"굿뉴스","tel":"031-459-5239","addr":"경기도 군포시 금정동 79-1번지","indutype":"일반휴게음식 - 주점","category":"restaurant"},{"name":"남강","tel":"031-458-9192","addr":"경기도 군포시 금정동 79-1번지 1층","indutype":"일반휴게음식 - 중국식","category":"restaurant"},{"name":"처갓집양념통닭","tel":"031-458-3888","addr":"경기도 군포시 금정동 79-1번지 103호","indutype":"일반휴게음식 - 주점","category":"restaurant"},{"name":"큰손커피맥주","tel":"031-477-5012","addr":"경기도 군포시 금정동 79-1번지 지층","indutype":"일반휴게음식 - 주점","category":"restaurant"},{"name":"하얀푸드","tel":"031-451-9951","addr":"경기도 군포시 금정동 79-1번지 101호","indutype":"일반휴게음식 - 일반한식","category":"restaurant"}]},{"lat":"37.353007102","long":"126.92969892","imageIndex":4,"items":[{"name":"굿모닝제이","tel":"070-7774-6039","addr":"경기도 군포시 금정동 875-4번지 세원교육센터 1층 102호","indutype":"일반휴게음식 - 서양음식","category":"restaurant"},{"name":"굿모닝제이","tel":"070-4300-5505","addr":"경기도 군포시 금정동 875-4번지 세원교육센터 102호","indutype":"일반휴게음식 - 서양음식","category":"restaurant"},{"name":"밥맛나는세상인더박스군포흥진점","tel":"031-391-8282","addr":"경기도 군포시 금정동 875-4번지 세원교육센터 1층 101호","indutype":"일반휴게음식 - 스넥","category":"restaurant"}]},{"lat":"37.361615716","long":"126.93633919","imageIndex":4,"items":[{"name":"궁차이","tel":"031-459-1221","addr":"경기도 군포시 금정동 718-11번지 1층","indutype":"일반휴게음식 - 중국식","category":"restaurant"},{"name":"오투","tel":"031-456-9958","addr":"경기도 군포시 금정동 718-11번지","indutype":"일반휴게음식 - 주점","category":"restaurant"}]},{"lat":"37.374775071","long":"126.94500955","imageIndex":4,"items":[{"name":"그녀가 그에게 반한날","tel":"031-472-6622","addr":"경기도 군포시 금정동 1-50번지 103호","indutype":"일반휴게음식 - 서양음식","category":"restaurant"},{"name":"그집육개장한방보쌈","tel":"031-429-8999","addr":"경기도 군포시 금정동 1-50번지 1층 101호","indutype":"일반휴게음식 - 일반한식","category":"restaurant"},{"name":"육대장","tel":"031-429-8999","addr":"경기도 군포시 금정동 1-50번지 101호","indutype":"일반휴게음식 - 일반한식","category":"restaurant"},{"name":"착한식당","tel":"031-429-5952","addr":"경기도 군포시 금정동 1-50번지 104,105,106호","indutype":"일반휴게음식 - 일반한식","category":"restaurant"}]},{"lat":"37.363971234","long":"126.9436181","imageIndex":4,"items":[{"name":"그린호프","tel":"031-457-2040","addr":"경기도 군포시 금정동 738-5,1층3","indutype":"일반휴게음식 - 주점","category":"restaurant"},{"name":"풍성식당","tel":"031-429-3188","addr":"경기도 군포시 금정동 738-5번지","indutype":"일반휴게음식 - 일반한식","category":"restaurant"}]},{"lat":"37.365943848","long":"126.94241995","imageIndex":4,"items":[{"name":"금강다방","tel":"031-452-7281","addr":"경기도 군포시 금정동 731번지 지층","indutype":"일반휴게음식 - 서양음식","category":"restaurant"},{"name":"돌쇠상회","tel":"031-429-2224","addr":"경기도 군포시 금정동 731번지 1층","indutype":"일반휴게음식 - 일반한식","category":"restaurant"}]},{"lat":"37.362970967","long":"126.94333668","imageIndex":4,"items":[{"name":"금전숯불갈비","tel":"031-455-2746","addr":"경기도 군포시 금정동 742-5번지 1층 101호","indutype":"일반휴게음식 - 일반한식","category":"restaurant"}]},{"lat":"37.361141755","long":"126.94303335","imageIndex":4,"items":[{"name":"금정감자탕","tel":"031-457-2561","addr":"경기도 군포시 금정동 757-14번지 거성아트빌라 101호","indutype":"일반휴게음식 - 일반한식","category":"restaurant"}]},{"lat":"37.365275917","long":"126.94015149","imageIndex":4,"items":[{"name":"금정부대찌개","tel":"031-456-7804","addr":"경기도 군포시 금정동 726번지","indutype":"일반휴게음식 - 일반한식","category":"restaurant"}]},{"lat":"37.361611699","long":"126.94590013","imageIndex":4,"items":[{"name":"김밥고을","tel":"031-459-5081","addr":"경기도 군포시 금정동 766-32번지","indutype":"일반휴게음식 - 스넥","category":"restaurant"},{"name":"김밥고을","tel":"031-459-5087","addr":"경기도 군포시 금정동 766-32번지 1층","indutype":"일반휴게음식 - 일반한식","category":"restaurant"}]},{"lat":"37.362476454","long":"126.94544795","imageIndex":4,"items":[{"name":"김밥천국","tel":"031-477-8788","addr":"경기도 군포시 금정동 768-15번지 외2필지 은광하이츠빌리지 105호","indutype":"일반휴게음식 - 일반한식","category":"restaurant"},{"name":"백암순대","tel":"031-427-2210","addr":"경기도 군포시 금정동 768-15번지 은광하이츠빌리지 104호","indutype":"일반휴게음식 - 일반한식","category":"restaurant"},{"name":"스타닭스","tel":"","addr":"경기도 군포시 금정동 768-15번지 은광하이츠빌리지 107호","indutype":"일반휴게음식 - 주점","category":"restaurant"},{"name":"옛날통닭koko(꼬꼬)","tel":"031-457-1253","addr":"경기도 군포시 금정동 768-15번지 은광하이츠빌리지 1층 101호","indutype":"일반휴게음식 - 스넥","category":"restaurant"},{"name":"토마토","tel":"031-399-4115","addr":"경기도 군포시 금정동 768-15번지 은광하이츠빌리지 1층 102호","indutype":"일반휴게음식 - 주점","category":"restaurant"}]},{"lat":"37.357532415","long":"126.93337421","imageIndex":4,"items":[{"name":"김밥천국","tel":"031-391-8283","addr":"경기도 군포시 금정동 874-1번지 산본역사상가 109호","indutype":"일반휴게음식 - 일반한식","category":"restaurant"},{"name":"동그라미분식","tel":"031-393-2941","addr":"경기도 군포시 금정동 874-1번지 역사 상가 111호","indutype":"일반휴게음식 - 일반한식","category":"restaurant"},{"name":"신통치킨","tel":"031-393-3879","addr":"경기도 군포시 금정동 874-1번지 산본역사상가 116호","indutype":"일반휴게음식 - 스넥","category":"restaurant"},{"name":"신통치킨","tel":"031-393-3879","addr":"경기도 군포시 금정동 874-1번지","indutype":"일반휴게음식 - 스넥","category":"restaurant"},{"name":"윤가네YHJ햅쌀김밥","tel":"031-396-1266","addr":"경기도 군포시 금정동 874-1번지 산본역사상가 1층 104호","indutype":"일반휴게음식 - 스넥","category":"restaurant"},{"name":"호식이두마리치킨(산본역점)","tel":"031-396-9279","addr":"경기도 군포시 금정동 874-1번지 역사 상가 115호","indutype":"일반휴게음식 - 스넥","category":"restaurant"}]},{"lat":"37.362339393","long":"126.94164396","imageIndex":4,"items":[{"name":"김밥천국","tel":"031-477-4126","addr":"경기도 군포시 금정동 743-6번지","indutype":"일반휴게음식 - 일반한식","category":"restaurant"}]},{"lat":"37.366304126","long":"126.94217131","imageIndex":4,"items":[{"name":"김밥천국","tel":"031-451-9936","addr":"경기도 군포시 금정동 730-10번지 1층","indutype":"일반휴게음식 - 일반한식","category":"restaurant"}]},{"lat":"37.375504657","long":"126.94453481","imageIndex":4,"items":[{"name":"김쉐프","tel":"031-451-9991","addr":"경기도 군포시 금정동 1-40번지 한림휴먼타워 101호","indutype":"일반휴게음식 - 일반한식","category":"restaurant"},{"name":"선유집밥","tel":"","addr":"경기도 군포시 금정동 1-40번지 한림휴먼타워 103호","indutype":"일반휴게음식 - 일반한식","category":"restaurant"},{"name":"유창순대국","tel":"031-427-6270","addr":"경기도 군포시 금정동 1-40번지 한림휴먼타워 110호","indutype":"일반휴게음식 - 일반한식","category":"restaurant"},{"name":"전주 이모네한식뷔페","tel":"031-479-7117","addr":"경기도 군포시 금정동 1-40번지 한림휴먼타워 1층 106호","indutype":"일반휴게음식 - 일반한식","category":"restaurant"},{"name":"전주이모네한식뷔페","tel":"031-479-7117","addr":"경기도 군포시 금정동 1-40번지 한림휴먼타워 106호","indutype":"일반휴게음식 - 일반한식","category":"restaurant"},{"name":"천지푸드","tel":"031-479-7070","addr":"경기도 군포시 금정동 1-40번지 한림휴먼타워 1층 102호","indutype":"일반휴게음식 - 일반한식","category":"restaurant"},{"name":"커피베이 휴먼타워점","tel":"031-429-0882","addr":"경기도 군포시 금정동 1-40번지 한림휴먼타워 108-1호","indutype":"일반휴게음식 - 서양음식","category":"restaurant"},{"name":"한교","tel":"031-429-3433","addr":"경기도 군포시 금정동 1-40번지 한림휴먼타워 2층 215호","indutype":"일반휴게음식 - 일반한식","category":"restaurant"},{"name":"한끼","tel":"","addr":"경기도 군포시 금정동 1-40번지 한림휴먼타워 215호","indutype":"일반휴게음식 - 일반한식","category":"restaurant"},{"name":"한림뷔페식당","tel":"031-429-3433","addr":"경기도 군포시 금정동 1-40번지 한림휴먼타워 215호","indutype":"일반휴게음식 - 일반한식","category":"restaurant"},{"name":"할로빈","tel":"031-479-5755","addr":"경기도 군포시 금정동 1-40번지 한림휴먼타워","indutype":"일반휴게음식 - 서양음식","category":"restaurant"},{"name":"할로빈(hallo bean)","tel":"070-8632-2666","addr":"경기도 군포시 금정동 1-40번지 외1필지 한림휴먼타워 111호","indutype":"일반휴게음식 - 일반한식","category":"restaurant"}]},{"lat":"37.365385266","long":"126.94251071","imageIndex":4,"items":[{"name":"꼬꼬닭집","tel":"031-452-6591","addr":"경기도 군포시 금정동 733-7번지 중앙연립 E동 106호","indutype":"일반휴게음식 - 일반한식","category":"restaurant"}]},{"lat":"37.361643433","long":"126.93756956","imageIndex":4,"items":[{"name":"꿈터","tel":"070-5017-1368","addr":"경기도 군포시 금정동 716-21번지","indutype":"일반휴게음식 - 서양음식","category":"restaurant"}]},{"lat":"37.362368062","long":"126.94489492","imageIndex":4,"items":[{"name":"나희포차","tel":"070-7622-2861","addr":"경기도 군포시 금정동 762-11번지 1층","indutype":"일반휴게음식 - 주점","category":"restaurant"},{"name":"호화반점","tel":"031-111-1111","addr":"경기도 군포시 금정동 762-11번지","indutype":"일반휴게음식 - 중국식","category":"restaurant"}]},{"lat":"37.3633123","long":"126.94128195","imageIndex":4,"items":[{"name":"남도굴보쌈","tel":"031-454-0202","addr":"경기도 군포시 금정동 725-38번지","indutype":"일반휴게음식 - 일반한식","category":"restaurant"}]},{"lat":"37.365221886","long":"126.94020797","imageIndex":4,"items":[{"name":"남원추어탕","tel":"031-458-1665","addr":"경기도 군포시 금정동 726-5번지 1층","indutype":"일반휴게음식 - 일반한식","category":"restaurant"},{"name":"남원추어탕","tel":"031-458-1665","addr":"경기도 군포시 금정동 726-5번지 1층 101호","indutype":"일반휴게음식 - 일반한식","category":"restaurant"}]},{"lat":"37.374973144","long":"126.94470457","imageIndex":4,"items":[{"name":"남원추어탕","tel":"031-458-3523","addr":"경기도 군포시 금정동 1-52번지 1층 일부","indutype":"일반휴게음식 - 일반한식","category":"restaurant"}]},{"lat":"37.361917962","long":"126.94573058","imageIndex":4,"items":[{"name":"너쏠래치킨호프","tel":"031-458-0121","addr":"경기도 군포시 금정동 767-10번지 1층","indutype":"일반휴게음식 - 주점","category":"restaurant"}]},{"lat":"37.35995195","long":"126.94211999","imageIndex":4,"items":[{"name":"네네치킨","tel":"031-398-7878","addr":"경기도 군포시 금정동 855-2번지","indutype":"일반휴게음식 - 스넥","category":"restaurant"}]},{"lat":"37.370918589","long":"126.9447077","imageIndex":4,"items":[{"name":"녹차토스트","tel":"031-391-2008","addr":"경기도 군포시 금정동 689-18번지 1층","indutype":"일반휴게음식 - 일반한식","category":"restaurant"},{"name":"서영푸드","tel":"031-457-4542","addr":"경기도 군포시 금정동 689-18번지 1층","indutype":"일반휴게음식 - 일반한식","category":"restaurant"},{"name":"소문난김밥","tel":"031-477-6077","addr":"경기도 군포시 금정동 689-18번지 1층","indutype":"일반휴게음식 - 스넥","category":"restaurant"},{"name":"카페콤마(cafe COMMA)","tel":"031-427-9593","addr":"경기도 군포시 금정동 689-18번지 105호","indutype":"일반휴게음식 - 서양음식","category":"restaurant"}]},{"lat":"37.368422476","long":"126.94408873","imageIndex":4,"items":[{"name":"느낌호프","tel":"031-477-6399","addr":"경기도 군포시 금정동 44-12번지 1층","indutype":"일반휴게음식 - 주점","category":"restaurant"},{"name":"블랙 앤 화이트","tel":"","addr":"경기도 군포시 금정동 44-12번지 1층","indutype":"일반휴게음식 - 일반한식","category":"restaurant"}]},{"lat":"37.363970956","long":"126.94306497","imageIndex":4,"items":[{"name":"느루미","tel":"031-459-2769","addr":"경기도 군포시 금정동 738-2번지 외1필지 주영리치빌주상복합 103호","indutype":"일반휴게음식 - 일반한식","category":"restaurant"},{"name":"돈내코통삼겹(금정점)","tel":"031-458-5295","addr":"경기도 군포시 금정동 738-2번지 주영리치빌주상복합 104호","indutype":"일반휴게음식 - 일반한식","category":"restaurant"},{"name":"토종남원추어탕","tel":"031-427-3536","addr":"경기도 군포시 금정동 738-2번지 주영리치빌주상복합 103호","indutype":"일반휴게음식 - 일반한식","category":"restaurant"}]},{"lat":"37.361970995","long":"126.94364225","imageIndex":4,"items":[{"name":"니꺼내꺼","tel":"031-456-5879","addr":"경기도 군포시 금정동 759-20번지 1층","indutype":"일반휴게음식 - 주점","category":"restaurant"},{"name":"제이에스피자","tel":"031-427-1869","addr":"경기도 군포시 금정동 759-20번지 1층","indutype":"일반휴게음식 - 서양음식","category":"restaurant"}]},{"lat":"37.359835044","long":"126.9425603","imageIndex":4,"items":[{"name":"니콩","tel":"070-2086-5572","addr":"경기도 군포시 금정동 856-2번지 1층","indutype":"일반휴게음식 - 서양음식","category":"restaurant"},{"name":"맛짱분식","tel":"031-396-8552","addr":"경기도 군포시 금정동 856-2번지 104호","indutype":"일반휴게음식 - 스넥","category":"restaurant"}]},{"lat":"37.362727161","long":"126.94228707","imageIndex":4,"items":[{"name":"다미포차","tel":"031-427-3767","addr":"경기도 군포시 금정동 743-3번지 1층","indutype":"일반휴게음식 - 주점","category":"restaurant"},{"name":"순수치킨 군포산본점","tel":"","addr":"경기도 군포시 금정동 743-3번지 1층 101호","indutype":"일반휴게음식 - 스넥","category":"restaurant"},{"name":"주막골빈대떡","tel":"031-452-2932","addr":"경기도 군포시 금정동 743-3번지 1층","indutype":"일반휴게음식 - 일반한식","category":"restaurant"},{"name":"카프리","tel":"031-455-1692","addr":"경기도 군포시 금정동 743-3번지 1층","indutype":"일반휴게음식 - 주점","category":"restaurant"}]},{"lat":"37.362782622","long":"126.9450865","imageIndex":4,"items":[{"name":"다와포차","tel":"031-465-3489","addr":"경기도 군포시 금정동 769-8번지 1층 일부호","indutype":"일반휴게음식 - 주점","category":"restaurant"},{"name":"불불이불닭발","tel":"031-458-6755","addr":"경기도 군포시 금정동 769-8번지 1층","indutype":"일반휴게음식 - 일반한식","category":"restaurant"},{"name":"신정호프","tel":"031-427-0644","addr":"경기도 군포시 금정동 769-8번지 2층","indutype":"일반휴게음식 - 주점","category":"restaurant"}]},{"lat":"37.36219698","long":"126.94512081","imageIndex":4,"items":[{"name":"다정주막","tel":"031-468-2390","addr":"경기도 군포시 금정동 762-2번지 1층","indutype":"일반휴게음식 - 주점","category":"restaurant"},{"name":"대성루","tel":"031-458-0554","addr":"경기도 군포시 금정동 762-2번지 1층","indutype":"일반휴게음식 - 중국식","category":"restaurant"}]},{"lat":"37.364477726","long":"126.94759123","imageIndex":4,"items":[{"name":"다해밥상","tel":"031-427-0084","addr":"경기도 군포시 금정동 185-4번지 1층","indutype":"일반휴게음식 - 일반한식","category":"restaurant"}]},{"lat":"37.362446937","long":"126.94053764","imageIndex":4,"items":[{"name":"달리는커피","tel":"031-429-0162","addr":"경기도 군포시 금정동 721-13번지 1층 일부호","indutype":"일반휴게음식 - 서양음식","category":"restaurant"}]},{"lat":"37.363583423","long":"126.94287337","imageIndex":4,"items":[{"name":"달봉비어(태광점)","tel":"070-7607-9524","addr":"경기도 군포시 금정동 738-10번지 태광오피스텔 103호","indutype":"일반휴게음식 - 주점","category":"restaurant"},{"name":"명가교동짬뽕","tel":"","addr":"경기도 군포시 금정동 738-10번지 태광오피스텔 1층 101호,102호","indutype":"일반휴게음식 - 중국식","category":"restaurant"},{"name":"아씨들포차","tel":"070-8945-1824","addr":"경기도 군포시 금정동 738-10번지 태광오피스텔3 103호","indutype":"일반휴게음식 - 주점","category":"restaurant"}]},{"lat":"37.36935931","long":"126.94364773","imageIndex":4,"items":[{"name":"닭발플러스","tel":"031-454-2881","addr":"경기도 군포시 금정동 44-21번지","indutype":"일반휴게음식 - 일반한식","category":"restaurant"},{"name":"일딴부어호프","tel":"070-4667-6646","addr":"경기도 군포시 금정동 44-21번지 2층","indutype":"일반휴게음식 - 주점","category":"restaurant"},{"name":"조아조아","tel":"031-477-7839","addr":"경기도 군포시 금정동 44-21번지","indutype":"일반휴게음식 - 주점","category":"restaurant"}]},{"lat":"37.366448363","long":"126.94231795","imageIndex":4,"items":[{"name":"델피","tel":"031-111-1111","addr":"경기도 군포시 금정동 730-1번지 더퍼스트빌 1층","indutype":"일반휴게음식 - 일반한식","category":"restaurant"}]},{"lat":"37.367025533","long":"126.94334476","imageIndex":4,"items":[{"name":"돈가네","tel":"031-427-2211","addr":"경기도 군포시 금정동 79-3번지 1층","indutype":"일반휴게음식 - 일반한식","category":"restaurant"},{"name":"코코랑 금정점","tel":"031-454-2777","addr":"경기도 군포시 금정동 79-3번지","indutype":"일반휴게음식 - 주점","category":"restaurant"}]},{"lat":"37.362168416","long":"126.94206176","imageIndex":4,"items":[{"name":"동아리포차","tel":"031-455-5554","addr":"경기도 군포시 금정동 743-23번지","indutype":"일반휴게음식 - 주점","category":"restaurant"},{"name":"돼지부속마을","tel":"031-429-3241","addr":"경기도 군포시 금정동 743-23번지 1층","indutype":"일반휴게음식 - 일반한식","category":"restaurant"}]},{"lat":"37.35989401","long":"126.93498618","imageIndex":4,"items":[{"name":"동영","tel":"","addr":"경기도 군포시 금정동 847-2번지 동영센트럴타워 지하층 B101호","indutype":"일반휴게음식 - 위탁급식업","category":"restaurant"},{"name":"동영종합건설(주)","tel":"031-396-0111","addr":"경기도 군포시 금정동 847-2번지","indutype":"일반휴게음식 - 일반한식","category":"restaurant"}]},{"lat":"37.361169686","long":"126.9448394","imageIndex":4,"items":[{"name":"돼지되지","tel":"031-429-8592","addr":"경기도 군포시 금정동 764-63번지 1층 105호","indutype":"일반휴게음식 - 일반한식","category":"restaurant"},{"name":"수 푸드 (Food)","tel":"031-427-9400","addr":"경기도 군포시 금정동 764-63번지 105호","indutype":"일반휴게음식 - 일반한식","category":"restaurant"},{"name":"이천식당","tel":"031-459-1517","addr":"경기도 군포시 금정동 764-63번지 1층 3호","indutype":"일반휴게음식 - 일반한식","category":"restaurant"},{"name":"한끼야","tel":"031-427-6122","addr":"경기도 군포시 금정동 764-63번지 1층 1호","indutype":"일반휴게음식 - 일반한식","category":"restaurant"}]},{"lat":"37.361498667","long":"126.93648604","imageIndex":4,"items":[{"name":"두꺼비집","tel":"031-459-4911","addr":"경기도 군포시 금정동 718-9번지 보라빌딩 1층","indutype":"일반휴게음식 - 일반한식","category":"restaurant"}]},{"lat":"37.364943936","long":"126.94283843","imageIndex":4,"items":[{"name":"두찜(군포금정점)","tel":"","addr":"경기도 군포시 금정동 734-5번지 1층 103호","indutype":"일반휴게음식 - 일반한식","category":"restaurant"},{"name":"투마리치킨금정점","tel":"031-429-9228","addr":"경기도 군포시 금정동 734-5번지","indutype":"일반휴게음식 - 스넥","category":"restaurant"}]},{"lat":"37.360918145","long":"126.94637475","imageIndex":4,"items":[{"name":"두현비어킹","tel":"","addr":"경기도 군포시 금정동 765번지 두현타워 1층 101호","indutype":"일반휴게음식 - 주점","category":"restaurant"},{"name":"점프노리 군포산본점","tel":"031-477-0889","addr":"경기도 군포시 금정동 765번지 두현타워 501호","indutype":"일반휴게음식 - 일반한식","category":"restaurant"},{"name":"착한피자 군포점","tel":"031-429-4558","addr":"경기도 군포시 금정동 765번지 두현타워 104호","indutype":"일반휴게음식 - 서양음식","category":"restaurant"}]},{"lat":"37.370585292","long":"126.94486601","imageIndex":4,"items":[{"name":"듬박이","tel":"031-429-3628","addr":"경기도 군포시 금정동 689-27번지 상영빌딩 1층","indutype":"일반휴게음식 - 일반한식","category":"restaurant"},{"name":"맛있는집","tel":"031-477-0919","addr":"경기도 군포시 금정동 689-27번지 상영빌딩 1층","indutype":"일반휴게음식 - 일반한식","category":"restaurant"}]},{"lat":"37.359528071","long":"126.94134148","imageIndex":4,"items":[{"name":"또또떡볶이와 앤카페","tel":"031-399-0604","addr":"경기도 군포시 금정동 851-6번지 103호","indutype":"일반휴게음식 - 일반한식","category":"restaurant"},{"name":"청나루기사님식당","tel":"031-399-6702","addr":"경기도 군포시 금정동 851-6번지 1층 102호","indutype":"일반휴게음식 - 일반한식","category":"restaurant"}]},{"lat":"37.3650863","long":"126.93939531","imageIndex":4,"items":[{"name":"또래오래치킨산본금정점","tel":"031-427-9292","addr":"경기도 군포시 금정동 706-1번지 일부호","indutype":"일반휴게음식 - 스넥","category":"restaurant"}]},{"lat":"37.360584581","long":"126.94597992","imageIndex":4,"items":[{"name":"또봉이통닭","tel":"031-000-0000","addr":"경기도 군포시 금정동 764-15번지 102호","indutype":"일반휴게음식 - 스넥","category":"restaurant"}]},{"lat":"37.364196431","long":"126.94350504","imageIndex":4,"items":[{"name":"또와유 명태 간장조림","tel":"031-456-9291","addr":"경기도 군포시 금정동 738-4번지 1층","indutype":"일반휴게음식 - 일반한식","category":"restaurant"}]},{"lat":"37.370197059","long":"126.94326323","imageIndex":4,"items":[{"name":"뚱보집","tel":"031-392-7289","addr":"경기도 군포시 금정동 40-18번지","indutype":"일반휴게음식 - 일반한식","category":"restaurant"}]},{"lat":"37.369863753","long":"126.94339897","imageIndex":4,"items":[{"name":"라무진","tel":"031-397-8872","addr":"경기도 군포시 금정동 40-15번지 일부","indutype":"일반휴게음식 - 일반한식","category":"restaurant"},{"name":"육회포차","tel":"031-396-9242","addr":"경기도 군포시 금정동 40-15번지","indutype":"일반휴게음식 - 일반한식","category":"restaurant"}]},{"lat":"37.360922233","long":"126.93687033","imageIndex":4,"items":[{"name":"레이크","tel":"070-4400-5505","addr":"경기도 군포시 금정동 719-10번지 1층","indutype":"일반휴게음식 - 서양음식","category":"restaurant"}]},{"lat":"37.362367571","long":"126.94390156","imageIndex":4,"items":[{"name":"로스트인커피랩","tel":"031-123-1234","addr":"경기도 군포시 금정동 761-15번지 1층","indutype":"일반휴게음식 - 서양음식","category":"restaurant"}]},{"lat":"37.369142982","long":"126.94347856","imageIndex":4,"items":[{"name":"로즈","tel":"031-453-3209","addr":"경기도 군포시 금정동 43-2번지 1층","indutype":"일반휴게음식 - 주점","category":"restaurant"},{"name":"마실","tel":"031-456-9998","addr":"경기도 군포시 금정동 43-2번지 1층","indutype":"일반휴게음식 - 주점","category":"restaurant"},{"name":"생방송","tel":"031-456-9998","addr":"경기도 군포시 금정동 43-2번지 1층","indutype":"일반휴게음식 - 주점","category":"restaurant"},{"name":"생방송","tel":"031-349-9663","addr":"경기도 군포시 금정동 43-2번지 1층","indutype":"일반휴게음식 - 주점","category":"restaurant"}]},{"lat":"37.366142002","long":"126.94228433","imageIndex":4,"items":[{"name":"마루미돈까스","tel":"031-452-2323","addr":"경기도 군포시 금정동 730-9번지 대흥빌딩 1층 103호","indutype":"일반휴게음식 - 일반한식","category":"restaurant"},{"name":"시골밥집","tel":"031-429-3640","addr":"경기도 군포시 금정동 730-9번지 1층","indutype":"일반휴게음식 - 일반한식","category":"restaurant"},{"name":"은혜칼국수","tel":"031-398-7515","addr":"경기도 군포시 금정동 730-9번지 대흥빌딩 1층","indutype":"일반휴게음식 - 일반한식","category":"restaurant"},{"name":"초코커피숍","tel":"070-7538-8417","addr":"경기도 군포시 금정동 730-9번지 대흥빌딩 지층","indutype":"일반휴게음식 - 서양음식","category":"restaurant"}]},{"lat":"37.370305152","long":"126.9432067","imageIndex":4,"items":[{"name":"마산아구찜해물탕","tel":"031-397-8887","addr":"경기도 군포시 금정동 40-19번지","indutype":"일반휴게음식 - 일반한식","category":"restaurant"}]},{"lat":"37.361249808","long":"126.94289781","imageIndex":4,"items":[{"name":"마실터","tel":"031-451-1020","addr":"경기도 군포시 금정동 757-15번지 1층 2호","indutype":"일반휴게음식 - 주점","category":"restaurant"},{"name":"소메랑군포신환점","tel":"031-391-3944","addr":"경기도 군포시 금정동 757-15번지 1층","indutype":"일반휴게음식 - 주점","category":"restaurant"},{"name":"하늘과바람","tel":"031-392-2558","addr":"경기도 군포시 금정동 757-15번지 1층 101호","indutype":"일반휴게음식 - 일반한식","category":"restaurant"}]},{"lat":"37.361224208","long":"126.94578754","imageIndex":4,"items":[{"name":"만나식당","tel":"031-453-9790","addr":"경기도 군포시 금정동 764-5.6(1층)","indutype":"일반휴게음식 - 일반한식","category":"restaurant"},{"name":"뮤지컬호프","tel":"031-429-4209","addr":"경기도 군포시 금정동 764-5번지","indutype":"일반휴게음식 - 주점","category":"restaurant"}]},{"lat":"37.365059745","long":"126.94028713","imageIndex":4,"items":[{"name":"만땅치킨","tel":"031-427-9273","addr":"경기도 군포시 금정동 726-7번지 103호","indutype":"일반휴게음식 - 주점","category":"restaurant"}]},{"lat":"37.361673428","long":"126.94317967","imageIndex":4,"items":[{"name":"맛있는 밥상","tel":"031-429-3445","addr":"경기도 군포시 금정동 758-31번지 1층","indutype":"일반휴게음식 - 일반한식","category":"restaurant"}]},{"lat":"37.362943189","long":"126.94186923","imageIndex":4,"items":[{"name":"먹걸이민속주점","tel":"031-427-3756","addr":"경기도 군포시 금정동 723-10번지 1층 103호","indutype":"일반휴게음식 - 주점","category":"restaurant"},{"name":"봉초밥","tel":"031-429-1533","addr":"경기도 군포시 금정동 723-10번지 1층","indutype":"일반휴게음식 - 일반한식","category":"restaurant"},{"name":"사랑마루","tel":"","addr":"경기도 군포시 금정동 723-10번지","indutype":"일반휴게음식 - 주점","category":"restaurant"},{"name":"숙호프","tel":"031-427-0067","addr":"경기도 군포시 금정동 723-10번지 1층","indutype":"일반휴게음식 - 주점","category":"restaurant"}]},{"lat":"37.368719743","long":"126.94395303","imageIndex":4,"items":[{"name":"먹보양지설렁탕","tel":"031-458-2297","addr":"경기도 군포시 금정동 44-15번지","indutype":"일반휴게음식 - 일반한식","category":"restaurant"}]},{"lat":"37.351944727","long":"126.93104305","imageIndex":4,"items":[{"name":"멕시칸산본1호점","tel":"031-391-1666","addr":"경기도 군포시 금정동 871-12번지 주공3단지 상가 107호","indutype":"일반휴게음식 - 주점","category":"restaurant"},{"name":"보라분식","tel":"031-392-2784","addr":"경기도 군포시 금정동 871-12번지","indutype":"일반휴게음식 - 일반한식","category":"restaurant"}]},{"lat":"37.362834355","long":"126.94050345","imageIndex":4,"items":[{"name":"면사랑","tel":"","addr":"경기도 군포시 금정동 722-20번지 102호","indutype":"일반휴게음식 - 일반한식","category":"restaurant"}]},{"lat":"37.363393392","long":"126.94128188","imageIndex":4,"items":[{"name":"명가시골밥상","tel":"031-427-3582","addr":"경기도 군포시 금정동 725-37번지 ,2,3층","indutype":"일반휴게음식 - 일반한식","category":"restaurant"},{"name":"헌터","tel":"031-451-5455","addr":"경기도 군포시 금정동 725-37번지 2층 3호","indutype":"일반휴게음식 - 주점","category":"restaurant"}]},{"lat":"37.369558533","long":"126.94567962","imageIndex":4,"items":[{"name":"명가짬뽕","tel":"031-427-0884","addr":"경기도 군포시 금정동 689-6번지 한림벤쳐타운 1층","indutype":"일반휴게음식 - 중국식","category":"restaurant"},{"name":"소담한식부페","tel":"031-427-5229","addr":"경기도 군포시 금정동 689-6번지 한림벤쳐타운 101호","indutype":"일반휴게음식 - 일반한식","category":"restaurant"},{"name":"아웃 오브 아프리카","tel":"070-4616-0781","addr":"경기도 군포시 금정동 689-6번지 한림벤처타운 104호","indutype":"일반휴게음식 - 서양음식","category":"restaurant"},{"name":"오늘도 박셰프","tel":"031-427-3005","addr":"경기도 군포시 금정동 689-6번지 한림벤처타운 104호","indutype":"일반휴게음식 - 일반한식","category":"restaurant"},{"name":"한끼의 정석","tel":"031-456-9936","addr":"경기도 군포시 금정동 689-6번지 한림벤처타운 101호","indutype":"일반휴게음식 - 일반한식","category":"restaurant"},{"name":"한림푸드","tel":"031-427-3005","addr":"경기도 군포시 금정동 689-6번지 한림벤쳐타운 104호","indutype":"일반휴게음식 - 일반한식","category":"restaurant"}]},{"lat":"37.36360991","long":"126.94181225","imageIndex":4,"items":[{"name":"명동손칼국수","tel":"031-452-9990","addr":"경기도 군포시 금정동 725-42번지","indutype":"일반휴게음식 - 일반한식","category":"restaurant"},{"name":"영진각","tel":"031-427-6383","addr":"경기도 군포시 금정동 725-42번지 102호","indutype":"일반휴게음식 - 중국식","category":"restaurant"},{"name":"우성식당","tel":"031-477-3935","addr":"경기도 군포시 금정동 725-42번지 103호","indutype":"일반휴게음식 - 일반한식","category":"restaurant"},{"name":"황금돼지","tel":"031-399-8881","addr":"경기도 군포시 금정동 725-42번지 1층 4호","indutype":"일반휴게음식 - 일반한식","category":"restaurant"},{"name":"황금돼지집","tel":"031-399-8881","addr":"경기도 군포시 금정동 725-42번지 1층 4호","indutype":"일반휴게음식 - 일반한식","category":"restaurant"}]},{"lat":"37.367529775","long":"126.9427009","imageIndex":4,"items":[{"name":"명동송탄부대찌개","tel":"031-455-5588","addr":"경기도 군포시 금정동 699-6번지 101호","indutype":"일반휴게음식 - 일반한식","category":"restaurant"},{"name":"통나무치킨","tel":"031-392-9997","addr":"경기도 군포시 금정동 699-6번지 104호","indutype":"일반휴게음식 - 주점","category":"restaurant"},{"name":"푸드라이프","tel":"031-396-3775","addr":"경기도 군포시 금정동 699-6번지 1층","indutype":"일반휴게음식 - 일반한식","category":"restaurant"}]},{"lat":"37.361894986","long":"126.93625993","imageIndex":4,"items":[{"name":"명품손칼국수,족발","tel":"031-456-7017","addr":"경기도 군포시 금정동 718-13번지 1층","indutype":"일반휴게음식 - 일반한식","category":"restaurant"},{"name":"참맛죤진지","tel":"031-455-3569","addr":"경기도 군포시 금정동 718-13번지 1층","indutype":"일반휴게음식 - 일반한식","category":"restaurant"},{"name":"청하해물탕","tel":"031-58-1983","addr":"경기도 군포시 금정동 718-13번지","indutype":"일반휴게음식 - 일반한식","category":"restaurant"}]},{"lat":"37.360004327","long":"126.93892551","imageIndex":4,"items":[{"name":"모두랑(군포점)","tel":"031-398-5552","addr":"경기도 군포시 금정동 850번지 화성무궁화아파트 102호","indutype":"일반휴게음식 - 스넥","category":"restaurant"}]},{"lat":"37.368836847","long":"126.9438965","imageIndex":4,"items":[{"name":"몰도바","tel":"031-427-9148","addr":"경기도 군포시 금정동 44-16번지 1층","indutype":"일반휴게음식 - 주점","category":"restaurant"},{"name":"스캔들","tel":"031-457-0371","addr":"경기도 군포시 금정동 44-16번지","indutype":"일반휴게음식 - 주점","category":"restaurant"}]},{"lat":"37.361890745","long":"126.9453468","imageIndex":4,"items":[{"name":"무진장갈비","tel":"031-459-5639","addr":"경기도 군포시 금정동 763-1번지","indutype":"일반휴게음식 - 일반한식","category":"restaurant"}]},{"lat":"37.361556193","long":"126.94297658","imageIndex":4,"items":[{"name":"문스갈비","tel":"031-455-8588","addr":"경기도 군포시 금정동 758-29번지 1층","indutype":"일반휴게음식 - 일반한식","category":"restaurant"}]},{"lat":"37.360168391","long":"126.9425036","imageIndex":4,"items":[{"name":"뭔맛이안이맛이지","tel":"031-394-0188","addr":"경기도 군포시 금정동 855-5번지 101호","indutype":"일반휴게음식 - 일식·회집","category":"restaurant"}]},{"lat":"37.369251075","long":"126.94342203","imageIndex":4,"items":[{"name":"미소","tel":"031-455-5165","addr":"경기도 군포시 금정동 43-1번지 1층","indutype":"일반휴게음식 - 주점","category":"restaurant"},{"name":"자스민","tel":"031-429-5086","addr":"경기도 군포시 금정동 43-1번지 1층","indutype":"일반휴게음식 - 주점","category":"restaurant"},{"name":"장보고양꼬치","tel":"031-429-2296","addr":"경기도 군포시 금정동 43-1번지 1층","indutype":"일반휴게음식 - 일반한식","category":"restaurant"}]},{"lat":"37.370333063","long":"126.9449791","imageIndex":4,"items":[{"name":"미소셀프식당","tel":"031-427-3333","addr":"경기도 군포시 금정동 689-28번지 한림테크노빌딩 1층","indutype":"일반휴게음식 - 일반한식","category":"restaurant"}]},{"lat":"37.367305096","long":"126.94384125","imageIndex":4,"items":[{"name":"미소호프포차","tel":"031-427-5490","addr":"경기도 군포시 금정동 79-7번지 1층","indutype":"일반휴게음식 - 주점","category":"restaurant"},{"name":"북새통","tel":"031-427-5084","addr":"경기도 군포시 금정동 79-7번지 1층 103호","indutype":"일반휴게음식 - 주점","category":"restaurant"}]},{"lat":"37.36147693","long":"126.94670168","imageIndex":4,"items":[{"name":"미정이네","tel":"031-477-0507","addr":"경기도 군포시 금정동 766-23번지 1층","indutype":"일반휴게음식 - 일반한식","category":"restaurant"},{"name":"태봉찜닭","tel":"031-477-0507","addr":"경기도 군포시 금정동 766-23번지 1층","indutype":"일반휴게음식 - 일반한식","category":"restaurant"}]},{"lat":"37.361782662","long":"126.9454259","imageIndex":4,"items":[{"name":"민가네밥상","tel":"031-455-1034","addr":"경기도 군포시 금정동 763-3번지 1층","indutype":"일반휴게음식 - 일반한식","category":"restaurant"},{"name":"세시봉","tel":"031-456-7038","addr":"경기도 군포시 금정동 763-3번지 1층","indutype":"일반휴게음식 - 주점","category":"restaurant"}]},{"lat":"37.362223544","long":"126.94417259","imageIndex":4,"items":[{"name":"밀방떡(군포점)","tel":"","addr":"경기도 군포시 금정동 761-10번지 1층","indutype":"일반휴게음식 - 일반한식","category":"restaurant"}]},{"lat":"37.361367826","long":"126.94466993","imageIndex":4,"items":[{"name":"바다보니바다","tel":"031-427-7665","addr":"경기도 군포시 금정동 763-18번지 2층","indutype":"일반휴게음식 - 일식·회집","category":"restaurant"}]},{"lat":"37.358001443","long":"126.93423163","imageIndex":4,"items":[{"name":"밥시술시","tel":"031-396-8253","addr":"경기도 군포시 금정동 873-1번지 현대프라자 204호","indutype":"일반휴게음식 - 일반한식","category":"restaurant"},{"name":"삐약콩","tel":"","addr":"경기도 군포시 금정동 873-1번지 현대프라자 103호","indutype":"일반휴게음식 - 서양음식","category":"restaurant"},{"name":"호프광장","tel":"031-397-3155","addr":"경기도 군포시 금정동 873-1현대프라자B04~B06","indutype":"일반휴게음식 - 주점","category":"restaurant"}]},{"lat":"37.365448532","long":"126.94289447","imageIndex":4,"items":[{"name":"방가방가","tel":"031-429-7580","addr":"경기도 군포시 금정동 732번지 한양빌딩 1층","indutype":"일반휴게음식 - 일반한식","category":"restaurant"}]},{"lat":"37.365637636","long":"126.94267983","imageIndex":4,"items":[{"name":"방앗간김밥","tel":"031-429-1717","addr":"경기도 군포시 금정동 731-8번지 101호","indutype":"일반휴게음식 - 스넥","category":"restaurant"}]},{"lat":"37.361393844","long":"126.94264936","imageIndex":4,"items":[{"name":"배달의쌀국수&CAFE 군포점","tel":"031-429-8400","addr":"경기도 군포시 금정동 758-22번지 1층","indutype":"일반휴게음식 - 서양음식","category":"restaurant"}]},{"lat":"37.362890472","long":"126.94453329","imageIndex":4,"items":[{"name":"배떡x샨티카레","tel":"070-7724-0072","addr":"경기도 군포시 금정동 760-2번지 1층 일부호","indutype":"일반휴게음식 - 일반한식","category":"restaurant"}]},{"lat":"37.369251217","long":"126.94370426","imageIndex":4,"items":[{"name":"베테랑병두뺑두","tel":"031-458-2771","addr":"경기도 군포시 금정동 44-20번지 1층","indutype":"일반휴게음식 - 일반한식","category":"restaurant"},{"name":"아가씨와건달들포차","tel":"031-458-2771","addr":"경기도 군포시 금정동 44-20번지 1층 일부호","indutype":"일반휴게음식 - 일반한식","category":"restaurant"},{"name":"오륜순대국","tel":"031-427-4111","addr":"경기도 군포시 금정동 44-20번지 1층","indutype":"일반휴게음식 - 일반한식","category":"restaurant"}]},{"lat":"37.362025864","long":"126.94527897","imageIndex":4,"items":[{"name":"별","tel":"031-458-9554","addr":"경기도 군포시 금정동 763번지 B동 지층","indutype":"일반휴게음식 - 주점","category":"restaurant"},{"name":"여정","tel":"","addr":"경기도 군포시 금정동 763번지 B동 지하","indutype":"일반휴게음식 - 주점","category":"restaurant"},{"name":"여정","tel":"031-455-9666","addr":"경기도 군포시 금정동 763번지 B동 지층","indutype":"일반휴게음식 - 주점","category":"restaurant"},{"name":"우리식당","tel":"031-455-2929","addr":"경기도 군포시 금정동 763번지 B동 1층","indutype":"일반휴게음식 - 주점","category":"restaurant"}]},{"lat":"37.367503156","long":"126.94351372","imageIndex":4,"items":[{"name":"별천지","tel":"","addr":"경기도 군포시 금정동 52-8번지 1층 101호","indutype":"일반휴게음식 - 주점","category":"restaurant"}]},{"lat":"37.360006409","long":"126.9428988","imageIndex":4,"items":[{"name":"병천아우내순대국","tel":"031-391-4002","addr":"경기도 군포시 금정동 856-4번지 1층","indutype":"일반휴게음식 - 일반한식","category":"restaurant"}]},{"lat":"37.367971682","long":"126.94351335","imageIndex":4,"items":[{"name":"복아구찜해물탕원조집","tel":"031-458-5556","addr":"경기도 군포시 금정동 45-11번지 1층","indutype":"일반휴게음식 - 일반한식","category":"restaurant"}]},{"lat":"37.361030323","long":"126.9368138","imageIndex":4,"items":[{"name":"복어촌","tel":"031-427-1033","addr":"경기도 군포시 금정동 719-11번지 1층","indutype":"일반휴게음식 - 일반한식","category":"restaurant"}]},{"lat":"37.357839038","long":"126.933848","imageIndex":4,"items":[{"name":"본도시락산본점","tel":"031-399-2429","addr":"경기도 군포시 금정동 874-2번지 신산빌딩 104호","indutype":"일반휴게음식 - 일반한식","category":"restaurant"},{"name":"완산정","tel":"031-391-9933","addr":"경기도 군포시 금정동 874-2번지 신산빌딩 107호","indutype":"일반휴게음식 - 일반한식","category":"restaurant"},{"name":"찐한순대국","tel":"031-392-6111","addr":"경기도 군포시 금정동 874-2번지 신산빌딩 106호","indutype":"일반휴게음식 - 일반한식","category":"restaurant"},{"name":"커피에반하다 산본역점","tel":"031-397-3350","addr":"경기도 군포시 금정동 874-2번지 신산빌딩 105호","indutype":"일반휴게음식 - 서양음식","category":"restaurant"},{"name":"한레스토랑","tel":"031-395-8829","addr":"경기도 군포시 금정동 874-2번지 신산빌딩 2층 211호","indutype":"일반휴게음식 - 서양음식","category":"restaurant"}]},{"lat":"37.36127643","long":"126.94209634","imageIndex":4,"items":[{"name":"본스테이크","tel":"02-1111-1111","addr":"경기도 군포시 금정동 747-2번지 203호","indutype":"일반휴게음식 - 서양음식","category":"restaurant"},{"name":"청년갈매기","tel":"031-465-8055","addr":"경기도 군포시 금정동 747-2번지 1층","indutype":"일반휴게음식 - 일반한식","category":"restaurant"}]},{"lat":"37.36894494","long":"126.94383997","imageIndex":4,"items":[{"name":"부킹","tel":"031-429-8503","addr":"경기도 군포시 금정동 44-17번지 1층","indutype":"일반휴게음식 - 주점","category":"restaurant"},{"name":"연인","tel":"031-455-7098","addr":"경기도 군포시 금정동 44-17번지 1층","indutype":"일반휴게음식 - 주점","category":"restaurant"},{"name":"채리","tel":"031-429-1183","addr":"경기도 군포시 금정동 44-17번지","indutype":"일반휴게음식 - 주점","category":"restaurant"}]},{"lat":"37.364726721","long":"126.94095342","imageIndex":4,"items":[{"name":"부페사랑","tel":"031-457-5727","addr":"경기도 군포시 금정동 726-30번지 1층","indutype":"일반휴게음식 - 일반한식","category":"restaurant"}]},{"lat":"37.368890755","long":"126.94359165","imageIndex":4,"items":[{"name":"불새","tel":"031-427-5743","addr":"경기도 군포시 금정동 43-4번지 1층","indutype":"일반휴게음식 - 주점","category":"restaurant"},{"name":"핑계있는날","tel":"031-429-0725","addr":"경기도 군포시 금정동 43-4번지","indutype":"일반휴게음식 - 주점","category":"restaurant"}]},{"lat":"37.364448839","long":"126.94375318","imageIndex":4,"items":[{"name":"블로섬커피(Blossom cafe)","tel":"031-452-7777","addr":"경기도 군포시 금정동 909-2번지 1층 3호","indutype":"일반휴게음식 - 서양음식","category":"restaurant"}]},{"lat":"37.370611422","long":"126.9430597","imageIndex":4,"items":[{"name":"블루진","tel":"031-392-1735","addr":"경기도 군포시 금정동 40-22번지 지하1층","indutype":"일반휴게음식 - 서양음식","category":"restaurant"},{"name":"호프사랑","tel":"031-393-8498","addr":"경기도 군포시 금정동 40-22번지 2층","indutype":"일반휴게음식 - 주점","category":"restaurant"},{"name":"화룡양꼬치","tel":"031-1544-0135","addr":"경기도 군포시 금정동 40-22번지 1층","indutype":"일반휴게음식 - 중국식","category":"restaurant"}]},{"lat":"37.369836597","long":"126.94315062","imageIndex":4,"items":[{"name":"비룡양꼬치","tel":"031-391-8660","addr":"경기도 군포시 금정동 41-4번지 1층","indutype":"일반휴게음식 - 일반한식","category":"restaurant"},{"name":"포차의신","tel":"031-395-0718","addr":"경기도 군포시 금정동 41-4번지 1층","indutype":"일반휴게음식 - 주점","category":"restaurant"}]},{"lat":"37.362032802","long":"126.94117011","imageIndex":4,"items":[{"name":"비어(Beer)픽쳐'S","tel":"031-453-9840","addr":"경기도 군포시 금정동 744-5번지 1층","indutype":"일반휴게음식 - 주점","category":"restaurant"},{"name":"비어(Beer)픽쳐's","tel":"031-453-9840","addr":"경기도 군포시 금정동 744-5번지","indutype":"일반휴게음식 - 주점","category":"restaurant"}]},{"lat":"37.360778315","long":"126.93731069","imageIndex":4,"items":[{"name":"비에이치씨(BHC)군포금정점","tel":"031-429-2002","addr":"경기도 군포시 금정동 719-6번지 성진히나스 102호","indutype":"일반휴게음식 - 스넥","category":"restaurant"}]},{"lat":"37.362033334","long":"126.94219733","imageIndex":4,"items":[{"name":"뿅매운족발","tel":"031-000-0000","addr":"경기도 군포시 금정동 758-2번지 1층","indutype":"일반휴게음식 - 일반한식","category":"restaurant"},{"name":"센스호프","tel":"031-427-6320","addr":"경기도 군포시 금정동 758-2번지 1층","indutype":"일반휴게음식 - 주점","category":"restaurant"},{"name":"센스호프","tel":"031-453-9965","addr":"경기도 군포시 금정동 758-2번지 1층","indutype":"일반휴게음식 - 주점","category":"restaurant"},{"name":"화닥얼큰이","tel":"031-427-8982","addr":"경기도 군포시 금정동 758-2번지 1층","indutype":"일반휴게음식 - 스넥","category":"restaurant"}]},{"lat":"37.367784382","long":"126.94745333","imageIndex":4,"items":[{"name":"뿌리푸드","tel":"031-458-1845","addr":"경기도 군포시 금정동 694-1번지 1층","indutype":"일반휴게음식 - 일반한식","category":"restaurant"},{"name":"프리스타일 2층집","tel":"031-458-1845","addr":"경기도 군포시 금정동 694-1번지 2층","indutype":"일반휴게음식 - 일반한식","category":"restaurant"}]},{"lat":"37.368199184","long":"126.94817552","imageIndex":4,"items":[{"name":"사계절뷔페","tel":"031-427-2460","addr":"경기도 군포시 금정동 693-2번지 1층","indutype":"일반휴게음식 - 일반한식","category":"restaurant"},{"name":"한림이푸드","tel":"031-427-2460","addr":"경기도 군포시 금정동 693-2번지 1층","indutype":"일반휴게음식 - 일반한식","category":"restaurant"}]},{"lat":"37.36480727","long":"126.93992611","imageIndex":4,"items":[{"name":"사랑분식","tel":"031-427-3477","addr":"경기도 군포시 금정동 706-14 1층","indutype":"일반휴게음식 - 스넥","category":"restaurant"}]},{"lat":"37.36852979","long":"126.94248561","imageIndex":4,"items":[{"name":"산본가든","tel":"031-57-2939","addr":"경기도 군포시 금정동 697-6번지 금오빌아파트","indutype":"일반휴게음식 - 일반한식","category":"restaurant"}]},{"lat":"37.360949589","long":"126.93745728","imageIndex":4,"items":[{"name":"산해들&베리카페 (BerryCafe)","tel":"031-000-0000","addr":"경기도 군포시 금정동 719-2번지 소명빌딩 5층","indutype":"일반휴게음식 - 서양음식","category":"restaurant"}]},{"lat":"37.362060155","long":"126.94179093","imageIndex":4,"items":[{"name":"삼거리식당","tel":"031-427-3636","addr":"경기도 군포시 금정동 743-26번지 1층","indutype":"일반휴게음식 - 일반한식","category":"restaurant"},{"name":"신환홍어","tel":"031-437-2639","addr":"경기도 군포시 금정동 743-26번지 102호","indutype":"일반휴게음식 - 일반한식","category":"restaurant"},{"name":"용커피&호프","tel":"031-402-8579","addr":"경기도 군포시 금정동 743-26번지 지층","indutype":"일반휴게음식 - 주점","category":"restaurant"}]},{"lat":"37.36336642","long":"126.94139479","imageIndex":4,"items":[{"name":"삼오정","tel":"031-457-3470","addr":"경기도 군포시 금정동 725-39번지","indutype":"일반휴게음식 - 일반한식","category":"restaurant"}]},{"lat":"37.369449241","long":"126.94330898","imageIndex":4,"items":[{"name":"삼통치킨","tel":"031-398-9285","addr":"경기도 군포시 금정동 41-8번지 1층","indutype":"일반휴게음식 - 주점","category":"restaurant"},{"name":"삼통치킨","tel":"031-398-9285","addr":"경기도 군포시 금정동 41-8번지 1층","indutype":"일반휴게음식 - 일반한식","category":"restaurant"},{"name":"우리양꼬치","tel":"031-399-6577","addr":"경기도 군포시 금정동 41-8번지 1층","indutype":"일반휴게음식 - 중국식","category":"restaurant"}]},{"lat":"37.355756423","long":"126.93170535","imageIndex":4,"items":[{"name":"생고기마을","tel":"031-392-4090","addr":"경기도 군포시 금정동 875-2번지 퇴계 상가 101호","indutype":"일반휴게음식 - 일반한식","category":"restaurant"},{"name":"페리카나 산본3호점","tel":"031-397-1980","addr":"경기도 군포시 금정동 875-2번지 퇴계종합상가 103호","indutype":"일반휴게음식 - 주점","category":"restaurant"},{"name":"페리카나치킨","tel":"031-391-6124","addr":"경기도 군포시 금정동 875-2번지 퇴계종합상가 105호","indutype":"일반휴게음식 - 주점","category":"restaurant"}]},{"lat":"37.361889853","long":"126.94354072","imageIndex":4,"items":[{"name":"생방송","tel":"031-429-3122","addr":"경기도 군포시 금정동 759-18번지","indutype":"일반휴게음식 - 주점","category":"restaurant"}]},{"lat":"37.363277981","long":"126.94467974","imageIndex":4,"items":[{"name":"샤방샤방","tel":"031-429-5772","addr":"경기도 군포시 금정동 770번지 1층","indutype":"일반휴게음식 - 주점","category":"restaurant"}]},{"lat":"37.369665586","long":"126.94351202","imageIndex":4,"items":[{"name":"서래통금정역점","tel":"031-395-3387","addr":"경기도 군포시 금정동 40-13번지 1층","indutype":"일반휴게음식 - 일반한식","category":"restaurant"}]},{"lat":"37.361502081","long":"126.94287503","imageIndex":4,"items":[{"name":"세븐호프","tel":"031-458-5893","addr":"경기도 군포시 금정동 758-20번지 1층","indutype":"일반휴게음식 - 주점","category":"restaurant"},{"name":"이모네치킨앤포차","tel":"031-429-9284","addr":"경기도 군포시 금정동 758-20번지 1층","indutype":"일반휴게음식 - 일반한식","category":"restaurant"}]},{"lat":"37.361331573","long":"126.94424101","imageIndex":4,"items":[{"name":"세종푸드원","tel":"031-429-1300","addr":"경기도 군포시 금정동 756-6번지 금호아파트","indutype":"일반휴게음식 - 일반한식","category":"restaurant"},{"name":"오성치킨","tel":"031-429-5343","addr":"경기도 군포시 금정동 756-6번지 금호아파트","indutype":"일반휴게음식 - 주점","category":"restaurant"}]},{"lat":"37.363780366","long":"126.94040107","imageIndex":4,"items":[{"name":"소문난아구찜","tel":"031-429-5203","addr":"경기도 군포시 금정동 710-6번지 삼성빌딩 102호","indutype":"일반휴게음식 - 일반한식","category":"restaurant"},{"name":"청진동해장국","tel":"031-429-9426","addr":"경기도 군포시 금정동 710-6번지","indutype":"일반휴게음식 - 일반한식","category":"restaurant"}]},{"lat":"37.362943031","long":"126.94156445","imageIndex":4,"items":[{"name":"손큰원조할매순대국","tel":"031-429-9292","addr":"경기도 군포시 금정동 723-12번지 1층","indutype":"일반휴게음식 - 일반한식","category":"restaurant"}]},{"lat":"37.369143124","long":"126.94376079","imageIndex":4,"items":[{"name":"수목","tel":"031-429-7599","addr":"경기도 군포시 금정동 44-19번지 1층","indutype":"일반휴게음식 - 주점","category":"restaurant"},{"name":"아지트","tel":"031-459-5093","addr":"경기도 군포시 금정동 44-19번지 1층","indutype":"일반휴게음식 - 주점","category":"restaurant"},{"name":"쭈니네포차","tel":"031-468-4941","addr":"경기도 군포시 금정동 44-19번지 1층","indutype":"일반휴게음식 - 주점","category":"restaurant"},{"name":"키스","tel":"031-453-0206","addr":"경기도 군포시 금정동 44-19번지","indutype":"일반휴게음식 - 주점","category":"restaurant"}]},{"lat":"37.361590325","long":"126.93931924","imageIndex":4,"items":[{"name":"수제버거먹빵","tel":"031-393-8383","addr":"경기도 군포시 금정동 720-16번지 태광오피스텔 1층 101호","indutype":"일반휴게음식 - 서양음식","category":"restaurant"}]},{"lat":"37.359557435","long":"126.94600327","imageIndex":4,"items":[{"name":"순수푸드","tel":"","addr":"경기도 군포시 금정동 752-10번지 1층 102호","indutype":"일반휴게음식 - 일반한식","category":"restaurant"},{"name":"순흥골","tel":"031-429-0092","addr":"경기도 군포시 금정동 752-10번지 지층","indutype":"일반휴게음식 - 일반한식","category":"restaurant"},{"name":"피자브라더스 군포점","tel":"031-427-9199","addr":"경기도 군포시 금정동 752-10번지 103호","indutype":"일반휴게음식 - 서양음식","category":"restaurant"}]},{"lat":"37.367811722","long":"126.94811936","imageIndex":4,"items":[{"name":"순천한식부페","tel":"031-458-5654","addr":"경기도 군포시 금정동 693-11번지 1층","indutype":"일반휴게음식 - 일반한식","category":"restaurant"}]},{"lat":"37.363115575","long":"126.94422833","imageIndex":4,"items":[{"name":"술퍼맨안주걸호프","tel":"031-455-1825","addr":"경기도 군포시 금정동 760번지","indutype":"일반휴게음식 - 주점","category":"restaurant"},{"name":"챤스","tel":"031-628-0037","addr":"경기도 군포시 금정동 760번지","indutype":"일반휴게음식 - 주점","category":"restaurant"},{"name":"챤스호프","tel":"031-429-2675","addr":"경기도 군포시 금정동 760번지 1층","indutype":"일반휴게음식 - 주점","category":"restaurant"}]},{"lat":"37.365889117","long":"126.9411218","imageIndex":4,"items":[{"name":"스쿨푸드 군포딜리버리점","tel":"031-451-4511","addr":"경기도 군포시 금정동 729번지 1층","indutype":"일반휴게음식 - 일반한식","category":"restaurant"}]},{"lat":"37.360673302","long":"126.94318046","imageIndex":4,"items":[{"name":"시골밥상보리밥","tel":"","addr":"경기도 군포시 금정동 747-44번지 1층","indutype":"일반휴게음식 - 일반한식","category":"restaurant"}]},{"lat":"37.362223739","long":"126.94456767","imageIndex":4,"items":[{"name":"시골집","tel":"031-453-6086","addr":"경기도 군포시 금정동 762-8번지 102호","indutype":"일반휴게음식 - 일반한식","category":"restaurant"}]},{"lat":"37.366809033","long":"126.94283694","imageIndex":4,"items":[{"name":"시나브로","tel":"031-458-6774","addr":"경기도 군포시 금정동 730-4번지","indutype":"일반휴게음식 - 주점","category":"restaurant"},{"name":"안흥식당","tel":"031-427-1424","addr":"경기도 군포시 금정동 730-4번지 102호","indutype":"일반휴게음식 - 일반한식","category":"restaurant"}]},{"lat":"37.368782662","long":"126.94364818","imageIndex":4,"items":[{"name":"시크릿호프","tel":"031-453-7006","addr":"경기도 군포시 금정동 43-5번지 1층","indutype":"일반휴게음식 - 주점","category":"restaurant"},{"name":"앵두","tel":"031-429-4164","addr":"경기도 군포시 금정동 43-5번지 1층","indutype":"일반휴게음식 - 일반한식","category":"restaurant"}]},{"lat":"37.36955734","long":"126.94326374","imageIndex":4,"items":[{"name":"신이어도","tel":"031-391-3073","addr":"경기도 군포시 금정동 41-7번지 1층","indutype":"일반휴게음식 - 일반한식","category":"restaurant"}]},{"lat":"37.361416672","long":"126.9348945","imageIndex":4,"items":[{"name":"아미스카페","tel":"031-391-3127","addr":"경기도 군포시 금정동 844번지 군포시청 1층 민원실내","indutype":"일반휴게음식 - 서양음식","category":"restaurant"}]},{"lat":"37.36606045","long":"126.94139259","imageIndex":4,"items":[{"name":"아재불닭발 산본점","tel":"031-427-9252","addr":"경기도 군포시 금정동 729-11번지 1층 일부호","indutype":"일반휴게음식 - 일반한식","category":"restaurant"}]},{"lat":"37.36211454","long":"126.94242302","imageIndex":4,"items":[{"name":"아지매푸드","tel":"031-458-8484","addr":"경기도 군포시 금정동 758-4번지 1층 101호","indutype":"일반휴게음식 - 일반한식","category":"restaurant"}]},{"lat":"37.362584033","long":"126.94434163","imageIndex":4,"items":[{"name":"안동찜닭(매빠)","tel":"031-451-8004","addr":"경기도 군포시 금정동 761-22번지 1층","indutype":"일반휴게음식 - 일반한식","category":"restaurant"}]},{"lat":"37.356038138","long":"126.93581362","imageIndex":4,"items":[{"name":"알로하피자","tel":"0000-0000-0000","addr":"경기도 군포시 금정동 872번지 주공2단지","indutype":"일반휴게음식 - 서양음식","category":"restaurant"}]},{"lat":"37.364582339","long":"126.94053587","imageIndex":4,"items":[{"name":"애사랑","tel":"031-429-9195","addr":"경기도 군포시 금정동 726-25번지 1층","indutype":"일반휴게음식 - 주점","category":"restaurant"},{"name":"화이팅금정3점","tel":"031-427-7441","addr":"경기도 군포시 금정동 726-25번지 1층","indutype":"일반휴게음식 - 주점","category":"restaurant"}]},{"lat":"37.362339725","long":"126.94228738","imageIndex":4,"items":[{"name":"양가네코다리찜&뿔난쭈꾸미","tel":"031-427-6688","addr":"경기도 군포시 금정동 743-21번지 2층","indutype":"일반휴게음식 - 일반한식","category":"restaurant"}]},{"lat":"37.362555378","long":"126.94114711","imageIndex":4,"items":[{"name":"어사출또금정점","tel":"031-429-5114","addr":"경기도 군포시 금정동 722-10번지 1,2층","indutype":"일반휴게음식 - 일반한식","category":"restaurant"}]},{"lat":"37.370503329","long":"126.94311623","imageIndex":4,"items":[{"name":"어시장","tel":"031-396-4864","addr":"경기도 군포시 금정동 40-21번지 ,1,2층","indutype":"일반휴게음식 - 일식·회집","category":"restaurant"},{"name":"항아리보쌈","tel":"031-396-2021","addr":"경기도 군포시 금정동 40-21번지 1층","indutype":"일반휴게음식 - 일반한식","category":"restaurant"}]},{"lat":"37.369719727","long":"126.94367002","imageIndex":4,"items":[{"name":"어시장","tel":"070-8274-9511","addr":"경기도 군포시 금정동 40-10번지 1층","indutype":"일반휴게음식 - 일식·회집","category":"restaurant"}]},{"lat":"37.363142906","long":"126.94483788","imageIndex":4,"items":[{"name":"에스엠(SM)호프","tel":"031-419-0486","addr":"경기도 군포시 금정동 770-7번지 지층","indutype":"일반휴게음식 - 주점","category":"restaurant"}]},{"lat":"37.363141213","long":"126.94148527","imageIndex":4,"items":[{"name":"엘로이(LRoy) 애견카페","tel":"070-8289-9022","addr":"경기도 군포시 금정동 723번지 태광퍼스트빌 301호","indutype":"일반휴게음식 - 일반한식","category":"restaurant"}]},{"lat":"37.362889527","long":"126.94264816","imageIndex":4,"items":[{"name":"영동식당","tel":"031-456-3391","addr":"경기도 군포시 금정동 743-1번지","indutype":"일반휴게음식 - 일반한식","category":"restaurant"}]},{"lat":"37.367557267","long":"126.94361528","imageIndex":4,"items":[{"name":"영양장충동푸드에이스","tel":"031-429-5979","addr":"경기도 군포시 금정동 52-7번지 102호","indutype":"일반휴게음식 - 일반한식","category":"restaurant"},{"name":"태조순대","tel":"031-427-5853","addr":"경기도 군포시 금정동 52-7번지 1층","indutype":"일반휴게음식 - 일반한식","category":"restaurant"}]},{"lat":"37.361444915","long":"126.93703919","imageIndex":4,"items":[{"name":"영이국시집","tel":"031-344-9333","addr":"경기도 군포시 금정동 715-5번지 1층 102호","indutype":"일반휴게음식 - 일반한식","category":"restaurant"}]},{"lat":"37.36233176","long":"126.9443644","imageIndex":4,"items":[{"name":"영춘찜닭","tel":"031-346-7111","addr":"경기도 군포시 금정동 761-7번지 1층 우측","indutype":"일반휴게음식 - 일반한식","category":"restaurant"}]},{"lat":"37.363755368","long":"126.94437458","imageIndex":4,"items":[{"name":"예전각전복설렁탕","tel":"031-427-1288","addr":"경기도 군포시 금정동 741번지 1층","indutype":"일반휴게음식 - 일반한식","category":"restaurant"}]},{"lat":"37.362168647","long":"126.94251328","imageIndex":4,"items":[{"name":"옛날소머리국밥집","tel":"031-477-3754","addr":"경기도 군포시 금정동 758-5번지","indutype":"일반휴게음식 - 일반한식","category":"restaurant"}]},{"lat":"37.362059938","long":"126.94137327","imageIndex":4,"items":[{"name":"옛날통닭","tel":"031-429-4141","addr":"경기도 군포시 금정동 744-7번지 1층","indutype":"일반휴게음식 - 스넥","category":"restaurant"}]},{"lat":"37.365943236","long":"126.94123464","imageIndex":4,"items":[{"name":"오산조은참치 군포점","tel":"031-427-2337","addr":"경기도 군포시 금정동 729-9번지 1층 103호","indutype":"일반휴게음식 - 일식·회집","category":"restaurant"}]},{"lat":"37.36308828","long":"126.94369781","imageIndex":4,"items":[{"name":"왕십리소곱창","tel":"031-429-6228","addr":"경기도 군포시 금정동 742번지 4호","indutype":"일반휴게음식 - 일반한식","category":"restaurant"}]},{"lat":"37.361420673","long":"126.94225426","imageIndex":4,"items":[{"name":"우리생고기","tel":"031-427-2210","addr":"경기도 군포시 금정동 747-4번지 1층 일부호","indutype":"일반휴게음식 - 일반한식","category":"restaurant"},{"name":"이탈리안피자","tel":"031-458-2666","addr":"경기도 군포시 금정동 747-4번지 1층","indutype":"일반휴게음식 - 서양음식","category":"restaurant"}]},{"lat":"37.362727779","long":"126.94350619","imageIndex":4,"items":[{"name":"우정식당","tel":"031-452-4955","addr":"경기도 군포시 금정동 760-7번지","indutype":"일반휴게음식 - 일반한식","category":"restaurant"}]},{"lat":"37.3616103","long":"126.94306684","imageIndex":4,"items":[{"name":"웅자네오돌뼈","tel":"031-429-4333","addr":"경기도 군포시 금정동 758-30번지 1층","indutype":"일반휴게음식 - 일반한식","category":"restaurant"}]},{"lat":"37.362781675","long":"126.94317879","imageIndex":4,"items":[{"name":"월계수","tel":"070-8614-6676","addr":"경기도 군포시 금정동 743-13번지 1층","indutype":"일반휴게음식 - 주점","category":"restaurant"},{"name":"피자와치킨의러브레터(군포점)","tel":"031-427-9900","addr":"경기도 군포시 금정동 743-13번지","indutype":"일반휴게음식 - 서양음식","category":"restaurant"}]},{"lat":"37.365366758","long":"126.94156248","imageIndex":4,"items":[{"name":"유로코피자군포점","tel":"031-429-1828","addr":"경기도 군포시 금정동 728-12번지 1층 일부호","indutype":"일반휴게음식 - 서양음식","category":"restaurant"}]},{"lat":"37.364915331","long":"126.93981313","imageIndex":4,"items":[{"name":"유비아","tel":"070-7626-3426","addr":"경기도 군포시 금정동 706-11번지 1층","indutype":"일반휴게음식 - 서양음식","category":"restaurant"}]},{"lat":"37.363086858","long":"126.94092091","imageIndex":4,"items":[{"name":"유진커피호프","tel":"031-459-5859","addr":"경기도 군포시 금정동 722-4번지 지층","indutype":"일반휴게음식 - 주점","category":"restaurant"}]},{"lat":"37.369422466","long":"126.94381701","imageIndex":4,"items":[{"name":"이정래식당","tel":"031-427-7762","addr":"경기도 군포시 금정동 44-1번지 1층","indutype":"일반휴게음식 - 일반한식","category":"restaurant"}]},{"lat":"37.367088673","long":"126.94348018","imageIndex":4,"items":[{"name":"인정맛집","tel":"031-429-9234","addr":"경기도 군포시 금정동 79-4번지 1층","indutype":"일반휴게음식 - 일반한식","category":"restaurant"}]},{"lat":"37.361332439","long":"126.94601322","imageIndex":4,"items":[{"name":"인정순대국","tel":"031-427-8422","addr":"경기도 군포시 금정동 766-27번지 1층","indutype":"일반휴게음식 - 일반한식","category":"restaurant"}]},{"lat":"37.362420885","long":"126.94242278","imageIndex":4,"items":[{"name":"일송정포차","tel":"031-427-0480","addr":"경기도 군포시 금정동 743-20번지","indutype":"일반휴게음식 - 일반한식","category":"restaurant"},{"name":"청기와감자탕","tel":"031-454-8492","addr":"경기도 군포시 금정동 743-20번지","indutype":"일반휴게음식 - 일반한식","category":"restaurant"}]},{"lat":"37.370025655","long":"126.94284566","imageIndex":4,"items":[{"name":"장어가","tel":"031-393-0288","addr":"경기도 군포시 금정동 41-15번지","indutype":"일반휴게음식 - 일반한식","category":"restaurant"},{"name":"히쇼","tel":"031-000-0000","addr":"경기도 군포시 금정동 41-15번지 1층","indutype":"일반휴게음식 - 주점","category":"restaurant"}]},{"lat":"37.369638414","long":"126.94322981","imageIndex":4,"items":[{"name":"장어부산회집","tel":"","addr":"경기도 군포시 금정동 41-6번지","indutype":"일반휴게음식 - 일반한식","category":"restaurant"},{"name":"장어부산회집","tel":"031-398-0636","addr":"경기도 군포시 금정동 41-6번지 1층","indutype":"일반휴게음식 - 일반한식","category":"restaurant"}]},{"lat":"37.364915655","long":"126.94042271","imageIndex":4,"items":[{"name":"장충동왕족발보쌈","tel":"031-395-3300","addr":"경기도 군포시 금정동 726-13번지 외2필지","indutype":"일반휴게음식 - 일반한식","category":"restaurant"}]},{"lat":"37.36261807","long":"126.94042461","imageIndex":4,"items":[{"name":"장충할매왕족발","tel":"031-429-4565","addr":"경기도 군포시 금정동 712-4번지 101호","indutype":"일반휴게음식 - 일반한식","category":"restaurant"}]},{"lat":"37.367170001","long":"126.94395425","imageIndex":4,"items":[{"name":"전주식당","tel":"031-457-3077","addr":"경기도 군포시 금정동 79-8번지","indutype":"일반휴게음식 - 일반한식","category":"restaurant"}]},{"lat":"37.367728409","long":"126.94351354","imageIndex":4,"items":[{"name":"정","tel":"031-454-9484","addr":"경기도 군포시 금정동 52-6번지 1층","indutype":"일반휴게음식 - 일반한식","category":"restaurant"},{"name":"행복한 밥상","tel":"031-477-5020","addr":"경기도 군포시 금정동 52-6번지 1층","indutype":"일반휴게음식 - 일반한식","category":"restaurant"}]},{"lat":"37.368171754","long":"126.94731758","imageIndex":4,"items":[{"name":"정가네","tel":"031-453-2004","addr":"경기도 군포시 금정동 691-3번지 창신빌딩 1층","indutype":"일반휴게음식 - 일반한식","category":"restaurant"}]},{"lat":"37.359194737","long":"126.94142076","imageIndex":4,"items":[{"name":"정가네닭강정","tel":"031-395-6350","addr":"경기도 군포시 금정동 865번지 101호","indutype":"일반휴게음식 - 일반한식","category":"restaurant"}]},{"lat":"37.364555058","long":"126.94006178","imageIndex":4,"items":[{"name":"정겨운밥상","tel":"031-451-7268","addr":"경기도 군포시 금정동 706-16번지 1층","indutype":"일반휴게음식 - 일반한식","category":"restaurant"}]},{"lat":"37.367223517","long":"126.94287048","imageIndex":4,"items":[{"name":"정글숲속","tel":"031-395-4442","addr":"경기도 군포시 금정동 700-1번지 1층 105호","indutype":"일반휴게음식 - 일반한식","category":"restaurant"}]},{"lat":"37.365694263","long":"126.94795157","imageIndex":4,"items":[{"name":"정든셀프식당","tel":"031-456-6999","addr":"경기도 군포시 금정동 191-4번지 1층","indutype":"일반휴게음식 - 위탁급식업","category":"restaurant"}]},{"lat":"37.361336573","long":"126.93664421","imageIndex":4,"items":[{"name":"정연성의탕&찜","tel":"031-457-0570","addr":"경기도 군포시 금정동 718-6번지 1층","indutype":"일반휴게음식 - 일반한식","category":"restaurant"}]},{"lat":"37.360645888","long":"126.9424242","imageIndex":4,"items":[{"name":"제이에스씨 군포산본점","tel":"031-427-1112","addr":"경기도 군포시 금정동 747-19번지 1층 101호","indutype":"일반휴게음식 - 일반한식","category":"restaurant"},{"name":"존가네","tel":"031-445-4777","addr":"경기도 군포시 금정동 747-19번지 1층 102호","indutype":"일반휴게음식 - 일반한식","category":"restaurant"}]},{"lat":"37.361394056","long":"126.94306701","imageIndex":4,"items":[{"name":"주막골빈대떡","tel":"031-451-1255","addr":"경기도 군포시 금정동 757-17번지 1층","indutype":"일반휴게음식 - 일반한식","category":"restaurant"},{"name":"촌가네식당","tel":"031-451-1255","addr":"경기도 군포시 금정동 757-17번지 1층","indutype":"일반휴게음식 - 일반한식","category":"restaurant"}]},{"lat":"37.370719515","long":"126.94300316","imageIndex":4,"items":[{"name":"주상전하","tel":"","addr":"경기도 군포시 금정동 40-23번지 2층","indutype":"일반휴게음식 - 주점","category":"restaurant"},{"name":"토담","tel":"031-395-7334","addr":"경기도 군포시 금정동 40-23번지 1층","indutype":"일반휴게음식 - 일반한식","category":"restaurant"}]},{"lat":"37.362699452","long":"126.94097767","imageIndex":4,"items":[{"name":"주식회사 텐웬","tel":"031-458-8838","addr":"경기도 군포시 금정동 722-7번지 아산나부빌 104호","indutype":"일반휴게음식 - 중국식","category":"restaurant"},{"name":"천안원조닭내장전문","tel":"031-457-1903","addr":"경기도 군포시 금정동 722-7번지 아산나부빌 105호","indutype":"일반휴게음식 - 일반한식","category":"restaurant"},{"name":"커피베이군포금정점","tel":"031-453-0999","addr":"경기도 군포시 금정동 722-7번지 아산나부빌 103호","indutype":"일반휴게음식 - 서양음식","category":"restaurant"},{"name":"훌랄라참숯불바베큐(금정2점)","tel":"031-427-1650","addr":"경기도 군포시 금정동 722-7번지 아산나부빌 102호","indutype":"일반휴게음식 - 주점","category":"restaurant"}]},{"lat":"37.361368544","long":"126.94614865","imageIndex":4,"items":[{"name":"지(Ji)카페","tel":"070-7543-3108","addr":"경기도 군포시 금정동 766-26번지 105호","indutype":"일반휴게음식 - 서양음식","category":"restaurant"},{"name":"홍천식당","tel":"031-477-2484","addr":"경기도 군포시 금정동 766-26번지 103호","indutype":"일반휴게음식 - 일반한식","category":"restaurant"}]},{"lat":"37.370197167","long":"126.94347773","imageIndex":4,"items":[{"name":"지729에이(G729A)","tel":"031-396-9992","addr":"경기도 군포시 금정동 40-6번지 1층","indutype":"일반휴게음식 - 서양음식","category":"restaurant"}]},{"lat":"37.360971962","long":"126.94586675","imageIndex":4,"items":[{"name":"진미삼계탕","tel":"031-395-8251","addr":"경기도 군포시 금정동 764-13번지 1층","indutype":"일반휴게음식 - 일반한식","category":"restaurant"}]},{"lat":"37.360034973","long":"126.94600291","imageIndex":4,"items":[{"name":"진커피앤호프","tel":"031-429-1959","addr":"경기도 군포시 금정동 752-14번지 지층","indutype":"일반휴게음식 - 주점","category":"restaurant"}]},{"lat":"37.367532523","long":"126.94836792","imageIndex":4,"items":[{"name":"진텍","tel":"031-000-0000","addr":"경기도 군포시 금정동 693-24번지 401호","indutype":"일반휴게음식 - 서양음식","category":"restaurant"}]},{"lat":"37.364338875","long":"126.94017484","imageIndex":4,"items":[{"name":"짱구","tel":"031-429-6730","addr":"경기도 군포시 금정동 706-18번지","indutype":"일반휴게음식 - 주점","category":"restaurant"},{"name":"평화즉석김밥&떡볶이","tel":"031-4771-2666","addr":"경기도 군포시 금정동 706-18번지 1층","indutype":"일반휴게음식 - 일반한식","category":"restaurant"}]},{"lat":"37.361422713","long":"126.94637437","imageIndex":4,"items":[{"name":"찌개촌","tel":"031-429-1551","addr":"경기도 군포시 금정동 766-25번지 1층 일부호","indutype":"일반휴게음식 - 일반한식","category":"restaurant"},{"name":"하노이반점","tel":"031-429-5842","addr":"경기도 군포시 금정동 766-25번지 103호","indutype":"일반휴게음식 - 서양음식","category":"restaurant"}]},{"lat":"37.3633317904","long":"126.9441717248","imageIndex":4,"items":[{"name":"찜마을","tel":"031-453-2882","addr":"경기도 군포시 금정동 742-1번지 1층","indutype":"일반휴게음식 - 일반한식","category":"restaurant"}]},{"lat":"37.368998848","long":"126.94353512","imageIndex":4,"items":[{"name":"참새방앗간포차","tel":"031-451-6599","addr":"경기도 군포시 금정동 43-3번지 1층 일부호","indutype":"일반휴게음식 - 주점","category":"restaurant"},{"name":"해바라기","tel":"031-458-0702","addr":"경기도 군포시 금정동 43-3번지","indutype":"일반휴게음식 - 주점","category":"restaurant"}]},{"lat":"37.361222594","long":"126.94253662","imageIndex":4,"items":[{"name":"청춘포차","tel":"031-485-2231","addr":"경기도 군포시 금정동 747-10번지 1층","indutype":"일반휴게음식 - 주점","category":"restaurant"},{"name":"추억의옛날포장마차","tel":"","addr":"경기도 군포시 금정동 747-10번지 1층","indutype":"일반휴게음식 - 주점","category":"restaurant"}]},{"lat":"37.361111351","long":"126.93670085","imageIndex":4,"items":[{"name":"최가네샤브샤브","tel":"031-477-1989","addr":"경기도 군포시 금정동 719-12번지 1층","indutype":"일반휴게음식 - 일반한식","category":"restaurant"}]},{"lat":"37.36386176","long":"126.94097671","imageIndex":4,"items":[{"name":"카페두드림금정점","tel":"031-429-3697","addr":"경기도 군포시 금정동 725-6번지 1층","indutype":"일반휴게음식 - 서양음식","category":"restaurant"}]},{"lat":"37.361085108","long":"126.93812315","imageIndex":4,"items":[{"name":"카페일리터&바 군포점","tel":"031-341-9992","addr":"경기도 군포시 금정동 719-3번지 101호","indutype":"일반휴게음식 - 서양음식","category":"restaurant"}]},{"lat":"37.365609524","long":"126.94059146","imageIndex":4,"items":[{"name":"커피 빈컵엔","tel":"031-454-9030","addr":"경기도 군포시 금정동 727번지 1층","indutype":"일반휴게음식 - 서양음식","category":"restaurant"}]},{"lat":"37.356561675","long":"126.93750624","imageIndex":4,"items":[{"name":"커피데이","tel":"031-393-5730","addr":"경기도 군포시 금정동 870-8번지","indutype":"일반휴게음식 - 서양음식","category":"restaurant"},{"name":"쿡Day","tel":"070-4207-0036","addr":"경기도 군포시 금정동 870-8번지 1층","indutype":"일반휴게음식 - 일반한식","category":"restaurant"}]},{"lat":"37.370422363","long":"126.94336466","imageIndex":4,"items":[{"name":"커피인더스트리 (4호점)","tel":"070-8816-9675","addr":"경기도 군포시 금정동 40-4번지 1층","indutype":"일반휴게음식 - 서양음식","category":"restaurant"}]},{"lat":"37.360033111","long":"126.94225537","imageIndex":4,"items":[{"name":"쿡찜한닭(산본점)","tel":"031-397-5488","addr":"경기도 군포시 금정동 855-3번지 1층","indutype":"일반휴게음식 - 일반한식","category":"restaurant"}]},{"lat":"37.360312668","long":"126.94272924","imageIndex":4,"items":[{"name":"탄토(tanto)","tel":"031-398-2082","addr":"경기도 군포시 금정동 855-7번지","indutype":"일반휴게음식 - 주점","category":"restaurant"},{"name":"통통수제빵카페","tel":"031-349-2600","addr":"경기도 군포시 금정동 855-7번지 1층 102호","indutype":"일반휴게음식 - 서양음식","category":"restaurant"}]},{"lat":"37.369971857","long":"126.94336501","imageIndex":4,"items":[{"name":"탐라촌","tel":"031-399-3377","addr":"경기도 군포시 금정동 40-16번지 1층","indutype":"일반휴게음식 - 일반한식","category":"restaurant"}]},{"lat":"37.369557493","long":"126.94356855","imageIndex":4,"items":[{"name":"태영생막창","tel":"031-8086-7162","addr":"경기도 군포시 금정동 40-12번지 1층","indutype":"일반휴게음식 - 일반한식","category":"restaurant"}]},{"lat":"37.369728487","long":"126.94317329","imageIndex":4,"items":[{"name":"털보네생고기","tel":"031-399-8577","addr":"경기도 군포시 금정동 41-5번지 1층","indutype":"일반휴게음식 - 일반한식","category":"restaurant"}]},{"lat":"37.361475216","long":"126.9432024","imageIndex":4,"items":[{"name":"테트리스찜닭","tel":"031-429-7843","addr":"경기도 군포시 금정동 757-21번지 1층","indutype":"일반휴게음식 - 일반한식","category":"restaurant"}]},{"lat":"37.359808323","long":"126.94316986","imageIndex":4,"items":[{"name":"통큰셰프 (대호FC코리아)","tel":"031-1588-3669","addr":"경기도 군포시 금정동 856-7번지 1층 101호","indutype":"일반휴게음식 - 일반한식","category":"restaurant"}]},{"lat":"37.363582622","long":"126.94131559","imageIndex":4,"items":[{"name":"파자나라치킨공주군포산본점","tel":"032-455-9281","addr":"경기도 군포시 금정동 725-34번지 1층 일부","indutype":"일반휴게음식 - 서양음식","category":"restaurant"}]},{"lat":"37.362195319","long":"126.9418134","imageIndex":4,"items":[{"name":"팔구푸드","tel":"031-429-2989","addr":"경기도 군포시 금정동 743-28번지 1층","indutype":"일반휴게음식 - 일반한식","category":"restaurant"}]},{"lat":"37.362087226","long":"126.94186993","imageIndex":4,"items":[{"name":"팜스치킨","tel":"031-455-0111","addr":"경기도 군포시 금정동 743-25번지 1층","indutype":"일반휴게음식 - 주점","category":"restaurant"}]},{"lat":"37.362889751","long":"126.9430884","imageIndex":4,"items":[{"name":"포에버","tel":"031-393-4576","addr":"경기도 군포시 금정동 743-12번지 1층","indutype":"일반휴게음식 - 주점","category":"restaurant"}]},{"lat":"37.36178181","long":"126.94369884","imageIndex":4,"items":[{"name":"포항어수산","tel":"031-456-1483","addr":"경기도 군포시 금정동 756-16번지","indutype":"일반휴게음식 - 일반한식","category":"restaurant"}]},{"lat":"37.36736765","long":"126.94281392","imageIndex":4,"items":[{"name":"푸드스토리","tel":"031-477-0074","addr":"경기도 군포시 금정동 700번지","indutype":"일반휴게음식 - 스넥","category":"restaurant"}]},{"lat":"37.370025753","long":"126.94303758","imageIndex":4,"items":[{"name":"풍경１．４","tel":"031-394-4779","addr":"경기도 군포시 금정동 41-2번지","indutype":"일반휴게음식 - 일반한식","category":"restaurant"},{"name":"핫두루찌개","tel":"031-393-3537","addr":"경기도 군포시 금정동 41-2번지 1층","indutype":"일반휴게음식 - 일반한식","category":"restaurant"}]},{"lat":"37.369422131","long":"126.94315095","imageIndex":4,"items":[{"name":"풍천장어나라","tel":"031-392-4212","addr":"경기도 군포시 금정동 41-9번지 1층","indutype":"일반휴게음식 - 일반한식","category":"restaurant"}]},{"lat":"37.362503632","long":"126.94575271","imageIndex":4,"items":[{"name":"피자꾼","tel":"031-000-0000","addr":"경기도 군포시 금정동 768-14번지 1층","indutype":"일반휴게음식 - 서양음식","category":"restaurant"}]},{"lat":"37.36008723","long":"126.94236821","imageIndex":4,"items":[{"name":"피자샵 군포점","tel":"031-391-1644","addr":"경기도 군포시 금정동 855-4번지 1층","indutype":"일반휴게음식 - 서양음식","category":"restaurant"}]},{"lat":"37.362582882","long":"126.94206143","imageIndex":4,"items":[{"name":"필링스","tel":"031-348-0739","addr":"경기도 군포시 금정동 743-4번지 1층","indutype":"일반휴게음식 - 주점","category":"restaurant"},{"name":"하이트앤조이","tel":"031-457-3025","addr":"경기도 군포시 금정동 743-4번지 1층","indutype":"일반휴게음식 - 주점","category":"restaurant"}]},{"lat":"37.369088739","long":"126.94311735","imageIndex":4,"items":[{"name":"하랑호프","tel":"031-454-0244","addr":"경기도 군포시 금정동 42-2번지","indutype":"일반휴게음식 - 주점","category":"restaurant"},{"name":"한군직화포차","tel":"031-391-0175","addr":"경기도 군포시 금정동 42-2번지 1층","indutype":"일반휴게음식 - 일반한식","category":"restaurant"}]},{"lat":"37.362168031","long":"126.94131675","imageIndex":4,"items":[{"name":"해피궁","tel":"031-451-1150","addr":"경기도 군포시 금정동 744-6번지","indutype":"일반휴게음식 - 스넥","category":"restaurant"}]},{"lat":"37.36991766","long":"126.94309411","imageIndex":4,"items":[{"name":"행복한 오타쿠","tel":"031-391-5391","addr":"경기도 군포시 금정동 41-3번지 1층","indutype":"일반휴게음식 - 주점","category":"restaurant"},{"name":"형제황소곱창","tel":"031-391-0092","addr":"경기도 군포시 금정동 41-3번지","indutype":"일반휴게음식 - 일반한식","category":"restaurant"}]},{"lat":"37.370999813","long":"126.94497859","imageIndex":4,"items":[{"name":"행복한미소푸드","tel":"031-452-4058","addr":"경기도 군포시 금정동 689-22번지 1층","indutype":"일반휴게음식 - 일반한식","category":"restaurant"}]},{"lat":"37.365055924","long":"126.95101122","imageIndex":4,"items":[{"name":"행운한식식당","tel":"031-466-1256","addr":"경기도 군포시 금정동 170-3번지","indutype":"일반휴게음식 - 일반한식","category":"restaurant"}]},{"lat":"37.364115577","long":"126.94397921","imageIndex":4,"items":[{"name":"현호프","tel":"","addr":"경기도 군포시 금정동 910-5번지 지층","indutype":"일반휴게음식 - 주점","category":"restaurant"},{"name":"현호프","tel":"031-456-7133","addr":"경기도 군포시 금정동 910-5번지","indutype":"일반휴게음식 - 주점","category":"restaurant"}]},{"lat":"37.362584482","long":"126.94525597","imageIndex":4,"items":[{"name":"형제식당","tel":"031-424-7328","addr":"경기도 군포시 금정동 768번지","indutype":"일반휴게음식 - 일반한식","category":"restaurant"}]},{"lat":"37.362665667","long":"126.94544781","imageIndex":4,"items":[{"name":"호남식당","tel":"031-452-8091","addr":"경기도 군포시 금정동 768-4번지 1층","indutype":"일반휴게음식 - 일반한식","category":"restaurant"}]},{"lat":"37.363887788","long":"126.93909154","imageIndex":4,"items":[{"name":"호세야오리바베큐","tel":"031-429-5291","addr":"경기도 군포시 금정동 709-12번지 1층","indutype":"일반휴게음식 - 일반한식","category":"restaurant"}]},{"lat":"37.363528491","long":"126.94118018","imageIndex":4,"items":[{"name":"황보식당","tel":"031-454-0037","addr":"경기도 군포시 금정동 725-35번지","indutype":"일반휴게음식 - 일반한식","category":"restaurant"}]},{"lat":"37.360754348","long":"126.9430901","imageIndex":4,"items":[{"name":"후라이드참잘하는집","tel":"031-427-1599","addr":"경기도 군포시 금정동 747-14번지 1층","indutype":"일반휴게음식 - 스넥","category":"restaurant"}]},{"lat":"37.370782689","long":"126.94320632","imageIndex":4,"items":[{"name":"훠궈왕 샤브왕","tel":"031-399-8886","addr":"경기도 군포시 금정동 40-1번지 2층","indutype":"일반휴게음식 - 중국식","category":"restaurant"}]}]