[{"lat":"37.685824261","long":"126.77023648","imageIndex":7,"items":[{"name":"30년전통집","tel":"031-975-0255","addr":"경기도 고양시 일산서구 일산동 616-1번지","indutype":"음료식품 - 기타음료식품","category":"food"}]},{"lat":"37.684209283","long":"126.76909652","imageIndex":7,"items":[{"name":"감초건강원","tel":"031-977-8791","addr":"경기도 고양시 일산서구 일산동 620번지","indutype":"건강식품 - 기타건강식품","category":"food"}]},{"lat":"37.685156612","long":"126.76976242","imageIndex":7,"items":[{"name":"개성있는 축산물","tel":"031-975-7859","addr":"경기도 고양시 일산서구 일산동 612-8번지","indutype":"음료식품 - 정육점","category":"food"},{"name":"푸른유통","tel":"031-975-7565","addr":"경기도 고양시 일산서구 일산동 612-8번지","indutype":"음료식품 - 농·축·수산품","category":"food"}]},{"lat":"37.685103651","long":"126.77031809","imageIndex":7,"items":[{"name":"거북정육점","tel":"031-976-3405","addr":"경기도 고양시 일산서구 일산동 617-37번지","indutype":"음료식품 - 정육점","category":"food"},{"name":"삽교식품","tel":"031-975-2148","addr":"경기도 고양시 일산서구 일산동 617-37번지","indutype":"음료식품 - 농·축·수산품","category":"food"}]},{"lat":"37.678546208","long":"126.76657507","imageIndex":7,"items":[{"name":"건영유통","tel":"031-911-3898","addr":"경기도 고양시 일산서구 일산동 1063-1번지","indutype":"음료식품 - 기타음료식품","category":"food"}]},{"lat":"37.685988032","long":"126.77567771","imageIndex":7,"items":[{"name":"경전","tel":"031-977-7576","addr":"경기도 고양시 일산서구 일산동 576-9번지","indutype":"음료식품 - 기타음료식품","category":"food"}]},{"lat":"37.689407467","long":"126.76891014","imageIndex":7,"items":[{"name":"고양청과","tel":"031-925-9227","addr":"경기도 고양시 일산서구 일산동 2019번지 에이스11차아파트","indutype":"음료식품 - 농·축·수산품","category":"food"}]},{"lat":"37.684374099","long":"126.77043374","imageIndex":7,"items":[{"name":"고향반찬","tel":"031-975-9866","addr":"경기도 고양시 일산서구 일산동 627-57번지","indutype":"음료식품 - 기타음료식품","category":"food"},{"name":"대풍상회","tel":"031-975-2280","addr":"경기도 고양시 일산서구 일산동 627-57번지","indutype":"음료식품 - 농·축·수산품","category":"food"}]},{"lat":"37.679269305","long":"126.76326268","imageIndex":7,"items":[{"name":"광어생각","tel":"031-918-0330","addr":"경기도 고양시 일산서구 일산동 1054-5번지","indutype":"음료식품 - 농·축·수산품","category":"food"},{"name":"파리바게뜨일산평화점","tel":"031-923-8204","addr":"경기도 고양시 일산서구 일산동","indutype":"음료식품 - 제과점","category":"food"}]},{"lat":"37.685654329","long":"126.77087188","imageIndex":7,"items":[{"name":"광현건어물","tel":"031-975-8259","addr":"경기도 고양시 일산서구 일산동 617-20번지","indutype":"음료식품 - 농·축·수산품","category":"food"},{"name":"금산인삼","tel":"031-976-4733","addr":"경기도 고양시 일산서구 일산동 617-20번지","indutype":"건강식품 - 인삼제품","category":"food"},{"name":"생선","tel":"031-976-9420","addr":"경기도 고양시 일산서구 일산동 617-20번지","indutype":"음료식품 - 농·축·수산품","category":"food"},{"name":"성심기름집","tel":"031-976-1328","addr":"경기도 고양시 일산서구 일산동 617-20번지","indutype":"음료식품 - 기타음료식품","category":"food"},{"name":"성심즉석두부","tel":"031-976-1201","addr":"경기도 고양시 일산서구 일산동 617-20번지","indutype":"음료식품 - 기타음료식품","category":"food"},{"name":"우리유통","tel":"031-976-4585","addr":"경기도 고양시 일산서구 일산동 617-20번지","indutype":"음료식품 - 정육점","category":"food"},{"name":"태양정육점","tel":"031-976-2801","addr":"경기도 고양시 일산서구 일산동 617-20번지","indutype":"음료식품 - 정육점","category":"food"},{"name":"태평선식","tel":"031-976-7359","addr":"경기도 고양시 일산서구 일산동 617-20번지","indutype":"회원제형태 - 건강식품","category":"food"}]},{"lat":"37.685463609","long":"126.77010157","imageIndex":7,"items":[{"name":"교하Food상회","tel":"031-976-6726","addr":"경기도 고양시 일산서구 일산동 616-6번지","indutype":"음료식품 - 농·축·수산품","category":"food"}]},{"lat":"37.685960454","long":"126.77076889","imageIndex":7,"items":[{"name":"궁전떡방앗간","tel":"031-975-9922","addr":"경기도 고양시 일산서구 일산동 617-22번지","indutype":"음료식품 - 제과점","category":"food"},{"name":"일산야채 건어물","tel":"031-976-6415","addr":"경기도 고양시 일산서구 일산동 617-22번지","indutype":"음료식품 - 농·축·수산품","category":"food"},{"name":"제일청과도매상회","tel":"031-976-8490","addr":"경기도 고양시 일산서구 일산동 617-22번지","indutype":"음료식품 - 농·축·수산품","category":"food"},{"name":"제일청과도매상회","tel":"031-976-8490","addr":"경기도 고양시 일산서구 일산동 617-22번지","indutype":"음료식품 - 농·축·수산품","category":"food"},{"name":"중국식품상점","tel":"031-976-9388","addr":"경기도 고양시 일산서구 일산동 617-22번지","indutype":"음료식품 - 기타음료식품","category":"food"}]},{"lat":"37.6862129","long":"126.77548429","imageIndex":7,"items":[{"name":"그린파워녹즙기","tel":"031-976-3667","addr":"경기도 고양시 일산서구 일산동 576-8번지","indutype":"건강식품 - 기타건강식품","category":"food"}]},{"lat":"37.684657441","long":"126.76792743","imageIndex":7,"items":[{"name":"김경오파티쓰리 일산역점","tel":"","addr":"경기도 고양시 일산서구 일산동 955-10번지 월드메르디앙","indutype":"음료식품 - 제과점","category":"food"},{"name":"원바디(일산서구점)","tel":"070-4235-5680","addr":"경기도 고양시 일산서구 일산동 955-10번지 월드메르디앙","indutype":"건강식품 - 기타건강식품","category":"food"},{"name":"인성바이오일산2호점","tel":"031-0000-0000","addr":"경기도 고양시 일산서구 일산동 955-10번지 월드메르디앙","indutype":"건강식품 - 기타건강식품","category":"food"}]},{"lat":"37.678684426","long":"126.77268465","imageIndex":7,"items":[{"name":"낙원떡방앗간","tel":"031-917-6200","addr":"경기도 고양시 일산서구 일산동","indutype":"음료식품 - 제과점","category":"food"}]},{"lat":"37.684706693","long":"126.77004725","imageIndex":7,"items":[{"name":"낙원떡집","tel":"031-977-6133","addr":"경기도 고양시 일산서구 일산동 625-4번지","indutype":"음료식품 - 제과점","category":"food"}]},{"lat":"37.676874676","long":"126.76871146","imageIndex":7,"items":[{"name":"낙원복떡방앗간","tel":"031-918-2929","addr":"경기도 고양시 일산서구 일산동 1083-1번지","indutype":"음료식품 - 제과점","category":"food"}]},{"lat":"37.687017813","long":"126.76785196","imageIndex":7,"items":[{"name":"네이처시가","tel":"","addr":"경기도 고양시 일산서구 일산동 963-12번지","indutype":"음료식품 - 기타음료식품","category":"food"},{"name":"손수케이크","tel":"070-4103-3399","addr":"경기도 고양시 일산서구 일산동 963-12번지","indutype":"음료식품 - 제과점","category":"food"},{"name":"아이스크림할인점","tel":"","addr":"경기도 고양시 일산서구 일산동 963-12번지","indutype":"음료식품 - 기타음료식품","category":"food"}]},{"lat":"37.685876856","long":"126.76498732","imageIndex":7,"items":[{"name":"노마진아이스크림","tel":"031-111-1111","addr":"경기도 고양시 일산서구 일산동 957-3번지","indutype":"음료식품 - 기타음료식품","category":"food"},{"name":"예스윗 수제디저트","tel":"031-976-5765","addr":"경기도 고양시 일산서구 일산동 957-3번지","indutype":"음료식품 - 기타음료식품","category":"food"}]},{"lat":"37.676354589","long":"126.76995999","imageIndex":7,"items":[{"name":"노마진아이스크림","tel":"","addr":"경기도 고양시 일산서구 일산동 1088-1번지","indutype":"음료식품 - 기타음료식품","category":"food"},{"name":"일산탑복권","tel":"031-914-7575","addr":"경기도 고양시 일산서구 일산동 1088-1번지","indutype":"음료식품 - 기타음료식품","category":"food"}]},{"lat":"37.682571455","long":"126.77467919","imageIndex":7,"items":[{"name":"노마진아이스크림할인점 산들점","tel":"","addr":"경기도 고양시 일산서구 일산동 543-4번지","indutype":"음료식품 - 기타음료식품","category":"food"}]},{"lat":"37.684986147","long":"126.77012573","imageIndex":7,"items":[{"name":"논두렁밭두렁","tel":"031-963-0352","addr":"경기도 고양시 일산서구 일산동 617-115번지","indutype":"음료식품 - 미곡상","category":"food"},{"name":"민호야채","tel":"031-975-7019","addr":"경기도 고양시 일산서구 일산동 617-115번지","indutype":"음료식품 - 농·축·수산품","category":"food"},{"name":"차칸가게","tel":"031-975-2223","addr":"경기도 고양시 일산서구 일산동 617-115번지","indutype":"음료식품 - 농·축·수산품","category":"food"}]},{"lat":"37.677263414","long":"126.76937904","imageIndex":7,"items":[{"name":"농가축산","tel":"031-911-9232","addr":"경기도 고양시 일산서구 일산동 1081번지","indutype":"음료식품 - 정육점","category":"food"},{"name":"더후르츠","tel":"031-924-5900","addr":"경기도 고양시 일산서구 일산동 1081번지","indutype":"음료식품 - 농·축·수산품","category":"food"},{"name":"한우사랑","tel":"031-911-9232","addr":"경기도 고양시 일산서구 일산동 1081번지","indutype":"음료식품 - 정육점","category":"food"}]},{"lat":"37.676964434","long":"126.76854114","imageIndex":7,"items":[{"name":"농협목우촌웰빙마을후곡점","tel":"031-919-6689","addr":"경기도 고양시 일산서구 일산동 1083번지","indutype":"음료식품 - 정육점","category":"food"}]},{"lat":"37.687296651","long":"126.77218187","imageIndex":7,"items":[{"name":"뉴초원건강원","tel":"031-976-9977","addr":"경기도 고양시 일산서구 일산동 591-10번지","indutype":"건강식품 - 기타건강식품","category":"food"}]},{"lat":"37.688297285","long":"126.76790461","imageIndex":7,"items":[{"name":"다빈1","tel":"031-901-6774","addr":"경기도 고양시 일산서구 일산동 966-50번지","indutype":"음료식품 - 기타음료식품","category":"food"}]},{"lat":"37.679628051","long":"126.76245667","imageIndex":7,"items":[{"name":"더달달","tel":"070-7423-6603","addr":"경기도 고양시 일산서구 일산동 1054번지","indutype":"음료식품 - 기타음료식품","category":"food"}]},{"lat":"37.685068172","long":"126.77060162","imageIndex":7,"items":[{"name":"더달달 연안","tel":"070-7423-6603","addr":"경기도 고양시 일산서구 일산동 617-68번지","indutype":"음료식품 - 기타음료식품","category":"food"},{"name":"새봄이네","tel":"031-975-4326","addr":"경기도 고양시 일산서구 일산동 617-68번지","indutype":"음료식품 - 농·축·수산품","category":"food"},{"name":"연안수산","tel":"031-976-5418","addr":"경기도 고양시 일산서구 일산동 617-68번지","indutype":"음료식품 - 농·축·수산품","category":"food"},{"name":"일산청과","tel":"031-975-3181","addr":"경기도 고양시 일산서구 일산동 617-68번지","indutype":"음료식품 - 농·축·수산품","category":"food"},{"name":"한상궁 수라간","tel":"031-976-5888","addr":"경기도 고양시 일산서구 일산동 617-68번지","indutype":"음료식품 - 농·축·수산품","category":"food"}]},{"lat":"37.690591461","long":"126.77079981","imageIndex":7,"items":[{"name":"더커피진","tel":"070-4792-9673","addr":"경기도 고양시 일산서구 일산동 1997번지 탄현1차주은아파트","indutype":"음료식품 - 기타음료식품","category":"food"},{"name":"퀸비다모아","tel":"","addr":"경기도 고양시 일산서구 일산동 1997번지 탄현1차주은아파트","indutype":"음료식품 - 기타음료식품","category":"food"}]},{"lat":"37.678241266","long":"126.76726752","imageIndex":7,"items":[{"name":"던킨도너츠일산후곡점","tel":"031-915-2006","addr":"경기도 고양시 일산서구 일산동","indutype":"음료식품 - 제과점","category":"food"}]},{"lat":"37.686734071","long":"126.77015428","imageIndex":7,"items":[{"name":"데블스건강식품","tel":"031-977-5565","addr":"경기도 고양시 일산서구 일산동 606-1번지","indutype":"건강식품 - 기타건강식품","category":"food"},{"name":"반찬세상","tel":"031-923-5845","addr":"경기도 고양시 일산서구 일산동 606-1번지","indutype":"음료식품 - 기타음료식품","category":"food"},{"name":"종로떡집","tel":"031-975-8321","addr":"경기도 고양시 일산서구 일산동 606-1번지","indutype":"음료식품 - 제과점","category":"food"}]},{"lat":"37.677209279","long":"126.76483362","imageIndex":7,"items":[{"name":"동해","tel":"031-111-1111","addr":"경기도 고양시 일산서구 일산동 1058번지 후곡마을9단지아파트","indutype":"음료식품 - 농·축·수산품","category":"food"}]},{"lat":"37.677457704","long":"126.76740602","imageIndex":7,"items":[{"name":"둘키스아이스크림일산후곡점","tel":"","addr":"경기도 고양시 일산서구 일산동 1084번지","indutype":"음료식품 - 기타음료식품","category":"food"}]},{"lat":"37.682737275","long":"126.77657187","imageIndex":7,"items":[{"name":"뚜레쥬르 일산산들점","tel":"031-918-5111","addr":"경기도 고양시 일산서구 일산동 1673-1번지","indutype":"음료식품 - 제과점","category":"food"}]},{"lat":"37.684627617","long":"126.7710678","imageIndex":7,"items":[{"name":"만나기름집","tel":"031-975-9407","addr":"경기도 고양시 일산서구 일산동","indutype":"음료식품 - 기타음료식품","category":"food"}]},{"lat":"37.676268642","long":"126.7675118","imageIndex":7,"items":[{"name":"맛나공방","tel":"031-911-5785","addr":"경기도 고양시 일산서구 일산동 1086번지","indutype":"음료식품 - 기타음료식품","category":"food"},{"name":"베들레헴떡집","tel":"031-917-0922","addr":"경기도 고양시 일산서구 일산동 1086번지","indutype":"음료식품 - 제과점","category":"food"}]},{"lat":"37.685347281","long":"126.77512416","imageIndex":7,"items":[{"name":"맥주 아이스크림 더하기","tel":"031-876-4679","addr":"경기도 고양시 일산서구 일산동 576-20번지","indutype":"음료식품 - 기타음료식품","category":"food"}]},{"lat":"37.685206986","long":"126.77713121","imageIndex":7,"items":[{"name":"모퉁이","tel":"031-977-2069","addr":"경기도 고양시 일산서구 일산동 555-1번지","indutype":"음료식품 - 기타음료식품","category":"food"}]},{"lat":"37.681187081","long":"126.76709949","imageIndex":7,"items":[{"name":"몰레뜨","tel":"","addr":"경기도 고양시 일산서구 일산동 1069번지","indutype":"음료식품 - 기타음료식품","category":"food"}]},{"lat":"37.68615795","long":"126.77040549","imageIndex":7,"items":[{"name":"미소수산","tel":"031-976-8818","addr":"경기도 고양시 일산서구 일산동 615-2번지","indutype":"음료식품 - 기타음료식품","category":"food"}]},{"lat":"37.685708944","long":"126.77115513","imageIndex":7,"items":[{"name":"민물상단","tel":"031-975-0592","addr":"경기도 고양시 일산서구 일산동 617-6번지","indutype":"음료식품 - 농·축·수산품","category":"food"},{"name":"현정이네민물고기","tel":"031-975-4494","addr":"경기도 고양시 일산서구 일산동 617-6번지","indutype":"음료식품 - 농·축·수산품","category":"food"}]},{"lat":"37.685575792","long":"126.77682399","imageIndex":7,"items":[{"name":"민속주왕주","tel":"031-977-9413","addr":"경기도 고양시 일산서구 일산동 572-25번지","indutype":"음료식품 - 주류 판매점","category":"food"}]},{"lat":"37.684824086","long":"126.77018292","imageIndex":7,"items":[{"name":"바다생선","tel":"031-976-1093","addr":"경기도 고양시 일산서구 일산동 617-42번지","indutype":"음료식품 - 농·축·수산품","category":"food"}]},{"lat":"37.68523951","long":"126.77068045","imageIndex":7,"items":[{"name":"바다씨유","tel":"","addr":"경기도 고양시 일산서구 일산동 617-39번지","indutype":"음료식품 - 농·축·수산품","category":"food"},{"name":"중국식품","tel":"031-976-6445","addr":"경기도 고양시 일산서구 일산동 617-39번지","indutype":"음료식품 - 기타음료식품","category":"food"}]},{"lat":"37.677406916","long":"126.76904985","imageIndex":7,"items":[{"name":"배스킨라빈스","tel":"031-911-8231","addr":"경기도 고양시 일산서구 일산동 1080번지","indutype":"음료식품 - 제과점","category":"food"},{"name":"청애병","tel":"031-921-9777","addr":"경기도 고양시 일산서구 일산동 1080번지","indutype":"음료식품 - 제과점","category":"food"}]},{"lat":"37.679045032","long":"126.76373951","imageIndex":7,"items":[{"name":"베스킨라빈스","tel":"031-913-0031","addr":"경기도 고양시 일산서구 일산동 1059번지","indutype":"음료식품 - 제과점","category":"food"}]},{"lat":"37.685626542","long":"126.77048651","imageIndex":7,"items":[{"name":"보약김치","tel":"031-911-9007","addr":"경기도 고양시 일산서구 일산동 617-86번지","indutype":"음료식품 - 기타음료식품","category":"food"}]},{"lat":"37.682850922","long":"126.77015508","imageIndex":7,"items":[{"name":"복권방","tel":"","addr":"경기도 고양시 일산서구 일산동 655-268번지","indutype":"음료식품 - 기타음료식품","category":"food"}]},{"lat":"37.684824355","long":"126.77031896","imageIndex":7,"items":[{"name":"본토박이","tel":"031-975-9025","addr":"경기도 고양시 일산서구 일산동 617-100번지","indutype":"음료식품 - 정육점","category":"food"}]},{"lat":"37.685734925","long":"126.77062222","imageIndex":7,"items":[{"name":"부여제면","tel":"031-976-5808","addr":"경기도 고양시 일산서구 일산동 617-27번지","indutype":"음료식품 - 기타음료식품","category":"food"},{"name":"제일유통","tel":"031-976-8490","addr":"경기도 고양시 일산서구 일산동 617-27번지","indutype":"음료식품 - 농·축·수산품","category":"food"},{"name":"행복떡집","tel":"031-977-2882","addr":"경기도 고양시 일산서구 일산동 617-27번지","indutype":"음료식품 - 제과점","category":"food"},{"name":"형제마늘상회","tel":"031-819-8207","addr":"경기도 고양시 일산서구 일산동 617-27번지","indutype":"음료식품 - 농·축·수산품","category":"food"}]},{"lat":"37.676596705","long":"126.76938113","imageIndex":7,"items":[{"name":"브레드앤밀","tel":"031-923-9089","addr":"경기도 고양시 일산서구 일산동 1082-2번지","indutype":"음료식품 - 제과점","category":"food"},{"name":"참자연두부","tel":"031-918-2323","addr":"경기도 고양시 일산서구 일산동 1082-2번지","indutype":"음료식품 - 기타음료식품","category":"food"}]},{"lat":"37.684790021","long":"126.7758174","imageIndex":7,"items":[{"name":"빵공장AKI","tel":"031-976-3007","addr":"경기도 고양시 일산서구 일산동 1680-1번지","indutype":"음료식품 - 제과점","category":"food"}]},{"lat":"37.679547265","long":"126.7626043","imageIndex":7,"items":[{"name":"사려깊은빵집","tel":"031-921-5121","addr":"경기도 고양시 일산서구 일산동 1054-1번지","indutype":"음료식품 - 제과점","category":"food"}]},{"lat":"37.677128921","long":"126.76970819","imageIndex":7,"items":[{"name":"삼십분 (30분)","tel":"031-922-8830","addr":"경기도 고양시 일산서구 일산동 1081-2번지","indutype":"음료식품 - 기타음료식품","category":"food"},{"name":"파리바게뜨일산후곡점","tel":"031-916-8231","addr":"경기도 고양시 일산서구 일산동 1081-2번지","indutype":"음료식품 - 제과점","category":"food"},{"name":"프로포즈(야채,과일)","tel":"031-814-2233","addr":"경기도 고양시 일산서구 일산동 1081-2번지","indutype":"음료식품 - 농·축·수산품","category":"food"}]},{"lat":"37.685492353","long":"126.77559986","imageIndex":7,"items":[{"name":"삼운스베베환경","tel":"031-976-1224","addr":"경기도 고양시 일산서구 일산동 576-14번지","indutype":"음료식품 - 기타음료식품","category":"food"}]},{"lat":"37.686959739","long":"126.76584548","imageIndex":7,"items":[{"name":"삼정흑염소","tel":"031-975-6373","addr":"경기도 고양시 일산서구 일산동 960-22번지","indutype":"건강식품 - 기타건강식품","category":"food"}]},{"lat":"37.684680157","long":"126.77029674","imageIndex":7,"items":[{"name":"새로나통","tel":"031-975-4734","addr":"경기도 고양시 일산서구 일산동 617-101번지","indutype":"음료식품 - 정육점","category":"food"}]},{"lat":"37.684680872","long":"126.77065951","imageIndex":7,"items":[{"name":"서울닭식품","tel":"031-975-7466","addr":"경기도 고양시 일산서구 일산동 617-104번지","indutype":"음료식품 - 정육점","category":"food"},{"name":"유정장어","tel":"031-977-2207","addr":"경기도 고양시 일산서구 일산동 617-104번지","indutype":"음료식품 - 농·축·수산품","category":"food"},{"name":"일산형제족발","tel":"031-977-2888","addr":"경기도 고양시 일산서구 일산동 617-104번지","indutype":"음료식품 - 정육점","category":"food"}]},{"lat":"37.686879207","long":"126.77065266","imageIndex":7,"items":[{"name":"성석떡방앗간","tel":"031-975-2376","addr":"경기도 고양시 일산서구 일산동 597-3번지","indutype":"음료식품 - 제과점","category":"food"}]},{"lat":"37.685762511","long":"126.77090555","imageIndex":7,"items":[{"name":"세계로 대박오시샘","tel":"031-923-2278","addr":"경기도 고양시 일산서구 일산동","indutype":"음료식품 - 기타음료식품","category":"food"}]},{"lat":"37.688067493","long":"126.77476438","imageIndex":7,"items":[{"name":"세븐일레븐일산연안점","tel":"031-977-1878","addr":"경기도 고양시 일산서구 일산동 583-36번지","indutype":"음료식품 - 농·축·수산품","category":"food"}]},{"lat":"37.688099434","long":"126.77265555","imageIndex":7,"items":[{"name":"소나무수산","tel":"031-975-7793","addr":"경기도 고양시 일산서구 일산동 584-38번지","indutype":"음료식품 - 농·축·수산품","category":"food"}]},{"lat":"37.684769469","long":"126.76989967","imageIndex":7,"items":[{"name":"소문난과일","tel":"031-975-7971","addr":"경기도 고양시 일산서구 일산동","indutype":"음료식품 - 농·축·수산품","category":"food"}]},{"lat":"37.684490732","long":"126.77018396","imageIndex":7,"items":[{"name":"송림기름","tel":"031-976-3408","addr":"경기도 고양시 일산서구 일산동 627-40번지","indutype":"음료식품 - 기타음료식품","category":"food"}]},{"lat":"37.684790675","long":"126.77615751","imageIndex":7,"items":[{"name":"슬로우베이커리","tel":"031-975-0408","addr":"경기도 고양시 일산서구 일산동 1680-2번지","indutype":"음료식품 - 제과점","category":"food"}]},{"lat":"37.685012459","long":"126.76976287","imageIndex":7,"items":[{"name":"시온쇼핑","tel":"031-977-7480","addr":"경기도 고양시 일산서구 일산동 612-9번지","indutype":"음료식품 - 기타음료식품","category":"food"},{"name":"해광농산","tel":"031-975-9228","addr":"경기도 고양시 일산서구 일산동 612-9번지","indutype":"음료식품 - 농·축·수산품","category":"food"}]},{"lat":"37.685958867","long":"126.76996398","imageIndex":7,"items":[{"name":"시장빵집","tel":"031-977-7207","addr":"경기도 고양시 일산서구 일산동","indutype":"음료식품 - 제과점","category":"food"}]},{"lat":"37.687376872","long":"126.77173948","imageIndex":7,"items":[{"name":"에바다체험케어","tel":"031-977-2555","addr":"경기도 고양시 일산서구 일산동 599-1번지","indutype":"건강식품 - 기타건강식품","category":"food"}]},{"lat":"37.685379273","long":"126.77303808","imageIndex":7,"items":[{"name":"영신정육점","tel":"031-975-3621","addr":"경기도 고양시 일산서구 일산동 640-28번지","indutype":"음료식품 - 정육점","category":"food"}]},{"lat":"37.686131078","long":"126.77048494","imageIndex":7,"items":[{"name":"예생건강원","tel":"031-975-1238","addr":"경기도 고양시 일산서구 일산동 615-3번지","indutype":"건강식품 - 기타건강식품","category":"food"}]},{"lat":"37.677604227","long":"126.76859581","imageIndex":7,"items":[{"name":"오레시피 일산후곡점","tel":"031-914-1487","addr":"경기도 고양시 일산서구 일산동 1079-5번지","indutype":"음료식품 - 기타음료식품","category":"food"}]},{"lat":"37.683740403","long":"126.76890527","imageIndex":7,"items":[{"name":"우리동네정육점","tel":"031-977-9288","addr":"경기도 고양시 일산서구 일산동 655-14번지","indutype":"음료식품 - 정육점","category":"food"}]},{"lat":"37.680633468","long":"126.76509475","imageIndex":7,"items":[{"name":"웰빙솜사탕","tel":"","addr":"경기도 고양시 일산서구 일산동 1066번지 후곡마을4단지아파트","indutype":"음료식품 - 기타음료식품","category":"food"}]},{"lat":"37.677096721","long":"126.77165802","imageIndex":7,"items":[{"name":"유명식베이커리","tel":"031-922-5422","addr":"경기도 고양시 일산서구 일산동 1101번지","indutype":"음료식품 - 제과점","category":"food"}]},{"lat":"37.67907504","long":"126.76521308","imageIndex":7,"items":[{"name":"유진반찬","tel":"031-923-2188","addr":"경기도 고양시 일산서구 일산동 1064번지","indutype":"음료식품 - 기타음료식품","category":"food"}]},{"lat":"37.684735353","long":"126.77087474","imageIndex":7,"items":[{"name":"은경식품","tel":"031-977-4052","addr":"경기도 고양시 일산서구 일산동 635-7번지","indutype":"음료식품 - 기타음료식품","category":"food"}]},{"lat":"37.680767133","long":"126.75994771","imageIndex":7,"items":[{"name":"이레농산","tel":"031-815-5369","addr":"경기도 고양시 일산서구 일산동 1055번지 후곡마을7단지아파트","indutype":"음료식품 - 농·축·수산품","category":"food"}]},{"lat":"37.683980619","long":"126.77657943","imageIndex":7,"items":[{"name":"이삭(충무로)","tel":"031-964-2169","addr":"경기도 고양시 일산서구 일산동 1686번지 산들마을6단지","indutype":"음료식품 - 기타음료식품","category":"food"}]},{"lat":"37.681100893","long":"126.7736521","imageIndex":7,"items":[{"name":"일산25호유통","tel":"031-976-4006","addr":"경기도 고양시 일산서구 일산동 655-440번지","indutype":"음료식품 - 농·축·수산품","category":"food"}]},{"lat":"37.674488584","long":"126.77873928","imageIndex":7,"items":[{"name":"일산2특판","tel":"031-925-0601","addr":"경기도 고양시 일산서구 일산동","indutype":"음료식품 - 기타음료식품","category":"food"}]},{"lat":"37.683959436","long":"126.77032166","imageIndex":7,"items":[{"name":"일산건강원","tel":"031-976-5074","addr":"경기도 고양시 일산서구 일산동 627-70번지","indutype":"건강식품 - 기타건강식품","category":"food"}]},{"lat":"37.68470761","long":"126.77051205","imageIndex":7,"items":[{"name":"일산떡집","tel":"031-975-2049","addr":"경기도 고양시 일산서구 일산동 617-113번지","indutype":"음료식품 - 제과점","category":"food"}]},{"lat":"37.684877875","long":"126.77004671","imageIndex":7,"items":[{"name":"일산축산","tel":"031-977-7859","addr":"경기도 고양시 일산서구 일산동 624-1번지","indutype":"음료식품 - 정육점","category":"food"}]},{"lat":"37.683933278","long":"126.77076387","imageIndex":7,"items":[{"name":"임박사정육고기시장","tel":"031-976-2181","addr":"경기도 고양시 일산서구 일산동 627-9번지","indutype":"음료식품 - 정육점","category":"food"}]},{"lat":"37.68904335","long":"126.76257367","imageIndex":7,"items":[{"name":"잇츠소굿","tel":"031-921-0889","addr":"경기도 고양시 일산서구 일산동 2104번지","indutype":"음료식품 - 정육점","category":"food"}]},{"lat":"37.685567013","long":"126.77228926","imageIndex":7,"items":[{"name":"자이언트바바 일산점","tel":"070-7872-0126","addr":"경기도 고양시 일산서구 일산동 637-7번지","indutype":"음료식품 - 기타음료식품","category":"food"}]},{"lat":"37.67876709","long":"126.76440922","imageIndex":7,"items":[{"name":"장독대 후곡마을점","tel":"031-911-5289","addr":"경기도 고양시 일산서구 일산동 1060번지","indutype":"음료식품 - 기타음료식품","category":"food"}]},{"lat":"37.684511694","long":"126.77168035","imageIndex":7,"items":[{"name":"장수건강원","tel":"031-975-8550","addr":"경기도 고양시 일산서구 일산동 637-40번지","indutype":"건강식품 - 기타건강식품","category":"food"}]},{"lat":"37.685095736","long":"126.77087362","imageIndex":7,"items":[{"name":"재영이네백화점","tel":"031-975-2869","addr":"경기도 고양시 일산서구 일산동 617-15번지","indutype":"음료식품 - 기타음료식품","category":"food"}]},{"lat":"37.677684931","long":"126.76840285","imageIndex":7,"items":[{"name":"정관장서부후곡점","tel":"031-925-0304","addr":"경기도 고양시 일산서구 일산동 1079-4번지","indutype":"건강식품 - 홍삼제품","category":"food"},{"name":"정관장후곡점","tel":"031-925-0304","addr":"경기도 고양시 일산서구 일산동","indutype":"건강식품 - 홍삼제품","category":"food"}]},{"lat":"37.682682477","long":"126.7761866","imageIndex":7,"items":[{"name":"정관장일산2동점","tel":"031-976-0389","addr":"경기도 고양시 일산서구 일산동 525-16번지","indutype":"건강식품 - 홍삼제품","category":"food"}]},{"lat":"37.690226505","long":"126.76848808","imageIndex":7,"items":[{"name":"제이상사","tel":"","addr":"경기도 고양시 일산서구 일산동 2041번지 에이스10차아파트","indutype":"음료식품 - 기타음료식품","category":"food"}]},{"lat":"37.685790476","long":"126.77138162","imageIndex":7,"items":[{"name":"제일떡방앗간","tel":"031-976-4722","addr":"경기도 고양시 일산서구 일산동 617-95번지","indutype":"음료식품 - 제과점","category":"food"}]},{"lat":"37.684518588","long":"126.77060334","imageIndex":7,"items":[{"name":"조은기름집","tel":"031-976-7878","addr":"경기도 고양시 일산서구 일산동 635-25번지","indutype":"음료식품 - 기타음료식품","category":"food"}]},{"lat":"37.688018126","long":"126.77254243","imageIndex":7,"items":[{"name":"조은정육점","tel":"031-976-1212","addr":"경기도 고양시 일산서구 일산동 584-39번지","indutype":"음료식품 - 정육점","category":"food"}]},{"lat":"37.686012969","long":"126.76998648","imageIndex":7,"items":[{"name":"조은축산","tel":"031-975-3262","addr":"경기도 고양시 일산서구 일산동 610-61번지","indutype":"음료식품 - 정육점","category":"food"}]},{"lat":"37.687459228","long":"126.77704502","imageIndex":7,"items":[{"name":"주식회사 비욘드엠","tel":"","addr":"경기도 고양시 일산서구 일산동 573번지","indutype":"건강식품 - 기타건강식품","category":"food"}]},{"lat":"37.684626099","long":"126.77029691","imageIndex":7,"items":[{"name":"지영건어물(야채)","tel":"031-975-1983","addr":"경기도 고양시 일산서구 일산동 617-109번지","indutype":"음료식품 - 농·축·수산품","category":"food"},{"name":"찬우물두부","tel":"031-976-9639","addr":"경기도 고양시 일산서구 일산동 617-109번지","indutype":"음료식품 - 기타음료식품","category":"food"}]},{"lat":"37.678211056","long":"126.76568061","imageIndex":7,"items":[{"name":"참다한홍삼","tel":"031-913-3433","addr":"경기도 고양시 일산서구 일산동 1061-5번지","indutype":"건강식품 - 홍삼제품","category":"food"}]},{"lat":"37.676946978","long":"126.76882459","imageIndex":7,"items":[{"name":"코코호도과자","tel":"031-816-3660","addr":"경기도 고양시 일산서구 일산동 1083-1번지","indutype":"음료식품 - 제과점","category":"food"}]},{"lat":"37.677735169","long":"126.77565754","imageIndex":7,"items":[{"name":"쿠킹파파","tel":"","addr":"경기도 고양시 일산서구 일산동 1107번지 후곡마을12단지아파트","indutype":"음료식품 - 기타음료식품","category":"food"}]},{"lat":"37.68820777","long":"126.77276859","imageIndex":7,"items":[{"name":"태양초우리방앗간","tel":"031-977-1394","addr":"경기도 고양시 일산서구 일산동 584-31번지","indutype":"음료식품 - 기타음료식품","category":"food"}]},{"lat":"37.678124481","long":"126.76743792","imageIndex":7,"items":[{"name":"플라워데이","tel":"031-911-2352","addr":"경기도 고양시 일산서구 일산동 1078-1번지","indutype":"음료식품 - 기타음료식품","category":"food"}]},{"lat":"37.691403897","long":"126.77623941","imageIndex":7,"items":[{"name":"한우리한우정육백화점","tel":"031-818-5292","addr":"경기도 고양시 일산서구 일산동","indutype":"음료식품 - 정육점","category":"food"}]},{"lat":"37.68554715","long":"126.77134836","imageIndex":7,"items":[{"name":"현대웰빙약초판매","tel":"031-975-1020","addr":"경기도 고양시 일산서구 일산동 618번지","indutype":"건강식품 - 기타건강식품","category":"food"}]},{"lat":"37.688741693","long":"126.76487613","imageIndex":7,"items":[{"name":"황토축산유통","tel":"031-977-2289","addr":"경기도 고양시 일산서구 일산동 2108번지","indutype":"음료식품 - 정육점","category":"food"}]},{"lat":"37.680845774","long":"126.76315559","imageIndex":7,"items":[{"name":"후곡반찬","tel":"","addr":"경기도 고양시 일산서구 일산동 1048번지","indutype":"음료식품 - 기타음료식품","category":"food"}]},{"lat":"37.678599811","long":"126.76634818","imageIndex":7,"items":[{"name":"후앙베이커리 후곡점","tel":"031-922-5527","addr":"경기도 고양시 일산서구 일산동 1063번지","indutype":"음료식품 - 제과점","category":"food"}]},{"lat":"37.683865073","long":"126.768168","imageIndex":7,"items":[{"name":"휴베스트샵","tel":"031-976-7103","addr":"경기도 고양시 일산서구 일산동 2147번지 유진스웰아파트","indutype":"음료식품 - 농·축·수산품","category":"food"}]}]