[{"lat":"37.4009449504","long":"126.9908313688","imageIndex":7,"items":[{"name":"(주)투네이쳐","tel":"02-2058-0828","addr":"경기도 의왕시 포일동 653번지","indutype":"음료식품 - 기타음료식품","category":"food"},{"name":"(주)티아이디커뮤니케이션","tel":"02-6232-9722","addr":"경기도 의왕시 포일동 653번지 인덕원IT밸리 D동 112호","indutype":"음료식품 - 기타음료식품","category":"food"},{"name":"(주)헤니케이 와인","tel":"02-1566-7892","addr":"경기도 의왕시 포일동 653번지 인덕원IT밸리 D동 713호","indutype":"음료식품 - 주류 판매점","category":"food"},{"name":"정의수산","tel":"031-8069-8225","addr":"경기도 의왕시 포일동 653번지 인덕원IT밸리 D동 207호 208호","indutype":"음료식품 - 농·축·수산품","category":"food"},{"name":"주식회사 하임에프앤비","tel":"031-8084-3285","addr":"경기도 의왕시 포일동 653번지 인덕원IT밸리 D동 511호","indutype":"음료식품 - 기타음료식품","category":"food"},{"name":"태건","tel":"031-8069-8225","addr":"경기도 의왕시 포일동 653번지 인덕원IT밸리 D동 208호","indutype":"음료식품 - 농·축·수산품","category":"food"},{"name":"푸르메다(PURUMEDA)","tel":"031-282-8977","addr":"경기도 의왕시 포일동 653번지 인덕원IT밸리 A동 613호","indutype":"음료식품 - 기타음료식품","category":"food"}]},{"lat":"37.3958895069","long":"126.9847000033","imageIndex":7,"items":[{"name":"가가호호떡","tel":"031-444-1999","addr":"경기도 의왕시 포일동 662번지 파레사타워 105호","indutype":"음료식품 - 제과점","category":"food"},{"name":"민트브릭 베이커리","tel":"031-426-5152","addr":"경기도 의왕시 포일동 662번지 파레사타워 101호","indutype":"음료식품 - 제과점","category":"food"},{"name":"스토리 점핑 다이어트","tel":"","addr":"경기도 의왕시 포일동 662번지 파레사타워 4층 409호","indutype":"건강식품 - 기타건강식품","category":"food"}]},{"lat":"37.3959707464","long":"126.9856937811","imageIndex":7,"items":[{"name":"국앤쿡","tel":"031-422-0609","addr":"경기도 의왕시 포일동 660번지 포일프라임타워 105호","indutype":"음료식품 - 기타음료식품","category":"food"}]},{"lat":"37.3915836124","long":"126.9923686477","imageIndex":7,"items":[{"name":"다향선","tel":"031-422-2357","addr":"경기도 의왕시 포일동 227-8번지","indutype":"음료식품 - 기타음료식품","category":"food"}]},{"lat":"37.3882501724","long":"126.9965358596","imageIndex":7,"items":[{"name":"더스토어","tel":"031-426-5400","addr":"경기도 의왕시 포일동 117-4번지","indutype":"음료식품 - 정육점","category":"food"}]},{"lat":"37.3912773026","long":"126.9927526338","imageIndex":7,"items":[{"name":"라이프커피로스터스","tel":"","addr":"경기도 의왕시 포일동 208-3번지 지하1,지상1층 B101호","indutype":"음료식품 - 기타음료식품","category":"food"}]},{"lat":"37.3916361062","long":"126.9809519202","imageIndex":7,"items":[{"name":"미래바이오팜(주)","tel":"031-425-1197","addr":"경기도 의왕시 포일동 539-4번지 3층","indutype":"건강식품 - 기타건강식품","category":"food"}]},{"lat":"37.3871149204","long":"126.9969424611","imageIndex":7,"items":[{"name":"백운축산","tel":"","addr":"경기도 의왕시 포일동 127-1번지","indutype":"음료식품 - 정육점","category":"food"}]},{"lat":"37.3955291617","long":"126.9850840553","imageIndex":7,"items":[{"name":"베스킨라빈스(의왕포일점)","tel":"031-426-1480","addr":"경기도 의왕시 포일동 661번지 스마일타워 109,110호","indutype":"음료식품 - 제과점","category":"food"}]},{"lat":"37.3964120835","long":"126.9846434109","imageIndex":7,"items":[{"name":"브래들리","tel":"031-473-2222","addr":"경기도 의왕시 포일동 663-3번지 102호","indutype":"음료식품 - 제과점","category":"food"}]},{"lat":"37.3879978784","long":"126.9963326257","imageIndex":7,"items":[{"name":"송학푸드(주)","tel":"031-467-8298","addr":"경기도 의왕시 포일동 125-6번지","indutype":"음료식품 - 기타음료식품","category":"food"}]},{"lat":"37.3978083123","long":"126.9825876685","imageIndex":7,"items":[{"name":"스타일라인 주식회사","tel":"031-426-9877","addr":"경기도 의왕시 포일동 671-1번지 104호","indutype":"음료식품 - 농·축·수산품","category":"food"}]},{"lat":"37.3925821242","long":"126.9807257917","imageIndex":7,"items":[{"name":"싱싱청과야채","tel":"031-423-0202","addr":"경기도 의왕시 포일동 531-9번지 1층 C-101호,C-102호","indutype":"음료식품 - 농·축·수산품","category":"food"}]},{"lat":"37.3921689504","long":"126.9892518131","imageIndex":7,"items":[{"name":"양지뜰","tel":"031-423-5293","addr":"경기도 의왕시 포일동 235-2번지","indutype":"음료식품 - 정육점","category":"food"}]},{"lat":"37.3907185656","long":"126.9915331336","imageIndex":7,"items":[{"name":"양지정원","tel":"031-422-2831","addr":"경기도 의왕시 포일동 207-2번지","indutype":"음료식품 - 기타음료식품","category":"food"}]},{"lat":"37.3974756657","long":"126.9873874441","imageIndex":7,"items":[{"name":"주식회사 더함애더함","tel":"031-342-6227","addr":"경기도 의왕시 포일동 657-2번지 에이스청계타워 4층 제에이404-2호","indutype":"건강식품 - 기타건강식품","category":"food"},{"name":"주식회사 빵쌤","tel":"031-5177-7711","addr":"경기도 의왕시 포일동 657-2번지 에이스청계타워 1층 131,133,134,137,138호","indutype":"음료식품 - 제과점","category":"food"},{"name":"파더스베이글청계점","tel":"031-5177-7666","addr":"경기도 의왕시 포일동 657-2번지 에이스청계타워 110호","indutype":"음료식품 - 제과점","category":"food"}]},{"lat":"37.3953579987","long":"126.9852760779","imageIndex":7,"items":[{"name":"주식회사 데일리마켓","tel":"031-426-6970","addr":"경기도 의왕시 포일동 661-1번지 1층","indutype":"음료식품 - 주류 판매점","category":"food"}]},{"lat":"37.3918612115","long":"126.9801726696","imageIndex":7,"items":[{"name":"진복권방","tel":"031-424-7977","addr":"경기도 의왕시 포일동 537-6번지 대영다세대 108호","indutype":"음료식품 - 기타음료식품","category":"food"}]},{"lat":"37.3963310818","long":"126.9852306773","imageIndex":7,"items":[{"name":"파리바게뜨포일2지구점","tel":"031-421-0095","addr":"경기도 의왕시 포일동 662-2 포일프라자 108호~109호","indutype":"음료식품 - 제과점","category":"food"}]},{"lat":"37.3979977053","long":"126.9836717893","imageIndex":7,"items":[{"name":"포일떡집","tel":"031-442-4846","addr":"경기도 의왕시 포일동 670-9번지","indutype":"음료식품 - 제과점","category":"food"}]},{"lat":"37.3925021982","long":"126.9882015379","imageIndex":7,"items":[{"name":"회관매점","tel":"031-425-7084","addr":"경기도 의왕시 포일동 243-14번지 청계6통마을회관내","indutype":"음료식품 - 기타음료식품","category":"food"}]}]