[{"lat":"37.552181118","long":"127.3212763","imageIndex":17,"items":[{"name":"(주)마이스컴","tel":"031-775-7475","addr":"경기도 양평군 양서면 양수리 402-4","indutype":"건축자재 - 인테리어전문","category":"other"}]},{"lat":"37.544709767","long":"127.3187438","imageIndex":17,"items":[{"name":"GS25양평양수리점","tel":"02-2006-2485","addr":"경기도 양평군 양서면 양수리 559-4","indutype":"유통업 영리 - 편 의 점","category":"other"},{"name":"라라랜드","tel":"031-775-3329","addr":"경기도 양평군 양서면 양수리 559-4번지 1층","indutype":"의류 - 정장","category":"other"}]},{"lat":"37.544651309","long":"127.3203843","imageIndex":17,"items":[{"name":"TRY 양수","tel":"031-772-5282","addr":"경기도 양평군 양서면 양수리 1084번지 1층 가호(트라이)","indutype":"의류 - 내의판매","category":"other"},{"name":"버블맨24시빨래방","tel":"02-0000-0000","addr":"경기도 양평군 양서면 양수리 1084번지 1층 가호 매장","indutype":"수리서비스 - 세탁소","category":"other"}]},{"lat":"37.544129201","long":"127.32021235","imageIndex":17,"items":[{"name":"가나안광고","tel":"031-775-3755","addr":"경기도 양평군 양서면 양수리 1099번지","indutype":"용역 서비스 - 종합용역","category":"other"}]},{"lat":"37.575785354","long":"127.34435678","imageIndex":17,"items":[{"name":"가연추모관","tel":"031-771-9004","addr":"경기도 양평군 양서면 양수리 77-1번지","indutype":"용역 서비스 - 가례서비스업","category":"other"}]},{"lat":"37.54862909","long":"127.32207595","imageIndex":17,"items":[{"name":"경기타일","tel":"031-775-2340","addr":"경기도 양평군 양서면 양수리 542-1","indutype":"건축자재 - 건축용 요업제품","category":"other"}]},{"lat":"37.544572378","long":"127.31958056","imageIndex":17,"items":[{"name":"그린통신","tel":"031-774-4722","addr":"경기도 양평군 양서면 양수리 556-18번지 1층","indutype":"사무통신 - 통신기기","category":"other"}]},{"lat":"37.544294502","long":"127.31904756","imageIndex":17,"items":[{"name":"금아","tel":"031-771-7978","addr":"경기도 양평군 양서면 양수리 650-15번지 302호","indutype":"레져용품 - 스포츠·레져용품","category":"other"},{"name":"서울종묘","tel":"031-772-2189","addr":"경기도 양평군 양서면 양수리 650-15번지 1층","indutype":"농업 - 비료,사료,종자","category":"other"}]},{"lat":"37.54468024","long":"127.31629953","imageIndex":17,"items":[{"name":"꿈꾸는물고기","tel":"070-8654-6543","addr":"경기도 양평군 양서면 양수리 621-13번지 삼익아파트","indutype":"서적문구 - 출판 및 인쇄물","category":"other"}]},{"lat":"37.544491533","long":"127.3194897","imageIndex":17,"items":[{"name":"나성전자","tel":"031-774-7779","addr":"경기도 양평군 양서면 양수리 651-2번지","indutype":"전기제품 - 가전제품","category":"other"}]},{"lat":"37.547432204","long":"127.32155032","imageIndex":17,"items":[{"name":"다이소 양평양수리점","tel":"031-771-6940","addr":"경기도 양평군 양서면 양수리 953-1번지","indutype":"신변잡화 - 기타잡화","category":"other"}]},{"lat":"37.544963823","long":"127.31807725","imageIndex":17,"items":[{"name":"대명종묘","tel":"031-774-3399","addr":"경기도 양평군 양서면 양수리 564-19번지","indutype":"농업 - 비료,사료,종자","category":"other"}]},{"lat":"37.535658518","long":"127.31738187","imageIndex":17,"items":[{"name":"두물머리 커피농장","tel":"031-111-1111","addr":"경기도 양평군 양서면 양수리 786-3,786-4,786-5번지","indutype":"문화.취미 - 화원","category":"other"}]},{"lat":"37.542653064","long":"127.31966297","imageIndex":17,"items":[{"name":"두물머리자전거","tel":"031-772-9148","addr":"경기도 양평군 양서면 양수리 1147번지","indutype":"레져용품 - 스포츠·레져용품","category":"other"},{"name":"하나광고","tel":"031-774-2183","addr":"경기도 양평군 양서면 양수리 1147번지","indutype":"용역 서비스 - 종합용역","category":"other"}]},{"lat":"37.549875515","long":"127.32093832","imageIndex":17,"items":[{"name":"두물씽크","tel":"031-773-8924","addr":"경기도 양평군 양서면 양수리 531-12","indutype":"건축자재 - 인테리어전문","category":"other"}]},{"lat":"37.544317415","long":"127.31721456","imageIndex":17,"items":[{"name":"명품세탁소","tel":"031-771-6111","addr":"경기도 양평군 양서면 양수리 647-20","indutype":"수리서비스 - 세탁소","category":"other"},{"name":"세븐일레븐양수리삼익점","tel":"","addr":"경기도 양평군 양서면 양수리 647-20번지","indutype":"유통업 영리 - 편 의 점","category":"other"}]},{"lat":"37.533266912","long":"127.31549374","imageIndex":17,"items":[{"name":"물빛 공방(공예체험)","tel":"","addr":"경기도 양평군 양서면 양수리 708-3번지","indutype":"의류 - 정장","category":"other"}]},{"lat":"37.575349008","long":"127.34257752","imageIndex":17,"items":[{"name":"미르티앤씨","tel":"070-8118-1357","addr":"경기도 양평군 양서면 양수리 76-2번지","indutype":"의류 - 정장","category":"other"}]},{"lat":"37.54453955","long":"127.31838098","imageIndex":17,"items":[{"name":"바디휘트니스GYM","tel":"031-774-9991","addr":"경기도 양평군 양서면 양수리 559-21번지 관대빌딩 4층","indutype":"회원제형태 - 레져업소","category":"other"}]},{"lat":"37.545594956","long":"127.31791018","imageIndex":17,"items":[{"name":"바이오양평","tel":"070-4103-8433","addr":"경기도 양평군 양서면 양수리 566-6","indutype":"농업 - 농기계","category":"other"}]},{"lat":"37.552097127","long":"127.32235102","imageIndex":17,"items":[{"name":"백송화원","tel":"031-772-3838","addr":"경기도 양평군 양서면 양수리 402-5번지","indutype":"문화.취미 - 화원","category":"other"}]},{"lat":"37.544626528","long":"127.31954685","imageIndex":17,"items":[{"name":"보금당","tel":"031-771-0123","addr":"경기도 양평군 양서면 양수리 556-16","indutype":"신변잡화 - 귀금속","category":"other"}]},{"lat":"37.546288488","long":"127.32135308","imageIndex":17,"items":[{"name":"삼원","tel":"031-772-1966","addr":"경기도 양평군 양서면 양수리 965-2번지","indutype":"건축자재 - 기타건축자재","category":"other"}]},{"lat":"37.543154105","long":"127.31760571","imageIndex":17,"items":[{"name":"서울과학기술대학교 환경공학과 총동문회","tel":"031-771-4211","addr":"경기도 양평군 양서면 양수리 660-4번지 701호","indutype":"기타 - 비영리/비대상","category":"other"}]},{"lat":"37.543632705","long":"127.31720037","imageIndex":17,"items":[{"name":"성윤이엔지","tel":"031-772-1944","addr":"경기도 양평군 양서면 양수리 645-4번지 대웅빌라 가동 303호","indutype":"수리서비스 - 기타수리서비스","category":"other"}]},{"lat":"37.546182475","long":"127.32057184","imageIndex":17,"items":[{"name":"신흥종합건재","tel":"031-772-6317","addr":"경기도 양평군 양서면 양수리 1004번지","indutype":"건축자재 - 기타건축자재","category":"other"}]},{"lat":"37.534074188","long":"127.31685478","imageIndex":17,"items":[{"name":"씨유양평두물머리점","tel":"031-772-1102","addr":"경기도 양평군 양서면 양수리 777-1번지","indutype":"유통업 영리 - 편 의 점","category":"other"}]},{"lat":"37.544067985","long":"127.31952185","imageIndex":17,"items":[{"name":"씨유양평양수리점","tel":"031-775-1649","addr":"경기도 양평군 양서면 양수리 1074-1번지","indutype":"유통업 영리 - 편 의 점","category":"other"}]},{"lat":"37.546127442","long":"127.32093371","imageIndex":17,"items":[{"name":"씨유양평윤진점","tel":"031-772-1437","addr":"경기도 양평군 양서면 양수리 962번지","indutype":"유통업 영리 - 편 의 점","category":"other"}]},{"lat":"37.544599711","long":"127.31946753","imageIndex":17,"items":[{"name":"아빠와크레파스","tel":"031-774-5452","addr":"경기도 양평군 양서면 양수리 556-17번지","indutype":"서적문구 - 문구용품","category":"other"}]},{"lat":"37.545151031","long":"127.31882487","imageIndex":17,"items":[{"name":"양서농업협동조합","tel":"031-770-6870","addr":"경기도 양평군 양서면 양수리 559-5번지","indutype":"유통업 비영리 - 농,축협 직영매장","category":"other"},{"name":"양서농협","tel":"031-772-6335","addr":"경기도 양평군 양서면 양수리 559-5번지","indutype":"유통업 비영리 - 농,축협 직영매장","category":"other"},{"name":"양서농협","tel":"031-770-6800","addr":"경기도 양평군 양서면 양수리 559-5번지","indutype":"유통업 비영리 - 농,축협 직영매장","category":"other"}]},{"lat":"37.542071368","long":"127.31818954","imageIndex":17,"items":[{"name":"양서농협장례문화원","tel":"031-775-0061","addr":"경기도 양평군 양서면 양수리 663번지","indutype":"용역 서비스 - 가례서비스업","category":"other"}]},{"lat":"37.545156249","long":"127.32023934","imageIndex":17,"items":[{"name":"양수꽃집","tel":"031-774-7040","addr":"경기도 양평군 양서면 양수리 1037번지 1층","indutype":"문화.취미 - 화원","category":"other"}]},{"lat":"37.544122499","long":"127.31935235","imageIndex":17,"items":[{"name":"양수삼성장례식장","tel":"031-771-4447","addr":"경기도 양평군 양서면 양수리 651-7번지 지하1층","indutype":"용역 서비스 - 가례서비스업","category":"other"}]},{"lat":"37.544733156","long":"127.32010176","imageIndex":17,"items":[{"name":"양수세탁소","tel":"031-773-2972","addr":"경기도 양평군 양서면 양수리 1054번지","indutype":"수리서비스 - 세탁소","category":"other"}]},{"lat":"37.54465725","long":"127.31816649","imageIndex":17,"items":[{"name":"양수우리요양원","tel":"031-772-3899","addr":"경기도 양평군 양서면 양수리 561-6번지","indutype":"기타의료기관 - 기타의료기관 및 기타","category":"other"}]},{"lat":"37.544769195","long":"127.32010191","imageIndex":17,"items":[{"name":"양수종묘","tel":"031-772-2614","addr":"경기도 양평군 양서면 양수리 1053","indutype":"농업 - 비료,사료,종자","category":"other"}]},{"lat":"37.54278918","long":"127.31930146","imageIndex":17,"items":[{"name":"양수하우징","tel":"031-771-6848","addr":"경기도 양평군 양서면 양수리 1137 5/1","indutype":"용역 서비스 - 기타용역서비스","category":"other"}]},{"lat":"37.550379602","long":"127.32111021","imageIndex":17,"items":[{"name":"엠메디컬케어","tel":"031-775-0094","addr":"경기도 양평군 양서면 양수리 506-12번지","indutype":"신변잡화 - 기타잡화","category":"other"}]},{"lat":"37.544376165","long":"127.31883291","imageIndex":17,"items":[{"name":"오띠에","tel":"031-773-5493","addr":"경기도 양평군 양서면 양수리 650-5","indutype":"신변잡화 - 제화","category":"other"}]},{"lat":"37.544877221","long":"127.32013632","imageIndex":17,"items":[{"name":"오롯","tel":"","addr":"경기도 양평군 양서면 양수리 1052번지 2층","indutype":"신변잡화 - 가방","category":"other"}]},{"lat":"37.545407243","long":"127.32071566","imageIndex":17,"items":[{"name":"우리지물","tel":"031-771-6676","addr":"경기도 양평군 양서면 양수리 978-2번지","indutype":"직물 - 카페트,커튼,천막,지물","category":"other"}]},{"lat":"37.544820542","long":"127.3177485","imageIndex":17,"items":[{"name":"주식회사아이디디","tel":"070-4407-1827","addr":"경기도 양평군 양서면 양수리 564-6번지 양수빌딩 301호","indutype":"용역 서비스 - 소프트웨어","category":"other"}]},{"lat":"37.544268805","long":"127.31854958","imageIndex":17,"items":[{"name":"컴언시스템","tel":"031-772-6809","addr":"경기도 양평군 양서면 양수리 649-5번지 5-1","indutype":"사무통신 - 컴퓨터","category":"other"}]},{"lat":"37.543705804","long":"127.32018793","imageIndex":17,"items":[{"name":"코코","tel":"031-774-0252","addr":"경기도 양평군 양서면 양수리 1125번지","indutype":"의류 - 정장","category":"other"}]},{"lat":"37.544349014","long":"127.31887806","imageIndex":17,"items":[{"name":"타멜","tel":"031-111-1111","addr":"경기도 양평군 양서면 양수리 650-14번지 1층","indutype":"신변잡화 - 액세서리","category":"other"}]},{"lat":"37.54446113","long":"127.32074559","imageIndex":17,"items":[{"name":"트라이이레","tel":"031-771-0949","addr":"경기도 양평군 양서면 양수리 1114번지","indutype":"의류 - 정장","category":"other"}]},{"lat":"37.565211282","long":"127.3304319","imageIndex":17,"items":[{"name":"하나조경 송학 꽃","tel":"031-775-5662","addr":"경기도 양평군 양서면 양수리 184-1번지","indutype":"건축자재 - 인테리어전문","category":"other"}]},{"lat":"37.538238641","long":"127.31613679","imageIndex":17,"items":[{"name":"하로네","tel":"","addr":"경기도 양평군 양서면 양수리 792-2번지","indutype":"문화.취미 - 화랑","category":"other"}]},{"lat":"37.534325859","long":"127.31708211","imageIndex":17,"items":[{"name":"한씨네","tel":"031-774-1741","addr":"경기도 양평군 양서면 양수리 779-2","indutype":"신변잡화 - 기타잡화","category":"other"}]},{"lat":"37.545017368","long":"127.31826984","imageIndex":17,"items":[{"name":"혜인아트","tel":"02-1111-1111","addr":"경기도 양평군 양서면 양수리 562-4번지","indutype":"의류 - 정장","category":"other"}]}]