[{"lat":"37.746712179","long":"127.20563901","imageIndex":7,"items":[{"name":"광릉내파리바게트","tel":"031-574-4027","addr":"경기도 남양주시 진접읍 팔야리 728-5","indutype":"음료식품 - 제과점","category":"food"}]},{"lat":"37.744492408","long":"127.20236535","imageIndex":7,"items":[{"name":"광릉닭집","tel":"031-527-7604","addr":"경기도 남양주시 진접읍 팔야리 787-1번지","indutype":"음료식품 - 정육점","category":"food"}]},{"lat":"37.752126979","long":"127.2107713","imageIndex":7,"items":[{"name":"국찬푸드","tel":"031-571-2907","addr":"경기도 남양주시 진접읍 팔야리 595-1번지","indutype":"음료식품 - 기타음료식품","category":"food"}]},{"lat":"37.745235674","long":"127.2050223","imageIndex":7,"items":[{"name":"네이팜스","tel":"031-542-0206","addr":"경기도 남양주시 진접읍 팔야리 781-18번지","indutype":"음료식품 - 기타음료식품","category":"food"}]},{"lat":"37.744682605","long":"127.20177587","imageIndex":7,"items":[{"name":"담배잎","tel":"031-000-0000","addr":"경기도 남양주시 진접읍 팔야리 789-11번지 1층 외1필지","indutype":"음료식품 - 기타음료식품","category":"food"}]},{"lat":"37.744683579","long":"127.20119723","imageIndex":7,"items":[{"name":"대보탕제원","tel":"031-527-5484","addr":"경기도 남양주시 진접읍 팔야리 787-10번지 1층 4호 좌측","indutype":"건강식품 - 기타건강식품","category":"food"},{"name":"주식회사 지에스벤자민","tel":"031-574-7825","addr":"경기도 남양주시 진접읍 팔야리 787-10번지","indutype":"음료식품 - 기타음료식품","category":"food"},{"name":"한우지기정육점","tel":"031-527-7162","addr":"경기도 남양주시 진접읍 팔야리 787-10번지","indutype":"음료식품 - 정육점","category":"food"}]},{"lat":"37.747379978","long":"127.21019071","imageIndex":7,"items":[{"name":"동이참숯생오리&장어","tel":"031-529-5260","addr":"경기도 남양주시 진접읍 팔야리 산 88","indutype":"음료식품 - 정육점","category":"food"}]},{"lat":"37.746045418","long":"127.20567123","imageIndex":7,"items":[{"name":"미소정육점","tel":"031-528-6263","addr":"경기도 남양주시 진접읍 팔야리 761-2번지","indutype":"음료식품 - 정육점","category":"food"}]},{"lat":"37.744626011","long":"127.20327338","imageIndex":7,"items":[{"name":"밀레니엄 푸드","tel":"031-528-0141","addr":"경기도 남양주시 진접읍 팔야리 785-1","indutype":"음료식품 - 기타음료식품","category":"food"}]},{"lat":"37.75112273","long":"127.22777748","imageIndex":7,"items":[{"name":"봇뜰","tel":"031-528-3150","addr":"경기도 남양주시 진접읍 팔야리 132-8","indutype":"음료식품 - 기타음료식품","category":"food"}]},{"lat":"37.74490573","long":"127.20302452","imageIndex":7,"items":[{"name":"사계절맛나","tel":"031-527-9931","addr":"경기도 남양주시 진접읍 팔야리 692-27","indutype":"음료식품 - 기타음료식품","category":"food"}]},{"lat":"37.749957489","long":"127.20974403","imageIndex":7,"items":[{"name":"수빈유통","tel":"031-573-4253","addr":"경기도 남양주시 진접읍 팔야리 741-1번지","indutype":"음료식품 - 기타음료식품","category":"food"}]},{"lat":"37.745739816","long":"127.20525059","imageIndex":7,"items":[{"name":"싱싱과일 정가네","tel":"","addr":"경기도 남양주시 진접읍 팔야리 759-1번지","indutype":"음료식품 - 농·축·수산품","category":"food"}]},{"lat":"37.745127502","long":"127.20505605","imageIndex":7,"items":[{"name":"예쁜걸","tel":"031-573-8335","addr":"경기도 남양주시 진접읍 팔야리 781-19번지","indutype":"음료식품 - 기타음료식품","category":"food"}]},{"lat":"37.746431457","long":"127.20646652","imageIndex":7,"items":[{"name":"와싸다푸드","tel":"031-572-7747","addr":"경기도 남양주시 진접읍 팔야리 765-6번지 이플러스 나동 1호","indutype":"음료식품 - 농·축·수산품","category":"food"}]},{"lat":"37.745017338","long":"127.20624707","imageIndex":7,"items":[{"name":"인어아가씨 남양주점","tel":"","addr":"경기도 남양주시 진접읍 팔야리 780-24번지 한양빌딩","indutype":"음료식품 - 농·축·수산품","category":"food"}]},{"lat":"37.750347965","long":"127.22297545","imageIndex":7,"items":[{"name":"주식회사 예주인터내셔널","tel":"070-4705-0650","addr":"경기도 남양주시 진접읍 팔야리 332번지","indutype":"음료식품 - 농·축·수산품","category":"food"}]},{"lat":"37.753319106","long":"127.21422419","imageIndex":7,"items":[{"name":"주식회사 태양의맛","tel":"031-571-8032","addr":"경기도 남양주시 진접읍 팔야리 584번지","indutype":"음료식품 - 기타음료식품","category":"food"}]},{"lat":"37.750099965","long":"127.21069755","imageIndex":7,"items":[{"name":"천안당호두과자남양주점","tel":"031-573-3698","addr":"경기도 남양주시 진접읍 팔야리 550-1","indutype":"음료식품 - 제과점","category":"food"}]},{"lat":"37.746628331","long":"127.20197396","imageIndex":7,"items":[{"name":"푸른해(  )유통","tel":"070-8281-6756","addr":"경기도 남양주시 진접읍 팔야리 815-2번지 푸른해유통","indutype":"음료식품 - 농·축·수산품","category":"food"}]},{"lat":"37.744849295","long":"127.20441992","imageIndex":7,"items":[{"name":"하지.글로벌푸드","tel":"031-572-9141","addr":"경기도 남양주시 진접읍 팔야리 780-28번지","indutype":"음료식품 - 기타음료식품","category":"food"}]},{"lat":"37.747850388","long":"127.20388343","imageIndex":7,"items":[{"name":"한림유통","tel":"","addr":"경기도 남양주시 진접읍 팔야리 818번지 그린아트빌","indutype":"음료식품 - 농·축·수산품","category":"food"}]}]