[{"lat":"37.867825471","long":"126.78464419","imageIndex":13,"items":[{"name":"글라스 스토리 안경 문산점","tel":"031-953-9001","addr":"경기도 파주시 문산읍 당동리 888-3번지 (1층101호102호)","indutype":"보건위생 - 안경","category":"beauty"},{"name":"일로헤어","tel":"031-952-3465","addr":"경기도 파주시 문산읍 당동리 888-3번지","indutype":"보건위생 - 미용원","category":"beauty"}]},{"lat":"37.865489399","long":"126.77376399","imageIndex":13,"items":[{"name":"눈썹공주","tel":"","addr":"경기도 파주시 문산읍 당동리 947번지 파주한양수자인리버팰리스아파트","indutype":"보건위생 - 화장품","category":"beauty"},{"name":"마녀손톱","tel":"031-959-2255","addr":"경기도 파주시 문산읍 당동리 947번지 파주한양수자인리버팰리스아파트","indutype":"보건위생 - 피부미용실","category":"beauty"},{"name":"스타일공감","tel":"031-953-8880","addr":"경기도 파주시 문산읍 당동리 947번지 파주한양수자인리버팰리스아파트","indutype":"보건위생 - 미용원","category":"beauty"},{"name":"원헤어#","tel":"031-949-0073","addr":"경기도 파주시 문산읍 당동리 947번지 파주한양수자인리버팰리스아파트","indutype":"보건위생 - 미용원","category":"beauty"},{"name":"윤헤어#","tel":"031-959-1100","addr":"경기도 파주시 문산읍 당동리 947번지 파주한양수자인리버팰리스아파트","indutype":"보건위생 - 미용원","category":"beauty"}]},{"lat":"37.86688654","long":"126.78359005","imageIndex":13,"items":[{"name":"늘손네일","tel":"031-952-5255","addr":"경기도 파주시 문산읍 당동리 890-1번지","indutype":"보건위생 - 피부미용실","category":"beauty"},{"name":"더(The)스킨&바디","tel":"031-954-5621","addr":"경기도 파주시 문산읍 당동리 890-1번지","indutype":"보건위생 - 화장품","category":"beauty"}]},{"lat":"37.864106092","long":"126.78062088","imageIndex":13,"items":[{"name":"더스타일","tel":"031-941-7775","addr":"경기도 파주시 문산읍 당동리 903-2번지","indutype":"보건위생 - 미용원","category":"beauty"}]},{"lat":"37.863463343","long":"126.78378202","imageIndex":13,"items":[{"name":"더퓨어스킨케어&바디","tel":"031-952-7783","addr":"경기도 파주시 문산읍 당동리 92-4번지 세아아파트","indutype":"보건위생 - 피부미용실","category":"beauty"}]},{"lat":"37.867386032","long":"126.7857365","imageIndex":13,"items":[{"name":"도도네일","tel":"031-952-2213","addr":"경기도 파주시 문산읍 당동리 935번지 파주힐스테이트1차","indutype":"보건위생 - 피부미용실","category":"beauty"},{"name":"도도뷰티 앤 왁싱","tel":"031-952-2213","addr":"경기도 파주시 문산읍 당동리 935번지 파주힐스테이트1차","indutype":"보건위생 - 피부미용실","category":"beauty"},{"name":"뷰티힐스","tel":"031-954-2616","addr":"경기도 파주시 문산읍 당동리 935번지 파주힐스테이트1차","indutype":"보건위생 - 미용원","category":"beauty"}]},{"lat":"37.862301321","long":"126.77439887","imageIndex":13,"items":[{"name":"두두헤어","tel":"031-953-1104","addr":"경기도 파주시 문산읍 당동리 914-2번지","indutype":"보건위생 - 미용원","category":"beauty"}]},{"lat":"37.862098494","long":"126.78141101","imageIndex":13,"items":[{"name":"문산온 심리상담센터","tel":"031-8035-5464","addr":"경기도 파주시 문산읍 당동리 871번지 주공아파트","indutype":"보건위생 - 기타대인서비스","category":"beauty"},{"name":"문산온 심리상담센터","tel":"031-8035-5464","addr":"경기도 파주시 문산읍 당동리 871번지 주공아파트","indutype":"보건위생 - 기타대인서비스","category":"beauty"},{"name":"문산온 심리상담센터","tel":"031-8035-5464","addr":"경기도 파주시 문산읍 당동리 871번지 주공아파트","indutype":"보건위생 - 기타대인서비스","category":"beauty"}]},{"lat":"37.870631325","long":"126.78678394","imageIndex":13,"items":[{"name":"문산참숯가마","tel":"031-952-3182","addr":"경기도 파주시 문산읍 당동리 50-6번지","indutype":"보건위생 - 사우나","category":"beauty"}]},{"lat":"37.867690963","long":"126.78498553","imageIndex":13,"items":[{"name":"뭘해도예뻐","tel":"","addr":"경기도 파주시 문산읍 당동리 888-4번지","indutype":"보건위생 - 피부미용실","category":"beauty"},{"name":"예닮헤어하우스","tel":"031-954-2959","addr":"경기도 파주시 문산읍 당동리 888-4번지","indutype":"보건위생 - 미용원","category":"beauty"}]},{"lat":"37.865995971","long":"126.78432002","imageIndex":13,"items":[{"name":"박준뷰티랩","tel":"031-954-0454","addr":"경기도 파주시 문산읍 당동리 899번지","indutype":"보건위생 - 미용원","category":"beauty"},{"name":"뷰티스토리(Beauty Story)","tel":"031-953-0093","addr":"경기도 파주시 문산읍 당동리 899번지 센터프라자 101호","indutype":"보건위생 - 화장품","category":"beauty"}]},{"lat":"37.861461186","long":"126.77790151","imageIndex":13,"items":[{"name":"봄헤어","tel":"031-953-7747","addr":"경기도 파주시 문산읍 당동리 909번지 자연앤꿈에그린","indutype":"보건위생 - 미용원","category":"beauty"}]},{"lat":"37.86540948","long":"126.78384445","imageIndex":13,"items":[{"name":"샛별 아동심리발달센터","tel":"031-953-0693","addr":"경기도 파주시 문산읍 당동리 899-3번지","indutype":"보건위생 - 기타대인서비스","category":"beauty"}]},{"lat":"37.866690362","long":"126.78468163","imageIndex":13,"items":[{"name":"셀턴43스킨앤바디","tel":"031-953-0203","addr":"경기도 파주시 문산읍 당동리 888-7번지","indutype":"보건위생 - 피부미용실","category":"beauty"},{"name":"제이헤어","tel":"031-980-0320","addr":"경기도 파주시 문산읍 당동리 888-7번지","indutype":"보건위생 - 미용원","category":"beauty"}]},{"lat":"37.864663921","long":"126.7850399","imageIndex":13,"items":[{"name":"수진헤어","tel":"031-953-6151","addr":"경기도 파주시 문산읍 당동리 937번지 휴먼시아","indutype":"보건위생 - 미용원","category":"beauty"},{"name":"한마음아동청소년발달치료센터","tel":"031-953-9069","addr":"경기도 파주시 문산읍 당동리 937번지 휴먼시아","indutype":"보건위생 - 기타대인서비스","category":"beauty"}]},{"lat":"37.86349768","long":"126.77342923","imageIndex":13,"items":[{"name":"싹둑미용실","tel":"031-952-6238","addr":"경기도 파주시 문산읍 당동리 168","indutype":"보건위생 - 미용원","category":"beauty"}]},{"lat":"37.86738372","long":"126.78448639","imageIndex":13,"items":[{"name":"씨케이미용실(CK)","tel":"070-4240-1112","addr":"경기도 파주시 문산읍 당동리 889-2번지","indutype":"보건위생 - 미용원","category":"beauty"}]},{"lat":"37.866383772","long":"126.7845348","imageIndex":13,"items":[{"name":"아미속눈썹전문샵","tel":"031-952-9096","addr":"경기도 파주시 문산읍 당동리 888-8번지","indutype":"보건위생 - 피부미용실","category":"beauty"},{"name":"안경마을","tel":"031-952-6320","addr":"경기도 파주시 문산읍 당동리 888-8번지","indutype":"보건위생 - 안경","category":"beauty"},{"name":"조엘","tel":"031-952-2478","addr":"경기도 파주시 문산읍 당동리 888-8번지 우리메디컬프라자 102호","indutype":"보건위생 - 미용원","category":"beauty"}]},{"lat":"37.86696984","long":"126.78478309","imageIndex":13,"items":[{"name":"아이러브헤어","tel":"031-952-1223","addr":"경기도 파주시 문산읍 당동리 888-6번지 SM프라자 106호","indutype":"보건위생 - 미용원","category":"beauty"}]},{"lat":"37.866995751","long":"126.78418069","imageIndex":13,"items":[{"name":"엠씨엔(MCN)헤어뷰띠끄","tel":"031-952-0688","addr":"경기도 파주시 문산읍 당동리 891번지","indutype":"보건위생 - 미용원","category":"beauty"}]},{"lat":"37.862045676","long":"126.78207027","imageIndex":13,"items":[{"name":"연지영헤어필","tel":"031-952-0623","addr":"경기도 파주시 문산읍 당동리 134-2번지","indutype":"보건위생 - 미용원","category":"beauty"}]},{"lat":"37.862662345","long":"126.77943199","imageIndex":13,"items":[{"name":"오땡큐 문산점","tel":"031-953-6906","addr":"경기도 파주시 문산읍 당동리 908번지 문산당동4단지","indutype":"보건위생 - 미용원","category":"beauty"}]},{"lat":"37.866545011","long":"126.78403428","imageIndex":13,"items":[{"name":"오샤레","tel":"070-7543-5422","addr":"경기도 파주시 문산읍 당동리 892번지","indutype":"보건위생 - 화장품","category":"beauty"}]},{"lat":"37.862831258","long":"126.77356767","imageIndex":13,"items":[{"name":"이혜승헤어","tel":"","addr":"경기도 파주시 문산읍 당동리 912번지","indutype":"보건위생 - 미용원","category":"beauty"}]},{"lat":"37.867156988","long":"126.78368017","imageIndex":13,"items":[{"name":"플로스 오브 가민헤어","tel":"031-954-0503","addr":"경기도 파주시 문산읍 당동리 890번지","indutype":"보건위생 - 미용원","category":"beauty"}]},{"lat":"37.861942957","long":"126.78015009","imageIndex":13,"items":[{"name":"헤어마당","tel":"031-954-2340","addr":"경기도 파주시 문산읍 당동리 873번지","indutype":"보건위생 - 미용원","category":"beauty"}]},{"lat":"37.86791491","long":"126.78429162","imageIndex":13,"items":[{"name":"헤어칙스","tel":"031-362-6006","addr":"경기도 파주시 문산읍 당동리 888-2번지","indutype":"보건위생 - 미용원","category":"beauty"}]}]