[{"lat":"37.126307764","long":"126.97201511","imageIndex":17,"items":[{"name":"GS25화성송곡점","tel":"02-2006-2485","addr":"경기도 화성시 향남읍 송곡리 305-1번지","indutype":"유통업 영리 - 편 의 점","category":"other"}]},{"lat":"37.128000726","long":"126.96834587","imageIndex":17,"items":[{"name":"고당","tel":"031-354-6070","addr":"경기도 화성시 향남읍 송곡리 223-2","indutype":"문화.취미 - 민예·공예품","category":"other"}]},{"lat":"37.124334959","long":"126.97398512","imageIndex":17,"items":[{"name":"도시조경건설","tel":"031-353-9762","addr":"경기도 화성시 향남읍 송곡리 373번지","indutype":"문화.취미 - 화원","category":"other"}]},{"lat":"37.125146475","long":"126.97642667","imageIndex":17,"items":[{"name":"몬타나","tel":"031-372-9788","addr":"경기도 화성시 향남읍 송곡리 393-1번지","indutype":"주방용구 - 주방용구","category":"other"},{"name":"안전사","tel":"031-373-0235","addr":"경기도 화성시 향남읍 송곡리 393-1번지","indutype":"기타 - 기계공구","category":"other"},{"name":"진트레이드코리아(JINTRADEKOREA)","tel":"031-366-2500","addr":"경기도 화성시 향남읍 송곡리 393-1번지","indutype":"신변잡화 - 기타잡화","category":"other"},{"name":"크레용","tel":"031-354-3050","addr":"경기도 화성시 향남읍 송곡리 393-1,4,394-2,4(3동)","indutype":"가구 - 기타가구","category":"other"},{"name":"포엠","tel":"031-354-3050","addr":"경기도 화성시 향남읍 송곡리 393-1번지","indutype":"가구 - 일반가구","category":"other"}]},{"lat":"37.130531134","long":"126.96340439","imageIndex":17,"items":[{"name":"번영와이어컷팅","tel":"031-353-7990","addr":"경기도 화성시 향남읍 송곡리 175-1","indutype":"기타 - 기계공구","category":"other"}]},{"lat":"37.128639933","long":"126.96654505","imageIndex":17,"items":[{"name":"세븐일레븐화성송곡점","tel":"","addr":"경기도 화성시 향남읍 송곡리 149-5번지","indutype":"유통업 영리 - 편 의 점","category":"other"}]},{"lat":"37.127558079","long":"126.96465504","imageIndex":17,"items":[{"name":"신일냉방","tel":"031-352-4441","addr":"경기도 화성시 향남읍 송곡리 125-2","indutype":"전기제품 - 냉열기기","category":"other"}]},{"lat":"37.128090984","long":"126.96887473","imageIndex":17,"items":[{"name":"아이케이 (IK) 테크","tel":"031-353-9420","addr":"경기도 화성시 향남읍 송곡리 225-3번지","indutype":"건축자재 - 기타건축자재","category":"other"}]},{"lat":"37.126531182","long":"126.96560081","imageIndex":17,"items":[{"name":"에스제이엠 (SJM Korea)","tel":"070-4337-3773","addr":"경기도 화성시 향남읍 송곡리 50-3번지","indutype":"기타 - 기계공구","category":"other"}]},{"lat":"37.129117445","long":"126.96639853","imageIndex":17,"items":[{"name":"우진저울(화성,평택점)","tel":"070-7565-3752","addr":"경기도 화성시 향남읍 송곡리 152-1번지 A동 4호","indutype":"주방용구 - 주방용구","category":"other"}]},{"lat":"37.129999887","long":"126.96454127","imageIndex":17,"items":[{"name":"월드타일","tel":"031-8059-0455","addr":"경기도 화성시 향남읍 송곡리 171-1번지 1층","indutype":"건축자재 - 건축용 요업제품","category":"other"}]},{"lat":"37.128449286","long":"126.96215636","imageIndex":17,"items":[{"name":"탑폴딩도어","tel":"031-354-1882","addr":"경기도 화성시 향남읍 송곡리 2-26번지","indutype":"건축자재 - 기타건축자재","category":"other"}]},{"lat":"37.128559188","long":"126.96770418","imageIndex":17,"items":[{"name":"효성중전기","tel":"031-354-0634","addr":"경기도 화성시 향남읍 송곡리 214-4번지","indutype":"전기제품 - 기타전기제품","category":"other"}]}]