[{"lat":"36.953141284","long":"127.24082496","imageIndex":17,"items":[{"name":"(주)삼일이엔티","tel":"031-675-1862","addr":"경기도 안성시 미양면 양변리 296번지 B동","indutype":"용역 서비스 - 기타용역서비스","category":"other"},{"name":"케이프라스틱","tel":"070-5022-0467","addr":"경기도 안성시 미양면 양변리 296번지","indutype":"유통업 영리 - 기타유통업","category":"other"}]},{"lat":"36.950971032","long":"127.24015581","imageIndex":17,"items":[{"name":"(주)세창에스엠씨","tel":"041-558-4114","addr":"경기도 안성시 미양면 양변리 362-10번지","indutype":"건축자재 - 기타건축자재","category":"other"}]},{"lat":"36.951367662","long":"127.24454686","imageIndex":17,"items":[{"name":"(주)이엘에스/휴게편의점","tel":"031-673-5179","addr":"경기도 안성시 미양면 양변리 211","indutype":"유통업 영리 - 편 의 점","category":"other"}]},{"lat":"36.957001682","long":"127.24782077","imageIndex":17,"items":[{"name":"(주)코멕스카본","tel":"031-671-7964","addr":"경기도 안성시 미양면 양변리 464번지","indutype":"기타 - 기타 전문점","category":"other"}]},{"lat":"36.96099997","long":"127.24463344","imageIndex":17,"items":[{"name":"늑대와여우","tel":"031-671-0119","addr":"경기도 안성시 미양면 양변리 240-19번지 금화마을 상가동 105호","indutype":"사무통신 - 컴퓨터","category":"other"}]},{"lat":"36.9561095","long":"127.252208","imageIndex":17,"items":[{"name":"디지털라인","tel":"031-677-3361","addr":"경기도 안성시 미양면 양변리 16","indutype":"사무통신 - 컴퓨터","category":"other"}]},{"lat":"36.954838716","long":"127.24360347","imageIndex":17,"items":[{"name":"미니스톱안성미양점","tel":"031-1577-9621","addr":"경기도 안성시 미양면 양변리 245-2번지","indutype":"유통업 영리 - 편 의 점","category":"other"}]},{"lat":"36.958560379","long":"127.24349168","imageIndex":17,"items":[{"name":"삼원에스티산업","tel":"031-675-3585","addr":"경기도 안성시 미양면 양변리 240-7번지","indutype":"건축자재 - 기타건축자재","category":"other"}]},{"lat":"36.954450573","long":"127.24393908","imageIndex":17,"items":[{"name":"선진자원","tel":"031-677-4344","addr":"경기도 안성시 미양면 양변리 249번지","indutype":"기타 - 기타 전문점","category":"other"},{"name":"주식회사 선진환경자원","tel":"031-677-4344","addr":"경기도 안성시 미양면 양변리 249번지","indutype":"신변잡화 - 기타잡화","category":"other"}]},{"lat":"36.958477757","long":"127.2442437","imageIndex":17,"items":[{"name":"세븐일레븐안성미양점","tel":"","addr":"경기도 안성시 미양면 양변리 240-53번지","indutype":"유통업 영리 - 편 의 점","category":"other"}]},{"lat":"36.948447229","long":"127.24055215","imageIndex":17,"items":[{"name":"슈가플랜트","tel":"031-0000-0000","addr":"경기도 안성시 미양면 양변리 178-1번지","indutype":"문화.취미 - 화원","category":"other"}]},{"lat":"36.950949796","long":"127.2372367","imageIndex":17,"items":[{"name":"씨와이패키지 주식회사","tel":"031-677-9077","addr":"경기도 안성시 미양면 양변리 376번지","indutype":"유통업 영리 - 기타유통업","category":"other"}]},{"lat":"36.957117143","long":"127.24423941","imageIndex":17,"items":[{"name":"온통소통만물매장","tel":"031-656-1857","addr":"경기도 안성시 미양면 양변리 241-6번지 C동 4호","indutype":"전기제품 - 가전제품","category":"other"}]},{"lat":"36.954172084","long":"127.24352278","imageIndex":17,"items":[{"name":"창신산업","tel":"031-677-0902","addr":"경기도 안성시 미양면 양변리 248","indutype":"기타 - 기계공구","category":"other"}]}]