[{"lat":"37.324432279","long":"127.42588215","imageIndex":17,"items":[{"name":"고산요","tel":"031-632-8218","addr":"경기도 이천시 신둔면 지석리 169번지","indutype":"문화.취미 - 민예·공예품","category":"other"}]},{"lat":"37.321380381","long":"127.43267932","imageIndex":17,"items":[{"name":"대건","tel":"031-633-4334","addr":"경기도 이천시 신둔면 지석리 75-4번지","indutype":"건축자재 - 기타건축자재","category":"other"}]},{"lat":"37.328624911","long":"127.4325739","imageIndex":17,"items":[{"name":"목이당","tel":"031-631-0326","addr":"경기도 이천시 신둔면 지석리 29","indutype":"가구 - 일반가구","category":"other"},{"name":"목이당도자기","tel":"031-631-0326","addr":"경기도 이천시 신둔면 지석리 29번지","indutype":"주방용구 - 주방용식기","category":"other"}]},{"lat":"37.323873859","long":"127.42329538","imageIndex":17,"items":[{"name":"묘한","tel":"02-585-1310","addr":"경기도 이천시 신둔면 지석리 397-1번지","indutype":"문화.취미 - 민예·공예품","category":"other"},{"name":"예빈시","tel":"031-631-9261","addr":"경기도 이천시 신둔면 지석리 397-1번지","indutype":"문화.취미 - 골동품점","category":"other"}]},{"lat":"37.327042555","long":"127.42410283","imageIndex":17,"items":[{"name":"백산도요","tel":"031-638-6933","addr":"경기도 이천시 신둔면 지석리 260-1번지","indutype":"문화.취미 - 민예·공예품","category":"other"},{"name":"이노서치","tel":"070-7563-8896","addr":"경기도 이천시 신둔면 지석리 260-1번지","indutype":"기타 - 기계공구","category":"other"}]},{"lat":"37.327570338","long":"127.43268072","imageIndex":17,"items":[{"name":"영테크","tel":"031-634-8000","addr":"경기도 이천시 신둔면 지석리 29-15번지 1층","indutype":"기타 - 기계공구","category":"other"}]},{"lat":"37.321792258","long":"127.41569103","imageIndex":17,"items":[{"name":"온도예공방","tel":"031-633-4431","addr":"경기도 이천시 신둔면 지석리 349","indutype":"문화.취미 - 민예·공예품","category":"other"}]},{"lat":"37.326737702","long":"127.42368367","imageIndex":17,"items":[{"name":"이종철 조형연구소","tel":"031-633-7423","addr":"경기도 이천시 신둔면 지석리 297번지","indutype":"문화.취미 - 화랑","category":"other"},{"name":"토닥토닥공방","tel":"031-633-7423","addr":"경기도 이천시 신둔면 지석리 297번지","indutype":"주방용구 - 주방용식기","category":"other"}]},{"lat":"37.321987768","long":"127.42413103","imageIndex":17,"items":[{"name":"이천도토","tel":"031-634-8102","addr":"경기도 이천시 신둔면 지석리 156번지","indutype":"신변잡화 - 기타잡화","category":"other"}]},{"lat":"37.329012338","long":"127.4325761","imageIndex":17,"items":[{"name":"주식회사 나무대장간(NAMUSMITH.LTD)","tel":"031-632-5045","addr":"경기도 이천시 신둔면 지석리 28-27번지","indutype":"가구 - 일반가구","category":"other"}]},{"lat":"37.327317922","long":"127.42521008","imageIndex":17,"items":[{"name":"주식회사 루이초","tel":"02-3411-5211","addr":"경기도 이천시 신둔면 지석리 269번지","indutype":"신변잡화 - 기타잡화","category":"other"}]},{"lat":"37.321074534","long":"127.43254219","imageIndex":17,"items":[{"name":"주식회사생기의집","tel":"031-0000-0000","addr":"경기도 이천시 신둔면 지석리 79-4번지","indutype":"문화.취미 - 민예·공예품","category":"other"}]},{"lat":"37.318989493","long":"127.41843968","imageIndex":17,"items":[{"name":"청송사","tel":"070-4219-0063","addr":"경기도 이천시 신둔면 지석리 470-66번지","indutype":"의류 - 정장","category":"other"}]},{"lat":"37.325070092","long":"127.42135018","imageIndex":17,"items":[{"name":"카나리코리아","tel":"070-8866-6968","addr":"경기도 이천시 신둔면 지석리 309-1번지","indutype":"레져용품 - 골프용품 전문점","category":"other"}]},{"lat":"37.323625451","long":"127.42473813","imageIndex":17,"items":[{"name":"클린에어존","tel":"031-631-0235","addr":"경기도 이천시 신둔면 지석리 172번지","indutype":"용역 서비스 - 종합용역","category":"other"}]},{"lat":"37.324349293","long":"127.42641196","imageIndex":17,"items":[{"name":"토화도예","tel":"031-632-8306","addr":"경기도 이천시 신둔면 지석리 241","indutype":"문화.취미 - 민예·공예품","category":"other"}]},{"lat":"37.321214655","long":"127.41337508","imageIndex":17,"items":[{"name":"현대창호","tel":"031-634-9820","addr":"경기도 이천시 신둔면 지석리 341-4번지","indutype":"건축자재 - 기타건축자재","category":"other"}]},{"lat":"37.322152716","long":"127.42335349","imageIndex":4,"items":[{"name":"안옥화음식갤러리","tel":"031-631-8375","addr":"경기도 이천시 신둔면 지석리 411번지 1층","indutype":"일반휴게음식 - 일반한식","category":"restaurant"}]},{"lat":"37.322989479","long":"127.42368533","imageIndex":7,"items":[{"name":"엄마는최고","tel":"","addr":"경기도 이천시 신둔면 지석리 409-1번지","indutype":"음료식품 - 기타음료식품","category":"food"}]},{"lat":"37.32248919","long":"127.42501383","imageIndex":7,"items":[{"name":"한양곳간","tel":"031-633-8473","addr":"경기도 이천시 신둔면 지석리 185-11번지","indutype":"음료식품 - 기타음료식품","category":"food"}]}]