[{"lat":"37.283719549","long":"127.44687614","imageIndex":13,"items":[{"name":"3POP PC방","tel":"070-4709-7482","addr":"경기도 이천시 창전동 437-10번지 지하1층","indutype":"레저업소 - 기타레져업소","category":"leisure"},{"name":"윤 당구클럽","tel":"031-635-2955","addr":"경기도 이천시 창전동 437-10번지 2층","indutype":"레저업소 - 당 구 장","category":"leisure"}]},{"lat":"37.278326744","long":"127.44812987","imageIndex":13,"items":[{"name":"ENTER PC방","tel":"070-8816-1183","addr":"경기도 이천시 창전동 465-16번지 2,3층","indutype":"레저업소 - 기타레져업소","category":"leisure"}]},{"lat":"37.280740281","long":"127.44363375","imageIndex":13,"items":[{"name":"I GO 동전노래연습장","tel":"","addr":"경기도 이천시 창전동 158-11번지 2층 202호","indutype":"레저업소 - 노 래 방","category":"leisure"}]},{"lat":"37.281690066","long":"127.44985235","imageIndex":13,"items":[{"name":"M당구장","tel":"031-638-1116","addr":"경기도 이천시 창전동 455-12번지 203호","indutype":"레저업소 - 당 구 장","category":"leisure"}]},{"lat":"37.280739777","long":"127.44376906","imageIndex":13,"items":[{"name":"S PC방","tel":"031-1234-1234","addr":"경기도 이천시 창전동 158-10번지 4층","indutype":"레저업소 - 기타레져업소","category":"leisure"},{"name":"아지트 PC방","tel":"070-7238-2402","addr":"경기도 이천시 창전동 158-10번지 3층 4층","indutype":"레저업소 - 기타레져업소","category":"leisure"},{"name":"아지트PC방","tel":"070-6291-3600","addr":"경기도 이천시 창전동 158-10번지 3층","indutype":"레저업소 - 기타레져업소","category":"leisure"},{"name":"칸타타노래연습장","tel":"031-636-8441","addr":"경기도 이천시 창전동 158-10번지","indutype":"레저업소 - 노 래 방","category":"leisure"}]},{"lat":"37.280934897","long":"127.4421803","imageIndex":13,"items":[{"name":"VIP노래연습장","tel":"031-631-8228","addr":"경기도 이천시 창전동 157-16번지 지하층 외1필지","indutype":"레저업소 - 노 래 방","category":"leisure"},{"name":"공때리네 당구장","tel":"070-7559-6417","addr":"경기도 이천시 창전동 157-16번지 3층","indutype":"레저업소 - 당 구 장","category":"leisure"}]},{"lat":"37.279046909","long":"127.44590155","imageIndex":13,"items":[{"name":"Z PC방","tel":"070-8816-1183","addr":"경기도 이천시 창전동 168-8번지 3층","indutype":"레저업소 - 기타레져업소","category":"leisure"},{"name":"아라비안노래연습장","tel":"031-637-9951","addr":"경기도 이천시 창전동 168-8번지 2층","indutype":"레저업소 - 노 래 방","category":"leisure"}]},{"lat":"37.281136712","long":"127.44121175","imageIndex":13,"items":[{"name":"공동 당구 구역","tel":"031-633-1688","addr":"경기도 이천시 창전동 153-20번지 3층","indutype":"레저업소 - 당 구 장","category":"leisure"},{"name":"공동당구구역","tel":"031-636-3943","addr":"경기도 이천시 창전동 153-20번지 3층","indutype":"레저업소 - 당 구 장","category":"leisure"}]},{"lat":"37.285607412","long":"127.44801488","imageIndex":13,"items":[{"name":"김태희댄스아카데미","tel":"031-631-6366","addr":"경기도 이천시 창전동 440-3번지 5층","indutype":"레저업소 - 헬스클럽","category":"leisure"}]},{"lat":"37.284770077","long":"127.44785208","imageIndex":13,"items":[{"name":"꾀꼬리노래방","tel":"031-636-6044","addr":"경기도 이천시 창전동 447-2번지 지하1층","indutype":"레저업소 - 노 래 방","category":"leisure"},{"name":"베토벤당구장","tel":"031-638-8560","addr":"경기도 이천시 창전동 447-2번지","indutype":"레저업소 - 당 구 장","category":"leisure"}]},{"lat":"37.279245129","long":"127.44590271","imageIndex":13,"items":[{"name":"노래공간연습장","tel":"031-635-9183","addr":"경기도 이천시 창전동 168-24번지","indutype":"레저업소 - 노 래 방","category":"leisure"},{"name":"놀자낚시카페","tel":"031-638-1121","addr":"경기도 이천시 창전동 168-24번지 3층","indutype":"레저업소 - 기타레져업소","category":"leisure"},{"name":"왕당구장","tel":"031-635-1909","addr":"경기도 이천시 창전동 168-24번지","indutype":"레저업소 - 당 구 장","category":"leisure"}]},{"lat":"37.279382261","long":"127.44537356","imageIndex":13,"items":[{"name":"높은음자리 노래연습장","tel":"031-634-3433","addr":"경기도 이천시 창전동 168-23번지 3층","indutype":"레저업소 - 노 래 방","category":"leisure"}]},{"lat":"37.281186578","long":"127.44476394","imageIndex":13,"items":[{"name":"뉴욕당구클럽","tel":"031-633-8093","addr":"경기도 이천시 창전동 149-8번지","indutype":"레저업소 - 당 구 장","category":"leisure"}]},{"lat":"37.280718647","long":"127.44460335","imageIndex":13,"items":[{"name":"다빈치당구클럽","tel":"031-632-3464","addr":"경기도 이천시 창전동 162-8번지 301호","indutype":"레저업소 - 당 구 장","category":"leisure"},{"name":"엠쏘멀티집","tel":"031-633-7232","addr":"경기도 이천시 창전동 162-8번지","indutype":"레저업소 - 헬스클럽","category":"leisure"}]},{"lat":"37.280690059","long":"127.44502039","imageIndex":13,"items":[{"name":"도시락(PC)이천점","tel":"070-9303-8920","addr":"경기도 이천시 창전동 163번지","indutype":"레저업소 - 기타레져업소","category":"leisure"},{"name":"텐텐 실내 양궁장","tel":"031-637-6366","addr":"경기도 이천시 창전동 163번지 지하1층","indutype":"레저업소 - 기타레져업소","category":"leisure"}]},{"lat":"37.281247001","long":"127.45026694","imageIndex":13,"items":[{"name":"동아노래방","tel":"031-631-6417","addr":"경기도 이천시 창전동 459-19번지","indutype":"레저업소 - 노 래 방","category":"leisure"}]},{"lat":"37.27971719","long":"127.44495832","imageIndex":13,"items":[{"name":"라인(Line)PC방","tel":"031-000-0000","addr":"경기도 이천시 창전동 160-27번지 지하","indutype":"레저업소 - 기타레져업소","category":"leisure"}]},{"lat":"37.281298103","long":"127.44385125","imageIndex":13,"items":[{"name":"락노래연습장","tel":"031-631-2892","addr":"경기도 이천시 창전동 150-14번지 2층","indutype":"레저업소 - 노 래 방","category":"leisure"},{"name":"카파","tel":"031-634-7982","addr":"경기도 이천시 창전동 150-14번지","indutype":"레저업소 - 헬스클럽","category":"leisure"}]},{"lat":"37.279803243","long":"127.44604129","imageIndex":13,"items":[{"name":"럭셔리노래연습장","tel":"031-638-3355","addr":"경기도 이천시 창전동 167-1번지 오구은광빌딩 3층 301~303호","indutype":"레저업소 - 노 래 방","category":"leisure"},{"name":"이천 K복싱","tel":"031-638-0987","addr":"경기도 이천시 창전동 167-1번지 오구은광빌딩 501,502,504호","indutype":"레저업소 - 헬스클럽","category":"leisure"}]},{"lat":"37.278131659","long":"127.44729434","imageIndex":13,"items":[{"name":"메가웹스테이션","tel":"","addr":"경기도 이천시 창전동 170-8","indutype":"레저업소 - 기타레져업소","category":"leisure"}]},{"lat":"37.279435821","long":"127.44791089","imageIndex":13,"items":[{"name":"모이자노래연습장","tel":"031-637-0877","addr":"경기도 이천시 창전동 465-55번지","indutype":"레저업소 - 노 래 방","category":"leisure"}]},{"lat":"37.280854932","long":"127.4442997","imageIndex":13,"items":[{"name":"뮤직박스노래연습장","tel":"031-634-8107","addr":"경기도 이천시 창전동 162번지 201호~202호","indutype":"레저업소 - 노 래 방","category":"leisure"},{"name":"킹당구장","tel":"031-638-7903","addr":"경기도 이천시 창전동 162 203호~206호","indutype":"레저업소 - 당 구 장","category":"leisure"}]},{"lat":"37.283747086","long":"127.44674099","imageIndex":13,"items":[{"name":"미소노래연습장","tel":"031-635-8838","addr":"경기도 이천시 창전동 437-9번지 지하1층","indutype":"레저업소 - 노 래 방","category":"leisure"}]},{"lat":"37.279297416","long":"127.44637659","imageIndex":13,"items":[{"name":"베네슬라임","tel":"031-633-8805","addr":"경기도 이천시 창전동 166-13번지 201호","indutype":"레저업소 - 기타레져업소","category":"leisure"}]},{"lat":"37.280276231","long":"127.44484883","imageIndex":13,"items":[{"name":"베짱이노래연습장","tel":"070-4130-1272","addr":"경기도 이천시 창전동 161-6번지 지하1층","indutype":"레저업소 - 노 래 방","category":"leisure"}]},{"lat":"37.280635893","long":"127.4426296","imageIndex":13,"items":[{"name":"보림노래연습장","tel":"031-637-8651","addr":"경기도 이천시 창전동 156-10번지","indutype":"레저업소 - 노 래 방","category":"leisure"}]},{"lat":"37.280102392","long":"127.44795991","imageIndex":13,"items":[{"name":"분수대노래연습장","tel":"031-633-6106","addr":"경기도 이천시 창전동 462-12번지 2층","indutype":"레저업소 - 노 래 방","category":"leisure"}]},{"lat":"37.281466247","long":"127.44707715","imageIndex":13,"items":[{"name":"비올라 노래연습장","tel":"031-635-5751","addr":"경기도 이천시 창전동 457번지","indutype":"레저업소 - 노 래 방","category":"leisure"},{"name":"신흥당구장","tel":"031-633-7380","addr":"경기도 이천시 창전동 457번지 3층","indutype":"레저업소 - 당 구 장","category":"leisure"},{"name":"이천철권복싱체육관","tel":"031-636-0522","addr":"경기도 이천시 창전동 457번지 4층","indutype":"레저업소 - 헬스클럽","category":"leisure"}]},{"lat":"37.279907602","long":"127.44704543","imageIndex":13,"items":[{"name":"빠딴잘리요가","tel":"031-635-7085","addr":"경기도 이천시 창전동 463-15번지","indutype":"레저업소 - 헬스클럽","category":"leisure"}]},{"lat":"37.28052509","long":"127.4433506","imageIndex":13,"items":[{"name":"산울림노래연습장","tel":"031-635-5561","addr":"경기도 이천시 창전동 159-6번지","indutype":"레저업소 - 노 래 방","category":"leisure"}]},{"lat":"37.278326108","long":"127.44829899","imageIndex":13,"items":[{"name":"샘 노래연습장","tel":"031-635-8530","addr":"경기도 이천시 창전동 465-18번지","indutype":"레저업소 - 노 래 방","category":"leisure"}]},{"lat":"37.280553672","long":"127.44293357","imageIndex":13,"items":[{"name":"셜록홈즈이천점","tel":"031-638-7704","addr":"경기도 이천시 창전동 159번지","indutype":"레저업소 - 기타레져업소","category":"leisure"}]},{"lat":"37.281823979","long":"127.44778963","imageIndex":13,"items":[{"name":"소라노래연습장","tel":"031-638-3680","addr":"경기도 이천시 창전동 449-25번지","indutype":"레저업소 - 노 래 방","category":"leisure"}]},{"lat":"37.279554011","long":"127.44762969","imageIndex":13,"items":[{"name":"쇼킹노래연습장","tel":"031-631-2911","addr":"경기도 이천시 창전동 464-36번지 2층","indutype":"레저업소 - 노 래 방","category":"leisure"}]},{"lat":"37.280517784","long":"127.44771429","imageIndex":13,"items":[{"name":"수핫요가","tel":"031-636-4874","addr":"경기도 이천시 창전동 463-1번지 기성빌딩 4층","indutype":"레저업소 - 헬스클럽","category":"leisure"},{"name":"역전당구장","tel":"031-634-3005","addr":"경기도 이천시 창전동 463-1번지","indutype":"레저업소 - 당 구 장","category":"leisure"},{"name":"한필라테스","tel":"031-636-4874","addr":"경기도 이천시 창전동 463-1번지 기성빌딩 4층","indutype":"레저업소 - 헬스클럽","category":"leisure"}]},{"lat":"37.278436856","long":"127.44760057","imageIndex":13,"items":[{"name":"스위티 PC방","tel":"070-2441-3503","addr":"경기도 이천시 창전동 464-6번지 지하1층","indutype":"레저업소 - 기타레져업소","category":"leisure"}]},{"lat":"37.280414157","long":"127.44410543","imageIndex":13,"items":[{"name":"신개콘노래방","tel":"031-638-1582","addr":"경기도 이천시 창전동 160-2번지","indutype":"레저업소 - 노 래 방","category":"leisure"}]},{"lat":"37.280412817","long":"127.44926973","imageIndex":13,"items":[{"name":"신나는노래연습장","tel":"031-633-8448","addr":"경기도 이천시 창전동 461-7번지","indutype":"레저업소 - 노 래 방","category":"leisure"}]},{"lat":"37.2808857","long":"127.44329633","imageIndex":13,"items":[{"name":"신바람노래연습장","tel":"031-635-8180","addr":"경기도 이천시 창전동 158-15번지","indutype":"레저업소 - 노 래 방","category":"leisure"}]},{"lat":"37.280942149","long":"127.44265393","imageIndex":13,"items":[{"name":"실버노래연습장","tel":"031-635-1265","addr":"경기도 이천시 창전동 157-10번지 지하","indutype":"레저업소 - 노 래 방","category":"leisure"}]},{"lat":"37.280330585","long":"127.44477022","imageIndex":13,"items":[{"name":"심심푸리 만화카페","tel":"031-111-1111","addr":"경기도 이천시 창전동 161-4번지 3층","indutype":"레저업소 - 기타레져업소","category":"leisure"}]},{"lat":"37.280577258","long":"127.44627134","imageIndex":13,"items":[{"name":"싱가폴가요 노래연습장","tel":"02-1577-0000","addr":"경기도 이천시 창전동 164-2번지 동남빌딩 지하층 101호","indutype":"레저업소 - 노 래 방","category":"leisure"}]},{"lat":"37.28002454","long":"127.4446895","imageIndex":13,"items":[{"name":"아이센스리그PC방 이천로데오점","tel":"070-3768-5005","addr":"경기도 이천시 창전동 160-14번지 3층","indutype":"레저업소 - 기타레져업소","category":"leisure"}]},{"lat":"37.279605951","long":"127.44579206","imageIndex":13,"items":[{"name":"악쓰는하마 코인노래연습장","tel":"070-4155-8964","addr":"경기도 이천시 창전동 167-19번지 가동 3호","indutype":"레저업소 - 노 래 방","category":"leisure"}]},{"lat":"37.280601727","long":"127.44454629","imageIndex":13,"items":[{"name":"악쓰는하마노래연습장","tel":"070-4155-8964","addr":"경기도 이천시 창전동 162-10번지","indutype":"레저업소 - 노 래 방","category":"leisure"}]},{"lat":"37.279991132","long":"127.44879366","imageIndex":13,"items":[{"name":"에반필라테스","tel":"031-631-7748","addr":"경기도 이천시 창전동 462-7번지","indutype":"레저업소 - 헬스클럽","category":"leisure"}]},{"lat":"37.278824286","long":"127.44760285","imageIndex":13,"items":[{"name":"에이스노래연습장","tel":"031-635-0589","addr":"경기도 이천시 창전동 464-3번지 지하1층","indutype":"레저업소 - 노 래 방","category":"leisure"}]},{"lat":"37.28466416","long":"127.44726509","imageIndex":13,"items":[{"name":"올킬 이엠에스 (EMS)","tel":"031-636-4119","addr":"경기도 이천시 창전동 438-15번지 2층","indutype":"레저업소 - 헬스클럽","category":"leisure"}]},{"lat":"37.281520548","long":"127.44218371","imageIndex":13,"items":[{"name":"와우굿당구클럽","tel":"","addr":"경기도 이천시 창전동 151-17번지 2층","indutype":"레저업소 - 당 구 장","category":"leisure"}]},{"lat":"37.279990679","long":"127.44651596","imageIndex":13,"items":[{"name":"우리동네pc방","tel":"031-764-8672","addr":"경기도 이천시 창전동 165-1번지 이천IS타워빌딩 지층 B101호","indutype":"레저업소 - 기타레져업소","category":"leisure"},{"name":"이즈노래연습장","tel":"","addr":"경기도 이천시 창전동 165-1번지 이천IS타워빌딩 203호","indutype":"레저업소 - 노 래 방","category":"leisure"},{"name":"필라테스 율","tel":"070-8838-1027","addr":"경기도 이천시 창전동 165-1번지 이천IS타워빌딩 8층 803호","indutype":"레저업소 - 헬스클럽","category":"leisure"}]},{"lat":"37.284739454","long":"127.44640852","imageIndex":13,"items":[{"name":"유니넷pc방","tel":"031-0000-0000","addr":"경기도 이천시 창전동 438번지 2층","indutype":"레저업소 - 기타레져업소","category":"leisure"}]},{"lat":"37.28204572","long":"127.44148765","imageIndex":13,"items":[{"name":"준 오브 주짓수 킥봉싱","tel":"031-631-8353","addr":"경기도 이천시 창전동 152-7번지 1층","indutype":"레저업소 - 헬스클럽","category":"leisure"}]},{"lat":"37.278634991","long":"127.44762428","imageIndex":13,"items":[{"name":"쥬얼리노래연습장","tel":"031-638-5030","addr":"경기도 이천시 창전동 464-35번지","indutype":"레저업소 - 노 래 방","category":"leisure"}]},{"lat":"37.279830864","long":"127.44588359","imageIndex":13,"items":[{"name":"짱짱노래연습장","tel":"031-633-3191","addr":"경기도 이천시 창전동 167-21번지","indutype":"레저업소 - 노 래 방","category":"leisure"}]},{"lat":"37.2814676","long":"127.44671632","imageIndex":13,"items":[{"name":"창전점PC존","tel":"031-638-8234","addr":"경기도 이천시 창전동 147번지 2층","indutype":"레저업소 - 기타레져업소","category":"leisure"}]},{"lat":"37.279913055","long":"127.44799263","imageIndex":13,"items":[{"name":"쾅쾅노래연습장","tel":"031-636-9100","addr":"경기도 이천시 창전동 462-13번지","indutype":"레저업소 - 노 래 방","category":"leisure"}]},{"lat":"37.279601262","long":"127.44704363","imageIndex":13,"items":[{"name":"쿨노래연습장","tel":"031-633-4560","addr":"경기도 이천시 창전동 464-29번지 202호","indutype":"레저업소 - 노 래 방","category":"leisure"}]},{"lat":"37.279714788","long":"127.44560102","imageIndex":13,"items":[{"name":"프로포즈노래연습장","tel":"031-635-5246","addr":"경기도 이천시 창전동 167-12번지","indutype":"레저업소 - 노 래 방","category":"leisure"}]},{"lat":"37.283634818","long":"127.4478454","imageIndex":13,"items":[{"name":"필라테스 진","tel":"","addr":"경기도 이천시 창전동 449-16번지","indutype":"레저업소 - 헬스클럽","category":"leisure"}]},{"lat":"37.279051737","long":"127.44701785","imageIndex":13,"items":[{"name":"해피로PC방 이천로데오점","tel":"","addr":"경기도 이천시 창전동 464-25번지 2층 201호","indutype":"레저업소 - 기타레져업소","category":"leisure"}]},{"lat":"37.284217085","long":"127.44634907","imageIndex":13,"items":[{"name":"호빵맨노래연습장","tel":"031-633-0144","addr":"경기도 이천시 창전동 435-17번지","indutype":"레저업소 - 노 래 방","category":"leisure"}]},{"lat":"37.280470681","long":"127.4410162","imageIndex":13,"items":[{"name":"희성노래연습장","tel":"031-635-6689","addr":"경기도 이천시 창전동 155-2번지","indutype":"레저업소 - 노 래 방","category":"leisure"}]},{"lat":"37.284413234","long":"127.44690277","imageIndex":13,"items":[{"name":"히든싱어 노래연습장","tel":"031-638-1500","addr":"경기도 이천시 창전동 438-21번지 2층","indutype":"레저업소 - 노 래 방","category":"leisure"}]}]