[{"lat":"37.837092429","long":"127.27021801","imageIndex":17,"items":[{"name":"(신)고려판넬","tel":"031-531-6681","addr":"경기도 포천시 내촌면 신팔리 302-1","indutype":"건축자재 - 기타건축자재","category":"other"}]},{"lat":"37.828205125","long":"127.27199198","imageIndex":17,"items":[{"name":"(주)베어스캠프","tel":"031-532-2188","addr":"경기도 포천시 내촌면 신팔리 338-6번지 나동","indutype":"레져용품 - 스포츠·레져용품","category":"other"}]},{"lat":"37.84717085","long":"127.27935502","imageIndex":17,"items":[{"name":"1009 중고골프","tel":"031-574-3250","addr":"경기도 포천시 내촌면 신팔리 69-3번지","indutype":"레져용품 - 골프용품 전문점","category":"other"}]},{"lat":"37.831398764","long":"127.26609682","imageIndex":17,"items":[{"name":"광일종합주방","tel":"031-536-2405","addr":"경기도 포천시 내촌면 신팔리 376-8번지","indutype":"주방용구 - 주방용구","category":"other"}]},{"lat":"37.847336132","long":"127.28185518","imageIndex":17,"items":[{"name":"금호냉동주방기기","tel":"031-585-5592","addr":"경기도 포천시 내촌면 신팔리 61-1번지","indutype":"전기제품 - 냉열기기","category":"other"}]},{"lat":"37.83486952","long":"127.26915354","imageIndex":17,"items":[{"name":"나리농장","tel":"031-551-1237","addr":"경기도 포천시 내촌면 신팔리 321-8번지","indutype":"문화.취미 - 화원","category":"other"}]},{"lat":"37.843476428","long":"127.27573978","imageIndex":17,"items":[{"name":"대한불교 삼론종 구월암","tel":"031-534-9008","addr":"경기도 포천시 내촌면 신팔리 106-2번지","indutype":"기타 - 비영리/대상","category":"other"}]},{"lat":"37.843701028","long":"127.27601328","imageIndex":17,"items":[{"name":"예원사","tel":"031-534-9008","addr":"경기도 포천시 내촌면 신팔리 106-1","indutype":"기타 - 비영리/대상","category":"other"}]},{"lat":"37.829673776","long":"127.2639325","imageIndex":17,"items":[{"name":"오행웰빙하우스포천","tel":"535-3804","addr":"경기도 포천시 내촌면 신팔리 348번지 나동","indutype":"서비스 - 건강","category":"other"}]},{"lat":"37.841200417","long":"127.27034645","imageIndex":17,"items":[{"name":"태안","tel":"031-531-0301","addr":"경기도 포천시 내촌면 신팔리 271-12번지 가나다","indutype":"기타 - 기계공구","category":"other"}]},{"lat":"37.839782125","long":"127.27202267","imageIndex":17,"items":[{"name":"편의점","tel":"031-534-8403","addr":"경기도 포천시 내촌면 신팔리 282-2","indutype":"신변잡화 - 기타잡화","category":"other"}]}]