[{"lat":"37.250132374","long":"127.01342069","imageIndex":7,"items":[{"name":"100가지반찬","tel":"031-241-0389","addr":"경기도 수원시 권선구 세류동 1139-7번지","indutype":"음료식품 - 기타음료식품","category":"food"},{"name":"건강박사자연인","tel":"031-233-4100","addr":"경기도 수원시 권선구 세류동 1139-7번지 1층","indutype":"건강식품 - 기타건강식품","category":"food"}]},{"lat":"37.257736811","long":"127.01605951","imageIndex":7,"items":[{"name":"Min''s caron","tel":"","addr":"경기도 수원시 권선구 세류동 870-28번지 101호","indutype":"음료식품 - 기타음료식품","category":"food"}]},{"lat":"37.255132464","long":"127.01903489","imageIndex":7,"items":[{"name":"가능골정육점","tel":"031-223-1620","addr":"경기도 수원시 권선구 세류동 1082-9번지","indutype":"음료식품 - 정육점","category":"food"}]},{"lat":"37.249654653","long":"127.01522403","imageIndex":7,"items":[{"name":"강원기름집","tel":"031-221-3577","addr":"경기도 수원시 권선구 세류동 1132-24번지","indutype":"음료식품 - 기타음료식품","category":"food"}]},{"lat":"37.250159455","long":"127.01283458","imageIndex":7,"items":[{"name":"개미떡방앗간","tel":"031-232-5552","addr":"경기도 수원시 권선구 세류동 976-11번지","indutype":"음료식품 - 제과점","category":"food"}]},{"lat":"37.253546731","long":"127.01842587","imageIndex":7,"items":[{"name":"건일정육점","tel":"031-233-8884","addr":"경기도 수원시 권선구 세류동 1104-18번지","indutype":"음료식품 - 정육점","category":"food"}]},{"lat":"37.249402432","long":"127.01455898","imageIndex":7,"items":[{"name":"경북청과","tel":"031-237-0789","addr":"경기도 수원시 권선구 세류동 1132-29번지 101호","indutype":"음료식품 - 농·축·수산품","category":"food"}]},{"lat":"37.259151909","long":"127.01061504","imageIndex":7,"items":[{"name":"경은유통","tel":"031-239-5664","addr":"경기도 수원시 권선구 세류동 473-1번지","indutype":"음료식품 - 기타음료식품","category":"food"}]},{"lat":"37.256070509","long":"127.0083941","imageIndex":7,"items":[{"name":"경일상사","tel":"031-000-0000","addr":"경기도 수원시 권선구 세류동 453-2번지","indutype":"음료식품 - 농·축·수산품","category":"food"}]},{"lat":"37.25973763","long":"127.00978092","imageIndex":7,"items":[{"name":"고기마트","tel":"031-000-0000","addr":"경기도 수원시 권선구 세류동 1255번지 1층 119호 수원권선어울림 세류종합상가","indutype":"음료식품 - 정육점","category":"food"},{"name":"복송이마을","tel":"031-234-3644","addr":"경기도 수원시 권선구 세류동 1255번지 수원권선어울림 114호","indutype":"음료식품 - 농·축·수산품","category":"food"}]},{"lat":"37.258629232","long":"127.01175353","imageIndex":7,"items":[{"name":"고향축산물도매센타","tel":"031-224-0550","addr":"경기도 수원시 권선구 세류동 467-20번지","indutype":"음료식품 - 정육점","category":"food"}]},{"lat":"37.255853809","long":"127.01461634","imageIndex":7,"items":[{"name":"골드 타바코","tel":"","addr":"경기도 수원시 권선구 세류동 1011-13번지 1층","indutype":"음료식품 - 기타음료식품","category":"food"}]},{"lat":"37.255042476","long":"127.01816692","imageIndex":7,"items":[{"name":"골드타바코","tel":"031-282-9380","addr":"경기도 수원시 권선구 세류동 1094-17번지","indutype":"음료식품 - 기타음료식품","category":"food"},{"name":"장수건강원","tel":"031-222-5982","addr":"경기도 수원시 권선구 세류동 1094-17번지 1층","indutype":"건강식품 - 기타건강식품","category":"food"}]},{"lat":"37.264179807","long":"127.0077521","imageIndex":7,"items":[{"name":"과일나라","tel":"031-224-2110","addr":"경기도 수원시 권선구 세류동 230-62번지","indutype":"음료식품 - 농·축·수산품","category":"food"},{"name":"충실한반찬","tel":"031-238-9388","addr":"경기도 수원시 권선구 세류동 230-62번지 1층","indutype":"음료식품 - 기타음료식품","category":"food"}]},{"lat":"37.252519516","long":"127.01873","imageIndex":7,"items":[{"name":"구룡포이모네","tel":"031-255-6797","addr":"경기도 수원시 권선구 세류동 1103-28","indutype":"음료식품 - 농·축·수산품","category":"food"}]},{"lat":"37.254294868","long":"127.01611527","imageIndex":7,"items":[{"name":"굿타바코","tel":"","addr":"경기도 수원시 권선구 세류동 1110번지 1층","indutype":"음료식품 - 기타음료식품","category":"food"}]},{"lat":"37.259323229","long":"127.00839434","imageIndex":7,"items":[{"name":"그때그떡","tel":"031-223-0553","addr":"경기도 수원시 권선구 세류동 444번지 1층 102호","indutype":"음료식품 - 제과점","category":"food"}]},{"lat":"37.259458414","long":"127.00767289","imageIndex":7,"items":[{"name":"글로리","tel":"","addr":"경기도 수원시 권선구 세류동 256-13번지","indutype":"음료식품 - 기타음료식품","category":"food"}]},{"lat":"37.250627377","long":"127.01852672","imageIndex":7,"items":[{"name":"금산인삼","tel":"031-223-4115","addr":"경기도 수원시 권선구 세류동 1121-4번지 리치타워 101호","indutype":"건강식품 - 홍삼제품","category":"food"}]},{"lat":"37.263630023","long":"127.01067187","imageIndex":7,"items":[{"name":"까치상사","tel":"031-2111-1111","addr":"경기도 수원시 권선구 세류동 91-11","indutype":"음료식품 - 기타음료식품","category":"food"}]},{"lat":"37.25879147","long":"127.01100955","imageIndex":7,"items":[{"name":"남문청과","tel":"031-111-1111","addr":"경기도 수원시 권선구 세류동 470-3번지 103호","indutype":"음료식품 - 농·축·수산품","category":"food"}]},{"lat":"37.255124142","long":"127.01277888","imageIndex":7,"items":[{"name":"남양식품","tel":"031-236-1478","addr":"경기도 수원시 권선구 세류동 1021-56번지","indutype":"음료식품 - 기타음료식품","category":"food"}]},{"lat":"37.251547119","long":"127.01189923","imageIndex":7,"items":[{"name":"노마진아이스크림","tel":"031-227-8245","addr":"경기도 수원시 권선구 세류동 981-3번지","indutype":"음료식품 - 기타음료식품","category":"food"}]},{"lat":"37.253655832","long":"127.0060381","imageIndex":7,"items":[{"name":"노점및행사장","tel":"031-000-0000","addr":"경기도 수원시 권선구 세류동 422-1번지","indutype":"음료식품 - 농·축·수산품","category":"food"}]},{"lat":"37.255348587","long":"127.01992543","imageIndex":7,"items":[{"name":"녹색건강식품","tel":"031-000-0000","addr":"경기도 수원시 권선구 세류동 1081-10번지 1층","indutype":"건강식품 - 기타건강식품","category":"food"}]},{"lat":"37.25993603","long":"127.00541836","imageIndex":7,"items":[{"name":"농민마트(정육)","tel":"031-229-3939","addr":"경기도 수원시 권선구 세류동 218-2번지","indutype":"음료식품 - 정육점","category":"food"}]},{"lat":"37.257575057","long":"127.01133632","imageIndex":7,"items":[{"name":"농업회사법인 일영팜 주식회사","tel":"031-222-0800","addr":"경기도 수원시 권선구 세류동 466-3번지","indutype":"음료식품 - 농·축·수산품","category":"food"}]},{"lat":"37.259656363","long":"127.01230601","imageIndex":7,"items":[{"name":"뉴독일제과점","tel":"031-232-1772","addr":"경기도 수원시 권선구 세류동 478-2번지","indutype":"음료식품 - 제과점","category":"food"},{"name":"딩동댕","tel":"031-222-0330","addr":"경기도 수원시 권선구 세류동 478-2번지 1층","indutype":"음료식품 - 농·축·수산품","category":"food"}]},{"lat":"37.262539808","long":"127.01019828","imageIndex":7,"items":[{"name":"다올유통","tel":"031-327-1256","addr":"경기도 수원시 권선구 세류동 324-2번지 203호","indutype":"음료식품 - 기타음료식품","category":"food"}]},{"lat":"37.248961133","long":"127.01222578","imageIndex":7,"items":[{"name":"달소돼정육센타","tel":"031-236-7484","addr":"경기도 수원시 권선구 세류동 587-3번지","indutype":"음료식품 - 정육점","category":"food"}]},{"lat":"37.259908856","long":"127.00922857","imageIndex":7,"items":[{"name":"대명상회","tel":"031-223-5080","addr":"경기도 수원시 권선구 세류동 352-9번지 세류상가제1호점포","indutype":"음료식품 - 농·축·수산품","category":"food"},{"name":"선진유통","tel":"031-235-1280","addr":"경기도 수원시 권선구 세류동 352-9번지","indutype":"음료식품 - 기타음료식품","category":"food"}]},{"lat":"37.260152146","long":"127.00900313","imageIndex":7,"items":[{"name":"대박유통","tel":"031-234-5512","addr":"경기도 수원시 권선구 세류동 352-1번지","indutype":"음료식품 - 기타음료식품","category":"food"}]},{"lat":"37.254880961","long":"127.01152765","imageIndex":7,"items":[{"name":"대박축산","tel":"031-238-3478","addr":"경기도 수원시 권선구 세류동 1023-4번지 1층 2호","indutype":"음료식품 - 정육점","category":"food"}]},{"lat":"37.260990005","long":"127.01069414","imageIndex":7,"items":[{"name":"동대문시장","tel":"031-237-8429","addr":"경기도 수원시 권선구 세류동 350번지 무한홈타운 1층 102호","indutype":"음료식품 - 농·축·수산품","category":"food"}]},{"lat":"37.251213731","long":"127.01197809","imageIndex":7,"items":[{"name":"동성건강원","tel":"031-237-8149","addr":"경기도 수원시 권선구 세류동 980-25번지","indutype":"건강식품 - 기타건강식품","category":"food"}]},{"lat":"37.255187347","long":"127.01103171","imageIndex":7,"items":[{"name":"드림복권방","tel":"031-232-3627","addr":"경기도 수원시 권선구 세류동 459-16번지","indutype":"음료식품 - 기타음료식품","category":"food"}]},{"lat":"37.251015002","long":"127.01708405","imageIndex":7,"items":[{"name":"드림수산유통","tel":"","addr":"경기도 수원시 권선구 세류동 1124-8번지 엠하우스2 403호","indutype":"음료식품 - 농·축·수산품","category":"food"}]},{"lat":"37.258574788","long":"127.01589057","imageIndex":7,"items":[{"name":"디저트스튜디오","tel":"031-234-6126","addr":"경기도 수원시 권선구 세류동 868-32번지 1층","indutype":"음료식품 - 제과점","category":"food"}]},{"lat":"37.24813199","long":"127.01442354","imageIndex":7,"items":[{"name":"뚜레쥬르 수원세류미영(2)","tel":"031-223-0199","addr":"경기도 수원시 권선구 세류동 1147번지 101-1,101-2호","indutype":"음료식품 - 제과점","category":"food"},{"name":"뚜레쥬르미영점","tel":"031-223-0199","addr":"경기도 수원시 권선구 세류동 1147 미영상가101-1,101-2","indutype":"음료식품 - 제과점","category":"food"}]},{"lat":"37.258512249","long":"127.00942008","imageIndex":7,"items":[{"name":"롯데유통","tel":"031-223-5842","addr":"경기도 수원시 권선구 세류동 360-8번지","indutype":"음료식품 - 기타음료식품","category":"food"}]},{"lat":"37.253547187","long":"127.0144469","imageIndex":7,"items":[{"name":"마하승유통","tel":"031-225-4540","addr":"경기도 수원시 권선구 세류동 1006-6번지","indutype":"음료식품 - 기타음료식품","category":"food"}]},{"lat":"37.255961736","long":"127.01645373","imageIndex":7,"items":[{"name":"말랑카롱","tel":"070-7539-8939","addr":"경기도 수원시 권선구 세류동 1089-20번지 1층","indutype":"음료식품 - 제과점","category":"food"}]},{"lat":"37.254186514","long":"127.01803148","imageIndex":7,"items":[{"name":"매일유업남부특약점","tel":"031-000-0000","addr":"경기도 수원시 권선구 세류동 1095-7번지 101호","indutype":"음료식품 - 기타음료식품","category":"food"}]},{"lat":"37.254042516","long":"127.01666755","imageIndex":7,"items":[{"name":"모여라숙희반찬","tel":"","addr":"경기도 수원시 권선구 세류동 1109-27번지 1층","indutype":"음료식품 - 기타음료식품","category":"food"},{"name":"백마산야초건강원","tel":"031-223-9863","addr":"경기도 수원시 권선구 세류동 1109-27번지 1층","indutype":"건강식품 - 기타건강식품","category":"food"}]},{"lat":"37.250240498","long":"127.01342071","imageIndex":7,"items":[{"name":"미래축산","tel":"031-224-0062","addr":"경기도 수원시 권선구 세류동 1139-5번지","indutype":"음료식품 - 정육점","category":"food"}]},{"lat":"37.262963503","long":"127.00473079","imageIndex":7,"items":[{"name":"미평농산","tel":"","addr":"경기도 수원시 권선구 세류동 244-62번지","indutype":"음료식품 - 농·축·수산품","category":"food"}]},{"lat":"37.262601932","long":"127.01955505","imageIndex":7,"items":[{"name":"백세산야초건강원","tel":"031-233-7490","addr":"경기도 수원시 권선구 세류동 817-175번지","indutype":"건강식품 - 기타건강식품","category":"food"}]},{"lat":"37.259097665","long":"127.01302739","imageIndex":7,"items":[{"name":"버드내방앗간","tel":"031-231-9319","addr":"경기도 수원시 권선구 세류동 524-26번지","indutype":"음료식품 - 제과점","category":"food"}]},{"lat":"37.263269755","long":"127.00803388","imageIndex":7,"items":[{"name":"벧엘건강원","tel":"031-224-5827","addr":"경기도 수원시 권선구 세류동 227-7번지","indutype":"건강식품 - 기타건강식품","category":"food"}]},{"lat":"37.255069463","long":"127.01850509","imageIndex":7,"items":[{"name":"보신정육점","tel":"031-238-1806","addr":"경기도 수원시 권선구 세류동 1095번지","indutype":"음료식품 - 정육점","category":"food"}]},{"lat":"37.249907157","long":"127.01294726","imageIndex":7,"items":[{"name":"부광정육점","tel":"031-225-3653","addr":"경기도 수원시 권선구 세류동 975-6번지","indutype":"음료식품 - 정육점","category":"food"}]},{"lat":"37.26099004","long":"127.01014177","imageIndex":7,"items":[{"name":"북수원삼육대리점","tel":"031-237-1429","addr":"경기도 수원시 권선구 세류동 349-7번지 숲예찬 103동 1층층 101,102호","indutype":"음료식품 - 기타음료식품","category":"food"}]},{"lat":"37.254240612","long":"127.0177497","imageIndex":7,"items":[{"name":"불이건강원","tel":"031-236-5701","addr":"경기도 수원시 권선구 세류동 1094-11번지 이레주택그린하우스 101호","indutype":"건강식품 - 기타건강식품","category":"food"}]},{"lat":"37.256042824","long":"127.01649883","imageIndex":7,"items":[{"name":"브리앙뜨과자점","tel":"031-233-8150","addr":"경기도 수원시 권선구 세류동 1089-19번지","indutype":"음료식품 - 제과점","category":"food"}]},{"lat":"37.252466074","long":"127.01308286","imageIndex":7,"items":[{"name":"비엠(BM)상사","tel":"031-223-5306","addr":"경기도 수원시 권선구 세류동 990-29번지","indutype":"음료식품 - 기타음료식품","category":"food"}]},{"lat":"37.252547328","long":"127.01100888","imageIndex":7,"items":[{"name":"빅버드","tel":"","addr":"경기도 수원시 권선구 세류동 566-5번지 1층 1호","indutype":"음료식품 - 기타음료식품","category":"food"}]},{"lat":"37.257403402","long":"127.01630745","imageIndex":7,"items":[{"name":"사대명가","tel":"031-257-5600","addr":"경기도 수원시 권선구 세류동 870-20번지 1층","indutype":"음료식품 - 미곡상","category":"food"}]},{"lat":"37.2542407","long":"127.01702829","imageIndex":7,"items":[{"name":"사러가정육점","tel":"031-237-8266","addr":"경기도 수원시 권선구 세류동 1093-8번지","indutype":"음료식품 - 정육점","category":"food"}]},{"lat":"37.246465169","long":"127.01347653","imageIndex":7,"items":[{"name":"삼성 VT&C","tel":"031-245-1009","addr":"경기도 수원시 권선구 세류동 1144-5번지","indutype":"음료식품 - 기타음료식품","category":"food"}]},{"lat":"37.256989375","long":"127.01150534","imageIndex":7,"items":[{"name":"상록건강원","tel":"031-235-3808","addr":"경기도 수원시 권선구 세류동 531-2번지","indutype":"건강식품 - 기타건강식품","category":"food"}]},{"lat":"37.249627907","long":"127.01209061","imageIndex":7,"items":[{"name":"새마을담뱃잎","tel":"031-234-3553","addr":"경기도 수원시 권선구 세류동 586-24번지 103호","indutype":"음료식품 - 기타음료식품","category":"food"}]},{"lat":"37.256159954","long":"127.01653267","imageIndex":7,"items":[{"name":"생수흑염소","tel":"031-238-0347","addr":"경기도 수원시 권선구 세류동 1089-5번지","indutype":"건강식품 - 기타건강식품","category":"food"}]},{"lat":"37.253799138","long":"127.01750163","imageIndex":7,"items":[{"name":"서진유통","tel":"031-234-6126","addr":"경기도 수원시 권선구 세류동 1107-17번지","indutype":"음료식품 - 농·축·수산품","category":"food"}]},{"lat":"37.249240299","long":"127.01400667","imageIndex":7,"items":[{"name":"세류신형정육점","tel":"031-232-0388","addr":"경기도 수원시 권선구 세류동 1140-6번지","indutype":"음료식품 - 정육점","category":"food"}]},{"lat":"37.252735638","long":"127.01964305","imageIndex":7,"items":[{"name":"세원건강보조식품","tel":"031-225-1020","addr":"경기도 수원시 권선구 세류동 1101-1번지 2층 세원산부인과","indutype":"건강식품 - 기타건강식품","category":"food"}]},{"lat":"37.254655362","long":"127.01536011","imageIndex":7,"items":[{"name":"수수팥떡","tel":"031-225-3535","addr":"경기도 수원시 권선구 세류동 1012-22번지 1층","indutype":"음료식품 - 제과점","category":"food"}]},{"lat":"37.263818341","long":"127.01942004","imageIndex":7,"items":[{"name":"수원농산","tel":"031-238-3936","addr":"경기도 수원시 권선구 세류동 820-22번지","indutype":"음료식품 - 농·축·수산품","category":"food"}]},{"lat":"37.263377923","long":"127.00689528","imageIndex":7,"items":[{"name":"수원상회","tel":"031-233-3247","addr":"경기도 수원시 권선구 세류동 232-4","indutype":"음료식품 - 제과점","category":"food"}]},{"lat":"37.24929426","long":"127.01503236","imageIndex":7,"items":[{"name":"수원야채","tel":"031-238-5960","addr":"경기도 수원시 권선구 세류동 1132-33번지 103호","indutype":"음료식품 - 농·축·수산품","category":"food"}]},{"lat":"37.257935717","long":"127.00642154","imageIndex":7,"items":[{"name":"수진반찬","tel":"","addr":"경기도 수원시 권선구 세류동 210-5번지 탑캐슬C 1층 101호","indutype":"음료식품 - 기타음료식품","category":"food"}]},{"lat":"37.26221508","long":"127.01463987","imageIndex":7,"items":[{"name":"스타핏","tel":"070-9797-8665","addr":"경기도 수원시 권선구 세류동 147-44번지 2층","indutype":"건강식품 - 기타건강식품","category":"food"}]},{"lat":"37.25396137","long":"127.01711841","imageIndex":7,"items":[{"name":"시골반찬","tel":"031-111-1111","addr":"경기도 수원시 권선구 세류동 1108-16번지 1층","indutype":"음료식품 - 기타음료식품","category":"food"}]},{"lat":"37.258737391","long":"127.01125754","imageIndex":7,"items":[{"name":"시장떡방앗간","tel":"031-234-7807","addr":"경기도 수원시 권선구 세류동 467번지","indutype":"음료식품 - 제과점","category":"food"}]},{"lat":"37.25401525","long":"127.01856123","imageIndex":7,"items":[{"name":"신수원축산","tel":"031-234-5556","addr":"경기도 수원시 권선구 세류동 1097번지 신수원종합시장 지하층 12호","indutype":"음료식품 - 정육점","category":"food"}]},{"lat":"37.249961185","long":"127.01334177","imageIndex":7,"items":[{"name":"신앙촌상회","tel":"031-235-8554","addr":"경기도 수원시 권선구 세류동 1139-24번지","indutype":"음료식품 - 기타음료식품","category":"food"}]},{"lat":"37.253682868","long":"127.00586902","imageIndex":7,"items":[{"name":"쌍둥이네 생선","tel":"","addr":"경기도 수원시 권선구 세류동 419-7번지 삼성아트빌 B동 502호","indutype":"음료식품 - 농·축·수산품","category":"food"}]},{"lat":"37.263737862","long":"127.01420045","imageIndex":7,"items":[{"name":"쎄븐중부축산","tel":"031-223-2171","addr":"경기도 수원시 권선구 세류동 130번지","indutype":"음료식품 - 정육점","category":"food"}]},{"lat":"37.256322168","long":"127.01628471","imageIndex":7,"items":[{"name":"어머니떡방앗간","tel":"031-232-6046","addr":"경기도 수원시 권선구 세류동 876-10번지","indutype":"음료식품 - 제과점","category":"food"}]},{"lat":"37.258935877","long":"127.00581287","imageIndex":7,"items":[{"name":"영광모싯잎떡","tel":"","addr":"경기도 수원시 권선구 세류동 212-5번지 202호","indutype":"음료식품 - 제과점","category":"food"}]},{"lat":"37.249321303","long":"127.01491965","imageIndex":7,"items":[{"name":"영신정육점","tel":"031-235-5545","addr":"경기도 수원시 권선구 세류동 1132-31번지","indutype":"음료식품 - 정육점","category":"food"}]},{"lat":"37.257069889","long":"127.01742335","imageIndex":7,"items":[{"name":"온누리로또","tel":"","addr":"경기도 수원시 권선구 세류동 1075-2번지 1층 102호","indutype":"음료식품 - 기타음료식품","category":"food"}]},{"lat":"37.250492793","long":"127.01334184","imageIndex":7,"items":[{"name":"온리꼬끄","tel":"","addr":"경기도 수원시 권선구 세류동 974-3번지 1층","indutype":"음료식품 - 기타음료식품","category":"food"}]},{"lat":"37.256484986","long":"127.00833777","imageIndex":7,"items":[{"name":"와글와글농산","tel":"031-226-2985","addr":"경기도 수원시 권선구 세류동 451-9번지 영덕빌리지 103호","indutype":"음료식품 - 농·축·수산품","category":"food"}]},{"lat":"37.252069265","long":"127.01661083","imageIndex":7,"items":[{"name":"우일건강원","tel":"031-234-3356","addr":"경기도 수원시 권선구 세류동 1116-14번지","indutype":"건강식품 - 기타건강식품","category":"food"}]},{"lat":"37.257214544","long":"127.01264388","imageIndex":7,"items":[{"name":"운영상회","tel":"031-291-1170","addr":"경기도 수원시 권선구 세류동 530-5번지 2층","indutype":"음료식품 - 농·축·수산품","category":"food"}]},{"lat":"37.248320893","long":"127.01728642","imageIndex":7,"items":[{"name":"웅조네방앗간","tel":"070-4191-3485","addr":"경기도 수원시 권선구 세류동 1150-17번지 지하","indutype":"음료식품 - 제과점","category":"food"}]},{"lat":"37.253097168","long":"127.00686092","imageIndex":7,"items":[{"name":"웅진유통","tel":"031-237-9600","addr":"경기도 수원시 권선구 세류동 671-2번지","indutype":"음료식품 - 기타음료식품","category":"food"}]},{"lat":"37.256880579","long":"127.01816729","imageIndex":7,"items":[{"name":"워터피아(한미실업)","tel":"031-221-6677","addr":"경기도 수원시 권선구 세류동 1075-7번지 102호","indutype":"음료식품 - 기타음료식품","category":"food"}]},{"lat":"37.256097336","long":"127.01175323","imageIndex":7,"items":[{"name":"육일방앗간","tel":"031-235-5682","addr":"경기도 수원시 권선구 세류동 533-2번지","indutype":"음료식품 - 제과점","category":"food"}]},{"lat":"37.251600718","long":"127.01670092","imageIndex":7,"items":[{"name":"은관농장","tel":"03-638-7275","addr":"경기도 수원시 권선구 세류동 1117-16번지","indutype":"음료식품 - 농·축·수산품","category":"food"}]},{"lat":"37.258431304","long":"127.0056663","imageIndex":7,"items":[{"name":"은매화농산","tel":"031-221-7779","addr":"경기도 수원시 권선구 세류동 212-14번지 1층","indutype":"음료식품 - 농·축·수산품","category":"food"}]},{"lat":"37.25173657","long":"127.00795419","imageIndex":7,"items":[{"name":"은혜농장","tel":"031-222-6180","addr":"경기도 수원시 권선구 세류동 656-7번지","indutype":"음료식품 - 농·축·수산품","category":"food"}]},{"lat":"37.261738022","long":"127.00763922","imageIndex":7,"items":[{"name":"이담소아청소년과(식품)","tel":"031-237-7588","addr":"경기도 수원시 권선구 세류동 339-1번지","indutype":"건강식품 - 기타건강식품","category":"food"}]},{"lat":"37.259683343","long":"127.01292602","imageIndex":7,"items":[{"name":"이백프로건강원","tel":"","addr":"경기도 수원시 권선구 세류동 498-2번지 1층","indutype":"건강식품 - 기타건강식품","category":"food"}]},{"lat":"37.258989439","long":"127.01416592","imageIndex":7,"items":[{"name":"자연을담다","tel":"","addr":"경기도 수원시 권선구 세류동 517-13번지 301호","indutype":"음료식품 - 농·축·수산품","category":"food"}]},{"lat":"37.253907927","long":"127.01036653","imageIndex":7,"items":[{"name":"자연주의베이커리","tel":"031-292-9823","addr":"경기도 수원시 권선구 세류동 543-4번지 1층","indutype":"음료식품 - 제과점","category":"food"}]},{"lat":"37.262963517","long":"127.00300598","imageIndex":7,"items":[{"name":"장수농산","tel":"031-9811-6775","addr":"경기도 수원시 권선구 세류동 181-3번지 1층 101호","indutype":"음료식품 - 농·축·수산품","category":"food"}]},{"lat":"37.259043852","long":"127.00951031","imageIndex":7,"items":[{"name":"장수마을보양원","tel":"031-233-5601","addr":"경기도 수원시 권선구 세류동 360-1번지","indutype":"건강식품 - 기타건강식품","category":"food"}]},{"lat":"37.24946564","long":"127.01308246","imageIndex":7,"items":[{"name":"장원떡집","tel":"031-233-0591","addr":"경기도 수원시 권선구 세류동 1141번지 1층","indutype":"음료식품 - 제과점","category":"food"},{"name":"팔팔건강원","tel":"031-237-7404","addr":"경기도 수원시 권선구 세류동 1141번지","indutype":"건강식품 - 기타건강식품","category":"food"}]},{"lat":"37.263846441","long":"127.00736879","imageIndex":7,"items":[{"name":"전민철소아청소년과","tel":"031-267-2277","addr":"경기도 수원시 권선구 세류동 230-45번지","indutype":"건강식품 - 기타건강식품","category":"food"}]},{"lat":"37.261765072","long":"127.00712065","imageIndex":7,"items":[{"name":"점핑다이어트 2호점","tel":"","addr":"경기도 수원시 권선구 세류동 1277-2번지 4층 401호","indutype":"건강식품 - 기타건강식품","category":"food"},{"name":"파리바게트 (수원세류LH)","tel":"031-238-0045","addr":"경기도 수원시 권선구 세류동 1277-2번지 지하1층, 1층 105호","indutype":"음료식품 - 제과점","category":"food"}]},{"lat":"37.255267983","long":"127.0160929","imageIndex":7,"items":[{"name":"정직한 축산","tel":"031-235-5855","addr":"경기도 수원시 권선구 세류동 1090-4번지","indutype":"음료식품 - 정육점","category":"food"}]},{"lat":"37.253042539","long":"127.01514568","imageIndex":7,"items":[{"name":"정직한우","tel":"031-233-7724","addr":"경기도 수원시 권선구 세류동 1112-7번지","indutype":"음료식품 - 정육점","category":"food"}]},{"lat":"37.255853868","long":"127.01400764","imageIndex":7,"items":[{"name":"제일건강원","tel":"031-221-4833","addr":"경기도 수원시 권선구 세류동 1018-44번지","indutype":"건강식품 - 기타건강식품","category":"food"}]},{"lat":"37.256430034","long":"127.01839265","imageIndex":7,"items":[{"name":"제일상회","tel":"031-232-2012","addr":"경기도 수원시 권선구 세류동 1085-12번지","indutype":"음료식품 - 미곡상","category":"food"}]},{"lat":"37.251493298","long":"127.0077851","imageIndex":7,"items":[{"name":"주식회사 연미향","tel":"02-543-7500","addr":"경기도 수원시 권선구 세류동 652-4번지 1층","indutype":"음료식품 - 기타음료식품","category":"food"}]},{"lat":"37.259548313","long":"127.01133654","imageIndex":7,"items":[{"name":"주식회사도을축산미트","tel":"031-222-1619","addr":"경기도 수원시 권선구 세류동 475-2번지","indutype":"음료식품 - 정육점","category":"food"}]},{"lat":"37.253429697","long":"127.01764809","imageIndex":7,"items":[{"name":"중국식잡점","tel":"031-225-2088","addr":"경기도 수원시 권선구 세류동 1105-1번지","indutype":"음료식품 - 기타음료식품","category":"food"}]},{"lat":"37.246987793","long":"127.01319483","imageIndex":7,"items":[{"name":"중국식품","tel":"031-221-3761","addr":"경기도 수원시 권선구 세류동 1143-9번지 101호","indutype":"음료식품 - 기타음료식품","category":"food"}]},{"lat":"37.252880384","long":"127.01484131","imageIndex":7,"items":[{"name":"중국식품","tel":"","addr":"경기도 수원시 권선구 세류동 1112-9번지 1층 101호","indutype":"음료식품 - 기타음료식품","category":"food"}]},{"lat":"37.257601616","long":"127.01642021","imageIndex":7,"items":[{"name":"중국식품","tel":"031-892-7520","addr":"경기도 수원시 권선구 세류동 873-2번지","indutype":"음료식품 - 기타음료식품","category":"food"}]},{"lat":"37.251988579","long":"127.01247413","imageIndex":7,"items":[{"name":"중국식품","tel":"02-1577-0000","addr":"경기도 수원시 권선구 세류동 980-116번지 1층 101호","indutype":"음료식품 - 기타음료식품","category":"food"}]},{"lat":"37.24968188","long":"127.01317266","imageIndex":7,"items":[{"name":"중국식품","tel":"070-8185-3451","addr":"경기도 수원시 권선구 세류동 1139-22번지 1층","indutype":"음료식품 - 기타음료식품","category":"food"},{"name":"충무유통","tel":"031-223-8941","addr":"경기도 수원시 권선구 세류동 1139-22번지","indutype":"음료식품 - 농·축·수산품","category":"food"}]},{"lat":"37.254042483","long":"127.01694935","imageIndex":7,"items":[{"name":"중앙청과","tel":"031-221-1841","addr":"경기도 수원시 권선구 세류동 1108번지","indutype":"음료식품 - 농·축·수산품","category":"food"}]},{"lat":"37.245347801","long":"127.01442311","imageIndex":7,"items":[{"name":"진영농산","tel":"031-237-2625","addr":"경기도 수원시 권선구 세류동 1146-3번지","indutype":"음료식품 - 농·축·수산품","category":"food"}]},{"lat":"37.250321381","long":"127.01556228","imageIndex":7,"items":[{"name":"진우유통","tel":"031-234-2242","addr":"경기도 수원시 권선구 세류동 1131-18번지 삼우빌라 302호","indutype":"음료식품 - 기타음료식품","category":"food"}]},{"lat":"37.252736764","long":"127.00661292","imageIndex":7,"items":[{"name":"착한탕국","tel":"031-394-9482","addr":"경기도 수원시 권선구 세류동 674-1번지 1층","indutype":"음료식품 - 기타음료식품","category":"food"}]},{"lat":"37.259296192","long":"127.00850706","imageIndex":7,"items":[{"name":"찾아가는 베이커리","tel":"031-221-7381","addr":"경기도 수원시 권선구 세류동 444-15번지 지하1층","indutype":"음료식품 - 제과점","category":"food"}]},{"lat":"37.253961895","long":"127.01173043","imageIndex":7,"items":[{"name":"천지면인","tel":"070-8886-5001","addr":"경기도 수원시 권선구 세류동 1029-3번지 8층 805호","indutype":"건강식품 - 기타건강식품","category":"food"}]},{"lat":"37.258764678","long":"127.00594813","imageIndex":7,"items":[{"name":"카페로잼","tel":"","addr":"경기도 수원시 권선구 세류동 212-8번지 1층","indutype":"음료식품 - 기타음료식품","category":"food"}]},{"lat":"37.259845568","long":"127.01245258","imageIndex":7,"items":[{"name":"콩애반애(세류점)","tel":"031-232-4713","addr":"경기도 수원시 권선구 세류동 478-1번지 1층","indutype":"음료식품 - 기타음료식품","category":"food"}]},{"lat":"37.249348358","long":"127.01467169","imageIndex":7,"items":[{"name":"클라우드","tel":"031-000-0000","addr":"경기도 수원시 권선구 세류동 1132-38번지 1층","indutype":"음료식품 - 농·축·수산품","category":"food"}]},{"lat":"37.247347822","long":"127.01692556","imageIndex":7,"items":[{"name":"키즈푸드","tel":"031-1588-6412","addr":"경기도 수원시 권선구 세류동 1150-9번지","indutype":"음료식품 - 기타음료식품","category":"food"}]},{"lat":"37.262044445","long":"127.00514787","imageIndex":7,"items":[{"name":"태성미트","tel":"","addr":"경기도 수원시 권선구 세류동 252-10번지 1층","indutype":"음료식품 - 정육점","category":"food"}]},{"lat":"37.263098672","long":"127.00294961","imageIndex":7,"items":[{"name":"태양중국식품","tel":"031-223-5168","addr":"경기도 수원시 권선구 세류동 181-5번지 1층 101호","indutype":"음료식품 - 기타음료식품","category":"food"}]},{"lat":"37.255429893","long":"127.0183699","imageIndex":7,"items":[{"name":"트윈스식품","tel":"031-898-7233","addr":"경기도 수원시 권선구 세류동 1084-7번지","indutype":"음료식품 - 제과점","category":"food"}]},{"lat":"37.257547496","long":"127.01691618","imageIndex":7,"items":[{"name":"파리바게뜨","tel":"031-238-2001","addr":"경기도 수원시 권선구 세류동 881-8번지","indutype":"음료식품 - 제과점","category":"food"}]},{"lat":"37.255628857","long":"127.01095285","imageIndex":7,"items":[{"name":"파리바게트 세류2동점","tel":"031-225-0322","addr":"경기도 수원시 권선구 세류동 459-7번지","indutype":"음료식품 - 제과점","category":"food"}]},{"lat":"37.261214995","long":"127.01403098","imageIndex":7,"items":[{"name":"푸른건강원","tel":"031-222-1304","addr":"경기도 수원시 권선구 세류동 152-96번지","indutype":"건강식품 - 기타건강식품","category":"food"}]},{"lat":"37.260512348","long":"127.01222721","imageIndex":7,"items":[{"name":"푸른정육점","tel":"031-225-6468","addr":"경기도 수원시 권선구 세류동 477번지","indutype":"음료식품 - 정육점","category":"food"}]},{"lat":"37.25607012","long":"127.01395131","imageIndex":7,"items":[{"name":"프르메","tel":"031-221-4594","addr":"경기도 수원시 권선구 세류동 1018-18번지","indutype":"음료식품 - 미곡상","category":"food"}]},{"lat":"37.245131506","long":"127.01489644","imageIndex":7,"items":[{"name":"플라잉더치","tel":"031-0000-0000","addr":"경기도 수원시 권선구 세류동 1146-20번지 1층","indutype":"음료식품 - 기타음료식품","category":"food"}]},{"lat":"37.256070089","long":"127.01427821","imageIndex":7,"items":[{"name":"한방차 불로초마을","tel":"070-7618-0033","addr":"경기도 수원시 권선구 세류동 1018-26번지","indutype":"음료식품 - 기타음료식품","category":"food"}]},{"lat":"37.252519754","long":"127.01683635","imageIndex":7,"items":[{"name":"한우암소전문점","tel":"031-236-1937","addr":"경기도 수원시 권선구 세류동 1116-12번지","indutype":"음료식품 - 정육점","category":"food"}]},{"lat":"37.261765129","long":"127.00497877","imageIndex":7,"items":[{"name":"한토륨경기남부점","tel":"031-225-7089","addr":"경기도 수원시 권선구 세류동 198-8","indutype":"음료식품 - 기타음료식품","category":"food"}]},{"lat":"37.260458273","long":"127.01239629","imageIndex":7,"items":[{"name":"해오름계란유통","tel":"031-278-5009","addr":"경기도 수원시 권선구 세류동 477-4번지","indutype":"음료식품 - 농·축·수산품","category":"food"}]},{"lat":"37.254935091","long":"127.01053571","imageIndex":7,"items":[{"name":"행복한 야채가게","tel":"031-306-5605","addr":"경기도 수원시 권선구 세류동 541-3번지","indutype":"음료식품 - 농·축·수산품","category":"food"}]},{"lat":"37.260214383","long":"127.01822433","imageIndex":7,"items":[{"name":"현대떡사랑","tel":"031-241-3133","addr":"경기도 수원시 권선구 세류동 845번지","indutype":"음료식품 - 제과점","category":"food"}]},{"lat":"37.260602475","long":"127.01192285","imageIndex":7,"items":[{"name":"호용이네반찬","tel":"031-233-2476","addr":"경기도 수원시 권선구 세류동 482-2번지 1층","indutype":"음료식품 - 기타음료식품","category":"food"}]}]