[{"lat":"37.86186034","long":"127.27754621","imageIndex":17,"items":[{"name":"(주)랩하우스","tel":"031-528-5420","addr":"경기도 포천시 화현면 명덕리 121-2번지","indutype":"서적문구 - 과학기자재","category":"other"}]},{"lat":"37.878832375","long":"127.27821164","imageIndex":17,"items":[{"name":"INDI WORKS (인디웍스)","tel":"031-533-9575","addr":"경기도 포천시 화현면 명덕리 203-10번지","indutype":"전기제품 - 냉열기기","category":"other"}]},{"lat":"37.892666503","long":"127.27999117","imageIndex":17,"items":[{"name":"동명산업","tel":"031-531-7654","addr":"경기도 포천시 화현면 명덕리 395-1번지","indutype":"가구 - 기타가구","category":"other"}]},{"lat":"37.888056743","long":"127.27871206","imageIndex":17,"items":[{"name":"두레방석","tel":"031-532-2276","addr":"경기도 포천시 화현면 명덕리 366-1번지","indutype":"직물 - 침구·수예점","category":"other"}]},{"lat":"37.872445083","long":"127.27807421","imageIndex":17,"items":[{"name":"명덕관광농원(블루파크)","tel":"533-6688","addr":"경기도 포천시 화현면 명덕리 179-1번지","indutype":"서비스 - 관광농원","category":"other"},{"name":"씨스페이스포천글램핑점","tel":"031-533-6688","addr":"경기도 포천시 화현면 명덕리 179-1번지","indutype":"유통업 영리 - 편 의 점","category":"other"}]},{"lat":"37.895941644","long":"127.28178839","imageIndex":17,"items":[{"name":"삼경석재","tel":"031-535-5270","addr":"경기도 포천시 화현면 명덕리 422-3","indutype":"건축자재 - 목재·석재·철물","category":"other"}]},{"lat":"37.899748144","long":"127.27599286","imageIndex":17,"items":[{"name":"애플마트","tel":"534-2680","addr":"경기도 포천시 화현면 명덕리 489-1번지","indutype":"소매업 - 잡화","category":"other"}]},{"lat":"37.897220683","long":"127.28190691","imageIndex":17,"items":[{"name":"주식회사 성한개발","tel":"031-544-7983","addr":"경기도 포천시 화현면 명덕리 421-18번지","indutype":"용역 서비스 - 종합용역","category":"other"}]},{"lat":"37.864419184","long":"127.27746479","imageIndex":17,"items":[{"name":"하늘과바람 별 SM","tel":"031-535-0825","addr":"경기도 포천시 화현면 명덕리 106-19번지","indutype":"용역 서비스 - 사무서비스","category":"other"}]},{"lat":"37.886611583","long":"127.28407219","imageIndex":16,"items":[{"name":"농업회사법인 다솔주식회사","tel":"031-528-5651","addr":"경기도 포천시 화현면 명덕리 10-18번지","indutype":"학원 - 기타 교육기관","category":"study"}]},{"lat":"37.895863667","long":"127.27662654","imageIndex":7,"items":[{"name":"농업회사법인 푸른 주식회사","tel":"02-2075-5052","addr":"경기도 포천시 화현면 명덕리 453-16","indutype":"음료식품 - 농·축·수산품","category":"food"}]},{"lat":"37.897890185","long":"127.2768728","imageIndex":7,"items":[{"name":"봉화로쉼터","tel":"031-534-9937","addr":"경기도 포천시 화현면 명덕리 470-11번지","indutype":"음료식품 - 기타음료식품","category":"food"}]},{"lat":"37.888107622","long":"127.27621132","imageIndex":7,"items":[{"name":"오디세이농원","tel":"031-532-8827","addr":"경기도 포천시 화현면 명덕리 352-1번지","indutype":"음료식품 - 농·축·수산품","category":"food"}]},{"lat":"37.863506726","long":"127.27854099","imageIndex":4,"items":[{"name":"단비네","tel":"","addr":"경기도 포천시 화현면 명덕리 109-1번지 1층","indutype":"일반휴게음식 - 일반한식","category":"restaurant"}]},{"lat":"37.905275338","long":"127.27404619","imageIndex":4,"items":[{"name":"덕향","tel":"531-8796","addr":"경기도 포천시 화현면 명덕리 521-2번지","indutype":"음식 - 한식","category":"restaurant"},{"name":"덕향","tel":"","addr":"경기도 포천시 화현면 명덕리 521-2번지","indutype":"음식 - 한식","category":"restaurant"}]},{"lat":"37.884504196","long":"127.27993785","imageIndex":4,"items":[{"name":"동해한식부페","tel":"031-531-2320","addr":"경기도 포천시 화현면 명덕리 44-4번지","indutype":"일반휴게음식 - 일반한식","category":"restaurant"},{"name":"동해한식뷔페","tel":"","addr":"경기도 포천시 화현면 명덕리 44-4번지","indutype":"음식 - 한식","category":"restaurant"}]},{"lat":"37.879003736","long":"127.27813271","imageIndex":4,"items":[{"name":"들밥","tel":"532-1476","addr":"경기도 포천시 화현면 명덕리 203-1번지","indutype":"음식 - 한식","category":"restaurant"},{"name":"들밥","tel":"031-532-1476","addr":"경기도 포천시 화현면 명덕리 203-1번지 1층","indutype":"일반휴게음식 - 일반한식","category":"restaurant"}]},{"lat":"37.893998097","long":"127.27690385","imageIndex":4,"items":[{"name":"려원","tel":"031-535-9535","addr":"경기도 포천시 화현면 명덕리 457-12번지","indutype":"일반휴게음식 - 일반한식","category":"restaurant"},{"name":"려원","tel":"535-9534","addr":"경기도 포천시 화현면 명덕리 457-12번지","indutype":"음식 - 한식","category":"restaurant"}]},{"lat":"37.899030302","long":"127.27473956","imageIndex":4,"items":[{"name":"먹뱅이","tel":"531-1614","addr":"경기도 포천시 화현면 명덕리 485-3번지","indutype":"음식 - 한식","category":"restaurant"},{"name":"먹뱅이","tel":"031-531-1614","addr":"경기도 포천시 화현면 명덕리 485-3번지","indutype":"일반휴게음식 - 일반한식","category":"restaurant"}]},{"lat":"37.899748144","long":"127.27599286","imageIndex":4,"items":[{"name":"명덕생고기","tel":"031-532-1632","addr":"경기도 포천시 화현면 명덕리 489-1번지","indutype":"일반휴게음식 - 일반한식","category":"restaurant"},{"name":"명덕생고기","tel":"532-3215","addr":"경기도 포천시 화현면 명덕리 489-1번지","indutype":"음식 - 한식","category":"restaurant"},{"name":"이모네식당","tel":"031-533-7260","addr":"경기도 포천시 화현면 명덕리 489-1번지","indutype":"일반휴게음식 - 일반한식","category":"restaurant"}]},{"lat":"37.860249347","long":"127.27682432","imageIndex":4,"items":[{"name":"명덕잣나무집","tel":"031-532-9734","addr":"경기도 포천시 화현면 명덕리 132-2","indutype":"일반휴게음식 - 일반한식","category":"restaurant"},{"name":"명덕잣나무집","tel":"532-9734","addr":"경기도 포천시 화현면 명덕리 132-2번지","indutype":"음식 - 한식","category":"restaurant"}]},{"lat":"37.869501578","long":"127.28082496","imageIndex":4,"items":[{"name":"산들물","tel":"031-535-4666","addr":"경기도 포천시 화현면 명덕리 79-9번지 외3필지","indutype":"일반휴게음식 - 일반한식","category":"restaurant"}]},{"lat":"37.862057589","long":"127.27795604","imageIndex":4,"items":[{"name":"산촌가든","tel":"031-531-2028","addr":"경기도 포천시 화현면 명덕리 123-7","indutype":"일반휴게음식 - 일반한식","category":"restaurant"}]},{"lat":"37.870529706","long":"127.28037421","imageIndex":4,"items":[{"name":"왕궁가든","tel":"532-4224","addr":"경기도 포천시 화현면 명덕리 74-16번지","indutype":"음식 - 한식","category":"restaurant"}]},{"lat":"37.901498196","long":"127.27502151","imageIndex":4,"items":[{"name":"우리두리","tel":"534-3525","addr":"경기도 포천시 화현면 명덕리 493-4번지","indutype":"음식 - 한식","category":"restaurant"},{"name":"우리두리","tel":"031-534-3525","addr":"경기도 포천시 화현면 명덕리 493-4번지","indutype":"일반휴게음식 - 일반한식","category":"restaurant"},{"name":"좋은날","tel":"","addr":"경기도 포천시 화현면 명덕리 493-4번지","indutype":"일반휴게음식 - 주점","category":"restaurant"}]},{"lat":"37.900307058","long":"127.27584712","imageIndex":4,"items":[{"name":"유가네생고기","tel":"533-3740","addr":"경기도 포천시 화현면 명덕리 496-2번지","indutype":"음식 - 한식","category":"restaurant"}]},{"lat":"37.878832375","long":"127.27821164","imageIndex":4,"items":[{"name":"인디스토브카페","tel":"031-533-9575","addr":"경기도 포천시 화현면 명덕리 203-10번지 1층","indutype":"일반휴게음식 - 서양음식","category":"restaurant"},{"name":"인디스토브카페","tel":"070-7239-7732","addr":"경기도 포천시 화현면 명덕리 203-10번지 1층","indutype":"일반휴게음식 - 서양음식","category":"restaurant"},{"name":"인디스토브카페","tel":"533-9575","addr":"경기도 포천시 화현면 명덕리 203-10번지","indutype":"음식 - 커피 등","category":"restaurant"}]},{"lat":"37.873388392","long":"127.27921428","imageIndex":4,"items":[{"name":"제주해","tel":"031-533-3151","addr":"경기도 포천시 화현면 명덕리 67-3번지","indutype":"일반휴게음식 - 일반한식","category":"restaurant"}]},{"lat":"37.886557096","long":"127.28045708","imageIndex":4,"items":[{"name":"청다래","tel":"031-532-6007","addr":"경기도 포천시 화현면 명덕리 33-2번지","indutype":"일반휴게음식 - 일반한식","category":"restaurant"}]},{"lat":"37.879166301","long":"127.27796282","imageIndex":4,"items":[{"name":"청림","tel":"031-532-2230","addr":"경기도 포천시 화현면 명덕리 203-11번지","indutype":"일반휴게음식 - 일반한식","category":"restaurant"},{"name":"청림","tel":"532-2230","addr":"경기도 포천시 화현면 명덕리 203-11번지","indutype":"음식 - 한식","category":"restaurant"}]},{"lat":"37.869637173","long":"127.28063226","imageIndex":4,"items":[{"name":"현이네식당","tel":"031-534-2157","addr":"경기도 포천시 화현면 명덕리 79-10번지","indutype":"일반휴게음식 - 일반한식","category":"restaurant"}]},{"lat":"37.897585141","long":"127.27632595","imageIndex":4,"items":[{"name":"혜옥이네","tel":"031-534-4358","addr":"경기도 포천시 화현면 명덕리 469-2번지","indutype":"일반휴게음식 - 일반한식","category":"restaurant"},{"name":"혜옥이네","tel":"534-4358","addr":"경기도 포천시 화현면 명덕리 469-2번지","indutype":"음식 - 한식","category":"restaurant"}]},{"lat":"37.901582948","long":"127.27343003","imageIndex":9,"items":[{"name":"대성종합에너지","tel":"031-532-8819","addr":"경기도 포천시 화현면 명덕리 536번지","indutype":"연료판매점 - LPG 취급점","category":"oil"}]},{"lat":"37.872445083","long":"127.27807421","imageIndex":13,"items":[{"name":"명덕관광농원 (씨스페이스포천글램핑점)","tel":"031-6225-1501","addr":"경기도 포천시 화현면 명덕리 179-1번지 등 11필지","indutype":"레저업소 - 기타레져업소","category":"leisure"}]},{"lat":"37.899748144","long":"127.27599286","imageIndex":7,"items":[{"name":"명덕상회","tel":"031-534-2680","addr":"경기도 포천시 화현면 명덕리 489-1","indutype":"유통업 영리 - 슈퍼마켓","category":"mart"}]},{"lat":"37.868998908","long":"127.28003889","imageIndex":7,"items":[{"name":"헬로마트","tel":"031-534-3806","addr":"경기도 포천시 화현면 명덕리 80-1번지 1층","indutype":"유통업 영리 - 슈퍼마켓","category":"mart"}]},{"lat":"37.875164971","long":"127.274595","imageIndex":5,"items":[{"name":"샤인힐","tel":"031-561-5659","addr":"경기도 포천시 화현면 명덕리 193-11번지","indutype":"숙박업 - 여관/기타숙박업","category":"hotel"},{"name":"샤인힐펜션","tel":"531-5659","addr":"경기도 포천시 화현면 명덕리 193-11번지","indutype":"숙박업 - 민박","category":"hotel"}]},{"lat":"37.875055942","long":"127.27499241","imageIndex":5,"items":[{"name":"파인","tel":"031-533-8233","addr":"경기도 포천시 화현면 명덕리 194-3번지","indutype":"숙박업 - 여관/기타숙박업","category":"hotel"}]},{"lat":"37.875055127","long":"127.27534475","imageIndex":5,"items":[{"name":"파인벨리팬션 캠핑장","tel":"","addr":"경기도 포천시 화현면 명덕리 194-12번지","indutype":"숙박업 - 여관/기타숙박업","category":"hotel"}]},{"lat":"37.864419184","long":"127.27746479","imageIndex":5,"items":[{"name":"하늘과바람별","tel":"031-542-4864","addr":"경기도 포천시 화현면 명덕리 106-19","indutype":"숙박업 - 여관/기타숙박업","category":"hotel"}]},{"lat":"37.893998097","long":"127.27690385","imageIndex":5,"items":[{"name":"하루","tel":"","addr":"경기도 포천시 화현면 명덕리 457-12번지","indutype":"숙박업 - 민박","category":"hotel"}]}]