[{"lat":"36.987407429","long":"126.9277143","imageIndex":7,"items":[{"name":"가보정육점","tel":"031-681-7811","addr":"경기도 평택시 안중읍 안중리 264-3번지","indutype":"음료식품 - 정육점","category":"food"}]},{"lat":"36.988408212","long":"126.92865685","imageIndex":7,"items":[{"name":"건강기능식품총괄센터","tel":"031-681-5763","addr":"경기도 평택시 안중읍 안중리 281-4번지 2층","indutype":"건강식품 - 기타건강식품","category":"food"}]},{"lat":"36.988353639","long":"126.92784816","imageIndex":7,"items":[{"name":"경기정관장홍삼안중전시판매점","tel":"031-682-0666","addr":"경기도 평택시 안중읍 안중리 272-5번지","indutype":"건강식품 - 홍삼제품","category":"food"},{"name":"정관장홍삼","tel":"","addr":"경기도 평택시 안중읍 안중리 272-5번지","indutype":"소매업 - 가공식품판매","category":"food"}]},{"lat":"36.987687705","long":"126.92921918","imageIndex":7,"items":[{"name":"고흥할메김치","tel":"031-683-3142","addr":"경기도 평택시 안중읍 안중리 266-11번지 1층","indutype":"음료식품 - 기타음료식품","category":"food"}]},{"lat":"36.986884487","long":"126.92720935","imageIndex":7,"items":[{"name":"궁말건강원","tel":"031-682-4970","addr":"경기도 평택시 안중읍 안중리 261-22번지","indutype":"건강식품 - 기타건강식품","category":"food"}]},{"lat":"36.986992551","long":"126.92710815","imageIndex":7,"items":[{"name":"궁말건강원","tel":"031-682-4866","addr":"경기도 평택시 안중읍 안중리 261-20번지","indutype":"소매업 - 건강기능식품","category":"food"}]},{"lat":"36.987154708","long":"126.92705183","imageIndex":7,"items":[{"name":"궁말제분소","tel":"031-682-4970","addr":"경기도 평택시 안중읍 안중리 260-23번지","indutype":"음료식품 - 기타음료식품","category":"food"}]},{"lat":"36.987127229","long":"126.92635545","imageIndex":7,"items":[{"name":"궁중떡방","tel":"031-683-3579","addr":"경기도 평택시 안중읍 안중리 256-17","indutype":"음료식품 - 제과점","category":"food"}]},{"lat":"36.987715873","long":"126.93107251","imageIndex":7,"items":[{"name":"농업회사 형제축산푸드 주식회사","tel":"031-683-1786","addr":"경기도 평택시 안중읍 안중리 293-25번지 농업회사 형제축산푸드 주식회사","indutype":"음료식품 - 정육점","category":"food"},{"name":"형제축산푸드 주식회사","tel":"031-684-1786","addr":"경기도 평택시 안중읍 안중리 293-25번지","indutype":"음료식품 - 정육점","category":"food"}]},{"lat":"36.988246208","long":"126.92896029","imageIndex":7,"items":[{"name":"농업회사법인주식회사 한나눔","tel":"070-4384-2634","addr":"경기도 평택시 안중읍 안중리 281-1번지 3층 301호","indutype":"음료식품 - 기타음료식품","category":"food"},{"name":"친절한가게","tel":"031-681-7879","addr":"경기도 평택시 안중읍 안중리 281-1번지 1층","indutype":"음료식품 - 기타음료식품","category":"food"}]},{"lat":"36.988074136","long":"126.92757885","imageIndex":7,"items":[{"name":"대농방앗간","tel":"031-681-1180","addr":"경기도 평택시 안중읍 안중리 272-19번지","indutype":"음료식품 - 제과점","category":"food"}]},{"lat":"36.987488176","long":"126.92716382","imageIndex":7,"items":[{"name":"도화상회","tel":"031-681-6538","addr":"경기도 평택시 안중읍 안중리 261-14번지","indutype":"음료식품 - 농·축·수산품","category":"food"},{"name":"수지유통","tel":"031-504-0690","addr":"경기도 평택시 안중읍 안중리 261-14번지 1층","indutype":"음료식품 - 농·축·수산품","category":"food"}]},{"lat":"36.988238364","long":"126.9308586","imageIndex":7,"items":[{"name":"동부축산물도매센타","tel":"031-681-8289","addr":"경기도 평택시 안중읍 안중리 293-34번지","indutype":"음료식품 - 정육점","category":"food"},{"name":"동부축산물도매센타","tel":"031-681-8289","addr":"경기도 평택시 안중읍 안중리 293-34번지 1층","indutype":"음료식품 - 정육점","category":"food"}]},{"lat":"36.983434334","long":"126.92871784","imageIndex":7,"items":[{"name":"동인당건강원","tel":"031-663-1234","addr":"경기도 평택시 안중읍 안중리 305-100번지","indutype":"건강식품 - 기타건강식품","category":"food"}]},{"lat":"36.987714422","long":"126.92871369","imageIndex":7,"items":[{"name":"마임 경기 안중지사","tel":"070-8114-5158","addr":"경기도 평택시 안중읍 안중리 281-2번지","indutype":"건강식품 - 기타건강식품","category":"food"}]},{"lat":"36.994160725","long":"126.93479597","imageIndex":7,"items":[{"name":"머드러기","tel":"","addr":"경기도 평택시 안중읍 안중리 196-12번지 1층 101호","indutype":"음료식품 - 농·축·수산품","category":"food"}]},{"lat":"36.987884747","long":"126.92732069","imageIndex":7,"items":[{"name":"밤바위유통","tel":"031-682-0950","addr":"경기도 평택시 안중읍 안중리 257번지","indutype":"음료식품 - 기타음료식품","category":"food"}]},{"lat":"36.98882274","long":"126.92871261","imageIndex":7,"items":[{"name":"베스킨라빈스31안중점","tel":"031-682-8031","addr":"경기도 평택시 안중읍 안중리 278-17","indutype":"음료식품 - 제과점","category":"food"}]},{"lat":"36.988300048","long":"126.92860079","imageIndex":7,"items":[{"name":"복떡집","tel":"031-681-5968","addr":"경기도 평택시 안중읍 안중리 281-5번지 1층","indutype":"음료식품 - 제과점","category":"food"}]},{"lat":"36.98704693","long":"126.92760233","imageIndex":7,"items":[{"name":"봉자네쭈꾸미","tel":"031-0000-0000","addr":"경기도 평택시 안중읍 안중리 262-49번지","indutype":"음료식품 - 기타음료식품","category":"food"}]},{"lat":"36.988552369","long":"126.92863425","imageIndex":7,"items":[{"name":"삼양유제품","tel":"031-682-2369","addr":"경기도 평택시 안중읍 안중리 273-2","indutype":"음료식품 - 기타음료식품","category":"food"}]},{"lat":"36.988211196","long":"126.93063398","imageIndex":7,"items":[{"name":"생선과 닭","tel":"070-7796-7792","addr":"경기도 평택시 안중읍 안중리 293-29번지 1층","indutype":"음료식품 - 농·축·수산품","category":"food"}]},{"lat":"36.983824759","long":"126.93362582","imageIndex":7,"items":[{"name":"생선장수","tel":"","addr":"경기도 평택시 안중읍 안중리 462-2번지 105호","indutype":"음료식품 - 농·축·수산품","category":"food"}]},{"lat":"36.987191123","long":"126.92763588","imageIndex":7,"items":[{"name":"서울떡집","tel":"031-683-3074","addr":"경기도 평택시 안중읍 안중리 262번지","indutype":"음료식품 - 제과점","category":"food"}]},{"lat":"36.988328757","long":"126.93133029","imageIndex":7,"items":[{"name":"쌀맛나네","tel":"031-684-1608","addr":"경기도 평택시 안중읍 안중리 295-12번지","indutype":"음료식품 - 미곡상","category":"food"}]},{"lat":"36.986128607","long":"126.92882755","imageIndex":7,"items":[{"name":"안일떡방앗간","tel":"031-682-3080","addr":"경기도 평택시 안중읍 안중리 262-127","indutype":"음료식품 - 제과점","category":"food"}]},{"lat":"36.988128236","long":"126.92763496","imageIndex":7,"items":[{"name":"안중(쌀)상회","tel":"031-682-3183","addr":"경기도 평택시 안중읍 안중리 272-18번지","indutype":"음료식품 - 미곡상","category":"food"}]},{"lat":"36.989687089","long":"126.92763342","imageIndex":7,"items":[{"name":"안중건강원","tel":"031-681-6000","addr":"경기도 평택시 안중읍 안중리 245-22번지","indutype":"건강식품 - 기타건강식품","category":"food"},{"name":"안중식품","tel":"031-681-6000","addr":"경기도 평택시 안중읍 안중리 245-22","indutype":"음료식품 - 기타음료식품","category":"food"}]},{"lat":"36.99513445","long":"126.93579489","imageIndex":7,"items":[{"name":"안중대게 직판장","tel":"031-681-6608","addr":"경기도 평택시 안중읍 안중리 196-3번지","indutype":"음료식품 - 농·축·수산품","category":"food"}]},{"lat":"36.9879662","long":"126.92788223","imageIndex":7,"items":[{"name":"안중수산","tel":"031-681-9569","addr":"경기도 평택시 안중읍 안중리 272-27번지","indutype":"음료식품 - 농·축·수산품","category":"food"}]},{"lat":"36.987605629","long":"126.92765794","imageIndex":7,"items":[{"name":"안중식품","tel":"031-681-2909","addr":"경기도 평택시 안중읍 안중리 269-3","indutype":"음료식품 - 농·축·수산품","category":"food"}]},{"lat":"36.988211482","long":"126.93110575","imageIndex":7,"items":[{"name":"안중축산","tel":"031-683-9294","addr":"경기도 평택시 안중읍 안중리 293-62번지","indutype":"음료식품 - 정육점","category":"food"}]},{"lat":"36.987938812","long":"126.92732063","imageIndex":7,"items":[{"name":"안중축산","tel":"031-681-9070","addr":"경기도 평택시 안중읍 안중리 254-7번지","indutype":"음료식품 - 정육점","category":"food"}]},{"lat":"36.987073179","long":"126.92637797","imageIndex":7,"items":[{"name":"안평상인협동조합","tel":"031-681-7117","addr":"경기도 평택시 안중읍 안중리 256-5번지","indutype":"음료식품 - 기타음료식품","category":"food"}]},{"lat":"36.987155723","long":"126.92865807","imageIndex":7,"items":[{"name":"에바니아힐링케어","tel":"031-682-0006","addr":"경기도 평택시 안중읍 안중리 266-6번지","indutype":"건강식품 - 기타건강식품","category":"food"}]},{"lat":"36.987686462","long":"126.92724226","imageIndex":7,"items":[{"name":"옛날식품","tel":"031-681-5238","addr":"경기도 평택시 안중읍 안중리 261-1번지","indutype":"음료식품 - 기타음료식품","category":"food"}]},{"lat":"36.987461387","long":"126.92754575","imageIndex":7,"items":[{"name":"왕선생청과","tel":"031-682-9565","addr":"경기도 평택시 안중읍 안중리 264번지","indutype":"음료식품 - 농·축·수산품","category":"food"}]},{"lat":"36.988155339","long":"126.92774726","imageIndex":7,"items":[{"name":"유정중국식품대전","tel":"070-8948-8168","addr":"경기도 평택시 안중읍 안중리 272-16","indutype":"음료식품 - 기타음료식품","category":"food"}]},{"lat":"36.986910652","long":"126.94129475","imageIndex":7,"items":[{"name":"은혜고추방앗간","tel":"031-682-2302","addr":"경기도 평택시 안중읍 안중리 61-10","indutype":"음료식품 - 제과점","category":"food"}]},{"lat":"36.98445281","long":"126.92914367","imageIndex":7,"items":[{"name":"잇츠콩","tel":"031-681-5453","addr":"경기도 평택시 안중읍 안중리 305-3번지 만남빌라 104동 401호","indutype":"회원제형태 - 건강식품","category":"food"}]},{"lat":"36.988932508","long":"126.93138589","imageIndex":7,"items":[{"name":"참다한홍삼 평택안중점","tel":"031-682-3290","addr":"경기도 평택시 안중읍 안중리 233-7번지","indutype":"도소매업 - 건강기능식품","category":"food"},{"name":"참다한홍삼 평택안중점","tel":"031-684-4333","addr":"경기도 평택시 안중읍 안중리 233-7번지","indutype":"건강식품 - 홍삼제품","category":"food"}]},{"lat":"36.987634524","long":"126.93065699","imageIndex":7,"items":[{"name":"청주떡방앗간","tel":"031-681-3458","addr":"경기도 평택시 안중읍 안중리 293-3번지","indutype":"음료식품 - 제과점","category":"food"}]},{"lat":"36.988796036","long":"126.92924057","imageIndex":7,"items":[{"name":"파리바게뜨(안중점)","tel":"031-682-9188","addr":"경기도 평택시 안중읍 안중리 278-8번지","indutype":"음료식품 - 제과점","category":"food"}]},{"lat":"36.989266335","long":"126.93210447","imageIndex":7,"items":[{"name":"평택안성한우직판장","tel":"","addr":"경기도 평택시 안중읍 안중리 233-19번지","indutype":"음료식품 - 정육점","category":"food"}]},{"lat":"36.988913231","long":"126.92933032","imageIndex":7,"items":[{"name":"풍년떡집","tel":"031-681-6939","addr":"경기도 평택시 안중읍 안중리 277-30번지 1층","indutype":"음료식품 - 제과점","category":"food"}]},{"lat":"36.987714527","long":"126.92888217","imageIndex":7,"items":[{"name":"한양떡방앗간","tel":"02-1111-1111","addr":"경기도 평택시 안중읍 안중리 284번지 1층","indutype":"음료식품 - 제과점","category":"food"}]},{"lat":"36.987434004","long":"126.92699539","imageIndex":7,"items":[{"name":"한울","tel":"031-681-6442","addr":"경기도 평택시 안중읍 안중리 259-8번지","indutype":"음료식품 - 기타음료식품","category":"food"}]},{"lat":"36.987271581","long":"126.92663611","imageIndex":7,"items":[{"name":"홍삼의나라","tel":"031-681-5147","addr":"경기도 평택시 안중읍 안중리 252-14번지","indutype":"소매업 - 건강기능식품","category":"food"},{"name":"홍삼의나라","tel":"031-681-4567","addr":"경기도 평택시 안중읍 안중리 252-14번지 1층 1호","indutype":"건강식품 - 홍삼제품","category":"food"}]},{"lat":"36.985632702","long":"126.92832258","imageIndex":7,"items":[{"name":"황금청과","tel":"031-681-5538","addr":"경기도 평택시 안중읍 안중리 262-32번지","indutype":"음료식품 - 농·축·수산품","category":"food"}]}]