[{"lat":"37.012052419","long":"127.1119508","imageIndex":4,"items":[{"name":"(주)음식점닥터 육팩트","tel":"031-1588-4683","addr":"경기도 평택시 죽백동 486-13번지","indutype":"일반휴게음식 - 일반한식","category":"restaurant"},{"name":"강릉해변막국수 평택점","tel":"031-654-4229","addr":"경기도 평택시 죽백동 486-13번지 C동","indutype":"일반휴게음식 - 일반한식","category":"restaurant"}]},{"lat":"37.011656084","long":"127.11180417","imageIndex":4,"items":[{"name":"가정식백반 진미식당","tel":"031-0000-0000","addr":"경기도 평택시 죽백동 486-21번지 1층","indutype":"일반휴게음식 - 일반한식","category":"restaurant"}]},{"lat":"37.014994956","long":"127.13369768","imageIndex":4,"items":[{"name":"감우당","tel":"031-663-0447","addr":"경기도 평택시 죽백동 89-3번지 1층","indutype":"일반휴게음식 - 서양음식","category":"restaurant"},{"name":"감우당","tel":"031-656-9333","addr":"경기도 평택시 죽백동 89-3번지","indutype":"음식점 - 한식","category":"restaurant"},{"name":"감우당/농업회사법인 주식회사영흥원","tel":"031-663-0447","addr":"경기도 평택시 죽백동 89-3번지","indutype":"일반휴게음식 - 일반한식","category":"restaurant"}]},{"lat":"37.00372","long":"127.11885958","imageIndex":4,"items":[{"name":"거상한식부페","tel":"031-656-5005","addr":"경기도 평택시 죽백동 771번지 세비온 108호","indutype":"일반휴게음식 - 일반한식","category":"restaurant"},{"name":"배다리골","tel":"031-657-9788","addr":"경기도 평택시 죽백동 771번지 제103,104호(죽백둥)","indutype":"일반휴게음식 - 일반한식","category":"restaurant"},{"name":"엔젤리너스(세비온) 평택세무서점","tel":"","addr":"경기도 평택시 죽백동 771번지","indutype":"음식점 - 카페","category":"restaurant"}]},{"lat":"37.016212613","long":"127.11488953","imageIndex":4,"items":[{"name":"고등어 명품이되다","tel":"031-654-2377","addr":"경기도 평택시 죽백동 464-11번지 1층","indutype":"음식점 - 한식","category":"restaurant"}]},{"lat":"37.003801633","long":"127.11830919","imageIndex":4,"items":[{"name":"나비드하우스","tel":"031-658-6300","addr":"경기도 평택시 죽백동 770-1번지 5층 4호","indutype":"일반휴게음식 - 일반한식","category":"restaurant"}]},{"lat":"37.011685232","long":"127.13622012","imageIndex":4,"items":[{"name":"낙지마당(평택직영점)","tel":"031-658-5255","addr":"경기도 평택시 죽백동 130번지 1층","indutype":"일반휴게음식 - 일반한식","category":"restaurant"}]},{"lat":"37.01174654","long":"127.11142227","imageIndex":4,"items":[{"name":"남원골추어탕","tel":"031-655-0234","addr":"경기도 평택시 죽백동 486-15번지","indutype":"일반휴게음식 - 일반한식","category":"restaurant"},{"name":"평택커피","tel":"031-618-4986","addr":"경기도 평택시 죽백동 486-15번지 1동","indutype":"일반휴게음식 - 서양음식","category":"restaurant"}]},{"lat":"37.012134838","long":"127.11050146","imageIndex":4,"items":[{"name":"다만나","tel":"031-653-0117","addr":"경기도 평택시 죽백동 518-9번지","indutype":"일반휴게음식 - 일반한식","category":"restaurant"}]},{"lat":"37.010351497","long":"127.10964502","imageIndex":4,"items":[{"name":"다빈이네한식뷔페","tel":"031-656-5405","addr":"경기도 평택시 죽백동 700-1 (죽백5로 23) 1층","indutype":"일반휴게음식 - 일반한식","category":"restaurant"}]},{"lat":"37.008413809","long":"127.1100805","imageIndex":4,"items":[{"name":"도담치킨 소사벌점","tel":"031-647-6068","addr":"경기도 평택시 죽백동 721번지 소사벌중흥S-클래스에코시티 상가동 104호","indutype":"일반휴게음식 - 스넥","category":"restaurant"},{"name":"버무리 떡볶이 소사벌중흥점","tel":"070-7423-6603","addr":"경기도 평택시 죽백동 721번지 소사벌중흥S-클래스에코시티 109호","indutype":"일반휴게음식 - 스넥","category":"restaurant"}]},{"lat":"37.004047726","long":"127.11538849","imageIndex":4,"items":[{"name":"동네바보라운지","tel":"031-651-0227","addr":"경기도 평택시 죽백동 757-1번지","indutype":"음식점 - 커피","category":"restaurant"}]},{"lat":"37.007632105","long":"127.13471873","imageIndex":4,"items":[{"name":"마마트평택점","tel":"","addr":"경기도 평택시 죽백동 140-10번지","indutype":"일반휴게음식 - 서양음식","category":"restaurant"}]},{"lat":"37.003995381","long":"127.13144309","imageIndex":4,"items":[{"name":"문곰탕","tel":"031-652-3149","addr":"경기도 평택시 죽백동 654-13번지","indutype":"일반휴게음식 - 일반한식","category":"restaurant"},{"name":"히희히","tel":"","addr":"경기도 평택시 죽백동 654-13번지 2동","indutype":"일반휴게음식 - 서양음식","category":"restaurant"}]},{"lat":"37.008492074","long":"127.11317039","imageIndex":4,"items":[{"name":"미스터브리즈소사벌점","tel":"070-8785-7132","addr":"경기도 평택시 죽백동 722번지 평택소사벌반도유보라아이비파크1단지 121동 102호","indutype":"일반휴게음식 - 서양음식","category":"restaurant"},{"name":"박군치킨죽백동반도유보라점","tel":"031-657-7782","addr":"경기도 평택시 죽백동 722번지 평택소사벌반도유보라아이비파크1단지 122동 205호","indutype":"일반휴게음식 - 스넥","category":"restaurant"}]},{"lat":"37.016518688","long":"127.11519337","imageIndex":4,"items":[{"name":"민물장어","tel":"031-691-2932","addr":"경기도 평택시 죽백동 451-1번지","indutype":"음식점 - 한식","category":"restaurant"},{"name":"스테미나하우스","tel":"031-657-8895","addr":"경기도 평택시 죽백동 451-1번지","indutype":"일반휴게음식 - 일반한식","category":"restaurant"}]},{"lat":"37.012990063","long":"127.11136786","imageIndex":4,"items":[{"name":"반앤파파","tel":"031-691-5859","addr":"경기도 평택시 죽백동 486-22번지 외1필지","indutype":"일반휴게음식 - 일반한식","category":"restaurant"}]},{"lat":"37.013327551","long":"127.13408809","imageIndex":4,"items":[{"name":"방아다리","tel":"031-653-0333","addr":"경기도 평택시 죽백동 112-8번지","indutype":"음식점 - 한식","category":"restaurant"},{"name":"방아다리옻닭","tel":"031-656-9333","addr":"경기도 평택시 죽백동 112-8번지","indutype":"일반휴게음식 - 일반한식","category":"restaurant"}]},{"lat":"37.01352014","long":"127.11305406","imageIndex":4,"items":[{"name":"버거킹평택죽백DT점","tel":"070-7462-6814","addr":"경기도 평택시 죽백동 482-3번지 1층","indutype":"일반휴게음식 - 서양음식","category":"restaurant"}]},{"lat":"37.011018246","long":"127.11927516","imageIndex":4,"items":[{"name":"부모산쪽갈비","tel":"","addr":"경기도 평택시 죽백동 344-4번지","indutype":"음식점 - 한식","category":"restaurant"},{"name":"부모산쪽갈비","tel":"031-655-6553","addr":"경기도 평택시 죽백동 344-4번지","indutype":"일반휴게음식 - 일반한식","category":"restaurant"}]},{"lat":"37.00319199","long":"127.12425147","imageIndex":4,"items":[{"name":"부어치킨 소사벌점","tel":"070-7529-8843","addr":"경기도 평택시 죽백동 816번지 평택소사벌우미린레이크파크 상가동 107호","indutype":"일반휴게음식 - 스넥","category":"restaurant"}]},{"lat":"37.013746609","long":"127.11175097","imageIndex":4,"items":[{"name":"빵과당신","tel":"031-655-0853","addr":"경기도 평택시 죽백동 478-14번지","indutype":"음식점 - 베이커리, 카페","category":"restaurant"}]},{"lat":"37.011212888","long":"127.11361252","imageIndex":4,"items":[{"name":"서식당","tel":"031-656-7634","addr":"경기도 평택시 죽백동 408-7번지","indutype":"음식점 - 한식","category":"restaurant"},{"name":"서식당","tel":"070-8171-6645","addr":"경기도 평택시 죽백동 408-7번지 1동 1층","indutype":"일반휴게음식 - 일반한식","category":"restaurant"}]},{"lat":"37.010160992","long":"127.11106047","imageIndex":4,"items":[{"name":"소사벌다빈이네한식뷔페","tel":"031-654-5405","addr":"경기도 평택시 죽백동 720번지 평택소사벌반도유보라아이비파크 222동 106호,107호","indutype":"일반휴게음식 - 일반한식","category":"restaurant"},{"name":"충만치킨카페죽백점","tel":"031-657-3389","addr":"경기도 평택시 죽백동 720번지 평택소사벌반도유보라아이비파크 222동 109-110호","indutype":"일반휴게음식 - 스넥","category":"restaurant"}]},{"lat":"37.008467071","long":"127.1374167","imageIndex":4,"items":[{"name":"연잎장어","tel":"031-654-0197","addr":"경기도 평택시 죽백동 136-6번지 1층","indutype":"일반휴게음식 - 일반한식","category":"restaurant"}]},{"lat":"37.012494907","long":"127.11089523","imageIndex":4,"items":[{"name":"연탄삼굽지","tel":"031-657-5656","addr":"경기도 평택시 죽백동 518-5번지","indutype":"음식점 - 한식","category":"restaurant"},{"name":"연탄삼굽지","tel":"031-658-3320","addr":"경기도 평택시 죽백동 518-5번지","indutype":"일반휴게음식 - 일반한식","category":"restaurant"}]},{"lat":"37.003854201","long":"127.11983722","imageIndex":4,"items":[{"name":"장항선의봉수갈비","tel":"031-657-0788","addr":"경기도 평택시 죽백동 772번지 102동 106호","indutype":"일반휴게음식 - 일반한식","category":"restaurant"},{"name":"펀앤조이","tel":"031-656-4103","addr":"경기도 평택시 죽백동 772번지 배다리프라자","indutype":"일반휴게음식 - 서양음식","category":"restaurant"}]},{"lat":"37.013131412","long":"127.11441308","imageIndex":4,"items":[{"name":"정원갈비(평택점)","tel":"031-651-1740","addr":"경기도 평택시 죽백동 409-10번지 1층","indutype":"일반휴게음식 - 일반한식","category":"restaurant"}]},{"lat":"37.013434231","long":"127.13539169","imageIndex":4,"items":[{"name":"죽백면옥","tel":"031-653-9955","addr":"경기도 평택시 죽백동 124-1번지","indutype":"음식점 - 한식","category":"restaurant"},{"name":"죽백면옥","tel":"031-658-1732","addr":"경기도 평택시 죽백동 124-1번지 1층","indutype":"일반휴게음식 - 일반한식","category":"restaurant"}]},{"lat":"37.013939053","long":"127.13519031","imageIndex":4,"items":[{"name":"죽백장수돌판오리구이","tel":"031-651-5295","addr":"경기도 평택시 죽백동 124번지 외3필지제 2동","indutype":"일반휴게음식 - 일반한식","category":"restaurant"}]},{"lat":"37.004191843","long":"127.11544487","imageIndex":4,"items":[{"name":"집에가기전","tel":"031-652-6634","addr":"경기도 평택시 죽백동 757번지 101호","indutype":"일반휴게음식 - 일반한식","category":"restaurant"}]},{"lat":"37.004498131","long":"127.11552397","imageIndex":4,"items":[{"name":"찻집","tel":"070-4064-9434","addr":"경기도 평택시 죽백동 754-2번지 정현빌딩","indutype":"일반휴게음식 - 서양음식","category":"restaurant"}]},{"lat":"37.011632713","long":"127.134838","imageIndex":4,"items":[{"name":"청와삼대평택죽백점","tel":"031-657-2959","addr":"경기도 평택시 죽백동 144-18번지 1층","indutype":"일반휴게음식 - 일반한식","category":"restaurant"}]},{"lat":"37.010829374","long":"127.11891532","imageIndex":4,"items":[{"name":"평택장수촌","tel":"031-654-4544","addr":"경기도 평택시 죽백동 359-1번지 1층","indutype":"일반휴게음식 - 일반한식","category":"restaurant"}]},{"lat":"37.014021656","long":"127.13383085","imageIndex":4,"items":[{"name":"한식뷔페장금이","tel":"031-618-2581","addr":"경기도 평택시 죽백동 118-8번지 가동","indutype":"일반휴게음식 - 일반한식","category":"restaurant"}]},{"lat":"37.011549946","long":"127.10961299","imageIndex":4,"items":[{"name":"홍기와 쭈꾸미 평택점","tel":"031-652-9001","addr":"경기도 평택시 죽백동 521번지","indutype":"일반휴게음식 - 일반한식","category":"restaurant"}]}]