[{"lat":"37.689348075","long":"126.77076967","imageIndex":13,"items":[{"name":"365당구장","tel":"031-1111-1111","addr":"경기도 고양시 일산서구 일산동 2023번지","indutype":"레저업소 - 당 구 장","category":"leisure"}]},{"lat":"37.682567787","long":"126.77745662","imageIndex":13,"items":[{"name":"3POP(쓰리팝)PC방","tel":"","addr":"경기도 고양시 일산서구 일산동 1673-7번지","indutype":"레저업소 - 기타레져업소","category":"leisure"}]},{"lat":"37.691874243","long":"126.77254184","imageIndex":13,"items":[{"name":"A.G댄스 스튜디오","tel":"031-924-2112","addr":"경기도 고양시 일산서구 일산동 2043번지","indutype":"레저업소 - 헬스클럽","category":"leisure"}]},{"lat":"37.687017813","long":"126.76785196","imageIndex":13,"items":[{"name":"JK 킥복싱 무에타이 GYM","tel":"031-976-8001","addr":"경기도 고양시 일산서구 일산동 963-12번지","indutype":"레저업소 - 헬스클럽","category":"leisure"}]},{"lat":"37.686734071","long":"126.77015428","imageIndex":13,"items":[{"name":"Joy 바디","tel":"031-976-7842","addr":"경기도 고양시 일산서구 일산동 606-1번지","indutype":"레저업소 - 헬스클럽","category":"leisure"}]},{"lat":"37.683901702","long":"126.77304264","imageIndex":13,"items":[{"name":"J골프아카데미","tel":"031-975-1115","addr":"경기도 고양시 일산서구 일산동 644번지","indutype":"레저업소 - 골프연습장","category":"leisure"}]},{"lat":"37.678040489","long":"126.76598721","imageIndex":13,"items":[{"name":"K2노래연습장","tel":"031-914-3992","addr":"경기도 고양시 일산서구 일산동 1062번지","indutype":"레저업소 - 노 래 방","category":"leisure"}]},{"lat":"37.677909177","long":"126.76790337","imageIndex":13,"items":[{"name":"M당구장","tel":"031-913-2510","addr":"경기도 고양시 일산서구 일산동 1079-1번지","indutype":"레저업소 - 당 구 장","category":"leisure"},{"name":"핑크 노래연습장","tel":"031-913-6673","addr":"경기도 고양시 일산서구 일산동 1079-1번지","indutype":"레저업소 - 노 래 방","category":"leisure"}]},{"lat":"37.676596705","long":"126.76938113","imageIndex":13,"items":[{"name":"speed pc방","tel":"031-905-0841","addr":"경기도 고양시 일산서구 일산동 1082-2번지","indutype":"레저업소 - 기타레져업소","category":"leisure"}]},{"lat":"37.682737275","long":"126.77657187","imageIndex":13,"items":[{"name":"강필라테스","tel":"031-977-2019","addr":"경기도 고양시 일산서구 일산동 1673-1번지","indutype":"레저업소 - 헬스클럽","category":"leisure"}]},{"lat":"37.685347281","long":"126.77512416","imageIndex":13,"items":[{"name":"나홍준탁구클럽","tel":"031-919-1159","addr":"경기도 고양시 일산서구 일산동 576-20번지","indutype":"레저업소 - 기타레져업소","category":"leisure"},{"name":"파우 피씨(POW PC)","tel":"070-4558-2123","addr":"경기도 고양시 일산서구 일산동 576-20번지","indutype":"레저업소 - 기타레져업소","category":"leisure"}]},{"lat":"37.686681666","long":"126.77099339","imageIndex":13,"items":[{"name":"네박자노래연습장","tel":"031-975-4448","addr":"경기도 고양시 일산서구 일산동 591-1번지","indutype":"레저업소 - 노 래 방","category":"leisure"},{"name":"다짐필라테스 일산역점","tel":"031-977-7744","addr":"경기도 고양시 일산서구 일산동 591-1번지","indutype":"레저업소 - 헬스클럽","category":"leisure"}]},{"lat":"37.679547265","long":"126.7626043","imageIndex":13,"items":[{"name":"네오휘트니스","tel":"031-925-6733","addr":"경기도 고양시 일산서구 일산동 1054-1번지","indutype":"레저업소 - 헬스클럽","category":"leisure"},{"name":"점핑파크","tel":"031-912-3477","addr":"경기도 고양시 일산서구 일산동 1054-1번지","indutype":"레저업소 - 기타레져업소","category":"leisure"}]},{"lat":"37.676264829","long":"126.77013031","imageIndex":13,"items":[{"name":"노라존","tel":"070-873-5260","addr":"경기도 고양시 일산서구 일산동 1088-1번지","indutype":"레저업소 - 기타레져업소","category":"leisure"}]},{"lat":"37.678599811","long":"126.76634818","imageIndex":13,"items":[{"name":"닉 PC방 후곡점","tel":"070-9050-8303","addr":"경기도 고양시 일산서구 일산동 1063번지","indutype":"레저업소 - 기타레져업소","category":"leisure"},{"name":"월드헬스타운","tel":"031-921-3396","addr":"경기도 고양시 일산서구 일산동 1063번지","indutype":"레저업소 - 헬스클럽","category":"leisure"}]},{"lat":"37.676354589","long":"126.76995999","imageIndex":13,"items":[{"name":"더 캘리포니아 짐","tel":"031-922-3992","addr":"경기도 고양시 일산서구 일산동 1088-1번지","indutype":"레저업소 - 헬스클럽","category":"leisure"},{"name":"영상노래연습장","tel":"031-918-7770","addr":"경기도 고양시 일산서구 일산동 1088-1번지","indutype":"레저업소 - 노 래 방","category":"leisure"}]},{"lat":"37.675801977","long":"126.77301095","imageIndex":13,"items":[{"name":"더무브먼트제이","tel":"","addr":"경기도 고양시 일산서구 일산동 1093번지 후곡마을13단지아파트","indutype":"레저업소 - 헬스클럽","category":"leisure"}]},{"lat":"37.687819502","long":"126.77698724","imageIndex":13,"items":[{"name":"더블B복싱클럽","tel":"031-975-3566","addr":"경기도 고양시 일산서구 일산동 574-1번지","indutype":"레저업소 - 헬스클럽","category":"leisure"}]},{"lat":"37.676740184","long":"126.76904061","imageIndex":13,"items":[{"name":"더아트필라테스일산점","tel":"02-1111-1111","addr":"경기도 고양시 일산서구 일산동 1082번지","indutype":"레저업소 - 헬스클럽","category":"leisure"}]},{"lat":"37.688067493","long":"126.77476438","imageIndex":13,"items":[{"name":"돌당구장","tel":"070-7777-7979","addr":"경기도 고양시 일산서구 일산동 583-36번지","indutype":"레저업소 - 당 구 장","category":"leisure"}]},{"lat":"37.692209718","long":"126.77362924","imageIndex":13,"items":[{"name":"두리당구장","tel":"031-912-0282","addr":"경기도 고양시 일산서구 일산동 1690번지","indutype":"레저업소 - 당 구 장","category":"leisure"}]},{"lat":"37.685159042","long":"126.77562355","imageIndex":13,"items":[{"name":"둘리노래연습장","tel":"031-977-7478","addr":"경기도 고양시 일산서구 일산동 576-31번지","indutype":"레저업소 - 노 래 방","category":"leisure"}]},{"lat":"37.67709897","long":"126.76823466","imageIndex":13,"items":[{"name":"디제이노래연습장","tel":"031-921-2782","addr":"경기도 고양시 일산서구 일산동 1084-5번지","indutype":"레저업소 - 노 래 방","category":"leisure"},{"name":"짱스포츠클럽","tel":"031-917-1479","addr":"경기도 고양시 일산서구 일산동 1084-5번지","indutype":"레저업소 - 기타레져업소","category":"leisure"}]},{"lat":"37.687653425","long":"126.77495838","imageIndex":13,"items":[{"name":"뚜루실내낚시놀이터(일산탄현점)","tel":"031-0000-0000","addr":"경기도 고양시 일산서구 일산동 580-3번지","indutype":"레저업소 - 기타레져업소","category":"leisure"}]},{"lat":"37.678569772","long":"126.76485195","imageIndex":13,"items":[{"name":"럭셔리노래연습장","tel":"031-924-7805","addr":"경기도 고양시 일산서구 일산동 1061번지","indutype":"레저업소 - 노 래 방","category":"leisure"}]},{"lat":"37.686845129","long":"126.77165043","imageIndex":13,"items":[{"name":"럭키당구클럽","tel":"031-975-8008","addr":"경기도 고양시 일산서구 일산동 591-6번지","indutype":"레저업소 - 당 구 장","category":"leisure"},{"name":"포그PC","tel":"070-9309-0666","addr":"경기도 고양시 일산서구 일산동 591-6번지","indutype":"레저업소 - 기타레져업소","category":"leisure"}]},{"lat":"37.686824917","long":"126.77515365","imageIndex":13,"items":[{"name":"레인보우 당구장","tel":"031-977-4473","addr":"경기도 고양시 일산서구 일산동 580-14번지","indutype":"레저업소 - 당 구 장","category":"leisure"}]},{"lat":"37.677932715","long":"126.76615759","imageIndex":13,"items":[{"name":"리얼 PC CAFE 일산동점","tel":"070-4851-9301","addr":"경기도 고양시 일산서구 일산동 1062-1번지","indutype":"레저업소 - 기타레져업소","category":"leisure"},{"name":"엠알스","tel":"031-922-3222","addr":"경기도 고양시 일산서구 일산동 1062-1번지","indutype":"레저업소 - 헬스클럽","category":"leisure"}]},{"lat":"37.687602711","long":"126.77204488","imageIndex":13,"items":[{"name":"리치노래연습장","tel":"031-976-7242","addr":"경기도 고양시 일산서구 일산동 589-1번지","indutype":"레저업소 - 노 래 방","category":"leisure"}]},{"lat":"37.677684931","long":"126.76840285","imageIndex":13,"items":[{"name":"림요가","tel":"031-917-5007","addr":"경기도 고양시 일산서구 일산동 1079-4번지","indutype":"레저업소 - 헬스클럽","category":"leisure"}]},{"lat":"37.685206986","long":"126.77713121","imageIndex":13,"items":[{"name":"마사연","tel":"031-975-8558","addr":"경기도 고양시 일산서구 일산동 555-1번지","indutype":"레저업소 - 헬스클럽","category":"leisure"},{"name":"유니크PC방","tel":"070-7752-0015","addr":"경기도 고양시 일산서구 일산동 555-1번지","indutype":"레저업소 - 기타레져업소","category":"leisure"}]},{"lat":"37.68854161","long":"126.77301698","imageIndex":13,"items":[{"name":"명당구장","tel":"070-4065-8882","addr":"경기도 고양시 일산서구 일산동 584-17번지","indutype":"레저업소 - 당 구 장","category":"leisure"},{"name":"명당구장","tel":"","addr":"경기도 고양시 일산서구 일산동 584-17번지","indutype":"레저업소 - 당 구 장","category":"leisure"}]},{"lat":"37.685209282","long":"126.77365079","imageIndex":13,"items":[{"name":"별빛노래연습장","tel":"031-976-0096","addr":"경기도 고양시 일산서구 일산동 640-77번지","indutype":"레저업소 - 노 래 방","category":"leisure"}]},{"lat":"37.67907504","long":"126.76521308","imageIndex":13,"items":[{"name":"브라더 복싱짐","tel":"031-922-8212","addr":"경기도 고양시 일산서구 일산동 1064번지","indutype":"레저업소 - 헬스클럽","category":"leisure"}]},{"lat":"37.677627775","long":"126.76685004","imageIndex":13,"items":[{"name":"빌앤당구클럽","tel":"070-7753-9588","addr":"경기도 고양시 일산서구 일산동 1085번지","indutype":"레저업소 - 당 구 장","category":"leisure"}]},{"lat":"37.68570642","long":"126.76987407","imageIndex":13,"items":[{"name":"상하이 노래연습장","tel":"031-975-3542","addr":"경기도 고양시 일산서구 일산동 612-22번지","indutype":"레저업소 - 노 래 방","category":"leisure"}]},{"lat":"37.678241266","long":"126.76726752","imageIndex":13,"items":[{"name":"서현골프스쿨","tel":"031-623-0753","addr":"경기도 고양시 일산서구 일산동 1078번지","indutype":"레저업소 - 골프연습장","category":"leisure"}]},{"lat":"37.683540612","long":"126.77268098","imageIndex":13,"items":[{"name":"세바퀴노래연습장","tel":"070-4383-2452","addr":"경기도 고양시 일산서구 일산동 643-3번지","indutype":"레저업소 - 노 래 방","category":"leisure"}]},{"lat":"37.681291062","long":"126.77415031","imageIndex":13,"items":[{"name":"스카이(SKY)당구클럽","tel":"031-932-7753","addr":"경기도 고양시 일산서구 일산동 524-16번지","indutype":"레저업소 - 당 구 장","category":"leisure"},{"name":"휘트니스 02 Zone","tel":"031-975-5100","addr":"경기도 고양시 일산서구 일산동 524-16번지","indutype":"레저업소 - 헬스클럽","category":"leisure"}]},{"lat":"37.67899132","long":"126.76390972","imageIndex":13,"items":[{"name":"스타덤PC방 일산후곡마을점","tel":"02-222-2222","addr":"경기도 고양시 일산서구 일산동 1059-1번지","indutype":"레저업소 - 기타레져업소","category":"leisure"},{"name":"아이센스리그PC방 일산동점","tel":"02-222-2222","addr":"경기도 고양시 일산서구 일산동 1059-1번지","indutype":"레저업소 - 기타레져업소","category":"leisure"}]},{"lat":"37.685540427","long":"126.77251608","imageIndex":13,"items":[{"name":"신나는노래방","tel":"031-977-3148","addr":"경기도 고양시 일산서구 일산동 637-52번지","indutype":"레저업소 - 노 래 방","category":"leisure"}]},{"lat":"37.685598865","long":"126.77015783","imageIndex":13,"items":[{"name":"신바람 노래연습장","tel":"031-975-8872","addr":"경기도 고양시 일산서구 일산동 616-5번지","indutype":"레저업소 - 노 래 방","category":"leisure"}]},{"lat":"37.677574171","long":"126.76707692","imageIndex":13,"items":[{"name":"쓰리팝 PC CAFE","tel":"070-4531-2488","addr":"경기도 고양시 일산서구 일산동 1085-1번지","indutype":"레저업소 - 기타레져업소","category":"leisure"}]},{"lat":"37.679568323","long":"126.76410058","imageIndex":13,"items":[{"name":"아벨필라테스","tel":"031-917-1577","addr":"경기도 고양시 일산서구 일산동 1065번지","indutype":"레저업소 - 헬스클럽","category":"leisure"}]},{"lat":"37.69006779","long":"126.77023456","imageIndex":13,"items":[{"name":"야후노래연습장","tel":"031-905-3388","addr":"경기도 고양시 일산서구 일산동 2012번지","indutype":"레저업소 - 노 래 방","category":"leisure"},{"name":"탄현특공무술","tel":"031-924-5988","addr":"경기도 고양시 일산서구 일산동 2012번지","indutype":"레저업소 - 헬스클럽","category":"leisure"}]},{"lat":"37.683793695","long":"126.76851966","imageIndex":13,"items":[{"name":"오렌지PC방","tel":"","addr":"경기도 고양시 일산서구 일산동 655-15번지 이안아파트","indutype":"레저업소 - 기타레져업소","category":"leisure"},{"name":"이안","tel":"031-919-0209","addr":"경기도 고양시 일산서구 일산동 655-15번지 이안아파트","indutype":"레저업소 - 당 구 장","category":"leisure"},{"name":"트리플짐","tel":"031-976-2727","addr":"경기도 고양시 일산서구 일산동 655-15번지 이안아파트","indutype":"레저업소 - 헬스클럽","category":"leisure"}]},{"lat":"37.679269305","long":"126.76326268","imageIndex":13,"items":[{"name":"오존노래연습장","tel":"031-1111-1111","addr":"경기도 고양시 일산서구 일산동 1054-5번지","indutype":"레저업소 - 노 래 방","category":"leisure"}]},{"lat":"37.685845622","long":"126.77193696","imageIndex":13,"items":[{"name":"원일당구장","tel":"031-976-6411","addr":"경기도 고양시 일산서구 일산동 592-26번지","indutype":"레저업소 - 당 구 장","category":"leisure"}]},{"lat":"37.686069483","long":"126.77123337","imageIndex":13,"items":[{"name":"월드컵노래연습장","tel":"031-975-5998","addr":"경기도 고양시 일산서구 일산동 594-13번지","indutype":"레저업소 - 노 래 방","category":"leisure"}]},{"lat":"37.68512355","long":"126.77590708","imageIndex":13,"items":[{"name":"웰빙","tel":"031-975-5846","addr":"경기도 고양시 일산서구 일산동 576-47번지","indutype":"레저업소 - 헬스클럽","category":"leisure"}]},{"lat":"37.685960454","long":"126.77076889","imageIndex":13,"items":[{"name":"일번지 노래연습장","tel":"031-977-9666","addr":"경기도 고양시 일산서구 일산동 617-22번지","indutype":"레저업소 - 노 래 방","category":"leisure"}]},{"lat":"37.685043466","long":"126.77642882","imageIndex":13,"items":[{"name":"일산 당구클럽","tel":"","addr":"경기도 고양시 일산서구 일산동 555번지","indutype":"레저업소 - 당 구 장","category":"leisure"},{"name":"준","tel":"031-975-5468","addr":"경기도 고양시 일산서구 일산동 555번지","indutype":"레저업소 - 노 래 방","category":"leisure"}]},{"lat":"37.683600757","long":"126.77582103","imageIndex":13,"items":[{"name":"일산산들수영장","tel":"031-912-8600","addr":"경기도 고양시 일산서구 일산동 1681-4번지","indutype":"레저업소 - 수 영 장","category":"leisure"}]},{"lat":"37.679792436","long":"126.7635444","imageIndex":13,"items":[{"name":"일산서구 청소년수련관","tel":"031-810-4000","addr":"경기도 고양시 일산서구 일산동 1053번지","indutype":"레저업소 - 기타레져업소","category":"leisure"},{"name":"일산서구 청소년수련관","tel":"","addr":"경기도 고양시 일산서구 일산동 1053번지","indutype":"레저업소 - 기타레져업소","category":"leisure"}]},{"lat":"37.687545201","long":"126.77490203","imageIndex":13,"items":[{"name":"쟁반노래연습장","tel":"031-975-2353","addr":"경기도 고양시 일산서구 일산동 580-7번지","indutype":"레저업소 - 노 래 방","category":"leisure"}]},{"lat":"37.684790021","long":"126.7758174","imageIndex":13,"items":[{"name":"제우스 당구장","tel":"031-976-3949","addr":"경기도 고양시 일산서구 일산동 1680-1번지","indutype":"레저업소 - 당 구 장","category":"leisure"}]},{"lat":"37.676130333","long":"126.77045946","imageIndex":13,"items":[{"name":"조이탁구교실","tel":"070-1549-1928","addr":"경기도 고양시 일산서구 일산동 1088-4번지","indutype":"레저업소 - 기타레져업소","category":"leisure"}]},{"lat":"37.685375229","long":"126.77560022","imageIndex":13,"items":[{"name":"큐노래연습장","tel":"031-977-4658","addr":"경기도 고양시 일산서구 일산동 576-30번지","indutype":"레저업소 - 노 래 방","category":"leisure"}]},{"lat":"37.688733828","long":"126.77456961","imageIndex":13,"items":[{"name":"큐당구장","tel":"031-914-3666","addr":"경기도 고양시 일산서구 일산동 1868번지","indutype":"레저업소 - 당 구 장","category":"leisure"}]},{"lat":"37.682630268","long":"126.77715035","imageIndex":13,"items":[{"name":"태양당구장","tel":"031-975-5744","addr":"경기도 고양시 일산서구 일산동 1673-6번지","indutype":"레저업소 - 당 구 장","category":"leisure"}]},{"lat":"37.687152653","long":"126.77226168","imageIndex":13,"items":[{"name":"팡팡노래연습장","tel":"031-975-1988","addr":"경기도 고양시 일산서구 일산동 591-22번지","indutype":"레저업소 - 노 래 방","category":"leisure"}]},{"lat":"37.678211056","long":"126.76568061","imageIndex":13,"items":[{"name":"포시즌","tel":"031-000-0000","addr":"경기도 고양시 일산서구 일산동 1061-5번지","indutype":"레저업소 - 기타레져업소","category":"leisure"}]},{"lat":"37.68637481","long":"126.77534776","imageIndex":13,"items":[{"name":"하늘다리PC방","tel":"031-946-2015","addr":"경기도 고양시 일산서구 일산동 579-2번지","indutype":"레저업소 - 기타레져업소","category":"leisure"}]},{"lat":"37.677376957","long":"126.76757631","imageIndex":13,"items":[{"name":"헬로우짐","tel":"031-912-9677","addr":"경기도 고양시 일산서구 일산동 1084-1번지","indutype":"레저업소 - 헬스클럽","category":"leisure"}]}]