[{"lat":"37.001444358","long":"127.33908626","imageIndex":4,"items":[{"name":"감나무골가든","tel":"031-672-9843","addr":"경기도 안성시 금광면 오흥리 687번지","indutype":"일반휴게음식 - 일반한식","category":"restaurant"}]},{"lat":"37.000030221","long":"127.33569852","imageIndex":4,"items":[{"name":"나이아드","tel":"031-671-1005","addr":"경기도 안성시 금광면 오흥리 883-1번지","indutype":"일반휴게음식 - 일반한식","category":"restaurant"},{"name":"안성비치안성마춤쌀밥집","tel":"031-671-1009","addr":"경기도 안성시 금광면 오흥리 883-1번지 1층","indutype":"일반휴게음식 - 일반한식","category":"restaurant"}]},{"lat":"37.000916546","long":"127.33773581","imageIndex":4,"items":[{"name":"느티나무집","tel":"031-674-8333","addr":"경기도 안성시 금광면 오흥리 735-1번지","indutype":"일반휴게음식 - 일반한식","category":"restaurant"}]},{"lat":"37.000082015","long":"127.33969815","imageIndex":4,"items":[{"name":"더뷰 (The View)","tel":"031-673-1525","addr":"경기도 안성시 금광면 오흥리 683-1번지 2층","indutype":"일반휴게음식 - 일반한식","category":"restaurant"},{"name":"은가비","tel":"031-676-5255","addr":"경기도 안성시 금광면 오흥리 683-1번지 3층","indutype":"일반휴게음식 - 서양음식","category":"restaurant"}]},{"lat":"37.013389665","long":"127.35253247","imageIndex":4,"items":[{"name":"별장매운탕집식당","tel":"031-672-9841","addr":"경기도 안성시 금광면 오흥리 58-3번지","indutype":"일반휴게음식 - 일반한식","category":"restaurant"}]},{"lat":"37.001194097","long":"127.33836615","imageIndex":4,"items":[{"name":"사랑방","tel":"031-672-9889","addr":"경기도 안성시 금광면 오흥리 739번지","indutype":"일반휴게음식 - 일반한식","category":"restaurant"}]},{"lat":"37.000799582","long":"127.34400408","imageIndex":4,"items":[{"name":"청학대미술관 183","tel":"031-673-7188","addr":"경기도 안성시 금광면 오흥리 432-5번지 1층","indutype":"일반휴게음식 - 서양음식","category":"restaurant"}]}]