[{"lat":"37.43322121","long":"127.2419181","imageIndex":7,"items":[{"name":"(주)동림수산","tel":"031-767-3738","addr":"경기도 광주시 회덕동 213-4번지","indutype":"음료식품 - 농·축·수산품","category":"food"},{"name":"참치가게","tel":"031-767-3738","addr":"경기도 광주시 회덕동 213-4번지 1층","indutype":"음료식품 - 농·축·수산품","category":"food"}]},{"lat":"37.43016855","long":"127.241061","imageIndex":7,"items":[{"name":"(주)인성피앤디","tel":"031-764-8187","addr":"경기도 광주시 회덕동 250-4번지","indutype":"음료식품 - 기타음료식품","category":"food"}]},{"lat":"37.43133462","long":"127.2436407","imageIndex":7,"items":[{"name":"SJ(에스제이유통)","tel":"","addr":"경기도 광주시 회덕동 205-2번지 골든빌","indutype":"음료식품 - 농·축·수산품","category":"food"}]},{"lat":"37.43641846","long":"127.242561","imageIndex":7,"items":[{"name":"다예푸드","tel":"031-764-2123","addr":"경기도 광주시 회덕동 159번지","indutype":"음료식품 - 기타음료식품","category":"food"},{"name":"정푸드","tel":"031-764-2123","addr":"경기도 광주시 회덕동 159번지","indutype":"음료식품 - 기타음료식품","category":"food"}]},{"lat":"37.4338012","long":"127.2446994","imageIndex":7,"items":[{"name":"대봉건해산물","tel":"031-768-4450","addr":"경기도 광주시 회덕동 192-4번지","indutype":"음료식품 - 농·축·수산품","category":"food"}]},{"lat":"37.42760807","long":"127.2418663","imageIndex":7,"items":[{"name":"밀목떡방앗간","tel":"031-766-0291","addr":"경기도 광주시 회덕동 271-9번지","indutype":"음료식품 - 기타음료식품","category":"food"},{"name":"한세마트내 생선코너","tel":"031-765-1485","addr":"경기도 광주시 회덕동 271-9번지","indutype":"음료식품 - 농·축·수산품","category":"food"}]},{"lat":"37.4305254","long":"127.2428134","imageIndex":7,"items":[{"name":"삼원유통","tel":"031-797-6053","addr":"경기도 광주시 회덕동 332-7번지","indutype":"음료식품 - 정육점","category":"food"}]},{"lat":"37.42902994","long":"127.2471132","imageIndex":7,"items":[{"name":"연세우유경기광주보급소","tel":"031-762-4192","addr":"경기도 광주시 회덕동 377번지","indutype":"음료식품 - 기타음료식품","category":"food"}]},{"lat":"37.42794213","long":"127.2415284","imageIndex":7,"items":[{"name":"파리바게뜨(회덕점)","tel":"031-762-0682","addr":"경기도 광주시 회덕동 271-1번지","indutype":"음료식품 - 제과점","category":"food"}]}]