[{"lat":"37.50188358","long":"127.49361548","imageIndex":0,"items":[{"name":"24시카서비스","tel":"031-774-8270","addr":"경기도 양평군 양평읍 양근리 26-2번지","indutype":"자동차정비 유지 - 자동차정비","category":"car"}]},{"lat":"37.496748521","long":"127.48251115","imageIndex":0,"items":[{"name":"금호타이어양평대리점","tel":"031-775-5766","addr":"경기도 양평군 양평읍 양근리 502-5","indutype":"자동차정비 유지 - 자동차시트·타이어","category":"car"},{"name":"지겐(SIEGEN)","tel":"031-775-5766","addr":"경기도 양평군 양평읍 양근리 502-5번지","indutype":"자동차정비 유지 - 자동차부품","category":"car"}]},{"lat":"37.497417423","long":"127.4907818","imageIndex":0,"items":[{"name":"대흥자동차공업사","tel":"031-773-6946","addr":"경기도 양평군 양평읍 양근리 49-33","indutype":"자동차정비 유지 - 자동차정비","category":"car"}]},{"lat":"37.489944221","long":"127.49609279","imageIndex":0,"items":[{"name":"동부세차장","tel":"02-1111-1111","addr":"경기도 양평군 양평읍 양근리 191-3번지 동부세차장","indutype":"자동차정비 유지 - 세차장","category":"car"}]},{"lat":"37.486883876","long":"127.49537166","imageIndex":0,"items":[{"name":"발보아모터컴퍼니","tel":"031-775-9001","addr":"경기도 양평군 양평읍 양근리 192-125번지","indutype":"자동차정비 유지 - 자동차정비","category":"car"}]},{"lat":"37.498302792","long":"127.49019952","imageIndex":0,"items":[{"name":"배터리마트","tel":"031-771-7741","addr":"경기도 양평군 양평읍 양근리 76-5번지 203호","indutype":"자동차정비 유지 - 자동차부품","category":"car"}]},{"lat":"37.497660098","long":"127.48212119","imageIndex":0,"items":[{"name":"쌍용자동차서비스양평코너","tel":"031-774-5594","addr":"경기도 양평군 양평읍 양근리 504-12번지","indutype":"자동차정비 유지 - 자동차정비","category":"car"}]},{"lat":"37.487720428","long":"127.49353413","imageIndex":0,"items":[{"name":"양평물맑은시장상인회","tel":"031-771-2080","addr":"경기도 양평군 양평읍 양근리 222-9번지","indutype":"자동차정비 유지 - 주차장","category":"car"}]},{"lat":"37.502665582","long":"127.49406166","imageIndex":0,"items":[{"name":"양평시트카바상사","tel":"031-772-3191","addr":"경기도 양평군 양평읍 양근리 17-1","indutype":"자동차정비 유지 - 자동차정비","category":"car"},{"name":"양평차유리","tel":"031-772-3191","addr":"경기도 양평군 양평읍 양근리 17-1번지","indutype":"자동차정비 유지 - 자동차부품","category":"car"}]},{"lat":"37.49075098","long":"127.49492214","imageIndex":0,"items":[{"name":"양평카센터","tel":"031-772-5056","addr":"경기도 양평군 양평읍 양근리 169-11번지","indutype":"자동차정비 유지 - 자동차정비","category":"car"}]},{"lat":"37.50119397","long":"127.49261579","imageIndex":0,"items":[{"name":"양평현대서비스(주)","tel":"031-772-8700","addr":"경기도 양평군 양평읍 양근리 39번지","indutype":"자동차정비 유지 - 자동차부품","category":"car"}]},{"lat":"37.497387641","long":"127.48486736","imageIndex":0,"items":[{"name":"지방행정동우회 양평군지부","tel":"02-0000-0000","addr":"경기도 양평군 양평읍 양근리 542번지","indutype":"자동차정비 유지 - 주차장","category":"car"}]},{"lat":"37.493721193","long":"127.49131184","imageIndex":0,"items":[{"name":"코레일네트웍스(주)양평역주차장","tel":"031-511-3571","addr":"경기도 양평군 양평읍 양근리 130-9번지","indutype":"자동차정비 유지 - 주차장","category":"car"}]},{"lat":"37.492417442","long":"127.48847646","imageIndex":0,"items":[{"name":"한국자유총연맹 양평군지회","tel":"031-773-5050","addr":"경기도 양평군 양평읍 양근리 396-28","indutype":"자동차정비 유지 - 주차장","category":"car"}]},{"lat":"37.496443199","long":"127.48447682","imageIndex":0,"items":[{"name":"한국자유총연맹양평군지회","tel":"031-773-5050","addr":"경기도 양평군 양평읍 양근리 510-1번지","indutype":"자동차정비 유지 - 주차장","category":"car"}]}]