[{"lat":"37.44789014","long":"126.8921891","imageIndex":13,"items":[{"name":"(주)아이둘","tel":"02-6112-8266","addr":"경기도 광명시 소하동 1365번지 에이스광명타워 518호","indutype":"보건위생 - 안경","category":"beauty"},{"name":"글라스박스안경원","tel":"02-6112-7388","addr":"경기도 광명시 소하동 1365번지 에이스광명타워 102호","indutype":"보건위생 - 안경","category":"beauty"},{"name":"에스헤어","tel":"02-6112-7822","addr":"경기도 광명시 소하동 1365번지 에이스광명타워 1층 112호","indutype":"보건위생 - 미용원","category":"beauty"},{"name":"에이스스파","tel":"02-6112-7771","addr":"경기도 광명시 소하동 1365번지 에이스광명타워지하1층B113","indutype":"보건위생 - 이용원","category":"beauty"},{"name":"에이스케어","tel":"02-6112-7770","addr":"경기도 광명시 소하동 1365번지 에이스광명타워에이스스파 B113호","indutype":"보건위생 - 기타대인서비스","category":"beauty"},{"name":"영화","tel":"02-6112-7770","addr":"경기도 광명시 소하동 1365번지 에이스광명타워 지하1층","indutype":"보건위생 - 기타대인서비스","category":"beauty"}]},{"lat":"37.43457901","long":"126.8797121","imageIndex":13,"items":[{"name":"(주)진영 (JINYOUNG)","tel":"02-899-8413","addr":"경기도 광명시 소하동 1268-3번지 1층 광명시청청년창업지원센터 일자리창조허브센터","indutype":"보건위생 - 미용재료","category":"beauty"},{"name":"주식회사 그레이 더 센트","tel":"070-4411-7599","addr":"경기도 광명시 소하동 1268-3번지 2층","indutype":"보건위생 - 화장품","category":"beauty"}]},{"lat":"37.43740827","long":"126.8798205","imageIndex":13,"items":[{"name":"100#","tel":"","addr":"경기도 광명시 소하동 902-7번지 1층 일부호","indutype":"보건위생 - 미용원","category":"beauty"},{"name":"이쁜손톱","tel":"02-806-7857","addr":"경기도 광명시 소하동 902-7번지 이쁜손톱 902-7","indutype":"보건위생 - 화장품","category":"beauty"}]},{"lat":"37.44588342","long":"126.8854569","imageIndex":13,"items":[{"name":"3팩토리안경","tel":"02-897-1375","addr":"경기도 광명시 소하동 1337-10번지 101,102호","indutype":"보건위생 - 안경","category":"beauty"},{"name":"미시후","tel":"02-898-5579","addr":"경기도 광명시 소하동 1337-10번지 105호","indutype":"보건위생 - 기타대인서비스","category":"beauty"},{"name":"봄네일","tel":"02-111-1111","addr":"경기도 광명시 소하동 1337-10번지 105호","indutype":"보건위생 - 피부미용실","category":"beauty"},{"name":"지나미장원","tel":"02-000-0000","addr":"경기도 광명시 소하동 1337-10번지 106호","indutype":"보건위생 - 미용원","category":"beauty"}]},{"lat":"37.45493059","long":"126.8865956","imageIndex":13,"items":[{"name":"B&S","tel":"02-897-8766","addr":"경기도 광명시 소하동 55-63번지 스페이스타워 302호","indutype":"보건위생 - 의료용품","category":"beauty"}]},{"lat":"37.44954494","long":"126.8889885","imageIndex":13,"items":[{"name":"BARABOM(바라봄)","tel":"02-897-1789","addr":"경기도 광명시 소하동 1312-9번지 1층","indutype":"보건위생 - 피부미용실","category":"beauty"}]},{"lat":"37.43527338","long":"126.8802872","imageIndex":13,"items":[{"name":"E.T.O(아이탑옵티컬)","tel":"02-898-9845","addr":"경기도 광명시 소하동 1243-4번지 동곡빌딩 C동 지층 A","indutype":"보건위생 - 안경","category":"beauty"}]},{"lat":"37.44472029","long":"126.8939906","imageIndex":13,"items":[{"name":"LASS HAIR(레쓰헤어)","tel":"02-2083-2087","addr":"경기도 광명시 소하동 1345번지 광명테크노파크 C동 205호","indutype":"보건위생 - 미용원","category":"beauty"},{"name":"씨와이비 코리아 (CYB Korea)","tel":"02-2088-4035","addr":"경기도 광명시 소하동 1345번지 광명테크노파크 C동 10층 1007호","indutype":"보건위생 - 화장품","category":"beauty"},{"name":"큐사랑","tel":"02-2083-2066","addr":"경기도 광명시 소하동 1345번지 광명테크노파크 C동 106호","indutype":"보건위생 - 미용원","category":"beauty"},{"name":"힐링풋앤바디","tel":"02-1234-1234","addr":"경기도 광명시 소하동 1345번지 광명테크노파크 C동 1202호","indutype":"보건위생 - 피부미용실","category":"beauty"}]},{"lat":"37.43629855","long":"126.8783986","imageIndex":13,"items":[{"name":"the행복한마음센터","tel":"02-6403-7800","addr":"경기도 광명시 소하동 924-24번지 외1필지 2층","indutype":"보건위생 - 기타대인서비스","category":"beauty"}]},{"lat":"37.43555126","long":"126.8789196","imageIndex":13,"items":[{"name":"가위 이야기 안양지점","tel":"070-7437-9586","addr":"경기도 광명시 소하동 931번지 현대빌라 3동 303호","indutype":"보건위생 - 미용재료","category":"beauty"}]},{"lat":"37.4370797","long":"126.8758437","imageIndex":13,"items":[{"name":"가위소리헤어센스","tel":"02-897-6380","addr":"경기도 광명시 소하동 896번지 현대아파트","indutype":"보건위생 - 미용원","category":"beauty"}]},{"lat":"37.44832296","long":"126.8832946","imageIndex":13,"items":[{"name":"건강","tel":"02-898-8899","addr":"경기도 광명시 소하동 1340-5번지 웅신아트 2층 205호","indutype":"보건위생 - 미용재료","category":"beauty"},{"name":"리나앤보스","tel":"02-2652-0010","addr":"경기도 광명시 소하동 1340-5번지 웅신아트 2층 204호","indutype":"보건위생 - 미용원","category":"beauty"},{"name":"모유육아상담실","tel":"","addr":"경기도 광명시 소하동 1340-5번지 웅신아트 301호","indutype":"보건위생 - 기타대인서비스","category":"beauty"},{"name":"미래안경원","tel":"02-899-1288","addr":"경기도 광명시 소하동 1340-5번지 웅신아트오피스텔 307호","indutype":"보건위생 - 안경","category":"beauty"},{"name":"스웨디시랩","tel":"01-577-0000","addr":"경기도 광명시 소하동 1340-5번지 웅신아트 3층 305호","indutype":"보건위생 - 화장품","category":"beauty"},{"name":"스크린헤어살롱광명점","tel":"02-899-3383","addr":"경기도 광명시 소하동 1340-5번지 웅신아트 203,204호","indutype":"보건위생 - 미용원","category":"beauty"},{"name":"엘제이(LJ)리정","tel":"","addr":"경기도 광명시 소하동 1340-5번지 웅신아트 10층 1009호","indutype":"보건위생 - 화장품","category":"beauty"}]},{"lat":"37.43982741","long":"126.8841782","imageIndex":13,"items":[{"name":"골드트리","tel":"","addr":"경기도 광명시 소하동 863-14번지","indutype":"보건위생 - 화장품","category":"beauty"}]},{"lat":"37.43588138","long":"126.8845347","imageIndex":13,"items":[{"name":"골든힐 안경원","tel":"070-4112-1004","addr":"경기도 광명시 소하동 1238번지 기아파크빌 1층 108호","indutype":"보건위생 - 안경","category":"beauty"},{"name":"슈르르 네일","tel":"","addr":"경기도 광명시 소하동 1238번지 기아파크빌 1층 109호","indutype":"보건위생 - 피부미용실","category":"beauty"}]},{"lat":"37.45110604","long":"126.8914837","imageIndex":13,"items":[{"name":"굿 테라피","tel":"02-898-3335","addr":"경기도 광명시 소하동 35-9번지 5층","indutype":"보건위생 - 화장품","category":"beauty"},{"name":"리틀데우스","tel":"","addr":"경기도 광명시 소하동 35-9번지 종만빌딩 4층","indutype":"보건위생 - 기타대인서비스","category":"beauty"}]},{"lat":"37.44782905","long":"126.8849227","imageIndex":13,"items":[{"name":"굿모닝보청기","tel":"02-899-3511","addr":"경기도 광명시 소하동 1338번지 하나로빌딩 301호","indutype":"보건위생 - 의료용품","category":"beauty"}]},{"lat":"37.44685435","long":"126.8833195","imageIndex":13,"items":[{"name":"그랑프리안경원","tel":"02-897-5078","addr":"경기도 광명시 소하동 1341-3번지 청학프라자 103호~104호","indutype":"보건위생 - 안경","category":"beauty"},{"name":"주식회사 제이메디칼","tel":"02-6112-2552","addr":"경기도 광명시 소하동 1341-3번지 청학프라자 205호","indutype":"보건위생 - 의료용품","category":"beauty"},{"name":"청담","tel":"02-897-9788","addr":"경기도 광명시 소하동 1341-3번지 청학프라자 203호","indutype":"보건위생 - 피부미용실","category":"beauty"}]},{"lat":"37.44671111","long":"126.8842238","imageIndex":13,"items":[{"name":"그린아이안경원","tel":"02-898-7276","addr":"경기도 광명시 소하동 1339-3번지 이마트 2층","indutype":"보건위생 - 안경","category":"beauty"},{"name":"이철헤어커커 이마트광명소하점","tel":"02-898-2326","addr":"경기도 광명시 소하동 1339-3번지 이마트소하점 2층","indutype":"보건위생 - 미용원","category":"beauty"}]},{"lat":"37.44785516","long":"126.8840073","imageIndex":13,"items":[{"name":"글라스&렌즈스토리 (광명소하점)","tel":"02-898-2002","addr":"경기도 광명시 소하동 1339번지 골든프라자 101호","indutype":"보건위생 - 안경","category":"beauty"},{"name":"엄지척","tel":"","addr":"경기도 광명시 소하동 1339번지 골든프라자 4층 403호","indutype":"보건위생 - 화장품","category":"beauty"}]},{"lat":"37.43363222","long":"126.8790131","imageIndex":13,"items":[{"name":"기분전환","tel":"031-899-1378","addr":"경기도 광명시 소하동 1075-6번지 104호","indutype":"보건위생 - 피부미용실","category":"beauty"},{"name":"레드헤어쿨소하점43호","tel":"02-899-7555","addr":"경기도 광명시 소하동 1075-6번지 1층","indutype":"보건위생 - 미용원","category":"beauty"}]},{"lat":"37.43755123","long":"126.878679","imageIndex":13,"items":[{"name":"기분좋은날","tel":"02-898-0446","addr":"경기도 광명시 소하동 911-8번지 1층","indutype":"보건위생 - 화장품","category":"beauty"}]},{"lat":"37.43755191","long":"126.8793231","imageIndex":13,"items":[{"name":"김상희헤어","tel":"02-803-1689","addr":"경기도 광명시 소하동 911-3번지 2층","indutype":"보건위생 - 미용원","category":"beauty"}]},{"lat":"37.43596649","long":"126.8796533","imageIndex":13,"items":[{"name":"김안경마트","tel":"02-899-3922","addr":"경기도 광명시 소하동 1242-15번지 인덕빌딩 1층","indutype":"보건위생 - 안경","category":"beauty"}]},{"lat":"37.43315541","long":"126.8797032","imageIndex":13,"items":[{"name":"김언니쌀롱","tel":"031-897-1129","addr":"경기도 광명시 소하동 1380번지 2층 206호","indutype":"보건위생 - 미용원","category":"beauty"},{"name":"드림안경","tel":"02-898-3337","addr":"경기도 광명시 소하동 1380번지 1층 6호","indutype":"보건위생 - 안경","category":"beauty"},{"name":"디자인스킨바디","tel":"02-899-1224","addr":"경기도 광명시 소하동 1380번지 2층 202호","indutype":"보건위생 - 피부미용실","category":"beauty"}]},{"lat":"37.43502219","long":"126.8813497","imageIndex":13,"items":[{"name":"김영애칼라스케치","tel":"02-897-6322","addr":"경기도 광명시 소하동 1246-7번지","indutype":"보건위생 - 미용원","category":"beauty"}]},{"lat":"37.44962893","long":"126.8920397","imageIndex":13,"items":[{"name":"김인선헤어샵","tel":"02-899-3008","addr":"경기도 광명시 소하동 1363번지 103호 신촌휴먼시아제나상가","indutype":"보건위생 - 미용원","category":"beauty"},{"name":"아일리아헤어","tel":"02-897-5322","addr":"경기도 광명시 소하동 1363번지 광명신촌가 상가 104호","indutype":"보건위생 - 미용원","category":"beauty"}]},{"lat":"37.45385176","long":"126.8890384","imageIndex":13,"items":[{"name":"김정아미용실","tel":"02-894-6807","addr":"경기도 광명시 소하동 48-47번지 1층","indutype":"보건위생 - 미용원","category":"beauty"}]},{"lat":"37.43838033","long":"126.8788471","imageIndex":13,"items":[{"name":"나도네일","tel":"","addr":"경기도 광명시 소하동 381-2번지 1층","indutype":"보건위생 - 피부미용실","category":"beauty"}]},{"lat":"37.44501819","long":"126.8946117","imageIndex":13,"items":[{"name":"나래덴탈","tel":"","addr":"경기도 광명시 소하동 1345번지 광명테크노파크 B동 807호","indutype":"보건위생 - 의료용품","category":"beauty"}]},{"lat":"37.44782687","long":"126.8827643","imageIndex":13,"items":[{"name":"나이스가이 광명휴먼시아점","tel":"","addr":"경기도 광명시 소하동 1342번지 102호","indutype":"보건위생 - 이용원","category":"beauty"},{"name":"라브레아헤어","tel":"02-6203-6393","addr":"경기도 광명시 소하동 1342번지 2층 202호","indutype":"보건위생 - 미용원","category":"beauty"},{"name":"풀하우스","tel":"031-858-5782","addr":"경기도 광명시 소하동 1342번지 4층 402호","indutype":"보건위생 - 미용재료","category":"beauty"}]},{"lat":"37.43658018","long":"126.8806241","imageIndex":13,"items":[{"name":"나이스가이소하점","tel":"02-897-3939","addr":"경기도 광명시 소하동 898-1번지","indutype":"보건위생 - 미용원","category":"beauty"}]},{"lat":"37.44640363","long":"126.8830943","imageIndex":13,"items":[{"name":"네일도맑음","tel":"031-0000-0000","addr":"경기도 광명시 소하동 1343-5번지 에버그린105, 105-1호","indutype":"보건위생 - 피부미용실","category":"beauty"}]},{"lat":"37.45234839","long":"126.8903969","imageIndex":13,"items":[{"name":"네일라라","tel":"031-000-0000","addr":"경기도 광명시 소하동 55-182번지 SPACE35 1층","indutype":"보건위생 - 피부미용실","category":"beauty"}]},{"lat":"37.4498244","long":"126.8891463","imageIndex":13,"items":[{"name":"누리헤어샵","tel":"02-845-1212","addr":"경기도 광명시 소하동 1312-6번지 101호","indutype":"보건위생 - 미용원","category":"beauty"},{"name":"안녕태라헤어메이크업샵","tel":"031-000-0000","addr":"경기도 광명시 소하동 1312-6번지 101호","indutype":"보건위생 - 미용원","category":"beauty"}]},{"lat":"37.44757677","long":"126.8849231","imageIndex":13,"items":[{"name":"늘봄네일","tel":"","addr":"경기도 광명시 소하동 1338-1번지 서울프라자 304호","indutype":"보건위생 - 피부미용실","category":"beauty"}]},{"lat":"37.44837774","long":"126.8840065","imageIndex":13,"items":[{"name":"다온헤어(Da:on)","tel":"02-899-0909","addr":"경기도 광명시 소하동 1335번지 205호","indutype":"보건위생 - 미용원","category":"beauty"},{"name":"더풋샵 (광명 소하점)","tel":"02-899-6888","addr":"경기도 광명시 소하동 1335번지 메이저리치안 608, 609호","indutype":"보건위생 - 안마시술소","category":"beauty"},{"name":"독일지멘스보청기(광명점)","tel":"02-806-5100","addr":"경기도 광명시 소하동 1335번지 메이저리치안 3층","indutype":"보건위생 - 의료용품","category":"beauty"},{"name":"물댄동산 심리발달상담센터","tel":"02-899-6875","addr":"경기도 광명시 소하동 1335번지 3층 301-1호","indutype":"보건위생 - 기타대인서비스","category":"beauty"},{"name":"물댄동산 아동발달상담센터","tel":"02-899-6875","addr":"경기도 광명시 소하동 1335번지 메이저리치안 301-1호","indutype":"보건위생 - 기타대인서비스","category":"beauty"},{"name":"아리따움 광명소하상업지구점","tel":"02-898-0194","addr":"경기도 광명시 소하동 1335번지 1층 110호","indutype":"보건위생 - 화장품","category":"beauty"},{"name":"이니스프리 광명소하점","tel":"02-897-2991","addr":"경기도 광명시 소하동 1335번지 메이저리치안 1층 112호","indutype":"보건위생 - 화장품","category":"beauty"},{"name":"제오헤어","tel":"02-899-1718","addr":"경기도 광명시 소하동 1335번지 메이저리치안 203호","indutype":"보건위생 - 미용원","category":"beauty"}]},{"lat":"37.43782301","long":"126.880091","imageIndex":13,"items":[{"name":"댕기머리","tel":"02-898-1218","addr":"경기도 광명시 소하동 883-26번지 1층","indutype":"보건위생 - 미용원","category":"beauty"}]},{"lat":"37.43627346","long":"126.880263","imageIndex":13,"items":[{"name":"도로시헤어","tel":"02-897-5551","addr":"경기도 광명시 소하동 1241번지 102호","indutype":"보건위생 - 미용원","category":"beauty"}]},{"lat":"37.43629822","long":"126.8780935","imageIndex":13,"items":[{"name":"동진이용원","tel":"070-8134-3588","addr":"경기도 광명시 소하동 924-37","indutype":"보건위생 - 미용원","category":"beauty"}]},{"lat":"37.43502262","long":"126.8817678","imageIndex":13,"items":[{"name":"딥퍼플","tel":"070-7570-2849","addr":"경기도 광명시 소하동 1247-4번지 1층","indutype":"보건위생 - 미용원","category":"beauty"}]},{"lat":"37.45261104","long":"126.882621","imageIndex":13,"items":[{"name":"뜨니 헤어","tel":"02-891-1827","addr":"경기도 광명시 소하동 1288번지 휴먼시아2단지아파트","indutype":"보건위생 - 미용원","category":"beauty"}]},{"lat":"37.43274591","long":"126.8758736","imageIndex":13,"items":[{"name":"라이프앤진 뷰티마스터","tel":"032-429-9984","addr":"경기도 광명시 소하동 950-3번지 우성빌라 202호","indutype":"보건위생 - 화장품","category":"beauty"}]},{"lat":"37.43602273","long":"126.8817662","imageIndex":13,"items":[{"name":"라인헤어","tel":"02-6101-9256","addr":"경기도 광명시 소하동 1240-9번지 103호","indutype":"보건위생 - 미용원","category":"beauty"}]},{"lat":"37.43682214","long":"126.8793695","imageIndex":13,"items":[{"name":"러블리네일","tel":"02-899-5899","addr":"경기도 광명시 소하동 913-3번지 1층 101호","indutype":"보건위생 - 피부미용실","category":"beauty"},{"name":"허브에스테틱","tel":"070-8882-9430","addr":"경기도 광명시 소하동 913-3번지 2층","indutype":"보건위생 - 피부미용실","category":"beauty"}]},{"lat":"37.45318414","long":"126.888124","imageIndex":13,"items":[{"name":"레드미컬","tel":"02-899-9977","addr":"경기도 광명시 소하동 48-13번지 광명삼익아파트","indutype":"보건위생 - 미용원","category":"beauty"}]},{"lat":"37.45526904","long":"126.8826732","imageIndex":13,"items":[{"name":"레드폴바버샵광명점","tel":"","addr":"경기도 광명시 소하동 1281-3번지 지하1층","indutype":"보건위생 - 이용원","category":"beauty"}]},{"lat":"37.43482909","long":"126.8776214","imageIndex":13,"items":[{"name":"리브가미용실","tel":"02-897-3996","addr":"경기도 광명시 소하동 937-2번지 1층","indutype":"보건위생 - 미용원","category":"beauty"}]},{"lat":"37.44826784","long":"126.8914314","imageIndex":13,"items":[{"name":"리안헤어","tel":"031-899-9595","addr":"경기도 광명시 소하동 1364번지 신촌프라자 208호","indutype":"보건위생 - 미용원","category":"beauty"},{"name":"블레싱뷰티","tel":"","addr":"경기도 광명시 소하동 1364번지 신촌프라자 1동 2층 205호 일부","indutype":"보건위생 - 피부미용실","category":"beauty"},{"name":"스킨&바디케어","tel":"02-2687-1388","addr":"경기도 광명시 소하동 1364번지 신촌프라자 1동 2층 205호","indutype":"보건위생 - 피부미용실","category":"beauty"},{"name":"신데렐라","tel":"02-893-4319","addr":"경기도 광명시 소하동 1364번지 신촌프라자 207호","indutype":"보건위생 - 미용원","category":"beauty"}]},{"lat":"37.44760286","long":"126.8839851","imageIndex":13,"items":[{"name":"리안헤어 광명소하점","tel":"02-899-0671","addr":"경기도 광명시 소하동 1339-1번지 1층 2호","indutype":"보건위생 - 미용원","category":"beauty"}]},{"lat":"37.45098852","long":"126.8910657","imageIndex":13,"items":[{"name":"리안헤어 소하신촌점","tel":"02-898-8787","addr":"경기도 광명시 소하동 35-1번지 2층","indutype":"보건위생 - 미용원","category":"beauty"}]},{"lat":"37.4478274","long":"126.8832841","imageIndex":13,"items":[{"name":"림블리헤어","tel":"02-899-0379","addr":"경기도 광명시 소하동 1341번지 신성프라자 204호","indutype":"보건위생 - 미용원","category":"beauty"},{"name":"뷰티플러스","tel":"070-9144-6976","addr":"경기도 광명시 소하동 1341번지 신성프라자 5층 502호","indutype":"보건위생 - 미용재료","category":"beauty"}]},{"lat":"37.45077244","long":"126.8912356","imageIndex":13,"items":[{"name":"머리나라","tel":"02-897-9515","addr":"경기도 광명시 소하동 35-18번지 1층","indutype":"보건위생 - 미용원","category":"beauty"}]},{"lat":"37.44981786","long":"126.8825463","imageIndex":13,"items":[{"name":"머리여행","tel":"02-898-3357","addr":"경기도 광명시 소하동 1289번지 소하휴먼시아상가-104","indutype":"보건위생 - 미용원","category":"beauty"}]},{"lat":"37.43459573","long":"126.8873502","imageIndex":13,"items":[{"name":"머리잘하는집","tel":"02-899-7872","addr":"경기도 광명시 소하동 1373번지 광명역세권 상가동 103호","indutype":"보건위생 - 미용원","category":"beauty"},{"name":"미소헤어","tel":"02-804-8032","addr":"경기도 광명시 소하동 1373번지 광명역세권휴먼시아가 상가 107호","indutype":"보건위생 - 미용원","category":"beauty"}]},{"lat":"37.43621128","long":"126.8811218","imageIndex":13,"items":[{"name":"머리카락미용실","tel":"02-897-0477","addr":"경기도 광명시 소하동 1241-4번지 오승빌딩 103호","indutype":"보건위생 - 미용원","category":"beauty"}]},{"lat":"37.44718769","long":"126.8832851","imageIndex":13,"items":[{"name":"명품약손","tel":"02-899-2888","addr":"경기도 광명시 소하동 1341-2번지 제일프라자 401호","indutype":"보건위생 - 안마시술소","category":"beauty"},{"name":"에드워드가위손","tel":"02-804-2386","addr":"경기도 광명시 소하동 1341-2번지 제일프라자 201호","indutype":"보건위생 - 미용원","category":"beauty"},{"name":"토브헤어","tel":"02-898-0210","addr":"경기도 광명시 소하동 1341-2번지 제일프라자 204호","indutype":"보건위생 - 미용원","category":"beauty"}]},{"lat":"37.43285855","long":"126.8801556","imageIndex":13,"items":[{"name":"모모헤어","tel":"02-898-2992","addr":"경기도 광명시 소하동 1381-2번지 101호","indutype":"보건위생 - 미용원","category":"beauty"}]},{"lat":"37.43779491","long":"126.8790628","imageIndex":13,"items":[{"name":"물들이다","tel":"02-6349-5450","addr":"경기도 광명시 소하동 909-39번지 1층 104호","indutype":"보건위생 - 미용원","category":"beauty"}]},{"lat":"37.44442094","long":"126.8918213","imageIndex":13,"items":[{"name":"뮤즈헤어","tel":"02-899-8400","addr":"경기도 광명시 소하동 1348번지 휴먼시아 상가동 101호","indutype":"보건위생 - 미용원","category":"beauty"}]},{"lat":"37.43479657","long":"126.8809885","imageIndex":13,"items":[{"name":"미인헤어갤러리","tel":"02-897-3373","addr":"경기도 광명시 소하동 1265번지 1층","indutype":"보건위생 - 미용원","category":"beauty"}]},{"lat":"37.43582183","long":"126.879179","imageIndex":13,"items":[{"name":"민네일","tel":"02-6091-4141","addr":"경기도 광명시 소하동 920-5번지 1층","indutype":"보건위생 - 미용재료","category":"beauty"}]},{"lat":"37.43499601","long":"126.8821746","imageIndex":13,"items":[{"name":"민주미용실","tel":"02-897-8597","addr":"경기도 광명시 소하동 1248-11번지 명지타운","indutype":"보건위생 - 미용원","category":"beauty"}]},{"lat":"37.44721593","long":"126.884483","imageIndex":13,"items":[{"name":"바른글로벌마케팅","tel":"070-7627-0278","addr":"경기도 광명시 소하동 1338-3번지 광장프라자 407호","indutype":"보건위생 - 화장품","category":"beauty"},{"name":"오휘 광명소하점","tel":"070-7737-9323","addr":"경기도 광명시 소하동 1338-3번지 광장프라자 501호","indutype":"보건위생 - 화장품","category":"beauty"},{"name":"오휘 카운셀러 손유진","tel":"070-7737-9323","addr":"경기도 광명시 소하동 1338-3번지 광장프라자 501호","indutype":"보건위생 - 화장품","category":"beauty"},{"name":"오휘광명소하점","tel":"070-7737-9223","addr":"경기도 광명시 소하동 1338-3번지 광장프라자 501호","indutype":"보건위생 - 화장품","category":"beauty"}]},{"lat":"37.43724131","long":"126.8839563","imageIndex":13,"items":[{"name":"바비쩡헤어","tel":"02-891-0511","addr":"경기도 광명시 소하동 1233번지 2층","indutype":"보건위생 - 미용원","category":"beauty"}]},{"lat":"37.43651836","long":"126.8818445","imageIndex":13,"items":[{"name":"백향목 주식회사","tel":"02-899-1112","addr":"경기도 광명시 소하동 1236-4번지 덕화빌딩 401호","indutype":"보건위생 - 화장품","category":"beauty"}]},{"lat":"37.44637696","long":"126.8834559","imageIndex":13,"items":[{"name":"벨라비스","tel":"02-0000-0000","addr":"경기도 광명시 소하동 1343-6번지 201호","indutype":"보건위생 - 피부미용실","category":"beauty"},{"name":"벨라비스","tel":"02-898-6385","addr":"경기도 광명시 소하동 1343-6번지 2층 201호","indutype":"보건위생 - 피부미용실","category":"beauty"},{"name":"어메이징 헤어","tel":"02-898-3369","addr":"경기도 광명시 소하동 1343-6번지 지하1층 101,102호","indutype":"보건위생 - 미용원","category":"beauty"}]},{"lat":"37.43437935","long":"126.8783453","imageIndex":13,"items":[{"name":"보승이용원","tel":"02-897-9463","addr":"경기도 광명시 소하동 1080-3번지","indutype":"보건위생 - 이용원","category":"beauty"}]},{"lat":"37.44396413","long":"126.8947375","imageIndex":13,"items":[{"name":"뷰티아이콘","tel":"02-1577-1405","addr":"경기도 광명시 소하동 1345번지 광명테크노파크 E동 1201호","indutype":"보건위생 - 화장품","category":"beauty"},{"name":"주식회사 휴라이트","tel":"02-898-2115","addr":"경기도 광명시 소하동 1345번지 광명테크노파크 제E동13층1311호","indutype":"보건위생 - 의료용품","category":"beauty"},{"name":"주식회사드림엔텍","tel":"02-2603-8711","addr":"경기도 광명시 소하동 1345번지 SK테크노파크 E동 1215호","indutype":"보건위생 - 미용재료","category":"beauty"}]},{"lat":"37.44641157","long":"126.8820433","imageIndex":13,"items":[{"name":"비비헤어","tel":"02-898-2455","addr":"경기도 광명시 소하동 1343-2번지 소하람 2 2동 104호","indutype":"보건위생 - 미용원","category":"beauty"}]},{"lat":"37.45395981","long":"126.8889592","imageIndex":13,"items":[{"name":"산들에헤어샵","tel":"02-897-3642","addr":"경기도 광명시 소하동 55-98번지 1층","indutype":"보건위생 - 미용원","category":"beauty"}]},{"lat":"37.43452164","long":"126.8765824","imageIndex":13,"items":[{"name":"샬롬","tel":"070-7529-8843","addr":"경기도 광명시 소하동 941-20번지 뉴월드맨션 B동 302호","indutype":"보건위생 - 화장품","category":"beauty"}]},{"lat":"37.43582305","long":"126.8803428","imageIndex":13,"items":[{"name":"설악탕","tel":"02-897-7512","addr":"경기도 광명시 소하동 1243-1번지","indutype":"보건위생 - 사우나","category":"beauty"}]},{"lat":"37.44221028","long":"126.8795075","imageIndex":13,"items":[{"name":"소호헤어","tel":"02-898-7138","addr":"경기도 광명시 소하동 313-5번지 1층","indutype":"보건위생 - 미용원","category":"beauty"}]},{"lat":"37.43527268","long":"126.8796206","imageIndex":13,"items":[{"name":"수주샵 플랜","tel":"02-897-0476","addr":"경기도 광명시 소하동 1242-10번지 2층","indutype":"보건위생 - 미용원","category":"beauty"},{"name":"신의손정통마사지","tel":"02-897-8185","addr":"경기도 광명시 소하동 1242-10번지 3층","indutype":"보건위생 - 안마시술소","category":"beauty"},{"name":"안경박사 (소하점)","tel":"02-899-3367","addr":"경기도 광명시 소하동 1242-10번지 1층","indutype":"보건위생 - 안경","category":"beauty"}]},{"lat":"37.43421851","long":"126.8796223","imageIndex":13,"items":[{"name":"수헤어","tel":"02-897-8317","addr":"경기도 광명시 소하동 1268-7번지 광명빌딩 103호","indutype":"보건위생 - 미용원","category":"beauty"}]},{"lat":"37.43654485","long":"126.8813134","imageIndex":13,"items":[{"name":"슈가헤어","tel":"02-899-4568","addr":"경기도 광명시 소하동 1236번지 동광빌딩 2층","indutype":"보건위생 - 미용원","category":"beauty"}]},{"lat":"37.4370221","long":"126.8810414","imageIndex":13,"items":[{"name":"스킨씨네일","tel":"031-0000-0000","addr":"경기도 광명시 소하동 894-1번지 1층","indutype":"보건위생 - 피부미용실","category":"beauty"}]},{"lat":"37.44623965","long":"126.89044","imageIndex":13,"items":[{"name":"스킨앤바디","tel":"02-899-5718","addr":"경기도 광명시 소하동 1324번지 휴먼시아6단지아파트","indutype":"보건위생 - 화장품","category":"beauty"},{"name":"시온 헤어 갤러리","tel":"070-8848-3330","addr":"경기도 광명시 소하동 1324번지 휴먼시아 나상가동 1층 105호","indutype":"보건위생 - 미용원","category":"beauty"},{"name":"아이두","tel":"02-899-1178","addr":"경기도 광명시 소하동 1324번지 소하휴먼시아 상가동 108호","indutype":"보건위생 - 미용원","category":"beauty"}]},{"lat":"37.45359994","long":"126.8895135","imageIndex":13,"items":[{"name":"아로마라이프소화점","tel":"02-6332-7990","addr":"경기도 광명시 소하동 47-1번지 1층","indutype":"보건위생 - 화장품","category":"beauty"}]},{"lat":"37.43651748","long":"126.8809858","imageIndex":13,"items":[{"name":"아름다운헤어","tel":"070-7614-3579","addr":"경기도 광명시 소하동 897-3번지 1층 일부","indutype":"보건위생 - 미용원","category":"beauty"}]},{"lat":"37.43493935","long":"126.879655","imageIndex":13,"items":[{"name":"아리따움광명소하점","tel":"02-898-8034","addr":"경기도 광명시 소하동 1268번지 태화빌딩 1층","indutype":"보건위생 - 화장품","category":"beauty"}]},{"lat":"37.43499016","long":"126.8853158","imageIndex":13,"items":[{"name":"아미스헤어(AMIS hair)","tel":"02-867-6456","addr":"경기도 광명시 소하동 1370-4번지 101호","indutype":"보건위생 - 미용원","category":"beauty"}]},{"lat":"37.43663285","long":"126.8792907","imageIndex":13,"items":[{"name":"안경창고싸군소하점","tel":"02-897-2662","addr":"경기도 광명시 소하동 913-4번지","indutype":"보건위생 - 안경","category":"beauty"}]},{"lat":"37.44422626","long":"126.8956638","imageIndex":13,"items":[{"name":"에이오테크","tel":"02-6112-3700","addr":"경기도 광명시 소하동 1345번지 광명테크노파크 D동 803호","indutype":"보건위생 - 의료용품","category":"beauty"},{"name":"주식회사 일론","tel":"02-338-1452","addr":"경기도 광명시 소하동 1345번지 광명테크노파크 D동 7층 707호","indutype":"보건위생 - 화장품","category":"beauty"}]},{"lat":"37.44660023","long":"126.8815118","imageIndex":13,"items":[{"name":"에이플헤어","tel":"02-898-3005","addr":"경기도 광명시 소하동 1343-1번지 202호","indutype":"보건위생 - 미용원","category":"beauty"}]},{"lat":"37.44721637","long":"126.8849237","imageIndex":13,"items":[{"name":"엠메니아","tel":"02-887-2700","addr":"경기도 광명시 소하동 1338-2번지 소하토피아 201호,202호","indutype":"보건위생 - 안마시술소","category":"beauty"}]},{"lat":"37.43788431","long":"126.878396","imageIndex":13,"items":[{"name":"예닮미용실","tel":"02-893-1190","addr":"경기도 광명시 소하동 909-21번지","indutype":"보건위생 - 미용원","category":"beauty"}]},{"lat":"37.43815496","long":"126.8787345","imageIndex":13,"items":[{"name":"오땡큐","tel":"02-899-4174","addr":"경기도 광명시 소하동 909-9번지","indutype":"보건위생 - 화장품","category":"beauty"}]},{"lat":"37.43615791","long":"126.8817886","imageIndex":13,"items":[{"name":"유니베라광명소하대리점","tel":"02-897-7522","addr":"경기도 광명시 소하동 1240-1번지 대신빌딩 4층","indutype":"보건위생 - 화장품","category":"beauty"}]},{"lat":"37.43646471","long":"126.8822401","imageIndex":13,"items":[{"name":"이담세상","tel":"070-4379-8256","addr":"경기도 광명시 소하동 1236-9번지 3층","indutype":"보건위생 - 화장품","category":"beauty"}]},{"lat":"37.43110411","long":"126.8825989","imageIndex":13,"items":[{"name":"이시스헤어","tel":"02-899-4871","addr":"경기도 광명시 소하동 1387번지 광명역세권휴먼시아","indutype":"보건위생 - 미용원","category":"beauty"}]},{"lat":"37.44832083","long":"126.8812039","imageIndex":13,"items":[{"name":"이안심헤어","tel":"02-807-2814","addr":"경기도 광명시 소하동 205-1번지","indutype":"보건위생 - 미용원","category":"beauty"}]},{"lat":"37.45062817","long":"126.8911228","imageIndex":13,"items":[{"name":"작은영토","tel":"02-2688-2865","addr":"경기도 광명시 소하동 29-8번지 1층","indutype":"보건위생 - 미용원","category":"beauty"}]},{"lat":"37.45146746","long":"126.8925681","imageIndex":13,"items":[{"name":"정","tel":"070-8285-4084","addr":"경기도 광명시 소하동 33-44번지","indutype":"보건위생 - 화장품","category":"beauty"}]},{"lat":"37.44421221","long":"126.8902396","imageIndex":13,"items":[{"name":"주식회사 비엠케이","tel":"070-4115-0730","addr":"경기도 광명시 소하동 1348번지 휴먼시아7단지아파트","indutype":"보건위생 - 화장품","category":"beauty"}]},{"lat":"37.44776929","long":"126.8882905","imageIndex":13,"items":[{"name":"주아헤어카페","tel":"070-4155-3279","addr":"경기도 광명시 소하동 1323번지 1층","indutype":"보건위생 - 미용원","category":"beauty"}]},{"lat":"37.4354689","long":"126.8777107","imageIndex":13,"items":[{"name":"지앤지헤어비스","tel":"02-899-8424","addr":"경기도 광명시 소하동 927-8번지 102호","indutype":"보건위생 - 미용원","category":"beauty"}]},{"lat":"37.44462188","long":"126.8947592","imageIndex":13,"items":[{"name":"최은영바디앤스킨","tel":"02-899-9854","addr":"경기도 광명시 소하동 1345번지 광명테크노파크 C동 C109호","indutype":"보건위생 - 화장품","category":"beauty"}]},{"lat":"37.44762925","long":"126.8833522","imageIndex":13,"items":[{"name":"코끼리 아동청소년 발달센터","tel":"02-898-7288","addr":"경기도 광명시 소하동 1341-1번지 한빛프라자 302호","indutype":"보건위생 - 기타대인서비스","category":"beauty"}]},{"lat":"37.45157435","long":"126.891257","imageIndex":13,"items":[{"name":"쿨보이","tel":"070-8232-4555","addr":"경기도 광명시 소하동 34-70번지 A동 1층","indutype":"보건위생 - 이용원","category":"beauty"}]},{"lat":"37.45160186","long":"126.8917655","imageIndex":13,"items":[{"name":"퀸비","tel":"02-898-9877","addr":"경기도 광명시 소하동 34-45번지 2층","indutype":"보건위생 - 화장품","category":"beauty"},{"name":"퀸비헤어","tel":"02-899-0225","addr":"경기도 광명시 소하동 34-45번지 1층","indutype":"보건위생 - 미용원","category":"beauty"}]},{"lat":"37.43313432","long":"126.8767881","imageIndex":13,"items":[{"name":"큐사랑광명소하점","tel":"","addr":"경기도 광명시 소하동 1092번지 오동빌스 101호","indutype":"보건위생 - 화장품","category":"beauty"}]},{"lat":"37.43757989","long":"126.8802383","imageIndex":13,"items":[{"name":"크리스탈헤어","tel":"02-2688-3069","addr":"경기도 광명시 소하동 883-29번지 1층 101호","indutype":"보건위생 - 미용원","category":"beauty"}]},{"lat":"37.4351616","long":"126.8855641","imageIndex":13,"items":[{"name":"클래식헤어2","tel":"02-899-5474","addr":"경기도 광명시 소하동 1371-7번지","indutype":"보건위생 - 미용원","category":"beauty"}]},{"lat":"37.45051905","long":"126.8900719","imageIndex":13,"items":[{"name":"투라스안경","tel":"02-2699-7098","addr":"경기도 광명시 소하동 38-2번지 1층","indutype":"보건위생 - 안경","category":"beauty"}]},{"lat":"37.45268918","long":"126.8887351","imageIndex":13,"items":[{"name":"포커스","tel":"02-803-4686","addr":"경기도 광명시 소하동 1272-2번지 구름산오크팰리스 602호","indutype":"보건위생 - 화장품","category":"beauty"}]},{"lat":"37.43399262","long":"126.8790125","imageIndex":13,"items":[{"name":"필 에스테틱","tel":"031-1111-1111","addr":"경기도 광명시 소하동 1075-5번지 동림프라자 2층 2호","indutype":"보건위생 - 화장품","category":"beauty"}]},{"lat":"37.44857171","long":"126.888843","imageIndex":13,"items":[{"name":"한사랑 노노","tel":"","addr":"경기도 광명시 소하동 1320-5번지 301호","indutype":"보건위생 - 화장품","category":"beauty"}]},{"lat":"37.43484941","long":"126.8798134","imageIndex":13,"items":[{"name":"행복한세상","tel":"02-899-0554","addr":"경기도 광명시 소하동 1268-2번지 1층","indutype":"보건위생 - 화장품","category":"beauty"}]},{"lat":"37.44718664","long":"126.8822567","imageIndex":13,"items":[{"name":"헤어 르뽀렘","tel":"070-4334-7094","addr":"경기도 광명시 소하동 1342-4번지 소하람 1 205호","indutype":"보건위생 - 미용원","category":"beauty"}]},{"lat":"37.43516133","long":"126.8852929","imageIndex":13,"items":[{"name":"헤어뚜","tel":"02-897-9366","addr":"경기도 광명시 소하동 1370-3번지 호인빌딩 102호","indutype":"보건위생 - 미용원","category":"beauty"}]},{"lat":"37.43727314","long":"126.8798433","imageIndex":13,"items":[{"name":"헤어바비","tel":"02-899-1500","addr":"경기도 광명시 소하동 901-6번지 1층","indutype":"보건위생 - 미용원","category":"beauty"}]},{"lat":"37.44966181","long":"126.8887284","imageIndex":13,"items":[{"name":"헤어바이반룬하우트","tel":"02-897-8969","addr":"경기도 광명시 소하동 1312-3번지","indutype":"보건위생 - 미용원","category":"beauty"}]},{"lat":"37.43271439","long":"126.8801558","imageIndex":13,"items":[{"name":"헤어블라썸(Hair Blossom)","tel":"02-899-5526","addr":"경기도 광명시 소하동 1381-5번지 101호","indutype":"보건위생 - 미용원","category":"beauty"}]},{"lat":"37.43284974","long":"126.8803477","imageIndex":13,"items":[{"name":"헤어스케치","tel":"02-898-8645","addr":"경기도 광명시 소하동 1381-3번지 101호","indutype":"보건위생 - 미용원","category":"beauty"}]},{"lat":"37.43438571","long":"126.8758482","imageIndex":13,"items":[{"name":"헤어체인지","tel":"02-899-4264","addr":"경기도 광명시 소하동 941-25번지 현대그린파크빌리지 1층","indutype":"보건위생 - 미용원","category":"beauty"}]},{"lat":"37.45054988","long":"126.8847376","imageIndex":13,"items":[{"name":"헤어코코","tel":"02-899-0750","addr":"경기도 광명시 소하동 1292번지 소하휴먼시아4단지제나상가동 104호","indutype":"보건위생 - 미용원","category":"beauty"}]},{"lat":"37.4527976","long":"126.88904","imageIndex":13,"items":[{"name":"헤어포커스","tel":"02-803-4686","addr":"경기도 광명시 소하동 47-22번지","indutype":"보건위생 - 미용원","category":"beauty"}]},{"lat":"37.43437988","long":"126.8788424","imageIndex":13,"items":[{"name":"헤어플러스","tel":"02-897-0045","addr":"경기도 광명시 소하동 1078-13번지 시온팰리스 1층","indutype":"보건위생 - 미용원","category":"beauty"}]},{"lat":"37.45188603","long":"126.8874366","imageIndex":13,"items":[{"name":"화니케어","tel":"02-990-8988","addr":"경기도 광명시 소하동 1294번지 휴먼시아5단지아파트","indutype":"보건위생 - 기타대인서비스","category":"beauty"}]},{"lat":"37.43529478","long":"126.8835978","imageIndex":13,"items":[{"name":"화장품나라","tel":"02-803-2869","addr":"경기도 광명시 소하동 1251번지 가야복지매장1층3호","indutype":"보건위생 - 화장품","category":"beauty"}]},{"lat":"37.43538084","long":"126.8796543","imageIndex":13,"items":[{"name":"화장품마트","tel":"02-899-6753","addr":"경기도 광명시 소하동 1242-11번지","indutype":"보건위생 - 화장품","category":"beauty"}]},{"lat":"37.43663239","long":"126.87885","imageIndex":13,"items":[{"name":"황수연 헤어샵","tel":"02-897-1245","addr":"경기도 광명시 소하동 924-19번지","indutype":"보건위생 - 미용원","category":"beauty"}]},{"lat":"37.43260127","long":"126.8754332","imageIndex":13,"items":[{"name":"휴페이스","tel":"02-898-0242","addr":"경기도 광명시 소하동 950-15번지 301호","indutype":"보건위생 - 피부미용실","category":"beauty"}]},{"lat":"37.43629994","long":"126.8797319","imageIndex":13,"items":[{"name":"힐링","tel":"02-899-8885","addr":"경기도 광명시 소하동 1242번지 2층","indutype":"보건위생 - 화장품","category":"beauty"}]}]