[{"lat":"37.35004019","long":"127.3383884","imageIndex":16,"items":[{"name":"곤지암우등생셀파학원","tel":"031-763-8252","addr":"경기도 광주시 곤지암읍 곤지암리 453-7번지","indutype":"학원 - 보습학원","category":"study"},{"name":"뮤엠영어곤지암학원","tel":"031-769-9913","addr":"경기도 광주시 곤지암읍 곤지암리 453-7번지 2층","indutype":"학원 - 보습학원","category":"study"},{"name":"일퍼센트수학원","tel":"031-797-9636","addr":"경기도 광주시 곤지암읍 곤지암리 453-7번지 3층","indutype":"학원 - 보습학원","category":"study"}]},{"lat":"37.34868059","long":"127.3443639","imageIndex":16,"items":[{"name":"노블앤초이아트종합학원","tel":"031-763-2131","addr":"경기도 광주시 곤지암읍 곤지암리 343-9번지 4층","indutype":"학원 - 예·체능계학원","category":"study"},{"name":"더스캣댄스","tel":"","addr":"경기도 광주시 곤지암읍 곤지암리 343-9번지 2층","indutype":"학원 - 예·체능계학원","category":"study"}]},{"lat":"37.3473747","long":"127.3378574","imageIndex":16,"items":[{"name":"더오른보습학원","tel":"031-699-2295","addr":"경기도 광주시 곤지암읍 곤지암리 453-34번지 3층","indutype":"학원 - 보습학원","category":"study"},{"name":"더오른보습학원","tel":"031-699-2295","addr":"경기도 광주시 곤지암읍 곤지암리 453-34번지 3층","indutype":"학원 - 보습학원","category":"study"}]},{"lat":"37.34812058","long":"127.3385491","imageIndex":16,"items":[{"name":"듀오뮤직아트학원","tel":"031-764-5155","addr":"경기도 광주시 곤지암읍 곤지암리 447-9번지 우진빌딩 3층","indutype":"학원 - 예·체능계학원","category":"study"}]},{"lat":"37.35003869","long":"127.3389188","imageIndex":16,"items":[{"name":"박지영 음악학원","tel":"031-764-3067","addr":"경기도 광주시 곤지암읍 곤지암리 444-2","indutype":"학원 - 예·체능계학원","category":"study"},{"name":"캠브리지학원","tel":"031-762-0544","addr":"경기도 광주시 곤지암읍 곤지암리 444-2번지","indutype":"학원 - 보습학원","category":"study"}]},{"lat":"37.34990363","long":"127.3388844","imageIndex":16,"items":[{"name":"백두태권도","tel":"031-763-5991","addr":"경기도 광주시 곤지암읍 곤지암리 444-8번지","indutype":"학원 - 예·체능계학원","category":"study"}]},{"lat":"37.34834557","long":"127.3386404","imageIndex":16,"items":[{"name":"엠와이 (MY)수학원","tel":"031-762-0606","addr":"경기도 광주시 곤지암읍 곤지암리 447-4번지 2층","indutype":"학원 - 보습학원","category":"study"}]},{"lat":"37.3522351","long":"127.345915","imageIndex":16,"items":[{"name":"온드림 창의교육연구소","tel":"031-758-5362","addr":"경기도 광주시 곤지암읍 곤지암리 376-2번지 대석빌딩 401호","indutype":"학원 - 기타 교육기관","category":"study"}]},{"lat":"37.34854351","long":"127.3387429","imageIndex":16,"items":[{"name":"용인대 청산K타이거즈","tel":"","addr":"경기도 광주시 곤지암읍 곤지암리 447-3번지 동신빌딩 204호","indutype":"학원 - 예·체능계학원","category":"study"}]},{"lat":"37.34873403","long":"127.338281","imageIndex":16,"items":[{"name":"윤선생영어곤지암숲학원","tel":"031-798-0503","addr":"경기도 광주시 곤지암읍 곤지암리 453-83번지","indutype":"학원 - 외국어학원","category":"study"}]},{"lat":"37.3490396","long":"127.3385532","imageIndex":16,"items":[{"name":"일등학원","tel":"031-797-0646","addr":"경기도 광주시 곤지암읍 곤지암리 453-47번지 2층","indutype":"학원 - 보습학원","category":"study"}]},{"lat":"37.34203677","long":"127.3392443","imageIndex":16,"items":[{"name":"조형미술학원","tel":"031-797-7723","addr":"경기도 광주시 곤지암읍 곤지암리 472-3","indutype":"학원 - 예·체능계학원","category":"study"}]},{"lat":"37.34605701","long":"127.3449276","imageIndex":16,"items":[{"name":"해법영어곤지암삼주교실","tel":"031-699-2295","addr":"경기도 광주시 곤지암읍 곤지암리 593번지 삼주노블리제아파트","indutype":"학원 - 보습학원","category":"study"}]}]