[{"lat":"37.45947083","long":"127.330637","imageIndex":17,"items":[{"name":"(빛날)농원","tel":"070-8256-7799","addr":"경기도 광주시 퇴촌면 관음리 511-4번지 청산빌라 204호","indutype":"문화.취미 - 화원","category":"other"}]},{"lat":"37.45841459","long":"127.3248342","imageIndex":17,"items":[{"name":"(주)가함사","tel":"02-6397-5335","addr":"경기도 광주시 퇴촌면 관음리 699-12번지","indutype":"용역 서비스 - 부동산 중개·임대","category":"other"},{"name":"부동산차트연구소","tel":"031-761-1358","addr":"경기도 광주시 퇴촌면 관음리 699-12번지 명성그린빌 2동 201호","indutype":"회원제형태 - 기타4","category":"other"}]},{"lat":"37.4457482","long":"127.3588286","imageIndex":17,"items":[{"name":"(주)에스더블유","tel":"031-797-7774","addr":"경기도 광주시 퇴촌면 관음리 110번지","indutype":"레져용품 - 스포츠·레져용품","category":"other"}]},{"lat":"37.46315967","long":"127.3259962","imageIndex":17,"items":[{"name":"GS25퇴촌정임점","tel":"","addr":"경기도 광주시 퇴촌면 관음리 666-15번지 1층","indutype":"유통업 영리 - 상품권전문판매","category":"other"},{"name":"GS25퇴촌정임점","tel":"","addr":"경기도 광주시 퇴촌면 관음리 666-15번지 1층","indutype":"유통업 영리 - 편 의 점","category":"other"},{"name":"PC테크","tel":"031-766-0960","addr":"경기도 광주시 퇴촌면 관음리 666-15번지 정임빌딩 1층 107호","indutype":"수리서비스 - 사무·통신기기수리","category":"other"}]},{"lat":"37.45838859","long":"127.3277502","imageIndex":17,"items":[{"name":"N service(엔서비스)","tel":"","addr":"경기도 광주시 퇴촌면 관음리 477-14번지 삼성그린빌","indutype":"용역 서비스 - 종합용역","category":"other"}]},{"lat":"37.44933305","long":"127.365129","imageIndex":17,"items":[{"name":"S.Y공조","tel":"","addr":"경기도 광주시 퇴촌면 관음리 96-13번지 1층","indutype":"용역 서비스 - 기타용역서비스","category":"other"}]},{"lat":"37.46086524","long":"127.3281452","imageIndex":17,"items":[{"name":"Studio-Sosim","tel":"070-8787-0917","addr":"경기도 광주시 퇴촌면 관음리 533-6번지 파크빌리지 A동 302호","indutype":"신변잡화 - 액세서리","category":"other"},{"name":"애드 유어스 (Add yours )","tel":"031-797-9182","addr":"경기도 광주시 퇴촌면 관음리 533-6번지 파크빌리지","indutype":"신변잡화 - 액세서리","category":"other"}]},{"lat":"37.4527252","long":"127.3328566","imageIndex":17,"items":[{"name":"글로리(Glory)","tel":"070-8161-6891","addr":"경기도 광주시 퇴촌면 관음리 269-2 청송빌리지 101-102 4/","indutype":"회원제형태 - 기타4","category":"other"}]},{"lat":"37.46502797","long":"127.3248061","imageIndex":17,"items":[{"name":"더펫(퇴촌점)","tel":"070-4119-7808","addr":"경기도 광주시 퇴촌면 관음리 569-8번지","indutype":"문화.취미 - 애완동물","category":"other"}]},{"lat":"37.4610812","long":"127.3282478","imageIndex":17,"items":[{"name":"동광센타","tel":"031-767-4980","addr":"경기도 광주시 퇴촌면 관음리 540-4번지","indutype":"수리서비스 - 기타수리서비스","category":"other"}]},{"lat":"37.44505418","long":"127.3559098","imageIndex":17,"items":[{"name":"두레수정벌","tel":"031-761-2032","addr":"경기도 광주시 퇴촌면 관음리 113 5/","indutype":"회원제형태 - 기타1","category":"other"}]},{"lat":"37.46338575","long":"127.325692","imageIndex":17,"items":[{"name":"뜨락","tel":"","addr":"경기도 광주시 퇴촌면 관음리 666-2번지 1층","indutype":"의류 - 정장","category":"other"}]},{"lat":"37.45861134","long":"127.3319105","imageIndex":17,"items":[{"name":"라경애드","tel":"031-765-3711","addr":"경기도 광주시 퇴촌면 관음리 507-11번지","indutype":"용역 서비스 - 종합용역","category":"other"},{"name":"엠캐슬공방","tel":"","addr":"경기도 광주시 퇴촌면 관음리 507-11번지 BY-US","indutype":"신변잡화 - 액세서리","category":"other"}]},{"lat":"37.45280312","long":"127.3403612","imageIndex":17,"items":[{"name":"라인씨스템","tel":"031-769-3265","addr":"경기도 광주시 퇴촌면 관음리 240번지 1층 102호","indutype":"주방용구 - 주방용구","category":"other"}]},{"lat":"37.45843463","long":"127.3306551","imageIndex":17,"items":[{"name":"람사운드","tel":"","addr":"경기도 광주시 퇴촌면 관음리 496-17번지 서울그린빌라","indutype":"용역 서비스 - 종합용역","category":"other"}]},{"lat":"37.45524929","long":"127.322549","imageIndex":17,"items":[{"name":"멍이네","tel":"031-763-5568","addr":"경기도 광주시 퇴촌면 관음리 722-3번지","indutype":"문화.취미 - 애완동물","category":"other"}]},{"lat":"37.4590824","long":"127.330997","imageIndex":17,"items":[{"name":"명동세탁","tel":"031-798-1223","addr":"경기도 광주시 퇴촌면 관음리 504-6번지","indutype":"수리서비스 - 세탁소","category":"other"}]},{"lat":"37.46424917","long":"127.3295275","imageIndex":17,"items":[{"name":"모두커뮤니케이션","tel":"070-8828-4566","addr":"경기도 광주시 퇴촌면 관음리 564번지","indutype":"용역 서비스 - 종합용역","category":"other"}]},{"lat":"37.44769548","long":"127.361437","imageIndex":17,"items":[{"name":"물아당","tel":"031-764-7644","addr":"경기도 광주시 퇴촌면 관음리 64-2번지","indutype":"회원제형태 - 기타4","category":"other"}]},{"lat":"37.46194006","long":"127.3271891","imageIndex":17,"items":[{"name":"미래철물열쇠전기","tel":"031-761-7714","addr":"경기도 광주시 퇴촌면 관음리 540-7번지","indutype":"기타 - 기계공구","category":"other"}]},{"lat":"37.44899895","long":"127.359443","imageIndex":17,"items":[{"name":"북대골농장","tel":"","addr":"경기도 광주시 퇴촌면 관음리 42번지 1층","indutype":"문화.취미 - 화원","category":"other"}]},{"lat":"37.46421619","long":"127.3251304","imageIndex":17,"items":[{"name":"블랙9","tel":"070-8161-2389","addr":"경기도 광주시 퇴촌면 관음리 574-1번지 가동 3호","indutype":"의류 - 정장","category":"other"},{"name":"패셔너블 드림(The fashionable dream)","tel":"","addr":"경기도 광주시 퇴촌면 관음리 574-1번지 2동 101,102호","indutype":"의류 - 정장","category":"other"}]},{"lat":"37.45419112","long":"127.3338237","imageIndex":17,"items":[{"name":"서진인터내셔날","tel":"02-846-1211","addr":"경기도 광주시 퇴촌면 관음리 288-9번지 풍경채 202호","indutype":"서적문구 - 과학기자재","category":"other"}]},{"lat":"37.46082818","long":"127.328518","imageIndex":17,"items":[{"name":"씨유광주천진암점","tel":"02-1577-8007","addr":"경기도 광주시 퇴촌면 관음리 531번지","indutype":"유통업 영리 - 편 의 점","category":"other"}]},{"lat":"37.45977456","long":"127.3315765","imageIndex":17,"items":[{"name":"애니멀리퍼블릭","tel":"031-768-8360","addr":"경기도 광주시 퇴촌면 관음리 509-7번지","indutype":"문화.취미 - 애완동물","category":"other"}]},{"lat":"37.4592998","long":"127.3305798","imageIndex":17,"items":[{"name":"와이티상사","tel":"031-797-4399","addr":"경기도 광주시 퇴촌면 관음리 511-1번지","indutype":"농업 - 농기계","category":"other"}]},{"lat":"37.45680369","long":"127.3339369","imageIndex":17,"items":[{"name":"우리솜씨","tel":"","addr":"경기도 광주시 퇴촌면 관음리 372-1번지","indutype":"문화.취미 - 민예·공예품","category":"other"}]},{"lat":"37.46252919","long":"127.3259144","imageIndex":17,"items":[{"name":"원경아트","tel":"031-764-1851","addr":"경기도 광주시 퇴촌면 관음리 668번지 1층","indutype":"서적문구 - 일반서적","category":"other"}]},{"lat":"37.45899861","long":"127.3319687","imageIndex":17,"items":[{"name":"유비스(Ubis)","tel":"031-767-7380","addr":"경기도 광주시 퇴촌면 관음리 507-14번지","indutype":"회원제형태 - 기타4","category":"other"}]},{"lat":"37.45788363","long":"127.3246059","imageIndex":17,"items":[{"name":"정인","tel":"031-768-5604","addr":"경기도 광주시 퇴촌면 관음리 700-1번지","indutype":"문화.취미 - 민예·공예품","category":"other"}]},{"lat":"37.45378956","long":"127.3324318","imageIndex":17,"items":[{"name":"제스트스냅","tel":"070-8811-2440","addr":"경기도 광주시 퇴촌면 관음리 270-8번지 그린하우스 A동 401호","indutype":"광학제품 - 사진관","category":"other"}]},{"lat":"37.45378072","long":"127.3387721","imageIndex":17,"items":[{"name":"주식회사 이엠씨","tel":"031-798-9911","addr":"경기도 광주시 퇴촌면 관음리 229-2번지 1층","indutype":"회원제형태 - 기타3","category":"other"}]},{"lat":"37.45535612","long":"127.3230241","imageIndex":17,"items":[{"name":"지산도천방","tel":"031-767-7477","addr":"경기도 광주시 퇴촌면 관음리 734-3번지","indutype":"주방용구 - 주방용식기","category":"other"}]},{"lat":"37.46053098","long":"127.3284715","imageIndex":17,"items":[{"name":"차도남에어컨","tel":"031-799-5032","addr":"경기도 광주시 퇴촌면 관음리 533-6번지 파크빌리지","indutype":"용역 서비스 - 기타용역서비스","category":"other"}]},{"lat":"37.4591351","long":"127.3249391","imageIndex":17,"items":[{"name":"캣츠미","tel":"070-4134-3825","addr":"경기도 광주시 퇴촌면 관음리 688-3번지","indutype":"문화.취미 - 애완동물","category":"other"}]},{"lat":"37.46366666","long":"127.3251054","imageIndex":17,"items":[{"name":"클린컴&홈&카","tel":"","addr":"경기도 광주시 퇴촌면 관음리 662-2번지 1층 2호 오늘부대찌개옆쪽방","indutype":"수리서비스 - 사무·통신기기수리","category":"other"}]},{"lat":"37.45367507","long":"127.3379014","imageIndex":17,"items":[{"name":"평화마을","tel":"070-4922-1261","addr":"경기도 광주시 퇴촌면 관음리 226-5번지 행운리버빌","indutype":"건축자재 - 인테리어전문","category":"other"}]},{"lat":"37.46425085","long":"127.3189702","imageIndex":17,"items":[{"name":"핌프리저브드플라워","tel":"031-1111-1111","addr":"경기도 광주시 퇴촌면 관음리 604-5번지 1층","indutype":"문화.취미 - 화원","category":"other"}]},{"lat":"37.46019302","long":"127.3301316","imageIndex":17,"items":[{"name":"해경가전","tel":"02-1566-4806","addr":"경기도 광주시 퇴촌면 관음리 512-1번지 숲속의궁전 궁전동 103호","indutype":"전기제품 - 냉열기기","category":"other"}]},{"lat":"37.44353034","long":"127.3502186","imageIndex":7,"items":[{"name":"(주) 유니건","tel":"070-4212-9010","addr":"경기도 광주시 퇴촌면 관음리 128-14번지","indutype":"음료식품 - 주류 판매점","category":"food"}]},{"lat":"37.44503085","long":"127.3576839","imageIndex":7,"items":[{"name":"365유기농","tel":"031-767-1252","addr":"경기도 광주시 퇴촌면 관음리 111-14번지","indutype":"음료식품 - 농·축·수산품","category":"food"}]},{"lat":"37.45372025","long":"127.3410209","imageIndex":7,"items":[{"name":"LK푸드","tel":"","addr":"경기도 광주시 퇴촌면 관음리 219-5번지 1층 2호","indutype":"음료식품 - 농·축·수산품","category":"food"}]},{"lat":"37.44327633","long":"127.350805","imageIndex":7,"items":[{"name":"계수나무","tel":"070-8823-6196","addr":"경기도 광주시 퇴촌면 관음리 119-3번지","indutype":"음료식품 - 기타음료식품","category":"food"}]},{"lat":"37.44411574","long":"127.3503004","imageIndex":7,"items":[{"name":"관음상회","tel":"031-764-9738","addr":"경기도 광주시 퇴촌면 관음리 128-10번지","indutype":"음료식품 - 기타음료식품","category":"food"}]},{"lat":"37.46502797","long":"127.3248061","imageIndex":7,"items":[{"name":"농산물매점","tel":"031-797-4584","addr":"경기도 광주시 퇴촌면 관음리 569-8번지","indutype":"음료식품 - 농·축·수산품","category":"food"}]},{"lat":"37.46363594","long":"127.3198041","imageIndex":7,"items":[{"name":"농업회사법인 백화 주식회사","tel":"031-763-0418","addr":"경기도 광주시 퇴촌면 관음리 625-4번지","indutype":"음료식품 - 농·축·수산품","category":"food"}]},{"lat":"37.45302624","long":"127.3379437","imageIndex":7,"items":[{"name":"농업회사법인 케이팜주식회사","tel":"031-763-9757","addr":"경기도 광주시 퇴촌면 관음리 280-3번지 3층","indutype":"음료식품 - 주류 판매점","category":"food"}]},{"lat":"37.45378072","long":"127.3387721","imageIndex":7,"items":[{"name":"농업회사법인팔당에프앤비주식회사","tel":"031-798-9757","addr":"경기도 광주시 퇴촌면 관음리 229-2번지 2층 대농바이오","indutype":"음료식품 - 농·축·수산품","category":"food"},{"name":"대농바이오영농조합법인(우리산삼)","tel":"031-763-9757","addr":"경기도 광주시 퇴촌면 관음리 229-2번지","indutype":"음료식품 - 주류 판매점","category":"food"}]},{"lat":"37.46060916","long":"127.329523","imageIndex":7,"items":[{"name":"맛다냐 농장","tel":"031-767-6645","addr":"경기도 광주시 퇴촌면 관음리 528-1번지","indutype":"음료식품 - 농·축·수산품","category":"food"}]},{"lat":"37.4523041","long":"127.3384151","imageIndex":7,"items":[{"name":"벌꿀대행진","tel":"070-4227-0279","addr":"경기도 광주시 퇴촌면 관음리 251-2번지","indutype":"건강식품 - 기타건강식품","category":"food"}]},{"lat":"37.45260844","long":"127.3422703","imageIndex":7,"items":[{"name":"산마루","tel":"031-768-3031","addr":"경기도 광주시 퇴촌면 관음리 242번지","indutype":"음료식품 - 농·축·수산품","category":"food"}]},{"lat":"37.46093784","long":"127.3246642","imageIndex":7,"items":[{"name":"성인농장","tel":"031-000-0000","addr":"경기도 광주시 퇴촌면 관음리 675-1번지","indutype":"음료식품 - 농·축·수산품","category":"food"}]},{"lat":"37.46082818","long":"127.328518","imageIndex":7,"items":[{"name":"신선","tel":"031-769-0266","addr":"경기도 광주시 퇴촌면 관음리 531번지","indutype":"음료식품 - 농·축·수산품","category":"food"}]},{"lat":"37.44891625","long":"127.3447399","imageIndex":7,"items":[{"name":"신선매점","tel":"031-000-0000","addr":"경기도 광주시 퇴촌면 관음리 182번지","indutype":"음료식품 - 농·축·수산품","category":"food"}]},{"lat":"37.46419605","long":"127.3259102","imageIndex":7,"items":[{"name":"예전수랏간","tel":"031-797-9592","addr":"경기도 광주시 퇴촌면 관음리 572번지","indutype":"음료식품 - 정육점","category":"food"}]},{"lat":"37.46244529","long":"127.3269426","imageIndex":7,"items":[{"name":"우리가 남이가","tel":"031-768-9805","addr":"경기도 광주시 퇴촌면 관음리 542-16번지","indutype":"음료식품 - 정육점","category":"food"}]},{"lat":"37.45841999","long":"127.3294344","imageIndex":7,"items":[{"name":"유가네알뜰장","tel":"031-768-1458","addr":"경기도 광주시 퇴촌면 관음리 470번지 삼환빌라","indutype":"음료식품 - 농·축·수산품","category":"food"}]},{"lat":"37.45807913","long":"127.3321342","imageIndex":7,"items":[{"name":"주은커피로스터스","tel":"","addr":"경기도 광주시 퇴촌면 관음리 364-16번지 1층","indutype":"음료식품 - 기타음료식품","category":"food"}]},{"lat":"37.46338575","long":"127.325692","imageIndex":7,"items":[{"name":"집밥애찬","tel":"031-766-7979","addr":"경기도 광주시 퇴촌면 관음리 666-2번지","indutype":"음료식품 - 기타음료식품","category":"food"}]},{"lat":"37.464667","long":"127.3216961","imageIndex":7,"items":[{"name":"퇴촌블루베리농장","tel":"070-4134-3825","addr":"경기도 광주시 퇴촌면 관음리 813 ,826-3","indutype":"음료식품 - 농·축·수산품","category":"food"}]},{"lat":"37.44144181","long":"127.3496101","imageIndex":7,"items":[{"name":"퇴촌시골된장","tel":"031-765-0346","addr":"경기도 광주시 퇴촌면 관음리 117-1번지","indutype":"음료식품 - 기타음료식품","category":"food"}]},{"lat":"37.45155881","long":"127.3438252","imageIndex":7,"items":[{"name":"흥부정육센타","tel":"031-765-5604","addr":"경기도 광주시 퇴촌면 관음리 193-7번지","indutype":"음료식품 - 정육점","category":"food"}]},{"lat":"37.4590824","long":"127.330997","imageIndex":0,"items":[{"name":"(주)파워카","tel":"031-797-2900","addr":"경기도 광주시 퇴촌면 관음리 504-6번지","indutype":"자동차판매 - 중고자동차판매","category":"car"}]},{"lat":"37.46079357","long":"127.3279979","imageIndex":0,"items":[{"name":"소나무 스카이","tel":"070-4219-0063","addr":"경기도 광주시 퇴촌면 관음리 533-15번지 훼미리타운 105동 101호","indutype":"자동차판매 - 기타운송","category":"car"}]},{"lat":"37.45891906","long":"127.3314145","imageIndex":13,"items":[{"name":"?라헤어월드","tel":"031-767-8443","addr":"경기도 광주시 퇴촌면 관음리 506-1번지 1층","indutype":"보건위생 - 미용원","category":"beauty"}]},{"lat":"37.45425089","long":"127.3349994","imageIndex":13,"items":[{"name":"다슬미장원","tel":"031-763-4737","addr":"경기도 광주시 퇴촌면 관음리 285-1번지 2층","indutype":"보건위생 - 미용원","category":"beauty"}]},{"lat":"37.46315967","long":"127.3259962","imageIndex":13,"items":[{"name":"레지나헤어","tel":"031-792-7272","addr":"경기도 광주시 퇴촌면 관음리 666-15번지","indutype":"보건위생 - 미용원","category":"beauty"}]},{"lat":"37.45861134","long":"127.3319105","imageIndex":13,"items":[{"name":"엄벨리어(Embellir)","tel":"031-763-9032","addr":"경기도 광주시 퇴촌면 관음리 507-11번지 1층 102호","indutype":"보건위생 - 피부미용실","category":"beauty"},{"name":"헤어나라","tel":"031-767-9962","addr":"경기도 광주시 퇴촌면 관음리 507-11번지","indutype":"보건위생 - 미용원","category":"beauty"}]},{"lat":"37.45708486","long":"127.3332713","imageIndex":13,"items":[{"name":"퇴촌건강힐링센타","tel":"031-764-8802","addr":"경기도 광주시 퇴촌면 관음리 369-4번지 1층","indutype":"보건위생 - 기타대인서비스","category":"beauty"}]},{"lat":"37.45758167","long":"127.3295777","imageIndex":13,"items":[{"name":"퇴촌물불역황토방","tel":"031-767-8825","addr":"경기도 광주시 퇴촌면 관음리 468-1","indutype":"보건위생 - 사우나","category":"beauty"}]},{"lat":"37.45316968","long":"127.3413574","imageIndex":13,"items":[{"name":"피부미녀","tel":"031-766-4832","addr":"경기도 광주시 퇴촌면 관음리 238-2번지","indutype":"보건위생 - 피부미용실","category":"beauty"}]},{"lat":"37.44627344","long":"127.34883","imageIndex":5,"items":[{"name":"M817","tel":"031-763-5568","addr":"경기도 광주시 퇴촌면 관음리 168-1번지","indutype":"숙박업 - 여관/기타숙박업","category":"hotel"}]},{"lat":"37.461441","long":"127.3284642","imageIndex":5,"items":[{"name":"로얄파크여관","tel":"031-767-9842","addr":"경기도 광주시 퇴촌면 관음리 527-2번지","indutype":"숙박업 - 여관/기타숙박업","category":"hotel"}]},{"lat":"37.44899895","long":"127.359443","imageIndex":5,"items":[{"name":"북대골농원펜션","tel":"031-766-3252","addr":"경기도 광주시 퇴촌면 관음리 42번지 1층","indutype":"숙박업 - 여관/기타숙박업","category":"hotel"}]},{"lat":"37.46157674","long":"127.32825","imageIndex":4,"items":[{"name":"ssen (쎈)","tel":"","addr":"경기도 광주시 퇴촌면 관음리 526번지 1층","indutype":"일반휴게음식 - 스넥","category":"restaurant"}]},{"lat":"37.4614154","long":"127.3279441","imageIndex":4,"items":[{"name":"공방까페 리본트리","tel":"031-763-0960","addr":"경기도 광주시 퇴촌면 관음리 540-2번지","indutype":"일반휴게음식 - 스넥","category":"restaurant"}]},{"lat":"37.45532953","long":"127.3359083","imageIndex":4,"items":[{"name":"궁터돌판보쌈","tel":"031-766-9934","addr":"경기도 광주시 퇴촌면 관음리 328-9번지 1층","indutype":"일반휴게음식 - 일반한식","category":"restaurant"}]},{"lat":"37.45386316","long":"127.3382978","imageIndex":4,"items":[{"name":"늠말민속주점","tel":"","addr":"경기도 광주시 퇴촌면 관음리 226-4번지 1층","indutype":"일반휴게음식 - 일반한식","category":"restaurant"}]},{"lat":"37.45774447","long":"127.3293523","imageIndex":4,"items":[{"name":"다락원","tel":"031-767-8825","addr":"경기도 광주시 퇴촌면 관음리 468번지","indutype":"일반휴게음식 - 일반한식","category":"restaurant"}]},{"lat":"37.44427686","long":"127.3506628","imageIndex":4,"items":[{"name":"다오계","tel":"031-765-1562","addr":"경기도 광주시 퇴촌면 관음리 128-1번지","indutype":"일반휴게음식 - 일반한식","category":"restaurant"}]},{"lat":"37.44411478","long":"127.3506281","imageIndex":4,"items":[{"name":"다오계2호점","tel":"031-000-0000","addr":"경기도 광주시 퇴촌면 관음리 128-18번지","indutype":"일반휴게음식 - 일반한식","category":"restaurant"}]},{"lat":"37.44380924","long":"127.3503555","imageIndex":4,"items":[{"name":"단골집","tel":"031-762-9628","addr":"경기도 광주시 퇴촌면 관음리 128-7번지","indutype":"일반휴게음식 - 일반한식","category":"restaurant"}]},{"lat":"37.45511243","long":"127.3362125","imageIndex":4,"items":[{"name":"대갓집","tel":"031-767-5446","addr":"경기도 광주시 퇴촌면 관음리 308-9번지","indutype":"일반휴게음식 - 일반한식","category":"restaurant"}]},{"lat":"37.46082818","long":"127.328518","imageIndex":4,"items":[{"name":"대박","tel":"031-768-3884","addr":"경기도 광주시 퇴촌면 관음리 531번지","indutype":"일반휴게음식 - 일반한식","category":"restaurant"}]},{"lat":"37.46315967","long":"127.3259962","imageIndex":4,"items":[{"name":"대청마루","tel":"031-769-7792","addr":"경기도 광주시 퇴촌면 관음리 666-15번지","indutype":"일반휴게음식 - 일반한식","category":"restaurant"},{"name":"장군포차","tel":"031-797-2079","addr":"경기도 광주시 퇴촌면 관음리 666-15번지 106호","indutype":"일반휴게음식 - 일반한식","category":"restaurant"}]},{"lat":"37.4472773","long":"127.3475463","imageIndex":4,"items":[{"name":"대추나무집","tel":"031-768-3710","addr":"경기도 광주시 퇴촌면 관음리 172-9번지","indutype":"일반휴게음식 - 일반한식","category":"restaurant"}]},{"lat":"37.45547471","long":"127.3355473","imageIndex":4,"items":[{"name":"대포차","tel":"031-797-9888","addr":"경기도 광주시 퇴촌면 관음리 328-4번지","indutype":"일반휴게음식 - 일반한식","category":"restaurant"}]},{"lat":"37.44608026","long":"127.3501852","imageIndex":4,"items":[{"name":"도장골계곡","tel":"031-761-7340","addr":"경기도 광주시 퇴촌면 관음리 152번지 1층","indutype":"일반휴게음식 - 일반한식","category":"restaurant"}]},{"lat":"37.45583101","long":"127.333797","imageIndex":4,"items":[{"name":"동궁한정식","tel":"031-766-8396","addr":"경기도 광주시 퇴촌면 관음리 350번지","indutype":"일반휴게음식 - 일반한식","category":"restaurant"}]},{"lat":"37.4617772","long":"127.327437","imageIndex":4,"items":[{"name":"돼지네가자","tel":"031-761-2610","addr":"경기도 광주시 퇴촌면 관음리 540-9번지","indutype":"일반휴게음식 - 일반한식","category":"restaurant"}]},{"lat":"37.44447468","long":"127.3507993","imageIndex":4,"items":[{"name":"두빛나래","tel":"031-797-4826","addr":"경기도 광주시 퇴촌면 관음리 132-6번지","indutype":"일반휴게음식 - 일반한식","category":"restaurant"}]},{"lat":"37.45955454","long":"127.329688","imageIndex":4,"items":[{"name":"맛다냐","tel":"031-765-1562","addr":"경기도 광주시 퇴촌면 관음리 502","indutype":"일반휴게음식 - 일반한식","category":"restaurant"}]},{"lat":"37.46194006","long":"127.3271891","imageIndex":4,"items":[{"name":"백마강민물장어","tel":"031-765-9211","addr":"경기도 광주시 퇴촌면 관음리 540-7번지 A동 1층","indutype":"일반휴게음식 - 일반한식","category":"restaurant"}]},{"lat":"37.45330815","long":"127.340194","imageIndex":4,"items":[{"name":"백합칼국수","tel":"031-768-4284","addr":"경기도 광주시 퇴촌면 관음리 234","indutype":"일반휴게음식 - 일반한식","category":"restaurant"}]},{"lat":"37.45260844","long":"127.3422703","imageIndex":4,"items":[{"name":"산마루공원","tel":"031-768-3031","addr":"경기도 광주시 퇴촌면 관음리 242번지","indutype":"일반휴게음식 - 일반한식","category":"restaurant"}]},{"lat":"37.45891906","long":"127.3314145","imageIndex":4,"items":[{"name":"삼대족발(천진암점)","tel":"031-762-7266","addr":"경기도 광주시 퇴촌면 관음리 506-1번지","indutype":"일반휴게음식 - 일반한식","category":"restaurant"}]},{"lat":"37.46366666","long":"127.3251054","imageIndex":4,"items":[{"name":"송탄오!늘부대찌개","tel":"031-768-5835","addr":"경기도 광주시 퇴촌면 관음리 662-2번지","indutype":"일반휴게음식 - 일반한식","category":"restaurant"}]},{"lat":"37.44891625","long":"127.3447399","imageIndex":4,"items":[{"name":"신선계곡","tel":"031-769-0266","addr":"경기도 광주시 퇴촌면 관음리 182번지","indutype":"일반휴게음식 - 일반한식","category":"restaurant"}]},{"lat":"37.45708486","long":"127.3332713","imageIndex":4,"items":[{"name":"영남네가게","tel":"031-766-9570","addr":"경기도 광주시 퇴촌면 관음리 369-4번지","indutype":"일반휴게음식 - 스넥","category":"restaurant"},{"name":"영자네주점","tel":"031-798-1598","addr":"경기도 광주시 퇴촌면 관음리 369-4번지","indutype":"일반휴게음식 - 주점","category":"restaurant"}]},{"lat":"37.46394315","long":"127.3261352","imageIndex":4,"items":[{"name":"예전","tel":"031-767-0242","addr":"경기도 광주시 퇴촌면 관음리 572-4번지 5","indutype":"일반휴게음식 - 일반한식","category":"restaurant"}]},{"lat":"37.46419605","long":"127.3259102","imageIndex":4,"items":[{"name":"예전수랏간","tel":"031-797-9592","addr":"경기도 광주시 퇴촌면 관음리 572번지","indutype":"일반휴게음식 - 일반한식","category":"restaurant"}]},{"lat":"37.46421619","long":"127.3251304","imageIndex":4,"items":[{"name":"오로라","tel":"031-791-3534","addr":"경기도 광주시 퇴촌면 관음리 574-1번지 가동 1층","indutype":"일반휴게음식 - 서양음식","category":"restaurant"},{"name":"퇴촌김밥","tel":"031-769-1146","addr":"경기도 광주시 퇴촌면 관음리 574-1번지 가동 1층","indutype":"일반휴게음식 - 스넥","category":"restaurant"},{"name":"호야","tel":"031-798-5988","addr":"경기도 광주시 퇴촌면 관음리 574-1번지 나동 1층","indutype":"일반휴게음식 - 스넥","category":"restaurant"}]},{"lat":"37.44655753","long":"127.3471927","imageIndex":4,"items":[{"name":"외할머니집","tel":"031-000-0000","addr":"경기도 광주시 퇴촌면 관음리 164번지 1층","indutype":"일반휴게음식 - 일반한식","category":"restaurant"}]},{"lat":"37.45372025","long":"127.3410209","imageIndex":4,"items":[{"name":"은하수다방","tel":"","addr":"경기도 광주시 퇴촌면 관음리 219-5번지 1층 103호","indutype":"일반휴게음식 - 서양음식","category":"restaurant"}]},{"lat":"37.44547454","long":"127.350883","imageIndex":4,"items":[{"name":"청산유수가든","tel":"031-764-8322","addr":"경기도 광주시 퇴촌면 관음리 132-5번지","indutype":"일반휴게음식 - 일반한식","category":"restaurant"}]},{"lat":"37.44144181","long":"127.3496101","imageIndex":4,"items":[{"name":"크로바가든","tel":"031-763-0723","addr":"경기도 광주시 퇴촌면 관음리 117-1번지","indutype":"일반휴게음식 - 일반한식","category":"restaurant"}]},{"lat":"37.44641892","long":"127.3483787","imageIndex":4,"items":[{"name":"퇴촌CAFE사과나무","tel":"","addr":"경기도 광주시 퇴촌면 관음리 168-12번지 1층","indutype":"일반휴게음식 - 일반한식","category":"restaurant"}]},{"lat":"37.44627344","long":"127.34883","imageIndex":4,"items":[{"name":"퇴촌마루","tel":"","addr":"경기도 광주시 퇴촌면 관음리 168-1번지","indutype":"일반휴게음식 - 일반한식","category":"restaurant"}]},{"lat":"37.45788961","long":"127.3322464","imageIndex":4,"items":[{"name":"퇴촌목수","tel":"031-769-2767","addr":"경기도 광주시 퇴촌면 관음리 364-6번지","indutype":"일반휴게음식 - 일반한식","category":"restaurant"}]},{"lat":"37.45349881","long":"127.3396863","imageIndex":4,"items":[{"name":"퇴촌손두부","tel":"031-769-3357","addr":"경기도 광주시 퇴촌면 관음리 232번지","indutype":"일반휴게음식 - 일반한식","category":"restaurant"}]},{"lat":"37.45419186","long":"127.339938","imageIndex":4,"items":[{"name":"퇴촌숯불","tel":"031-761-7554","addr":"경기도 광주시 퇴촌면 관음리 222-9번지 1층","indutype":"일반휴게음식 - 일반한식","category":"restaurant"}]},{"lat":"37.45425089","long":"127.3349994","imageIndex":4,"items":[{"name":"퇴촌야식","tel":"031-764-7277","addr":"경기도 광주시 퇴촌면 관음리 285-1번지","indutype":"일반휴게음식 - 일반한식","category":"restaurant"}]},{"lat":"37.46352256","long":"127.3250822","imageIndex":4,"items":[{"name":"퇴촌왕갈비","tel":"031-766-7883","addr":"경기도 광주시 퇴촌면 관음리 661번지 1층","indutype":"일반휴게음식 - 일반한식","category":"restaurant"}]},{"lat":"37.45846872","long":"127.331356","imageIndex":4,"items":[{"name":"투존치킨","tel":"031-763-9299","addr":"경기도 광주시 퇴촌면 관음리 495번지","indutype":"일반휴게음식 - 스넥","category":"restaurant"}]},{"lat":"37.45385634","long":"127.3406937","imageIndex":4,"items":[{"name":"파실리따타임","tel":"031-767-6174","addr":"경기도 광주시 퇴촌면 관음리 219-1번지 1층","indutype":"일반휴게음식 - 서양음식","category":"restaurant"}]},{"lat":"37.45807913","long":"127.3321342","imageIndex":4,"items":[{"name":"향토순대국","tel":"031-798-1818","addr":"경기도 광주시 퇴촌면 관음리 364-16번지","indutype":"일반휴게음식 - 일반한식","category":"restaurant"}]},{"lat":"37.45639038","long":"127.3335282","imageIndex":4,"items":[{"name":"화수분","tel":"031-528-6263","addr":"경기도 광주시 퇴촌면 관음리 351-5번지 1층","indutype":"일반휴게음식 - 일반한식","category":"restaurant"}]},{"lat":"37.45494255","long":"127.3357484","imageIndex":7,"items":[{"name":"관음슈퍼","tel":"031-767-3771","addr":"경기도 광주시 퇴촌면 관음리 301번지","indutype":"유통업 영리 - 슈퍼마켓","category":"mart"}]},{"lat":"37.46244529","long":"127.3269426","imageIndex":7,"items":[{"name":"금릉할인마트","tel":"031-768-9805","addr":"경기도 광주시 퇴촌면 관음리 542-16번지","indutype":"유통업 영리 - 슈퍼마켓","category":"mart"}]},{"lat":"37.45419186","long":"127.339938","imageIndex":7,"items":[{"name":"은성","tel":"031-761-7554","addr":"경기도 광주시 퇴촌면 관음리 222-9번지","indutype":"유통업 영리 - 슈퍼마켓","category":"mart"}]},{"lat":"37.4590824","long":"127.330997","imageIndex":7,"items":[{"name":"하나마트","tel":"031-797-0666","addr":"경기도 광주시 퇴촌면 관음리 504-6번지 1층","indutype":"유통업 영리 - 슈퍼마켓","category":"mart"}]},{"lat":"37.45864013","long":"127.3312776","imageIndex":7,"items":[{"name":"현대슈퍼","tel":"031-767-3862","addr":"경기도 광주시 퇴촌면 관음리 364-7","indutype":"유통업 영리 - 슈퍼마켓","category":"mart"}]},{"lat":"37.46315967","long":"127.3259962","imageIndex":13,"items":[{"name":"국선요가협회 본원","tel":"031-769-3962","addr":"경기도 광주시 퇴촌면 관음리 666-15번지 2층","indutype":"레저업소 - 헬스클럽","category":"leisure"}]},{"lat":"37.45708486","long":"127.3332713","imageIndex":13,"items":[{"name":"스타필드노래연습장","tel":"031-761-0161","addr":"경기도 광주시 퇴촌면 관음리 369-4번지 2층","indutype":"레저업소 - 노 래 방","category":"leisure"}]},{"lat":"37.46405506","long":"127.3247454","imageIndex":9,"items":[{"name":"퇴촌가스","tel":"031-767-8690","addr":"경기도 광주시 퇴촌면 관음리 581-4번지","indutype":"연료판매점 - LPG 취급점","category":"oil"}]}]