[{"lat":"37.420578027","long":"126.99225162","imageIndex":13,"items":[{"name":"나이스가이","tel":"","addr":"경기도 과천시 원문동 4번지 래미안슈르 A동 1층 1013호","indutype":"보건위생 - 미용원","category":"beauty"},{"name":"네츄럴휴","tel":"02-502-8277","addr":"경기도 과천시 원문동 4번지 래미안슈르 A동 3층 3026호","indutype":"보건위생 - 화장품","category":"beauty"},{"name":"도도한네일","tel":"02-3678-8118","addr":"경기도 과천시 원문동 4번지 제상가 (6번지)동 1층 1014호","indutype":"보건위생 - 피부미용실","category":"beauty"},{"name":"비비헤어(b.b hair)","tel":"02-507-4325","addr":"경기도 과천시 원문동 4번지 래미안슈르B상가2층2053호","indutype":"보건위생 - 미용원","category":"beauty"},{"name":"성모 미용실","tel":"02-502-7707","addr":"경기도 과천시 원문동 4번지 래미안슈르 B동 1102호","indutype":"보건위생 - 미용원","category":"beauty"},{"name":"세레니끄과천점","tel":"02-3679-1580","addr":"경기도 과천시 원문동 4번지 D상가 2001호","indutype":"보건위생 - 화장품","category":"beauty"},{"name":"스타일 미용실","tel":"02-507-5300","addr":"경기도 과천시 원문동 4번지 래미안슈프제 상가동 B27호 B28호","indutype":"보건위생 - 미용원","category":"beauty"},{"name":"여우별 네일","tel":"02-3679-3367","addr":"경기도 과천시 원문동 4번지 레미안슈르 상가 A동 2027호","indutype":"보건위생 - 피부미용실","category":"beauty"},{"name":"이윤희명품에스테틱","tel":"02-502-9993","addr":"경기도 과천시 원문동 4번지 상가동 2015-2017호","indutype":"보건위생 - 피부미용실","category":"beauty"},{"name":"정희머리터","tel":"02-503-1084","addr":"경기도 과천시 원문동 4번지 래미안슈르 B동 1084호 상가","indutype":"보건위생 - 미용원","category":"beauty"},{"name":"지우개","tel":"","addr":"경기도 과천시 원문동 4번지 래미안슈르 상가 B동 4081호","indutype":"보건위생 - 피부미용실","category":"beauty"},{"name":"헤어락","tel":"02-503-1204","addr":"경기도 과천시 원문동 4번지 래미안 슈르 1030호","indutype":"보건위생 - 미용원","category":"beauty"},{"name":"헤어에이드","tel":"02-503-9000","addr":"경기도 과천시 원문동 4번지 2층 2013,2014호","indutype":"보건위생 - 미용원","category":"beauty"},{"name":"헤이미스","tel":"031-447-3000","addr":"경기도 과천시 원문동 4번지 래미안슈르상가 지층 B26호","indutype":"보건위생 - 미용원","category":"beauty"}]},{"lat":"37.426749933","long":"126.9924993","imageIndex":13,"items":[{"name":"나이스가이","tel":"02-3679-1118","addr":"경기도 과천시 원문동 4번지 래미안슈르 A동 1층 1013호","indutype":"서비스 - 미용업","category":"beauty"},{"name":"순수헤어","tel":"02-502-2365","addr":"경기도 과천시 원문동 4번지 래미안슈르 B 상가 1069","indutype":"서비스 - 두발미용업","category":"beauty"}]},{"lat":"37.428083503","long":"126.99350464","imageIndex":13,"items":[{"name":"비비헤어","tel":"02-507-4325","addr":"경기도 과천시 원문동 4번지 래미안슈르B상가2층2053호","indutype":"서비스 - 미용실","category":"beauty"}]},{"lat":"37.4205780269","long":"126.9922516242","imageIndex":13,"items":[{"name":"순수헤어","tel":"02-502-2365","addr":"경기도 과천시 원문동 4 래미안슈르 B 상가 1069","indutype":"보건위생 - 미용원","category":"beauty"}]},{"lat":"37.449770924","long":"126.99844057","imageIndex":13,"items":[{"name":"스타일 미용실","tel":"02-507-5300","addr":"경기도 과천시 원문동 4번지 B1층 29호","indutype":"서비스 - 미용업","category":"beauty"}]},{"lat":"37.452519048","long":"127.00125452","imageIndex":13,"items":[{"name":"정희머리터","tel":"02-503-1084","addr":"경기도 과천시 원문동 4번지 래미안슈르 B동 1084호","indutype":"서비스 - 미용업","category":"beauty"}]},{"lat":"37.419839009","long":"126.9902861","imageIndex":13,"items":[{"name":"지우개","tel":"","addr":"경기도 과천시 원문동 4번지 래미안슈르 상가 B동 4081호","indutype":"서비스 - 피부미용","category":"beauty"}]}]