[{"lat":"37.445941622","long":"127.00844188","imageIndex":17,"items":[{"name":"(주)까사밤비니","tel":"02-3678-8975","addr":"경기도 과천시 과천동 140-21번지","indutype":"가구 - 기타가구","category":"other"}]},{"lat":"37.447941755","long":"126.99567194","imageIndex":17,"items":[{"name":"(주)디자인그룹진","tel":"02-578-7144","addr":"경기도 과천시 과천동 538-7번지 2층","indutype":"건축자재 - 인테리어전문","category":"other"}]},{"lat":"37.450933044","long":"126.99514049","imageIndex":17,"items":[{"name":"(주)아이.피.에스시스템","tel":"02-503-5411","addr":"경기도 과천시 과천동 471-2번지","indutype":"전기제품 - 기타전기제품","category":"other"},{"name":"주식회사 피피티","tel":"02-503-5411","addr":"경기도 과천시 과천동 471-2번지","indutype":"전기제품 - 기타전기제품","category":"other"}]},{"lat":"37.450770849","long":"126.99491448","imageIndex":17,"items":[{"name":"(주)의회정책연구원","tel":"070-4411-7605","addr":"경기도 과천시 과천동 471-8번지 201호","indutype":"용역 서비스 - 사무서비스","category":"other"}]},{"lat":"37.45751952","long":"127.00750464","imageIndex":17,"items":[{"name":"(주)자전거와 사람들","tel":"02-503-9945","addr":"경기도 과천시 과천동 18-5번지","indutype":"레져용품 - 스포츠·레져용품","category":"other"},{"name":"몽피오레코리아","tel":"02-796-5437","addr":"경기도 과천시 과천동 18-5번지 지하1층","indutype":"의류 - 정장","category":"other"}]},{"lat":"37.447302263","long":"127.0035035","imageIndex":17,"items":[{"name":"(주)조경코리아","tel":"070-4416-5089","addr":"경기도 과천시 과천동 230-10번지","indutype":"건축자재 - 인테리어전문","category":"other"}]},{"lat":"37.448635522","long":"127.01017114","imageIndex":17,"items":[{"name":"(주)터알","tel":"02-888-4020","addr":"경기도 과천시 과천동 133-1번지 2층","indutype":"서적문구 - 출판 및 인쇄물","category":"other"}]},{"lat":"37.449662816","long":"126.99877961","imageIndex":17,"items":[{"name":"(주)피앤씨하우징","tel":"02-3478-0042","addr":"경기도 과천시 과천동 458-5번지","indutype":"용역 서비스 - 종합용역","category":"other"},{"name":"리폼샵고리","tel":"02-504-5049","addr":"경기도 과천시 과천동 458-5번지 외2필지 B동 3층","indutype":"가구 - 기타가구","category":"other"}]},{"lat":"37.44990601","long":"127.00880381","imageIndex":17,"items":[{"name":"333플라워","tel":"02-503-5333","addr":"경기도 과천시 과천동 112-5번지","indutype":"문화.취미 - 화원","category":"other"}]},{"lat":"37.453852532","long":"127.00152573","imageIndex":17,"items":[{"name":"B.K산업","tel":"02-503-9644","addr":"경기도 과천시 과천동 369-1번지","indutype":"기타 - 기타 전문점","category":"other"}]},{"lat":"37.456381921","long":"127.02685398","imageIndex":17,"items":[{"name":"GS25과천관문점","tel":"02-504-5747","addr":"경기도 과천시 과천동 513-4번지 1층","indutype":"소매업 - 편의점","category":"other"}]},{"lat":"37.447968685","long":"126.99419151","imageIndex":17,"items":[{"name":"GS25과천관문점","tel":"","addr":"경기도 과천시 과천동 513-4번지 1층","indutype":"유통업 영리 - 편 의 점","category":"other"},{"name":"S포토","tel":"02-3418-1295","addr":"경기도 과천시 과천동 513-4번지","indutype":"광학제품 - 사진관","category":"other"}]},{"lat":"37.433470865","long":"126.98741392","imageIndex":17,"items":[{"name":"GS25과천빌리지","tel":"02-504-0138","addr":"경기도 과천시 과천동 370-8번지 1층","indutype":"소매업 - 편의점","category":"other"}]},{"lat":"37.454239962","long":"127.00144661","imageIndex":17,"items":[{"name":"GS25과천빌리지점","tel":"","addr":"경기도 과천시 과천동 370-8번지 1층","indutype":"유통업 영리 - 편 의 점","category":"other"}]},{"lat":"37.449770924","long":"126.99844057","imageIndex":17,"items":[{"name":"GS25과천양지점","tel":"","addr":"경기도 과천시 과천동 458-7번지 102호","indutype":"유통업 영리 - 편 의 점","category":"other"}]},{"lat":"37.449878946","long":"126.99633853","imageIndex":17,"items":[{"name":"GYMSPORTKOREA","tel":"02-3476-1162","addr":"경기도 과천시 과천동 555-64, 517","indutype":"의류 - 기타의류","category":"other"},{"name":"플라워테크","tel":"02-503-5166","addr":"경기도 과천시 과천동 555-64번지 온돌마루 2층 202호","indutype":"문화.취미 - 화원","category":"other"}]},{"lat":"37.448797746","long":"127.00941398","imageIndex":17,"items":[{"name":"가9넷","tel":"02-3476-4440","addr":"경기도 과천시 과천동 135-12번지","indutype":"가구 - 일반가구","category":"other"}]},{"lat":"37.451744161","long":"127.00588816","imageIndex":17,"items":[{"name":"가건대리석","tel":"02-502-5020","addr":"경기도 과천시 과천동 123-17번지","indutype":"건축자재 - 기타건축자재","category":"other"}]},{"lat":"37.446581315","long":"126.99697166","imageIndex":17,"items":[{"name":"강남 유리","tel":"02-581-2787","addr":"경기도 과천시 과천동 530-4번지","indutype":"건축자재 - 유리","category":"other"}]},{"lat":"37.446905699","long":"126.99744627","imageIndex":17,"items":[{"name":"강남공인중개사","tel":"02-502-2114","addr":"경기도 과천시 과천동 524-10번지 촌돼지마을 101호","indutype":"부동산업 - 부동산중개업","category":"other"},{"name":"몬스터","tel":"","addr":"경기도 과천시 과천동 529-26번지","indutype":"문화.취미 - 화원","category":"other"}]},{"lat":"37.453302512","long":"126.9929477","imageIndex":17,"items":[{"name":"갤러리 다선","tel":"02-502-6535","addr":"경기도 과천시 과천동 489-6번지","indutype":"문화.취미 - 화랑","category":"other"}]},{"lat":"37.442328641","long":"127.0076054","imageIndex":17,"items":[{"name":"경마장주유소","tel":"02-507-5100","addr":"경기도 과천시 과천동 455-16번지","indutype":"도소매 - 휘발유 등","category":"other"},{"name":"골드플라워","tel":"02-503-3184","addr":"경기도 과천시 과천동 655-1번지","indutype":"회원제형태 - 기타4","category":"other"},{"name":"금비플라워","tel":"02-3486-6485","addr":"경기도 과천시 과천동 655-1번지","indutype":"문화.취미 - 화원","category":"other"},{"name":"단지 꽃","tel":"02-3418-2369","addr":"경기도 과천시 과천동 655-1번지","indutype":"문화.취미 - 화원","category":"other"},{"name":"민영플라워","tel":"02-504-9199","addr":"경기도 과천시 과천동 655-1번지","indutype":"문화.취미 - 화원","category":"other"},{"name":"삼정건설","tel":"02-503-3183","addr":"경기도 과천시 과천동 655-1번지","indutype":"용역 서비스 - 기타용역서비스","category":"other"},{"name":"지우플라워","tel":"02-929-5050","addr":"경기도 과천시 과천동 655-1번지","indutype":"문화.취미 - 화원","category":"other"}]},{"lat":"37.445049676","long":"127.00735696","imageIndex":17,"items":[{"name":"고향분재","tel":"02-503-6500","addr":"경기도 과천시 과천동 186-12번지","indutype":"문화.취미 - 화원","category":"other"}]},{"lat":"37.454609362","long":"127.00081369","imageIndex":17,"items":[{"name":"골플라워","tel":"02-3679-4663","addr":"경기도 과천시 과천동 372-8번지 반하우스 B동 201호","indutype":"문화.취미 - 화원","category":"other"}]},{"lat":"37.41654967","long":"126.98509038","imageIndex":17,"items":[{"name":"과천愛살어리랏다공인중개사사무소","tel":"02-504-0905","addr":"경기도 과천시 과천동 148-1번지 1층","indutype":"부동산업 - 부동산중개업","category":"other"}]},{"lat":"37.450969319","long":"127.00074599","imageIndex":17,"items":[{"name":"과천농원","tel":"02-502-8387","addr":"경기도 과천시 과천동 454-18","indutype":"문화.취미 - 화원","category":"other"}]},{"lat":"37.428804061","long":"126.99080431","imageIndex":17,"items":[{"name":"과천농협선바위지점","tel":"02-507-6431","addr":"경기도 과천시 과천동 458-4번지","indutype":"도소매 -","category":"other"}]},{"lat":"37.449797967","long":"126.99880221","imageIndex":17,"items":[{"name":"과천농협선바위지점","tel":"02-507-6431","addr":"경기도 과천시 과천동 458-4번지","indutype":"유통업 비영리 - 농,축협 직영매장","category":"other"}]},{"lat":"37.451104452","long":"126.99992098","imageIndex":17,"items":[{"name":"과천선바위재활용센터","tel":"02-507-8946","addr":"경기도 과천시 과천동 448번지 103호","indutype":"전기제품 - 가전제품","category":"other"}]},{"lat":"37.427245524","long":"126.99295115","imageIndex":17,"items":[{"name":"과천시 화훼협회","tel":"02-503-1118","addr":"경기도 과천시 과천동 358-4번지 1층","indutype":"도소매 -","category":"other"}]},{"lat":"37.447905725","long":"126.99583016","imageIndex":17,"items":[{"name":"과천오토바이","tel":"02-503-2453","addr":"경기도 과천시 과천동 537번지","indutype":"수리서비스 - 레져용품수리","category":"other"}]},{"lat":"37.442130442","long":"127.00705169","imageIndex":17,"items":[{"name":"과천컨설팅","tel":"02-502-8993","addr":"경기도 과천시 과천동 448번지","indutype":"서비스 - 컨설팅","category":"other"},{"name":"다솔농자재","tel":"02-3679-9787","addr":"경기도 과천시 과천동 657-2번지","indutype":"농업 - 기타농업관련","category":"other"}]},{"lat":"37.420578027","long":"126.99225162","imageIndex":17,"items":[{"name":"과천한우","tel":"02-504-0997","addr":"경기도 과천시 과천동 465-3번지 1층","indutype":"소매업 - 축산물","category":"other"},{"name":"명가공인중개사무소","tel":"02-504-4555","addr":"경기도 과천시 과천동 535-86번지","indutype":"부동산업 - 부동산중개업","category":"other"},{"name":"해오름공인중개사사무소","tel":"02-504-9006","addr":"경기도 과천시 과천동 458-5번지 A동 1층","indutype":"부동산업 - 부동산중개업","category":"other"}]},{"lat":"37.429354291","long":"127.00264469","imageIndex":17,"items":[{"name":"광창공인중개사무소","tel":"02-3679-4989","addr":"경기도 과천시 과천동 147번지 1층","indutype":"부동산업 - 부동산중개업","category":"other"}]},{"lat":"37.448437349","long":"127.00935745","imageIndex":17,"items":[{"name":"광창철물","tel":"02-502-2809","addr":"경기도 과천시 과천동 134-3번지","indutype":"건축자재 - 목재·석재·철물","category":"other"}]},{"lat":"37.450104174","long":"126.99594296","imageIndex":17,"items":[{"name":"그린OA","tel":"02-521-3416","addr":"경기도 과천시 과천동 462-10번지 102호","indutype":"사무통신 - 사무용 OA기기","category":"other"},{"name":"신사와 나무","tel":"031-3679-3337","addr":"경기도 과천시 과천동 462-10번지","indutype":"문화.취미 - 화원","category":"other"},{"name":"영진플라워","tel":"02-502-1863","addr":"경기도 과천시 과천동 462-10번지 102호","indutype":"문화.취미 - 화원","category":"other"},{"name":"주식회사엔티엔","tel":"02-503-0939","addr":"경기도 과천시 과천동 462-10번지","indutype":"사무통신 - 컴퓨터","category":"other"}]},{"lat":"37.44666248","long":"127.00705194","imageIndex":17,"items":[{"name":"그린빌","tel":"02-507-2372","addr":"경기도 과천시 과천동 140-86","indutype":"건축자재 - 인테리어전문","category":"other"}]},{"lat":"37.452302803","long":"127.00091547","imageIndex":17,"items":[{"name":"꽃마루","tel":"02-3679-9787","addr":"경기도 과천시 과천동 449-7번지","indutype":"문화.취미 - 화원","category":"other"}]},{"lat":"37.428470935","long":"126.99350459","imageIndex":17,"items":[{"name":"꽃마루","tel":"02-3679-9787","addr":"경기도 과천시 과천동 449-7","indutype":"소매업 - 화원","category":"other"}]},{"lat":"37.450996227","long":"127.00866828","imageIndex":17,"items":[{"name":"꽃무지개","tel":"02-2057-0903","addr":"경기도 과천시 과천동 113-1","indutype":"문화.취미 - 화원","category":"other"}]},{"lat":"37.443824392","long":"127.00413629","imageIndex":17,"items":[{"name":"꽃밭에서","tel":"","addr":"경기도 과천시 과천동 207-4번지","indutype":"문화.취미 - 화원","category":"other"}]},{"lat":"37.445383091","long":"127.00596701","imageIndex":17,"items":[{"name":"나무21","tel":"02-503-1370","addr":"경기도 과천시 과천동 222-5번지","indutype":"문화.취미 - 화원","category":"other"}]},{"lat":"37.453662698","long":"127.01511052","imageIndex":17,"items":[{"name":"난경농원","tel":"","addr":"경기도 과천시 과천동 80-1번지","indutype":"문화.취미 - 화원","category":"other"}]},{"lat":"37.424777023","long":"127.00916335","imageIndex":17,"items":[{"name":"난경농원","tel":"","addr":"경기도 과천시 과천동 80-1","indutype":"도소매 - 난재배, 분화","category":"other"}]},{"lat":"37.447662665","long":"127.00297236","imageIndex":17,"items":[{"name":"농업회사법인 대성화훼종묘(주)","tel":"02-503-9094","addr":"경기도 과천시 과천동 260-8번지","indutype":"문화.취미 - 화원","category":"other"}]},{"lat":"37.427939294","long":"126.99291716","imageIndex":17,"items":[{"name":"다온뷰티","tel":"","addr":"경기도 과천시 과천동 555-107번지 1층","indutype":"소매업 - 화장품","category":"other"},{"name":"우림원예가든센터","tel":"02-504-0445","addr":"경기도 과천시 과천동 345번지","indutype":"도소매 - 정원수, 종자","category":"other"}]},{"lat":"37.448022884","long":"126.99633869","imageIndex":17,"items":[{"name":"대흥건장","tel":"02-503-1360","addr":"경기도 과천시 과천동 535-11번지","indutype":"직물 - 카페트,커튼,천막,지물","category":"other"},{"name":"짜임","tel":"02-504-0024","addr":"경기도 과천시 과천동 535-11번지","indutype":"가구 - 일반가구","category":"other"}]},{"lat":"37.444770433","long":"127.00491604","imageIndex":17,"items":[{"name":"데코가드닝","tel":"02-504-6633","addr":"경기도 과천시 과천동 221-5","indutype":"건축자재 - 인테리어전문","category":"other"},{"name":"분재예가원","tel":"02-502-0280","addr":"경기도 과천시 과천동 221-5 221-6","indutype":"문화.취미 - 화원","category":"other"}]},{"lat":"37.443662216","long":"127.00355997","imageIndex":17,"items":[{"name":"동산플라워","tel":"02-503-6708","addr":"경기도 과천시 과천동 292-1번지","indutype":"문화.취미 - 화원","category":"other"}]},{"lat":"37.444662306","long":"127.00049756","imageIndex":17,"items":[{"name":"동진농원","tel":"02-503-1701","addr":"경기도 과천시 과천동 279-8번지","indutype":"문화.취미 - 화원","category":"other"}]},{"lat":"37.435463037","long":"126.99916456","imageIndex":17,"items":[{"name":"뒷골상회","tel":"02-502-2638","addr":"경기도 과천시 과천동 365-2번지","indutype":"소매업 - 잡화, 점포","category":"other"}]},{"lat":"37.438886873","long":"127.00571815","imageIndex":17,"items":[{"name":"디노월드","tel":"02-504-4975","addr":"경기도 과천시 과천동 758번지 국립과천과학관 1층","indutype":"신변잡화 - 기념품점","category":"other"}]},{"lat":"37.424353377","long":"126.99392311","imageIndex":17,"items":[{"name":"뚜바비앙(Tout va bien)","tel":"02-504-7003","addr":"경기도 과천시 과천동 555-106번지","indutype":"소매업 - 일반가구, 인테리어소품","category":"other"}]},{"lat":"37.460348716","long":"127.00011276","imageIndex":17,"items":[{"name":"레베니","tel":"02-504-1488","addr":"경기도 과천시 과천동 401번지","indutype":"문화.취미 - 골동품점","category":"other"}]},{"lat":"37.439328299","long":"127.00771821","imageIndex":17,"items":[{"name":"로얄전자","tel":"02-585-2052","addr":"경기도 과천시 과천동 671번지","indutype":"전기제품 - 가전제품","category":"other"}]},{"lat":"37.449996215","long":"126.999695","imageIndex":17,"items":[{"name":"르노삼성자동차과천점","tel":"02-503-2277","addr":"경기도 과천시 과천동 464번지","indutype":"도소매 - 카센터","category":"other"}]},{"lat":"37.450104033","long":"126.99386353","imageIndex":17,"items":[{"name":"마루엔데코","tel":"02-888-3311","addr":"경기도 과천시 과천동 465-3번지","indutype":"직물 - 카페트,커튼,천막,지물","category":"other"}]},{"lat":"37.446914402","long":"126.99277903","imageIndex":17,"items":[{"name":"만화이야기","tel":"","addr":"경기도 과천시 과천동 513-82번지 201호","indutype":"서적문구 - 출판 및 인쇄물","category":"other"}]},{"lat":"37.444995668","long":"127.00569578","imageIndex":17,"items":[{"name":"명수원","tel":"02-504-4529","addr":"경기도 과천시 과천동 221-8","indutype":"문화.취미 - 화원","category":"other"}]},{"lat":"37.45321283","long":"127.00263332","imageIndex":17,"items":[{"name":"모리스가죽공방","tel":"02-111-1111","addr":"경기도 과천시 과천동 363-1번지 Moris leather studio C동 101호","indutype":"문화.취미 - 문화취미기타","category":"other"}]},{"lat":"37.447356013","long":"126.99430459","imageIndex":17,"items":[{"name":"모티브강","tel":"02-535-3274","addr":"경기도 과천시 과천동 549-8번지","indutype":"직물 - 침구·수예점","category":"other"}]},{"lat":"37.450023176","long":"126.99775118","imageIndex":17,"items":[{"name":"미래엠엔에스","tel":"02-3679-6674","addr":"경기도 과천시 과천동 555-106번지","indutype":"기타 - 기계공구","category":"other"},{"name":"세븐스데이인에덴","tel":"02-504-7003","addr":"경기도 과천시 과천동 555-106번지","indutype":"가구 - 일반가구","category":"other"}]},{"lat":"37.449635537","long":"126.99419132","imageIndex":17,"items":[{"name":"미래종합주방","tel":"02-502-8800","addr":"경기도 과천시 과천동 517-4번지","indutype":"주방용구 - 주방용구","category":"other"},{"name":"파랑반지","tel":"02-503-0337","addr":"경기도 과천시 과천동 517-4번지 장수식당 202호","indutype":"수리서비스 - 세탁소","category":"other"}]},{"lat":"37.451050086","long":"126.99388602","imageIndex":17,"items":[{"name":"민달팽이자활협동조합","tel":"02-507-0888","addr":"경기도 과천시 과천동 468-1번지","indutype":"용역 서비스 - 종합용역","category":"other"}]},{"lat":"37.446410272","long":"127.00344699","imageIndex":17,"items":[{"name":"봄빛농장","tel":"02-6397-3678","addr":"경기도 과천시 과천동 231-5번지","indutype":"문화.취미 - 화원","category":"other"}]},{"lat":"37.447716034","long":"126.99011191","imageIndex":17,"items":[{"name":"부모사","tel":"02-507-1342","addr":"경기도 과천시 과천동 506-8번지","indutype":"기타 - 비영리/대상","category":"other"}]},{"lat":"37.443743227","long":"127.00727778","imageIndex":17,"items":[{"name":"분재원","tel":"02-503-7697","addr":"경기도 과천시 과천동 186-14번지 중일부","indutype":"문화.취미 - 화원","category":"other"}]},{"lat":"37.449356367","long":"126.99636118","imageIndex":17,"items":[{"name":"빛돌커뮤니케이션","tel":"070-7622-5414","addr":"경기도 과천시 과천동 517-16번지 1층","indutype":"문화.취미 - 애완동물","category":"other"}]},{"lat":"37.443662179","long":"126.99983087","imageIndex":17,"items":[{"name":"뿌리농원","tel":"02-504-1548","addr":"경기도 과천시 과천동 330-11번지","indutype":"문화.취미 - 화원","category":"other"}]},{"lat":"37.443878415","long":"127.00611385","imageIndex":17,"items":[{"name":"삼성","tel":"","addr":"경기도 과천시 과천동 210-8번지","indutype":"용역 서비스 - 기타용역서비스","category":"other"}]},{"lat":"37.446905824","long":"127.00266724","imageIndex":17,"items":[{"name":"삼우옥션갤러리","tel":"","addr":"경기도 과천시 과천동 262-1번지","indutype":"문화.취미 - 골동품점","category":"other"}]},{"lat":"37.431804909","long":"126.99771853","imageIndex":17,"items":[{"name":"새과천농원","tel":"02-502-8387","addr":"경기도 과천시 과천동 454-18","indutype":"소매업 - 원예","category":"other"}]},{"lat":"37.447878761","long":"127.00872455","imageIndex":17,"items":[{"name":"서울화원","tel":"02-502-4494","addr":"경기도 과천시 과천동 139-17","indutype":"문화.취미 - 화원","category":"other"}]},{"lat":"37.443770303","long":"126.99997777","imageIndex":17,"items":[{"name":"선진농원","tel":"02-111-1111","addr":"경기도 과천시 과천동 330-12번지","indutype":"문화.취미 - 화원","category":"other"}]},{"lat":"37.458795947","long":"127.02988385","imageIndex":17,"items":[{"name":"성원공인중개사사무소","tel":"02-3678-4989","addr":"경기도 과천시 과천동 144-4번지 102호","indutype":"부동산업 - 부동산중개업및컨설팅","category":"other"}]},{"lat":"37.449770809","long":"126.99603341","imageIndex":17,"items":[{"name":"성지교역","tel":"02-3679-4220","addr":"경기도 과천시 과천동 555-95번지","indutype":"기타 - 기타 전문점","category":"other"}]},{"lat":"37.416691402","long":"126.97303723","imageIndex":17,"items":[{"name":"세이지스튜디오","tel":"02-504-6788","addr":"경기도 과천시 과천동 366-7번지 비원 2층","indutype":"서비스 - 사진촬영","category":"other"}]},{"lat":"37.452744296","long":"127.00108499","imageIndex":17,"items":[{"name":"세이지의 작은 사진관","tel":"031-1111-1111","addr":"경기도 과천시 과천동 366-7번지 2층 202호","indutype":"광학제품 - 사진관","category":"other"},{"name":"씨유과천선바위점","tel":"02-502-0862","addr":"경기도 과천시 과천동 366-7번지 1층","indutype":"유통업 영리 - 편 의 점","category":"other"}]},{"lat":"37.450608675","long":"127.01078161","imageIndex":17,"items":[{"name":"소공화원","tel":"02-507-4257","addr":"경기도 과천시 과천동 96-2번지","indutype":"문화.취미 - 화원","category":"other"},{"name":"행운농원","tel":"02-504-1225","addr":"경기도 과천시 과천동 96-2","indutype":"문화.취미 - 화원","category":"other"}]},{"lat":"37.443968527","long":"127.00563924","imageIndex":17,"items":[{"name":"순창농원","tel":"","addr":"경기도 과천시 과천동 217-2번지","indutype":"문화.취미 - 화원","category":"other"}]},{"lat":"37.45085192","long":"127.01114328","imageIndex":17,"items":[{"name":"순천향화원","tel":"02-574-2907","addr":"경기도 과천시 과천동 106번지","indutype":"문화.취미 - 화원","category":"other"},{"name":"은혜로플라워","tel":"02-575-3244","addr":"경기도 과천시 과천동 106번지","indutype":"문화.취미 - 화원","category":"other"}]},{"lat":"37.451104022","long":"127.01339229","imageIndex":17,"items":[{"name":"신화전자","tel":"02-504-3128","addr":"경기도 과천시 과천동 157번지 지층","indutype":"전기제품 - 가전제품","category":"other"}]},{"lat":"37.452824948","long":"126.9925522","imageIndex":17,"items":[{"name":"쌍용환경","tel":"02-504-0626","addr":"경기도 과천시 과천동 488번지","indutype":"건축자재 - 기타건축자재","category":"other"}]},{"lat":"37.427470731","long":"126.99244271","imageIndex":17,"items":[{"name":"쌍용환경","tel":"02-503-3143","addr":"경기도 과천시 과천동 488번지","indutype":"도소매 - 건축자재","category":"other"}]},{"lat":"37.44827514","long":"127.00986598","imageIndex":17,"items":[{"name":"씨유과천광창점","tel":"031-898-6568","addr":"경기도 과천시 과천동 143-2번지 101호","indutype":"유통업 영리 - 편 의 점","category":"other"}]},{"lat":"37.423686817","long":"127.00897121","imageIndex":17,"items":[{"name":"양지공인중개사사무소","tel":"02-503-3388","addr":"경기도 과천시 과천동 464번지 B동 102호","indutype":"서비스 - 공인중개사","category":"other"}]},{"lat":"37.44985205","long":"126.99952548","imageIndex":17,"items":[{"name":"에스플라워","tel":"02-507-1900","addr":"경기도 과천시 과천동 347-20","indutype":"문화.취미 - 화원","category":"other"}]},{"lat":"37.453492138","long":"127.00213604","imageIndex":17,"items":[{"name":"에코웍스아이(주)","tel":"02-576-5975","addr":"경기도 과천시 과천동 363-5번지 1층","indutype":"여행 - 렌터카","category":"other"}]},{"lat":"37.446355742","long":"126.99233838","imageIndex":17,"items":[{"name":"엠디에스이","tel":"070-8875-2500","addr":"경기도 과천시 과천동 513-41번지 솔미르","indutype":"회원제형태 - 기타4","category":"other"}]},{"lat":"37.446049872","long":"127.00330008","imageIndex":17,"items":[{"name":"영농조합법인서울초화생산자조","tel":"","addr":"경기도 과천시 과천동 231-4번지","indutype":"문화.취미 - 화원","category":"other"}]},{"lat":"37.441887236","long":"127.00430576","imageIndex":17,"items":[{"name":"영인농원","tel":"031-422-6673","addr":"경기도 과천시 과천동 302-1번지","indutype":"문화.취미 - 화원","category":"other"}]},{"lat":"37.449716917","long":"127.00558295","imageIndex":17,"items":[{"name":"예림식물원(농원)","tel":"02-507-9822","addr":"경기도 과천시 과천동 136-17","indutype":"문화.취미 - 화원","category":"other"}]},{"lat":"37.454356965","long":"127.00855552","imageIndex":17,"items":[{"name":"예림원","tel":"02-504-3812","addr":"경기도 과천시 과천동 36-6번지","indutype":"문화.취미 - 화원","category":"other"},{"name":"천지라온","tel":"02-502-5620","addr":"경기도 과천시 과천동 36-6번지","indutype":"문화.취미 - 화원","category":"other"}]},{"lat":"37.454104704","long":"127.00813733","imageIndex":17,"items":[{"name":"올레플라워","tel":"02-502-8488","addr":"경기도 과천시 과천동 36-7번지","indutype":"문화.취미 - 화원","category":"other"},{"name":"한승플라워","tel":"02-3418-6547","addr":"경기도 과천시 과천동 36-7번지 4호","indutype":"문화.취미 - 화원","category":"other"}]},{"lat":"37.4473561","long":"127.01017102","imageIndex":17,"items":[{"name":"우드스튜디오 움","tel":"031-228-3233","addr":"경기도 과천시 과천동 142-3번지","indutype":"가구 - 일반가구","category":"other"}]},{"lat":"37.449905997","long":"127.00905244","imageIndex":17,"items":[{"name":"우리화원","tel":"02-537-3315","addr":"경기도 과천시 과천동 111-2","indutype":"문화.취미 - 화원","category":"other"}]},{"lat":"37.449410574","long":"127.00007926","imageIndex":17,"items":[{"name":"우림원예가든센타","tel":"02-504-0445","addr":"경기도 과천시 과천동 345번지","indutype":"문화.취미 - 화원","category":"other"}]},{"lat":"37.448545446","long":"127.0097756","imageIndex":17,"items":[{"name":"원일시스템도어","tel":"02-507-9877","addr":"경기도 과천시 과천동 133-15번지 101호","indutype":"건축자재 - 기타건축자재","category":"other"}]},{"lat":"37.448464474","long":"127.00730066","imageIndex":17,"items":[{"name":"유한플라워","tel":"02-503-3835","addr":"경기도 과천시 과천동 136-24번지","indutype":"문화.취미 - 화원","category":"other"}]},{"lat":"37.443463914","long":"127.00733427","imageIndex":17,"items":[{"name":"윤화원","tel":"02-503-7842","addr":"경기도 과천시 과천동 189-22번지","indutype":"문화.취미 - 화원","category":"other"}]},{"lat":"37.450158295","long":"126.99708439","imageIndex":17,"items":[{"name":"율리스","tel":"070-4117-1154","addr":"경기도 과천시 과천동 555-69번지","indutype":"문화.취미 - 민예·공예품","category":"other"}]},{"lat":"37.451023398","long":"127.00310798","imageIndex":17,"items":[{"name":"이레플라워","tel":"02-3291-1501","addr":"경기도 과천시 과천동 349-2","indutype":"문화.취미 - 화원","category":"other"}]},{"lat":"37.449662809","long":"126.99858749","imageIndex":17,"items":[{"name":"일신건재철물","tel":"02-502-2752","addr":"경기도 과천시 과천동 555-109번지","indutype":"기타 - 기계공구","category":"other"},{"name":"하람","tel":"02-503-2751","addr":"경기도 과천시 과천동 555-109번지","indutype":"건축자재 - 목재·석재·철물","category":"other"}]},{"lat":"37.428606056","long":"126.99314303","imageIndex":17,"items":[{"name":"일신건재철물","tel":"02-502-2752","addr":"경기도 과천시 과천동 555-109번지","indutype":"소매업 - 철물","category":"other"}]},{"lat":"37.451491391","long":"127.01405913","imageIndex":17,"items":[{"name":"일호농원","tel":"02-834-3726","addr":"경기도 과천시 과천동 156-7번지","indutype":"문화.취미 - 화원","category":"other"}]},{"lat":"37.447410283","long":"126.99799997","imageIndex":17,"items":[{"name":"장스포츠","tel":"02-502-6366","addr":"경기도 과천시 과천동 528-9번지","indutype":"레져용품 - 스포츠·레져용품","category":"other"}]},{"lat":"37.453663262","long":"127.0069167","imageIndex":17,"items":[{"name":"정글트리","tel":"02-3418-4722","addr":"경기도 과천시 과천동 40-2번지","indutype":"문화.취미 - 화원","category":"other"}]},{"lat":"37.453879482","long":"127.00747051","imageIndex":17,"items":[{"name":"제이네운동장","tel":"070-4763-5713","addr":"경기도 과천시 과천동 36-14번지","indutype":"문화.취미 - 애완동물","category":"other"}]},{"lat":"37.45023929","long":"126.99538919","imageIndex":17,"items":[{"name":"제이비이앤씨","tel":"02-503-8029","addr":"경기도 과천시 과천동 462-5번지","indutype":"용역 서비스 - 기타용역서비스","category":"other"}]},{"lat":"37.444247869","long":"127.00302886","imageIndex":17,"items":[{"name":"제주삼다수 관악대리점","tel":"02-504-8939","addr":"경기도 과천시 과천동 291-12번지 외1필지","indutype":"유통업 영리 - 기타유통업","category":"other"}]},{"lat":"37.451969449","long":"127.00299497","imageIndex":17,"items":[{"name":"주)한일식물원","tel":"02-507-0012","addr":"경기도 과천시 과천동 350-1번지","indutype":"문화.취미 - 화원","category":"other"}]},{"lat":"37.442130422","long":"127.00758279","imageIndex":17,"items":[{"name":"주식회사 골프앤스포츠","tel":"031-425-9462","addr":"경기도 과천시 과천동 657-11번지","indutype":"레져용품 - 골프용품 전문점","category":"other"}]},{"lat":"37.44766252","long":"126.99702808","imageIndex":17,"items":[{"name":"주식회사 드론뷰텍","tel":"02-578-7144","addr":"경기도 과천시 과천동 535-16번지 2층 206호","indutype":"광학제품 - 기타광학제품","category":"other"}]},{"lat":"37.44530204","long":"127.00241863","imageIndex":17,"items":[{"name":"주식회사 제이엔씨","tel":"02-502-5880","addr":"경기도 과천시 과천동 285번지","indutype":"레져용품 - 스포츠·레져용품","category":"other"}]},{"lat":"37.457273984","long":"127.02649259","imageIndex":17,"items":[{"name":"주식회사과천엘피지충전소","tel":"02-3418-7100","addr":"경기도 과천시 과천동 30","indutype":"도소매 - 차량용가스충전","category":"other"}]},{"lat":"37.44810409","long":"127.0068373","imageIndex":17,"items":[{"name":"주식회사에스브이앤피","tel":"02-712-2633","addr":"경기도 과천시 과천동 140-25번지","indutype":"신변잡화 - 기타잡화","category":"other"}]},{"lat":"37.450158274","long":"126.99666624","imageIndex":17,"items":[{"name":"주식회사온에어네트웍스","tel":"02-1644-8410","addr":"경기도 과천시 과천동 555-100번지 1층","indutype":"서적문구 - 출판 및 인쇄물","category":"other"}]},{"lat":"37.451185575","long":"127.00197784","imageIndex":17,"items":[{"name":"지엘(GL)모터스","tel":"02-989-5282","addr":"경기도 과천시 과천동 348-5번지","indutype":"수리서비스 - 레져용품수리","category":"other"}]},{"lat":"37.426470739","long":"126.99394545","imageIndex":17,"items":[{"name":"짜임","tel":"02-504-0024","addr":"경기도 과천시 과천동 535-11번지","indutype":"도소매 - 가구제작","category":"other"}]},{"lat":"37.452716837","long":"126.99266524","imageIndex":17,"items":[{"name":"창영기업","tel":"02-525-6430","addr":"경기도 과천시 과천동 487번지","indutype":"기타 - 기타 전문점","category":"other"}]},{"lat":"37.440490664","long":"127.00036209","imageIndex":17,"items":[{"name":"천하제일화훼유통","tel":"02-6677-5293","addr":"경기도 과천시 과천동 318 2/5","indutype":"문화.취미 - 화원","category":"other"}]},{"lat":"37.444824451","long":"127.00663372","imageIndex":17,"items":[{"name":"클리오농원","tel":"02-502-1159","addr":"경기도 과천시 과천동 220-1번지","indutype":"문화.취미 - 화원","category":"other"}]},{"lat":"37.441076289","long":"126.99933378","imageIndex":17,"items":[{"name":"킹물물","tel":"02-942-1562","addr":"경기도 과천시 과천동 324-8","indutype":"신변잡화 - 기타잡화","category":"other"}]},{"lat":"37.447716514","long":"126.99583018","imageIndex":17,"items":[{"name":"파인트그라픽스","tel":"070-4146-4334","addr":"경기도 과천시 과천동 536-9번지 매직카","indutype":"용역 서비스 - 사무서비스","category":"other"}]},{"lat":"37.448770724","long":"127.00927837","imageIndex":17,"items":[{"name":"퍼니처 은진수","tel":"02-3476-4440","addr":"경기도 과천시 과천동 135-4번지","indutype":"가구 - 일반가구","category":"other"}]},{"lat":"37.4549968","long":"127.00131097","imageIndex":17,"items":[{"name":"포티에스","tel":"","addr":"경기도 과천시 과천동 373-1번지 202호","indutype":"레져용품 - 스포츠·레져용품","category":"other"}]},{"lat":"37.453519034","long":"127.00855546","imageIndex":17,"items":[{"name":"플라워세림","tel":"031-404-0087","addr":"경기도 과천시 과천동 50-13번지","indutype":"문화.취미 - 화원","category":"other"}]},{"lat":"37.44294135","long":"127.00685963","imageIndex":17,"items":[{"name":"피루니엘 (PIRUNI.L)","tel":"031-000-0000","addr":"경기도 과천시 과천동 191번지","indutype":"신변잡화 - 기타잡화","category":"other"}]},{"lat":"37.443355811","long":"127.00685965","imageIndex":17,"items":[{"name":"하나농원","tel":"031-702-4055","addr":"경기도 과천시 과천동 213-3번지","indutype":"문화.취미 - 화원","category":"other"}]},{"lat":"37.450239338","long":"126.99619158","imageIndex":17,"items":[{"name":"한국오리지널절권도체육관","tel":"2-555-8955","addr":"경기도 과천시 과천동 364-9번지 지층101호 102호","indutype":"서비스 - 무술","category":"other"}]},{"lat":"37.445049756","long":"127.0017745","imageIndex":17,"items":[{"name":"해피라이프","tel":"02-522-0786","addr":"경기도 과천시 과천동 282-1번지 제2호","indutype":"기타 - 기타 전문점","category":"other"}]},{"lat":"37.453518699","long":"126.99233738","imageIndex":17,"items":[{"name":"협신사무기","tel":"02-502-7015","addr":"경기도 과천시 과천동 495번지","indutype":"사무통신 - 사무용 OA기기","category":"other"}]}]