[{"lat":"37.004245669","long":"127.27237448","imageIndex":17,"items":[{"name":"거성알미늄샷시유리","tel":"031-676-4997","addr":"경기도 안성시 창전동 82-1번지 창전연립","indutype":"건축자재 - 유리","category":"other"}]},{"lat":"37.00383332","long":"127.2714293","imageIndex":17,"items":[{"name":"김정은한복","tel":"031-675-3335","addr":"경기도 안성시 창전동 122-1번지","indutype":"의류 - 맞춤복점","category":"other"}]},{"lat":"37.003886875","long":"127.27165419","imageIndex":17,"items":[{"name":"대덕전기","tel":"031-675-7942","addr":"경기도 안성시 창전동 123-1번지","indutype":"수리서비스 - 기타수리서비스","category":"other"}]},{"lat":"37.004915277","long":"127.27112976","imageIndex":17,"items":[{"name":"부부가구갤러리","tel":"031-677-5909","addr":"경기도 안성시 창전동 370-4,371-1","indutype":"가구 - 일반가구","category":"other"}]},{"lat":"37.004515706","long":"127.27249902","imageIndex":17,"items":[{"name":"안단테(Aandante)","tel":"031-673-5444","addr":"경기도 안성시 창전동 82-1번지 창전연립 B동 1층 가호","indutype":"의류 - 정장","category":"other"}]},{"lat":"37.004247731","long":"127.27146446","imageIndex":17,"items":[{"name":"안성중앙 알뜰매장","tel":"031-675-0616","addr":"경기도 안성시 창전동 93번지 1층","indutype":"전기제품 - 가전제품","category":"other"}]},{"lat":"37.004194176","long":"127.27123958","imageIndex":17,"items":[{"name":"을지지업사","tel":"031-671-5795","addr":"경기도 안성시 창전동 94번지","indutype":"직물 - 카페트,커튼,천막,지물","category":"other"},{"name":"필박스(FEELBOX)","tel":"031-674-2386","addr":"경기도 안성시 창전동 94외1필지","indutype":"서적문구 - 출판 및 인쇄물","category":"other"}]},{"lat":"37.003885245","long":"127.27237321","imageIndex":17,"items":[{"name":"줄리엣아트","tel":"031-676-1842","addr":"경기도 안성시 창전동 128-1번지","indutype":"기타 - 기타 전문점","category":"other"}]},{"lat":"37.003887638","long":"127.27131714","imageIndex":17,"items":[{"name":"칠칠공사","tel":"031-674-7704","addr":"경기도 안성시 창전동 120-3번지","indutype":"건축자재 - 페인트","category":"other"}]},{"lat":"37.003888247","long":"127.27104751","imageIndex":17,"items":[{"name":"코코패션","tel":"031-672-9381","addr":"경기도 안성시 창전동 113-2번지","indutype":"의류 - 양품점","category":"other"}]},{"lat":"37.003803461","long":"127.27267626","imageIndex":17,"items":[{"name":"프라쟈골프클럽","tel":"031-676-9045","addr":"경기도 안성시 창전동 130-5번지","indutype":"회원제형태 - 레져업소","category":"other"},{"name":"황금바늘(안성점)","tel":"031-676-1803","addr":"경기도 안성시 창전동 130-5번지","indutype":"의류 - 맞춤복점","category":"other"}]}]