[{"lat":"37.473208099","long":"126.82556682","imageIndex":7,"items":[{"name":"강산푸드","tel":"02-3666-6999","addr":"경기도 부천시 옥길동 490-1번지","indutype":"음료식품 - 기타음료식품","category":"food"}]},{"lat":"37.469318225","long":"126.82123521","imageIndex":7,"items":[{"name":"고기에반하다","tel":"032-345-9592","addr":"경기도 부천시 옥길동 730-1번지 102호","indutype":"음료식품 - 정육점","category":"food"}]},{"lat":"37.467183079","long":"126.82137602","imageIndex":7,"items":[{"name":"국선생부천옥길점","tel":"032-342-9455","addr":"경기도 부천시 옥길동 725번지 1층 112호","indutype":"음료식품 - 기타음료식품","category":"food"},{"name":"꼬꼬마카롱","tel":"032-269-2891","addr":"경기도 부천시 옥길동 725번지 115호","indutype":"음료식품 - 기타음료식품","category":"food"}]},{"lat":"37.462929396","long":"126.82074202","imageIndex":7,"items":[{"name":"금산인삼","tel":"","addr":"경기도 부천시 옥길동 751-1번지 엘에이치옥길브리즈힐 613동 1002호","indutype":"건강식품 - 인삼제품","category":"food"},{"name":"얌얌식빵 옥길점","tel":"032-345-0184","addr":"경기도 부천시 옥길동 751-1번지 엘에이치옥길브리즈힐 상가동 지하1층 111호","indutype":"음료식품 - 제과점","category":"food"},{"name":"통큰축산","tel":"032-347-9800","addr":"경기도 부천시 옥길동 751-1번지 엘에이치옥길브리즈힐 108호","indutype":"음료식품 - 정육점","category":"food"}]},{"lat":"37.468374518","long":"126.82276354","imageIndex":7,"items":[{"name":"낙원떡집","tel":"032-341-0704","addr":"경기도 부천시 옥길동 727-2번지 102호","indutype":"음료식품 - 제과점","category":"food"},{"name":"던킨도너츠부천옥길점","tel":"","addr":"경기도 부천시 옥길동 727-2번지 1층 104,105호","indutype":"음료식품 - 제과점","category":"food"},{"name":"맥주 아이스크림 더하기","tel":"031-546-6451","addr":"경기도 부천시 옥길동 727-2번지 101호","indutype":"음료식품 - 기타음료식품","category":"food"},{"name":"부천 이로운에프앤비 지점","tel":"070-8672-5545","addr":"경기도 부천시 옥길동 727-2번지 1층 103호","indutype":"음료식품 - 농·축·수산품","category":"food"}]},{"lat":"37.462069729","long":"126.81266241","imageIndex":7,"items":[{"name":"넘버원과일가게","tel":"","addr":"경기도 부천시 옥길동 777-4번지 1차 102호","indutype":"음료식품 - 농·축·수산품","category":"food"},{"name":"달보다예쁜","tel":"","addr":"경기도 부천시 옥길동 777-4번지 서영아너시티 215호","indutype":"음료식품 - 기타음료식품","category":"food"}]},{"lat":"37.473600984","long":"126.82321449","imageIndex":7,"items":[{"name":"농업회사법인 동진농산 주식회사","tel":"02-2618-4242","addr":"경기도 부천시 옥길동 521-2번지","indutype":"음료식품 - 농·축·수산품","category":"food"}]},{"lat":"37.464097288","long":"126.81854633","imageIndex":7,"items":[{"name":"늘푸른","tel":"032-345-8502","addr":"경기도 부천시 옥길동 771-1번지 엘에이치센트리뷰 109호","indutype":"음료식품 - 농·축·수산품","category":"food"},{"name":"돈우리축산","tel":"02-1111-1111","addr":"경기도 부천시 옥길동 771-1번지 엘에이치센트리뷰 107호","indutype":"음료식품 - 정육점","category":"food"}]},{"lat":"37.472733783","long":"126.81595897","imageIndex":7,"items":[{"name":"대한예수교장로회주왕교회","tel":"032-342-0192","addr":"경기도 부천시 옥길동 782번지","indutype":"음료식품 - 기타음료식품","category":"food"}]},{"lat":"37.462070474","long":"126.81882258","imageIndex":7,"items":[{"name":"뚜레쥬르 부천옥길점","tel":"","addr":"경기도 부천시 옥길동 753-2번지 1층","indutype":"음료식품 - 제과점","category":"food"}]},{"lat":"37.471069351","long":"126.81748921","imageIndex":7,"items":[{"name":"뜯고씹구옥길점","tel":"","addr":"경기도 부천시 옥길동 701-1번지 부천옥길엘에이치1단지 105동 6층 06호","indutype":"음료식품 - 기타음료식품","category":"food"}]},{"lat":"37.461904221","long":"126.81060568","imageIndex":7,"items":[{"name":"레드하우스","tel":"032-344-9285","addr":"경기도 부천시 옥길동 780-1번지 옥길호반베르디움 104호","indutype":"음료식품 - 정육점","category":"food"},{"name":"아이스크림 할인점","tel":"070-997-9970","addr":"경기도 부천시 옥길동 780-1번지 옥길호반베르디움 101호","indutype":"음료식품 - 기타음료식품","category":"food"}]},{"lat":"37.469460326","long":"126.81990097","imageIndex":7,"items":[{"name":"로또대박","tel":"031-341-8540","addr":"경기도 부천시 옥길동 710-7번지 1층","indutype":"음료식품 - 기타음료식품","category":"food"}]},{"lat":"37.466483703","long":"126.82360455","imageIndex":7,"items":[{"name":"마켓찬방","tel":"02-6954-7759","addr":"경기도 부천시 옥길동 744-2번지 이에스타워 106호","indutype":"음료식품 - 기타음료식품","category":"food"},{"name":"옥길심축산","tel":"032-347-0110","addr":"경기도 부천시 옥길동 744-2번지 이에스타워 101호","indutype":"음료식품 - 정육점","category":"food"}]},{"lat":"37.468794883","long":"126.8207391","imageIndex":7,"items":[{"name":"반찬의감동밥도둑","tel":"032-347-8119","addr":"경기도 부천시 옥길동 714-4번지","indutype":"음료식품 - 기타음료식품","category":"food"}]},{"lat":"37.467878678","long":"126.82257256","imageIndex":7,"items":[{"name":"베스킨라빈스부천옥길점","tel":"032-347-5231","addr":"경기도 부천시 옥길동 726-1번지 센타프라자 105호","indutype":"음료식품 - 제과점","category":"food"}]},{"lat":"37.462574285","long":"126.81266113","imageIndex":7,"items":[{"name":"브래드 스틱 (Bread stick)","tel":"032-343-6874","addr":"경기도 부천시 옥길동 777-1번지 1층 112호","indutype":"음료식품 - 제과점","category":"food"},{"name":"한나식빵옥길점","tel":"031-998-4777","addr":"경기도 부천시 옥길동 777-1번지 옥길헤리움타운주건축물 1동 1층 110호","indutype":"음료식품 - 제과점","category":"food"}]},{"lat":"37.464350686","long":"126.82515821","imageIndex":7,"items":[{"name":"소백축산","tel":"032-342-5544","addr":"경기도 부천시 옥길동 747-1번지 엘에이치옥길헤일라움 103호","indutype":"음료식품 - 정육점","category":"food"}]},{"lat":"37.466958593","long":"126.82187393","imageIndex":7,"items":[{"name":"스타정육","tel":"031-349-8889","addr":"경기도 부천시 옥길동 726-5번지 드림탑프라자 103호","indutype":"음료식품 - 정육점","category":"food"},{"name":"장독대옥길점","tel":"032-345-5288","addr":"경기도 부천시 옥길동 726-5번지 드림탑프라자 109호","indutype":"음료식품 - 기타음료식품","category":"food"},{"name":"황금비타민","tel":"032-342-3422","addr":"경기도 부천시 옥길동 726-5번지 드림프라자 102호","indutype":"음료식품 - 농·축·수산품","category":"food"}]},{"lat":"37.467184188","long":"126.82209947","imageIndex":7,"items":[{"name":"스톤오븐","tel":"032-342-0095","addr":"경기도 부천시 옥길동 726-4번지 상림프라자 1층 101호","indutype":"음료식품 - 제과점","category":"food"}]},{"lat":"37.464957462","long":"126.82723662","imageIndex":7,"items":[{"name":"아이스크림 할인점","tel":"031-742-9465","addr":"경기도 부천시 옥길동 739-1번지 제이드카운티2단지 상가동 104호","indutype":"음료식품 - 기타음료식품","category":"food"},{"name":"풍경정육점","tel":"032-349-4945","addr":"경기도 부천시 옥길동 739-1번지 제이드카운티2단지 109호","indutype":"음료식품 - 정육점","category":"food"}]},{"lat":"37.466293721","long":"126.82309634","imageIndex":7,"items":[{"name":"에이스","tel":"032-342-0753","addr":"경기도 부천시 옥길동 744-3번지 1001~1006호","indutype":"음료식품 - 기타음료식품","category":"food"}]},{"lat":"37.46370941","long":"126.81257914","imageIndex":7,"items":[{"name":"여리시루","tel":"031-347-0321","addr":"경기도 부천시 옥길동 776-1번지 부천옥길자이 B2층 17-2호","indutype":"음료식품 - 기타음료식품","category":"food"}]},{"lat":"37.461458009","long":"126.81895972","imageIndex":7,"items":[{"name":"집쉐프","tel":"032-341-6242","addr":"경기도 부천시 옥길동 754-7번지 브리즈타워 104호","indutype":"음료식품 - 기타음료식품","category":"food"}]},{"lat":"37.469936361","long":"126.81893895","imageIndex":7,"items":[{"name":"코리아정육","tel":"","addr":"경기도 부천시 옥길동 703-1번지 1층 일부","indutype":"음료식품 - 정육점","category":"food"}]},{"lat":"37.468067075","long":"126.82204082","imageIndex":7,"items":[{"name":"파리바게뜨부천옥길점","tel":"032-345-7978","addr":"경기도 부천시 옥길동 723-1번지","indutype":"음료식품 - 제과점","category":"food"}]},{"lat":"37.470180051","long":"126.81920966","imageIndex":7,"items":[{"name":"한우리정육점","tel":"032-348-3995","addr":"경기도 부천시 옥길동 703-3번지 1층","indutype":"음료식품 - 정육점","category":"food"},{"name":"헨젤","tel":"","addr":"경기도 부천시 옥길동 703-3번지","indutype":"음료식품 - 제과점","category":"food"}]}]