[{"lat":"37.048575401","long":"127.2613796","imageIndex":7,"items":[{"name":"(주)우리식품","tel":"031-676-4442","addr":"경기도 안성시 대덕면 진현리 339-3번지","indutype":"음료식품 - 기타음료식품","category":"food"}]},{"lat":"37.060073025","long":"127.2654324","imageIndex":7,"items":[{"name":"블루베리농원 산내들","tel":"070-4415-7207","addr":"경기도 안성시 대덕면 진현리 산3-1번지","indutype":"음료식품 - 농·축·수산품","category":"food"}]},{"lat":"37.05126739","long":"127.26237801","imageIndex":7,"items":[{"name":"안성유통","tel":"031-676-8040","addr":"경기도 안성시 대덕면 진현리 283-2 1/1","indutype":"음료식품 - 농·축·수산품","category":"food"}]},{"lat":"37.058847067","long":"127.2574007","imageIndex":17,"items":[{"name":"GS25안성유안점","tel":"","addr":"경기도 안성시 대덕면 진현리 555번지 유안아파트 상가동 105~106호","indutype":"유통업 영리 - 편 의 점","category":"other"}]},{"lat":"37.060292032","long":"127.26418516","imageIndex":17,"items":[{"name":"아토(ahtto)","tel":"031-671-3311","addr":"경기도 안성시 대덕면 진현리 57-1번지","indutype":"문화.취미 - 민예·공예품","category":"other"}]},{"lat":"37.058127425","long":"127.26512214","imageIndex":17,"items":[{"name":"엔바이로텍(주)","tel":"031-677-6861","addr":"경기도 안성시 대덕면 진현리 177","indutype":"용역 서비스 - 기타용역서비스","category":"other"}]},{"lat":"37.05018189","long":"127.26018219","imageIndex":17,"items":[{"name":"이마트24 안성대덕점","tel":"031-675-7008","addr":"경기도 안성시 대덕면 진현리 355-2번지","indutype":"유통업 영리 - 편 의 점","category":"other"}]},{"lat":"37.054018101","long":"127.25706979","imageIndex":17,"items":[{"name":"주원산업","tel":"","addr":"경기도 안성시 대덕면 진현리 381-18번지","indutype":"건축자재 - 기타건축자재","category":"other"}]},{"lat":"37.061215649","long":"127.25795953","imageIndex":17,"items":[{"name":"지수산업","tel":"031-667-4206","addr":"경기도 안성시 대덕면 진현리 119-3번지 1층","indutype":"기타 - 기계공구","category":"other"}]},{"lat":"37.049466561","long":"127.26178732","imageIndex":4,"items":[{"name":"JK푸드식당(일반음식점)","tel":"031-676-6630","addr":"경기도 안성시 대덕면 진현리 309-11번지 1층 좌호","indutype":"일반휴게음식 - 일반한식","category":"restaurant"},{"name":"기사식당","tel":"031-675-8865","addr":"경기도 안성시 대덕면 진현리 309-11번지","indutype":"일반휴게음식 - 일반한식","category":"restaurant"}]},{"lat":"37.058847067","long":"127.2574007","imageIndex":4,"items":[{"name":"꼬꼬팜(유안점)","tel":"031-674-2233","addr":"경기도 안성시 대덕면 진현리 555번지 상가동 102호, 103호, 104호","indutype":"일반휴게음식 - 일반한식","category":"restaurant"}]},{"lat":"37.05404412","long":"127.25754205","imageIndex":4,"items":[{"name":"베이징","tel":"031-675-9022","addr":"경기도 안성시 대덕면 진현리 381-5번지","indutype":"일반휴게음식 - 중국식","category":"restaurant"}]},{"lat":"37.058271622","long":"127.25682539","imageIndex":4,"items":[{"name":"은서네차돌육손칼국수","tel":"031-677-2633","addr":"경기도 안성시 대덕면 진현리 137번지 가동 1층","indutype":"일반휴게음식 - 일반한식","category":"restaurant"},{"name":"중화요리태권브이","tel":"031-677-7716","addr":"경기도 안성시 대덕면 진현리 137번지","indutype":"일반휴게음식 - 중국식","category":"restaurant"}]},{"lat":"37.047681961","long":"127.26201732","imageIndex":4,"items":[{"name":"은행나무집","tel":"031-675-9252","addr":"경기도 안성시 대덕면 진현리 339-1번지","indutype":"일반휴게음식 - 일반한식","category":"restaurant"}]},{"lat":"37.053932584","long":"127.26326398","imageIndex":4,"items":[{"name":"종갓집곰탕","tel":"031-676-7014","addr":"경기도 안성시 대덕면 진현리 245-5번지","indutype":"일반휴게음식 - 일반한식","category":"restaurant"}]},{"lat":"37.057540999","long":"127.25718272","imageIndex":4,"items":[{"name":"춘하추동","tel":"031-677-2205","addr":"경기도 안성시 대덕면 진현리 139-1번지","indutype":"일반휴게음식 - 일반한식","category":"restaurant"}]},{"lat":"37.049682569","long":"127.26190047","imageIndex":4,"items":[{"name":"할매 추어탕","tel":"031-676-9856","addr":"경기도 안성시 대덕면 진현리 309-1번지","indutype":"일반휴게음식 - 일반한식","category":"restaurant"}]},{"lat":"37.053320399","long":"127.25887745","imageIndex":9,"items":[{"name":"SK진현주유소","tel":"031-675-0049","addr":"경기도 안성시 대덕면 진현리 418-1번지","indutype":"연료판매점 - SK주유소","category":"oil"}]},{"lat":"37.061490205","long":"127.26834931","imageIndex":9,"items":[{"name":"대성종합가스","tel":"031-672-1001","addr":"경기도 안성시 대덕면 진현리 1-2번지","indutype":"연료판매점 - LPG 취급점","category":"oil"}]},{"lat":"37.046933005","long":"127.26250939","imageIndex":9,"items":[{"name":"현대대덕주유소","tel":"031-677-5145","addr":"경기도 안성시 대덕면 진현리 336-3번지 (외336-4,336-9번지)","indutype":"연료판매점 - 현대정유(오일뱅크)","category":"oil"}]},{"lat":"37.050491943","long":"127.26262269","imageIndex":16,"items":[{"name":"명덕초등학교","tel":"","addr":"경기도 안성시 대덕면 진현리 285-1번지 명덕초등학교 1층","indutype":"학원 - 초중고교육기관","category":"study"}]},{"lat":"37.061460358","long":"127.25729699","imageIndex":16,"items":[{"name":"안성자동차운전전문학원","tel":"031-676-5757","addr":"경기도 안성시 대덕면 진현리 114-1번지","indutype":"학원 - 기능학원","category":"study"}]},{"lat":"37.048270807","long":"127.26468354","imageIndex":13,"items":[{"name":"사주카페","tel":"031-677-3005","addr":"경기도 안성시 대덕면 진현리 330-1번지","indutype":"보건위생 - 기타대인서비스","category":"beauty"}]},{"lat":"37.05960062","long":"127.26309221","imageIndex":0,"items":[{"name":"오한밧데리","tel":"031-673-5151","addr":"경기도 안성시 대덕면 진현리 62-4번지","indutype":"자동차정비 유지 - 자동차부품","category":"car"}]},{"lat":"37.058847067","long":"127.2574007","imageIndex":7,"items":[{"name":"유안마트로","tel":"031-671-6363","addr":"경기도 안성시 대덕면 진현리 555번지 유안아파트 상가 105호","indutype":"유통업 영리 - 슈퍼마켓","category":"mart"}]}]