[{"lat":"37.35400923","long":"127.2570055","imageIndex":17,"items":[{"name":"(주)대호퍼니쳐","tel":"031-766-9085","addr":"경기도 광주시 오포읍 매산리 301-3번지","indutype":"가구 - 일반가구","category":"other"}]},{"lat":"37.36623242","long":"127.2414006","imageIndex":17,"items":[{"name":"(주)빙글침대","tel":"031-798-9548","addr":"경기도 광주시 오포읍 매산리 629-26번지","indutype":"가구 - 일반가구","category":"other"}]},{"lat":"37.3572625","long":"127.2481785","imageIndex":17,"items":[{"name":"GD아이앤케이","tel":"031-766-8130","addr":"경기도 광주시 오포읍 매산리 233-7번지","indutype":"건축자재 - 인테리어전문","category":"other"}]},{"lat":"37.35137307","long":"127.2552246","imageIndex":17,"items":[{"name":"HS케미칼","tel":"070-5089-3276","addr":"경기도 광주시 오포읍 매산리 204-6번지","indutype":"직물 - 카페트,커튼,천막,지물","category":"other"},{"name":"성신에스티","tel":"031-767-9570","addr":"경기도 광주시 오포읍 매산리 204-6번지","indutype":"기타 - 기계공구","category":"other"}]},{"lat":"37.35645402","long":"127.247002","imageIndex":17,"items":[{"name":"개그스토리마트","tel":"031-766-7835","addr":"경기도 광주시 오포읍 매산리 224-14번지","indutype":"유통업 영리 - 편 의 점","category":"other"},{"name":"미니스톱 광주성공점","tel":"031-1577-9621","addr":"경기도 광주시 오포읍 매산리 224-14번지","indutype":"유통업 영리 - 편 의 점","category":"other"},{"name":"성공모바일","tel":"031-1111-1111","addr":"경기도 광주시 오포읍 매산리 224-14번지","indutype":"사무통신 - 통신기기","category":"other"}]},{"lat":"37.36537017","long":"127.2445022","imageIndex":17,"items":[{"name":"개풍용접기","tel":"031-768-3574","addr":"경기도 광주시 오포읍 매산리 616-3번지","indutype":"기타 - 기계공구","category":"other"},{"name":"오포재활용센타","tel":"031-768-0091","addr":"경기도 광주시 오포읍 매산리 616-3번지","indutype":"신변잡화 - 기타잡화","category":"other"}]},{"lat":"37.35992469","long":"127.2461441","imageIndex":17,"items":[{"name":"거성정보통신","tel":"031-761-7200","addr":"경기도 광주시 오포읍 매산리 498-14번지","indutype":"사무통신 - 통신기기","category":"other"}]},{"lat":"37.35534036","long":"127.2408131","imageIndex":17,"items":[{"name":"건화포장","tel":"031-762-5115","addr":"경기도 광주시 오포읍 매산리 765번지 외1필지","indutype":"유통업 영리 - 기타유통업","category":"other"}]},{"lat":"37.3569021","long":"127.2481773","imageIndex":17,"items":[{"name":"광주공예사","tel":"","addr":"경기도 광주시 오포읍 매산리 233-5번지","indutype":"문화.취미 - 문화취미기타","category":"other"}]},{"lat":"37.35445329","long":"127.2558106","imageIndex":17,"items":[{"name":"광주아크릴","tel":"031-767-7420","addr":"경기도 광주시 오포읍 매산리 304-2","indutype":"건축자재 - 기타건축자재","category":"other"}]},{"lat":"37.35806752","long":"127.2466686","imageIndex":17,"items":[{"name":"광주안료","tel":"031-765-5901","addr":"경기도 광주시 오포읍 매산리 226-3번지","indutype":"기타 - 기타 전문점","category":"other"}]},{"lat":"37.35851266","long":"127.2404506","imageIndex":17,"items":[{"name":"그린상사","tel":"031-766-4543","addr":"경기도 광주시 오포읍 매산리 677","indutype":"농업 - 비료,사료,종자","category":"other"}]},{"lat":"37.35578807","long":"127.2466161","imageIndex":17,"items":[{"name":"그린재활용","tel":"031-768-9939","addr":"경기도 광주시 오포읍 매산리 223-8번지 태룡빌딩 1층 101호,102호","indutype":"수리서비스 - 가정용품수리","category":"other"},{"name":"로얄부동산중개인사무소","tel":"031-761-0706","addr":"경기도 광주시 오포읍 매산리 223-8번지 태룡빌딩","indutype":"용역 서비스 - 부동산 중개·임대","category":"other"}]},{"lat":"37.35231178","long":"127.254449","imageIndex":17,"items":[{"name":"금호정밀","tel":"031-768-7795","addr":"경기도 광주시 오포읍 매산리 202-4번지","indutype":"전기제품 - 기타전기제품","category":"other"}]},{"lat":"37.3658129","long":"127.2438941","imageIndex":17,"items":[{"name":"김세연","tel":"011-***-****","addr":"경기도 광주시 오포읍 매산리 618-6번지","indutype":"용역 서비스 - 부동산 중개·임대","category":"other"}]},{"lat":"37.35123525","long":"127.2606417","imageIndex":17,"items":[{"name":"까사도도","tel":"031-948-8872","addr":"경기도 광주시 오포읍 매산리 106-2번지","indutype":"가구 - 일반가구","category":"other"}]},{"lat":"37.34734578","long":"127.2634272","imageIndex":17,"items":[{"name":"노래하는크레용-노크경기광주지사","tel":"031-763-5393","addr":"경기도 광주시 오포읍 매산리 185-23번지 2층","indutype":"서적문구 - 일반서적","category":"other"}]},{"lat":"37.34787388","long":"127.2650091","imageIndex":17,"items":[{"name":"다우석건","tel":"031-767-8784","addr":"경기도 광주시 오포읍 매산리 144-2","indutype":"건축자재 - 목재·석재·철물","category":"other"}]},{"lat":"37.35720624","long":"127.2448711","imageIndex":17,"items":[{"name":"달콤뮤즈솝","tel":"031-768-4269","addr":"경기도 광주시 오포읍 매산리 739-13번지 중앙타운 102동 402호","indutype":"회원제형태 - 기타4","category":"other"}]},{"lat":"37.35287168","long":"127.2580626","imageIndex":17,"items":[{"name":"대광불교","tel":"031-0000-0000","addr":"경기도 광주시 오포읍 매산리 66-1번지","indutype":"신변잡화 - 기념품점","category":"other"}]},{"lat":"37.36530935","long":"127.2433958","imageIndex":17,"items":[{"name":"대명패널","tel":"031-767-2474","addr":"경기도 광주시 오포읍 매산리 618-14번지","indutype":"건축자재 - 기타건축자재","category":"other"}]},{"lat":"37.35487456","long":"127.2568391","imageIndex":17,"items":[{"name":"대박과학","tel":"","addr":"경기도 광주시 오포읍 매산리 317-1번지","indutype":"서적문구 - 과학기자재","category":"other"}]},{"lat":"37.36342928","long":"127.2463134","imageIndex":17,"items":[{"name":"대성세탁소","tel":"031-764-3278","addr":"경기도 광주시 오포읍 매산리 586-11번지 광주오포대성아파트 1층","indutype":"수리서비스 - 세탁소","category":"other"}]},{"lat":"37.35089498","long":"127.2554826","imageIndex":17,"items":[{"name":"더원코리아","tel":"070-8769-4746","addr":"경기도 광주시 오포읍 매산리 204-8","indutype":"전기제품 - 가전제품","category":"other"}]},{"lat":"37.35756312","long":"127.2465879","imageIndex":17,"items":[{"name":"덕진정밀","tel":"","addr":"경기도 광주시 오포읍 매산리 226-12번지","indutype":"용역 서비스 - 기타용역서비스","category":"other"},{"name":"매산세탁소","tel":"031-766-5020","addr":"경기도 광주시 오포읍 매산리 226-12번지","indutype":"수리서비스 - 세탁소","category":"other"}]},{"lat":"37.36297894","long":"127.2462329","imageIndex":17,"items":[{"name":"도움컨설팅","tel":"02-881-5663","addr":"경기도 광주시 오포읍 매산리 585-14번지 펠리스빌 111동 201호","indutype":"용역 서비스 - 종합용역","category":"other"}]},{"lat":"37.35025943","long":"127.2618911","imageIndex":17,"items":[{"name":"동양폴딩주식회사","tel":"031-769-2760","addr":"경기도 광주시 오포읍 매산리 109-1","indutype":"건축자재 - 보일러·펌프·샷시","category":"other"}]},{"lat":"37.35761832","long":"127.246035","imageIndex":17,"items":[{"name":"동우가구장식","tel":"031-763-1471","addr":"경기도 광주시 오포읍 매산리 744-5번지","indutype":"가구 - 일반가구","category":"other"},{"name":"바바","tel":"031-797-5689","addr":"경기도 광주시 오포읍 매산리 744-5번지","indutype":"신변잡화 - 기타잡화","category":"other"}]},{"lat":"37.35534382","long":"127.2479465","imageIndex":17,"items":[{"name":"동원O.A","tel":"031-765-3818","addr":"경기도 광주시 오포읍 매산리 222","indutype":"가구 - 기타가구","category":"other"}]},{"lat":"37.3556214","long":"127.2487826","imageIndex":17,"items":[{"name":"라라시스템","tel":"","addr":"경기도 광주시 오포읍 매산리 221-13번지 매산파라곤 203동 101호","indutype":"용역 서비스 - 기타용역서비스","category":"other"}]},{"lat":"37.35092706","long":"127.2573337","imageIndex":17,"items":[{"name":"라임F.N.D","tel":"031-767-9666","addr":"경기도 광주시 오포읍 매산리 192-8번지","indutype":"가구 - 일반가구","category":"other"}]},{"lat":"37.36079056","long":"127.2457066","imageIndex":17,"items":[{"name":"매산 콘테이너 물류 보관센터","tel":"031-765-5400","addr":"경기도 광주시 오포읍 매산리 498번지 외1필지","indutype":"용역 서비스 - 보관및 창고업","category":"other"},{"name":"진영목공기계","tel":"031-767-0779","addr":"경기도 광주시 오포읍 매산리 498번지","indutype":"기타 - 기계공구","category":"other"}]},{"lat":"37.35692231","long":"127.2471164","imageIndex":17,"items":[{"name":"매산정밀","tel":"031-767-5240","addr":"경기도 광주시 오포읍 매산리 225-3","indutype":"기타 - 기계공구","category":"other"}]},{"lat":"37.36303817","long":"127.2437046","imageIndex":17,"items":[{"name":"매양건재철물건설","tel":"031-765-4374","addr":"경기도 광주시 오포읍 매산리 605번지 외2필지","indutype":"건축자재 - 목재·석재·철물","category":"other"}]},{"lat":"37.35217514","long":"127.2551483","imageIndex":17,"items":[{"name":"명성종합환경","tel":"031-766-9066","addr":"경기도 광주시 오포읍 매산리 203번지","indutype":"건축자재 - 기타건축자재","category":"other"}]},{"lat":"37.35195593","long":"127.2607005","imageIndex":17,"items":[{"name":"명진ENG","tel":"031-764-0067","addr":"경기도 광주시 오포읍 매산리 92-9번지","indutype":"기타 - 기계공구","category":"other"}]},{"lat":"37.35703633","long":"127.248618","imageIndex":17,"items":[{"name":"모더니크","tel":"031-293-2285","addr":"경기도 광주시 오포읍 매산리 235-1번지","indutype":"가구 - 일반가구","category":"other"}]},{"lat":"37.36650458","long":"127.2449235","imageIndex":17,"items":[{"name":"모던종합센터","tel":"031-705-2088","addr":"경기도 광주시 오포읍 매산리 620-6","indutype":"건축자재 - 기타건축자재","category":"other"}]},{"lat":"37.36367609","long":"127.2445871","imageIndex":17,"items":[{"name":"미래종합공구","tel":"031-768-0982","addr":"경기도 광주시 오포읍 매산리 609-1번지","indutype":"기타 - 기계공구","category":"other"},{"name":"신흥전기공사","tel":"031-766-6801","addr":"경기도 광주시 오포읍 매산리 609-1","indutype":"용역 서비스 - 기타용역서비스","category":"other"},{"name":"에덴토탈인테리어","tel":"031-766-2345","addr":"경기도 광주시 오포읍 매산리 609-1","indutype":"직물 - 카페트,커튼,천막,지물","category":"other"},{"name":"잉글랜드가구","tel":"031-768-2985","addr":"경기도 광주시 오포읍 매산리 609-1","indutype":"가구 - 일반가구","category":"other"}]},{"lat":"37.3510693","long":"127.2582258","imageIndex":17,"items":[{"name":"베베앙","tel":"031-1566-4532","addr":"경기도 광주시 오포읍 매산리 192-23번지","indutype":"의류 - 아동의류","category":"other"}]},{"lat":"37.36231635","long":"127.2441989","imageIndex":17,"items":[{"name":"베스트올광주매산점","tel":"031-766-0079","addr":"경기도 광주시 오포읍 매산리 600-6번지 1층","indutype":"유통업 영리 - 편 의 점","category":"other"},{"name":"세무사정의호사무소","tel":"031-763-9785","addr":"경기도 광주시 오포읍 매산리 600-6(2층)","indutype":"용역 서비스 - 법률회계서비스(개인)","category":"other"}]},{"lat":"37.35378813","long":"127.2550634","imageIndex":17,"items":[{"name":"보머스 디자인","tel":"","addr":"경기도 광주시 오포읍 매산리 299번지 1층","indutype":"건축자재 - 인테리어전문","category":"other"}]},{"lat":"37.35165172","long":"127.2638372","imageIndex":17,"items":[{"name":"블루스톤","tel":"031-000-0000","addr":"경기도 광주시 오포읍 매산리 114-8번지","indutype":"건축자재 - 목재·석재·철물","category":"other"}]},{"lat":"37.36489388","long":"127.2438911","imageIndex":17,"items":[{"name":"사인엘","tel":"031-797-8410","addr":"경기도 광주시 오포읍 매산리 635-8번지","indutype":"용역 서비스 - 사무서비스","category":"other"}]},{"lat":"37.36128423","long":"127.2466225","imageIndex":17,"items":[{"name":"삼일저항기","tel":"031-768-3873","addr":"경기도 광주시 오포읍 매산리 593-13번지 1층","indutype":"기타 - 기계공구","category":"other"}]},{"lat":"37.3539247","long":"127.2543979","imageIndex":17,"items":[{"name":"서울판지","tel":"031-766-2002","addr":"경기도 광주시 오포읍 매산리 292번지","indutype":"유통업 영리 - 기타유통업","category":"other"}]},{"lat":"37.3531461","long":"127.2561448","imageIndex":17,"items":[{"name":"세븐일레븐경기광주매산점","tel":"031-1577-0711","addr":"경기도 광주시 오포읍 매산리 72-3번지","indutype":"유통업 영리 - 편 의 점","category":"other"}]},{"lat":"37.35714743","long":"127.2515079","imageIndex":17,"items":[{"name":"솔로몬 포장기","tel":"031-768-1669","addr":"경기도 광주시 오포읍 매산리 238번지","indutype":"기타 - 기계공구","category":"other"}]},{"lat":"37.35651036","long":"127.245896","imageIndex":17,"items":[{"name":"송월타월 해동상사","tel":"031-764-7575","addr":"경기도 광주시 오포읍 매산리 746-8번지 1층 1호","indutype":"직물 - 옷감·직물","category":"other"}]},{"lat":"37.35425617","long":"127.2510356","imageIndex":17,"items":[{"name":"슬립메이트 (Sleemate)","tel":"031-768-9182","addr":"경기도 광주시 오포읍 매산리 213번지 나동","indutype":"가구 - 일반가구","category":"other"},{"name":"주식회사 투성","tel":"031-798-7880","addr":"경기도 광주시 오포읍 매산리 213번지","indutype":"가구 - 일반가구","category":"other"}]},{"lat":"37.36408575","long":"127.2469251","imageIndex":17,"items":[{"name":"씨앤씨컴퍼니","tel":"","addr":"경기도 광주시 오포읍 매산리 586-11번지 광주오포대성아파트","indutype":"서적문구 - 과학기자재","category":"other"}]},{"lat":"37.36139668","long":"127.2445121","imageIndex":17,"items":[{"name":"씨유광주매산점","tel":"031-760-3641","addr":"경기도 광주시 오포읍 매산리 600-24번지","indutype":"유통업 영리 - 편 의 점","category":"other"},{"name":"울리불리교육","tel":"031-762-4231","addr":"경기도 광주시 오포읍 매산리 600-24번지","indutype":"서적문구 - 기타서적문구","category":"other"}]},{"lat":"37.3653426","long":"127.2447618","imageIndex":17,"items":[{"name":"아상프라자","tel":"","addr":"경기도 광주시 오포읍 매산리 616-11번지","indutype":"의류 - 정장","category":"other"},{"name":"헌우윌링","tel":"031-769-7903","addr":"경기도 광주시 오포읍 매산리 616-11번지 1층","indutype":"사무통신 - 통신기기","category":"other"}]},{"lat":"37.35728838","long":"127.2487316","imageIndex":17,"items":[{"name":"아성테크","tel":"070-5055-2757","addr":"경기도 광주시 오포읍 매산리 231-5번지","indutype":"유통업 영리 - 기타유통업","category":"other"}]},{"lat":"37.356755","long":"127.2495877","imageIndex":17,"items":[{"name":"아트지인 (Artzin)","tel":"","addr":"경기도 광주시 오포읍 매산리 236-16번지 랜드타운 403호","indutype":"용역 서비스 - 사무서비스","category":"other"}]},{"lat":"37.36425425","long":"127.2438439","imageIndex":17,"items":[{"name":"애뜰","tel":"031-765-0480","addr":"경기도 광주시 오포읍 매산리 639-7번지","indutype":"문화.취미 - 화원","category":"other"}]},{"lat":"37.3640881","long":"127.245785","imageIndex":17,"items":[{"name":"에스워크","tel":"031-798-8691","addr":"경기도 광주시 오포읍 매산리 610-4","indutype":"서적문구 - 출판 및 인쇄물","category":"other"}]},{"lat":"37.35614772","long":"127.2469784","imageIndex":17,"items":[{"name":"에스케이인포","tel":"","addr":"경기도 광주시 오포읍 매산리 224-25번지 신호펠리스 102동 402호","indutype":"용역 서비스 - 정보서비스","category":"other"}]},{"lat":"37.35789775","long":"127.2459795","imageIndex":17,"items":[{"name":"엘지오토컴","tel":"031-761-6880","addr":"경기도 광주시 오포읍 매산리 743-6번지 1층","indutype":"수리서비스 - 가정용품수리","category":"other"}]},{"lat":"37.35398399","long":"127.2519263","imageIndex":17,"items":[{"name":"영 아크릴","tel":"031-767-5483","addr":"경기도 광주시 오포읍 매산리 214-7번지","indutype":"건축자재 - 기타건축자재","category":"other"}]},{"lat":"37.35501208","long":"127.2557334","imageIndex":17,"items":[{"name":"오성종합기계","tel":"031-763-3290","addr":"경기도 광주시 오포읍 매산리 285번지","indutype":"기타 - 기계공구","category":"other"}]},{"lat":"37.35701029","long":"127.2481438","imageIndex":17,"items":[{"name":"우드엔라이프(Wood&Life)","tel":"031-315-6969","addr":"경기도 광주시 오포읍 매산리 233번지 나동","indutype":"가구 - 일반가구","category":"other"}]},{"lat":"37.36456043","long":"127.2439239","imageIndex":17,"items":[{"name":"우일전기","tel":"031-797-7946","addr":"경기도 광주시 오포읍 매산리 636-8번지","indutype":"전기제품 - 기타전기제품","category":"other"}]},{"lat":"37.3603432","long":"127.2441701","imageIndex":17,"items":[{"name":"유창종합상사","tel":"","addr":"경기도 광주시 오포읍 매산리 597-8번지 1층","indutype":"의류 - 기타의류","category":"other"}]},{"lat":"37.36011941","long":"127.2478379","imageIndex":17,"items":[{"name":"이류폴딩도어","tel":"031-765-7995","addr":"경기도 광주시 오포읍 매산리 499번지","indutype":"건축자재 - 기타건축자재","category":"other"}]},{"lat":"37.35526216","long":"127.2567614","imageIndex":17,"items":[{"name":"조은비니루","tel":"031-766-6737","addr":"경기도 광주시 오포읍 매산리 317-6번지","indutype":"유통업 영리 - 기타유통업","category":"other"}]},{"lat":"37.34856988","long":"127.2640071","imageIndex":17,"items":[{"name":"주식회사 대성아그로","tel":"031-768-3250","addr":"경기도 광주시 오포읍 매산리 137-2번지","indutype":"농업 - 비료,사료,종자","category":"other"}]},{"lat":"37.35531763","long":"127.2475401","imageIndex":17,"items":[{"name":"주식회사 디바디자인","tel":"031-767-1235","addr":"경기도 광주시 오포읍 매산리 222-1번지","indutype":"가구 - 일반가구","category":"other"}]},{"lat":"37.35331611","long":"127.2566984","imageIndex":17,"items":[{"name":"주식회사 무진","tel":"031-762-6755","addr":"경기도 광주시 오포읍 매산리 70-5번지","indutype":"건축자재 - 기타건축자재","category":"other"}]},{"lat":"37.35662109","long":"127.2446209","imageIndex":17,"items":[{"name":"주식회사거목인터내셔날","tel":"031-798-8911","addr":"경기도 광주시 오포읍 매산리 746-22번지","indutype":"레져용품 - 스포츠·레져용품","category":"other"}]},{"lat":"37.36223258","long":"127.2455081","imageIndex":17,"items":[{"name":"주식회사아리아종합건설","tel":"031-797-7259","addr":"경기도 광주시 오포읍 매산리 587-6번지 2층","indutype":"용역 서비스 - 기타용역서비스","category":"other"}]},{"lat":"37.3602269","long":"127.248143","imageIndex":17,"items":[{"name":"주식회사탑유통","tel":"031-769-4689","addr":"경기도 광주시 오포읍 매산리 500-2번지 (A동1층)","indutype":"문화.취미 - 애완동물","category":"other"}]},{"lat":"37.36628857","long":"127.24481","imageIndex":17,"items":[{"name":"주안전기","tel":"070-4115-9578","addr":"경기도 광주시 오포읍 매산리 619-8번지","indutype":"전기제품 - 기타전기제품","category":"other"}]},{"lat":"37.3534504","long":"127.2528727","imageIndex":17,"items":[{"name":"준레이져","tel":"031-798-7545","addr":"경기도 광주시 오포읍 매산리 210-1번지","indutype":"용역 서비스 - 기타용역서비스","category":"other"}]},{"lat":"37.35914315","long":"127.2450015","imageIndex":17,"items":[{"name":"지니컴퍼니","tel":"","addr":"경기도 광주시 오포읍 매산리 714-10번지 C동 2층 2호","indutype":"용역 서비스 - 정보서비스","category":"other"}]},{"lat":"37.35676115","long":"127.2422059","imageIndex":17,"items":[{"name":"지엠에스티(주)","tel":"","addr":"경기도 광주시 오포읍 매산리 729-1번지","indutype":"주방용구 - 주방용구","category":"other"}]},{"lat":"37.35697747","long":"127.246586","imageIndex":17,"items":[{"name":"캐치벅","tel":"031-1661-3871","addr":"경기도 광주시 오포읍 매산리 226-17번지","indutype":"용역 서비스 - 종합용역","category":"other"}]},{"lat":"37.36464254","long":"127.2434275","imageIndex":17,"items":[{"name":"태양아크릴","tel":"031-765-0241","addr":"경기도 광주시 오포읍 매산리 635-3번지 가동","indutype":"건축자재 - 기타건축자재","category":"other"}]},{"lat":"37.36261578","long":"127.2431727","imageIndex":17,"items":[{"name":"티에스인터내셔널","tel":"031-000-0000","addr":"경기도 광주시 오포읍 매산리 603-3번지 1층","indutype":"건축자재 - 기타건축자재","category":"other"}]},{"lat":"37.3636709","long":"127.2471157","imageIndex":17,"items":[{"name":"팡팡교육","tel":"031-762-4231","addr":"경기도 광주시 오포읍 매산리 586-11번지 광주오포대성아파트","indutype":"회원제형태 - 서적","category":"other"}]},{"lat":"37.36539588","long":"127.2451458","imageIndex":17,"items":[{"name":"퍼플박스","tel":"","addr":"경기도 광주시 오포읍 매산리 614-26번지 대명하우스 2동 402호","indutype":"의류 - 정장","category":"other"}]},{"lat":"37.36167412","long":"127.2497844","imageIndex":17,"items":[{"name":"하은세상","tel":"","addr":"경기도 광주시 오포읍 매산리 568-1번지","indutype":"용역 서비스 - 사무서비스","category":"other"}]},{"lat":"37.35631611","long":"127.243954","imageIndex":17,"items":[{"name":"해원상사","tel":"031-768-3858","addr":"경기도 광주시 오포읍 매산리 736-3번지 해원상사","indutype":"유통업 영리 - 기타유통업","category":"other"}]},{"lat":"37.3522895","long":"127.2606114","imageIndex":17,"items":[{"name":"현대가구산업","tel":"031-765-7721","addr":"경기도 광주시 오포읍 매산리 92-2번지","indutype":"가구 - 일반가구","category":"other"}]},{"lat":"37.35650537","long":"127.2483115","imageIndex":17,"items":[{"name":"형제합판건재상사","tel":"031-426-9157","addr":"경기도 광주시 오포읍 매산리 234-9","indutype":"건축자재 - 목재·석재·철물","category":"other"}]},{"lat":"37.36214346","long":"127.2450337","imageIndex":17,"items":[{"name":"혜성천막기업","tel":"031-765-3171","addr":"경기도 광주시 오포읍 매산리 590-5번지","indutype":"직물 - 카페트,커튼,천막,지물","category":"other"}]},{"lat":"37.35190017","long":"127.2614791","imageIndex":9,"items":[{"name":"(주)용광종합가스","tel":"031-766-5911","addr":"경기도 광주시 오포읍 매산리 92-7번지","indutype":"연료판매점 - 기타연료","category":"oil"}]},{"lat":"37.35137307","long":"127.2552246","imageIndex":7,"items":[{"name":"(주)케이엔씨푸드","tel":"031-8083-0293","addr":"경기도 광주시 오포읍 매산리 204-6번지","indutype":"음료식품 - 정육점","category":"food"}]},{"lat":"37.35803301","long":"127.2459235","imageIndex":7,"items":[{"name":"경기유통","tel":"031-376-4236","addr":"경기도 광주시 오포읍 매산리 743-15","indutype":"음료식품 - 기타음료식품","category":"food"}]},{"lat":"37.35684094","long":"127.2472516","imageIndex":7,"items":[{"name":"경미네야채가게","tel":"031-766-4772","addr":"경기도 광주시 오포읍 매산리 225-5번지 1층 102호","indutype":"음료식품 - 농·축·수산품","category":"food"}]},{"lat":"37.35662109","long":"127.2446209","imageIndex":7,"items":[{"name":"곰살어묵","tel":"031-763-5082","addr":"경기도 광주시 오포읍 매산리 746-22번지 1층","indutype":"음료식품 - 기타음료식품","category":"food"}]},{"lat":"37.37020156","long":"127.2435356","imageIndex":7,"items":[{"name":"과일촌","tel":"031-764-1567","addr":"경기도 광주시 오포읍 매산리 626-120번지 외 1필지","indutype":"음료식품 - 농·축·수산품","category":"food"}]},{"lat":"37.35273401","long":"127.2592247","imageIndex":7,"items":[{"name":"대광식품","tel":"031-765-7007","addr":"경기도 광주시 오포읍 매산리 75","indutype":"음료식품 - 기타음료식품","category":"food"}]},{"lat":"37.34801414","long":"127.262696","imageIndex":7,"items":[{"name":"대한에프엔비","tel":"031-769-5663","addr":"경기도 광주시 오포읍 매산리 185-2번지","indutype":"음료식품 - 기타음료식품","category":"food"},{"name":"롯데유통","tel":"031-111-1111","addr":"경기도 광주시 오포읍 매산리 185-2번지","indutype":"음료식품 - 기타음료식품","category":"food"},{"name":"버디음료 주식회사","tel":"031-767-7957","addr":"경기도 광주시 오포읍 매산리 185-2번지","indutype":"음료식품 - 기타음료식품","category":"food"}]},{"lat":"37.35651036","long":"127.245896","imageIndex":7,"items":[{"name":"럭키로또카페","tel":"031-111-1111","addr":"경기도 광주시 오포읍 매산리 746-8번지 102호","indutype":"음료식품 - 기타음료식품","category":"food"}]},{"lat":"37.3604258","long":"127.2478163","imageIndex":7,"items":[{"name":"봉평원","tel":"031-767-6250","addr":"경기도 광주시 오포읍 매산리 499-1","indutype":"음료식품 - 미곡상","category":"food"}]},{"lat":"37.35758969","long":"127.2468138","imageIndex":7,"items":[{"name":"새미푸드 (주)","tel":"031-764-2147","addr":"경기도 광주시 오포읍 매산리 226-20번지","indutype":"음료식품 - 정육점","category":"food"}]},{"lat":"37.35761832","long":"127.246035","imageIndex":7,"items":[{"name":"약초산건강원","tel":"031-767-6641","addr":"경기도 광주시 오포읍 매산리 744-5번지","indutype":"건강식품 - 기타건강식품","category":"food"}]},{"lat":"37.35656339","long":"127.2419795","imageIndex":7,"items":[{"name":"에스와이(SY)푸드","tel":"070-8650-7200","addr":"경기도 광주시 오포읍 매산리 730","indutype":"음료식품 - 기타음료식품","category":"food"}]},{"lat":"37.36206357","long":"127.2444465","imageIndex":7,"items":[{"name":"오포축산도매유통","tel":"031-768-8971","addr":"경기도 광주시 오포읍 매산리 600-18번지","indutype":"음료식품 - 정육점","category":"food"}]},{"lat":"37.35151697","long":"127.2553493","imageIndex":7,"items":[{"name":"주식회사 원식품","tel":"031-766-8993","addr":"경기도 광주시 오포읍 매산리 204-6번지 1동","indutype":"음료식품 - 기타음료식품","category":"food"}]},{"lat":"37.35728665","long":"127.2407628","imageIndex":7,"items":[{"name":"코리아농수산","tel":"","addr":"경기도 광주시 오포읍 매산리 696-1번지","indutype":"음료식품 - 농·축·수산품","category":"food"}]},{"lat":"37.35715014","long":"127.2458642","imageIndex":7,"items":[{"name":"파리바게뜨 광주오포매산점","tel":"070-8864-0316","addr":"경기도 광주시 오포읍 매산리 745-8번지 1층","indutype":"음료식품 - 제과점","category":"food"}]},{"lat":"37.35278415","long":"127.2568659","imageIndex":7,"items":[{"name":"황금주걱플러스","tel":"031-765-6363","addr":"경기도 광주시 오포읍 매산리 72-25번지","indutype":"음료식품 - 기타음료식품","category":"food"}]},{"lat":"37.3531446","long":"127.252612","imageIndex":0,"items":[{"name":"COSER RND","tel":"031-765-2462","addr":"경기도 광주시 오포읍 매산리 211번지","indutype":"자동차정비 유지 - 자동차부품","category":"car"}]},{"lat":"37.35170282","long":"127.2610834","imageIndex":0,"items":[{"name":"Monx(몽스)","tel":"070-4042-8503","addr":"경기도 광주시 오포읍 매산리 92-11번지","indutype":"자동차정비 유지 - 자동차부품","category":"car"}]},{"lat":"37.35181213","long":"127.256366","imageIndex":0,"items":[{"name":"디맥스","tel":"031-766-2462","addr":"경기도 광주시 오포읍 매산리 198-1번지","indutype":"자동차정비 유지 - 자동차시트·타이어","category":"car"}]},{"lat":"37.35684094","long":"127.2472516","imageIndex":0,"items":[{"name":"디에이치디","tel":"031-726-3818","addr":"경기도 광주시 오포읍 매산리 225-5번지 1층 102호","indutype":"자동차정비 유지 - 자동차정비","category":"car"}]},{"lat":"37.35578807","long":"127.2466161","imageIndex":0,"items":[{"name":"명품밧데리","tel":"031-1588-2898","addr":"경기도 광주시 오포읍 매산리 223-8번지 태룡빌딩","indutype":"자동차정비 유지 - 자동차부품","category":"car"}]},{"lat":"37.36406364","long":"127.2445319","imageIndex":0,"items":[{"name":"모현현대자동자공업사","tel":"031-798-9411","addr":"경기도 광주시 오포읍 매산리 611-1번지","indutype":"자동차정비 유지 - 자동차정비","category":"car"}]},{"lat":"37.36537017","long":"127.2445022","imageIndex":0,"items":[{"name":"범이네자동차마을","tel":"031-765-4137","addr":"경기도 광주시 오포읍 매산리 616-3번지","indutype":"자동차정비 유지 - 자동차정비","category":"car"}]},{"lat":"37.36628857","long":"127.24481","imageIndex":0,"items":[{"name":"베스트카공업사","tel":"031-763-3019","addr":"경기도 광주시 오포읍 매산리 619-8번지","indutype":"자동차정비 유지 - 자동차정비","category":"car"},{"name":"보쉬","tel":"031-8864-9936","addr":"경기도 광주시 오포읍 매산리 619-8번지 외4","indutype":"자동차정비 유지 - 세차장","category":"car"}]},{"lat":"37.36267664","long":"127.2442565","imageIndex":0,"items":[{"name":"성원카","tel":"031-762-1192","addr":"경기도 광주시 오포읍 매산리 591-17번지","indutype":"자동차정비 유지 - 자동차정비","category":"car"}]},{"lat":"37.37008847","long":"127.241537","imageIndex":0,"items":[{"name":"신우특장기업","tel":"031-404-0097","addr":"경기도 광주시 오포읍 매산리 626-111번지 113호","indutype":"자동차판매 - 기타운송","category":"car"}]},{"lat":"37.36109057","long":"127.2443982","imageIndex":0,"items":[{"name":"신일전기통신","tel":"070-8248-9451","addr":"경기도 광주시 오포읍 매산리 598-2번지","indutype":"자동차정비 유지 - 자동차부품","category":"car"}]},{"lat":"37.35717398","long":"127.2517337","imageIndex":0,"items":[{"name":"엠플러스","tel":"031-798-0347","addr":"경기도 광주시 오포읍 매산리 239-8번지","indutype":"자동차정비 유지 - 자동차부품","category":"car"}]},{"lat":"37.36175396","long":"127.2460371","imageIndex":0,"items":[{"name":"천우테크","tel":"","addr":"경기도 광주시 오포읍 매산리 589-4번지 현대맨션 3층 302호","indutype":"자동차정비 유지 - 중장비수리","category":"car"}]},{"lat":"37.35786391","long":"127.2449071","imageIndex":0,"items":[{"name":"출장세차","tel":"","addr":"경기도 광주시 오포읍 매산리 741-4번지 부강타운 4동 401호","indutype":"자동차정비 유지 - 세차장","category":"car"}]},{"lat":"37.35851129","long":"127.2455638","imageIndex":0,"items":[{"name":"카앤가이","tel":"031-8028-8333","addr":"경기도 광주시 오포읍 매산리 720-6번지","indutype":"자동차정비 유지 - 자동차정비","category":"car"}]},{"lat":"37.36817139","long":"127.2449515","imageIndex":0,"items":[{"name":"타이어프로 오포점","tel":"031-768-0103","addr":"경기도 광주시 오포읍 매산리 624-3번지","indutype":"자동차정비 유지 - 자동차시트·타이어","category":"car"}]},{"lat":"37.35589498","long":"127.2472033","imageIndex":0,"items":[{"name":"형제밧데리","tel":"031-766-4255","addr":"경기도 광주시 오포읍 매산리 223-13번지","indutype":"자동차정비 유지 - 자동차정비","category":"car"}]},{"lat":"37.35651036","long":"127.245896","imageIndex":13,"items":[{"name":"OK당구장","tel":"070-4219-0043","addr":"경기도 광주시 오포읍 매산리 746-8번지","indutype":"레저업소 - 당 구 장","category":"leisure"}]},{"lat":"37.36247625","long":"127.245317","imageIndex":13,"items":[{"name":"가브리엘C.C","tel":"031-763-1454","addr":"경기도 광주시 오포읍 매산리 587-1번지","indutype":"레저업소 - 당 구 장","category":"leisure"}]},{"lat":"37.35712139","long":"127.2466994","imageIndex":13,"items":[{"name":"고고짱 노래연습장","tel":"031-765-0954","addr":"경기도 광주시 오포읍 매산리 226-22번지 지하","indutype":"레저업소 - 노 래 방","category":"leisure"}]},{"lat":"37.36726154","long":"127.2448695","imageIndex":13,"items":[{"name":"다음노래연습장","tel":"031-763-9239","addr":"경기도 광주시 오포읍 매산리 620-1번지","indutype":"레저업소 - 노 래 방","category":"leisure"}]},{"lat":"37.35806752","long":"127.2466686","imageIndex":13,"items":[{"name":"비타민노래연습장","tel":"031-768-5464","addr":"경기도 광주시 오포읍 매산리 226-3번지","indutype":"레저업소 - 노 래 방","category":"leisure"}]},{"lat":"37.36489388","long":"127.2438911","imageIndex":13,"items":[{"name":"아싸노래연습장","tel":"031-762-4780","addr":"경기도 광주시 오포읍 매산리 635-8번지 지층","indutype":"레저업소 - 노 래 방","category":"leisure"}]},{"lat":"37.35622956","long":"127.2466175","imageIndex":13,"items":[{"name":"에이스스크린골프","tel":"031-764-0793","addr":"경기도 광주시 오포읍 매산리 224-4번지 2층","indutype":"레저업소 - 스크린골프","category":"leisure"},{"name":"피노키오 노래연습장","tel":"031-000-0000","addr":"경기도 광주시 오포읍 매산리 224-4번지 2층","indutype":"레저업소 - 노 래 방","category":"leisure"}]},{"lat":"37.35715014","long":"127.2458642","imageIndex":13,"items":[{"name":"올래올래 노래연습장","tel":"031-765-5173","addr":"경기도 광주시 오포읍 매산리 745-8번지","indutype":"레저업소 - 노 래 방","category":"leisure"}]},{"lat":"37.35733787","long":"127.2465872","imageIndex":13,"items":[{"name":"초콜릿노래연습장","tel":"031-765-5462","addr":"경기도 광주시 오포읍 매산리 226-7번지","indutype":"레저업소 - 노 래 방","category":"leisure"}]},{"lat":"37.36264973","long":"127.2442","imageIndex":13,"items":[{"name":"펭귄노래연습장","tel":"031-767-5665","addr":"경기도 광주시 오포읍 매산리 591-8","indutype":"레저업소 - 노 래 방","category":"leisure"}]},{"lat":"37.35673338","long":"127.2469803","imageIndex":4,"items":[{"name":"꼴통포차","tel":"031-761-7185","addr":"경기도 광주시 오포읍 매산리 224-9번지 1층","indutype":"일반휴게음식 - 주점","category":"restaurant"},{"name":"밥마루","tel":"031-763-9288","addr":"경기도 광주시 오포읍 매산리 224-9번지 1층 105호 106호 107호","indutype":"일반휴게음식 - 일반한식","category":"restaurant"}]},{"lat":"37.361622","long":"127.2444789","imageIndex":4,"items":[{"name":"남원명품추어탕","tel":"031-767-5486","addr":"경기도 광주시 오포읍 매산리 600-22번지 1층","indutype":"일반휴게음식 - 일반한식","category":"restaurant"}]},{"lat":"37.36439717","long":"127.244454","imageIndex":4,"items":[{"name":"뇌조리갈쌈국수","tel":"031-761-8624","addr":"경기도 광주시 오포읍 매산리 611-9번지","indutype":"일반휴게음식 - 일반한식","category":"restaurant"}]},{"lat":"37.35670026","long":"127.245558","imageIndex":4,"items":[{"name":"다모아","tel":"031-765-9289","addr":"경기도 광주시 오포읍 매산리 746-10번지","indutype":"일반휴게음식 - 일반한식","category":"restaurant"},{"name":"용문각","tel":"031-766-2305","addr":"경기도 광주시 오포읍 매산리 746-10번지 1층","indutype":"일반휴게음식 - 중국식","category":"restaurant"}]},{"lat":"37.35076157","long":"127.2588681","imageIndex":4,"items":[{"name":"다문식당","tel":"031-767-3887","addr":"경기도 광주시 오포읍 매산리 192-7번지","indutype":"일반휴게음식 - 일반한식","category":"restaurant"}]},{"lat":"37.35289756","long":"127.2585932","imageIndex":4,"items":[{"name":"다산홈푸드 광주점","tel":"031-764-4675","addr":"경기도 광주시 오포읍 매산리 65번지","indutype":"일반휴게음식 - 일반한식","category":"restaurant"}]},{"lat":"37.35823408","long":"127.2445358","imageIndex":4,"items":[{"name":"돈가돈삼겹살전문점","tel":"031-768-7892","addr":"경기도 광주시 오포읍 매산리 712번지 1층","indutype":"일반휴게음식 - 일반한식","category":"restaurant"},{"name":"춘천생닭갈비","tel":"031-768-7892","addr":"경기도 광주시 오포읍 매산리 712번지","indutype":"일반휴게음식 - 일반한식","category":"restaurant"}]},{"lat":"37.36214346","long":"127.2450337","imageIndex":4,"items":[{"name":"동호기사식당","tel":"031-766-0299","addr":"경기도 광주시 오포읍 매산리 590-5번지","indutype":"일반휴게음식 - 일반한식","category":"restaurant"}]},{"lat":"37.35673389","long":"127.246732","imageIndex":4,"items":[{"name":"떴다감자탕","tel":"031-765-0667","addr":"경기도 광주시 오포읍 매산리 224-16번지","indutype":"일반휴게음식 - 일반한식","category":"restaurant"},{"name":"백화옥꼬치","tel":"031-766-9919","addr":"경기도 광주시 오포읍 매산리 224-16번지 1층","indutype":"일반휴게음식 - 중국식","category":"restaurant"},{"name":"백화옥냉면","tel":"031-766-9919","addr":"경기도 광주시 오포읍 매산리 224-16번지","indutype":"일반휴게음식 - 일반한식","category":"restaurant"},{"name":"여우커피앤호프","tel":"031-768-2772","addr":"경기도 광주시 오포읍 매산리 224-16번지","indutype":"일반휴게음식 - 서양음식","category":"restaurant"},{"name":"좋은친구들","tel":"031-766-7638","addr":"경기도 광주시 오포읍 매산리 224-16번지","indutype":"일반휴게음식 - 일반한식","category":"restaurant"}]},{"lat":"37.36539588","long":"127.2451458","imageIndex":4,"items":[{"name":"또레오레(양벌점)","tel":"031-766-3117","addr":"경기도 광주시 오포읍 매산리 614-26번지","indutype":"일반휴게음식 - 스넥","category":"restaurant"}]},{"lat":"37.36192834","long":"127.2444799","imageIndex":4,"items":[{"name":"또봉이통닭","tel":"031-761-7712","addr":"경기도 광주시 오포읍 매산리 600-19번지","indutype":"일반휴게음식 - 스넥","category":"restaurant"}]},{"lat":"37.36753089","long":"127.2408967","imageIndex":4,"items":[{"name":"뚝방집","tel":"031-765-7883","addr":"경기도 광주시 오포읍 매산리 629-15번지","indutype":"일반휴게음식 - 일반한식","category":"restaurant"}]},{"lat":"37.35651036","long":"127.245896","imageIndex":4,"items":[{"name":"러브레터","tel":"031-768-6852","addr":"경기도 광주시 오포읍 매산리 746-8번지","indutype":"일반휴게음식 - 일반한식","category":"restaurant"}]},{"lat":"37.36503689","long":"127.244456","imageIndex":4,"items":[{"name":"마이스터 심슨부대찌개 매산점","tel":"031-766-8880","addr":"경기도 광주시 오포읍 매산리 615-1번지","indutype":"일반휴게음식 - 일반한식","category":"restaurant"}]},{"lat":"37.35697747","long":"127.246586","imageIndex":4,"items":[{"name":"막끌리네!막걸리랑국수","tel":"031-765-8829","addr":"경기도 광주시 오포읍 매산리 226-17","indutype":"일반휴게음식 - 일반한식","category":"restaurant"}]},{"lat":"37.35728506","long":"127.2459775","imageIndex":4,"items":[{"name":"만복당","tel":"031-766-0087","addr":"경기도 광주시 오포읍 매산리 744-4번지","indutype":"일반휴게음식 - 중국식","category":"restaurant"}]},{"lat":"37.34850895","long":"127.2630363","imageIndex":4,"items":[{"name":"맛뜨락","tel":"031-768-1131","addr":"경기도 광주시 오포읍 매산리 134-3번지","indutype":"일반휴게음식 - 일반한식","category":"restaurant"},{"name":"맛뜨락 한식부페","tel":"031-768-1131","addr":"경기도 광주시 오포읍 매산리 134-3번지","indutype":"일반휴게음식 - 일반한식","category":"restaurant"}]},{"lat":"37.36223258","long":"127.2455081","imageIndex":4,"items":[{"name":"매봉골흑염소","tel":"031-768-0288","addr":"경기도 광주시 오포읍 매산리 587-6번지","indutype":"일반휴게음식 - 일반한식","category":"restaurant"}]},{"lat":"37.35642388","long":"127.2485031","imageIndex":4,"items":[{"name":"매산식당","tel":"031-765-8999","addr":"경기도 광주시 오포읍 매산리 234-6번지 1층","indutype":"일반휴게음식 - 일반한식","category":"restaurant"}]},{"lat":"37.35256146","long":"127.2556688","imageIndex":4,"items":[{"name":"매짜리토박이","tel":"031-761-0530","addr":"경기도 광주시 오포읍 매산리 200-2번지","indutype":"일반휴게음식 - 일반한식","category":"restaurant"}]},{"lat":"37.36456043","long":"127.2439239","imageIndex":4,"items":[{"name":"명품 손 칼국수","tel":"031-765-7892","addr":"경기도 광주시 오포읍 매산리 636-8번지 1층","indutype":"일반휴게음식 - 일반한식","category":"restaurant"}]},{"lat":"37.36247625","long":"127.245317","imageIndex":4,"items":[{"name":"미스터 짱닭치킨 매산점","tel":"031-761-9279","addr":"경기도 광주시 오포읍 매산리 587-1번지","indutype":"일반휴게음식 - 스넥","category":"restaurant"},{"name":"배가만족","tel":"031-762-7733","addr":"경기도 광주시 오포읍 매산리 587-1번지","indutype":"일반휴게음식 - 일반한식","category":"restaurant"}]},{"lat":"37.36726154","long":"127.2448695","imageIndex":4,"items":[{"name":"북경","tel":"031-766-2032","addr":"경기도 광주시 오포읍 매산리 620-1번지","indutype":"일반휴게음식 - 중국식","category":"restaurant"}]},{"lat":"37.3675667","long":"127.2454462","imageIndex":4,"items":[{"name":"산마루사철탕","tel":"031-766-8668","addr":"경기도 광주시 오포읍 매산리 623-7번지","indutype":"일반휴게음식 - 일반한식","category":"restaurant"}]},{"lat":"37.36628857","long":"127.24481","imageIndex":4,"items":[{"name":"삼거리두루치기","tel":"031-768-1999","addr":"경기도 광주시 오포읍 매산리 619-8번지 1층","indutype":"일반휴게음식 - 일반한식","category":"restaurant"}]},{"lat":"37.36770299","long":"127.2448935","imageIndex":4,"items":[{"name":"소도둑 광주 오포점","tel":"031-766-8088","addr":"경기도 광주시 오포읍 매산리 622-6번지 1층","indutype":"일반휴게음식 - 일반한식","category":"restaurant"}]},{"lat":"37.35622956","long":"127.2466175","imageIndex":4,"items":[{"name":"수누리감자탕","tel":"031-765-3336","addr":"경기도 광주시 오포읍 매산리 224-4번지","indutype":"일반휴게음식 - 일반한식","category":"restaurant"},{"name":"자성화맛집 코다리네","tel":"031-768-8867","addr":"경기도 광주시 오포읍 매산리 224-4번지 1층","indutype":"일반휴게음식 - 일반한식","category":"restaurant"}]},{"lat":"37.36134075","long":"127.2454262","imageIndex":4,"items":[{"name":"순이네부대찌개","tel":"031-766-1552","addr":"경기도 광주시 오포읍 매산리 595번지","indutype":"일반휴게음식 - 일반한식","category":"restaurant"}]},{"lat":"37.36489388","long":"127.2438911","imageIndex":4,"items":[{"name":"아미포차","tel":"031-797-2740","addr":"경기도 광주시 오포읍 매산리 635-8번지 1층","indutype":"일반휴게음식 - 일반한식","category":"restaurant"}]},{"lat":"37.35656903","long":"127.2480295","imageIndex":4,"items":[{"name":"아침닭옛날통닭","tel":"031-765-1177","addr":"경기도 광주시 오포읍 매산리 234-1번지 1층","indutype":"일반휴게음식 - 스넥","category":"restaurant"}]},{"lat":"37.36342362","long":"127.2446766","imageIndex":4,"items":[{"name":"알천샤브샤브칼국수","tel":"031-761-1553","addr":"경기도 광주시 오포읍 매산리 608-8번지","indutype":"일반휴게음식 - 일반한식","category":"restaurant"}]},{"lat":"37.35153663","long":"127.2587804","imageIndex":4,"items":[{"name":"여울목","tel":"031-762-1223","addr":"경기도 광주시 오포읍 매산리 99-2번지","indutype":"일반휴게음식 - 일반한식","category":"restaurant"}]},{"lat":"37.35698412","long":"127.2477261","imageIndex":4,"items":[{"name":"오부자식당","tel":"031-768-4554","addr":"경기도 광주시 오포읍 매산리 226-28번지 1층","indutype":"일반휴게음식 - 일반한식","category":"restaurant"}]},{"lat":"37.35662372","long":"127.2477249","imageIndex":4,"items":[{"name":"우리가보자감자탕&순대국","tel":"031-766-4772","addr":"경기도 광주시 오포읍 매산리 234-8번지 1층","indutype":"일반휴게음식 - 일반한식","category":"restaurant"},{"name":"하늘이네맛있는짬뽕","tel":"031-766-3983","addr":"경기도 광주시 오포읍 매산리 234-8번지","indutype":"일반휴게음식 - 중국식","category":"restaurant"}]},{"lat":"37.36226195","long":"127.2443681","imageIndex":4,"items":[{"name":"잡숴봐추어탕생선국수삼계탕","tel":"031-766-5574","addr":"경기도 광주시 오포읍 매산리 600-39번지 1층","indutype":"일반휴게음식 - 일반한식","category":"restaurant"}]},{"lat":"37.35733787","long":"127.2465872","imageIndex":4,"items":[{"name":"참맛식당","tel":"031-765-6959","addr":"경기도 광주시 오포읍 매산리 226-7번지","indutype":"일반휴게음식 - 일반한식","category":"restaurant"}]},{"lat":"37.35817724","long":"127.2458901","imageIndex":4,"items":[{"name":"청호가든","tel":"031-766-2040","addr":"경기도 광주시 오포읍 매산리 743-5번지","indutype":"일반휴게음식 - 일반한식","category":"restaurant"}]},{"lat":"37.35109002","long":"127.2569731","imageIndex":4,"items":[{"name":"캠핑7","tel":"031-766-2800","addr":"경기도 광주시 오포읍 매산리 192-2번지","indutype":"일반휴게음식 - 일반한식","category":"restaurant"}]},{"lat":"37.36175715","long":"127.2444794","imageIndex":4,"items":[{"name":"파인트리","tel":"031-4791-9842","addr":"경기도 광주시 오포읍 매산리 600-20번지 102호","indutype":"일반휴게음식 - 일반한식","category":"restaurant"}]},{"lat":"37.35712139","long":"127.2466994","imageIndex":4,"items":[{"name":"펀비어킹 매산2리점","tel":"03-100-0000","addr":"경기도 광주시 오포읍 매산리 226-22번지 1층","indutype":"일반휴게음식 - 주점","category":"restaurant"}]},{"lat":"37.35126126","long":"127.2569511","imageIndex":4,"items":[{"name":"푸른마을가든","tel":"031-766-9696","addr":"경기도 광주시 오포읍 매산리 192-5번지","indutype":"일반휴게음식 - 일반한식","category":"restaurant"}]},{"lat":"37.35578807","long":"127.2466161","imageIndex":4,"items":[{"name":"풍년옥","tel":"031-764-1179","addr":"경기도 광주시 오포읍 매산리 223-8번지 태룡빌딩 1층","indutype":"일반휴게음식 - 일반한식","category":"restaurant"}]},{"lat":"37.36059393","long":"127.2449271","imageIndex":4,"items":[{"name":"한계령","tel":"031-768-6640","addr":"경기도 광주시 오포읍 매산리 715-10번지","indutype":"일반휴게음식 - 일반한식","category":"restaurant"}]},{"lat":"37.36262076","long":"127.2451481","imageIndex":4,"items":[{"name":"할매순대국(매산점)","tel":"031-769-1353","addr":"경기도 광주시 오포읍 매산리 587-4번지","indutype":"일반휴게음식 - 일반한식","category":"restaurant"}]},{"lat":"37.3531461","long":"127.2561448","imageIndex":4,"items":[{"name":"행복한식뷔페","tel":"031-765-2654","addr":"경기도 광주시 오포읍 매산리 72-3번지 1층","indutype":"일반휴게음식 - 일반한식","category":"restaurant"}]},{"lat":"37.36572971","long":"127.2449211","imageIndex":4,"items":[{"name":"홍이네양푼이김치찌개","tel":"031-768-5055","addr":"경기도 광주시 오포읍 매산리 614-18번지 1층","indutype":"일반휴게음식 - 일반한식","category":"restaurant"},{"name":"후암동 숯불닭갈비","tel":"031-764-4892","addr":"경기도 광주시 오포읍 매산리 614-18번지 지하1층 102호","indutype":"일반휴게음식 - 일반한식","category":"restaurant"}]},{"lat":"37.35687446","long":"127.2440912","imageIndex":13,"items":[{"name":"다온헤어","tel":"031-797-5278","addr":"경기도 광주시 오포읍 매산리 739-3번지 1층","indutype":"보건위생 - 미용원","category":"beauty"}]},{"lat":"37.35647723","long":"127.2444737","imageIndex":13,"items":[{"name":"동일TAKARK통상","tel":"02-413-5977","addr":"경기도 광주시 오포읍 매산리 737-4번지","indutype":"보건위생 - 미용재료","category":"beauty"}]},{"lat":"37.35761832","long":"127.246035","imageIndex":13,"items":[{"name":"린스네일(Rin's nail)","tel":"031-763-5930","addr":"경기도 광주시 오포읍 매산리 744-5번지 1층","indutype":"보건위생 - 피부미용실","category":"beauty"}]},{"lat":"37.36572971","long":"127.2449211","imageIndex":13,"items":[{"name":"머리사랑","tel":"031-768-9890","addr":"경기도 광주시 오포읍 매산리 614-18번지","indutype":"보건위생 - 미용원","category":"beauty"}]},{"lat":"37.36456043","long":"127.2439239","imageIndex":13,"items":[{"name":"보떼","tel":"031-374-4789","addr":"경기도 광주시 오포읍 매산리 636-8번지 1층","indutype":"보건위생 - 미용원","category":"beauty"}]},{"lat":"37.36231635","long":"127.2441989","imageIndex":13,"items":[{"name":"수헤어","tel":"031-765-5959","addr":"경기도 광주시 오포읍 매산리 600-6번지 1층","indutype":"보건위생 - 미용원","category":"beauty"}]},{"lat":"37.36262076","long":"127.2451481","imageIndex":13,"items":[{"name":"헤어드림","tel":"031-766-9098","addr":"경기도 광주시 오포읍 매산리 587-4번지 104호","indutype":"보건위생 - 미용원","category":"beauty"}]},{"lat":"37.35651001","long":"127.2460653","imageIndex":13,"items":[{"name":"헤어매니아","tel":"031-765-9221","addr":"경기도 광주시 오포읍 매산리 746-3번지","indutype":"보건위생 - 미용원","category":"beauty"}]},{"lat":"37.35686607","long":"127.2437864","imageIndex":7,"items":[{"name":"덕이마트","tel":"031-766-5525","addr":"경기도 광주시 오포읍 매산리 727-11","indutype":"유통업 영리 - 슈퍼마켓","category":"mart"}]},{"lat":"37.35650537","long":"127.2483115","imageIndex":7,"items":[{"name":"월드할인마트","tel":"031-765-1551","addr":"경기도 광주시 오포읍 매산리 234-9번지","indutype":"유통업 영리 - 슈퍼마켓","category":"mart"}]},{"lat":"37.35700619","long":"127.2457622","imageIndex":7,"items":[{"name":"진로마트","tel":"031-766-8044","addr":"경기도 광주시 오포읍 매산리 745-4번지","indutype":"유통업 영리 - 슈퍼마켓","category":"mart"}]},{"lat":"37.35728506","long":"127.2459775","imageIndex":8,"items":[{"name":"매산약국","tel":"031-766-7710","addr":"경기도 광주시 오포읍 매산리 744-4번지","indutype":"약국 - 약국","category":"medical"}]},{"lat":"37.35364739","long":"127.2576702","imageIndex":8,"items":[{"name":"지엠팜주식회사","tel":"","addr":"경기도 광주시 오포읍 매산리 63번지","indutype":"약국 - 제약회사","category":"medical"}]},{"lat":"37.36572971","long":"127.2449211","imageIndex":16,"items":[{"name":"박영식수학교습소","tel":"031-768-4768","addr":"경기도 광주시 오포읍 매산리 614-18번지 2층","indutype":"학원 - 보습학원","category":"study"}]}]