[{"lat":"37.251987415","long":"127.07097388","imageIndex":8,"items":[{"name":"365내과의원","tel":"031-206-0365","addr":"경기도 수원시 영통구 영통동 960-3 뉴월드프라자402호,403호","indutype":"의원 - 의원","category":"medical"},{"name":"BNC치과의원","tel":"031-273-2782","addr":"경기도 수원시 영통구 영통동 960-3번지 뉴월드프라자 3층","indutype":"의원 - 치과의원","category":"medical"},{"name":"꽃보다의원","tel":"031-204-3353","addr":"경기도 수원시 영통구 영통동 960-3번지 NEW WORLD PLAZA 6층 607호","indutype":"의원 - 의원","category":"medical"},{"name":"미래팜영통약국","tel":"031-203-1330","addr":"경기도 수원시 영통구 영통동 960-3번지 뉴월드프라자 409호","indutype":"약국 - 약국","category":"medical"},{"name":"복비뇨기과","tel":"031-203-8245","addr":"경기도 수원시 영통구 영통동 960-3번지 뉴월드프라자 3층 305호","indutype":"의원 - 의원","category":"medical"},{"name":"비아체의원","tel":"031-205-8975","addr":"경기도 수원시 영통구 영통동 960-3번지 뉴월드프라자 207호","indutype":"의원 - 의원","category":"medical"},{"name":"사랑인한의원","tel":"031-202-1007","addr":"경기도 수원시 영통구 영통동 960-3번지 NEWWORLDPLAZA 2동 201호","indutype":"의원 - 한의원","category":"medical"},{"name":"새봄동물병원","tel":"031-205-9975","addr":"경기도 수원시 영통구 영통동 960-3번지 뉴월드프라자 117호","indutype":"기타의료기관 - 동물병원","category":"medical"},{"name":"영통베스트덴치과의원","tel":"031-273-3604","addr":"경기도 수원시 영통구 영통동 960-3번지 뉴월드프라자 206호","indutype":"의원 - 치과의원","category":"medical"},{"name":"영통한의원","tel":"031-202-3900","addr":"경기도 수원시 영통구 영통동 960-3번지 NEWWORLDPLAZA 407호","indutype":"의원 - 한의원","category":"medical"},{"name":"채봉남내과","tel":"031-206-4220","addr":"경기도 수원시 영통구 영통동 960-3번지 뉴월드프라자 308호","indutype":"의원 - 의원","category":"medical"},{"name":"튼튼소아청소년과의원","tel":"031-205-1300","addr":"경기도 수원시 영통구 영통동 960-3번지 뉴월드프라자 404호","indutype":"의원 - 의원","category":"medical"},{"name":"피터팬치과의원","tel":"031-273-2782","addr":"경기도 수원시 영통구 영통동 960-3번지 뉴월드프라자 3층","indutype":"의원 - 치과의원","category":"medical"},{"name":"휴아이안과의원","tel":"031-273-1779","addr":"경기도 수원시 영통구 영통동 960-3번지 뉴월드프라자 3층 303호","indutype":"의원 - 의원","category":"medical"}]},{"lat":"37.267235461","long":"127.08130322","imageIndex":8,"items":[{"name":"365아이랑 소아청소년과의원","tel":"031-273-0203","addr":"경기도 수원시 영통구 영통동 945-2번지 계룡리슈스카이상가 118호-A호","indutype":"의원 - 의원","category":"medical"},{"name":"민약국","tel":"031-206-3465","addr":"경기도 수원시 영통구 영통동 945-2번지 수원영통리슈빌스카이오피스텔 1층 113호","indutype":"약국 - 약국","category":"medical"}]},{"lat":"37.248520904","long":"127.06655249","imageIndex":8,"items":[{"name":"The 나은치과의원","tel":"031-202-2891","addr":"경기도 수원시 영통구 영통동 970-5 벽적골9단지상가 205.206호","indutype":"의원 - 치과의원","category":"medical"}]},{"lat":"37.253796439","long":"127.07444725","imageIndex":8,"items":[{"name":"가톨릭정형외과","tel":"031-273-7500","addr":"경기도 수원시 영통구 영통동 995-2번지 미네시티 3층 305호","indutype":"의원 - 의원","category":"medical"},{"name":"김춘동이비인후과","tel":"031-273-9988","addr":"경기도 수원시 영통구 영통동 995-2번지 미네시티 310호","indutype":"의원 - 의원","category":"medical"},{"name":"명성형외과","tel":"031-273-9200","addr":"경기도 수원시 영통구 영통동 995-2번지","indutype":"의원 - 의원","category":"medical"},{"name":"서울미피부과의원","tel":"031-203-0333","addr":"경기도 수원시 영통구 영통동 995-2번지 미네시티 301호","indutype":"의원 - 의원","category":"medical"},{"name":"세정치과의원","tel":"031-206-7572","addr":"경기도 수원시 영통구 영통동 995-2번지 미네시티 3층 303호","indutype":"의원 - 치과의원","category":"medical"},{"name":"아름다운향기유외과의원","tel":"031-273-6075","addr":"경기도 수원시 영통구 영통동 995-2번지 미네시티 2층 207호","indutype":"의원 - 의원","category":"medical"},{"name":"연세안과","tel":"031-273-0055","addr":"경기도 수원시 영통구 영통동 995-2번지 미네시티 302호","indutype":"의원 - 의원","category":"medical"},{"name":"연우치과의원","tel":"031-205-4200","addr":"경기도 수원시 영통구 영통동 995-2번지 미네시티 2층 210호","indutype":"의원 - 치과의원","category":"medical"},{"name":"예일의원","tel":"031-203-2340","addr":"경기도 수원시 영통구 영통동 995-2번지 미네시티 2층 201호","indutype":"의원 - 의원","category":"medical"},{"name":"이은석한의원","tel":"031-273-1222","addr":"경기도 수원시 영통구 영통동 995-2번지 미네시티프라자204호,205-1호","indutype":"의원 - 한의원","category":"medical"},{"name":"지성정신건강의학과의원","tel":"031-202-0113","addr":"경기도 수원시 영통구 영통동 995-2번지 미네시티 208호","indutype":"의원 - 의원","category":"medical"}]},{"lat":"37.254408805","long":"127.07500016","imageIndex":8,"items":[{"name":"강지윤정신과","tel":"031-202-7925","addr":"경기도 수원시 영통구 영통동 996-4번지 보보스프라자 4층 419호","indutype":"의원 - 의원","category":"medical"},{"name":"경희수한의원","tel":"031-205-7553","addr":"경기도 수원시 영통구 영통동 996-4번지 보보스프라자 305호","indutype":"의원 - 한의원","category":"medical"},{"name":"미치과","tel":"031-206-0211","addr":"경기도 수원시 영통구 영통동 996-4번지 보보스프라자 410호","indutype":"의원 - 치과의원","category":"medical"},{"name":"수원에버성형외과의원","tel":"031-206-0770","addr":"경기도 수원시 영통구 영통동 996-4번지","indutype":"의원 - 의원","category":"medical"},{"name":"아해한의원","tel":"031-205-1075","addr":"경기도 수원시 영통구 영통동 996-4보보스프라자501,502,503호","indutype":"의원 - 한의원","category":"medical"},{"name":"영통미루약국","tel":"031-202-1104","addr":"경기도 수원시 영통구 영통동 996-4번지 1층 118호","indutype":"약국 - 약국","category":"medical"},{"name":"움여성한의원","tel":"031-893-7533","addr":"경기도 수원시 영통구 영통동 996-4번지 보보스프라자 2층 211호","indutype":"의원 - 한의원","category":"medical"},{"name":"해피한의원","tel":"031-206-6119","addr":"경기도 수원시 영통구 영통동 996-4번지 보보스프라자 404호","indutype":"의원 - 한의원","category":"medical"}]},{"lat":"37.255049224","long":"127.07386229","imageIndex":8,"items":[{"name":"경희보궁한의원","tel":"031-206-7524","addr":"경기도 수원시 영통구 영통동 958-3번지 영통하우스토리 1층 109호","indutype":"의원 - 한의원","category":"medical"}]},{"lat":"37.255850672","long":"127.07464082","imageIndex":8,"items":[{"name":"경희예당한의원","tel":"031-202-2662","addr":"경기도 수원시 영통구 영통동 958-1 드림피아빌딩 412.413호","indutype":"의원 - 한의원","category":"medical"},{"name":"닥터김동물병원","tel":"031-203-8277","addr":"경기도 수원시 영통구 영통동 958-1번지 드림피아빌딩","indutype":"기타의료기관 - 동물병원","category":"medical"},{"name":"새로운약국","tel":"","addr":"경기도 수원시 영통구 영통동 958-1번지 드림피아빌딩 509-1호","indutype":"약국 - 약국","category":"medical"},{"name":"샬롬한의원","tel":"031-202-0275","addr":"경기도 수원시 영통구 영통동 958-1번지 드림피아빌딩 213호","indutype":"의원 - 한의원","category":"medical"},{"name":"스마일턱치과의원","tel":"031-273-2200","addr":"경기도 수원시 영통구 영통동 958-1번지 드림피아빌딩 311호","indutype":"의원 - 치과의원","category":"medical"},{"name":"안국한의원","tel":"031-273-1455","addr":"경기도 수원시 영통구 영통동 958-1번지 드림피아빌딩 308호","indutype":"의원 - 한의원","category":"medical"},{"name":"영통S마취통증의학과의원","tel":"031-8001-8508","addr":"경기도 수원시 영통구 영통동 958-1번지 드림피아빌딩 4층 411호","indutype":"의원 - 의원","category":"medical"},{"name":"예쁜미소치과의원","tel":"031-202-7475","addr":"경기도 수원시 영통구 영통동 958-1번지 드림피아빌딩 205호","indutype":"의원 - 치과의원","category":"medical"},{"name":"이층약국","tel":"031-206-6110","addr":"경기도 수원시 영통구 영통동 958-1번지 드림피아빌딩 2층 206-1호","indutype":"약국 - 약국","category":"medical"},{"name":"임태성신경과의원","tel":"031-273-0075","addr":"경기도 수원시 영통구 영통동 958-1번지 드림피아빌딩 509~509-1호","indutype":"의원 - 의원","category":"medical"}]},{"lat":"37.251994412","long":"127.07438919","imageIndex":8,"items":[{"name":"경희해한의원","tel":"031-202-0557","addr":"경기도 수원시 영통구 영통동 998-6번지 아셈프라자 3층 301호","indutype":"의원 - 한의원","category":"medical"},{"name":"원광한약국","tel":"031-202-7798","addr":"경기도 수원시 영통구 영통동 998-6번지 아셈프라자 405호","indutype":"약국 - 약국","category":"medical"}]},{"lat":"37.252688807","long":"127.07338666","imageIndex":8,"items":[{"name":"고운의원","tel":"031-206-0368","addr":"경기도 수원시 영통구 영통동 995-5번지 밀레니엄프라자 303호","indutype":"의원 - 의원","category":"medical"},{"name":"로미오치과교정과치과의원","tel":"031-202-9700","addr":"경기도 수원시 영통구 영통동 995-5번지 밀레니엄프라자 3층 313호","indutype":"의원 - 치과의원","category":"medical"},{"name":"미소로한의원","tel":"031-206-2472","addr":"경기도 수원시 영통구 영통동 995-5번지 밀레니엄프라자 312호","indutype":"의원 - 한의원","category":"medical"},{"name":"서울팀치과의원","tel":"031-206-4882","addr":"경기도 수원시 영통구 영통동 995-5번지 밀레니엄프라자 307호","indutype":"의원 - 치과의원","category":"medical"},{"name":"세브란스산부인과의원","tel":"031-206-7880","addr":"경기도 수원시 영통구 영통동 995-5번지 밀레니엄프라자 309호","indutype":"의원 - 의원","category":"medical"},{"name":"연세영의원","tel":"031-206-8820","addr":"경기도 수원시 영통구 영통동 995-5번지 밀레니엄프라자 310,311호","indutype":"의원 - 의원","category":"medical"},{"name":"윤상필의원","tel":"031-202-8270","addr":"경기도 수원시 영통구 영통동 995-5번지 밀레니엄프라자 3층 305호","indutype":"의원 - 의원","category":"medical"}]},{"lat":"37.251543528","long":"127.07499743","imageIndex":8,"items":[{"name":"굿모닝약국","tel":"031-205-4156","addr":"경기도 수원시 영통구 영통동 1009-6 매직프라자 101,103~106호","indutype":"약국 - 약국","category":"medical"}]},{"lat":"37.252237928","long":"127.07399491","imageIndex":8,"items":[{"name":"김성민내과의원","tel":"031-205-3436","addr":"경기도 수원시 영통구 영통동 998-5번지 센타프라자 304호","indutype":"의원 - 의원","category":"medical"},{"name":"남경한의원","tel":"031-202-0075","addr":"경기도 수원시 영통구 영통동 998-5번지 센터프라자 705호","indutype":"의원 - 한의원","category":"medical"},{"name":"리더스치과의원","tel":"031-203-6300","addr":"경기도 수원시 영통구 영통동 998-5번지 센타프라자 405호","indutype":"의원 - 치과의원","category":"medical"},{"name":"성림마취통증의학과의원","tel":"031-203-8233","addr":"경기도 수원시 영통구 영통동 998-5번지 센타프라자 301호","indutype":"의원 - 의원","category":"medical"},{"name":"애플의원","tel":"031-203-7535","addr":"경기도 수원시 영통구 영통동 998-5번지 센타프라자 305호","indutype":"의원 - 의원","category":"medical"},{"name":"영통하나치과의원","tel":"031-273-2880","addr":"경기도 수원시 영통구 영통동 998-5번지 센타프라자 204호","indutype":"의원 - 치과의원","category":"medical"},{"name":"이소한의원","tel":"031-202-7585","addr":"경기도 수원시 영통구 영통동 998-5번지 센타프라자 5층 505호","indutype":"의원 - 한의원","category":"medical"},{"name":"청명온누리약국","tel":"031-203-1717","addr":"경기도 수원시 영통구 영통동 998-5번지 센터프라자 3층 310호","indutype":"약국 - 약국","category":"medical"},{"name":"케이비의원","tel":"031-204-1110","addr":"경기도 수원시 영통구 영통동 998-5번지","indutype":"의원 - 의원","category":"medical"}]},{"lat":"37.264102373","long":"127.07744446","imageIndex":8,"items":[{"name":"김영국내,소아과","tel":"031-204-7988","addr":"경기도 수원시 영통구 영통동 954-4번지 2층","indutype":"의원 - 의원","category":"medical"},{"name":"김영국내소아과의원","tel":"031-204-7988","addr":"경기도 수원시 영통구 영통동 954-4번지","indutype":"의원 - 의원","category":"medical"},{"name":"황골온누리약국","tel":"031-202-7106","addr":"경기도 수원시 영통구 영통동 954-4 홀인원빌딩103호","indutype":"약국 - 약국","category":"medical"}]},{"lat":"37.250544105","long":"127.0738017","imageIndex":8,"items":[{"name":"김영철동물종합병원","tel":"031-205-0275","addr":"경기도 수원시 영통구 영통동 1000-4세련빌딩1층.5층","indutype":"기타의료기관 - 동물병원","category":"medical"}]},{"lat":"37.253266139","long":"127.07224875","imageIndex":8,"items":[{"name":"꿈동산치과","tel":"031-206-2888","addr":"경기도 수원시 영통구 영통동 959-4번지 다모아프라자 403동 404호","indutype":"의원 - 치과의원","category":"medical"},{"name":"미소약국","tel":"031-203-1550","addr":"경기도 수원시 영통구 영통동 959-4번지 다모아프라자 206호","indutype":"약국 - 약국","category":"medical"},{"name":"아이누리한의원수원점","tel":"031-205-2575","addr":"경기도 수원시 영통구 영통동 959-4번지 다모아프라자 7층 703호","indutype":"의원 - 한의원","category":"medical"},{"name":"아이조아패밀리한의원","tel":"031-273-3378","addr":"경기도 수원시 영통구 영통동 959-4번지 다모아프라자 501호","indutype":"의원 - 한의원","category":"medical"},{"name":"유로치과","tel":"031-205-0765","addr":"경기도 수원시 영통구 영통동 959-4번지 다모아프라자 303동 304호","indutype":"의원 - 치과의원","category":"medical"},{"name":"유앤미피부과의원","tel":"031-206-8275","addr":"경기도 수원시 영통구 영통동 959-4번지 다모아프라자 601호","indutype":"의원 - 의원","category":"medical"}]},{"lat":"37.252571126","long":"127.07429956","imageIndex":8,"items":[{"name":"노들담한의원","tel":"031-548-2466","addr":"경기도 수원시 영통구 영통동 998-4번지 504호E-폴리스","indutype":"의원 - 한의원","category":"medical"},{"name":"라벨라 의원","tel":"031-205-8397","addr":"경기도 수원시 영통구 영통동 998-4번지 E-폴리스빌딩 2층 203호","indutype":"의원 - 의원","category":"medical"},{"name":"신광한의원","tel":"031-273-8775","addr":"경기도 수원시 영통구 영통동 998-4번지 E폴리스빌딩 401호","indutype":"의원 - 한의원","category":"medical"},{"name":"유디치과의원","tel":"031-206-0039","addr":"경기도 수원시 영통구 영통동 998-4번지 E-폴리스 2층 201호","indutype":"의원 - 치과의원","category":"medical"}]},{"lat":"37.249792988","long":"127.07905343","imageIndex":8,"items":[{"name":"다온메디컬","tel":"031-205-5511","addr":"경기도 수원시 영통구 영통동 1013-16번지 해광빌딩 403호","indutype":"약국 - 제약회사","category":"medical"},{"name":"주식회사 에스케이팜","tel":"031-895-4446","addr":"경기도 수원시 영통구 영통동 1013-16번지 해광빌딩 414호","indutype":"약국 - 제약회사","category":"medical"}]},{"lat":"37.266406328","long":"127.08158421","imageIndex":8,"items":[{"name":"다정약국","tel":"031-202-1108","addr":"경기도 수원시 영통구 영통동 945-6번지 한성프라자 503호","indutype":"약국 - 약국","category":"medical"},{"name":"수이비인후과의원","tel":"031-205-5050","addr":"경기도 수원시 영통구 영통동 945-6번지 한성프라자 501호","indutype":"의원 - 의원","category":"medical"},{"name":"영통민치과","tel":"031-205-2803","addr":"경기도 수원시 영통구 영통동 945-6번지 한성프라자 401호","indutype":"의원 - 치과의원","category":"medical"}]},{"lat":"37.254931044","long":"127.0755868","imageIndex":8,"items":[{"name":"더 웰E 치과의원","tel":"031-202-2825","addr":"경기도 수원시 영통구 영통동 996-3번지 대우월드마크 4층 406호","indutype":"의원 - 치과의원","category":"medical"}]},{"lat":"37.245046315","long":"127.05988864","imageIndex":8,"items":[{"name":"더힘의원","tel":"031-8019-7575","addr":"경기도 수원시 영통구 영통동 980-3번지 디지털엠파이어빌딩 2층 201호","indutype":"의원 - 의원","category":"medical"},{"name":"시온치과의원","tel":"031-206-2870","addr":"경기도 수원시 영통구 영통동 980-3번지 디지털엠파이어빌딩 2층 210호","indutype":"의원 - 치과의원","category":"medical"},{"name":"행복한우리약국","tel":"031-303-8090","addr":"경기도 수원시 영통구 영통동 980-3번지 디지털엠파이어빌딩 218호","indutype":"약국 - 약국","category":"medical"}]},{"lat":"37.26679377","long":"127.08158461","imageIndex":8,"items":[{"name":"동기한의원","tel":"031-206-7889","addr":"경기도 수원시 영통구 영통동 945-4번지 한솔프라자 406동 407호","indutype":"의원 - 한의원","category":"medical"},{"name":"한솔치과의원","tel":"031-204-2900","addr":"경기도 수원시 영통구 영통동 945-4번지 한솔프라자 405호","indutype":"의원 - 치과의원","category":"medical"}]},{"lat":"37.246182317","long":"127.05841303","imageIndex":8,"items":[{"name":"라앤의원","tel":"031-273-3387","addr":"경기도 수원시 영통구 영통동 976-6번지 한솔빌딩 4층 401호","indutype":"의원 - 의원","category":"medical"}]},{"lat":"37.252488463","long":"127.07685816","imageIndex":8,"items":[{"name":"메디칼수약국","tel":"031-206-7566","addr":"경기도 수원시 영통구 영통동 1011-3번지 1층 101호","indutype":"약국 - 약국","category":"medical"}]},{"lat":"37.246244688","long":"127.05988954","imageIndex":8,"items":[{"name":"메디칼약국","tel":"031-203-4923","addr":"경기도 수원시 영통구 영통동 976-14번지","indutype":"약국 - 약국","category":"medical"},{"name":"서울정형외과의원","tel":"031-204-7575","addr":"경기도 수원시 영통구 영통동 976-14번지","indutype":"의원 - 의원","category":"medical"}]},{"lat":"37.24671282","long":"127.06072394","imageIndex":8,"items":[{"name":"바른뜸한의원","tel":"031-257-1075","addr":"경기도 수원시 영통구 영통동 974-6번지 세일빌딩 403호","indutype":"의원 - 한의원","category":"medical"}]},{"lat":"37.251795679","long":"127.0752231","imageIndex":8,"items":[{"name":"밝은미래신경정신과","tel":"031-206-7753","addr":"경기도 수원시 영통구 영통동 1009-1번지","indutype":"의원 - 의원","category":"medical"}]},{"lat":"37.254380223","long":"127.07750251","imageIndex":8,"items":[{"name":"복음치과","tel":"031-203-2888","addr":"경기도 수원시 영통구 영통동 1038-8번지","indutype":"의원 - 치과의원","category":"medical"}]},{"lat":"37.264354682","long":"127.07741089","imageIndex":8,"items":[{"name":"봄봄치과의원","tel":"031-8004-2804","addr":"경기도 수원시 영통구 영통동 954-2번지 2층","indutype":"의원 - 치과의원","category":"medical"}]},{"lat":"37.2465435","long":"127.05674521","imageIndex":8,"items":[{"name":"봄빛치과의원","tel":"031-206-2558","addr":"경기도 수원시 영통구 영통동 978-7번지","indutype":"의원 - 치과의원","category":"medical"}]},{"lat":"37.248188614","long":"127.07988587","imageIndex":8,"items":[{"name":"사단법인한국학교보건협회경기도남지부","tel":"031-273-9501","addr":"경기도 수원시 영통구 영통동 1025-15번지 202호","indutype":"의원 - 의원","category":"medical"}]},{"lat":"37.251767292","long":"127.07740976","imageIndex":8,"items":[{"name":"새움한의원","tel":"031-202-7533","addr":"경기도 수원시 영통구 영통동 1012-1번지 315,316,317호","indutype":"의원 - 한의원","category":"medical"}]},{"lat":"37.254463837","long":"127.07338831","imageIndex":8,"items":[{"name":"서울아이정신과의원","tel":"031-203-4275","addr":"경기도 수원시 영통구 영통동 959-1번지 모던타운 508호","indutype":"의원 - 의원","category":"medical"},{"name":"수원영통함소아한의원","tel":"031-226-7975","addr":"경기도 수원시 영통구 영통동 959-1번지 모던타운 2층 222호","indutype":"의원 - 한의원","category":"medical"},{"name":"수원의료복지사회적협동조합","tel":"031-212-1190","addr":"경기도 수원시 영통구 영통동 959-1번지 모던타운 2층 221호","indutype":"의원 - 한의원","category":"medical"},{"name":"수원의료복지사회적협동조합 새날치과의원","tel":"031-213-8843","addr":"경기도 수원시 영통구 영통동 959-1번지 모던타운 2층 221호","indutype":"의원 - 치과의원","category":"medical"},{"name":"이화산부인과","tel":"031-206-7755","addr":"경기도 수원시 영통구 영통동 959-1번지 영통모던타운 401호","indutype":"의원 - 의원","category":"medical"},{"name":"제중당한의원","tel":"031-202-0774","addr":"경기도 수원시 영통구 영통동 959-1번지 모던타운 415호","indutype":"의원 - 한의원","category":"medical"},{"name":"페리오치과의원","tel":"031-203-2075","addr":"경기도 수원시 영통구 영통동 959-1번지 모던타운 5층 506호","indutype":"의원 - 치과의원","category":"medical"},{"name":"함소아한의원","tel":"031-205-1079","addr":"경기도 수원시 영통구 영통동 959-1번지 모던타운 222호","indutype":"의원 - 한의원","category":"medical"}]},{"lat":"37.246155596","long":"127.05774803","imageIndex":8,"items":[{"name":"서울안과","tel":"031-204-5116","addr":"경기도 수원시 영통구 영통동 976-3번지 성모빌딩 4층","indutype":"의원 - 의원","category":"medical"},{"name":"성모수치과","tel":"031-203-7571","addr":"경기도 수원시 영통구 영통동 976-3번지 5층","indutype":"의원 - 치과의원","category":"medical"},{"name":"영통성모이비인후과의원","tel":"031-206-3434","addr":"경기도 수원시 영통구 영통동 976-3번지 성모빌딩 4층","indutype":"의원 - 의원","category":"medical"},{"name":"조은약국","tel":"031-204-3598","addr":"경기도 수원시 영통구 영통동 976-3번지 성모빌딩 1층","indutype":"약국 - 약국","category":"medical"}]},{"lat":"37.247153544","long":"127.0623022","imageIndex":8,"items":[{"name":"선치과의원","tel":"031-204-7522","addr":"경기도 수원시 영통구 영통동 971-1번지 롯데크리닉 상가 2층 202호","indutype":"의원 - 치과의원","category":"medical"}]},{"lat":"37.253236592","long":"127.07641929","imageIndex":8,"items":[{"name":"수원인애한의원","tel":"031-205-5659","addr":"경기도 수원시 영통구 영통동 1037-4번지 5층","indutype":"의원 - 한의원","category":"medical"}]},{"lat":"37.252849254","long":"127.07624984","imageIndex":8,"items":[{"name":"시온누리약국","tel":"031-206-3838","addr":"경기도 수원시 영통구 영통동 1011-1번지 1층 104호","indutype":"약국 - 약국","category":"medical"}]},{"lat":"37.266433762","long":"127.08097545","imageIndex":8,"items":[{"name":"아이맘약국","tel":"031-205-2037","addr":"경기도 수원시 영통구 영통동 946-3번지 영통카센터","indutype":"약국 - 약국","category":"medical"}]},{"lat":"37.245334608","long":"127.05996775","imageIndex":8,"items":[{"name":"에이메디의원","tel":"031-202-1547","addr":"경기도 수원시 영통구 영통동 980-3번지 디지털엠파이어빌딩 C동 207호","indutype":"의원 - 의원","category":"medical"}]},{"lat":"37.246102066","long":"127.05658711","imageIndex":8,"items":[{"name":"연세앤치과","tel":"031-206-2854","addr":"경기도 수원시 영통구 영통동 979-7번지 2층","indutype":"의원 - 치과의원","category":"medical"}]},{"lat":"37.252128957","long":"127.07539249","imageIndex":8,"items":[{"name":"영통경희한의원","tel":"031-206-1075","addr":"경기도 수원시 영통구 영통동 1010-13번지 거성빌딩 402호","indutype":"의원 - 한의원","category":"medical"}]},{"lat":"37.250102715","long":"127.07360968","imageIndex":8,"items":[{"name":"영통동물병원","tel":"031-204-0075","addr":"경기도 수원시 영통구 영통동 1000-9번지","indutype":"기타의료기관 - 동물병원","category":"medical"}]},{"lat":"37.252236294","long":"127.07666629","imageIndex":8,"items":[{"name":"영통미소약국","tel":"031-273-9131","addr":"경기도 수원시 영통구 영통동 1011-5번지 테라스가든 101호","indutype":"약국 - 약국","category":"medical"}]},{"lat":"37.246155695","long":"127.05753389","imageIndex":8,"items":[{"name":"영통바른치과","tel":"031-204-2882","addr":"경기도 수원시 영통구 영통동 976-2번지 수정빌딩 3층 1호","indutype":"의원 - 치과의원","category":"medical"},{"name":"이레약국","tel":"031-204-2772","addr":"경기도 수원시 영통구 영통동 976-2번지 1층 2호","indutype":"약국 - 약국","category":"medical"},{"name":"정담내과","tel":"031-203-7577","addr":"경기도 수원시 영통구 영통동 976-2번지 5층","indutype":"의원 - 의원","category":"medical"},{"name":"코끼리마취통증의학과의원","tel":"031-202-9363","addr":"경기도 수원시 영통구 영통동 976-2번지 6층","indutype":"의원 - 의원","category":"medical"}]},{"lat":"37.24604864","long":"127.05516696","imageIndex":8,"items":[{"name":"영통세종신경외과","tel":"031-273-1199","addr":"경기도 수원시 영통구 영통동 979-1번지","indutype":"의원 - 의원","category":"medical"},{"name":"자연약국","tel":"031-202-3696","addr":"경기도 수원시 영통구 영통동 979-1번지 1층","indutype":"약국 - 약국","category":"medical"}]},{"lat":"37.251712801","long":"127.06222688","imageIndex":8,"items":[{"name":"영통약국","tel":"031-203-0809","addr":"경기도 수원시 영통구 영통동 964-8번지 신나무실주공 상가 103호","indutype":"약국 - 약국","category":"medical"}]},{"lat":"37.246489014","long":"127.05766938","imageIndex":8,"items":[{"name":"영통이편한치과","tel":"031-205-2875","addr":"경기도 수원시 영통구 영통동 975-13번지 서린프라자 4층","indutype":"의원 - 치과의원","category":"medical"},{"name":"튼튼약국","tel":"031-205-6509","addr":"경기도 수원시 영통구 영통동 975-13번지 서린프라자 304호","indutype":"약국 - 약국","category":"medical"},{"name":"홍진희소아과","tel":"031-273-7582","addr":"경기도 수원시 영통구 영통동 975-13번지 서린프라자 3층","indutype":"의원 - 의원","category":"medical"}]},{"lat":"37.26804461","long":"127.08394218","imageIndex":8,"items":[{"name":"온 한의원","tel":"031-203-0130","addr":"경기도 수원시 영통구 영통동 1054-3번지 1층 115호 116호 상가동","indutype":"의원 - 한의원","category":"medical"}]},{"lat":"37.253435589","long":"127.07516831","imageIndex":8,"items":[{"name":"왕정한의원","tel":"031-206-7581","addr":"경기도 수원시 영통구 영통동 998-1번지 평익빌딩 401호","indutype":"의원 - 의원","category":"medical"}]},{"lat":"37.246244915","long":"127.05941617","imageIndex":8,"items":[{"name":"우리치과","tel":"031-206-2275","addr":"경기도 수원시 영통구 영통동 976-12번지 송이빌딩 4층","indutype":"의원 - 치과의원","category":"medical"}]},{"lat":"37.246298318","long":"127.06077998","imageIndex":8,"items":[{"name":"원동물병원","tel":"031-205-7900","addr":"경기도 수원시 영통구 영통동 976-18번지 102호","indutype":"기타의료기관 - 동물병원","category":"medical"}]},{"lat":"37.246435923","long":"127.05552789","imageIndex":8,"items":[{"name":"유엔비의원","tel":"031-206-8902","addr":"경기도 수원시 영통구 영통동 978-1번지","indutype":"의원 - 의원","category":"medical"},{"name":"유엔비의원","tel":"031-206-8902","addr":"경기도 수원시 영통구 영통동 978-1번지","indutype":"의원 - 의원","category":"medical"}]},{"lat":"37.254324119","long":"127.06547526","imageIndex":8,"items":[{"name":"윤가정의학과의원","tel":"031-205-2657","addr":"경기도 수원시 영통구 영통동 963-2신안상가202","indutype":"의원 - 의원","category":"medical"}]},{"lat":"37.263795988","long":"127.07750052","imageIndex":8,"items":[{"name":"은혜한의원","tel":"031-202-6676","addr":"경기도 수원시 영통구 영통동 954-6번지 정원빌딩 302호","indutype":"의원 - 한의원","category":"medical"}]},{"lat":"37.246075546","long":"127.05544874","imageIndex":8,"items":[{"name":"이희성한의원","tel":"031-202-2422","addr":"경기도 수원시 영통구 영통동 979-2번지 늘푸른빌딩 401호","indutype":"의원 - 한의원","category":"medical"},{"name":"차서역침한의원","tel":"031-206-7553","addr":"경기도 수원시 영통구 영통동 979-2번지 늘푸른빌딩 901호","indutype":"의원 - 한의원","category":"medical"}]},{"lat":"37.245159482","long":"127.0676091","imageIndex":8,"items":[{"name":"준수동물병원","tel":"031-203-7560","addr":"경기도 수원시 영통구 영통동 986-10번지","indutype":"기타의료기관 - 동물병원","category":"medical"}]},{"lat":"37.25943553","long":"127.07666204","imageIndex":8,"items":[{"name":"즐거운치과의원","tel":"031-203-5152","addr":"경기도 수원시 영통구 영통동 956-2번지 대우동신1상가 201호","indutype":"의원 - 치과의원","category":"medical"},{"name":"최신환내과의원","tel":"031-204-2175","addr":"경기도 수원시 영통구 영통동 956-2번지 대우동신 상가 204호","indutype":"의원 - 의원","category":"medical"}]},{"lat":"37.251605832","long":"127.07624863","imageIndex":8,"items":[{"name":"천수목","tel":"031-205-1011","addr":"경기도 수원시 영통구 영통동 1010-9번지 대원빌딩 207호","indutype":"약국 - 제약회사","category":"medical"}]},{"lat":"37.252876902","long":"127.07524668","imageIndex":8,"items":[{"name":"청명한의원","tel":"031-205-7588","addr":"경기도 수원시 영통구 영통동 998-8번지 키라레스토아 405호","indutype":"의원 - 한의원","category":"medical"}]},{"lat":"37.252327596","long":"127.07471638","imageIndex":8,"items":[{"name":"코비한의원","tel":"031-8019-8275","addr":"경기도 수원시 영통구 영통동 998-7번지 클래시아영통 3층 312,313호","indutype":"의원 - 한의원","category":"medical"},{"name":"퍼스트미 의원","tel":"031-204-7555","addr":"경기도 수원시 영통구 영통동 998-7번지 303,304호","indutype":"의원 - 의원","category":"medical"}]},{"lat":"37.252717314","long":"127.07086182","imageIndex":8,"items":[{"name":"푸른나무 한약국","tel":"031-202-1511","addr":"경기도 수원시 영통구 영통동 961-6번지 영통트리플렉스 125호","indutype":"약국 - 한약방","category":"medical"}]},{"lat":"37.253102414","long":"127.07482984","imageIndex":8,"items":[{"name":"프리스틴의원(Pristine의원)","tel":"031-111-1111","addr":"경기도 수원시 영통구 영통동 998-2번지 르네상스시티프라자 3층 337~345호","indutype":"의원 - 의원","category":"medical"}]},{"lat":"37.247521306","long":"127.06552599","imageIndex":8,"items":[{"name":"하늘 소아청소년과의원","tel":"031-206-7577","addr":"경기도 수원시 영통구 영통동 970-3번지 주공9단지 상가 201호","indutype":"의원 - 의원","category":"medical"}]},{"lat":"37.266208102","long":"127.081584","imageIndex":8,"items":[{"name":"한빛정형외과의원","tel":"031-204-9595","addr":"경기도 수원시 영통구 영통동 945-7번지 영통빌딩","indutype":"의원 - 의원","category":"medical"}]},{"lat":"37.263958208","long":"127.07744432","imageIndex":8,"items":[{"name":"황골마을 인창한의원","tel":"031-205-5375","addr":"경기도 수원시 영통구 영통동 954-5번지 세진빌딩 3층","indutype":"의원 - 한의원","category":"medical"}]}]