[{"lat":"37.295175093","long":"127.00870145","imageIndex":5,"items":[{"name":"(주)성주개발/피아노모텔","tel":"031-258-8081","addr":"경기도 수원시 장안구 정자동 1-1번지 피아노모텔","indutype":"숙박업 - 여관/기타숙박업","category":"hotel"},{"name":"피아노모텔","tel":"031-258-8080","addr":"경기도 수원시 장안구 정자동 1-1번지","indutype":"숙박업 - 여관/기타숙박업","category":"hotel"}]},{"lat":"37.295039931","long":"127.00887061","imageIndex":5,"items":[{"name":"N모텔","tel":"031-247-4955","addr":"경기도 수원시 장안구 정자동 1-3번지 N모텔","indutype":"숙박업 - 여관/기타숙박업","category":"hotel"},{"name":"N모텔","tel":"031-243-0601","addr":"경기도 수원시 장안구 정자동 1-3번지","indutype":"숙박업 - 여관/기타숙박업","category":"hotel"}]},{"lat":"37.305680706","long":"126.99236935","imageIndex":5,"items":[{"name":"W모텔","tel":"031-241-5703","addr":"경기도 수원시 장안구 정자동 433-2번지","indutype":"숙박업 - 여관/기타숙박업","category":"hotel"}]},{"lat":"37.29337297","long":"127.01005465","imageIndex":5,"items":[{"name":"뉴서울장여관","tel":"031-245-7121","addr":"경기도 수원시 장안구 정자동 2-10번지","indutype":"숙박업 - 여관/기타숙박업","category":"hotel"},{"name":"뉴서울파크","tel":"031-244-7121","addr":"경기도 수원시 장안구 정자동 2-10번지 뉴서울장파크","indutype":"숙박업 - 여관/기타숙박업","category":"hotel"}]},{"lat":"37.305734782","long":"126.99253853","imageIndex":5,"items":[{"name":"레전드","tel":"031-257-9966","addr":"경기도 수원시 장안구 정자동 433-1번지","indutype":"숙박업 - 여관/기타숙박업","category":"hotel"}]},{"lat":"37.305536566","long":"126.99264008","imageIndex":5,"items":[{"name":"모텔알프스","tel":"031-257-4713","addr":"경기도 수원시 장안구 정자동 429-10번지","indutype":"숙박업 - 여관/기타숙박업","category":"hotel"}]},{"lat":"37.30534731","long":"126.99216636","imageIndex":5,"items":[{"name":"아이비모텔","tel":"070-8947-9714","addr":"경기도 수원시 장안구 정자동 433-10번지","indutype":"숙박업 - 여관/기타숙박업","category":"hotel"}]},{"lat":"37.295148138","long":"127.00689696","imageIndex":5,"items":[{"name":"용승","tel":"031-244-6100","addr":"경기도 수원시 장안구 정자동 11-2번지","indutype":"숙박업 - 여관/기타숙박업","category":"hotel"}]},{"lat":"37.305707696","long":"126.99191816","imageIndex":5,"items":[{"name":"유토피아","tel":"031-207-5858","addr":"경기도 수원시 장안구 정자동 435-4번지","indutype":"숙박업 - 여관/기타숙박업","category":"hotel"}]},{"lat":"37.305509507","long":"126.99231297","imageIndex":5,"items":[{"name":"하이모텔","tel":"031-241-7979","addr":"경기도 수원시 장안구 정자동 433-6번지","indutype":"숙박업 - 여관/기타숙박업","category":"hotel"}]},{"lat":"37.305617666","long":"126.9927303","imageIndex":5,"items":[{"name":"호텔인사이드","tel":"031-268-1651","addr":"경기도 수원시 장안구 정자동 429-9번지","indutype":"숙박업 - 여관/기타숙박업","category":"hotel"}]},{"lat":"37.289787078","long":"127.0002882","imageIndex":5,"items":[{"name":"황실장여관","tel":"031-243-9317","addr":"경기도 수원시 장안구 정자동 75-8번지","indutype":"숙박업 - 여관/기타숙박업","category":"hotel"}]}]