[{"lat":"37.434021393","long":"126.99807994","imageIndex":4,"items":[{"name":"과찬낙지마당","tel":"02-507-1996","addr":"경기도 과천시 부림동 46번지 시대빌딩 지하1층","indutype":"일반휴게음식 - 일반한식","category":"restaurant"},{"name":"과천해물마당","tel":"02-507-1996","addr":"경기도 과천시 부림동 46번지 시대빌딩 지하 3호","indutype":"일반휴게음식 - 일반한식","category":"restaurant"},{"name":"바니양념치킨","tel":"02-507-2244","addr":"경기도 과천시 부림동 46번지 과천시대빌딩 1층 108호","indutype":"일반휴게음식 - 스넥","category":"restaurant"},{"name":"수다","tel":"","addr":"경기도 과천시 부림동 46번지 과천시대빌딩 3층 304호","indutype":"일반휴게음식 - 서양음식","category":"restaurant"},{"name":"아.지트(A.ZIT)","tel":"02-507-2300","addr":"경기도 과천시 부림동 46 시대빌딩지하1층 101","indutype":"일반휴게음식 - 일반한식","category":"restaurant"},{"name":"티투","tel":"02-504-0111","addr":"경기도 과천시 부림동 46번지 시대빌딩 205호","indutype":"일반휴게음식 - 스넥","category":"restaurant"},{"name":"푸릇푸릇과천점","tel":"02-507-4700","addr":"경기도 과천시 부림동 46번지 과천시대빌딩 1층 106호","indutype":"일반휴게음식 - 스넥","category":"restaurant"}]},{"lat":"37.460074934","long":"127.03171536","imageIndex":4,"items":[{"name":"과천해물마당","tel":"02-507-1996","addr":"경기도 과천시 부림동 46번지 시대빌딩 지하 3호","indutype":"음식점업 - 한식","category":"restaurant"}]},{"lat":"37.422577628","long":"126.98669314","imageIndex":4,"items":[{"name":"김가네갈비","tel":"02-502-2555","addr":"경기도 과천시 부림동 41번지 마상가 201호","indutype":"음식점업 - 한식","category":"restaurant"}]},{"lat":"37.427245524","long":"126.99295115","imageIndex":4,"items":[{"name":"뚜레쥬르(과천부림점)","tel":"02-503-1097","addr":"경기도 과천시 부림동 36-5번지","indutype":"음식점업 - 제과점","category":"restaurant"}]},{"lat":"37.435886029","long":"127.0141698","imageIndex":4,"items":[{"name":"맛있는집","tel":"02-503-0555","addr":"경기도 과천시 부림동 20-1번지 부림슈퍼 등 1층 7호","indutype":"음식점업 - 분식","category":"restaurant"}]},{"lat":"37.438859731","long":"126.99702877","imageIndex":4,"items":[{"name":"맛있는집","tel":"02-503-0555","addr":"경기도 과천시 부림동 20-1번지 1층 7호","indutype":"일반휴게음식 - 스넥","category":"restaurant"},{"name":"비비큐","tel":"02-502-3347","addr":"경기도 과천시 부림동 20-1번지 일반상가 6호","indutype":"일반휴게음식 - 스넥","category":"restaurant"}]},{"lat":"37.426578609","long":"126.99108711","imageIndex":4,"items":[{"name":"바니양념치킨","tel":"","addr":"경기도 과천시 부림동 46번지 과천시대빌딩 1층 8호","indutype":"음식점업 - 치킨","category":"restaurant"}]},{"lat":"37.420794452","long":"126.99454486","imageIndex":4,"items":[{"name":"부림식당","tel":"02-504-7691","addr":"경기도 과천시 부림동 41번지 9단지 상가 124호","indutype":"음식점업 - 기타음식점업","category":"restaurant"}]},{"lat":"37.434273668","long":"126.99794433","imageIndex":4,"items":[{"name":"소문난감자탕","tel":"02-3678-9990","addr":"경기도 과천시 부림동 42번지 8단지유치원 1층 상가","indutype":"일반휴게음식 - 일반한식","category":"restaurant"}]},{"lat":"37.420578027","long":"126.99225162","imageIndex":4,"items":[{"name":"수다","tel":"070-8833-3676","addr":"경기도 과천시 부림동 46번지 과천시대빌딩 3층 304호","indutype":"음식점업 - 디저트","category":"restaurant"}]},{"lat":"37.435463037","long":"126.99916456","imageIndex":4,"items":[{"name":"스시리","tel":"02-503-9912","addr":"경기도 과천시 부림동 41번지","indutype":"일반휴게음식 - 일식·회집","category":"restaurant"}]},{"lat":"37.428606056","long":"126.99314303","imageIndex":4,"items":[{"name":"스시리","tel":"02-503-9912","addr":"경기도 과천시 부림동 41번지 9단지 마상가 110호","indutype":"음식점업 - 일식","category":"restaurant"}]},{"lat":"37.426885033","long":"126.99194569","imageIndex":4,"items":[{"name":"아.지트(A.ZIT)","tel":"02-507-2300","addr":"경기도 과천시 부림동 46번지 시대빌딩지하1층 101호","indutype":"음식점업 - 한식","category":"restaurant"}]},{"lat":"37.434165539","long":"126.99775226","imageIndex":4,"items":[{"name":"카페원띵","tel":"02-503-4519","addr":"경기도 과천시 부림동 43번지","indutype":"일반휴게음식 - 서양음식","category":"restaurant"}]},{"lat":"37.428083503","long":"126.99350464","imageIndex":4,"items":[{"name":"티투","tel":"02-504-0111","addr":"경기도 과천시 부림동 46번지 시대빌딩 205호","indutype":"음식점업 - 카페","category":"restaurant"}]},{"lat":"37.430444378","long":"126.99739097","imageIndex":4,"items":[{"name":"파리바게뜨(과천부림점)","tel":"02-503-5600","addr":"경기도 과천시 부림동 42번지 8단지유치원상가 103호","indutype":"음식점업 - 제과점","category":"restaurant"}]},{"lat":"37.462354134","long":"127.0330274","imageIndex":4,"items":[{"name":"푸릇푸릇(과천점)","tel":"02-507-4700","addr":"경기도 과천시 부림동 46번지 과천시대빌딩 1층 106호","indutype":"음식점업 - 분식","category":"restaurant"}]},{"lat":"37.4354630370","long":"126.9991645570","imageIndex":4,"items":[{"name":"현대식당","tel":"02-502-2297","addr":"경기도 과천시 부림동 4(8단지 7호","indutype":"일반휴게음식 - 일반한식","category":"restaurant"}]},{"lat":"37.457327493","long":"127.02910346","imageIndex":4,"items":[{"name":"현대식당","tel":"02-502-2297","addr":"경기도 과천시 부림동 41번지 8단지 7","indutype":"음식점업 - 일반한식","category":"restaurant"}]}]