[{"lat":"37.4542433","long":"127.2319263","imageIndex":4,"items":[{"name":"꽃담","tel":"","addr":"경기도 광주시 남한산성면 오전리 268-4번지 1층","indutype":"일반휴게음식 - 서양음식","category":"restaurant"}]},{"lat":"37.44899336","long":"127.225706","imageIndex":4,"items":[{"name":"남한산성의집","tel":"031-529-3094","addr":"경기도 광주시 남한산성면 오전리 217번지","indutype":"일반휴게음식 - 일반한식","category":"restaurant"}]},{"lat":"37.45891675","long":"127.2238931","imageIndex":4,"items":[{"name":"바비","tel":"070-7642-8294","addr":"경기도 광주시 남한산성면 오전리 416-1번지","indutype":"일반휴게음식 - 일반한식","category":"restaurant"},{"name":"바비막국수","tel":"031-746-0135","addr":"경기도 광주시 남한산성면 오전리 416-1번지","indutype":"일반휴게음식 - 일반한식","category":"restaurant"}]},{"lat":"37.45499479","long":"127.2300298","imageIndex":4,"items":[{"name":"빛나리한우촌","tel":"031-748-2090","addr":"경기도 광주시 남한산성면 오전리 291번지","indutype":"일반휴게음식 - 일반한식","category":"restaurant"}]},{"lat":"37.45966169","long":"127.2205949","imageIndex":4,"items":[{"name":"산성농원배나무집","tel":"031-743-7399","addr":"경기도 광주시 남한산성면 오전리 432-1번지","indutype":"일반휴게음식 - 일반한식","category":"restaurant"}]},{"lat":"37.45485797","long":"127.2261754","imageIndex":4,"items":[{"name":"산성팥죽","tel":"031-746-3388","addr":"경기도 광주시 남한산성면 오전리 337-6번지 1층","indutype":"일반휴게음식 - 일반한식","category":"restaurant"}]},{"lat":"37.45791509","long":"127.2247265","imageIndex":4,"items":[{"name":"서정옥 누룽지백숙","tel":"031-746-8887","addr":"경기도 광주시 남한산성면 오전리 381-1번지 1층","indutype":"일반휴게음식 - 일반한식","category":"restaurant"}]},{"lat":"37.45663316","long":"127.2260564","imageIndex":4,"items":[{"name":"솔밭가든","tel":"031-745-0895","addr":"경기도 광주시 남한산성면 오전리 325번지","indutype":"일반휴게음식 - 일반한식","category":"restaurant"}]},{"lat":"37.45971521","long":"127.2159496","imageIndex":4,"items":[{"name":"시골집","tel":"031-743-4799","addr":"경기도 광주시 남한산성면 오전리 468번지","indutype":"일반휴게음식 - 일반한식","category":"restaurant"}]},{"lat":"37.45419539","long":"127.2333954","imageIndex":4,"items":[{"name":"엘피스","tel":"031-46-3636","addr":"경기도 광주시 남한산성면 오전리 32번지","indutype":"일반휴게음식 - 일반한식","category":"restaurant"}]},{"lat":"37.45488344","long":"127.2270005","imageIndex":4,"items":[{"name":"옛사랑방","tel":"031-749-2999","addr":"경기도 광주시 남한산성면 오전리 336-4번지","indutype":"일반휴게음식 - 일반한식","category":"restaurant"},{"name":"천년","tel":"031-746-0808","addr":"경기도 광주시 남한산성면 오전리 336-4","indutype":"일반휴게음식 - 일반한식","category":"restaurant"}]},{"lat":"37.4587179","long":"127.2242316","imageIndex":4,"items":[{"name":"오전리가든","tel":"031-742-7599","addr":"경기도 광주시 남한산성면 오전리 384-5번지","indutype":"일반휴게음식 - 일반한식","category":"restaurant"}]},{"lat":"37.455942","long":"127.2294224","imageIndex":4,"items":[{"name":"오전명가","tel":"031-746-4425","addr":"경기도 광주시 남한산성면 오전리 309-1번지","indutype":"일반휴게음식 - 일반한식","category":"restaurant"}]},{"lat":"37.45938065","long":"127.2215322","imageIndex":4,"items":[{"name":"천상의 풍경소리","tel":"031-746-9138","addr":"경기도 광주시 남한산성면 오전리 430-1번지","indutype":"일반휴게음식 - 서양음식","category":"restaurant"}]},{"lat":"37.45413303","long":"127.2330335","imageIndex":4,"items":[{"name":"청송","tel":"031-746-8586","addr":"경기도 광주시 남한산성면 오전리 31-1번지","indutype":"일반휴게음식 - 일반한식","category":"restaurant"}]},{"lat":"37.45658212","long":"127.2244513","imageIndex":4,"items":[{"name":"코코밸리 더 카페","tel":"031-749-1209","addr":"경기도 광주시 남한산성면 오전리 364-1번지 1층","indutype":"일반휴게음식 - 서양음식","category":"restaurant"}]},{"lat":"37.45524615","long":"127.2305053","imageIndex":4,"items":[{"name":"토속정","tel":"031-743-3838","addr":"경기도 광주시 남한산성면 오전리 309-9번지 1층","indutype":"일반휴게음식 - 일반한식","category":"restaurant"}]}]