[{"lat":"37.232300144","long":"127.02014562","imageIndex":17,"items":[{"name":"강남천막","tel":"031-236-6000","addr":"경기도 수원시 권선구 대황교동 34-3번지","indutype":"직물 - 카페트,커튼,천막,지물","category":"other"}]},{"lat":"37.234660889","long":"127.01989824","imageIndex":17,"items":[{"name":"대원샤링","tel":"031-234-0211","addr":"경기도 수원시 권선구 대황교동 248-29번지","indutype":"건축자재 - 기타건축자재","category":"other"}]},{"lat":"37.236490248","long":"127.0179716","imageIndex":17,"items":[{"name":"동양판유리할인매장","tel":"031-232-3302","addr":"경기도 수원시 권선구 대황교동 259-29번지","indutype":"건축자재 - 유리","category":"other"},{"name":"에듀써밋","tel":"070-8222-7972","addr":"경기도 수원시 권선구 대황교동 259-29번지","indutype":"용역 서비스 - 기타용역서비스","category":"other"}]},{"lat":"37.227271934","long":"127.02291639","imageIndex":17,"items":[{"name":"두울전력주식회사","tel":"031-251-5407","addr":"경기도 수원시 권선구 대황교동 65-9번지 1층","indutype":"용역 서비스 - 기타용역서비스","category":"other"}]},{"lat":"37.237355275","long":"127.0177013","imageIndex":17,"items":[{"name":"반도스틸","tel":"031-226-0048","addr":"경기도 수원시 권선구 대황교동 269-5번지","indutype":"건축자재 - 기타건축자재","category":"other"}]},{"lat":"37.228046885","long":"127.02255602","imageIndex":17,"items":[{"name":"신성골재(주)","tel":"031-238-3614","addr":"경기도 수원시 권선구 대황교동 65-4,65-11","indutype":"건축자재 - 기타건축자재","category":"other"}]},{"lat":"37.227767549","long":"127.02264609","imageIndex":17,"items":[{"name":"오진전기상사","tel":"031-225-1505","addr":"경기도 수원시 권선구 대황교동 65-8번지","indutype":"전기제품 - 기타전기제품","category":"other"}]},{"lat":"37.232047834","long":"127.02028079","imageIndex":17,"items":[{"name":"정우프라스틱","tel":"031-225-2222","addr":"경기도 수원시 권선구 대황교동 34-5번지","indutype":"기타 - 기타 전문점","category":"other"}]},{"lat":"37.235742181","long":"127.01953787","imageIndex":17,"items":[{"name":"주식회사 다인디자인그룹","tel":"031-377-7171","addr":"경기도 수원시 권선구 대황교동 248-50번지 1층","indutype":"용역 서비스 - 사무서비스","category":"other"},{"name":"주식회사다인커뮤니케이션","tel":"031-377-7171","addr":"경기도 수원시 권선구 대황교동 248-50번지 1층","indutype":"건축자재 - 인테리어전문","category":"other"}]},{"lat":"37.236769586","long":"127.01783642","imageIndex":17,"items":[{"name":"주식회사 서현우드","tel":"031-267-4648","addr":"경기도 수원시 권선구 대황교동 259-25번지","indutype":"건축자재 - 목재·석재·철물","category":"other"}]},{"lat":"37.235688407","long":"127.01734036","imageIndex":17,"items":[{"name":"주식회사에스에이치인터내셔날","tel":"031-237-7203","addr":"경기도 수원시 권선구 대황교동 262-2번지","indutype":"용역 서비스 - 종합용역","category":"other"}]}]