[{"lat":"38.0536985","long":"127.0111535","imageIndex":0,"items":[{"name":"L오토텍서비스","tel":"031-833-9744","addr":"경기도 연천군 미산면 우정리 407-4번지","indutype":"자동차정비 유지 - 자동차정비","category":"car"}]},{"lat":"38.0552209","long":"127.0128969","imageIndex":0,"items":[{"name":"그린자동차공업사","tel":"031-833-8890","addr":"경기도 연천군 미산면 우정리 373-6번지","indutype":"자동차정비 유지 - 자동차정비","category":"car"}]},{"lat":"38.05711272","long":"127.0138201","imageIndex":4,"items":[{"name":"강 라이브","tel":"","addr":"경기도 연천군 미산면 우정리 390-5번지","indutype":"일반휴게음식 - 주점","category":"restaurant"}]},{"lat":"38.05683344","long":"127.0138656","imageIndex":4,"items":[{"name":"강마을매운탕","tel":"031-833-7228","addr":"경기도 연천군 미산면 우정리 390-1번지","indutype":"일반휴게음식 - 일반한식","category":"restaurant"}]},{"lat":"38.05413986","long":"127.0122815","imageIndex":4,"items":[{"name":"미향식당","tel":"031-833-6355","addr":"경기도 연천군 미산면 우정리 374-3번지","indutype":"일반휴게음식 - 일반한식","category":"restaurant"}]},{"lat":"38.05483355","long":"127.0123728","imageIndex":4,"items":[{"name":"블라썸","tel":"","addr":"경기도 연천군 미산면 우정리 374번지 107호","indutype":"일반휴게음식 - 서양음식","category":"restaurant"}]},{"lat":"38.05469846","long":"127.0118145","imageIndex":4,"items":[{"name":"웰빙마포왕갈비","tel":"031-833-8897","addr":"경기도 연천군 미산면 우정리 401-5 2호","indutype":"일반휴게음식 - 일반한식","category":"restaurant"}]},{"lat":"38.05564416","long":"127.0147314","imageIndex":4,"items":[{"name":"전주가든","tel":"031-835-0847","addr":"경기도 연천군 미산면 우정리 389-1번지","indutype":"일반휴게음식 - 일반한식","category":"restaurant"}]},{"lat":"38.05175259","long":"127.0104242","imageIndex":4,"items":[{"name":"코밀카페","tel":"","addr":"경기도 연천군 미산면 우정리 428-1번지","indutype":"일반휴게음식 - 서양음식","category":"restaurant"}]},{"lat":"38.03195083","long":"127.0025402","imageIndex":7,"items":[{"name":"공원농장","tel":"031-947-6254","addr":"경기도 연천군 미산면 우정리 726번지 가,나,","indutype":"음료식품 - 농·축·수산품","category":"food"}]},{"lat":"38.05150016","long":"127.0127825","imageIndex":7,"items":[{"name":"농업법인(주)코리아코빅","tel":"02-3295-1318","addr":"경기도 연천군 미산면 우정리 353번지","indutype":"건강식품 - 인삼제품","category":"food"}]},{"lat":"38.05372538","long":"127.0130904","imageIndex":7,"items":[{"name":"농업회사법인연천양조주식회사","tel":"031-833-3775","addr":"경기도 연천군 미산면 우정리 371-3번지 1층","indutype":"음료식품 - 주류 판매점","category":"food"}]},{"lat":"38.05388772","long":"127.010675","imageIndex":7,"items":[{"name":"민웅기벌꿀연구소","tel":"","addr":"경기도 연천군 미산면 우정리 410-1번지","indutype":"건강식품 - 기타건강식품","category":"food"}]},{"lat":"38.05111318","long":"127.003987","imageIndex":7,"items":[{"name":"익투스 토종닭","tel":"031-833-5505","addr":"경기도 연천군 미산면 우정리 831번지","indutype":"음료식품 - 정육점","category":"food"}]},{"lat":"38.05067088","long":"127.0171231","imageIndex":7,"items":[{"name":"주식회사 우정새마을회","tel":"031-833-5849","addr":"경기도 연천군 미산면 우정리 313번지","indutype":"음료식품 - 기타음료식품","category":"food"}]},{"lat":"38.04236535","long":"127.0043172","imageIndex":7,"items":[{"name":"향이머무는곳","tel":"031-536-6810","addr":"경기도 연천군 미산면 우정리 787번지","indutype":"음료식품 - 기타음료식품","category":"food"}]},{"lat":"38.05231111","long":"127.0110053","imageIndex":17,"items":[{"name":"대농종묘사","tel":"031-833-7834","addr":"경기도 연천군 미산면 우정리 436-2번지","indutype":"농업 - 비료,사료,종자","category":"other"}]},{"lat":"38.05469846","long":"127.0118145","imageIndex":17,"items":[{"name":"세븐일레븐연천우정리점","tel":"031-1577-0711","addr":"경기도 연천군 미산면 우정리 401-5번지 (상가1호)","indutype":"유통업 영리 - 편 의 점","category":"other"},{"name":"화이트 피싱","tel":"031-000-0000","addr":"경기도 연천군 미산면 우정리 401-5번지 화이트휴게소 1층 5호","indutype":"레져용품 - 스포츠·레져용품","category":"other"}]},{"lat":"38.05528386","long":"127.0140363","imageIndex":17,"items":[{"name":"연천(수석,약초)","tel":"031-832-1237","addr":"경기도 연천군 미산면 우정리 377-3번지 1층 1호","indutype":"가구 - 기타가구","category":"other"}]},{"lat":"38.05483355","long":"127.0123728","imageIndex":17,"items":[{"name":"이마트24 연천미산점","tel":"031-1111-1111","addr":"경기도 연천군 미산면 우정리 374번지 105호 104호,105호","indutype":"유통업 영리 - 편 의 점","category":"other"}]},{"lat":"38.0560046","long":"127.0139225","imageIndex":5,"items":[{"name":"블루연천펜션","tel":"031-833-1477","addr":"경기도 연천군 미산면 우정리 376-30","indutype":"숙박업 - 여관/기타숙박업","category":"hotel"}]},{"lat":"38.05469846","long":"127.0118145","imageIndex":13,"items":[{"name":"뿌리이용원","tel":"070-7013-8872","addr":"경기도 연천군 미산면 우정리 401-5번지","indutype":"보건위생 - 이용원","category":"beauty"}]}]