[{"lat":"37.776756532","long":"126.94418681","imageIndex":17,"items":[{"name":"굿초이스애견운동장","tel":"031-829-0301","addr":"경기도 양주시 백석읍 기산리 277-1번지 1층","indutype":"문화.취미 - 애완동물","category":"other"}]},{"lat":"37.783450594","long":"126.94419287","imageIndex":17,"items":[{"name":"대한불교 조계종 육지장사","tel":"031-871-0101","addr":"경기도 양주시 백석읍 기산리 294-3번지","indutype":"기타 - 비영리/대상","category":"other"}]},{"lat":"37.778419706","long":"126.9373862","imageIndex":17,"items":[{"name":"더편한요양원","tel":"031-871-8180","addr":"경기도 양주시 백석읍 기산리 419-3번지","indutype":"기타의료기관 - 기타의료기관 및 기타","category":"other"}]},{"lat":"37.776060627","long":"126.96005566","imageIndex":17,"items":[{"name":"들꽃피는언덕","tel":"031-876-0073","addr":"경기도 양주시 백석읍 기산리 181-1번지","indutype":"주방용구 - 주방용식기","category":"other"}]},{"lat":"37.776645476","long":"126.95798948","imageIndex":17,"items":[{"name":"스튜디오 단","tel":"031-879-8910","addr":"경기도 양주시 백석읍 기산리 182-9번지","indutype":"광학제품 - 사진관","category":"other"}]},{"lat":"37.777175881","long":"126.93646788","imageIndex":17,"items":[{"name":"씨스페이스 마장호수점","tel":"","addr":"경기도 양주시 백석읍 기산리 407번지 1층","indutype":"유통업 영리 - 편 의 점","category":"other"}]},{"lat":"37.780761573","long":"126.95483129","imageIndex":17,"items":[{"name":"씨유기산유원지점","tel":"031-871-8889","addr":"경기도 양주시 백석읍 기산리 231-3번지","indutype":"유통업 영리 - 편 의 점","category":"other"}]},{"lat":"37.778311831","long":"126.95694417","imageIndex":17,"items":[{"name":"안상철미술관","tel":"031-874-0734","addr":"경기도 양주시 백석읍 기산리 215-3번지","indutype":"문화.취미 - 티켓","category":"other"}]},{"lat":"37.776340594","long":"126.94124729","imageIndex":17,"items":[{"name":"자스민요양원","tel":"031-877-7600","addr":"경기도 양주시 백석읍 기산리 320번지","indutype":"기타의료기관 - 기타의료기관 및 기타","category":"other"}]},{"lat":"37.772870323","long":"126.93824236","imageIndex":17,"items":[{"name":"주식회사 삼각산참사랑(삼성노인전문요양원","tel":"031-871-5858","addr":"경기도 양주시 백석읍 기산리 381-1번지","indutype":"기타의료기관 - 기타의료기관 및 기타","category":"other"}]},{"lat":"37.77470008","long":"126.95974998","imageIndex":17,"items":[{"name":"참좋은요양원","tel":"031-855-9785","addr":"경기도 양주시 백석읍 기산리 123-2번지","indutype":"기타의료기관 - 기타의료기관 및 기타","category":"other"}]},{"lat":"37.777009634","long":"126.94588924","imageIndex":17,"items":[{"name":"천사만물","tel":"031-871-6376","addr":"경기도 양주시 백석읍 기산리 275번지","indutype":"신변잡화 - 기타잡화","category":"other"}]},{"lat":"37.773032606","long":"126.93844653","imageIndex":17,"items":[{"name":"카네이션요양원","tel":"031-871-9982","addr":"경기도 양주시 백석읍 기산리 381번지","indutype":"기타의료기관 - 기타의료기관 및 기타","category":"other"}]},{"lat":"37.772699434","long":"126.93877597","imageIndex":17,"items":[{"name":"해오름요양원","tel":"","addr":"경기도 양주시 백석읍 기산리 356-9번지","indutype":"기타의료기관 - 기타의료기관 및 기타","category":"other"}]}]