[{"lat":"37.686734071","long":"126.77015428","imageIndex":4,"items":[{"name":"(일산시장점)이디야커피전문점","tel":"031-975-6765","addr":"경기도 고양시 일산서구 일산동 606-1번지","indutype":"일반휴게음식 - 서양음식","category":"restaurant"},{"name":"59쌀피자 일산동점","tel":"031-977-5949","addr":"경기도 고양시 일산서구 일산동 606-1번지","indutype":"일반휴게음식 - 서양음식","category":"restaurant"},{"name":"김반장","tel":"031-977-7870","addr":"경기도 고양시 일산서구 일산동 606-1번지","indutype":"일반휴게음식 - 일반한식","category":"restaurant"},{"name":"날마다축제","tel":"031-976-7644","addr":"경기도 고양시 일산서구 일산동 606-1번지","indutype":"일반휴게음식 - 일반한식","category":"restaurant"},{"name":"만원의행복","tel":"070-8623-4187","addr":"경기도 고양시 일산서구 일산동 606-1번지","indutype":"일반휴게음식 - 일반한식","category":"restaurant"},{"name":"불스떡볶이","tel":"031-912-3379","addr":"경기도 고양시 일산서구 일산동 606-1번지","indutype":"일반휴게음식 - 스넥","category":"restaurant"},{"name":"스마일찹쌀꽈배기","tel":"031-977-2772","addr":"경기도 고양시 일산서구 일산동 606-1번지","indutype":"일반휴게음식 - 일반한식","category":"restaurant"},{"name":"엉뚱한상상 일산시장점","tel":"031-111-1111","addr":"경기도 고양시 일산서구 일산동 606-1번지","indutype":"일반휴게음식 - 일반한식","category":"restaurant"},{"name":"홍스취킨","tel":"031-975-9280","addr":"경기도 고양시 일산서구 일산동 606-1번지","indutype":"일반휴게음식 - 스넥","category":"restaurant"}]},{"lat":"37.677574171","long":"126.76707692","imageIndex":4,"items":[{"name":"(주)고피자 후곡","tel":"031-917-8972","addr":"경기도 고양시 일산서구 일산동 1085-1번지","indutype":"일반휴게음식 - 서양음식","category":"restaurant"},{"name":"공차 후곡마을점","tel":"02-111-1111","addr":"경기도 고양시 일산서구 일산동 1085-1번지","indutype":"일반휴게음식 - 서양음식","category":"restaurant"},{"name":"김가네소갈비살","tel":"031-919-7261","addr":"경기도 고양시 일산서구 일산동 1085-1번지","indutype":"일반휴게음식 - 일반한식","category":"restaurant"},{"name":"김밥쟁이","tel":"031-912-2318","addr":"경기도 고양시 일산서구 일산동 1085-1번지","indutype":"일반휴게음식 - 스넥","category":"restaurant"},{"name":"달팽이","tel":"070-5121-6771","addr":"경기도 고양시 일산서구 일산동 1085-1번지","indutype":"일반휴게음식 - 일반한식","category":"restaurant"}]},{"lat":"37.680012166","long":"126.76978986","imageIndex":4,"items":[{"name":"BHC치킨","tel":"031-911-4955","addr":"경기도 고양시 일산서구 일산동 1074번지 후곡마을10단지아파트","indutype":"일반휴게음식 - 스넥","category":"restaurant"}]},{"lat":"37.684517313","long":"126.76995715","imageIndex":4,"items":[{"name":"가마솥교동왕족발","tel":"031-975-7279","addr":"경기도 고양시 일산서구 일산동 623번지","indutype":"일반휴게음식 - 일반한식","category":"restaurant"},{"name":"일산쿡 한식부페","tel":"031-976-6630","addr":"경기도 고양시 일산서구 일산동 623번지","indutype":"일반휴게음식 - 일반한식","category":"restaurant"},{"name":"천하일미김밥전문점","tel":"031-977-7444","addr":"경기도 고양시 일산서구 일산동 623번지","indutype":"일반휴게음식 - 스넥","category":"restaurant"}]},{"lat":"37.685347281","long":"126.77512416","imageIndex":4,"items":[{"name":"감성 부대찌개","tel":"","addr":"경기도 고양시 일산서구 일산동 576-20번지","indutype":"일반휴게음식 - 일반한식","category":"restaurant"},{"name":"길가포차","tel":"031-915-3590","addr":"경기도 고양시 일산서구 일산동 576-20번지","indutype":"일반휴게음식 - 일반한식","category":"restaurant"},{"name":"베테랑닭개장","tel":"031-922-0901","addr":"경기도 고양시 일산서구 일산동 576-20번지","indutype":"일반휴게음식 - 일반한식","category":"restaurant"},{"name":"이디야커피 (일산산들점)","tel":"031-923-7100","addr":"경기도 고양시 일산서구 일산동 576-20번지","indutype":"일반휴게음식 - 서양음식","category":"restaurant"},{"name":"정드린치킨","tel":"031-919-7982","addr":"경기도 고양시 일산서구 일산동 576-20번지","indutype":"일반휴게음식 - 스넥","category":"restaurant"}]},{"lat":"37.67876709","long":"126.76440922","imageIndex":4,"items":[{"name":"감탄후곡점","tel":"031-925-5889","addr":"경기도 고양시 일산서구 일산동 1060번지","indutype":"일반휴게음식 - 스넥","category":"restaurant"},{"name":"누구나홀딱반한닭 후곡점","tel":"031-925-8988","addr":"경기도 고양시 일산서구 일산동 1060번지","indutype":"일반휴게음식 - 스넥","category":"restaurant"},{"name":"명랑핫도그일산후곡점","tel":"031-000-0000","addr":"경기도 고양시 일산서구 일산동 1060번지","indutype":"일반휴게음식 - 스넥","category":"restaurant"}]},{"lat":"37.681291062","long":"126.77415031","imageIndex":4,"items":[{"name":"강씨네부대찌개","tel":"031-924-8113","addr":"경기도 고양시 일산서구 일산동 524-16번지","indutype":"일반휴게음식 - 일반한식","category":"restaurant"},{"name":"만나동골보신탕","tel":"031-975-8709","addr":"경기도 고양시 일산서구 일산동 524-16번지","indutype":"일반휴게음식 - 일반한식","category":"restaurant"},{"name":"재미로여는세상 오감만족","tel":"031-975-9204","addr":"경기도 고양시 일산서구 일산동 524-16번지","indutype":"일반휴게음식 - 일반한식","category":"restaurant"},{"name":"풍미감자탕","tel":"031-976-5538","addr":"경기도 고양시 일산서구 일산동 524-16번지","indutype":"일반휴게음식 - 일반한식","category":"restaurant"},{"name":"항아리참숯갈비","tel":"031-976-9290","addr":"경기도 고양시 일산서구 일산동","indutype":"일반휴게음식 - 일반한식","category":"restaurant"}]},{"lat":"37.677909177","long":"126.76790337","imageIndex":4,"items":[{"name":"경북식당","tel":"031-912-9292","addr":"경기도 고양시 일산서구 일산동 1079-1번지","indutype":"일반휴게음식 - 일반한식","category":"restaurant"},{"name":"꿀맛","tel":"031-922-1425","addr":"경기도 고양시 일산서구 일산동 1079-1번지","indutype":"일반휴게음식 - 일반한식","category":"restaurant"},{"name":"누들앤락","tel":"031-913-0059","addr":"경기도 고양시 일산서구 일산동 1079-1번지","indutype":"일반휴게음식 - 일반한식","category":"restaurant"},{"name":"또또닭강정","tel":"031-912-4553","addr":"경기도 고양시 일산서구 일산동 1079-1번지","indutype":"일반휴게음식 - 일반한식","category":"restaurant"},{"name":"종가김밥","tel":"031-911-1332","addr":"경기도 고양시 일산서구 일산동 1079-1번지","indutype":"일반휴게음식 - 스넥","category":"restaurant"},{"name":"피자스쿨","tel":"031-912-5454","addr":"경기도 고양시 일산서구 일산동 1079-1번지","indutype":"일반휴게음식 - 서양음식","category":"restaurant"},{"name":"호치킨하우스후곡마을점","tel":"031-916-5727","addr":"경기도 고양시 일산서구 일산동 1079-1번지","indutype":"일반휴게음식 - 스넥","category":"restaurant"},{"name":"후곡일산왕족발","tel":"031-917-8989","addr":"경기도 고양시 일산서구 일산동 1079-1번지","indutype":"일반휴게음식 - 일반한식","category":"restaurant"}]},{"lat":"37.676354589","long":"126.76995999","imageIndex":4,"items":[{"name":"경성F&B","tel":"031-919-1265","addr":"경기도 고양시 일산서구 일산동 1088-1번지","indutype":"일반휴게음식 - 일반한식","category":"restaurant"},{"name":"티에스와이 (TSY)","tel":"031-921-1999","addr":"경기도 고양시 일산서구 일산동 1088-1번지","indutype":"일반휴게음식 - 중국식","category":"restaurant"}]},{"lat":"37.681235618","long":"126.77343629","imageIndex":4,"items":[{"name":"계림원(일산점)","tel":"031-977-8717","addr":"경기도 고양시 일산서구 일산동 655-441번지","indutype":"일반휴게음식 - 스넥","category":"restaurant"}]},{"lat":"37.685187097","long":"126.7761563","imageIndex":4,"items":[{"name":"고구려 옛날 통닭","tel":"031-977-0677","addr":"경기도 고양시 일산서구 일산동 576-15번지","indutype":"일반휴게음식 - 스넥","category":"restaurant"}]},{"lat":"37.686573038","long":"126.77073297","imageIndex":4,"items":[{"name":"고기먹는날","tel":"","addr":"경기도 고양시 일산서구 일산동 596-1번지","indutype":"일반휴게음식 - 일반한식","category":"restaurant"},{"name":"스타","tel":"031-975-2830","addr":"경기도 고양시 일산서구 일산동 596-1번지","indutype":"일반휴게음식 - 서양음식","category":"restaurant"},{"name":"임여사네막걸리","tel":"031-975-6010","addr":"경기도 고양시 일산서구 일산동 596-1번지","indutype":"일반휴게음식 - 주점","category":"restaurant"}]},{"lat":"37.688346636","long":"126.77468417","imageIndex":4,"items":[{"name":"고양왕순대","tel":"031-975-2884","addr":"경기도 고양시 일산서구 일산동 583-31번지","indutype":"일반휴게음식 - 일반한식","category":"restaurant"},{"name":"맹꽁이3마리통닭","tel":"031-975-7998","addr":"경기도 고양시 일산서구 일산동 583-31번지","indutype":"일반휴게음식 - 스넥","category":"restaurant"},{"name":"연신내삼겹살","tel":"031-975-9947","addr":"경기도 고양시 일산서구 일산동 583-31번지","indutype":"일반휴게음식 - 일반한식","category":"restaurant"},{"name":"큰손식당","tel":"031-975-1716","addr":"경기도 고양시 일산서구 일산동 583-31번지","indutype":"일반휴게음식 - 일반한식","category":"restaurant"}]},{"lat":"37.684401319","long":"126.77514972","imageIndex":4,"items":[{"name":"골든카페분식","tel":"02-976-4428","addr":"경기도 고양시 일산서구 일산동 542-2번지","indutype":"일반휴게음식 - 서양음식","category":"restaurant"},{"name":"노가리와생맥주","tel":"031-975-0234","addr":"경기도 고양시 일산서구 일산동 542-2번지","indutype":"일반휴게음식 - 주점","category":"restaurant"}]},{"lat":"37.686401655","long":"126.77063147","imageIndex":4,"items":[{"name":"곰다방","tel":"031-977-4144","addr":"경기도 고양시 일산서구 일산동","indutype":"일반휴게음식 - 서양음식","category":"restaurant"}]},{"lat":"37.686681666","long":"126.77099339","imageIndex":4,"items":[{"name":"곱선생 일산시장점","tel":"031-975-3939","addr":"경기도 고양시 일산서구 일산동 591-1번지","indutype":"일반휴게음식 - 일반한식","category":"restaurant"},{"name":"누구나홀딱반한닭 일산시장점","tel":"031-977-9854","addr":"경기도 고양시 일산서구 일산동 591-1번지","indutype":"일반휴게음식 - 스넥","category":"restaurant"},{"name":"막퍼주는집","tel":"031-818-4111","addr":"경기도 고양시 일산서구 일산동","indutype":"일반휴게음식 - 일반한식","category":"restaurant"},{"name":"앗싸곱창","tel":"031-975-8533","addr":"경기도 고양시 일산서구 일산동 591-1번지","indutype":"일반휴게음식 - 일반한식","category":"restaurant"},{"name":"우리반점","tel":"031-976-2231","addr":"경기도 고양시 일산서구 일산동","indutype":"일반휴게음식 - 중국식","category":"restaurant"},{"name":"이삭토스트(구일산점)","tel":"031-977-0285","addr":"경기도 고양시 일산서구 일산동 591-1번지","indutype":"일반휴게음식 - 서양음식","category":"restaurant"}]},{"lat":"37.685567013","long":"126.77228926","imageIndex":4,"items":[{"name":"공원왕꼬치","tel":"031-976-7560","addr":"경기도 고양시 일산서구 일산동 637-7번지","indutype":"일반휴게음식 - 중국식","category":"restaurant"},{"name":"연변식당","tel":"031-975-5330","addr":"경기도 고양시 일산서구 일산동 637-7번지","indutype":"일반휴게음식 - 일반한식","category":"restaurant"}]},{"lat":"37.685095736","long":"126.77087362","imageIndex":4,"items":[{"name":"광주식당","tel":"031-975-8118","addr":"경기도 고양시 일산서구 일산동 617-15번지","indutype":"일반휴게음식 - 일반한식","category":"restaurant"},{"name":"새봄이네","tel":"031-975-3456","addr":"경기도 고양시 일산서구 일산동 617-15번지","indutype":"일반휴게음식 - 일반한식","category":"restaurant"},{"name":"정다운친구네실내포차","tel":"031-7872-8787","addr":"경기도 고양시 일산서구 일산동 617-15번지","indutype":"일반휴게음식 - 일반한식","category":"restaurant"}]},{"lat":"37.686680952","long":"126.7706306","imageIndex":4,"items":[{"name":"광택치킨","tel":"031-977-7767","addr":"경기도 고양시 일산서구 일산동 597-17번지","indutype":"일반휴게음식 - 일반한식","category":"restaurant"},{"name":"멕시칸양념통닭","tel":"031-976-7725","addr":"경기도 고양시 일산서구 일산동 597-17번지","indutype":"일반휴게음식 - 서양음식","category":"restaurant"}]},{"lat":"37.687264009","long":"126.76482417","imageIndex":4,"items":[{"name":"교촌치킨구일산점","tel":"031-922-5586","addr":"경기도 고양시 일산서구 일산동 967-6번지","indutype":"일반휴게음식 - 스넥","category":"restaurant"},{"name":"달콤한소풍","tel":"070-7797-6813","addr":"경기도 고양시 일산서구 일산동 967-6번지","indutype":"일반휴게음식 - 일반한식","category":"restaurant"}]},{"lat":"37.684989844","long":"126.77665572","imageIndex":4,"items":[{"name":"구일산헤이리(913 Hey Lee)","tel":"070-8826-4678","addr":"경기도 고양시 일산서구 일산동 555-2번지","indutype":"일반휴게음식 - 스넥","category":"restaurant"},{"name":"진할매","tel":"031-922-9661","addr":"경기도 고양시 일산서구 일산동 555-2번지","indutype":"일반휴게음식 - 일반한식","category":"restaurant"}]},{"lat":"37.678877833","long":"126.76571249","imageIndex":4,"items":[{"name":"국수나무","tel":"031-925-3476","addr":"경기도 고양시 일산서구 일산동 1064-3번지","indutype":"일반휴게음식 - 일반한식","category":"restaurant"},{"name":"노가리슈퍼","tel":"031-922-7298","addr":"경기도 고양시 일산서구 일산동 1064-3번지","indutype":"일반휴게음식 - 주점","category":"restaurant"},{"name":"디저트39","tel":"031-914-2420","addr":"경기도 고양시 일산서구 일산동 1064-3번지","indutype":"일반휴게음식 - 서양음식","category":"restaurant"},{"name":"본죽일산후곡점","tel":"031-912-6288","addr":"경기도 고양시 일산서구 일산동 1064-3번지","indutype":"일반휴게음식 - 일반한식","category":"restaurant"},{"name":"스몰하노이","tel":"031-911-3312","addr":"경기도 고양시 일산서구 일산동 1064-3번지","indutype":"일반휴게음식 - 일반한식","category":"restaurant"},{"name":"아재","tel":"031-916-5233","addr":"경기도 고양시 일산서구 일산동","indutype":"일반휴게음식 - 일반한식","category":"restaurant"}]},{"lat":"37.683625751","long":"126.77476665","imageIndex":4,"items":[{"name":"국수바라기","tel":"031-977-7797","addr":"경기도 고양시 일산서구 일산동 552-32번지","indutype":"일반휴게음식 - 일반한식","category":"restaurant"},{"name":"용두동할매매운주꾸미","tel":"031-977-8864","addr":"경기도 고양시 일산서구 일산동 552-32번지","indutype":"일반휴게음식 - 일반한식","category":"restaurant"},{"name":"카페엠 (CAFFEE M)","tel":"031-975-6777","addr":"경기도 고양시 일산서구 일산동 552-32번지","indutype":"일반휴게음식 - 서양음식","category":"restaurant"}]},{"lat":"37.679487581","long":"126.76427088","imageIndex":4,"items":[{"name":"굽네치킨","tel":"031-913-9289","addr":"경기도 고양시 일산서구 일산동 1065-1번지","indutype":"일반휴게음식 - 스넥","category":"restaurant"},{"name":"남도정","tel":"031-917-5378","addr":"경기도 고양시 일산서구 일산동","indutype":"일반휴게음식 - 일반한식","category":"restaurant"},{"name":"다꼬치다","tel":"070-8844-5407","addr":"경기도 고양시 일산서구 일산동 1065-1번지","indutype":"일반휴게음식 - 서양음식","category":"restaurant"},{"name":"마마버터프라이","tel":"031-000-0000","addr":"경기도 고양시 일산서구 일산동 1065-1번지","indutype":"일반휴게음식 - 서양음식","category":"restaurant"},{"name":"밥상(babsang)","tel":"031-913-8982","addr":"경기도 고양시 일산서구 일산동 1065-1번지","indutype":"일반휴게음식 - 일반한식","category":"restaurant"},{"name":"삐사감 김밥에 빠지다 (후곡점)","tel":"031-922-3210","addr":"경기도 고양시 일산서구 일산동 1065-1번지","indutype":"일반휴게음식 - 일반한식","category":"restaurant"},{"name":"오니기리와이규동후곡학원가점","tel":"031-924-0290","addr":"경기도 고양시 일산서구 일산동 1065-1번지","indutype":"일반휴게음식 - 스넥","category":"restaurant"},{"name":"잘하는 고깃집","tel":"031-923-3382","addr":"경기도 고양시 일산서구 일산동 1065-1번지","indutype":"일반휴게음식 - 일반한식","category":"restaurant"},{"name":"치킨마루후곡학원가점","tel":"031-925-9252","addr":"경기도 고양시 일산서구 일산동 1065-1번지","indutype":"일반휴게음식 - 스넥","category":"restaurant"},{"name":"푸푸","tel":"031-911-9953","addr":"경기도 고양시 일산서구 일산동 1065-1번지","indutype":"일반휴게음식 - 중국식","category":"restaurant"}]},{"lat":"37.685213685","long":"126.77129272","imageIndex":4,"items":[{"name":"금상첨화","tel":"031-977-1237","addr":"경기도 고양시 일산서구 일산동 618-12번지","indutype":"일반휴게음식 - 일반한식","category":"restaurant"}]},{"lat":"37.678569772","long":"126.76485195","imageIndex":4,"items":[{"name":"금촌뼈다귀감자탕 (후곡점)","tel":"","addr":"경기도 고양시 일산서구 일산동 1061번지","indutype":"일반휴게음식 - 일반한식","category":"restaurant"},{"name":"별이빛나는밤에","tel":"031-912-3120","addr":"경기도 고양시 일산서구 일산동 1061번지","indutype":"일반휴게음식 - 주점","category":"restaurant"},{"name":"후곡국물떡볶이","tel":"031-918-5311","addr":"경기도 고양시 일산서구 일산동 1061번지","indutype":"일반휴게음식 - 스넥","category":"restaurant"}]},{"lat":"37.685654329","long":"126.77087188","imageIndex":4,"items":[{"name":"길목집","tel":"031-976-3056","addr":"경기도 고양시 일산서구 일산동 617-20번지","indutype":"일반휴게음식 - 일반한식","category":"restaurant"},{"name":"다래원","tel":"031-975-5682","addr":"경기도 고양시 일산서구 일산동 617-20번지","indutype":"일반휴게음식 - 일반한식","category":"restaurant"},{"name":"먹거리마당","tel":"031-976-6969","addr":"경기도 고양시 일산서구 일산동 617-20번지","indutype":"일반휴게음식 - 일반한식","category":"restaurant"},{"name":"미미식당","tel":"031-976-0976","addr":"경기도 고양시 일산서구 일산동 617-20번지","indutype":"일반휴게음식 - 스넥","category":"restaurant"},{"name":"백마강","tel":"031-977-4590","addr":"경기도 고양시 일산서구 일산동 617-20번지","indutype":"일반휴게음식 - 일반한식","category":"restaurant"},{"name":"아리랑 식당","tel":"031-939-3537","addr":"경기도 고양시 일산서구 일산동 617-20번지","indutype":"일반휴게음식 - 일반한식","category":"restaurant"},{"name":"영진이네","tel":"031-977-7456","addr":"경기도 고양시 일산서구 일산동 617-20번지","indutype":"일반휴게음식 - 일반한식","category":"restaurant"},{"name":"원기충전소","tel":"031-975-0592","addr":"경기도 고양시 일산서구 일산동 617-20번지","indutype":"일반휴게음식 - 일반한식","category":"restaurant"},{"name":"자은포차","tel":"031-7872-8787","addr":"경기도 고양시 일산서구 일산동 617-20번지","indutype":"일반휴게음식 - 일반한식","category":"restaurant"},{"name":"장터주막","tel":"070-8569-2580","addr":"경기도 고양시 일산서구 일산동 617-20번지","indutype":"일반휴게음식 - 일반한식","category":"restaurant"},{"name":"전주집","tel":"031-976-8890","addr":"경기도 고양시 일산서구 일산동 617-20번지","indutype":"일반휴게음식 - 일반한식","category":"restaurant"},{"name":"칠리향","tel":"031-814-8333","addr":"경기도 고양시 일산서구 일산동 617-20번지","indutype":"일반휴게음식 - 일반한식","category":"restaurant"},{"name":"한상궁수라간","tel":"031-976-5888","addr":"경기도 고양시 일산서구 일산동 617-20번지","indutype":"일반휴게음식 - 일반한식","category":"restaurant"}]},{"lat":"37.67709897","long":"126.76823466","imageIndex":4,"items":[{"name":"김가네김밥","tel":"031-922-0093","addr":"경기도 고양시 일산서구 일산동 1084-5번지","indutype":"일반휴게음식 - 일반한식","category":"restaurant"}]},{"lat":"37.685960454","long":"126.77076889","imageIndex":4,"items":[{"name":"김민철수제족발","tel":"031-922-9088","addr":"경기도 고양시 일산서구 일산동 617-22번지","indutype":"일반휴게음식 - 일반한식","category":"restaurant"}]},{"lat":"37.689348075","long":"126.77076967","imageIndex":4,"items":[{"name":"김밥나라","tel":"031-915-9178","addr":"경기도 고양시 일산서구 일산동 2023번지","indutype":"일반휴게음식 - 스넥","category":"restaurant"},{"name":"더착한커피 일산탄현점","tel":"031-911-9421","addr":"경기도 고양시 일산서구 일산동 2023번지","indutype":"일반휴게음식 - 서양음식","category":"restaurant"},{"name":"또와순대국","tel":"031-915-1127","addr":"경기도 고양시 일산서구 일산동 2023번지","indutype":"일반휴게음식 - 일반한식","category":"restaurant"},{"name":"맘스터치(일산동점)","tel":"031-917-9282","addr":"경기도 고양시 일산서구 일산동 2023번지","indutype":"일반휴게음식 - 서양음식","category":"restaurant"},{"name":"맛사랑","tel":"031-925-1483","addr":"경기도 고양시 일산서구 일산동 2023번지","indutype":"일반휴게음식 - 일반한식","category":"restaurant"},{"name":"먹으면 단골되는 집","tel":"","addr":"경기도 고양시 일산서구 일산동 2023번지","indutype":"일반휴게음식 - 일반한식","category":"restaurant"},{"name":"사카야","tel":"031-915-6800","addr":"경기도 고양시 일산서구 일산동 2023번지","indutype":"일반휴게음식 - 주점","category":"restaurant"},{"name":"산전수전","tel":"031-922-5905","addr":"경기도 고양시 일산서구 일산동 2023번지","indutype":"일반휴게음식 - 일반한식","category":"restaurant"},{"name":"시야푸드","tel":"031-915-9266","addr":"경기도 고양시 일산서구 일산동 2023번지","indutype":"일반휴게음식 - 일반한식","category":"restaurant"},{"name":"영심이네","tel":"031-911-6497","addr":"경기도 고양시 일산서구 일산동 2023번지","indutype":"일반휴게음식 - 일반한식","category":"restaurant"},{"name":"유니국수&김밥","tel":"031-911-0233","addr":"경기도 고양시 일산서구 일산동 2023번지","indutype":"일반휴게음식 - 일반한식","category":"restaurant"},{"name":"전설의왕짬뽕","tel":"031-913-0535","addr":"경기도 고양시 일산서구 일산동 2023번지","indutype":"일반휴게음식 - 중국식","category":"restaurant"},{"name":"훔친뒷고기","tel":"031-918-2993","addr":"경기도 고양시 일산서구 일산동 2023번지","indutype":"일반휴게음식 - 일반한식","category":"restaurant"}]},{"lat":"37.686069483","long":"126.77123337","imageIndex":4,"items":[{"name":"김밥천국","tel":"031-975-8778","addr":"경기도 고양시 일산서구 일산동 594-13번지","indutype":"일반휴게음식 - 일반한식","category":"restaurant"},{"name":"만남","tel":"031-975-4311","addr":"경기도 고양시 일산서구 일산동 594-13번지","indutype":"일반휴게음식 - 서양음식","category":"restaurant"},{"name":"북창동해장국","tel":"031-977-3314","addr":"경기도 고양시 일산서구 일산동 594-13번지","indutype":"일반휴게음식 - 일반한식","category":"restaurant"}]},{"lat":"37.689016413","long":"126.77163235","imageIndex":4,"items":[{"name":"까까네 옛날맛 숯불갈비","tel":"031-967-9225","addr":"경기도 고양시 일산서구 일산동 2031번지","indutype":"일반휴게음식 - 일반한식","category":"restaurant"}]},{"lat":"37.684985934","long":"126.77462644","imageIndex":4,"items":[{"name":"까투리포차","tel":"","addr":"경기도 고양시 일산서구 일산동 551-13번지","indutype":"일반휴게음식 - 일반한식","category":"restaurant"}]},{"lat":"37.678599811","long":"126.76634818","imageIndex":4,"items":[{"name":"깐부치킨 후곡마을점","tel":"031-911-9925","addr":"경기도 고양시 일산서구 일산동 1063번지","indutype":"일반휴게음식 - 스넥","category":"restaurant"},{"name":"투다리후곡1호점","tel":"031-916-8085","addr":"경기도 고양시 일산서구 일산동 1063번지","indutype":"일반휴게음식 - 주점","category":"restaurant"}]},{"lat":"37.68904335","long":"126.76257367","imageIndex":4,"items":[{"name":"깡우동","tel":"031-911-5011","addr":"경기도 고양시 일산서구 일산동 2104번지","indutype":"일반휴게음식 - 일반한식","category":"restaurant"},{"name":"마츠노키","tel":"031-915-1231","addr":"경기도 고양시 일산서구 일산동 2104번지","indutype":"일반휴게음식 - 일반한식","category":"restaurant"},{"name":"수내닭꼬치","tel":"070-7614-3579","addr":"경기도 고양시 일산서구 일산동 2104번지","indutype":"일반휴게음식 - 일반한식","category":"restaurant"},{"name":"연일손칼국수","tel":"070-6638-1932","addr":"경기도 고양시 일산서구 일산동 2104번지","indutype":"일반휴게음식 - 일반한식","category":"restaurant"},{"name":"와크다 대게","tel":"031-968-1678","addr":"경기도 고양시 일산서구 일산동 2104번지","indutype":"일반휴게음식 - 일반한식","category":"restaurant"},{"name":"통닭연구소","tel":"031-978-9992","addr":"경기도 고양시 일산서구 일산동 2104번지","indutype":"일반휴게음식 - 스넥","category":"restaurant"},{"name":"파곱창","tel":"031-921-4014","addr":"경기도 고양시 일산서구 일산동 2104번지","indutype":"일반휴게음식 - 일반한식","category":"restaurant"}]},{"lat":"37.683407319","long":"126.76904236","imageIndex":4,"items":[{"name":"깨비레스토랑","tel":"031-976-1852","addr":"경기도 고양시 일산서구 일산동 655-11번지","indutype":"일반휴게음식 - 서양음식","category":"restaurant"},{"name":"우리들아지트","tel":"031-969-7251","addr":"경기도 고양시 일산서구 일산동 655-11번지","indutype":"일반휴게음식 - 일반한식","category":"restaurant"}]},{"lat":"37.68277044","long":"126.77046141","imageIndex":4,"items":[{"name":"꼬꼬맛나치킨","tel":"031-911-2747","addr":"경기도 고양시 일산서구 일산동 655-395번지","indutype":"일반휴게음식 - 일반한식","category":"restaurant"},{"name":"애술","tel":"031-975-9018","addr":"경기도 고양시 일산서구 일산동 655-395번지","indutype":"일반휴게음식 - 일반한식","category":"restaurant"},{"name":"행복뷔페","tel":"070-5121-6771","addr":"경기도 고양시 일산서구 일산동 655-395번지","indutype":"일반휴게음식 - 일반한식","category":"restaurant"}]},{"lat":"37.68568151","long":"126.77557661","imageIndex":4,"items":[{"name":"꼬치먹고맴맴","tel":"031-972-3316","addr":"경기도 고양시 일산서구 일산동 576-12번지","indutype":"일반휴게음식 - 일반한식","category":"restaurant"}]},{"lat":"37.689179786","long":"126.76320813","imageIndex":4,"items":[{"name":"꼰대꽈배기","tel":"031-921-2211","addr":"경기도 고양시 일산서구 일산동 2103번지","indutype":"일반휴게음식 - 스넥","category":"restaurant"},{"name":"봉구스밥버거","tel":"031-911-0109","addr":"경기도 고양시 일산서구 일산동 2103번지","indutype":"일반휴게음식 - 스넥","category":"restaurant"}]},{"lat":"37.684769469","long":"126.76989967","imageIndex":4,"items":[{"name":"나눔도너츠","tel":"031-975-1676","addr":"경기도 고양시 일산서구 일산동","indutype":"일반휴게음식 - 스넥","category":"restaurant"},{"name":"엔젤카페","tel":"031-975-6240","addr":"경기도 고양시 일산서구 일산동","indutype":"일반휴게음식 - 서양음식","category":"restaurant"}]},{"lat":"37.687431914","long":"126.7676806","imageIndex":4,"items":[{"name":"나는 지금 배고프다","tel":"070-8879-7770","addr":"경기도 고양시 일산서구 일산동 963-40번지","indutype":"일반휴게음식 - 스넥","category":"restaurant"},{"name":"투존치킨일산점","tel":"031-976-1997","addr":"경기도 고양시 일산서구 일산동 963-40번지","indutype":"일반휴게음식 - 스넥","category":"restaurant"}]},{"lat":"37.685459872","long":"126.77278842","imageIndex":4,"items":[{"name":"나리카페","tel":"031-111-1111","addr":"경기도 고양시 일산서구 일산동 640-30번지","indutype":"일반휴게음식 - 서양음식","category":"restaurant"}]},{"lat":"37.67717974","long":"126.7680757","imageIndex":4,"items":[{"name":"낭만수제쌀핫도그 (후곡마을점)","tel":"031-925-2254","addr":"경기도 고양시 일산서구 일산동 1084-4번지","indutype":"일반휴게음식 - 일반한식","category":"restaurant"},{"name":"신참떡볶이 일산후곡점","tel":"031-914-8988","addr":"경기도 고양시 일산서구 일산동 1084-4번지","indutype":"일반휴게음식 - 스넥","category":"restaurant"},{"name":"아마스빈 후곡마을점","tel":"031-912-3537","addr":"경기도 고양시 일산서구 일산동 1084-4번지","indutype":"일반휴게음식 - 일반한식","category":"restaurant"},{"name":"옛날통닭","tel":"031-000-0000","addr":"경기도 고양시 일산서구 일산동 1084-4번지","indutype":"일반휴게음식 - 주점","category":"restaurant"}]},{"lat":"37.683626908","long":"126.77074216","imageIndex":4,"items":[{"name":"내가네먹거리","tel":"031-977-1355","addr":"경기도 고양시 일산서구 일산동 627-17번지","indutype":"일반휴게음식 - 일반한식","category":"restaurant"}]},{"lat":"37.692209718","long":"126.77362924","imageIndex":4,"items":[{"name":"노가리와생맥주","tel":"031-923-6360","addr":"경기도 고양시 일산서구 일산동 1690번지","indutype":"일반휴게음식 - 주점","category":"restaurant"},{"name":"동해회수산","tel":"031-911-4552","addr":"경기도 고양시 일산서구 일산동 1690번지","indutype":"일반휴게음식 - 일반한식","category":"restaurant"},{"name":"몽골게르","tel":"070-5121-6771","addr":"경기도 고양시 일산서구 일산동 1690번지","indutype":"일반휴게음식 - 서양음식","category":"restaurant"},{"name":"벙개막창","tel":"","addr":"경기도 고양시 일산서구 일산동 1690번지","indutype":"일반휴게음식 - 일반한식","category":"restaurant"},{"name":"장수식품","tel":"031-911-5879","addr":"경기도 고양시 일산서구 일산동 1690번지","indutype":"일반휴게음식 - 일반한식","category":"restaurant"},{"name":"쪼끼쪼끼","tel":"02-930-8898","addr":"경기도 고양시 일산서구 일산동 1690번지","indutype":"일반휴게음식 - 일반한식","category":"restaurant"},{"name":"힐링포차","tel":"031-911-0914","addr":"경기도 고양시 일산서구 일산동 1690번지","indutype":"일반휴게음식 - 일반한식","category":"restaurant"}]},{"lat":"37.679290309","long":"126.76473629","imageIndex":4,"items":[{"name":"녹용뼈해장국","tel":"031-914-7330","addr":"경기도 고양시 일산서구 일산동 1065-4번지","indutype":"일반휴게음식 - 일반한식","category":"restaurant"}]},{"lat":"37.674350349","long":"126.77246","imageIndex":4,"items":[{"name":"놀부공유주방흥부찜닭삼겹본능공수간 일산","tel":"031-921-6611","addr":"경기도 고양시 일산서구 일산동 1090번지","indutype":"일반휴게음식 - 일반한식","category":"restaurant"},{"name":"디엠지황기족발/농업회사법인토탈애그로시","tel":"031-919-0727","addr":"경기도 고양시 일산서구 일산동 1090번지","indutype":"일반휴게음식 - 일반한식","category":"restaurant"}]},{"lat":"37.684625227","long":"126.76985478","imageIndex":4,"items":[{"name":"놀부카페","tel":"032-678-1119","addr":"경기도 고양시 일산서구 일산동 624-3번지","indutype":"일반휴게음식 - 일반한식","category":"restaurant"},{"name":"대한소주협회","tel":"031-904-1800","addr":"경기도 고양시 일산서구 일산동 624-3번지","indutype":"일반휴게음식 - 일반한식","category":"restaurant"}]},{"lat":"37.68820777","long":"126.77276859","imageIndex":4,"items":[{"name":"누리미떡볶이","tel":"031-979-4201","addr":"경기도 고양시 일산서구 일산동 584-31번지","indutype":"일반휴게음식 - 일반한식","category":"restaurant"}]},{"lat":"37.681351594","long":"126.77284645","imageIndex":4,"items":[{"name":"늘봄 화로구이","tel":"031-975-7374","addr":"경기도 고양시 일산서구 일산동 655-93번지","indutype":"일반휴게음식 - 일반한식","category":"restaurant"}]},{"lat":"37.679770009","long":"126.76582301","imageIndex":4,"items":[{"name":"다저스치킨","tel":"031-922-8254","addr":"경기도 고양시 일산서구 일산동","indutype":"일반휴게음식 - 주점","category":"restaurant"},{"name":"보밀골","tel":"031-912-1929","addr":"경기도 고양시 일산서구 일산동 1066번지","indutype":"일반휴게음식 - 일반한식","category":"restaurant"}]},{"lat":"37.685460093","long":"126.77290179","imageIndex":4,"items":[{"name":"단골식당","tel":"070-8288-2455","addr":"경기도 고양시 일산서구 일산동 640-29번지","indutype":"일반휴게음식 - 일반한식","category":"restaurant"}]},{"lat":"37.684626479","long":"126.77048963","imageIndex":4,"items":[{"name":"달무리식당","tel":"031-976-3443","addr":"경기도 고양시 일산서구 일산동 617-114번지","indutype":"일반휴게음식 - 일반한식","category":"restaurant"}]},{"lat":"37.677457704","long":"126.76740602","imageIndex":4,"items":[{"name":"달빛정원","tel":"031-919-7481","addr":"경기도 고양시 일산서구 일산동 1084번지","indutype":"일반휴게음식 - 서양음식","category":"restaurant"},{"name":"울타리김밥","tel":"031-911-7996","addr":"경기도 고양시 일산서구 일산동 1084번지","indutype":"일반휴게음식 - 일반한식","category":"restaurant"},{"name":"유가네닭갈비 일산후곡점","tel":"031-111-1111","addr":"경기도 고양시 일산서구 일산동 1084번지","indutype":"일반휴게음식 - 일반한식","category":"restaurant"},{"name":"쪼끼쪼끼후곡1호점","tel":"031-917-2555","addr":"경기도 고양시 일산서구 일산동 1084번지","indutype":"일반휴게음식 - 주점","category":"restaurant"}]},{"lat":"37.682262828","long":"126.76440937","imageIndex":4,"items":[{"name":"달콤팩토리","tel":"031-919-9903","addr":"경기도 고양시 일산서구 일산동 1046번지","indutype":"일반휴게음식 - 스넥","category":"restaurant"},{"name":"행복분식","tel":"031-111-1111","addr":"경기도 고양시 일산서구 일산동 1046번지","indutype":"일반휴게음식 - 스넥","category":"restaurant"}]},{"lat":"37.676874676","long":"126.76871146","imageIndex":4,"items":[{"name":"담양옥","tel":"031-922-1552","addr":"경기도 고양시 일산서구 일산동 1083-1번지","indutype":"일반휴게음식 - 일반한식","category":"restaurant"}]},{"lat":"37.684266176","long":"126.77515014","imageIndex":4,"items":[{"name":"대구반야월막창","tel":"031-976-7702","addr":"경기도 고양시 일산서구 일산동 542-21번지","indutype":"일반휴게음식 - 일반한식","category":"restaurant"}]},{"lat":"37.685373345","long":"126.77462526","imageIndex":4,"items":[{"name":"대박갈비","tel":"031-975-2216","addr":"경기도 고양시 일산서구 일산동 553-58번지","indutype":"일반휴게음식 - 일반한식","category":"restaurant"}]},{"lat":"37.686040826","long":"126.77040586","imageIndex":4,"items":[{"name":"더 사보르(The sabor)","tel":"031-811-6908","addr":"경기도 고양시 일산서구 일산동 615-4번지","indutype":"일반휴게음식 - 서양음식","category":"restaurant"},{"name":"솔까페","tel":"031-977-5317","addr":"경기도 고양시 일산서구 일산동 615-4번지","indutype":"일반휴게음식 - 일반한식","category":"restaurant"},{"name":"충칭마라탕","tel":"031-976-1991","addr":"경기도 고양시 일산서구 일산동 615-4번지","indutype":"일반휴게음식 - 중국식","category":"restaurant"}]},{"lat":"37.676130333","long":"126.77045946","imageIndex":4,"items":[{"name":"데니스커피 (Denny's Coffee)","tel":"031-1111-1111","addr":"경기도 고양시 일산서구 일산동 1088-4번지","indutype":"일반휴게음식 - 서양음식","category":"restaurant"},{"name":"한우돌구이소곱창","tel":"031-922-4754","addr":"경기도 고양시 일산서구 일산동 1088-4번지","indutype":"일반휴게음식 - 일반한식","category":"restaurant"}]},{"lat":"37.684653697","long":"126.77520564","imageIndex":4,"items":[{"name":"도야지생구이촌","tel":"031-975-5055","addr":"경기도 고양시 일산서구 일산동 542-8번지","indutype":"일반휴게음식 - 일반한식","category":"restaurant"}]},{"lat":"37.682630268","long":"126.77715035","imageIndex":4,"items":[{"name":"도킹라이브","tel":"031-977-9906","addr":"경기도 고양시 일산서구 일산동 1673-6번지","indutype":"일반휴게음식 - 일반한식","category":"restaurant"}]},{"lat":"37.684573782","long":"126.77118134","imageIndex":4,"items":[{"name":"돈이랑 멸치랑","tel":"031-977-4343","addr":"경기도 고양시 일산서구 일산동 636-7번지","indutype":"일반휴게음식 - 일반한식","category":"restaurant"},{"name":"돈이랑멸치랑","tel":"031-977-4343","addr":"경기도 고양시 일산서구 일산동 636-7번지","indutype":"일반휴게음식 - 일반한식","category":"restaurant"}]},{"lat":"37.683154601","long":"126.76881642","imageIndex":4,"items":[{"name":"돌돌이네","tel":"031-977-9555","addr":"경기도 고양시 일산서구 일산동 655-20번지","indutype":"일반휴게음식 - 스넥","category":"restaurant"}]},{"lat":"37.683235754","long":"126.76885017","imageIndex":4,"items":[{"name":"돌돌이휴게소음식점","tel":"031-977-9555","addr":"경기도 고양시 일산서구 일산동 655-77번지","indutype":"일반휴게음식 - 일반한식","category":"restaurant"}]},{"lat":"37.688683203","long":"126.77634973","imageIndex":4,"items":[{"name":"돌솥부대찌게","tel":"031-975-0082","addr":"경기도 고양시 일산서구 일산동","indutype":"일반휴게음식 - 일반한식","category":"restaurant"}]},{"lat":"37.685626542","long":"126.77048651","imageIndex":4,"items":[{"name":"동남","tel":"031-977-1269","addr":"경기도 고양시 일산서구 일산동 617-86번지","indutype":"일반휴게음식 - 서양음식","category":"restaurant"}]},{"lat":"37.685876856","long":"126.76498732","imageIndex":4,"items":[{"name":"동문분식","tel":"031-921-3322","addr":"경기도 고양시 일산서구 일산동 957-3번지","indutype":"일반휴게음식 - 스넥","category":"restaurant"},{"name":"우리동네 찹쌀꽈배기","tel":"","addr":"경기도 고양시 일산서구 일산동 957-3번지","indutype":"일반휴게음식 - 서양음식","category":"restaurant"},{"name":"윤이네식당","tel":"031-915-5454","addr":"경기도 고양시 일산서구 일산동 957-3번지","indutype":"일반휴게음식 - 일반한식","category":"restaurant"},{"name":"피자이탈리 일산직영점","tel":"031-925-7727","addr":"경기도 고양시 일산서구 일산동 957-3번지","indutype":"일반휴게음식 - 서양음식","category":"restaurant"}]},{"lat":"37.685236002","long":"126.77349199","imageIndex":4,"items":[{"name":"동북식당","tel":"031-976-9293","addr":"경기도 고양시 일산서구 일산동 640-2번지","indutype":"일반휴게음식 - 중국식","category":"restaurant"}]},{"lat":"37.683734956","long":"126.77070781","imageIndex":4,"items":[{"name":"동아카페","tel":"031-975-2878","addr":"경기도 고양시 일산서구 일산동 627-68번지","indutype":"일반휴게음식 - 서양음식","category":"restaurant"},{"name":"참마루","tel":"031-977-4747","addr":"경기도 고양시 일산서구 일산동 627-68번지","indutype":"일반휴게음식 - 일반한식","category":"restaurant"}]},{"lat":"37.684735353","long":"126.77087474","imageIndex":4,"items":[{"name":"두메산골","tel":"031-975-7278","addr":"경기도 고양시 일산서구 일산동 635-7번지","indutype":"일반휴게음식 - 일반한식","category":"restaurant"}]},{"lat":"37.683265855","long":"126.77040318","imageIndex":4,"items":[{"name":"등대","tel":"031-977-3214","addr":"경기도 고양시 일산서구 일산동 655-219번지","indutype":"일반휴게음식 - 주점","category":"restaurant"}]},{"lat":"37.683491318","long":"126.77051585","imageIndex":4,"items":[{"name":"디바인","tel":"031-913-3129","addr":"경기도 고양시 일산서구 일산동 628-10번지","indutype":"일반휴게음식 - 서양음식","category":"restaurant"}]},{"lat":"37.69006779","long":"126.77023456","imageIndex":4,"items":[{"name":"디오니스","tel":"031-911-9290","addr":"경기도 고양시 일산서구 일산동 2012번지","indutype":"일반휴게음식 - 주점","category":"restaurant"}]},{"lat":"37.686959739","long":"126.76584548","imageIndex":4,"items":[{"name":"디저트판다","tel":"","addr":"경기도 고양시 일산서구 일산동 960-22번지","indutype":"일반휴게음식 - 서양음식","category":"restaurant"}]},{"lat":"37.676408311","long":"126.76978979","imageIndex":4,"items":[{"name":"따띠삼겹","tel":"031-1111-1111","addr":"경기도 고양시 일산서구 일산동 1088번지","indutype":"일반휴게음식 - 일반한식","category":"restaurant"}]},{"lat":"37.685214452","long":"126.77632627","imageIndex":4,"items":[{"name":"딱좋아!","tel":"031-1111-1111","addr":"경기도 고양시 일산서구 일산동 577-7번지","indutype":"일반휴게음식 - 주점","category":"restaurant"}]},{"lat":"37.690070533","long":"126.77162908","imageIndex":4,"items":[{"name":"또래오래","tel":"031-915-7892","addr":"경기도 고양시 일산서구 일산동 1987번지","indutype":"일반휴게음식 - 스넥","category":"restaurant"}]},{"lat":"37.691067745","long":"126.77478921","imageIndex":4,"items":[{"name":"로드노천까페","tel":"","addr":"경기도 고양시 일산서구 일산동 1851번지","indutype":"일반휴게음식 - 서양음식","category":"restaurant"}]},{"lat":"37.677989947","long":"126.76774441","imageIndex":4,"items":[{"name":"롯데리아","tel":"031-921-2200","addr":"경기도 고양시 일산서구 일산동 1079번지","indutype":"일반휴게음식 - 서양음식","category":"restaurant"}]},{"lat":"37.685575046","long":"126.77179041","imageIndex":4,"items":[{"name":"마라구이","tel":"","addr":"경기도 고양시 일산서구 일산동 637-23번지","indutype":"일반휴게음식 - 중국식","category":"restaurant"},{"name":"옛날칼국수","tel":"031-975-0277","addr":"경기도 고양시 일산서구 일산동 637-23번지","indutype":"일반휴게음식 - 일반한식","category":"restaurant"}]},{"lat":"37.687456877","long":"126.77582061","imageIndex":4,"items":[{"name":"마리커피1986","tel":"031-000-0000","addr":"경기도 고양시 일산서구 일산동 583-2번지","indutype":"일반휴게음식 - 서양음식","category":"restaurant"}]},{"lat":"37.679820988","long":"126.75988278","imageIndex":4,"items":[{"name":"마마스테이블","tel":"","addr":"경기도 고양시 일산서구 일산동 1055번지","indutype":"일반휴게음식 - 서양음식","category":"restaurant"},{"name":"빵굽는 부엌","tel":"","addr":"경기도 고양시 일산서구 일산동 1055번지","indutype":"일반휴게음식 - 서양음식","category":"restaurant"}]},{"lat":"37.686489715","long":"126.76959953","imageIndex":4,"items":[{"name":"만두","tel":"031-976-6665","addr":"경기도 고양시 일산서구 일산동 610번지","indutype":"일반휴게음식 - 일반한식","category":"restaurant"},{"name":"장미통닭","tel":"031-976-5554","addr":"경기도 고양시 일산서구 일산동 610번지","indutype":"일반휴게음식 - 서양음식","category":"restaurant"}]},{"lat":"37.677182664","long":"126.76954932","imageIndex":4,"items":[{"name":"맘스터치 일산후곡점","tel":"031-917-8843","addr":"경기도 고양시 일산서구 일산동 1081-1번지","indutype":"일반휴게음식 - 서양음식","category":"restaurant"}]},{"lat":"37.685990971","long":"126.77720819","imageIndex":4,"items":[{"name":"맛있는소풍","tel":"031-976-0818","addr":"경기도 고양시 일산서구 일산동 572-28번지","indutype":"일반휴게음식 - 일반한식","category":"restaurant"}]},{"lat":"37.686960468","long":"126.76620826","imageIndex":4,"items":[{"name":"맛조아","tel":"031-975-2688","addr":"경기도 고양시 일산서구 일산동 960-19번지","indutype":"일반휴게음식 - 스넥","category":"restaurant"}]},{"lat":"37.678211056","long":"126.76568061","imageIndex":4,"items":[{"name":"맥주집","tel":"070-7650-0788","addr":"경기도 고양시 일산서구 일산동 1061-5번지","indutype":"일반휴게음식 - 주점","category":"restaurant"},{"name":"빽다방 일산후곡9단지지점","tel":"031-922-5999","addr":"경기도 고양시 일산서구 일산동 1061-5번지","indutype":"일반휴게음식 - 서양음식","category":"restaurant"}]},{"lat":"37.683545847","long":"126.77537907","imageIndex":4,"items":[{"name":"머꼬또머꼬","tel":"031-922-6822","addr":"경기도 고양시 일산서구 일산동 1681-1번지","indutype":"일반휴게음식 - 일반한식","category":"restaurant"},{"name":"커피에반하다 산들마을점","tel":"031-977-8462","addr":"경기도 고양시 일산서구 일산동 1681-1번지","indutype":"일반휴게음식 - 서양음식","category":"restaurant"}]},{"lat":"37.686239416","long":"126.77059797","imageIndex":4,"items":[{"name":"먹고마시고","tel":"031-908-1388","addr":"경기도 고양시 일산서구 일산동","indutype":"일반휴게음식 - 일반한식","category":"restaurant"},{"name":"유진","tel":"031-975-8890","addr":"경기도 고양시 일산서구 일산동","indutype":"일반휴게음식 - 일반한식","category":"restaurant"}]},{"lat":"37.684573248","long":"126.77090926","imageIndex":4,"items":[{"name":"먹쇠보신탕","tel":"301-975-6681","addr":"경기도 고양시 일산서구 일산동 635-4번지","indutype":"일반휴게음식 - 일반한식","category":"restaurant"}]},{"lat":"37.680930371","long":"126.77399271","imageIndex":4,"items":[{"name":"먹태와골뱅이","tel":"031-977-3393","addr":"경기도 고양시 일산서구 일산동 524-23번지","indutype":"일반휴게음식 - 스넥","category":"restaurant"},{"name":"장군집","tel":"031-976-4884","addr":"경기도 고양시 일산서구 일산동 524-23번지","indutype":"일반휴게음식 - 일반한식","category":"restaurant"}]},{"lat":"37.692073382","long":"126.77301742","imageIndex":4,"items":[{"name":"멍석숯불갈비","tel":"031-914-1174","addr":"경기도 고양시 일산서구 일산동 2042번지","indutype":"일반휴게음식 - 일반한식","category":"restaurant"},{"name":"상남자곱창","tel":"","addr":"경기도 고양시 일산서구 일산동 2042번지","indutype":"일반휴게음식 - 일반한식","category":"restaurant"}]},{"lat":"37.676946978","long":"126.76882459","imageIndex":4,"items":[{"name":"메가커피 후곡점","tel":"","addr":"경기도 고양시 일산서구 일산동 1083-1번지","indutype":"일반휴게음식 - 서양음식","category":"restaurant"},{"name":"바푸리일산후곡점","tel":"031-921-7177","addr":"경기도 고양시 일산서구 일산동 1083-1번지","indutype":"일반휴게음식 - 일반한식","category":"restaurant"},{"name":"오마뎅 일산후곡점","tel":"031-921-7547","addr":"경기도 고양시 일산서구 일산동 1083-1번지","indutype":"일반휴게음식 - 일반한식","category":"restaurant"},{"name":"해리손팥칼국수","tel":"031-913-8797","addr":"경기도 고양시 일산서구 일산동 1083-1번지","indutype":"일반휴게음식 - 일반한식","category":"restaurant"}]},{"lat":"37.686712864","long":"126.76854448","imageIndex":4,"items":[{"name":"명륜진사갈비 일산역점","tel":"031-977-9293","addr":"경기도 고양시 일산서구 일산동 962-6번지","indutype":"일반휴게음식 - 일반한식","category":"restaurant"}]},{"lat":"37.687602711","long":"126.77204488","imageIndex":4,"items":[{"name":"명품청기와감자탕 (일산점)","tel":"031-975-1977","addr":"경기도 고양시 일산서구 일산동 589-1번지","indutype":"일반휴게음식 - 일반한식","category":"restaurant"}]},{"lat":"37.686067784","long":"126.77498591","imageIndex":4,"items":[{"name":"모젤호프","tel":"031-977-6107","addr":"경기도 고양시 일산서구 일산동 579-3번지","indutype":"일반휴게음식 - 주점","category":"restaurant"},{"name":"일산돈가스","tel":"031-975-1123","addr":"경기도 고양시 일산서구 일산동 579-3번지","indutype":"일반휴게음식 - 일반한식","category":"restaurant"},{"name":"정수산","tel":"031-975-9926","addr":"경기도 고양시 일산서구 일산동 579-3번지","indutype":"일반휴게음식 - 일식·회집","category":"restaurant"}]},{"lat":"37.691874243","long":"126.77254184","imageIndex":4,"items":[{"name":"목포뻘낙지","tel":"031-911-1078","addr":"경기도 고양시 일산서구 일산동 2043번지","indutype":"일반휴게음식 - 일반한식","category":"restaurant"}]},{"lat":"37.684544722","long":"126.77014978","imageIndex":4,"items":[{"name":"문산순대국","tel":"031-975-4791","addr":"경기도 고양시 일산서구 일산동 627-2번지","indutype":"일반휴게음식 - 일반한식","category":"restaurant"}]},{"lat":"37.678684426","long":"126.77268465","imageIndex":4,"items":[{"name":"문하우스","tel":"00-000-0000","addr":"경기도 고양시 일산서구 일산동 1103번지 후곡마을11단지아파트","indutype":"일반휴게음식 - 일반한식","category":"restaurant"}]},{"lat":"37.686570936","long":"126.76515516","imageIndex":4,"items":[{"name":"물댄동산","tel":"031-975-3764","addr":"경기도 고양시 일산서구 일산동 960-16번지","indutype":"일반휴게음식 - 서양음식","category":"restaurant"}]},{"lat":"37.685379273","long":"126.77303808","imageIndex":4,"items":[{"name":"미경카페","tel":"031-906-4083","addr":"경기도 고양시 일산서구 일산동 640-28번지","indutype":"일반휴게음식 - 일반한식","category":"restaurant"}]},{"lat":"37.685206986","long":"126.77713121","imageIndex":4,"items":[{"name":"미당추어탕","tel":"031-975-8252","addr":"경기도 고양시 일산서구 일산동 555-1번지","indutype":"일반휴게음식 - 일반한식","category":"restaurant"},{"name":"본죽","tel":"031-976-7688","addr":"경기도 고양시 일산서구 일산동 555-1번지","indutype":"일반휴게음식 - 일반한식","category":"restaurant"},{"name":"에이스분식","tel":"031-111-1111","addr":"경기도 고양시 일산서구 일산동 555-1번지","indutype":"일반휴게음식 - 스넥","category":"restaurant"},{"name":"올떡볶이","tel":"031-975-8248","addr":"경기도 고양시 일산서구 일산동 555-1번지","indutype":"일반휴게음식 - 스넥","category":"restaurant"},{"name":"왕세숫대야냉면","tel":"031-975-3999","addr":"경기도 고양시 일산서구 일산동 555-1번지","indutype":"일반휴게음식 - 일반한식","category":"restaurant"},{"name":"좋은음식갑","tel":"031-975-8247","addr":"경기도 고양시 일산서구 일산동 555-1번지","indutype":"일반휴게음식 - 일반한식","category":"restaurant"},{"name":"최가본짜장","tel":"031-976-6855","addr":"경기도 고양시 일산서구 일산동 555-1번지","indutype":"일반휴게음식 - 중국식","category":"restaurant"},{"name":"커피베이","tel":"031-977-3885","addr":"경기도 고양시 일산서구 일산동 555-1번지","indutype":"일반휴게음식 - 서양음식","category":"restaurant"},{"name":"황소곱창","tel":"031-975-1993","addr":"경기도 고양시 일산서구 일산동 555-1번지","indutype":"일반휴게음식 - 일반한식","category":"restaurant"}]},{"lat":"37.684680872","long":"126.77065951","imageIndex":4,"items":[{"name":"미봉우동","tel":"031-977-8282","addr":"경기도 고양시 일산서구 일산동 617-104번지","indutype":"일반휴게음식 - 스넥","category":"restaurant"},{"name":"형제족발","tel":"031-977-2888","addr":"경기도 고양시 일산서구 일산동 617-104번지","indutype":"일반휴게음식 - 일반한식","category":"restaurant"}]},{"lat":"37.67899132","long":"126.76390972","imageIndex":4,"items":[{"name":"미소야","tel":"031-924-7560","addr":"경기도 고양시 일산서구 일산동 1059-1번지","indutype":"일반휴게음식 - 일반한식","category":"restaurant"}]},{"lat":"37.677263414","long":"126.76937904","imageIndex":4,"items":[{"name":"미스사이공 후곡마을점","tel":"031-911-0523","addr":"경기도 고양시 일산서구 일산동 1081번지","indutype":"일반휴게음식 - 일반한식","category":"restaurant"}]},{"lat":"37.683656839","long":"126.77687516","imageIndex":4,"items":[{"name":"미스터보쌈5370탄현중산점","tel":"031-976-5379","addr":"경기도 고양시 일산서구 일산동 1686번지 산들마을6단지","indutype":"일반휴게음식 - 일반한식","category":"restaurant"},{"name":"정 국밥","tel":"070-2363-6160","addr":"경기도 고양시 일산서구 일산동 1686번지 산들마을6단지","indutype":"일반휴게음식 - 일반한식","category":"restaurant"},{"name":"카페로스터","tel":"070-7799-0779","addr":"경기도 고양시 일산서구 일산동 1686번지 산들마을6단지","indutype":"일반휴게음식 - 서양음식","category":"restaurant"},{"name":"황주집","tel":"031-975-3237","addr":"경기도 고양시 일산서구 일산동","indutype":"일반휴게음식 - 일반한식","category":"restaurant"}]},{"lat":"37.67193695","long":"126.77306821","imageIndex":4,"items":[{"name":"미인","tel":"031-971-9764","addr":"경기도 고양시 일산서구 일산동","indutype":"일반휴게음식 - 칵테일바","category":"restaurant"}]},{"lat":"37.677932715","long":"126.76615759","imageIndex":4,"items":[{"name":"바이젠비어","tel":"031-921-6800","addr":"경기도 고양시 일산서구 일산동 1062-1번지","indutype":"일반휴게음식 - 일반한식","category":"restaurant"},{"name":"소문난일산막창","tel":"031-912-9299","addr":"경기도 고양시 일산서구 일산동 1062-1번지","indutype":"일반휴게음식 - 일반한식","category":"restaurant"},{"name":"쥬씨차얌(일산후곡점)","tel":"031-921-5001","addr":"경기도 고양시 일산서구 일산동 1062-1번지","indutype":"일반휴게음식 - 서양음식","category":"restaurant"},{"name":"피오라(Piora)","tel":"031-923-1336","addr":"경기도 고양시 일산서구 일산동 1062-1번지","indutype":"일반휴게음식 - 서양음식","category":"restaurant"}]},{"lat":"37.684824086","long":"126.77018292","imageIndex":4,"items":[{"name":"밤비노","tel":"031-975-3430","addr":"경기도 고양시 일산서구 일산동 617-42번지","indutype":"일반휴게음식 - 서양음식","category":"restaurant"}]},{"lat":"37.675801977","long":"126.77301095","imageIndex":4,"items":[{"name":"베테랑(Veteran)","tel":"","addr":"경기도 고양시 일산서구 일산동 1093번지 후곡마을13단지아파트","indutype":"일반휴게음식 - 일반한식","category":"restaurant"}]},{"lat":"37.684682495","long":"126.77612382","imageIndex":4,"items":[{"name":"별별수산","tel":"031-976-8876","addr":"경기도 고양시 일산서구 일산동 1680-3번지","indutype":"일반휴게음식 - 일반한식","category":"restaurant"}]},{"lat":"37.683852147","long":"126.77074145","imageIndex":4,"items":[{"name":"보리밥 사잇길","tel":"031-975-6610","addr":"경기도 고양시 일산서구 일산동 627-67번지","indutype":"일반휴게음식 - 일반한식","category":"restaurant"},{"name":"신라카페","tel":"031-976-0162","addr":"경기도 고양시 일산서구 일산동 627-67번지","indutype":"일반휴게음식 - 일반한식","category":"restaurant"}]},{"lat":"37.679547265","long":"126.7626043","imageIndex":4,"items":[{"name":"본가짜장","tel":"031-917-2285","addr":"경기도 고양시 일산서구 일산동 1054-1번지","indutype":"일반휴게음식 - 중국식","category":"restaurant"},{"name":"뽕잎사랑 일산후곡점","tel":"031-918-0281","addr":"경기도 고양시 일산서구 일산동 1054-1번지","indutype":"일반휴게음식 - 일반한식","category":"restaurant"},{"name":"샐러드트리","tel":"031-918-0553","addr":"경기도 고양시 일산서구 일산동 1054-1번지","indutype":"일반휴게음식 - 일반한식","category":"restaurant"},{"name":"통큰만두","tel":"031-911-3740","addr":"경기도 고양시 일산서구 일산동 1054-1번지","indutype":"일반휴게음식 - 스넥","category":"restaurant"}]},{"lat":"37.686150903","long":"126.77140317","imageIndex":4,"items":[{"name":"본일산오리구이","tel":"031-976-4204","addr":"경기도 고양시 일산서구 일산동 594-38번지","indutype":"일반휴게음식 - 일반한식","category":"restaurant"}]},{"lat":"37.677658843","long":"126.76437876","imageIndex":4,"items":[{"name":"봉이바지락손칼국수","tel":"031-913-3430","addr":"경기도 고양시 일산서구 일산동 1058번지","indutype":"일반휴게음식 - 일반한식","category":"restaurant"},{"name":"봉이바지락손칼국수","tel":"031-913-3430","addr":"경기도 고양시 일산서구 일산동 1058번지","indutype":"일반휴게음식 - 일반한식","category":"restaurant"},{"name":"양자강","tel":"031-915-2255","addr":"경기도 고양시 일산서구 일산동 1058번지 후곡마을9단지아파트","indutype":"일반휴게음식 - 중국식","category":"restaurant"}]},{"lat":"37.68581886","long":"126.77207308","imageIndex":4,"items":[{"name":"북경","tel":"031-975-8151","addr":"경기도 고양시 일산서구 일산동 592-25번지","indutype":"일반휴게음식 - 중국식","category":"restaurant"},{"name":"북경마라쌍궈","tel":"031-975-8151","addr":"경기도 고양시 일산서구 일산동 592-25번지","indutype":"일반휴게음식 - 중국식","category":"restaurant"}]},{"lat":"37.684178829","long":"126.77193079","imageIndex":4,"items":[{"name":"분식과 커피향이 만났을때","tel":"","addr":"경기도 고양시 일산서구 일산동 633번지","indutype":"일반휴게음식 - 스넥","category":"restaurant"}]},{"lat":"37.676964434","long":"126.76854114","imageIndex":4,"items":[{"name":"불닭발동대문엽기떡볶이","tel":"031-921-8592","addr":"경기도 고양시 일산서구 일산동 1083번지","indutype":"일반휴게음식 - 일반한식","category":"restaurant"},{"name":"커피베이 일산후곡점","tel":"031-911-0302","addr":"경기도 고양시 일산서구 일산동 1083번지","indutype":"일반휴게음식 - 서양음식","category":"restaurant"}]},{"lat":"37.679628051","long":"126.76245667","imageIndex":4,"items":[{"name":"붉은못 허브팜","tel":"031-911-0856","addr":"경기도 고양시 일산서구 일산동 1054번지","indutype":"일반휴게음식 - 일반한식","category":"restaurant"},{"name":"제주횟집","tel":"031-815-5060","addr":"경기도 고양시 일산서구 일산동 1054번지","indutype":"일반휴게음식 - 일반한식","category":"restaurant"},{"name":"킹부대찌개테이크아웃 후곡점","tel":"031-919-1258","addr":"경기도 고양시 일산서구 일산동 1054번지","indutype":"일반휴게음식 - 일반한식","category":"restaurant"}]},{"lat":"37.685797124","long":"126.77479401","imageIndex":4,"items":[{"name":"비28(B28)","tel":"","addr":"경기도 고양시 일산서구 일산동 553-35번지","indutype":"일반휴게음식 - 서양음식","category":"restaurant"}]},{"lat":"37.682409173","long":"126.774623","imageIndex":4,"items":[{"name":"비어밸리","tel":"031-975-1116","addr":"경기도 고양시 일산서구 일산동 543-5번지","indutype":"일반휴게음식 - 주점","category":"restaurant"},{"name":"어선 생선구이","tel":"031-975-8592","addr":"경기도 고양시 일산서구 일산동 543-5번지","indutype":"일반휴게음식 - 일반한식","category":"restaurant"}]},{"lat":"37.686211023","long":"126.7699065","imageIndex":4,"items":[{"name":"빛과그림자","tel":"031-975-1254","addr":"경기도 고양시 일산서구 일산동 610-7번지","indutype":"일반휴게음식 - 서양음식","category":"restaurant"}]},{"lat":"37.684491269","long":"126.77045604","imageIndex":4,"items":[{"name":"삼정닭발","tel":"031-975-3867","addr":"경기도 고양시 일산서구 일산동 617-108번지","indutype":"일반휴게음식 - 일반한식","category":"restaurant"},{"name":"삼정포크린스","tel":"031-975-3867","addr":"경기도 고양시 일산서구 일산동 617-108번지","indutype":"일반휴게음식 - 일반한식","category":"restaurant"},{"name":"시장보신탕삼계탕","tel":"031-977-1117","addr":"경기도 고양시 일산서구 일산동 617-108번지","indutype":"일반휴게음식 - 일반한식","category":"restaurant"}]},{"lat":"37.687459228","long":"126.77704502","imageIndex":4,"items":[{"name":"샤방라이브","tel":"031-975-7072","addr":"경기도 고양시 일산서구 일산동 573번지","indutype":"일반휴게음식 - 주점","category":"restaurant"}]},{"lat":"37.678040489","long":"126.76598721","imageIndex":4,"items":[{"name":"서초우동","tel":"031-902-3046","addr":"경기도 고양시 일산서구 일산동 1062번지","indutype":"일반휴게음식 - 스넥","category":"restaurant"},{"name":"오빠네옛날떡볶이","tel":"031-938-0620","addr":"경기도 고양시 일산서구 일산동 1062번지","indutype":"일반휴게음식 - 스넥","category":"restaurant"},{"name":"왕세숫대야냉면과설렁탕","tel":"031-912-3595","addr":"경기도 고양시 일산서구 일산동 1062번지","indutype":"일반휴게음식 - 일반한식","category":"restaurant"},{"name":"정글포차","tel":"031-921-0510","addr":"경기도 고양시 일산서구 일산동 1062번지","indutype":"일반휴게음식 - 주점","category":"restaurant"},{"name":"토프레소일산후곡점","tel":"070-7862-1697","addr":"경기도 고양시 일산서구 일산동 1062번지","indutype":"일반휴게음식 - 서양음식","category":"restaurant"},{"name":"홍콩반점 일산후곡점","tel":"031-919-0410","addr":"경기도 고양시 일산서구 일산동 1062번지","indutype":"일반휴게음식 - 중국식","category":"restaurant"}]},{"lat":"37.681101361","long":"126.76929899","imageIndex":4,"items":[{"name":"선셋커피(Sunset Coffee)","tel":"031-0000-0000","addr":"경기도 고양시 일산서구 일산동 1072번지","indutype":"일반휴게음식 - 서양음식","category":"restaurant"},{"name":"역전앞","tel":"031-913-7272","addr":"경기도 고양시 일산서구 일산동 1072번지","indutype":"일반휴게음식 - 스넥","category":"restaurant"}]},{"lat":"37.687152653","long":"126.77226168","imageIndex":4,"items":[{"name":"설레임","tel":"031-976-4645","addr":"경기도 고양시 일산서구 일산동 591-22번지","indutype":"일반휴게음식 - 일반한식","category":"restaurant"}]},{"lat":"37.687428188","long":"126.77034484","imageIndex":4,"items":[{"name":"성신식당","tel":"031-975-3345","addr":"경기도 고양시 일산서구 일산동 605-1번지","indutype":"일반휴게음식 - 일반한식","category":"restaurant"}]},{"lat":"37.677096721","long":"126.77165802","imageIndex":4,"items":[{"name":"셀프회수산","tel":"031-923-5180","addr":"경기도 고양시 일산서구 일산동 1101번지","indutype":"일반휴게음식 - 일식·회집","category":"restaurant"},{"name":"일산뽈집","tel":"031-921-9201","addr":"경기도 고양시 일산서구 일산동 1101번지 후곡마을14단지아파트","indutype":"일반휴게음식 - 일반한식","category":"restaurant"}]},{"lat":"37.684374099","long":"126.77043374","imageIndex":4,"items":[{"name":"소문난뼈해장국","tel":"031-976-7011","addr":"경기도 고양시 일산서구 일산동 627-57번지","indutype":"일반휴게음식 - 일반한식","category":"restaurant"}]},{"lat":"37.686824917","long":"126.77515365","imageIndex":4,"items":[{"name":"소주랑맥주랑","tel":"070-7533-8238","addr":"경기도 고양시 일산서구 일산동 580-14번지","indutype":"일반휴게음식 - 주점","category":"restaurant"},{"name":"혁이네장충동왕족발보쌈","tel":"031-976-1515","addr":"경기도 고양시 일산서구 일산동 580-14번지","indutype":"일반휴게음식 - 일반한식","category":"restaurant"}]},{"lat":"37.685845622","long":"126.77193696","imageIndex":4,"items":[{"name":"쇼화죠쯔관","tel":"031-975-3668","addr":"경기도 고양시 일산서구 일산동 592-26번지","indutype":"일반휴게음식 - 중국식","category":"restaurant"},{"name":"연탄갈비","tel":"031-976-2896","addr":"경기도 고양시 일산서구 일산동 592-26번지","indutype":"일반휴게음식 - 일반한식","category":"restaurant"},{"name":"정원까페","tel":"031-976-3076","addr":"경기도 고양시 일산서구 일산동 592-26번지","indutype":"일반휴게음식 - 주점","category":"restaurant"},{"name":"해와달","tel":"","addr":"경기도 고양시 일산서구 일산동 592-26번지","indutype":"일반휴게음식 - 일반한식","category":"restaurant"}]},{"lat":"37.679568323","long":"126.76410058","imageIndex":4,"items":[{"name":"숑숑돈까스","tel":"031-914-3331","addr":"경기도 고양시 일산서구 일산동 1065번지","indutype":"일반휴게음식 - 일반한식","category":"restaurant"},{"name":"일산우동포장마차","tel":"031-911-9935","addr":"경기도 고양시 일산서구 일산동 1065번지","indutype":"일반휴게음식 - 일반한식","category":"restaurant"}]},{"lat":"37.688733828","long":"126.77456961","imageIndex":4,"items":[{"name":"수피자","tel":"031-919-9190","addr":"경기도 고양시 일산서구 일산동 1868번지","indutype":"일반휴게음식 - 서양음식","category":"restaurant"}]},{"lat":"37.678124481","long":"126.76743792","imageIndex":4,"items":[{"name":"스모스시","tel":"031-924-7039","addr":"경기도 고양시 일산서구 일산동 1078-1번지","indutype":"일반휴게음식 - 일반한식","category":"restaurant"},{"name":"이디야","tel":"031-919-5677","addr":"경기도 고양시 일산서구 일산동 1078-1번지","indutype":"일반휴게음식 - 서양음식","category":"restaurant"},{"name":"카페비앤유(cafe BnU)","tel":"031-912-2252","addr":"경기도 고양시 일산서구 일산동 1078-1번지","indutype":"일반휴게음식 - 서양음식","category":"restaurant"}]},{"lat":"37.679209566","long":"126.76490658","imageIndex":4,"items":[{"name":"스시락","tel":"031-922-3866","addr":"경기도 고양시 일산서구 일산동 1065-5번지","indutype":"일반휴게음식 - 일반한식","category":"restaurant"}]},{"lat":"37.688067493","long":"126.77476438","imageIndex":4,"items":[{"name":"신닭발천지","tel":"031-975-0092","addr":"경기도 고양시 일산서구 일산동 583-36번지","indutype":"일반휴게음식 - 일반한식","category":"restaurant"},{"name":"여자도아구찜","tel":"031-966-6267","addr":"경기도 고양시 일산서구 일산동 583-36번지","indutype":"일반휴게음식 - 일반한식","category":"restaurant"},{"name":"일산최강불막창","tel":"031-901-8180","addr":"경기도 고양시 일산서구 일산동 583-36번지","indutype":"일반휴게음식 - 일반한식","category":"restaurant"},{"name":"청춘","tel":"031-975-0379","addr":"경기도 고양시 일산서구 일산동 583-36번지","indutype":"일반휴게음식 - 일반한식","category":"restaurant"}]},{"lat":"37.679012315","long":"126.76538332","imageIndex":4,"items":[{"name":"신의주찹쌀순대","tel":"031-925-9380","addr":"경기도 고양시 일산서구 일산동 1064-1번지","indutype":"일반휴게음식 - 일반한식","category":"restaurant"}]},{"lat":"37.685103651","long":"126.77031809","imageIndex":4,"items":[{"name":"신촌식품해피만두","tel":"031-975-8565","addr":"경기도 고양시 일산서구 일산동 617-37번지","indutype":"일반휴게음식 - 일반한식","category":"restaurant"},{"name":"중앙식당","tel":"031-975-6357","addr":"경기도 고양시 일산서구 일산동 617-37번지","indutype":"일반휴게음식 - 일반한식","category":"restaurant"}]},{"lat":"37.685043466","long":"126.77642882","imageIndex":4,"items":[{"name":"심씨갈비","tel":"031-977-5778","addr":"경기도 고양시 일산서구 일산동 555번지","indutype":"일반휴게음식 - 일반한식","category":"restaurant"},{"name":"준","tel":"031-975-5468","addr":"경기도 고양시 일산서구 일산동 555번지","indutype":"일반휴게음식 - 일반한식","category":"restaurant"},{"name":"코리안숯불닭바베큐","tel":"031-977-9233","addr":"경기도 고양시 일산서구 일산동 555번지","indutype":"일반휴게음식 - 서양음식","category":"restaurant"}]},{"lat":"37.686959907","long":"126.77507388","imageIndex":4,"items":[{"name":"심양만두집","tel":"","addr":"경기도 고양시 일산서구 일산동 580-13번지","indutype":"일반휴게음식 - 일반한식","category":"restaurant"}]},{"lat":"37.685375229","long":"126.77560022","imageIndex":4,"items":[{"name":"싸이판","tel":"031-977-1489","addr":"경기도 고양시 일산서구 일산동 576-30번지","indutype":"일반휴게음식 - 주점","category":"restaurant"},{"name":"아리랑커피숍","tel":"031-976-9668","addr":"경기도 고양시 일산서구 일산동 576-30번지","indutype":"일반휴게음식 - 서양음식","category":"restaurant"}]},{"lat":"37.685294142","long":"126.77560047","imageIndex":4,"items":[{"name":"아구가좋아일산점","tel":"031-976-9939","addr":"경기도 고양시 일산서구 일산동 576-49번지","indutype":"일반휴게음식 - 일반한식","category":"restaurant"},{"name":"진도숯불갈비","tel":"031-976-9464","addr":"경기도 고양시 일산서구 일산동 576-49번지","indutype":"일반휴게음식 - 일반한식","category":"restaurant"}]},{"lat":"37.691122535","long":"126.77054873","imageIndex":4,"items":[{"name":"아빠의식탁","tel":"","addr":"경기도 고양시 일산서구 일산동 2095번지","indutype":"일반휴게음식 - 스넥","category":"restaurant"}]},{"lat":"37.684790021","long":"126.7758174","imageIndex":4,"items":[{"name":"아이러브호프","tel":"031-977-7972","addr":"경기도 고양시 일산서구 일산동 1680-1번지","indutype":"일반휴게음식 - 주점","category":"restaurant"},{"name":"자매양꼬치구이","tel":"031-975-1557","addr":"경기도 고양시 일산서구 일산동 1680-1번지","indutype":"일반휴게음식 - 일반한식","category":"restaurant"},{"name":"피자스쿨고양일산동점","tel":"031-977-8280","addr":"경기도 고양시 일산서구 일산동 1680-1번지","indutype":"일반휴게음식 - 서양음식","category":"restaurant"}]},{"lat":"37.676040573","long":"126.77062977","imageIndex":4,"items":[{"name":"아이엠(I'm)","tel":"031-917-9949","addr":"경기도 고양시 일산서구 일산동 1088-5번지","indutype":"일반휴게음식 - 일반한식","category":"restaurant"}]},{"lat":"37.684321247","long":"126.77104608","imageIndex":4,"items":[{"name":"아파치","tel":"031-976-7151","addr":"경기도 고양시 일산서구 일산동 636-16번지","indutype":"일반휴게음식 - 서양음식","category":"restaurant"},{"name":"최가네추어탕","tel":"031-977-7752","addr":"경기도 고양시 일산서구 일산동 636-16번지","indutype":"일반휴게음식 - 일반한식","category":"restaurant"}]},{"lat":"37.685734925","long":"126.77062222","imageIndex":4,"items":[{"name":"야래향","tel":"031-975-6717","addr":"경기도 고양시 일산서구 일산동 617-27번지","indutype":"일반휴게음식 - 일반한식","category":"restaurant"},{"name":"형제수산회직판장","tel":"031-977-1345","addr":"경기도 고양시 일산서구 일산동 617-27번지","indutype":"일반휴게음식 - 일반한식","category":"restaurant"}]},{"lat":"37.687125544","long":"126.76765889","imageIndex":4,"items":[{"name":"야스미","tel":"031-000-0000","addr":"경기도 고양시 일산서구 일산동 963-23번지","indutype":"일반휴게음식 - 일반한식","category":"restaurant"},{"name":"커피에 반하다","tel":"031-975-6446","addr":"경기도 고양시 일산서구 일산동 963-23번지","indutype":"일반휴게음식 - 서양음식","category":"restaurant"}]},{"lat":"37.687653425","long":"126.77495838","imageIndex":4,"items":[{"name":"엄마손밥상","tel":"031-975-6845","addr":"경기도 고양시 일산서구 일산동 580-3번지","indutype":"일반휴게음식 - 일반한식","category":"restaurant"},{"name":"일산숯불돼지갈비","tel":"031-975-9290","addr":"경기도 고양시 일산서구 일산동 580-3번지","indutype":"일반휴게음식 - 일반한식","category":"restaurant"},{"name":"족발맨 일산1호점","tel":"031-976-9909","addr":"경기도 고양시 일산서구 일산동 580-3번지","indutype":"일반휴게음식 - 일반한식","category":"restaurant"}]},{"lat":"37.677128921","long":"126.76970819","imageIndex":4,"items":[{"name":"에슬로우일산후곡점","tel":"031-913-1272","addr":"경기도 고양시 일산서구 일산동 1081-2번지","indutype":"일반휴게음식 - 서양음식","category":"restaurant"}]},{"lat":"37.678546208","long":"126.76657507","imageIndex":4,"items":[{"name":"연어박스","tel":"","addr":"경기도 고양시 일산서구 일산동 1063-1번지","indutype":"일반휴게음식 - 일반한식","category":"restaurant"},{"name":"커피에반하다","tel":"031-918-8878","addr":"경기도 고양시 일산서구 일산동 1063-1번지","indutype":"일반휴게음식 - 일반한식","category":"restaurant"}]},{"lat":"37.68748532","long":"126.7719092","imageIndex":4,"items":[{"name":"연인","tel":"031-974-8875","addr":"경기도 고양시 일산서구 일산동 589-20번지","indutype":"일반휴게음식 - 일반한식","category":"restaurant"}]},{"lat":"37.684680157","long":"126.77029674","imageIndex":4,"items":[{"name":"연화네 전집","tel":"031-942-0509","addr":"경기도 고양시 일산서구 일산동 617-101번지","indutype":"일반휴게음식 - 일반한식","category":"restaurant"}]},{"lat":"37.677406916","long":"126.76904985","imageIndex":4,"items":[{"name":"옛날통닭","tel":"","addr":"경기도 고양시 일산서구 일산동 1080번지","indutype":"일반휴게음식 - 스넥","category":"restaurant"},{"name":"춘하추동산해진미","tel":"02-1111-1111","addr":"경기도 고양시 일산서구 일산동 1080번지","indutype":"일반휴게음식 - 일반한식","category":"restaurant"},{"name":"퀴즈노스 후곡점","tel":"031-994-3412","addr":"경기도 고양시 일산서구 일산동 1080번지","indutype":"일반휴게음식 - 스넥","category":"restaurant"}]},{"lat":"37.68660318","long":"126.77232007","imageIndex":4,"items":[{"name":"오가내제례원","tel":"031-977-5050","addr":"경기도 고양시 일산서구 일산동 592-19번지","indutype":"일반휴게음식 - 일반한식","category":"restaurant"}]},{"lat":"37.687376872","long":"126.77173948","imageIndex":4,"items":[{"name":"오부장치킨","tel":"031-975-9998","addr":"경기도 고양시 일산서구 일산동 599-1번지","indutype":"일반휴게음식 - 일반한식","category":"restaurant"}]},{"lat":"37.68512355","long":"126.77590708","imageIndex":4,"items":[{"name":"오예!돈사모","tel":"031-977-6137","addr":"경기도 고양시 일산서구 일산동 576-47번지","indutype":"일반휴게음식 - 일반한식","category":"restaurant"},{"name":"코리안쏘시지","tel":"031-976-0290","addr":"경기도 고양시 일산서구 일산동 576-47번지","indutype":"일반휴게음식 - 일반한식","category":"restaurant"}]},{"lat":"37.687431613","long":"126.776739","imageIndex":4,"items":[{"name":"오토상참치","tel":"031-975-7895","addr":"경기도 고양시 일산서구 일산동 576-1번지","indutype":"일반휴게음식 - 일식·회집","category":"restaurant"},{"name":"치킨플러스일산동점","tel":"031-975-8456","addr":"경기도 고양시 일산서구 일산동 576-1번지","indutype":"일반휴게음식 - 스넥","category":"restaurant"}]},{"lat":"37.685960945","long":"126.77101831","imageIndex":4,"items":[{"name":"오해피데이","tel":"070-9030-9391","addr":"경기도 고양시 일산서구 일산동 617-21번지","indutype":"일반휴게음식 - 일반한식","category":"restaurant"},{"name":"일산민물매운탕","tel":"031-975-3394","addr":"경기도 고양시 일산서구 일산동 617-21번지","indutype":"일반휴게음식 - 일반한식","category":"restaurant"}]},{"lat":"37.682682477","long":"126.7761866","imageIndex":4,"items":[{"name":"요거프레소 일산산들점","tel":"031-123-1234","addr":"경기도 고양시 일산서구 일산동 525-16번지","indutype":"일반휴게음식 - 서양음식","category":"restaurant"},{"name":"의정부부대찌개","tel":"031-977-5434","addr":"경기도 고양시 일산서구 일산동 525-16번지","indutype":"일반휴게음식 - 일반한식","category":"restaurant"}]},{"lat":"37.6909592","long":"126.76995967","imageIndex":4,"items":[{"name":"우리동네 옛날치킨","tel":"031-975-7808","addr":"경기도 고양시 일산서구 일산동 2094번지","indutype":"일반휴게음식 - 스넥","category":"restaurant"},{"name":"카페에이프릴(CAFE APRIL)","tel":"031-922-1327","addr":"경기도 고양시 일산서구 일산동 2094번지","indutype":"일반휴게음식 - 서양음식","category":"restaurant"}]},{"lat":"37.689155298","long":"126.77354795","imageIndex":4,"items":[{"name":"우리들의맛집","tel":"031-921-4277","addr":"경기도 고양시 일산서구 일산동 1947번지","indutype":"일반휴게음식 - 일반한식","category":"restaurant"}]},{"lat":"37.67907504","long":"126.76521308","imageIndex":4,"items":[{"name":"원조후곡빈대떡","tel":"031-922-6115","addr":"경기도 고양시 일산서구 일산동 1064번지","indutype":"일반휴게음식 - 일반한식","category":"restaurant"}]},{"lat":"37.687150965","long":"126.77140006","imageIndex":4,"items":[{"name":"유.힐링카페","tel":"031-976-2000","addr":"경기도 고양시 일산서구 일산동 589-12번지","indutype":"일반휴게음식 - 서양음식","category":"restaurant"}]},{"lat":"37.6862129","long":"126.77548429","imageIndex":4,"items":[{"name":"육천고기냉면","tel":"031-975-8522","addr":"경기도 고양시 일산서구 일산동 576-8번지","indutype":"일반휴게음식 - 일반한식","category":"restaurant"},{"name":"천지향","tel":"031-975-0125","addr":"경기도 고양시 일산서구 일산동 576-8번지","indutype":"일반휴게음식 - 중국식","category":"restaurant"}]},{"lat":"37.685602234","long":"126.77651782","imageIndex":4,"items":[{"name":"이가진한설렁탕","tel":"031-815-2123","addr":"경기도 고양시 일산서구 일산동 577-5번지","indutype":"일반휴게음식 - 일반한식","category":"restaurant"}]},{"lat":"37.684710177","long":"126.77646384","imageIndex":4,"items":[{"name":"이도옥설렁탕 일산동점","tel":"031-975-1728","addr":"경기도 고양시 일산서구 일산동 1679-2번지","indutype":"일반휴게음식 - 일반한식","category":"restaurant"}]},{"lat":"37.68570642","long":"126.76987407","imageIndex":4,"items":[{"name":"이지","tel":"031-977-2766","addr":"경기도 고양시 일산서구 일산동 612-22번지","indutype":"일반휴게음식 - 일반한식","category":"restaurant"}]},{"lat":"37.683597351","long":"126.76946121","imageIndex":4,"items":[{"name":"일산","tel":"031-977-2435","addr":"경기도 고양시 일산서구 일산동 655-8번지","indutype":"일반휴게음식 - 일반한식","category":"restaurant"}]},{"lat":"37.683545487","long":"126.77057236","imageIndex":4,"items":[{"name":"일산갈비","tel":"031-977-7729","addr":"경기도 고양시 일산서구 일산동 627-15번지","indutype":"일반휴게음식 - 일반한식","category":"restaurant"}]},{"lat":"37.683184612","long":"126.77032408","imageIndex":4,"items":[{"name":"일산고기국수 천하일면 일산역본점","tel":"031-977-2333","addr":"경기도 고양시 일산서구 일산동 655-229번지","indutype":"일반휴게음식 - 일반한식","category":"restaurant"}]},{"lat":"37.685209282","long":"126.77365079","imageIndex":4,"items":[{"name":"일산만두","tel":"031-977-3282","addr":"경기도 고양시 일산서구 일산동 640-77번지","indutype":"일반휴게음식 - 일반한식","category":"restaurant"}]},{"lat":"37.687543581","long":"126.76495932","imageIndex":4,"items":[{"name":"일산샤브칼국수","tel":"031-000-0000","addr":"경기도 고양시 일산서구 일산동 967번지","indutype":"일반휴게음식 - 일반한식","category":"restaurant"}]},{"lat":"37.686762261","long":"126.77074372","imageIndex":4,"items":[{"name":"일산연탄구이","tel":"031-975-9085","addr":"경기도 고양시 일산서구 일산동 597-8번지","indutype":"일반휴게음식 - 일반한식","category":"restaurant"}]},{"lat":"37.684877875","long":"126.77004671","imageIndex":4,"items":[{"name":"일산왕족발","tel":"031-975-9992","addr":"경기도 고양시 일산서구 일산동","indutype":"일반휴게음식 - 일반한식","category":"restaurant"}]},{"lat":"37.683933278","long":"126.77076387","imageIndex":4,"items":[{"name":"일산장","tel":"031-975-2249","addr":"경기도 고양시 일산서구 일산동 627-9번지","indutype":"일반휴게음식 - 일반한식","category":"restaurant"},{"name":"일산칼국수","tel":"031-975-7631","addr":"경기도 고양시 일산서구 일산동 627-9번지","indutype":"일반휴게음식 - 일반한식","category":"restaurant"}]},{"lat":"37.684986147","long":"126.77012573","imageIndex":4,"items":[{"name":"일산장터곱창 장어","tel":"031-976-6105","addr":"경기도 고양시 일산서구 일산동 617-115번지","indutype":"일반휴게음식 - 일반한식","category":"restaurant"}]},{"lat":"37.687373537","long":"126.77465314","imageIndex":4,"items":[{"name":"일산전집&치킨","tel":"031-972-3454","addr":"경기도 고양시 일산서구 일산동 587-67번지","indutype":"일반휴게음식 - 일반한식","category":"restaurant"}]},{"lat":"37.686984029","long":"126.76898578","imageIndex":4,"items":[{"name":"일산참숯불구이","tel":"070-7799-3232","addr":"경기도 고양시 일산서구 일산동 605-45번지","indutype":"일반휴게음식 - 일반한식","category":"restaurant"}]},{"lat":"37.683902418","long":"126.76882541","imageIndex":4,"items":[{"name":"일산쿡도시락","tel":"031-905-6100","addr":"경기도 고양시 일산서구 일산동 655-38번지","indutype":"일반휴게음식 - 일반한식","category":"restaurant"}]},{"lat":"37.683401222","long":"126.77051613","imageIndex":4,"items":[{"name":"자두","tel":"031-975-4760","addr":"경기도 고양시 일산서구 일산동 628-5번지","indutype":"일반휴게음식 - 일반한식","category":"restaurant"},{"name":"홍천만두국","tel":"031-976-4918","addr":"경기도 고양시 일산서구 일산동 628-5번지","indutype":"일반휴게음식 - 일반한식","category":"restaurant"}]},{"lat":"37.687018174","long":"126.77260221","imageIndex":4,"items":[{"name":"장충동번개왕족발보쌈","tel":"031-977-7470","addr":"경기도 고양시 일산서구 일산동 592-13번지","indutype":"일반휴게음식 - 일반한식","category":"restaurant"}]},{"lat":"37.686012701","long":"126.76985044","imageIndex":4,"items":[{"name":"장터참숯돼지갈비","tel":"031-813-4843","addr":"경기도 고양시 일산서구 일산동 610-60번지","indutype":"일반휴게음식 - 일반한식","category":"restaurant"},{"name":"해영","tel":"031-977-1232","addr":"경기도 고양시 일산서구 일산동 610-60번지","indutype":"일반휴게음식 - 일반한식","category":"restaurant"}]},{"lat":"37.685492353","long":"126.77559986","imageIndex":4,"items":[{"name":"잭아저씨 족발보쌈 일산점","tel":"031-975-5382","addr":"경기도 고양시 일산서구 일산동 576-14번지","indutype":"일반휴게음식 - 일반한식","category":"restaurant"}]},{"lat":"37.683129961","long":"126.77463213","imageIndex":4,"items":[{"name":"전주식당","tel":"031-977-1694","addr":"경기도 고양시 일산서구 일산동 산37-11번지","indutype":"일반휴게음식 - 일반한식","category":"restaurant"},{"name":"활어시장","tel":"031-976-2003","addr":"경기도 고양시 일산서구 일산동 산37-11번지","indutype":"일반휴게음식 - 일반한식","category":"restaurant"}]},{"lat":"37.685017385","long":"126.77226829","imageIndex":4,"items":[{"name":"전주영양탕","tel":"031-975-8244","addr":"경기도 고양시 일산서구 일산동 637-37번지","indutype":"일반휴게음식 - 일반한식","category":"restaurant"}]},{"lat":"37.687017813","long":"126.76785196","imageIndex":4,"items":[{"name":"전주콩나물국밥","tel":"031-976-7880","addr":"경기도 고양시 일산서구 일산동 963-12번지","indutype":"일반휴게음식 - 일반한식","category":"restaurant"},{"name":"키친51(Kitchen51)","tel":"031-976-5123","addr":"경기도 고양시 일산서구 일산동 963-12번지","indutype":"일반휴게음식 - 일식·회집","category":"restaurant"}]},{"lat":"37.685207494","long":"126.77273251","imageIndex":4,"items":[{"name":"정경맛집","tel":"031-918-1345","addr":"경기도 고양시 일산서구 일산동 640-32번지","indutype":"일반휴게음식 - 일반한식","category":"restaurant"}]},{"lat":"37.688789972","long":"126.77102084","imageIndex":4,"items":[{"name":"제너러스","tel":"","addr":"경기도 고양시 일산서구 일산동 2022번지","indutype":"일반휴게음식 - 서양음식","category":"restaurant"}]},{"lat":"37.678489029","long":"126.76502224","imageIndex":4,"items":[{"name":"제이(J)153스터디카페","tel":"","addr":"경기도 고양시 일산서구 일산동 1061-1번지","indutype":"일반휴게음식 - 서양음식","category":"restaurant"}]},{"lat":"37.682850922","long":"126.77015508","imageIndex":4,"items":[{"name":"좋은하루","tel":"031-913-7100","addr":"경기도 고양시 일산서구 일산동 655-268번지","indutype":"일반휴게음식 - 서양음식","category":"restaurant"}]},{"lat":"37.685540427","long":"126.77251608","imageIndex":4,"items":[{"name":"준성숯불갈비","tel":"031-977-1811","addr":"경기도 고양시 일산서구 일산동 637-52번지","indutype":"일반휴게음식 - 일반한식","category":"restaurant"}]},{"lat":"37.687264353","long":"126.76499422","imageIndex":4,"items":[{"name":"중국집","tel":"031-977-9427","addr":"경기도 고양시 일산서구 일산동 966-74번지","indutype":"일반휴게음식 - 중국식","category":"restaurant"}]},{"lat":"37.683740403","long":"126.76890527","imageIndex":4,"items":[{"name":"지영이네 먹고갈까 싸갈까","tel":"031-975-7593","addr":"경기도 고양시 일산서구 일산동 655-14번지","indutype":"일반휴게음식 - 일반한식","category":"restaurant"}]},{"lat":"37.689237104","long":"126.76481786","imageIndex":4,"items":[{"name":"지코바치킨","tel":"031-913-9294","addr":"경기도 고양시 일산서구 일산동 2106번지","indutype":"일반휴게음식 - 스넥","category":"restaurant"}]},{"lat":"37.686374","long":"126.77492829","imageIndex":4,"items":[{"name":"진미식당","tel":"031-975-9265","addr":"경기도 고양시 일산서구 일산동 579-17번지","indutype":"일반휴게음식 - 일반한식","category":"restaurant"}]},{"lat":"37.684734367","long":"126.77498999","imageIndex":4,"items":[{"name":"쭈꾸미명가","tel":"031-976-5455","addr":"경기도 고양시 일산서구 일산동 552-19번지","indutype":"일반휴게음식 - 일반한식","category":"restaurant"}]},{"lat":"37.685598865","long":"126.77015783","imageIndex":4,"items":[{"name":"차차차경양식","tel":"031-976-1943","addr":"경기도 고양시 일산서구 일산동 616-5번지","indutype":"일반휴게음식 - 서양음식","category":"restaurant"}]},{"lat":"37.682931964","long":"126.77013215","imageIndex":4,"items":[{"name":"참맛깔곱창","tel":"031-977-2473","addr":"경기도 고양시 일산서구 일산동 655-225번지","indutype":"일반휴게음식 - 일반한식","category":"restaurant"}]},{"lat":"37.682101946","long":"126.77415915","imageIndex":4,"items":[{"name":"처갓집양념치킨","tel":"031-977-9270","addr":"경기도 고양시 일산서구 일산동 652-1번지","indutype":"일반휴게음식 - 스넥","category":"restaurant"}]},{"lat":"37.681073048","long":"126.77323274","imageIndex":4,"items":[{"name":"천기수산풍천민물장어","tel":"031-977-1580","addr":"경기도 고양시 일산서구 일산동 655-449번지","indutype":"일반휴게음식 - 일반한식","category":"restaurant"}]},{"lat":"37.685240491","long":"126.77117926","imageIndex":4,"items":[{"name":"청춘아","tel":"070-5121-6771","addr":"경기도 고양시 일산서구 일산동 618-18번지","indutype":"일반휴게음식 - 일반한식","category":"restaurant"}]},{"lat":"37.685289773","long":"126.77334445","imageIndex":4,"items":[{"name":"초원다방","tel":"031-975-3187","addr":"경기도 고양시 일산서구 일산동","indutype":"일반휴게음식 - 서양음식","category":"restaurant"}]},{"lat":"37.684986526","long":"126.77493253","imageIndex":4,"items":[{"name":"초원샤브샤브뷔페점","tel":"031-977-9878","addr":"경기도 고양시 일산서구 일산동 552-24번지","indutype":"일반휴게음식 - 일반한식","category":"restaurant"}]},{"lat":"37.682850159","long":"126.77437225","imageIndex":4,"items":[{"name":"춘테이블","tel":"031-975-2321","addr":"경기도 고양시 일산서구 일산동 649-18번지","indutype":"일반휴게음식 - 일반한식","category":"restaurant"}]},{"lat":"37.689706915","long":"126.76998627","imageIndex":4,"items":[{"name":"치킨마루 에이스아파트점","tel":"031-914-3377","addr":"경기도 고양시 일산서구 일산동 2033번지","indutype":"일반휴게음식 - 일반한식","category":"restaurant"}]},{"lat":"37.686737114","long":"126.76714995","imageIndex":4,"items":[{"name":"치킨폴더","tel":"031-975-5570","addr":"경기도 고양시 일산서구 일산동 960-11번지","indutype":"일반휴게음식 - 스넥","category":"restaurant"}]},{"lat":"37.687101036","long":"126.76442789","imageIndex":4,"items":[{"name":"친구야","tel":"031-977-9225","addr":"경기도 고양시 일산서구 일산동 972-25번지","indutype":"일반휴게음식 - 일반한식","category":"restaurant"}]},{"lat":"37.686741265","long":"126.76923596","imageIndex":4,"items":[{"name":"커피앤(coffee&)","tel":"070-8118-8899","addr":"경기도 고양시 일산서구 일산동 610-64번지","indutype":"일반휴게음식 - 서양음식","category":"restaurant"}]},{"lat":"37.688763701","long":"126.77604338","imageIndex":4,"items":[{"name":"킴스피자플러스","tel":"031-975-9226","addr":"경기도 고양시 일산서구 일산동 583-17번지","indutype":"일반휴게음식 - 서양음식","category":"restaurant"}]},{"lat":"37.683687104","long":"126.77388221","imageIndex":4,"items":[{"name":"킹단란주점","tel":"031-975-7770","addr":"경기도 고양시 일산서구 일산동 641-32번지","indutype":"일반휴게음식 - 주점","category":"restaurant"}]},{"lat":"37.685240335","long":"126.77109991","imageIndex":4,"items":[{"name":"탕화쿵푸마라탕","tel":"031-111-1111","addr":"경기도 고양시 일산서구 일산동 618-4번지","indutype":"일반휴게음식 - 중국식","category":"restaurant"}]},{"lat":"37.685159042","long":"126.77562355","imageIndex":4,"items":[{"name":"터널7080","tel":"031-976-9185","addr":"경기도 고양시 일산서구 일산동 576-31번지","indutype":"일반휴게음식 - 일반한식","category":"restaurant"}]},{"lat":"37.685736136","long":"126.7758712","imageIndex":4,"items":[{"name":"토담숯불갈비","tel":"031-977-6516","addr":"경기도 고양시 일산서구 일산동 576-36번지","indutype":"일반휴게음식 - 일반한식","category":"restaurant"}]},{"lat":"37.682345623","long":"126.7743738","imageIndex":4,"items":[{"name":"팔미낙지한마리수제비","tel":"031-976-3588","addr":"경기도 고양시 일산서구 일산동 543-12번지","indutype":"일반휴게음식 - 일반한식","category":"restaurant"}]},{"lat":"37.6838796","long":"126.77095676","imageIndex":4,"items":[{"name":"팔미콩나물국밥","tel":"031-975-7575","addr":"경기도 고양시 일산서구 일산동 627-82번지","indutype":"일반휴게음식 - 일반한식","category":"restaurant"}]},{"lat":"37.685765334","long":"126.77234533","imageIndex":4,"items":[{"name":"팔팔동태한마리","tel":"031-975-7146","addr":"경기도 고양시 일산서구 일산동 592-23번지","indutype":"일반휴게음식 - 일반한식","category":"restaurant"}]},{"lat":"37.675183992","long":"126.77029238","imageIndex":4,"items":[{"name":"페리카나","tel":"031-913-6063","addr":"경기도 고양시 일산서구 일산동","indutype":"일반휴게음식 - 주점","category":"restaurant"}]},{"lat":"37.683653646","long":"126.7705947","imageIndex":4,"items":[{"name":"포장마차","tel":"031-977-2320","addr":"경기도 고양시 일산서구 일산동 627-16번지","indutype":"일반휴게음식 - 일반한식","category":"restaurant"}]},{"lat":"37.684460031","long":"126.77290487","imageIndex":4,"items":[{"name":"푸드세븐","tel":"031-912-5032","addr":"경기도 고양시 일산서구 일산동 645번지 일산1차현대홈타운","indutype":"일반휴게음식 - 일반한식","category":"restaurant"}]},{"lat":"37.676268642","long":"126.7675118","imageIndex":4,"items":[{"name":"푸른바다찜탕","tel":"","addr":"경기도 고양시 일산서구 일산동 1086번지","indutype":"일반휴게음식 - 일반한식","category":"restaurant"}]},{"lat":"37.681380564","long":"126.77384395","imageIndex":4,"items":[{"name":"퓨전시민포차","tel":"031-977-2530","addr":"경기도 고양시 일산서구 일산동 655-718번지","indutype":"일반휴게음식 - 일반한식","category":"restaurant"}]},{"lat":"37.690601051","long":"126.77109456","imageIndex":4,"items":[{"name":"프로","tel":"031-912-3303","addr":"경기도 고양시 일산서구 일산동 1997번지","indutype":"일반휴게음식 - 일반한식","category":"restaurant"}]},{"lat":"37.688741693","long":"126.76487613","imageIndex":4,"items":[{"name":"하늘정원카페","tel":"070-4227-8336","addr":"경기도 고양시 일산서구 일산동 2108번지","indutype":"일반휴게음식 - 서양음식","category":"restaurant"}]},{"lat":"37.684681519","long":"126.77098828","imageIndex":4,"items":[{"name":"하얼빈","tel":"031-967-1240","addr":"경기도 고양시 일산서구 일산동 636-11번지","indutype":"일반휴게음식 - 스넥","category":"restaurant"}]},{"lat":"37.686131078","long":"126.77048494","imageIndex":4,"items":[{"name":"한솥도시락일산시장점","tel":"031-975-5252","addr":"경기도 고양시 일산서구 일산동 615-3번지","indutype":"일반휴게음식 - 일반한식","category":"restaurant"}]},{"lat":"37.691403897","long":"126.77623941","imageIndex":4,"items":[{"name":"한우리한우정육식당","tel":"031-818-5292","addr":"경기도 고양시 일산서구 일산동","indutype":"일반휴게음식 - 일반한식","category":"restaurant"}]},{"lat":"37.68598922","long":"126.77165309","imageIndex":4,"items":[{"name":"한창희천하일면 구일산점","tel":"031-977-2768","addr":"경기도 고양시 일산서구 일산동 594-18번지","indutype":"일반휴게음식 - 일반한식","category":"restaurant"}]},{"lat":"37.684209283","long":"126.76909652","imageIndex":4,"items":[{"name":"할매순대국 일산시장점","tel":"031-975-3337","addr":"경기도 고양시 일산서구 일산동 620번지","indutype":"일반휴게음식 - 일반한식","category":"restaurant"}]},{"lat":"37.685351337","long":"126.77257335","imageIndex":4,"items":[{"name":"행운","tel":"031-977-9603","addr":"경기도 고양시 일산서구 일산동 637-53번지","indutype":"일반휴게음식 - 서양음식","category":"restaurant"}]},{"lat":"37.687098884","long":"126.77240923","imageIndex":4,"items":[{"name":"호식이두마리치킨구일산점","tel":"031-976-6682","addr":"경기도 고양시 일산서구 일산동 591-21번지","indutype":"일반휴게음식 - 스넥","category":"restaurant"}]},{"lat":"37.681234801","long":"126.77301686","imageIndex":4,"items":[{"name":"황가네","tel":"031-977-7800","addr":"경기도 고양시 일산서구 일산동 655-281번지","indutype":"일반휴게음식 - 일반한식","category":"restaurant"}]},{"lat":"37.684627617","long":"126.7710678","imageIndex":4,"items":[{"name":"황금동태찌개","tel":"031-977-1673","addr":"경기도 고양시 일산서구 일산동 636-13번지","indutype":"일반휴게음식 - 일반한식","category":"restaurant"}]},{"lat":"37.686768899","long":"126.76954197","imageIndex":4,"items":[{"name":"황기순 칼국수 일산시장점","tel":"","addr":"경기도 고양시 일산서구 일산동 609-3번지","indutype":"일반휴게음식 - 일반한식","category":"restaurant"}]},{"lat":"37.676596705","long":"126.76938113","imageIndex":4,"items":[{"name":"후곡애닭강정","tel":"031-915-2795","addr":"경기도 고양시 일산서구 일산동 1082-2번지","indutype":"일반휴게음식 - 일반한식","category":"restaurant"}]}]