[{"lat":"37.988711369","long":"127.31684707","imageIndex":4,"items":[{"name":"35년 한고집돌솥순대국","tel":"031-534-8882","addr":"경기도 포천시 일동면 수입리 614-1번지","indutype":"일반휴게음식 - 일반한식","category":"restaurant"}]},{"lat":"37.974184017","long":"127.32520721","imageIndex":4,"items":[{"name":"구담칼국수","tel":"531-5333","addr":"경기도 포천시 일동면 수입리 279-10번지","indutype":"음식 - 한식","category":"restaurant"},{"name":"부론김병학옥수수생칼국수","tel":"031-531-5333","addr":"경기도 포천시 일동면 수입리 279-10번지","indutype":"일반휴게음식 - 일반한식","category":"restaurant"}]},{"lat":"37.995879852","long":"127.31450965","imageIndex":4,"items":[{"name":"금강산갈비찜","tel":"534-7750","addr":"경기도 포천시 일동면 수입리 701-18번지","indutype":"음식 - 한식","category":"restaurant"},{"name":"금강산갈비찜","tel":"031-534-7750","addr":"경기도 포천시 일동면 수입리 701-18번지","indutype":"일반휴게음식 - 일반한식","category":"restaurant"}]},{"lat":"37.996096581","long":"127.31431703","imageIndex":4,"items":[{"name":"금강산곰탕","tel":"031-536-3159","addr":"경기도 포천시 일동면 수입리 701번지","indutype":"일반휴게음식 - 일반한식","category":"restaurant"},{"name":"토담","tel":"536-2400","addr":"경기도 포천시 일동면 수입리 701번지","indutype":"음식 - 한식","category":"restaurant"},{"name":"토담","tel":"031-536-2400","addr":"경기도 포천시 일동면 수입리 701번지","indutype":"일반휴게음식 - 일반한식","category":"restaurant"}]},{"lat":"37.966800992","long":"127.3134877","imageIndex":4,"items":[{"name":"금강산장례문화원","tel":"","addr":"경기도 포천시 일동면 수입리 190-4번지 가동 1층","indutype":"일반휴게음식 - 일반한식","category":"restaurant"}]},{"lat":"37.997906308","long":"127.3113191","imageIndex":4,"items":[{"name":"금주산 선지해장국","tel":"031-536-1708","addr":"경기도 포천시 일동면 수입리 711-5번지","indutype":"일반휴게음식 - 일반한식","category":"restaurant"},{"name":"금주산선지해장국","tel":"536-1708","addr":"경기도 포천시 일동면 수입리 711-5번지","indutype":"음식 - 한식","category":"restaurant"}]},{"lat":"37.962016689","long":"127.3203975","imageIndex":4,"items":[{"name":"다복순대국","tel":"531-1857","addr":"경기도 포천시 일동면 수입리 161-10번지","indutype":"음식 - 한식","category":"restaurant"}]},{"lat":"38.008601446","long":"127.30031906","imageIndex":4,"items":[{"name":"담소","tel":"031-532-6622","addr":"경기도 포천시 일동면 수입리 857-1번지","indutype":"일반휴게음식 - 일반한식","category":"restaurant"}]},{"lat":"37.99565227","long":"127.31539668","imageIndex":4,"items":[{"name":"메가일동면옥","tel":"031-531-5535","addr":"경기도 포천시 일동면 수입리 700-3번지 1층","indutype":"일반휴게음식 - 일반한식","category":"restaurant"}]},{"lat":"37.998402849","long":"127.31092271","imageIndex":4,"items":[{"name":"석진가든","tel":"535-2208","addr":"경기도 포천시 일동면 수입리 711번지","indutype":"음식 - 한식","category":"restaurant"},{"name":"석진가든","tel":"031-535-2208","addr":"경기도 포천시 일동면 수입리 711번지","indutype":"일반휴게음식 - 일반한식","category":"restaurant"},{"name":"옛길칼국수","tel":"031-535-4763","addr":"경기도 포천시 일동면 수입리 711번지","indutype":"일반휴게음식 - 일반한식","category":"restaurant"},{"name":"옛날칼국수","tel":"535-4763","addr":"경기도 포천시 일동면 수입리 711번지","indutype":"음식 - 한식","category":"restaurant"}]},{"lat":"37.988548781","long":"127.31700574","imageIndex":4,"items":[{"name":"소나무","tel":"031-535-3434","addr":"경기도 포천시 일동면 수입리 615번지 1층","indutype":"일반휴게음식 - 일반한식","category":"restaurant"},{"name":"소나무","tel":"535-3434","addr":"경기도 포천시 일동면 수입리 615번지","indutype":"음식 - 한식","category":"restaurant"}]},{"lat":"37.962412259","long":"127.32070645","imageIndex":4,"items":[{"name":"수","tel":"031-535-7774","addr":"경기도 포천시 일동면 수입리 159-7번지 1층","indutype":"일반휴게음식 - 일반한식","category":"restaurant"}]},{"lat":"37.979958821","long":"127.32523246","imageIndex":4,"items":[{"name":"시크릿","tel":"031-532-4261","addr":"경기도 포천시 일동면 수입리 49번지","indutype":"일반휴게음식 - 일반한식","category":"restaurant"}]},{"lat":"38.009791413","long":"127.29642964","imageIndex":4,"items":[{"name":"약수가든","tel":"031-536-4858","addr":"경기도 포천시 일동면 수입리 915-1번지","indutype":"일반휴게음식 - 일반한식","category":"restaurant"}]},{"lat":"37.995600119","long":"127.31467924","imageIndex":4,"items":[{"name":"오모가리제육","tel":"031-534-3784","addr":"경기도 포천시 일동면 수입리 701-19번지","indutype":"일반휴게음식 - 일반한식","category":"restaurant"}]},{"lat":"37.972381519","long":"127.32544971","imageIndex":4,"items":[{"name":"용암이동갈비","tel":"031-531-9000","addr":"경기도 포천시 일동면 수입리 75-1번지","indutype":"일반휴게음식 - 일반한식","category":"restaurant"}]},{"lat":"38.016877632","long":"127.29439673","imageIndex":4,"items":[{"name":"웰빙식당","tel":"031-535-1910","addr":"경기도 포천시 일동면 수입리 885-1번지","indutype":"일반휴게음식 - 위탁급식업","category":"restaurant"}]},{"lat":"37.972737815","long":"127.32693078","imageIndex":4,"items":[{"name":"유황푸드","tel":"031-536-5790","addr":"경기도 포천시 일동면 수입리 69번지","indutype":"일반휴게음식 - 일반한식","category":"restaurant"},{"name":"유황푸드","tel":"536-4600","addr":"경기도 포천시 일동면 수입리 69번지","indutype":"음식 - 한식","category":"restaurant"}]},{"lat":"37.972714854","long":"127.32545117","imageIndex":4,"items":[{"name":"일동낙지","tel":"031-531-5133","addr":"경기도 포천시 일동면 수입리 75-2번지","indutype":"일반휴게음식 - 일반한식","category":"restaurant"}]},{"lat":"37.974272453","long":"127.3258108","imageIndex":4,"items":[{"name":"일동해물국밥","tel":"031-531-2231","addr":"경기도 포천시 일동면 수입리 65-10번지 1층","indutype":"일반휴게음식 - 일반한식","category":"restaurant"}]},{"lat":"37.98229204","long":"127.3252882","imageIndex":4,"items":[{"name":"참살이토속청국장","tel":"031-532-4022","addr":"경기도 포천시 일동면 수입리 27-2번지","indutype":"일반휴게음식 - 일반한식","category":"restaurant"},{"name":"참살이토속청국장","tel":"532-4022","addr":"경기도 포천시 일동면 수입리 27-2번지","indutype":"음식 - 한식","category":"restaurant"}]},{"lat":"38.008428747","long":"127.30092184","imageIndex":4,"items":[{"name":"추담골 남원추어탕","tel":"535-4561","addr":"경기도 포천시 일동면 수입리 856-1번지","indutype":"음식 - 한식","category":"restaurant"},{"name":"추담골 남원추어탕(그래그럼)","tel":"031-535-4561","addr":"경기도 포천시 일동면 수입리 856-1번지","indutype":"일반휴게음식 - 일반한식","category":"restaurant"}]},{"lat":"38.007431583","long":"127.30334308","imageIndex":4,"items":[{"name":"포항막회","tel":"031-535-0825","addr":"경기도 포천시 일동면 수입리 719-6번지","indutype":"일반휴게음식 - 일반한식","category":"restaurant"}]},{"lat":"37.990603754","long":"127.316673","imageIndex":17,"items":[{"name":"T.P.S건설","tel":"031-536-1515","addr":"경기도 포천시 일동면 수입리 600-3번지","indutype":"용역 서비스 - 기타용역서비스","category":"other"}]},{"lat":"37.971822395","long":"127.32565212","imageIndex":17,"items":[{"name":"개그스토리마트 일동용암점","tel":"031-536-5156","addr":"경기도 포천시 일동면 수입리 75-6번지","indutype":"유통업 영리 - 편 의 점","category":"other"},{"name":"개그스토리일동용암점","tel":"536-5156","addr":"경기도 포천시 일동면 수입리 75-6번지","indutype":"소매업 - 편의점","category":"other"},{"name":"송건재철물상회","tel":"534-5156","addr":"경기도 포천시 일동면 수입리 75-6번지","indutype":"소매업 - 건축자재","category":"other"}]},{"lat":"37.972020751","long":"127.32559608","imageIndex":17,"items":[{"name":"군인마켓","tel":"031-531-8808","addr":"경기도 포천시 일동면 수입리 75-3번지","indutype":"신변잡화 - 기타잡화","category":"other"}]},{"lat":"37.962412259","long":"127.32070645","imageIndex":17,"items":[{"name":"라온스포츠","tel":"031-532-8002","addr":"경기도 포천시 일동면 수입리 159-7번지","indutype":"레져용품 - 스포츠·레져용품","category":"other"},{"name":"몸에 좋은 골프용품","tel":"","addr":"경기도 포천시 일동면 수입리 159-7번지","indutype":"레져용품 - 골프용품 전문점","category":"other"}]},{"lat":"37.979958821","long":"127.32523246","imageIndex":17,"items":[{"name":"쌍둥이","tel":"031-534-8441","addr":"경기도 포천시 일동면 수입리 49번지","indutype":"수리서비스 - 기타수리서비스","category":"other"},{"name":"아신종합수리","tel":"031-535-0825","addr":"경기도 포천시 일동면 수입리 49번지","indutype":"수리서비스 - 기타수리서비스","category":"other"}]},{"lat":"37.963186241","long":"127.32100565","imageIndex":17,"items":[{"name":"씨유포천일동제일점","tel":"080-080-3663","addr":"경기도 포천시 일동면 수입리 159-1번지 가동 101호,102호","indutype":"유통업 영리 - 편 의 점","category":"other"}]},{"lat":"37.960740373","long":"127.31928824","imageIndex":17,"items":[{"name":"우리조경","tel":"031-531-3172","addr":"경기도 포천시 일동면 수입리 산 217","indutype":"문화.취미 - 화원","category":"other"},{"name":"우리조경","tel":"531-3172","addr":"경기도 포천시 일동면 수입리 산217","indutype":"도소매 - 꽃,생화","category":"other"}]},{"lat":"37.963742462","long":"127.32187289","imageIndex":17,"items":[{"name":"은성종합건설","tel":"031-534-0428","addr":"경기도 포천시 일동면 수입리 145-6","indutype":"용역 서비스 - 사무서비스","category":"other"}]},{"lat":"37.972737815","long":"127.32693078","imageIndex":17,"items":[{"name":"일동용암천자동차극장","tel":"031-531-7400","addr":"경기도 포천시 일동면 수입리 69번지","indutype":"문화.취미 - 문화취미기타","category":"other"}]},{"lat":"37.993569821","long":"127.31590013","imageIndex":17,"items":[{"name":"장원","tel":"02-407-0432","addr":"경기도 포천시 일동면 수입리 691-1번지","indutype":"가구 - 기타가구","category":"other"}]},{"lat":"37.974184017","long":"127.32520721","imageIndex":17,"items":[{"name":"태양창호유리","tel":"031-534-8881","addr":"경기도 포천시 일동면 수입리 279-10번지","indutype":"용역 서비스 - 기타용역서비스","category":"other"}]},{"lat":"37.98676854","long":"127.31903572","imageIndex":9,"items":[{"name":"경기에너지","tel":"031-535-8978","addr":"경기도 포천시 일동면 수입리 496-5번지","indutype":"연료판매점 - LPG 취급점","category":"oil"}]},{"lat":"37.983569012","long":"127.31951144","imageIndex":7,"items":[{"name":"곰미네팜 농업회사법인 주식회사","tel":"031-836-5007","addr":"경기도 포천시 일동면 수입리 455-1번지","indutype":"음료식품 - 농·축·수산품","category":"food"}]},{"lat":"37.983767505","long":"127.32273357","imageIndex":7,"items":[{"name":"이대째물회횟집건어물","tel":"031-533-3534","addr":"경기도 포천시 일동면 수입리 400-8번지","indutype":"음료식품 - 농·축·수산품","category":"food"}]},{"lat":"37.974184017","long":"127.32520721","imageIndex":7,"items":[{"name":"재현네농원","tel":"031-535-9121","addr":"경기도 포천시 일동면 수입리 279-10","indutype":"음료식품 - 농·축·수산품","category":"food"}]},{"lat":"38.002930792","long":"127.30886948","imageIndex":7,"items":[{"name":"포레스트","tel":"031-536-0777","addr":"경기도 포천시 일동면 수입리 716번지","indutype":"음료식품 - 기타음료식품","category":"food"}]},{"lat":"37.963186241","long":"127.32100565","imageIndex":0,"items":[{"name":"광능공업사","tel":"031-536-3447","addr":"경기도 포천시 일동면 수입리 159-1번지","indutype":"자동차정비 유지 - 자동차정비","category":"car"}]},{"lat":"37.980406931","long":"127.32608808","imageIndex":0,"items":[{"name":"오명카센타","tel":"031-532-8811","addr":"경기도 포천시 일동면 수입리 36번지","indutype":"자동차정비 유지 - 자동차정비","category":"car"}]},{"lat":"37.963544725","long":"127.32170134","imageIndex":0,"items":[{"name":"일동타이어","tel":"031-533-7388","addr":"경기도 포천시 일동면 수입리 145-4 제3,4호","indutype":"자동차정비 유지 - 자동차정비","category":"car"},{"name":"일동타이어렉카","tel":"031-533-7388","addr":"경기도 포천시 일동면 수입리 145-4번지 3호,4호","indutype":"자동차정비 유지 - 자동차시트·타이어","category":"car"}]},{"lat":"37.974184017","long":"127.32520721","imageIndex":0,"items":[{"name":"차사랑 외형복원","tel":"031-531-8658","addr":"경기도 포천시 일동면 수입리 279-10번지","indutype":"자동차정비 유지 - 자동차정비","category":"car"}]},{"lat":"37.972714854","long":"127.32545117","imageIndex":5,"items":[{"name":"수모텔","tel":"031-535-0680","addr":"경기도 포천시 일동면 수입리 75-2번지","indutype":"숙박업 - 여관/기타숙박업","category":"hotel"}]},{"lat":"38.006766949","long":"127.30254334","imageIndex":5,"items":[{"name":"수애","tel":"","addr":"경기도 포천시 일동면 수입리 844-1번지","indutype":"숙박업 - 여관/기타숙박업","category":"hotel"}]},{"lat":"38.008873701","long":"127.29953449","imageIndex":5,"items":[{"name":"스위스모텔","tel":"031-535-2912","addr":"경기도 포천시 일동면 수입리 859-1번지","indutype":"숙박업 - 여관/기타숙박업","category":"hotel"}]},{"lat":"38.010650516","long":"127.29873319","imageIndex":5,"items":[{"name":"킹덤","tel":"031-535-7733","addr":"경기도 포천시 일동면 수입리 869번지","indutype":"숙박업 - 여관/기타숙박업","category":"hotel"}]},{"lat":"38.009321967","long":"127.30040168","imageIndex":5,"items":[{"name":"하이트모텔","tel":"031-535-7331","addr":"경기도 포천시 일동면 수입리 858-1번지","indutype":"숙박업 - 여관/기타숙박업","category":"hotel"}]},{"lat":"37.974851249","long":"127.32500527","imageIndex":8,"items":[{"name":"자연산약초","tel":"031-536-6291","addr":"경기도 포천시 일동면 수입리 279-4번지","indutype":"약국 - 한약방","category":"medical"}]},{"lat":"37.961243381","long":"127.31984798","imageIndex":7,"items":[{"name":"주식회사 기산유통","tel":"031-532-7186","addr":"경기도 포천시 일동면 수입리 161-5번지 지하1층","indutype":"유통업 영리 - 슈퍼마켓","category":"mart"}]},{"lat":"38.0142625","long":"127.29539984","imageIndex":13,"items":[{"name":"풍혈산캠핑파크","tel":"031-536-2233","addr":"경기도 포천시 일동면 수입리 903","indutype":"레저업소 - 기타레져업소","category":"leisure"}]}]