[{"lat":"37.732319315","long":"126.75102181","imageIndex":13,"items":[{"name":"1001안경&콘텍트 (운정점)","tel":"031-946-1001","addr":"경기도 파주시 와동동 1301-4 해솔프라자","indutype":"보건위생 - 안경","category":"beauty"},{"name":"디아르떼보스헤어(운정점)","tel":"031-946-6377","addr":"경기도 파주시 와동동 1301-4번지","indutype":"보건위생 - 미용원","category":"beauty"},{"name":"운정아동발달센터","tel":"031-942-4285","addr":"경기도 파주시 와동동 1301-4번지","indutype":"보건위생 - 기타대인서비스","category":"beauty"},{"name":"유니트론보청기 파주점","tel":"","addr":"경기도 파주시 와동동 1301-4번지","indutype":"보건위생 - 의료용품","category":"beauty"},{"name":"이니스프리 파주운정점","tel":"031-945-2476","addr":"경기도 파주시 와동동 1301-4번지","indutype":"보건위생 - 화장품","category":"beauty"}]},{"lat":"37.731730754","long":"126.75818182","imageIndex":13,"items":[{"name":"J.K헤어","tel":"031-946-1671","addr":"경기도 파주시 와동동 240번지 가람마을3단지동문아파트","indutype":"보건위생 - 미용원","category":"beauty"},{"name":"행복나무미용실(Hair shop)","tel":"031-946-7532","addr":"경기도 파주시 와동동 240번지 가람마을3단지동문아파트","indutype":"보건위생 - 미용원","category":"beauty"}]},{"lat":"37.732480986","long":"126.76376061","imageIndex":13,"items":[{"name":"SR헤어","tel":"031-915-0037","addr":"경기도 파주시 와동동 1338 205호","indutype":"보건위생 - 미용원","category":"beauty"},{"name":"언니네 미용실","tel":"070-8632-2070","addr":"경기도 파주시 와동동 1338번지 가람마을7단지한라비발디 상가동 109호","indutype":"보건위생 - 미용원","category":"beauty"}]},{"lat":"37.734980014","long":"126.75237413","imageIndex":13,"items":[{"name":"S헤어살롱","tel":"031-947-8756","addr":"경기도 파주시 와동동 1593번지","indutype":"보건위생 - 미용원","category":"beauty"}]},{"lat":"37.72828442","long":"126.75593582","imageIndex":13,"items":[{"name":"가위소리","tel":"031-946-4585","addr":"경기도 파주시 와동동 205번지","indutype":"보건위생 - 미용원","category":"beauty"},{"name":"유정스킨케어","tel":"031-958-9617","addr":"경기도 파주시 와동동 205번지","indutype":"보건위생 - 피부미용실","category":"beauty"}]},{"lat":"37.731590297","long":"126.75137594","imageIndex":13,"items":[{"name":"네이처컬렉션(NC2019)","tel":"031-944-3077","addr":"경기도 파주시 와동동 1303-1번지","indutype":"보건위생 - 화장품","category":"beauty"},{"name":"린네일아트","tel":"031-945-3210","addr":"경기도 파주시 와동동 1303-1번지","indutype":"보건위생 - 피부미용실","category":"beauty"},{"name":"오렌즈운정점","tel":"031-943-6002","addr":"경기도 파주시 와동동 1303-1번지","indutype":"보건위생 - 안경","category":"beauty"}]},{"lat":"37.719597856","long":"126.7510422","imageIndex":13,"items":[{"name":"네일 루","tel":"070-5667-2751","addr":"경기도 파주시 와동동 1399번지","indutype":"보건위생 - 피부미용실","category":"beauty"},{"name":"채리 헤어","tel":"070-4110-3419","addr":"경기도 파주시 와동동 1399번지","indutype":"보건위생 - 미용원","category":"beauty"}]},{"lat":"37.732625273","long":"126.75085061","imageIndex":13,"items":[{"name":"네일숲","tel":"031-945-0590","addr":"경기도 파주시 와동동 1301-3번지","indutype":"보건위생 - 피부미용실","category":"beauty"}]},{"lat":"37.734428109","long":"126.75554105","imageIndex":13,"items":[{"name":"네일스토리","tel":"","addr":"경기도 파주시 와동동 1557번지","indutype":"보건위생 - 미용재료","category":"beauty"}]},{"lat":"37.732955812","long":"126.75376493","imageIndex":13,"items":[{"name":"네일은스타","tel":"031-942-8294","addr":"경기도 파주시 와동동 1308번지 가람마을1단지벽산한라아파트","indutype":"보건위생 - 피부미용실","category":"beauty"},{"name":"네일퐁당","tel":"031-949-8230","addr":"경기도 파주시 와동동 1308번지","indutype":"보건위생 - 피부미용실","category":"beauty"},{"name":"아이미","tel":"070-8699-3336","addr":"경기도 파주시 와동동 1308번지","indutype":"보건위생 - 화장품","category":"beauty"},{"name":"인헤어(in hair)","tel":"031-000-0000","addr":"경기도 파주시 와동동 1308번지","indutype":"보건위생 - 미용원","category":"beauty"},{"name":"한라미용실","tel":"031-943-8225","addr":"경기도 파주시 와동동 1308번지","indutype":"보건위생 - 미용원","category":"beauty"}]},{"lat":"37.73412396","long":"126.7609306","imageIndex":13,"items":[{"name":"네일해쏘","tel":"","addr":"경기도 파주시 와동동 1331번지 가람마을6단지","indutype":"보건위생 - 피부미용실","category":"beauty"},{"name":"시저스헤어","tel":"031-945-8544","addr":"경기도 파주시 와동동 1331번지","indutype":"보건위생 - 미용원","category":"beauty"},{"name":"튈헤어벨리","tel":"031-941-8544","addr":"경기도 파주시 와동동 1331번지 가람마을6단지","indutype":"보건위생 - 미용원","category":"beauty"}]},{"lat":"37.735122402","long":"126.7515455","imageIndex":13,"items":[{"name":"노블뷰티","tel":"070-7622-4486","addr":"경기도 파주시 와동동 1625-6번지","indutype":"보건위생 - 피부미용실","category":"beauty"},{"name":"노블뷰티 (네일)","tel":"070-7622-4486","addr":"경기도 파주시 와동동 1625-6번지","indutype":"보건위생 - 피부미용실","category":"beauty"}]},{"lat":"37.735318818","long":"126.75070535","imageIndex":13,"items":[{"name":"눈썹언냐(eyeborw sister)","tel":"031-000-0000","addr":"경기도 파주시 와동동 1628-4번지","indutype":"보건위생 - 미용원","category":"beauty"}]},{"lat":"37.734401813","long":"126.75162735","imageIndex":13,"items":[{"name":"다나헤어(DANA hair)","tel":"","addr":"경기도 파주시 와동동 1622-2번지","indutype":"보건위생 - 미용원","category":"beauty"}]},{"lat":"37.721454613","long":"126.75141021","imageIndex":13,"items":[{"name":"다산밴","tel":"","addr":"경기도 파주시 와동동 1404번지 해솔마을7단지롯데캐슬","indutype":"보건위생 - 기타대인서비스","category":"beauty"},{"name":"리사헤어","tel":"031-946-2277","addr":"경기도 파주시 와동동 1404번지 해솔마을7단지롯데캐슬","indutype":"보건위생 - 미용원","category":"beauty"},{"name":"스텔라헤어","tel":"031-954-5757","addr":"경기도 파주시 와동동 1404번지 해솔마을7단지롯데캐슬","indutype":"보건위생 - 미용원","category":"beauty"},{"name":"하비헤어","tel":"031-941-9020","addr":"경기도 파주시 와동동 1404번지 해솔마을7단지롯데캐슬","indutype":"보건위생 - 미용원","category":"beauty"}]},{"lat":"37.735006118","long":"126.75620845","imageIndex":13,"items":[{"name":"더블유(W)헤어","tel":"031-944-3695","addr":"경기도 파주시 와동동 1564-3. 1층","indutype":"보건위생 - 미용원","category":"beauty"}]},{"lat":"37.728567278","long":"126.75334858","imageIndex":13,"items":[{"name":"딜리코헤어","tel":"031-945-6765","addr":"경기도 파주시 와동동 1344번지 가람마을9단지남양휴튼","indutype":"보건위생 - 미용원","category":"beauty"},{"name":"루시드헤어","tel":"031-942-7225","addr":"경기도 파주시 와동동 1344번지 가람마을9단지남양휴튼 202동 1층 2호","indutype":"보건위생 - 미용원","category":"beauty"},{"name":"써니네일(써니nail)","tel":"","addr":"경기도 파주시 와동동 1344번지 가람마을9단지남양휴튼","indutype":"보건위생 - 피부미용실","category":"beauty"}]},{"lat":"37.73637443","long":"126.75140513","imageIndex":13,"items":[{"name":"라티아라네일","tel":"031-942-7515","addr":"경기도 파주시 와동동 1638번지","indutype":"보건위생 - 피부미용실","category":"beauty"}]},{"lat":"37.73548077","long":"126.7506027","imageIndex":13,"items":[{"name":"르네셀 문화공간","tel":"","addr":"경기도 파주시 와동동 1628-5번지","indutype":"보건위생 - 화장품","category":"beauty"}]},{"lat":"37.735008959","long":"126.75756977","imageIndex":13,"items":[{"name":"마크해리스","tel":"031-941-5128","addr":"경기도 파주시 와동동 1551-2번지","indutype":"보건위생 - 미용원","category":"beauty"}]},{"lat":"37.731010696","long":"126.75421385","imageIndex":13,"items":[{"name":"맑은피부#","tel":"031-939-8058","addr":"경기도 파주시 와동동 1311번지","indutype":"보건위생 - 피부미용실","category":"beauty"}]},{"lat":"37.734763977","long":"126.75674244","imageIndex":13,"items":[{"name":"명품웨이팅","tel":"031-945-4932","addr":"경기도 파주시 와동동 1553번지","indutype":"보건위생 - 화장품","category":"beauty"},{"name":"벗네일","tel":"031-947-9735","addr":"경기도 파주시 와동동 1553번지","indutype":"보건위생 - 피부미용실","category":"beauty"},{"name":"커트클럽 가람점","tel":"031-957-3676","addr":"경기도 파주시 와동동 1553번지","indutype":"보건위생 - 미용원","category":"beauty"}]},{"lat":"37.73228439","long":"126.75154375","imageIndex":13,"items":[{"name":"미그린","tel":"070-4686-9412","addr":"경기도 파주시 와동동 1302-2번지","indutype":"보건위생 - 화장품","category":"beauty"}]},{"lat":"37.734872777","long":"126.75707107","imageIndex":13,"items":[{"name":"미소피부","tel":"031-945-4887","addr":"경기도 파주시 와동동 1551-4번지","indutype":"보건위생 - 피부미용실","category":"beauty"},{"name":"아르떼헤어","tel":"031-941-7774","addr":"경기도 파주시 와동동 1551-4번지","indutype":"보건위생 - 미용원","category":"beauty"},{"name":"젠틀헤어샵","tel":"032-532-1628","addr":"경기도 파주시 와동동 1551-4번지","indutype":"보건위생 - 미용원","category":"beauty"}]},{"lat":"37.73517687","long":"126.75173817","imageIndex":13,"items":[{"name":"미앤미헤어","tel":"031-942-2077","addr":"경기도 파주시 와동동 1625-5번지","indutype":"보건위생 - 미용원","category":"beauty"}]},{"lat":"37.731203373","long":"126.75160412","imageIndex":13,"items":[{"name":"미장원 1985","tel":"031-943-1985","addr":"경기도 파주시 와동동 1303-3번지","indutype":"보건위생 - 미용원","category":"beauty"}]},{"lat":"37.734564179","long":"126.75598303","imageIndex":13,"items":[{"name":"바라보다","tel":"031-941-0046","addr":"경기도 파주시 와동동 1553-3번지","indutype":"보건위생 - 안경","category":"beauty"}]},{"lat":"37.73433993","long":"126.75218343","imageIndex":13,"items":[{"name":"부티크아티산","tel":"031-942-6328","addr":"경기도 파주시 와동동 1622-6번지","indutype":"보건위생 - 미용원","category":"beauty"}]},{"lat":"37.731821955","long":"126.75871468","imageIndex":13,"items":[{"name":"비에이세븐(BA7)경숙이야기","tel":"031-970-0227","addr":"경기도 파주시 와동동 240번지 가람마을3단지동문아파트","indutype":"보건위생 - 화장품","category":"beauty"}]},{"lat":"37.733393451","long":"126.75195974","imageIndex":13,"items":[{"name":"서영뷰티센터","tel":"031-945-1834","addr":"경기도 파주시 와동동 1308번지 가람마을1단지벽산한라아파트","indutype":"보건위생 - 화장품","category":"beauty"}]},{"lat":"37.7342907","long":"126.7544638","imageIndex":13,"items":[{"name":"세레니끄 파주가람점","tel":"031-943-1580","addr":"경기도 파주시 와동동 1557-4번지","indutype":"보건위생 - 화장품","category":"beauty"}]},{"lat":"37.734926246","long":"126.76114353","imageIndex":13,"items":[{"name":"스위스라인","tel":"031-908-2366","addr":"경기도 파주시 와동동 1331번지 가람마을6단지","indutype":"보건위생 - 화장품","category":"beauty"}]},{"lat":"37.735760768","long":"126.75093074","imageIndex":13,"items":[{"name":"아담한미용실","tel":"","addr":"경기도 파주시 와동동 1636-9번지","indutype":"보건위생 - 미용원","category":"beauty"}]},{"lat":"37.73487011","long":"126.76454704","imageIndex":13,"items":[{"name":"아모레 카운셀러","tel":"031-943-3314","addr":"경기도 파주시 와동동 1488-2번지","indutype":"보건위생 - 화장품","category":"beauty"},{"name":"아모레 카운셀러","tel":"031-943-3314","addr":"경기도 파주시 와동동 1488-2번지","indutype":"보건위생 - 화장품","category":"beauty"},{"name":"아모레 카운셀러","tel":"031-943-3314","addr":"경기도 파주시 와동동 1488-2번지","indutype":"보건위생 - 화장품","category":"beauty"},{"name":"아모레 카운셀러","tel":"031-943-3314","addr":"경기도 파주시 와동동 1488-2번지","indutype":"보건위생 - 화장품","category":"beauty"},{"name":"아모레 카운셀러","tel":"031-943-3314","addr":"경기도 파주시 와동동 1488-2번지","indutype":"보건위생 - 화장품","category":"beauty"},{"name":"아모레 카운셀러","tel":"031-943-3314","addr":"경기도 파주시 와동동 1488-2번지","indutype":"보건위생 - 화장품","category":"beauty"},{"name":"아모레 카운셀러","tel":"031-943-3314","addr":"경기도 파주시 와동동 1488-2번지","indutype":"보건위생 - 화장품","category":"beauty"},{"name":"아모레외판(윤영)","tel":"031-943-3314","addr":"경기도 파주시 와동동 1488-2번지","indutype":"보건위생 - 화장품","category":"beauty"},{"name":"아모레카운셀러","tel":"031-943-3314","addr":"경기도 파주시 와동동 1488-2번지","indutype":"보건위생 - 화장품","category":"beauty"},{"name":"아모레카운셀러","tel":"031-943-3314","addr":"경기도 파주시 와동동 1488-2번지","indutype":"보건위생 - 화장품","category":"beauty"},{"name":"아모레카운셀러","tel":"031-943-3314","addr":"경기도 파주시 와동동 1488-2번지","indutype":"보건위생 - 화장품","category":"beauty"},{"name":"아모레카운셀러","tel":"031-943-3314","addr":"경기도 파주시 와동동 1488-2번지","indutype":"보건위생 - 화장품","category":"beauty"},{"name":"아모레카운셀러","tel":"031-943-3314","addr":"경기도 파주시 와동동 1488-2번지","indutype":"보건위생 - 화장품","category":"beauty"},{"name":"아모레카운셀러","tel":"031-943-3314","addr":"경기도 파주시 와동동 1488-2번지","indutype":"보건위생 - 화장품","category":"beauty"},{"name":"아모레카운셀러","tel":"031-943-3314","addr":"경기도 파주시 와동동 1488-2번지","indutype":"보건위생 - 화장품","category":"beauty"},{"name":"아모레카운셀러","tel":"031-943-3314","addr":"경기도 파주시 와동동 1488-2번지","indutype":"보건위생 - 화장품","category":"beauty"},{"name":"아모레카운셀러","tel":"031-943-3314","addr":"경기도 파주시 와동동 1488-2번지","indutype":"보건위생 - 화장품","category":"beauty"},{"name":"아모레카운셀러","tel":"031-943-3314","addr":"경기도 파주시 와동동 1488-2번지","indutype":"보건위생 - 화장품","category":"beauty"},{"name":"아모레카운셀러","tel":"031-943-3314","addr":"경기도 파주시 와동동 1488-2번지","indutype":"보건위생 - 화장품","category":"beauty"},{"name":"아모레카운셀러","tel":"031-943-3314","addr":"경기도 파주시 와동동 1488-2번지","indutype":"보건위생 - 화장품","category":"beauty"},{"name":"아모레카운셀러","tel":"031-943-3314","addr":"경기도 파주시 와동동 1488-2번지","indutype":"보건위생 - 화장품","category":"beauty"},{"name":"아모레카운셀러","tel":"031-943-3314","addr":"경기도 파주시 와동동 1488-2번지","indutype":"보건위생 - 화장품","category":"beauty"},{"name":"아모레카운셀러","tel":"031-943-3314","addr":"경기도 파주시 와동동 1488-2번지","indutype":"보건위생 - 화장품","category":"beauty"},{"name":"아모레퍼시픽 파주가람점","tel":"031-943-3314","addr":"경기도 파주시 와동동 1488-2번지","indutype":"보건위생 - 화장품","category":"beauty"},{"name":"주디헤어","tel":"031-944-5454","addr":"경기도 파주시 와동동 1488-2번지","indutype":"보건위생 - 미용원","category":"beauty"}]},{"lat":"37.727663002","long":"126.75605132","imageIndex":13,"items":[{"name":"아우라팩토리","tel":"","addr":"경기도 파주시 와동동 205번지 가람마을8단지동문굿모닝힐","indutype":"보건위생 - 미용재료","category":"beauty"}]},{"lat":"37.726062926","long":"126.7534931","imageIndex":13,"items":[{"name":"에비뉴헤어","tel":"031-945-4498","addr":"경기도 파주시 와동동 1356번지","indutype":"보건위생 - 미용원","category":"beauty"}]},{"lat":"37.726902792","long":"126.76313199","imageIndex":13,"items":[{"name":"여지","tel":"","addr":"경기도 파주시 와동동 1450-1번지","indutype":"보건위생 - 기타대인서비스","category":"beauty"}]},{"lat":"37.734644658","long":"126.75143367","imageIndex":13,"items":[{"name":"예쁜속눈썹N왁싱","tel":"031-948-9555","addr":"경기도 파주시 와동동 1624-11번지","indutype":"보건위생 - 미용원","category":"beauty"}]},{"lat":"37.724786019","long":"126.75465435","imageIndex":13,"items":[{"name":"오땡큐머리염색전문점","tel":"031-944-5525","addr":"경기도 파주시 와동동 1368번지","indutype":"보건위생 - 미용원","category":"beauty"}]},{"lat":"37.735422971","long":"126.75307599","imageIndex":13,"items":[{"name":"오아이씨(OIC)꿀피부","tel":"031-943-2575","addr":"경기도 파주시 와동동 1652-2번지","indutype":"보건위생 - 화장품","category":"beauty"}]},{"lat":"37.728209332","long":"126.76320718","imageIndex":13,"items":[{"name":"운정스파렌드사우나","tel":"031-941-8866","addr":"경기도 파주시 와동동 1469번지","indutype":"보건위생 - 사우나","category":"beauty"},{"name":"운정스파힐링케어","tel":"031-945-2166","addr":"경기도 파주시 와동동 1469번지","indutype":"보건위생 - 피부미용실","category":"beauty"}]},{"lat":"37.733175095","long":"126.75096219","imageIndex":13,"items":[{"name":"운정점","tel":"031-957-5284","addr":"경기도 파주시 와동동 1301번지","indutype":"보건위생 - 화장품","category":"beauty"}]},{"lat":"37.724423329","long":"126.76223255","imageIndex":13,"items":[{"name":"운정탐라랜드","tel":"031-948-0308","addr":"경기도 파주시 와동동 1426-1번지","indutype":"보건위생 - 사우나","category":"beauty"}]},{"lat":"37.735647847","long":"126.75290507","imageIndex":13,"items":[{"name":"워니스킨","tel":"","addr":"경기도 파주시 와동동 1654-5번지","indutype":"보건위생 - 피부미용실","category":"beauty"},{"name":"조니네일","tel":"02-1111-1111","addr":"경기도 파주시 와동동 1654-5번지","indutype":"보건위생 - 피부미용실","category":"beauty"}]},{"lat":"37.734176044","long":"126.75137854","imageIndex":13,"items":[{"name":"유니즈헤어","tel":"031-948-4331","addr":"경기도 파주시 와동동 1622-11번지","indutype":"보건위생 - 미용원","category":"beauty"}]},{"lat":"37.734843036","long":"126.75151241","imageIndex":13,"items":[{"name":"유정화 헤어샵","tel":"","addr":"경기도 파주시 와동동 1624-1번지","indutype":"보건위생 - 이용원","category":"beauty"}]},{"lat":"37.733478313","long":"126.75803993","imageIndex":13,"items":[{"name":"제이헤어 (J HAIR)","tel":"070-7808-1555","addr":"경기도 파주시 와동동 1321번지 가람마을4단지한양수자인","indutype":"보건위생 - 미용원","category":"beauty"}]},{"lat":"37.725567692","long":"126.75792986","imageIndex":13,"items":[{"name":"주식회사 덴트화이트","tel":"031-946-2803","addr":"경기도 파주시 와동동 1374번지","indutype":"보건위생 - 의료용품","category":"beauty"},{"name":"쿼럼바이오 주식회사(지점)","tel":"031-946-2803","addr":"경기도 파주시 와동동 1374번지","indutype":"보건위생 - 의료용품","category":"beauty"}]},{"lat":"37.735450816","long":"126.75346161","imageIndex":13,"items":[{"name":"지연샵 (jiyeon#)","tel":"","addr":"경기도 파주시 와동동 1652-4번지","indutype":"보건위생 - 미용원","category":"beauty"}]},{"lat":"37.731645369","long":"126.7518522","imageIndex":13,"items":[{"name":"청춘헤어살롱","tel":"031-942-1195","addr":"경기도 파주시 와동동 1302-5번지","indutype":"보건위생 - 미용원","category":"beauty"},{"name":"헤어바이뮤즈","tel":"031-946-6037","addr":"경기도 파주시 와동동 1302-5번지","indutype":"보건위생 - 미용원","category":"beauty"}]},{"lat":"37.731843409","long":"126.75177212","imageIndex":13,"items":[{"name":"컬러체인지","tel":"031-948-1005","addr":"경기도 파주시 와동동 1302-4번지","indutype":"보건위생 - 미용원","category":"beauty"},{"name":"헤어카페","tel":"031-942-2063","addr":"경기도 파주시 와동동 1302-4번지","indutype":"보건위생 - 미용원","category":"beauty"}]},{"lat":"37.735145139","long":"126.75806848","imageIndex":13,"items":[{"name":"케이샵","tel":"031-942-3355","addr":"경기도 파주시 와동동 1551번지","indutype":"보건위생 - 미용원","category":"beauty"}]},{"lat":"37.734174905","long":"126.75084536","imageIndex":13,"items":[{"name":"케이유투오패션","tel":"","addr":"경기도 파주시 와동동 1620-3번지","indutype":"보건위생 - 안경","category":"beauty"}]},{"lat":"37.734815717","long":"126.75137637","imageIndex":13,"items":[{"name":"크러쉬온 네일","tel":"031-111-1111","addr":"경기도 파주시 와동동 1624번지","indutype":"보건위생 - 미용재료","category":"beauty"}]},{"lat":"37.733039225","long":"126.75062233","imageIndex":13,"items":[{"name":"투에이치 (2H)헤어","tel":"","addr":"경기도 파주시 와동동 1301-1번지","indutype":"보건위생 - 미용원","category":"beauty"},{"name":"헤어테라피","tel":"031-942-2848","addr":"경기도 파주시 와동동 1301-1번지","indutype":"보건위생 - 미용원","category":"beauty"}]},{"lat":"37.723787615","long":"126.75118681","imageIndex":13,"items":[{"name":"파주시청청소년상담복지센터","tel":"031-946-0022","addr":"경기도 파주시 와동동 1358번지","indutype":"보건위생 - 기타대인서비스","category":"beauty"}]},{"lat":"37.728343458","long":"126.76270764","imageIndex":13,"items":[{"name":"함께걷는아동청소년발달연구소","tel":"031-935-6550","addr":"경기도 파주시 와동동 1464번지","indutype":"보건위생 - 기타대인서비스","category":"beauty"}]},{"lat":"37.735117975","long":"126.76237945","imageIndex":13,"items":[{"name":"헤어갤러리","tel":"031-943-2733","addr":"경기도 파주시 와동동 1332번지 가람마을5단지","indutype":"보건위생 - 미용원","category":"beauty"}]},{"lat":"37.73458871","long":"126.750549","imageIndex":13,"items":[{"name":"헤어바이미담","tel":"","addr":"경기도 파주시 와동동 1615-3번지","indutype":"보건위생 - 미용원","category":"beauty"}]},{"lat":"37.723430133","long":"126.75254914","imageIndex":13,"items":[{"name":"헤어살롱 더반하다","tel":"031-957-3336","addr":"경기도 파주시 와동동 1365-1번지","indutype":"보건위생 - 미용원","category":"beauty"}]},{"lat":"37.735094018","long":"126.75091031","imageIndex":13,"items":[{"name":"헤어헤반","tel":"070-7365-1474","addr":"경기도 파주시 와동동 1625번지","indutype":"보건위생 - 미용원","category":"beauty"}]},{"lat":"37.731508391","long":"126.75524448","imageIndex":13,"items":[{"name":"효심유통","tel":"031-903-9300","addr":"경기도 파주시 와동동 1311번지 휴먼시아가람마을","indutype":"보건위생 - 기타대인서비스","category":"beauty"}]}]