[{"lat":"37.624613162","long":"127.35523926","imageIndex":7,"items":[{"name":"(주)셀라비","tel":"031-771-7048","addr":"경기도 양평군 서종면 문호리 623번지 충 2","indutype":"음료식품 - 기타음료식품","category":"food"}]},{"lat":"37.608477409","long":"127.3489343","imageIndex":7,"items":[{"name":"가마봉한우 정육점","tel":"031-773-6640","addr":"경기도 양평군 서종면 문호리 739-1번지","indutype":"음료식품 - 정육점","category":"food"}]},{"lat":"37.621424057","long":"127.35209793","imageIndex":7,"items":[{"name":"강가에 어부의집","tel":"031-771-0255","addr":"경기도 양평군 서종면 문호리 655-4번지 1층","indutype":"음료식품 - 농·축·수산품","category":"food"}]},{"lat":"37.603675229","long":"127.3519923","imageIndex":7,"items":[{"name":"노다지유통","tel":"031-771-9939","addr":"경기도 양평군 서종면 문호리 390-6번지 1층","indutype":"음료식품 - 농·축·수산품","category":"food"}]},{"lat":"37.614093529","long":"127.36882613","imageIndex":7,"items":[{"name":"농업회사법인별빛하늘(주)","tel":"031-772-9974","addr":"경기도 양평군 서종면 문호리 16-11번지","indutype":"음료식품 - 기타음료식품","category":"food"}]},{"lat":"37.603787688","long":"127.35356692","imageIndex":7,"items":[{"name":"담은이야기","tel":"","addr":"경기도 양평군 서종면 문호리 395-3번지 2층 202호","indutype":"음료식품 - 기타음료식품","category":"food"}]},{"lat":"37.603286342","long":"127.35248876","imageIndex":7,"items":[{"name":"뚜레쥬르 양평서종","tel":"031-772-7830","addr":"경기도 양평군 서종면 문호리 388번지","indutype":"음료식품 - 제과점","category":"food"}]},{"lat":"37.603456311","long":"127.37067651","imageIndex":7,"items":[{"name":"마진배농장","tel":"031-773-6241","addr":"경기도 양평군 서종면 문호리 174번지 1층","indutype":"음료식품 - 농·축·수산품","category":"food"}]},{"lat":"37.595427636","long":"127.35018736","imageIndex":7,"items":[{"name":"문호리자연건강마을","tel":"031-774-5969","addr":"경기도 양평군 서종면 문호리 952-5번지","indutype":"건강식품 - 기타건강식품","category":"food"}]},{"lat":"37.60379088","long":"127.35249112","imageIndex":7,"items":[{"name":"문호정육점","tel":"031-771-3663","addr":"경기도 양평군 서종면 문호리 394-1번지","indutype":"음료식품 - 정육점","category":"food"}]},{"lat":"37.630813113","long":"127.35781745","imageIndex":7,"items":[{"name":"블뤼테(Blute)","tel":"070-7786-1061","addr":"경기도 양평군 서종면 문호리 572-1번지 3,4층","indutype":"음료식품 - 기타음료식품","category":"food"}]},{"lat":"37.616566429","long":"127.34951545","imageIndex":7,"items":[{"name":"산골푸드","tel":"070-0000-0000","addr":"경기도 양평군 서종면 문호리 658-3번지","indutype":"음료식품 - 정육점","category":"food"},{"name":"산골푸드","tel":"02-2772-8274","addr":"경기도 양평군 서종면 문호리 658-3번지 산골푸드","indutype":"음료식품 - 정육점","category":"food"}]},{"lat":"37.607477742","long":"127.34879377","imageIndex":7,"items":[{"name":"서종건강기능식품","tel":"031-773-1356","addr":"경기도 양평군 서종면 문호리 761-4번지 2층 201호","indutype":"건강식품 - 기타건강식품","category":"food"}]},{"lat":"37.604342878","long":"127.35167834","imageIndex":7,"items":[{"name":"성원식육점","tel":"031-773-6020","addr":"경기도 양평군 서종면 문호리 778-1번지","indutype":"음료식품 - 정육점","category":"food"}]},{"lat":"37.60111901","long":"127.35113106","imageIndex":7,"items":[{"name":"영농조합법인 휴앤숲","tel":"031-774-2441","addr":"경기도 양평군 서종면 문호리 841-4번지","indutype":"음료식품 - 농·축·수산품","category":"food"}]},{"lat":"37.603616459","long":"127.35660106","imageIndex":7,"items":[{"name":"오늘페이지","tel":"","addr":"경기도 양평군 서종면 문호리 368-4번지 1층 103호","indutype":"음료식품 - 기타음료식품","category":"food"}]},{"lat":"37.583620929","long":"127.35757065","imageIndex":7,"items":[{"name":"일공육칠(1067)","tel":"","addr":"경기도 양평군 서종면 문호리 1067-5번지 1067,1067-6","indutype":"음료식품 - 기타음료식품","category":"food"}]},{"lat":"37.602484487","long":"127.352485","imageIndex":7,"items":[{"name":"지아축산","tel":"031-774-8903","addr":"경기도 양평군 서종면 문호리 352-1번지","indutype":"음료식품 - 정육점","category":"food"}]},{"lat":"37.580876852","long":"127.3592671","imageIndex":7,"items":[{"name":"카페대추","tel":"","addr":"경기도 양평군 서종면 문호리 1084-3번지","indutype":"음료식품 - 기타음료식품","category":"food"}]},{"lat":"37.601089609","long":"127.36684867","imageIndex":7,"items":[{"name":"콜베마을백야초","tel":"031-771-6133","addr":"경기도 양평군 서종면 문호리 226번지","indutype":"음료식품 - 기타음료식품","category":"food"},{"name":"콜베엔자임","tel":"031-771-6133","addr":"경기도 양평군 서종면 문호리 226번지","indutype":"음료식품 - 기타음료식품","category":"food"}]},{"lat":"37.603923973","long":"127.35620616","imageIndex":7,"items":[{"name":"풍년방앗간","tel":"031-775-2275","addr":"경기도 양평군 서종면 문호리 370-7번지 1층","indutype":"음료식품 - 제과점","category":"food"}]},{"lat":"37.629285366","long":"127.35651876","imageIndex":7,"items":[{"name":"하버 (harbor)","tel":"031-773-5317","addr":"경기도 양평군 서종면 문호리 593-2번지","indutype":"음료식품 - 기타음료식품","category":"food"},{"name":"하버커피","tel":"03-111-1111","addr":"경기도 양평군 서종면 문호리 593-2번지 3층","indutype":"음료식품 - 기타음료식품","category":"food"}]}]