[{"lat":"37.098837995","long":"126.86360938","imageIndex":17,"items":[{"name":"(주) 씨투비","tel":"031-358-3116","addr":"경기도 화성시 장안면 수촌리 373-1번지","indutype":"유통업 영리 - 기타유통업","category":"other"}]},{"lat":"37.110283936","long":"126.85102152","imageIndex":17,"items":[{"name":"(주)중앙인재사","tel":"02-2267-2006","addr":"경기도 화성시 장안면 수촌리 745-26번지","indutype":"건축자재 - 목재·석재·철물","category":"other"}]},{"lat":"37.100169718","long":"126.86205457","imageIndex":17,"items":[{"name":"GS25장안수정로점","tel":"","addr":"경기도 화성시 장안면 수촌리 428-26번지","indutype":"유통업 영리 - 편 의 점","category":"other"},{"name":"만복상사","tel":"031-358-5959","addr":"경기도 화성시 장안면 수촌리 428-26번지","indutype":"신변잡화 - 기타잡화","category":"other"}]},{"lat":"37.094032306","long":"126.86101984","imageIndex":17,"items":[{"name":"GS25화성대원점","tel":"","addr":"경기도 화성시 장안면 수촌리 288-1번지","indutype":"유통업 영리 - 편 의 점","category":"other"}]},{"lat":"37.102452253","long":"126.86449147","imageIndex":17,"items":[{"name":"가나볼트","tel":"031-351-2636","addr":"경기도 화성시 장안면 수촌리 425-51번지 101동 102호","indutype":"기타 - 기계공구","category":"other"}]},{"lat":"37.102140789","long":"126.85288267","imageIndex":17,"items":[{"name":"강현체어","tel":"031-372-0763","addr":"경기도 화성시 장안면 수촌리 645번지","indutype":"가구 - 일반가구","category":"other"},{"name":"라온체어","tel":"031-111-1111","addr":"경기도 화성시 장안면 수촌리 645번지","indutype":"가구 - 기타가구","category":"other"}]},{"lat":"37.102950822","long":"126.85216111","imageIndex":17,"items":[{"name":"극동천막기업","tel":"031-351-5709","addr":"경기도 화성시 장안면 수촌리 714-1번지","indutype":"직물 - 카페트,커튼,천막,지물","category":"other"}]},{"lat":"37.105228407","long":"126.8652739","imageIndex":17,"items":[{"name":"극동호이스트크레인","tel":"031-318-7169","addr":"경기도 화성시 장안면 수촌리 416-19번지","indutype":"기타 - 기계공구","category":"other"},{"name":"극동호이스트크레인(주)","tel":"031-359-8058","addr":"경기도 화성시 장안면 수촌리 416-19번지","indutype":"기타 - 기계공구","category":"other"}]},{"lat":"37.105869234","long":"126.85860154","imageIndex":17,"items":[{"name":"남서울냉난방","tel":"02-6111-9833","addr":"경기도 화성시 장안면 수촌리 1413-10번지 남서울냉난방","indutype":"전기제품 - 냉열기기","category":"other"}]},{"lat":"37.095939139","long":"126.85820417","imageIndex":17,"items":[{"name":"노블디자인","tel":"031-358-1055","addr":"경기도 화성시 장안면 수촌리 308번지 다동 1층","indutype":"가구 - 일반가구","category":"other"}]},{"lat":"37.088255082","long":"126.85980465","imageIndex":17,"items":[{"name":"대성기공","tel":"031-351-3172","addr":"경기도 화성시 장안면 수촌리 130-3","indutype":"기타 - 기타 전문점","category":"other"}]},{"lat":"37.102807472","long":"126.86010352","imageIndex":17,"items":[{"name":"대한특수레이져","tel":"031-351-9088","addr":"경기도 화성시 장안면 수촌리 442-12","indutype":"기타 - 기계공구","category":"other"},{"name":"배관공구24시 조암점","tel":"031-351-3989","addr":"경기도 화성시 장안면 수촌리 442-12번지 1층","indutype":"건축자재 - 기타건축자재","category":"other"}]},{"lat":"37.090593313","long":"126.85611102","imageIndex":17,"items":[{"name":"더블유테크","tel":"02-435-5497","addr":"경기도 화성시 장안면 수촌리 159-8번지","indutype":"기타 - 기계공구","category":"other"},{"name":"삼정산업","tel":"031-402-3128","addr":"경기도 화성시 장안면 수촌리 159-8번지","indutype":"기타 - 기계공구","category":"other"}]},{"lat":"37.093951909","long":"126.8616049","imageIndex":17,"items":[{"name":"두성전기공구","tel":"031-358-0945","addr":"경기도 화성시 장안면 수촌리 292-5번지 풍양빌라 상가 101호","indutype":"기타 - 기계공구","category":"other"}]},{"lat":"37.103281562","long":"126.84325081","imageIndex":17,"items":[{"name":"드림종합공구","tel":"031-351-8909","addr":"경기도 화성시 장안면 수촌리 880-4","indutype":"기타 - 기계공구","category":"other"},{"name":"신광천막","tel":"031-351-8802","addr":"경기도 화성시 장안면 수촌리 880-4번지","indutype":"직물 - 카페트,커튼,천막,지물","category":"other"}]},{"lat":"37.103640741","long":"126.85624335","imageIndex":17,"items":[{"name":"등대목금형","tel":"02-2611-2081","addr":"경기도 화성시 장안면 수촌리 541-2번지","indutype":"기타 - 기계공구","category":"other"}]},{"lat":"37.100140129","long":"126.85991729","imageIndex":17,"items":[{"name":"매직테크","tel":"070-5147-2037","addr":"경기도 화성시 장안면 수촌리 1418-26번지","indutype":"기타 - 기계공구","category":"other"}]},{"lat":"37.10286726","long":"126.84338667","imageIndex":17,"items":[{"name":"멘티스","tel":"031-351-6588","addr":"경기도 화성시 장안면 수촌리 903-4번지 103호","indutype":"의류 - 정장","category":"other"},{"name":"신흥금속볼트","tel":"031-351-3210","addr":"경기도 화성시 장안면 수촌리 903-4번지 외2필지 104호","indutype":"기타 - 기계공구","category":"other"}]},{"lat":"37.103806146","long":"126.84472341","imageIndex":17,"items":[{"name":"미니스톱화성금의공단점","tel":"031-1577-9621","addr":"경기도 화성시 장안면 수촌리 1474-3번지","indutype":"유통업 영리 - 편 의 점","category":"other"}]},{"lat":"37.103146783","long":"126.86510893","imageIndex":17,"items":[{"name":"비즈토탈 사무용가구","tel":"031-358-1999","addr":"경기도 화성시 장안면 수촌리 419-20번지 1층","indutype":"가구 - 기타가구","category":"other"}]},{"lat":"37.102474988","long":"126.86085786","imageIndex":17,"items":[{"name":"상신ENG","tel":"031-358-2367","addr":"경기도 화성시 장안면 수촌리 442-8번지","indutype":"기타 - 기계공구","category":"other"},{"name":"상신전기기계","tel":"031-358-8256","addr":"경기도 화성시 장안면 수촌리 442-8번지","indutype":"기타 - 기계공구","category":"other"}]},{"lat":"37.103029782","long":"126.84363382","imageIndex":17,"items":[{"name":"세븐일레븐화성수촌점","tel":"","addr":"경기도 화성시 장안면 수촌리 903-3번지 1층 4,5호","indutype":"유통업 영리 - 편 의 점","category":"other"},{"name":"영호MRO","tel":"031-352-5446","addr":"경기도 화성시 장안면 수촌리 903-3번지","indutype":"유통업 영리 - 기타유통업","category":"other"}]},{"lat":"37.101896337","long":"126.85921653","imageIndex":17,"items":[{"name":"송림","tel":"031-366-4258","addr":"경기도 화성시 장안면 수촌리 554-1","indutype":"전기제품 - 기타전기제품","category":"other"}]},{"lat":"37.085201565","long":"126.86068765","imageIndex":17,"items":[{"name":"수민산업","tel":"031-353-6791","addr":"경기도 화성시 장안면 수촌리 129-26번지","indutype":"기타 - 기계공구","category":"other"}]},{"lat":"37.08969984","long":"126.87019467","imageIndex":17,"items":[{"name":"수봉농기계수리점","tel":"","addr":"경기도 화성시 장안면 수촌리 2-59번지","indutype":"수리서비스 - 기타수리서비스","category":"other"}]},{"lat":"37.104174195","long":"126.85054998","imageIndex":17,"items":[{"name":"신진상사","tel":"031-963-5044","addr":"경기도 화성시 장안면 수촌리 717번지","indutype":"수리서비스 - 기타수리서비스","category":"other"}]},{"lat":"37.095365944","long":"126.86108485","imageIndex":17,"items":[{"name":"씨유화성파인빌점","tel":"031-351-4450","addr":"경기도 화성시 장안면 수촌리 363-2번지 1층","indutype":"유통업 영리 - 편 의 점","category":"other"}]},{"lat":"37.102897187","long":"126.8524987","imageIndex":17,"items":[{"name":"아이지에이화성수촌점","tel":"031-768-0708","addr":"경기도 화성시 장안면 수촌리 713번지 1층 상가","indutype":"유통업 영리 - 편 의 점","category":"other"}]},{"lat":"37.103641975","long":"126.85724456","imageIndex":17,"items":[{"name":"에스와이솔루션","tel":"","addr":"경기도 화성시 장안면 수촌리 529-1번지","indutype":"전기제품 - 기타전기제품","category":"other"}]},{"lat":"37.103229087","long":"126.85132809","imageIndex":17,"items":[{"name":"용문밴딩","tel":"031-358-2413","addr":"경기도 화성시 장안면 수촌리 716-1번지","indutype":"건축자재 - 기타건축자재","category":"other"}]},{"lat":"37.092282124","long":"126.85924593","imageIndex":17,"items":[{"name":"우연철강","tel":"031-358-8842","addr":"경기도 화성시 장안면 수촌리 264-3번지","indutype":"건축자재 - 기타건축자재","category":"other"}]},{"lat":"37.099176017","long":"126.85264104","imageIndex":17,"items":[{"name":"우원고분자","tel":"031-351-8911","addr":"경기도 화성시 장안면 수촌리 967-3","indutype":"건축자재 - 기타건축자재","category":"other"}]},{"lat":"37.093813843","long":"126.8668243","imageIndex":17,"items":[{"name":"유로상사","tel":"070-4076-4456","addr":"경기도 화성시 장안면 수촌리 22번지 101호","indutype":"신변잡화 - 기타잡화","category":"other"}]},{"lat":"37.102673147","long":"126.85346659","imageIndex":17,"items":[{"name":"이스라엘스틸(주)","tel":"031-358-5727","addr":"경기도 화성시 장안면 수촌리 649-1번지","indutype":"기타 - 기계공구","category":"other"}]},{"lat":"37.103893579","long":"126.84954932","imageIndex":17,"items":[{"name":"좋은장갑&태극보루","tel":"031-227-0876","addr":"경기도 화성시 장안면 수촌리 942-4번지","indutype":"신변잡화 - 기타잡화","category":"other"}]},{"lat":"37.089975619","long":"126.85940775","imageIndex":17,"items":[{"name":"주식회사 일성포장","tel":"031-358-6256","addr":"경기도 화성시 장안면 수촌리 140번지","indutype":"유통업 영리 - 기타유통업","category":"other"}]},{"lat":"37.089260504","long":"126.85672095","imageIndex":17,"items":[{"name":"케미하우스","tel":"031-351-4223","addr":"경기도 화성시 장안면 수촌리 154번지","indutype":"직물 - 침구·수예점","category":"other"}]},{"lat":"37.101920567","long":"126.86443619","imageIndex":17,"items":[{"name":"페인트마트","tel":"031-358-1470","addr":"경기도 화성시 장안면 수촌리 425-46번지 C동 202호","indutype":"건축자재 - 페인트","category":"other"}]},{"lat":"37.098809561","long":"126.87024627","imageIndex":17,"items":[{"name":"포산전기볼트","tel":"070-4100-2384","addr":"경기도 화성시 장안면 수촌리 1435-28번지","indutype":"문화.취미 - 화원","category":"other"}]},{"lat":"37.09344625","long":"126.85338348","imageIndex":17,"items":[{"name":"하영산업","tel":"031-353-8624","addr":"경기도 화성시 장안면 수촌리 265-17번지","indutype":"기타 - 기계공구","category":"other"}]},{"lat":"37.092927301","long":"126.86380016","imageIndex":17,"items":[{"name":"한스 페키니즈","tel":"070-8031-4038","addr":"경기도 화성시 장안면 수촌리 61-1번지","indutype":"문화.취미 - 애완동물","category":"other"}]},{"lat":"37.089312301","long":"126.86229961","imageIndex":17,"items":[{"name":"행운산업","tel":"031-357-9029","addr":"경기도 화성시 장안면 수촌리 135-3번지","indutype":"건축자재 - 기타건축자재","category":"other"}]},{"lat":"37.09381414","long":"126.867083","imageIndex":17,"items":[{"name":"향남노블케어","tel":"031-351-5547","addr":"경기도 화성시 장안면 수촌리 22-3번지","indutype":"기타의료기관 - 기타의료기관 및 기타","category":"other"}]},{"lat":"37.097557689","long":"126.87077715","imageIndex":17,"items":[{"name":"흥일","tel":"031-351-5774","addr":"경기도 화성시 장안면 수촌리 13-21번지","indutype":"용역 서비스 - 기타용역서비스","category":"other"}]},{"lat":"37.109339327","long":"126.85219345","imageIndex":0,"items":[{"name":"(주)디프어스","tel":"031-000-0000","addr":"경기도 화성시 장안면 수촌리 745-34번지","indutype":"자동차정비 유지 - 자동차부품","category":"car"}]},{"lat":"37.10433832","long":"126.84513854","imageIndex":0,"items":[{"name":"뉴현대모터스","tel":"031-351-1026","addr":"경기도 화성시 장안면 수촌리 1473-1번지","indutype":"자동차정비 유지 - 자동차시트·타이어","category":"car"}]},{"lat":"37.102587146","long":"126.84280229","imageIndex":0,"items":[{"name":"스마트카","tel":"031-353-6993","addr":"경기도 화성시 장안면 수촌리 883-4번지","indutype":"자동차정비 유지 - 자동차정비","category":"car"},{"name":"스마트카","tel":"031-353-6993","addr":"경기도 화성시 장안면 수촌리 883-4","indutype":"자동차정비 유지 - 자동차정비","category":"car"}]},{"lat":"37.103618584","long":"126.85293601","imageIndex":0,"items":[{"name":"양지상사","tel":"","addr":"경기도 화성시 장안면 수촌리 709번지","indutype":"자동차정비 유지 - 윤활유 전문 판매","category":"car"}]},{"lat":"37.102947542","long":"126.86424308","imageIndex":0,"items":[{"name":"에스원모터스 (S-WON MOTORS)","tel":"031-351-7877","addr":"경기도 화성시 장안면 수촌리 419-23번지","indutype":"자동차정비 유지 - 자동차부품","category":"car"}]},{"lat":"37.094118475","long":"126.86532774","imageIndex":0,"items":[{"name":"이엔에스 특장(E&S)","tel":"","addr":"경기도 화성시 장안면 수촌리 22-9번지","indutype":"자동차판매 - 기타운송","category":"car"}]},{"lat":"37.103731288","long":"126.8494709","imageIndex":0,"items":[{"name":"장수타이어 이동빵구","tel":"031-351-2821","addr":"경기도 화성시 장안면 수촌리 939-6번지","indutype":"자동차정비 유지 - 자동차시트·타이어","category":"car"}]},{"lat":"37.103641401","long":"126.84963983","imageIndex":0,"items":[{"name":"장안세차장","tel":"031-358-3891","addr":"경기도 화성시 장안면 수촌리 939-8번지 1층","indutype":"자동차정비 유지 - 세차장","category":"car"}]},{"lat":"37.103452863","long":"126.85016894","imageIndex":0,"items":[{"name":"장안자동차정비","tel":"031-358-3891","addr":"경기도 화성시 장안면 수촌리 939-1번지 1층","indutype":"자동차정비 유지 - 자동차부품","category":"car"}]},{"lat":"37.094564397","long":"126.86141254","imageIndex":0,"items":[{"name":"지니어스 모터스 (GENIUS MOTORS)","tel":"070-8117-7915","addr":"경기도 화성시 장안면 수촌리 365-7번지 1층","indutype":"자동차정비 유지 - 자동차정비","category":"car"}]},{"lat":"37.089122224","long":"126.86158012","imageIndex":0,"items":[{"name":"차고치는집","tel":"031-358-3383","addr":"경기도 화성시 장안면 수촌리 144-5","indutype":"자동차정비 유지 - 자동차정비","category":"car"}]},{"lat":"37.101836568","long":"126.85458192","imageIndex":0,"items":[{"name":"천우자동차공업사","tel":"031-358-8273","addr":"경기도 화성시 장안면 수촌리 641-4번지 1층","indutype":"자동차정비 유지 - 자동차부품","category":"car"}]},{"lat":"37.093480454","long":"126.86682489","imageIndex":13,"items":[{"name":"(주)발안스파비스","tel":"031-351-9700","addr":"경기도 화성시 장안면 수촌리 24번지","indutype":"보건위생 - 사우나","category":"beauty"}]},{"lat":"37.093480815","long":"126.86713984","imageIndex":13,"items":[{"name":"발안식염목욕탕","tel":"031-351-5322","addr":"경기도 화성시 장안면 수촌리 22-4번지","indutype":"보건위생 - 사우나","category":"beauty"}]},{"lat":"37.103281562","long":"126.84325081","imageIndex":13,"items":[{"name":"아름다운헤어","tel":"031-358-3548","addr":"경기도 화성시 장안면 수촌리 880-4번지","indutype":"보건위생 - 미용원","category":"beauty"}]},{"lat":"37.102424623","long":"126.84255514","imageIndex":13,"items":[{"name":"엠에푸(M.F)","tel":"031-351-3552","addr":"경기도 화성시 장안면 수촌리 883-17번지 2층 202호","indutype":"보건위생 - 화장품","category":"beauty"}]},{"lat":"37.102865909","long":"126.84238547","imageIndex":13,"items":[{"name":"오렌지","tel":"","addr":"경기도 화성시 장안면 수촌리 877-26번지 대진빌딩 1층","indutype":"보건위생 - 화장품","category":"beauty"}]},{"lat":"37.094338542","long":"126.86091804","imageIndex":13,"items":[{"name":"정원미용실","tel":"031-352-1673","addr":"경기도 화성시 장안면 수촌리 288-19번지","indutype":"보건위생 - 미용원","category":"beauty"}]},{"lat":"37.092393467","long":"126.84750288","imageIndex":13,"items":[{"name":"포쉬네일 장안점","tel":"02-2212-1015","addr":"경기도 화성시 장안면 수촌리 1029-9번지 장안삼성쉐르빌 103호","indutype":"보건위생 - 피부미용실","category":"beauty"}]},{"lat":"37.102700533","long":"126.85374778","imageIndex":13,"items":[{"name":"현대의료기","tel":"031-352-1673","addr":"경기도 화성시 장안면 수촌리 648-1번지","indutype":"보건위생 - 의료용품","category":"beauty"}]},{"lat":"37.095451235","long":"126.85711401","imageIndex":4,"items":[{"name":"고향맛갈","tel":"031-351-9595","addr":"경기도 화성시 장안면 수촌리 230번지 1동","indutype":"일반휴게음식 - 일반한식","category":"restaurant"}]},{"lat":"37.102587146","long":"126.84280229","imageIndex":4,"items":[{"name":"고향어머니손맛","tel":"031-358-9391","addr":"경기도 화성시 장안면 수촌리 883-4번지 2층","indutype":"일반휴게음식 - 일반한식","category":"restaurant"},{"name":"낙지천국","tel":"031-351-3538","addr":"경기도 화성시 장안면 수촌리 883-4번지 1동 1층","indutype":"일반휴게음식 - 일반한식","category":"restaurant"},{"name":"커피여행 장안점","tel":"031-351-5668","addr":"경기도 화성시 장안면 수촌리 883-4번지 좌측 2동 1층","indutype":"일반휴게음식 - 서양음식","category":"restaurant"}]},{"lat":"37.092699244","long":"126.8614385","imageIndex":4,"items":[{"name":"금화가든","tel":"031-351-6330","addr":"경기도 화성시 장안면 수촌리 280번지","indutype":"일반휴게음식 - 일반한식","category":"restaurant"},{"name":"자반","tel":"031-358-7879","addr":"경기도 화성시 장안면 수촌리 280번지 1층","indutype":"일반휴게음식 - 일반한식","category":"restaurant"}]},{"lat":"37.103806146","long":"126.84472341","imageIndex":4,"items":[{"name":"김밥이랑","tel":"031-353-1505","addr":"경기도 화성시 장안면 수촌리 1474-3번지 101호","indutype":"일반휴게음식 - 스넥","category":"restaurant"},{"name":"락","tel":"","addr":"경기도 화성시 장안면 수촌리 1474-3번지","indutype":"일반휴게음식 - 서양음식","category":"restaurant"},{"name":"맛터한식식당","tel":"031-358-5835","addr":"경기도 화성시 장안면 수촌리 1474-3번지","indutype":"일반휴게음식 - 일반한식","category":"restaurant"},{"name":"용인토종순대","tel":"031-336-6533","addr":"경기도 화성시 장안면 수촌리 1474-3번지 106호","indutype":"일반휴게음식 - 일반한식","category":"restaurant"},{"name":"청춘예찬","tel":"031-385-5835","addr":"경기도 화성시 장안면 수촌리 1474-3번지 102호","indutype":"일반휴게음식 - 일반한식","category":"restaurant"},{"name":"치킨이닭","tel":"031-358-3578","addr":"경기도 화성시 장안면 수촌리 1474-3번지 110호","indutype":"일반휴게음식 - 스넥","category":"restaurant"}]},{"lat":"37.102112494","long":"126.85913738","imageIndex":4,"items":[{"name":"나비한식부페","tel":"031-0000-0000","addr":"경기도 화성시 장안면 수촌리 552번지","indutype":"일반휴게음식 - 일반한식","category":"restaurant"},{"name":"큰집한식뷔페","tel":"031-357-2486","addr":"경기도 화성시 장안면 수촌리 552번지","indutype":"일반휴게음식 - 일반한식","category":"restaurant"}]},{"lat":"37.102424623","long":"126.84255514","imageIndex":4,"items":[{"name":"농장정육식당별관","tel":"031-358-6802","addr":"경기도 화성시 장안면 수촌리 883-17번지 1층 102호","indutype":"일반휴게음식 - 일반한식","category":"restaurant"},{"name":"밥이랑술이랑","tel":"070-8947-4490","addr":"경기도 화성시 장안면 수촌리 883-17번지","indutype":"일반휴게음식 - 일반한식","category":"restaurant"},{"name":"큰상차림한식부페","tel":"031-351-8133","addr":"경기도 화성시 장안면 수촌리 883-17번지","indutype":"일반휴게음식 - 일반한식","category":"restaurant"}]},{"lat":"37.090086953","long":"126.86208447","imageIndex":4,"items":[{"name":"대영한식부페","tel":"031-3386-2119","addr":"경기도 화성시 장안면 수촌리 135-5번지","indutype":"일반휴게음식 - 일반한식","category":"restaurant"}]},{"lat":"37.094032306","long":"126.86101984","imageIndex":4,"items":[{"name":"떴다 철가방","tel":"031-358-8723","addr":"경기도 화성시 장안면 수촌리 288-1번지","indutype":"일반휴게음식 - 중국식","category":"restaurant"},{"name":"행복한 밥집","tel":"031-366-2969","addr":"경기도 화성시 장안면 수촌리 288-1번지 2동","indutype":"일반휴게음식 - 일반한식","category":"restaurant"}]},{"lat":"37.093312523","long":"126.86190978","imageIndex":4,"items":[{"name":"레드브라운","tel":"031-351-3938","addr":"경기도 화성시 장안면 수촌리 291번지 1동 1층","indutype":"일반휴게음식 - 서양음식","category":"restaurant"}]},{"lat":"37.092564983","long":"126.86219237","imageIndex":4,"items":[{"name":"만석한식부페","tel":"031-351-0410","addr":"경기도 화성시 장안면 수촌리 74번지","indutype":"일반휴게음식 - 일반한식","category":"restaurant"}]},{"lat":"37.100286882","long":"126.86207685","imageIndex":4,"items":[{"name":"밥사랑한식부페","tel":"031-358-7335","addr":"경기도 화성시 장안면 수촌리 428-22번지 2동","indutype":"일반휴게음식 - 일반한식","category":"restaurant"}]},{"lat":"37.103284524","long":"126.84546697","imageIndex":4,"items":[{"name":"상해","tel":"031-351-8215","addr":"경기도 화성시 장안면 수촌리 908-9번지","indutype":"일반휴게음식 - 중국식","category":"restaurant"}]},{"lat":"37.102869744","long":"126.85943969","imageIndex":4,"items":[{"name":"송정한식뷔페","tel":"031-351-5753","addr":"경기도 화성시 장안면 수촌리 440-5번지","indutype":"일반휴게음식 - 일반한식","category":"restaurant"}]},{"lat":"37.095951951","long":"126.86135372","imageIndex":4,"items":[{"name":"수촌골","tel":"031-351-9245","addr":"경기도 화성시 장안면 수촌리 369-3번지","indutype":"일반휴게음식 - 일반한식","category":"restaurant"}]},{"lat":"37.08980788","long":"126.86229869","imageIndex":4,"items":[{"name":"수촌장터순대국.소머리국밥","tel":"031-358-8253","addr":"경기도 화성시 장안면 수촌리 135-18번지 1층","indutype":"일반휴게음식 - 일반한식","category":"restaurant"}]},{"lat":"37.101866017","long":"126.86402006","imageIndex":4,"items":[{"name":"스타호프","tel":"070-4460-6400","addr":"경기도 화성시 장안면 수촌리 425-48번지 1동 2층","indutype":"일반휴게음식 - 주점","category":"restaurant"}]},{"lat":"37.097502658","long":"126.8621045","imageIndex":4,"items":[{"name":"스텔라커피하우스","tel":"031-358-1894","addr":"경기도 화성시 장안면 수촌리 374-20번지 1층","indutype":"일반휴게음식 - 서양음식","category":"restaurant"}]},{"lat":"37.10286596","long":"126.86382699","imageIndex":4,"items":[{"name":"양평우리해장국","tel":"031-351-8567","addr":"경기도 화성시 장안면 수촌리 419-18번지 1동","indutype":"일반휴게음식 - 일반한식","category":"restaurant"}]},{"lat":"37.102865909","long":"126.84238547","imageIndex":4,"items":[{"name":"언니네","tel":"031-8059-5989","addr":"경기도 화성시 장안면 수촌리 877-26번지 대진빌딩","indutype":"일반휴게음식 - 일반한식","category":"restaurant"}]},{"lat":"37.094891597","long":"126.86379657","imageIndex":4,"items":[{"name":"엄마손뷔페","tel":"031-111-1111","addr":"경기도 화성시 장안면 수촌리 22-40번지","indutype":"일반휴게음식 - 일반한식","category":"restaurant"}]},{"lat":"37.103700588","long":"126.83996505","imageIndex":4,"items":[{"name":"엄마손식당","tel":"031-0000-0000","addr":"경기도 화성시 장안면 수촌리 877-36번지 1층","indutype":"일반휴게음식 - 일반한식","category":"restaurant"}]},{"lat":"37.092840331","long":"126.86649984","imageIndex":4,"items":[{"name":"온천회관","tel":"031-351-1336","addr":"경기도 화성시 장안면 수촌리 24-5번지","indutype":"일반휴게음식 - 일반한식","category":"restaurant"}]},{"lat":"37.097285776","long":"126.86157621","imageIndex":4,"items":[{"name":"용정가든","tel":"031-111-1111","addr":"경기도 화성시 장안면 수촌리 358-7번지","indutype":"일반휴게음식 - 일반한식","category":"restaurant"}]},{"lat":"37.102807396","long":"126.85274636","imageIndex":4,"items":[{"name":"웰빙동태찌게전문점","tel":"031-351-7976","addr":"경기도 화성시 장안면 수촌리 711-1번지","indutype":"일반휴게음식 - 일반한식","category":"restaurant"}]},{"lat":"37.091533745","long":"126.85883118","imageIndex":4,"items":[{"name":"자연한식뷔페","tel":"031-358-4567","addr":"경기도 화성시 장안면 수촌리 265-24번지","indutype":"일반휴게음식 - 일반한식","category":"restaurant"}]},{"lat":"37.093813843","long":"126.8668243","imageIndex":4,"items":[{"name":"장독대","tel":"080-7622-2855","addr":"경기도 화성시 장안면 수촌리 22번지 103호","indutype":"일반휴게음식 - 일반한식","category":"restaurant"}]},{"lat":"37.102479547","long":"126.86471641","imageIndex":4,"items":[{"name":"전주명가","tel":"031-358-9595","addr":"경기도 화성시 장안면 수촌리 425-15번지 1층","indutype":"일반휴게음식 - 일반한식","category":"restaurant"}]},{"lat":"37.094338542","long":"126.86091804","imageIndex":4,"items":[{"name":"정원식빵","tel":"","addr":"경기도 화성시 장안면 수촌리 288-19번지 1층 101호","indutype":"일반휴게음식 - 서양음식","category":"restaurant"}]},{"lat":"37.094977398","long":"126.84591159","imageIndex":4,"items":[{"name":"주식회사 들밥푸드지점(산정한식뷔페)","tel":"031-351-9868","addr":"경기도 화성시 장안면 수촌리 1011-12번지","indutype":"일반휴게음식 - 일반한식","category":"restaurant"}]},{"lat":"37.089647679","long":"126.85649526","imageIndex":4,"items":[{"name":"지연한식부페","tel":"031-351-6783","addr":"경기도 화성시 장안면 수촌리 157-2번지","indutype":"일반휴게음식 - 일반한식","category":"restaurant"}]},{"lat":"37.090231375","long":"126.86229791","imageIndex":4,"items":[{"name":"투박이","tel":"031-351-5060","addr":"경기도 화성시 장안면 수촌리 92번지 3호","indutype":"일반휴게음식 - 일반한식","category":"restaurant"}]},{"lat":"37.089808771","long":"126.86305228","imageIndex":4,"items":[{"name":"평택정대포 튀겨좋은닭","tel":"031-351-7918","addr":"경기도 화성시 장안면 수촌리 92번지 1층","indutype":"일반휴게음식 - 일반한식","category":"restaurant"}]},{"lat":"37.094366165","long":"126.86141291","imageIndex":4,"items":[{"name":"포차9단","tel":"031-311-2370","addr":"경기도 화성시 장안면 수촌리 365-2번지","indutype":"일반휴게음식 - 일반한식","category":"restaurant"}]},{"lat":"37.105833971","long":"126.85924285","imageIndex":4,"items":[{"name":"현대식당","tel":"031-357-1462","addr":"경기도 화성시 장안면 수촌리 1413-15번지 1층","indutype":"일반휴게음식 - 일반한식","category":"restaurant"}]},{"lat":"37.092925177","long":"126.86200048","imageIndex":4,"items":[{"name":"호남맛집","tel":"031-358-3321","addr":"경기도 화성시 장안면 수촌리 73-1번지","indutype":"일반휴게음식 - 일반한식","category":"restaurant"}]},{"lat":"37.090086953","long":"126.86208447","imageIndex":7,"items":[{"name":"대영슈퍼","tel":"031-351-5640","addr":"경기도 화성시 장안면 수촌리 135-5","indutype":"유통업 영리 - 슈퍼마켓","category":"mart"}]},{"lat":"37.094977398","long":"126.84591159","imageIndex":7,"items":[{"name":"동서마트","tel":"031-351-9868","addr":"경기도 화성시 장안면 수촌리 1011-12번지","indutype":"유통업 영리 - 슈퍼마켓","category":"mart"}]},{"lat":"37.093119748","long":"126.86657808","imageIndex":7,"items":[{"name":"온천매점","tel":"031-351-9701","addr":"경기도 화성시 장안면 수촌리 25번지","indutype":"유통업 영리 - 슈퍼마켓","category":"mart"}]},{"lat":"37.093507589","long":"126.86691483","imageIndex":7,"items":[{"name":"미네랄 바이오코","tel":"031-441-0111","addr":"경기도 화성시 장안면 수촌리 22-6번지 2층","indutype":"음료식품 - 기타음료식품","category":"food"}]},{"lat":"37.102587883","long":"126.85735907","imageIndex":7,"items":[{"name":"미스터과일창고","tel":"031-351-3452","addr":"경기도 화성시 장안면 수촌리 545-4번지 상가2번 4번째 상가","indutype":"음료식품 - 농·축·수산품","category":"food"}]},{"lat":"37.100169718","long":"126.86205457","imageIndex":7,"items":[{"name":"반프안마트","tel":"031-351-2888","addr":"경기도 화성시 장안면 수촌리 428-26번지","indutype":"음료식품 - 기타음료식품","category":"food"}]},{"lat":"37.098620402","long":"126.86247364","imageIndex":7,"items":[{"name":"우리농원","tel":"031-351-5161","addr":"경기도 화성시 장안면 수촌리 374-4번지","indutype":"음료식품 - 농·축·수산품","category":"food"}]},{"lat":"37.101836568","long":"126.85458192","imageIndex":7,"items":[{"name":"이지식자재","tel":"031-351-0720","addr":"경기도 화성시 장안면 수촌리 641-4번지","indutype":"음료식품 - 기타음료식품","category":"food"}]},{"lat":"37.103281562","long":"126.84325081","imageIndex":8,"items":[{"name":"바로힘 약국","tel":"031-358-8151","addr":"경기도 화성시 장안면 수촌리 880-4번지 1층","indutype":"약국 - 약국","category":"medical"}]},{"lat":"37.102865909","long":"126.84238547","imageIndex":8,"items":[{"name":"장안약국","tel":"031-358-7582","addr":"경기도 화성시 장안면 수촌리 877-26번지 대진빌딩","indutype":"약국 - 약국","category":"medical"}]},{"lat":"37.103281562","long":"126.84325081","imageIndex":16,"items":[{"name":"바로힘재활원","tel":"031-358-8155","addr":"경기도 화성시 장안면 수촌리 880-4번지","indutype":"학원 - 기타 교육기관","category":"study"}]},{"lat":"37.102424906","long":"126.86422153","imageIndex":9,"items":[{"name":"발안고속주유소","tel":"031-351-5186","addr":"경기도 화성시 장안면 수촌리 425-7번지","indutype":"연료판매점 - SK주유소","category":"oil"}]},{"lat":"37.105310007","long":"126.8581301","imageIndex":9,"items":[{"name":"에스코가스산업","tel":"031-366-2820","addr":"경기도 화성시 장안면 수촌리 528-3","indutype":"연료판매점 - LPG 취급점","category":"oil"}]},{"lat":"37.102143543","long":"126.8550763","imageIndex":9,"items":[{"name":"장수주유소","tel":"031-351-4480","addr":"경기도 화성시 장안면 수촌리 641-2번지","indutype":"연료판매점 - 주유소","category":"oil"}]},{"lat":"37.103806146","long":"126.84472341","imageIndex":13,"items":[{"name":"별노래연습장","tel":"070-4312-2624","addr":"경기도 화성시 장안면 수촌리 1474-3번지 3층","indutype":"레저업소 - 노 래 방","category":"leisure"},{"name":"별당구장","tel":"","addr":"경기도 화성시 장안면 수촌리 1474-3번지 2층 217호","indutype":"레저업소 - 당 구 장","category":"leisure"}]},{"lat":"37.102424623","long":"126.84255514","imageIndex":13,"items":[{"name":"부킹노래연습장","tel":"031-351-1050","addr":"경기도 화성시 장안면 수촌리 883-17번지 1층 105호","indutype":"레저업소 - 노 래 방","category":"leisure"},{"name":"스카이스크린골프장","tel":"031-358-7707","addr":"경기도 화성시 장안면 수촌리 883-17번지 2층","indutype":"레저업소 - 스크린골프","category":"leisure"},{"name":"황토휘트니스","tel":"031-351-3552","addr":"경기도 화성시 장안면 수촌리 883-17번지 3층","indutype":"레저업소 - 헬스클럽","category":"leisure"}]},{"lat":"37.101866017","long":"126.86402006","imageIndex":13,"items":[{"name":"스타노래연습장","tel":"070-4406-6400","addr":"경기도 화성시 장안면 수촌리 425-48번지","indutype":"레저업소 - 노 래 방","category":"leisure"}]},{"lat":"37.095951951","long":"126.86135372","imageIndex":13,"items":[{"name":"파인당구클럽","tel":"031-358-5169","addr":"경기도 화성시 장안면 수촌리 369-3번지","indutype":"레저업소 - 당 구 장","category":"leisure"}]}]