[{"lat":"37.803234218","long":"127.21279936","imageIndex":7,"items":[{"name":"M편의점","tel":"031-575-7114","addr":"경기도 포천시 내촌면 진목리 459-5번지","indutype":"음료식품 - 기타음료식품","category":"food"}]},{"lat":"37.806145104","long":"127.21233068","imageIndex":7,"items":[{"name":"고장산농원","tel":"031-532-2742","addr":"경기도 포천시 내촌면 진목리 396-4번지","indutype":"음료식품 - 농·축·수산품","category":"food"}]},{"lat":"37.80642877","long":"127.20985602","imageIndex":7,"items":[{"name":"깜포도농원","tel":"02-494-2189","addr":"경기도 포천시 내촌면 진목리 954번지 1층","indutype":"음료식품 - 농·축·수산품","category":"food"}]},{"lat":"37.80403486","long":"127.21347157","imageIndex":7,"items":[{"name":"달콤이포도밭집","tel":"031-532-2638","addr":"경기도 포천시 내촌면 진목리 439-4번지","indutype":"음료식품 - 농·축·수산품","category":"food"}]},{"lat":"37.788981444","long":"127.21269093","imageIndex":7,"items":[{"name":"오길농원","tel":"","addr":"경기도 포천시 내촌면 진목리 666-3번지","indutype":"음료식품 - 농·축·수산품","category":"food"}]},{"lat":"37.800264222","long":"127.22100019","imageIndex":7,"items":[{"name":"주식회사 뉴삼성수산","tel":"031-751-7740","addr":"경기도 포천시 내촌면 진목리 58-14번지 3동","indutype":"음료식품 - 농·축·수산품","category":"food"}]},{"lat":"37.803041035","long":"127.21502436","imageIndex":7,"items":[{"name":"주연","tel":"031-535-1338","addr":"경기도 포천시 내촌면 진목리 431-2번지","indutype":"음료식품 - 기타음료식품","category":"food"}]},{"lat":"37.795848177","long":"127.21183611","imageIndex":7,"items":[{"name":"짱포도원","tel":"031-532-2619","addr":"경기도 포천시 내촌면 진목리 570번지","indutype":"음료식품 - 농·축·수산품","category":"food"}]},{"lat":"37.784902192","long":"127.20639036","imageIndex":7,"items":[{"name":"창수포도농원","tel":"031-533-7594","addr":"경기도 포천시 내촌면 진목리 718-3번지","indutype":"음료식품 - 농·축·수산품","category":"food"}]},{"lat":"37.810588117","long":"127.20641541","imageIndex":7,"items":[{"name":"청수농원","tel":"031-532-8421","addr":"경기도 포천시 내촌면 진목리 290번지","indutype":"음료식품 - 농·축·수산품","category":"food"}]},{"lat":"37.80270458","long":"127.21171916","imageIndex":7,"items":[{"name":"청영포도농원","tel":"031-532-2691","addr":"경기도 포천시 내촌면 진목리 455","indutype":"음료식품 - 농·축·수산품","category":"food"}]},{"lat":"37.803040236","long":"127.2154672","imageIndex":7,"items":[{"name":"포도진등농원","tel":"031-532-8450","addr":"경기도 포천시 내촌면 진목리 429-5번지","indutype":"음료식품 - 농·축·수산품","category":"food"}]},{"lat":"37.80042529","long":"127.21668598","imageIndex":7,"items":[{"name":"해들찬식품","tel":"031-534-2263","addr":"경기도 포천시 내촌면 진목리 39-3번지","indutype":"음료식품 - 기타음료식품","category":"food"}]}]