[{"lat":"37.322399175","long":"126.91587415","imageIndex":17,"items":[{"name":"(주) 우생","tel":"031-0000-0000","addr":"경기도 군포시 대야미동 513-1번지 삼선무역(주) C동 2호","indutype":"유통업 영리 - 기타유통업","category":"other"},{"name":"씨케이","tel":"031-502-1506","addr":"경기도 군포시 대야미동 513-1번지 1층","indutype":"유통업 영리 - 기타유통업","category":"other"}]},{"lat":"37.333202338","long":"126.91579399","imageIndex":17,"items":[{"name":"(주)동아이엔씨","tel":"031-437-3636","addr":"경기도 군포시 대야미동 635-4번지 럭키빌라","indutype":"용역 서비스 - 기타용역서비스","category":"other"},{"name":"다올기업","tel":"031-408-8070","addr":"경기도 군포시 대야미동 635-4번지 럭키빌라","indutype":"전기제품 - 기타전기제품","category":"other"}]},{"lat":"37.331588318","long":"126.91418231","imageIndex":17,"items":[{"name":"(주)몰드케어","tel":"070-8264-9062","addr":"경기도 군포시 대야미동 204번지 202호","indutype":"용역 서비스 - 소프트웨어","category":"other"}]},{"lat":"37.330256711","long":"126.91675647","imageIndex":17,"items":[{"name":"(주)미광-케이아이","tel":"031-437-7113","addr":"경기도 군포시 대야미동 642-7번지 천봉프라자 지하1층 101호","indutype":"전기제품 - 기타전기제품","category":"other"},{"name":"(주)삼진전기이엔지","tel":"031-398-7911","addr":"경기도 군포시 대야미동 642-7번지 천봉프라자 308호","indutype":"용역 서비스 - 종합용역","category":"other"},{"name":"(주)에이케어","tel":"070-7685-2279","addr":"경기도 군포시 대야미동 642-7번지 천봉프라자 116호","indutype":"전기제품 - 가전제품","category":"other"},{"name":"PG골프연습장","tel":"031-438-1003","addr":"경기도 군포시 대야미동 199-3 천봉프라자307","indutype":"회원제형태 - 레져업소","category":"other"},{"name":"전원종합장식","tel":"031-4372-622","addr":"경기도 군포시 대야미동 199-3번지 천봉프라자 114호","indutype":"직물 - 카페트,커튼,천막,지물","category":"other"},{"name":"한라케미칼","tel":"031-501-4147","addr":"경기도 군포시 대야미동 199-3천봉프라자116","indutype":"신변잡화 - 기타잡화","category":"other"}]},{"lat":"37.326509694","long":"126.91845316","imageIndex":17,"items":[{"name":"(주)월드에너지","tel":"031-501-2702","addr":"경기도 군포시 대야미동 662-2번지 외3필지3층","indutype":"전기제품 - 냉열기기","category":"other"},{"name":"세미켐","tel":"02-868-5940","addr":"경기도 군포시 대야미동 662-2번지 3층 302호","indutype":"서적문구 - 문구용품","category":"other"},{"name":"준텔레콤","tel":"031-437-2010","addr":"경기도 군포시 대야미동 662-2번지 103호","indutype":"사무통신 - 통신기기","category":"other"}]},{"lat":"37.332148899","long":"126.91682201","imageIndex":17,"items":[{"name":"(주)웰코스","tel":"031-682-6848","addr":"경기도 군포시 대야미동 638-16번지 1층,2층","indutype":"전기제품 - 기타전기제품","category":"other"},{"name":"(주)웰코스/원격지","tel":"031-682-6848","addr":"경기도 군포시 대야미동 638-16번지 1층,2층","indutype":"기타 - 기타 전문점","category":"other"}]},{"lat":"37.327338195","long":"126.91784296","imageIndex":17,"items":[{"name":"(주)은진","tel":"031-455-7807","addr":"경기도 군포시 대야미동 654-15번지","indutype":"용역 서비스 - 종합용역","category":"other"}]},{"lat":"37.332229463","long":"126.91609977","imageIndex":17,"items":[{"name":"G-디자인","tel":"031-393-2952","addr":"경기도 군포시 대야미동 637-6번지 영인빌딩 101호","indutype":"주방용구 - 주방용구","category":"other"}]},{"lat":"37.331896161","long":"126.9162017","imageIndex":17,"items":[{"name":"GS25군포대야미점","tel":"","addr":"경기도 군포시 대야미동 639-1번지 현대프라자 1층","indutype":"유통업 영리 - 편 의 점","category":"other"},{"name":"반도물류","tel":"","addr":"경기도 군포시 대야미동 639-1번지 현대프라자 301-A호","indutype":"용역 서비스 - 사무서비스","category":"other"}]},{"lat":"37.328619471","long":"126.92042533","imageIndex":17,"items":[{"name":"가야난식물원","tel":"031-501-5580","addr":"경기도 군포시 대야미동 266-10","indutype":"문화.취미 - 화원","category":"other"},{"name":"군포화원","tel":"","addr":"경기도 군포시 대야미동 266-10번지","indutype":"문화.취미 - 화원","category":"other"},{"name":"군포화원","tel":"031-437-0675","addr":"경기도 군포시 대야미동 266-10번지 101호","indutype":"문화.취미 - 화원","category":"other"}]},{"lat":"37.325075086","long":"126.91571311","imageIndex":17,"items":[{"name":"공감디자인","tel":"031-487-2444","addr":"경기도 군포시 대야미동 667-3번지 군포대야미이편한세상 108동 1204호","indutype":"용역 서비스 - 종합용역","category":"other"}]},{"lat":"37.328896157","long":"126.91673546","imageIndex":17,"items":[{"name":"광명인쇄","tel":"02-2275-2468","addr":"경기도 군포시 대야미동 645-16번지 센트럴빌 1층","indutype":"서적문구 - 출판 및 인쇄물","category":"other"},{"name":"향긋","tel":"","addr":"경기도 군포시 대야미동 645-16번지 센트럴빌 7층 702호","indutype":"문화.취미 - 문화취미기타","category":"other"}]},{"lat":"37.333156854","long":"126.91520729","imageIndex":17,"items":[{"name":"굿딜유통","tel":"","addr":"경기도 군포시 대야미동 636-3번지 센트럴아이파크 112동 1202호","indutype":"주방용구 - 주방용구","category":"other"}]},{"lat":"37.325200736","long":"126.91504729","imageIndex":17,"items":[{"name":"귀뚜라미보일러","tel":"031-501-4625","addr":"경기도 군포시 대야미동 667-3번지 군포대야미이-편한세상","indutype":"수리서비스 - 기타수리서비스","category":"other"}]},{"lat":"37.333563168","long":"126.91636905","imageIndex":17,"items":[{"name":"그릇과허브","tel":"","addr":"경기도 군포시 대야미동 634-16번지 W-HAUS 6동 101호","indutype":"주방용구 - 주방용식기","category":"other"}]},{"lat":"37.329927498","long":"126.92268056","imageIndex":17,"items":[{"name":"그린파트너","tel":"031-502-3660","addr":"경기도 군포시 대야미동 273-3","indutype":"문화.취미 - 화원","category":"other"}]},{"lat":"37.329148154","long":"126.91634026","imageIndex":17,"items":[{"name":"금천조경","tel":"","addr":"경기도 군포시 대야미동 643-7번지 스타파크 601호","indutype":"건축자재 - 인테리어전문","category":"other"},{"name":"주식회사 산이랑알파인넷웍스","tel":"","addr":"경기도 군포시 대야미동 643-7번지 스타파크 702호","indutype":"레져용품 - 스포츠·레져용품","category":"other"}]},{"lat":"37.328751871","long":"126.91656637","imageIndex":17,"items":[{"name":"기연플러스","tel":"070-7749-3478","addr":"경기도 군포시 대야미동 645-17번지 201호","indutype":"전기제품 - 기타전기제품","category":"other"}]},{"lat":"37.329167683","long":"126.91842762","imageIndex":17,"items":[{"name":"나길 누수탐지 전문업체","tel":"031-520-7665","addr":"경기도 군포시 대야미동 648-1번지 목화빌라 5동 202호","indutype":"용역 서비스 - 기타용역서비스","category":"other"},{"name":"수정플라워","tel":"","addr":"경기도 군포시 대야미동 648-1번지 목화빌라 5동 301호","indutype":"문화.취미 - 화원","category":"other"}]},{"lat":"37.327979495","long":"126.92006498","imageIndex":17,"items":[{"name":"낚시생각","tel":"031-502-5257","addr":"경기도 군포시 대야미동 652-10번지","indutype":"레져용품 - 스포츠·레져용품","category":"other"},{"name":"피싱스토어","tel":"031-501-1300","addr":"경기도 군포시 대야미동 652-10번지","indutype":"레져용품 - 스포츠·레져용품","category":"other"}]},{"lat":"37.332175559","long":"126.91631422","imageIndex":17,"items":[{"name":"다옴","tel":"031-437-9430","addr":"경기도 군포시 대야미동 637-14번지 현대빌딩 402호","indutype":"유통업 영리 - 기타유통업","category":"other"},{"name":"크린토피아 대야미 아이파크점","tel":"070-8808-2668","addr":"경기도 군포시 대야미동 637-14번지 현대빌딩 104호","indutype":"수리서비스 - 세탁소","category":"other"}]},{"lat":"37.332590774","long":"126.91734055","imageIndex":17,"items":[{"name":"단비다육","tel":"031-501-7338","addr":"경기도 군포시 대야미동 155-26번지","indutype":"문화.취미 - 화원","category":"other"}]},{"lat":"37.325201593","long":"126.91620939","imageIndex":17,"items":[{"name":"대림명세탁","tel":"031-501-3660","addr":"경기도 군포시 대야미동 667-3번지 군포대야미이편한세상 101호","indutype":"수리서비스 - 세탁소","category":"other"},{"name":"투에이(2A)","tel":"070-8756-6510","addr":"경기도 군포시 대야미동 667-3번지 108-1003호 군포대야미이-편한세상","indutype":"회원제형태 - 기타4","category":"other"}]},{"lat":"37.327475678","long":"126.92114869","imageIndex":17,"items":[{"name":"대야꽃농원","tel":"031-437-3324","addr":"경기도 군포시 대야미동 298-1","indutype":"문화.취미 - 화원","category":"other"}]},{"lat":"37.327923817","long":"126.91778588","imageIndex":17,"items":[{"name":"대야쑥좌훈","tel":"031-502-4425","addr":"경기도 군포시 대야미동 653-5번지","indutype":"회원제형태 - 기타4","category":"other"},{"name":"스마트한","tel":"031-347-2026","addr":"경기도 군포시 대야미동 653-5번지 대민오피스텔 802호","indutype":"전기제품 - 기타전기제품","category":"other"}]},{"lat":"37.327058522","long":"126.91734683","imageIndex":17,"items":[{"name":"드림월드","tel":"02-507-5449","addr":"경기도 군포시 대야미동 659-2번지","indutype":"신변잡화 - 기타잡화","category":"other"},{"name":"드림월드","tel":"000-0000-0000","addr":"경기도 군포시 대야미동 659-2번지","indutype":"신변잡화 - 기타잡화","category":"other"}]},{"lat":"37.33012118","long":"126.91623759","imageIndex":17,"items":[{"name":"따뜻한시선","tel":"031-419-5329","addr":"경기도 군포시 대야미동 644-14번지 해오름빌 2층 201호","indutype":"광학제품 - 사진관","category":"other"}]},{"lat":"37.330309946","long":"126.91562808","imageIndex":17,"items":[{"name":"마리애견미용","tel":"031-408-8620","addr":"경기도 군포시 대야미동 636-8번지 경명 101호","indutype":"문화.취미 - 애완동물","category":"other"}]},{"lat":"37.327870176","long":"126.91837266","imageIndex":17,"items":[{"name":"메르시(Merci)","tel":"02-1111-1111","addr":"경기도 군포시 대야미동 654-13번지 1층 104호","indutype":"의류 - 정장","category":"other"}]},{"lat":"37.336002194","long":"126.92542743","imageIndex":17,"items":[{"name":"미래TECH","tel":"031-437-7787","addr":"경기도 군포시 대야미동 11번지","indutype":"용역 서비스 - 기타용역서비스","category":"other"}]},{"lat":"37.328644931","long":"126.91820254","imageIndex":17,"items":[{"name":"바로장식","tel":"031-437-0830","addr":"경기도 군포시 대야미동 648-7 목화빌라 13-402 8/3","indutype":"회원제형태 - 기타4","category":"other"}]},{"lat":"37.326842594","long":"126.9177871","imageIndex":17,"items":[{"name":"비스코랩(VISCO LAB)","tel":"070-5001-3757","addr":"경기도 군포시 대야미동 660-1번지 대야빌딩 401호","indutype":"의류 - 정장","category":"other"},{"name":"코앤씰","tel":"031-438-0472","addr":"경기도 군포시 대야미동 660-1번지 대야빌딩 101호","indutype":"건축자재 - 기타건축자재","category":"other"}]},{"lat":"37.327617235","long":"126.91745902","imageIndex":17,"items":[{"name":"삼성공인중개사","tel":"031-437-4411","addr":"경기도 군포시 대야미동 654-3번지 현대프라자 102호","indutype":"용역 서비스 - 부동산 중개·임대","category":"other"}]},{"lat":"37.328230366","long":"126.91806761","imageIndex":17,"items":[{"name":"솔로몬익스프레스 인터내셔날","tel":"070-4349-1167","addr":"경기도 군포시 대야미동 648-13번지 1층","indutype":"광학제품 - 기타광학제품","category":"other"}]},{"lat":"37.329589289","long":"126.91584329","imageIndex":17,"items":[{"name":"수업디자인연구소","tel":"031-502-1359","addr":"경기도 군포시 대야미동 643-3번지 일륜해피타운 2층 201호","indutype":"서적문구 - 기타서적문구","category":"other"}]},{"lat":"37.326780537","long":"126.9192088","imageIndex":17,"items":[{"name":"아리랑철물","tel":"031-437-9998","addr":"경기도 군포시 대야미동 658-6번지 1층","indutype":"건축자재 - 목재·석재·철물","category":"other"}]},{"lat":"37.328591168","long":"126.91862008","imageIndex":17,"items":[{"name":"아이마당","tel":"031-437-4746","addr":"경기도 군포시 대야미동 649-4번지 203호","indutype":"서적문구 - 기타서적문구","category":"other"}]},{"lat":"37.327337894","long":"126.91742549","imageIndex":17,"items":[{"name":"애플통신","tel":"032-676-6128","addr":"경기도 군포시 대야미동 654-9번지 대흥빌딩 103호","indutype":"사무통신 - 통신기기","category":"other"}]},{"lat":"37.331337414","long":"126.91604438","imageIndex":17,"items":[{"name":"엄지척","tel":"031-000-0000","addr":"경기도 군포시 대야미동 639-4번지 스페이스빌 102호","indutype":"수리서비스 - 세탁소","category":"other"}]},{"lat":"37.325617589","long":"126.91831877","imageIndex":17,"items":[{"name":"연풍산업","tel":"031-437-2941","addr":"경기도 군포시 대야미동 664-6번지 1층","indutype":"수리서비스 - 세탁소","category":"other"}]},{"lat":"37.331058239","long":"126.91623652","imageIndex":17,"items":[{"name":"와이디시스템","tel":"070-7522-1753","addr":"경기도 군포시 대야미동 641-7번지 힐하우스 B동 401호","indutype":"용역 서비스 - 기타용역서비스","category":"other"}]},{"lat":"37.3261222","long":"126.91837461","imageIndex":17,"items":[{"name":"유리키스","tel":"070-4798-6262","addr":"경기도 군포시 대야미동 663-7번지","indutype":"건축자재 - 유리","category":"other"}]},{"lat":"37.327447075","long":"126.91890343","imageIndex":17,"items":[{"name":"유한에스엔에이치","tel":"031-501-8756","addr":"경기도 군포시 대야미동 655-7번지 셀지노빌딩 1층","indutype":"신변잡화 - 기타잡화","category":"other"}]},{"lat":"37.317900498","long":"126.91242721","imageIndex":17,"items":[{"name":"이건비앤코 주식회사","tel":"031-438-2576","addr":"경기도 군포시 대야미동 598-1번지","indutype":"건축자재 - 건축용 요업제품","category":"other"}]},{"lat":"37.326699325","long":"126.91903965","imageIndex":17,"items":[{"name":"자전거여행","tel":"031-501-3310","addr":"경기도 군포시 대야미동 658-7번지","indutype":"레져용품 - 스포츠·레져용품","category":"other"},{"name":"좋은날인쇄","tel":"031-237-8118","addr":"경기도 군포시 대야미동 658-7번지 외1필지","indutype":"서적문구 - 출판 및 인쇄물","category":"other"}]},{"lat":"37.332644006","long":"126.91620084","imageIndex":17,"items":[{"name":"제나 (ZENA)","tel":"","addr":"경기도 군포시 대야미동 637-8번지 대명빌라 202호","indutype":"가구 - 기타가구","category":"other"}]},{"lat":"37.325752959","long":"126.91862324","imageIndex":17,"items":[{"name":"주식회사 네모장식","tel":"032-409-9896","addr":"경기도 군포시 대야미동 664-11번지 1층","indutype":"건축자재 - 기타건축자재","category":"other"}]},{"lat":"37.333229774","long":"126.91634686","imageIndex":17,"items":[{"name":"주식회사미르","tel":"070-8766-5684","addr":"경기도 군포시 대야미동 635-10번지","indutype":"사무통신 - 사무용 OA기기","category":"other"}]},{"lat":"37.326680719","long":"126.91821603","imageIndex":17,"items":[{"name":"주식회사엘에이치방재(LHD. P. Co. , Ltd.)","tel":"031-458-1119","addr":"경기도 군포시 대야미동 662-1번지 하나로프라자 203호","indutype":"용역 서비스 - 기타용역서비스","category":"other"},{"name":"크린토피아 대야미점","tel":"031-438-1966","addr":"경기도 군포시 대야미동 662-1번지 하나로프라자 1층 103호","indutype":"수리서비스 - 세탁소","category":"other"},{"name":"크린토피아 대야미점","tel":"031-436-1966","addr":"경기도 군포시 대야미동 662-1번지 하나로프라자 103호","indutype":"수리서비스 - 세탁소","category":"other"},{"name":"태현ETS","tel":"031-437-2882","addr":"경기도 군포시 대야미동 662-1번지 하나로프라자 203호","indutype":"전기제품 - 기타전기제품","category":"other"}]},{"lat":"37.328564689","long":"126.91939864","imageIndex":17,"items":[{"name":"주식회사준애드","tel":"031-456-7588","addr":"경기도 군포시 대야미동 651-6번지","indutype":"건축자재 - 인테리어전문","category":"other"}]},{"lat":"37.325031765","long":"126.91809377","imageIndex":17,"items":[{"name":"진우컴퍼니","tel":"031-501-9444","addr":"경기도 군포시 대야미동 364-5번지 103호","indutype":"수리서비스 - 가정용품수리","category":"other"}]},{"lat":"37.325591288","long":"126.91934551","imageIndex":17,"items":[{"name":"청록원","tel":"031-502-2346","addr":"경기도 군포시 대야미동 320-1번지","indutype":"문화.취미 - 화원","category":"other"}]},{"lat":"37.328391018","long":"126.9159575","imageIndex":17,"items":[{"name":"청림꽃농원","tel":"031-501-9688","addr":"경기도 군포시 대야미동 215-4","indutype":"문화.취미 - 화원","category":"other"}]},{"lat":"37.327510712","long":"126.91970444","imageIndex":17,"items":[{"name":"케이씨계량기","tel":"","addr":"경기도 군포시 대야미동 658-1번지 1층","indutype":"수리서비스 - 사무·통신기기수리","category":"other"}]},{"lat":"37.321010695","long":"126.91464602","imageIndex":17,"items":[{"name":"케이엘이디라이팅","tel":"070-4253-1777","addr":"경기도 군포시 대야미동 527-1번지 공장-2호","indutype":"건축자재 - 조명기구","category":"other"}]},{"lat":"37.331976521","long":"126.91520866","imageIndex":17,"items":[{"name":"픽스업(FIX UP)","tel":"070-8243-8140","addr":"경기도 군포시 대야미동 636-3번지 센트럴아이파크상가동지1층 107호","indutype":"사무통신 - 컴퓨터","category":"other"},{"name":"현대 I-park 세탁소","tel":"031-501-9920","addr":"경기도 군포시 대야미동 636-3번지 센트럴아이파크제상가동 111호","indutype":"수리서비스 - 세탁소","category":"other"}]},{"lat":"37.325417123","long":"126.91523884","imageIndex":17,"items":[{"name":"핑크블레스","tel":"070-7766-1314","addr":"경기도 군포시 대야미동 667-3번지 군포대야미e-편한세상 113동 1301호","indutype":"회원제형태 - 기타1","category":"other"}]},{"lat":"37.32597827","long":"126.91870197","imageIndex":17,"items":[{"name":"하늘배관","tel":"031-000-0000","addr":"경기도 군포시 대야미동 664-4번지 지층 01호 비","indutype":"건축자재 - 기타건축자재","category":"other"}]},{"lat":"37.328339083","long":"126.91890243","imageIndex":17,"items":[{"name":"하이웨이상사","tel":"031-399-0044","addr":"경기도 군포시 대야미동 650-4번지 성신그린빌 103호","indutype":"신변잡화 - 기타잡화","category":"other"}]},{"lat":"37.319063132","long":"126.91284324","imageIndex":17,"items":[{"name":"한국산업개발","tel":"031-501-1774","addr":"경기도 군포시 대야미동 544-10번지 2층","indutype":"건축자재 - 인테리어전문","category":"other"}]}]