[{"lat":"37.120528348","long":"126.68648435","imageIndex":5,"items":[{"name":"H하우스펜션","tel":"031-355-8585","addr":"경기도 화성시 서신면 궁평리 660-31번지","indutype":"숙박업 - 여관/기타숙박업","category":"hotel"}]},{"lat":"37.12116601","long":"126.6857053","imageIndex":5,"items":[{"name":"궁평솔밭펜션","tel":"031-357-9456","addr":"경기도 화성시 서신면 궁평리 661-1번지","indutype":"숙박업 - 여관/기타숙박업","category":"hotel"}]},{"lat":"37.122884942","long":"126.68493296","imageIndex":5,"items":[{"name":"궁평아일랜드펜션","tel":"031-366-7517","addr":"경기도 화성시 서신면 궁평리 534-7번지","indutype":"숙박업 - 여관/기타숙박업","category":"hotel"}]},{"lat":"37.125356405","long":"126.68590162","imageIndex":5,"items":[{"name":"궁평애풍펜션","tel":"031-291-5761","addr":"경기도 화성시 서신면 궁평리 480-15번지 3층","indutype":"숙박업 - 여관/기타숙박업","category":"hotel"}]},{"lat":"37.121669326","long":"126.6852306","imageIndex":5,"items":[{"name":"궁평펜션(민박)","tel":"031-366-7120","addr":"경기도 화성시 서신면 궁평리 661-5번지","indutype":"숙박업 - 여관/기타숙박업","category":"hotel"}]},{"lat":"37.120752706","long":"126.68614585","imageIndex":5,"items":[{"name":"궁평항올레","tel":"031-355-5233","addr":"경기도 화성시 서신면 궁평리 660-38번지","indutype":"숙박업 - 여관/기타숙박업","category":"hotel"}]},{"lat":"37.122194757","long":"126.68628613","imageIndex":5,"items":[{"name":"그 사람의 별장","tel":"","addr":"경기도 화성시 서신면 궁평리 543-9번지","indutype":"숙박업 - 여관/기타숙박업","category":"hotel"}]},{"lat":"37.1233621","long":"126.68478468","imageIndex":5,"items":[{"name":"바다펜션","tel":"031-356-9656","addr":"경기도 화성시 서신면 궁평리 535번지","indutype":"숙박업 - 여관/기타숙박업","category":"hotel"}]},{"lat":"37.125085943","long":"126.68584648","imageIndex":5,"items":[{"name":"솔향기펜션","tel":"031-409-3045","addr":"경기도 화성시 서신면 궁평리 480-12번지","indutype":"숙박업 - 여관/기타숙박업","category":"hotel"}]},{"lat":"37.121638088","long":"126.69042926","imageIndex":5,"items":[{"name":"청솔민박","tel":"031-355-0201","addr":"경기도 화성시 서신면 궁평리 653-7번지 2층","indutype":"숙박업 - 여관/기타숙박업","category":"hotel"}]},{"lat":"37.116945232","long":"126.6842602","imageIndex":5,"items":[{"name":"하나로펜션","tel":"031-357-1124","addr":"경기도 화성시 서신면 궁평리 666-37번지","indutype":"숙박업 - 여관/기타숙박업","category":"hotel"}]},{"lat":"37.126078347","long":"126.68631496","imageIndex":5,"items":[{"name":"한솔펜션","tel":"031-244-6541","addr":"경기도 화성시 서신면 궁평리 480-3번지 1층","indutype":"숙박업 - 여관/기타숙박업","category":"hotel"}]},{"lat":"37.121581991","long":"126.68626617","imageIndex":5,"items":[{"name":"해마루펜션","tel":"031-357-3250","addr":"경기도 화성시 서신면 궁평리 546-6번지 1층","indutype":"숙박업 - 여관/기타숙박업","category":"hotel"}]}]