[{"lat":"37.44848656","long":"126.8459896","imageIndex":17,"items":[{"name":"(주) 더베딩샵","tel":"02-2685-0123","addr":"경기도 광명시 노온사동 217-13번지","indutype":"직물 - 침구·수예점","category":"other"}]},{"lat":"37.43273972","long":"126.8480111","imageIndex":17,"items":[{"name":"(주)동우유통","tel":"02-676-7713","addr":"경기도 광명시 노온사동 636-10번지","indutype":"유통업 영리 - 기타유통업","category":"other"}]},{"lat":"37.43293871","long":"126.8485982","imageIndex":17,"items":[{"name":"(주)동협티앤에스","tel":"02-711-2652","addr":"경기도 광명시 노온사동 648-4번지","indutype":"기타 - 기계공구","category":"other"}]},{"lat":"37.442186","long":"126.8440705","imageIndex":17,"items":[{"name":"(주)선정","tel":"02-2066-6500","addr":"경기도 광명시 노온사동 382-7번지","indutype":"회원제형태 - 기타3","category":"other"},{"name":"미래중량","tel":"02-2684-1333","addr":"경기도 광명시 노온사동 382-7번지 1층 103호","indutype":"용역 서비스 - 기타용역서비스","category":"other"}]},{"lat":"37.43398992","long":"126.8463476","imageIndex":17,"items":[{"name":"(주)스파앤스파","tel":"02-555-9241","addr":"경기도 광명시 노온사동 577-48번지","indutype":"건축자재 - 건축용 요업제품","category":"other"},{"name":"스파앤스파","tel":"02-555-9298","addr":"경기도 광명시 노온사동 577-48번지 1층","indutype":"건축자재 - 건축용 요업제품","category":"other"}]},{"lat":"37.44855051","long":"126.8466563","imageIndex":17,"items":[{"name":"(주)에이치디유통","tel":"02-2616-9641","addr":"경기도 광명시 노온사동 218-3번지","indutype":"신변잡화 - 기타잡화","category":"other"},{"name":"신세기이엔지","tel":"02-2611-8672","addr":"경기도 광명시 노온사동 218-3번지","indutype":"용역 서비스 - 기타용역서비스","category":"other"}]},{"lat":"37.43660002","long":"126.8442405","imageIndex":17,"items":[{"name":"(주)에코네트웍스","tel":"02-2617-9002","addr":"경기도 광명시 노온사동 574-7번지 1층","indutype":"전기제품 - 기타전기제품","category":"other"}]},{"lat":"37.4324886","long":"126.8489042","imageIndex":17,"items":[{"name":"(주)영신에프앤씨","tel":"02-2060-1591","addr":"경기도 광명시 노온사동 665-2번지","indutype":"문화.취미 - 애완동물","category":"other"}]},{"lat":"37.43582679","long":"126.8454624","imageIndex":17,"items":[{"name":"(주)커피머신갤러리","tel":"02-324-0040","addr":"경기도 광명시 노온사동 572-108번지 1층","indutype":"주방용구 - 주방용구","category":"other"}]},{"lat":"37.42618739","long":"126.8464655","imageIndex":17,"items":[{"name":"(주)태성자동중문","tel":"070-5223-0610","addr":"경기도 광명시 노온사동 740-2번지","indutype":"건축자재 - 기타건축자재","category":"other"}]},{"lat":"37.43526605","long":"126.8438817","imageIndex":17,"items":[{"name":"(주)테마랜드","tel":"02-890-2948","addr":"경기도 광명시 노온사동 577-2번지","indutype":"용역 서비스 - 종합용역","category":"other"}]},{"lat":"37.45162633","long":"126.8492605","imageIndex":17,"items":[{"name":"(주)한국보안","tel":"070-4337-5914","addr":"경기도 광명시 노온사동 154-2번지","indutype":"전기제품 - 기타전기제품","category":"other"}]},{"lat":"37.4437933","long":"126.8467114","imageIndex":17,"items":[{"name":"(주)한울에스아이(지점)","tel":"070-1111-1111","addr":"경기도 광명시 노온사동 359-14번지 1층","indutype":"전기제품 - 냉열기기","category":"other"},{"name":"BEAR O.A","tel":"02-830-0173","addr":"경기도 광명시 노온사동 359-14번지 1층 102호","indutype":"사무통신 - 컴퓨터","category":"other"}]},{"lat":"37.4413013","long":"126.8427955","imageIndex":17,"items":[{"name":"4호점농원","tel":"02-2689-9192","addr":"경기도 광명시 노온사동 385-1번지","indutype":"문화.취미 - 화원","category":"other"},{"name":"경기거북이","tel":"02-2060-4730","addr":"경기도 광명시 노온사동 385-1번지 나동 2 (열) 18호","indutype":"문화.취미 - 수족관","category":"other"},{"name":"경기관상어","tel":"02-2066-4730","addr":"경기도 광명시 노온사동 385-1번지 서서울화훼유통센터","indutype":"문화.취미 - 수족관","category":"other"},{"name":"광명농원","tel":"02-2617-2920","addr":"경기도 광명시 노온사동 385-1번지","indutype":"문화.취미 - 화원","category":"other"},{"name":"광명식물원","tel":"02-2687-9613","addr":"경기도 광명시 노온사동 385-1번지","indutype":"문화.취미 - 화원","category":"other"},{"name":"그린힐","tel":"02-2611-5141","addr":"경기도 광명시 노온사동 385-1번지","indutype":"문화.취미 - 화원","category":"other"},{"name":"꽃길농원","tel":"02-1234-5678","addr":"경기도 광명시 노온사동 385-1번지 서서울화훼단지하우스 가동 33호","indutype":"문화.취미 - 화원","category":"other"},{"name":"꽃누리","tel":"02-1111-1111","addr":"경기도 광명시 노온사동 385-1번지","indutype":"문화.취미 - 화원","category":"other"},{"name":"꿈앤들","tel":"02-2616-0369","addr":"경기도 광명시 노온사동 385-1번지","indutype":"문화.취미 - 화원","category":"other"},{"name":"남양토기","tel":"02-2688-9415","addr":"경기도 광명시 노온사동 385-1번지 남양토기","indutype":"문화.취미 - 화원","category":"other"},{"name":"다은농원","tel":"02-2612-0074","addr":"경기도 광명시 노온사동 385-1번지 서서울하훼유통 가동 11,12호","indutype":"문화.취미 - 화원","category":"other"},{"name":"대암원","tel":"02-2614-4500","addr":"경기도 광명시 노온사동 385-1번지","indutype":"문화.취미 - 화원","category":"other"},{"name":"동심농원","tel":"02-2066-7867","addr":"경기도 광명시 노온사동 385-1번지","indutype":"문화.취미 - 화원","category":"other"},{"name":"들꽃화원","tel":"02-899-2113","addr":"경기도 광명시 노온사동 385-1번지 서서울화훼유통센터내나동1열4","indutype":"문화.취미 - 화원","category":"other"},{"name":"목동농원","tel":"02-2060-4551","addr":"경기도 광명시 노온사동 385-1번지 2열1.2호","indutype":"문화.취미 - 화원","category":"other"},{"name":"몬트난원","tel":"02-2689-0261","addr":"경기도 광명시 노온사동 385-1번지","indutype":"문화.취미 - 화원","category":"other"},{"name":"미화림","tel":"02-2681-4747","addr":"경기도 광명시 노온사동 385-1번지","indutype":"문화.취미 - 화원","category":"other"},{"name":"백두농원","tel":"02-2616-6920","addr":"경기도 광명시 노온사동 385-1번지","indutype":"문화.취미 - 화원","category":"other"},{"name":"백송꽃직매장","tel":"02-2060-9611","addr":"경기도 광명시 노온사동 385-1번지 서서울화훼유통단지 백송화원","indutype":"문화.취미 - 화원","category":"other"},{"name":"백호농원","tel":"02-2687-2882","addr":"경기도 광명시 노온사동 385-1번지","indutype":"문화.취미 - 화원","category":"other"},{"name":"사천식물원","tel":"02-2625-1874","addr":"경기도 광명시 노온사동 385-1번지","indutype":"문화.취미 - 화원","category":"other"},{"name":"산내들식물원","tel":"02-2684-2809","addr":"경기도 광명시 노온사동 385-1번지","indutype":"문화.취미 - 화원","category":"other"},{"name":"삼화원예","tel":"02-2687-3444","addr":"경기도 광명시 노온사동 385-1번지","indutype":"문화.취미 - 화원","category":"other"},{"name":"서서울 생화 꽃채울","tel":"02-898-0088","addr":"경기도 광명시 노온사동 385-1번지 서서울화훼단지 나동 2열 7호","indutype":"문화.취미 - 화원","category":"other"},{"name":"서서울생화(꽃이야기)","tel":"02-854-3848","addr":"경기도 광명시 노온사동 385-1","indutype":"문화.취미 - 화원","category":"other"},{"name":"서서울아트","tel":"02-2618-0999","addr":"경기도 광명시 노온사동 385-1서서울화훼유통나동15-1.16-1호","indutype":"신변잡화 - 기타잡화","category":"other"},{"name":"서서울초화","tel":"02-2685-3886","addr":"경기도 광명시 노온사동 385-1번지","indutype":"문화.취미 - 화원","category":"other"},{"name":"서서울한국난원","tel":"02-2060-5528","addr":"경기도 광명시 노온사동 385-1 나동2열1호~2호","indutype":"문화.취미 - 화원","category":"other"},{"name":"서서울화분","tel":"02-688-9400","addr":"경기도 광명시 노온사동 385-1번지","indutype":"문화.취미 - 화원","category":"other"},{"name":"서서울화훼영농조합법인(주)","tel":"02-2614-9004","addr":"경기도 광명시 노온사동 385-1번지","indutype":"문화.취미 - 화원","category":"other"},{"name":"서연꽃농원","tel":"02-2687-1239","addr":"경기도 광명시 노온사동 385-1번지 가동 22호","indutype":"문화.취미 - 화원","category":"other"},{"name":"소똥이네 화분","tel":"","addr":"경기도 광명시 노온사동 385-1번지","indutype":"문화.취미 - 화원","category":"other"},{"name":"수빈이랑아빠랑","tel":"02-2682-4291","addr":"경기도 광명시 노온사동 385-1번지","indutype":"문화.취미 - 화원","category":"other"},{"name":"수연농원","tel":"02-2611-5075","addr":"경기도 광명시 노온사동 385-1가열34","indutype":"문화.취미 - 화원","category":"other"},{"name":"양재꽃농원","tel":"02-2682-5690","addr":"경기도 광명시 노온사동 385-1번지","indutype":"문화.취미 - 화원","category":"other"},{"name":"양지야생화","tel":"02-2618-8100","addr":"경기도 광명시 노온사동 385-1번지","indutype":"문화.취미 - 화원","category":"other"},{"name":"양화소록","tel":"02-2619-9346","addr":"경기도 광명시 노온사동 385-1나동3열13","indutype":"문화.취미 - 화원","category":"other"},{"name":"에이스인터내셔널","tel":"02-2619-0161","addr":"경기도 광명시 노온사동 385-1,서서울화훼단지내 나동5열1,2,3호","indutype":"건축자재 - 인테리어전문","category":"other"},{"name":"에이스조경","tel":"02-2684-3361","addr":"경기도 광명시 노온사동 385-1번지 서서울화훼유통단지","indutype":"문화.취미 - 화원","category":"other"},{"name":"예림농원","tel":"02-2625-8928","addr":"경기도 광명시 노온사동 385-1번지 가동 38호","indutype":"문화.취미 - 화원","category":"other"},{"name":"예원","tel":"031-681-0955","addr":"경기도 광명시 노온사동 385-1번지","indutype":"문화.취미 - 화원","category":"other"},{"name":"예인플라워","tel":"02-2068-3923","addr":"경기도 광명시 노온사동 385-1번지 서서울화훼유통단지","indutype":"문화.취미 - 화원","category":"other"},{"name":"유니온농원","tel":"031-314-8561","addr":"경기도 광명시 노온사동 385-1번지 가동 42호","indutype":"문화.취미 - 화원","category":"other"},{"name":"인재농원","tel":"02-2687-4772","addr":"경기도 광명시 노온사동 385-1.나-14","indutype":"문화.취미 - 화원","category":"other"},{"name":"준수꽃농원","tel":"02-2066-5786","addr":"경기도 광명시 노온사동 385-1번지 나동 6호","indutype":"문화.취미 - 화원","category":"other"},{"name":"지구촌식물원","tel":"02-2060-7100","addr":"경기도 광명시 노온사동 385-1번지","indutype":"문화.취미 - 화원","category":"other"},{"name":"집과정원","tel":"02-2694-9555","addr":"경기도 광명시 노온사동 385-1번지","indutype":"문화.취미 - 화원","category":"other"},{"name":"천지만년청","tel":"02-2683-0180","addr":"경기도 광명시 노온사동 385-1번지","indutype":"문화.취미 - 화원","category":"other"},{"name":"취미","tel":"02-2682-9455","addr":"경기도 광명시 노온사동 385-1번지","indutype":"신변잡화 - 기타잡화","category":"other"},{"name":"크리스탈무역","tel":"02-2682-1225","addr":"경기도 광명시 노온사동 385-1번지 1열","indutype":"문화.취미 - 수족관","category":"other"},{"name":"태양농원","tel":"070-4206-9578","addr":"경기도 광명시 노온사동 385-1번지 가동 32호","indutype":"문화.취미 - 화원","category":"other"},{"name":"푸른농원","tel":"02-754-3341","addr":"경기도 광명시 노온사동 385-1 3열 나-2","indutype":"문화.취미 - 화원","category":"other"},{"name":"푸른조경","tel":"02-879-1120","addr":"경기도 광명시 노온사동 385-1번지 43호","indutype":"문화.취미 - 화원","category":"other"},{"name":"프로포즈","tel":"02-2682-7500","addr":"경기도 광명시 노온사동 385-1번지","indutype":"문화.취미 - 화원","category":"other"},{"name":"한국식물원","tel":"02-2687-7726","addr":"경기도 광명시 노온사동 385-1번지","indutype":"문화.취미 - 화원","category":"other"},{"name":"한국화훼유통","tel":"02-2688-7800","addr":"경기도 광명시 노온사동 385-1나동3열13","indutype":"문화.취미 - 화원","category":"other"},{"name":"한라농장","tel":"02-2685-8998","addr":"경기도 광명시 노온사동 385-1번지 서서울화훼유통센터","indutype":"문화.취미 - 화원","category":"other"},{"name":"현대난원","tel":"02-2612-3102","addr":"경기도 광명시 노온사동 385-1번지","indutype":"문화.취미 - 화원","category":"other"},{"name":"현대생화","tel":"02-2611-3339","addr":"경기도 광명시 노온사동 385-1번지 나동2열13호","indutype":"문화.취미 - 화원","category":"other"},{"name":"현대화훼유통","tel":"02-2612-3102","addr":"경기도 광명시 노온사동 385-1번지 나동2열12호","indutype":"문화.취미 - 화원","category":"other"},{"name":"호원식물원","tel":"02-2060-4100","addr":"경기도 광명시 노온사동 385-1번지 가동 48호","indutype":"문화.취미 - 화원","category":"other"},{"name":"홍연원예자재","tel":"02-2060-5959","addr":"경기도 광명시 노온사동 385-1번지","indutype":"문화.취미 - 화원","category":"other"},{"name":"홍연토기","tel":"02-2060-5959","addr":"경기도 광명시 노온사동 385-1번지","indutype":"신변잡화 - 기타잡화","category":"other"},{"name":"화윤농원","tel":"02-2619-9005","addr":"경기도 광명시 노온사동 385-1번지","indutype":"문화.취미 - 화원","category":"other"}]},{"lat":"37.44951409","long":"126.8396249","imageIndex":17,"items":[{"name":"JINDOSINK (진도싱크)","tel":"02-838-9868","addr":"경기도 광명시 노온사동 280번지","indutype":"가구 - 일반가구","category":"other"},{"name":"금성냉동산업","tel":"02-262-9599","addr":"경기도 광명시 노온사동 280 가동","indutype":"용역 서비스 - 기타용역서비스","category":"other"}]},{"lat":"37.44224062","long":"126.8444885","imageIndex":17,"items":[{"name":"LST자동문","tel":"031-0000-0000","addr":"경기도 광명시 노온사동 377-3번지 104호","indutype":"건축자재 - 기타건축자재","category":"other"}]},{"lat":"37.44246553","long":"126.8510986","imageIndex":17,"items":[{"name":"M3","tel":"02-807-9349","addr":"경기도 광명시 노온사동 440-5번지","indutype":"의류 - 기타의류","category":"other"},{"name":"제이에이에스(J.A.S)","tel":"02-2066-6381","addr":"경기도 광명시 노온사동 440-5번지","indutype":"의류 - 내의판매","category":"other"}]},{"lat":"37.42910585","long":"126.8458719","imageIndex":17,"items":[{"name":"POWER.FISH&PET","tel":"02-2169-2630","addr":"경기도 광명시 노온사동 726-6번지","indutype":"문화.취미 - 애완동물","category":"other"},{"name":"마야인","tel":"02-869-9997","addr":"경기도 광명시 노온사동 726-6번지 1층","indutype":"직물 - 기타직물","category":"other"}]},{"lat":"37.44182248","long":"126.841766","imageIndex":17,"items":[{"name":"white crane(화이트크레인)","tel":"070-4202-4559","addr":"경기도 광명시 노온사동 340-1번지 1층","indutype":"문화.취미 - 수족관","category":"other"},{"name":"와우피쉬(WowFish)","tel":"02-2060-9682","addr":"경기도 광명시 노온사동 340-1번지 노은","indutype":"문화.취미 - 수족관","category":"other"}]},{"lat":"37.44699407","long":"126.8416532","imageIndex":17,"items":[{"name":"가가그래픽스","tel":"02-2617-9250","addr":"경기도 광명시 노온사동 310-1번지","indutype":"건축자재 - 인테리어전문","category":"other"}]},{"lat":"37.45413029","long":"126.8418753","imageIndex":17,"items":[{"name":"가든플라워","tel":"02-2682-3030","addr":"경기도 광명시 노온사동 77-2번지","indutype":"문화.취미 - 화원","category":"other"}]},{"lat":"37.45451772","long":"126.8418744","imageIndex":17,"items":[{"name":"가람농원","tel":"02-2612-5540","addr":"경기도 광명시 노온사동 78","indutype":"문화.취미 - 화원","category":"other"}]},{"lat":"37.43116087","long":"126.8533811","imageIndex":17,"items":[{"name":"가야종합공사","tel":"02-2060-9143","addr":"경기도 광명시 노온사동 801-6번지","indutype":"용역 서비스 - 기타용역서비스","category":"other"},{"name":"주식회사 워터루","tel":"02-2060-9143","addr":"경기도 광명시 노온사동 801-6번지","indutype":"신변잡화 - 기타잡화","category":"other"}]},{"lat":"37.43849596","long":"126.8471292","imageIndex":17,"items":[{"name":"개똥이네 씨앗","tel":"02-2688-0269","addr":"경기도 광명시 노온사동 508-4번지 A 1-3호","indutype":"농업 - 비료,사료,종자","category":"other"},{"name":"광명IC화훼유통","tel":"02-2066-1024","addr":"경기도 광명시 노온사동 508-4번지","indutype":"문화.취미 - 화원","category":"other"},{"name":"뉴그린","tel":"02-2611-6701","addr":"경기도 광명시 노온사동 508-4번지 B12호","indutype":"유통업 영리 - 기타유통업","category":"other"},{"name":"목동 생화 직매장","tel":"02-2611-4995","addr":"경기도 광명시 노온사동 508-4번지 B14호","indutype":"문화.취미 - 화원","category":"other"},{"name":"목동난원","tel":"02-2060-4551","addr":"경기도 광명시 노온사동 508-4번지 B2층 3호","indutype":"문화.취미 - 화원","category":"other"},{"name":"무지개화원","tel":"02-830-5953","addr":"경기도 광명시 노온사동 508-4번지","indutype":"문화.취미 - 화원","category":"other"},{"name":"서촌플라워","tel":"02-898-1371","addr":"경기도 광명시 노온사동 508-4번지","indutype":"문화.취미 - 화원","category":"other"},{"name":"신성농원","tel":"02-2683-1501","addr":"경기도 광명시 노온사동 508-4번지","indutype":"문화.취미 - 화원","category":"other"},{"name":"신성플라워센터","tel":"02-2066-1970","addr":"경기도 광명시 노온사동 508-4번지 15","indutype":"문화.취미 - 화원","category":"other"},{"name":"알트리 영등포점","tel":"02-2672-8880","addr":"경기도 광명시 노온사동 508-4번지 1층","indutype":"문화.취미 - 화원","category":"other"},{"name":"에덴농원","tel":"02-2686-3068","addr":"경기도 광명시 노온사동 508-4번지","indutype":"문화.취미 - 화원","category":"other"},{"name":"예지농원","tel":"02-867-7913","addr":"경기도 광명시 노온사동 508-4번지","indutype":"문화.취미 - 화원","category":"other"},{"name":"온누리농원","tel":"02-2688-2568","addr":"경기도 광명시 노온사동 508-4번지","indutype":"문화.취미 - 화원","category":"other"},{"name":"해피농원","tel":"02-2066-0073","addr":"경기도 광명시 노온사동 508-4번지","indutype":"문화.취미 - 화원","category":"other"}]},{"lat":"37.45393806","long":"126.8532906","imageIndex":17,"items":[{"name":"갤러리아","tel":"02-899-3149","addr":"경기도 광명시 노온사동 11번지","indutype":"의류 - 정장","category":"other"}]},{"lat":"37.42829759","long":"126.8478734","imageIndex":17,"items":[{"name":"거상","tel":"02-889-2557","addr":"경기도 광명시 노온사동 750-1","indutype":"건축자재 - 기타건축자재","category":"other"}]},{"lat":"37.44307017","long":"126.8449613","imageIndex":17,"items":[{"name":"경기해수어","tel":"02-2611-2061","addr":"경기도 광명시 노온사동 372-6번지","indutype":"문화.취미 - 수족관","category":"other"},{"name":"지엠에프 인터내셔날 (GMF INT'L)","tel":"02-111-1111","addr":"경기도 광명시 노온사동 372-6번지 1층","indutype":"문화.취미 - 수족관","category":"other"}]},{"lat":"37.45174151","long":"126.8477685","imageIndex":17,"items":[{"name":"경민테크","tel":"02-2684-2030","addr":"경기도 광명시 노온사동 150-2번지","indutype":"전기제품 - 기타전기제품","category":"other"}]},{"lat":"37.42655023","long":"126.8483176","imageIndex":17,"items":[{"name":"경신중공업","tel":"02-2060-4512","addr":"경기도 광명시 노온사동 761-9번지","indutype":"기타 - 기계공구","category":"other"}]},{"lat":"37.44907316","long":"126.8467117","imageIndex":17,"items":[{"name":"경인상사","tel":"02-2686-2272","addr":"경기도 광명시 노온사동 215-10번지","indutype":"신변잡화 - 기타잡화","category":"other"}]},{"lat":"37.4439899","long":"126.8454905","imageIndex":17,"items":[{"name":"공감종합인테리어","tel":"02-2682-5274","addr":"경기도 광명시 노온사동 363-1번지 1층","indutype":"직물 - 카페트,커튼,천막,지물","category":"other"}]},{"lat":"37.4552703","long":"126.8453991","imageIndex":17,"items":[{"name":"광명IC화훼유통","tel":"02-2066-0124","addr":"경기도 광명시 노온사동 58-10","indutype":"문화.취미 - 화원","category":"other"}]},{"lat":"37.45495947","long":"126.8420656","imageIndex":17,"items":[{"name":"광명공업사","tel":"02-2686-1180","addr":"경기도 광명시 노온사동 73번지","indutype":"건축자재 - 인테리어전문","category":"other"}]},{"lat":"37.44207839","long":"126.8444549","imageIndex":17,"items":[{"name":"광명관상어","tel":"02-2687-1137","addr":"경기도 광명시 노온사동 382-1번지","indutype":"문화.취미 - 수족관","category":"other"}]},{"lat":"37.44182346","long":"126.8424892","imageIndex":17,"items":[{"name":"광명꽃직매장","tel":"02-898-2844","addr":"경기도 광명시 노온사동 382-5번지","indutype":"문화.취미 - 화원","category":"other"}]},{"lat":"37.43218382","long":"126.8501025","imageIndex":17,"items":[{"name":"광명레전드베이스볼","tel":"02-2611-1825","addr":"경기도 광명시 노온사동 658번지 654","indutype":"의류 - 스포츠의류","category":"other"}]},{"lat":"37.43612978","long":"126.8429647","imageIndex":17,"items":[{"name":"광명사","tel":"02-2634-1087","addr":"경기도 광명시 노온사동 574-3번지 1층","indutype":"서적문구 - 출판 및 인쇄물","category":"other"}]},{"lat":"37.43862649","long":"126.8436599","imageIndex":17,"items":[{"name":"광명유통","tel":"02-2617-2006","addr":"경기도 광명시 노온사동 521-5번지","indutype":"주방용구 - 주방용구","category":"other"}]},{"lat":"37.45137622","long":"126.8509336","imageIndex":17,"items":[{"name":"광명이엔지(주)","tel":"02-2625-8553","addr":"경기도 광명시 노온사동 163-1번지","indutype":"용역 서비스 - 기타용역서비스","category":"other"}]},{"lat":"37.44160284","long":"126.8459362","imageIndex":17,"items":[{"name":"광명종합공구","tel":"02-2684-0985","addr":"경기도 광명시 노온사동 403-12번지 1층","indutype":"기타 - 기계공구","category":"other"}]},{"lat":"37.43843913","long":"126.8450389","imageIndex":17,"items":[{"name":"광명종합주방","tel":"02-2619-2455","addr":"경기도 광명시 노온사동 572-83번지","indutype":"주방용구 - 주방용식기","category":"other"}]},{"lat":"37.45109738","long":"126.8378472","imageIndex":17,"items":[{"name":"광명컨베어","tel":"02-2625-6866","addr":"경기도 광명시 노온사동 109-1번지 번째답하우스 2","indutype":"기타 - 기계공구","category":"other"}]},{"lat":"37.43018505","long":"126.8512363","imageIndex":17,"items":[{"name":"광명크린","tel":"070-4192-6410","addr":"경기도 광명시 노온사동 771-1번지","indutype":"신변잡화 - 기타잡화","category":"other"}]},{"lat":"37.44224019","long":"126.8375954","imageIndex":17,"items":[{"name":"금산자원","tel":"02-8868-9797","addr":"경기도 광명시 노온사동 546-3","indutype":"신변잡화 - 기타잡화","category":"other"}]},{"lat":"37.44235268","long":"126.8474602","imageIndex":17,"items":[{"name":"기린골프","tel":"02-2625-1872","addr":"경기도 광명시 노온사동 406-3번지 2층","indutype":"레져용품 - 스포츠·레져용품","category":"other"}]},{"lat":"37.4396553","long":"126.8449007","imageIndex":17,"items":[{"name":"꽃나라식물원","tel":"02-803-2020","addr":"경기도 광명시 노온사동 524-3","indutype":"문화.취미 - 화원","category":"other"}]},{"lat":"37.45496073","long":"126.8429924","imageIndex":17,"items":[{"name":"꽃드림농원","tel":"02-2685-1345","addr":"경기도 광명시 노온사동 74번지","indutype":"문화.취미 - 화원","category":"other"},{"name":"지석원","tel":"070-8285-8525","addr":"경기도 광명시 노온사동 74번지","indutype":"문화.취미 - 화원","category":"other"}]},{"lat":"37.45401821","long":"126.8456277","imageIndex":17,"items":[{"name":"꽃뜨락","tel":"02-836-5730","addr":"경기도 광명시 노온사동 56-4번지","indutype":"문화.취미 - 화원","category":"other"},{"name":"우정꽃화원","tel":"031-2614-8251","addr":"경기도 광명시 노온사동 56-4번지","indutype":"문화.취미 - 화원","category":"other"},{"name":"행운꽃농원","tel":"031-896-0151","addr":"경기도 광명시 노온사동 56-4번지","indutype":"문화.취미 - 화원","category":"other"}]},{"lat":"37.44107158","long":"126.8461859","imageIndex":17,"items":[{"name":"꽃천지꽃직매장","tel":"02-2688-4118","addr":"경기도 광명시 노온사동 399-1번지","indutype":"문화.취미 - 화원","category":"other"},{"name":"뷰펫","tel":"02-2683-9990","addr":"경기도 광명시 노온사동 399-1번지 1층","indutype":"문화.취미 - 애완동물","category":"other"},{"name":"인영낚시","tel":"02-2625-7448","addr":"경기도 광명시 노온사동 399-1번지","indutype":"레져용품 - 스포츠·레져용품","category":"other"}]},{"lat":"37.43157388","long":"126.8522391","imageIndex":17,"items":[{"name":"뉴화성산업","tel":"02-852-2002","addr":"경기도 광명시 노온사동 787번지","indutype":"신변잡화 - 기타잡화","category":"other"}]},{"lat":"37.45454622","long":"126.8429594","imageIndex":17,"items":[{"name":"늘푸른농원","tel":"02-805-5886","addr":"경기도 광명시 노온사동 61-3번지 늘푸른농원","indutype":"문화.취미 - 화원","category":"other"}]},{"lat":"37.44179715","long":"126.8430204","imageIndex":17,"items":[{"name":"늘푸른농원","tel":"02-2060-6686","addr":"경기도 광명시 노온사동 382-26번지","indutype":"문화.취미 - 화원","category":"other"}]},{"lat":"37.43974056","long":"126.8413185","imageIndex":17,"items":[{"name":"다복상사","tel":"02-2617-5826","addr":"경기도 광명시 노온사동 538-2번지","indutype":"건축자재 - 보일러·펌프·샷시","category":"other"}]},{"lat":"37.44404656","long":"126.8474567","imageIndex":17,"items":[{"name":"대본제작소","tel":"02-2625-1186","addr":"경기도 광명시 노온사동 412-6번지","indutype":"기타 - 기계공구","category":"other"},{"name":"한일세이프티","tel":"02-2612-7115","addr":"경기도 광명시 노온사동 412-6번지","indutype":"건축자재 - 기타건축자재","category":"other"}]},{"lat":"37.44887637","long":"126.847797","imageIndex":17,"items":[{"name":"대산금속","tel":"02-2612-4676","addr":"경기도 광명시 노온사동 212-4번지","indutype":"건축자재 - 기타건축자재","category":"other"}]},{"lat":"37.44210447","long":"126.843743","imageIndex":17,"items":[{"name":"대성기업","tel":"02-2612-9346","addr":"경기도 광명시 노온사동 382-28번지","indutype":"건축자재 - 기타건축자재","category":"other"}]},{"lat":"37.43010739","long":"126.8539368","imageIndex":17,"items":[{"name":"대정Scale","tel":"02-833-9871","addr":"경기도 광명시 노온사동 845번지","indutype":"기타 - 기계공구","category":"other"}]},{"lat":"37.44127211","long":"126.8412135","imageIndex":17,"items":[{"name":"동국토기","tel":"02-523-0107","addr":"경기도 광명시 노온사동 340-16번지","indutype":"문화.취미 - 민예·공예품","category":"other"}]},{"lat":"37.43815844","long":"126.8440112","imageIndex":17,"items":[{"name":"동남기계","tel":"02-2060-9985","addr":"경기도 광명시 노온사동 572-5번지","indutype":"기타 - 기계공구","category":"other"},{"name":"이지테크","tel":"02-814-9080","addr":"경기도 광명시 노온사동 572-5번지","indutype":"기타 - 기타 전문점","category":"other"}]},{"lat":"37.42632804","long":"126.8506792","imageIndex":17,"items":[{"name":"동인산업","tel":"","addr":"경기도 광명시 노온사동 915-4, 5번지","indutype":"가구 - 일반가구","category":"other"},{"name":"은혜중고성구사","tel":"02-503-0777","addr":"경기도 광명시 노온사동 915-4","indutype":"가구 - 일반가구","category":"other"}]},{"lat":"37.4493529","long":"126.8403486","imageIndex":17,"items":[{"name":"동진가설산업","tel":"02-2611-7802","addr":"경기도 광명시 노온사동 284번지","indutype":"건축자재 - 기타건축자재","category":"other"}]},{"lat":"37.44707161","long":"126.8457101","imageIndex":17,"items":[{"name":"동진밴딩","tel":"02-2060-8935","addr":"경기도 광명시 노온사동 253-1번지","indutype":"건축자재 - 기타건축자재","category":"other"}]},{"lat":"37.42701762","long":"126.847458","imageIndex":17,"items":[{"name":"동해수족관","tel":"02-2611-0851","addr":"경기도 광명시 노온사동 758-1번지","indutype":"문화.취미 - 수족관","category":"other"}]},{"lat":"37.44929185","long":"126.8485759","imageIndex":17,"items":[{"name":"디엠씨솔루션","tel":"02-867-1992","addr":"경기도 광명시 노온사동 212-9번지","indutype":"사무통신 - 사무용 OA기기","category":"other"}]},{"lat":"37.44254726","long":"126.8447138","imageIndex":17,"items":[{"name":"또또코리아","tel":"02-2614-2201","addr":"경기도 광명시 노온사동 376-7번지","indutype":"문화.취미 - 수족관","category":"other"}]},{"lat":"37.44463292","long":"126.8412628","imageIndex":17,"items":[{"name":"렌탈쿡&서울천막","tel":"02-2689-7888","addr":"경기도 광명시 노온사동 324번지","indutype":"직물 - 카페트,커튼,천막,지물","category":"other"}]},{"lat":"37.44502008","long":"126.8410699","imageIndex":17,"items":[{"name":"리젠트씽크","tel":"02-2611-1445","addr":"경기도 광명시 노온사동 324-6","indutype":"주방용구 - 주방용구","category":"other"},{"name":"에듀파트너","tel":"031-474-7878","addr":"경기도 광명시 노온사동 324-6번지","indutype":"서적문구 - 문구용품","category":"other"},{"name":"헌옷반장","tel":"","addr":"경기도 광명시 노온사동 324-6번지","indutype":"의류 - 기타의류","category":"other"}]},{"lat":"37.44216085","long":"126.8388499","imageIndex":17,"items":[{"name":"메리트산업","tel":"02-2614-0572","addr":"경기도 광명시 노온사동 544-2번지","indutype":"전기제품 - 냉열기기","category":"other"}]},{"lat":"37.43259923","long":"126.843989","imageIndex":17,"items":[{"name":"메탈아츠","tel":"02-2060-0454","addr":"경기도 광명시 노온사동 599번지","indutype":"가구 - 기타가구","category":"other"},{"name":"중고월드","tel":"02-3439-1020","addr":"경기도 광명시 노온사동 599번지","indutype":"가구 - 일반가구","category":"other"}]},{"lat":"37.43177217","long":"126.8522952","imageIndex":17,"items":[{"name":"명문도서","tel":"02-2625-4542","addr":"경기도 광명시 노온사동 780번지","indutype":"회원제형태 - 서적","category":"other"}]},{"lat":"37.44199239","long":"126.84754","imageIndex":17,"items":[{"name":"명성기획","tel":"02-2618-8700","addr":"경기도 광명시 노온사동 405번지","indutype":"서적문구 - 출판 및 인쇄물","category":"other"}]},{"lat":"37.43621351","long":"126.8449305","imageIndex":17,"items":[{"name":"명인금속","tel":"02-2613-8053","addr":"경기도 광명시 노온사동 575-3번지","indutype":"건축자재 - 목재·석재·철물","category":"other"}]},{"lat":"37.44116123","long":"126.8458467","imageIndex":17,"items":[{"name":"몬트화분","tel":"02-2616-0261","addr":"경기도 광명시 노온사동 399-2번지","indutype":"문화.취미 - 화원","category":"other"}]},{"lat":"37.42802417","long":"126.8455126","imageIndex":17,"items":[{"name":"문화전기조명","tel":"02-2619-4627","addr":"경기도 광명시 노온사동 733번지","indutype":"건축자재 - 조명기구","category":"other"}]},{"lat":"37.43729563","long":"126.8389848","imageIndex":17,"items":[{"name":"배드인","tel":"02-2618-8566","addr":"경기도 광명시 노온사동 563-1번지","indutype":"가구 - 일반가구","category":"other"}]},{"lat":"37.43104398","long":"126.8535734","imageIndex":17,"items":[{"name":"벧엘앨범","tel":"26-2612-3956","addr":"경기도 광명시 노온사동 801-1번지","indutype":"서적문구 - 문구용품","category":"other"},{"name":"젤쎈테크노","tel":"02-2612-3956","addr":"경기도 광명시 노온사동 801-1번지","indutype":"신변잡화 - 기타잡화","category":"other"}]},{"lat":"37.45326888","long":"126.8513706","imageIndex":17,"items":[{"name":"보라매물류센타","tel":"02-882-1441","addr":"경기도 광명시 노온사동 158-39번지","indutype":"건축자재 - 기타건축자재","category":"other"}]},{"lat":"37.45354769","long":"126.8441256","imageIndex":17,"items":[{"name":"보람원예","tel":"02-2618-7853","addr":"경기도 광명시 노온사동 124-10","indutype":"문화.취미 - 화원","category":"other"}]},{"lat":"37.44284874","long":"126.8478433","imageIndex":17,"items":[{"name":"보성물산","tel":"02-891-0744","addr":"경기도 광명시 노온사동 419-3번지","indutype":"신변잡화 - 기타잡화","category":"other"}]},{"lat":"37.45193904","long":"126.8472369","imageIndex":17,"items":[{"name":"보성산림법인 주식회사","tel":"02-2625-1922","addr":"경기도 광명시 노온사동 149-2번지","indutype":"건축자재 - 인테리어전문","category":"other"}]},{"lat":"37.45143223","long":"126.8455427","imageIndex":17,"items":[{"name":"부일종합건재","tel":"02-2616-5909","addr":"경기도 광명시 노온사동 146-1번지","indutype":"건축자재 - 기타건축자재","category":"other"}]},{"lat":"37.45198747","long":"126.8498249","imageIndex":17,"items":[{"name":"비앰에스코라아","tel":"02-1899-3632","addr":"경기도 광명시 노온사동 157번지","indutype":"신변잡화 - 기타잡화","category":"other"}]},{"lat":"37.43726747","long":"126.8447701","imageIndex":17,"items":[{"name":"사들유통","tel":"02-2682-0504","addr":"경기도 광명시 노온사동 572-24번지","indutype":"주방용구 - 주방용구","category":"other"},{"name":"성진완구","tel":"02-2683-7922","addr":"경기도 광명시 노온사동 572-24번지","indutype":"서적문구 - 완구점","category":"other"},{"name":"알도그(주)","tel":"02-2681-7508","addr":"경기도 광명시 노온사동 572-24번지","indutype":"문화.취미 - 애완동물","category":"other"}]},{"lat":"37.44310644","long":"126.8385201","imageIndex":17,"items":[{"name":"삼광통상","tel":"02-2614-6114","addr":"경기도 광명시 노온사동 543-10번지","indutype":"서적문구 - 완구점","category":"other"},{"name":"해피니스퍼니처","tel":"02-2066-8033","addr":"경기도 광명시 노온사동 543-10번지","indutype":"주방용구 - 주방용구","category":"other"}]},{"lat":"37.43296454","long":"126.847683","imageIndex":17,"items":[{"name":"삼성냉동주방설비","tel":"02-2678-1020","addr":"경기도 광명시 노온사동 636-2번지","indutype":"전기제품 - 냉열기기","category":"other"}]},{"lat":"37.43757388","long":"126.844826","imageIndex":17,"items":[{"name":"삼성문구","tel":"02-2681-1388","addr":"경기도 광명시 노온사동 572-34번지 A동","indutype":"서적문구 - 문구용품","category":"other"}]},{"lat":"37.43538055","long":"126.841938","imageIndex":17,"items":[{"name":"삼성종합물류","tel":"02-2617-2234","addr":"경기도 광명시 노온사동 566-1번지","indutype":"신변잡화 - 기타잡화","category":"other"}]},{"lat":"37.4521592","long":"126.8502427","imageIndex":17,"items":[{"name":"삼정중공업","tel":"02-2611-7422","addr":"경기도 광명시 노온사동 157-2번지","indutype":"기타 - 기계공구","category":"other"}]},{"lat":"37.44360228","long":"126.8453444","imageIndex":17,"items":[{"name":"삼진상회","tel":"","addr":"경기도 광명시 노온사동 370번지 1층 101호","indutype":"의류 - 정장","category":"other"}]},{"lat":"37.44079333","long":"126.8469888","imageIndex":17,"items":[{"name":"상희화분","tel":"02-2066-0648","addr":"경기도 광명시 노온사동 396-1번지","indutype":"문화.취미 - 화원","category":"other"}]},{"lat":"37.44129822","long":"126.8472363","imageIndex":17,"items":[{"name":"새천년쇼파","tel":"02-2688-0184","addr":"경기도 광명시 노온사동 403-3번지","indutype":"가구 - 일반가구","category":"other"}]},{"lat":"37.43349323","long":"126.8454899","imageIndex":17,"items":[{"name":"샤인조명","tel":"02-2060-3932","addr":"경기도 광명시 노온사동 577-33번지","indutype":"건축자재 - 조명기구","category":"other"}]},{"lat":"37.4508194","long":"126.845431","imageIndex":17,"items":[{"name":"샬롬화원","tel":"02-2687-4545","addr":"경기도 광명시 노온사동 196-3번지","indutype":"문화.취미 - 화원","category":"other"}]},{"lat":"37.43346825","long":"126.8470379","imageIndex":17,"items":[{"name":"서광물류","tel":"031-111-1111","addr":"경기도 광명시 노온사동 637-3번지","indutype":"주방용구 - 주방용구","category":"other"}]},{"lat":"37.449018","long":"126.8458755","imageIndex":17,"items":[{"name":"서울퍼피","tel":"","addr":"경기도 광명시 노온사동 217-5번지 1층","indutype":"문화.취미 - 애완동물","category":"other"}]},{"lat":"37.44252044","long":"126.8448721","imageIndex":17,"items":[{"name":"서원펫","tel":"02-2618-3451","addr":"경기도 광명시 노온사동 376-20번지","indutype":"문화.취미 - 애완동물","category":"other"}]},{"lat":"37.43410035","long":"126.8480987","imageIndex":17,"items":[{"name":"선정도서","tel":"02-2625-2456","addr":"경기도 광명시 노온사동 640-4번지 1동","indutype":"회원제형태 - 서적","category":"other"}]},{"lat":"37.44384951","long":"126.8483498","imageIndex":17,"items":[{"name":"성주유통","tel":"02-2689-2835","addr":"경기도 광명시 노온사동 415-2번지","indutype":"직물 - 침구·수예점","category":"other"}]},{"lat":"37.4412717","long":"126.8409084","imageIndex":17,"items":[{"name":"수경다육갤러리","tel":"02-430-3914","addr":"경기도 광명시 노온사동 340-22","indutype":"문화.취미 - 화원","category":"other"}]},{"lat":"37.44251476","long":"126.8473807","imageIndex":17,"items":[{"name":"신대륙전기조명","tel":"02-2688-6738","addr":"경기도 광명시 노온사동 407번지","indutype":"전기제품 - 기타전기제품","category":"other"},{"name":"이룸기획","tel":"070-5208-2463","addr":"경기도 광명시 노온사동 407번지 103호","indutype":"건축자재 - 인테리어전문","category":"other"}]},{"lat":"37.43457481","long":"126.8457701","imageIndex":17,"items":[{"name":"신도시종합개발","tel":"070-4922-1261","addr":"경기도 광명시 노온사동 577-71번지","indutype":"용역 서비스 - 사무서비스","category":"other"}]},{"lat":"37.4419061","long":"126.8436304","imageIndex":17,"items":[{"name":"신해무역","tel":"02-2066-3056","addr":"경기도 광명시 노온사동 382-3번지","indutype":"레져용품 - 스포츠·레져용품","category":"other"}]},{"lat":"37.43613295","long":"126.8453262","imageIndex":17,"items":[{"name":"아이샘","tel":"02-2060-1999","addr":"경기도 광명시 노온사동 572-105번지 1층","indutype":"서적문구 - 문구용품","category":"other"}]},{"lat":"37.42565997","long":"126.8496525","imageIndex":17,"items":[{"name":"아이스케어(서울센터)","tel":"02-803-5226","addr":"경기도 광명시 노온사동 920-2","indutype":"전기제품 - 냉열기기","category":"other"}]},{"lat":"37.44446254","long":"126.8556825","imageIndex":17,"items":[{"name":"애기능농장","tel":"02-2681-4025","addr":"경기도 광명시 노온사동 산79-2번지 1층","indutype":"문화.취미 - 화원","category":"other"}]},{"lat":"37.44184886","long":"126.8412914","imageIndex":17,"items":[{"name":"에덴금수원","tel":"02-2612-5173","addr":"경기도 광명시 노온사동 340-2번지","indutype":"문화.취미 - 애완동물","category":"other"}]},{"lat":"37.42821228","long":"126.851568","imageIndex":17,"items":[{"name":"에스엠","tel":"02-2616-9661","addr":"경기도 광명시 노온사동 873-1번지","indutype":"건축자재 - 기타건축자재","category":"other"}]},{"lat":"37.4312946","long":"126.8522623","imageIndex":17,"items":[{"name":"에이스사무가구의자총판","tel":"02-1544-8425","addr":"경기도 광명시 노온사동 776-1번지","indutype":"가구 - 기타가구","category":"other"}]},{"lat":"37.43646456","long":"126.8440148","imageIndex":17,"items":[{"name":"에이스코리아","tel":"02-2612-7890","addr":"경기도 광명시 노온사동 574-11번지","indutype":"문화.취미 - 수족관","category":"other"},{"name":"한성사","tel":"02-2616-5876","addr":"경기도 광명시 노온사동 574-11번지","indutype":"직물 - 침구·수예점","category":"other"}]},{"lat":"37.42824178","long":"126.8465403","imageIndex":17,"items":[{"name":"에이치와이","tel":"070-4204-7321","addr":"경기도 광명시 노온사동 748번지","indutype":"레져용품 - 스포츠·레져용품","category":"other"}]},{"lat":"37.43685061","long":"126.8429857","imageIndex":17,"items":[{"name":"엔젤아이스","tel":"02-2625-4985","addr":"경기도 광명시 노온사동 569-1번지","indutype":"주방용구 - 주방용구","category":"other"}]},{"lat":"37.44143157","long":"126.8392357","imageIndex":17,"items":[{"name":"영신마대","tel":"02-1111-1111","addr":"경기도 광명시 노온사동 542-3번지","indutype":"신변잡화 - 기타잡화","category":"other"}]},{"lat":"37.44715855","long":"126.843348","imageIndex":17,"items":[{"name":"영진엔지니어링","tel":"02-2613-4120","addr":"경기도 광명시 노온사동 302-4번지","indutype":"기타 - 기계공구","category":"other"}]},{"lat":"37.44935542","long":"126.84896","imageIndex":17,"items":[{"name":"예공사","tel":"02-2619-7793","addr":"경기도 광명시 노온사동 212-1번지","indutype":"회원제형태 - 기타4","category":"other"}]},{"lat":"37.44210639","long":"126.8451781","imageIndex":17,"items":[{"name":"온신철물건재","tel":"02-2684-2029","addr":"경기도 광명시 노온사동 375-8번지 5호","indutype":"기타 - 기계공구","category":"other"}]},{"lat":"37.44363236","long":"126.8476496","imageIndex":17,"items":[{"name":"우성테크","tel":"02-2614-7476","addr":"경기도 광명시 노온사동 410-2번지","indutype":"건축자재 - 보일러·펌프·샷시","category":"other"}]},{"lat":"37.42996893","long":"126.8444578","imageIndex":17,"items":[{"name":"우창방화문","tel":"02-899-8206","addr":"경기도 광명시 노온사동 680-16","indutype":"건축자재 - 기타건축자재","category":"other"}]},{"lat":"37.45298628","long":"126.8559031","imageIndex":17,"items":[{"name":"원양난원","tel":"070-4136-2305","addr":"경기도 광명시 노온사동 1","indutype":"문화.취미 - 화원","category":"other"}]},{"lat":"37.43144049","long":"126.8536291","imageIndex":17,"items":[{"name":"원진산업","tel":"031-2617-9358","addr":"경기도 광명시 노온사동 801번지","indutype":"기타 - 기타 전문점","category":"other"}]},{"lat":"37.44124292","long":"126.8462986","imageIndex":17,"items":[{"name":"웰빙꽃직매장","tel":"02-2682-3066","addr":"경기도 광명시 노온사동 401-3번지","indutype":"문화.취미 - 화원","category":"other"},{"name":"자연농원","tel":"02-2611-2002","addr":"경기도 광명시 노온사동 401-3번지","indutype":"문화.취미 - 화원","category":"other"}]},{"lat":"37.43834942","long":"126.8387113","imageIndex":17,"items":[{"name":"유일기업","tel":"","addr":"경기도 광명시 노온사동 557번지","indutype":"건축자재 - 기타건축자재","category":"other"}]},{"lat":"37.44876723","long":"126.8470175","imageIndex":17,"items":[{"name":"이레상사","tel":"02-796-2910","addr":"경기도 광명시 노온사동 214번지","indutype":"신변잡화 - 기타잡화","category":"other"}]},{"lat":"37.45410261","long":"126.8414006","imageIndex":17,"items":[{"name":"이슬농원","tel":"02-2066-3846","addr":"경기도 광명시 노온사동 116-2번지","indutype":"문화.취미 - 화원","category":"other"}]},{"lat":"37.43973725","long":"126.8455446","imageIndex":17,"items":[{"name":"이지가든","tel":"02-2615-4953","addr":"경기도 광명시 노온사동 516-2번지","indutype":"문화.취미 - 화원","category":"other"}]},{"lat":"37.44360379","long":"126.8464857","imageIndex":17,"items":[{"name":"이지테크","tel":"02-2685-5245","addr":"경기도 광명시 노온사동 359-10번지 1층","indutype":"기타 - 기계공구","category":"other"}]},{"lat":"37.44735074","long":"126.8455739","imageIndex":17,"items":[{"name":"인영낚시","tel":"02-844-1722","addr":"경기도 광명시 노온사동 253-4번지","indutype":"레져용품 - 스포츠·레져용품","category":"other"}]},{"lat":"37.44202062","long":"126.8484553","imageIndex":17,"items":[{"name":"정인상사","tel":"02-2615-9820","addr":"경기도 광명시 노온사동 424번지","indutype":"기타 - 기계공구","category":"other"}]},{"lat":"37.43154776","long":"126.8460137","imageIndex":17,"items":[{"name":"정주에어컨","tel":"02-852-6009","addr":"경기도 광명시 노온사동 629번지 하우스","indutype":"용역 서비스 - 기타용역서비스","category":"other"}]},{"lat":"37.44341192","long":"126.844486","imageIndex":17,"items":[{"name":"정진상사","tel":"02-899-4543","addr":"경기도 광명시 노온사동 368-1번지 1층","indutype":"주방용구 - 주방용구","category":"other"}]},{"lat":"37.42629561","long":"126.8465444","imageIndex":17,"items":[{"name":"제이엠알브이","tel":"02-2060-7365","addr":"경기도 광명시 노온사동 740-4,740-1,740-9","indutype":"레져용품 - 스포츠·레져용품","category":"other"}]},{"lat":"37.45413166","long":"126.8428811","imageIndex":17,"items":[{"name":"제이원렌탈","tel":"02-2686-8878","addr":"경기도 광명시 노온사동 77-4","indutype":"직물 - 침구·수예점","category":"other"}]},{"lat":"37.4326583","long":"126.8477627","imageIndex":17,"items":[{"name":"조광사","tel":"02-2619-6767","addr":"경기도 광명시 노온사동 636-5번지","indutype":"주방용구 - 주방용구","category":"other"}]},{"lat":"37.4492168","long":"126.8463158","imageIndex":17,"items":[{"name":"조은창호","tel":"02-2614-7707","addr":"경기도 광명시 노온사동 216-9번지","indutype":"건축자재 - 기타건축자재","category":"other"}]},{"lat":"37.43707639","long":"126.8433807","imageIndex":17,"items":[{"name":"주-잔카","tel":"02-2615-2752","addr":"경기도 광명시 노온사동 572-60번지 1층","indutype":"기타 - 기계공구","category":"other"}]},{"lat":"37.43904357","long":"126.8597949","imageIndex":17,"items":[{"name":"주식회사 광명스포츠파크","tel":"02-2680-6541","addr":"경기도 광명시 노온사동 469번지","indutype":"용역 서비스 - 사무서비스","category":"other"}]},{"lat":"37.43629397","long":"126.8444558","imageIndex":17,"items":[{"name":"주식회사 디씨넷","tel":"02-2616-7278","addr":"경기도 광명시 노온사동 574-13번지 2층","indutype":"전기제품 - 기타전기제품","category":"other"}]},{"lat":"37.44410423","long":"126.8433997","imageIndex":17,"items":[{"name":"주식회사 상임","tel":"02-3666-0184","addr":"경기도 광명시 노온사동 348번지","indutype":"가구 - 일반가구","category":"other"}]},{"lat":"37.4326883","long":"126.8500449","imageIndex":17,"items":[{"name":"주식회사 씨엔케이","tel":"070-4042-6586","addr":"경기도 광명시 노온사동 649번지","indutype":"신변잡화 - 기타잡화","category":"other"}]},{"lat":"37.43741087","long":"126.8442049","imageIndex":17,"items":[{"name":"주식회사 코아리빙","tel":"02-2615-2282","addr":"경기도 광명시 노온사동 572-7번지","indutype":"신변잡화 - 기타잡화","category":"other"}]},{"lat":"37.42607908","long":"126.8463188","imageIndex":17,"items":[{"name":"주식회사 한국유체시스템","tel":"02-805-8087","addr":"경기도 광명시 노온사동 739-3번지","indutype":"기타 - 기계공구","category":"other"}]},{"lat":"37.44151588","long":"126.8483207","imageIndex":17,"items":[{"name":"주식회사 한국징크","tel":"02-2618-5370","addr":"경기도 광명시 노온사동 427-1번지 1층","indutype":"건축자재 - 기타건축자재","category":"other"}]},{"lat":"37.44232809","long":"126.8493247","imageIndex":17,"items":[{"name":"주식회사디케이로케트","tel":"02-808-6201","addr":"경기도 광명시 노온사동 432번지","indutype":"전기제품 - 기타전기제품","category":"other"}]},{"lat":"37.43546397","long":"126.8436553","imageIndex":17,"items":[{"name":"주식회사에코튼","tel":"02-2625-2787","addr":"경기도 광명시 노온사동 577-1번지","indutype":"직물 - 침구·수예점","category":"other"}]},{"lat":"37.45465499","long":"126.8502602","imageIndex":17,"items":[{"name":"주식회사하나로지에스","tel":"02-886-6800","addr":"경기도 광명시 노온사동 27번지","indutype":"회원제형태 - 기타4","category":"other"},{"name":"하나로GS","tel":"02-886-6800","addr":"경기도 광명시 노온사동 27번지","indutype":"회원제형태 - 기타1","category":"other"}]},{"lat":"37.43632859","long":"126.8434049","imageIndex":17,"items":[{"name":"중고마트","tel":"02-2682-6624","addr":"경기도 광명시 노온사동 574-23번지","indutype":"전기제품 - 가전제품","category":"other"}]},{"lat":"37.42579707","long":"126.8442972","imageIndex":17,"items":[{"name":"진성렌탈","tel":"","addr":"경기도 광명시 노온사동 710번지","indutype":"신변잡화 - 기타잡화","category":"other"}]},{"lat":"37.44118927","long":"126.8399368","imageIndex":17,"items":[{"name":"진주분재원","tel":"02-2614-5415","addr":"경기도 광명시 노온사동 338-3번지","indutype":"문화.취미 - 화원","category":"other"}]},{"lat":"37.44982772","long":"126.8449923","imageIndex":17,"items":[{"name":"창대유통","tel":"02-2618-7206","addr":"경기도 광명시 노온사동 203-7번지","indutype":"신변잡화 - 기타잡화","category":"other"},{"name":"흙사랑","tel":"02-2685-9692","addr":"경기도 광명시 노온사동 203-7번지","indutype":"농업 - 기타농업관련","category":"other"}]},{"lat":"37.44416127","long":"126.8456258","imageIndex":17,"items":[{"name":"타비상사","tel":"070-8244-7470","addr":"경기도 광명시 노온사동 352번지","indutype":"의류 - 아동의류","category":"other"}]},{"lat":"37.44457844","long":"126.8409578","imageIndex":17,"items":[{"name":"태광정밀","tel":"031-317-1327","addr":"경기도 광명시 노온사동 324-3번지","indutype":"기타 - 기타 전문점","category":"other"}]},{"lat":"37.4361586","long":"126.8442979","imageIndex":17,"items":[{"name":"태성자동문서비스","tel":"02-842-0143","addr":"경기도 광명시 노온사동 574-14번지","indutype":"건축자재 - 기타건축자재","category":"other"}]},{"lat":"37.44237669","long":"126.8451775","imageIndex":17,"items":[{"name":"태성창호","tel":"02-2689-9971","addr":"경기도 광명시 노온사동 375-10번지","indutype":"건축자재 - 기타건축자재","category":"other"}]},{"lat":"37.45143575","long":"126.8482099","imageIndex":17,"items":[{"name":"태정상사(TJ company)","tel":"02-2681-8974","addr":"경기도 광명시 노온사동 152-4번지","indutype":"건축자재 - 목재·석재·철물","category":"other"}]},{"lat":"37.45473561","long":"126.8498984","imageIndex":17,"items":[{"name":"파라다이스아트","tel":"02-2616-8482","addr":"경기도 광명시 노온사동 28-3번지","indutype":"문화.취미 - 화원","category":"other"}]},{"lat":"37.45465785","long":"126.8455699","imageIndex":17,"items":[{"name":"편백건강침대","tel":"02-2066-5596","addr":"경기도 광명시 노온사동 58-1번지","indutype":"가구 - 일반가구","category":"other"},{"name":"호남농장","tel":"02-2611-4992","addr":"경기도 광명시 노온사동 58-1 1-2호","indutype":"문화.취미 - 화원","category":"other"}]},{"lat":"37.42924215","long":"126.8537125","imageIndex":17,"items":[{"name":"풀그림","tel":"02-2615-4422","addr":"경기도 광명시 노온사동 847-1번지","indutype":"문화.취미 - 화원","category":"other"}]},{"lat":"37.44202012","long":"126.8480711","imageIndex":17,"items":[{"name":"프로공단낚시할인마트","tel":"02-2681-4023","addr":"경기도 광명시 노온사동 425-6번지 1층 1호","indutype":"레져용품 - 스포츠·레져용품","category":"other"}]},{"lat":"37.44188207","long":"126.8392347","imageIndex":17,"items":[{"name":"한농원","tel":"02-2618-2105","addr":"경기도 광명시 노온사동 542-1번지","indutype":"농업 - 비료,사료,종자","category":"other"}]},{"lat":"37.43948854","long":"126.8415112","imageIndex":17,"items":[{"name":"한맥아이디","tel":"02-2681-7713","addr":"경기도 광명시 노온사동 526번지","indutype":"용역 서비스 - 기타용역서비스","category":"other"}]},{"lat":"37.45165726","long":"126.8453727","imageIndex":17,"items":[{"name":"행복한취미꽃농원","tel":"02-2615-5353","addr":"경기도 광명시 노온사동 145-1번지","indutype":"문화.취미 - 화원","category":"other"}]},{"lat":"37.42877371","long":"126.8467991","imageIndex":17,"items":[{"name":"향기로운정원","tel":"02-841-1948","addr":"경기도 광명시 노온사동 747-4","indutype":"문화.취미 - 화원","category":"other"}]},{"lat":"37.44804528","long":"126.8461488","imageIndex":17,"items":[{"name":"헤스티아퍼니쳐","tel":"02-2619-2926","addr":"경기도 광명시 노온사동 250-9번지","indutype":"주방용구 - 주방용구","category":"other"}]},{"lat":"37.42521234","long":"126.8449875","imageIndex":17,"items":[{"name":"현대사무용가구","tel":"02-2625-0401","addr":"경기도 광명시 노온사동 737-2","indutype":"가구 - 기타가구","category":"other"}]},{"lat":"37.45245781","long":"126.8443765","imageIndex":17,"items":[{"name":"화인텍스","tel":"02-3663-4773","addr":"경기도 광명시 노온사동 142-3","indutype":"기타 - 기타 전문점","category":"other"}]},{"lat":"37.43684926","long":"126.8419914","imageIndex":17,"items":[{"name":"황금주방","tel":"02-2686-5537","addr":"경기도 광명시 노온사동 532-1","indutype":"주방용구 - 주방용식기","category":"other"}]},{"lat":"37.43185309","long":"126.8521595","imageIndex":7,"items":[{"name":"4월17일/주식회사 4월 17일","tel":"070-4114-3235","addr":"경기도 광명시 노온사동 780-1번지","indutype":"음료식품 - 기타음료식품","category":"food"}]},{"lat":"37.43135739","long":"126.8520475","imageIndex":7,"items":[{"name":"광명미트","tel":"","addr":"경기도 광명시 노온사동 778-10번지","indutype":"음료식품 - 정육점","category":"food"},{"name":"주식회사 광명미트","tel":"031-1899-2319","addr":"경기도 광명시 노온사동 778-10번지 1층","indutype":"음료식품 - 정육점","category":"food"}]},{"lat":"37.43135696","long":"126.8517085","imageIndex":7,"items":[{"name":"그린푸드D&S","tel":"","addr":"경기도 광명시 노온사동 778-3번지 2층","indutype":"음료식품 - 기타음료식품","category":"food"}]},{"lat":"37.43493442","long":"126.8451818","imageIndex":7,"items":[{"name":"까치마을","tel":"02-2614-9600","addr":"경기도 광명시 노온사동 577-5번지","indutype":"음료식품 - 정육점","category":"food"}]},{"lat":"37.44743316","long":"126.8399007","imageIndex":7,"items":[{"name":"나들목","tel":"02-2060-3397","addr":"경기도 광명시 노온사동 291번지","indutype":"음료식품 - 기타음료식품","category":"food"}]},{"lat":"37.44137968","long":"126.8475187","imageIndex":7,"items":[{"name":"논현","tel":"02-2683-3091","addr":"경기도 광명시 노온사동 404-8","indutype":"음료식품 - 농·축·수산품","category":"food"}]},{"lat":"37.43018573","long":"126.8517674","imageIndex":7,"items":[{"name":"달구식자재","tel":"02-2685-1903","addr":"경기도 광명시 노온사동 794-1번지 A동","indutype":"음료식품 - 기타음료식품","category":"food"}]},{"lat":"37.43862649","long":"126.8436599","imageIndex":7,"items":[{"name":"더스타일","tel":"02-2612-0394","addr":"경기도 광명시 노온사동 521-5번지 2층","indutype":"음료식품 - 기타음료식품","category":"food"}]},{"lat":"37.43340683","long":"126.8482922","imageIndex":7,"items":[{"name":"미가푸드","tel":"02-2686-3374","addr":"경기도 광명시 노온사동 646-1번지","indutype":"음료식품 - 미곡상","category":"food"}]},{"lat":"37.43546397","long":"126.8436553","imageIndex":7,"items":[{"name":"부녀상회","tel":"","addr":"경기도 광명시 노온사동 577-1번지","indutype":"음료식품 - 기타음료식품","category":"food"}]},{"lat":"37.45021444","long":"126.8444604","imageIndex":7,"items":[{"name":"야우리 주식회사","tel":"070-4250-7376","addr":"경기도 광명시 노온사동 197-4번지 1층","indutype":"음료식품 - 기타음료식품","category":"food"}]},{"lat":"37.43396494","long":"126.8479069","imageIndex":7,"items":[{"name":"유일푸드","tel":"02-2688-6466","addr":"경기도 광명시 노온사동 640번지","indutype":"음료식품 - 정육점","category":"food"}]},{"lat":"37.43118499","long":"126.8442406","imageIndex":7,"items":[{"name":"이루다식품","tel":"02-2611-8480","addr":"경기도 광명시 노온사동 623-2번지 1층","indutype":"음료식품 - 기타음료식품","category":"food"}]},{"lat":"37.45054918","long":"126.8454881","imageIndex":7,"items":[{"name":"정오농산","tel":"02-2682-5151","addr":"경기도 광명시 노온사동 196-6번지","indutype":"음료식품 - 미곡상","category":"food"}]},{"lat":"37.43088088","long":"126.8601268","imageIndex":7,"items":[{"name":"제일 밤농원","tel":"","addr":"경기도 광명시 노온사동 산 217번지","indutype":"음료식품 - 농·축·수산품","category":"food"}]},{"lat":"37.43243512","long":"126.8493449","imageIndex":7,"items":[{"name":"제주농산f&s","tel":"02-2619-4979","addr":"경기도 광명시 노온사동 660-3번지","indutype":"음료식품 - 농·축·수산품","category":"food"}]},{"lat":"37.44241012","long":"126.8500478","imageIndex":7,"items":[{"name":"제주삼다수더블유통","tel":"02-2686-6107","addr":"경기도 광명시 노온사동 433-4번지","indutype":"음료식품 - 기타음료식품","category":"food"}]},{"lat":"37.42977301","long":"126.8461869","imageIndex":7,"items":[{"name":"주식회사 일월코퍼레이션","tel":"02-2066-7745","addr":"경기도 광명시 노온사동 726-8번지","indutype":"음료식품 - 기타음료식품","category":"food"}]},{"lat":"37.45182489","long":"126.84952","imageIndex":7,"items":[{"name":"주식회사초록물산","tel":"02-831-9444","addr":"경기도 광명시 노온사동 155-10번지","indutype":"음료식품 - 농·축·수산품","category":"food"},{"name":"주식회사초록물산","tel":"02-831-9444","addr":"경기도 광명시 노온사동 155-10번지","indutype":"음료식품 - 농·축·수산품","category":"food"}]},{"lat":"37.44232809","long":"126.8493247","imageIndex":7,"items":[{"name":"태인유통 (주)","tel":"02-2682-8289","addr":"경기도 광명시 노온사동 432번지","indutype":"음료식품 - 농·축·수산품","category":"food"}]},{"lat":"37.44285149","long":"126.8499565","imageIndex":7,"items":[{"name":"피카보","tel":"02-2682-3276","addr":"경기도 광명시 노온사동 433번지 2층","indutype":"음료식품 - 기타음료식품","category":"food"}]},{"lat":"37.45565457","long":"126.8498513","imageIndex":7,"items":[{"name":"하안농원","tel":"02-2618-1208","addr":"경기도 광명시 노온사동 36-1번지","indutype":"음료식품 - 농·축·수산품","category":"food"},{"name":"하안농장","tel":"02-2618-1208","addr":"경기도 광명시 노온사동 36-1번지","indutype":"음료식품 - 농·축·수산품","category":"food"}]},{"lat":"37.44948659","long":"126.845931","imageIndex":7,"items":[{"name":"해원","tel":"02-2611-9456","addr":"경기도 광명시 노온사동 216-22번지","indutype":"음료식품 - 기타음료식품","category":"food"}]},{"lat":"37.42890556","long":"126.8511824","imageIndex":7,"items":[{"name":"행복농원","tel":"02-2614-2705","addr":"경기도 광명시 노온사동 763-2번지","indutype":"음료식품 - 농·축·수산품","category":"food"}]},{"lat":"37.43582679","long":"126.8454624","imageIndex":7,"items":[{"name":"헤일빈스","tel":"02-882-9057","addr":"경기도 광명시 노온사동 572-108번지 1층","indutype":"음료식품 - 기타음료식품","category":"food"}]},{"lat":"37.44199279","long":"126.8478451","imageIndex":7,"items":[{"name":"협동상회","tel":"02-2682-8773","addr":"경기도 광명시 노온사동 425번지","indutype":"음료식품 - 기타음료식품","category":"food"}]},{"lat":"37.43921548","long":"126.8461559","imageIndex":7,"items":[{"name":"힐링라이프 솔트","tel":"","addr":"경기도 광명시 노온사동 518-2번지","indutype":"음료식품 - 기타음료식품","category":"food"}]},{"lat":"37.44224062","long":"126.8444885","imageIndex":13,"items":[{"name":"M.K광학","tel":"02-2625-5420","addr":"경기도 광명시 노온사동 377-3번지","indutype":"보건위생 - 안경","category":"beauty"},{"name":"옵틱 피엔알(optics P&R)","tel":"02-2625-5420","addr":"경기도 광명시 노온사동 377-3번지","indutype":"보건위생 - 안경","category":"beauty"}]},{"lat":"37.43721506","long":"126.8460132","imageIndex":13,"items":[{"name":"라성메디스","tel":"031-506-5400","addr":"경기도 광명시 노온사동 572-56번지 1층","indutype":"보건위생 - 의료용품","category":"beauty"}]},{"lat":"37.43432326","long":"126.8463243","imageIndex":13,"items":[{"name":"미소유통","tel":"02-2684-1213","addr":"경기도 광명시 노온사동 577-77번지","indutype":"보건위생 - 화장품","category":"beauty"}]},{"lat":"37.44401752","long":"126.8459312","imageIndex":0,"items":[{"name":"MJ글로벌","tel":"02-2611-4330","addr":"경기도 광명시 노온사동 354-4번지 1층","indutype":"자동차정비 유지 - 자동차부품","category":"car"}]},{"lat":"37.43210734","long":"126.8467356","imageIndex":0,"items":[{"name":"광명 아이씨점 기아오토큐","tel":"02-2619-2929","addr":"경기도 광명시 노온사동 631번지","indutype":"자동차정비 유지 - 자동차정비","category":"car"}]},{"lat":"37.44210669","long":"126.8454041","imageIndex":0,"items":[{"name":"광명남부점현대자동차","tel":"02-2619-0050","addr":"경기도 광명시 노온사동 375-3번지","indutype":"자동차정비 유지 - 자동차정비","category":"car"}]},{"lat":"37.44146092","long":"126.8476315","imageIndex":0,"items":[{"name":"광명넘버원","tel":"02-2616-4767","addr":"경기도 광명시 노온사동 404-3번지","indutype":"자동차정비 유지 - 카인테리어","category":"car"}]},{"lat":"37.43593476","long":"126.8453492","imageIndex":0,"items":[{"name":"광명명가썬팅","tel":"02-2613-1008","addr":"경기도 광명시 노온사동 572-106번지","indutype":"자동차정비 유지 - 자동차부품","category":"car"}]},{"lat":"37.44188207","long":"126.8392347","imageIndex":0,"items":[{"name":"그린카서비스","tel":"02-2618-5005","addr":"경기도 광명시 노온사동 542-1번지","indutype":"자동차정비 유지 - 자동차정비","category":"car"}]},{"lat":"37.44251476","long":"126.8473807","imageIndex":0,"items":[{"name":"네비가","tel":"02-2611-5956","addr":"경기도 광명시 노온사동 407번지 1층","indutype":"자동차정비 유지 - 자동차부품","category":"car"}]},{"lat":"37.44360512","long":"126.8474915","imageIndex":0,"items":[{"name":"눈","tel":"02-2066-2001","addr":"경기도 광명시 노온사동 409-7번지","indutype":"자동차정비 유지 - 카인테리어","category":"car"}]},{"lat":"37.44216085","long":"126.8388499","imageIndex":0,"items":[{"name":"대신","tel":"02-2625-4537","addr":"경기도 광명시 노온사동 544-2번지","indutype":"자동차정비 유지 - 자동차정비","category":"car"}]},{"lat":"37.43324352","long":"126.8474338","imageIndex":0,"items":[{"name":"동화 밧데리","tel":"02-2683-0533","addr":"경기도 광명시 노온사동 636-4번지 외필지","indutype":"자동차정비 유지 - 자동차부품","category":"car"},{"name":"동화공업사","tel":"02-618-6002","addr":"경기도 광명시 노온사동 636-4번지 외4필지","indutype":"자동차정비 유지 - 자동차정비","category":"car"},{"name":"동화타이어","tel":"","addr":"경기도 광명시 노온사동 636-4번지","indutype":"자동차정비 유지 - 자동차시트·타이어","category":"car"}]},{"lat":"37.42382701","long":"126.8466512","imageIndex":0,"items":[{"name":"두성","tel":"02-2617-2162","addr":"경기도 광명시 노온사동 940-3번지","indutype":"자동차정비 유지 - 중장비수리","category":"car"},{"name":"씽씽타이어","tel":"02-2681-2683","addr":"경기도 광명시 노온사동 940-3번지","indutype":"자동차정비 유지 - 자동차시트·타이어","category":"car"}]},{"lat":"37.44143157","long":"126.8392357","imageIndex":0,"items":[{"name":"드림자동차서비스","tel":"02-2611-6475","addr":"경기도 광명시 노온사동 542-3번지","indutype":"자동차정비 유지 - 자동차정비","category":"car"},{"name":"서영상사","tel":"02-2681-4700","addr":"경기도 광명시 노온사동 542-3번지","indutype":"자동차정비 유지 - 자동차부품","category":"car"}]},{"lat":"37.42635026","long":"126.8469848","imageIndex":0,"items":[{"name":"만스게러지","tel":"031-6124-6055","addr":"경기도 광명시 노온사동 760-2번지 외1필지","indutype":"자동차정비 유지 - 자동차부품","category":"car"}]},{"lat":"37.44146689","long":"126.8387158","imageIndex":0,"items":[{"name":"매직윈도우","tel":"02-804-6862","addr":"경기도 광명시 노온사동 550-8번지","indutype":"자동차정비 유지 - 카인테리어","category":"car"},{"name":"크리폴(크리스탈폴리싱)","tel":"02-859-9326","addr":"경기도 광명시 노온사동 550-8번지","indutype":"자동차정비 유지 - 카인테리어","category":"car"}]},{"lat":"37.44804502","long":"126.8459567","imageIndex":0,"items":[{"name":"명인자동차공업사","tel":"02-2611-6843","addr":"경기도 광명시 노온사동 250-1번지","indutype":"자동차정비 유지 - 자동차부품","category":"car"}]},{"lat":"37.42813315","long":"126.8461564","imageIndex":0,"items":[{"name":"비제이타이어(BJ TYRE)","tel":"02-2619-9004","addr":"경기도 광명시 노온사동 744번지","indutype":"자동차정비 유지 - 자동차시트·타이어","category":"car"},{"name":"비제이타이어(BJ TYRE)","tel":"02-2619-9004","addr":"경기도 광명시 노온사동 744번지","indutype":"자동차정비 유지 - 자동차부품","category":"car"},{"name":"비제이타이어(BJ TYRE)","tel":"02-2619-9004","addr":"경기도 광명시 노온사동 744번지","indutype":"자동차정비 유지 - 자동차부품","category":"car"}]},{"lat":"37.44377333","long":"126.8452424","imageIndex":0,"items":[{"name":"비젼카마스터","tel":"","addr":"경기도 광명시 노온사동 364-2번지 1층","indutype":"자동차정비 유지 - 견인서비스","category":"car"},{"name":"선진특수렉카","tel":"031-311-3143","addr":"경기도 광명시 노온사동 364-2번지","indutype":"자동차정비 유지 - 견인서비스","category":"car"},{"name":"스피드메이트","tel":"02-2613-8672","addr":"경기도 광명시 노온사동 364-2번지 1층","indutype":"자동차정비 유지 - 견인서비스","category":"car"},{"name":"으랏차차","tel":"02-2613-8672","addr":"경기도 광명시 노온사동 364-2번지 1층","indutype":"자동차정비 유지 - 견인서비스","category":"car"},{"name":"파워렉커","tel":"031-000-0000","addr":"경기도 광명시 노온사동 364-2번지","indutype":"자동차정비 유지 - 견인서비스","category":"car"},{"name":"홍카와아이들","tel":"","addr":"경기도 광명시 노온사동 364-2번지","indutype":"자동차정비 유지 - 자동차정비","category":"car"}]},{"lat":"37.449018","long":"126.8458755","imageIndex":0,"items":[{"name":"성삼자동차공업사","tel":"02-2615-4456","addr":"경기도 광명시 노온사동 217-5번지","indutype":"자동차정비 유지 - 자동차정비","category":"car"}]},{"lat":"37.44996364","long":"126.8455684","imageIndex":0,"items":[{"name":"성호자동차공업사","tel":"031-2683-1975","addr":"경기도 광명시 노온사동 207-3번지","indutype":"자동차정비 유지 - 자동차정비","category":"car"}]},{"lat":"37.44232201","long":"126.8447143","imageIndex":0,"items":[{"name":"쌍용자동차서비스프라자광명","tel":"031-2617-6318","addr":"경기도 광명시 노온사동 376-9번지","indutype":"자동차정비 유지 - 자동차정비","category":"car"}]},{"lat":"37.44202012","long":"126.8480711","imageIndex":0,"items":[{"name":"애기능카공업사","tel":"02-2686-3349","addr":"경기도 광명시 노온사동 425-6번지","indutype":"자동차정비 유지 - 자동차정비","category":"car"}]},{"lat":"37.43582679","long":"126.8454624","imageIndex":0,"items":[{"name":"오토티엠","tel":"02-899-1996","addr":"경기도 광명시 노온사동 572-108번지","indutype":"자동차정비 유지 - 자동차정비","category":"car"}]},{"lat":"37.4547163","long":"126.8489038","imageIndex":0,"items":[{"name":"우영특장","tel":"02-2617-7231","addr":"경기도 광명시 노온사동 44-2번지","indutype":"자동차판매 - 기타운송","category":"car"}]},{"lat":"37.44373676","long":"126.8448469","imageIndex":0,"items":[{"name":"주식회사 에코이브이","tel":"02-2060-2646","addr":"경기도 광명시 노온사동 368-2번지","indutype":"자동차판매 - 기타운송","category":"car"}]},{"lat":"37.4518544","long":"126.8445699","imageIndex":0,"items":[{"name":"카오디오다이하드","tel":"02-484-9649","addr":"경기도 광명시 노온사동 145-3번지","indutype":"자동차정비 유지 - 자동차부품","category":"car"}]},{"lat":"37.45410261","long":"126.8414006","imageIndex":0,"items":[{"name":"타이어119","tel":"02-2683-7770","addr":"경기도 광명시 노온사동 116-2번지 1층","indutype":"자동차정비 유지 - 자동차시트·타이어","category":"car"}]},{"lat":"37.43221626","long":"126.8473455","imageIndex":0,"items":[{"name":"타이어버디","tel":"070-4142-7900","addr":"경기도 광명시 노온사동 633번지","indutype":"자동차정비 유지 - 자동차시트·타이어","category":"car"}]},{"lat":"37.45024287","long":"126.8455113","imageIndex":0,"items":[{"name":"형진오토","tel":"02-2617-0556","addr":"경기도 광명시 노온사동 207-1번지","indutype":"자동차정비 유지 - 자동차정비","category":"car"}]},{"lat":"37.43346867","long":"126.8473542","imageIndex":0,"items":[{"name":"휠스핀코리아","tel":"02-6938-7118","addr":"경기도 광명시 노온사동 638번지","indutype":"자동차정비 유지 - 자동차시트·타이어","category":"car"}]},{"lat":"37.45396468","long":"126.8529627","imageIndex":4,"items":[{"name":"광명토성식당","tel":"02-2625-9292","addr":"경기도 광명시 노온사동 12-5번지","indutype":"일반휴게음식 - 일반한식","category":"restaurant"}]},{"lat":"37.43332325","long":"126.8464055","imageIndex":4,"items":[{"name":"굴뚝","tel":"02-2625-9488","addr":"경기도 광명시 노온사동 585번지","indutype":"일반휴게음식 - 일반한식","category":"restaurant"}]},{"lat":"37.43460245","long":"126.8462333","imageIndex":4,"items":[{"name":"길목식당","tel":"02-2060-9177","addr":"경기도 광명시 노온사동 577-35 2층","indutype":"일반휴게음식 - 일반한식","category":"restaurant"}]},{"lat":"37.43493442","long":"126.8451818","imageIndex":4,"items":[{"name":"까치마을한우촌","tel":"02-2614-9600","addr":"경기도 광명시 노온사동 577-5번지","indutype":"일반휴게음식 - 일반한식","category":"restaurant"}]},{"lat":"37.42946507","long":"126.8518818","imageIndex":4,"items":[{"name":"나들목","tel":"031-2617-5914","addr":"경기도 광명시 노온사동 796-3번지 101호","indutype":"일반휴게음식 - 일반한식","category":"restaurant"}]},{"lat":"37.43659949","long":"126.843845","imageIndex":4,"items":[{"name":"나들목부페식당","tel":"02-2060-3397","addr":"경기도 광명시 노온사동 574-10번지","indutype":"일반휴게음식 - 일반한식","category":"restaurant"}]},{"lat":"37.43576789","long":"126.8486263","imageIndex":4,"items":[{"name":"대한농장","tel":"02-2617-5289","addr":"경기도 광명시 노온사동 산178-5번지 1층","indutype":"일반휴게음식 - 일반한식","category":"restaurant"}]},{"lat":"37.44191007","long":"126.8399352","imageIndex":4,"items":[{"name":"도원식당","tel":"02-2614-5051","addr":"경기도 광명시 노온사동 337번지 1층","indutype":"일반휴게음식 - 일반한식","category":"restaurant"}]},{"lat":"37.43807855","long":"126.844904","imageIndex":4,"items":[{"name":"망향비빔국수광명점","tel":"02-2616-3519","addr":"경기도 광명시 노온사동 572-59번지 1층","indutype":"일반휴게음식 - 일반한식","category":"restaurant"},{"name":"정성을담은김밥","tel":"02-2688-0010","addr":"경기도 광명시 노온사동 572-59번지","indutype":"일반휴게음식 - 일반한식","category":"restaurant"}]},{"lat":"37.43018505","long":"126.8512363","imageIndex":4,"items":[{"name":"미래식당","tel":"02-2685-8254","addr":"경기도 광명시 노온사동 771-1번지 1층","indutype":"일반휴게음식 - 일반한식","category":"restaurant"}]},{"lat":"37.442186","long":"126.8440705","imageIndex":4,"items":[{"name":"사임당","tel":"02-2066-6683","addr":"경기도 광명시 노온사동 382-7번지 1층","indutype":"일반휴게음식 - 일반한식","category":"restaurant"}]},{"lat":"37.43566216","long":"126.8436323","imageIndex":4,"items":[{"name":"성우뷔페식당","tel":"02-2687-0779","addr":"경기도 광명시 노온사동 574-30번지 2층","indutype":"일반휴게음식 - 일반한식","category":"restaurant"}]},{"lat":"37.45393223","long":"126.8558222","imageIndex":4,"items":[{"name":"순천가든","tel":"","addr":"경기도 광명시 노온사동 6-3번지 1,2층","indutype":"일반휴게음식 - 일반한식","category":"restaurant"}]},{"lat":"37.44199239","long":"126.84754","imageIndex":4,"items":[{"name":"신동방신기","tel":"02-2612-0052","addr":"경기도 광명시 노온사동 405번지 1층","indutype":"일반휴게음식 - 중국식","category":"restaurant"},{"name":"신동방신기","tel":"02-2612-0051","addr":"경기도 광명시 노온사동 405번지 1층","indutype":"일반휴게음식 - 중국식","category":"restaurant"}]},{"lat":"37.44904576","long":"126.8464292","imageIndex":4,"items":[{"name":"양반골","tel":"02-2684-7346","addr":"경기도 광명시 노온사동 216-8번지","indutype":"일반휴게음식 - 일반한식","category":"restaurant"}]},{"lat":"37.45054918","long":"126.8454881","imageIndex":4,"items":[{"name":"왕성한가든","tel":"02-2066-7373","addr":"경기도 광명시 노온사동 196-6번지 1층","indutype":"일반휴게음식 - 일반한식","category":"restaurant"}]},{"lat":"37.44207308","long":"126.8472347","imageIndex":4,"items":[{"name":"용인토종순대국","tel":"02-2611-7500","addr":"경기도 광명시 노온사동 361-1번지","indutype":"일반휴게음식 - 일반한식","category":"restaurant"}]},{"lat":"37.43843913","long":"126.8450389","imageIndex":4,"items":[{"name":"이시스커피 ISiS COFFEE","tel":"","addr":"경기도 광명시 노온사동 572-83번지 2층","indutype":"일반휴게음식 - 서양음식","category":"restaurant"}]},{"lat":"37.44935162","long":"126.8460669","imageIndex":4,"items":[{"name":"조선곰탕","tel":"02-2685-9494","addr":"경기도 광명시 노온사동 216-23번지 1층","indutype":"일반휴게음식 - 일반한식","category":"restaurant"}]},{"lat":"37.43746727","long":"126.8459561","imageIndex":4,"items":[{"name":"참숯꺼먹돼지","tel":"02-2615-1704","addr":"경기도 광명시 노온사동 572-57번지","indutype":"일반휴게음식 - 일반한식","category":"restaurant"}]},{"lat":"37.45524011","long":"126.8498521","imageIndex":4,"items":[{"name":"큰마당","tel":"02-2618-1208","addr":"경기도 광명시 노온사동 36외1필지","indutype":"일반휴게음식 - 일반한식","category":"restaurant"}]},{"lat":"37.44201485","long":"126.8441047","imageIndex":4,"items":[{"name":"한서방두루치기","tel":"02-2625-5727","addr":"경기도 광명시 노온사동 382-15번지 1층","indutype":"일반휴게음식 - 일반한식","category":"restaurant"}]},{"lat":"37.42890556","long":"126.8511824","imageIndex":7,"items":[{"name":"동네슈퍼","tel":"02-2625-5243","addr":"경기도 광명시 노온사동 763-2번지","indutype":"유통업 영리 - 슈퍼마켓","category":"mart"}]},{"lat":"37.44124292","long":"126.8462986","imageIndex":7,"items":[{"name":"자연마트","tel":"02-2612-2002","addr":"경기도 광명시 노온사동 401-3번지","indutype":"유통업 영리 - 슈퍼마켓","category":"mart"}]},{"lat":"37.4481292","long":"126.8482958","imageIndex":16,"items":[{"name":"미래아이스포츠 아카데미","tel":"02-6080-6634","addr":"경기도 광명시 노온사동 220-10번지","indutype":"학원 - 예·체능계학원","category":"study"}]},{"lat":"37.45201467","long":"126.8499604","imageIndex":16,"items":[{"name":"사단법인 한국안전보건협회","tel":"02-3666-9777","addr":"경기도 광명시 노온사동 157-7번지","indutype":"학원 - 기타 교육기관","category":"study"}]},{"lat":"37.42890556","long":"126.8511824","imageIndex":16,"items":[{"name":"열린사회 자연생태학습장","tel":"02-2614-2704","addr":"경기도 광명시 노온사동 763-2번지","indutype":"학원 - 기타 교육기관","category":"study"}]},{"lat":"37.44413317","long":"126.8448235","imageIndex":16,"items":[{"name":"제이엠 코리아(JM KOREA)","tel":"","addr":"경기도 광명시 노온사동 365-1번지","indutype":"학원 - 예·체능계학원","category":"study"}]},{"lat":"37.45401928","long":"126.8464302","imageIndex":9,"items":[{"name":"비젼코리아","tel":"02-899-9929","addr":"경기도 광명시 노온사동 56-3번지","indutype":"연료판매점 - 기타연료","category":"oil"}]},{"lat":"37.43110216","long":"126.8568724","imageIndex":13,"items":[{"name":"샘터낚시터","tel":"02-2618-5984","addr":"경기도 광명시 노온사동 833-2번지","indutype":"레저업소 - 기타레져업소","category":"leisure"}]}]