[{"lat":"37.289489233","long":"127.01414791","imageIndex":13,"items":[{"name":"2NE1노래연습장","tel":"031-548-2088","addr":"경기도 수원시 장안구 영화동 282-5번지 2층","indutype":"레저업소 - 노 래 방","category":"leisure"}]},{"lat":"37.28978661","long":"127.0137307","imageIndex":13,"items":[{"name":"7쎄븐24시노래연습장","tel":"031-223-5214","addr":"경기도 수원시 장안구 영화동 283-4번지 지층","indutype":"레저업소 - 노 래 방","category":"leisure"},{"name":"다빈치당구장","tel":"031-258-1238","addr":"경기도 수원시 장안구 영화동 283-4번지 2층","indutype":"레저업소 - 당 구 장","category":"leisure"}]},{"lat":"37.289651939","long":"127.00108889","imageIndex":13,"items":[{"name":"KBS노래연습장","tel":"031-252-4928","addr":"경기도 수원시 장안구 영화동 398-2번지","indutype":"레저업소 - 노 래 방","category":"leisure"}]},{"lat":"37.29026465","long":"127.00302858","imageIndex":13,"items":[{"name":"MO노래연습장","tel":"031-245-6366","addr":"경기도 수원시 장안구 영화동 394-3번지 2층","indutype":"레저업소 - 노 래 방","category":"leisure"}]},{"lat":"37.288786894","long":"127.00708834","imageIndex":13,"items":[{"name":"MVP노래연습장","tel":"031-207-1399","addr":"경기도 수원시 장안구 영화동 419-25번지","indutype":"레저업소 - 노 래 방","category":"leisure"}]},{"lat":"37.291183202","long":"127.01369707","imageIndex":13,"items":[{"name":"OK당구장","tel":"031-255-5970","addr":"경기도 수원시 장안구 영화동 275-5번지","indutype":"레저업소 - 당 구 장","category":"leisure"}]},{"lat":"37.291119946","long":"127.01555784","imageIndex":13,"items":[{"name":"거북이 노래연습장","tel":"031-251-1453","addr":"경기도 수원시 장안구 영화동 163-2번지 지하1층","indutype":"레저업소 - 노 래 방","category":"leisure"}]},{"lat":"37.291066534","long":"127.00545323","imageIndex":13,"items":[{"name":"그린노래연습장","tel":"031-258-5632","addr":"경기도 수원시 장안구 영화동 390-13번지 2층","indutype":"레저업소 - 노 래 방","category":"leisure"}]},{"lat":"37.291264493","long":"127.01124987","imageIndex":13,"items":[{"name":"나이스큐","tel":"031-243-0959","addr":"경기도 수원시 장안구 영화동 342-18번지","indutype":"레저업소 - 당 구 장","category":"leisure"}]},{"lat":"37.29129136","long":"127.01331365","imageIndex":13,"items":[{"name":"뉴월드노래방","tel":"031-251-2380","addr":"경기도 수원시 장안구 영화동 274-19번지 지하1층","indutype":"레저업소 - 노 래 방","category":"leisure"}]},{"lat":"37.29390431","long":"127.01356212","imageIndex":13,"items":[{"name":"둥지노래연습장","tel":"031-248-3527","addr":"경기도 수원시 장안구 영화동 245-6번지 지하1층","indutype":"레저업소 - 노 래 방","category":"leisure"}]},{"lat":"37.291931369","long":"127.00936658","imageIndex":13,"items":[{"name":"락당구장","tel":"070-8734-7785","addr":"경기도 수원시 장안구 영화동 449-10번지 2층","indutype":"레저업소 - 당 구 장","category":"leisure"}]},{"lat":"37.291345589","long":"127.01119349","imageIndex":13,"items":[{"name":"러브노래연습장","tel":"031-258-9966","addr":"경기도 수원시 장안구 영화동 342-11번지 지하1층","indutype":"레저업소 - 노 래 방","category":"leisure"}]},{"lat":"37.289291098","long":"127.01314421","imageIndex":13,"items":[{"name":"럭셔리노래연습장","tel":"","addr":"경기도 수원시 장안구 영화동 327-1번지 월드프라자 2층 205-1호","indutype":"레저업소 - 노 래 방","category":"leisure"},{"name":"쎌라이트","tel":"031-256-1257","addr":"경기도 수원시 장안구 영화동 327-1번지 월드프라자 2층 204호","indutype":"레저업소 - 헬스클럽","category":"leisure"},{"name":"임팩트","tel":"031-257-5213","addr":"경기도 수원시 장안구 영화동 327-1번지 월드프라자 305호","indutype":"레저업소 - 당 구 장","category":"leisure"}]},{"lat":"37.291652021","long":"127.0098966","imageIndex":13,"items":[{"name":"럭키노래연습장","tel":"031-253-3230","addr":"경기도 수원시 장안구 영화동 346-7번지 지하1층","indutype":"레저업소 - 노 래 방","category":"leisure"}]},{"lat":"37.289903815","long":"127.01291875","imageIndex":13,"items":[{"name":"명품당구클럽","tel":"031-2669-2742","addr":"경기도 수원시 장안구 영화동 325-3번지 3층","indutype":"레저업소 - 당 구 장","category":"leisure"}]},{"lat":"37.29029118","long":"127.01377588","imageIndex":13,"items":[{"name":"발라드 노래연습장","tel":"031-247-0891","addr":"경기도 수원시 장안구 영화동 284-1번지 2층","indutype":"레저업소 - 노 래 방","category":"leisure"}]},{"lat":"37.286489289","long":"127.0067499","imageIndex":13,"items":[{"name":"방가방가노래연습장","tel":"031-256-2811","addr":"경기도 수원시 장안구 영화동 445-7번지","indutype":"레저업소 - 노 래 방","category":"leisure"}]},{"lat":"37.291822455","long":"127.01802775","imageIndex":13,"items":[{"name":"뱅크노래연습장","tel":"031-256-0043","addr":"경기도 수원시 장안구 영화동 106-4번지 지하1층 101호","indutype":"레저업소 - 노 래 방","category":"leisure"}]},{"lat":"37.291426505","long":"127.01341516","imageIndex":13,"items":[{"name":"베스트노래연습장","tel":"031-253-5331","addr":"경기도 수원시 장안구 영화동 274-18번지 수원새마을금고","indutype":"레저업소 - 노 래 방","category":"leisure"}]},{"lat":"37.290786536","long":"127.01583972","imageIndex":13,"items":[{"name":"북문당구클럽","tel":"031-111-1111","addr":"경기도 수원시 장안구 영화동 166-15번지 3층","indutype":"레저업소 - 당 구 장","category":"leisure"}]},{"lat":"37.288651689","long":"127.00834009","imageIndex":13,"items":[{"name":"블루노래연습장","tel":"031-241-3969","addr":"경기도 수원시 장안구 영화동 429-3번지 1층 지하","indutype":"레저업소 - 노 래 방","category":"leisure"}]},{"lat":"37.292147658","long":"127.00853206","imageIndex":13,"items":[{"name":"솔솔노래연습장","tel":"031-247-8112","addr":"경기도 수원시 장안구 영화동 449-25번지 지하1층","indutype":"레저업소 - 노 래 방","category":"leisure"}]},{"lat":"37.288984735","long":"127.01331333","imageIndex":13,"items":[{"name":"수원체육관","tel":"031-247-3416","addr":"경기도 수원시 장안구 영화동 327-9번지 3층","indutype":"레저업소 - 헬스클럽","category":"leisure"},{"name":"투투 노래연습장","tel":"031-247-2055","addr":"경기도 수원시 장안구 영화동 327-9번지","indutype":"레저업소 - 노 래 방","category":"leisure"}]},{"lat":"37.28798479","long":"127.0108097","imageIndex":13,"items":[{"name":"알파스크린골프","tel":"031-254-0851","addr":"경기도 수원시 장안구 영화동 436-19번지 제일빌딩 2층","indutype":"레저업소 - 스크린골프","category":"leisure"}]},{"lat":"37.289813863","long":"127.01094522","imageIndex":13,"items":[{"name":"어썸PC","tel":"070-2000-7519","addr":"경기도 수원시 장안구 영화동 358-1번지 2층","indutype":"레저업소 - 기타레져업소","category":"leisure"},{"name":"천지노래연습장","tel":"031-257-8857","addr":"경기도 수원시 장안구 영화동 358-1번지 지하1층","indutype":"레저업소 - 노 래 방","category":"leisure"}]},{"lat":"37.289516783","long":"127.00095357","imageIndex":13,"items":[{"name":"어썸PC카페","tel":"","addr":"경기도 수원시 장안구 영화동 398-1번지 메가플러스 4층 401호","indutype":"레저업소 - 기타레져업소","category":"leisure"}]},{"lat":"37.288597358","long":"127.01255771","imageIndex":13,"items":[{"name":"에이스노래연습장","tel":"031-256-6623","addr":"경기도 수원시 장안구 영화동 328-4번지","indutype":"레저업소 - 노 래 방","category":"leisure"}]},{"lat":"37.290066423","long":"127.00245343","imageIndex":13,"items":[{"name":"연요가원","tel":"031-256-2221","addr":"경기도 수원시 장안구 영화동 397-4번지 2층","indutype":"레저업소 - 헬스클럽","category":"leisure"},{"name":"원타임 짐","tel":"031-245-3779","addr":"경기도 수원시 장안구 영화동 397-4번지 4층","indutype":"레저업소 - 헬스클럽","category":"leisure"},{"name":"크리드PC방","tel":"","addr":"경기도 수원시 장안구 영화동 397-4번지 거영빌딩 5층","indutype":"레저업소 - 기타레져업소","category":"leisure"}]},{"lat":"37.289038826","long":"127.01297502","imageIndex":13,"items":[{"name":"열린노래연습장","tel":"031-251-1117","addr":"경기도 수원시 장안구 영화동 329-1번지","indutype":"레저업소 - 노 래 방","category":"leisure"}]},{"lat":"37.290372479","long":"127.01122721","imageIndex":13,"items":[{"name":"영시 노래연습장","tel":"031-241-2299","addr":"경기도 수원시 장안구 영화동 340-9번지 지층","indutype":"레저업소 - 노 래 방","category":"leisure"}]},{"lat":"37.288876629","long":"127.01311033","imageIndex":13,"items":[{"name":"예스노래연습장","tel":"031-252-4999","addr":"경기도 수원시 장안구 영화동 328-12번지 지하층","indutype":"레저업소 - 노 래 방","category":"leisure"}]},{"lat":"37.286011751","long":"127.00655818","imageIndex":13,"items":[{"name":"오륜당구장","tel":"031-247-0077","addr":"경기도 수원시 장안구 영화동 446-7번지 2층","indutype":"레저업소 - 당 구 장","category":"leisure"}]},{"lat":"37.290182892","long":"127.01544491","imageIndex":13,"items":[{"name":"유진 노래연습장","tel":"031-258-8642","addr":"경기도 수원시 장안구 영화동 166-7번지 지하","indutype":"레저업소 - 노 래 방","category":"leisure"}]},{"lat":"37.291210386","long":"127.01187012","imageIndex":13,"items":[{"name":"인요가","tel":"031-256-1066","addr":"경기도 수원시 장안구 영화동 308-1번지 3증 329호","indutype":"레저업소 - 헬스클럽","category":"leisure"}]},{"lat":"37.290930954","long":"127.01325721","imageIndex":13,"items":[{"name":"장안당구장","tel":"031-257-8051","addr":"경기도 수원시 장안구 영화동 285-1번지 3층","indutype":"레저업소 - 당 구 장","category":"leisure"}]},{"lat":"37.290570189","long":"127.0167306","imageIndex":13,"items":[{"name":"정원노래연습장","tel":"031-256-1551","addr":"경기도 수원시 장안구 영화동 127-42번지","indutype":"레저업소 - 노 래 방","category":"leisure"}]},{"lat":"37.29021012","long":"127.013415","imageIndex":13,"items":[{"name":"제이제이 (JJ)당구클럽","tel":"031-226-3933","addr":"경기도 수원시 장안구 영화동 284-5번지 한도체육사 2층 202호","indutype":"레저업소 - 당 구 장","category":"leisure"}]},{"lat":"37.289453266","long":"127.01333595","imageIndex":13,"items":[{"name":"주짓수 종합격투기","tel":"031-242-2425","addr":"경기도 수원시 장안구 영화동 326-12번지 3층","indutype":"레저업소 - 헬스클럽","category":"leisure"}]},{"lat":"37.289291074","long":"127.01341487","imageIndex":13,"items":[{"name":"준노래연습장","tel":"031-245-4566","addr":"경기도 수원시 장안구 영화동 327-3 외1필지지하1층","indutype":"레저업소 - 노 래 방","category":"leisure"},{"name":"짱PC방","tel":"070-5882-3656","addr":"경기도 수원시 장안구 영화동 327-3번지","indutype":"레저업소 - 기타레져업소","category":"leisure"}]},{"lat":"37.290516342","long":"127.01475705","imageIndex":13,"items":[{"name":"중앙 노래연습장","tel":"031-257-7191","addr":"경기도 수원시 장안구 영화동 164-42번지 지층","indutype":"레저업소 - 노 래 방","category":"leisure"}]},{"lat":"37.289903678","long":"127.01441863","imageIndex":13,"items":[{"name":"짱PC방","tel":"070-4531-2785","addr":"경기도 수원시 장안구 영화동 281-6번지 2층","indutype":"레저업소 - 기타레져업소","category":"leisure"}]},{"lat":"37.291345482","long":"127.0125919","imageIndex":13,"items":[{"name":"짱PC방 북문3호점","tel":"","addr":"경기도 수원시 장안구 영화동 298-5번지 평화빌딩","indutype":"레저업소 - 기타레져업소","category":"leisure"}]},{"lat":"37.290291097","long":"127.01464424","imageIndex":13,"items":[{"name":"축제노래연습장","tel":"031-244-0554","addr":"경기도 수원시 장안구 영화동 279-19번지 2층","indutype":"레저업소 - 노 래 방","category":"leisure"}]},{"lat":"37.29048085","long":"127.00617496","imageIndex":13,"items":[{"name":"퀸 노래연습장","tel":"031-254-0894","addr":"경기도 수원시 장안구 영화동 388-17번지 은광교회","indutype":"레저업소 - 노 래 방","category":"leisure"}]},{"lat":"37.289597385","long":"127.01383217","imageIndex":13,"items":[{"name":"테크노 노래연습장","tel":"031-258-3838","addr":"경기도 수원시 장안구 영화동 282-11번지 2층","indutype":"레저업소 - 노 래 방","category":"leisure"}]},{"lat":"37.289597883","long":"127.00428035","imageIndex":13,"items":[{"name":"팀타이거짐 6호점","tel":"031-247-2333","addr":"경기도 수원시 장안구 영화동 392-4번지 칠공빌딩","indutype":"레저업소 - 헬스클럽","category":"leisure"}]},{"lat":"37.287985006","long":"127.00628762","imageIndex":13,"items":[{"name":"파라다이스 노래연습장","tel":"031-244-2056","addr":"경기도 수원시 장안구 영화동 419-8번지 지하층","indutype":"레저업소 - 노 래 방","category":"leisure"}]},{"lat":"37.286065767","long":"127.00783245","imageIndex":13,"items":[{"name":"팡팡노래연습장","tel":"00-0000-0000","addr":"경기도 수원시 장안구 영화동 443-14번지 지하층","indutype":"레저업소 - 노 래 방","category":"leisure"}]},{"lat":"37.290732428","long":"127.01625697","imageIndex":13,"items":[{"name":"플룻노래연습장","tel":"031-245-4334","addr":"경기도 수원시 장안구 영화동 167-1번지 지하1층","indutype":"레저업소 - 노 래 방","category":"leisure"}]},{"lat":"37.29065159","long":"127.01377593","imageIndex":13,"items":[{"name":"허스키노래연습장","tel":"031-242-9273","addr":"경기도 수원시 장안구 영화동 276-5번지 지하1층","indutype":"레저업소 - 노 래 방","category":"leisure"}]},{"lat":"37.290651615","long":"127.01350528","imageIndex":13,"items":[{"name":"헤븐 노래연습장","tel":"031-248-0777","addr":"경기도 수원시 장안구 영화동 285-5번지","indutype":"레저업소 - 노 래 방","category":"leisure"}]},{"lat":"37.292066282","long":"127.0128401","imageIndex":13,"items":[{"name":"홀인원","tel":"031-244-6662","addr":"경기도 수원시 장안구 영화동 274-1번지","indutype":"레저업소 - 노 래 방","category":"leisure"}]}]