[{"lat":"37.38622854","long":"127.3206975","imageIndex":17,"items":[{"name":"(주)목산","tel":"031-764-3890","addr":"경기도 광주시 초월읍 선동리 348번지","indutype":"가구 - 일반가구","category":"other"}]},{"lat":"37.38669992","long":"127.3162505","imageIndex":17,"items":[{"name":"(주)아지트","tel":"031-798-4170","addr":"경기도 광주시 초월읍 선동리 363-6번지","indutype":"가구 - 일반가구","category":"other"}]},{"lat":"37.3832834","long":"127.3168912","imageIndex":17,"items":[{"name":"(주)제우프랜트","tel":"031-766-6619","addr":"경기도 광주시 초월읍 선동리 352-21번지","indutype":"기타 - 기계공구","category":"other"}]},{"lat":"37.38767425","long":"127.3157803","imageIndex":17,"items":[{"name":"GS25광주산수로탑점","tel":"","addr":"경기도 광주시 초월읍 선동리 358-2번지 1층","indutype":"유통업 영리 - 편 의 점","category":"other"}]},{"lat":"37.37842061","long":"127.3124677","imageIndex":17,"items":[{"name":"K비닐 봉투","tel":"031-797-7933","addr":"경기도 광주시 초월읍 선동리 428-2번지 외1필지","indutype":"유통업 영리 - 기타유통업","category":"other"}]},{"lat":"37.38698175","long":"127.3186907","imageIndex":17,"items":[{"name":"거광상사","tel":"031-763-2801","addr":"경기도 광주시 초월읍 선동리 375번지","indutype":"신변잡화 - 기타잡화","category":"other"}]},{"lat":"37.37478558","long":"127.3173864","imageIndex":17,"items":[{"name":"경원콤프레샤","tel":"031-763-0994","addr":"경기도 광주시 초월읍 선동리 228-23번지","indutype":"기타 - 기계공구","category":"other"}]},{"lat":"37.38892354","long":"127.3236674","imageIndex":17,"items":[{"name":"다익정공","tel":"031-763-6779","addr":"경기도 광주시 초월읍 선동리 38번지","indutype":"기타 - 기계공구","category":"other"}]},{"lat":"37.37486489","long":"127.3247478","imageIndex":17,"items":[{"name":"대교린넨텍스타일","tel":"031-764-9088","addr":"경기도 광주시 초월읍 선동리 203-2번지","indutype":"직물 - 침구·수예점","category":"other"}]},{"lat":"37.37717356","long":"127.3172722","imageIndex":17,"items":[{"name":"대성공구철물","tel":"031-765-5651","addr":"경기도 광주시 초월읍 선동리 248-1번지","indutype":"기타 - 기계공구","category":"other"},{"name":"세븐일레븐경기광주초월본점","tel":"011-****-****","addr":"경기도 광주시 초월읍 선동리 248-1번지 선동빌딩","indutype":"유통업 영리 - 편 의 점","category":"other"}]},{"lat":"37.38823272","long":"127.3192267","imageIndex":17,"items":[{"name":"대한특수여객운송","tel":"031-318-1208","addr":"경기도 광주시 초월읍 선동리 380-2","indutype":"용역 서비스 - 가례서비스업","category":"other"}]},{"lat":"37.38200559","long":"127.3196635","imageIndex":17,"items":[{"name":"동막 천막공사","tel":"031-797-0711","addr":"경기도 광주시 초월읍 선동리 316번지","indutype":"직물 - 카페트,커튼,천막,지물","category":"other"}]},{"lat":"37.37536575","long":"127.3194436","imageIndex":17,"items":[{"name":"동양용접기","tel":"02-2296-4309","addr":"경기도 광주시 초월읍 선동리 263-6, 263-8","indutype":"기타 - 기계공구","category":"other"},{"name":"주식회사 빈스홈(BINS HOME)","tel":"031-798-7407","addr":"경기도 광주시 초월읍 선동리 263-6번지","indutype":"가구 - 일반가구","category":"other"}]},{"lat":"37.37892466","long":"127.3194699","imageIndex":17,"items":[{"name":"렌탈제일","tel":"031-747-4444","addr":"경기도 광주시 초월읍 선동리 302-9번지","indutype":"직물 - 카페트,커튼,천막,지물","category":"other"}]},{"lat":"37.38214283","long":"127.325558","imageIndex":17,"items":[{"name":"리폼가구아울렛","tel":"","addr":"경기도 광주시 초월읍 선동리 119번지","indutype":"가구 - 일반가구","category":"other"},{"name":"세화우드텍","tel":"031-769-2500","addr":"경기도 광주시 초월읍 선동리 119번지","indutype":"가구 - 일반가구","category":"other"}]},{"lat":"37.3865381","long":"127.3161144","imageIndex":17,"items":[{"name":"리혜산업","tel":"031-762-9040","addr":"경기도 광주시 초월읍 선동리 363-2번지","indutype":"가구 - 일반가구","category":"other"}]},{"lat":"37.37767613","long":"127.321384","imageIndex":17,"items":[{"name":"매트85","tel":"031-765-5532","addr":"경기도 광주시 초월읍 선동리 170번지","indutype":"직물 - 카페트,커튼,천막,지물","category":"other"}]},{"lat":"37.38836968","long":"127.3185498","imageIndex":17,"items":[{"name":"명보교구상사","tel":"03-111-1111","addr":"경기도 광주시 초월읍 선동리 386-3번지","indutype":"서적문구 - 기타서적문구","category":"other"}]},{"lat":"37.38714827","long":"127.3237727","imageIndex":17,"items":[{"name":"백귀현","tel":"031-000-0000","addr":"경기도 광주시 초월읍 선동리 71-1번지","indutype":"문화.취미 - 화랑","category":"other"}]},{"lat":"37.37684472","long":"127.3223063","imageIndex":17,"items":[{"name":"비콘얼라이언스주식회사","tel":"02-443-2723","addr":"경기도 광주시 초월읍 선동리 190번지","indutype":"직물 - 옷감·직물","category":"other"}]},{"lat":"37.3750337","long":"127.3155585","imageIndex":17,"items":[{"name":"생기(주)","tel":"031-764-9581","addr":"경기도 광주시 초월읍 선동리 235-4번지","indutype":"용역 서비스 - 기타용역서비스","category":"other"}]},{"lat":"37.37545126","long":"127.314386","imageIndex":17,"items":[{"name":"스파핸드유한회사","tel":"031-767-4597","addr":"경기도 광주시 초월읍 선동리 235-24번지","indutype":"건축자재 - 인테리어전문","category":"other"}]},{"lat":"37.37386828","long":"127.3201147","imageIndex":17,"items":[{"name":"씨엘가구","tel":"031-763-0860","addr":"경기도 광주시 초월읍 선동리 223번지 외 5필지 중 일부","indutype":"가구 - 일반가구","category":"other"}]},{"lat":"37.3786975","long":"127.3168043","imageIndex":17,"items":[{"name":"씨유광주선동로드점","tel":"031-898-6568","addr":"경기도 광주시 초월읍 선동리 296-1번지","indutype":"유통업 영리 - 편 의 점","category":"other"}]},{"lat":"37.37753909","long":"127.3220834","imageIndex":17,"items":[{"name":"씨유광주선동점","tel":"031-798-3192","addr":"경기도 광주시 초월읍 선동리 171-1번지","indutype":"유통업 영리 - 편 의 점","category":"other"}]},{"lat":"37.37856202","long":"127.3203038","imageIndex":17,"items":[{"name":"엄지척","tel":"","addr":"경기도 광주시 초월읍 선동리 304번지","indutype":"의류 - 내의판매","category":"other"}]},{"lat":"37.38933925","long":"127.3198637","imageIndex":17,"items":[{"name":"에덴인테리어","tel":"031-764-4030","addr":"경기도 광주시 초월읍 선동리 394번지 396","indutype":"가구 - 일반가구","category":"other"}]},{"lat":"37.37958977","long":"127.3200824","imageIndex":17,"items":[{"name":"우리가구","tel":"070-3526-7788","addr":"경기도 광주시 초월읍 선동리 306-1번지","indutype":"주방용구 - 주방용구","category":"other"}]},{"lat":"37.37764828","long":"127.3216887","imageIndex":17,"items":[{"name":"유일특장","tel":"031-797-3033","addr":"경기도 광주시 초월읍 선동리 170-4번지","indutype":"기타 - 기계공구","category":"other"},{"name":"주식회사 동일오피스","tel":"031-768-7062","addr":"경기도 광주시 초월읍 선동리 170-4번지","indutype":"사무통신 - 기타 사무용품","category":"other"}]},{"lat":"37.38956299","long":"127.3136427","imageIndex":17,"items":[{"name":"이화골재","tel":"031-761-5023","addr":"경기도 광주시 초월읍 선동리 418-3번지","indutype":"건축자재 - 건축용 요업제품","category":"other"}]},{"lat":"37.38637032","long":"127.3249099","imageIndex":17,"items":[{"name":"잼에스디","tel":"031-263-9680","addr":"경기도 광주시 초월읍 선동리 76번지","indutype":"가구 - 기타가구","category":"other"}]},{"lat":"37.38069736","long":"127.3169482","imageIndex":17,"items":[{"name":"주식회사 스페이스에스","tel":"031-1661-0739","addr":"경기도 광주시 초월읍 선동리 292-1번지","indutype":"전기제품 - 기타전기제품","category":"other"}]},{"lat":"37.39069733","long":"127.3207728","imageIndex":17,"items":[{"name":"주식회사 아카두로","tel":"031-8026-9444","addr":"경기도 광주시 초월읍 선동리 403번지","indutype":"가구 - 일반가구","category":"other"}]},{"lat":"37.3805617","long":"127.3171396","imageIndex":17,"items":[{"name":"주식회사 영공스틸","tel":"031-562-8050","addr":"경기도 광주시 초월읍 선동리 293","indutype":"건축자재 - 기타건축자재","category":"other"}]},{"lat":"37.37669928","long":"127.3227798","imageIndex":17,"items":[{"name":"주식회사 온힘(ONHIM Co.,Ltd)","tel":"070-8823-1351","addr":"경기도 광주시 초월읍 선동리 194번지","indutype":"서적문구 - 완구점","category":"other"}]},{"lat":"37.37667869","long":"127.3203862","imageIndex":17,"items":[{"name":"주식회사 우성레이져","tel":"031-768-7997","addr":"경기도 광주시 초월읍 선동리 267번지","indutype":"건축자재 - 기타건축자재","category":"other"}]},{"lat":"37.38328628","long":"127.3191946","imageIndex":17,"items":[{"name":"주식회사 이현산업","tel":"031-767-6225","addr":"경기도 광주시 초월읍 선동리 337-1번지","indutype":"기타 - 기계공구","category":"other"}]},{"lat":"37.37769963","long":"127.3226938","imageIndex":17,"items":[{"name":"주식회사 태림에너지","tel":"031-797-9983","addr":"경기도 광주시 초월읍 선동리 456-22번지","indutype":"전기제품 - 냉열기기","category":"other"}]},{"lat":"37.38514534","long":"127.3214382","imageIndex":17,"items":[{"name":"주식회사 투티","tel":"070-7804-6975","addr":"경기도 광주시 초월읍 선동리 91번지","indutype":"가구 - 일반가구","category":"other"}]},{"lat":"37.38151128","long":"127.3191985","imageIndex":17,"items":[{"name":"주식회사이엔에스히팅코리아","tel":"031-852-7263","addr":"경기도 광주시 초월읍 선동리 319-14번지","indutype":"건축자재 - 기타건축자재","category":"other"}]},{"lat":"37.38617124","long":"127.3252252","imageIndex":17,"items":[{"name":"탄넨바움목공소","tel":"031-768-8090","addr":"경기도 광주시 초월읍 선동리 76-4번지","indutype":"가구 - 일반가구","category":"other"}]},{"lat":"37.37942739","long":"127.3133637","imageIndex":17,"items":[{"name":"태성기계","tel":"031-761-0774","addr":"경기도 광주시 초월읍 선동리 425-3번지","indutype":"기타 - 기계공구","category":"other"}]},{"lat":"37.38170302","long":"127.3182508","imageIndex":17,"items":[{"name":"태화산업","tel":"031-769-9892","addr":"경기도 광주시 초월읍 선동리 319-1","indutype":"전기제품 - 기타전기제품","category":"other"}]},{"lat":"37.38142305","long":"127.3184981","imageIndex":17,"items":[{"name":"페어컴파니","tel":"031-786-0411","addr":"경기도 광주시 초월읍 선동리 319-3번지 2층","indutype":"레져용품 - 스포츠·레져용품","category":"other"}]},{"lat":"37.38914371","long":"127.3154703","imageIndex":17,"items":[{"name":"한림WOOD","tel":"031-764-9890","addr":"경기도 광주시 초월읍 선동리 413번지","indutype":"건축자재 - 목재·석재·철물","category":"other"}]},{"lat":"37.37464709","long":"127.318639","imageIndex":17,"items":[{"name":"한진인테리어","tel":"031-764-9856","addr":"경기도 광주시 초월읍 선동리 228-3번지","indutype":"건축자재 - 기타건축자재","category":"other"}]},{"lat":"37.38994859","long":"127.3244396","imageIndex":17,"items":[{"name":"헤베하우스","tel":"","addr":"경기도 광주시 초월읍 선동리 53-8번지","indutype":"신변잡화 - 액세서리","category":"other"}]},{"lat":"37.3820334","long":"127.3227235","imageIndex":17,"items":[{"name":"호남목공기계","tel":"031-765-6206","addr":"경기도 광주시 초월읍 선동리 100-1번지","indutype":"기타 - 기계공구","category":"other"}]},{"lat":"37.38450813","long":"127.3171334","imageIndex":17,"items":[{"name":"화인택","tel":"031-761-1665","addr":"경기도 광주시 초월읍 선동리 352-6번지","indutype":"기타 - 기계공구","category":"other"}]}]