[{"lat":"37.174883844","long":"126.93168397","imageIndex":4,"items":[{"name":"담소원","tel":"031-297-5996","addr":"경기도 화성시 봉담읍 유리 83번지","indutype":"일반휴게음식 - 일반한식","category":"restaurant"}]},{"lat":"37.169806021","long":"126.9238747","imageIndex":4,"items":[{"name":"덕산스넥","tel":"070-4325-5202","addr":"경기도 화성시 봉담읍 유리 405 해병대사령부내","indutype":"일반휴게음식 - 스넥","category":"restaurant"}]},{"lat":"37.176632591","long":"126.93289845","imageIndex":4,"items":[{"name":"또래오래","tel":"031-298-2992","addr":"경기도 화성시 봉담읍 유리 100-1번지 봉담기산베스트빌 상가 105호","indutype":"일반휴게음식 - 스넥","category":"restaurant"}]},{"lat":"37.174966752","long":"126.93476918","imageIndex":4,"items":[{"name":"뚱뚱이족발","tel":"031-298-2714","addr":"경기도 화성시 봉담읍 유리 120-1번지 1층 103호","indutype":"일반휴게음식 - 일반한식","category":"restaurant"}]},{"lat":"37.17616528","long":"126.93501583","imageIndex":4,"items":[{"name":"리제경양식","tel":"031-298-7595","addr":"경기도 화성시 봉담읍 유리 140-1번지 2층","indutype":"일반휴게음식 - 일반한식","category":"restaurant"},{"name":"장수남원추어탕","tel":"031-227-8819","addr":"경기도 화성시 봉담읍 유리 140-1번지","indutype":"일반휴게음식 - 일반한식","category":"restaurant"}]},{"lat":"37.17432683","long":"126.93445447","imageIndex":4,"items":[{"name":"모아정","tel":"031-227-5808","addr":"경기도 화성시 봉담읍 유리 122번지","indutype":"일반휴게음식 - 일반한식","category":"restaurant"}]},{"lat":"37.174029212","long":"126.93398181","imageIndex":4,"items":[{"name":"시골 쭈꾸미","tel":"031-292-4565","addr":"경기도 화성시 봉담읍 유리 172번지","indutype":"일반휴게음식 - 일반한식","category":"restaurant"}]},{"lat":"37.174660365","long":"126.93471315","imageIndex":4,"items":[{"name":"유리120-5","tel":"","addr":"경기도 화성시 봉담읍 유리 120-5번지 1층","indutype":"일반휴게음식 - 서양음식","category":"restaurant"}]},{"lat":"37.175696238","long":"126.93414921","imageIndex":4,"items":[{"name":"유리사랑분식","tel":"031-298-8077","addr":"경기도 화성시 봉담읍 유리 119번지 1층 103호","indutype":"일반휴게음식 - 스넥","category":"restaurant"},{"name":"유리사랑분식","tel":"031-298-8077","addr":"경기도 화성시 봉담읍 유리 119번지 1층 103호","indutype":"일반휴게음식 - 스넥","category":"restaurant"}]},{"lat":"37.175859035","long":"126.93520753","imageIndex":4,"items":[{"name":"한양식당","tel":"031-297-7779","addr":"경기도 화성시 봉담읍 유리 138-2번지 A동","indutype":"일반휴게음식 - 일반한식","category":"restaurant"}]},{"lat":"37.17844395","long":"126.93334721","imageIndex":4,"items":[{"name":"화영식당","tel":"031-298-1043","addr":"경기도 화성시 봉담읍 유리 110-6번지 1층","indutype":"일반휴게음식 - 일반한식","category":"restaurant"}]},{"lat":"37.173055598","long":"126.93314947","imageIndex":4,"items":[{"name":"흙과나무","tel":"031-298-8742","addr":"경기도 화성시 봉담읍 유리 177-5번지","indutype":"일반휴게음식 - 서양음식","category":"restaurant"}]}]