[{"lat":"37.49280007","long":"127.48744994","imageIndex":16,"items":[{"name":"E&J","tel":"031-774-1989","addr":"경기도 양평군 양평읍 양근리 528-48.4/4","indutype":"회원제형태 - 학원","category":"study"}]},{"lat":"37.48827522","long":"127.49228269","imageIndex":16,"items":[{"name":"J&J유도 아카데미","tel":"031-774-6518","addr":"경기도 양평군 양평읍 양근리 299-11번지","indutype":"학원 - 예·체능계학원","category":"study"}]},{"lat":"37.492853571","long":"127.48758598","imageIndex":16,"items":[{"name":"sam학원","tel":"031-774-5678","addr":"경기도 양평군 양평읍 양근리 528-83번지 외2필지 1층","indutype":"학원 - 보습학원","category":"study"}]},{"lat":"37.49247345","long":"127.4880019","imageIndex":16,"items":[{"name":"가온누리 용인대 태권도장","tel":"031-772-7728","addr":"경기도 양평군 양평읍 양근리 396-17번지 2층","indutype":"학원 - 예·체능계학원","category":"study"}]},{"lat":"37.492744992","long":"127.48769835","imageIndex":16,"items":[{"name":"강한태권도장","tel":"031-773-5712","addr":"경기도 양평군 양평읍 양근리 528-87번지","indutype":"학원 - 예·체능계학원","category":"study"},{"name":"양평행복한학원","tel":"031-772-2348","addr":"경기도 양평군 양평읍 양근리 528-87번지 2층","indutype":"회원제형태 - 학원","category":"study"}]},{"lat":"37.496139039","long":"127.49053601","imageIndex":16,"items":[{"name":"그린아이 어린이집[아이행복]","tel":"031-771-1844","addr":"경기도 양평군 양평읍 양근리 137-29번지 그린 102동 104호","indutype":"학원 - 유아원","category":"study"}]},{"lat":"37.493193895","long":"127.48808572","imageIndex":16,"items":[{"name":"그림아트스튜디오","tel":"031-775-9559","addr":"경기도 양평군 양평읍 양근리 393-22번지 302호","indutype":"학원 - 예·체능계학원","category":"study"},{"name":"코치클래스","tel":"031-773-8607","addr":"경기도 양평군 양평읍 양근리 393-22번지 1동 303호","indutype":"학원 - 보습학원","category":"study"}]},{"lat":"37.492440335","long":"127.48728931","imageIndex":16,"items":[{"name":"김정아음악학원","tel":"031-774-7971","addr":"경기도 양평군 양평읍 양근리 448-12번지","indutype":"학원 - 예·체능계학원","category":"study"}]},{"lat":"37.494387905","long":"127.49131618","imageIndex":16,"items":[{"name":"김하영 영어학원","tel":"","addr":"경기도 양평군 양평읍 양근리 130-26번지 201호","indutype":"학원 - 외국어학원","category":"study"}]},{"lat":"37.49075098","long":"127.49492214","imageIndex":16,"items":[{"name":"다른수학학원","tel":"031-771-7917","addr":"경기도 양평군 양평읍 양근리 169-11번지 2층","indutype":"학원 - 보습학원","category":"study"}]},{"lat":"37.495969993","long":"127.4921972","imageIndex":16,"items":[{"name":"다비드 잉글리쉬(DAVID ENGLISH)","tel":"031-774-0653","addr":"경기도 양평군 양평읍 양근리 137-60번지 2층 202호","indutype":"학원 - 보습학원","category":"study"}]},{"lat":"37.488695814","long":"127.49297516","imageIndex":16,"items":[{"name":"동산유치원[아이행복]","tel":"031-771-2603","addr":"경기도 양평군 양평읍 양근리 210번지","indutype":"학원 - 유치원","category":"study"}]},{"lat":"37.494945051","long":"127.49167035","imageIndex":16,"items":[{"name":"랭콘잉글리쉬양평어학원","tel":"","addr":"경기도 양평군 양평읍 양근리 139-15번지 201호","indutype":"학원 - 외국어학원","category":"study"},{"name":"민샘","tel":"","addr":"경기도 양평군 양평읍 양근리 139-15번지 3층 301호","indutype":"학원 - 보습학원","category":"study"},{"name":"안녕 우쿨렐레 음악공간","tel":"","addr":"경기도 양평군 양평읍 양근리 139-15번지 시온빌딩 104호","indutype":"학원 - 예·체능계학원","category":"study"},{"name":"안녕,우쿨렐레 음악공간음악교습소","tel":"","addr":"경기도 양평군 양평읍 양근리 139-15번지 시온빌딩 104호","indutype":"학원 - 예·체능계학원","category":"study"}]},{"lat":"37.496161348","long":"127.49167828","imageIndex":16,"items":[{"name":"러브아트어린이집[아이사랑]","tel":"031-775-5570","addr":"경기도 양평군 양평읍 양근리 137-56번지","indutype":"학원 - 유아원","category":"study"}]},{"lat":"37.493468822","long":"127.48695672","imageIndex":16,"items":[{"name":"레인보우 영어교습소","tel":"","addr":"경기도 양평군 양평읍 양근리 528-71번지 3층 301호","indutype":"학원 - 외국어학원","category":"study"},{"name":"쎈수학러닝센터 양평학원","tel":"031-775-9910","addr":"경기도 양평군 양평읍 양근리 528-71번지 3층 301호","indutype":"학원 - 보습학원","category":"study"},{"name":"윤선생영어교실양평교육센터","tel":"031-553-0579","addr":"경기도 양평군 양평읍 양근리 528-71번지 태창빌딩 501호","indutype":"학원 - 학습지 교육","category":"study"},{"name":"윤선생우리집앞영어교실양평영어교습소","tel":"031-774-0582","addr":"경기도 양평군 양평읍 양근리 528-71번지 태창빌딩 401호","indutype":"학원 - 외국어학원","category":"study"},{"name":"제이스 영어학원","tel":"031-771-4422","addr":"경기도 양평군 양평읍 양근리 528-71번지 5층 501호","indutype":"학원 - 외국어학원","category":"study"}]},{"lat":"37.4901338","long":"127.49600358","imageIndex":16,"items":[{"name":"마루수학학원","tel":"031-775-7999","addr":"경기도 양평군 양평읍 양근리 183-11번지 3층","indutype":"학원 - 보습학원","category":"study"}]},{"lat":"37.492362258","long":"127.49311219","imageIndex":16,"items":[{"name":"멘토링학원","tel":"031-774-3401","addr":"경기도 양평군 양평읍 양근리 160-7번지 2층","indutype":"학원 - 보습학원","category":"study"},{"name":"이케이(EK)학원","tel":"031-775-3557","addr":"경기도 양평군 양평읍 양근리 160-7번지 2층 202호","indutype":"학원 - 보습학원","category":"study"}]},{"lat":"37.493438408","long":"127.48778199","imageIndex":16,"items":[{"name":"미술이좋아미술교습소","tel":"031-771-2818","addr":"경기도 양평군 양평읍 양근리 393-17번지 보람빌딩 202호","indutype":"학원 - 예·체능계학원","category":"study"},{"name":"신강논술교습소","tel":"031-773-3701","addr":"경기도 양평군 양평읍 양근리 393-17번지","indutype":"회원제형태 - 학원","category":"study"},{"name":"양평스즈키음악교습소","tel":"031-775-3195","addr":"경기도 양평군 양평읍 양근리 393-17번지","indutype":"학원 - 예·체능계학원","category":"study"},{"name":"제3교실수학전문교습소","tel":"031-7757-2357","addr":"경기도 양평군 양평읍 양근리 393-17번지 2층","indutype":"회원제형태 - 학원","category":"study"}]},{"lat":"37.491244331","long":"127.48892116","imageIndex":16,"items":[{"name":"배우리보습학원","tel":"031-774-0936","addr":"경기도 양평군 양평읍 양근리 445-16번지","indutype":"학원 - 기타 교육기관","category":"study"}]},{"lat":"37.488773651","long":"127.49158491","imageIndex":16,"items":[{"name":"블럭업","tel":"031-7738-5184","addr":"경기도 양평군 양평읍 양근리 292-6번지 2층","indutype":"학원 - 기타 교육기관","category":"study"}]},{"lat":"37.490856509","long":"127.49120272","imageIndex":16,"items":[{"name":"비니댄스","tel":"070-4202-8763","addr":"경기도 양평군 양평읍 양근리 406-1번지 지하1층","indutype":"학원 - 예·체능계학원","category":"study"}]},{"lat":"37.490023189","long":"127.49008919","imageIndex":16,"items":[{"name":"빈센트 독서실","tel":"031-773-0910","addr":"경기도 양평군 양평읍 양근리 413-9번지 4층","indutype":"학원 - 독서실","category":"study"}]},{"lat":"37.496553388","long":"127.49056132","imageIndex":16,"items":[{"name":"손선생영어교습소","tel":"070-7761-5792","addr":"경기도 양평군 양평읍 양근리 91-5 그린맨션상가 206","indutype":"학원 - 보습학원","category":"study"}]},{"lat":"37.487944626","long":"127.49161343","imageIndex":16,"items":[{"name":"수피아독서실","tel":"031-774-7907","addr":"경기도 양평군 양평읍 양근리 269-1번지 3층","indutype":"학원 - 독서실","category":"study"}]},{"lat":"37.493215904","long":"127.4871134","imageIndex":16,"items":[{"name":"수학의달인 하브루타 지혜학원","tel":"031-773-9906","addr":"경기도 양평군 양평읍 양근리 528-27번지 1층","indutype":"학원 - 보습학원","category":"study"}]},{"lat":"37.494188345","long":"127.4938139","imageIndex":16,"items":[{"name":"양일고등학교","tel":"031-772-2281","addr":"경기도 양평군 양평읍 양근리 148번지","indutype":"학원 - 초중고교육기관","category":"study"},{"name":"양일중학교","tel":"031-772-2281","addr":"경기도 양평군 양평읍 양근리 148번지","indutype":"학원 - 초중고교육기관","category":"study"}]},{"lat":"37.48574725","long":"127.49570339","imageIndex":16,"items":[{"name":"양평고등학교","tel":"031-772-2747","addr":"경기도 양평군 양평읍 양근리 237-1번지 양평고등학교","indutype":"학원 - 초중고교육기관","category":"study"},{"name":"양평고등학교_수업료","tel":"031-772-2747","addr":"경기도 양평군 양평읍 양근리 237-1번지 양평고등학교","indutype":"학원 - 초중고교육기관","category":"study"}]},{"lat":"37.497387641","long":"127.48486736","imageIndex":16,"items":[{"name":"양평군청/여성회관","tel":"031-770-3772","addr":"경기도 양평군 양평읍 양근리 542번지 여성회관 2층 사무실","indutype":"학원 - 기타 교육기관","category":"study"}]},{"lat":"37.489136816","long":"127.49309112","imageIndex":16,"items":[{"name":"양평그린섬미술학원","tel":"031-773-2773","addr":"경기도 양평군 양평읍 양근리 201-13번지 3층,5층","indutype":"학원 - 예·체능계학원","category":"study"}]},{"lat":"37.490746848","long":"127.48939284","imageIndex":16,"items":[{"name":"양평연세음악학원","tel":"031-773-5932","addr":"경기도 양평군 양평읍 양근리 420-6","indutype":"회원제형태 - 학원","category":"study"}]},{"lat":"37.490862715","long":"127.48969889","imageIndex":16,"items":[{"name":"양평원룸텔","tel":"031-771-4017","addr":"경기도 양평군 양평읍 양근리 420-13","indutype":"학원 - 독서실","category":"study"}]},{"lat":"37.487054479","long":"127.49766805","imageIndex":16,"items":[{"name":"양평유치원[아이행복]","tel":"031-775-6962","addr":"경기도 양평군 양평읍 양근리 242-11번지","indutype":"학원 - 유치원","category":"study"}]},{"lat":"37.490555456","long":"127.48992304","imageIndex":16,"items":[{"name":"양평제일주산학원","tel":"031-771-4036","addr":"경기도 양평군 양평읍 양근리 420-18번지","indutype":"학원 - 기타 교육기관","category":"study"}]},{"lat":"37.493300602","long":"127.48623195","imageIndex":16,"items":[{"name":"양평초등학교","tel":"031-774-9615","addr":"경기도 양평군 양평읍 양근리 491-9번지","indutype":"학원 - 초중고교육기관","category":"study"}]},{"lat":"37.492411404","long":"127.48775274","imageIndex":16,"items":[{"name":"양평커피교육학원","tel":"031-771-1302","addr":"경기도 양평군 양평읍 양근리 396-19번지 301호","indutype":"학원 - 기능학원","category":"study"}]},{"lat":"37.490910277","long":"127.4890886","imageIndex":16,"items":[{"name":"연세학원","tel":"031-1111-1111","addr":"경기도 양평군 양평읍 양근리 422-17번지 6층","indutype":"학원 - 보습학원","category":"study"}]},{"lat":"37.489023075","long":"127.49009401","imageIndex":16,"items":[{"name":"예스키즈유아체육","tel":"031-886-0880","addr":"경기도 양평군 양평읍 양근리 320-1번지 아트빌 403호","indutype":"학원 - 기타 교육기관","category":"study"}]},{"lat":"37.491722632","long":"127.48873203","imageIndex":16,"items":[{"name":"올리브미술학원","tel":"031-773-7977","addr":"경기도 양평군 양평읍 양근리 446-7번지 하늘타워 5층","indutype":"학원 - 예·체능계학원","category":"study"},{"name":"이화발레학원","tel":"031-774-4777","addr":"경기도 양평군 양평읍 양근리 446-7번지 6층","indutype":"학원 - 예·체능계학원","category":"study"}]},{"lat":"37.494972095","long":"127.48508931","imageIndex":16,"items":[{"name":"용인대가람무술관","tel":"031-772-4799","addr":"경기도 양평군 양평읍 양근리 527-9번지 2층","indutype":"학원 - 예·체능계학원","category":"study"}]},{"lat":"37.487744776","long":"127.49200787","imageIndex":16,"items":[{"name":"용인대석사 효 태권도장","tel":"031-774-7212","addr":"경기도 양평군 양평읍 양근리 262-1번지 2층","indutype":"학원 - 예·체능계학원","category":"study"}]},{"lat":"37.495019979","long":"127.49098105","imageIndex":16,"items":[{"name":"이쌤 수학교실","tel":"","addr":"경기도 양평군 양평읍 양근리 139-10번지 에버그린팰리스 303호","indutype":"학원 - 기타 교육기관","category":"study"}]},{"lat":"37.492637294","long":"127.48759589","imageIndex":16,"items":[{"name":"제임스리딩 양평영어교습소","tel":"031-775-2905","addr":"경기도 양평군 양평읍 양근리 394번지 1층","indutype":"학원 - 외국어학원","category":"study"}]},{"lat":"37.495246714","long":"127.49062067","imageIndex":16,"items":[{"name":"조은음악학원","tel":"031-774-6788","addr":"경기도 양평군 양평읍 양근리 136-14번지","indutype":"학원 - 예·체능계학원","category":"study"}]},{"lat":"37.495023844","long":"127.49222495","imageIndex":16,"items":[{"name":"좋은영어교습소","tel":"031-774-3505","addr":"경기도 양평군 양평읍 양근리 141-2번지","indutype":"회원제형태 - 학원","category":"study"}]},{"lat":"37.491133758","long":"127.49387306","imageIndex":16,"items":[{"name":"혜진수학공부방","tel":"031-773-5922","addr":"경기도 양평군 양평읍 양근리 170-10번지 송이연립 208호","indutype":"회원제형태 - 학원","category":"study"}]},{"lat":"37.494995315","long":"127.49258662","imageIndex":16,"items":[{"name":"홍&슈퍼쌤스터디랩학원","tel":"070-8639-9228","addr":"경기도 양평군 양평읍 양근리 142-15번지","indutype":"학원 - 보습학원","category":"study"}]}]