[{"lat":"37.336563001","long":"126.80932327","imageIndex":16,"items":[{"name":"(주)이엠아이사관학원","tel":"031-486-1411","addr":"경기도 안산시 단원구 선부동 1070-18번지 상록타운 401동 408호","indutype":"회원제형태 - 학원","category":"study"},{"name":"용천합기도","tel":"031-401-3678","addr":"경기도 안산시 단원구 선부동 1070-18번지 상목타운 302호","indutype":"학원 - 예·체능계학원","category":"study"}]},{"lat":"37.332199589","long":"126.81335142","imageIndex":16,"items":[{"name":"MTA태권도장","tel":"031-403-4605","addr":"경기도 안산시 단원구 선부동 1078-2번지 삼희프라자","indutype":"학원 - 예·체능계학원","category":"study"},{"name":"신세종음악학원","tel":"031-405-1600","addr":"경기도 안산시 단원구 선부동 1078-2번지 삼희프라자 3층 301호","indutype":"학원 - 예·체능계학원","category":"study"},{"name":"이안영수학원","tel":"031-482-0582","addr":"경기도 안산시 단원구 선부동 1078-2번지 삼희프라자301호일부","indutype":"학원 - 보습학원","category":"study"},{"name":"인토선부독서실","tel":"070-4789-2381","addr":"경기도 안산시 단원구 선부동 1078-2번지 401,402호","indutype":"학원 - 독서실","category":"study"},{"name":"푸르넷아카데미학원","tel":"031-410-7141","addr":"경기도 안산시 단원구 선부동 1078-2번지 삼희프라자 403호","indutype":"학원 - 보습학원","category":"study"}]},{"lat":"37.341887338","long":"126.81448943","imageIndex":16,"items":[{"name":"가람보습학원","tel":"031-411-4255","addr":"경기도 안산시 단원구 선부동 1143-8번지 2층","indutype":"학원 - 기타 교육기관","category":"study"}]},{"lat":"37.336338948","long":"126.80460705","imageIndex":16,"items":[{"name":"강산해어린이집[아이행복]","tel":"031-401-3337","addr":"경기도 안산시 단원구 선부동 968-2번지","indutype":"학원 - 유아원","category":"study"}]},{"lat":"37.340975015","long":"126.80751765","imageIndex":16,"items":[{"name":"거성컴퓨터선부학원","tel":"031-487-0701","addr":"경기도 안산시 단원구 선부동 1065번지 2층","indutype":"학원 - 컴퓨터학원","category":"study"},{"name":"아이원학원","tel":"031-485-0102","addr":"경기도 안산시 단원구 선부동 1065번지","indutype":"학원 - 보습학원","category":"study"}]},{"lat":"37.3409750148","long":"126.8075176466","imageIndex":16,"items":[{"name":"거성컴퓨터전산회계학원","tel":"031-487-0701","addr":"경기도 안산시 단원구 선부동 1065번지","indutype":"교육서비스업 - 컴퓨터학원","category":"study"}]},{"lat":"37.341915749","long":"126.81535831","imageIndex":16,"items":[{"name":"경문독서실","tel":"070-4124-8005","addr":"경기도 안산시 단원구 선부동 1087-11번지 화성프라자 704호 702 703","indutype":"학원 - 독서실","category":"study"},{"name":"경문독서실","tel":"070-4124-8005","addr":"경기도 안산시 단원구 선부동 1087-11번지 화성프라자 702동 704호","indutype":"학원 - 독서실","category":"study"},{"name":"김신근영어전문학원","tel":"031-8042-2522","addr":"경기도 안산시 단원구 선부동 1087-11번지 화성프라자 8층 2호","indutype":"학원 - 외국어학원","category":"study"},{"name":"미래인성태권도","tel":"031-401-5657","addr":"경기도 안산시 단원구 선부동 1087-11번지 화성프라자 5층 2호","indutype":"학원 - 예·체능계학원","category":"study"},{"name":"뿌리깊은영수학원","tel":"031-401-2019","addr":"경기도 안산시 단원구 선부동 1087-11번지 화성프라자 803호","indutype":"학원 - 보습학원","category":"study"},{"name":"생각하는수학학원","tel":"031-403-7973","addr":"경기도 안산시 단원구 선부동 1087-11번지 화성프라자 602호","indutype":"회원제형태 - 학원","category":"study"},{"name":"생각하는영어학원","tel":"031-414-7973","addr":"경기도 안산시 단원구 선부동 1087-11번지 화성프라자 602호","indutype":"학원 - 보습학원","category":"study"},{"name":"입시코드학원","tel":"031-487-2300","addr":"경기도 안산시 단원구 선부동 1087-11번지 화성프라자 602호","indutype":"학원 - 보습학원","category":"study"},{"name":"잉컴음악미술학원","tel":"031-483-1083","addr":"경기도 안산시 단원구 선부동 1087-11번지 화성프라자 506,507호","indutype":"학원 - 예·체능계학원","category":"study"},{"name":"채움에듀수학학원","tel":"031-365-5536","addr":"경기도 안산시 단원구 선부동 1087-11번지 화성프라자 8층 804호","indutype":"학원 - 보습학원","category":"study"},{"name":"케빈샘코딩전문학원","tel":"","addr":"경기도 안산시 단원구 선부동 1087-11번지 화성프라자 803호","indutype":"학원 - 기타 교육기관","category":"study"},{"name":"퍼펙트영어사관학원","tel":"031-413-0584","addr":"경기도 안산시 단원구 선부동 1087-11번지 화성프라자 605호","indutype":"회원제형태 - 학원","category":"study"},{"name":"하나컴퓨터학원","tel":"031-414-0500","addr":"경기도 안산시 단원구 선부동 1087-11번지 화성프라자 706,707호","indutype":"회원제형태 - 학원","category":"study"},{"name":"홍성은영어전문학원","tel":"031-402-8791","addr":"경기도 안산시 단원구 선부동 1087-11번지 화성프라자 705호","indutype":"학원 - 보습학원","category":"study"}]},{"lat":"37.347503224","long":"126.80501784","imageIndex":16,"items":[{"name":"경일관광경영고등학교","tel":"031-363-1300","addr":"경기도 안산시 단원구 선부동 1053번지 경일관광경영고등학교","indutype":"학원 - 초중고교육기관","category":"study"}]},{"lat":"37.341948281","long":"126.81315765","imageIndex":16,"items":[{"name":"경희대명문태권도","tel":"031-405-4448","addr":"경기도 안산시 단원구 선부동 1144-11번지 3층","indutype":"학원 - 예·체능계학원","category":"study"},{"name":"경희대명문태권도","tel":"070-8615-7676","addr":"경기도 안산시 단원구 선부동 1144-11번지 3층","indutype":"학원 - 예·체능계학원","category":"study"},{"name":"경희에듀학원","tel":"031-405-1357","addr":"경기도 안산시 단원구 선부동 1144-11번지 선부해법수학교실보습학원 101호","indutype":"학원 - 보습학원","category":"study"},{"name":"관인서현음악학원","tel":"031-403-3323","addr":"경기도 안산시 단원구 선부동 1144-11번지 2층","indutype":"학원 - 예·체능계학원","category":"study"}]},{"lat":"37.3419482809","long":"126.8131576464","imageIndex":16,"items":[{"name":"경희에듀학원","tel":"031-405-1357","addr":"경기도 안산시 단원구 선부동 1144-11번지","indutype":"교육서비스업 - 일반교습학원","category":"study"},{"name":"관인 서현음악학원","tel":"031-403-3323","addr":"경기도 안산시 단원구 선부동 1144-11번지","indutype":"교육서비스업 - 예체능계 학원","category":"study"}]},{"lat":"37.346612499","long":"126.81691535","imageIndex":16,"items":[{"name":"고려K타이거즈","tel":"031-482-1600","addr":"경기도 안산시 단원구 선부동 1104-12번지","indutype":"학원 - 예·체능계학원","category":"study"}]},{"lat":"37.340001514","long":"126.81280143","imageIndex":16,"items":[{"name":"공작유치원[아이행복]","tel":"031-411-2023","addr":"경기도 안산시 단원구 선부동 1085","indutype":"학원 - 유치원","category":"study"},{"name":"한양실용음악학원","tel":"031-439-2660","addr":"경기도 안산시 단원구 선부동 1085 한양프라자402호","indutype":"회원제형태 - 학원","category":"study"}]},{"lat":"37.341781989","long":"126.81623887","imageIndex":16,"items":[{"name":"국어의신학원","tel":"031-411-1966","addr":"경기도 안산시 단원구 선부동 1087-31번지 신협빌딩 503,504호","indutype":"학원 - 보습학원","category":"study"},{"name":"벨스어학원","tel":"031-403-6010","addr":"경기도 안산시 단원구 선부동 1087-31번지 신협빌딩 301~302호","indutype":"회원제형태 - 학원","category":"study"},{"name":"시대인재교육학원","tel":"031-482-0912","addr":"경기도 안산시 단원구 선부동 1087-31번지 701호 (701호 702동)","indutype":"학원 - 보습학원","category":"study"},{"name":"아이위너학원","tel":"031-402-0931","addr":"경기도 안산시 단원구 선부동 1087-31번지 신협빌딩 703호/704호","indutype":"학원 - 보습학원","category":"study"},{"name":"엔탑어학원","tel":"031-485-0582","addr":"경기도 안산시 단원구 선부동 1087-31번지 8층","indutype":"회원제형태 - 학원","category":"study"},{"name":"이근재수학전문학원/(주)이근재수학","tel":"031-401-8791","addr":"경기도 안산시 단원구 선부동 1087-31번지 신협빌딩 3층 301-304호","indutype":"학원 - 보습학원","category":"study"},{"name":"지캠프클래스선부학원","tel":"031-402-0911","addr":"경기도 안산시 단원구 선부동 1087-31번지 신협프라자 6층","indutype":"학원 - 기타 교육기관","category":"study"},{"name":"청명검도관","tel":"031-439-7767","addr":"경기도 안산시 단원구 선부동 1087-31번지 신협빌딩 501동 502호","indutype":"학원 - 예·체능계학원","category":"study"}]},{"lat":"37.345749632","long":"126.80705385","imageIndex":16,"items":[{"name":"궁전어린이집","tel":"031-411-1344","addr":"경기도 안산시 단원구 선부동 1056-17번지","indutype":"학원 - 유아원","category":"study"},{"name":"궁전어린이집[아이행복]","tel":"031-411-1344","addr":"경기도 안산시 단원구 선부동 1056-17번지","indutype":"학원 - 유아원","category":"study"}]},{"lat":"37.342919013","long":"126.80619224","imageIndex":16,"items":[{"name":"그림미술학원","tel":"031-402-4993","addr":"경기도 안산시 단원구 선부동 1037번지 3층","indutype":"학원 - 예·체능계학원","category":"study"}]},{"lat":"37.344195453","long":"126.81544293","imageIndex":16,"items":[{"name":"글로벌잉글리쉬어학원","tel":"031-487-9866","addr":"경기도 안산시 단원구 선부동 1096-20번지 2층","indutype":"회원제형태 - 학원","category":"study"}]},{"lat":"37.34511307","long":"126.81454909","imageIndex":16,"items":[{"name":"기백용인대태권도장","tel":"031-403-8228","addr":"경기도 안산시 단원구 선부동 1116-16번지 2층","indutype":"학원 - 예·체능계학원","category":"study"}]},{"lat":"37.3417292072","long":"126.8170515260","imageIndex":16,"items":[{"name":"기백용인대태권도장","tel":"031-403-8228","addr":"경기도 안산시 단원구 선부동 1087-29번지","indutype":"교육서비스업 - 학원","category":"study"}]},{"lat":"37.3355051320","long":"126.8126096485","imageIndex":16,"items":[{"name":"깊은생각영수전문학원","tel":"031-413-0909","addr":"경기도 안산시 단원구 선부동 1076-6번지","indutype":"교육서비스업 - 학원,서적","category":"study"},{"name":"연세컴퓨터학원","tel":"031-413-1399","addr":"경기도 안산시 단원구 선부동 1076-6번지","indutype":"교육서비스업 - 컴퓨터학원","category":"study"}]},{"lat":"37.335505132","long":"126.81260965","imageIndex":16,"items":[{"name":"깊은생각영수전문학원","tel":"031-482-9905","addr":"경기도 안산시 단원구 선부동 1076-6번지 서림프라자 404-2,405호","indutype":"회원제형태 - 학원","category":"study"},{"name":"안산시각과인식미술학원","tel":"031-411-9865","addr":"경기도 안산시 단원구 선부동 1076-6 서림빌딩 403호","indutype":"학원 - 예·체능계학원","category":"study"},{"name":"엘무용학원","tel":"","addr":"경기도 안산시 단원구 선부동 1076-6번지 서림프라자 408호","indutype":"학원 - 예·체능계학원","category":"study"},{"name":"연세컴퓨터학원","tel":"031-413-1399","addr":"경기도 안산시 단원구 선부동 1076-6번지 서림빌딩 503호","indutype":"학원 - 컴퓨터학원","category":"study"},{"name":"이앤오즈랭귀지학원","tel":"031-401-5451","addr":"경기도 안산시 단원구 선부동 1076-6 404-2, 405호","indutype":"학원 - 보습학원","category":"study"},{"name":"티앤비영수전문학원","tel":"031-485-8011","addr":"경기도 안산시 단원구 선부동 1076-6,504호505-1호","indutype":"학원 - 보습학원","category":"study"},{"name":"티앤비영수전문학원","tel":"031-485-8033","addr":"경기도 안산시 단원구 선부동 1076-6번지 서림프라자 5층","indutype":"학원 - 보습학원","category":"study"}]},{"lat":"37.345671032","long":"126.81413013","imageIndex":16,"items":[{"name":"까꿍어린이집[아이행복]","tel":"031-401-3024","addr":"경기도 안산시 단원구 선부동 1118번지 형제빌라","indutype":"학원 - 유아원","category":"study"},{"name":"까꿍어린이집[아이행복]","tel":"031-401-3024","addr":"경기도 안산시 단원구 선부동 1118번지 형제빌라","indutype":"학원 - 유아원","category":"study"}]},{"lat":"37.34161202","long":"126.80587967","imageIndex":16,"items":[{"name":"꼬꼬마어린이집[아이행복]","tel":"031-411-6700","addr":"경기도 안산시 단원구 선부동 1032-8번지 동아빌라 101호","indutype":"학원 - 유아원","category":"study"}]},{"lat":"37.346000893","long":"126.81193989","imageIndex":16,"items":[{"name":"꿈나무숲어린이집[아이행복]","tel":"031-405-4183","addr":"경기도 안산시 단원구 선부동 1122-15번지","indutype":"학원 - 유아원","category":"study"}]},{"lat":"37.34458305","long":"126.81554353","imageIndex":16,"items":[{"name":"나래탑학원","tel":"031-487-1797","addr":"경기도 안산시 단원구 선부동 1096-16번지","indutype":"학원 - 보습학원","category":"study"}]},{"lat":"37.337003173","long":"126.80310449","imageIndex":16,"items":[{"name":"나무향기어린이집[아이행복]","tel":"031-8044-2003","addr":"경기도 안산시 단원구 선부동 970-18번지","indutype":"학원 - 유아원","category":"study"}]},{"lat":"37.333391555","long":"126.80397162","imageIndex":16,"items":[{"name":"노아네러시아학원","tel":"070-7776-4479","addr":"경기도 안산시 단원구 선부동 963-1번지 보영 상가 203호","indutype":"회원제형태 - 학원","category":"study"},{"name":"선부체육관","tel":"031-480-6316","addr":"경기도 안산시 단원구 선부동 963-1 보영상가201~202","indutype":"학원 - 예·체능계학원","category":"study"},{"name":"탑클래스수학교습소","tel":"031-413-0328","addr":"경기도 안산시 단원구 선부동 963-1번지 동국연립 바동 104호","indutype":"회원제형태 - 학원","category":"study"}]},{"lat":"37.345138948","long":"126.81382675","imageIndex":16,"items":[{"name":"높은음자리음악교습소","tel":"031-405-7696","addr":"경기도 안산시 단원구 선부동 1119-12번지","indutype":"학원 - 예·체능계학원","category":"study"}]},{"lat":"37.3446664725","long":"126.8170217172","imageIndex":16,"items":[{"name":"뉴에이블학원","tel":"070-7808-8507","addr":"경기도 안산시 단원구 선부동 1095-2번지","indutype":"교육서비스업 - 보습학원","category":"study"}]},{"lat":"37.342283923","long":"126.80357576","imageIndex":16,"items":[{"name":"뉴월드(new world)","tel":"","addr":"경기도 안산시 단원구 선부동 1028번지 안산제1종합시장 3020호","indutype":"학원 - 예·체능계학원","category":"study"},{"name":"세종체육관","tel":"031-480-7928","addr":"경기도 안산시 단원구 선부동 1028번지 제1종합시장 2층","indutype":"학원 - 예·체능계학원","category":"study"}]},{"lat":"37.343998421","long":"126.80510604","imageIndex":16,"items":[{"name":"단원어린이집","tel":"031-403-4891","addr":"경기도 안산시 단원구 선부동 1022-5번지","indutype":"학원 - 유치원","category":"study"},{"name":"단원어린이집[아이행복]","tel":"031-403-4891","addr":"경기도 안산시 단원구 선부동 1022-5번지","indutype":"학원 - 유아원","category":"study"}]},{"lat":"37.32917191","long":"126.81318978","imageIndex":16,"items":[{"name":"대일컴퓨터학원","tel":"031-410-9895","addr":"경기도 안산시 단원구 선부동 1078-3번지","indutype":"학원 - 컴퓨터학원","category":"study"},{"name":"동산유치원[아이행복]","tel":"031-487-6767","addr":"경기도 안산시 단원구 선부동 1078-3번지","indutype":"학원 - 유치원","category":"study"},{"name":"하늘소리음악학원","tel":"031-411-2004","addr":"경기도 안산시 단원구 선부동 1078-3번지 401호","indutype":"학원 - 예·체능계학원","category":"study"}]},{"lat":"37.345086883","long":"126.81507957","imageIndex":16,"items":[{"name":"대일학원","tel":"031-480-7177","addr":"경기도 안산시 단원구 선부동 1116-13번지 3층","indutype":"학원 - 보습학원","category":"study"},{"name":"잉글리쉬무무학원","tel":"031-311-9905","addr":"경기도 안산시 단원구 선부동 1116-13번지","indutype":"학원 - 외국어학원","category":"study"}]},{"lat":"37.335868373","long":"126.81438034","imageIndex":16,"items":[{"name":"더그레듀학원","tel":"031-439-5315","addr":"경기도 안산시 단원구 선부동 1080-1번지 국제빌딩 301호","indutype":"학원 - 보습학원","category":"study"},{"name":"세계체육관","tel":"031-410-5951","addr":"경기도 안산시 단원구 선부동 1080-1번지 국제빌딩 401호","indutype":"학원 - 예·체능계학원","category":"study"},{"name":"예인음악학원","tel":"031-487-3245","addr":"경기도 안산시 단원구 선부동 1080-1번지 주공15단지국제빌딩 402호","indutype":"학원 - 예·체능계학원","category":"study"},{"name":"필아트","tel":"031-414-2429","addr":"경기도 안산시 단원구 선부동 1080-1번지 국제빌딩 2층 201호","indutype":"학원 - 예·체능계학원","category":"study"}]},{"lat":"37.344109548","long":"126.8069114","imageIndex":16,"items":[{"name":"도란도란어린이집[아이행복]","tel":"031-485-5969","addr":"경기도 안산시 단원구 선부동 1041번지","indutype":"학원 - 유아원","category":"study"}]},{"lat":"37.345782163","long":"126.8104056","imageIndex":16,"items":[{"name":"도리도리어린이집[아이행복]","tel":"031-411-7555","addr":"경기도 안산시 단원구 선부동 1132-6번지","indutype":"학원 - 유아원","category":"study"},{"name":"주식회사위드파파","tel":"","addr":"경기도 안산시 단원구 선부동 1132-6번지 302호","indutype":"학원 - 기타 교육기관","category":"study"}]},{"lat":"37.34127712","long":"126.80496647","imageIndex":16,"items":[{"name":"동산음악학원","tel":"031-411-8564","addr":"경기도 안산시 단원구 선부동 1032-18번지 2층","indutype":"학원 - 예·체능계학원","category":"study"},{"name":"우리한국어교습소","tel":"","addr":"경기도 안산시 단원구 선부동 1032-18번지 2층","indutype":"학원 - 보습학원","category":"study"}]},{"lat":"37.332557235","long":"126.81163541","imageIndex":16,"items":[{"name":"디딤발피부미용학원","tel":"031-403-2340","addr":"경기도 안산시 단원구 선부동 1077-6번지 대준빌딩 501호","indutype":"회원제형태 - 학원","category":"study"},{"name":"루디아피부미용학원","tel":"031-403-2340","addr":"경기도 안산시 단원구 선부동 1077-6번지 대준빌딩 501호","indutype":"회원제형태 - 학원","category":"study"},{"name":"오송림미용전문학원","tel":"070-4243-1358","addr":"경기도 안산시 단원구 선부동 1077-6번지 대준빌딩 3층 8호","indutype":"회원제형태 - 학원","category":"study"}]},{"lat":"37.34427925","long":"126.8171581","imageIndex":16,"items":[{"name":"딸기영어인형극","tel":"","addr":"경기도 안산시 단원구 선부동 1094-9번지 202호 다세대주택","indutype":"학원 - 기타 교육기관","category":"study"}]},{"lat":"37.341862599","long":"126.81593398","imageIndex":16,"items":[{"name":"리틀아메리카예샘학원","tel":"031-405-7228","addr":"경기도 안산시 단원구 선부동 1087-23번지 유송프라자 5층","indutype":"회원제형태 - 학원","category":"study"}]},{"lat":"37.329927929","long":"126.81266885","imageIndex":16,"items":[{"name":"리틀이솔어린이집[아이행복]","tel":"031-483-4142","addr":"경기도 안산시 단원구 선부동 1078번지 주공11단지아파트 1113동 105호","indutype":"학원 - 유아원","category":"study"}]},{"lat":"37.345252915","long":"126.80635544","imageIndex":16,"items":[{"name":"멜로디음악학원","tel":"031-413-7797","addr":"경기도 안산시 단원구 선부동 1043-24번지 2층","indutype":"학원 - 예·체능계학원","category":"study"},{"name":"한일태권도","tel":"031-414-7939","addr":"경기도 안산시 단원구 선부동 1043-24번지","indutype":"학원 - 예·체능계학원","category":"study"}]},{"lat":"37.338889417","long":"126.79446679","imageIndex":16,"items":[{"name":"모퉁이협동조합","tel":"031-494-0542","addr":"경기도 안산시 단원구 선부동 979-11번지 1층","indutype":"학원 - 기타 교육기관","category":"study"}]},{"lat":"37.332895603","long":"126.81474885","imageIndex":16,"items":[{"name":"문화세상고리협동조합","tel":"031-411-1150","addr":"경기도 안산시 단원구 선부동 1079번지 주공13, 14단지아파트 상가동 201호","indutype":"회원제형태 - 학원","category":"study"},{"name":"시립화랑어린이집[아이행복]","tel":"031-411-8789","addr":"경기도 안산시 단원구 선부동 1079번지 주공13, 14단지아파트","indutype":"학원 - 유아원","category":"study"}]},{"lat":"37.3392854346","long":"126.8157710976","imageIndex":16,"items":[{"name":"뮤엠영어","tel":"","addr":"경기도 안산시 단원구 선부동 1086번지","indutype":"교육서비스업 - 영어학원","category":"study"}]},{"lat":"37.339285435","long":"126.8157711","imageIndex":16,"items":[{"name":"뮤엠영어올리브학원","tel":"031-414-0425","addr":"경기도 안산시 단원구 선부동 1086번지 한양프라자 204호","indutype":"학원 - 외국어학원","category":"study"},{"name":"사랑유치원[아이행복]","tel":"031-395-2255","addr":"경기도 안산시 단원구 선부동 1086","indutype":"학원 - 유치원","category":"study"}]},{"lat":"37.344754296","long":"126.81557696","imageIndex":16,"items":[{"name":"바른글학원","tel":"031-475-7844","addr":"경기도 안산시 단원구 선부동 1096-1번지 2층","indutype":"회원제형태 - 학원","category":"study"},{"name":"아이베스트태권도","tel":"031-410-1149","addr":"경기도 안산시 단원구 선부동 1096-1번지 2층","indutype":"학원 - 예·체능계학원","category":"study"}]},{"lat":"37.3440551690","long":"126.8067196924","imageIndex":16,"items":[{"name":"백합음악전문학원","tel":"031-405-7285","addr":"경기도 안산시 단원구 선부동 1041-15번지","indutype":"교육서비스업 - 예체능계 학원","category":"study"}]},{"lat":"37.344055169","long":"126.80671969","imageIndex":16,"items":[{"name":"백합피아노음악학원","tel":"031-405-7285","addr":"경기도 안산시 단원구 선부동 1041-15번지 102,103,104호","indutype":"학원 - 예·체능계학원","category":"study"}]},{"lat":"37.344999101","long":"126.81654691","imageIndex":16,"items":[{"name":"버클리피아노음악학원","tel":"031-402-8977","addr":"경기도 안산시 단원구 선부동 1097-12번지 2층","indutype":"학원 - 예·체능계학원","category":"study"}]},{"lat":"37.337146158","long":"126.80779839","imageIndex":16,"items":[{"name":"베스트태권도","tel":"031-482-7779","addr":"경기도 안산시 단원구 선부동 1069-1 2층 201.202.203.204호","indutype":"학원 - 예·체능계학원","category":"study"}]},{"lat":"37.3419157489","long":"126.8153583107","imageIndex":16,"items":[{"name":"벨스영수학원","tel":"031-403-6010","addr":"경기도 안산시 단원구 선부동 1087-11번지","indutype":"교육서비스업 - 보습학원","category":"study"},{"name":"입시코드학원","tel":"031-487-2300","addr":"경기도 안산시 단원구 선부동 1087-11번지","indutype":"교육서비스업 - 학원","category":"study"}]},{"lat":"37.345224401","long":"126.80546396","imageIndex":16,"items":[{"name":"부활과외","tel":"","addr":"경기도 안산시 단원구 선부동 1043-13번지 부안빌라 402호","indutype":"학원 - 기타 교육기관","category":"study"}]},{"lat":"37.335194459","long":"126.81554428","imageIndex":16,"items":[{"name":"브니엘피아노교습소","tel":"031-405-4404","addr":"경기도 안산시 단원구 선부동 1080번지 주공15단지아파트 205호","indutype":"학원 - 예·체능계학원","category":"study"},{"name":"은하수어린이집","tel":"031-411-1422","addr":"경기도 안산시 단원구 선부동 1080번지 주공15단지 관리소내","indutype":"학원 - 기타 교육기관","category":"study"}]},{"lat":"37.343335368","long":"126.80733097","imageIndex":16,"items":[{"name":"블랙밸트센터태권도장","tel":"070-5111-1009","addr":"경기도 안산시 단원구 선부동 1041-7번지 4층","indutype":"학원 - 예·체능계학원","category":"study"}]},{"lat":"37.345560597","long":"126.81268585","imageIndex":16,"items":[{"name":"사랑샘어린이집[아이행복]","tel":"031-486-1045","addr":"경기도 안산시 단원구 선부동 1119번지 진영아트빌","indutype":"학원 - 유아원","category":"study"}]},{"lat":"37.348810067","long":"126.80524013","imageIndex":16,"items":[{"name":"삼성영어선부메트로교습소","tel":"031-111-1111","addr":"경기도 안산시 단원구 선부동 1177번지 안산메트로타운푸르지오힐스테이트 105호","indutype":"학원 - 외국어학원","category":"study"},{"name":"시립라온달미어린이집[아이행복]","tel":"031-401-5056","addr":"경기도 안산시 단원구 선부동 1177번지 안산메트로타운푸르지오힐스테이트","indutype":"학원 - 유아원","category":"study"},{"name":"이해법수학메트로점교습소(E해법수학메트로","tel":"031-487-2800","addr":"경기도 안산시 단원구 선부동 1177번지 안산메트로타운푸르지오힐스테이트 단지내상가3동 502동 106호","indutype":"학원 - 보습학원","category":"study"}]},{"lat":"37.335726259","long":"126.80460866","imageIndex":16,"items":[{"name":"새보람음악학원","tel":"031-413-3344","addr":"경기도 안산시 단원구 선부동 968-7번지","indutype":"학원 - 예·체능계학원","category":"study"}]},{"lat":"37.34308908","long":"126.81663062","imageIndex":16,"items":[{"name":"새예능어린이집[아이행복]","tel":"031-487-2112","addr":"경기도 안산시 단원구 선부동 1089번지","indutype":"학원 - 유아원","category":"study"}]},{"lat":"37.3362010973","long":"126.8084101772","imageIndex":16,"items":[{"name":"색소폰전문학원","tel":"031-439-7771","addr":"경기도 안산시 단원구 선부동 1070-15번지","indutype":"교육서비스업 - 실용음악학원","category":"study"}]},{"lat":"37.346891599","long":"126.81113634","imageIndex":16,"items":[{"name":"생각을키우는 유치원[아이행복]","tel":"031-414-4414","addr":"경기도 안산시 단원구 선부동 1123-6","indutype":"학원 - 유치원","category":"study"}]},{"lat":"37.341889201","long":"126.81566307","imageIndex":16,"items":[{"name":"생각하는교육학습관독서실","tel":"031-403-7973","addr":"경기도 안산시 단원구 선부동 1087-1번지 대흥빌딩 202, 203호","indutype":"학원 - 독서실","category":"study"}]},{"lat":"37.343776491","long":"126.80710412","imageIndex":16,"items":[{"name":"석수비상플러스수학교습소","tel":"","addr":"경기도 안산시 단원구 선부동 1041-3번지 1층","indutype":"학원 - 보습학원","category":"study"}]},{"lat":"37.345359006","long":"126.80513632","imageIndex":16,"items":[{"name":"석수오르다어린이집[아이행복]","tel":"031-410-0651","addr":"경기도 안산시 단원구 선부동 1047-13번지","indutype":"학원 - 유아원","category":"study"}]},{"lat":"37.342779785","long":"126.80918318","imageIndex":16,"items":[{"name":"석수중학교","tel":"070-4322-0990","addr":"경기도 안산시 단원구 선부동 646-1번지 석수중학교","indutype":"학원 - 초중고교육기관","category":"study"}]},{"lat":"37.340915778","long":"126.79394208","imageIndex":16,"items":[{"name":"선부고등학교","tel":"031-495-2446","addr":"경기도 안산시 단원구 선부동 35번지 선부고등학교","indutype":"학원 - 초중고교육기관","category":"study"},{"name":"선부고등학교_수업료","tel":"031-495-2446","addr":"경기도 안산시 단원구 선부동 35번지 선부고등학교","indutype":"학원 - 초중고교육기관","category":"study"}]},{"lat":"37.345061086","long":"126.81585834","imageIndex":16,"items":[{"name":"선부동자연어린이집[아이행복]","tel":"031-411-0210","addr":"경기도 안산시 단원구 선부동 1097-17번지","indutype":"학원 - 유아원","category":"study"}]},{"lat":"37.341755617","long":"126.81665649","imageIndex":16,"items":[{"name":"선부우리학원","tel":"031-509-5958","addr":"경기도 안산시 단원구 선부동 1087-30번지 서울빌딩 801-2호","indutype":"학원 - 보습학원","category":"study"},{"name":"안산선부점시작독서실","tel":"031-439-4977","addr":"경기도 안산시 단원구 선부동 1087-30번지 서울빌딩 6층","indutype":"학원 - 독서실","category":"study"},{"name":"우리아이미술학원","tel":"031-486-2322","addr":"경기도 안산시 단원구 선부동 1087-30번지 서울빌딩 7층","indutype":"학원 - 예·체능계학원","category":"study"},{"name":"우리아이피아노교습소","tel":"031-486-2322","addr":"경기도 안산시 단원구 선부동 1087-30번지 서울빌딩 7층 701호","indutype":"학원 - 예·체능계학원","category":"study"},{"name":"프랜쳐학원","tel":"031-403-2335","addr":"경기도 안산시 단원구 선부동 1087-30번지 서울빌딩 701호","indutype":"학원 - 보습학원","category":"study"}]},{"lat":"37.344283959","long":"126.81443831","imageIndex":16,"items":[{"name":"선부중학교","tel":"031-487-7613","addr":"경기도 안산시 단원구 선부동 1138번지 선부중학교 1층","indutype":"학원 - 초중고교육기관","category":"study"}]},{"lat":"37.337894735","long":"126.81379977","imageIndex":16,"items":[{"name":"선부초등학교","tel":"031-487-3646","addr":"경기도 안산시 단원구 선부동 1086-1번지 선부초등학교","indutype":"학원 - 초중고교육기관","category":"study"}]},{"lat":"37.335337611","long":"126.8038875","imageIndex":16,"items":[{"name":"선일중학교","tel":"070-5069-5004","addr":"경기도 안산시 단원구 선부동 799-5번지 선일중학교","indutype":"학원 - 초중고교육기관","category":"study"}]},{"lat":"37.339862976","long":"126.79991462","imageIndex":16,"items":[{"name":"선일초등학교","tel":"031-487-4122","addr":"경기도 안산시 단원구 선부동 1002번지","indutype":"학원 - 초중고교육기관","category":"study"}]},{"lat":"37.335666679","long":"126.8122143","imageIndex":16,"items":[{"name":"성지학원","tel":"031-486-0611","addr":"경기도 안산시 단원구 선부동 1076-5번지 훼미리프라자 506,507,508호","indutype":"학원 - 보습학원","category":"study"}]},{"lat":"37.345395511","long":"126.81652336","imageIndex":16,"items":[{"name":"세린수학교습소","tel":"031-485-6419","addr":"경기도 안산시 단원구 선부동 1099-7 1층102호","indutype":"회원제형태 - 학원","category":"study"}]},{"lat":"37.342891608","long":"126.80596661","imageIndex":16,"items":[{"name":"셀파수학브레인학원","tel":"031-485-5532","addr":"경기도 안산시 단원구 선부동 1037-19번지 2층","indutype":"회원제형태 - 학원","category":"study"}]},{"lat":"37.340000078","long":"126.80105401","imageIndex":16,"items":[{"name":"소망음악교습소","tel":"031-484-5773","addr":"경기도 안산시 단원구 선부동 1003-7번지 104호","indutype":"학원 - 예·체능계학원","category":"study"}]},{"lat":"37.344693059","long":"126.81673952","imageIndex":16,"items":[{"name":"솔파피아노교습소","tel":"031-405-7987","addr":"경기도 안산시 단원구 선부동 1095번지","indutype":"학원 - 예·체능계학원","category":"study"}]},{"lat":"37.344692722","long":"126.81652509","imageIndex":16,"items":[{"name":"스마트에듀학원","tel":"031-439-0979","addr":"경기도 안산시 단원구 선부동 1096-8번지","indutype":"회원제형태 - 학원","category":"study"}]},{"lat":"37.338614725","long":"126.80235544","imageIndex":16,"items":[{"name":"시립선부어린이집[아이행복]","tel":"031-483-1004","addr":"경기도 안산시 단원구 선부동 997번지","indutype":"학원 - 유아원","category":"study"}]},{"lat":"37.344060661","long":"126.80460932","imageIndex":16,"items":[{"name":"신나는예꼬어린이집[아이행복]","tel":"031-483-5654","addr":"경기도 안산시 단원구 선부동 1021-7번지","indutype":"학원 - 유아원","category":"study"}]},{"lat":"37.335922746","long":"126.80899767","imageIndex":16,"items":[{"name":"신안유도체육관","tel":"031-402-3667","addr":"경기도 안산시 단원구 선부동 1070-2번지 다이아몬드빌딩 301호","indutype":"학원 - 예·체능계학원","category":"study"}]},{"lat":"37.341030099","long":"126.80813817","imageIndex":16,"items":[{"name":"아기꿈어린이집[아이행복]","tel":"031-407-9240","addr":"경기도 안산시 단원구 선부동 1059-4번지 거암하이츠빌 101호","indutype":"학원 - 유아원","category":"study"}]},{"lat":"37.333171362","long":"126.81252526","imageIndex":16,"items":[{"name":"아시아자동차정비학원","tel":"031-1644-1508","addr":"경기도 안산시 단원구 선부동 1077-3번지 다이아몬드빌딩 401,402호","indutype":"회원제형태 - 학원","category":"study"}]},{"lat":"37.342616637","long":"126.81416034","imageIndex":16,"items":[{"name":"아이소리어린이집[아이행복]","tel":"031-403-7846","addr":"경기도 안산시 단원구 선부동 1141-16번지 1층","indutype":"학원 - 유아원","category":"study"}]},{"lat":"37.336201097","long":"126.80841018","imageIndex":16,"items":[{"name":"안산색소폰전문학원","tel":"031-493-7771","addr":"경기도 안산시 단원구 선부동 1070-15번지 단원프라자 506호","indutype":"학원 - 예·체능계학원","category":"study"}]},{"lat":"37.344504607","long":"126.80607525","imageIndex":16,"items":[{"name":"안산석수초등학교","tel":"031-487-4492","addr":"경기도 안산시 단원구 선부동 1042번지 석수초등학교","indutype":"학원 - 초중고교육기관","category":"study"}]},{"lat":"37.336056341","long":"126.80804946","imageIndex":16,"items":[{"name":"안산선부 풀잎문화센터","tel":"031-414-5579","addr":"경기도 안산시 단원구 선부동 1070-14번지 문정프라자 405호","indutype":"회원제형태 - 학원","category":"study"}]},{"lat":"37.341225654","long":"126.80652392","imageIndex":16,"items":[{"name":"안산선부석수점해법수학교습소","tel":"031-414-6877","addr":"경기도 안산시 단원구 선부동 1067-1번지","indutype":"회원제형태 - 학원","category":"study"},{"name":"안산선부석수점해법수학교습소","tel":"031-414-6877","addr":"경기도 안산시 단원구 선부동 1067-1번지 상가 1층 101호","indutype":"회원제형태 - 학원","category":"study"}]},{"lat":"37.33517183","long":"126.81265563","imageIndex":16,"items":[{"name":"안산중앙간호학원","tel":"031-487-8200","addr":"경기도 안산시 단원구 선부동 1076-7번지 새한프라자 402호","indutype":"회원제형태 - 학원","category":"study"},{"name":"엠베스트에스이최강학원","tel":"031-410-0124","addr":"경기도 안산시 단원구 선부동 1076-7번지 새한프라자 403호 404호","indutype":"학원 - 보습학원","category":"study"},{"name":"이보영의토킹클럽","tel":"031-402-1007","addr":"경기도 안산시 단원구 선부동 1076-7번지 새한프라자 403동 404호","indutype":"회원제형태 - 학원","category":"study"},{"name":"참빛독서실","tel":"031-411-9313","addr":"경기도 안산시 단원구 선부동 1076-7번지 5층","indutype":"학원 - 독서실","category":"study"},{"name":"토즈스터디센터선부독서실","tel":"031-411-9313","addr":"경기도 안산시 단원구 선부동 1076-7번지 새한프라자 504호 일부","indutype":"학원 - 독서실","category":"study"},{"name":"해동검도선부본관","tel":"031-482-2084","addr":"경기도 안산시 단원구 선부동 1076-7번지 세한프라자 406호","indutype":"학원 - 예·체능계학원","category":"study"}]},{"lat":"37.344447773","long":"126.81546487","imageIndex":16,"items":[{"name":"안산화랑복싱체육관","tel":"031-480-3557","addr":"경기도 안산시 단원구 선부동 1096-18번지 지하층","indutype":"학원 - 예·체능계학원","category":"study"}]},{"lat":"37.345477915","long":"126.81735828","imageIndex":16,"items":[{"name":"안산화정초등학교","tel":"031-487-6211","addr":"경기도 안산시 단원구 선부동 1100번지 화정초등학교","indutype":"학원 - 초중고교육기관","category":"study"},{"name":"안산화정초등학교[아이행복]","tel":"031-487-6217","addr":"경기도 안산시 단원구 선부동 1100번지 화정초등학교","indutype":"학원 - 유치원","category":"study"}]},{"lat":"37.342333262","long":"126.80613735","imageIndex":16,"items":[{"name":"애플유치원","tel":"031-413-0836","addr":"경기도 안산시 단원구 선부동 1037-14번지","indutype":"학원 - 유치원","category":"study"},{"name":"애플유치원[아이행복]","tel":"031-413-0836","addr":"경기도 안산시 단원구 선부동 1037-14번지","indutype":"학원 - 유치원","category":"study"}]},{"lat":"37.341340663","long":"126.80524842","imageIndex":16,"items":[{"name":"에이프릴음악교습소","tel":"031-410-4633","addr":"경기도 안산시 단원구 선부동 1032-16번지 유원개인사무소 101호","indutype":"학원 - 예·체능계학원","category":"study"}]},{"lat":"37.345866451","long":"126.81238037","imageIndex":16,"items":[{"name":"열매어린이집[아이행복]","tel":"031-410-8182","addr":"경기도 안산시 단원구 선부동 1122-7번지 청송아트빌5차","indutype":"학원 - 유아원","category":"study"}]},{"lat":"37.344006241","long":"126.8154434","imageIndex":16,"items":[{"name":"열정태권도","tel":"031-405-0573","addr":"경기도 안산시 단원구 선부동 1091번지 201호","indutype":"학원 - 예·체능계학원","category":"study"}]},{"lat":"37.3358683732","long":"126.8143803411","imageIndex":16,"items":[{"name":"예인음악학원","tel":"031-487-3245","addr":"경기도 안산시 단원구 선부동 1080-1번지","indutype":"교육서비스업 - 음악학원","category":"study"},{"name":"필아트","tel":"031-414-2429","addr":"경기도 안산시 단원구 선부동 1080-1번지","indutype":"교육서비스업 - 미술학원","category":"study"}]},{"lat":"37.34244654","long":"126.81484916","imageIndex":16,"items":[{"name":"오선생입시학원","tel":"031-414-8604","addr":"경기도 안산시 단원구 선부동 1143-1번지 재정빌딩 3층","indutype":"회원제형태 - 학원","category":"study"}]},{"lat":"37.3417556165","long":"126.8166564854","imageIndex":16,"items":[{"name":"우리아이미술학원","tel":"031-486-2322","addr":"경기도 안산시 단원구 선부동 1087-30번지","indutype":"교육서비스업 - 미술학원","category":"study"}]},{"lat":"37.339057234","long":"126.80835768","imageIndex":16,"items":[{"name":"원일중학교","tel":"031-487-7282","addr":"경기도 안산시 단원구 선부동 1062번지 원일중학교","indutype":"학원 - 초중고교육기관","category":"study"}]},{"lat":"37.332507993","long":"126.80363544","imageIndex":16,"items":[{"name":"원일초등학교","tel":"031-487-3034","addr":"경기도 안산시 단원구 선부동 962번지","indutype":"학원 - 초중고교육기관","category":"study"}]},{"lat":"37.341999098","long":"126.80566425","imageIndex":16,"items":[{"name":"은송어린이집[아이행복]","tel":"031-403-5197","addr":"경기도 안산시 단원구 선부동 1031-12번지","indutype":"학원 - 유아원","category":"study"}]},{"lat":"37.332758167","long":"126.80777588","imageIndex":16,"items":[{"name":"은지아 아동발달센터","tel":"031-410-8150","addr":"경기도 안산시 단원구 선부동 1071-9번지 508,509호","indutype":"학원 - 기타 교육기관","category":"study"}]},{"lat":"37.3321995888","long":"126.8133514183","imageIndex":16,"items":[{"name":"이안영수학원","tel":"031-482-0582","addr":"경기도 안산시 단원구 선부동 1078-2번지","indutype":"교육서비스업 - 보습학원","category":"study"},{"name":"푸르넷아카데미학원","tel":"","addr":"경기도 안산시 단원구 선부동 1078-2번지","indutype":"교육서비스업 - 보습학원","category":"study"}]},{"lat":"37.34150275","long":"126.80519157","imageIndex":16,"items":[{"name":"이엠보습학원","tel":"031-405-4600","addr":"경기도 안산시 단원구 선부동 1032-3번지 3층","indutype":"학원 - 예·체능계학원","category":"study"}]},{"lat":"37.342477686","long":"126.80629496","imageIndex":16,"items":[{"name":"이화어린이집[아이행복]","tel":"031-411-0468","addr":"경기도 안산시 단원구 선부동 1037-4번지","indutype":"학원 - 유아원","category":"study"}]},{"lat":"37.341638936","long":"126.8112964","imageIndex":16,"items":[{"name":"정지초등학교","tel":"031-487-6025","addr":"경기도 안산시 단원구 선부동 1084번지 정지초등학교","indutype":"학원 - 초중고교육기관","category":"study"}]},{"lat":"37.342116252","long":"126.8168023","imageIndex":16,"items":[{"name":"좋은교육","tel":"031-997-9987","addr":"경기도 안산시 단원구 선부동 1087-16번지 보광그랑베르 210호","indutype":"학원 - 보습학원","category":"study"}]},{"lat":"37.341895917","long":"126.81421857","imageIndex":16,"items":[{"name":"지니잉글리쉬학원","tel":"031-414-5088","addr":"경기도 안산시 단원구 선부동 1143-10번지","indutype":"학원 - 보습학원","category":"study"}]},{"lat":"37.34144965","long":"126.80576725","imageIndex":16,"items":[{"name":"참뜻어린이집[아이행복]","tel":"031-401-3732","addr":"경기도 안산시 단원구 선부동 1032-12번지","indutype":"학원 - 유아원","category":"study"}]},{"lat":"37.33594527","long":"126.80626685","imageIndex":16,"items":[{"name":"키즈스마일유치원[아이행복]","tel":"031-403-0079","addr":"경기도 안산시 단원구 선부동 967-1","indutype":"학원 - 유치원","category":"study"},{"name":"키즈스마일학원","tel":"031-507-2737","addr":"경기도 안산시 단원구 선부동 967-1번지 동남유치원빌딩 3층","indutype":"회원제형태 - 학원","category":"study"}]},{"lat":"37.342225178","long":"126.8061602","imageIndex":16,"items":[{"name":"킨더어린이집[아이행복]","tel":"031-413-0837","addr":"경기도 안산시 단원구 선부동 1037-13번지","indutype":"학원 - 유아원","category":"study"}]},{"lat":"37.34433423","long":"126.8177448","imageIndex":16,"items":[{"name":"푸른숲어린이집","tel":"031-413-8199","addr":"경기도 안산시 단원구 선부동 1095-18번지","indutype":"학원 - 유아원","category":"study"},{"name":"푸른숲어린이집[아이행복]","tel":"031-413-8199","addr":"경기도 안산시 단원구 선부동 1095-18번지","indutype":"학원 - 유아원","category":"study"}]},{"lat":"37.3291719097","long":"126.8131897768","imageIndex":16,"items":[{"name":"하늘소리음악학원","tel":"031-411-2004","addr":"경기도 안산시 단원구 선부동 1078-3번지","indutype":"교육서비스업 - 음악학원","category":"study"}]},{"lat":"37.341895683","long":"126.81407187","imageIndex":16,"items":[{"name":"하이탑해법학원","tel":"031-414-3237","addr":"경기도 안산시 단원구 선부동 1143-11번지 2층","indutype":"학원 - 보습학원","category":"study"}]},{"lat":"37.342582623","long":"126.8043875","imageIndex":16,"items":[{"name":"한소리음악학원","tel":"031-485-9008","addr":"경기도 안산시 단원구 선부동 1027-11번지 3층","indutype":"학원 - 예·체능계학원","category":"study"}]},{"lat":"37.3427280891","long":"126.8051657925","imageIndex":16,"items":[{"name":"한소리음악학원","tel":"031-485-9008","addr":"경기도 안산시 단원구 선부동 1030번지","indutype":"교육서비스업 - 음악학원","category":"study"}]},{"lat":"37.347421951","long":"126.81598791","imageIndex":16,"items":[{"name":"한솔교육어린이집","tel":"031-484-0777","addr":"경기도 안산시 단원구 선부동 1106-23번지","indutype":"학원 - 유아원","category":"study"},{"name":"한솔교육어린이집[아이행복]","tel":"031-484-0777","addr":"경기도 안산시 단원구 선부동 1106-23번지","indutype":"학원 - 유아원","category":"study"}]},{"lat":"37.341917141","long":"126.81623854","imageIndex":16,"items":[{"name":"합격독서실","tel":"031-403-0781","addr":"경기도 안산시 단원구 선부동 1087-24번지 지영프라자 4층","indutype":"학원 - 독서실","category":"study"}]},{"lat":"37.3438920499","long":"126.8061558501","imageIndex":16,"items":[{"name":"해리티지영수학원","tel":"","addr":"경기도 안산시 단원구 선부동 1039-9번지","indutype":"교육서비스업 - 보습학원","category":"study"}]},{"lat":"37.34389205","long":"126.80615585","imageIndex":16,"items":[{"name":"해리티지영수학원","tel":"070-7583-3305","addr":"경기도 안산시 단원구 선부동 1039-9번지 101호","indutype":"학원 - 보습학원","category":"study"}]},{"lat":"37.343253268","long":"126.80672178","imageIndex":16,"items":[{"name":"해밀학원","tel":"031-401-9772","addr":"경기도 안산시 단원구 선부동 1040-7번지 2층","indutype":"회원제형태 - 학원","category":"study"}]},{"lat":"37.342250402","long":"126.80507676","imageIndex":16,"items":[{"name":"해찬솔어린이집[아이행복]","tel":"031-411-5433","addr":"경기도 안산시 단원구 선부동 1030-15번지 1층 전부","indutype":"학원 - 유아원","category":"study"}]},{"lat":"37.343919324","long":"126.80630249","imageIndex":16,"items":[{"name":"허브미술","tel":"","addr":"경기도 안산시 단원구 선부동 1039번지 102호","indutype":"학원 - 예·체능계학원","category":"study"}]},{"lat":"37.338336633","long":"126.80307839","imageIndex":16,"items":[{"name":"홍익교육어린이집[아이행복]","tel":"031-411-8565","addr":"경기도 안산시 단원구 선부동 997-6번지","indutype":"학원 - 유아원","category":"study"}]},{"lat":"37.344478516","long":"126.81782345","imageIndex":16,"items":[{"name":"화정어린이집[아이행복]","tel":"031-439-7177","addr":"경기도 안산시 단원구 선부동 1095-9번지","indutype":"학원 - 유아원","category":"study"}]},{"lat":"37.344666473","long":"126.81702172","imageIndex":16,"items":[{"name":"화정지지이영어전문학원","tel":"070-7808-8507","addr":"경기도 안산시 단원구 선부동 1095-2번지 1층","indutype":"회원제형태 - 학원","category":"study"}]},{"lat":"37.345503668","long":"126.81654566","imageIndex":16,"items":[{"name":"흙과나무미술학원","tel":"031-431-3337","addr":"경기도 안산시 단원구 선부동 1099-6번지 1층","indutype":"학원 - 예·체능계학원","category":"study"}]},{"lat":"37.3455036682","long":"126.8165456597","imageIndex":16,"items":[{"name":"흙과나무미술학원","tel":"031-487-6300","addr":"경기도 안산시 단원구 선부동 1099-6번지","indutype":"교육서비스업 - 미술학원","category":"study"}]}]