[{"lat":"37.286884557","long":"127.68346827","imageIndex":4,"items":[{"name":"강천다리골","tel":"031-886-6358","addr":"경기도 여주시 강천면 이호리 488번지","indutype":"일반휴게음식 - 일반한식","category":"restaurant"}]},{"lat":"37.288662757","long":"127.68290916","imageIndex":4,"items":[{"name":"강천해장국","tel":"031-885-5734","addr":"경기도 여주시 강천면 이호리 480-1번지","indutype":"일반휴게음식 - 일반한식","category":"restaurant"}]},{"lat":"37.286691528","long":"127.68413185","imageIndex":4,"items":[{"name":"꼬꼬치킨","tel":"031-885-6902","addr":"경기도 여주시 강천면 이호리 492-6번지","indutype":"일반휴게음식 - 일반한식","category":"restaurant"}]},{"lat":"37.286249862","long":"127.6841617","imageIndex":4,"items":[{"name":"나루터매운탕","tel":"031-885-1023","addr":"경기도 여주시 강천면 이호리 492-2번지","indutype":"일반휴게음식 - 일반한식","category":"restaurant"}]},{"lat":"37.286804767","long":"127.68324202","imageIndex":4,"items":[{"name":"남한강매운탕","tel":"031-885-1889","addr":"경기도 여주시 강천면 이호리 487번지","indutype":"일반휴게음식 - 일반한식","category":"restaurant"}]},{"lat":"37.287417526","long":"127.68791609","imageIndex":4,"items":[{"name":"대박촌손두부","tel":"031-885-0171","addr":"경기도 여주시 강천면 이호리 399-2번지","indutype":"일반휴게음식 - 일반한식","category":"restaurant"}]},{"lat":"37.286389157","long":"127.68344125","imageIndex":4,"items":[{"name":"먼동이틀때","tel":"031-885-1233","addr":"경기도 여주시 강천면 이호리 491번지","indutype":"일반휴게음식 - 서양음식","category":"restaurant"}]},{"lat":"37.288497635","long":"127.68810631","imageIndex":4,"items":[{"name":"목아카페","tel":"031-885-9952","addr":"경기도 여주시 강천면 이호리 395-2번지","indutype":"일반휴게음식 - 서양음식","category":"restaurant"}]},{"lat":"37.286912483","long":"127.6848781","imageIndex":4,"items":[{"name":"송백보리밥","tel":"031-883-1257","addr":"경기도 여주시 강천면 이호리 496-2번지","indutype":"일반휴게음식 - 일반한식","category":"restaurant"}]},{"lat":"37.289723291","long":"127.68180228","imageIndex":4,"items":[{"name":"아뜨리움","tel":"","addr":"경기도 여주시 강천면 이호리 477-3번지","indutype":"일반휴게음식 - 서양음식","category":"restaurant"},{"name":"육일 소고기국밥","tel":"031-885-9959","addr":"경기도 여주시 강천면 이호리 477-3번지","indutype":"일반휴게음식 - 일반한식","category":"restaurant"}]},{"lat":"37.287473876","long":"127.6828308","imageIndex":4,"items":[{"name":"여강재","tel":"031-883-8881","addr":"경기도 여주시 강천면 이호리 486-6번지","indutype":"일반휴게음식 - 일반한식","category":"restaurant"}]}]