[{"lat":"37.39380932","long":"127.3091996","imageIndex":17,"items":[{"name":"(주)덕보산업","tel":"031-762-0649","addr":"경기도 광주시 초월읍 신월리 676-4번지","indutype":"건축자재 - 기타건축자재","category":"other"}]},{"lat":"37.39678385","long":"127.3121931","imageIndex":17,"items":[{"name":"(주)두미나","tel":"031-766-8151","addr":"경기도 광주시 초월읍 신월리 613번지","indutype":"레져용품 - 골프용품 전문점","category":"other"}]},{"lat":"37.39366802","long":"127.3183913","imageIndex":17,"items":[{"name":"(주)예소교역","tel":"02-418-8620","addr":"경기도 광주시 초월읍 신월리 121번지","indutype":"의류 - 정장","category":"other"}]},{"lat":"37.40980649","long":"127.3144379","imageIndex":17,"items":[{"name":"(주)제이에스가구","tel":"031-111-1111","addr":"경기도 광주시 초월읍 신월리 304-4번지","indutype":"가구 - 일반가구","category":"other"}]},{"lat":"37.39539039","long":"127.3144459","imageIndex":17,"items":[{"name":"(주)카이스산업","tel":"031-761-2851","addr":"경기도 광주시 초월읍 신월리 643-6번지 1동","indutype":"가구 - 일반가구","category":"other"}]},{"lat":"37.40564335","long":"127.3111904","imageIndex":17,"items":[{"name":"(주)키친쇼콜라앤한성아이디","tel":"031-766-5408","addr":"경기도 광주시 초월읍 신월리 482-1번지","indutype":"가구 - 기타가구","category":"other"}]},{"lat":"37.40453064","long":"127.3094465","imageIndex":17,"items":[{"name":"(주)프로디코리아","tel":"031-763-6736","addr":"경기도 광주시 초월읍 신월리 473-3번지","indutype":"의류 - 정장","category":"other"}]},{"lat":"37.40678576","long":"127.3084391","imageIndex":17,"items":[{"name":"GS25광주고은점","tel":"02-2006-2118","addr":"경기도 광주시 초월읍 신월리 446-5","indutype":"유통업 영리 - 상품권전문판매","category":"other"},{"name":"GS25광주고은점","tel":"02-2006-2118","addr":"경기도 광주시 초월읍 신월리 446-5","indutype":"유통업 영리 - 편 의 점","category":"other"},{"name":"초월피복","tel":"031-769-8933","addr":"경기도 광주시 초월읍 신월리 446-5","indutype":"의류 - 기타의류","category":"other"}]},{"lat":"37.41061066","long":"127.3066361","imageIndex":17,"items":[{"name":"YB유통","tel":"031-111-1111","addr":"경기도 광주시 초월읍 신월리 405-4번지 C동","indutype":"의류 - 정장","category":"other"},{"name":"삼일상사","tel":"031-761-8146","addr":"경기도 광주시 초월읍 신월리 405-4번지 C동","indutype":"의류 - 정장","category":"other"},{"name":"이오유통","tel":"031-761-8146","addr":"경기도 광주시 초월읍 신월리 405-4 B","indutype":"의류 - 정장","category":"other"}]},{"lat":"37.39336517","long":"127.3136697","imageIndex":17,"items":[{"name":"굿컴퍼니(GOOD COMPANY)","tel":"031-766-2200","addr":"경기도 광주시 초월읍 신월리 665-1번지","indutype":"기타 - 기계공구","category":"other"},{"name":"보령 유니폼","tel":"031-766-2200","addr":"경기도 광주시 초월읍 신월리 665-1번지","indutype":"레져용품 - 스포츠·레져용품","category":"other"},{"name":"아트퀸","tel":"070-2699-0807","addr":"경기도 광주시 초월읍 신월리 665-1번지 3층 주사랑교회","indutype":"의류 - 내의판매","category":"other"}]},{"lat":"37.40119814","long":"127.3158591","imageIndex":17,"items":[{"name":"그랜드 그린","tel":"031-761-0602","addr":"경기도 광주시 초월읍 신월리 548-5","indutype":"기타 - 기타 전문점","category":"other"}]},{"lat":"37.39269757","long":"127.3139944","imageIndex":17,"items":[{"name":"그린팩","tel":"070-4195-6107","addr":"경기도 광주시 초월읍 신월리 659-1번지 옥산빌딩 101호","indutype":"유통업 영리 - 기타유통업","category":"other"},{"name":"신세계 공인중개사사무소","tel":"031-768-5050","addr":"경기도 광주시 초월읍 신월리 659-1번지 1층","indutype":"용역 서비스 - 부동산 중개·임대","category":"other"}]},{"lat":"37.3946423","long":"127.3213089","imageIndex":17,"items":[{"name":"김창숙뷰띠끄","tel":"031-798-5942","addr":"경기도 광주시 초월읍 신월리 79번지","indutype":"의류 - 정장","category":"other"}]},{"lat":"37.4089235","long":"127.3075216","imageIndex":17,"items":[{"name":"논스톱","tel":"031-765-4279","addr":"경기도 광주시 초월읍 신월리 441-1","indutype":"유통업 영리 - 편 의 점","category":"other"}]},{"lat":"37.41047899","long":"127.3087817","imageIndex":17,"items":[{"name":"농업회사주식회사바이오아그로","tel":"031-798-1231","addr":"경기도 광주시 초월읍 신월리 421-2","indutype":"농업 - 기타농업관련","category":"other"}]},{"lat":"37.40728057","long":"127.3087235","imageIndex":17,"items":[{"name":"대박광고","tel":"031-798-1242","addr":"경기도 광주시 초월읍 신월리 446-34번지","indutype":"유통업 영리 - 기타유통업","category":"other"}]},{"lat":"37.40617343","long":"127.3083011","imageIndex":17,"items":[{"name":"대성가설산업","tel":"031-794-3308","addr":"경기도 광주시 초월읍 신월리 477-11번지","indutype":"건축자재 - 기타건축자재","category":"other"}]},{"lat":"37.40950241","long":"127.306643","imageIndex":17,"items":[{"name":"대유엔지니어링","tel":"031-766-1426","addr":"경기도 광주시 초월읍 신월리 433-5","indutype":"기타 - 기계공구","category":"other"}]},{"lat":"37.40403509","long":"127.3094445","imageIndex":17,"items":[{"name":"대창조명","tel":"","addr":"경기도 광주시 초월읍 신월리 512-1번지 1층","indutype":"건축자재 - 조명기구","category":"other"}]},{"lat":"37.39822474","long":"127.3158919","imageIndex":17,"items":[{"name":"대호상사","tel":"031-111-1111","addr":"경기도 광주시 초월읍 신월리 193-4번지","indutype":"의류 - 기타의류","category":"other"}]},{"lat":"37.39905646","long":"127.3148338","imageIndex":17,"items":[{"name":"대흥산업사","tel":"","addr":"경기도 광주시 초월읍 신월리 568번지","indutype":"용역 서비스 - 기타용역서비스","category":"other"}]},{"lat":"37.40286823","long":"127.314635","imageIndex":17,"items":[{"name":"동성목형","tel":"031-761-0866","addr":"경기도 광주시 초월읍 신월리 492-3번지","indutype":"건축자재 - 목재·석재·철물","category":"other"}]},{"lat":"37.40509013","long":"127.3091099","imageIndex":17,"items":[{"name":"미니스톱광주초월점","tel":"031-1577-9621","addr":"경기도 광주시 초월읍 신월리 472","indutype":"유통업 영리 - 편 의 점","category":"other"}]},{"lat":"37.41117436","long":"127.3081633","imageIndex":17,"items":[{"name":"비아라이팅","tel":"070-4110-6969","addr":"경기도 광주시 초월읍 신월리 408-3번지","indutype":"전기제품 - 기타전기제품","category":"other"}]},{"lat":"37.40000319","long":"127.314578","imageIndex":17,"items":[{"name":"삼진통상","tel":"02-2265-4530","addr":"경기도 광주시 초월읍 신월리 559-1","indutype":"직물 - 옷감·직물","category":"other"}]},{"lat":"37.40774973","long":"127.3084769","imageIndex":17,"items":[{"name":"새친구공구","tel":"031-797-2978","addr":"경기도 광주시 초월읍 신월리 446-4번지","indutype":"기타 - 기계공구","category":"other"}]},{"lat":"37.41102766","long":"127.3056438","imageIndex":17,"items":[{"name":"서진스텐","tel":"031-764-1320","addr":"경기도 광주시 초월읍 신월리 389-7","indutype":"건축자재 - 기타건축자재","category":"other"}]},{"lat":"37.40572299","long":"127.3117441","imageIndex":17,"items":[{"name":"세일산업","tel":"031-769-0437","addr":"경기도 광주시 초월읍 신월리 487","indutype":"기타 - 기계공구","category":"other"}]},{"lat":"37.3915341","long":"127.3144413","imageIndex":17,"items":[{"name":"수도권청소","tel":"070-9411-6645","addr":"경기도 광주시 초월읍 신월리 689-7번지 2층","indutype":"용역 서비스 - 종합용역","category":"other"}]},{"lat":"37.41039564","long":"127.3061609","imageIndex":17,"items":[{"name":"신월철물건재","tel":"031-763-9944","addr":"경기도 광주시 초월읍 신월리 388-3번지","indutype":"기타 - 기계공구","category":"other"}]},{"lat":"37.40272303","long":"127.3150297","imageIndex":17,"items":[{"name":"신진포장","tel":"031-764-7984","addr":"경기도 광주시 초월읍 신월리 235-5번지","indutype":"유통업 영리 - 기타유통업","category":"other"}]},{"lat":"37.39619732","long":"127.3125295","imageIndex":17,"items":[{"name":"씨유광주초월신월점","tel":"080-080-3663","addr":"경기도 광주시 초월읍 신월리 602-4번지","indutype":"유통업 영리 - 편 의 점","category":"other"}]},{"lat":"37.41461423","long":"127.305421","imageIndex":17,"items":[{"name":"에스엔엠스포츠(s&m sports)","tel":"031-766-3311","addr":"경기도 광주시 초월읍 신월리 350-3번지","indutype":"레져용품 - 스포츠·레져용품","category":"other"}]},{"lat":"37.40155815","long":"127.3125854","imageIndex":17,"items":[{"name":"에이스코리안","tel":"031-766-8669","addr":"경기도 광주시 초월읍 신월리 543번지","indutype":"건축자재 - 기타건축자재","category":"other"}]},{"lat":"37.39553223","long":"127.3153274","imageIndex":17,"items":[{"name":"연성정공","tel":"031-769-9915","addr":"경기도 광주시 초월읍 신월리 135-8번지","indutype":"기타 - 기계공구","category":"other"}]},{"lat":"37.39328664","long":"127.3194964","imageIndex":17,"items":[{"name":"예디가구","tel":"031-762-3998","addr":"경기도 광주시 초월읍 신월리 104-1번지 예디가구","indutype":"가구 - 일반가구","category":"other"}]},{"lat":"37.39230904","long":"127.3144106","imageIndex":17,"items":[{"name":"옥산","tel":"031-763-0892","addr":"경기도 광주시 초월읍 신월리 659번지 외 3필지","indutype":"건축자재 - 목재·석재·철물","category":"other"}]},{"lat":"37.40536698","long":"127.3100598","imageIndex":17,"items":[{"name":"이드디자인","tel":"032-1588-2287","addr":"경기도 광주시 초월읍 신월리 508","indutype":"서적문구 - 출판 및 인쇄물","category":"other"}]},{"lat":"37.40055763","long":"127.3161614","imageIndex":17,"items":[{"name":"제일레스텍(주)","tel":"031-768-1196","addr":"경기도 광주시 초월읍 신월리 201-1번지","indutype":"기타 - 기계공구","category":"other"}]},{"lat":"37.40372754","long":"127.3133623","imageIndex":17,"items":[{"name":"제일테크","tel":"031-737-6221","addr":"경기도 광주시 초월읍 신월리 496-5번지","indutype":"가구 - 일반가구","category":"other"}]},{"lat":"37.3932598","long":"127.3091634","imageIndex":17,"items":[{"name":"제트보일러","tel":"031-763-9954","addr":"경기도 광주시 초월읍 신월리 676-5번지","indutype":"건축자재 - 보일러·펌프·샷시","category":"other"}]},{"lat":"37.39766851","long":"127.311553","imageIndex":17,"items":[{"name":"주식회사 나노메디","tel":"031-761-2525","addr":"경기도 광주시 초월읍 신월리 622번지 1호","indutype":"가구 - 일반가구","category":"other"}]},{"lat":"37.41081128","long":"127.3056994","imageIndex":17,"items":[{"name":"주식회사 다팔고","tel":"02-2690-0252","addr":"경기도 광주시 초월읍 신월리 389-4번지","indutype":"신변잡화 - 기타잡화","category":"other"}]},{"lat":"37.41345045","long":"127.3094941","imageIndex":17,"items":[{"name":"주식회사 신신생활과학","tel":"031-765-9297","addr":"경기도 광주시 초월읍 신월리 339-1번지","indutype":"전기제품 - 기타전기제품","category":"other"}]},{"lat":"37.39711436","long":"127.3098341","imageIndex":17,"items":[{"name":"주식회사 하늘애","tel":"02-1588-7166","addr":"경기도 광주시 초월읍 신월리 592-19번지","indutype":"문화.취미 - 애완동물","category":"other"}]},{"lat":"37.40086498","long":"127.3123567","imageIndex":17,"items":[{"name":"주식회사대흥유리창호","tel":"031-797-1420","addr":"경기도 광주시 초월읍 신월리 538번지","indutype":"건축자재 - 유리","category":"other"}]},{"lat":"37.41194578","long":"127.3059977","imageIndex":17,"items":[{"name":"주식회사미니맥스","tel":"031-763-9662","addr":"경기도 광주시 초월읍 신월리 401-6 비동","indutype":"가구 - 일반가구","category":"other"}]},{"lat":"37.41099893","long":"127.3063101","imageIndex":17,"items":[{"name":"청계공구","tel":"031-763-0965","addr":"경기도 광주시 초월읍 신월리 405-11번지","indutype":"기타 - 기계공구","category":"other"}]},{"lat":"37.39691809","long":"127.3226963","imageIndex":17,"items":[{"name":"청화요","tel":"070-7447-3371","addr":"경기도 광주시 초월읍 신월리 26번지","indutype":"문화.취미 - 민예·공예품","category":"other"}]},{"lat":"37.40477837","long":"127.3111981","imageIndex":17,"items":[{"name":"코업엠알오","tel":"031-798-4194","addr":"경기도 광주시 초월읍 신월리 506-2번지","indutype":"기타 - 기계공구","category":"other"}]},{"lat":"37.39806415","long":"127.3118595","imageIndex":17,"items":[{"name":"티라노 연구소","tel":"031-767-1426","addr":"경기도 광주시 초월읍 신월리 621번지","indutype":"문화.취미 - 티켓","category":"other"}]},{"lat":"37.40884141","long":"127.3113842","imageIndex":17,"items":[{"name":"플라비","tel":"031-923-9320","addr":"경기도 광주시 초월읍 신월리 290-3번지","indutype":"가구 - 일반가구","category":"other"}]},{"lat":"37.40036767","long":"127.316443","imageIndex":17,"items":[{"name":"피텍스산업","tel":"031-793-9260","addr":"경기도 광주시 초월읍 신월리 201-4","indutype":"레져용품 - 스포츠·레져용품","category":"other"}]},{"lat":"37.39291861","long":"127.3121659","imageIndex":17,"items":[{"name":"한광","tel":"070-8785-7126","addr":"경기도 광주시 초월읍 신월리 669-5번지","indutype":"의류 - 정장","category":"other"}]},{"lat":"37.39411826","long":"127.3116626","imageIndex":17,"items":[{"name":"한광바이오산업","tel":"031-763-4438","addr":"경기도 광주시 초월읍 신월리 669-2번지","indutype":"전기제품 - 기타전기제품","category":"other"}]},{"lat":"37.40128189","long":"127.311421","imageIndex":7,"items":[{"name":"(주)아이디어크루","tel":"031-767-4516","addr":"경기도 광주시 초월읍 신월리 539-1번지","indutype":"음료식품 - 기타음료식품","category":"food"},{"name":"주식회사미쓰리","tel":"031-767-4516","addr":"경기도 광주시 초월읍 신월리 539-1번지 1층","indutype":"음료식품 - 기타음료식품","category":"food"}]},{"lat":"37.39950624","long":"127.3151067","imageIndex":7,"items":[{"name":"가연푸드","tel":"031-763-9202","addr":"경기도 광주시 초월읍 신월리 565-6번지","indutype":"음료식품 - 제과점","category":"food"}]},{"lat":"37.41183488","long":"127.3070816","imageIndex":7,"items":[{"name":"광주농장","tel":"031-764-5293","addr":"경기도 광주시 초월읍 신월리 409-1","indutype":"음료식품 - 농·축·수산품","category":"food"}]},{"lat":"37.41369663","long":"127.3048639","imageIndex":7,"items":[{"name":"동영수산","tel":"031-762-5961","addr":"경기도 광주시 초월읍 신월리 397-1번지","indutype":"음료식품 - 농·축·수산품","category":"food"}]},{"lat":"37.41099893","long":"127.3063101","imageIndex":7,"items":[{"name":"신월한양","tel":"031-798-3229","addr":"경기도 광주시 초월읍 신월리 405-11번지","indutype":"음료식품 - 정육점","category":"food"}]},{"lat":"37.40742502","long":"127.3086112","imageIndex":7,"items":[{"name":"신지월건강","tel":"031-769-7420","addr":"경기도 광주시 초월읍 신월리 446-7번지 1층","indutype":"건강식품 - 기타건강식품","category":"food"}]},{"lat":"37.39269757","long":"127.3139944","imageIndex":7,"items":[{"name":"완판네","tel":"","addr":"경기도 광주시 초월읍 신월리 659-1번지 1,04호","indutype":"음료식품 - 기타음료식품","category":"food"}]},{"lat":"37.39500786","long":"127.3160028","imageIndex":7,"items":[{"name":"주식회사 미랑에프앤비","tel":"031-762-6560","addr":"경기도 광주시 초월읍 신월리 134-14번지","indutype":"음료식품 - 기타음료식품","category":"food"}]},{"lat":"37.40774973","long":"127.3084769","imageIndex":7,"items":[{"name":"털보스(TULBO's)","tel":"070-9144-5411","addr":"경기도 광주시 초월읍 신월리 446-4번지 1층","indutype":"음료식품 - 기타음료식품","category":"food"}]},{"lat":"37.39291861","long":"127.3121659","imageIndex":7,"items":[{"name":"한광","tel":"031-766-7090","addr":"경기도 광주시 초월읍 신월리 669-5번지 한광사우나","indutype":"음료식품 - 기타음료식품","category":"food"}]},{"lat":"37.39411826","long":"127.3116626","imageIndex":13,"items":[{"name":"(주)에이치케이","tel":"031-798-1577","addr":"경기도 광주시 초월읍 신월리 669-2","indutype":"보건위생 - 의료용품","category":"beauty"},{"name":"유명의료기","tel":"031-767-1230","addr":"경기도 광주시 초월읍 신월리 669-2번지","indutype":"보건위생 - 의료용품","category":"beauty"}]},{"lat":"37.40856214","long":"127.3078929","imageIndex":13,"items":[{"name":"민헤어","tel":"031-769-3380","addr":"경기도 광주시 초월읍 신월리 442-12","indutype":"보건위생 - 미용원","category":"beauty"}]},{"lat":"37.40774973","long":"127.3084769","imageIndex":13,"items":[{"name":"살롱뷰티헤어","tel":"","addr":"경기도 광주시 초월읍 신월리 446-4번지 1층 8호","indutype":"보건위생 - 미용원","category":"beauty"}]},{"lat":"37.40869507","long":"127.3122194","imageIndex":13,"items":[{"name":"주식회사 영파워헬스케어","tel":"02-000-0000","addr":"경기도 광주시 초월읍 신월리 292-1번지","indutype":"보건위생 - 화장품","category":"beauty"}]},{"lat":"37.39291861","long":"127.3121659","imageIndex":13,"items":[{"name":"한광참숯가마사우나","tel":"031-762-2820","addr":"경기도 광주시 초월읍 신월리 669-5번지","indutype":"보건위생 - 사우나","category":"beauty"}]},{"lat":"37.40905999","long":"127.3070026","imageIndex":0,"items":[{"name":"CJ코리아","tel":"02-2246-1283","addr":"경기도 광주시 초월읍 신월리 432-6번지","indutype":"자동차정비 유지 - 자동차부품","category":"car"}]},{"lat":"37.3955577","long":"127.3159147","imageIndex":0,"items":[{"name":"GJ에너지","tel":"031-767-4700","addr":"경기도 광주시 초월읍 신월리 136-17번지","indutype":"자동차정비 유지 - 윤활유 전문 판매","category":"car"}]},{"lat":"37.39458715","long":"127.3080508","imageIndex":0,"items":[{"name":"광주폐차산업","tel":"031-766-7700","addr":"경기도 광주시 초월읍 신월리 677","indutype":"자동차정비 유지 - 가타자동차서비스","category":"car"}]},{"lat":"37.39302921","long":"127.3112178","imageIndex":0,"items":[{"name":"뉴오토네이션","tel":"031-798-6370","addr":"경기도 광주시 초월읍 신월리 597-3","indutype":"자동차정비 유지 - 자동차정비","category":"car"}]},{"lat":"37.40114529","long":"127.3119738","imageIndex":0,"items":[{"name":"대림유화","tel":"031-769-5189","addr":"경기도 광주시 초월읍 신월리 538-4번지","indutype":"자동차정비 유지 - 자동차부품","category":"car"}]},{"lat":"37.39525925","long":"127.3129209","imageIndex":0,"items":[{"name":"두월자동차정비사업소","tel":"031-769-5400","addr":"경기도 광주시 초월읍 신월리 649-3번지 (649-1,649-3,649-5)","indutype":"자동차정비 유지 - 자동차정비","category":"car"}]},{"lat":"37.39853203","long":"127.3155318","imageIndex":0,"items":[{"name":"레벨업바디팩토리","tel":"031-766-9003","addr":"경기도 광주시 초월읍 신월리 192번지","indutype":"자동차정비 유지 - 카인테리어","category":"car"}]},{"lat":"37.40167303","long":"127.3134442","imageIndex":0,"items":[{"name":"로텍코리아(ROTEC KOREA)","tel":"031-797-9238","addr":"경기도 광주시 초월읍 신월리 544-1","indutype":"자동차정비 유지 - 자동차부품","category":"car"}]},{"lat":"37.40961096","long":"127.306474","imageIndex":0,"items":[{"name":"신영자동차정비공업사","tel":"031-797-8988","addr":"경기도 광주시 초월읍 신월리 433-3번지 434동 4호","indutype":"자동차정비 유지 - 자동차정비","category":"car"}]},{"lat":"37.40581102","long":"127.309079","imageIndex":0,"items":[{"name":"신월자동차정비공업사","tel":"031-764-0886","addr":"경기도 광주시 초월읍 신월리 475번지","indutype":"자동차정비 유지 - 자동차정비","category":"car"}]},{"lat":"37.40822641","long":"127.3088064","imageIndex":0,"items":[{"name":"주식회사 와이즈로","tel":"031-416-9300","addr":"경기도 광주시 초월읍 신월리 444-1번지","indutype":"자동차정비 유지 - 자동차부품","category":"car"}]},{"lat":"37.39269757","long":"127.3139944","imageIndex":0,"items":[{"name":"큐브텍","tel":"031-761-5922","addr":"경기도 광주시 초월읍 신월리 659-1번지 1층 103호","indutype":"자동차정비 유지 - 자동차부품","category":"car"}]},{"lat":"37.41431285","long":"127.3034769","imageIndex":0,"items":[{"name":"타이어닥터","tel":"031-767-1506","addr":"경기도 광주시 초월읍 신월리 392-1번지","indutype":"자동차정비 유지 - 자동차시트·타이어","category":"car"}]},{"lat":"37.40528028","long":"127.3087493","imageIndex":0,"items":[{"name":"투엑스원 광주점","tel":"031-765-0432","addr":"경기도 광주시 초월읍 신월리 471-9번지 1층 명가텔로스","indutype":"자동차정비 유지 - 세차장","category":"car"}]},{"lat":"37.41006175","long":"127.3063628","imageIndex":0,"items":[{"name":"하나모터스","tel":"031-764-8067","addr":"경기도 광주시 초월읍 신월리 388-6번지","indutype":"자동차정비 유지 - 자동차부품","category":"car"}]},{"lat":"37.39333743","long":"127.3139406","imageIndex":0,"items":[{"name":"효성특장차 주식회사","tel":"031-765-8940","addr":"경기도 광주시 초월읍 신월리 665-5번지","indutype":"자동차판매 - 기타운송","category":"car"}]},{"lat":"37.40774973","long":"127.3084769","imageIndex":4,"items":[{"name":"가마솥소머리국밥순대국","tel":"031-798-3342","addr":"경기도 광주시 초월읍 신월리 446-4번지 1층","indutype":"일반휴게음식 - 일반한식","category":"restaurant"}]},{"lat":"37.4087247","long":"127.3077467","imageIndex":4,"items":[{"name":"고모네집","tel":"031-769-2015","addr":"경기도 광주시 초월읍 신월리 442-1번지 호석빌딩 103호","indutype":"일반휴게음식 - 일반한식","category":"restaurant"}]},{"lat":"37.41369663","long":"127.3048639","imageIndex":4,"items":[{"name":"구구장어","tel":"031-768-9905","addr":"경기도 광주시 초월읍 신월리 397-1번지","indutype":"일반휴게음식 - 일반한식","category":"restaurant"}]},{"lat":"37.41153132","long":"127.305996","imageIndex":4,"items":[{"name":"기와집의정부부대찌개","tel":"031-763-3292","addr":"경기도 광주시 초월읍 신월리 405-13번지","indutype":"일반휴게음식 - 일반한식","category":"restaurant"},{"name":"태능숯불갈비","tel":"031-763-7174","addr":"경기도 광주시 초월읍 신월리 405-13번지","indutype":"일반휴게음식 - 일반한식","category":"restaurant"}]},{"lat":"37.40470256","long":"127.3091648","imageIndex":4,"items":[{"name":"꺼먹돼지","tel":"031-763-9856","addr":"경기도 광주시 초월읍 신월리 473-2번지","indutype":"일반휴게음식 - 일반한식","category":"restaurant"}]},{"lat":"37.40502806","long":"127.3087257","imageIndex":4,"items":[{"name":"독산성순대국","tel":"031-762-0808","addr":"경기도 광주시 초월읍 신월리 471-19번지 대보빌딩 1층","indutype":"일반휴게음식 - 일반한식","category":"restaurant"},{"name":"장모님밥상","tel":"031-769-9988","addr":"경기도 광주시 초월읍 신월리 471-19번지","indutype":"일반휴게음식 - 일반한식","category":"restaurant"}]},{"lat":"37.40711819","long":"127.3088019","imageIndex":4,"items":[{"name":"만다린","tel":"031-763-0087","addr":"경기도 광주시 초월읍 신월리 446-37번지","indutype":"일반휴게음식 - 일반한식","category":"restaurant"}]},{"lat":"37.39678385","long":"127.3121931","imageIndex":4,"items":[{"name":"맛드림한정식","tel":"031-762-0667","addr":"경기도 광주시 초월읍 신월리 613번지","indutype":"일반휴게음식 - 일반한식","category":"restaurant"}]},{"lat":"37.40961096","long":"127.306474","imageIndex":4,"items":[{"name":"별한식뷔페","tel":"031-762-6611","addr":"경기도 광주시 초월읍 신월리 433-3번지","indutype":"일반휴게음식 - 일반한식","category":"restaurant"}]},{"lat":"37.39853042","long":"127.3161417","imageIndex":4,"items":[{"name":"복사골식당","tel":"031-762-6888","addr":"경기도 광주시 초월읍 신월리 176번지","indutype":"일반휴게음식 - 일반한식","category":"restaurant"}]},{"lat":"37.40625399","long":"127.3085048","imageIndex":4,"items":[{"name":"사랑방","tel":"031-762-3437","addr":"경기도 광주시 초월읍 신월리 477-9","indutype":"일반휴게음식 - 일반한식","category":"restaurant"}]},{"lat":"37.4089235","long":"127.3075216","imageIndex":4,"items":[{"name":"생태한마리","tel":"031-766-1153","addr":"경기도 광주시 초월읍 신월리 441-1번지 1층","indutype":"일반휴게음식 - 일반한식","category":"restaurant"}]},{"lat":"37.39864705","long":"127.3129122","imageIndex":4,"items":[{"name":"서광한식부페","tel":"031-766-2230","addr":"경기도 광주시 초월읍 신월리 631-2번지","indutype":"일반휴게음식 - 일반한식","category":"restaurant"}]},{"lat":"37.40905999","long":"127.3070026","imageIndex":4,"items":[{"name":"설맥(초월점)","tel":"070-7848-4869","addr":"경기도 광주시 초월읍 신월리 432-6번지 나동 1층","indutype":"일반휴게음식 - 주점","category":"restaurant"}]},{"lat":"37.39336517","long":"127.3136697","imageIndex":4,"items":[{"name":"숯골부페","tel":"031-765-1880","addr":"경기도 광주시 초월읍 신월리 665-1번지","indutype":"일반휴게음식 - 일반한식","category":"restaurant"}]},{"lat":"37.40742502","long":"127.3086112","imageIndex":4,"items":[{"name":"신촌임자순대국","tel":"031-797-8748","addr":"경기도 광주시 초월읍 신월리 446-7번지 광일빌딩 1층","indutype":"일반휴게음식 - 일반한식","category":"restaurant"},{"name":"신촌임자순대국","tel":"","addr":"경기도 광주시 초월읍 신월리 446-7번지 광일빌딩","indutype":"일반휴게음식 - 일반한식","category":"restaurant"}]},{"lat":"37.40839069","long":"127.3079939","imageIndex":4,"items":[{"name":"진미부페식당","tel":"031-761-4401","addr":"경기도 광주시 초월읍 신월리 442-13번지","indutype":"일반휴게음식 - 일반한식","category":"restaurant"}]},{"lat":"37.39700472","long":"127.3138654","imageIndex":4,"items":[{"name":"착한밥상","tel":"031-762-2110","addr":"경기도 광주시 초월읍 신월리 637-7번지","indutype":"일반휴게음식 - 일반한식","category":"restaurant"}]},{"lat":"37.39619732","long":"127.3125295","imageIndex":4,"items":[{"name":"초월두루치기","tel":"070-4217-1017","addr":"경기도 광주시 초월읍 신월리 602-4번지","indutype":"일반휴게음식 - 일반한식","category":"restaurant"}]},{"lat":"37.41014191","long":"127.3067246","imageIndex":4,"items":[{"name":"풍년","tel":"031-767-0172","addr":"경기도 광주시 초월읍 신월리 388-4번지","indutype":"일반휴게음식 - 일반한식","category":"restaurant"},{"name":"하나밥상","tel":"031-761-2771","addr":"경기도 광주시 초월읍 신월리 388-4번지","indutype":"일반휴게음식 - 일반한식","category":"restaurant"}]},{"lat":"37.39291861","long":"127.3121659","imageIndex":4,"items":[{"name":"한광참숯가마","tel":"031-000-0000","addr":"경기도 광주시 초월읍 신월리 669-5번지 1층","indutype":"일반휴게음식 - 일반한식","category":"restaurant"}]},{"lat":"37.39481094","long":"127.3120833","imageIndex":13,"items":[{"name":"동양볼링센타","tel":"031-763-4557","addr":"경기도 광주시 초월읍 신월리 600-1번지","indutype":"레저업소 - 볼 링 장","category":"leisure"}]},{"lat":"37.39311943","long":"127.3146059","imageIndex":7,"items":[{"name":"숯골마트","tel":"031-761-1942","addr":"경기도 광주시 초월읍 신월리 655번지","indutype":"유통업 영리 - 슈퍼마켓","category":"mart"}]},{"lat":"37.39881319","long":"127.3148328","imageIndex":7,"items":[{"name":"신월1리구판장","tel":"031-769-8163","addr":"경기도 광주시 초월읍 신월리 633-18 신월1리구판장","indutype":"유통업 영리 - 슈퍼마켓","category":"mart"}]},{"lat":"37.40694685","long":"127.3088577","imageIndex":7,"items":[{"name":"월드마트","tel":"","addr":"경기도 광주시 초월읍 신월리 446-61번지 1층 왼쪽","indutype":"유통업 영리 - 슈퍼마켓","category":"mart"}]},{"lat":"37.39300391","long":"127.3139957","imageIndex":7,"items":[{"name":"토리마트","tel":"031-761-1942","addr":"경기도 광주시 초월읍 신월리 663번지","indutype":"유통업 영리 - 슈퍼마켓","category":"mart"}]},{"lat":"37.40742502","long":"127.3086112","imageIndex":8,"items":[{"name":"신지월약국","tel":"02-402-9195","addr":"경기도 광주시 초월읍 신월리 446-7번지 1층","indutype":"약국 - 약국","category":"medical"}]}]