[{"lat":"37.139026463","long":"126.90054166","imageIndex":7,"items":[{"name":"강남한우99","tel":"031-353-5545","addr":"경기도 화성시 향남읍 장짐리 360-5번지 2층 2호","indutype":"음료식품 - 정육점","category":"food"}]},{"lat":"37.135335251","long":"126.90418177","imageIndex":7,"items":[{"name":"그린물류","tel":"031-297-6055","addr":"경기도 화성시 향남읍 장짐리 289-4번지 1층 104호","indutype":"음료식품 - 기타음료식품","category":"food"}]},{"lat":"37.137557285","long":"126.91096543","imageIndex":7,"items":[{"name":"남양유업 화성 특판 대리점","tel":"031-8059-1077","addr":"경기도 화성시 향남읍 장짐리 409번지 신성미소지움 상가동 106호","indutype":"음료식품 - 기타음료식품","category":"food"}]},{"lat":"37.135502739","long":"126.91076533","imageIndex":7,"items":[{"name":"바다청과","tel":"031-353-9230","addr":"경기도 화성시 향남읍 장짐리 273-11번지","indutype":"음료식품 - 농·축·수산품","category":"food"}]},{"lat":"37.138116914","long":"126.91223653","imageIndex":7,"items":[{"name":"수베이커리","tel":"031-353-6592","addr":"경기도 화성시 향남읍 장짐리 218-5번지 101호","indutype":"음료식품 - 제과점","category":"food"}]},{"lat":"37.133192288","long":"126.90604146","imageIndex":7,"items":[{"name":"신창방앗간","tel":"031-353-3845","addr":"경기도 화성시 향남읍 장짐리 282-30번지","indutype":"음료식품 - 기타음료식품","category":"food"}]},{"lat":"37.139080981","long":"126.90107057","imageIndex":7,"items":[{"name":"아름다운농부네협동조합","tel":"031-354-2982","addr":"경기도 화성시 향남읍 장짐리 92-13번지","indutype":"음료식품 - 농·축·수산품","category":"food"}]},{"lat":"37.135223265","long":"126.91057435","imageIndex":7,"items":[{"name":"올인(all in)","tel":"031-353-5311","addr":"경기도 화성시 향남읍 장짐리 273-3","indutype":"음료식품 - 기타음료식품","category":"food"}]},{"lat":"37.139331497","long":"126.89902184","imageIndex":7,"items":[{"name":"재상목장","tel":"031-352-1547","addr":"경기도 화성시 향남읍 장짐리 359-5번지","indutype":"음료식품 - 정육점","category":"food"}]},{"lat":"37.139611717","long":"126.91101921","imageIndex":7,"items":[{"name":"향남농장","tel":"031-358-8866","addr":"경기도 화성시 향남읍 장짐리 228-1번지","indutype":"음료식품 - 농·축·수산품","category":"food"}]},{"lat":"37.138752129","long":"126.90649582","imageIndex":7,"items":[{"name":"화성중고등학교매점","tel":"031-352-7812","addr":"경기도 화성시 향남읍 장짐리 161번지","indutype":"음료식품 - 기타음료식품","category":"food"}]}]