[{"lat":"37.749065651","long":"127.0702126","imageIndex":8,"items":[{"name":"E-서울치과","tel":"031-853-7575","addr":"경기도 의정부시 신곡동 761-6번지 시티메디타운 402호","indutype":"의원 - 치과의원","category":"medical"}]},{"lat":"37.743207117","long":"127.05726185","imageIndex":8,"items":[{"name":"건강한약국","tel":"031-848-7085","addr":"경기도 의정부시 신곡동 673-1번지 휴먼시티 310호","indutype":"약국 - 약국","category":"medical"}]},{"lat":"37.730963037","long":"127.0574344","imageIndex":8,"items":[{"name":"경희수한의원","tel":"031-876-5796","addr":"경기도 의정부시 신곡동 720-3번지 24(3층)","indutype":"의원 - 한의원","category":"medical"}]},{"lat":"37.728907777","long":"127.05971294","imageIndex":8,"items":[{"name":"고은소아청소년과의원","tel":"031-879-0057","addr":"경기도 의정부시 신곡동 726-1번지 박사빌딩 301호","indutype":"의원 - 의원","category":"medical"},{"name":"미소치과의원","tel":"031-876-2879","addr":"경기도 의정부시 신곡동 726-1번지 박사빌딩 302호","indutype":"의원 - 치과의원","category":"medical"},{"name":"영진약국","tel":"031-829-9927","addr":"경기도 의정부시 신곡동 726-1번지 박사빌딩 1층","indutype":"약국 - 약국","category":"medical"},{"name":"장암경희한의원","tel":"031-874-1602","addr":"경기도 의정부시 신곡동 726-1번지 박사빌딩 303호","indutype":"의원 - 한의원","category":"medical"}]},{"lat":"37.742927936","long":"127.05701205","imageIndex":8,"items":[{"name":"굿모닝이비인후과의원","tel":"031-847-7822","addr":"경기도 의정부시 신곡동 673번지 휴먼시티 303호","indutype":"의원 - 의원","category":"medical"},{"name":"나치과의원","tel":"031-848-8935","addr":"경기도 의정부시 신곡동 673번지 휴먼씨티빌딩 3층 301호","indutype":"의원 - 치과의원","category":"medical"},{"name":"서강의원","tel":"031-842-9111","addr":"경기도 의정부시 신곡동 673번지 휴먼씨티빌딩 4층","indutype":"의원 - 의원","category":"medical"},{"name":"오즈동물병원","tel":"031-840-0075","addr":"경기도 의정부시 신곡동 673번지 휴먼시티 206호","indutype":"기타의료기관 - 동물병원","category":"medical"},{"name":"일신한의원","tel":"031-848-3486","addr":"경기도 의정부시 신곡동 673번지 휴먼시티 204호","indutype":"의원 - 한의원","category":"medical"}]},{"lat":"37.743260954","long":"127.05773841","imageIndex":8,"items":[{"name":"그레이스치과의원","tel":"031-821-1009","addr":"경기도 의정부시 신곡동 673-4번지 대명프라자 2층 205호","indutype":"의원 - 치과의원","category":"medical"},{"name":"새하늘이비인후과","tel":"031-845-5075","addr":"경기도 의정부시 신곡동 673-4번지 외1필지대명프라자 301호","indutype":"의원 - 의원","category":"medical"},{"name":"성인한의원","tel":"031-841-6496","addr":"경기도 의정부시 신곡동 673-4번지 외1필지 3층 301호","indutype":"의원 - 한의원","category":"medical"}]},{"lat":"37.730963587","long":"127.05623196","imageIndex":8,"items":[{"name":"다나치과의원","tel":"031-848-9551","addr":"경기도 의정부시 신곡동 719-4번지 우신프라자 3층 3호","indutype":"의원 - 치과의원","category":"medical"},{"name":"윤중한의원","tel":"031-829-7195","addr":"경기도 의정부시 신곡동 719-4번지 우신프라자 302호","indutype":"의원 - 한의원","category":"medical"},{"name":"한성가정의학과의원","tel":"031-821-8487","addr":"경기도 의정부시 신곡동 719-4번지 우신프라자 404호","indutype":"의원 - 의원","category":"medical"},{"name":"행복약국","tel":"031-873-1324","addr":"경기도 의정부시 신곡동 719-4번지 외1필지 우신프라자 1층 114호","indutype":"약국 - 약국","category":"medical"}]},{"lat":"37.735961001","long":"127.06229355","imageIndex":8,"items":[{"name":"다사랑약국","tel":"031-842-3412","addr":"경기도 의정부시 신곡동 451-1번지","indutype":"약국 - 약국","category":"medical"},{"name":"삼성바른의원","tel":"031-823-6111","addr":"경기도 의정부시 신곡동 451-1번지 남훈빌딩 3층","indutype":"의원 - 의원","category":"medical"},{"name":"새봄치과의원","tel":"031-840-0028","addr":"경기도 의정부시 신곡동 451-1번지 남훈빌딩 247호","indutype":"의원 - 치과의원","category":"medical"},{"name":"솔한의원","tel":"031-841-6116","addr":"경기도 의정부시 신곡동 451-1번지","indutype":"의원 - 한의원","category":"medical"}]},{"lat":"37.727206404","long":"127.05664896","imageIndex":8,"items":[{"name":"덕영약국","tel":"031-871-4162","addr":"경기도 의정부시 신곡동 725-5번지 주공5단지 상가 104호","indutype":"약국 - 약국","category":"medical"}]},{"lat":"37.744648953","long":"127.0565935","imageIndex":8,"items":[{"name":"동광한의원","tel":"031-846-0405","addr":"경기도 의정부시 신곡동 670-2번지","indutype":"약국 - 한약방","category":"medical"}]},{"lat":"37.748732665","long":"127.06956555","imageIndex":8,"items":[{"name":"드림피아약국","tel":"031-852-4457","addr":"경기도 의정부시 신곡동 760-5번지 경남프라자 113, 114","indutype":"약국 - 약국","category":"medical"}]},{"lat":"37.737622495","long":"127.05435349","imageIndex":8,"items":[{"name":"메디팜건강약국","tel":"031-844-1277","addr":"경기도 의정부시 신곡동 567-14태산빌딩1층","indutype":"약국 - 약국","category":"medical"}]},{"lat":"37.730818365","long":"127.05854599","imageIndex":8,"items":[{"name":"명안과의원","tel":"031-855-4581","addr":"경기도 의정부시 신곡동 721-1번지 장암프라자 512~514호","indutype":"의원 - 의원","category":"medical"},{"name":"성진한의원","tel":"031-879-8275","addr":"경기도 의정부시 신곡동 721-1번지","indutype":"의원 - 한의원","category":"medical"},{"name":"조은이비인후과","tel":"031-826-1991","addr":"경기도 의정부시 신곡동 721-1번지 장암프라자 309호","indutype":"의원 - 의원","category":"medical"},{"name":"천명경치과의원","tel":"031-826-2275","addr":"경기도 의정부시 신곡동 721-1번지 장암프라자 410호","indutype":"의원 - 치과의원","category":"medical"}]},{"lat":"37.747510275","long":"127.06420897","imageIndex":8,"items":[{"name":"미담은 치과의원","tel":"031-854-2875","addr":"경기도 의정부시 신곡동 757-9번지 대성빌딩 3층","indutype":"의원 - 치과의원","category":"medical"},{"name":"해인한의원","tel":"031-852-5510","addr":"경기도 의정부시 신곡동 757-9대성빌딩201.202","indutype":"의원 - 한의원","category":"medical"}]},{"lat":"37.748600371","long":"127.06432334","imageIndex":8,"items":[{"name":"백세미래의원","tel":"031-840-9988","addr":"경기도 의정부시 신곡동 757-2번지 광장빌딩 301호","indutype":"의원 - 의원","category":"medical"},{"name":"조은약국","tel":"031-853-7022","addr":"경기도 의정부시 신곡동 757-2번지 광장빌딩 103호","indutype":"약국 - 약국","category":"medical"}]},{"lat":"37.737099515","long":"127.05531743","imageIndex":8,"items":[{"name":"부부치과","tel":"031-843-2875","addr":"경기도 의정부시 신곡동 570-1번지","indutype":"의원 - 치과의원","category":"medical"}]},{"lat":"37.744538037","long":"127.06242521","imageIndex":8,"items":[{"name":"사랑동물병원","tel":"031-807-7335","addr":"경기도 의정부시 신곡동 519-26번지","indutype":"기타의료기관 - 동물병원","category":"medical"}]},{"lat":"37.747627138","long":"127.06470831","imageIndex":8,"items":[{"name":"새말약국","tel":"031-851-5999","addr":"경기도 의정부시 신곡동 757-7번지 한남프라자 105호","indutype":"약국 - 약국","category":"medical"},{"name":"지형석내과의원","tel":"031-853-7750","addr":"경기도 의정부시 신곡동 757-7번지","indutype":"의원 - 의원","category":"medical"}]},{"lat":"37.727492447","long":"127.06140201","imageIndex":8,"items":[{"name":"서울중앙의원","tel":"031-826-7565","addr":"경기도 의정부시 신곡동 727-1번지 한국풍림상가 204호","indutype":"의원 - 의원","category":"medical"},{"name":"양지그랜드약국","tel":"031-876-5176","addr":"경기도 의정부시 신곡동 727-1.103.104호","indutype":"약국 - 약국","category":"medical"},{"name":"오종민한의원","tel":"031-872-9977","addr":"경기도 의정부시 신곡동 727-1번지 한국풍림상가 209-1호","indutype":"의원 - 한의원","category":"medical"}]},{"lat":"37.729511463","long":"127.05962265","imageIndex":8,"items":[{"name":"심미치과","tel":"031-844-7522","addr":"경기도 의정부시 신곡동 334-2 지상3층","indutype":"의원 - 치과의원","category":"medical"}]},{"lat":"37.730097205","long":"127.05937354","imageIndex":8,"items":[{"name":"장암종합동물병원","tel":"031-843-1415","addr":"경기도 의정부시 신곡동 336-1번지","indutype":"기타의료기관 - 동물병원","category":"medical"}]},{"lat":"37.736015681","long":"127.06104569","imageIndex":8,"items":[{"name":"주식회사다우리치","tel":"031-856-4040","addr":"경기도 의정부시 신곡동 455-36번지","indutype":"약국 - 약국","category":"medical"}]},{"lat":"37.727846646","long":"127.05540166","imageIndex":8,"items":[{"name":"중앙박치과의원","tel":"031-871-2875","addr":"경기도 의정부시 신곡동 724-2현대2차상가201","indutype":"의원 - 치과의원","category":"medical"}]},{"lat":"37.751376465","long":"127.07789658","imageIndex":8,"items":[{"name":"하나동물병원","tel":"031-853-7550","addr":"경기도 의정부시 신곡동 772-2번지","indutype":"기타의료기관 - 동물병원","category":"medical"}]},{"lat":"37.737622544","long":"127.05424004","imageIndex":8,"items":[{"name":"한외과의원","tel":"031-843-7903","addr":"경기도 의정부시 신곡동 567-26번지","indutype":"의원 - 의원","category":"medical"}]}]