[{"lat":"37.164175811","long":"127.36905525","imageIndex":16,"items":[{"name":"글로리학원","tel":"031-339-6822","addr":"경기도 용인시 처인구 백암면 근창리 102-5번지 미미음악학원 나동 2층","indutype":"학원 - 보습학원","category":"study"},{"name":"미미음악학원","tel":"031-332-4857","addr":"경기도 용인시 처인구 백암면 근창리102-5","indutype":"학원 - 예·체능계학원","category":"study"}]},{"lat":"37.153262127","long":"127.40046563","imageIndex":16,"items":[{"name":"농업회사법인주식회사더팜청계","tel":"031-322-5200","addr":"경기도 용인시 처인구 백암면 박곡리 270-3번지","indutype":"학원 - 기타 교육기관","category":"study"}]},{"lat":"37.163421401","long":"127.37116819","imageIndex":16,"items":[{"name":"백암정도체육관","tel":"031-332-6706","addr":"경기도 용인시 처인구 백암면 근창리 19-3번지 비두빌딩 2층","indutype":"학원 - 예·체능계학원","category":"study"},{"name":"하이클래스청솔영어보습학원","tel":"031-322-9077","addr":"경기도 용인시 처인구 백암면 근창리 19-3번지 비두빌딩 3층","indutype":"학원 - 보습학원","category":"study"}]},{"lat":"37.164062532","long":"127.36780501","imageIndex":16,"items":[{"name":"백암초등학교","tel":"031-333-1320","addr":"경기도 용인시 처인구 백암면 근창리 105","indutype":"학원 - 유치원","category":"study"}]},{"lat":"37.126038879","long":"127.41963308","imageIndex":16,"items":[{"name":"별난관광농원","tel":"031-322-2829","addr":"경기도 용인시 처인구 백암면 고안리 51-5번지","indutype":"학원 - 기타 교육기관","category":"study"}]},{"lat":"37.139479045","long":"127.39419207","imageIndex":16,"items":[{"name":"성동","tel":"031-332-7030","addr":"경기도 용인시 처인구 백암면 백봉리 600-5번지","indutype":"학원 - 독서실","category":"study"}]},{"lat":"37.139758921","long":"127.39402469","imageIndex":16,"items":[{"name":"성흥공영","tel":"031-332-7512","addr":"경기도 용인시 처인구 백암면 백봉리 600-2","indutype":"학원 - 독서실","category":"study"}]},{"lat":"37.146119519","long":"127.36594037","imageIndex":16,"items":[{"name":"용인곤충테마파크 농업회사법인 주식회사","tel":"031-321-8090","addr":"경기도 용인시 처인구 백암면 근삼리 274-7번지","indutype":"학원 - 기타 교육기관","category":"study"}]},{"lat":"37.186699098","long":"127.36405107","imageIndex":16,"items":[{"name":"유티디 코리아(UDT KOREA)","tel":"031-335-3483","addr":"경기도 용인시 처인구 백암면 가창리 335-5번지 2층","indutype":"학원 - 예·체능계학원","category":"study"}]},{"lat":"37.16355942","long":"127.37024567","imageIndex":16,"items":[{"name":"현진보습학원","tel":"031-333-8876","addr":"경기도 용인시 처인구 백암면 근창리 13-5번지 (강림슈퍼(근창13-5)3층일부)","indutype":"학원 - 보습학원","category":"study"}]}]