[{"lat":"37.225410536","long":"127.19209991","imageIndex":7,"items":[{"name":"K.S 유통매점","tel":"031-254-5236","addr":"경기도 용인시 처인구 남동 101-3번지 103호","indutype":"음료식품 - 기타음료식품","category":"food"}]},{"lat":"37.215971239","long":"127.20095414","imageIndex":7,"items":[{"name":"동행푸드","tel":"","addr":"경기도 용인시 처인구 남동 472-19번지","indutype":"음료식품 - 기타음료식품","category":"food"}]},{"lat":"37.227218967","long":"127.20462309","imageIndex":7,"items":[{"name":"미야자키","tel":"031-332-0202","addr":"경기도 용인시 처인구 남동 47번지","indutype":"음료식품 - 정육점","category":"food"}]},{"lat":"37.227076162","long":"127.20382268","imageIndex":7,"items":[{"name":"미티스트","tel":"031-337-1391","addr":"경기도 용인시 처인구 남동 49-5번지 1층","indutype":"음료식품 - 정육점","category":"food"}]},{"lat":"37.218691882","long":"127.20124292","imageIndex":7,"items":[{"name":"주식회사 루트GLS","tel":"031-337-1434","addr":"경기도 용인시 처인구 남동 448-1번지","indutype":"음료식품 - 기타음료식품","category":"food"}]},{"lat":"37.221604615","long":"127.18865394","imageIndex":7,"items":[{"name":"커피매니아","tel":"070-7556-0966","addr":"경기도 용인시 처인구 남동 555번지 명지대학교","indutype":"음료식품 - 기타음료식품","category":"food"},{"name":"파리바게뜨(용인명지대점)","tel":"031-338-8318","addr":"경기도 용인시 처인구 남동 555번지 명지대학교 4층 창조예술관동","indutype":"음료식품 - 제과점","category":"food"}]},{"lat":"37.229166752","long":"127.20895527","imageIndex":7,"items":[{"name":"태성고매점","tel":"031-271-4293","addr":"경기도 용인시 처인구 남동 28번지 1층","indutype":"음료식품 - 기타음료식품","category":"food"}]},{"lat":"37.219382555","long":"127.21349169","imageIndex":7,"items":[{"name":"하나애 매점","tel":"070-7704-1004","addr":"경기도 용인시 처인구 남동 306번지","indutype":"음료식품 - 기타음료식품","category":"food"}]},{"lat":"37.228075328","long":"127.20962838","imageIndex":7,"items":[{"name":"헬스앤케어(Health&Care)용인티엠에스(TMS)","tel":"031-334-0403","addr":"경기도 용인시 처인구 남동 684번지 구미마을삼라마이다스빌 상가동 103호","indutype":"음료식품 - 기타음료식품","category":"food"}]},{"lat":"37.224526985","long":"127.18081891","imageIndex":7,"items":[{"name":"힐하우스매점","tel":"031-997-9641","addr":"경기도 용인시 처인구 남동 584-2번지 C동 B01호","indutype":"음료식품 - 기타음료식품","category":"food"}]}]