[{"lat":"37.802901513","long":"127.17332911","imageIndex":17,"items":[{"name":"DS무역","tel":"031-541-1653","addr":"경기도 포천시 소흘읍 고모리 98-1","indutype":"기타 - 기계공구","category":"other"}]},{"lat":"37.804424467","long":"127.16011534","imageIndex":17,"items":[{"name":"KS 시스템하우징","tel":"031-542-1444","addr":"경기도 포천시 소흘읍 고모리 583-2번지","indutype":"건축자재 - 기타건축자재","category":"other"}]},{"lat":"37.803121163","long":"127.1645069","imageIndex":17,"items":[{"name":"OK동광장갑","tel":"031-533-1588","addr":"경기도 포천시 소흘읍 고모리 620-4번지","indutype":"신변잡화 - 기타잡화","category":"other"}]},{"lat":"37.808067478","long":"127.16441548","imageIndex":17,"items":[{"name":"Ready or Not(레디오어낫)","tel":"031-543-7651","addr":"경기도 포천시 소흘읍 고모리 539-4번지","indutype":"가구 - 일반가구","category":"other"}]},{"lat":"37.804976856","long":"127.16469263","imageIndex":17,"items":[{"name":"감성가구클림트","tel":"031-543-1785","addr":"경기도 포천시 소흘읍 고모리 549-1번지","indutype":"가구 - 일반가구","category":"other"}]},{"lat":"37.803401791","long":"127.16353099","imageIndex":17,"items":[{"name":"갑산아레나","tel":"031-542-5156","addr":"경기도 포천시 소흘읍 고모리 609-2번지","indutype":"서적문구 - 완구점","category":"other"}]},{"lat":"37.79437183","long":"127.16533935","imageIndex":17,"items":[{"name":"고모리 happiness (행운)","tel":"031-543-1011","addr":"경기도 포천시 소흘읍 고모리 225-5번지","indutype":"유통업 영리 - 편 의 점","category":"other"},{"name":"고모리happiness(행운)","tel":"031-543-1011","addr":"경기도 포천시 소흘읍 고모리 225-5번지","indutype":"유통업 영리 - 편 의 점","category":"other"}]},{"lat":"37.811926648","long":"127.16211858","imageIndex":17,"items":[{"name":"광명시스템","tel":"","addr":"경기도 포천시 소흘읍 고모리 504-4번지","indutype":"용역 서비스 - 기타용역서비스","category":"other"},{"name":"아주전기","tel":"031-542-4411","addr":"경기도 포천시 소흘읍 고모리 504-4번지","indutype":"용역 서비스 - 기타용역서비스","category":"other"}]},{"lat":"37.794122802","long":"127.15619927","imageIndex":17,"items":[{"name":"광원조구","tel":"031-866-7777","addr":"경기도 포천시 소흘읍 고모리 743번지 가동","indutype":"레져용품 - 스포츠·레져용품","category":"other"}]},{"lat":"37.809871747","long":"127.1626706","imageIndex":17,"items":[{"name":"국제전산폼기계(주)","tel":"031-543-9819","addr":"경기도 포천시 소흘읍 고모리 525번지","indutype":"기타 - 기계공구","category":"other"}]},{"lat":"37.807483163","long":"127.16994434","imageIndex":17,"items":[{"name":"그리심 산업","tel":"031-536-0237","addr":"경기도 포천시 소흘읍 고모리 370","indutype":"건축자재 - 기타건축자재","category":"other"}]},{"lat":"37.814037217","long":"127.16036285","imageIndex":17,"items":[{"name":"금화기계","tel":"031-543-7732","addr":"경기도 포천시 소흘읍 고모리 502-2번지","indutype":"기타 - 기계공구","category":"other"}]},{"lat":"37.794398137","long":"127.16586167","imageIndex":17,"items":[{"name":"꽃과다육","tel":"","addr":"경기도 포천시 소흘읍 고모리 222-4번지","indutype":"도매 - 꽃,생화","category":"other"},{"name":"꽃과다육","tel":"070-1111-1111","addr":"경기도 포천시 소흘읍 고모리 222-4번지","indutype":"문화.취미 - 화원","category":"other"}]},{"lat":"37.787650844","long":"127.16527923","imageIndex":17,"items":[{"name":"나목","tel":"031-542-0879","addr":"경기도 포천시 소흘읍 고모리 144-3번지","indutype":"가구 - 일반가구","category":"other"}]},{"lat":"37.80400581","long":"127.16324842","imageIndex":17,"items":[{"name":"내추럴라이즈(Naturalise)","tel":"031-544-0182","addr":"경기도 포천시 소흘읍 고모리 612번지 2층 나호","indutype":"건축자재 - 조명기구","category":"other"}]},{"lat":"37.7888693","long":"127.16369252","imageIndex":17,"items":[{"name":"늘샘전문요양원","tel":"031-541-9119","addr":"경기도 포천시 소흘읍 고모리 736번지","indutype":"기타의료기관 - 기타의료기관 및 기타","category":"other"}]},{"lat":"37.809951999","long":"127.16328399","imageIndex":17,"items":[{"name":"다우테크","tel":"031-542-7036","addr":"경기도 포천시 소흘읍 고모리 534-1번지","indutype":"기타 - 기계공구","category":"other"}]},{"lat":"37.805760812","long":"127.15789254","imageIndex":17,"items":[{"name":"다은 목공방","tel":"","addr":"경기도 포천시 소흘읍 고모리 783번지","indutype":"가구 - 기타가구","category":"other"}]},{"lat":"37.807873035","long":"127.16819646","imageIndex":17,"items":[{"name":"대성기계","tel":"031-542-7432","addr":"경기도 포천시 소흘읍 고모리 373-2","indutype":"기타 - 기계공구","category":"other"}]},{"lat":"37.8137032","long":"127.16086183","imageIndex":17,"items":[{"name":"대영섬유","tel":"031-543-4492","addr":"경기도 포천시 소흘읍 고모리 501번지","indutype":"회원제형태 - 기타4","category":"other"},{"name":"컴닥터","tel":"070-4276-0151","addr":"경기도 포천시 소흘읍 고모리 501번지 1층","indutype":"수리서비스 - 사무·통신기기수리","category":"other"}]},{"lat":"37.80295018","long":"127.17080845","imageIndex":17,"items":[{"name":"대한불교 총화종","tel":"031-542-1312","addr":"경기도 포천시 소흘읍 고모리 321번지","indutype":"기타 - 비영리/대상","category":"other"}]},{"lat":"37.787264234","long":"127.16469941","imageIndex":17,"items":[{"name":"디자인몬스터","tel":"031-875-7272","addr":"경기도 포천시 소흘읍 고모리 733-1번지 1동","indutype":"용역 서비스 - 사무서비스","category":"other"}]},{"lat":"37.811864302","long":"127.1615847","imageIndex":17,"items":[{"name":"디테일","tel":"031-543-7050","addr":"경기도 포천시 소흘읍 고모리 504-23번지","indutype":"가구 - 일반가구","category":"other"}]},{"lat":"37.801954908","long":"127.16742251","imageIndex":17,"items":[{"name":"라이트 쏠라","tel":"","addr":"경기도 포천시 소흘읍 고모리 305-5번지 1층","indutype":"용역 서비스 - 기타용역서비스","category":"other"},{"name":"아트팩토리","tel":"02-400-9105","addr":"경기도 포천시 소흘읍 고모리 305-5번지 1층","indutype":"서적문구 - 출판 및 인쇄물","category":"other"}]},{"lat":"37.811753756","long":"127.16986311","imageIndex":17,"items":[{"name":"룩스스마트(LOOKSSMART)","tel":"070-8683-7974","addr":"경기도 포천시 소흘읍 고모리 858번지 가동","indutype":"사무통신 - 기타 사무용품","category":"other"},{"name":"온더탑(ON THE TOP)","tel":"070-7835-3076","addr":"경기도 포천시 소흘읍 고모리 858번지","indutype":"건축자재 - 조명기구","category":"other"},{"name":"카운트딜","tel":"070-4226-0730","addr":"경기도 포천시 소흘읍 고모리 858번지","indutype":"기타 - 기계공구","category":"other"}]},{"lat":"37.81128638","long":"127.16256009","imageIndex":17,"items":[{"name":"미래광고","tel":"031-542-7414","addr":"경기도 포천시 소흘읍 고모리 517번지","indutype":"용역 서비스 - 종합용역","category":"other"}]},{"lat":"37.812448487","long":"127.16264209","imageIndex":17,"items":[{"name":"미보라","tel":"031-543-7114","addr":"경기도 포천시 소흘읍 고모리 493번지 (497-5나동)","indutype":"가구 - 일반가구","category":"other"}]},{"lat":"37.809644857","long":"127.16388519","imageIndex":17,"items":[{"name":"부원산업","tel":"031-542-2400","addr":"경기도 포천시 소흘읍 고모리 534-5번지","indutype":"신변잡화 - 가방","category":"other"}]},{"lat":"37.812395598","long":"127.1617789","imageIndex":17,"items":[{"name":"삼정비닐포장","tel":"031-542-6251","addr":"경기도 포천시 소흘읍 고모리 504-35번지","indutype":"유통업 영리 - 기타유통업","category":"other"}]},{"lat":"37.791200958","long":"127.16500317","imageIndex":17,"items":[{"name":"생활의 향기","tel":"544-7086","addr":"경기도 포천시 소흘읍 고모리 713-4번지","indutype":"도소매 - 생활","category":"other"}]},{"lat":"37.795812242","long":"127.16613727","imageIndex":17,"items":[{"name":"석초당","tel":"031-544-9926","addr":"경기도 포천시 소흘읍 고모리 231-3번지","indutype":"문화.취미 - 골동품점","category":"other"}]},{"lat":"37.801120758","long":"127.16472963","imageIndex":17,"items":[{"name":"심플디(Simple D)","tel":"070-8807-9779","addr":"경기도 포천시 소흘읍 고모리 626번지","indutype":"건축자재 - 인테리어전문","category":"other"}]},{"lat":"37.795452163","long":"127.16592076","imageIndex":17,"items":[{"name":"씨유포천고모리저수지점","tel":"031-531-5745","addr":"경기도 포천시 소흘읍 고모리 228-1번지","indutype":"유통업 영리 - 편 의 점","category":"other"}]},{"lat":"37.808706305","long":"127.16503008","imageIndex":17,"items":[{"name":"씨유포천미르점","tel":"031-542-0626","addr":"경기도 포천시 소흘읍 고모리 380-1번지","indutype":"유통업 영리 - 편 의 점","category":"other"}]},{"lat":"37.800924228","long":"127.16350292","imageIndex":17,"items":[{"name":"알씨마을","tel":"031-544-3858","addr":"경기도 포천시 소흘읍 고모리 629-2번지","indutype":"서적문구 - 완구점","category":"other"}]},{"lat":"37.805454103","long":"127.1713024","imageIndex":17,"items":[{"name":"알천자원","tel":"031-1111-1111","addr":"경기도 포천시 소흘읍 고모리 65-1번지","indutype":"전기제품 - 냉열기기","category":"other"}]},{"lat":"37.787623362","long":"127.16560839","imageIndex":17,"items":[{"name":"앨블리","tel":"031-541-5887","addr":"경기도 포천시 소흘읍 고모리 144-26번지","indutype":"회원제형태 - 기타4","category":"other"}]},{"lat":"37.800643663","long":"127.15772289","imageIndex":17,"items":[{"name":"에이원 우레탄","tel":"031-528-6263","addr":"경기도 포천시 소흘읍 고모리 767-48번지","indutype":"용역 서비스 - 기타용역서비스","category":"other"}]},{"lat":"37.796339046","long":"127.16953322","imageIndex":17,"items":[{"name":"엘림 요양원","tel":"544-1143","addr":"경기도 포천시 소흘읍 고모리 262-7번지","indutype":"서비스 - 요양원","category":"other"}]},{"lat":"37.807068182","long":"127.17032949","imageIndex":17,"items":[{"name":"영풍상사","tel":"031-591-7103","addr":"경기도 포천시 소흘읍 고모리 364-1번지","indutype":"직물 - 옷감·직물","category":"other"}]},{"lat":"37.807781561","long":"127.1626661","imageIndex":17,"items":[{"name":"예가디자인","tel":"031-541-1274","addr":"경기도 포천시 소흘읍 고모리 565번지","indutype":"가구 - 일반가구","category":"other"}]},{"lat":"37.796117396","long":"127.16697812","imageIndex":17,"items":[{"name":"옛뜰애관광농원","tel":"","addr":"경기도 포천시 소흘읍 고모리 268-1번지","indutype":"서비스 - 관광농원","category":"other"}]},{"lat":"37.81378271","long":"127.16203171","imageIndex":17,"items":[{"name":"우리cs니트","tel":"031-541-2728","addr":"경기도 포천시 소흘읍 고모리 496-7번지 가동","indutype":"직물 - 옷감·직물","category":"other"}]},{"lat":"37.810789271","long":"127.16372869","imageIndex":17,"items":[{"name":"우진전기조명","tel":"031-541-5580","addr":"경기도 포천시 소흘읍 고모리 523-1번지","indutype":"전기제품 - 기타전기제품","category":"other"},{"name":"우진전기조명","tel":"541-5580","addr":"경기도 포천시 소흘읍 고모리 523-1번지","indutype":"도소매 - 조명기구","category":"other"}]},{"lat":"37.810091077","long":"127.16036583","imageIndex":17,"items":[{"name":"주식회사 리커버리","tel":"041-577-0844","addr":"경기도 포천시 소흘읍 고모리 507-3번지","indutype":"기타 - 기계공구","category":"other"}]},{"lat":"37.810590846","long":"127.16388724","imageIndex":17,"items":[{"name":"주식회사 세인","tel":"031-575-0999","addr":"경기도 포천시 소흘읍 고모리 523-5번지","indutype":"건축자재 - 목재·석재·철물","category":"other"}]},{"lat":"37.806949505","long":"127.17141935","imageIndex":17,"items":[{"name":"주식회사 오일청","tel":"031-541-5159","addr":"경기도 포천시 소흘읍 고모리 56번지","indutype":"기타 - 기계공구","category":"other"}]},{"lat":"37.810262056","long":"127.16711162","imageIndex":17,"items":[{"name":"주식회사 한성글로벌","tel":"031-544-1980","addr":"경기도 포천시 소흘읍 고모리 386번지 1층","indutype":"서적문구 - 문구용품","category":"other"}]},{"lat":"37.801955018","long":"127.16075732","imageIndex":17,"items":[{"name":"주식회사그린그린","tel":"031-544-3752","addr":"경기도 포천시 소흘읍 고모리 598번지","indutype":"유통업 영리 - 기타유통업","category":"other"}]},{"lat":"37.804395238","long":"127.16830226","imageIndex":17,"items":[{"name":"주식회사혜정퓨니스","tel":"031-541-0791","addr":"경기도 포천시 소흘읍 고모리 330","indutype":"용역 서비스 - 가례서비스업","category":"other"}]},{"lat":"37.80828476","long":"127.17011648","imageIndex":17,"items":[{"name":"지-테크(G-TECH Ltd.)","tel":"031-544-6222","addr":"경기도 포천시 소흘읍 고모리 398-4번지","indutype":"건축자재 - 기타건축자재","category":"other"}]},{"lat":"37.805344868","long":"127.17208565","imageIndex":17,"items":[{"name":"진성수지","tel":"","addr":"경기도 포천시 소흘읍 고모리 63번지","indutype":"유통업 영리 - 기타유통업","category":"other"}]},{"lat":"37.794343766","long":"127.16608862","imageIndex":17,"items":[{"name":"천연염색.수.수작","tel":"","addr":"경기도 포천시 소흘읍 고모리 222-1번지","indutype":"문화.취미 - 문화취미기타","category":"other"}]},{"lat":"37.812864531","long":"127.16145057","imageIndex":17,"items":[{"name":"청운상사","tel":"031-541-4763","addr":"경기도 포천시 소흘읍 고모리 504-7번지","indutype":"의류 - 단체복","category":"other"}]},{"lat":"37.803589965","long":"127.16428082","imageIndex":17,"items":[{"name":"큐마트","tel":"541-7703","addr":"경기도 포천시 소흘읍 고모리 619-1","indutype":"소매업 - 잡화","category":"other"}]},{"lat":"37.811094822","long":"127.17694781","imageIndex":17,"items":[{"name":"크린앤화이트","tel":"031-541-5957","addr":"경기도 포천시 소흘읍 고모리 1-2번지","indutype":"수리서비스 - 세탁소","category":"other"}]},{"lat":"37.806039943","long":"127.17114475","imageIndex":17,"items":[{"name":"태극정밀","tel":"031-541-5660","addr":"경기도 포천시 소흘읍 고모리 59번지","indutype":"기타 - 기계공구","category":"other"}]},{"lat":"37.807651361","long":"127.17203414","imageIndex":17,"items":[{"name":"태성전장","tel":"031-543-9370","addr":"경기도 포천시 소흘읍 고모리 54-5번지","indutype":"전기제품 - 기타전기제품","category":"other"}]},{"lat":"37.78990341","long":"127.16513657","imageIndex":17,"items":[{"name":"토우","tel":"031-542-6623","addr":"경기도 포천시 소흘읍 고모리 722-2번지","indutype":"문화.취미 - 민예·공예품","category":"other"}]},{"lat":"37.810447671","long":"127.16317151","imageIndex":17,"items":[{"name":"하경뷔페","tel":"543-2999","addr":"경기도 포천시 소흘읍 고모리 524-12번지","indutype":"도소매 - 한식","category":"other"}]},{"lat":"37.814448176","long":"127.16294167","imageIndex":17,"items":[{"name":"한신공압기계","tel":"031-542-5345","addr":"경기도 포천시 소흘읍 고모리 495-8번지","indutype":"기타 - 기계공구","category":"other"}]},{"lat":"37.803508647","long":"127.16445097","imageIndex":17,"items":[{"name":"호원창호","tel":"031-544-2431","addr":"경기도 포천시 소흘읍 고모리 619-5번지","indutype":"건축자재 - 기타건축자재","category":"other"}]}]