[{"lat":"37.511964234","long":"127.27302418","imageIndex":4,"items":[{"name":"(주)기와집","tel":"031-793-0838","addr":"경기도 하남시 배알미동 1번지","indutype":"일반휴게음식 - 일반한식","category":"restaurant"}]},{"lat":"37.537680558","long":"127.25152893","imageIndex":4,"items":[{"name":"200개의스푼","tel":"031-796-0090","addr":"경기도 하남시 배알미동 159-18번지 1층","indutype":"일반휴게음식 - 일반한식","category":"restaurant"}]},{"lat":"37.527492223","long":"127.27128141","imageIndex":4,"items":[{"name":"강변집","tel":"031-793-1135","addr":"경기도 하남시 배알미동 125-2번지 1층","indutype":"일반휴게음식 - 일반한식","category":"restaurant"}]},{"lat":"37.537932904","long":"127.25149583","imageIndex":4,"items":[{"name":"고가네 민물매운탕","tel":"031-794-7171","addr":"경기도 하남시 배알미동 159-10번지 2층","indutype":"일반휴게음식 - 일반한식","category":"restaurant"},{"name":"고가네곤드레","tel":"031-794-7171","addr":"경기도 하남시 배알미동 159-10번지 2층","indutype":"일반휴게음식 - 일반한식","category":"restaurant"}]},{"lat":"37.525464601","long":"127.27539194","imageIndex":4,"items":[{"name":"구림장어","tel":"031-793-9909","addr":"경기도 하남시 배알미동 51-4번지","indutype":"일반휴게음식 - 일반한식","category":"restaurant"}]},{"lat":"37.513185677","long":"127.2747252","imageIndex":4,"items":[{"name":"금단가든","tel":"031-793-5262","addr":"경기도 하남시 배알미동 2-1번지","indutype":"일반휴게음식 - 일반한식","category":"restaurant"}]},{"lat":"37.527293133","long":"127.27166533","imageIndex":4,"items":[{"name":"느티나무집","tel":"031-794-1320","addr":"경기도 하남시 배알미동 116-1번지","indutype":"일반휴게음식 - 일반한식","category":"restaurant"}]},{"lat":"37.536766625","long":"127.25339276","imageIndex":4,"items":[{"name":"대식이네","tel":"031-793-5697","addr":"경기도 하남시 배알미동 158-2번지","indutype":"일반휴게음식 - 일반한식","category":"restaurant"}]},{"lat":"37.526570002","long":"127.2726922","imageIndex":4,"items":[{"name":"버드나무집","tel":"031-794-2193","addr":"경기도 하남시 배알미동 63-6번지 1,2층","indutype":"일반휴게음식 - 일반한식","category":"restaurant"}]},{"lat":"37.540905421","long":"127.24314395","imageIndex":4,"items":[{"name":"베네치아","tel":"031-792-0079","addr":"경기도 하남시 배알미동 172번지","indutype":"일반휴게음식 - 서양음식","category":"restaurant"}]},{"lat":"37.52709592","long":"127.27122343","imageIndex":4,"items":[{"name":"장다리한우마당","tel":"031-794-3023","addr":"경기도 하남시 배알미동 126-2번지","indutype":"일반휴게음식 - 일반한식","category":"restaurant"}]},{"lat":"37.526714727","long":"127.27244384","imageIndex":4,"items":[{"name":"할머니팔당횟집","tel":"031-793-5232","addr":"경기도 하남시 배알미동 63-1번지","indutype":"일반휴게음식 - 일반한식","category":"restaurant"}]},{"lat":"37.526714727","long":"127.27244384","imageIndex":17,"items":[{"name":"미카상점","tel":"031-791-5988","addr":"경기도 하남시 배알미동 63-1번지","indutype":"신변잡화 - 기타잡화","category":"other"}]},{"lat":"37.536377425","long":"127.25422871","imageIndex":7,"items":[{"name":"송이표고버섯농장","tel":"031-792-6333","addr":"경기도 하남시 배알미동 157번지","indutype":"음료식품 - 농·축·수산품","category":"food"}]}]