[{"lat":"37.489621222","long":"126.78596408","imageIndex":16,"items":[{"name":"153태권도아카데미","tel":"032-344-2009","addr":"경기도 부천시 심곡동 181-12번지 3층","indutype":"학원 - 예·체능계학원","category":"study"}]},{"lat":"37.488599519","long":"126.78402221","imageIndex":16,"items":[{"name":"40(포티)뮤직아카데미실용음악학원","tel":"","addr":"경기도 부천시 심곡동 161-9번지 6층","indutype":"학원 - 예·체능계학원","category":"study"}]},{"lat":"37.485789501","long":"126.78460705","imageIndex":16,"items":[{"name":"APPLE(애플)컴퓨터디자인학원","tel":"032-661-1003","addr":"경기도 부천시 심곡동 169-8번지 2층","indutype":"회원제형태 - 학원","category":"study"},{"name":"연세간호학원","tel":"032-652-2121","addr":"경기도 부천시 심곡동 169-8번지 3층","indutype":"회원제형태 - 학원","category":"study"}]},{"lat":"37.484203384","long":"126.78440815","imageIndex":16,"items":[{"name":"BBS(비비에스)미용예술미용학원","tel":"032-651-3243","addr":"경기도 부천시 심곡동 172-19번지 예서빌딩 4층","indutype":"학원 - 예·체능계학원","category":"study"}]},{"lat":"37.490819952","long":"126.77657547","imageIndex":16,"items":[{"name":"Gets(겟츠)정한어학원","tel":"032-667-8505","addr":"경기도 부천시 심곡동 327-6번지 연빌딩 2층","indutype":"회원제형태 - 학원","category":"study"},{"name":"주시엘음악교습소","tel":"032-1899-3272","addr":"경기도 부천시 심곡동 327-6번지 1층 5호,6호","indutype":"학원 - 예·체능계학원","category":"study"}]},{"lat":"37.486427193","long":"126.78351975","imageIndex":16,"items":[{"name":"J.S복싱휘트니스센터","tel":"032-666-3287","addr":"경기도 부천시 심곡동 168-3번지 부흥빌딩 4층","indutype":"회원제형태 - 학원","category":"study"},{"name":"부천간호학원","tel":"032-666-0401","addr":"경기도 부천시 심곡동 168-3번지 부흥빌딩 2층","indutype":"학원 - 기능학원","category":"study"}]},{"lat":"37.489871208","long":"126.78471955","imageIndex":16,"items":[{"name":"가림독서실","tel":"032-651-1122","addr":"경기도 부천시 심곡동 157-4번지","indutype":"학원 - 독서실","category":"study"}]},{"lat":"37.484595278","long":"126.78196481","imageIndex":16,"items":[{"name":"가바어학원","tel":"032-666-0515","addr":"경기도 부천시 심곡동 173-1번지 3층 일부","indutype":"학원 - 외국어학원","category":"study"},{"name":"수능작전소보습학원","tel":"032-344-9880","addr":"경기도 부천시 심곡동 173-1번지 2층 204호","indutype":"학원 - 보습학원","category":"study"}]},{"lat":"37.489427505","long":"126.78352228","imageIndex":16,"items":[{"name":"건택사단부천캠프연기연극학원","tel":"032-655-4104","addr":"경기도 부천시 심곡동 355-8번지 선영프라자 2층","indutype":"회원제형태 - 학원","category":"study"},{"name":"아뜰리에 뷰티 아카데미 미용학원","tel":"032-662-2079","addr":"경기도 부천시 심곡동 355-8번지 (6층,7층일부)","indutype":"회원제형태 - 학원","category":"study"},{"name":"아뜰리에뷰티아카데미 미용학원","tel":"032-662-2079","addr":"경기도 부천시 심곡동 355-8번지 6층, 7층 일부","indutype":"학원 - 기능학원","category":"study"}]},{"lat":"37.48834242","long":"126.78629568","imageIndex":16,"items":[{"name":"고려대태권스쿨","tel":"032-668-3249","addr":"경기도 부천시 심곡동 153-10번지 호정빌딩 2층","indutype":"학원 - 예·체능계학원","category":"study"},{"name":"닉고등입시학원","tel":"070-7767-0511","addr":"경기도 부천시 심곡동 153-10번지 호정빌딩 3층","indutype":"학원 - 보습학원","category":"study"},{"name":"랍슨키즈영어보습학원","tel":"032-666-0511","addr":"경기도 부천시 심곡동 153-10번지 호정빌딩 1층","indutype":"학원 - 보습학원","category":"study"}]},{"lat":"37.485402622","long":"126.78007424","imageIndex":16,"items":[{"name":"고수의운전면허 부천점","tel":"032-613-1119","addr":"경기도 부천시 심곡동 385번지 심곡동피노키오상가 5층 510호","indutype":"학원 - 기능학원","category":"study"}]},{"lat":"37.48931543","long":"126.7719893","imageIndex":16,"items":[{"name":"관인알찬미술음악학원","tel":"032-612-1381","addr":"경기도 부천시 심곡동 335-20번지 2층","indutype":"학원 - 기타 교육기관","category":"study"}]},{"lat":"37.490540425","long":"126.78121233","imageIndex":16,"items":[{"name":"그린파크고시텔","tel":"032-612-7256","addr":"경기도 부천시 심곡동 372-4번지","indutype":"학원 - 독서실","category":"study"}]},{"lat":"37.485231952","long":"126.78518531","imageIndex":16,"items":[{"name":"글로벌외국어학원","tel":"032-661-6969","addr":"경기도 부천시 심곡동 145-11번지 정주빌딩 4층","indutype":"학원 - 외국어학원","category":"study"},{"name":"와이제이검정고시학원","tel":"032-667-0001","addr":"경기도 부천시 심곡동 145-11번지 정주빌딩 5층","indutype":"회원제형태 - 학원","category":"study"}]},{"lat":"37.489841645","long":"126.78335146","imageIndex":16,"items":[{"name":"김정안한복.양재학원","tel":"032-666-8941","addr":"경기도 부천시 심곡동 355-2번지 한영빌딩 3층","indutype":"학원 - 기능학원","category":"study"}]},{"lat":"37.491348775","long":"126.77513783","imageIndex":16,"items":[{"name":"꿈꾸는수학교습소","tel":"032-1899-3272","addr":"경기도 부천시 심곡동 304-17번지 2층 우측","indutype":"학원 - 보습학원","category":"study"}]},{"lat":"37.484318816","long":"126.78349199","imageIndex":16,"items":[{"name":"나레스트서연뷰티아카데미","tel":"032-613-5055","addr":"경기도 부천시 심곡동 172-15번지 6층","indutype":"학원 - 기능학원","category":"study"}]},{"lat":"37.486849114","long":"126.78757766","imageIndex":16,"items":[{"name":"농구교실","tel":"032-466-5969","addr":"경기도 부천시 심곡동 135-6번지 쁘띠오타운 3층 302호","indutype":"회원제형태 - 학원","category":"study"}]},{"lat":"37.488039284","long":"126.78804913","imageIndex":16,"items":[{"name":"뉴챌린지미술학원","tel":"032-655-1490","addr":"경기도 부천시 심곡동 188-5번지 2층","indutype":"학원 - 예·체능계학원","category":"study"},{"name":"뉴챌린지보습학원","tel":"032-665-3596","addr":"경기도 부천시 심곡동 188-5번지 3층 3층및4층","indutype":"학원 - 보습학원","category":"study"}]},{"lat":"37.485291144","long":"126.78798916","imageIndex":16,"items":[{"name":"대선","tel":"032-653-1203","addr":"경기도 부천시 심곡동 130-6번지 화신오피스텔","indutype":"학원 - 독서실","category":"study"},{"name":"싱글하우스","tel":"032-611-5300","addr":"경기도 부천시 심곡동 130-6번지 화신오피스텔 1501호","indutype":"학원 - 독서실","category":"study"}]},{"lat":"37.491843285","long":"126.78412583","imageIndex":16,"items":[{"name":"대성간호학원","tel":"032-611-5030","addr":"경기도 부천시 심곡동 104-3번지 4층","indutype":"학원 - 기능학원","category":"study"},{"name":"제이비엠홀딩스대성간호학원","tel":"032-611-5030","addr":"경기도 부천시 심곡동 104-3번지 4층","indutype":"회원제형태 - 학원","category":"study"},{"name":"주식회사 제이비엠홀딩스","tel":"032-611-5030","addr":"경기도 부천시 심곡동 104-3번지 2층","indutype":"회원제형태 - 학원","category":"study"}]},{"lat":"37.488120229","long":"126.78796975","imageIndex":16,"items":[{"name":"대웅태권도체육관","tel":"032-656-0075","addr":"경기도 부천시 심곡동 188-4번지 2층","indutype":"학원 - 예·체능계학원","category":"study"}]},{"lat":"37.486428325","long":"126.78413031","imageIndex":16,"items":[{"name":"더 보컬리스트 아카데미","tel":"","addr":"경기도 부천시 심곡동 167-3번지 2층","indutype":"학원 - 기타 교육기관","category":"study"}]},{"lat":"37.486457737","long":"126.78057991","imageIndex":16,"items":[{"name":"더그래듀","tel":"","addr":"경기도 부천시 심곡동 382-6번지 가온팰리스 401호","indutype":"학원 - 외국어학원","category":"study"}]},{"lat":"37.486539655","long":"126.78102063","imageIndex":16,"items":[{"name":"더샵고시텔","tel":"","addr":"경기도 부천시 심곡동 381-1번지 외1필지3,4층","indutype":"학원 - 독서실","category":"study"}]},{"lat":"37.487424988","long":"126.77283183","imageIndex":16,"items":[{"name":"동양학아카데미 역명원","tel":"032-613-4027","addr":"경기도 부천시 심곡동 357-8번지 3층","indutype":"학원 - 기타 교육기관","category":"study"}]},{"lat":"37.487175789","long":"126.78393591","imageIndex":16,"items":[{"name":"둘리하우스","tel":"02-611-1515","addr":"경기도 부천시 심곡동 164-8번지","indutype":"학원 - 독서실","category":"study"}]},{"lat":"37.490125129","long":"126.77602351","imageIndex":16,"items":[{"name":"드림탑수학교습소","tel":"032-221-0299","addr":"경기도 부천시 심곡동 328-22번지 1층","indutype":"학원 - 보습학원","category":"study"}]},{"lat":"37.4853980874","long":"126.7824599399","imageIndex":16,"items":[{"name":"디앤디직업전문학교","tel":"032-655-3533","addr":"경기도 부천시 심곡동 175-6번지 젬존프라자 17층 디앤디컴퓨터학원","indutype":"회원제형태 - 학원","category":"study"}]},{"lat":"37.487043018","long":"126.78038596","imageIndex":16,"items":[{"name":"로뎀고시원","tel":"032-666-2040","addr":"경기도 부천시 심곡동 380-21번지 로뎀빌딩 5,6층","indutype":"학원 - 독서실","category":"study"}]},{"lat":"37.488877167","long":"126.78312814","imageIndex":16,"items":[{"name":"리첸하우스 부천역점","tel":"032-661-1230","addr":"경기도 부천시 심곡동 350-1번지 2,3층","indutype":"학원 - 독서실","category":"study"}]},{"lat":"37.487708278","long":"126.77960381","imageIndex":16,"items":[{"name":"마디","tel":"031-000-0000","addr":"경기도 부천시 심곡동 405-7번지 지하","indutype":"학원 - 예·체능계학원","category":"study"}]},{"lat":"37.485041184","long":"126.78926752","imageIndex":16,"items":[{"name":"명문독서실","tel":"032-652-7091","addr":"경기도 부천시 심곡동 124-17번지 3층","indutype":"학원 - 독서실","category":"study"}]},{"lat":"37.492511461","long":"126.78007574","imageIndex":16,"items":[{"name":"무지개 공부방","tel":"","addr":"경기도 부천시 심곡동 437-3번지 무지개연립 C동 101호","indutype":"학원 - 기타 교육기관","category":"study"}]},{"lat":"37.485596368","long":"126.78249328","imageIndex":16,"items":[{"name":"미로스타뷰티아카데미미용학원","tel":"031-664-3388","addr":"경기도 부천시 심곡동 175-3번지 영진빌딩 4층","indutype":"학원 - 기능학원","category":"study"}]},{"lat":"37.486234718","long":"126.78176777","imageIndex":16,"items":[{"name":"미즈네일앤왁싱 뷰티연구소","tel":"032-666-1007","addr":"경기도 부천시 심곡동 176-7번지 하비스트모텔 3층","indutype":"학원 - 기능학원","category":"study"}]},{"lat":"37.488954594","long":"126.78602254","imageIndex":16,"items":[{"name":"배우리학원","tel":"032-653-7676","addr":"경기도 부천시 심곡동 155-17번지 동강빌딩","indutype":"학원 - 보습학원","category":"study"},{"name":"아원아트미술학원","tel":"032-223-5157","addr":"경기도 부천시 심곡동 155-17번지 동강빌딩 3층","indutype":"학원 - 예·체능계학원","category":"study"},{"name":"예가람음악학원","tel":"032-662-6025","addr":"경기도 부천시 심곡동 155-17번지 동강빌딩 4층","indutype":"학원 - 예·체능계학원","category":"study"}]},{"lat":"37.489146958","long":"126.78285598","imageIndex":16,"items":[{"name":"베리굿원룸텔","tel":"032-612-3352","addr":"경기도 부천시 심곡동 354-7번지 2,3,4층","indutype":"학원 - 독서실","category":"study"}]},{"lat":"37.485792622","long":"126.78630304","imageIndex":16,"items":[{"name":"보떼뜨미용학원","tel":"","addr":"경기도 부천시 심곡동 146-1번지 태정빌딩 5층","indutype":"학원 - 기능학원","category":"study"}]},{"lat":"37.49167787","long":"126.78238495","imageIndex":16,"items":[{"name":"부천검도관","tel":"032-654-1010","addr":"경기도 부천시 심곡동 368-19번지 3층","indutype":"학원 - 예·체능계학원","category":"study"}]},{"lat":"37.488120652","long":"126.78329996","imageIndex":16,"items":[{"name":"부천경희실용음악학원","tel":"032-611-9191","addr":"경기도 부천시 심곡동 349-6번지 일부 3층","indutype":"학원 - 예·체능계학원","category":"study"}]},{"lat":"37.488039248","long":"126.7831306","imageIndex":16,"items":[{"name":"부천박문각고시학원","tel":"032-662-5588","addr":"경기도 부천시 심곡동 349-10번지 5층 일부","indutype":"학원 - 기능학원","category":"study"}]},{"lat":"37.492649326","long":"126.77210342","imageIndex":16,"items":[{"name":"부천부곡초셀파우등생교실","tel":"070-7358-8785","addr":"경기도 부천시 심곡동 291-2번지 복사골맨션 나동 301호","indutype":"학원 - 기타 교육기관","category":"study"}]},{"lat":"37.490292978","long":"126.78380244","imageIndex":16,"items":[{"name":"부천애견미용학원","tel":"032-655-7077","addr":"경기도 부천시 심곡동 367-32번지 민연빌딩 3층","indutype":"학원 - 기능학원","category":"study"}]},{"lat":"37.491347595","long":"126.78404812","imageIndex":16,"items":[{"name":"부천용인대유도체육관","tel":"032-665-8270","addr":"경기도 부천시 심곡동 106-5번지 세상빌딩 지층","indutype":"학원 - 예·체능계학원","category":"study"}]},{"lat":"37.487292456","long":"126.78368682","imageIndex":16,"items":[{"name":"부천인테리어기술학원","tel":"032-668-7735","addr":"경기도 부천시 심곡동 164-2번지 301호","indutype":"학원 - 기능학원","category":"study"}]},{"lat":"37.486954107","long":"126.77627054","imageIndex":16,"items":[{"name":"부천조리제과제빵학원","tel":"032-611-1100","addr":"경기도 부천시 심곡동 351-25번지 4층,5층","indutype":"회원제형태 - 학원","category":"study"}]},{"lat":"37.491734915","long":"126.78399045","imageIndex":16,"items":[{"name":"부천중부요양보호사교육원","tel":"032-667-4340","addr":"경기도 부천시 심곡동 105-2번지 보림빌딩 4층","indutype":"회원제형태 - 학원","category":"study"}]},{"lat":"37.487703588","long":"126.78677241","imageIndex":16,"items":[{"name":"부천지역사회교육협의회","tel":"032-614-8366","addr":"경기도 부천시 심곡동 151-20 2층","indutype":"학원 - 기타 교육기관","category":"study"}]},{"lat":"37.495571506","long":"126.78310853","imageIndex":16,"items":[{"name":"불도저국어교습소","tel":"032-664-0509","addr":"경기도 부천시 심곡동 92-12번지 1층","indutype":"학원 - 보습학원","category":"study"},{"name":"비디지(BDG)영어교습소","tel":"032-664-0509","addr":"경기도 부천시 심곡동 92-12번지 13,1층","indutype":"학원 - 외국어학원","category":"study"},{"name":"용인대대동태권도","tel":"070-7371-8728","addr":"경기도 부천시 심곡동 92-12번지 3층","indutype":"학원 - 예·체능계학원","category":"study"},{"name":"피아노치는즐거움피아노교습소","tel":"032-662-8789","addr":"경기도 부천시 심곡동 92-12번지 1층","indutype":"학원 - 예·체능계학원","category":"study"}]},{"lat":"37.485655625","long":"126.78529714","imageIndex":16,"items":[{"name":"삼성리빙텔","tel":"032-2614-9425","addr":"경기도 부천시 심곡동 146-15번지 ,2-5층","indutype":"학원 - 독서실","category":"study"},{"name":"세왕빌딩","tel":"032-614-9425","addr":"경기도 부천시 심곡동 146-15번지","indutype":"학원 - 독서실","category":"study"}]},{"lat":"37.487876038","long":"126.78257704","imageIndex":16,"items":[{"name":"세븐스 크리미널 댄스 스튜디오","tel":"070-7576-1284","addr":"경기도 부천시 심곡동 192-1번지 외1필지 심곡빌딩","indutype":"학원 - 예·체능계학원","category":"study"}]},{"lat":"37.4894038","long":"126.78532019","imageIndex":16,"items":[{"name":"소리사랑음악학원","tel":"032-654-5139","addr":"경기도 부천시 심곡동 155-2번지 4층","indutype":"학원 - 예·체능계학원","category":"study"},{"name":"호크마보습학원","tel":"032-657-0056","addr":"경기도 부천시 심곡동 155-2번지 3층","indutype":"학원 - 보습학원","category":"study"}]},{"lat":"37.4912023","long":"126.77393968","imageIndex":16,"items":[{"name":"소리엘음악학원","tel":"032-666-7654","addr":"경기도 부천시 심곡동 323-13번지","indutype":"학원 - 예·체능계학원","category":"study"}]},{"lat":"37.487875932","long":"126.7874051","imageIndex":16,"items":[{"name":"소원수학교습소","tel":"031-000-0000","addr":"경기도 부천시 심곡동 133-18번지 2층","indutype":"학원 - 보습학원","category":"study"}]},{"lat":"37.485427599","long":"126.78379403","imageIndex":16,"items":[{"name":"수외국어학원","tel":"032-656-0510","addr":"경기도 부천시 심곡동 170-3번지 3층","indutype":"회원제형태 - 학원","category":"study"},{"name":"싱글하우스","tel":"031-612-1750","addr":"경기도 부천시 심곡동 170-3번지 ,4,5층","indutype":"학원 - 독서실","category":"study"},{"name":"싱글하우스","tel":"032-612-1750","addr":"경기도 부천시 심곡동 170-3번지","indutype":"학원 - 독서실","category":"study"},{"name":"아이니중국어학원","tel":"032-665-2000","addr":"경기도 부천시 심곡동 170-3번지 3층 일부","indutype":"회원제형태 - 학원","category":"study"}]},{"lat":"37.490620997","long":"126.77619162","imageIndex":16,"items":[{"name":"스마일 인성인지 원미구힐링센타","tel":"032-657-6852","addr":"경기도 부천시 심곡동 327-48번지 1층","indutype":"학원 - 기타 교육기관","category":"study"}]},{"lat":"37.48543269","long":"126.78169099","imageIndex":16,"items":[{"name":"스카이라움 승무원학원","tel":"","addr":"경기도 부천시 심곡동 175-9번지 로데오빌 602호, 603호 일부","indutype":"학원 - 기능학원","category":"study"}]},{"lat":"37.48834571","long":"126.77371095","imageIndex":16,"items":[{"name":"신나라음악학원","tel":"032-651-5146","addr":"경기도 부천시 심곡동 345-52번지","indutype":"학원 - 예·체능계학원","category":"study"}]},{"lat":"37.487542567","long":"126.78252148","imageIndex":16,"items":[{"name":"심플하우스","tel":"032-656-7942","addr":"경기도 부천시 심곡동 192-5번지 2,3,4층","indutype":"학원 - 독서실","category":"study"}]},{"lat":"37.48726425","long":"126.78305372","imageIndex":16,"items":[{"name":"아카데미외국어학원","tel":"032-439-9938","addr":"경기도 부천시 심곡동 190-10번지 계동빌딩 3층 일부","indutype":"학원 - 외국어학원","category":"study"}]},{"lat":"37.485398087","long":"126.78245994","imageIndex":16,"items":[{"name":"엔젤간호학원","tel":"032-614-7800","addr":"경기도 부천시 심곡동 175-6번지 해태쇼핑 1602호","indutype":"학원 - 기능학원","category":"study"},{"name":"품질기술교육원","tel":"032-611-1900","addr":"경기도 부천시 심곡동 175-6번지 11층 일부","indutype":"학원 - 기능학원","category":"study"}]},{"lat":"37.487344181","long":"126.78243161","imageIndex":16,"items":[{"name":"엘리트 고시원","tel":"032-111-1111","addr":"경기도 부천시 심곡동 180-1번지 ,4,5층","indutype":"학원 - 독서실","category":"study"}]},{"lat":"37.485816217","long":"126.78443737","imageIndex":16,"items":[{"name":"영원한미소&황금박쥐미술만화학원","tel":"032-666-7890","addr":"경기도 부천시 심곡동 169-10번지 5층","indutype":"학원 - 예·체능계학원","category":"study"}]},{"lat":"37.492792448","long":"126.78096821","imageIndex":16,"items":[{"name":"예손실용음악교습소","tel":"032-665-7772","addr":"경기도 부천시 심곡동 440-9번지 방주빌딩 4층","indutype":"회원제형태 - 학원","category":"study"}]},{"lat":"37.48821006","long":"126.7878225","imageIndex":16,"items":[{"name":"예은음악학원","tel":"032-656-4755","addr":"경기도 부천시 심곡동 188-3번지 3층","indutype":"학원 - 예·체능계학원","category":"study"}]},{"lat":"37.48770943","long":"126.78021438","imageIndex":16,"items":[{"name":"예일고시텔","tel":"032-614-5656","addr":"경기도 부천시 심곡동 405-18번지 외1필지 심곡동그린생활시설 301동 401호","indutype":"학원 - 기타 교육기관","category":"study"}]},{"lat":"37.492207274","long":"126.78121871","imageIndex":16,"items":[{"name":"예일미술학원","tel":"032-664-0651","addr":"경기도 부천시 심곡동 438-4번지","indutype":"회원제형태 - 학원","category":"study"}]},{"lat":"37.486677238","long":"126.7823205","imageIndex":16,"items":[{"name":"오렌지하우스","tel":"032-666-1318","addr":"경기도 부천시 심곡동 179-1번지","indutype":"학원 - 독서실","category":"study"}]},{"lat":"37.487120029","long":"126.78302022","imageIndex":16,"items":[{"name":"와세다일본어학원","tel":"032-651-1579","addr":"경기도 부천시 심곡동 190-12번지 2층","indutype":"회원제형태 - 학원","category":"study"}]},{"lat":"37.496368018","long":"126.78507383","imageIndex":16,"items":[{"name":"우리컴퓨터학원","tel":"032-665-5522","addr":"경기도 부천시 심곡동 87-11번지 3층","indutype":"회원제형태 - 학원","category":"study"}]},{"lat":"37.488349983","long":"126.78066476","imageIndex":16,"items":[{"name":"위드뮤직실용음악학원","tel":"","addr":"경기도 부천시 심곡동 377-46번지 5층","indutype":"학원 - 예·체능계학원","category":"study"}]},{"lat":"37.491039875","long":"126.78330273","imageIndex":16,"items":[{"name":"윤선생 아이지에스이(IGSE)","tel":"032-662-0579","addr":"경기도 부천시 심곡동 367-26번지 부강빌딩 4층","indutype":"학원 - 보습학원","category":"study"}]},{"lat":"37.491876218","long":"126.7729991","imageIndex":16,"items":[{"name":"이수보습학원","tel":"032-656-7421","addr":"경기도 부천시 심곡동 308-10번지 중앙리더스빌 3층","indutype":"학원 - 기타 교육기관","category":"study"}]},{"lat":"37.488043009","long":"126.78032646","imageIndex":16,"items":[{"name":"이효신란제리디자인연구소","tel":"032-662-0923","addr":"경기도 부천시 심곡동 408-25번지 3층","indutype":"회원제형태 - 학원","category":"study"}]},{"lat":"37.489592611","long":"126.78510481","imageIndex":16,"items":[{"name":"일자리포럼도은부천지부(한국청소년성장발","tel":"032-215-8999","addr":"경기도 부천시 심곡동 155-1번지","indutype":"회원제형태 - 학원","category":"study"}]},{"lat":"37.489929003","long":"126.78188126","imageIndex":16,"items":[{"name":"잼이슈","tel":"070-7366-8076","addr":"경기도 부천시 심곡동 373-16번지 우성파크빌 301호","indutype":"학원 - 기타 교육기관","category":"study"}]},{"lat":"37.493348458","long":"126.78440413","imageIndex":16,"items":[{"name":"전국녹색가게운동협의회","tel":"031-581-0321","addr":"경기도 부천시 심곡동 110-7번지 한일빌딩 3층","indutype":"학원 - 기타 교육기관","category":"study"}]},{"lat":"37.487094239","long":"126.7836874","imageIndex":16,"items":[{"name":"정상컴퓨터학원","tel":"032-612-4004","addr":"경기도 부천시 심곡동 164-3번지","indutype":"회원제형태 - 학원","category":"study"}]},{"lat":"37.497845137","long":"126.78479814","imageIndex":16,"items":[{"name":"정통아이비보습학원","tel":"032-666-7689","addr":"경기도 부천시 심곡동 82-2번지 3층","indutype":"학원 - 보습학원","category":"study"}]},{"lat":"37.495508731","long":"126.78326703","imageIndex":16,"items":[{"name":"정한리더스보습학원","tel":"032-654-8823","addr":"경기도 부천시 심곡동 92-17번지","indutype":"학원 - 보습학원","category":"study"}]},{"lat":"37.49129152","long":"126.78296277","imageIndex":16,"items":[{"name":"중앙직업전문학교","tel":"032-653-3435","addr":"경기도 부천시 심곡동 367-13번지 문화빌딩 2층","indutype":"회원제형태 - 학원","category":"study"}]},{"lat":"37.487150129","long":"126.77512796","imageIndex":16,"items":[{"name":"챌린지365","tel":"032-613-5544","addr":"경기도 부천시 심곡동 352-9번지 우성빌딩 5층 일부","indutype":"학원 - 예·체능계학원","category":"study"}]},{"lat":"37.493402119","long":"126.78418913","imageIndex":16,"items":[{"name":"청음피아노학원","tel":"032-665-3482","addr":"경기도 부천시 심곡동 110-1번지 4층","indutype":"학원 - 예·체능계학원","category":"study"}]},{"lat":"37.489066942","long":"126.78343288","imageIndex":16,"items":[{"name":"크리스챤쇼보뷰티미용학원","tel":"032-611-9999","addr":"경기도 부천시 심곡동 355-5번지 정일빌딩 2층","indutype":"회원제형태 - 학원","category":"study"}]},{"lat":"37.487397585","long":"126.78208094","imageIndex":16,"items":[{"name":"토토리빙텔","tel":"032-657-9777","addr":"경기도 부천시 심곡동 180-5번지 ,2-5층","indutype":"학원 - 독서실","category":"study"}]},{"lat":"37.484958518","long":"126.78349012","imageIndex":16,"items":[{"name":"투명통카페","tel":"070-7772-4569","addr":"경기도 부천시 심곡동 171-13번지 3층","indutype":"학원 - 기타 교육기관","category":"study"}]},{"lat":"37.48806592","long":"126.7829383","imageIndex":16,"items":[{"name":"풀잎일반문화센타","tel":"032-655-6308","addr":"경기도 부천시 심곡동 350-9번지","indutype":"학원 - 기타 교육기관","category":"study"}]},{"lat":"37.489841963","long":"126.77402298","imageIndex":16,"items":[{"name":"하나보습미술학원","tel":"032-653-8540","addr":"경기도 부천시 심곡동 334-40번지 명성빌딩 3층","indutype":"학원 - 보습학원","category":"study"},{"name":"하나태권도장","tel":"032-668-7755","addr":"경기도 부천시 심곡동 334-40번지 명성빌딩 2층 , 지하1층","indutype":"학원 - 예·체능계학원","category":"study"}]},{"lat":"37.493815232","long":"126.78346422","imageIndex":16,"items":[{"name":"한마음 요양보호사교육원","tel":"032-721-6175","addr":"경기도 부천시 심곡동 100-4번지 라이프타운 2층","indutype":"학원 - 기능학원","category":"study"}]},{"lat":"37.485014563","long":"126.78949372","imageIndex":16,"items":[{"name":"한소망교회","tel":"032-654-2920","addr":"경기도 부천시 심곡동 483-7","indutype":"회원제형태 - 학원","category":"study"}]},{"lat":"37.491677979","long":"126.7729884","imageIndex":16,"items":[{"name":"합기도체육관","tel":"032-667-9998","addr":"경기도 부천시 심곡동 308-21번지","indutype":"학원 - 예·체능계학원","category":"study"}]},{"lat":"37.484320972","long":"126.78465655","imageIndex":16,"items":[{"name":"현대리빙텔","tel":"032-612-2242","addr":"경기도 부천시 심곡동 172-1번지 ,2-4층","indutype":"학원 - 독서실","category":"study"}]},{"lat":"37.485849971","long":"126.77841083","imageIndex":16,"items":[{"name":"현풍작명문화원","tel":"032-611-6666","addr":"경기도 부천시 심곡동 396-12번지","indutype":"회원제형태 - 학원","category":"study"}]},{"lat":"37.490819366","long":"126.77627017","imageIndex":16,"items":[{"name":"화랑태권도","tel":"032-653-8350","addr":"경기도 부천시 심곡동 327번지 2층","indutype":"학원 - 예·체능계학원","category":"study"}]},{"lat":"37.487178209","long":"126.78040817","imageIndex":16,"items":[{"name":"화인리빙텔","tel":"032-665-6911","addr":"경기도 부천시 심곡동 380-15번지","indutype":"학원 - 독서실","category":"study"}]}]