[{"lat":"37.234662802","long":"127.21421032","imageIndex":13,"items":[{"name":"MP3노래연습장","tel":"031-336-2358","addr":"경기도 용인시 처인구 마평동 649-4번지","indutype":"레저업소 - 노 래 방","category":"leisure"}]},{"lat":"37.232773607","long":"127.21253728","imageIndex":13,"items":[{"name":"SBS스크린골프연습장","tel":"031-321-8666","addr":"경기도 용인시 처인구 마평동 602-41번지 2층","indutype":"레저업소 - 스크린골프","category":"leisure"}]},{"lat":"37.233408267","long":"127.22034834","imageIndex":13,"items":[{"name":"골프카페","tel":"031-335-0753","addr":"경기도 용인시 처인구 마평동 519-1번지","indutype":"레저업소 - 골프연습장","category":"leisure"}]},{"lat":"37.236074271","long":"127.21090111","imageIndex":13,"items":[{"name":"구피노래연습장","tel":"031-335-2653","addr":"경기도 용인시 처인구 마평동 732-2번지 진흥빌딩 지하1층","indutype":"레저업소 - 노 래 방","category":"leisure"}]},{"lat":"37.230771144","long":"127.21375999","imageIndex":13,"items":[{"name":"더굿피씨카페(The Good Cafe)","tel":"031-335-4196","addr":"경기도 용인시 처인구 마평동 595번지 석산빌딩 2층","indutype":"레저업소 - 기타레져업소","category":"leisure"},{"name":"우리노래연습장","tel":"031-335-1142","addr":"경기도 용인시 처인구 마평동 595번지 석산빌딩","indutype":"레저업소 - 노 래 방","category":"leisure"},{"name":"웰컴당구장","tel":"031-335-6526","addr":"경기도 용인시 처인구 마평동 595번지 석산빌딩","indutype":"레저업소 - 당 구 장","category":"leisure"}]},{"lat":"37.23638062","long":"127.21090195","imageIndex":13,"items":[{"name":"등불노래연습장","tel":"031-337-0331","addr":"경기도 용인시 처인구 마평동 732번지 우량빌딩 지하1층","indutype":"레저업소 - 노 래 방","category":"leisure"}]},{"lat":"37.234608439","long":"127.21437921","imageIndex":13,"items":[{"name":"마평당구클럽","tel":"070-7018-5392","addr":"경기도 용인시 처인구 마평동 649-5번지","indutype":"레저업소 - 당 구 장","category":"leisure"},{"name":"젠피시방","tel":"031-307-1288","addr":"경기도 용인시 처인구 마평동 649-5번지","indutype":"레저업소 - 기타레져업소","category":"leisure"},{"name":"한쌤탁구클럽","tel":"031-338-0709","addr":"경기도 용인시 처인구 마평동 649-5번지 3층","indutype":"레저업소 - 기타레져업소","category":"leisure"}]},{"lat":"37.234130007","long":"127.2148737","imageIndex":13,"items":[{"name":"발리노래연습장","tel":"031-000-0000","addr":"경기도 용인시 처인구 마평동 634-3번지 2층","indutype":"레저업소 - 노 래 방","category":"leisure"}]},{"lat":"37.234965848","long":"127.21098821","imageIndex":13,"items":[{"name":"뽀빠이노래연습장","tel":"031-338-8415","addr":"경기도 용인시 처인구 마평동 736번지 2층","indutype":"레저업소 - 노 래 방","category":"leisure"}]},{"lat":"37.233438889","long":"127.21337301","imageIndex":13,"items":[{"name":"생방송","tel":"031-333-1817","addr":"경기도 용인시 처인구 마평동 618-5번지 지하1층","indutype":"레저업소 - 노 래 방","category":"leisure"}]},{"lat":"37.235444125","long":"127.21057257","imageIndex":13,"items":[{"name":"세븐노래연습장","tel":"031-336-3033","addr":"경기도 용인시 처인구 마평동 729-2번지","indutype":"레저업소 - 노 래 방","category":"leisure"}]},{"lat":"37.234747257","long":"127.21231736","imageIndex":13,"items":[{"name":"쉬리노래연습장","tel":"031-336-4887","addr":"경기도 용인시 처인구 마평동 625-6번지","indutype":"레저업소 - 노 래 방","category":"leisure"},{"name":"용인당구장","tel":"031-336-9115","addr":"경기도 용인시 처인구 마평동 625-6번지 2층","indutype":"레저업소 - 당 구 장","category":"leisure"}]},{"lat":"37.23521623","long":"127.21207074","imageIndex":13,"items":[{"name":"스마일당구","tel":"070-8964-7703","addr":"경기도 용인시 처인구 마평동 657-14번지","indutype":"레저업소 - 당 구 장","category":"leisure"},{"name":"이벤트 노래연습장","tel":"031-338-7044","addr":"경기도 용인시 처인구 마평동 657-14번지 B1층","indutype":"레저업소 - 노 래 방","category":"leisure"}]},{"lat":"37.2350208","long":"127.21048126","imageIndex":13,"items":[{"name":"스카이당구클럽","tel":"031-328-3979","addr":"경기도 용인시 처인구 마평동 735-1번지 2층","indutype":"레저업소 - 당 구 장","category":"leisure"}]},{"lat":"37.234302933","long":"127.21390506","imageIndex":13,"items":[{"name":"신쿤컴퍼니(Shinkun&Co.)용인킥복싱센터","tel":"031-328-2826","addr":"경기도 용인시 처인구 마평동 627-1번지 지하1층","indutype":"레저업소 - 헬스클럽","category":"leisure"}]},{"lat":"37.23427536","long":"127.21420924","imageIndex":13,"items":[{"name":"원당구장","tel":"070-7018-5367","addr":"경기도 용인시 처인구 마평동 627-9번지 3층","indutype":"레저업소 - 당 구 장","category":"leisure"},{"name":"큐피시방","tel":"","addr":"경기도 용인시 처인구 마평동 627-9번지 2층","indutype":"레저업소 - 기타레져업소","category":"leisure"}]},{"lat":"37.23294208","long":"127.2140703","imageIndex":13,"items":[{"name":"찬스노래연습장","tel":"031-336-6272","addr":"경기도 용인시 처인구 마평동 618-24번지 지하1층","indutype":"레저업소 - 노 래 방","category":"leisure"}]},{"lat":"37.234883685","long":"127.21159652","imageIndex":13,"items":[{"name":"킹당구장","tel":"","addr":"경기도 용인시 처인구 마평동 625-3번지 현대빌딩 2층","indutype":"레저업소 - 당 구 장","category":"leisure"}]},{"lat":"37.234965452","long":"127.21121359","imageIndex":13,"items":[{"name":"파랑새노래연습장","tel":"031-338-1129","addr":"경기도 용인시 처인구 마평동 738번지 만송빌딩 2층","indutype":"레저업소 - 노 래 방","category":"leisure"}]},{"lat":"37.230022085","long":"127.21443401","imageIndex":13,"items":[{"name":"한큐당구장","tel":"031-322-4407","addr":"경기도 용인시 처인구 마평동 582-3번지","indutype":"레저업소 - 당 구 장","category":"leisure"}]},{"lat":"37.235407787","long":"127.21074151","imageIndex":13,"items":[{"name":"현대","tel":"031-335-6662","addr":"경기도 용인시 처인구 마평동 728-4번지 지층","indutype":"레저업소 - 노 래 방","category":"leisure"}]}]