[{"lat":"37.210468643","long":"127.0153641","imageIndex":13,"items":[{"name":"골프존파크 (송산 부엉이점)","tel":"031-232-2582","addr":"경기도 화성시 송산동 135-40번지 2층","indutype":"레저업소 - 스크린골프","category":"leisure"}]},{"lat":"37.207991021","long":"127.01291917","imageIndex":13,"items":[{"name":"아이센스PC방","tel":"","addr":"경기도 화성시 송산동 158-6번지 미림빌딩 305호","indutype":"레저업소 - 기타레져업소","category":"leisure"},{"name":"애플당구클럽","tel":"031-232-4939","addr":"경기도 화성시 송산동 158-6번지 미림빌딩 3층 302,303,304호","indutype":"레저업소 - 당 구 장","category":"leisure"}]},{"lat":"37.211829705","long":"127.00906682","imageIndex":13,"items":[{"name":"용주골낚시터","tel":"031-236-6063","addr":"경기도 화성시 송산동 183-4번지","indutype":"레저업소 - 기타레져업소","category":"leisure"}]},{"lat":"37.207026888","long":"127.01317813","imageIndex":13,"items":[{"name":"캡틴PC방","tel":"070-5420-8175","addr":"경기도 화성시 송산동 158-76번지 창현빌딩 3층","indutype":"레저업소 - 기타레져업소","category":"leisure"}]},{"lat":"37.206188923","long":"127.01317802","imageIndex":13,"items":[{"name":"허브노래연습장","tel":"070-8237-3577","addr":"경기도 화성시 송산동 158-9번지","indutype":"레저업소 - 노 래 방","category":"leisure"}]},{"lat":"37.207549529","long":"127.0127276","imageIndex":13,"items":[{"name":"헬로노래연습장","tel":"031-221-9868","addr":"경기도 화성시 송산동 158-57번지 2층","indutype":"레저업소 - 노 래 방","category":"leisure"},{"name":"헬로노래연습장","tel":"031-221-9868","addr":"경기도 화성시 송산동 158-57번지 3층","indutype":"레저업소 - 노 래 방","category":"leisure"}]},{"lat":"37.205936108","long":"127.01805563","imageIndex":13,"items":[{"name":"화산골프아카데미","tel":"031-893-2588","addr":"경기도 화성시 송산동 98-51번지 지하1층","indutype":"레저업소 - 골프연습장","category":"leisure"}]}]