[{"lat":"37.496277822","long":"127.49400851","imageIndex":7,"items":[{"name":"(주)예스푸드시스템 양평점","tel":"031-773-6212","addr":"경기도 양평군 양평읍 공흥리 731-5번지 (가동4.5호)","indutype":"음료식품 - 기타음료식품","category":"food"}]},{"lat":"37.493361951","long":"127.50606603","imageIndex":7,"items":[{"name":"HY Kids cook","tel":"031-774-1986","addr":"경기도 양평군 양평읍 공흥리 293-1번지 103호","indutype":"음료식품 - 기타음료식품","category":"food"}]},{"lat":"37.49068758","long":"127.49930895","imageIndex":7,"items":[{"name":"강원방앗간","tel":"031-773-2200","addr":"경기도 양평군 양평읍 공흥리 463-12번지","indutype":"음료식품 - 기타음료식품","category":"food"}]},{"lat":"37.494326034","long":"127.49967226","imageIndex":7,"items":[{"name":"과일장터 양평점","tel":"031-775-3777","addr":"경기도 양평군 양평읍 공흥리 585-1번지 주건축물제 1동","indutype":"음료식품 - 농·축·수산품","category":"food"}]},{"lat":"37.491888666","long":"127.50292398","imageIndex":7,"items":[{"name":"녹우촌","tel":"031-775-0069","addr":"경기도 양평군 양평읍 공흥리 509-2번지","indutype":"음료식품 - 정육점","category":"food"}]},{"lat":"37.497055232","long":"127.49339165","imageIndex":7,"items":[{"name":"녹즙사랑","tel":"031-771-8483","addr":"경기도 양평군 양평읍 공흥리 731-4번지 3호","indutype":"건강식품 - 기타건강식품","category":"food"}]},{"lat":"37.494132714","long":"127.49850628","imageIndex":7,"items":[{"name":"농업회사법인 (주) 자연속으로","tel":"031-775-3777","addr":"경기도 양평군 양평읍 공흥리 599-8번지","indutype":"음료식품 - 농·축·수산품","category":"food"}]},{"lat":"37.491359777","long":"127.50228724","imageIndex":7,"items":[{"name":"대경유통","tel":"031-774-9942","addr":"경기도 양평군 양평읍 공흥리 484-4번지 102호","indutype":"음료식품 - 정육점","category":"food"}]},{"lat":"37.493604607","long":"127.49767733","imageIndex":7,"items":[{"name":"대흥양봉원","tel":"031-771-3906","addr":"경기도 양평군 양평읍 공흥리 763-1 태은빌리지 301 21/4","indutype":"회원제형태 - 건강식품","category":"food"}]},{"lat":"37.49333178","long":"127.50256045","imageIndex":7,"items":[{"name":"델리퀸양평점","tel":"031-771-5201","addr":"경기도 양평군 양평읍 공흥리 533-4번지 1층","indutype":"음료식품 - 정육점","category":"food"}]},{"lat":"37.490688245","long":"127.49915065","imageIndex":7,"items":[{"name":"뚜레쥬르 양평공흥","tel":"031-771-0425","addr":"경기도 양평군 양평읍 공흥리 463-8번지 1층","indutype":"음료식품 - 제과점","category":"food"}]},{"lat":"37.49447089","long":"127.50800711","imageIndex":7,"items":[{"name":"마니커","tel":"","addr":"경기도 양평군 양평읍 공흥리 255-1번지","indutype":"음료식품 - 정육점","category":"food"}]},{"lat":"37.492966465","long":"127.5037227","imageIndex":7,"items":[{"name":"물맑은양평개군한우영농조합법인","tel":"031-772-0369","addr":"경기도 양평군 양평읍 공흥리 513-1","indutype":"음료식품 - 정육점","category":"food"}]},{"lat":"37.489524731","long":"127.50158529","imageIndex":7,"items":[{"name":"방아소리","tel":"031-774-0830","addr":"경기도 양평군 양평읍 공흥리 441-34번지 1층","indutype":"음료식품 - 제과점","category":"food"}]},{"lat":"37.510104431","long":"127.51394851","imageIndex":7,"items":[{"name":"생활개선양평군연합회","tel":"031-770-3601","addr":"경기도 양평군 양평읍 공흥리 1-1번지","indutype":"음료식품 - 기타음료식품","category":"food"}]},{"lat":"37.493270277","long":"127.49575282","imageIndex":7,"items":[{"name":"서울우유양평고객센터","tel":"031-771-3302","addr":"경기도 양평군 양평읍 공흥리 788-1번지","indutype":"음료식품 - 기타음료식품","category":"food"},{"name":"서울우유양평대리점","tel":"031-771-3302","addr":"경기도 양평군 양평읍 공흥리 788-1","indutype":"음료식품 - 기타음료식품","category":"food"}]},{"lat":"37.493381737","long":"127.49925893","imageIndex":7,"items":[{"name":"신세계로또","tel":"031-774-3755","addr":"경기도 양평군 양평읍 공흥리 595-4번지","indutype":"음료식품 - 기타음료식품","category":"food"}]},{"lat":"37.491584229","long":"127.49819545","imageIndex":7,"items":[{"name":"착한농장","tel":"","addr":"경기도 양평군 양평읍 공흥리 525번지","indutype":"음료식품 - 농·축·수산품","category":"food"}]},{"lat":"37.489970386","long":"127.50273028","imageIndex":7,"items":[{"name":"축산11번가","tel":"031-775-3480","addr":"경기도 양평군 양평읍 공흥리 474-2","indutype":"음료식품 - 정육점","category":"food"}]},{"lat":"37.494720093","long":"127.49809177","imageIndex":7,"items":[{"name":"황금어장","tel":"031-771-3017","addr":"경기도 양평군 양평읍 공흥리 600번지","indutype":"음료식품 - 농·축·수산품","category":"food"}]}]