[{"lat":"37.513896144","long":"126.77752379","imageIndex":7,"items":[{"name":"(주)조이플랜 티움","tel":"032-680-4799","addr":"경기도 부천시 도당동 222번지","indutype":"음료식품 - 기타음료식품","category":"food"},{"name":"티움","tel":"032-680-4799","addr":"경기도 부천시 도당동 222번지 동부하이텍본관 1층","indutype":"음료식품 - 기타음료식품","category":"food"}]},{"lat":"37.507373077","long":"126.7823501","imageIndex":7,"items":[{"name":"강남방앗간","tel":"032-676-3454","addr":"경기도 부천시 도당동 274-50번지","indutype":"음료식품 - 기타음료식품","category":"food"}]},{"lat":"37.50742485","long":"126.78112848","imageIndex":7,"items":[{"name":"강남시장점시장양곡","tel":"032-672-5518","addr":"경기도 부천시 도당동 274-52번지 1층","indutype":"음료식품 - 미곡상","category":"food"},{"name":"새마을정육점","tel":"032-684-8008","addr":"경기도 부천시 도당동 274-52번지 1층","indutype":"음료식품 - 기타음료식품","category":"food"}]},{"lat":"37.507037744","long":"126.78129928","imageIndex":7,"items":[{"name":"강남청과","tel":"032-683-1469","addr":"경기도 부천시 도당동 276-4","indutype":"음료식품 - 농·축·수산품","category":"food"},{"name":"대림고추방아","tel":"032-675-5571","addr":"경기도 부천시 도당동 276-4","indutype":"음료식품 - 기타음료식품","category":"food"},{"name":"한우촌 정육점","tel":"032-681-4984","addr":"경기도 부천시 도당동 276-4번지","indutype":"음료식품 - 정육점","category":"food"},{"name":"한우촌정육점","tel":"032-681-4984","addr":"경기도 부천시 도당동 276-4번지","indutype":"음료식품 - 정육점","category":"food"},{"name":"형제수산","tel":"032-681-6105","addr":"경기도 부천시 도당동 276-4번지 1층 6호","indutype":"음료식품 - 농·축·수산품","category":"food"}]},{"lat":"37.506181065","long":"126.78090597","imageIndex":7,"items":[{"name":"강남하림닭","tel":"032-682-0031","addr":"경기도 부천시 도당동 279-46번지","indutype":"음료식품 - 정육점","category":"food"},{"name":"고창수산","tel":"031-111-1111","addr":"경기도 부천시 도당동 279-46번지 1층","indutype":"음료식품 - 농·축·수산품","category":"food"},{"name":"변사또","tel":"070-7523-6492","addr":"경기도 부천시 도당동 279-46번지","indutype":"음료식품 - 농·축·수산품","category":"food"},{"name":"올레수산","tel":"032-677-9139","addr":"경기도 부천시 도당동 279-46번지","indutype":"음료식품 - 농·축·수산품","category":"food"}]},{"lat":"37.507180904","long":"126.78076729","imageIndex":7,"items":[{"name":"경인상회","tel":"032-673-2321","addr":"경기도 부천시 도당동 279-12번지","indutype":"음료식품 - 농·축·수산품","category":"food"}]},{"lat":"37.507091082","long":"126.78091458","imageIndex":7,"items":[{"name":"고향떡집","tel":"032-675-5605","addr":"경기도 부천시 도당동 279-14번지","indutype":"음료식품 - 제과점","category":"food"},{"name":"바다수산","tel":"","addr":"경기도 부천시 도당동 279-14번지","indutype":"음료식품 - 농·축·수산품","category":"food"},{"name":"한우리","tel":"032-676-0482","addr":"경기도 부천시 도당동 279-14번지","indutype":"음료식품 - 농·축·수산품","category":"food"}]},{"lat":"37.50592932","long":"126.78118946","imageIndex":7,"items":[{"name":"골드축산","tel":"032-677-8798","addr":"경기도 부천시 도당동 278-7번지 1층","indutype":"음료식품 - 정육점","category":"food"},{"name":"우리건강원","tel":"032-679-6501","addr":"경기도 부천시 도당동 278-7번지","indutype":"건강식품 - 기타건강식품","category":"food"},{"name":"허니베이커리","tel":"032-671-1297","addr":"경기도 부천시 도당동 278-7번지 1층","indutype":"음료식품 - 제과점","category":"food"}]},{"lat":"37.506704062","long":"126.78113062","imageIndex":7,"items":[{"name":"금산인삼","tel":"032-679-5086","addr":"경기도 부천시 도당동 277-6번지한신가동1층4","indutype":"건강식품 - 인삼제품","category":"food"},{"name":"신강남건강원","tel":"032-684-0999","addr":"경기도 부천시 도당동 277-6한신가동1층5","indutype":"건강식품 - 기타건강식품","category":"food"},{"name":"풍년방앗간","tel":"032-684-3768","addr":"경기도 부천시 도당동 277-6 한신빌라가동1층3호","indutype":"음료식품 - 제과점","category":"food"}]},{"lat":"37.507369855","long":"126.78063101","imageIndex":7,"items":[{"name":"김가네한방왕족발","tel":"032-675-3182","addr":"경기도 부천시 도당동 275-13번지 1층","indutype":"음료식품 - 기타음료식품","category":"food"}]},{"lat":"37.506593687","long":"126.77993211","imageIndex":7,"items":[{"name":"김선생숯불갈비","tel":"032-673-7373","addr":"경기도 부천시 도당동 284-2번지 2층 일부","indutype":"음료식품 - 정육점","category":"food"}]},{"lat":"37.516866017","long":"126.79027403","imageIndex":7,"items":[{"name":"녹색푸드","tel":"032-671-9121","addr":"경기도 부천시 도당동 69번지 우남아파트","indutype":"음료식품 - 제과점","category":"food"}]},{"lat":"37.518311105","long":"126.78723844","imageIndex":7,"items":[{"name":"농민농산","tel":"070-4964-2466","addr":"경기도 부천시 도당동 45번지 베스트빌","indutype":"음료식품 - 농·축·수산품","category":"food"}]},{"lat":"37.506757696","long":"126.78090426","imageIndex":7,"items":[{"name":"대농유통","tel":"032-674-8225","addr":"경기도 부천시 도당동 279-20번지","indutype":"음료식품 - 농·축·수산품","category":"food"},{"name":"도당식품","tel":"032-674-6695","addr":"경기도 부천시 도당동 279-20번지","indutype":"음료식품 - 기타음료식품","category":"food"},{"name":"짱구절임","tel":"032-676-8488","addr":"경기도 부천시 도당동 279-20","indutype":"음료식품 - 기타음료식품","category":"food"}]},{"lat":"37.507345435","long":"126.7820222","imageIndex":7,"items":[{"name":"대복방앗간","tel":"032-672-9105","addr":"경기도 부천시 도당동 274-44번지","indutype":"음료식품 - 제과점","category":"food"}]},{"lat":"37.519761864","long":"126.79232456","imageIndex":7,"items":[{"name":"대성축산","tel":"032-674-8985","addr":"경기도 부천시 도당동 108-12번지 1층","indutype":"음료식품 - 정육점","category":"food"}]},{"lat":"37.50592861","long":"126.78565678","imageIndex":7,"items":[{"name":"더 망고(The mango)","tel":"032-677-0818","addr":"경기도 부천시 도당동 264-10번지 1층","indutype":"음료식품 - 기타음료식품","category":"food"}]},{"lat":"37.52023102","long":"126.79268522","imageIndex":7,"items":[{"name":"도당건강원","tel":"032-682-0330","addr":"경기도 부천시 도당동 116-12번지 1층","indutype":"건강식품 - 기타건강식품","category":"food"}]},{"lat":"37.521560088","long":"126.79529457","imageIndex":7,"items":[{"name":"도래올부대찌개","tel":"031-977-7026","addr":"경기도 부천시 도당동 137-6번지 청원빌딩 2층","indutype":"음료식품 - 기타음료식품","category":"food"}]},{"lat":"37.507175072","long":"126.78246379","imageIndex":7,"items":[{"name":"도원 농수산","tel":"032-677-3386","addr":"경기도 부천시 도당동 276-9번지","indutype":"음료식품 - 농·축·수산품","category":"food"},{"name":"우리유통","tel":"032-675-5585","addr":"경기도 부천시 도당동 276-9번지","indutype":"음료식품 - 정육점","category":"food"}]},{"lat":"37.512533746","long":"126.78613531","imageIndex":7,"items":[{"name":"동행","tel":"070-8132-0821","addr":"경기도 부천시 도당동 82-3번지","indutype":"음료식품 - 기타음료식품","category":"food"}]},{"lat":"37.519312826","long":"126.78812918","imageIndex":7,"items":[{"name":"동향닭직매장","tel":"032-677-6711","addr":"경기도 부천시 도당동 57번지","indutype":"음료식품 - 정육점","category":"food"}]},{"lat":"37.511339136","long":"126.77847025","imageIndex":7,"items":[{"name":"두미","tel":"032-668-9051","addr":"경기도 부천시 도당동 187-7번지 부천대우테크노파크 B동 105호","indutype":"음료식품 - 농·축·수산품","category":"food"},{"name":"부천종합물류","tel":"032-670-8467","addr":"경기도 부천시 도당동 187-7 대우테크노파크 B동 101호~102호","indutype":"음료식품 - 기타음료식품","category":"food"}]},{"lat":"37.516867114","long":"126.79088484","imageIndex":7,"items":[{"name":"떡보의하루오정점","tel":"032-681-1457","addr":"경기도 부천시 도당동 69-1 진성그린테라스상가 -201","indutype":"음료식품 - 제과점","category":"food"}]},{"lat":"37.51992867","long":"126.79493711","imageIndex":7,"items":[{"name":"뚜레쥬르부천도당점","tel":"032-676-0095","addr":"경기도 부천시 도당동 131-2번지 1층","indutype":"음료식품 - 제과점","category":"food"},{"name":"베스킨라빈스도당점","tel":"032-675-1402","addr":"경기도 부천시 도당동 131-2번지 1층","indutype":"음료식품 - 제과점","category":"food"}]},{"lat":"37.50620365","long":"126.7833488","imageIndex":7,"items":[{"name":"럭키슈퍼","tel":"032-683-9256","addr":"경기도 부천시 도당동 266-4성원@107,108호","indutype":"음료식품 - 기타음료식품","category":"food"},{"name":"인산가 부천대리점","tel":"032-207-6500","addr":"경기도 부천시 도당동 266-4번지","indutype":"음료식품 - 기타음료식품","category":"food"}]},{"lat":"37.51886723","long":"126.78587945","imageIndex":7,"items":[{"name":"막퍼주는집","tel":"070-7396-0758","addr":"경기도 부천시 도당동 42-3번지 1층","indutype":"음료식품 - 농·축·수산품","category":"food"}]},{"lat":"37.507985882","long":"126.78730208","imageIndex":7,"items":[{"name":"미산식품","tel":"032-679-1792","addr":"경기도 부천시 도당동 183-15번지 1층","indutype":"음료식품 - 기타음료식품","category":"food"}]},{"lat":"37.518318834","long":"126.79151418","imageIndex":7,"items":[{"name":"민지네","tel":"070-1111-1111","addr":"경기도 부천시 도당동 105-10번지 복지빌라 202호","indutype":"음료식품 - 미곡상","category":"food"}]},{"lat":"37.519284826","long":"126.79259738","imageIndex":7,"items":[{"name":"바다수산","tel":"070-4964-2466","addr":"경기도 부천시 도당동 118-10번지 1층","indutype":"음료식품 - 농·축·수산품","category":"food"}]},{"lat":"37.51025972","long":"126.78421913","imageIndex":7,"items":[{"name":"발리 더치","tel":"070-4402-2550","addr":"경기도 부천시 도당동 253-1번지 304호","indutype":"음료식품 - 기타음료식품","category":"food"},{"name":"주식회사 홍조식품","tel":"032-671-8333","addr":"경기도 부천시 도당동 253-1번지 서림테크노파크2 305호","indutype":"음료식품 - 기타음료식품","category":"food"}]},{"lat":"37.517204337","long":"126.79304436","imageIndex":7,"items":[{"name":"부강상사","tel":"032-678-1070","addr":"경기도 부천시 도당동 123번지","indutype":"음료식품 - 주류 판매점","category":"food"}]},{"lat":"37.518206216","long":"126.78901465","imageIndex":7,"items":[{"name":"부천북고등학교매점","tel":"032-221-6809","addr":"경기도 부천시 도당동 54번지","indutype":"음료식품 - 기타음료식품","category":"food"}]},{"lat":"37.519810125","long":"126.79413431","imageIndex":7,"items":[{"name":"빵굽는쉐프의꿈","tel":"032-676-8634","addr":"경기도 부천시 도당동 131-1번지 삼성홈플러스 1층","indutype":"음료식품 - 제과점","category":"food"}]},{"lat":"37.51992394","long":"126.79226754","imageIndex":7,"items":[{"name":"사계절반찬","tel":"031-683-2010","addr":"경기도 부천시 도당동 108-1번지 1층","indutype":"음료식품 - 기타음료식품","category":"food"},{"name":"파리바게뜨","tel":"032-684-8272","addr":"경기도 부천시 도당동 108-1번지","indutype":"음료식품 - 제과점","category":"food"}]},{"lat":"37.506145451","long":"126.78113227","imageIndex":7,"items":[{"name":"삼양","tel":"032-684-8689","addr":"경기도 부천시 도당동 278-56번지","indutype":"음료식품 - 농·축·수산품","category":"food"}]},{"lat":"37.507174755","long":"126.78229414","imageIndex":7,"items":[{"name":"서울정육점","tel":"032-676-8215","addr":"경기도 부천시 도당동 276-1번지","indutype":"음료식품 - 정육점","category":"food"}]},{"lat":"37.506676607","long":"126.7809045","imageIndex":7,"items":[{"name":"소문난떡집","tel":"032-676-1727","addr":"경기도 부천시 도당동 279-19번지 1층","indutype":"음료식품 - 제과점","category":"food"}]},{"lat":"37.505845933","long":"126.77996826","imageIndex":7,"items":[{"name":"소빵소빵 베이커리","tel":"032-715-5884","addr":"경기도 부천시 도당동 284-7번지 B동 1층","indutype":"음료식품 - 제과점","category":"food"}]},{"lat":"37.507764305","long":"126.77957802","imageIndex":7,"items":[{"name":"시원정육점","tel":"032-625-6782","addr":"경기도 부천시 도당동 283-9번지 1층 일부","indutype":"음료식품 - 정육점","category":"food"}]},{"lat":"37.507345075","long":"126.78182993","imageIndex":7,"items":[{"name":"시장닭집","tel":"032-675-7306","addr":"경기도 부천시 도당동 274-43번지","indutype":"음료식품 - 정육점","category":"food"}]},{"lat":"37.506541459","long":"126.7809049","imageIndex":7,"items":[{"name":"시장떡집","tel":"032-682-1415","addr":"경기도 부천시 도당동 279-25번지","indutype":"음료식품 - 제과점","category":"food"}]},{"lat":"37.518948671","long":"126.78607151","imageIndex":7,"items":[{"name":"신도건강원","tel":"032-673-9211","addr":"경기도 부천시 도당동 42-4번지","indutype":"건강식품 - 기타건강식품","category":"food"}]},{"lat":"37.51489484","long":"126.78154751","imageIndex":7,"items":[{"name":"신돈가","tel":"032-677-6004","addr":"경기도 부천시 도당동 156-7번지","indutype":"음료식품 - 기타음료식품","category":"food"}]},{"lat":"37.520232687","long":"126.7936241","imageIndex":7,"items":[{"name":"신선한우축산","tel":"032-678-4493","addr":"경기도 부천시 도당동 116-15번지","indutype":"음료식품 - 정육점","category":"food"}]},{"lat":"37.520318046","long":"126.79096557","imageIndex":7,"items":[{"name":"신앙촌상회도당점","tel":"032-677-8942","addr":"경기도 부천시 도당동 61-4번지 1층","indutype":"음료식품 - 기타음료식품","category":"food"}]},{"lat":"37.518478995","long":"126.78543942","imageIndex":7,"items":[{"name":"신해정육점","tel":"032-673-3071","addr":"경기도 부천시 도당동 42번지 계남 샤이니","indutype":"음료식품 - 정육점","category":"food"},{"name":"한양유통","tel":"032-679-6985","addr":"경기도 부천시 도당동 42번지 계남 샤이니 1층","indutype":"음료식품 - 기타음료식품","category":"food"}]},{"lat":"37.507340088","long":"126.78399014","imageIndex":7,"items":[{"name":"아름다운상사","tel":"032-682-8845","addr":"경기도 부천시 도당동 263-64번지 1층","indutype":"음료식품 - 기타음료식품","category":"food"},{"name":"하띵관","tel":"032-328-8236","addr":"경기도 부천시 도당동 263-64번지 1층 일부","indutype":"건강식품 - 기타건강식품","category":"food"}]},{"lat":"37.514124096","long":"126.77424294","imageIndex":7,"items":[{"name":"약대매표소","tel":"032-675-9695","addr":"경기도 부천시 도당동 215-13","indutype":"음료식품 - 기타음료식품","category":"food"}]},{"lat":"37.507370387","long":"126.78091376","imageIndex":7,"items":[{"name":"양곡농협쌀직판장","tel":"032-676-3382","addr":"경기도 부천시 도당동 275-15번지 1층","indutype":"음료식품 - 미곡상","category":"food"}]},{"lat":"37.506484157","long":"126.77918599","imageIndex":7,"items":[{"name":"양스야미","tel":"02-111-1111","addr":"경기도 부천시 도당동 262-42번지 1층 일부 좌측칸","indutype":"음료식품 - 기타음료식품","category":"food"}]},{"lat":"37.51950535","long":"126.78996113","imageIndex":7,"items":[{"name":"연이네명품정육점","tel":"032-677-3239","addr":"경기도 부천시 도당동 63번지 도당맨션 101호","indutype":"음료식품 - 정육점","category":"food"}]},{"lat":"37.510315201","long":"126.78498807","imageIndex":7,"items":[{"name":"예다움협동조합","tel":"032-715-7982","addr":"경기도 부천시 도당동 178-1번지 2층","indutype":"음료식품 - 기타음료식품","category":"food"}]},{"lat":"37.518760729","long":"126.78676206","imageIndex":7,"items":[{"name":"예원정육점","tel":"032-676-8985","addr":"경기도 부천시 도당동 44번지 도당센트레빌 A동 101호","indutype":"음료식품 - 정육점","category":"food"}]},{"lat":"37.514923055","long":"126.78218085","imageIndex":7,"items":[{"name":"오복매점","tel":"032-682-5989","addr":"경기도 부천시 도당동 156-13번지 1층","indutype":"음료식품 - 기타음료식품","category":"food"}]},{"lat":"37.50717217","long":"126.78091434","imageIndex":7,"items":[{"name":"오복종합식품","tel":"032-674-8184","addr":"경기도 부천시 도당동 279-13번지","indutype":"음료식품 - 기타음료식품","category":"food"}]},{"lat":"37.515201239","long":"126.78158054","imageIndex":7,"items":[{"name":"온터테이블","tel":"02-2691-6911","addr":"경기도 부천시 도당동 16-9번지 2층","indutype":"음료식품 - 기타음료식품","category":"food"}]},{"lat":"37.519840423","long":"126.79091037","imageIndex":7,"items":[{"name":"와썹커피로스터스","tel":"070-4334-5773","addr":"경기도 부천시 도당동 62-1번지 흥아빌딩 3층","indutype":"음료식품 - 기타음료식품","category":"food"}]},{"lat":"37.517122111","long":"126.78252502","imageIndex":7,"items":[{"name":"유성 슈퍼매점","tel":"","addr":"경기도 부천시 도당동 20-1번지 A동 1층","indutype":"음료식품 - 기타음료식품","category":"food"}]},{"lat":"37.507595633","long":"126.78091309","imageIndex":7,"items":[{"name":"유영식품","tel":"032-675-1715","addr":"경기도 부천시 도당동 275-21번지","indutype":"음료식품 - 기타음료식품","category":"food"},{"name":"중국식품","tel":"070-7313-9781","addr":"경기도 부천시 도당동 275-21번지","indutype":"음료식품 - 기타음료식품","category":"food"}]},{"lat":"37.507174459","long":"126.7821358","imageIndex":7,"items":[{"name":"전주상회","tel":"032-679-2667","addr":"경기도 부천시 도당동 276-30번지 1층","indutype":"음료식품 - 농·축·수산품","category":"food"}]},{"lat":"37.512317537","long":"126.78129498","imageIndex":7,"items":[{"name":"전주식당","tel":"032-675-5576","addr":"경기도 부천시 도당동 162-4번지 1층","indutype":"음료식품 - 기타음료식품","category":"food"}]},{"lat":"37.517978801","long":"126.79282727","imageIndex":7,"items":[{"name":"정관장도당점","tel":"032-682-2325","addr":"경기도 부천시 도당동 121번지 1층","indutype":"건강식품 - 홍삼제품","category":"food"}]},{"lat":"37.514341139","long":"126.7841846","imageIndex":7,"items":[{"name":"정관장도당점","tel":"032-682-0325","addr":"경기도 부천시 도당동 88-9번지 B-10","indutype":"건강식품 - 홍삼제품","category":"food"}]},{"lat":"37.516203401","long":"126.78757253","imageIndex":7,"items":[{"name":"조아커피(ZOA coffee)","tel":"070-8735-3856","addr":"경기도 부천시 도당동 49-17번지 한솔그린빌 503호","indutype":"음료식품 - 기타음료식품","category":"food"}]},{"lat":"37.51936709","long":"126.78824214","imageIndex":7,"items":[{"name":"족발","tel":"","addr":"경기도 부천시 도당동 57-10번지 우정빌라 302호","indutype":"음료식품 - 기타음료식품","category":"food"}]},{"lat":"37.519923092","long":"126.79179245","imageIndex":7,"items":[{"name":"종로떡집","tel":"032-673-2647","addr":"경기도 부천시 도당동 108-7번지 1층","indutype":"음료식품 - 제과점","category":"food"}]},{"lat":"37.515150283","long":"126.78324342","imageIndex":7,"items":[{"name":"주식회사 한신코리아","tel":"032-624-0754","addr":"경기도 부천시 도당동 24-5번지 1층","indutype":"음료식품 - 기타음료식품","category":"food"}]},{"lat":"37.510866697","long":"126.78116354","imageIndex":7,"items":[{"name":"주식회사디져트스토리","tel":"070-4607-2761","addr":"경기도 부천시 도당동 163-15번지 부천테크노월드 204호","indutype":"음료식품 - 기타음료식품","category":"food"}]},{"lat":"37.506424331","long":"126.78090525","imageIndex":7,"items":[{"name":"참된반찬전문","tel":"032-679-0127","addr":"경기도 부천시 도당동 279-26","indutype":"음료식품 - 기타음료식품","category":"food"}]},{"lat":"37.506289608","long":"126.78113184","imageIndex":7,"items":[{"name":"참한우생고기장터","tel":"032-677-8070","addr":"경기도 부천시 도당동 278-4번지","indutype":"음료식품 - 정육점","category":"food"}]},{"lat":"37.513423796","long":"126.7755232","imageIndex":7,"items":[{"name":"코코브롯","tel":"032-527-1107","addr":"경기도 부천시 도당동 222-29번지 (주)창성상사 1층 103호","indutype":"음료식품 - 제과점","category":"food"}]},{"lat":"37.517229384","long":"126.78207225","imageIndex":7,"items":[{"name":"태영식품","tel":"032-672-6744","addr":"경기도 부천시 도당동 14-7번지","indutype":"음료식품 - 기타음료식품","category":"food"}]},{"lat":"37.507153257","long":"126.78043939","imageIndex":7,"items":[{"name":"파리바게뜨","tel":"032-672-0082","addr":"경기도 부천시 도당동 279-1번지 1층","indutype":"음료식품 - 제과점","category":"food"}]},{"lat":"37.509763807","long":"126.77921013","imageIndex":7,"items":[{"name":"파리바게트","tel":"032-675-3584","addr":"경기도 부천시 도당동 246-1번지 1층","indutype":"음료식품 - 제과점","category":"food"}]},{"lat":"37.518758696","long":"126.78565353","imageIndex":7,"items":[{"name":"풍년떡방앗간","tel":"032-681-3444","addr":"경기도 부천시 도당동 42-2번지 1층일부","indutype":"음료식품 - 제과점","category":"food"}]},{"lat":"37.509977832","long":"126.77804453","imageIndex":7,"items":[{"name":"한진푸드","tel":"032-351-3708","addr":"경기도 부천시 도당동 244-1번지 E동 지하1층","indutype":"음료식품 - 기타음료식품","category":"food"}]},{"lat":"37.507152575","long":"126.78490678","imageIndex":7,"items":[{"name":"항공&유통","tel":"032-213-0479","addr":"경기도 부천시 도당동 265-55번지 1층","indutype":"건강식품 - 기타건강식품","category":"food"}]},{"lat":"37.507370111","long":"126.78076673","imageIndex":7,"items":[{"name":"해내음유통","tel":"032-675-2142","addr":"경기도 부천시 도당동 275-14번지","indutype":"음료식품 - 기타음료식품","category":"food"}]},{"lat":"37.518397177","long":"126.78504375","imageIndex":7,"items":[{"name":"해피버스데이","tel":"032-679-9681","addr":"경기도 부천시 도당동 29고려종합상가1층","indutype":"음료식품 - 제과점","category":"food"}]},{"lat":"37.519532237","long":"126.79493821","imageIndex":7,"items":[{"name":"현주네반찬","tel":"032-678-1740","addr":"경기도 부천시 도당동 130-2번지","indutype":"음료식품 - 기타음료식품","category":"food"}]},{"lat":"37.507367872","long":"126.7795792","imageIndex":7,"items":[{"name":"화성방앗간","tel":"032-675-3881","addr":"경기도 부천시 도당동 283-20번지 1층","indutype":"음료식품 - 제과점","category":"food"}]}]