[{"lat":"37.268267355","long":"126.97526054","imageIndex":4,"items":[{"name":"3.8포차","tel":"031-232-1512","addr":"경기도 수원시 권선구 탑동 862-3번지","indutype":"일반휴게음식 - 일반한식","category":"restaurant"},{"name":"어수지락","tel":"031-227-8885","addr":"경기도 수원시 권선구 탑동 862-3번지","indutype":"일반휴게음식 - 일반한식","category":"restaurant"},{"name":"욜로양꼬치","tel":"031-296-0730","addr":"경기도 수원시 권선구 탑동 862-3번지 102호","indutype":"일반휴게음식 - 일반한식","category":"restaurant"},{"name":"커피에반하다","tel":"070-8848-9913","addr":"경기도 수원시 권선구 탑동 862-3번지 103호","indutype":"일반휴게음식 - 서양음식","category":"restaurant"}]},{"lat":"37.273628207","long":"126.97414237","imageIndex":4,"items":[{"name":"59쌀피자","tel":"031-295-5949","addr":"경기도 수원시 권선구 탑동 766-3번지 1층","indutype":"일반휴게음식 - 서양음식","category":"restaurant"},{"name":"봉구스밥버거","tel":"031-291-0400","addr":"경기도 수원시 권선구 탑동 766-3번지","indutype":"일반휴게음식 - 서양음식","category":"restaurant"}]},{"lat":"37.271736184","long":"126.97470682","imageIndex":4,"items":[{"name":"7080라이브포차","tel":"031-292-2606","addr":"경기도 수원시 권선구 탑동 791-14번지","indutype":"일반휴게음식 - 주점","category":"restaurant"},{"name":"꼬미곶닭발","tel":"031-294-8889","addr":"경기도 수원시 권선구 탑동 791-14번지","indutype":"일반휴게음식 - 일반한식","category":"restaurant"}]},{"lat":"37.268934474","long":"126.97683868","imageIndex":4,"items":[{"name":"가마치통닭 탑동점","tel":"031-291-3388","addr":"경기도 수원시 권선구 탑동 863-6번지","indutype":"일반휴게음식 - 스넥","category":"restaurant"}]},{"lat":"37.268573684","long":"126.97517024","imageIndex":4,"items":[{"name":"가장맛있는족발","tel":"031-296-5889","addr":"경기도 수원시 권선구 탑동 862-1번지","indutype":"일반휴게음식 - 일반한식","category":"restaurant"},{"name":"비바스라이브","tel":"031-294-5717","addr":"경기도 수원시 권선구 탑동 862-1번지 2층","indutype":"일반휴게음식 - 일반한식","category":"restaurant"},{"name":"죽이야기수원탑동점","tel":"031-227-6233","addr":"경기도 수원시 권선구 탑동 862-1번지","indutype":"일반휴게음식 - 일반한식","category":"restaurant"}]},{"lat":"37.272988527","long":"126.97434556","imageIndex":4,"items":[{"name":"감탄 탑동점","tel":"031-293-5969","addr":"경기도 수원시 권선구 탑동 789-1번지 강서빌딩 B101호","indutype":"일반휴게음식 - 일반한식","category":"restaurant"}]},{"lat":"37.270789595","long":"126.97264395","imageIndex":4,"items":[{"name":"고향산천삼겹살","tel":"031-278-4703","addr":"경기도 수원시 권선구 탑동 806-2번지 1층","indutype":"일반휴게음식 - 일반한식","category":"restaurant"}]},{"lat":"37.270042262","long":"126.97475255","imageIndex":4,"items":[{"name":"골드","tel":"031-292-4440","addr":"경기도 수원시 권선구 탑동 840-7번지 2층 201호","indutype":"일반휴게음식 - 주점","category":"restaurant"}]},{"lat":"37.275431253","long":"126.97856153","imageIndex":4,"items":[{"name":"골목길","tel":"031-296-2138","addr":"경기도 수원시 권선구 탑동 2-18번지 지층","indutype":"일반휴게음식 - 일반한식","category":"restaurant"},{"name":"대감님네삼겹살무한리필","tel":"031-292-0218","addr":"경기도 수원시 권선구 탑동 2-18번지 101호","indutype":"일반휴게음식 - 일반한식","category":"restaurant"},{"name":"찬찬치킨","tel":"031-296-8911","addr":"경기도 수원시 권선구 탑동 2-18번지 103호","indutype":"일반휴게음식 - 스넥","category":"restaurant"}]},{"lat":"37.271537977","long":"126.97478581","imageIndex":4,"items":[{"name":"곱창주점","tel":"031-111-1111","addr":"경기도 수원시 권선구 탑동 791-12번지 건민빌딩 101호","indutype":"일반휴게음식 - 일반한식","category":"restaurant"},{"name":"실비수산시장","tel":"031-294-7202","addr":"경기도 수원시 권선구 탑동 791-12번지 건민빌딩 1층","indutype":"일반휴게음식 - 일식·회집","category":"restaurant"}]},{"lat":"37.269456641","long":"126.9749557","imageIndex":4,"items":[{"name":"공릉동멸치국수","tel":"031-227-0385","addr":"경기도 수원시 권선구 탑동 841-4번지 101호","indutype":"일반휴게음식 - 일반한식","category":"restaurant"},{"name":"테트리스 찜닭","tel":"031-295-0922","addr":"경기도 수원시 권선구 탑동 841-4번지 1층","indutype":"일반휴게음식 - 일반한식","category":"restaurant"}]},{"lat":"37.269709006","long":"126.97528256","imageIndex":4,"items":[{"name":"곽두리쪽갈비","tel":"031-292-3520","addr":"경기도 수원시 권선구 탑동 844-3번지 외1필지 103호","indutype":"일반휴게음식 - 일반한식","category":"restaurant"},{"name":"맛있는밥상","tel":"031-295-6522","addr":"경기도 수원시 권선구 탑동 844-3번지 대원빌딩 104호","indutype":"일반휴게음식 - 일반한식","category":"restaurant"},{"name":"슈도","tel":"031-294-2512","addr":"경기도 수원시 권선구 탑동 844-3번지 2층","indutype":"일반휴게음식 - 일식·회집","category":"restaurant"}]},{"lat":"37.27440243","long":"126.97153756","imageIndex":4,"items":[{"name":"광명수산","tel":"031-292-4333","addr":"경기도 수원시 권선구 탑동 747-3번지 1층","indutype":"일반휴게음식 - 일식·회집","category":"restaurant"},{"name":"대로변땡집","tel":"031-296-6537","addr":"경기도 수원시 권선구 탑동 747-3번지 1층","indutype":"일반휴게음식 - 일반한식","category":"restaurant"},{"name":"등촌샤브칼국수","tel":"031-298-4101","addr":"경기도 수원시 권선구 탑동 747-3번지","indutype":"일반휴게음식 - 일반한식","category":"restaurant"},{"name":"병만네닭갈비","tel":"031-296-0280","addr":"경기도 수원시 권선구 탑동 747-3번지 2층","indutype":"일반휴게음식 - 일반한식","category":"restaurant"}]},{"lat":"37.269655573","long":"126.9781237","imageIndex":4,"items":[{"name":"교동짬뽕","tel":"031-258-7654","addr":"경기도 수원시 권선구 탑동 853-5번지 102,103호","indutype":"일반휴게음식 - 중국식","category":"restaurant"},{"name":"땅이네푸드","tel":"031-298-8229","addr":"경기도 수원시 권선구 탑동 853-5번지 신화빌딩 101호","indutype":"일반휴게음식 - 스넥","category":"restaurant"}]},{"lat":"37.273763348","long":"126.97408595","imageIndex":4,"items":[{"name":"교촌치킨 탑동점","tel":"031-291-0128","addr":"경기도 수원시 권선구 탑동 766-2번지","indutype":"일반휴게음식 - 서양음식","category":"restaurant"},{"name":"시카고핫도그","tel":"031-1111-1111","addr":"경기도 수원시 권선구 탑동 766-2번지 1층","indutype":"일반휴게음식 - 일반한식","category":"restaurant"}]},{"lat":"37.269817124","long":"126.97525997","imageIndex":4,"items":[{"name":"구노포차수원탑동점","tel":"031-296-7337","addr":"경기도 수원시 권선구 탑동 844-2번지 1층","indutype":"일반휴게음식 - 주점","category":"restaurant"}]},{"lat":"37.272295182","long":"126.97626251","imageIndex":4,"items":[{"name":"구쁘다화덕피자","tel":"031-294-2600","addr":"경기도 수원시 권선구 탑동 797-1번지 세종빌라 102호","indutype":"일반휴게음식 - 일반한식","category":"restaurant"}]},{"lat":"37.271988437","long":"126.97456016","imageIndex":4,"items":[{"name":"구이데이","tel":"031-248-3311","addr":"경기도 수원시 권선구 탑동 791-1번지 삼호빌딩 1층 101호","indutype":"일반휴게음식 - 일반한식","category":"restaurant"},{"name":"매우리","tel":"031-291-6692","addr":"경기도 수원시 권선구 탑동 791-1번지 1층","indutype":"일반휴게음식 - 일반한식","category":"restaurant"}]},{"lat":"37.269376098","long":"126.97739096","imageIndex":4,"items":[{"name":"국수랑밥이랑","tel":"031-294-7778","addr":"경기도 수원시 권선구 탑동 852-3번지 1동 107호","indutype":"일반휴게음식 - 일반한식","category":"restaurant"}]},{"lat":"37.271124425","long":"126.97898008","imageIndex":4,"items":[{"name":"굽네치킨서둔탑동점","tel":"031-298-9492","addr":"경기도 수원시 권선구 탑동 320-15번지","indutype":"일반휴게음식 - 스넥","category":"restaurant"},{"name":"유일푸드","tel":"031-292-0920","addr":"경기도 수원시 권선구 탑동 320-15번지 101호","indutype":"일반휴게음식 - 일반한식","category":"restaurant"}]},{"lat":"37.271934297","long":"126.97423321","imageIndex":4,"items":[{"name":"김가네순대국전문","tel":"031-293-0270","addr":"경기도 수원시 권선구 탑동 785-1번지","indutype":"일반휴게음식 - 일반한식","category":"restaurant"},{"name":"역전꽈배기","tel":"031-000-0000","addr":"경기도 수원시 권선구 탑동 785-1번지 1층 103호","indutype":"일반휴게음식 - 일반한식","category":"restaurant"}]},{"lat":"37.271899293","long":"126.97890091","imageIndex":4,"items":[{"name":"김밥천국탑동점","tel":"031-304-7180","addr":"경기도 수원시 권선구 탑동 23-24번지 1층","indutype":"일반휴게음식 - 일반한식","category":"restaurant"}]},{"lat":"37.269375652","long":"126.97539543","imageIndex":4,"items":[{"name":"껍데기클라쓰 탑동점","tel":"031-294-4795","addr":"경기도 수원시 권선구 탑동 844-6번지","indutype":"일반휴게음식 - 일반한식","category":"restaurant"}]},{"lat":"37.269267439","long":"126.97501214","imageIndex":4,"items":[{"name":"꿀단지보쌈","tel":"031-292-4486","addr":"경기도 수원시 권선구 탑동 841-5번지","indutype":"일반휴게음식 - 일반한식","category":"restaurant"},{"name":"밤빛육회","tel":"031-111-1111","addr":"경기도 수원시 권선구 탑동 841-5번지 102호","indutype":"일반휴게음식 - 일반한식","category":"restaurant"},{"name":"빨간석쇠구이 (탑동점)","tel":"031-232-2774","addr":"경기도 수원시 권선구 탑동 841-5번지 103호","indutype":"일반휴게음식 - 일반한식","category":"restaurant"},{"name":"수촌마을탑동점","tel":"031-293-2370","addr":"경기도 수원시 권선구 탑동 841-5번지 거성빌딩 104,105호","indutype":"일반휴게음식 - 일식·회집","category":"restaurant"}]},{"lat":"37.270682143","long":"126.97539495","imageIndex":4,"items":[{"name":"낙지앤홍어","tel":"031-292-2227","addr":"경기도 수원시 권선구 탑동 848번지","indutype":"일반휴게음식 - 일반한식","category":"restaurant"},{"name":"탑동촌닭","tel":"031-252-8883","addr":"경기도 수원시 권선구 탑동 848번지 해피타운 201호","indutype":"일반휴게음식 - 일반한식","category":"restaurant"}]},{"lat":"37.27079106","long":"126.9790591","imageIndex":4,"items":[{"name":"남도","tel":"031-297-1005","addr":"경기도 수원시 권선구 탑동 320-25번지 선우행복한집11차 1층 101호","indutype":"일반휴게음식 - 일반한식","category":"restaurant"}]},{"lat":"37.272429927","long":"126.97450362","imageIndex":4,"items":[{"name":"낮앤밥상밤앤술상","tel":"031-223-5214","addr":"경기도 수원시 권선구 탑동 789-8번지 르네상스빌","indutype":"일반휴게음식 - 일반한식","category":"restaurant"}]},{"lat":"37.274267782","long":"126.97351073","imageIndex":4,"items":[{"name":"냠냠쩝쩝","tel":"031-294-0789","addr":"경기도 수원시 권선구 탑동 749-5번지 104호","indutype":"일반휴게음식 - 스넥","category":"restaurant"},{"name":"본죽&비빔밥 Cafe","tel":"031-291-3339","addr":"경기도 수원시 권선구 탑동 749-5번지 1층 103호","indutype":"일반휴게음식 - 일반한식","category":"restaurant"},{"name":"카페토스피아 수원탑동점","tel":"031-227-8585","addr":"경기도 수원시 권선구 탑동 749-5번지 1층 101,102호","indutype":"일반휴게음식 - 서양음식","category":"restaurant"}]},{"lat":"37.270267508","long":"126.97470737","imageIndex":4,"items":[{"name":"노마세야매운갈비찜탑동점","tel":"031-297-0020","addr":"경기도 수원시 권선구 탑동 840-5번지 일송빌딩 A동 101호","indutype":"일반휴게음식 - 일반한식","category":"restaurant"}]},{"lat":"37.26878968","long":"126.97412166","imageIndex":4,"items":[{"name":"놀부 부대찌개","tel":"031-278-1574","addr":"경기도 수원시 권선구 탑동 835-2","indutype":"일반휴게음식 - 일반한식","category":"restaurant"},{"name":"뽕가쓰","tel":"031-292-1247","addr":"경기도 수원시 권선구 탑동 835-2","indutype":"일반휴게음식 - 일반한식","category":"restaurant"}]},{"lat":"37.270456809","long":"126.97506808","imageIndex":4,"items":[{"name":"다루마","tel":"","addr":"경기도 수원시 권선구 탑동 843-6번지 1층","indutype":"일반휴게음식 - 일반한식","category":"restaurant"},{"name":"치킨앤포차","tel":"031-291-1122","addr":"경기도 수원시 권선구 탑동 843-6번지 A동 101호","indutype":"일반휴게음식 - 일반한식","category":"restaurant"}]},{"lat":"37.270654623","long":"126.97336557","imageIndex":4,"items":[{"name":"다원성중화요리","tel":"031-297-8822","addr":"경기도 수원시 권선구 탑동 815-11번지 1층","indutype":"일반휴게음식 - 중국식","category":"restaurant"}]},{"lat":"37.268096165","long":"126.97528315","imageIndex":4,"items":[{"name":"다정해","tel":"031-293-9285","addr":"경기도 수원시 권선구 탑동 862-4번지","indutype":"일반휴게음식 - 일반한식","category":"restaurant"}]},{"lat":"37.268627876","long":"126.97573392","imageIndex":4,"items":[{"name":"대박고깃집 (탑동점)","tel":"031-227-4040","addr":"경기도 수원시 권선구 탑동 863-1번지 1층","indutype":"일반휴게음식 - 일반한식","category":"restaurant"},{"name":"사천샤브샤브","tel":"031-298-4992","addr":"경기도 수원시 권선구 탑동 863-1번지 204호","indutype":"일반휴게음식 - 중국식","category":"restaurant"},{"name":"슬비네시골밥상","tel":"031-292-8617","addr":"경기도 수원시 권선구 탑동 863-1서수상가B","indutype":"일반휴게음식 - 일반한식","category":"restaurant"},{"name":"이디야커피","tel":"031-294-0825","addr":"경기도 수원시 권선구 탑동 863-1번지 성원빌라 102호","indutype":"일반휴게음식 - 서양음식","category":"restaurant"},{"name":"치어스 탑동점","tel":"031-298-0158","addr":"경기도 수원시 권선구 탑동 863-1번지 서수프라자 203호","indutype":"일반휴게음식 - 주점","category":"restaurant"},{"name":"킹콩부대찌개 수원탑동점","tel":"031-293-6581","addr":"경기도 수원시 권선구 탑동 863-1번지 1층 105-2호","indutype":"일반휴게음식 - 일반한식","category":"restaurant"},{"name":"호수꼬치 탑동점","tel":"031-292-8295","addr":"경기도 수원시 권선구 탑동 863-1번지 105-1호","indutype":"일반휴게음식 - 일반한식","category":"restaurant"}]},{"lat":"37.272817345","long":"126.974402","imageIndex":4,"items":[{"name":"대청마루","tel":"031-291-5666","addr":"경기도 수원시 권선구 탑동 789-4번지","indutype":"일반휴게음식 - 일반한식","category":"restaurant"}]},{"lat":"37.275042921","long":"126.97455901","imageIndex":4,"items":[{"name":"데킬라","tel":"031-278-8866","addr":"경기도 수원시 권선구 탑동 758-4번지","indutype":"일반휴게음식 - 일반한식","category":"restaurant"}]},{"lat":"37.274654979","long":"126.97254093","imageIndex":4,"items":[{"name":"돈가대박집","tel":"031-291-9991","addr":"경기도 수원시 권선구 탑동 748-4번지 2층","indutype":"일반휴게음식 - 일반한식","category":"restaurant"}]},{"lat":"37.268374638","long":"126.97186701","imageIndex":4,"items":[{"name":"돈드레","tel":"031-294-6868","addr":"경기도 수원시 권선구 탑동 818-1번지","indutype":"일반휴게음식 - 일반한식","category":"restaurant"},{"name":"킥라이브","tel":"031-296-8090","addr":"경기도 수원시 권선구 탑동 818-1번지 창한빌딩 2층 202호","indutype":"일반휴게음식 - 주점","category":"restaurant"},{"name":"후","tel":"031-294-6868","addr":"경기도 수원시 권선구 탑동 818-1번지","indutype":"일반휴게음식 - 칵테일바","category":"restaurant"}]},{"lat":"37.274042545","long":"126.97358974","imageIndex":4,"items":[{"name":"돈파패밀리","tel":"031-123-4567","addr":"경기도 수원시 권선구 탑동 749-7번지 101호","indutype":"일반휴게음식 - 일반한식","category":"restaurant"},{"name":"피자스쿨(탑동점)","tel":"031-292-8892","addr":"경기도 수원시 권선구 탑동 749-7번지 1층","indutype":"일반휴게음식 - 서양음식","category":"restaurant"}]},{"lat":"37.269574555","long":"126.9784845","imageIndex":4,"items":[{"name":"동네  민(동네주민)","tel":"","addr":"경기도 수원시 권선구 탑동 853-9번지 103호","indutype":"일반휴게음식 - 일반한식","category":"restaurant"},{"name":"동네주민","tel":"","addr":"경기도 수원시 권선구 탑동 853-9번지 103호","indutype":"일반휴게음식 - 주점","category":"restaurant"}]},{"lat":"37.268763118","long":"126.97611719","imageIndex":4,"items":[{"name":"돼지새마을운동탑동점","tel":"031-223-5214","addr":"경기도 수원시 권선구 탑동 863-3번지","indutype":"일반휴게음식 - 일반한식","category":"restaurant"},{"name":"시골장터순대국","tel":"031-297-0039","addr":"경기도 수원시 권선구 탑동 863-3번지 1층","indutype":"일반휴게음식 - 일반한식","category":"restaurant"},{"name":"씨엠치킨 (CM치킨)","tel":"031-663-0447","addr":"경기도 수원시 권선구 탑동 863-3번지","indutype":"일반휴게음식 - 스넥","category":"restaurant"},{"name":"채상궁","tel":"031-227-4945","addr":"경기도 수원시 권선구 탑동 863-3번지 2층","indutype":"일반휴게음식 - 일반한식","category":"restaurant"}]},{"lat":"37.268762218","long":"126.97239673","imageIndex":4,"items":[{"name":"두꺼비식당","tel":"031-296-0938","addr":"경기도 수원시 권선구 탑동 820-6번지 1층 101호","indutype":"일반휴게음식 - 일반한식","category":"restaurant"}]},{"lat":"37.257741586","long":"126.96859107","imageIndex":4,"items":[{"name":"두드림건강카페샘","tel":"031-242-0877","addr":"경기도 수원시 권선구 탑동 907번지","indutype":"일반휴게음식 - 서양음식","category":"restaurant"}]},{"lat":"37.270708977","long":"126.97456063","imageIndex":4,"items":[{"name":"뚱보집","tel":"031-292-9298","addr":"경기도 수원시 권선구 탑동 840-1번지","indutype":"일반휴게음식 - 일반한식","category":"restaurant"},{"name":"명랑핫도그(탑동점)","tel":"","addr":"경기도 수원시 권선구 탑동 840-1번지","indutype":"일반휴게음식 - 스넥","category":"restaurant"}]},{"lat":"37.274070401","long":"126.97714133","imageIndex":4,"items":[{"name":"뚱스치킨","tel":"031-292-3222","addr":"경기도 수원시 권선구 탑동 14-26번지 102호","indutype":"일반휴게음식 - 주점","category":"restaurant"}]},{"lat":"37.27457377","long":"126.97208996","imageIndex":4,"items":[{"name":"뜰","tel":"031-241-4521","addr":"경기도 수원시 권선구 탑동 748-1번지 1층","indutype":"일반휴게음식 - 일반한식","category":"restaurant"}]},{"lat":"37.268762608","long":"126.97395256","imageIndex":4,"items":[{"name":"라이브","tel":"031-292-5527","addr":"경기도 수원시 권선구 탑동 835-1번지 4층","indutype":"일반휴게음식 - 주점","category":"restaurant"}]},{"lat":"37.274871537","long":"126.9737811","imageIndex":4,"items":[{"name":"롯데리아탑동점","tel":"031-294-1840","addr":"경기도 수원시 권선구 탑동 757-1번지 차정형외과 1층 101호","indutype":"일반휴게음식 - 서양음식","category":"restaurant"}]},{"lat":"37.257210947","long":"126.97211958","imageIndex":4,"items":[{"name":"마누스","tel":"","addr":"경기도 수원시 권선구 탑동 900번지 권선구청 주차장","indutype":"일반휴게음식 - 일반한식","category":"restaurant"},{"name":"선 건강카페 샘","tel":"031-256-0887","addr":"경기도 수원시 권선구 탑동 900번지 권선구청","indutype":"일반휴게음식 - 서양음식","category":"restaurant"}]},{"lat":"37.26693495","long":"126.98055974","imageIndex":4,"items":[{"name":"마루장수촌","tel":"031-296-9292","addr":"경기도 수원시 권선구 탑동 330-2번지","indutype":"일반휴게음식 - 일반한식","category":"restaurant"},{"name":"풍천민물장어직판장","tel":"031-296-9292","addr":"경기도 수원시 권선구 탑동 330-2번지","indutype":"일반휴게음식 - 일반한식","category":"restaurant"}]},{"lat":"37.269600793","long":"126.97489928","imageIndex":4,"items":[{"name":"마약먹태","tel":"031-297-6055","addr":"경기도 수원시 권선구 탑동 841-3번지 102호","indutype":"일반휴게음식 - 주점","category":"restaurant"}]},{"lat":"37.27098806","long":"126.97359093","imageIndex":4,"items":[{"name":"마이돈","tel":"031-296-9862","addr":"경기도 수원시 권선구 탑동 807-6번지 1층","indutype":"일반휴게음식 - 일반한식","category":"restaurant"}]},{"lat":"37.267482892","long":"126.97292712","imageIndex":4,"items":[{"name":"마포집손칼국수","tel":"031-296-6686","addr":"경기도 수원시 권선구 탑동 432-1번지","indutype":"일반휴게음식 - 일반한식","category":"restaurant"},{"name":"무궁화","tel":"031-293-8432","addr":"경기도 수원시 권선구 탑동 432-1번지","indutype":"일반휴게음식 - 일반한식","category":"restaurant"}]},{"lat":"37.26912346","long":"126.97581266","imageIndex":4,"items":[{"name":"만두촌","tel":"031-295-8798","addr":"경기도 수원시 권선구 탑동 845-3번지 102호","indutype":"일반휴게음식 - 일반한식","category":"restaurant"},{"name":"얼큰이찌개마을","tel":"031-295-4213","addr":"경기도 수원시 권선구 탑동 845-3번지 101호","indutype":"일반휴게음식 - 일반한식","category":"restaurant"},{"name":"용구비어","tel":"031-227-4809","addr":"경기도 수원시 권선구 탑동 845-3번지 103호","indutype":"일반휴게음식 - 주점","category":"restaurant"}]},{"lat":"37.274988786","long":"126.9742546","imageIndex":4,"items":[{"name":"맘스터치 수원탑동점","tel":"031-297-3690","addr":"경기도 수원시 권선구 탑동 758-2번지 1층","indutype":"일반휴게음식 - 서양음식","category":"restaurant"}]},{"lat":"37.272150819","long":"126.97539442","imageIndex":4,"items":[{"name":"멕시카나","tel":"031-291-9288","addr":"경기도 수원시 권선구 탑동 795-1번지 103호","indutype":"일반휴게음식 - 스넥","category":"restaurant"},{"name":"삼대떡볶이","tel":"031-302-3338","addr":"경기도 수원시 권선구 탑동 795-1번지 102호","indutype":"일반휴게음식 - 스넥","category":"restaurant"}]},{"lat":"37.271375711","long":"126.97444764","imageIndex":4,"items":[{"name":"면양술군포차","tel":"031-111-1111","addr":"경기도 수원시 권선구 탑동 809-2번지 1층 102호","indutype":"일반휴게음식 - 일반한식","category":"restaurant"}]},{"lat":"37.275233039","long":"126.97861797","imageIndex":4,"items":[{"name":"명가네","tel":"031-292-3262","addr":"경기도 수원시 권선구 탑동 1-3번지","indutype":"일반휴게음식 - 일반한식","category":"restaurant"}]},{"lat":"37.275458141","long":"126.97787374","imageIndex":4,"items":[{"name":"명가네순대국","tel":"031-292-3262","addr":"경기도 수원시 권선구 탑동 4-1번지","indutype":"일반휴게음식 - 일반한식","category":"restaurant"}]},{"lat":"37.271709549","long":"126.97642056","imageIndex":4,"items":[{"name":"명숙상회","tel":"031-298-5892","addr":"경기도 수원시 권선구 탑동 299-2번지 101호","indutype":"일반휴게음식 - 일반한식","category":"restaurant"}]},{"lat":"37.272601109","long":"126.97444718","imageIndex":4,"items":[{"name":"명태식당","tel":"031-278-7626","addr":"경기도 수원시 권선구 탑동 789-6번지","indutype":"일반휴게음식 - 일반한식","category":"restaurant"}]},{"lat":"37.259210743","long":"126.97028131","imageIndex":4,"items":[{"name":"명품장어","tel":"031-257-0004","addr":"경기도 수원시 권선구 탑동 615-2 1,2층","indutype":"일반휴게음식 - 일반한식","category":"restaurant"}]},{"lat":"37.259373355","long":"126.9718707","imageIndex":4,"items":[{"name":"모박사부대찌개","tel":"031-111-1111","addr":"경기도 수원시 권선구 탑동 620-1번지","indutype":"일반휴게음식 - 일반한식","category":"restaurant"},{"name":"임학순원주추어탕","tel":"031-278-2260","addr":"경기도 수원시 권선구 탑동 620-1번지 101호,102호,103호","indutype":"일반휴게음식 - 일반한식","category":"restaurant"}]},{"lat":"37.274845309","long":"126.97725382","imageIndex":4,"items":[{"name":"못골","tel":"031-278-3493","addr":"경기도 수원시 권선구 탑동 5-6번지","indutype":"일반휴게음식 - 일반한식","category":"restaurant"}]},{"lat":"37.270375623","long":"126.9746735","imageIndex":4,"items":[{"name":"못말리는파닭&쫄탁","tel":"031-298-2566","addr":"경기도 수원시 권선구 탑동 840-4번지","indutype":"일반휴게음식 - 일반한식","category":"restaurant"},{"name":"미니펍","tel":"070-7504-7523","addr":"경기도 수원시 권선구 탑동 840-4번지 102호","indutype":"일반휴게음식 - 일반한식","category":"restaurant"}]},{"lat":"37.259373082","long":"126.97084488","imageIndex":4,"items":[{"name":"물음표","tel":"","addr":"경기도 수원시 권선구 탑동 617번지 1층","indutype":"일반휴게음식 - 서양음식","category":"restaurant"}]},{"lat":"37.275016421","long":"126.97687041","imageIndex":4,"items":[{"name":"미소돼지","tel":"070-8202-0503","addr":"경기도 수원시 권선구 탑동 12-12번지 1층","indutype":"일반휴게음식 - 일반한식","category":"restaurant"}]},{"lat":"37.275295523","long":"126.97590065","imageIndex":4,"items":[{"name":"미스터피자서수원점","tel":"031-293-0854","addr":"경기도 수원시 권선구 탑동 759-7번지 삼호빌딩 2층","indutype":"일반휴게음식 - 서양음식","category":"restaurant"}]},{"lat":"37.271627966","long":"126.97431225","imageIndex":4,"items":[{"name":"민속마을","tel":"031-291-4997","addr":"경기도 수원시 권선구 탑동 785-3번지","indutype":"일반휴게음식 - 주점","category":"restaurant"},{"name":"황혼에서 새벽까지","tel":"031-295-5092","addr":"경기도 수원시 권선구 탑동 785-3번지 101호 785-3","indutype":"일반휴게음식 - 일식·회집","category":"restaurant"}]},{"lat":"37.268510535","long":"126.97484331","imageIndex":4,"items":[{"name":"바듀","tel":"031-297-0966","addr":"경기도 수원시 권선구 탑동 861-1번지","indutype":"일반휴게음식 - 주점","category":"restaurant"},{"name":"탑쉐프","tel":"031-242-9431","addr":"경기도 수원시 권선구 탑동 861-1번지 2층 201호","indutype":"일반휴게음식 - 일반한식","category":"restaurant"},{"name":"펀비어킹 탑동점","tel":"031-898-6027","addr":"경기도 수원시 권선구 탑동 861-1번지 1층","indutype":"일반휴게음식 - 주점","category":"restaurant"}]},{"lat":"37.272709227","long":"126.97442459","imageIndex":4,"items":[{"name":"베이커앤코(Baker&co)","tel":"","addr":"경기도 수원시 권선구 탑동 789-5번지","indutype":"일반휴게음식 - 서양음식","category":"restaurant"}]},{"lat":"37.268906933","long":"126.97461768","imageIndex":4,"items":[{"name":"봉이치킨","tel":"031-295-0220","addr":"경기도 수원시 권선구 탑동 835-5번지","indutype":"일반휴게음식 - 일반한식","category":"restaurant"},{"name":"알콜(R.call)","tel":"031-292-4440","addr":"경기도 수원시 권선구 탑동 835-5번지 201호","indutype":"일반휴게음식 - 주점","category":"restaurant"}]},{"lat":"37.272709134","long":"126.97404125","imageIndex":4,"items":[{"name":"부어치킨","tel":"031-291-9298","addr":"경기도 수원시 권선구 탑동 782-11번지","indutype":"일반휴게음식 - 일반한식","category":"restaurant"}]},{"lat":"37.267483639","long":"126.97603873","imageIndex":4,"items":[{"name":"북경","tel":"031-296-6776","addr":"경기도 수원시 권선구 탑동 873-1번지 1층","indutype":"일반휴게음식 - 중국식","category":"restaurant"}]},{"lat":"37.270294745","long":"126.97558676","imageIndex":4,"items":[{"name":"북경 중국성","tel":"031-296-6776","addr":"경기도 수원시 권선구 탑동 847-4번지 1층","indutype":"일반휴게음식 - 중국식","category":"restaurant"}]},{"lat":"37.272204684","long":"126.97456007","imageIndex":4,"items":[{"name":"불마루족발","tel":"031-291-9233","addr":"경기도 수원시 권선구 탑동 789-10번지 1층","indutype":"일반휴게음식 - 일반한식","category":"restaurant"},{"name":"비티씨(BTC)탑고을뚝심가","tel":"031-297-8585","addr":"경기도 수원시 권선구 탑동 789-10번지 2층","indutype":"일반휴게음식 - 일반한식","category":"restaurant"}]},{"lat":"37.269961351","long":"126.9755305","imageIndex":4,"items":[{"name":"비어본","tel":"031-892-9308","addr":"경기도 수원시 권선구 탑동 846-1번지 서윤하우징 1층 101호","indutype":"일반휴게음식 - 일반한식","category":"restaurant"}]},{"lat":"37.268843821","long":"126.97444859","imageIndex":4,"items":[{"name":"빽다방 수원탑동점","tel":"070-4135-9999","addr":"경기도 수원시 권선구 탑동 835-4번지 1층","indutype":"일반휴게음식 - 일반한식","category":"restaurant"},{"name":"이가네순대국","tel":"031-297-6959","addr":"경기도 수원시 권선구 탑동 835-4번지 1층","indutype":"일반휴게음식 - 일반한식","category":"restaurant"}]},{"lat":"37.268817909","long":"126.97956706","imageIndex":4,"items":[{"name":"삼거리주막","tel":"","addr":"경기도 수원시 권선구 탑동 328-5번지","indutype":"일반휴게음식 - 일반한식","category":"restaurant"},{"name":"서호갈비","tel":"031-294-0506","addr":"경기도 수원시 권선구 탑동 328-5번지 1층 102호,103호,104호","indutype":"일반휴게음식 - 일반한식","category":"restaurant"},{"name":"페리카나서둔탑동평동점","tel":"02-292-9992","addr":"경기도 수원시 권선구 탑동 328-5번지 101호","indutype":"일반휴게음식 - 스넥","category":"restaurant"}]},{"lat":"37.268988646","long":"126.977346","imageIndex":4,"items":[{"name":"삼시세끼삼겹살","tel":"031-278-7717","addr":"경기도 수원시 권선구 탑동 885-2번지 대능빌딩 105호","indutype":"일반휴게음식 - 일반한식","category":"restaurant"},{"name":"우리한우곱창","tel":"031-294-4990","addr":"경기도 수원시 권선구 탑동 885-2번지 대능빌딩 103호","indutype":"일반휴게음식 - 일반한식","category":"restaurant"}]},{"lat":"37.272573985","long":"126.97406385","imageIndex":4,"items":[{"name":"서현수산","tel":"031-292-1258","addr":"경기도 수원시 권선구 탑동 782-12번지","indutype":"일반휴게음식 - 일반한식","category":"restaurant"}]},{"lat":"37.268816752","long":"126.97429076","imageIndex":4,"items":[{"name":"설맥 탑동점","tel":"031-292-2992","addr":"경기도 수원시 권선구 탑동 835-3번지 1층 101호","indutype":"일반휴게음식 - 스넥","category":"restaurant"},{"name":"장호덕손만두(수원탑동점)","tel":"031-227-8911","addr":"경기도 수원시 권선구 탑동 835-3번지 102호","indutype":"일반휴게음식 - 스넥","category":"restaurant"}]},{"lat":"37.269096385","long":"126.97562101","imageIndex":4,"items":[{"name":"셀틱","tel":"031-298-9950","addr":"경기도 수원시 권선구 탑동 845-2번지 2층","indutype":"일반휴게음식 - 일반한식","category":"restaurant"}]},{"lat":"37.26960089","long":"126.97531642","imageIndex":4,"items":[{"name":"셰프의포차","tel":"031-431-2718","addr":"경기도 수원시 권선구 탑동 844-4번지 대원빌딩 105호","indutype":"일반휴게음식 - 일반한식","category":"restaurant"}]},{"lat":"37.267960323","long":"126.97247597","imageIndex":4,"items":[{"name":"소박사","tel":"031-294-9209","addr":"경기도 수원시 권선구 탑동 430-5번지 1층","indutype":"일반휴게음식 - 일반한식","category":"restaurant"},{"name":"시루향기탑동점","tel":"031-292-6255","addr":"경기도 수원시 권선구 탑동 430-5번지","indutype":"일반휴게음식 - 일반한식","category":"restaurant"}]},{"lat":"37.27509705","long":"126.97484087","imageIndex":4,"items":[{"name":"소풍갈비","tel":"031-291-9983","addr":"경기도 수원시 권선구 탑동 758-5번지 1층 103호","indutype":"일반휴게음식 - 일반한식","category":"restaurant"}]},{"lat":"37.266736608","long":"126.97995101","imageIndex":4,"items":[{"name":"솔향기쌈밥","tel":"031-291-1161","addr":"경기도 수원시 권선구 탑동 506-1번지 1층","indutype":"일반휴게음식 - 일반한식","category":"restaurant"}]},{"lat":"37.269934074","long":"126.974482","imageIndex":4,"items":[{"name":"송가네","tel":"031-296-6670","addr":"경기도 수원시 권선구 탑동 837-3번지","indutype":"일반휴게음식 - 일반한식","category":"restaurant"}]},{"lat":"37.268455862","long":"126.97237431","imageIndex":4,"items":[{"name":"송이낙지마당","tel":"031-291-8488","addr":"경기도 수원시 권선구 탑동 818-4번지 1층 103호,104호(4.5 송이낙지마당)","indutype":"일반휴게음식 - 일반한식","category":"restaurant"},{"name":"차이","tel":"031-278-2490","addr":"경기도 수원시 권선구 탑동 818-4번지","indutype":"일반휴게음식 - 중국식","category":"restaurant"},{"name":"코코","tel":"070-7535-1545","addr":"경기도 수원시 권선구 탑동 818-4번지 해오름상가 102호","indutype":"일반휴게음식 - 서양음식","category":"restaurant"}]},{"lat":"37.270600867","long":"126.97461705","imageIndex":4,"items":[{"name":"솥뚜껑삼겹살","tel":"070-8260-3322","addr":"경기도 수원시 권선구 탑동 840-2번지 1층","indutype":"일반휴게음식 - 일반한식","category":"restaurant"},{"name":"포트리스 탑동점","tel":"","addr":"경기도 수원시 권선구 탑동 840-2번지","indutype":"일반휴게음식 - 서양음식","category":"restaurant"}]},{"lat":"37.269177684","long":"126.97653419","imageIndex":4,"items":[{"name":"수원상회","tel":"031-292-9647","addr":"경기도 수원시 권선구 탑동 356-8번지 1층","indutype":"일반휴게음식 - 일반한식","category":"restaurant"}]},{"lat":"37.2585175","long":"126.9723445","imageIndex":4,"items":[{"name":"수원서부경찰서복지위원회","tel":"031-8012-0394","addr":"경기도 수원시 권선구 탑동 911번지","indutype":"일반휴게음식 - 위탁급식업","category":"restaurant"}]},{"lat":"37.258408037","long":"126.96753115","imageIndex":4,"items":[{"name":"수일기사식당","tel":"031-227-5438","addr":"경기도 수원시 권선구 탑동 579-3번지","indutype":"일반휴게음식 - 일반한식","category":"restaurant"}]},{"lat":"37.268428744","long":"126.9720361","imageIndex":4,"items":[{"name":"스테이플러(staypler)","tel":"031-223-5214","addr":"경기도 수원시 권선구 탑동 818-2번지 101호","indutype":"일반휴게음식 - 서양음식","category":"restaurant"}]},{"lat":"37.273321953","long":"126.97453711","imageIndex":4,"items":[{"name":"신전떡볶이 탑동점","tel":"031-291-3337","addr":"경기도 수원시 권선구 탑동 765-7번지 102호","indutype":"일반휴게음식 - 스넥","category":"restaurant"}]},{"lat":"37.268627267","long":"126.97319725","imageIndex":4,"items":[{"name":"아구야","tel":"031-227-9233","addr":"경기도 수원시 권선구 탑동 819-3번지 1,2층","indutype":"일반휴게음식 - 일반한식","category":"restaurant"}]},{"lat":"37.274070702","long":"126.97856197","imageIndex":4,"items":[{"name":"알콜(C2H5OH)","tel":"031-278-6590","addr":"경기도 수원시 권선구 탑동 22-1번지 1층","indutype":"일반휴게음식 - 주점","category":"restaurant"}]},{"lat":"37.269294935","long":"126.97706404","imageIndex":4,"items":[{"name":"알콜충전","tel":"031-2339-6990","addr":"경기도 수원시 권선구 탑동 852-1번지 1층","indutype":"일반휴게음식 - 일반한식","category":"restaurant"}]},{"lat":"37.271457268","long":"126.97645448","imageIndex":4,"items":[{"name":"알투라 (ALTURA)","tel":"031-292-8607","addr":"경기도 수원시 권선구 탑동 812-13번지 1층","indutype":"일반휴게음식 - 일반한식","category":"restaurant"},{"name":"알투라(ALTURA)","tel":"031-298-8225","addr":"경기도 수원시 권선구 탑동 812-13번지 1층","indutype":"일반휴게음식 - 서양음식","category":"restaurant"}]},{"lat":"37.270817049","long":"126.97434638","imageIndex":4,"items":[{"name":"암소암퇘지전문점","tel":"031-296-7789","addr":"경기도 수원시 권선구 탑동 839-6번지 민석빌라 지층 1호","indutype":"일반휴게음식 - 일반한식","category":"restaurant"}]},{"lat":"37.270735874","long":"126.97400818","imageIndex":4,"items":[{"name":"야식포차","tel":"031-298-9291","addr":"경기도 수원시 권선구 탑동 839-3번지 가림주택 24-3 101호","indutype":"일반휴게음식 - 일반한식","category":"restaurant"}]},{"lat":"37.25921109","long":"126.9715664","imageIndex":4,"items":[{"name":"양촌리닭개장","tel":"031-292-8252","addr":"경기도 수원시 권선구 탑동 619-2번지 1층","indutype":"일반휴게음식 - 일반한식","category":"restaurant"}]},{"lat":"37.266736735","long":"126.98061617","imageIndex":4,"items":[{"name":"어천추어탕","tel":"031-211-2660","addr":"경기도 수원시 권선구 탑동 330-3번지","indutype":"일반휴게음식 - 일반한식","category":"restaurant"}]},{"lat":"37.271321951","long":"126.97573295","imageIndex":4,"items":[{"name":"엔에스(NS)푸드","tel":"031-296-7707","addr":"경기도 수원시 권선구 탑동 812-2번지 대림아트빌3차 101호 일부","indutype":"일반휴게음식 - 일반한식","category":"restaurant"}]},{"lat":"37.269627147","long":"126.9721709","imageIndex":4,"items":[{"name":"오남매김밥","tel":"031-273-3300","addr":"경기도 수원시 권선구 탑동 821-7번지 동화타워 1층 102호","indutype":"일반휴게음식 - 일반한식","category":"restaurant"}]},{"lat":"37.270763138","long":"126.97497777","imageIndex":4,"items":[{"name":"오늘도술술","tel":"031-292-5577","addr":"경기도 수원시 권선구 탑동 843-4번지 천림빌딩 103호","indutype":"일반휴게음식 - 주점","category":"restaurant"},{"name":"이자카야홍","tel":"031-000-0000","addr":"경기도 수원시 권선구 탑동 843-4번지 천림빌딩 104호","indutype":"일반휴게음식 - 주점","category":"restaurant"}]},{"lat":"37.267682714","long":"126.98008601","imageIndex":4,"items":[{"name":"오리익는마을","tel":"031-296-8019","addr":"경기도 수원시 권선구 탑동 329-11번지","indutype":"일반휴게음식 - 일반한식","category":"restaurant"}]},{"lat":"37.267960244","long":"126.97217157","imageIndex":4,"items":[{"name":"왕골남서문곰탕","tel":"031-292-2314","addr":"경기도 수원시 권선구 탑동 429-2번지 1층","indutype":"일반휴게음식 - 일반한식","category":"restaurant"}]},{"lat":"37.267195307","long":"126.97602756","imageIndex":4,"items":[{"name":"요거프레소 탑동점","tel":"070-7404-1465","addr":"경기도 수원시 권선구 탑동 867-3번지 A동 101호","indutype":"일반휴게음식 - 서양음식","category":"restaurant"}]},{"lat":"37.259346409","long":"126.97219762","imageIndex":4,"items":[{"name":"용우각","tel":"031-227-8287","addr":"경기도 수원시 권선구 탑동 621번지","indutype":"일반휴게음식 - 중국식","category":"restaurant"}]},{"lat":"37.270240581","long":"126.97514708","imageIndex":4,"items":[{"name":"웃거리왕족발","tel":"031-296-4310","addr":"경기도 수원시 권선구 탑동 843-8번지 1층","indutype":"일반휴게음식 - 일반한식","category":"restaurant"}]},{"lat":"37.256795656","long":"126.9691213","imageIndex":4,"items":[{"name":"웨딩하우스","tel":"031-8004-8000","addr":"경기도 수원시 권선구 탑동 903번지 2층,4층,지하1층","indutype":"일반휴게음식 - 일반한식","category":"restaurant"}]},{"lat":"37.26726731","long":"126.97567804","imageIndex":4,"items":[{"name":"유가우돈면옥","tel":"031-292-9242","addr":"경기도 수원시 권선구 탑동 867-1번지 1층","indutype":"일반휴게음식 - 일반한식","category":"restaurant"}]},{"lat":"37.268681413","long":"126.97353545","imageIndex":4,"items":[{"name":"육번지","tel":"031-294-8954","addr":"경기도 수원시 권선구 탑동 819-5번지 삼오타워 1층","indutype":"일반휴게음식 - 일반한식","category":"restaurant"}]},{"lat":"37.270150557","long":"126.97548534","imageIndex":4,"items":[{"name":"육소단","tel":"031-293-1500","addr":"경기도 수원시 권선구 탑동 847-6번지 1층","indutype":"일반휴게음식 - 일반한식","category":"restaurant"}]},{"lat":"37.273898496","long":"126.97406334","imageIndex":4,"items":[{"name":"이경김밥","tel":"031-298-0012","addr":"경기도 수원시 권선구 탑동 766-1번지 103호","indutype":"일반휴게음식 - 일반한식","category":"restaurant"},{"name":"줄리앙와플&커피","tel":"031-111-1111","addr":"경기도 수원시 권선구 탑동 766-1번지 104호","indutype":"일반휴게음식 - 서양음식","category":"restaurant"}]},{"lat":"37.269240819","long":"126.97681602","imageIndex":4,"items":[{"name":"이모네꼬마김밥","tel":"031-296-3265","addr":"경기도 수원시 권선구 탑동 356-9번지 1층 2호","indutype":"일반휴게음식 - 스넥","category":"restaurant"}]},{"lat":"37.259598164","long":"126.97020224","imageIndex":4,"items":[{"name":"이미지웨카","tel":"031-292-3401","addr":"경기도 수원시 권선구 탑동 615-4번지 1층","indutype":"일반휴게음식 - 일반한식","category":"restaurant"}]},{"lat":"37.27334891","long":"126.97423268","imageIndex":4,"items":[{"name":"이삭토스트","tel":"031-295-5559","addr":"경기도 수원시 권선구 탑동 766-5번지 102호","indutype":"일반휴게음식 - 스넥","category":"restaurant"}]},{"lat":"37.268600188","long":"126.9730056","imageIndex":4,"items":[{"name":"일차돌(탑동점)","tel":"031-222-2784","addr":"경기도 수원시 권선구 탑동 819-2번지 삼승빌딩 1층","indutype":"일반휴게음식 - 일반한식","category":"restaurant"}]},{"lat":"37.259319466","long":"126.97253581","imageIndex":4,"items":[{"name":"입큰메기","tel":"031-293-6788","addr":"경기도 수원시 권선구 탑동 622번지 1층","indutype":"일반휴게음식 - 일반한식","category":"restaurant"}]},{"lat":"37.274149934","long":"126.97075969","imageIndex":4,"items":[{"name":"장금이한식뷔페","tel":"031-293-9311","addr":"경기도 수원시 권선구 탑동 744-4번지","indutype":"일반휴게음식 - 일반한식","category":"restaurant"},{"name":"파파존스 서수원점","tel":"031-293-8088","addr":"경기도 수원시 권선구 탑동 744-4번지","indutype":"일반휴게음식 - 서양음식","category":"restaurant"}]},{"lat":"37.270348699","long":"126.97512449","imageIndex":4,"items":[{"name":"지지미","tel":"031-298-1536","addr":"경기도 수원시 권선구 탑동 843-7번지 B동 101호","indutype":"일반휴게음식 - 주점","category":"restaurant"},{"name":"청년다방(탑동점)","tel":"031-227-7753","addr":"경기도 수원시 권선구 탑동 843-7번지 B동 1층 102호","indutype":"일반휴게음식 - 스넥","category":"restaurant"}]},{"lat":"37.270735499","long":"126.97250868","imageIndex":4,"items":[{"name":"진미가마솥통닭","tel":"031-296-5666","addr":"경기도 수원시 권선구 탑동 806-1번지","indutype":"일반휴게음식 - 일반한식","category":"restaurant"}]},{"lat":"37.275656367","long":"126.97787368","imageIndex":4,"items":[{"name":"차이나고","tel":"031-298-9181","addr":"경기도 수원시 권선구 탑동 5-24번지 1층","indutype":"일반휴게음식 - 중국식","category":"restaurant"}]},{"lat":"37.270961351","long":"126.97492132","imageIndex":4,"items":[{"name":"참숯마포생갈비","tel":"031-294-9203","addr":"경기도 수원시 권선구 탑동 843-1번지","indutype":"일반휴게음식 - 일반한식","category":"restaurant"}]},{"lat":"37.273321985","long":"126.9746724","imageIndex":4,"items":[{"name":"천서리막국수","tel":"031-294-7744","addr":"경기도 수원시 권선구 탑동 765-6번지 우림빌라 1층 101호","indutype":"일반휴게음식 - 일반한식","category":"restaurant"}]},{"lat":"37.270483741","long":"126.97465091","imageIndex":4,"items":[{"name":"청학동","tel":"031-292-2174","addr":"경기도 수원시 권선구 탑동 840-3번지","indutype":"일반휴게음식 - 일반한식","category":"restaurant"},{"name":"해밀","tel":"031-291-7487","addr":"경기도 수원시 권선구 탑동 840-3번지","indutype":"일반휴게음식 - 일반한식","category":"restaurant"}]},{"lat":"37.274429959","long":"126.97347684","imageIndex":4,"items":[{"name":"춘천닭갈비vs양푼이김치찌개","tel":"031-295-4003","addr":"경기도 수원시 권선구 탑동 749-4번지 101호","indutype":"일반휴게음식 - 일반한식","category":"restaurant"}]},{"lat":"37.270123453","long":"126.97516967","imageIndex":4,"items":[{"name":"치킨플러스수원탑동점","tel":"031-203-9285","addr":"경기도 수원시 권선구 탑동 843-9번지 1층 101호","indutype":"일반휴게음식 - 일반한식","category":"restaurant"},{"name":"호우양꼬치","tel":"031-298-9993","addr":"경기도 수원시 권선구 탑동 843-9번지 102호","indutype":"일반휴게음식 - 일반한식","category":"restaurant"}]},{"lat":"37.271790498","long":"126.97578916","imageIndex":4,"items":[{"name":"카페 공가","tel":"","addr":"경기도 수원시 권선구 탑동 35-2번지 1,2층","indutype":"일반휴게음식 - 서양음식","category":"restaurant"}]},{"lat":"37.27109634","long":"126.97423353","imageIndex":4,"items":[{"name":"카페도츠","tel":"","addr":"경기도 수원시 권선구 탑동 808-5번지 1층","indutype":"일반휴게음식 - 서양음식","category":"restaurant"}]},{"lat":"37.271565514","long":"126.97700689","imageIndex":4,"items":[{"name":"카페스플랜디드(Cafe Splendid)","tel":"02-0000-0000","addr":"경기도 수원시 권선구 탑동 300-11번지 1층","indutype":"일반휴게음식 - 서양음식","category":"restaurant"}]},{"lat":"37.269042766","long":"126.97761656","imageIndex":4,"items":[{"name":"카페줄루","tel":"070-2162-3369","addr":"경기도 수원시 권선구 탑동 885-3번지","indutype":"일반휴게음식 - 스넥","category":"restaurant"},{"name":"큰집멸치국수","tel":"031-295-9928","addr":"경기도 수원시 권선구 탑동 885-3번지 죽전빌딩 106호","indutype":"일반휴게음식 - 스넥","category":"restaurant"}]},{"lat":"37.275349646","long":"126.97617124","imageIndex":4,"items":[{"name":"카페탑","tel":"031-293-0709","addr":"경기도 수원시 권선구 탑동 759-9번지","indutype":"일반휴게음식 - 일반한식","category":"restaurant"}]},{"lat":"37.273484051","long":"126.97417625","imageIndex":4,"items":[{"name":"커피포로","tel":"031-278-3346","addr":"경기도 수원시 권선구 탑동 766-4번지 130","indutype":"일반휴게음식 - 서양음식","category":"restaurant"}]},{"lat":"37.269267536","long":"126.97542929","imageIndex":4,"items":[{"name":"코리안숯불닭바베큐","tel":"031-296-8292","addr":"경기도 수원시 권선구 탑동 844-7번지 1층","indutype":"일반휴게음식 - 일반한식","category":"restaurant"},{"name":"큰맘할매순대국 탑동점","tel":"031-239-3230","addr":"경기도 수원시 권선구 탑동 844-7번지 1층","indutype":"일반휴게음식 - 일반한식","category":"restaurant"}]},{"lat":"37.270177619","long":"126.97562062","imageIndex":4,"items":[{"name":"쿨","tel":"031-309-5993","addr":"경기도 수원시 권선구 탑동 847-5번지 세림빌라 102호","indutype":"일반휴게음식 - 일반한식","category":"restaurant"}]},{"lat":"37.26893401","long":"126.97480933","imageIndex":4,"items":[{"name":"킹콩떡볶이","tel":"031-000-0000","addr":"경기도 수원시 권선구 탑동 835-6번지 동화타워 1층 103호","indutype":"일반휴게음식 - 일반한식","category":"restaurant"}]},{"lat":"37.274240454","long":"126.97233815","imageIndex":4,"items":[{"name":"탑동삼계탕","tel":"031-397-5676","addr":"경기도 수원시 권선구 탑동 752-2번지 102호","indutype":"일반휴게음식 - 일반한식","category":"restaurant"}]},{"lat":"37.269376468","long":"126.97917229","imageIndex":4,"items":[{"name":"탑동순대국","tel":"031-293-2391","addr":"경기도 수원시 권선구 탑동 888-5번지","indutype":"일반휴게음식 - 일반한식","category":"restaurant"}]},{"lat":"37.270708346","long":"126.97203517","imageIndex":4,"items":[{"name":"탑동식당","tel":"031-293-6650","addr":"경기도 수원시 권선구 탑동 801-9번지","indutype":"일반휴게음식 - 일반한식","category":"restaurant"}]},{"lat":"37.26865434","long":"126.97336635","imageIndex":4,"items":[{"name":"택이네조개전골","tel":"031-258-7805","addr":"경기도 수원시 권선구 탑동 819-4번지 모아빌딩 1층","indutype":"일반휴게음식 - 일반한식","category":"restaurant"}]},{"lat":"37.274150662","long":"126.97356715","imageIndex":4,"items":[{"name":"투다리","tel":"031-111-1111","addr":"경기도 수원시 권선구 탑동 749-6번지","indutype":"일반휴게음식 - 일반한식","category":"restaurant"}]},{"lat":"37.266096593","long":"126.97853072","imageIndex":4,"items":[{"name":"푸른지대가든","tel":"031-292-0935","addr":"경기도 수원시 권선구 탑동 505번지","indutype":"일반휴게음식 - 일반한식","category":"restaurant"}]},{"lat":"37.27015038","long":"126.97472996","imageIndex":4,"items":[{"name":"풍류인&수원닭발","tel":"031-297-1292","addr":"경기도 수원시 권선구 탑동 840-6번지 일송빌딩 B동 101호","indutype":"일반휴게음식 - 주점","category":"restaurant"}]},{"lat":"37.270681738","long":"126.97370379","imageIndex":4,"items":[{"name":"피자나라치킨공주 수원탑동점","tel":"031-295-9271","addr":"경기도 수원시 권선구 탑동 839-1번지 가림주택 24-1 2층 202호","indutype":"일반휴게음식 - 일반한식","category":"restaurant"}]},{"lat":"37.270239672","long":"126.97150546","imageIndex":4,"items":[{"name":"피자샵 서수원점","tel":"031-278-7320","addr":"경기도 수원시 권선구 탑동 814-1번지 어진빌딩","indutype":"일반휴게음식 - 서양음식","category":"restaurant"}]},{"lat":"37.275683466","long":"126.97820065","imageIndex":4,"items":[{"name":"피자알볼로 구운탑동점","tel":"031-227-8495","addr":"경기도 수원시 권선구 탑동 5-29번지 동은빌딩 1층","indutype":"일반휴게음식 - 서양음식","category":"restaurant"}]},{"lat":"37.269762964","long":"126.97484285","imageIndex":4,"items":[{"name":"하루끝#","tel":"031-291-2225","addr":"경기도 수원시 권선구 탑동 841-2번지 1층","indutype":"일반휴게음식 - 일반한식","category":"restaurant"}]},{"lat":"37.274404077","long":"126.97853931","imageIndex":4,"items":[{"name":"하림맥시칸구운점","tel":"031-292-6555","addr":"경기도 수원시 권선구 탑동 1-28번지 새롬아파트","indutype":"일반휴게음식 - 주점","category":"restaurant"}]},{"lat":"37.272429821","long":"126.9740639","imageIndex":4,"items":[{"name":"한근","tel":"031-227-5639","addr":"경기도 수원시 권선구 탑동 782-13번지 102호","indutype":"일반휴게음식 - 일반한식","category":"restaurant"}]},{"lat":"37.271628531","long":"126.97675883","imageIndex":4,"items":[{"name":"한솔분식","tel":"031-000-0000","addr":"경기도 수원시 권선구 탑동 300-2번지 1층","indutype":"일반휴게음식 - 스넥","category":"restaurant"}]},{"lat":"37.269069315","long":"126.97545191","imageIndex":4,"items":[{"name":"한솥도시락","tel":"031-613-2446","addr":"경기도 수원시 권선구 탑동 845-1번지 104호","indutype":"일반휴게음식 - 일반한식","category":"restaurant"},{"name":"한솥도시락 탑동점","tel":"031-111-1111","addr":"경기도 수원시 권선구 탑동 845-1번지 104호","indutype":"일반휴게음식 - 일반한식","category":"restaurant"}]},{"lat":"37.27093522","long":"126.97903651","imageIndex":4,"items":[{"name":"한수산","tel":"031-293-8295","addr":"경기도 수원시 권선구 탑동 320-17번지 1층","indutype":"일반휴게음식 - 일식·회집","category":"restaurant"}]},{"lat":"37.26793337","long":"126.97278038","imageIndex":4,"items":[{"name":"한우돈가정육점식당","tel":"031-296-8592","addr":"경기도 수원시 권선구 탑동 430-2번지","indutype":"일반휴게음식 - 일반한식","category":"restaurant"}]},{"lat":"37.271737108","long":"126.97890096","imageIndex":4,"items":[{"name":"한우세상정육식당","tel":"02-1234-1234","addr":"경기도 수원시 권선구 탑동 23-28번지 1층 102호","indutype":"일반휴게음식 - 일반한식","category":"restaurant"}]},{"lat":"37.266681885","long":"126.97676054","imageIndex":4,"items":[{"name":"한입","tel":"031-292-4936","addr":"경기도 수원시 권선구 탑동 867-9번지 태양하이츠빌라 101호","indutype":"일반휴게음식 - 일반한식","category":"restaurant"}]},{"lat":"37.272430221","long":"126.97575511","imageIndex":4,"items":[{"name":"해뜰","tel":"031-278-9640","addr":"경기도 수원시 권선구 탑동 793-6번지 1층","indutype":"일반휴게음식 - 일반한식","category":"restaurant"}]},{"lat":"37.270573426","long":"126.97294845","imageIndex":4,"items":[{"name":"향화","tel":"","addr":"경기도 수원시 권선구 탑동 815-6번지","indutype":"일반휴게음식 - 일반한식","category":"restaurant"}]},{"lat":"37.275322874","long":"126.97734386","imageIndex":4,"items":[{"name":"현대사우나식당","tel":"031-296-9221","addr":"경기도 수원시 권선구 탑동 5-4번지 현대탑월드 지하1층 1호","indutype":"일반휴게음식 - 일반한식","category":"restaurant"}]},{"lat":"37.273845299","long":"126.977863","imageIndex":4,"items":[{"name":"호식이두마리치킨","tel":"031-296-9987","addr":"경기도 수원시 권선구 탑동 22-20번지","indutype":"일반휴게음식 - 일반한식","category":"restaurant"}]},{"lat":"37.274763249","long":"126.97311591","imageIndex":4,"items":[{"name":"홍가네 광어촌","tel":"031-296-7984","addr":"경기도 수원시 권선구 탑동 748-7번지","indutype":"일반휴게음식 - 일반한식","category":"restaurant"}]},{"lat":"37.269573412","long":"126.97345618","imageIndex":4,"items":[{"name":"황소숯불꼼장어","tel":"031-227-1292","addr":"경기도 수원시 권선구 탑동 827-2번지 성우타워빌","indutype":"일반휴게음식 - 일반한식","category":"restaurant"}]},{"lat":"37.270430656","long":"126.97909304","imageIndex":4,"items":[{"name":"효원한식","tel":"031-292-1669","addr":"경기도 수원시 권선구 탑동 311-12번지","indutype":"일반휴게음식 - 일반한식","category":"restaurant"}]},{"lat":"37.271267582","long":"126.97442513","imageIndex":4,"items":[{"name":"훌랄라숯불바베큐치킨","tel":"031-292-5822","addr":"경기도 수원시 권선구 탑동 809-3번지 1층","indutype":"일반휴게음식 - 일반한식","category":"restaurant"}]},{"lat":"37.258345981","long":"126.97111586","imageIndex":4,"items":[{"name":"휴 건강카페 샘","tel":"070-4221-0877","addr":"경기도 수원시 권선구 탑동 910번지","indutype":"일반휴게음식 - 일반한식","category":"restaurant"}]}]