[{"lat":"37.883502899","long":"127.30604444","imageIndex":4,"items":[{"name":"withC#(위드씨샵)","tel":"031-532-1452","addr":"경기도 포천시 화현면 화현리 1154-7번지 2동 1층","indutype":"일반휴게음식 - 일반한식","category":"restaurant"},{"name":"위드씨샵","tel":"-","addr":"경기도 포천시 화현면 화현리 1154-7번지","indutype":"음식 - 한식","category":"restaurant"}]},{"lat":"37.901081402","long":"127.30551393","imageIndex":4,"items":[{"name":"강구동시골밥상","tel":"031-534-0707","addr":"경기도 포천시 화현면 화현리 760-2번지","indutype":"일반휴게음식 - 일반한식","category":"restaurant"},{"name":"장수촌","tel":"031-533-9207","addr":"경기도 포천시 화현면 화현리 760-2번지","indutype":"일반휴게음식 - 일반한식","category":"restaurant"}]},{"lat":"37.900531084","long":"127.28776346","imageIndex":4,"items":[{"name":"경순손맛집","tel":"031-532-0802","addr":"경기도 포천시 화현면 화현리 874-1","indutype":"일반휴게음식 - 일반한식","category":"restaurant"}]},{"lat":"37.899161503","long":"127.29518251","imageIndex":4,"items":[{"name":"곤지암할매소머리국밥","tel":"533-3414","addr":"경기도 포천시 화현면 화현리 823-6번지","indutype":"음식 - 한식","category":"restaurant"}]},{"lat":"37.905525671","long":"127.30092706","imageIndex":4,"items":[{"name":"기사식당","tel":"031-531-2320","addr":"경기도 포천시 화현면 화현리 606-5번지","indutype":"일반휴게음식 - 일반한식","category":"restaurant"}]},{"lat":"37.901863416","long":"127.3062107","imageIndex":4,"items":[{"name":"돌거북","tel":"536-6777","addr":"경기도 포천시 화현면 화현리 654-1번지","indutype":"음식 - 한식","category":"restaurant"},{"name":"돌거북","tel":"031-536-6777","addr":"경기도 포천시 화현면 화현리 654-1번지","indutype":"일반휴게음식 - 일반한식","category":"restaurant"},{"name":"초가집순두부보리밥","tel":"031-533-0966","addr":"경기도 포천시 화현면 화현리 654-1번지","indutype":"일반휴게음식 - 일반한식","category":"restaurant"}]},{"lat":"37.899052047","long":"127.30287925","imageIndex":4,"items":[{"name":"두메쌈밥왕돈가스","tel":"031-531-9626","addr":"경기도 포천시 화현면 화현리 795-8번지","indutype":"일반휴게음식 - 일반한식","category":"restaurant"},{"name":"철원양평해장국","tel":"531-9626","addr":"경기도 포천시 화현면 화현리 795-8번지","indutype":"음식 - 한식","category":"restaurant"}]},{"lat":"37.91866566","long":"127.30970282","imageIndex":4,"items":[{"name":"또래오래(화현점)","tel":"031-532-0103","addr":"경기도 포천시 화현면 화현리 124-5번지","indutype":"일반휴게음식 - 스넥","category":"restaurant"},{"name":"또래오래화현점","tel":"532-0103","addr":"경기도 포천시 화현면 화현리 124-5번지","indutype":"음식 - 한식","category":"restaurant"},{"name":"해바라기","tel":"031-533-7898","addr":"경기도 포천시 화현면 화현리 124-5번지","indutype":"일반휴게음식 - 일반한식","category":"restaurant"}]},{"lat":"37.919278343","long":"127.30968262","imageIndex":4,"items":[{"name":"만리향","tel":"031-531-9604","addr":"경기도 포천시 화현면 화현리 105번지 1층","indutype":"일반휴게음식 - 중국식","category":"restaurant"}]},{"lat":"37.919079222","long":"127.31003435","imageIndex":4,"items":[{"name":"명인손칼국수","tel":"031-533-6750","addr":"경기도 포천시 화현면 화현리 106-14번지","indutype":"일반휴게음식 - 일반한식","category":"restaurant"}]},{"lat":"37.90235628","long":"127.30723602","imageIndex":4,"items":[{"name":"버섯마당","tel":"031-532-0999","addr":"경기도 포천시 화현면 화현리 660-2번지","indutype":"일반휴게음식 - 일반한식","category":"restaurant"},{"name":"버섯마당","tel":"","addr":"경기도 포천시 화현면 화현리 660-2번지","indutype":"음식 - 한식","category":"restaurant"}]},{"lat":"37.892136883","long":"127.30131645","imageIndex":4,"items":[{"name":"소담","tel":"533-0086","addr":"경기도 포천시 화현면 화현리 1076-2번지","indutype":"음식 - 한식","category":"restaurant"},{"name":"소담","tel":"031-533-0086","addr":"경기도 포천시 화현면 화현리 1076-2번지","indutype":"일반휴게음식 - 일반한식","category":"restaurant"}]},{"lat":"37.917385678","long":"127.30995907","imageIndex":4,"items":[{"name":"스타닥스","tel":"031-532-0990","addr":"경기도 포천시 화현면 화현리 125-3번지","indutype":"일반휴게음식 - 일반한식","category":"restaurant"}]},{"lat":"37.918080184","long":"127.3096549","imageIndex":4,"items":[{"name":"영선골순대국","tel":"031-531-9965","addr":"경기도 포천시 화현면 화현리 124-7번지","indutype":"일반휴게음식 - 일반한식","category":"restaurant"}]},{"lat":"37.892721991","long":"127.30151208","imageIndex":4,"items":[{"name":"예술마당","tel":"031-533-3233","addr":"경기도 포천시 화현면 화현리 1073-1번지","indutype":"일반휴게음식 - 일반한식","category":"restaurant"}]},{"lat":"37.892333036","long":"127.30212441","imageIndex":4,"items":[{"name":"운악골","tel":"031-534-3988","addr":"경기도 포천시 화현면 화현리 1079-6번지","indutype":"일반휴게음식 - 일반한식","category":"restaurant"}]},{"lat":"37.899835968","long":"127.30635018","imageIndex":4,"items":[{"name":"운악골순대","tel":"031-531-4304","addr":"경기도 포천시 화현면 화현리 749번지 나동","indutype":"일반휴게음식 - 일반한식","category":"restaurant"}]},{"lat":"37.888363607","long":"127.30067599","imageIndex":4,"items":[{"name":"운악산장","tel":"031-532-9894","addr":"경기도 포천시 화현면 화현리 1140번지","indutype":"일반휴게음식 - 일반한식","category":"restaurant"}]},{"lat":"37.914774592","long":"127.3093455","imageIndex":4,"items":[{"name":"운악식당","tel":"531-5040","addr":"경기도 포천시 화현면 화현리 438-2","indutype":"음식 - 한식","category":"restaurant"}]},{"lat":"37.899689436","long":"127.30376867","imageIndex":4,"items":[{"name":"장수촌(순두부보리밥)","tel":"533-9207","addr":"경기도 포천시 화현면 화현리 769-2번지","indutype":"음식 - 한식","category":"restaurant"}]},{"lat":"37.898639574","long":"127.29854581","imageIndex":4,"items":[{"name":"허창걸유활닭","tel":"031-533-8225","addr":"경기도 포천시 화현면 화현리 811번지 1층","indutype":"일반휴게음식 - 일반한식","category":"restaurant"}]}]