[{"lat":"37.08140084","long":"127.05495248","imageIndex":5,"items":[{"name":"대구여인숙","tel":"031-644-5727","addr":"경기도 평택시 신장동 208-6번지","indutype":"숙박업 - 여관/기타숙박업","category":"hotel"}]},{"lat":"37.082707054","long":"127.05567315","imageIndex":5,"items":[{"name":"드라마모텔","tel":"031-662-0067","addr":"경기도 평택시 신장동 192-11번지","indutype":"숙박업 - 여관/기타숙박업","category":"hotel"}]},{"lat":"37.078842595","long":"127.05319636","imageIndex":5,"items":[{"name":"산정여관","tel":"031-666-2508","addr":"경기도 평택시 신장동 274-34번지","indutype":"숙박업 - 여관/기타숙박업","category":"hotel"}]},{"lat":"37.079320918","long":"127.05136358","imageIndex":5,"items":[{"name":"서울여관","tel":"031-666-5889","addr":"경기도 평택시 신장동 300-7번지","indutype":"숙박업 - 여관/기타숙박업","category":"hotel"}]},{"lat":"37.08128495","long":"127.05202836","imageIndex":5,"items":[{"name":"소라장","tel":"","addr":"경기도 평택시 신장동 320-42번지","indutype":"숙박업 - 여관","category":"hotel"},{"name":"소라장","tel":"031-666-3394","addr":"경기도 평택시 신장동 320-42번지","indutype":"숙박업 - 여관/기타숙박업","category":"hotel"}]},{"lat":"37.079293389","long":"127.05256688","imageIndex":5,"items":[{"name":"송탄호스텔","tel":"031-666-0678","addr":"경기도 평택시 신장동 274-202번지","indutype":"숙박업 - 여관/기타숙박업","category":"hotel"}]},{"lat":"37.081176669","long":"127.05239942","imageIndex":5,"items":[{"name":"승리장","tel":"031-663-2121","addr":"경기도 평택시 신장동 320-40번지","indutype":"숙박업 - 여관/기타숙박업","category":"hotel"}]},{"lat":"37.082122896","long":"127.05211887","imageIndex":5,"items":[{"name":"썬호텔","tel":"031-664-2114","addr":"경기도 평택시 신장동 320-3번지","indutype":"숙박업 - 여관/기타숙박업","category":"hotel"},{"name":"썬호텔","tel":"031-664-2114","addr":"경기도 평택시 신장동 320-3번지","indutype":"숙박업 - 여관/기타숙박업","category":"hotel"}]},{"lat":"37.078987705","long":"127.05092477","imageIndex":5,"items":[{"name":"아시아관광호텔","tel":"031-664-2367","addr":"경기도 평택시 신장동 297-61외9필지","indutype":"숙박업 - 여관/기타숙박업","category":"hotel"}]},{"lat":"37.079871044","long":"127.05017184","imageIndex":5,"items":[{"name":"장미여관","tel":"031-666-4724","addr":"경기도 평택시 신장동 302-174번지","indutype":"숙박업 - 여관/기타숙박업","category":"hotel"}]},{"lat":"37.073705769","long":"127.05503718","imageIndex":5,"items":[{"name":"젠모텔","tel":"031-611-8141","addr":"경기도 평택시 신장동 253-39번지","indutype":"숙박업 - 여관/기타숙박업","category":"hotel"}]},{"lat":"37.07868155","long":"127.05041851","imageIndex":5,"items":[{"name":"카프리모텔","tel":"031-664-1258","addr":"경기도 평택시 신장동 297-102번지","indutype":"숙박업 - 여관/기타숙박업","category":"hotel"}]},{"lat":"37.081402017","long":"127.05219713","imageIndex":5,"items":[{"name":"코스모스모텔","tel":"031-664-9955","addr":"경기도 평택시 신장동 320-34번지","indutype":"숙박업 - 여관/기타숙박업","category":"hotel"}]},{"lat":"37.079979104","long":"127.0503406","imageIndex":5,"items":[{"name":"크라운여관","tel":"031-666-4748","addr":"경기도 평택시 신장동 302-182번지","indutype":"숙박업 - 여관/기타숙박업","category":"hotel"}]},{"lat":"37.079456269","long":"127.05089133","imageIndex":5,"items":[{"name":"타운스빌","tel":"02-583-0470","addr":"경기도 평택시 신장동 300-61번지","indutype":"숙박업 - 여관/기타숙박업","category":"hotel"}]},{"lat":"37.080258128","long":"127.05109426","imageIndex":5,"items":[{"name":"태평양여관","tel":"031-666-3428","addr":"경기도 평택시 신장동 301-4번지","indutype":"숙박업 - 여관/기타숙박업","category":"hotel"}]},{"lat":"37.080708983","long":"127.05028482","imageIndex":5,"items":[{"name":"한국여관","tel":"031-662-3927","addr":"경기도 평택시 신장동 302-48번지","indutype":"숙박업 - 여관/기타숙박업","category":"hotel"}]}]