[{"lat":"37.296384575","long":"127.63407704","imageIndex":13,"items":[{"name":"김선헤어샵","tel":"031-881-4139","addr":"경기도 여주시 점봉동 466-2번지 대원연립","indutype":"보건위생 - 미용원","category":"beauty"}]},{"lat":"37.262385268","long":"127.63989189","imageIndex":13,"items":[{"name":"네일샵 오도르","tel":"031-886-4141","addr":"경기도 여주시 점봉동 438-27번지","indutype":"보건위생 - 피부미용실","category":"beauty"}]},{"lat":"37.266161742","long":"127.63966441","imageIndex":13,"items":[{"name":"마리앙뜨와 네일","tel":"031-881-1313","addr":"경기도 여주시 점봉동 429-123번지","indutype":"보건위생 - 피부미용실","category":"beauty"}]},{"lat":"37.25694816","long":"127.64894276","imageIndex":13,"items":[{"name":"머리사냥헤어","tel":"031-884-5599","addr":"경기도 여주시 점봉동 358-2번지","indutype":"보건위생 - 미용원","category":"beauty"}]},{"lat":"37.263809656","long":"127.63974606","imageIndex":13,"items":[{"name":"부영헤어샵","tel":"031-883-7894","addr":"경기도 여주시 점봉동 437-1번지","indutype":"보건위생 - 미용원","category":"beauty"}]},{"lat":"37.2666074","long":"127.63889028","imageIndex":13,"items":[{"name":"스타헤어 (Star Hair)","tel":"","addr":"경기도 여주시 점봉동 429-129번지 2층 202호","indutype":"보건위생 - 미용원","category":"beauty"}]},{"lat":"37.263141419","long":"127.64002227","imageIndex":13,"items":[{"name":"제이컷(J.CUT)","tel":"031-883-0224","addr":"경기도 여주시 점봉동 438-1번지 점봉프라자 101호","indutype":"보건위생 - 미용원","category":"beauty"}]},{"lat":"37.263388562","long":"127.63930287","imageIndex":13,"items":[{"name":"조아라헤어","tel":"031-885-9895","addr":"경기도 여주시 점봉동 430-17번지","indutype":"보건위생 - 미용원","category":"beauty"}]},{"lat":"37.263497317","long":"127.64085948","imageIndex":13,"items":[{"name":"청담동헤어","tel":"031-882-1599","addr":"경기도 여주시 점봉동 437-16번지 1동 1층 107호","indutype":"보건위생 - 미용원","category":"beauty"}]},{"lat":"37.256303096","long":"127.6466152","imageIndex":13,"items":[{"name":"한진희프로헤어","tel":"031-881-6123","addr":"경기도 여주시 점봉동 340-1번지","indutype":"보건위생 - 미용원","category":"beauty"}]},{"lat":"37.264024759","long":"127.63152969","imageIndex":13,"items":[{"name":"헤어스토리","tel":"031-883-2634","addr":"경기도 여주시 점봉동 429-182번지","indutype":"보건위생 - 미용원","category":"beauty"}]},{"lat":"37.267221797","long":"127.64024829","imageIndex":13,"items":[{"name":"효림상사","tel":"031-000-0000","addr":"경기도 여주시 점봉동 429-103번지 301호","indutype":"보건위생 - 화장품","category":"beauty"}]},{"lat":"37.266833552","long":"127.63872308","imageIndex":13,"items":[{"name":"힐링체형관리","tel":"031-884-8387","addr":"경기도 여주시 점봉동 429-68번지 3층","indutype":"보건위생 - 피부미용실","category":"beauty"}]}]