[{"lat":"37.524814619","long":"126.80699402","imageIndex":5,"items":[{"name":"돈키호텔","tel":"","addr":"경기도 부천시 원종동 275-8번지","indutype":"숙박업 - 여관/기타숙박업","category":"hotel"}]},{"lat":"37.525122917","long":"126.80818103","imageIndex":5,"items":[{"name":"라인모텔","tel":"032-673-7669","addr":"경기도 부천시 원종동 271-27번지","indutype":"숙박업 - 여관/기타숙박업","category":"hotel"}]},{"lat":"37.524672929","long":"126.80848764","imageIndex":5,"items":[{"name":"르네상스","tel":"032-676-0458","addr":"경기도 부천시 원종동 271-3번지","indutype":"숙박업 - 여관/기타숙박업","category":"hotel"}]},{"lat":"37.524950404","long":"126.80737829","imageIndex":5,"items":[{"name":"리버모텔","tel":"032-673-1741","addr":"경기도 부천시 원종동 272-15번지","indutype":"숙박업 - 여관/기타숙박업","category":"hotel"},{"name":"리버파크","tel":"032-673-1741","addr":"경기도 부천시 원종동 272-15번지","indutype":"숙박업 - 여관/기타숙박업","category":"hotel"}]},{"lat":"37.522812854","long":"126.80604902","imageIndex":5,"items":[{"name":"리베라","tel":"032-684-6550","addr":"경기도 부천시 원종동 284-13번지","indutype":"숙박업 - 여관/기타숙박업","category":"hotel"}]},{"lat":"37.525121722","long":"126.80745703","imageIndex":5,"items":[{"name":"마리호텔","tel":"032-675-0004","addr":"경기도 부천시 원종동 272-1번지","indutype":"숙박업 - 여관/기타숙박업","category":"hotel"}]},{"lat":"37.524618142","long":"126.80804659","imageIndex":5,"items":[{"name":"밀라노모텔","tel":"032-673-6095","addr":"경기도 부천시 원종동 271-12번지","indutype":"숙박업 - 여관/기타숙박업","category":"hotel"}]},{"lat":"37.524951283","long":"126.80790998","imageIndex":5,"items":[{"name":"쉘모텔","tel":"032-679-3739","addr":"경기도 부천시 원종동 272-14번지","indutype":"숙박업 - 여관/기타숙박업","category":"hotel"}]},{"lat":"37.525123197","long":"126.80835072","imageIndex":5,"items":[{"name":"알브호텔","tel":"032-684-4180","addr":"경기도 부천시 원종동 271-29번지","indutype":"숙박업 - 여관/기타숙박업","category":"hotel"}]},{"lat":"37.52476243","long":"126.80812541","imageIndex":5,"items":[{"name":"알프스산장여관","tel":"032-672-0324","addr":"경기도 부천시 원종동 271-24번지","indutype":"숙박업 - 여관/기타숙박업","category":"hotel"}]},{"lat":"37.524257749","long":"126.80804753","imageIndex":5,"items":[{"name":"에스(S)모텔","tel":"032-675-9575","addr":"경기도 부천시 원종동 271-9번지","indutype":"숙박업 - 여관/기타숙박업","category":"hotel"}]},{"lat":"37.522790057","long":"126.80860565","imageIndex":5,"items":[{"name":"에프엠모텔","tel":"032-684-5319","addr":"경기도 부천시 원종동 324-6번지","indutype":"숙박업 - 여관/기타숙박업","category":"hotel"}]},{"lat":"37.524535951","long":"126.80737937","imageIndex":5,"items":[{"name":"오페라여관","tel":"032-673-9045","addr":"경기도 부천시 원종동 272-18번지","indutype":"숙박업 - 여관/기타숙박업","category":"hotel"},{"name":"오페라여관","tel":"032-673-9045","addr":"경기도 부천시 원종동 272-18번지","indutype":"숙박업 - 여관/기타숙박업","category":"hotel"}]},{"lat":"37.524644069","long":"126.80737909","imageIndex":5,"items":[{"name":"유토피아","tel":"070-7257-1836","addr":"경기도 부천시 원종동 272-19번지","indutype":"숙박업 - 여관/기타숙박업","category":"hotel"}]},{"lat":"37.522838675","long":"126.80532497","imageIndex":5,"items":[{"name":"정원장","tel":"032-672-5021","addr":"경기도 부천시 원종동 280-8번지","indutype":"숙박업 - 여관/기타숙박업","category":"hotel"}]},{"lat":"37.525149723","long":"126.80804521","imageIndex":5,"items":[{"name":"젠","tel":"032-683-0343","addr":"경기도 부천시 원종동 271번지","indutype":"숙박업 - 여관/기타숙박업","category":"hotel"}]},{"lat":"37.523562982","long":"126.80743847","imageIndex":5,"items":[{"name":"쵸이스모텔","tel":"032-675-3464","addr":"경기도 부천시 원종동 313-3번지","indutype":"숙박업 - 여관/기타숙박업","category":"hotel"}]},{"lat":"37.524337734","long":"126.80737989","imageIndex":5,"items":[{"name":"카스바여관","tel":"032-681-5370","addr":"경기도 부천시 원종동 272-13번지","indutype":"숙박업 - 여관/기타숙박업","category":"hotel"}]},{"lat":"37.524817049","long":"126.80846464","imageIndex":5,"items":[{"name":"케이크모텔","tel":"032-681-7775","addr":"경기도 부천시 원종동 271-2번지","indutype":"숙박업 - 여관/기타숙박업","category":"hotel"}]},{"lat":"37.524428375","long":"126.80770771","imageIndex":5,"items":[{"name":"크리스탈여관","tel":"032-673-5333","addr":"경기도 부천시 원종동 272-6번지","indutype":"숙박업 - 여관/기타숙박업","category":"hotel"}]},{"lat":"37.524454862","long":"126.80737958","imageIndex":5,"items":[{"name":"토마토모텔/우노컴퍼니 부천지점","tel":"032-292-0012","addr":"경기도 부천시 원종동 272-17번지 토마토모텔","indutype":"숙박업 - 여관/기타숙박업","category":"hotel"}]},{"lat":"37.524925167","long":"126.80846436","imageIndex":5,"items":[{"name":"프린스여관","tel":"032-672-4545","addr":"경기도 부천시 원종동 271-30번지","indutype":"숙박업 - 여관/기타숙박업","category":"hotel"}]},{"lat":"37.524591337","long":"126.80818241","imageIndex":5,"items":[{"name":"핑크모텔","tel":"032-1111-1111","addr":"경기도 부천시 원종동 271-13번지","indutype":"숙박업 - 여관/기타숙박업","category":"hotel"}]},{"lat":"37.524734579","long":"126.80762773","imageIndex":5,"items":[{"name":"하트","tel":"032-675-1900","addr":"경기도 부천시 원종동 272-4번지","indutype":"숙박업 - 여관/기타숙박업","category":"hotel"}]},{"lat":"37.524870511","long":"126.8081025","imageIndex":5,"items":[{"name":"해바라기","tel":"032-676-7171","addr":"경기도 부천시 원종동 271-25번지","indutype":"숙박업 - 여관/기타숙박업","category":"hotel"}]},{"lat":"37.525003863","long":"126.80701615","imageIndex":5,"items":[{"name":"헤라","tel":"032-672-8861","addr":"경기도 부천시 원종동 275-6번지","indutype":"숙박업 - 여관/기타숙박업","category":"hotel"}]}]