[{"lat":"37.320235839","long":"127.43768189","imageIndex":17,"items":[{"name":"HSF코리아","tel":"031-632-0982","addr":"경기도 이천시 신둔면 도암리 295-4","indutype":"레져용품 - 스포츠·레져용품","category":"other"}]},{"lat":"37.308990253","long":"127.43793297","imageIndex":17,"items":[{"name":"다원공인중개사사무소","tel":"031-634-3444","addr":"경기도 이천시 신둔면 도암리 820-6번지 101호","indutype":"용역 서비스 - 부동산 중개·임대","category":"other"}]},{"lat":"37.328763811","long":"127.4389383","imageIndex":17,"items":[{"name":"담고 담기다","tel":"","addr":"경기도 이천시 신둔면 도암리 30-4번지","indutype":"문화.취미 - 민예·공예품","category":"other"}]},{"lat":"37.315379883","long":"127.43998908","imageIndex":17,"items":[{"name":"대상기공","tel":"031-632-3234","addr":"경기도 이천시 신둔면 도암리 458-2번지","indutype":"기타 - 기계공구","category":"other"}]},{"lat":"37.319988972","long":"127.44109882","imageIndex":17,"items":[{"name":"데프사운드","tel":"","addr":"경기도 이천시 신둔면 도암리 347-40번지 한샘하이츠 301동 302호","indutype":"용역 서비스 - 기타용역서비스","category":"other"}]},{"lat":"37.323326252","long":"127.43524017","imageIndex":17,"items":[{"name":"도성청자도요","tel":"031-632-7716","addr":"경기도 이천시 신둔면 도암리 225-1번지","indutype":"문화.취미 - 골동품점","category":"other"}]},{"lat":"37.320209804","long":"127.43741097","imageIndex":17,"items":[{"name":"도암철물","tel":"031-631-1688","addr":"경기도 이천시 신둔면 도암리 295-13","indutype":"건축자재 - 목재·석재·철물","category":"other"}]},{"lat":"37.319546543","long":"127.4364595","imageIndex":17,"items":[{"name":"도암타일","tel":"031-633-0467","addr":"경기도 이천시 신둔면 도암리 278-3번지 1층","indutype":"건축자재 - 건축용 요업제품","category":"other"}]},{"lat":"37.310577374","long":"127.43756986","imageIndex":17,"items":[{"name":"선도OA","tel":"031-635-7737","addr":"경기도 이천시 신둔면 도암리 560-5번지","indutype":"사무통신 - 사무용 OA기기","category":"other"},{"name":"선도솔루션","tel":"031-637-7737","addr":"경기도 이천시 신둔면 도암리 560-5번지","indutype":"사무통신 - 사무용 OA기기","category":"other"}]},{"lat":"37.319240812","long":"127.44118472","imageIndex":17,"items":[{"name":"세븐일레븐이천도암점","tel":"","addr":"경기도 이천시 신둔면 도암리 345-4번지 도암빌딩 1층 3호","indutype":"유통업 영리 - 편 의 점","category":"other"}]},{"lat":"37.313795297","long":"127.43721612","imageIndex":17,"items":[{"name":"신둔철물건재상사","tel":"031-633-6289","addr":"경기도 이천시 신둔면 도암리 482-3번지","indutype":"기타 - 기계공구","category":"other"}]},{"lat":"37.319068495","long":"127.44148833","imageIndex":17,"items":[{"name":"씨유이천도암점","tel":"031-631-4060","addr":"경기도 이천시 신둔면 도암리 352-15번지 1층","indutype":"유통업 영리 - 편 의 점","category":"other"}]},{"lat":"37.315459931","long":"127.44027157","imageIndex":17,"items":[{"name":"우리레이져","tel":"031-632-3234","addr":"경기도 이천시 신둔면 도암리 463번지","indutype":"기타 - 기계공구","category":"other"}]},{"lat":"37.316069115","long":"127.43632672","imageIndex":17,"items":[{"name":"우승도예","tel":"031-634-7080","addr":"경기도 이천시 신둔면 도암리 436번지","indutype":"문화.취미 - 민예·공예품","category":"other"}]},{"lat":"37.324625215","long":"127.43728973","imageIndex":17,"items":[{"name":"잇츠뮤직","tel":"070-4643-3735","addr":"경기도 이천시 신둔면 도암리 92-3번지","indutype":"레져용품 - 악기점","category":"other"}]},{"lat":"37.320156986","long":"127.43707222","imageIndex":17,"items":[{"name":"효양종합물산","tel":"031-636-8987","addr":"경기도 이천시 신둔면 도암리 282-2번지 까사펠리스 A동 101,102호","indutype":"의류 - 기타의류","category":"other"}]}]