[{"lat":"37.006914891","long":"127.27146261","imageIndex":8,"items":[{"name":"광선치과","tel":"031-677-0453","addr":"경기도 안성시 동본동 50","indutype":"의원 - 치과의원","category":"medical"}]},{"lat":"37.007248181","long":"127.27150872","imageIndex":8,"items":[{"name":"미인플란트치과의원","tel":"031-671-1338","addr":"경기도 안성시 동본동 34번지 2층,3층","indutype":"의원 - 치과의원","category":"medical"}]},{"lat":"37.007220437","long":"127.27182322","imageIndex":8,"items":[{"name":"석정한의원","tel":"031-676-7373","addr":"경기도 안성시 동본동 37번지 2층","indutype":"의원 - 한의원","category":"medical"}]},{"lat":"37.006158561","long":"127.27121278","imageIndex":8,"items":[{"name":"성모약국","tel":"031-675-9200","addr":"경기도 안성시 동본동 95번지","indutype":"약국 - 약국","category":"medical"}]},{"lat":"37.006860217","long":"127.27173206","imageIndex":8,"items":[{"name":"안성치과의원","tel":"031-673-1333","addr":"경기도 안성시 동본동 48번지","indutype":"의원 - 치과의원","category":"medical"}]},{"lat":"37.006356667","long":"127.27126965","imageIndex":8,"items":[{"name":"제일당약국","tel":"031-674-1041","addr":"경기도 안성시 동본동 75번지","indutype":"약국 - 약국","category":"medical"}]},{"lat":"37.006832727","long":"127.2719342","imageIndex":8,"items":[{"name":"한길아산내과","tel":"031-675-0500","addr":"경기도 안성시 동본동 46번지","indutype":"의원 - 의원","category":"medical"}]},{"lat":"37.006832422","long":"127.27206903","imageIndex":8,"items":[{"name":"현대약국","tel":"031-674-7662","addr":"경기도 안성시 동본동 45번지","indutype":"약국 - 약국","category":"medical"}]}]