[{"lat":"37.294596362","long":"126.97997639","imageIndex":7,"items":[{"name":"그린홈마트","tel":"031-258-7456","addr":"경기도 수원시 장안구 천천동 460-20번지 101,102호","indutype":"유통업 영리 - 슈퍼마켓","category":"mart"}]},{"lat":"37.302677237","long":"126.97398469","imageIndex":7,"items":[{"name":"대영파머스마켓","tel":"031-269-0500","addr":"경기도 수원시 장안구 천천동 557-3번지","indutype":"유통업 영리 - 슈퍼마켓","category":"mart"}]},{"lat":"37.298011403","long":"126.98080996","imageIndex":7,"items":[{"name":"신성할인마트","tel":"031-268-5119","addr":"경기도 수원시 장안구 천천동 511번지 비단마을베스트타운 상가동 1층 101호","indutype":"유통업 영리 - 슈퍼마켓","category":"mart"}]},{"lat":"37.29165045","long":"126.98236812","imageIndex":7,"items":[{"name":"우리생협 천천점(미트피플)","tel":"031-295-6233","addr":"경기도 수원시 장안구 천천동 334-2번지 푸르지오 정문상가 110호","indutype":"유통업 영리 - 슈퍼마켓","category":"mart"},{"name":"천천대우마트","tel":"031-293-2561","addr":"경기도 수원시 장안구 천천동 334-2번지 천천푸르지오 101호","indutype":"유통업 영리 - 슈퍼마켓","category":"mart"}]},{"lat":"37.289099856","long":"126.97870374","imageIndex":7,"items":[{"name":"크로바유통","tel":"031-295-9977","addr":"경기도 수원시 장안구 천천동 366-6,7번지","indutype":"유통업 영리 - 슈퍼마켓","category":"mart"}]},{"lat":"37.30339824","long":"126.97475141","imageIndex":7,"items":[{"name":"팀버블민딩민달","tel":"031-269-4391","addr":"경기도 수원시 장안구 천천동 549-15번지 101호","indutype":"유통업 영리 - 슈퍼마켓","category":"mart"}]},{"lat":"37.295398883","long":"126.98337085","imageIndex":7,"items":[{"name":"플러스원","tel":"031-269-9936","addr":"경기도 수원시 장안구 천천동 3006-2대일프라자1층8","indutype":"유통업 영리 - 슈퍼마켓","category":"mart"}]}]