[{"lat":"37.369364887","long":"126.95608838","imageIndex":4,"items":[{"name":"광어2마리","tel":"031-442-7777","addr":"경기도 안양시 동안구 흥안대로","indutype":"일반휴게음식 - 일반한식","category":"restaurant"}]},{"lat":"37.399888392","long":"126.9762852","imageIndex":4,"items":[{"name":"김밥과스파게티","tel":"031-424-0963","addr":"경기도 안양시 동안구 흥안대로","indutype":"일반휴게음식 - 스넥","category":"restaurant"}]},{"lat":"37.369752724","long":"126.95711546","imageIndex":4,"items":[{"name":"두근두근소야소(안양호계점)","tel":"031-451-7770","addr":"경기도 안양시 동안구 흥안대로","indutype":"일반휴게음식 - 일반한식","category":"restaurant"}]},{"lat":"37.368615948","long":"126.95339076","imageIndex":4,"items":[{"name":"로젠호프","tel":"031-453-2939","addr":"경기도 안양시 동안구 흥안대로","indutype":"일반휴게음식 - 주점","category":"restaurant"}]},{"lat":"37.40024875","long":"126.97608178","imageIndex":4,"items":[{"name":"방아깐통골뱅이","tel":"031-423-2898","addr":"경기도 안양시 동안구 흥안대로","indutype":"일반휴게음식 - 일반한식","category":"restaurant"}]},{"lat":"37.391300956","long":"126.97286662","imageIndex":4,"items":[{"name":"볼로냐","tel":"031-478-3700","addr":"경기도 안양시 동안구 흥안대로","indutype":"일반휴게음식 - 서양음식","category":"restaurant"}]},{"lat":"37.399969722","long":"126.97736937","imageIndex":4,"items":[{"name":"사조회참치(인덕원점)","tel":"031-425-2622","addr":"경기도 안양시 동안구 흥안대로","indutype":"일반휴게음식 - 일식·회집","category":"restaurant"}]},{"lat":"37.370834625","long":"126.9589211","imageIndex":4,"items":[{"name":"이주선김밥","tel":"031-429-2139","addr":"경기도 안양시 동안구 흥안대로","indutype":"일반휴게음식 - 스넥","category":"restaurant"}]}]