[{"lat":"37.3764192","long":"127.1342097","imageIndex":17,"items":[{"name":"AMART","tel":"031-701-6367","addr":"경기도 성남시 분당구 서현동 297번지 효자촌","indutype":"","category":"other"},{"name":"민속떡마을","tel":"031-702-8717","addr":"경기도 성남시 분당구 서현동 297번지 효자촌","indutype":"","category":"other"},{"name":"박민수헤어존","tel":"","addr":"경기도 성남시 분당구 서현동 297번지 효자촌","indutype":"","category":"other"},{"name":"종로빈대떡","tel":"031-709-1916","addr":"경기도 성남시 분당구 서현동 297번지 효자촌","indutype":"","category":"other"},{"name":"중앙당구장","tel":"031-706-0209","addr":"경기도 성남시 분당구 서현동 297번지 효자촌","indutype":"","category":"other"},{"name":"티모티스오븐","tel":"031-705-5259","addr":"경기도 성남시 분당구 서현동 297번지 효자촌","indutype":"","category":"other"},{"name":"한미금거래소","tel":"031-704-1824","addr":"경기도 성남시 분당구 서현동 297번지 효자촌","indutype":"","category":"other"},{"name":"회사랑방","tel":"031-703-0162","addr":"경기도 성남시 분당구 서현동 297번지 효자촌","indutype":"","category":"other"},{"name":"효자마트","tel":"031-701-6367","addr":"경기도 성남시 분당구 서현동 297번지 효자촌","indutype":"","category":"other"}]},{"lat":"37.3745063","long":"127.1366563","imageIndex":17,"items":[{"name":"BBQ올떡볶이 효자촌점","tel":"031-781-3390","addr":"경기도 성남시 분당구 서현동 305-1번지","indutype":"","category":"other"},{"name":"서울종합동물병원","tel":"031-702-5323","addr":"경기도 성남시 분당구 서현동 305-1번지","indutype":"","category":"other"},{"name":"에이와이엔컴패니","tel":"031-702-2266","addr":"경기도 성남시 분당구 서현동 305-1번지","indutype":"","category":"other"},{"name":"엘프만주니어스포츠클럽","tel":"031-704-1016","addr":"경기도 성남시 분당구 서현동 305-1번지","indutype":"","category":"other"},{"name":"웰리드 동진약국","tel":"031-701-5441","addr":"경기도 성남시 분당구 서현동 305-1번지","indutype":"","category":"other"},{"name":"헤어클래식","tel":"031-707-0178","addr":"경기도 성남시 분당구 서현동 305-1번지","indutype":"","category":"other"}]},{"lat":"37.383006","long":"127.1254367","imageIndex":17,"items":[{"name":"CIC에듀학원","tel":"031-701-2017","addr":"경기도 성남시 분당구 서현동 89번지","indutype":"","category":"other"},{"name":"고미고미(고미국수와 고미찌개)","tel":"031-707-8655","addr":"경기도 성남시 분당구 서현동 89번지","indutype":"","category":"other"},{"name":"데일리반찬","tel":"031-707-1433","addr":"경기도 성남시 분당구 서현동 89번지","indutype":"","category":"other"},{"name":"리얼커피","tel":"","addr":"경기도 성남시 분당구 서현동 89번지","indutype":"","category":"other"},{"name":"만선수산","tel":"031-708-2588","addr":"경기도 성남시 분당구 서현동 89번지","indutype":"","category":"other"},{"name":"바다의모든것 팔딱팔딱","tel":"031-724-0503","addr":"경기도 성남시 분당구 서현동 89번지","indutype":"","category":"other"},{"name":"소래포구","tel":"031-705-5944","addr":"경기도 성남시 분당구 서현동 89번지","indutype":"","category":"other"},{"name":"시골밥상집","tel":"031-701-2203","addr":"경기도 성남시 분당구 서현동 89번지","indutype":"","category":"other"},{"name":"신도매푸주간","tel":"031-703-1145","addr":"경기도 성남시 분당구 서현동 89번지","indutype":"","category":"other"},{"name":"신도매푸줏간","tel":"031-703-1145","addr":"경기도 성남시 분당구 서현동 89번지","indutype":"","category":"other"},{"name":"피터스 영어 학원","tel":"031-704-5704","addr":"경기도 성남시 분당구 서현동 89번지","indutype":"","category":"other"},{"name":"한샘농산물마트","tel":"031-705-5249","addr":"경기도 성남시 분당구 서현동 89번지","indutype":"","category":"other"},{"name":"행복한 고기마을","tel":"031-703-2432","addr":"경기도 성남시 분당구 서현동 89번지","indutype":"","category":"other"}]},{"lat":"37.3863881","long":"127.1222127","imageIndex":17,"items":[{"name":"K트레이닝스쿨","tel":"","addr":"경기도 성남시 분당구 서현동 260-5번지","indutype":"","category":"other"}]},{"lat":"37.3802537","long":"127.1294065","imageIndex":17,"items":[{"name":"mycolors","tel":"070-4251-8989","addr":"경기도 성남시 분당구 서현동 93번지","indutype":"","category":"other"},{"name":"경희고정민한의원","tel":"031-708-8876","addr":"경기도 성남시 분당구 서현동 93번지","indutype":"","category":"other"},{"name":"네일스테이션","tel":"031-709-1879","addr":"경기도 성남시 분당구 서현동 93번지","indutype":"","category":"other"},{"name":"데뮤제","tel":"","addr":"경기도 성남시 분당구 서현동 93번지","indutype":"","category":"other"},{"name":"라팜므","tel":"","addr":"경기도 성남시 분당구 서현동 93번지","indutype":"","category":"other"},{"name":"바이씨엔 (byCN)","tel":"","addr":"경기도 성남시 분당구 서현동 93번지","indutype":"","category":"other"},{"name":"벨라젠떼","tel":"031-705-6615","addr":"경기도 성남시 분당구 서현동 93번지","indutype":"","category":"other"},{"name":"살롱드댕기","tel":"031-702-8876","addr":"경기도 성남시 분당구 서현동 93번지","indutype":"","category":"other"},{"name":"수량과공간보습학원","tel":"031-708-6789","addr":"경기도 성남시 분당구 서현동 93번지","indutype":"","category":"other"},{"name":"스콜라스영어학원","tel":"031-701-8205","addr":"경기도 성남시 분당구 서현동 93번지","indutype":"","category":"other"},{"name":"씨티어학원","tel":"070-8667-7293","addr":"경기도 성남시 분당구 서현동 93번지","indutype":"","category":"other"},{"name":"에어아티션","tel":"031-781-3007","addr":"경기도 성남시 분당구 서현동 93번지","indutype":"","category":"other"},{"name":"카스안경콘택트","tel":"031-709-2002","addr":"경기도 성남시 분당구 서현동 93번지","indutype":"","category":"other"},{"name":"크는해법수학원","tel":"031-703-5055","addr":"경기도 성남시 분당구 서현동 93번지","indutype":"","category":"other"},{"name":"클로리스 산후조리원","tel":"031-781-7004","addr":"경기도 성남시 분당구 서현동 93번지","indutype":"","category":"other"},{"name":"키즈북렌탈 서현점","tel":"031-708-8574","addr":"경기도 성남시 분당구 서현동 93번지","indutype":"","category":"other"},{"name":"핑크루나","tel":"","addr":"경기도 성남시 분당구 서현동 93번지","indutype":"","category":"other"}]},{"lat":"37.3776731","long":"127.1328232","imageIndex":17,"items":[{"name":"㈜ 티제이 에듀","tel":"031-707-5090","addr":"경기도 성남시 분당구 서현동 95번지","indutype":"","category":"other"},{"name":"반딧불서점","tel":"031-708-4113","addr":"경기도 성남시 분당구 서현동 95번지","indutype":"","category":"other"},{"name":"아이스타일 안경원","tel":"031-701-0402","addr":"경기도 성남시 분당구 서현동 95번지","indutype":"","category":"other"},{"name":"우성각","tel":"031-707-4484","addr":"경기도 성남시 분당구 서현동 95번지","indutype":"","category":"other"},{"name":"진미식당 서현점","tel":"031-701-3860","addr":"경기도 성남시 분당구 서현동 95번지","indutype":"","category":"other"},{"name":"포즈라인","tel":"031-703-3767","addr":"경기도 성남시 분당구 서현동 95번지","indutype":"","category":"other"}]},{"lat":"37.3722872","long":"127.1389103","imageIndex":17,"items":[{"name":"㈜블럭에프에스 서현본점","tel":"031-701-0090","addr":"경기도 성남시 분당구 서현동 311번지 효자촌주상복합","indutype":"","category":"other"},{"name":"두부장수 서현점","tel":"031-703-8009","addr":"경기도 성남시 분당구 서현동 311번지 효자촌주상복합","indutype":"","category":"other"},{"name":"샬롬헤어샵","tel":"031-703-9973","addr":"경기도 성남시 분당구 서현동 311번지 효자촌주상복합","indutype":"","category":"other"},{"name":"알티","tel":"031-707-7600","addr":"경기도 성남시 분당구 서현동 311번지 효자촌주상복합","indutype":"","category":"other"},{"name":"종로떡마을","tel":"031-705-7773","addr":"경기도 성남시 분당구 서현동 311번지 효자촌주상복합","indutype":"","category":"other"},{"name":"청산골","tel":"031-781-2627","addr":"경기도 성남시 분당구 서현동 311번지 효자촌주상복합","indutype":"","category":"other"},{"name":"한성문고","tel":"031-702-7955","addr":"경기도 성남시 분당구 서현동 311번지 효자촌주상복합","indutype":"","category":"other"},{"name":"한우가","tel":"031-701-2468","addr":"경기도 성남시 분당구 서현동 311번지 효자촌주상복합","indutype":"","category":"other"}]},{"lat":"37.3796402","long":"127.1301507","imageIndex":17,"items":[{"name":"㈜자연의모든것총각네 서현점","tel":"031-703-5249","addr":"경기도 성남시 분당구 서현동 94번지","indutype":"","category":"other"},{"name":"건강한밥상","tel":"031-702-5388","addr":"경기도 성남시 분당구 서현동 94번지","indutype":"","category":"other"},{"name":"꾸우니공방","tel":"031-7708-2417","addr":"경기도 성남시 분당구 서현동 94번지","indutype":"","category":"other"},{"name":"마리린헤어부띠끄","tel":"031-707-7713","addr":"경기도 성남시 분당구 서현동 94번지","indutype":"","category":"other"},{"name":"마마타르트","tel":"031-709-3338","addr":"경기도 성남시 분당구 서현동 94번지","indutype":"","category":"other"},{"name":"봄빵","tel":"070-8885-1889","addr":"경기도 성남시 분당구 서현동 94번지","indutype":"","category":"other"},{"name":"봄빵 서현점","tel":"070-8885-1889","addr":"경기도 성남시 분당구 서현동 94번지","indutype":"","category":"other"},{"name":"아트캠프미술학원","tel":"031-701-5047","addr":"경기도 성남시 분당구 서현동 94번지","indutype":"","category":"other"},{"name":"웰빙마트","tel":"031-704-7880","addr":"경기도 성남시 분당구 서현동 94번지","indutype":"","category":"other"},{"name":"중화루","tel":"031-701-8989","addr":"경기도 성남시 분당구 서현동 94번지","indutype":"","category":"other"},{"name":"총각네 서현점","tel":"031-703-5249","addr":"경기도 성남시 분당구 서현동 94번지","indutype":"","category":"other"},{"name":"해창손만두","tel":"031-705-4959","addr":"경기도 성남시 분당구 서현동 94번지","indutype":"","category":"other"},{"name":"현대떡마을","tel":"031-701-9041","addr":"경기도 성남시 분당구 서현동 94번지","indutype":"","category":"other"},{"name":"현대정육점","tel":"031-701-3218","addr":"경기도 성남시 분당구 서현동 94번지","indutype":"","category":"other"}]},{"lat":"37.3839763","long":"127.1363231","imageIndex":17,"items":[{"name":"㈜한길렌터카","tel":"031-755-3666","addr":"경기도 성남시 분당구 서현동 136-3번지","indutype":"","category":"other"}]},{"lat":"37.3856187","long":"127.1256555","imageIndex":17,"items":[{"name":"가츠루","tel":"031-705-1638","addr":"경기도 성남시 분당구 서현동 246-2번지","indutype":"","category":"other"},{"name":"인디안커리","tel":"","addr":"경기도 성남시 분당구 서현동 246-2번지","indutype":"","category":"other"}]},{"lat":"37.3837275","long":"127.1247152","imageIndex":17,"items":[{"name":"가츠몽(돈가스)","tel":"031-704-1950","addr":"경기도 성남시 분당구 서현동 88번지","indutype":"","category":"other"},{"name":"서현안경","tel":"031-701-8848","addr":"경기도 성남시 분당구 서현동 88번지","indutype":"","category":"other"},{"name":"아이리스 독서실","tel":"031-708-2358","addr":"경기도 성남시 분당구 서현동 88번지","indutype":"","category":"other"},{"name":"안경바라기 분당점","tel":"","addr":"경기도 성남시 분당구 서현동 88번지","indutype":"","category":"other"},{"name":"예쁜세상","tel":"031-712-2843","addr":"경기도 성남시 분당구 서현동 88번지","indutype":"","category":"other"},{"name":"인순이네","tel":"031-709-8880","addr":"경기도 성남시 분당구 서현동 88번지","indutype":"","category":"other"},{"name":"정관장홍삼 서현역점","tel":"031-708-0385","addr":"경기도 성남시 분당구 서현동 88번지","indutype":"","category":"other"},{"name":"하늘푸줏간","tel":"031-781-0443","addr":"경기도 성남시 분당구 서현동 88번지","indutype":"","category":"other"}]},{"lat":"37.3842526","long":"127.1308811","imageIndex":17,"items":[{"name":"갑자기떡볶이","tel":"031-8840-4249","addr":"경기도 성남시 분당구 서현동 77-1번지","indutype":"","category":"other"}]},{"lat":"37.3751132","long":"127.1417153","imageIndex":17,"items":[{"name":"거성자재백화점","tel":"031-703-0945","addr":"경기도 성남시 분당구 서현동 341-7번지","indutype":"","category":"other"}]},{"lat":"37.3765834","long":"127.140318","imageIndex":17,"items":[{"name":"고미꽃시래","tel":"","addr":"경기도 성남시 분당구 서현동 335-2번지","indutype":"","category":"other"}]},{"lat":"37.3858636","long":"127.124075","imageIndex":17,"items":[{"name":"고양이부엌 서현점","tel":"031-705-5777","addr":"경기도 성남시 분당구 서현동 248-5번지","indutype":"","category":"other"},{"name":"네일스케치","tel":"031-701-4744","addr":"경기도 성남시 분당구 서현동 248-5번지","indutype":"","category":"other"},{"name":"알파문구센타","tel":"031-708-1196","addr":"경기도 성남시 분당구 서현동 248-5번지","indutype":"","category":"other"},{"name":"연세온누리약국","tel":"031-703-5828","addr":"경기도 성남시 분당구 서현동 248-5번지","indutype":"","category":"other"}]},{"lat":"37.3841702","long":"127.1321005","imageIndex":17,"items":[{"name":"고주몽백갈비 서현지점","tel":"031-703-9595","addr":"경기도 성남시 분당구 서현동 214-11번지","indutype":"","category":"other"}]},{"lat":"37.3768977","long":"127.1333751","imageIndex":17,"items":[{"name":"공손서점","tel":"031-703-7279","addr":"경기도 성남시 분당구 서현동 298-3번지","indutype":"","category":"other"},{"name":"과일비타민","tel":"031-709-3848","addr":"경기도 성남시 분당구 서현동 298-3번지","indutype":"","category":"other"},{"name":"과일비타민 서현점","tel":"031-709-3848","addr":"경기도 성남시 분당구 서현동 298-3번지","indutype":"","category":"other"},{"name":"꽃의궁전","tel":"031-706-8285","addr":"경기도 성남시 분당구 서현동 298-3번지","indutype":"","category":"other"},{"name":"서현에듀플렉스보습학원","tel":"031-703-7909","addr":"경기도 성남시 분당구 서현동 298-3번지","indutype":"","category":"other"},{"name":"알파문구 효자점","tel":"031-708-3348","addr":"경기도 성남시 분당구 서현동 298-3번지","indutype":"","category":"other"},{"name":"좋은날","tel":"031-705-7988","addr":"경기도 성남시 분당구 서현동 298-3번지","indutype":"","category":"other"},{"name":"포나인안경","tel":"031-702-2949","addr":"경기도 성남시 분당구 서현동 298-3번지","indutype":"","category":"other"},{"name":"푸른찬들","tel":"","addr":"경기도 성남시 분당구 서현동 298-3번지","indutype":"","category":"other"}]},{"lat":"37.371593","long":"127.1393493","imageIndex":17,"items":[{"name":"국시엔국수","tel":"031-705-1266","addr":"경기도 성남시 분당구 서현동 312-3번지","indutype":"","category":"other"},{"name":"그린토피아","tel":"031-702-9144","addr":"경기도 성남시 분당구 서현동 312-3번지","indutype":"","category":"other"},{"name":"낙원떡방앗간","tel":"031-701-4695","addr":"경기도 성남시 분당구 서현동 312-3번지","indutype":"","category":"other"},{"name":"농협안심축산 분당미래점","tel":"031-702-5982","addr":"경기도 성남시 분당구 서현동 312-3번지","indutype":"","category":"other"},{"name":"도담도담산후도우미(분당)","tel":"031-701-6792","addr":"경기도 성남시 분당구 서현동 312-3번지","indutype":"","category":"other"},{"name":"란제리메리아스","tel":"031-702-7571","addr":"경기도 성남시 분당구 서현동 312-3번지","indutype":"","category":"other"},{"name":"리얼텍","tel":"031-701-4155","addr":"경기도 성남시 분당구 서현동 312-3번지","indutype":"","category":"other"},{"name":"메이드인프랑스","tel":"031-702-3562","addr":"경기도 성남시 분당구 서현동 312-3번지","indutype":"","category":"other"},{"name":"몽블리","tel":"","addr":"경기도 성남시 분당구 서현동 312-3번지","indutype":"","category":"other"},{"name":"백오삼반찬","tel":"","addr":"경기도 성남시 분당구 서현동 312-3번지","indutype":"","category":"other"},{"name":"보물섬","tel":"031-708-7936","addr":"경기도 성남시 분당구 서현동 312-3번지","indutype":"","category":"other"},{"name":"뷰티화장품","tel":"031-702-6830","addr":"경기도 성남시 분당구 서현동 312-3번지","indutype":"","category":"other"},{"name":"비타민","tel":"031-715-6220","addr":"경기도 성남시 분당구 서현동 312-3번지","indutype":"","category":"other"},{"name":"스넴(예쁨소품)","tel":"031-703-7453","addr":"경기도 성남시 분당구 서현동 312-3번지","indutype":"","category":"other"},{"name":"스마일문구","tel":"031-704-0973","addr":"경기도 성남시 분당구 서현동 312-3번지","indutype":"","category":"other"},{"name":"아이마트","tel":"031-702-1074","addr":"경기도 성남시 분당구 서현동 312-3번지","indutype":"","category":"other"},{"name":"안심정육식당","tel":"","addr":"경기도 성남시 분당구 서현동 312-3번지","indutype":"","category":"other"},{"name":"에제르에스테틱","tel":"031-706-2003","addr":"경기도 성남시 분당구 서현동 312-3번지","indutype":"","category":"other"},{"name":"엘리스숙녀복","tel":"031-708-5535","addr":"경기도 성남시 분당구 서현동 312-3번지","indutype":"","category":"other"},{"name":"오렌지의류","tel":"031-702-7658","addr":"경기도 성남시 분당구 서현동 312-3번지","indutype":"","category":"other"},{"name":"오슈","tel":"031-781-1253","addr":"경기도 성남시 분당구 서현동 312-3번지","indutype":"","category":"other"},{"name":"오슈 서현점","tel":"031-781-1253","addr":"경기도 성남시 분당구 서현동 312-3번지","indutype":"","category":"other"},{"name":"오오공돈까스","tel":"","addr":"경기도 성남시 분당구 서현동 312-3번지","indutype":"","category":"other"},{"name":"올리브트리","tel":"031-707-1669","addr":"경기도 성남시 분당구 서현동 312-3번지","indutype":"","category":"other"},{"name":"장한보석","tel":"031-708-2224","addr":"경기도 성남시 분당구 서현동 312-3번지","indutype":"","category":"other"},{"name":"진보석","tel":"031-708-7663","addr":"경기도 성남시 분당구 서현동 312-3번지","indutype":"","category":"other"},{"name":"첼로 서현점","tel":"031-705-7734","addr":"경기도 성남시 분당구 서현동 312-3번지","indutype":"","category":"other"},{"name":"초롱꽃방","tel":"031-702-5970","addr":"경기도 성남시 분당구 서현동 312-3번지","indutype":"","category":"other"},{"name":"하이네일","tel":"","addr":"경기도 성남시 분당구 서현동 312-3번지","indutype":"","category":"other"},{"name":"행복시작에코리가헤어샵","tel":"031-702-9851","addr":"경기도 성남시 분당구 서현동 312-3번지","indutype":"","category":"other"},{"name":"헬로미","tel":"031-706-4643","addr":"경기도 성남시 분당구 서현동 312-3번지","indutype":"","category":"other"}]},{"lat":"37.3747227","long":"127.1364873","imageIndex":17,"items":[{"name":"궁전떡집","tel":"031-702-4557","addr":"경기도 성남시 분당구 서현동 305-5번지","indutype":"","category":"other"},{"name":"달인청과","tel":"031-708-5249","addr":"경기도 성남시 분당구 서현동 305-5번지","indutype":"","category":"other"},{"name":"대광한우","tel":"031-781-6675","addr":"경기도 성남시 분당구 서현동 305-5번지","indutype":"","category":"other"}]},{"lat":"37.3716736","long":"127.1397107","imageIndex":17,"items":[{"name":"그커피마을","tel":"","addr":"경기도 성남시 분당구 서현동 312-2번지","indutype":"","category":"other"},{"name":"본안경원","tel":"031-702-9505","addr":"경기도 성남시 분당구 서현동 312-2번지","indutype":"","category":"other"},{"name":"참사랑 한의원","tel":"031-704-7055","addr":"경기도 성남시 분당구 서현동 312-2번지","indutype":"","category":"other"}]},{"lat":"37.3719525","long":"127.1400951","imageIndex":17,"items":[{"name":"김밥나라 서현점","tel":"031-709-7585","addr":"경기도 성남시 분당구 서현동 312-1번지","indutype":"","category":"other"},{"name":"분당이층약국","tel":"031-702-1271","addr":"경기도 성남시 분당구 서현동 312-1번지","indutype":"","category":"other"},{"name":"아이패밀리 서현점","tel":"031-709-0110","addr":"경기도 성남시 분당구 서현동 312-1번지","indutype":"","category":"other"},{"name":"여사랑한의원","tel":"031-702-0388","addr":"경기도 성남시 분당구 서현동 312-1번지","indutype":"","category":"other"},{"name":"영진영어학원","tel":"031-702-8968","addr":"경기도 성남시 분당구 서현동 312-1번지","indutype":"","category":"other"},{"name":"정관장 분당동점","tel":"031-781-0303","addr":"경기도 성남시 분당구 서현동 312-1번지","indutype":"","category":"other"},{"name":"진시골밥상","tel":"031-702-2359","addr":"경기도 성남시 분당구 서현동 312-1번지","indutype":"","category":"other"},{"name":"토킹클럽서현어학원㈜","tel":"031-707-7905","addr":"경기도 성남시 분당구 서현동 312-1번지","indutype":"","category":"other"}]},{"lat":"37.3770323","long":"127.1338269","imageIndex":17,"items":[{"name":"내츄럴하우스","tel":"031-702-7348","addr":"경기도 성남시 분당구 서현동 298-2번지","indutype":"","category":"other"},{"name":"모리안경원","tel":"031-707-6221","addr":"경기도 성남시 분당구 서현동 298-2번지","indutype":"","category":"other"},{"name":"시내산반찬","tel":"031-706-3309","addr":"경기도 성남시 분당구 서현동 298-2번지","indutype":"","category":"other"},{"name":"안심축산물전문점 효자촌점","tel":"031-8017-7006","addr":"경기도 성남시 분당구 서현동 298-2번지","indutype":"","category":"other"},{"name":"커피마마","tel":"031-708-2021","addr":"경기도 성남시 분당구 서현동 298-2번지","indutype":"","category":"other"}]},{"lat":"37.384613","long":"127.1223228","imageIndex":17,"items":[{"name":"네일앤코","tel":"031-706-5973","addr":"경기도 성남시 분당구 서현동 269-1번지","indutype":"","category":"other"},{"name":"루미크","tel":"031-713-5408","addr":"경기도 성남시 분당구 서현동 269-1번지","indutype":"","category":"other"},{"name":"모든오피스(분당점)","tel":"031-781-4535","addr":"경기도 성남시 분당구 서현동 269-1번지","indutype":"","category":"other"},{"name":"본죽 서현점","tel":"031-708-6288","addr":"경기도 성남시 분당구 서현동 269-1번지","indutype":"","category":"other"}]},{"lat":"37.3863934","long":"127.1258487","imageIndex":17,"items":[{"name":"대영대중사우나","tel":"031-708-2626","addr":"경기도 성남시 분당구 서현동 245-2번지","indutype":"","category":"other"}]},{"lat":"37.3827576","long":"127.1215973","imageIndex":17,"items":[{"name":"더브라운베이커리 서현온더테이블점","tel":"031-701-9306","addr":"경기도 성남시 분당구 서현동 266-1번지","indutype":"","category":"other"},{"name":"불고기브라더스키친 분당퍼스트타워점","tel":"031-707-7798","addr":"경기도 성남시 분당구 서현동 266-1번지","indutype":"","category":"other"},{"name":"히노아지","tel":"031-8017-0522","addr":"경기도 성남시 분당구 서현동 266-1번지","indutype":"","category":"other"}]},{"lat":"37.384451","long":"127.1220968","imageIndex":17,"items":[{"name":"돌마감자탕","tel":"031-702-2522","addr":"경기도 성남시 분당구 서현동 269-2번지","indutype":"","category":"other"}]},{"lat":"37.3860894","long":"127.1235447","imageIndex":17,"items":[{"name":"동암약국","tel":"031-707-1220","addr":"경기도 성남시 분당구 서현동 250-4번지","indutype":"","category":"other"}]},{"lat":"37.3881704","long":"127.1238529","imageIndex":17,"items":[{"name":"둘둘치킨","tel":"031-705-2249","addr":"경기도 성남시 분당구 서현동 251-3번지","indutype":"","category":"other"},{"name":"배들어온집","tel":"031-708-6660","addr":"경기도 성남시 분당구 서현동 251-3번지","indutype":"","category":"other"},{"name":"아이원안경원 ((주)아이원메디칼)","tel":"031-603-0102","addr":"경기도 성남시 분당구 서현동 251-3번지","indutype":"","category":"other"},{"name":"장비빔국수와굴밥보쌈","tel":"031-708-5955","addr":"경기도 성남시 분당구 서현동 251-3번지","indutype":"","category":"other"},{"name":"황제해물폭탄","tel":"031-705-9992","addr":"경기도 성남시 분당구 서현동 251-3번지","indutype":"","category":"other"}]},{"lat":"37.3784785","long":"127.1377698","imageIndex":17,"items":[{"name":"땅끝수산","tel":"031-781-4878","addr":"경기도 성남시 분당구 서현동 327-4번지","indutype":"","category":"other"}]},{"lat":"37.3878381","long":"127.1228248","imageIndex":17,"items":[{"name":"라둘라스","tel":"031-1566-0284","addr":"경기도 성남시 분당구 서현동 254-5번지","indutype":"","category":"other"},{"name":"모유사랑 모유수유클리닉","tel":"031-1600-5675","addr":"경기도 성남시 분당구 서현동 254-5번지","indutype":"","category":"other"},{"name":"밀리헤어","tel":"031-8016-3442","addr":"경기도 성남시 분당구 서현동 254-5번지","indutype":"","category":"other"},{"name":"장홍규중화요리(서현점)","tel":"031-705-7500","addr":"경기도 성남시 분당구 서현동 254-5번지","indutype":"","category":"other"},{"name":"주식회사 윤진","tel":"031-603-9921","addr":"경기도 성남시 분당구 서현동 254-5번지","indutype":"","category":"other"},{"name":"파리바게뜨 분당재생병원점","tel":"031-703-9799","addr":"경기도 성남시 분당구 서현동 254-5번지","indutype":"","category":"other"}]},{"lat":"37.3857816","long":"127.1249895","imageIndex":17,"items":[{"name":"로이드 서현점","tel":"031-707-7773","addr":"경기도 성남시 분당구 서현동 247-3번지","indutype":"","category":"other"},{"name":"오렌즈 서현점","tel":"031-701-9946","addr":"경기도 성남시 분당구 서현동 247-3번지","indutype":"","category":"other"}]},{"lat":"37.3888656","long":"127.1224312","imageIndex":17,"items":[{"name":"루시네일","tel":"031-783-6941","addr":"경기도 성남시 분당구 서현동 255-1번지","indutype":"","category":"other"},{"name":"시골집밥","tel":"031-783-5599","addr":"경기도 성남시 분당구 서현동 255-1번지","indutype":"","category":"other"},{"name":"시선감각미디어","tel":"","addr":"경기도 성남시 분당구 서현동 255-1번지","indutype":"","category":"other"},{"name":"엔젤커피","tel":"031-783-5668","addr":"경기도 성남시 분당구 서현동 255-1번지","indutype":"","category":"other"},{"name":"울진항","tel":"031-783-6034","addr":"경기도 성남시 분당구 서현동 255-1번지","indutype":"","category":"other"},{"name":"제이이레모","tel":"031-783-6555","addr":"경기도 성남시 분당구 서현동 255-1번지","indutype":"","category":"other"},{"name":"조광남 모유육아 상담실","tel":"","addr":"경기도 성남시 분당구 서현동 255-1번지","indutype":"","category":"other"},{"name":"헤어이즈엠 (Hair is M)","tel":"","addr":"경기도 성남시 분당구 서현동 255-1번지","indutype":"","category":"other"}]},{"lat":"37.3861987","long":"127.1223818","imageIndex":17,"items":[{"name":"만강홍 서현점","tel":"031-705-8555","addr":"경기도 성남시 분당구 서현동 260-6번지","indutype":"","category":"other"},{"name":"베러베스트","tel":"031-781-7051","addr":"경기도 성남시 분당구 서현동 260-6번지","indutype":"","category":"other"},{"name":"어반트랜드","tel":"031-704-5082","addr":"경기도 성남시 분당구 서현동 260-6번지","indutype":"","category":"other"}]},{"lat":"37.3771162","long":"127.1392916","imageIndex":17,"items":[{"name":"먹개비촌","tel":"031-707-0153","addr":"경기도 성남시 분당구 서현동 328-10번지","indutype":"","category":"other"}]},{"lat":"37.385451","long":"127.1222677","imageIndex":17,"items":[{"name":"메가박스㈜ 분당지점","tel":"070-7017-9917","addr":"경기도 성남시 분당구 서현동 262-2번지","indutype":"","category":"other"}]},{"lat":"37.3782235","long":"127.1321016","imageIndex":17,"items":[{"name":"메디파트약국","tel":"031-701-0146","addr":"경기도 성남시 분당구 서현동 94-3번지","indutype":"","category":"other"},{"name":"모든","tel":"031-702-7318","addr":"경기도 성남시 분당구 서현동 94-3번지","indutype":"","category":"other"},{"name":"비비드폴","tel":"","addr":"경기도 성남시 분당구 서현동 94-3번지","indutype":"","category":"other"},{"name":"산애들애","tel":"031-701-2834","addr":"경기도 성남시 분당구 서현동 94-3번지","indutype":"","category":"other"},{"name":"삼천리서현대리점","tel":"031-701-8585","addr":"경기도 성남시 분당구 서현동 94-3번지","indutype":"","category":"other"},{"name":"스마트약국","tel":"031-705-6969","addr":"경기도 성남시 분당구 서현동 94-3번지","indutype":"","category":"other"},{"name":"씨에프바베큐치킨","tel":"031-709-8822","addr":"경기도 성남시 분당구 서현동 94-3번지","indutype":"","category":"other"},{"name":"우리동네 고깃간","tel":"031-709-1253","addr":"경기도 성남시 분당구 서현동 94-3번지","indutype":"","category":"other"},{"name":"초우소돼지도매센터","tel":"031-705-8278","addr":"경기도 성남시 분당구 서현동 94-3번지","indutype":"","category":"other"},{"name":"크린토피아 우성점","tel":"031-701-2223","addr":"경기도 성남시 분당구 서현동 94-3번지","indutype":"","category":"other"},{"name":"하얀안경","tel":"031-701-7753","addr":"경기도 성남시 분당구 서현동 94-3번지","indutype":"","category":"other"},{"name":"해피앤위크","tel":"031-708-4123","addr":"경기도 성남시 분당구 서현동 94-3번지","indutype":"","category":"other"}]},{"lat":"37.3879188","long":"127.1232089","imageIndex":17,"items":[{"name":"모노치즈 서현점","tel":"070-4218-9279","addr":"경기도 성남시 분당구 서현동 254-1번지","indutype":"","category":"other"}]},{"lat":"37.384585","long":"127.1317624","imageIndex":17,"items":[{"name":"모리아","tel":"031-709-5382","addr":"경기도 성남시 분당구 서현동 221-5번지","indutype":"","category":"other"}]},{"lat":"37.3760337","long":"127.1404074","imageIndex":17,"items":[{"name":"모모미 헤어","tel":"031-708-5552","addr":"경기도 성남시 분당구 서현동 334-5번지","indutype":"","category":"other"}]},{"lat":"37.3792273","long":"127.1369018","imageIndex":17,"items":[{"name":"무교동 낙지","tel":"","addr":"경기도 성남시 분당구 서현동 325-1번지","indutype":"","category":"other"},{"name":"옥토이야기","tel":"031-702-6117","addr":"경기도 성남시 분당구 서현동 325-1번지","indutype":"","category":"other"}]},{"lat":"37.3846143","long":"127.1210469","imageIndex":17,"items":[{"name":"미꽃담","tel":"031-703-7330","addr":"경기도 성남시 분당구 서현동 271-1번지","indutype":"","category":"other"}]},{"lat":"37.3841451","long":"127.1216898","imageIndex":17,"items":[{"name":"미소야","tel":"031-706-0277","addr":"경기도 성남시 분당구 서현동 269-4번지","indutype":"","category":"other"}]},{"lat":"37.3844505","long":"127.1311863","imageIndex":17,"items":[{"name":"민수라간장게장","tel":"031-705-0602","addr":"경기도 성남시 분당구 서현동 77-5번지","indutype":"","category":"other"}]},{"lat":"37.3742814","long":"127.1363511","imageIndex":17,"items":[{"name":"밝은미소약국","tel":"031-709-4470","addr":"경기도 성남시 분당구 서현동 305-2번지","indutype":"","category":"other"},{"name":"브리튼영어학원","tel":"031-706-8448","addr":"경기도 성남시 분당구 서현동 305-2번지","indutype":"","category":"other"},{"name":"엄마약국","tel":"031-707-5440","addr":"경기도 성남시 분당구 서현동 305-2번지","indutype":"","category":"other"}]},{"lat":"37.3856144","long":"127.1210485","imageIndex":17,"items":[{"name":"베스트문구센터","tel":"031-701-0300","addr":"경기도 성남시 분당구 서현동 272-5번지","indutype":"","category":"other"},{"name":"주식회사해마루","tel":"031-781-2992","addr":"경기도 성남시 분당구 서현동 272-5번지","indutype":"","category":"other"}]},{"lat":"37.38428","long":"127.1219045","imageIndex":17,"items":[{"name":"봉추찜닭(분당서현점)","tel":"031-703-9381","addr":"경기도 성남시 분당구 서현동 269-3번지","indutype":"","category":"other"}]},{"lat":"37.3827516","long":"127.1357338","imageIndex":17,"items":[{"name":"분당난플라워","tel":"031-702-6766","addr":"경기도 성남시 분당구 서현동 110-2번지","indutype":"","category":"other"}]},{"lat":"37.3872799","long":"127.1223835","imageIndex":17,"items":[{"name":"분당백제약국","tel":"031-701-3005","addr":"경기도 성남시 분당구 서현동 256번지","indutype":"","category":"other"}]},{"lat":"37.3877013","long":"127.1243829","imageIndex":17,"items":[{"name":"분당새롬행정고시학원","tel":"031-704-7333","addr":"경기도 성남시 분당구 서현동 251-1번지","indutype":"","category":"other"},{"name":"이제이플러스외국어 종합학원","tel":"031-781-5103","addr":"경기도 성남시 분당구 서현동 251-1번지","indutype":"","category":"other"}]},{"lat":"37.3867492","long":"127.1215471","imageIndex":17,"items":[{"name":"분당제일산후조리원","tel":"031-725-8562","addr":"경기도 성남시 분당구 서현동 260-2번지","indutype":"","category":"other"}]},{"lat":"37.3867542","long":"127.1254315","imageIndex":17,"items":[{"name":"생명마루한의원","tel":"031-704-1075","addr":"경기도 성남시 분당구 서현동 245-3번지","indutype":"","category":"other"},{"name":"피자헤븐 분당서현점","tel":"031-707-9045","addr":"경기도 성남시 분당구 서현동 245-3번지","indutype":"","category":"other"}]},{"lat":"37.3860605","long":"127.1253739","imageIndex":17,"items":[{"name":"서현 렌즈미","tel":"031-702-5009","addr":"경기도 성남시 분당구 서현동 247-1번지","indutype":"","category":"other"}]},{"lat":"37.3780635","long":"127.1382433","imageIndex":17,"items":[{"name":"섬마을 일식","tel":"031-708-8277","addr":"경기도 성남시 분당구 서현동 327-9번지","indutype":"","category":"other"}]},{"lat":"37.3872","long":"127.1212091","imageIndex":17,"items":[{"name":"세인트포시즌","tel":"031-703-2015","addr":"경기도 성남시 분당구 서현동 258-1번지","indutype":"","category":"other"}]},{"lat":"37.3847501","long":"127.1203245","imageIndex":17,"items":[{"name":"스시웨이 분당서현점","tel":"031-713-9913","addr":"경기도 성남시 분당구 서현동 273-2번지","indutype":"","category":"other"},{"name":"케이에스뷰티랩","tel":"031-706-8877","addr":"경기도 성남시 분당구 서현동 273-2번지","indutype":"","category":"other"},{"name":"화수목","tel":"031-703-7313","addr":"경기도 성남시 분당구 서현동 273-2번지","indutype":"","category":"other"}]},{"lat":"37.3859742","long":"127.1216588","imageIndex":17,"items":[{"name":"스타파인더 서현점","tel":"031-696-1233","addr":"경기도 성남시 분당구 서현동 261-5번지","indutype":"","category":"other"}]},{"lat":"37.3838921","long":"127.1223556","imageIndex":17,"items":[{"name":"심봉사도로케 서현역점","tel":"031-707-9799","addr":"경기도 성남시 분당구 서현동 268-3번지","indutype":"","category":"other"},{"name":"클랭에듀 러닝센터 어학원","tel":"031-8017-9505","addr":"경기도 성남시 분당구 서현동 268-3번지","indutype":"","category":"other"}]},{"lat":"37.3865053","long":"127.1220774","imageIndex":17,"items":[{"name":"쌀통닭","tel":"031-708-5235","addr":"경기도 성남시 분당구 서현동 260-4번지","indutype":"","category":"other"}]},{"lat":"37.385616","long":"127.1282412","imageIndex":17,"items":[{"name":"쓰리밸런스","tel":"031-703-0930","addr":"경기도 성남시 분당구 서현동 85-2번지","indutype":"","category":"other"}]},{"lat":"37.3870338","long":"127.1251609","imageIndex":17,"items":[{"name":"아트허지스헤어","tel":"031-702-9977","addr":"경기도 성남시 분당구 서현동 245-4번지","indutype":"","category":"other"}]},{"lat":"37.3814174","long":"127.1280762","imageIndex":17,"items":[{"name":"안동한우마을","tel":"031-706-1357","addr":"경기도 성남시 분당구 서현동 89-7번지","indutype":"","category":"other"},{"name":"한신슈퍼","tel":"031-709-8799","addr":"경기도 성남시 분당구 서현동 89-7번지","indutype":"","category":"other"},{"name":"현미와 누룽지","tel":"031-781-0222","addr":"경기도 성남시 분당구 서현동 89-7번지","indutype":"","category":"other"}]},{"lat":"37.38539","long":"127.1289296","imageIndex":17,"items":[{"name":"안방","tel":"031-702-5668","addr":"경기도 성남시 분당구 서현동 82-7번지","indutype":"","category":"other"}]},{"lat":"37.3738664","long":"127.1367907","imageIndex":17,"items":[{"name":"앙토낭카렘과자점","tel":"031-702-0089","addr":"경기도 성남시 분당구 서현동 306-2번지","indutype":"","category":"other"},{"name":"엠씨씨(MCC)학원","tel":"031-701-9891","addr":"경기도 성남시 분당구 서현동 306-2번지","indutype":"","category":"other"}]},{"lat":"37.3787221","long":"127.1374654","imageIndex":17,"items":[{"name":"어선","tel":"031-707-6777","addr":"경기도 성남시 분당구 서현동 327-1번지","indutype":"","category":"other"}]},{"lat":"37.3865302","long":"127.1242116","imageIndex":17,"items":[{"name":"오반무한리필양꼬치 (짱수양꼬치)","tel":"031-706-6869","addr":"경기도 성남시 분당구 서현동 249-4번지","indutype":"","category":"other"}]},{"lat":"37.3846408","long":"127.1215438","imageIndex":17,"items":[{"name":"오쓰","tel":"031-8017-8386","addr":"경기도 성남시 분당구 서현동 270-3번지","indutype":"","category":"other"},{"name":"차슈멘연구소","tel":"","addr":"경기도 성남시 분당구 서현동 270-3번지","indutype":"","category":"other"},{"name":"한울타리","tel":"031-706-8355","addr":"경기도 성남시 분당구 서현동 270-3번지","indutype":"","category":"other"},{"name":"한울타리 서현점","tel":"","addr":"경기도 성남시 분당구 서현동 270-3번지","indutype":"","category":"other"}]},{"lat":"37.3834513","long":"127.1217113","imageIndex":17,"items":[{"name":"오이시이 일본어학원","tel":"031-708-0505","addr":"경기도 성남시 분당구 서현동 268-6번지","indutype":"","category":"other"}]},{"lat":"37.3744529","long":"127.1360691","imageIndex":17,"items":[{"name":"왕의강정","tel":"031-703-3150","addr":"경기도 성남시 분당구 서현동 305-3번지","indutype":"","category":"other"}]},{"lat":"37.3839753","long":"127.1202668","imageIndex":17,"items":[{"name":"우리약국","tel":"031-704-3379","addr":"경기도 성남시 분당구 서현동 267-3번지","indutype":"","category":"other"}]},{"lat":"37.3860075","long":"127.1243011","imageIndex":17,"items":[{"name":"유성백반","tel":"031-701-1625","addr":"경기도 성남시 분당구 서현동 248-4번지","indutype":"","category":"other"},{"name":"헤어153","tel":"031-701-0153","addr":"경기도 성남시 분당구 서현동 248-4번지","indutype":"","category":"other"}]},{"lat":"37.3838392","long":"127.1212715","imageIndex":17,"items":[{"name":"이종훈여성한의원","tel":"031-708-7591","addr":"경기도 성남시 분당구 서현동 269-6번지","indutype":"","category":"other"}]},{"lat":"37.3855064","long":"127.1208789","imageIndex":17,"items":[{"name":"장원막국수 분당서현점","tel":"031-707-5855","addr":"경기도 성남시 분당구 서현동 272-4번지","indutype":"","category":"other"}]},{"lat":"37.3757541","long":"127.1407117","imageIndex":17,"items":[{"name":"장충동왕족발","tel":"031-717-3300","addr":"경기도 성남시 분당구 서현동 334-8번지","indutype":"","category":"other"}]},{"lat":"37.3778109","long":"127.1385138","imageIndex":17,"items":[{"name":"주문진","tel":"031-705-9555","addr":"경기도 성남시 분당구 서현동 328-2번지","indutype":"","category":"other"}]},{"lat":"37.3854789","long":"127.1213531","imageIndex":17,"items":[{"name":"주식회사 메콩타이컴퍼니 서현직영점","tel":"031-8022-5544","addr":"경기도 성남시 분당구 서현동 272-1번지","indutype":"","category":"other"}]},{"lat":"37.3863404","long":"127.124742","imageIndex":17,"items":[{"name":"주앙","tel":"","addr":"경기도 성남시 분당구 서현동 248-2번지","indutype":"","category":"other"}]},{"lat":"37.3852824","long":"127.1284665","imageIndex":17,"items":[{"name":"지니홈메이드㈜","tel":"031-708-9032","addr":"경기도 성남시 분당구 서현동 82-2번지","indutype":"","category":"other"}]},{"lat":"37.3856106","long":"127.1247634","imageIndex":17,"items":[{"name":"짚동가리쌩주","tel":"031-708-1377","addr":"경기도 성남시 분당구 서현동 247-4번지","indutype":"","category":"other"}]},{"lat":"37.3839741","long":"127.1214863","imageIndex":17,"items":[{"name":"채선당 서현점","tel":"031-702-3655","addr":"경기도 성남시 분당구 서현동 269-5번지","indutype":"","category":"other"}]},{"lat":"37.3837564","long":"127.13149","imageIndex":17,"items":[{"name":"청간정","tel":"031-707-1688","addr":"경기도 성남시 분당구 서현동 99-2번지","indutype":"","category":"other"}]},{"lat":"37.3753119","long":"127.141298","imageIndex":17,"items":[{"name":"토이앤맘분당점","tel":"031-707-3966","addr":"경기도 성남시 분당구 서현동 341-4번지","indutype":"","category":"other"}]},{"lat":"37.3745878","long":"127.1362726","imageIndex":17,"items":[{"name":"하모니마트 서현점","tel":"031-701-8582","addr":"경기도 성남시 분당구 서현동 305-4번지","indutype":"","category":"other"}]},{"lat":"37.3853946","long":"127.1330398","imageIndex":17,"items":[{"name":"하바외국어학원 (아이티움㈜)","tel":"031-704-5775","addr":"경기도 성남시 분당구 서현동 209-2번지","indutype":"","category":"other"}]},{"lat":"37.3853612","long":"127.1306233","imageIndex":17,"items":[{"name":"한살림성남용인소비자 생협 서현매장","tel":"031-781-7737","addr":"경기도 성남시 분당구 서현동 83-3번지","indutype":"","category":"other"}]},{"lat":"37.3789747","long":"127.1372062","imageIndex":17,"items":[{"name":"한우집","tel":"031-703-9998","addr":"경기도 성남시 분당구 서현동 325-4번지","indutype":"","category":"other"}]},{"lat":"37.3841142","long":"127.133907","imageIndex":17,"items":[{"name":"화덕구이정식 구이락","tel":"031-703-9291","addr":"경기도 성남시 분당구 서현동 198-5번지 동양프라자","indutype":"","category":"other"}]},{"lat":"37.3772786","long":"127.1391","imageIndex":17,"items":[{"name":"황금소막창구이","tel":"031-781-3136","addr":"경기도 성남시 분당구 서현동 328-8번지","indutype":"","category":"other"}]},{"lat":"37.3742036","long":"127.1412959","imageIndex":17,"items":[{"name":"회짱포짱","tel":"031-701-8547","addr":"경기도 성남시 분당구 서현동 323번지 효자촌대명연립","indutype":"","category":"other"}]}]