[{"lat":"37.24943112","long":"127.04621992","imageIndex":0,"items":[{"name":"(주)지에스이앤알 Gself세차장","tel":"02-2005-2073","addr":"경기도 수원시 영통구 신동 531-1번지","indutype":"자동차정비 유지 - 세차장","category":"car"}]},{"lat":"37.249876625","long":"127.05824667","imageIndex":0,"items":[{"name":"B2B  MOTORS","tel":"031-206-5158","addr":"경기도 수원시 영통구 신동 346-4번지 1층","indutype":"자동차판매 - 이륜차판매","category":"car"}]},{"lat":"37.249070737","long":"127.04614082","imageIndex":0,"items":[{"name":"Drean1 영통세차장","tel":"031-203-3789","addr":"경기도 수원시 영통구 신동 532-15번지","indutype":"자동차정비 유지 - 세차장","category":"car"}]},{"lat":"37.252020075","long":"127.06035603","imageIndex":0,"items":[{"name":"JOY(조이)덴트","tel":"031-203-6792","addr":"경기도 수원시 영통구 신동 275-1번지 C동","indutype":"자동차정비 유지 - 자동차정비","category":"car"}]},{"lat":"37.248930976","long":"127.05731047","imageIndex":0,"items":[{"name":"YT카정비센타","tel":"031-206-8833","addr":"경기도 수원시 영통구 신동 338-5번지","indutype":"자동차정비 유지 - 자동차정비","category":"car"}]},{"lat":"37.249210129","long":"127.05767135","imageIndex":0,"items":[{"name":"글라스틴트수원점","tel":"031-203-4642","addr":"경기도 수원시 영통구 신동 341번지 102호","indutype":"자동차정비 유지 - 카인테리어","category":"car"}]},{"lat":"37.248295534","long":"127.04699698","imageIndex":0,"items":[{"name":"뉴현대공업사","tel":"031-212-5001","addr":"경기도 수원시 영통구 신동 498-1번지","indutype":"자동차정비 유지 - 자동차정비","category":"car"}]},{"lat":"37.24829594","long":"127.04589241","imageIndex":0,"items":[{"name":"동수원센타","tel":"031-235-7681","addr":"경기도 수원시 영통구 신동 529-10번지","indutype":"자동차정비 유지 - 자동차부품","category":"car"}]},{"lat":"37.247384125","long":"127.05052425","imageIndex":0,"items":[{"name":"디지털엠파이어II협의회","tel":"031-695-6003","addr":"경기도 수원시 영통구 신동 486번지 운영지원센터","indutype":"자동차정비 유지 - 주차장","category":"car"},{"name":"디지털엠파이어Ⅱ 협의회","tel":"031-695-6001","addr":"경기도 수원시 영통구 신동 486번지 운영지원센터","indutype":"자동차정비 유지 - 주차장","category":"car"}]},{"lat":"37.2485757","long":"127.04466402","imageIndex":0,"items":[{"name":"럭셔리출장케어","tel":"","addr":"경기도 수원시 영통구 신동 930-7번지 202호","indutype":"자동차정비 유지 - 세차장","category":"car"}]},{"lat":"37.248097754","long":"127.04577959","imageIndex":0,"items":[{"name":"루마썬팅 신동점","tel":"031-1666-2827","addr":"경기도 수원시 영통구 신동 936-2번지","indutype":"자동차정비 유지 - 자동차부품","category":"car"}]},{"lat":"37.248656221","long":"127.04625329","imageIndex":0,"items":[{"name":"백운상사","tel":"031-236-5555","addr":"경기도 수원시 영통구 신동 532-19","indutype":"자동차정비 유지 - 자동차시트·타이어","category":"car"}]},{"lat":"37.251488814","long":"127.05963425","imageIndex":0,"items":[{"name":"블루라인(BLUELINE)","tel":"031-213-0000","addr":"경기도 수원시 영통구 신동 362번지","indutype":"자동차정비 유지 - 세차장","category":"car"}]},{"lat":"37.249687894","long":"127.0571983","imageIndex":0,"items":[{"name":"사이버카","tel":"031-273-6469","addr":"경기도 수원시 영통구 신동 340-25번지 1층 101호","indutype":"자동차정비 유지 - 카인테리어","category":"car"}]},{"lat":"37.247907154","long":"127.04944256","imageIndex":0,"items":[{"name":"삼성오토프라자","tel":"031-203-6057","addr":"경기도 수원시 영통구 신동 503-18번지","indutype":"자동차정비 유지 - 자동차정비","category":"car"}]},{"lat":"37.252129239","long":"127.05816941","imageIndex":0,"items":[{"name":"소이모터스","tel":"031-273-9929","addr":"경기도 수원시 영통구 신동 384-5번지","indutype":"자동차정비 유지 - 자동차정비","category":"car"}]},{"lat":"37.246990487","long":"127.04291616","imageIndex":0,"items":[{"name":"스팀보이게러지 수원영통점","tel":"031-111-1111","addr":"경기도 수원시 영통구 신동 933-13번지 104호","indutype":"자동차정비 유지 - 세차장","category":"car"}]},{"lat":"37.248187837","long":"127.04583599","imageIndex":0,"items":[{"name":"애니카랜드 신동점","tel":"031-205-5114","addr":"경기도 수원시 영통구 신동 936-1번지","indutype":"자동차정비 유지 - 자동차정비","category":"car"}]},{"lat":"37.248070022","long":"127.04767311","imageIndex":0,"items":[{"name":"에이스오토1급정비","tel":"031-204-8728","addr":"경기도 수원시 영통구 신동 498-3번지","indutype":"자동차정비 유지 - 자동차정비","category":"car"}]},{"lat":"37.25190338","long":"127.05944294","imageIndex":0,"items":[{"name":"영빈카프라자","tel":"031-205-8860","addr":"경기도 수원시 영통구 신동 365-1번지 203호","indutype":"자동차정비 유지 - 자동차정비","category":"car"}]},{"lat":"37.249882123","long":"127.04486762","imageIndex":0,"items":[{"name":"영통셀프세차장","tel":"031-202-7766","addr":"경기도 수원시 영통구 신동 537-1번지","indutype":"자동차정비 유지 - 세차장","category":"car"}]},{"lat":"37.249543359","long":"127.05799846","imageIndex":0,"items":[{"name":"오토프리즘(Auto Prism)","tel":"031-203-2236","addr":"경기도 수원시 영통구 신동 343-3번지 지하2층","indutype":"자동차정비 유지 - 자동차부품","category":"car"}]},{"lat":"37.249883178","long":"127.04177928","imageIndex":0,"items":[{"name":"월드카","tel":"031-204-3318","addr":"경기도 수원시 영통구 신동 600-4번지","indutype":"자동차정비 유지 - 자동차정비","category":"car"}]},{"lat":"37.248076767","long":"127.05330863","imageIndex":0,"items":[{"name":"주식회사갤럭시빌딩마스타","tel":"031-234-5700","addr":"경기도 수원시 영통구 신동 398-39번지 A동 104호","indutype":"자동차정비 유지 - 주차장","category":"car"}]},{"lat":"37.248097614","long":"127.0461628","imageIndex":0,"items":[{"name":"화계자동차유리","tel":"031-212-1206","addr":"경기도 수원시 영통구 신동 514-7","indutype":"자동차정비 유지 - 자동차부품","category":"car"}]}]