[{"lat":"37.63261923","long":"127.40164585","imageIndex":5,"items":[{"name":"계곡사슴펜션","tel":"031-772-7060","addr":"경기도 양평군 서종면 수입리 312-1번지","indutype":"숙박업 - 여관/기타숙박업","category":"hotel"}]},{"lat":"37.640836114","long":"127.38529519","imageIndex":5,"items":[{"name":"굿모닝모텔","tel":"031-774-9548","addr":"경기도 양평군 서종면 수입리 464-3번지","indutype":"숙박업 - 여관/기타숙박업","category":"hotel"}]},{"lat":"37.641028692","long":"127.37293506","imageIndex":5,"items":[{"name":"그린모텔","tel":"031-771-8331","addr":"경기도 양평군 서종면 수입리 663-1","indutype":"숙박업 - 여관/기타숙박업","category":"hotel"}]},{"lat":"37.641171457","long":"127.37337764","imageIndex":5,"items":[{"name":"그린하우스","tel":"031-771-8331","addr":"경기도 양평군 서종면 수입리 665-1번지","indutype":"숙박업 - 여관/기타숙박업","category":"hotel"}]},{"lat":"37.638870369","long":"127.40740078","imageIndex":5,"items":[{"name":"덩펜션","tel":"031-347-1437","addr":"경기도 양평군 서종면 수입리 283-2","indutype":"숙박업 - 여관/기타숙박업","category":"hotel"}]},{"lat":"37.638224511","long":"127.39589768","imageIndex":5,"items":[{"name":"레떼","tel":"","addr":"경기도 양평군 서종면 수입리 340번지","indutype":"숙박업 - 여관/기타숙박업","category":"hotel"}]},{"lat":"37.641835656","long":"127.38545893","imageIndex":5,"items":[{"name":"무드리","tel":"031-773-4200","addr":"경기도 양평군 서종면 수입리 453-30번지","indutype":"숙박업 - 여관/기타숙박업","category":"hotel"}]},{"lat":"37.647333439","long":"127.37643363","imageIndex":5,"items":[{"name":"물소리새소리","tel":"031-774-5011","addr":"경기도 양평군 서종면 수입리 695-1번지 외2필지","indutype":"숙박업 - 여관/기타숙박업","category":"hotel"}]},{"lat":"37.635362609","long":"127.37832233","imageIndex":5,"items":[{"name":"숲속애 무인","tel":"031-775-4100","addr":"경기도 양평군 서종면 수입리 621-17번지","indutype":"숙박업 - 여관/기타숙박업","category":"hotel"},{"name":"숲속애 무인텔","tel":"031-775-4100","addr":"경기도 양평군 서종면 수입리 621-17번지","indutype":"숙박업 - 여관/기타숙박업","category":"hotel"}]},{"lat":"37.635780232","long":"127.3829581","imageIndex":5,"items":[{"name":"양평카카오펜션","tel":"031-774-1980","addr":"경기도 양평군 서종면 수입리 546-3번지","indutype":"숙박업 - 여관/기타숙박업","category":"hotel"}]},{"lat":"37.633891693","long":"127.38187223","imageIndex":5,"items":[{"name":"자연향기펜션","tel":"031-9473-7323","addr":"경기도 양평군 서종면 수입리 609-6번지","indutype":"숙박업 - 여관/기타숙박업","category":"hotel"}]},{"lat":"37.644897013","long":"127.38881718","imageIndex":5,"items":[{"name":"전망좋은모텔","tel":"031-771-3088","addr":"경기도 양평군 서종면 수입리 408-1번지","indutype":"숙박업 - 여관/기타숙박업","category":"hotel"}]},{"lat":"37.647169195","long":"127.42006851","imageIndex":5,"items":[{"name":"포독스1","tel":"031-111-1111","addr":"경기도 양평군 서종면 수입리 67-6번지","indutype":"숙박업 - 여관/기타숙박업","category":"hotel"}]},{"lat":"37.647007906","long":"127.41981833","imageIndex":5,"items":[{"name":"포독스2","tel":"031-111-1111","addr":"경기도 양평군 서종면 수입리 67-2번지","indutype":"숙박업 - 여관/기타숙박업","category":"hotel"}]},{"lat":"37.635615598","long":"127.36365221","imageIndex":5,"items":[{"name":"피엔엘 (P&L)모텔","tel":"031-775-2669","addr":"경기도 양평군 서종면 수입리 820-32번지","indutype":"숙박업 - 여관/기타숙박업","category":"hotel"}]}]