[{"lat":"37.810337858","long":"127.10886709","imageIndex":17,"items":[{"name":"(주)그린세계","tel":"031-844-4300","addr":"경기도 양주시 삼숭동 98-33번지","indutype":"용역 서비스 - 기타용역서비스","category":"other"}]},{"lat":"37.802761253","long":"127.08597635","imageIndex":17,"items":[{"name":"(주)형제미니중기","tel":"031-847-2004","addr":"경기도 양주시 삼숭동 628-16번지 1층","indutype":"기타 - 기계공구","category":"other"}]},{"lat":"37.801479548","long":"127.10078132","imageIndex":17,"items":[{"name":"(주)홈씨스드웰","tel":"031-543-1385","addr":"경기도 양주시 삼숭동 358-7번지","indutype":"주방용구 - 주방용구","category":"other"}]},{"lat":"37.796982516","long":"127.10234222","imageIndex":17,"items":[{"name":"G-LED조명","tel":"031-2060-9675","addr":"경기도 양주시 삼숭동 267-11번지 4호","indutype":"건축자재 - 조명기구","category":"other"},{"name":"양지공인중개사사무소","tel":"031-841-0019","addr":"경기도 양주시 삼숭동 267-11번지 9호","indutype":"용역 서비스 - 부동산 중개·임대","category":"other"}]},{"lat":"37.802476678","long":"127.10423448","imageIndex":17,"items":[{"name":"GS25삼숭자이점","tel":"","addr":"경기도 양주시 삼숭동 688번지 양주자이6단지아파트 105호","indutype":"유통업 영리 - 편 의 점","category":"other"}]},{"lat":"37.795952433","long":"127.1058378","imageIndex":17,"items":[{"name":"GS25양주자이점","tel":"","addr":"경기도 양주시 삼숭동 685-1번지 양주프라자 1층 2115호","indutype":"유통업 영리 - 편 의 점","category":"other"},{"name":"데코방","tel":"031-821-5689","addr":"경기도 양주시 삼숭동 685-1번지 양주자이프라자 2150호","indutype":"신변잡화 - 기타잡화","category":"other"},{"name":"디케이(DK)","tel":"02-472-3624","addr":"경기도 양주시 삼숭동 685-1번지 양주자이프라자1차 2138호","indutype":"가구 - 일반가구","category":"other"},{"name":"란샵(Ran#)","tel":"","addr":"경기도 양주시 삼숭동 685-1번지 양주자이프라자 2층 2216호","indutype":"의류 - 정장","category":"other"},{"name":"리틀홈파티","tel":"070-4221-2325","addr":"경기도 양주시 삼숭동 685-1번지 양주자이프라자 2119호","indutype":"의류 - 정장","category":"other"},{"name":"빛나는 구름","tel":"031-843-3989","addr":"경기도 양주시 삼숭동 685-1번지 양주자이프라자1 2층 2223호","indutype":"의류 - 정장","category":"other"},{"name":"세탁공화국","tel":"031-841-1838","addr":"경기도 양주시 삼숭동 685-1번지 양주프라자 1층 2146호","indutype":"수리서비스 - 세탁소","category":"other"},{"name":"손뜨개공방 별","tel":"","addr":"경기도 양주시 삼숭동 685-1번지 양주자이프라자 2233호","indutype":"문화.취미 - 문화취미기타","category":"other"},{"name":"스튜디오도담","tel":"031-111-1111","addr":"경기도 양주시 삼숭동 685-1번지 양주자이프라자 2층 2216호","indutype":"광학제품 - 사진관","category":"other"},{"name":"양주2동 주민자치센터","tel":"031-844-8776","addr":"경기도 양주시 삼숭동 685-1번지 양주자이프라자 2401호","indutype":"문화.취미 - 문화취미기타","category":"other"},{"name":"양주2동 주민자치센터 삼숭센터","tel":"","addr":"경기도 양주시 삼숭동 685-1번지 양주자이프라자 2401호","indutype":"문화.취미 - 문화취미기타","category":"other"},{"name":"엄지공주","tel":"031-848-3428","addr":"경기도 양주시 삼숭동 685-1번지 양주프라자 2층 2229호","indutype":"신변잡화 - 기타잡화","category":"other"},{"name":"유진펫싸롱","tel":"031-821-4661","addr":"경기도 양주시 삼숭동 685-1번지 양주자이프라자 2133호","indutype":"문화.취미 - 애완동물","category":"other"},{"name":"이지스(EZIS)","tel":"031-111-1111","addr":"경기도 양주시 삼숭동 685-1번지 양주자이프라자 4층 2405호","indutype":"용역 서비스 - 종합용역","category":"other"},{"name":"자이침장수예","tel":"070-7567-7039","addr":"경기도 양주시 삼숭동 685-1번지 양주프라자1상가2146호","indutype":"직물 - 침구·수예점","category":"other"},{"name":"쥬니봉봉","tel":"","addr":"경기도 양주시 삼숭동 685-1번지 양주자이프라자 1층","indutype":"의류 - 아동의류","category":"other"},{"name":"캔들 오제이","tel":"031-856-2050","addr":"경기도 양주시 삼숭동 685-1번지 양주자이프라자 1층 2138호","indutype":"신변잡화 - 기타잡화","category":"other"},{"name":"홍선생미술","tel":"031-848-8895","addr":"경기도 양주시 삼숭동 685-1번지 프라자1상가 2층 2225호","indutype":"서적문구 - 일반서적","category":"other"},{"name":"황지공인중개사사무소","tel":"031-840-4900","addr":"경기도 양주시 삼숭동 685-1번지 양주프라자1상가 2113호","indutype":"용역 서비스 - 부동산 중개·임대","category":"other"}]},{"lat":"37.805867154","long":"127.0892615","imageIndex":17,"items":[{"name":"GS25양주푸른점","tel":"031-821-3422","addr":"경기도 양주시 삼숭동 653-13번지 1층 101호","indutype":"유통업 영리 - 편 의 점","category":"other"}]},{"lat":"37.797816535","long":"127.10681683","imageIndex":17,"items":[{"name":"GS25자이사랑점","tel":"031-847-5895","addr":"경기도 양주시 삼숭동 682-1번지 양주자이4단지상가 4106호,4107호","indutype":"유통업 영리 - 편 의 점","category":"other"},{"name":"자이문구팬시","tel":"031-846-7795","addr":"경기도 양주시 삼숭동 682-1상가-4101","indutype":"서적문구 - 문구용품","category":"other"}]},{"lat":"37.806729955","long":"127.10328644","imageIndex":17,"items":[{"name":"Joo reum","tel":"031-858-8261","addr":"경기도 양주시 삼숭동 150번지","indutype":"직물 - 옷감·직물","category":"other"}]},{"lat":"37.80833882","long":"127.09700894","imageIndex":17,"items":[{"name":"M.B.C 가구박람회","tel":"031-846-1054","addr":"경기도 양주시 삼숭동 538-3번지","indutype":"가구 - 일반가구","category":"other"},{"name":"주노 트레이딩","tel":"","addr":"경기도 양주시 삼숭동 538-3번지","indutype":"의류 - 정장","category":"other"},{"name":"태산창호 토탈 인테리어","tel":"031-821-0871","addr":"경기도 양주시 삼숭동 538-3번지","indutype":"건축자재 - 인테리어전문","category":"other"}]},{"lat":"37.810947196","long":"127.11247919","imageIndex":17,"items":[{"name":"R&H운동용품","tel":"031-843-3545","addr":"경기도 양주시 삼숭동 95-1번지","indutype":"레져용품 - 스포츠·레져용품","category":"other"}]},{"lat":"37.805062683","long":"127.10389736","imageIndex":17,"items":[{"name":"감성공간","tel":"070-8118-3555","addr":"경기도 양주시 삼숭동 162-2번지","indutype":"가구 - 일반가구","category":"other"}]},{"lat":"37.80173085","long":"127.09056247","imageIndex":17,"items":[{"name":"강뿡스포츠","tel":"031-845-0202","addr":"경기도 양주시 삼숭동 640-30번지","indutype":"레져용품 - 스포츠·레져용품","category":"other"},{"name":"양주시장애인복지관","tel":"031-928-4096","addr":"경기도 양주시 삼숭동 640-30번지","indutype":"기타의료기관 - 기타의료기관 및 기타","category":"other"},{"name":"양주시장애인종합복지관","tel":"031-928-4096","addr":"경기도 양주시 삼숭동 640-30번지","indutype":"기타의료기관 - 기타의료기관 및 기타","category":"other"},{"name":"양주시장애인종합복지관","tel":"031-928-4096","addr":"경기도 양주시 삼숭동 640-30번지 1층","indutype":"기타의료기관 - 기타의료기관 및 기타","category":"other"}]},{"lat":"37.801508836","long":"127.10859332","imageIndex":17,"items":[{"name":"경기북부상공회의소연수원","tel":"031-847-9090","addr":"경기도 양주시 삼숭동 176-5번지","indutype":"유통업 비영리 - 구내매점(국가기관","category":"other"}]},{"lat":"37.804086745","long":"127.08439949","imageIndex":17,"items":[{"name":"고주내건재","tel":"031-847-1145","addr":"경기도 양주시 삼숭동 673-5번지","indutype":"건축자재 - 기타건축자재","category":"other"}]},{"lat":"37.797424094","long":"127.10220657","imageIndex":17,"items":[{"name":"공감인테리어","tel":"031-821-3980","addr":"경기도 양주시 삼숭동 270번지 102층","indutype":"용역 서비스 - 기타용역서비스","category":"other"},{"name":"럭키PCCAFE(양주본점)","tel":"","addr":"경기도 양주시 삼숭동 270번지 5층 501호,502호","indutype":"수리서비스 - 사무·통신기기수리","category":"other"}]},{"lat":"37.807340547","long":"127.09475928","imageIndex":17,"items":[{"name":"굿 휘트니스","tel":"031-841-2282","addr":"경기도 양주시 삼숭동 557-9번지","indutype":"레져용품 - 스포츠·레져용품","category":"other"}]},{"lat":"37.797622187","long":"127.10234308","imageIndex":17,"items":[{"name":"그대작은꽃한송이 floret","tel":"","addr":"경기도 양주시 삼숭동 269-1번지 104호","indutype":"문화.취미 - 화원","category":"other"},{"name":"수 하우징","tel":"031-000-0000","addr":"경기도 양주시 삼숭동 269-1번지","indutype":"수리서비스 - 가정용품수리","category":"other"}]},{"lat":"37.807341067","long":"127.09408931","imageIndex":17,"items":[{"name":"그린비야생화","tel":"031-821-3049","addr":"경기도 양주시 삼숭동 558-11번지","indutype":"문화.취미 - 화원","category":"other"}]},{"lat":"37.799366391","long":"127.10655786","imageIndex":17,"items":[{"name":"기분좋은부동산중개사무소","tel":"031-847-0037","addr":"경기도 양주시 삼숭동 190-29번지 상가 가동 102호","indutype":"용역 서비스 - 부동산 중개·임대","category":"other"}]},{"lat":"37.798839332","long":"127.10131148","imageIndex":17,"items":[{"name":"깨끗한운동화빨래방","tel":"031-842-1118","addr":"경기도 양주시 삼숭동 305-1번지 A동 5호","indutype":"수리서비스 - 세탁소","category":"other"},{"name":"레몬컴퓨터","tel":"031-846-1544","addr":"경기도 양주시 삼숭동 305-1번지 A동 6호","indutype":"사무통신 - 컴퓨터","category":"other"},{"name":"멍이와야옹이","tel":"031-847-1771","addr":"경기도 양주시 삼숭동 305-1번지 에이-6","indutype":"문화.취미 - 애완동물","category":"other"}]},{"lat":"37.798091935","long":"127.10084497","imageIndex":17,"items":[{"name":"꽃피는산골2호점","tel":"031-848-7995","addr":"경기도 양주시 삼숭동 303-5","indutype":"문화.취미 - 화원","category":"other"},{"name":"송원플라워","tel":"031-847-2511","addr":"경기도 양주시 삼숭동 303-5","indutype":"문화.취미 - 화원","category":"other"}]},{"lat":"37.807196977","long":"127.09400964","imageIndex":17,"items":[{"name":"나래장식","tel":"031-848-0209","addr":"경기도 양주시 삼숭동 558-2번지","indutype":"직물 - 카페트,커튼,천막,지물","category":"other"},{"name":"동양전기조명","tel":"031-821-1422","addr":"경기도 양주시 삼숭동 558-2번지 1층 3호","indutype":"건축자재 - 조명기구","category":"other"}]},{"lat":"37.800782519","long":"127.10467499","imageIndex":17,"items":[{"name":"눈에띠네","tel":"070-4922-1261","addr":"경기도 양주시 삼숭동 189-1번지 104호","indutype":"의류 - 정장","category":"other"},{"name":"세탁의모든것","tel":"031-841-1222","addr":"경기도 양주시 삼숭동 189-1번지 102호","indutype":"수리서비스 - 세탁소","category":"other"},{"name":"쏘잉 미싱유","tel":"031-000-0000","addr":"경기도 양주시 삼숭동 189-1번지 1층 1호","indutype":"직물 - 침구·수예점","category":"other"}]},{"lat":"37.799367573","long":"127.1052067","imageIndex":17,"items":[{"name":"대기산업","tel":"031-847-1847","addr":"경기도 양주시 삼숭동 190-8번지","indutype":"기타 - 기타 전문점","category":"other"}]},{"lat":"37.802759092","long":"127.08898537","imageIndex":17,"items":[{"name":"대성천막사","tel":"031-842-6202","addr":"경기도 양주시 삼숭동 647-4번지","indutype":"직물 - 카페트,커튼,천막,지물","category":"other"}]},{"lat":"37.81209093","long":"127.10287351","imageIndex":17,"items":[{"name":"드림옷창고","tel":"","addr":"경기도 양주시 삼숭동 24-9번지 1층","indutype":"의류 - 정장","category":"other"}]},{"lat":"37.805952245","long":"127.09583631","imageIndex":17,"items":[{"name":"라이76(Rai76)","tel":"031-821-5777","addr":"경기도 양주시 삼숭동 565-3번지 6호","indutype":"의류 - 정장","category":"other"},{"name":"현우네뜨게방","tel":"031-841-8495","addr":"경기도 양주시 삼숭동 565-3번지 7호","indutype":"직물 - 침구·수예점","category":"other"}]},{"lat":"37.801975529","long":"127.10022559","imageIndex":17,"items":[{"name":"레디메이드","tel":"070-4643-8730","addr":"경기도 양주시 삼숭동 358-19번지","indutype":"신변잡화 - 가방","category":"other"}]},{"lat":"37.7967279","long":"127.10508952","imageIndex":17,"items":[{"name":"로뎀스튜디오","tel":"031-825-8757","addr":"경기도 양주시 삼숭동 683-2번지 양주프라자 23221호","indutype":"광학제품 - 사진관","category":"other"},{"name":"붓통 캘리그라피","tel":"070-7736-3219","addr":"경기도 양주시 삼숭동 683-2번지 양주프라자2 3219호","indutype":"용역 서비스 - 사무서비스","category":"other"},{"name":"블록피아","tel":"031-841-6867","addr":"경기도 양주시 삼숭동 683-2번지 양주프라자2상가4층3406호","indutype":"서적문구 - 완구점","category":"other"},{"name":"삼숭세탁","tel":"031-847-8382","addr":"경기도 양주시 삼숭동 683-2번지 양주프라자 2층 3222호","indutype":"수리서비스 - 세탁소","category":"other"},{"name":"시선","tel":"","addr":"경기도 양주시 삼숭동 683-2번지 양주프라자2 3211호","indutype":"의류 - 정장","category":"other"},{"name":"시선받는피부","tel":"031-826-5233","addr":"경기도 양주시 삼숭동 683-2번지 양주프라자2차3층 3303호","indutype":"회원제형태 - 기타4","category":"other"},{"name":"정우네 꼼줄","tel":"031-000-0000","addr":"경기도 양주시 삼숭동 683-2번지 양주프라자2 2층 3223호","indutype":"신변잡화 - 액세서리","category":"other"},{"name":"크린토피아 양주자이점","tel":"031-825-4556","addr":"경기도 양주시 삼숭동 683-2번지 양주프라자2상가 3202호","indutype":"수리서비스 - 세탁소","category":"other"},{"name":"헬로모모","tel":"031-846-4288","addr":"경기도 양주시 삼숭동 683-2번지 양주프라자 23212호","indutype":"의류 - 아동의류","category":"other"}]},{"lat":"37.795816684","long":"127.10653019","imageIndex":17,"items":[{"name":"모닝글로리","tel":"031-841-1875","addr":"경기도 양주시 삼숭동 202-35번지 양주프라자3 1층 5106호","indutype":"서적문구 - 문구용품","category":"other"},{"name":"작은쉼터","tel":"070-8740-3894","addr":"경기도 양주시 삼숭동 202-35번지 양주프라자3 5109호","indutype":"유통업 영리 - 편 의 점","category":"other"},{"name":"종이문화재단 경기양주삼숭 종이문화교육원","tel":"070-4226-1177","addr":"경기도 양주시 삼숭동 202-35번지 양주프라자3 1층 5107호","indutype":"문화.취미 - 문화취미기타","category":"other"},{"name":"쿨독","tel":"031-848-1478","addr":"경기도 양주시 삼숭동 202-35번지 양주프라자3 1층 5112호","indutype":"문화.취미 - 애완동물","category":"other"}]},{"lat":"37.797064885","long":"127.10080955","imageIndex":17,"items":[{"name":"모바일면세점양주자이점","tel":"031-847-8010","addr":"경기도 양주시 삼숭동 258-1번지 102호103호","indutype":"사무통신 - 통신기기","category":"other"},{"name":"지예스 집꾸미기","tel":"031-821-9290","addr":"경기도 양주시 삼숭동 258-1번지 1층","indutype":"건축자재 - 인테리어전문","category":"other"}]},{"lat":"37.798234244","long":"127.1030365","imageIndex":17,"items":[{"name":"목공소 봄","tel":"031-857-2474","addr":"경기도 양주시 삼숭동 197-1번지","indutype":"가구 - 일반가구","category":"other"}]},{"lat":"37.805974817","long":"127.08987481","imageIndex":17,"items":[{"name":"무지개B/D(가동)","tel":"031-845-2255","addr":"경기도 양주시 삼숭동 653-10,669-13","indutype":"주방용구 - 주방용구","category":"other"},{"name":"양주1고객센터","tel":"031-868-2300","addr":"경기도 양주시 삼숭동 653-10번지 2층 2호","indutype":"용역 서비스 - 종합용역","category":"other"}]},{"lat":"37.807203938","long":"127.09662141","imageIndex":17,"items":[{"name":"미다모가구","tel":"031-842-0601","addr":"경기도 양주시 삼숭동 561-15번지 A동 1,2층 B동 1,2층2층 C동12층","indutype":"가구 - 일반가구","category":"other"},{"name":"양주엑스포가구","tel":"","addr":"경기도 양주시 삼숭동 561-15번지 A동 1,2호","indutype":"가구 - 일반가구","category":"other"}]},{"lat":"37.813259505","long":"127.10595267","imageIndex":17,"items":[{"name":"미라클","tel":"031-846-3968","addr":"경기도 양주시 삼숭동 34-1번지","indutype":"레져용품 - 악기점","category":"other"}]},{"lat":"37.813974186","long":"127.11267672","imageIndex":17,"items":[{"name":"밝은세상","tel":"031-842-6664","addr":"경기도 양주시 삼숭동 80-12번지","indutype":"주방용구 - 주방용구","category":"other"}]},{"lat":"37.81305941","long":"127.1080874","imageIndex":17,"items":[{"name":"보람 공예","tel":"031-821-4081","addr":"경기도 양주시 삼숭동 56번지 1층","indutype":"문화.취미 - 민예·공예품","category":"other"}]},{"lat":"37.804392467","long":"127.08526281","imageIndex":17,"items":[{"name":"비상열쇠","tel":"031-000-0000","addr":"경기도 양주시 삼숭동 672-5번지 1층 3호","indutype":"건축자재 - 목재·석재·철물","category":"other"}]},{"lat":"37.798009412","long":"127.10255933","imageIndex":17,"items":[{"name":"비오스","tel":"070-7789-1588","addr":"경기도 양주시 삼숭동 332번지","indutype":"가구 - 일반가구","category":"other"}]},{"lat":"37.79572632","long":"127.10683661","imageIndex":17,"items":[{"name":"삼숭문고","tel":"031-848-6507","addr":"경기도 양주시 삼숭동 202-37양주프라자4상가6001.6002호","indutype":"서적문구 - 일반서적","category":"other"}]},{"lat":"37.814086557","long":"127.10800936","imageIndex":17,"items":[{"name":"삼승건재철물","tel":"031-843-0199","addr":"경기도 양주시 삼숭동 68-5번지","indutype":"건축자재 - 기타건축자재","category":"other"}]},{"lat":"37.807197598","long":"127.0932034","imageIndex":17,"items":[{"name":"삼천리자전거프리미엄스토어 (옥정점)","tel":"031-821-3006","addr":"경기도 양주시 삼숭동 545-1번지","indutype":"레져용품 - 스포츠·레져용품","category":"other"}]},{"lat":"37.805669576","long":"127.08839828","imageIndex":17,"items":[{"name":"서우정보통신","tel":"","addr":"경기도 양주시 삼숭동 669-8번지","indutype":"용역 서비스 - 기타용역서비스","category":"other"},{"name":"현대통상","tel":"031-866-3864","addr":"경기도 양주시 삼숭동 669-8번지","indutype":"건축자재 - 인테리어전문","category":"other"}]},{"lat":"37.807448358","long":"127.0951455","imageIndex":17,"items":[{"name":"서울종합건재철물","tel":"031-848-0960","addr":"경기도 양주시 삼숭동 557-1 1","indutype":"기타 - 기계공구","category":"other"}]},{"lat":"37.804728878","long":"127.09337072","imageIndex":17,"items":[{"name":"성우세탁소","tel":"031-848-3336","addr":"경기도 양주시 삼숭동 569 성우아침의미소 상가-205","indutype":"수리서비스 - 세탁소","category":"other"}]},{"lat":"37.813893387","long":"127.11236998","imageIndex":17,"items":[{"name":"솜트리","tel":"031-111-1111","addr":"경기도 양주시 삼숭동 80-19번지","indutype":"가구 - 일반가구","category":"other"}]},{"lat":"37.804482175","long":"127.09775348","imageIndex":17,"items":[{"name":"스튜디오 라비","tel":"031-847-0357","addr":"경기도 양주시 삼숭동 567-7번지","indutype":"광학제품 - 사진관","category":"other"}]},{"lat":"37.797037393","long":"127.10136586","imageIndex":17,"items":[{"name":"씨유양주자이사거리점","tel":"031-821-7781","addr":"경기도 양주시 삼숭동 267-1번지 가1호","indutype":"유통업 영리 - 편 의 점","category":"other"}]},{"lat":"37.801534859","long":"127.09925987","imageIndex":17,"items":[{"name":"아미무역","tel":"031-848-9587","addr":"경기도 양주시 삼숭동 363번지 이불나라","indutype":"직물 - 침구·수예점","category":"other"}]},{"lat":"37.80922714","long":"127.11167039","imageIndex":17,"items":[{"name":"아이스팬(ICEPAN)","tel":"031-855-7783","addr":"경기도 양주시 삼숭동 99-44","indutype":"주방용구 - 주방용구","category":"other"}]},{"lat":"37.807260298","long":"127.09368041","imageIndex":17,"items":[{"name":"아키애견미용","tel":"070-4332-9171","addr":"경기도 양주시 삼숭동 558-3번지 2층 202호","indutype":"문화.취미 - 애완동물","category":"other"},{"name":"엘케이 이강","tel":"","addr":"경기도 양주시 삼숭동 558-3번지 1층","indutype":"용역 서비스 - 기타용역서비스","category":"other"}]},{"lat":"37.807919066","long":"127.10344702","imageIndex":17,"items":[{"name":"아트앤하우스","tel":"031-865-4270","addr":"경기도 양주시 삼숭동 148-1번지","indutype":"문화.취미 - 화방·표구점","category":"other"}]},{"lat":"37.796810769","long":"127.10301187","imageIndex":17,"items":[{"name":"알파와오메가양주점","tel":"031-821-2850","addr":"경기도 양주시 삼숭동 201-8","indutype":"신변잡화 - 기타잡화","category":"other"}]},{"lat":"37.809421504","long":"127.10592463","imageIndex":17,"items":[{"name":"양주안전","tel":"031-821-0612","addr":"경기도 양주시 삼숭동 107-2번지 B동","indutype":"기타 - 기계공구","category":"other"}]},{"lat":"37.806396269","long":"127.09253246","imageIndex":17,"items":[{"name":"에스티코(STCO)","tel":"031-842-7707","addr":"경기도 양주시 삼숭동 555-6번지","indutype":"의류 - 스포츠의류","category":"other"}]},{"lat":"37.810564895","long":"127.10684605","imageIndex":17,"items":[{"name":"엔토스정보통신","tel":"031-851-4600","addr":"경기도 양주시 삼숭동 115번지","indutype":"사무통신 - 통신기기","category":"other"}]},{"lat":"37.79703813","long":"127.10048025","imageIndex":17,"items":[{"name":"엘림 조명전기철물","tel":"031-821-9182","addr":"경기도 양주시 삼숭동 258-2번지","indutype":"건축자재 - 조명기구","category":"other"}]},{"lat":"37.80272679","long":"127.09592311","imageIndex":17,"items":[{"name":"엠코","tel":"031-858-6540","addr":"경기도 양주시 삼숭동 370-8번지","indutype":"직물 - 기타직물","category":"other"}]},{"lat":"37.80920128","long":"127.1103985","imageIndex":17,"items":[{"name":"영림리트리애","tel":"031-848-9007","addr":"경기도 양주시 삼숭동 97-13번지 3호","indutype":"직물 - 침구·수예점","category":"other"}]},{"lat":"37.802921287","long":"127.08895149","imageIndex":17,"items":[{"name":"오빠네캔들","tel":"070-7672-5858","addr":"경기도 양주시 삼숭동 647-1번지 나동","indutype":"신변잡화 - 기타잡화","category":"other"}]},{"lat":"37.802033997","long":"127.09473","imageIndex":17,"items":[{"name":"우진실업","tel":"031-847-2588","addr":"경기도 양주시 삼숭동 582번지","indutype":"직물 - 침구·수예점","category":"other"}]},{"lat":"37.800205865","long":"127.10473097","imageIndex":17,"items":[{"name":"원교재사 경기북부대리점","tel":"031-848-9195","addr":"경기도 양주시 삼숭동 190-1번지 가동","indutype":"서적문구 - 기타서적문구","category":"other"}]},{"lat":"37.80237205","long":"127.08848531","imageIndex":17,"items":[{"name":"웰빙인더스트리","tel":"031-846-1995","addr":"경기도 양주시 삼숭동 635-1번지","indutype":"신변잡화 - 기타잡화","category":"other"}]},{"lat":"37.805143603","long":"127.1040905","imageIndex":17,"items":[{"name":"이올","tel":"","addr":"경기도 양주시 삼숭동 164-1번지","indutype":"가구 - 일반가구","category":"other"}]},{"lat":"37.797010127","long":"127.10164967","imageIndex":17,"items":[{"name":"이지워시셀프빨래방","tel":"","addr":"경기도 양주시 삼숭동 267-9번지 나동 2,3호","indutype":"수리서비스 - 세탁소","category":"other"},{"name":"인테리어 더 감동","tel":"031-821-8390","addr":"경기도 양주시 삼숭동 267-9번지","indutype":"건축자재 - 인테리어전문","category":"other"},{"name":"천지공인중개사사무소","tel":"031-841-3379","addr":"경기도 양주시 삼숭동 267-9 나-5","indutype":"용역 서비스 - 부동산 중개·임대","category":"other"}]},{"lat":"37.799090806","long":"127.10225421","imageIndex":17,"items":[{"name":"제이에스(JS)상사","tel":"031-111-1111","addr":"경기도 양주시 삼숭동 328-10번지 101호 일부(1-2)","indutype":"서적문구 - 완구점","category":"other"}]},{"lat":"37.811982392","long":"127.10337304","imageIndex":17,"items":[{"name":"종이상자","tel":"031-866-1047","addr":"경기도 양주시 삼숭동 25-1번지","indutype":"유통업 영리 - 기타유통업","category":"other"}]},{"lat":"37.795866295","long":"127.10120535","imageIndex":17,"items":[{"name":"주식회사 마음스튜디오","tel":"031-843-3541","addr":"경기도 양주시 삼숭동 202-12번지","indutype":"광학제품 - 사진관","category":"other"}]},{"lat":"37.814312931","long":"127.10672639","imageIndex":17,"items":[{"name":"주식회사 비앤에스빅디쉬 (B&S Bigdish Co.","tel":"031-111-1111","addr":"경기도 양주시 삼숭동 64-7번지","indutype":"용역 서비스 - 사무서비스","category":"other"}]},{"lat":"37.812035523","long":"127.10445195","imageIndex":17,"items":[{"name":"주식회사 샤인홈","tel":"031-821-4300","addr":"경기도 양주시 삼숭동 41-3번지","indutype":"직물 - 침구·수예점","category":"other"}]},{"lat":"37.811451635","long":"127.10242976","imageIndex":17,"items":[{"name":"주식회사 원웨이","tel":"031-846-5541","addr":"경기도 양주시 삼숭동 488-3번지","indutype":"가구 - 일반가구","category":"other"},{"name":"지오피혁","tel":"031-858-5458","addr":"경기도 양주시 삼숭동 488-3번지","indutype":"직물 - 기타직물","category":"other"},{"name":"텍스글로벌","tel":"031-821-7770","addr":"경기도 양주시 삼숭동 488-3,4","indutype":"직물 - 옷감·직물","category":"other"}]},{"lat":"37.798844428","long":"127.09500991","imageIndex":17,"items":[{"name":"주식회사 한국이앤비파크","tel":"031-840-9429","addr":"경기도 양주시 삼숭동 588-5번지","indutype":"용역 서비스 - 종합용역","category":"other"},{"name":"한국이앤비파크","tel":"031-840-9429","addr":"경기도 양주시 삼숭동 588-5번지","indutype":"용역 서비스 - 종합용역","category":"other"}]},{"lat":"37.80603496","long":"127.10476168","imageIndex":17,"items":[{"name":"진솔ENG","tel":"031-843-0716","addr":"경기도 양주시 삼숭동 167-3번지 가동","indutype":"기타 - 기계공구","category":"other"},{"name":"진솔이앤지","tel":"031-843-0716","addr":"경기도 양주시 삼숭동 167-3번지","indutype":"기타 - 기계공구","category":"other"}]},{"lat":"37.804427922","long":"127.08609177","imageIndex":17,"items":[{"name":"참 기획","tel":"031-856-7751","addr":"경기도 양주시 삼숭동 670-4번지","indutype":"건축자재 - 인테리어전문","category":"other"}]},{"lat":"37.810006049","long":"127.10714052","imageIndex":17,"items":[{"name":"천수효요양원","tel":"031-847-0040","addr":"경기도 양주시 삼숭동 108번지","indutype":"기타의료기관 - 기타의료기관 및 기타","category":"other"}]},{"lat":"37.798343603","long":"127.10156061","imageIndex":17,"items":[{"name":"청소박사","tel":"031-000-0000","addr":"경기도 양주시 삼숭동 330-6번지 5호","indutype":"용역 서비스 - 종합용역","category":"other"}]},{"lat":"37.805813421","long":"127.08881859","imageIndex":17,"items":[{"name":"충남쇼파","tel":"031-821-4077","addr":"경기도 양주시 삼숭동 669-6번지","indutype":"가구 - 기타가구","category":"other"}]},{"lat":"37.813786813","long":"127.11070042","imageIndex":17,"items":[{"name":"카스전자저울시스템","tel":"031-844-2744","addr":"경기도 양주시 삼숭동 80-2번지","indutype":"주방용구 - 주방용구","category":"other"}]},{"lat":"37.805920986","long":"127.08956816","imageIndex":17,"items":[{"name":"푸른포스시스템","tel":"031-826-5557","addr":"경기도 양주시 삼숭동 669-12번지","indutype":"사무통신 - 통신기기","category":"other"}]},{"lat":"37.79603773","long":"127.10089903","imageIndex":17,"items":[{"name":"풍산철물건재","tel":"031-847-3334","addr":"경기도 양주시 삼숭동 231-1번지","indutype":"건축자재 - 기타건축자재","category":"other"}]},{"lat":"37.802642612","long":"127.09976092","imageIndex":17,"items":[{"name":"한보 F&C","tel":"031-841-5121","addr":"경기도 양주시 삼숭동 364-27번지","indutype":"레져용품 - 악기점","category":"other"}]},{"lat":"37.813644546","long":"127.10862198","imageIndex":17,"items":[{"name":"향기마트","tel":"031-847-8824","addr":"경기도 양주시 삼숭동 86-1번지 1층","indutype":"신변잡화 - 기타잡화","category":"other"}]},{"lat":"37.799732501","long":"127.0881757","imageIndex":17,"items":[{"name":"형통 컨테이너","tel":"031-846-2422","addr":"경기도 양주시 삼숭동 619-7, 622-2","indutype":"건축자재 - 기타건축자재","category":"other"}]},{"lat":"37.797505437","long":"127.10190012","imageIndex":17,"items":[{"name":"휴대폰쇼핑몰","tel":"070-2248-0725","addr":"경기도 양주시 삼숭동 271-1번지 1층 1호, 2호","indutype":"사무통신 - 통신기기","category":"other"},{"name":"휴대폰쇼핑몰","tel":"070-4207-3892","addr":"경기도 양주시 삼숭동 271-1 서지프라자상가1층1호,2호","indutype":"사무통신 - 통신기기","category":"other"}]}]