[{"lat":"37.129114675","long":"127.06711628","imageIndex":13,"items":[{"name":"DS billiard club","tel":"031-374-3010","addr":"경기도 오산시 갈곶동 180-1번지 정우빌딩 2층 B호","indutype":"레저업소 - 당 구 장","category":"leisure"}]},{"lat":"37.128645964","long":"127.06741973","imageIndex":13,"items":[{"name":"OK스크린골프존","tel":"031-376-1717","addr":"경기도 오산시 갈곶동 206번지","indutype":"레저업소 - 스크린골프","category":"leisure"}]},{"lat":"37.128474611","long":"127.06770091","imageIndex":13,"items":[{"name":"갈곶노래연습장","tel":"031-375-4842","addr":"경기도 오산시 갈곶동 205번지","indutype":"레저업소 - 노 래 방","category":"leisure"},{"name":"갈곶노래연습장","tel":"031-375-4842","addr":"경기도 오산시 갈곶동 205번지 B1층","indutype":"레저업소 - 노 래 방","category":"leisure"}]},{"lat":"37.131753559","long":"127.06927924","imageIndex":13,"items":[{"name":"갈곶속셈독수리체육관","tel":"031-375-8956","addr":"경기도 오산시 갈곶동 152-11번지","indutype":"레저업소 - 기타레져업소","category":"leisure"}]},{"lat":"37.129114252","long":"127.06789277","imageIndex":13,"items":[{"name":"경희스포츠 아카데미","tel":"031-378-0506","addr":"경기도 오산시 갈곶동 207번지 3층","indutype":"레저업소 - 기타레져업소","category":"leisure"}]},{"lat":"37.129170323","long":"127.07960759","imageIndex":13,"items":[{"name":"금성 당구장","tel":"02-000-0000","addr":"경기도 오산시 갈곶동 356-1번지 2층","indutype":"레저업소 - 당 구 장","category":"leisure"},{"name":"플래이보이노래연습장","tel":"031-223-5214","addr":"경기도 오산시 갈곶동 356-1번지 2층","indutype":"레저업소 - 노 래 방","category":"leisure"},{"name":"플레이보이노래연습장","tel":"031-375-4193","addr":"경기도 오산시 갈곶동 356-1번지","indutype":"레저업소 - 노 래 방","category":"leisure"}]},{"lat":"37.131834854","long":"127.06891919","imageIndex":13,"items":[{"name":"꿈노래연습장","tel":"031-375-7638","addr":"경기도 오산시 갈곶동 152-6번지","indutype":"레저업소 - 노 래 방","category":"leisure"}]},{"lat":"37.132447631","long":"127.06880718","imageIndex":13,"items":[{"name":"대박노래연습장","tel":"031-378-1462","addr":"경기도 오산시 갈곶동 126-17번지 4층","indutype":"레저업소 - 노 래 방","category":"leisure"}]},{"lat":"37.128700088","long":"127.06730724","imageIndex":13,"items":[{"name":"맥스피드PC방","tel":"070-5099-3931","addr":"경기도 오산시 갈곶동 206-3번지 상가2층","indutype":"레저업소 - 기타레져업소","category":"leisure"}]},{"lat":"37.13269966","long":"127.06928006","imageIndex":13,"items":[{"name":"머슬림(Muscle Lim) 복싱 Gym","tel":"031-8058-0023","addr":"경기도 오산시 갈곶동 126-23번지 3층","indutype":"레저업소 - 헬스클럽","category":"leisure"}]},{"lat":"37.135313072","long":"127.06861834","imageIndex":13,"items":[{"name":"방방존","tel":"070-7581-9002","addr":"경기도 오산시 갈곶동 659-1번지 3층","indutype":"레저업소 - 기타레져업소","category":"leisure"},{"name":"방방존","tel":"070-7581-9002","addr":"경기도 오산시 갈곶동 659-1번지 광성빌딩3층전체","indutype":"레저업소 - 기타레져업소","category":"leisure"}]},{"lat":"37.128502065","long":"127.06692446","imageIndex":13,"items":[{"name":"불꽃노래방","tel":"031-377-9837","addr":"경기도 오산시 갈곶동 184-5번지","indutype":"레저업소 - 노 래 방","category":"leisure"}]},{"lat":"37.127925198","long":"127.06728408","imageIndex":13,"items":[{"name":"에스케이(SK)당구클럽","tel":"","addr":"경기도 오산시 갈곶동 192-3번지 2층","indutype":"레저업소 - 당 구 장","category":"leisure"}]},{"lat":"37.132781019","long":"127.06880747","imageIndex":13,"items":[{"name":"올림피아 당구클럽","tel":"","addr":"경기도 오산시 갈곶동 126-8번지 훼밀리마트 2층","indutype":"레저업소 - 당 구 장","category":"leisure"},{"name":"올림피아당구클럽","tel":"031-375-8009","addr":"경기도 오산시 갈곶동 126-8번지 2층","indutype":"레저업소 - 당 구 장","category":"leisure"},{"name":"탐스(TOMS)PC ZONE","tel":"070-8600-7660","addr":"경기도 오산시 갈곶동 126-8번지 지하1층","indutype":"레저업소 - 기타레져업소","category":"leisure"}]},{"lat":"37.128420732","long":"127.06736327","imageIndex":13,"items":[{"name":"와와노래연습장","tel":"031-372-9912","addr":"경기도 오산시 갈곶동 206-4번지 2층","indutype":"레저업소 - 노 래 방","category":"leisure"}]},{"lat":"37.131447541","long":"127.06867127","imageIndex":13,"items":[{"name":"우정당구장","tel":"031-375-7789","addr":"경기도 오산시 갈곶동 162-1번지 2층","indutype":"레저업소 - 당 구 장","category":"leisure"}]},{"lat":"37.132258454","long":"127.06872824","imageIndex":13,"items":[{"name":"은빛노래연습장","tel":"031-373-5474","addr":"경기도 오산시 갈곶동 130-7번지 지하1층","indutype":"레저업소 - 노 래 방","category":"leisure"}]},{"lat":"37.129646507","long":"127.06672286","imageIndex":13,"items":[{"name":"이노스당구클럽","tel":"031-376-2506","addr":"경기도 오산시 갈곶동 175번지 화남 상가 301~302호","indutype":"레저업소 - 당 구 장","category":"leisure"}]},{"lat":"37.127870957","long":"127.06761037","imageIndex":13,"items":[{"name":"청송골프아카데미","tel":"031-376-6387","addr":"경기도 오산시 갈곶동 192번지 한국유통 1층","indutype":"레저업소 - 스크린골프","category":"leisure"},{"name":"필승스크린골프","tel":"031-375-4780","addr":"경기도 오산시 갈곶동 192번지","indutype":"레저업소 - 스크린골프","category":"leisure"}]},{"lat":"37.130643909","long":"127.07166403","imageIndex":13,"items":[{"name":"컨트롤필라테스","tel":"031-831-5531","addr":"경기도 오산시 갈곶동 285번지","indutype":"레저업소 - 헬스클럽","category":"leisure"}]},{"lat":"37.131141153","long":"127.06872727","imageIndex":13,"items":[{"name":"파밀리아당구장","tel":"031-376-3352","addr":"경기도 오산시 갈곶동 162-4번지 2층","indutype":"레저업소 - 당 구 장","category":"leisure"}]}]