[{"lat":"37.259159033","long":"127.02539355","imageIndex":7,"items":[{"name":"(사)한국농업경영인경기도연","tel":"031-224-4304","addr":"경기도 수원시 권선구 권선동 1030-6번지","indutype":"음료식품 - 농·축·수산품","category":"food"}]},{"lat":"37.256518148","long":"127.02956352","imageIndex":7,"items":[{"name":"(주)광윤","tel":"031-246-8118","addr":"경기도 수원시 권선구 권선동 1038-8번지 1층","indutype":"음료식품 - 기타음료식품","category":"food"},{"name":"주식회사 무지개유통","tel":"031-258-9551","addr":"경기도 수원시 권선구 권선동 1038-8번지 1층 102호","indutype":"음료식품 - 기타음료식품","category":"food"}]},{"lat":"37.256770254","long":"127.03036394","imageIndex":7,"items":[{"name":"(주)옥토","tel":"031-235-3999","addr":"경기도 수원시 권선구 권선동 1039-7번지","indutype":"음료식품 - 농·축·수산품","category":"food"}]},{"lat":"37.257076738","long":"127.02977789","imageIndex":7,"items":[{"name":"KGC라이프엔진 수원시청대리점","tel":"031-296-0398","addr":"경기도 수원시 권선구 권선동 1038-17번지 산호빌딩 2층 203호","indutype":"건강식품 - 홍삼제품","category":"food"}]},{"lat":"37.246660754","long":"127.03005596","imageIndex":7,"items":[{"name":"THE 달달 (수원 권선점)","tel":"031-232-1522","addr":"경기도 수원시 권선구 권선동 1364번지 수원아이파크시티8단지 800동 1층 152호","indutype":"음료식품 - 기타음료식품","category":"food"},{"name":"미미카롱","tel":"031-000-0000","addr":"경기도 수원시 권선구 권선동 1364번지 수원아이파크시티8단지 1층 151호","indutype":"음료식품 - 기타음료식품","category":"food"},{"name":"언니의식빵가게수원아이파크시티점","tel":"031-238-8092","addr":"경기도 수원시 권선구 권선동 1364번지 수원아이파크시티8단지 163호","indutype":"음료식품 - 제과점","category":"food"},{"name":"일상식탁","tel":"031-226-8800","addr":"경기도 수원시 권선구 권선동 1364번지 수원아이파크5차 E1블럭 800동 165호","indutype":"음료식품 - 기타음료식품","category":"food"},{"name":"편한몸건강식품","tel":"031-8042-5252","addr":"경기도 수원시 권선구 권선동 1364번지 수원아이파크시티8단지 상가동 207호","indutype":"건강식품 - 기타건강식품","category":"food"}]},{"lat":"37.255157239","long":"127.03108477","imageIndex":7,"items":[{"name":"emptycan7","tel":"031-239-5737","addr":"경기도 수원시 권선구 권선동 1229번지 수원시농수산물도매시장 수원원예","indutype":"음료식품 - 농·축·수산품","category":"food"},{"name":"강원수산(수원수산)","tel":"031-234-7607","addr":"경기도 수원시 권선구 권선동 1229번지 수원시농수산물도매시장","indutype":"음료식품 - 농·축·수산품","category":"food"},{"name":"금강수산","tel":"031-232-8383","addr":"경기도 수원시 권선구 권선동 1229번지 경기남부수협내","indutype":"음료식품 - 농·축·수산품","category":"food"},{"name":"누리농산","tel":"031-237-7834","addr":"경기도 수원시 권선구 권선동 1229번지","indutype":"음료식품 - 농·축·수산품","category":"food"},{"name":"대구상회","tel":"031-238-6599","addr":"경기도 수원시 권선구 권선동 1229번지 농수상물도매시장","indutype":"음료식품 - 농·축·수산품","category":"food"},{"name":"대양수산62번","tel":"031-224-5084","addr":"경기도 수원시 권선구 권선동 1229번지","indutype":"음료식품 - 농·축·수산품","category":"food"},{"name":"대운수산","tel":"031-234-3541","addr":"경기도 수원시 권선구 권선동 1229번지","indutype":"음료식품 - 농·축·수산품","category":"food"},{"name":"대창상회","tel":"031-221-5980","addr":"경기도 수원시 권선구 권선동 1229번지 농산물도매시장","indutype":"음료식품 - 농·축·수산품","category":"food"},{"name":"동남수산","tel":"031-239-3549","addr":"경기도 수원시 권선구 권선동 1229번지","indutype":"음료식품 - 농·축·수산품","category":"food"},{"name":"동일물산","tel":"031-239-3884","addr":"경기도 수원시 권선구 권선동 1229번지","indutype":"음료식품 - 농·축·수산품","category":"food"},{"name":"마루팜 (수원청과물)","tel":"031-0000-0000","addr":"경기도 수원시 권선구 권선동 1229번지 수원시농수산물도매시장 청과동 93","indutype":"음료식품 - 농·축·수산품","category":"food"},{"name":"믿음수산","tel":"031-232-5582","addr":"경기도 수원시 권선구 권선동 1229번지 농수산물도매시장","indutype":"음료식품 - 농·축·수산품","category":"food"},{"name":"보민상회","tel":"031-224-7922","addr":"경기도 수원시 권선구 권선동 1229번지","indutype":"음료식품 - 농·축·수산품","category":"food"},{"name":"봉남수산","tel":"031-223-3538","addr":"경기도 수원시 권선구 권선동 1229번지","indutype":"음료식품 - 농·축·수산품","category":"food"},{"name":"봉원상회","tel":"031-233-9119","addr":"경기도 수원시 권선구 권선동 1229번지 세류청과(주)","indutype":"음료식품 - 농·축·수산품","category":"food"},{"name":"부부수산","tel":"031-225-4181","addr":"경기도 수원시 권선구 권선동 1229번지 수산물시장 내","indutype":"음료식품 - 농·축·수산품","category":"food"},{"name":"삼성상회","tel":"","addr":"경기도 수원시 권선구 권선동 1229번지 수원시농수산물도매시장","indutype":"음료식품 - 농·축·수산품","category":"food"},{"name":"삼양수산","tel":"031-234-7951","addr":"경기도 수원시 권선구 권선동 1229번지","indutype":"음료식품 - 농·축·수산품","category":"food"},{"name":"삼원유통","tel":"031-221-2916","addr":"경기도 수원시 권선구 권선동 1229번지 수원시농수산물도매시장","indutype":"음료식품 - 농·축·수산품","category":"food"},{"name":"상안상회","tel":"031-237-4120","addr":"경기도 수원시 권선구 권선동 1229번지 농수산물도매시장","indutype":"음료식품 - 농·축·수산품","category":"food"},{"name":"서산마늘상회","tel":"031-221-5737","addr":"경기도 수원시 권선구 권선동 1229번지","indutype":"음료식품 - 농·축·수산품","category":"food"},{"name":"서해수산","tel":"031-225-9079","addr":"경기도 수원시 권선구 권선동 1229번지 수원수산","indutype":"음료식품 - 농·축·수산품","category":"food"},{"name":"서해수산","tel":"031-234-3747","addr":"경기도 수원시 권선구 권선동 1229번지","indutype":"음료식품 - 농·축·수산품","category":"food"},{"name":"선해수산","tel":"031-237-7815","addr":"경기도 수원시 권선구 권선동 1229번지 농수산물도매시장","indutype":"음료식품 - 농·축·수산품","category":"food"},{"name":"소망수산","tel":"031-239-3537","addr":"경기도 수원시 권선구 권선동 1229번지 수산물시장 내","indutype":"음료식품 - 농·축·수산품","category":"food"},{"name":"수오상회","tel":"031-236-3506","addr":"경기도 수원시 권선구 권선동 1229번지","indutype":"음료식품 - 농·축·수산품","category":"food"},{"name":"수원민물상회","tel":"031-237-1919","addr":"경기도 수원시 권선구 권선동 1229번지 농수산물시장 내","indutype":"음료식품 - 농·축·수산품","category":"food"},{"name":"수원상회","tel":"031-222-8825","addr":"경기도 수원시 권선구 권선동 1229번지","indutype":"음료식품 - 농·축·수산품","category":"food"},{"name":"승현상회","tel":"031-236-3661","addr":"경기도 수원시 권선구 권선동 1229번지 수원원예농협내 15","indutype":"음료식품 - 농·축·수산품","category":"food"},{"name":"영광수산","tel":"031-237-3903","addr":"경기도 수원시 권선구 권선동 1229번지 농수산물시장 내","indutype":"음료식품 - 농·축·수산품","category":"food"},{"name":"예산수산","tel":"031-239-3869","addr":"경기도 수원시 권선구 권선동 1229번지","indutype":"음료식품 - 농·축·수산품","category":"food"},{"name":"완도수산","tel":"031-223-5214","addr":"경기도 수원시 권선구 권선동 1229번지","indutype":"음료식품 - 농·축·수산품","category":"food"},{"name":"용일 농업회사법인 유한회사","tel":"031-224-8315","addr":"경기도 수원시 권선구 권선동 1229번지 수원시농수산물도매시장 2호","indutype":"음료식품 - 농·축·수산품","category":"food"},{"name":"우리수산","tel":"031-225-4181","addr":"경기도 수원시 권선구 권선동 1229번지 수원농수산물시장경기남부수협관내","indutype":"음료식품 - 농·축·수산품","category":"food"},{"name":"우정수산","tel":"031-234-9192","addr":"경기도 수원시 권선구 권선동 1229번지","indutype":"음료식품 - 농·축·수산품","category":"food"},{"name":"유진상회(수원원예)","tel":"031-221-9034","addr":"경기도 수원시 권선구 권선동 1229번지 수원시농수산물도매시장","indutype":"음료식품 - 농·축·수산품","category":"food"},{"name":"의성상회","tel":"031-232-3670","addr":"경기도 수원시 권선구 권선동 1229번지 수원시농수산물도매시장 201호","indutype":"음료식품 - 농·축·수산품","category":"food"},{"name":"이례수산","tel":"031-233-6272","addr":"경기도 수원시 권선구 권선동 1229번지 수원수산","indutype":"음료식품 - 농·축·수산품","category":"food"},{"name":"준표수산","tel":"031-237-7604","addr":"경기도 수원시 권선구 권선동 1229번지","indutype":"음료식품 - 농·축·수산품","category":"food"},{"name":"창대수산","tel":"031-221-8484","addr":"경기도 수원시 권선구 권선동 1229번지","indutype":"음료식품 - 농·축·수산품","category":"food"},{"name":"칠성상회","tel":"031-221-7776","addr":"경기도 수원시 권선구 권선동 1229번지 농수산물도매시장원예농협","indutype":"음료식품 - 농·축·수산품","category":"food"},{"name":"팔도상회","tel":"031-235-5280","addr":"경기도 수원시 권선구 권선동 1229번지 수원수산시장","indutype":"음료식품 - 농·축·수산품","category":"food"},{"name":"현진글로벌","tel":"031-223-6242","addr":"경기도 수원시 권선구 권선동 1229번지","indutype":"음료식품 - 농·축·수산품","category":"food"},{"name":"화성상회","tel":"031-235-1671","addr":"경기도 수원시 권선구 권선동 1229번지 수원시농수산물도매시장","indutype":"음료식품 - 농·축·수산품","category":"food"}]},{"lat":"37.252851631","long":"127.02636105","imageIndex":7,"items":[{"name":"감성한우","tel":"031-221-1214","addr":"경기도 수원시 권선구 권선동 1330번지 권선자이이편한세상 상가 2동 B113호","indutype":"음료식품 - 정육점","category":"food"},{"name":"사랑떡방","tel":"031-225-5804","addr":"경기도 수원시 권선구 권선동 1330번지 권선자이이편한세상 1동 111호","indutype":"음료식품 - 제과점","category":"food"},{"name":"예찬반찬","tel":"070-7121-9559","addr":"경기도 수원시 권선구 권선동 1330번지 권선자이e편한세상상가B동112호","indutype":"음료식품 - 기타음료식품","category":"food"}]},{"lat":"37.256013672","long":"127.02911245","imageIndex":7,"items":[{"name":"경인미곡직판장","tel":"031-266-0844","addr":"경기도 수원시 권선구 권선동 1042번지","indutype":"음료식품 - 미곡상","category":"food"}]},{"lat":"37.255770198","long":"127.02998032","imageIndex":7,"items":[{"name":"경인유통","tel":"031-226-0144","addr":"경기도 수원시 권선구 권선동 1041-8번지","indutype":"음료식품 - 미곡상","category":"food"},{"name":"마을유통","tel":"031-226-0144","addr":"경기도 수원시 권선구 권선동 1041-8번지","indutype":"음료식품 - 기타음료식품","category":"food"}]},{"lat":"37.246383317","long":"127.01997977","imageIndex":7,"items":[{"name":"고기이야기","tel":"031-234-0442","addr":"경기도 수원시 권선구 권선동 1337번지 수원아이파크시티7단지 상가 707동 106호","indutype":"음료식품 - 정육점","category":"food"}]},{"lat":"37.256987528","long":"127.02550563","imageIndex":7,"items":[{"name":"고기파는남자","tel":"031-8081-3586","addr":"경기도 수원시 권선구 권선동 1053-4번지 1층","indutype":"음료식품 - 정육점","category":"food"}]},{"lat":"37.252319332","long":"127.0296184","imageIndex":7,"items":[{"name":"구구부대찌개","tel":"031-222-9910","addr":"경기도 수원시 권선구 권선동 1259-6번지 1층","indutype":"음료식품 - 기타음료식품","category":"food"}]},{"lat":"37.252625801","long":"127.02908873","imageIndex":7,"items":[{"name":"굿모닝건강원","tel":"031-223-9488","addr":"경기도 수원시 권선구 권선동 1259-1번지 1층","indutype":"건강식품 - 기타건강식품","category":"food"}]},{"lat":"37.255987537","long":"127.02469373","imageIndex":7,"items":[{"name":"권선 건어물","tel":"031-237-9192","addr":"경기도 수원시 권선구 권선동 1051번지","indutype":"음료식품 - 농·축·수산품","category":"food"},{"name":"권선88정육점","tel":"031-233-2468","addr":"경기도 수원시 권선구 권선동 1051번지 1층 178호","indutype":"음료식품 - 정육점","category":"food"},{"name":"권선시장정육점","tel":"031-238-6794","addr":"경기도 수원시 권선구 권선동 1051번지 권선시장 112호","indutype":"음료식품 - 정육점","category":"food"},{"name":"권선전집","tel":"031-232-5166","addr":"경기도 수원시 권선구 권선동 1051번지 25,26호","indutype":"음료식품 - 농·축·수산품","category":"food"},{"name":"그린건강마을","tel":"031-223-3228","addr":"경기도 수원시 권선구 권선동 1051번지 148호","indutype":"건강식품 - 기타건강식품","category":"food"},{"name":"금숙네반찬","tel":"031-898-5558","addr":"경기도 수원시 권선구 권선동 1051번지 권선종합시장 15,16호","indutype":"음료식품 - 기타음료식품","category":"food"},{"name":"낙원떡집","tel":"031-239-7214","addr":"경기도 수원시 권선구 권선동 1051번지 1동 138호","indutype":"음료식품 - 제과점","category":"food"},{"name":"농민축산","tel":"031-222-6411","addr":"경기도 수원시 권선구 권선동 1051번지 124","indutype":"음료식품 - 정육점","category":"food"},{"name":"농산물떡집","tel":"031-221-1882","addr":"경기도 수원시 권선구 권선동 1051번지 권선시장내 121동 122호","indutype":"음료식품 - 제과점","category":"food"},{"name":"다인반찬","tel":"031-000-0000","addr":"경기도 수원시 권선구 권선동 1051번지 134호","indutype":"음료식품 - 기타음료식품","category":"food"},{"name":"대전 따봉","tel":"031-237-0840","addr":"경기도 수원시 권선구 권선동 1051번지","indutype":"음료식품 - 농·축·수산품","category":"food"},{"name":"동해건어물","tel":"031-237-6418","addr":"경기도 수원시 권선구 권선동 1051.113","indutype":"음료식품 - 농·축·수산품","category":"food"},{"name":"두부사랑","tel":"031-225-0979","addr":"경기도 수원시 권선구 권선동 1051번지 1동 137호","indutype":"음료식품 - 기타음료식품","category":"food"},{"name":"따봉청과","tel":"031-234-7708","addr":"경기도 수원시 권선구 권선동 1051번지","indutype":"음료식품 - 농·축·수산품","category":"food"},{"name":"보령고기집","tel":"031-236-8985","addr":"경기도 수원시 권선구 권선동 1051번지 1층 132호","indutype":"음료식품 - 정육점","category":"food"},{"name":"서산야채","tel":"031-0000-0000","addr":"경기도 수원시 권선구 권선동 1051번지","indutype":"음료식품 - 농·축·수산품","category":"food"},{"name":"순진이네반찬","tel":"031-223-6597","addr":"경기도 수원시 권선구 권선동 1051번지 권선시장 175호","indutype":"음료식품 - 기타음료식품","category":"food"},{"name":"신영떡방앗간","tel":"031-237-5477","addr":"경기도 수원시 권선구 권선동 1051번지 권선시장 2동 173호","indutype":"음료식품 - 제과점","category":"food"},{"name":"신영떡집","tel":"031-237-5477","addr":"경기도 수원시 권선구 권선동 1051번지 114호","indutype":"음료식품 - 제과점","category":"food"},{"name":"영광생두부식품","tel":"031-239-8710","addr":"경기도 수원시 권선구 권선동 1051번지 109호","indutype":"음료식품 - 기타음료식품","category":"food"},{"name":"용화방앗간","tel":"031-238-3480","addr":"경기도 수원시 권선구 권선동 1051번지 1동 111호","indutype":"음료식품 - 제과점","category":"food"},{"name":"우리집안심반찬","tel":"031-236-8436","addr":"경기도 수원시 권선구 권선동 1051번지 146호","indutype":"음료식품 - 기타음료식품","category":"food"},{"name":"종가집반찬","tel":"031-234-5066","addr":"경기도 수원시 권선구 권선동 1051번지 권선종합시장 141호","indutype":"음료식품 - 기타음료식품","category":"food"},{"name":"중앙야채","tel":"070-3701-4436","addr":"경기도 수원시 권선구 권선동 1051번지","indutype":"음료식품 - 농·축·수산품","category":"food"},{"name":"참새방앗간협동조합","tel":"031-221-1133","addr":"경기도 수원시 권선구 권선동 1051번지 1층 164호","indutype":"음료식품 - 기타음료식품","category":"food"},{"name":"행복상회","tel":"031-232-4731","addr":"경기도 수원시 권선구 권선동 1051번지 35,36호","indutype":"음료식품 - 농·축·수산품","category":"food"}]},{"lat":"37.255624934","long":"127.03442151","imageIndex":7,"items":[{"name":"귀래농산","tel":"031-235-3933","addr":"경기도 수원시 권선구 권선동 1167-6번지 1층상가,지층","indutype":"음료식품 - 기타음료식품","category":"food"}]},{"lat":"37.256518198","long":"127.02933807","imageIndex":7,"items":[{"name":"그린유통","tel":"031-291-8228","addr":"경기도 수원시 권선구 권선동 1038-3번지","indutype":"음료식품 - 기타음료식품","category":"food"}]},{"lat":"37.250326501","long":"127.03578314","imageIndex":7,"items":[{"name":"김가네반찬","tel":"031-224-0096","addr":"경기도 수원시 권선구 권선동 1297-2번지 삼성프라자 107호","indutype":"음료식품 - 기타음료식품","category":"food"},{"name":"아이스조아","tel":"031-234-8258","addr":"경기도 수원시 권선구 권선동 1297-2번지 삼성프라자 105호","indutype":"음료식품 - 제과점","category":"food"}]},{"lat":"37.256600565","long":"127.02283397","imageIndex":7,"items":[{"name":"나남상사","tel":"031-38-6158","addr":"경기도 수원시 권선구 권선동 1056-14번지","indutype":"건강식품 - 기타건강식품","category":"food"}]},{"lat":"37.255266723","long":"127.02463716","imageIndex":7,"items":[{"name":"나무소아청소년과","tel":"031-234-9116","addr":"경기도 수원시 권선구 권선동 1062-1번지 권선메디컬 2층","indutype":"회원제형태 - 건강식품","category":"food"}]},{"lat":"37.253824134","long":"127.02925823","imageIndex":7,"items":[{"name":"남수원수산","tel":"031-231-2706","addr":"경기도 수원시 권선구 권선동 1249-4번지","indutype":"음료식품 - 농·축·수산품","category":"food"}]},{"lat":"37.257376012","long":"127.01917064","imageIndex":7,"items":[{"name":"녹양건강원","tel":"031-239-8849","addr":"경기도 수원시 권선구 권선동 995-5","indutype":"건강식품 - 기타건강식품","category":"food"}]},{"lat":"37.256545839","long":"127.02645237","imageIndex":7,"items":[{"name":"농민쌀유통","tel":"031-223-5392","addr":"경기도 수원시 권선구 권선동 1046-10번지 1층","indutype":"음료식품 - 미곡상","category":"food"}]},{"lat":"37.256291196","long":"127.03624789","imageIndex":7,"items":[{"name":"농업회사법인 주식회사 금토한우","tel":"031-222-1727","addr":"경기도 수원시 권선구 권선동 1171-4번지","indutype":"음료식품 - 정육점","category":"food"}]},{"lat":"37.255652004","long":"127.03427498","imageIndex":7,"items":[{"name":"다진상사","tel":"031-233-1999","addr":"경기도 수원시 권선구 권선동 1167-7번지","indutype":"음료식품 - 기타음료식품","category":"food"}]},{"lat":"37.257492757","long":"127.02178587","imageIndex":7,"items":[{"name":"다호유통","tel":"031-223-5214","addr":"경기도 수원시 권선구 권선동 991-12번지","indutype":"음료식품 - 기타음료식품","category":"food"}]},{"lat":"37.262123352","long":"127.02575517","imageIndex":7,"items":[{"name":"달링 케이크(Dailng cake)","tel":"031-235-2282","addr":"경기도 수원시 권선구 권선동 1011-9번지 1층 103호","indutype":"음료식품 - 제과점","category":"food"}]},{"lat":"37.256382425","long":"127.03197574","imageIndex":7,"items":[{"name":"달소돼정육센터","tel":"031-306-7484","addr":"경기도 수원시 권선구 권선동 1157-5번지 1층","indutype":"음료식품 - 정육점","category":"food"},{"name":"대구상회","tel":"031-232-6424","addr":"경기도 수원시 권선구 권선동 1157-5번지","indutype":"음료식품 - 기타음료식품","category":"food"},{"name":"신일유통","tel":"031-238-4133","addr":"경기도 수원시 권선구 권선동 1157-5번지","indutype":"음료식품 - 기타음료식품","category":"food"}]},{"lat":"37.255401671","long":"127.0257306","imageIndex":7,"items":[{"name":"달콤 아이스크림(권선점)","tel":"","addr":"경기도 수원시 권선구 권선동 1049-12번지 1층","indutype":"음료식품 - 기타음료식품","category":"food"}]},{"lat":"37.258628391","long":"127.01955418","imageIndex":7,"items":[{"name":"담뱃잎가게아가씨","tel":"031-111-1111","addr":"경기도 수원시 권선구 권선동 982-5번지 1층","indutype":"음료식품 - 농·축·수산품","category":"food"}]},{"lat":"37.255544139","long":"127.03328299","imageIndex":7,"items":[{"name":"대경축산","tel":"031-222-3142","addr":"경기도 수원시 권선구 권선동 1230-4번지 1층","indutype":"음료식품 - 정육점","category":"food"}]},{"lat":"37.254076468","long":"127.02905542","imageIndex":7,"items":[{"name":"대동건강원","tel":"031-225-2345","addr":"경기도 수원시 권선구 권선동 1066번지 2층","indutype":"건강식품 - 기타건강식품","category":"food"}]},{"lat":"37.257545074","long":"127.03064604","imageIndex":7,"items":[{"name":"대동물산","tel":"070-7524-6399","addr":"경기도 수원시 권선구 권선동 1025-9번지","indutype":"음료식품 - 기타음료식품","category":"food"}]},{"lat":"37.254265764","long":"127.02869478","imageIndex":7,"items":[{"name":"대상F&C","tel":"031-234-7318","addr":"경기도 수원시 권선구 권선동 1065-1번지 1층 1호","indutype":"음료식품 - 기타음료식품","category":"food"}]},{"lat":"37.259709784","long":"127.01839332","imageIndex":7,"items":[{"name":"대육축산물백화점","tel":"031-233-6687","addr":"경기도 수원시 권선구 권선동 979-2번지 1층","indutype":"음료식품 - 정육점","category":"food"},{"name":"대육축산물백화점","tel":"031-233-6687","addr":"경기도 수원시 권선구 권선동 979-2번지 1층","indutype":"음료식품 - 정육점","category":"food"}]},{"lat":"37.255624509","long":"127.03597707","imageIndex":7,"items":[{"name":"대자연축산물백화점","tel":"031-234-9245","addr":"경기도 수원시 권선구 권선동 1172-1번지","indutype":"음료식품 - 정육점","category":"food"}]},{"lat":"37.246236929","long":"127.03149847","imageIndex":7,"items":[{"name":"대한예수교장로회수원명성교회","tel":"031-235-5575","addr":"경기도 수원시 권선구 권선동 162-4번지 명성교회","indutype":"음료식품 - 기타음료식품","category":"food"}]},{"lat":"37.259628561","long":"127.01936276","imageIndex":7,"items":[{"name":"더썬1982","tel":"03-111-1111","addr":"경기도 수원시 권선구 권선동 981번지 1층","indutype":"음료식품 - 기타음료식품","category":"food"}]},{"lat":"37.250076867","long":"127.02417354","imageIndex":7,"items":[{"name":"동아태광정육점","tel":"031-234-5185","addr":"경기도 수원시 권선구 권선동 1197-6번지","indutype":"음료식품 - 정육점","category":"food"}]},{"lat":"37.258851972","long":"127.02886544","imageIndex":7,"items":[{"name":"디빈(DIVEAN)","tel":"031-1566-5338","addr":"경기도 수원시 권선구 권선동 1021-16번지 모아빌딩 5층","indutype":"음료식품 - 기타음료식품","category":"food"}]},{"lat":"37.255825231","long":"127.0253362","imageIndex":7,"items":[{"name":"땅스부대찌개 권선점","tel":"","addr":"경기도 수원시 권선구 권선동 1050번지 권선종합상가 1층 123호","indutype":"음료식품 - 기타음료식품","category":"food"},{"name":"반듯한찬","tel":"031-225-8480","addr":"경기도 수원시 권선구 권선동 1050번지 동산 상가 128호","indutype":"음료식품 - 기타음료식품","category":"food"},{"name":"세기축산","tel":"031-233-8480","addr":"경기도 수원시 권선구 권선동 1050번지 권선 상가 101호","indutype":"음료식품 - 정육점","category":"food"},{"name":"이든네이처 수원권선지사","tel":"031-225-7676","addr":"경기도 수원시 권선구 권선동 1050번지 권선종합상가 64,65호","indutype":"건강식품 - 기타건강식품","category":"food"},{"name":"호두까기호두과자","tel":"031-221-7725","addr":"경기도 수원시 권선구 권선동 1050번지 권선종합상가 102호","indutype":"음료식품 - 기타음료식품","category":"food"}]},{"lat":"37.250293339","long":"127.02288867","imageIndex":7,"items":[{"name":"떡보의하루","tel":"031-233-4414","addr":"경기도 수원시 권선구 권선동 1191-2번지 금강타운 제 1층 105호","indutype":"음료식품 - 제과점","category":"food"}]},{"lat":"37.252644647","long":"127.02504219","imageIndex":7,"items":[{"name":"또또와","tel":"","addr":"경기도 수원시 권선구 권선동 1330번지 권선자이이편한세상 126동 1303호","indutype":"음료식품 - 기타음료식품","category":"food"}]},{"lat":"37.245048062","long":"127.02936787","imageIndex":7,"items":[{"name":"뚜레쥬르 권선아이파크(2)","tel":"031-226-7020","addr":"경기도 수원시 권선구 권선동 1361번지 수원아이파크시티2단지 101동 102호","indutype":"음료식품 - 제과점","category":"food"},{"name":"참좋은축산","tel":"031-232-3664","addr":"경기도 수원시 권선구 권선동 1361번지 수원아이파크시티2단지 2동 1층 112호","indutype":"음료식품 - 정육점","category":"food"}]},{"lat":"37.249769274","long":"127.03022615","imageIndex":7,"items":[{"name":"뚜레쥬르 수원권선(2)","tel":"031-235-0145","addr":"경기도 수원시 권선구 권선동 1267번지 벽산상가 1층 104,105호","indutype":"음료식품 - 제과점","category":"food"}]},{"lat":"37.257906499","long":"127.02592299","imageIndex":7,"items":[{"name":"라피아 브레드","tel":"031-223-7727","addr":"경기도 수원시 권선구 권선동 1035번지 권선SKVIEW상가 223동 104호","indutype":"음료식품 - 제과점","category":"food"}]},{"lat":"37.24721094","long":"127.02750893","imageIndex":7,"items":[{"name":"러브제이","tel":"","addr":"경기도 수원시 권선구 권선동 1362번지 수원아이파크시티9단지 1층 125호","indutype":"음료식품 - 기타음료식품","category":"food"}]},{"lat":"37.261430449","long":"127.02055809","imageIndex":7,"items":[{"name":"레드","tel":"031-236-8008","addr":"경기도 수원시 권선구 권선동 953-13번지","indutype":"음료식품 - 기타음료식품","category":"food"}]},{"lat":"37.256186123","long":"127.02264224","imageIndex":7,"items":[{"name":"로또복권편의점","tel":"031-213-2997","addr":"경기도 수원시 권선구 권선동 1057-17번지 1층","indutype":"음료식품 - 기타음료식품","category":"food"}]},{"lat":"37.257851711","long":"127.0293949","imageIndex":7,"items":[{"name":"롯데냉동상사","tel":"031-235-7808","addr":"경기도 수원시 권선구 권선동 1027-24번지","indutype":"음료식품 - 농·축·수산품","category":"food"}]},{"lat":"37.250545474","long":"127.02377918","imageIndex":7,"items":[{"name":"롯데자판기(JP)","tel":"031-223-1752","addr":"경기도 수원시 권선구 권선동 1196-12번지","indutype":"음료식품 - 기타음료식품","category":"food"}]},{"lat":"37.256184152","long":"127.03216729","imageIndex":7,"items":[{"name":"매일닭직판장","tel":"031-222-0006","addr":"경기도 수원시 권선구 권선동 1161-9번지","indutype":"음료식품 - 농·축·수산품","category":"food"}]},{"lat":"37.255796349","long":"127.03358744","imageIndex":7,"items":[{"name":"매일식품","tel":"031-225-0263","addr":"경기도 수원시 권선구 권선동 1162-12번지","indutype":"음료식품 - 기타음료식품","category":"food"}]},{"lat":"37.243795464","long":"127.03008874","imageIndex":7,"items":[{"name":"목포상회","tel":"031-239-5666","addr":"경기도 수원시 권선구 권선동 1361번지 수원아이파크시티2단지 204동 501호","indutype":"음료식품 - 농·축·수산품","category":"food"}]},{"lat":"37.259457511","long":"127.01828054","imageIndex":7,"items":[{"name":"미산건강원","tel":"031-238-2401","addr":"경기도 수원시 권선구 권선동 979-5번지","indutype":"건강식품 - 기타건강식품","category":"food"}]},{"lat":"37.252319615","long":"127.02833342","imageIndex":7,"items":[{"name":"미소청과","tel":"","addr":"경기도 수원시 권선구 권선동 1260-3번지","indutype":"음료식품 - 농·축·수산품","category":"food"},{"name":"예닮빵고을","tel":"031-225-0393","addr":"경기도 수원시 권선구 권선동 1260-3번지","indutype":"음료식품 - 제과점","category":"food"},{"name":"우리농산","tel":"031-236-8245","addr":"경기도 수원시 권선구 권선동 1260-3번지 1층","indutype":"음료식품 - 농·축·수산품","category":"food"}]},{"lat":"37.252959256","long":"127.0287507","imageIndex":7,"items":[{"name":"민영떡방앗간","tel":"031-233-2687","addr":"경기도 수원시 권선구 권선동 1254-3번지","indutype":"음료식품 - 제과점","category":"food"}]},{"lat":"37.256958939","long":"127.03256212","imageIndex":7,"items":[{"name":"바니상사","tel":"031-239-3396","addr":"경기도 수원시 권선구 권선동 1158-9","indutype":"음료식품 - 기타음료식품","category":"food"}]},{"lat":"37.25090342","long":"127.03483658","imageIndex":7,"items":[{"name":"베스킨라빈스","tel":"031-239-7811","addr":"경기도 수원시 권선구 권선동 1296-2번지 1층 112호","indutype":"음료식품 - 제과점","category":"food"}]},{"lat":"37.25034773","long":"127.02083729","imageIndex":7,"items":[{"name":"베스킨라빈스권선점","tel":"031-207-1264","addr":"경기도 수원시 권선구 권선동 1189번지 수원이마트 1층 베스킨라빈 수원이마트점","indutype":"음료식품 - 제과점","category":"food"},{"name":"브레댄코 수원터미널점","tel":"031-267-7373","addr":"경기도 수원시 권선구 권선동 1189번지 1314호 터미널동","indutype":"음료식품 - 정육점","category":"food"}]},{"lat":"37.249577274","long":"127.04039276","imageIndex":7,"items":[{"name":"베이커리cafe가루밀","tel":"031-212-2083","addr":"경기도 수원시 권선구 권선동 1308번지 분당선 매탄권선역 지하1층","indutype":"음료식품 - 제과점","category":"food"}]},{"lat":"37.252986317","long":"127.02861544","imageIndex":7,"items":[{"name":"브래드몽드","tel":"031-225-5812","addr":"경기도 수원시 권선구 권선동 1254-2번지 1층","indutype":"음료식품 - 제과점","category":"food"}]},{"lat":"37.242570944","long":"127.02591832","imageIndex":7,"items":[{"name":"브레드아베크(Bread Avec)","tel":"031-221-9755","addr":"경기도 수원시 권선구 권선동 1359번지 수원아이파크시티3단지 상가 1동 103호","indutype":"음료식품 - 제과점","category":"food"},{"name":"착한밥도둑 수원아이파크시티점","tel":"031-239-8858","addr":"경기도 수원시 권선구 권선동 1359번지 수원아이파크시티 상가동 104호","indutype":"음료식품 - 기타음료식품","category":"food"},{"name":"행복정육점","tel":"031-897-8997","addr":"경기도 수원시 권선구 권선동 1359번지 수원아이파크시티3단지 제상가동2동 1층 111호","indutype":"음료식품 - 정육점","category":"food"}]},{"lat":"37.250966273","long":"127.03563689","imageIndex":7,"items":[{"name":"브레드앤밀","tel":"031-234-1055","addr":"경기도 수원시 권선구 권선동 1295-4번지 103호","indutype":"음료식품 - 제과점","category":"food"}]},{"lat":"37.260680581","long":"127.0309741","imageIndex":7,"items":[{"name":"빵장수단팥빵 수원인계점","tel":"031-237-0225","addr":"경기도 수원시 권선구 권선동 1023-2번지 이오스오피스텔 103호","indutype":"음료식품 - 제과점","category":"food"}]},{"lat":"37.255293894","long":"127.02385939","imageIndex":7,"items":[{"name":"사랑건강원","tel":"031-222-3033","addr":"경기도 수원시 권선구 권선동 1061-9번지 1층","indutype":"건강식품 - 기타건강식품","category":"food"}]},{"lat":"37.26343035","long":"127.02297105","imageIndex":7,"items":[{"name":"삼정유통","tel":"031-298-9580","addr":"경기도 수원시 권선구 권선동 940-5번지 1층","indutype":"음료식품 - 기타음료식품","category":"food"}]},{"lat":"37.254680206","long":"127.02884146","imageIndex":7,"items":[{"name":"생면쟁이","tel":"031-236-9456","addr":"경기도 수원시 권선구 권선동 1042-8번지 1층","indutype":"음료식품 - 기타음료식품","category":"food"}]},{"lat":"37.241993859","long":"127.02800312","imageIndex":7,"items":[{"name":"서현떡집","tel":"031-222-4658","addr":"경기도 수원시 권선구 권선동 1357번지 수원아이파크시티4단지 상가 108호","indutype":"음료식품 - 제과점","category":"food"}]},{"lat":"37.255354684","long":"127.03419595","imageIndex":7,"items":[{"name":"설악유통","tel":"031-236-1220","addr":"경기도 수원시 권선구 권선동 1233-1번지","indutype":"음료식품 - 주류 판매점","category":"food"}]},{"lat":"37.257680157","long":"127.03095044","imageIndex":7,"items":[{"name":"성지건강원","tel":"031-221-9193","addr":"경기도 수원시 권선구 권선동 1025-4,1025-5,1025-6A-2","indutype":"건강식품 - 기타건강식품","category":"food"}]},{"lat":"37.256102855","long":"127.03297886","imageIndex":7,"items":[{"name":"성화유통","tel":"011-****-****","addr":"경기도 수원시 권선구 권선동 1162번지","indutype":"음료식품 - 기타음료식품","category":"food"}]},{"lat":"37.261572896","long":"127.02970058","imageIndex":7,"items":[{"name":"세계주류백화점(시청점)","tel":"031-267-0661","addr":"경기도 수원시 권선구 권선동 1013번지 지오베르크 104호","indutype":"음료식품 - 주류 판매점","category":"food"},{"name":"케익드라마시청역점","tel":"031-222-3634","addr":"경기도 수원시 권선구 권선동 1013지오베르크110-1","indutype":"음료식품 - 제과점","category":"food"}]},{"lat":"37.257826728","long":"127.01763768","imageIndex":7,"items":[{"name":"세대쌀상회","tel":"031-233-2676","addr":"경기도 수원시 권선구 권선동 999-10번지","indutype":"음료식품 - 미곡상","category":"food"}]},{"lat":"37.256014662","long":"127.02417521","imageIndex":7,"items":[{"name":"소풍정육점","tel":"031-239-2253","addr":"경기도 수원시 권선구 권선동 1057-18번지 동신쉐르빌 1층","indutype":"음료식품 - 정육점","category":"food"}]},{"lat":"37.249518497","long":"127.02261795","imageIndex":7,"items":[{"name":"수소아과","tel":"031-224-7533","addr":"경기도 수원시 권선구 권선동 1193번지 효림트윈타워 201호","indutype":"회원제형태 - 건강식품","category":"food"},{"name":"존스빌","tel":"031-223-1075","addr":"경기도 수원시 권선구 권선동 1193번지 302호","indutype":"건강식품 - 기타건강식품","category":"food"}]},{"lat":"37.256769951","long":"127.03163772","imageIndex":7,"items":[{"name":"수연유통주식회사","tel":"031-0000-0000","addr":"경기도 수원시 권선구 권선동 1156-5번지","indutype":"음료식품 - 농·축·수산품","category":"food"}]},{"lat":"37.251158175","long":"127.02377935","imageIndex":7,"items":[{"name":"수원떡집","tel":"031-222-3372","addr":"경기도 수원시 권선구 권선동 1194-1번지 1층","indutype":"음료식품 - 제과점","category":"food"},{"name":"우리축산","tel":"031-232-0817","addr":"경기도 수원시 권선구 권선동 1194-1번지","indutype":"음료식품 - 정육점","category":"food"}]},{"lat":"37.25290506","long":"127.02935935","imageIndex":7,"items":[{"name":"수원상회","tel":"031-234-8181","addr":"경기도 수원시 권선구 권선동 1255-2번지 1층","indutype":"음료식품 - 기타음료식품","category":"food"}]},{"lat":"37.26234892","long":"127.02408681","imageIndex":7,"items":[{"name":"수원시농업기술센터","tel":"031-228-3153","addr":"경기도 수원시 권선구 권선동 942번지 KT권선동빌딩","indutype":"음료식품 - 농·축·수산품","category":"food"}]},{"lat":"37.258852472","long":"127.02647563","imageIndex":7,"items":[{"name":"수원웰솔루션","tel":"031-237-0508","addr":"경기도 수원시 권선구 권선동 1029-1번지 5층 501호","indutype":"건강식품 - 기타건강식품","category":"food"}]},{"lat":"37.240939686","long":"127.02783372","imageIndex":7,"items":[{"name":"수화유통","tel":"031-204-9766","addr":"경기도 수원시 권선구 권선동 1357번지 수원아이파크시티4단지 413동 1401호","indutype":"음료식품 - 기타음료식품","category":"food"}]},{"lat":"37.246199333","long":"127.03733671","imageIndex":7,"items":[{"name":"순자네 블루베리농장","tel":"031-641-0123","addr":"경기도 수원시 권선구 권선동 1323번지 권선3지구 써미트빌 215동 4층 402호","indutype":"음료식품 - 농·축·수산품","category":"food"}]},{"lat":"37.249542743","long":"127.03527559","imageIndex":7,"items":[{"name":"신토불이반찬","tel":"031-226-6888","addr":"경기도 수원시 권선구 권선동 1296-7번지 베스토아 111호","indutype":"음료식품 - 기타음료식품","category":"food"},{"name":"아리랑","tel":"031-222-4552","addr":"경기도 수원시 권선구 권선동 1296-7번지 베스토아 상가 111호","indutype":"음료식품 - 제과점","category":"food"},{"name":"아비앙또","tel":"070-8772-4497","addr":"경기도 수원시 권선구 권선동 1296-7번지 베스토아 112호","indutype":"음료식품 - 제과점","category":"food"},{"name":"위핏","tel":"031-212-8787","addr":"경기도 수원시 권선구 권선동 1296-7번지 베스토아 210호","indutype":"건강식품 - 기타건강식품","category":"food"}]},{"lat":"37.264178568","long":"127.02069402","imageIndex":7,"items":[{"name":"싱싱마트","tel":"070-1111-1111","addr":"경기도 수원시 권선구 권선동 939번지 1층","indutype":"음료식품 - 농·축·수산품","category":"food"}]},{"lat":"37.250878903","long":"127.02350875","imageIndex":7,"items":[{"name":"아이스월드 권선점","tel":"031-235-8576","addr":"경기도 수원시 권선구 권선동 1195번지 1층","indutype":"음료식품 - 기타음료식품","category":"food"}]},{"lat":"37.259601431","long":"127.02006167","imageIndex":7,"items":[{"name":"약초천지","tel":"031-225-0226","addr":"경기도 수원시 권선구 권선동 975-3번지","indutype":"건강식품 - 기타건강식품","category":"food"}]},{"lat":"37.255463152","long":"127.03286588","imageIndex":7,"items":[{"name":"양념마을","tel":"031-226-0060","addr":"경기도 수원시 권선구 권선동 1230-7번지","indutype":"음료식품 - 농·축·수산품","category":"food"},{"name":"천하유통","tel":"031-239-5244","addr":"경기도 수원시 권선구 권선동 1230-7번지","indutype":"음료식품 - 기타음료식품","category":"food"}]},{"lat":"37.257934675","long":"127.0189904","imageIndex":7,"items":[{"name":"에이스제이엠 (진)","tel":"","addr":"경기도 수원시 권선구 권선동 996-5번지 제일주택 가동 201호","indutype":"건강식품 - 기타건강식품","category":"food"}]},{"lat":"37.261484552","long":"127.02027628","imageIndex":7,"items":[{"name":"연세대학우유수원중앙대리점","tel":"031-898-5477","addr":"경기도 수원시 권선구 권선동 953-11번지","indutype":"음료식품 - 기타음료식품","category":"food"}]},{"lat":"37.262880716","long":"127.02300473","imageIndex":7,"items":[{"name":"영헬스케어","tel":"070-8276-9941","addr":"경기도 수원시 권선구 권선동 945-5번지 2층","indutype":"건강식품 - 기타건강식품","category":"food"}]},{"lat":"37.250020191","long":"127.03563648","imageIndex":7,"items":[{"name":"예다손권선점","tel":"031-222-0377","addr":"경기도 수원시 권선구 권선동 1297-3번지 권선프라자 103호","indutype":"음료식품 - 제과점","category":"food"}]},{"lat":"37.254717473","long":"127.0224615","imageIndex":7,"items":[{"name":"오마이팟(OH MY PAD)","tel":"070-7725-0406","addr":"경기도 수원시 권선구 권선동 1060-19번지 지성빌라 마동 301호","indutype":"음료식품 - 기타음료식품","category":"food"}]},{"lat":"37.257743335","long":"127.03049957","imageIndex":7,"items":[{"name":"오행생식원","tel":"031-222-5558","addr":"경기도 수원시 권선구 권선동 1025-1번지","indutype":"건강식품 - 기타건강식품","category":"food"}]},{"lat":"37.250182646","long":"127.03464467","imageIndex":7,"items":[{"name":"온천","tel":"031-224-4418","addr":"경기도 수원시 권선구 권선동 1296-5썬터블스파4층301.5층401호","indutype":"음료식품 - 기타음료식품","category":"food"}]},{"lat":"37.255183861","long":"127.03275305","imageIndex":7,"items":[{"name":"용원방앗간","tel":"031-223-2992","addr":"경기도 수원시 권선구 권선동 1230-9번지","indutype":"음료식품 - 기타음료식품","category":"food"}]},{"lat":"37.257409821","long":"127.03106307","imageIndex":7,"items":[{"name":"용원상회","tel":"031-223-2121","addr":"경기도 수원시 권선구 권선동 1025-7번지","indutype":"음료식품 - 농·축·수산품","category":"food"}]},{"lat":"37.259321906","long":"127.0214256","imageIndex":7,"items":[{"name":"우래건강","tel":"031-221-3345","addr":"경기도 수원시 권선구 권선동 972-13번지 2층","indutype":"음료식품 - 기타음료식품","category":"food"}]},{"lat":"37.252743063","long":"127.02850264","imageIndex":7,"items":[{"name":"우리농수산물","tel":"031-236-3345","addr":"경기도 수원시 권선구 권선동 1260번지","indutype":"음료식품 - 농·축·수산품","category":"food"}]},{"lat":"37.256048765","long":"127.03309156","imageIndex":7,"items":[{"name":"우일유통","tel":"031-237-3990","addr":"경기도 수원시 권선구 권선동 1162-1번지","indutype":"음료식품 - 기타음료식품","category":"food"}]},{"lat":"37.255104396","long":"127.02539234","imageIndex":7,"items":[{"name":"은드림","tel":"031-1577-0000","addr":"경기도 수원시 권선구 권선동 1062-16번지 대흥빌딩 1층","indutype":"음료식품 - 기타음료식품","category":"food"}]},{"lat":"37.255517058","long":"127.0334746","imageIndex":7,"items":[{"name":"이가네방앗간","tel":"031-223-1894","addr":"경기도 수원시 권선구 권선동 1230-3번지 1층","indutype":"음료식품 - 제과점","category":"food"}]},{"lat":"37.248462354","long":"127.03200651","imageIndex":7,"items":[{"name":"이니스토리과자점","tel":"","addr":"경기도 수원시 권선구 권선동 1274번지 신동아아파트 상가동 1층 114호","indutype":"음료식품 - 제과점","category":"food"}]},{"lat":"37.256266652","long":"127.02577595","imageIndex":7,"items":[{"name":"일등과일","tel":"031-233-1993","addr":"경기도 수원시 권선구 권선동 1052-4번지 1층","indutype":"음료식품 - 농·축·수산품","category":"food"}]},{"lat":"37.261709329","long":"127.02328624","imageIndex":7,"items":[{"name":"일신상사","tel":"011-****-****","addr":"경기도 수원시 권선구 권선동 958-16번지","indutype":"음료식품 - 기타음료식품","category":"food"}]},{"lat":"37.258213833","long":"127.02014026","imageIndex":7,"items":[{"name":"임채순 베이커리","tel":"031-236-7084","addr":"경기도 수원시 권선구 권선동 994번지","indutype":"음료식품 - 제과점","category":"food"}]},{"lat":"37.260457589","long":"127.01877675","imageIndex":7,"items":[{"name":"자연을담는탕제원","tel":"031-233-5864","addr":"경기도 수원시 권선구 권선동 978-5번지","indutype":"건강식품 - 기타건강식품","category":"food"}]},{"lat":"37.251542272","long":"127.03794781","imageIndex":7,"items":[{"name":"전라도반찬전문점","tel":"031-221-3877","addr":"경기도 수원시 권선구 권선동 1286-8번지 1층","indutype":"음료식품 - 기타음료식품","category":"food"},{"name":"정병창과자점","tel":"031-233-0193","addr":"경기도 수원시 권선구 권선동 1286-8번지","indutype":"음료식품 - 제과점","category":"food"}]},{"lat":"37.255519185","long":"127.02366783","imageIndex":7,"items":[{"name":"정수유통","tel":"031-233-3388","addr":"경기도 수원시 권선구 권선동 1061-7번지 1층","indutype":"음료식품 - 기타음료식품","category":"food"}]},{"lat":"37.255320383","long":"127.02672252","imageIndex":7,"items":[{"name":"정훈수산","tel":"031-111-1111","addr":"경기도 수원시 권선구 권선동 1049-6번지 304호","indutype":"음료식품 - 농·축·수산품","category":"food"}]},{"lat":"37.255931682","long":"127.03288861","imageIndex":7,"items":[{"name":"제일상회","tel":"031-232-4289","addr":"경기도 수원시 권선구 권선동 1162-17번지","indutype":"음료식품 - 기타음료식품","category":"food"}]},{"lat":"37.256490568","long":"127.03189687","imageIndex":7,"items":[{"name":"제일유통","tel":"031-237-6922","addr":"경기도 수원시 권선구 권선동 1157-6번지 1층","indutype":"음료식품 - 정육점","category":"food"},{"name":"충남닭집","tel":"031-237-0701","addr":"경기도 수원시 권선구 권선동 1157-6번지 1층","indutype":"음료식품 - 정육점","category":"food"}]},{"lat":"37.255680883","long":"127.02628302","imageIndex":7,"items":[{"name":"주식회사삼성농원","tel":"031-226-9024","addr":"경기도 수원시 권선구 권선동 1048-14번지","indutype":"음료식품 - 농·축·수산품","category":"food"}]},{"lat":"37.257463931","long":"127.03086018","imageIndex":7,"items":[{"name":"준성유통","tel":"031-232-2265","addr":"경기도 수원시 권선구 권선동 1025-8번지","indutype":"음료식품 - 기타음료식품","category":"food"}]},{"lat":"37.2554626","long":"127.03497378","imageIndex":7,"items":[{"name":"지에스미트","tel":"031-233-0062","addr":"경기도 수원시 권선구 권선동 1169-7번지","indutype":"음료식품 - 정육점","category":"food"}]},{"lat":"37.256960623","long":"127.02484055","imageIndex":7,"items":[{"name":"지에프식품산업","tel":"070-4763-5091","addr":"경기도 수원시 권선구 권선동 1053-14번지 지하층","indutype":"음료식품 - 기타음료식품","category":"food"}]},{"lat":"37.259070068","long":"127.01828046","imageIndex":7,"items":[{"name":"진이네반찬","tel":"031-233-3062","addr":"경기도 수원시 권선구 권선동 979-16번지 1층","indutype":"음료식품 - 기타음료식품","category":"food"}]},{"lat":"37.255319001","long":"127.03280947","imageIndex":7,"items":[{"name":"진푸드시스템","tel":"031-234-8440","addr":"경기도 수원시 권선구 권선동 1230-8번지","indutype":"음료식품 - 기타음료식품","category":"food"},{"name":"태경건어물총판","tel":"031-225-1406","addr":"경기도 수원시 권선구 권선동 1230-8번지","indutype":"음료식품 - 농·축·수산품","category":"food"}]},{"lat":"37.25568811","long":"127.03402701","imageIndex":7,"items":[{"name":"진현","tel":"031-221-0214","addr":"경기도 수원시 권선구 권선동 1162-9번지 2층 201호","indutype":"음료식품 - 기타음료식품","category":"food"}]},{"lat":"37.257628539","long":"127.01733328","imageIndex":7,"items":[{"name":"총각수산","tel":"031-238-0222","addr":"경기도 수원시 권선구 권선동 1000번지","indutype":"음료식품 - 농·축·수산품","category":"food"}]},{"lat":"37.255516722","long":"127.03474836","imageIndex":7,"items":[{"name":"치키더키","tel":"031-236-6076","addr":"경기도 수원시 권선구 권선동 1168-6번지","indutype":"음료식품 - 정육점","category":"food"}]},{"lat":"37.261403523","long":"127.01983661","imageIndex":7,"items":[{"name":"친절슈퍼정육점","tel":"031-236-2513","addr":"경기도 수원시 권선구 권선동 964-3번지 1층","indutype":"음료식품 - 정육점","category":"food"}]},{"lat":"37.248659555","long":"127.03591767","imageIndex":7,"items":[{"name":"쿡COOK1015(수원권선점)","tel":"031-234-1015","addr":"경기도 수원시 권선구 권선동 1311-8번지 권선종합프라자 106호","indutype":"음료식품 - 기타음료식품","category":"food"},{"name":"태평선식","tel":"031-232-4330","addr":"경기도 수원시 권선구 권선동 1311-8번지 권선종합프라자 105호","indutype":"건강식품 - 기타건강식품","category":"food"}]},{"lat":"37.255904614","long":"127.03303514","imageIndex":7,"items":[{"name":"태성유통","tel":"031-235-5830","addr":"경기도 수원시 권선구 권선동 1162-16번지 1층","indutype":"음료식품 - 기타음료식품","category":"food"}]},{"lat":"37.252409082","long":"127.03114011","imageIndex":7,"items":[{"name":"파리바게뜨","tel":"031-234-2616","addr":"경기도 수원시 권선구 권선동 1257-1번지","indutype":"음료식품 - 제과점","category":"food"}]},{"lat":"37.25677119","long":"127.025979","imageIndex":7,"items":[{"name":"파리바게뜨 권선SK뷰점","tel":"031-613-7688","addr":"경기도 수원시 권선구 권선동 1053-7번지 SK프라자 102호 103호","indutype":"음료식품 - 제과점","category":"food"}]},{"lat":"37.25523965","long":"127.0248626","imageIndex":7,"items":[{"name":"파리바게트 권선자이점","tel":"031-221-5114","addr":"경기도 수원시 권선구 권선동 1062-2번지 1층","indutype":"음료식품 - 제과점","category":"food"}]},{"lat":"37.250050074","long":"127.0228097","imageIndex":7,"items":[{"name":"파리바게트 수원터미널점","tel":"031-239-8025","addr":"경기도 수원시 권선구 권선동 1192번지 효림트윈타워 1층 101호","indutype":"음료식품 - 제과점","category":"food"},{"name":"파리바게트터미널점","tel":"031-239-8024","addr":"경기도 수원시 권선구 권선동 1192번지 효림트윈타워 1층 1호","indutype":"음료식품 - 제과점","category":"food"},{"name":"파워점프(권선)","tel":"031-234-8211","addr":"경기도 수원시 권선구 권선동 1192번지 효림트윈타워 3층 302호","indutype":"건강식품 - 기타건강식품","category":"food"}]},{"lat":"37.257049395","long":"127.03111929","imageIndex":7,"items":[{"name":"팔도인삼약초농산","tel":"031-237-1982","addr":"경기도 수원시 권선구 권선동 1040-7번지","indutype":"건강식품 - 인삼제품","category":"food"},{"name":"해창상회","tel":"031-234-9918","addr":"경기도 수원시 권선구 권선동 1040-7번지","indutype":"음료식품 - 농·축·수산품","category":"food"},{"name":"현대축산","tel":"031-239-4225","addr":"경기도 수원시 권선구 권선동 1040-7번지","indutype":"음료식품 - 정육점","category":"food"}]},{"lat":"37.25649046","long":"127.03233649","imageIndex":7,"items":[{"name":"평안상회","tel":"031-234-3532","addr":"경기도 수원시 권선구 권선동 1158-5번지","indutype":"음료식품 - 기타음료식품","category":"food"}]},{"lat":"37.256771119","long":"127.02633972","imageIndex":7,"items":[{"name":"픽미픽미아이스크림","tel":"","addr":"경기도 수원시 권선구 권선동 1046번지 1층 2호","indutype":"음료식품 - 기타음료식품","category":"food"},{"name":"한우랑돼지랑","tel":"031-204-1913","addr":"경기도 수원시 권선구 권선동 1046번지","indutype":"음료식품 - 정육점","category":"food"}]},{"lat":"37.255878926","long":"127.02719613","imageIndex":7,"items":[{"name":"학사농원","tel":"031-357-3766","addr":"경기도 수원시 권선구 권선동 1047-5번지","indutype":"음료식품 - 농·축·수산품","category":"food"}]},{"lat":"37.255599048","long":"127.02977736","imageIndex":7,"items":[{"name":"학원매점","tel":"031-222-6222","addr":"경기도 수원시 권선구 권선동 1041-7번지 8층","indutype":"음료식품 - 기타음료식품","category":"food"}]},{"lat":"37.256626102","long":"127.03030753","imageIndex":7,"items":[{"name":"한국유통","tel":"031-376-9633","addr":"경기도 수원시 권선구 권선동 1039-6번지","indutype":"음료식품 - 정육점","category":"food"}]},{"lat":"37.250824818","long":"127.023644","imageIndex":7,"items":[{"name":"한밭건강원","tel":"031-232-2702","addr":"경기도 수원시 권선구 권선동 1195-1번지","indutype":"건강식품 - 기타건강식품","category":"food"}]},{"lat":"37.25657291","long":"127.02624948","imageIndex":7,"items":[{"name":"한아름떡방","tel":"031-225-5307","addr":"경기도 수원시 권선구 권선동 1046-13번지","indutype":"음료식품 - 제과점","category":"food"}]},{"lat":"37.255462962","long":"127.03360985","imageIndex":7,"items":[{"name":"한아름유통","tel":"031-898-9990","addr":"경기도 수원시 권선구 권선동 1230-2번지","indutype":"음료식품 - 기타음료식품","category":"food"}]},{"lat":"37.255960714","long":"127.02353268","imageIndex":7,"items":[{"name":"한우리축산물백화점","tel":"031-267-4557","addr":"경기도 수원시 권선구 권선동 1057-11번지","indutype":"음료식품 - 정육점","category":"food"}]},{"lat":"37.250464317","long":"127.02413984","imageIndex":7,"items":[{"name":"해피콩","tel":"031-215-8208","addr":"경기도 수원시 권선구 권선동 1197-12번지","indutype":"건강식품 - 기타건강식품","category":"food"}]},{"lat":"37.258762647","long":"127.02503271","imageIndex":7,"items":[{"name":"향토장고을","tel":"031-237-3226","addr":"경기도 수원시 권선구 권선동 1031-5번지 1층","indutype":"음료식품 - 기타음료식품","category":"food"}]},{"lat":"37.25982644","long":"127.02169627","imageIndex":7,"items":[{"name":"허브데이","tel":"031-224-8272","addr":"경기도 수원시 권선구 권선동 972-10번지 3층","indutype":"건강식품 - 기타건강식품","category":"food"}]},{"lat":"37.259989015","long":"127.01905847","imageIndex":7,"items":[{"name":"현대2정육점","tel":"031-221-3852","addr":"경기도 수원시 권선구 권선동 977-5번지","indutype":"음료식품 - 정육점","category":"food"}]},{"lat":"37.258429973","long":"127.02086175","imageIndex":7,"items":[{"name":"현대축산물정육마트","tel":"031-222-3334","addr":"경기도 수원시 권선구 권선동 986번지","indutype":"음료식품 - 정육점","category":"food"}]},{"lat":"37.26098868","long":"127.02224894","imageIndex":7,"items":[{"name":"형제한우판매장","tel":"031-224-6663","addr":"경기도 수원시 권선구 권선동 957-9번지","indutype":"음료식품 - 정육점","category":"food"}]},{"lat":"37.263817934","long":"127.02211438","imageIndex":7,"items":[{"name":"황금포차","tel":"","addr":"경기도 수원시 권선구 권선동 939-19번지 1층","indutype":"음료식품 - 정육점","category":"food"}]}]