[{"lat":"37.234242399","long":"127.07711079","imageIndex":7,"items":[{"name":"(주)피와이언홀딩스/삼성전자연수원매점","tel":"031-215-0402","addr":"경기도 용인시 기흥구 서천동 822번지 연수원 매점","indutype":"음료식품 - 기타음료식품","category":"food"}]},{"lat":"37.245903876","long":"127.07366211","imageIndex":7,"items":[{"name":"고향종합식품","tel":"","addr":"경기도 용인시 기흥구 서천동 320-6번지","indutype":"음료식품 - 기타음료식품","category":"food"},{"name":"우리축산","tel":"070-5118-2236","addr":"경기도 용인시 기흥구 서천동 320-6번지","indutype":"음료식품 - 정육점","category":"food"},{"name":"우리푸드","tel":"031-203-2745","addr":"경기도 용인시 기흥구 서천동 320-6번지 1층 103호","indutype":"음료식품 - 농·축·수산품","category":"food"},{"name":"제이대리점","tel":"031-204-7196","addr":"경기도 용인시 기흥구 서천동 320-6번지 106호","indutype":"음료식품 - 기타음료식품","category":"food"}]},{"lat":"37.23629475","long":"127.08024566","imageIndex":7,"items":[{"name":"꽃대궐","tel":"031-206-6030","addr":"경기도 용인시 기흥구 서천동 89-3","indutype":"음료식품 - 기타음료식품","category":"food"}]},{"lat":"37.241159721","long":"127.06608422","imageIndex":7,"items":[{"name":"농업회사법인루나플로우 주식회사","tel":"02-0000-0000","addr":"경기도 용인시 기흥구 서천동 373-10번지 B02호","indutype":"음료식품 - 농·축·수산품","category":"food"}]},{"lat":"37.236911399","long":"127.07394671","imageIndex":7,"items":[{"name":"담우정육점","tel":"031-273-9245","addr":"경기도 용인시 기흥구 서천동 807번지 101호","indutype":"음료식품 - 정육점","category":"food"}]},{"lat":"37.246769028","long":"127.07339242","imageIndex":7,"items":[{"name":"딜라이트그린빈","tel":"070-4035-5152","addr":"경기도 용인시 기흥구 서천동 335-2번지 우서빌딩 305호 일부","indutype":"음료식품 - 기타음료식품","category":"food"}]},{"lat":"37.245239136","long":"127.07019014","imageIndex":7,"items":[{"name":"리한 베이커리","tel":"031-273-2121","addr":"경기도 용인시 기흥구 서천동 828번지 영통로효성해링턴플레이스 상가동지 1층 102호","indutype":"음료식품 - 제과점","category":"food"}]},{"lat":"37.24379945","long":"127.06663868","imageIndex":7,"items":[{"name":"명품한우 암소정육점","tel":"031-213-3003","addr":"경기도 용인시 기흥구 서천동 366번지 1층","indutype":"음료식품 - 정육점","category":"food"},{"name":"예인떡집","tel":"031-273-2626","addr":"경기도 용인시 기흥구 서천동 366번지 103호","indutype":"음료식품 - 제과점","category":"food"},{"name":"장독대","tel":"031-202-4343","addr":"경기도 용인시 기흥구 서천동 366번지 뉴태영빌딩 1층","indutype":"음료식품 - 기타음료식품","category":"food"},{"name":"장독대","tel":"031-202-4343","addr":"경기도 용인시 기흥구 서천동 366번지 1층","indutype":"음료식품 - 기타음료식품","category":"food"},{"name":"파리바게뜨용인서천점","tel":"031-273-8592","addr":"경기도 용인시 기흥구 서천동 366외4필지105호","indutype":"음료식품 - 제과점","category":"food"}]},{"lat":"37.240488587","long":"127.07380355","imageIndex":7,"items":[{"name":"박가네떡방","tel":"031-273-8222","addr":"경기도 용인시 기흥구 서천동 730-1번지","indutype":"음료식품 - 제과점","category":"food"}]},{"lat":"37.236801177","long":"127.07736122","imageIndex":7,"items":[{"name":"사르르초코","tel":"031-0000-0000","addr":"경기도 용인시 기흥구 서천동 778-10번지 전면좌측 101호","indutype":"음료식품 - 기타음료식품","category":"food"}]},{"lat":"37.237739592","long":"127.0751984","imageIndex":7,"items":[{"name":"샤방샤방 아이스크림할인점","tel":"","addr":"경기도 용인시 기흥구 서천동 801번지 힐스테이트서천 상가동 104호","indutype":"음료식품 - 기타음료식품","category":"food"}]},{"lat":"37.240769921","long":"127.07035521","imageIndex":7,"items":[{"name":"서울우유영통남부고객센터","tel":"031-203-8902","addr":"경기도 용인시 기흥구 서천동 397-19번지","indutype":"음료식품 - 기타음료식품","category":"food"}]},{"lat":"37.241020445","long":"127.07338706","imageIndex":7,"items":[{"name":"송화잔기지떡 용인점","tel":"070-7840-0610","addr":"경기도 용인시 기흥구 서천동 720-3번지 1층","indutype":"음료식품 - 제과점","category":"food"}]},{"lat":"37.242438335","long":"127.06766312","imageIndex":7,"items":[{"name":"신명호베이커리","tel":"031-206-0458","addr":"경기도 용인시 기흥구 서천동 405-2번지 101호","indutype":"음료식품 - 제과점","category":"food"}]},{"lat":"37.246659816","long":"127.07519565","imageIndex":7,"items":[{"name":"신토불이","tel":"031-206-4766","addr":"경기도 용인시 기흥구 서천동 319-6번지","indutype":"음료식품 - 농·축·수산품","category":"food"}]},{"lat":"37.24243818","long":"127.06794487","imageIndex":7,"items":[{"name":"아싸다아이스크림","tel":"031-204-2569","addr":"경기도 용인시 기흥구 서천동 404-2번지","indutype":"음료식품 - 기타음료식품","category":"food"}]},{"lat":"37.241015526","long":"127.06614045","imageIndex":7,"items":[{"name":"은화유통","tel":"031-202-0084","addr":"경기도 용인시 기흥구 서천동 374번지 1층 상가","indutype":"음료식품 - 농·축·수산품","category":"food"}]},{"lat":"37.236549185","long":"127.07688766","imageIndex":7,"items":[{"name":"이쁜물곰과일&후레쉬마켓","tel":"","addr":"경기도 용인시 기흥구 서천동 782-4번지 1층 1호","indutype":"음료식품 - 기타음료식품","category":"food"}]},{"lat":"37.24174233","long":"127.07158452","imageIndex":7,"items":[{"name":"지명TF","tel":"031-000-0000","addr":"경기도 용인시 기흥구 서천동 267번지 102호","indutype":"음료식품 - 기타음료식품","category":"food"}]},{"lat":"37.240515719","long":"127.07363453","imageIndex":7,"items":[{"name":"타니예르","tel":"031-111-1111","addr":"경기도 용인시 기흥구 서천동 730번지 1층 102호","indutype":"음료식품 - 제과점","category":"food"}]},{"lat":"37.237047298","long":"127.07269593","imageIndex":7,"items":[{"name":"파리바게뜨(서천마을)","tel":"041-205-6233","addr":"경기도 용인시 기흥구 서천동 813번지 원희캐슬서천르자1층105호","indutype":"음료식품 - 제과점","category":"food"}]},{"lat":"37.242771809","long":"127.06749435","imageIndex":7,"items":[{"name":"프리미엄 우유(수원 대리점)","tel":"031-304-7177","addr":"경기도 용인시 기흥구 서천동 379-5번지 lplus","indutype":"음료식품 - 기타음료식품","category":"food"}]},{"lat":"37.241293857","long":"127.06796643","imageIndex":7,"items":[{"name":"한우마을","tel":"031-202-8543","addr":"경기도 용인시 기흥구 서천동 705번지 현대홈타운 상가 103호","indutype":"음료식품 - 정육점","category":"food"}]}]