[{"lat":"37.48449588","long":"127.54288785","imageIndex":17,"items":[{"name":"(주)삼성에너지","tel":"031-773-0266","addr":"경기도 양평군 양평읍 대흥리 563번지","indutype":"용역 서비스 - 기타용역서비스","category":"other"}]},{"lat":"37.491827899","long":"127.53538726","imageIndex":17,"items":[{"name":"DH편의점","tel":"031-772-9905","addr":"경기도 양평군 양평읍 대흥리 676-2번지","indutype":"유통업 영리 - 편 의 점","category":"other"}]},{"lat":"37.491493964","long":"127.54541454","imageIndex":17,"items":[{"name":"골든북스","tel":"050-6050-0550","addr":"경기도 양평군 양평읍 대흥리 300-2번지 1층","indutype":"서적문구 - 출판 및 인쇄물","category":"other"}]},{"lat":"37.490634186","long":"127.53235974","imageIndex":17,"items":[{"name":"나박사만물","tel":"031-773-7578","addr":"경기도 양평군 양평읍 대흥리 650-2번지","indutype":"신변잡화 - 기타잡화","category":"other"}]},{"lat":"37.479749427","long":"127.54839344","imageIndex":17,"items":[{"name":"대송스포츠","tel":"031-773-6906","addr":"경기도 양평군 양평읍 대흥리 78번지 1층","indutype":"레져용품 - 스포츠·레져용품","category":"other"},{"name":"정도스틸","tel":"031-774-2834","addr":"경기도 양평군 양평읍 대흥리 78번지 1층","indutype":"건축자재 - 기타건축자재","category":"other"}]},{"lat":"37.487723755","long":"127.53642097","imageIndex":17,"items":[{"name":"대양전기설비","tel":"031-774-3338","addr":"경기도 양평군 양평읍 대흥리 618-3번지","indutype":"전기제품 - 기타전기제품","category":"other"}]},{"lat":"37.491495858","long":"127.5330895","imageIndex":17,"items":[{"name":"동국철강","tel":"031-772-5204","addr":"경기도 양평군 양평읍 대흥리 685-3번지","indutype":"건축자재 - 기타건축자재","category":"other"}]},{"lat":"37.491305548","long":"127.54327609","imageIndex":17,"items":[{"name":"블리스앤코","tel":"070-7913-3657","addr":"경기도 양평군 양평읍 대흥리 307-10번지 삼흥농원 2동","indutype":"문화.취미 - 애완동물","category":"other"},{"name":"주식회사스튜디오얼라이브","tel":"031-788-7701","addr":"경기도 양평군 양평읍 대흥리 307-10번지","indutype":"문화.취미 - 애완동물","category":"other"}]},{"lat":"37.487107689","long":"127.5411428","imageIndex":17,"items":[{"name":"빵빵해요","tel":"031-775-3620","addr":"경기도 양평군 양평읍 대흥리 506-10번지","indutype":"문화.취미 - 문화취미기타","category":"other"}]},{"lat":"37.491666287","long":"127.5312476","imageIndex":17,"items":[{"name":"삼양우드","tel":"031-774-8031","addr":"경기도 양평군 양평읍 대흥리 711-6번지","indutype":"건축자재 - 목재·석재·철물","category":"other"},{"name":"양평삼양건재","tel":"031-773-5740","addr":"경기도 양평군 양평읍 대흥리 711-6번지","indutype":"건축자재 - 기타건축자재","category":"other"}]},{"lat":"37.490164426","long":"127.53664185","imageIndex":17,"items":[{"name":"수빈","tel":"031-775-0064","addr":"경기도 양평군 양평읍 대흥리 660-8번지","indutype":"주방용구 - 주방용구","category":"other"}]},{"lat":"37.486557591","long":"127.54125192","imageIndex":17,"items":[{"name":"순환보호작업장","tel":"031-774-3688","addr":"경기도 양평군 양평읍 대흥리 506-24번지","indutype":"신변잡화 - 기타잡화","category":"other"}]},{"lat":"37.488247262","long":"127.54216859","imageIndex":17,"items":[{"name":"양평관광협동조합","tel":"031-771-1001","addr":"경기도 양평군 양평읍 대흥리 505-3번지","indutype":"여행 - 관광여행","category":"other"}]},{"lat":"37.487027633","long":"127.54091609","imageIndex":17,"items":[{"name":"양평산업","tel":"031-775-0606","addr":"경기도 양평군 양평읍 대흥리 506-8번지","indutype":"건축자재 - 기타건축자재","category":"other"}]},{"lat":"37.48019251","long":"127.54609031","imageIndex":17,"items":[{"name":"오마쥬가든","tel":"031-775-4577","addr":"경기도 양평군 양평읍 대흥리 82-1번지","indutype":"문화.취미 - 민예·공예품","category":"other"}]},{"lat":"37.485688822","long":"127.544061","imageIndex":17,"items":[{"name":"우리산업","tel":"031-775-7866","addr":"경기도 양평군 양평읍 대흥리 136번지","indutype":"건축자재 - 기타건축자재","category":"other"}]},{"lat":"37.491220891","long":"127.54405568","imageIndex":17,"items":[{"name":"우성씽크","tel":"031-772-4496","addr":"경기도 양평군 양평읍 대흥리 307-5","indutype":"주방용구 - 주방용구","category":"other"}]},{"lat":"37.483918338","long":"127.5430872","imageIndex":17,"items":[{"name":"웅진벽난로","tel":"031-774-3344","addr":"경기도 양평군 양평읍 대흥리 574","indutype":"건축자재 - 인테리어전문","category":"other"}]},{"lat":"37.482252913","long":"127.54278126","imageIndex":17,"items":[{"name":"월드가구백화점","tel":"031-775-3938","addr":"경기도 양평군 양평읍 대흥리 589-4번지","indutype":"가구 - 일반가구","category":"other"}]},{"lat":"37.485362347","long":"127.54255489","imageIndex":17,"items":[{"name":"윤종건축","tel":"031-775-9553","addr":"경기도 양평군 양평읍 대흥리 560-1번지","indutype":"용역 서비스 - 기타용역서비스","category":"other"}]},{"lat":"37.488774655","long":"127.53714078","imageIndex":17,"items":[{"name":"자올","tel":"031-773-8335","addr":"경기도 양평군 양평읍 대흥리 637-12번지","indutype":"레져용품 - 스포츠·레져용품","category":"other"}]},{"lat":"37.482383766","long":"127.5437206","imageIndex":17,"items":[{"name":"정도가설재","tel":"031-775-2834","addr":"경기도 양평군 양평읍 대흥리 184-1번지","indutype":"건축자재 - 기타건축자재","category":"other"}]},{"lat":"37.482359375","long":"127.54314382","imageIndex":17,"items":[{"name":"주식회사 지에프엘","tel":"070-8872-1636","addr":"경기도 양평군 양평읍 대흥리 587-3번지 1층 104호","indutype":"서적문구 - 과학기자재","category":"other"}]},{"lat":"37.485085959","long":"127.54388706","imageIndex":17,"items":[{"name":"지산쇼파","tel":"031-774-0790","addr":"경기도 양평군 양평읍 대흥리 192-3","indutype":"수리서비스 - 기타수리서비스","category":"other"}]},{"lat":"37.492167766","long":"127.53394231","imageIndex":4,"items":[{"name":"개성집","tel":"031-771-9991","addr":"경기도 양평군 양평읍 대흥리 686-1번지","indutype":"일반휴게음식 - 일반한식","category":"restaurant"}]},{"lat":"37.491687742","long":"127.53047884","imageIndex":4,"items":[{"name":"동네갈비","tel":"031-773-8338","addr":"경기도 양평군 양평읍 대흥리 710-6번지 1-2층","indutype":"일반휴게음식 - 일반한식","category":"restaurant"}]},{"lat":"37.492055888","long":"127.53477827","imageIndex":4,"items":[{"name":"삿갓봉뽕잎해물칼국수","tel":"031-774-1259","addr":"경기도 양평군 양평읍 대흥리 677-2","indutype":"일반휴게음식 - 일반한식","category":"restaurant"}]},{"lat":"37.488247262","long":"127.54216859","imageIndex":4,"items":[{"name":"양평공사","tel":"031-770-4093","addr":"경기도 양평군 양평읍 대흥리 505-3번지","indutype":"일반휴게음식 - 서양음식","category":"restaurant"},{"name":"양평지방공사/양평시장점","tel":"031-770-4093","addr":"경기도 양평군 양평읍 대흥리 505-3번지","indutype":"일반휴게음식 - 스넥","category":"restaurant"}]},{"lat":"37.491827899","long":"127.53538726","imageIndex":4,"items":[{"name":"홍할머니곰탕","tel":"031-772-9905","addr":"경기도 양평군 양평읍 대흥리 676-2번지","indutype":"일반휴게음식 - 일반한식","category":"restaurant"}]},{"lat":"37.481944935","long":"127.54314083","imageIndex":4,"items":[{"name":"황골가든","tel":"031-774-1413","addr":"경기도 양평군 양평읍 대흥리 590-4번지","indutype":"일반휴게음식 - 일반한식","category":"restaurant"}]},{"lat":"37.491667854","long":"127.53089708","imageIndex":4,"items":[{"name":"황금코다리 양평점","tel":"031-775-6708","addr":"경기도 양평군 양평읍 대흥리 711-1번지","indutype":"일반휴게음식 - 일반한식","category":"restaurant"}]},{"lat":"37.483386361","long":"127.54317382","imageIndex":9,"items":[{"name":"대흥주유소","tel":"031-771-1876","addr":"경기도 양평군 양평읍 대흥리 578-3번지","indutype":"연료판매점 - GS주유소","category":"oil"}]},{"lat":"37.491028122","long":"127.53291658","imageIndex":9,"items":[{"name":"월드주유소","tel":"031-772-6776","addr":"경기도 양평군 양평읍 대흥리 650-8번지","indutype":"연료판매점 - 현대정유(오일뱅크)","category":"oil"}]},{"lat":"37.490444801","long":"127.53839647","imageIndex":0,"items":[{"name":"디케이(DK)모터스","tel":"031-773-4610","addr":"경기도 양평군 양평읍 대흥리 471-1번지","indutype":"자동차정비 유지 - 자동차정비","category":"car"}]},{"lat":"37.492054615","long":"127.53506095","imageIndex":0,"items":[{"name":"태양종합카","tel":"031-771-2480","addr":"경기도 양평군 양평읍 대흥리 677-8번지","indutype":"자동차정비 유지 - 자동차정비","category":"car"}]},{"lat":"37.485776897","long":"127.54450259","imageIndex":0,"items":[{"name":"합동상사","tel":"031-772-2552","addr":"경기도 양평군 양평읍 대흥리 135번지","indutype":"자동차정비 유지 - 자동차부품","category":"car"}]},{"lat":"37.488247262","long":"127.54216859","imageIndex":13,"items":[{"name":"물맑은양평볼링센터","tel":"031-770-4095","addr":"경기도 양평군 양평읍 대흥리 505-3번지","indutype":"레저업소 - 볼 링 장","category":"leisure"}]},{"lat":"37.488247262","long":"127.54216859","imageIndex":7,"items":[{"name":"양평공사","tel":"031-770-4093","addr":"경기도 양평군 양평읍 대흥리 505-3번지","indutype":"음료식품 - 농·축·수산품","category":"food"},{"name":"양평공사","tel":"031-770-4093","addr":"경기도 양평군 양평읍 대흥리 505-3번지 1층","indutype":"음료식품 - 농·축·수산품","category":"food"},{"name":"양평공사","tel":"031-770-4000","addr":"경기도 양평군 양평읍 대흥리 505-3번지","indutype":"음료식품 - 농·축·수산품","category":"food"},{"name":"양평공사","tel":"031-770-4093","addr":"경기도 양평군 양평읍 대흥리 505-3번지","indutype":"음료식품 - 농·축·수산품","category":"food"},{"name":"양평친환경로컬푸드협동조합","tel":"031-775-4093","addr":"경기도 양평군 양평읍 대흥리 505-3번지","indutype":"음료식품 - 농·축·수산품","category":"food"}]},{"lat":"37.488247262","long":"127.54216859","imageIndex":5,"items":[{"name":"양평공사","tel":"031-770-4023","addr":"경기도 양평군 양평읍 대흥리 505-3번지","indutype":"숙박업 - 여관/기타숙박업","category":"hotel"}]},{"lat":"37.491551438","long":"127.53675349","imageIndex":5,"items":[{"name":"첼로","tel":"031-772-2287","addr":"경기도 양평군 양평읍 대흥리 664-1번지","indutype":"숙박업 - 여관/기타숙박업","category":"hotel"},{"name":"첼로모텔","tel":"031-772-2287","addr":"경기도 양평군 양평읍 대흥리 664-1번지 , 664-9","indutype":"숙박업 - 여관/기타숙박업","category":"hotel"}]}]