[{"lat":"38.07899911","long":"127.0408352","imageIndex":4,"items":[{"name":"고바우식당","tel":"031-833-7447","addr":"경기도 연천군 군남면 진상리 1번지","indutype":"일반휴게음식 - 일반한식","category":"restaurant"},{"name":"오복식당","tel":"031-833-7546","addr":"경기도 연천군 군남면 진상리 1번지","indutype":"일반휴게음식 - 일반한식","category":"restaurant"}]},{"lat":"38.0584725","long":"127.0189819","imageIndex":4,"items":[{"name":"고향손두부","tel":"031-833-2057","addr":"경기도 연천군 군남면 진상리 666-10","indutype":"일반휴게음식 - 일반한식","category":"restaurant"}]},{"lat":"38.05783231","long":"127.0225937","imageIndex":4,"items":[{"name":"누리빈스","tel":"031-833-0065","addr":"경기도 연천군 군남면 진상리 643-5번지","indutype":"일반휴게음식 - 서양음식","category":"restaurant"}]},{"lat":"38.05785948","long":"127.0216708","imageIndex":4,"items":[{"name":"만리성","tel":"031-835-1846","addr":"경기도 연천군 군남면 진상리 633-8번지","indutype":"일반휴게음식 - 중국식","category":"restaurant"}]},{"lat":"38.05836437","long":"127.0191528","imageIndex":4,"items":[{"name":"뼈해장국 미자언니순대국 삼계탕","tel":"031-833-6935","addr":"경기도 연천군 군남면 진상리 666-11번지","indutype":"일반휴게음식 - 일반한식","category":"restaurant"}]},{"lat":"38.06255343","long":"127.0202362","imageIndex":4,"items":[{"name":"순아","tel":"031-835-0472","addr":"경기도 연천군 군남면 진상리 480-2","indutype":"일반휴게음식 - 일반한식","category":"restaurant"}]},{"lat":"38.05852643","long":"127.0198934","imageIndex":4,"items":[{"name":"장기선마카페","tel":"","addr":"경기도 연천군 군남면 진상리 636-1번지 1층 101호","indutype":"일반휴게음식 - 서양음식","category":"restaurant"}]},{"lat":"38.05800399","long":"127.0192325","imageIndex":4,"items":[{"name":"진상리막국수","tel":"031-833-7717","addr":"경기도 연천군 군남면 진상리 625-3번지","indutype":"일반휴게음식 - 일반한식","category":"restaurant"}]},{"lat":"38.05872481","long":"127.0185945","imageIndex":4,"items":[{"name":"진상맛국수","tel":"031-833-4217","addr":"경기도 연천군 군남면 진상리 666-4번지","indutype":"일반휴게음식 - 일반한식","category":"restaurant"}]},{"lat":"38.05795002","long":"127.0186513","imageIndex":4,"items":[{"name":"채원식당","tel":"031-833-7746","addr":"경기도 연천군 군남면 진상리 624-8번지","indutype":"일반휴게음식 - 일반한식","category":"restaurant"}]},{"lat":"38.0576436","long":"127.0194261","imageIndex":4,"items":[{"name":"페리카나(군남점)","tel":"031-833-3355","addr":"경기도 연천군 군남면 진상리 625-6번지","indutype":"일반휴게음식 - 스넥","category":"restaurant"}]},{"lat":"38.0681127","long":"127.0147904","imageIndex":4,"items":[{"name":"포크빌가든","tel":"031-833-5292","addr":"경기도 연천군 군남면 진상리 727-1번지","indutype":"일반휴게음식 - 일반한식","category":"restaurant"}]},{"lat":"38.05897712","long":"127.0181502","imageIndex":4,"items":[{"name":"풍년부페한중식","tel":"031-833-8815","addr":"경기도 연천군 군남면 진상리 666-16번지","indutype":"일반휴게음식 - 일반한식","category":"restaurant"}]},{"lat":"38.05788697","long":"127.0185374","imageIndex":4,"items":[{"name":"홍가네보쌈","tel":"031-833-6525","addr":"경기도 연천군 군남면 진상리 623-1","indutype":"일반휴게음식 - 일반한식","category":"restaurant"}]}]