[{"lat":"37.326920689","long":"126.84474214","imageIndex":8,"items":[{"name":"(의료)칠석의료재단","tel":"031-439-3000","addr":"경기도 안산시 상록구 성포동 593-4번지","indutype":"병원 - 병원","category":"medical"}]},{"lat":"37.320171348","long":"126.84421475","imageIndex":8,"items":[{"name":"(재)원불교원광한의원","tel":"031-401-6300","addr":"경기도 안산시 상록구 성포동 588-1번지 예일빌딩 2층","indutype":"의원 - 한의원","category":"medical"}]},{"lat":"37.326838736","long":"126.84409919","imageIndex":8,"items":[{"name":"경동메디칼약국","tel":"031-487-1688","addr":"경기도 안산시 상록구 성포동 593-11번지 경동 상가 208호","indutype":"약국 - 약국","category":"medical"},{"name":"고려한의원","tel":"031-410-0333","addr":"경기도 안산시 상록구 성포동 593-11번지","indutype":"의원 - 한의원","category":"medical"},{"name":"김경천안과의원","tel":"031-484-4665","addr":"경기도 안산시 상록구 성포동 593-11번지 경동 2층","indutype":"의원 - 의원","category":"medical"},{"name":"상아치과의원","tel":"031-405-1101","addr":"경기도 안산시 상록구 성포동 593-11번지 경동 상가 301호","indutype":"의원 - 치과의원","category":"medical"},{"name":"샘물약국","tel":"031-487-0265","addr":"경기도 안산시 상록구 성포동 593-11번지 ***연번지,9","indutype":"약국 - 약국","category":"medical"},{"name":"샘물약국","tel":"031-487-0265","addr":"경기도 안산시 상록구 성포동 593-11번지 경동 상가 109동 110호","indutype":"약국 - 약국","category":"medical"},{"name":"안산프라자약국","tel":"031-480-9379","addr":"경기도 안산시 상록구 성포동 593-11번지 경동 상가 114호","indutype":"약국 - 약국","category":"medical"},{"name":"이기영산부인과","tel":"031-486-8909","addr":"경기도 안산시 상록구 성포동 593-11번지","indutype":"의원 - 의원","category":"medical"},{"name":"홍기정이비인후과","tel":"031-487-2666","addr":"경기도 안산시 상록구 성포동 593-11번지 경동 상가 202호","indutype":"의원 - 의원","category":"medical"}]},{"lat":"37.3217295929","long":"126.8438278893","imageIndex":8,"items":[{"name":"경희강한의원","tel":"031-385-0282","addr":"경기도 안산시 상록구 성포동 583번지","indutype":"보건업 및 사회복지서비스업 - 한의원","category":"medical"},{"name":"샛별약국","tel":"031-416-3634","addr":"경기도 안산시 상록구 성포동 583번지","indutype":"도매 및 소매업 - 약국","category":"medical"},{"name":"스타프라자약국","tel":"031-405-1922","addr":"경기도 안산시 상록구 성포동 583번지","indutype":"도매 및 소매업 - 약국","category":"medical"}]},{"lat":"37.320783661","long":"126.84393142","imageIndex":8,"items":[{"name":"경희미소한의원","tel":"031-403-0715","addr":"경기도 안산시 상록구 성포동 583-5번지 예술프라자 2층 204호","indutype":"의원 - 한의원","category":"medical"},{"name":"굿치과","tel":"031-486-2755","addr":"경기도 안산시 상록구 성포동 583-5번지 예술인프라자 305호","indutype":"의원 - 치과의원","category":"medical"},{"name":"성포라성약국","tel":"031-480-1057","addr":"경기도 안산시 상록구 성포동 583-5번지 예술프라자 107호","indutype":"약국 - 약국","category":"medical"},{"name":"최응덕소아과","tel":"031-484-2039","addr":"경기도 안산시 상록구 성포동 583-5번지 예술프라자 302호","indutype":"의원 - 의원","category":"medical"},{"name":"해나무한의원","tel":"031-485-1073","addr":"경기도 안산시 상록구 성포동 583-5번지 예술프라자 301호","indutype":"의원 - 한의원","category":"medical"}]},{"lat":"37.3207836613","long":"126.8439314197","imageIndex":8,"items":[{"name":"경희미소한의원","tel":"031-403-0715","addr":"경기도 안산시 상록구 성포동 583-5번지","indutype":"보건업 및 사회복지서비스업 - 한의원","category":"medical"},{"name":"해나무한의원","tel":"031-485-1073","addr":"경기도 안산시 상록구 성포동 583-5번지","indutype":"보건업 및 사회복지서비스업 - 한의원","category":"medical"}]},{"lat":"37.326392069","long":"126.84698851","imageIndex":8,"items":[{"name":"고대영동물병원","tel":"031-413-8275","addr":"경기도 안산시 상록구 성포동 593-25번지 정인프라자 102호","indutype":"기타의료기관 - 동물병원","category":"medical"},{"name":"정영호치과의원","tel":"031-413-7582","addr":"경기도 안산시 상록구 성포동 593-25번지 301호","indutype":"의원 - 치과의원","category":"medical"}]},{"lat":"37.3268387363","long":"126.8440991905","imageIndex":8,"items":[{"name":"고려한의원","tel":"031-410-0333","addr":"경기도 안산시 상록구 성포동 593-11번지","indutype":"보건업 및 사회복지서비스업 - 한의원","category":"medical"}]},{"lat":"37.317115521","long":"126.85001978","imageIndex":8,"items":[{"name":"다솜의원","tel":"031-401-7815","addr":"경기도 안산시 상록구 성포동 586번지 홈플러스 2층","indutype":"의원 - 의원","category":"medical"}]},{"lat":"37.317337188","long":"126.84726668","imageIndex":8,"items":[{"name":"무지개연합의원","tel":"031-405-9011","addr":"경기도 안산시 상록구 성포동 590번지 3층 롯데마트안산점","indutype":"의원 - 의원","category":"medical"}]},{"lat":"37.321729593","long":"126.84382789","imageIndex":8,"items":[{"name":"샛별약국","tel":"031-485-7383","addr":"경기도 안산시 상록구 성포동 583번지 스타프라자 1층 21호","indutype":"약국 - 약국","category":"medical"},{"name":"손이비인후과의원","tel":"031-401-5458","addr":"경기도 안산시 상록구 성포동 583번지 스타프라자상가 3-5호","indutype":"의원 - 의원","category":"medical"},{"name":"스타소아청소년과의원","tel":"031-482-5312","addr":"경기도 안산시 상록구 성포동 583번지 스타프라자 3층 3호","indutype":"의원 - 의원","category":"medical"},{"name":"스타프라자약국","tel":"031-405-1922","addr":"경기도 안산시 상록구 성포동 583번지 스타프라자 3층 17호","indutype":"약국 - 약국","category":"medical"},{"name":"중앙안과의원","tel":"031-486-0123","addr":"경기도 안산시 상록구 성포동 583번지 스타프라자 301호","indutype":"의원 - 의원","category":"medical"},{"name":"프라자약국","tel":"031-482-8944","addr":"경기도 안산시 상록구 성포동 583번지 스타프라자 1층 5호","indutype":"약국 - 약국","category":"medical"}]},{"lat":"37.326667997","long":"126.84443803","imageIndex":8,"items":[{"name":"성포대한약국","tel":"031-481-8975","addr":"경기도 안산시 상록구 성포동 593-10번지 선경프라자 105,106호","indutype":"약국 - 약국","category":"medical"},{"name":"자연약국","tel":"031-401-0267","addr":"경기도 안산시 상록구 성포동 593-10번지 선경프라자 1층 108호,109호","indutype":"약국 - 약국","category":"medical"},{"name":"조병섭내과의원","tel":"031-411-5119","addr":"경기도 안산시 상록구 성포동 593-10번지 선경프라자 201호","indutype":"의원 - 의원","category":"medical"},{"name":"참조은치과의원","tel":"031-405-2873","addr":"경기도 안산시 상록구 성포동 593-10번지 선경프라자 4층 403호","indutype":"의원 - 치과의원","category":"medical"}]},{"lat":"37.3266679969","long":"126.8444380326","imageIndex":8,"items":[{"name":"성포대한약국","tel":"031-481-8975","addr":"경기도 안산시 상록구 성포동 593-10번지","indutype":"도매 및 소매업 - 약국","category":"medical"}]},{"lat":"37.320064041","long":"126.8448242","imageIndex":8,"items":[{"name":"연세내과의원","tel":"031-411-0090","addr":"경기도 안산시 상록구 성포동 588-2번지 주공4단지 상가 210호","indutype":"의원 - 의원","category":"medical"},{"name":"정약국","tel":"031-480-2852","addr":"경기도 안산시 상록구 성포동 588-2번지 103,104호","indutype":"약국 - 약국","category":"medical"}]},{"lat":"37.325612124","long":"126.84318788","imageIndex":8,"items":[{"name":"으뜸치과의원","tel":"031-487-2875","addr":"경기도 안산시 상록구 성포동 592 선경상가 306-7호","indutype":"의원 - 치과의원","category":"medical"}]},{"lat":"37.326615126","long":"126.84532948","imageIndex":8,"items":[{"name":"으뜸치과의원","tel":"031-487-2875","addr":"경기도 안산시 상록구 성포동 593-6번지 성포프라자 203호","indutype":"의원 - 치과의원","category":"medical"}]}]