[{"lat":"37.936661542","long":"127.22802305","imageIndex":0,"items":[{"name":"J 오일","tel":"031-533-3941","addr":"경기도 포천시 신북면 기지리 968-13번지","indutype":"자동차정비 유지 - 윤활유 전문 판매","category":"car"}]},{"lat":"37.930218506","long":"127.22402238","imageIndex":0,"items":[{"name":"대신자동차매매상사","tel":"031-533-2230","addr":"경기도 포천시 신북면 기지리 818-9","indutype":"자동차판매 - 중고자동차판매","category":"car"},{"name":"오렌지자동차","tel":"031-533-2008","addr":"경기도 포천시 신북면 기지리 818-9번지","indutype":"자동차판매 - 중고자동차판매","category":"car"},{"name":"주식회사 오렌지모터스","tel":"031-533-2008","addr":"경기도 포천시 신북면 기지리 818-9번지","indutype":"자동차판매 - 중고자동차판매","category":"car"},{"name":"케이제이모터스","tel":"031-542-5255","addr":"경기도 포천시 신북면 기지리 818-9번지","indutype":"자동차판매 - 중고자동차판매","category":"car"},{"name":"포천종합자동차매매상사","tel":"031-534-6116","addr":"경기도 포천시 신북면 기지리 818-9번지","indutype":"자동차판매 - 중고자동차판매","category":"car"}]},{"lat":"37.930163145","long":"127.22471605","imageIndex":0,"items":[{"name":"세종자동차정비","tel":"031-532-0206","addr":"경기도 포천시 신북면 기지리 841번지","indutype":"자동차정비 유지 - 자동차정비","category":"car"}]},{"lat":"37.934545056","long":"127.22766397","imageIndex":0,"items":[{"name":"신명모타","tel":"031-533-8771","addr":"경기도 포천시 신북면 기지리 966","indutype":"자동차정비 유지 - 자동차부품","category":"car"}]},{"lat":"37.935354774","long":"127.22349176","imageIndex":0,"items":[{"name":"평안정비","tel":"031-544-4244","addr":"경기도 포천시 신북면 기지리 947-1번지","indutype":"자동차정비 유지 - 자동차시트·타이어","category":"car"}]},{"lat":"37.927465412","long":"127.2220237","imageIndex":0,"items":[{"name":"현대자동차정비공업사","tel":"533-3164","addr":"경기도 포천시 신북면 기지리 801번지","indutype":"서비스 - 자동차 수리","category":"car"},{"name":"현대자동차정비공업사","tel":"031-533-5500","addr":"경기도 포천시 신북면 기지리 801번지","indutype":"자동차정비 유지 - 자동차정비","category":"car"}]}]