[{"lat":"37.682433759","long":"126.69783012","imageIndex":17,"items":[{"name":"(주) 케이우드빌","tel":"031-921-6012","addr":"경기도 고양시 일산서구 구산동 876번지","indutype":"","category":"other"},{"name":"(주) 케이우드빌","tel":"031-921-6012","addr":"경기도 고양시 일산서구 구산동 876번지","indutype":"건축자재 - 기타건축자재","category":"other"}]},{"lat":"37.694703617","long":"126.70085253","imageIndex":17,"items":[{"name":"(주)담쟁이마루","tel":"02-703-1204","addr":"경기도 고양시 일산서구 구산동 316-1번지","indutype":"","category":"other"},{"name":"담쟁이마루","tel":"031-915-1204","addr":"경기도 고양시 일산서구 구산동 316-1번지","indutype":"","category":"other"},{"name":"담쟁이마루","tel":"031-915-1204","addr":"경기도 고양시 일산서구 구산동 316-1번지","indutype":"가구 - 일반가구","category":"other"}]},{"lat":"37.694406303","long":"126.70085373","imageIndex":17,"items":[{"name":"(주)디자인아트","tel":"031-925-8325","addr":"경기도 고양시 일산서구 구산동 319-5번지","indutype":"","category":"other"},{"name":"(주)디자인아트","tel":"031-925-8325","addr":"경기도 고양시 일산서구 구산동 319-5번지","indutype":"용역 서비스 - 사무서비스","category":"other"},{"name":"훈기획","tel":"031-918-4003","addr":"경기도 고양시 일산서구 구산동 319-5번지","indutype":"건축자재 - 인테리어전문","category":"other"},{"name":"훈기획","tel":"031-918-4003","addr":"경기도 고양시 일산서구 구산동 319-5번지","indutype":"","category":"other"}]},{"lat":"37.693121911","long":"126.70241225","imageIndex":17,"items":[{"name":"(주)에어랩","tel":"070-4726-6800","addr":"경기도 고양시 일산서구 구산동 398-1번지","indutype":"","category":"other"},{"name":"스카이블루버드항공","tel":"070-4726-6800","addr":"경기도 고양시 일산서구 구산동 398-1번지","indutype":"","category":"other"},{"name":"스카이블루버드항공","tel":"070-4726-6800","addr":"경기도 고양시 일산서구 구산동 398-1번지","indutype":"전기제품 - 기타전기제품","category":"other"}]},{"lat":"37.691984138","long":"126.70140777","imageIndex":17,"items":[{"name":"(주)우리들골프","tel":"031-1522-2535","addr":"경기도 고양시 일산서구 구산동 448-3번지","indutype":"","category":"other"},{"name":"(주)우리들골프","tel":"031-1522-2535","addr":"경기도 고양시 일산서구 구산동 448-3번지","indutype":"레져용품 - 스포츠·레져용품","category":"other"},{"name":"한일산업기계/원격지","tel":"031-923-1700","addr":"경기도 고양시 일산서구 구산동 448-3번지","indutype":"","category":"other"},{"name":"황제시트","tel":"02-1588-4302","addr":"경기도 고양시 일산서구 구산동 448-3번지","indutype":"","category":"other"}]},{"lat":"37.690372536","long":"126.71262719","imageIndex":17,"items":[{"name":"(주)유원통상","tel":"031-942-0977","addr":"경기도 고양시 일산서구 구산동 26-3번지","indutype":"","category":"other"},{"name":"(주)유원통상/신세계구매","tel":"031-921-6949","addr":"경기도 고양시 일산서구 구산동 26-3번지","indutype":"기타 - 기타 전문점","category":"other"},{"name":"(주)유원통상/신세계구매","tel":"031-921-6949","addr":"경기도 고양시 일산서구 구산동 26-3번지","indutype":"","category":"other"},{"name":"누리스포츠","tel":"031-921-0550","addr":"경기도 고양시 일산서구 구산동 26-3번지","indutype":"","category":"other"}]},{"lat":"37.692487237","long":"126.68374125","imageIndex":17,"items":[{"name":"(주)유한테크","tel":"02-572-0750","addr":"경기도 고양시 일산서구 구산동 1322-4번지","indutype":"","category":"other"},{"name":"(주)유한테크","tel":"02-572-0750","addr":"경기도 고양시 일산서구 구산동 1322-4번지","indutype":"사무통신 - 통신기기","category":"other"}]},{"lat":"37.683405161","long":"126.70069429","imageIndex":17,"items":[{"name":"(주)유현","tel":"070-4312-3781","addr":"경기도 고양시 일산서구 구산동 580-1번지","indutype":"","category":"other"},{"name":"아이토빅","tel":"031-923-8808","addr":"경기도 고양시 일산서구 구산동 580-1번지","indutype":"서적문구 - 문구용품","category":"other"},{"name":"아이토빅","tel":"031-923-8808","addr":"경기도 고양시 일산서구 구산동 580-1번지","indutype":"","category":"other"}]},{"lat":"37.695318925","long":"126.70544207","imageIndex":17,"items":[{"name":"(주)지와이피셔리스(GY fisheries.Co.,Ltd.","tel":"031-921-8081","addr":"경기도 고양시 일산서구 구산동 355-1번지","indutype":"","category":"other"}]},{"lat":"37.672706886","long":"126.69571631","imageIndex":17,"items":[{"name":"(주)태경스카이","tel":"070-8867-7662","addr":"경기도 고양시 일산서구 구산동 1936-4번지","indutype":"","category":"other"},{"name":"바자회","tel":"031-3453-9348","addr":"경기도 고양시 일산서구 구산동 1936-4번지","indutype":"신변잡화 - 기타잡화","category":"other"},{"name":"바자회","tel":"031-3453-9348","addr":"경기도 고양시 일산서구 구산동 1936-4번지","indutype":"","category":"other"}]},{"lat":"37.693044428","long":"126.70382982","imageIndex":17,"items":[{"name":"(주)페루인터내셔날트레이딩","tel":"031-905-4411","addr":"경기도 고양시 일산서구 구산동 380-15번지","indutype":"","category":"other"}]},{"lat":"37.693149777","long":"126.70274094","imageIndex":17,"items":[{"name":"(주)한성제너럴","tel":"02-752-3555","addr":"경기도 고양시 일산서구 구산동 401-1번지","indutype":"","category":"other"},{"name":"(주)한성제너럴","tel":"02-752-3555","addr":"경기도 고양시 일산서구 구산동 401-1번지","indutype":"기타의료기관 - 기타의료기관 및 기타","category":"other"}]},{"lat":"37.682074372","long":"126.6947481","imageIndex":17,"items":[{"name":"BBcustom","tel":"031-922-7304","addr":"경기도 고양시 일산서구 구산동 870번지","indutype":"","category":"other"},{"name":"숯불향고기마당","tel":"031-925-5989","addr":"경기도 고양시 일산서구 구산동 870번지","indutype":"","category":"other"},{"name":"시골마당","tel":"031-925-5989","addr":"경기도 고양시 일산서구 구산동 870번지","indutype":"","category":"other"},{"name":"여울","tel":"031-923-0058","addr":"경기도 고양시 일산서구 구산동 870번지","indutype":"","category":"other"}]},{"lat":"37.694984085","long":"126.70485381","imageIndex":17,"items":[{"name":"Car TS","tel":"031-925-5382","addr":"경기도 고양시 일산서구 구산동 364-4번지","indutype":"","category":"other"},{"name":"카티에스(Car TS)","tel":"031-925-5382","addr":"경기도 고양시 일산서구 구산동 364-4번지","indutype":"","category":"other"},{"name":"카티에스(Car TS)","tel":"031-925-5382","addr":"경기도 고양시 일산서구 구산동 364-4번지","indutype":"","category":"other"}]},{"lat":"37.682735543","long":"126.68252469","imageIndex":17,"items":[{"name":"Design Sens","tel":"070-4078-1007","addr":"경기도 고양시 일산서구 구산동 1525-8번지","indutype":"","category":"other"}]},{"lat":"37.68670952","long":"126.692915","imageIndex":17,"items":[{"name":"GK전자","tel":"","addr":"경기도 고양시 일산서구 구산동 736-2번지","indutype":"전기제품 - 기타전기제품","category":"other"},{"name":"우성상회","tel":"031-911-2687","addr":"경기도 고양시 일산서구 구산동 736-2번지","indutype":"","category":"other"}]},{"lat":"37.694045059","long":"126.70405256","imageIndex":17,"items":[{"name":"GS25일산구산점","tel":"","addr":"경기도 고양시 일산서구 구산동 370번지","indutype":"","category":"other"},{"name":"GS25일산구산점","tel":"","addr":"경기도 고양시 일산서구 구산동 370번지","indutype":"","category":"other"},{"name":"GS25일산구산점","tel":"","addr":"경기도 고양시 일산서구 구산동","indutype":"유통업 영리 - 편 의 점","category":"other"},{"name":"미니스톱일산구산점","tel":"031-426-3992","addr":"경기도 고양시 일산서구 구산동 370번지","indutype":"","category":"other"}]},{"lat":"37.69554382","long":"126.70530511","imageIndex":17,"items":[{"name":"HN타이어","tel":"031-968-5898","addr":"경기도 고양시 일산서구 구산동 354번지","indutype":"","category":"other"},{"name":"HN타이어","tel":"031-968-5898","addr":"경기도 고양시 일산서구 구산동 354번지","indutype":"","category":"other"}]},{"lat":"37.683156922","long":"126.70227107","imageIndex":17,"items":[{"name":"K 할인마트","tel":"031-922-7977","addr":"경기도 고양시 일산서구 구산동 1133번지","indutype":"","category":"other"},{"name":"백암토종순대국","tel":"031-923-7199","addr":"경기도 고양시 일산서구 구산동 1133번지","indutype":"","category":"other"},{"name":"소문난갈비집","tel":"031-923-3392","addr":"경기도 고양시 일산서구 구산동 1133번지","indutype":"","category":"other"},{"name":"오늘은면발땡기는날","tel":"031-912-8666","addr":"경기도 고양시 일산서구 구산동 1133번지","indutype":"","category":"other"}]},{"lat":"37.695682113","long":"126.70299152","imageIndex":17,"items":[{"name":"KOOPJA","tel":"070-7561-4504","addr":"경기도 고양시 일산서구 구산동 336번지","indutype":"","category":"other"},{"name":"대종테크","tel":"031-922-0671","addr":"경기도 고양시 일산서구 구산동 336번지","indutype":"","category":"other"}]},{"lat":"37.683460641","long":"126.70124955","imageIndex":17,"items":[{"name":"KOREA LIMOUSINE(코리아리모엔터프라이즈)","tel":"031-925-0666","addr":"경기도 고양시 일산서구 구산동 582-12번지","indutype":"","category":"other"},{"name":"코리아리무진(Korea limo)","tel":"031-925-0666","addr":"경기도 고양시 일산서구 구산동 582-12번지","indutype":"","category":"other"}]},{"lat":"37.691092978","long":"126.7017175","imageIndex":17,"items":[{"name":"MOGI","tel":"070-7566-6091","addr":"경기도 고양시 일산서구 구산동 455-6번지","indutype":"","category":"other"},{"name":"MOGI ART(모기아트)","tel":"","addr":"경기도 고양시 일산서구 구산동 455-6번지","indutype":"용역 서비스 - 소프트웨어","category":"other"},{"name":"MOGI ART(모기아트)","tel":"","addr":"경기도 고양시 일산서구 구산동 455-6번지","indutype":"","category":"other"},{"name":"제우스팩","tel":"02-2275-1601","addr":"경기도 고양시 일산서구 구산동 455-6번지","indutype":"","category":"other"},{"name":"제우스팩","tel":"02-2275-1601","addr":"경기도 고양시 일산서구 구산동 455-6번지","indutype":"기타 - 기타 전문점","category":"other"}]},{"lat":"37.694684235","long":"126.7110457","imageIndex":17,"items":[{"name":"MR타이어","tel":"070-8263-4864","addr":"경기도 고양시 일산서구 구산동 196-11번지","indutype":"","category":"other"},{"name":"제인앤스틸","tel":"031-923-5557","addr":"경기도 고양시 일산서구 구산동 196-11번지","indutype":"","category":"other"},{"name":"제인앤스틸","tel":"031-923-5557","addr":"경기도 고양시 일산서구 구산동 196-11번지","indutype":"건축자재 - 기타건축자재","category":"other"},{"name":"차사랑방음","tel":"031-914-8392","addr":"경기도 고양시 일산서구 구산동 196-11번지","indutype":"","category":"other"}]},{"lat":"37.693487482","long":"126.71166265","imageIndex":17,"items":[{"name":"P.G.S","tel":"031-923-3538","addr":"경기도 고양시 일산서구 구산동 9-4번지","indutype":"신변잡화 - 기타잡화","category":"other"}]},{"lat":"37.693678157","long":"126.70149162","imageIndex":17,"items":[{"name":"가람ILC","tel":"031-921-0602","addr":"경기도 고양시 일산서구 구산동 420-7번지","indutype":"사무통신 - 컴퓨터","category":"other"},{"name":"가람ILC","tel":"031-921-0602","addr":"경기도 고양시 일산서구 구산동 420-7번지","indutype":"","category":"other"}]},{"lat":"37.682573063","long":"126.70296494","imageIndex":17,"items":[{"name":"가마고개","tel":"031-923-9472","addr":"경기도 고양시 일산서구 구산동 1163-5번지","indutype":"","category":"other"}]},{"lat":"37.694513755","long":"126.71132983","imageIndex":17,"items":[{"name":"가좌전기","tel":"031-923-7703","addr":"경기도 고양시 일산서구 구산동 196번지","indutype":"","category":"other"},{"name":"가좌전기","tel":"031-923-7703","addr":"경기도 고양시 일산서구 구산동 196번지","indutype":"용역 서비스 - 기타용역서비스","category":"other"},{"name":"글로벌화물퀵물류서비스","tel":"031-923-8787","addr":"경기도 고양시 일산서구 구산동 196번지","indutype":"","category":"other"},{"name":"하얀건축디자인","tel":"031-922-0822","addr":"경기도 고양시 일산서구 구산동 196번지","indutype":"건축자재 - 인테리어전문","category":"other"}]},{"lat":"37.663909374","long":"126.83764915","imageIndex":17,"items":[{"name":"각시공방","tel":"031-64-0938","addr":"경기도 고양시 일산서구 구산동","indutype":"문화.취미 - 민예·공예품","category":"other"}]},{"lat":"37.694289636","long":"126.70457314","imageIndex":17,"items":[{"name":"강남태양열","tel":"031-964-8787","addr":"경기도 고양시 일산서구 구산동 366-1번지","indutype":"","category":"other"},{"name":"강남태양열","tel":"031-964-8787","addr":"경기도 고양시 일산서구 구산동 366-1번지","indutype":"건축자재 - 보일러·펌프·샷시","category":"other"},{"name":"쌍돼지민물매운탕","tel":"031-923-1871","addr":"경기도 고양시 일산서구 구산동 366-1번지","indutype":"","category":"other"}]},{"lat":"37.682095695","long":"126.69949794","imageIndex":17,"items":[{"name":"경방종합유통","tel":"031-925-8925","addr":"경기도 고양시 일산서구 구산동 627-2번지","indutype":"","category":"other"}]},{"lat":"37.68296061","long":"126.69949442","imageIndex":17,"items":[{"name":"고양시구산동장애인직업재활원","tel":"031-811-8088","addr":"경기도 고양시 일산서구 구산동 627-15번지","indutype":"","category":"other"},{"name":"고양시구산동장애인직업재활원","tel":"031-811-8088","addr":"경기도 고양시 일산서구 구산동 627-15번지","indutype":"사무통신 - 컴퓨터","category":"other"}]},{"lat":"37.68276056","long":"126.70229534","imageIndex":17,"items":[{"name":"고향부페","tel":"031-923-9700","addr":"경기도 고양시 일산서구 구산동 576-3번지","indutype":"","category":"other"},{"name":"고향부페","tel":"031-923-9700","addr":"경기도 고양시 일산서구 구산동 576-3번지","indutype":"","category":"other"},{"name":"구산생고기김치찌개","tel":"","addr":"경기도 고양시 일산서구 구산동 576-3번지","indutype":"","category":"other"},{"name":"아우내순대국","tel":"031-923-8878","addr":"경기도 고양시 일산서구 구산동 576-3번지","indutype":"","category":"other"},{"name":"제일만두","tel":"031-921-0508","addr":"경기도 고양시 일산서구 구산동 576-3번지","indutype":"","category":"other"},{"name":"지엔에스","tel":"031-921-1700","addr":"경기도 고양시 일산서구 구산동 576-3번지","indutype":"용역 서비스 - 기타용역서비스","category":"other"},{"name":"지엔에스","tel":"031-921-1700","addr":"경기도 고양시 일산서구 구산동 576-3번지","indutype":"","category":"other"}]},{"lat":"37.690065738","long":"126.71243565","imageIndex":17,"items":[{"name":"광동제약(주)","tel":"031-923-8687","addr":"경기도 고양시 일산서구 구산동 26-4번지","indutype":"","category":"other"}]},{"lat":"37.695044082","long":"126.71082887","imageIndex":17,"items":[{"name":"구산 떡 방앗간","tel":"031-923-7750","addr":"경기도 고양시 일산서구 구산동 242-2번지","indutype":"","category":"other"}]},{"lat":"37.694263196","long":"126.71202244","imageIndex":17,"items":[{"name":"구산건재","tel":"031-922-9394","addr":"경기도 고양시 일산서구 구산동 10-13번지","indutype":"","category":"other"},{"name":"구산건재","tel":"031-922-9394","addr":"경기도 고양시 일산서구 구산동 10-13번지","indutype":"건축자재 - 기타건축자재","category":"other"}]},{"lat":"37.68365798","long":"126.70090865","imageIndex":17,"items":[{"name":"구산자동차공업사","tel":"031-975-3154","addr":"경기도 고양시 일산서구 구산동 582-6번지","indutype":"","category":"other"}]},{"lat":"37.682517245","long":"126.70227365","imageIndex":17,"items":[{"name":"구산점현대자동차","tel":"031-923-9669","addr":"경기도 고양시 일산서구 구산동 602-5,664-3,1163-1","indutype":"","category":"other"},{"name":"코크핏(COCKPIT)","tel":"070-7757-1001","addr":"경기도 고양시 일산서구 구산동 602-5번지","indutype":"","category":"other"}]},{"lat":"37.682539787","long":"126.70405337","imageIndex":17,"items":[{"name":"구산정청국장집","tel":"031-923-2535","addr":"경기도 고양시 일산서구 구산동 1162-16번지","indutype":"","category":"other"}]},{"lat":"37.698845506","long":"126.71057584","imageIndex":17,"items":[{"name":"구산테크","tel":"070-4045-8310","addr":"경기도 고양시 일산서구 구산동 259-1번지","indutype":"전기제품 - 가전제품","category":"other"},{"name":"구산테크","tel":"070-4045-8310","addr":"경기도 고양시 일산서구 구산동 259-1번지","indutype":"","category":"other"}]},{"lat":"37.696933513","long":"126.70618396","imageIndex":17,"items":[{"name":"굿모닝로즈보존화기술 영농조합법인","tel":"031-924-0475","addr":"경기도 고양시 일산서구 구산동 291-1번지","indutype":"","category":"other"},{"name":"굿모닝로즈보존화기술 영농조합법인","tel":"031-924-0475","addr":"경기도 고양시 일산서구 구산동 291-1번지","indutype":"문화.취미 - 화원","category":"other"}]},{"lat":"37.689462129","long":"126.68452516","imageIndex":17,"items":[{"name":"그린테크","tel":"","addr":"경기도 고양시 일산서구 구산동 1378번지","indutype":"","category":"other"}]},{"lat":"37.682680439","long":"126.68213949","imageIndex":17,"items":[{"name":"금성나이프연마사","tel":"031-905-0519","addr":"경기도 고양시 일산서구 구산동 1526-2번지","indutype":"용역 서비스 - 기타용역서비스","category":"other"},{"name":"금성나이프연마사","tel":"031-905-0519","addr":"경기도 고양시 일산서구 구산동 1526-2번지","indutype":"","category":"other"},{"name":"범아산업","tel":"031-912-0980","addr":"경기도 고양시 일산서구 구산동 1526-2번지","indutype":"전기제품 - 냉열기기","category":"other"},{"name":"오영F&F","tel":"031-976-5093","addr":"경기도 고양시 일산서구 구산동 1526-2번지","indutype":"","category":"other"}]},{"lat":"37.681788888","long":"126.70283207","imageIndex":17,"items":[{"name":"까사디바니","tel":"031-923-5330","addr":"경기도 고양시 일산서구 구산동 1167번지","indutype":"가구 - 일반가구","category":"other"},{"name":"까사디바니","tel":"031-923-5330","addr":"경기도 고양시 일산서구 구산동 1167번지","indutype":"","category":"other"}]},{"lat":"37.684260764","long":"126.68682606","imageIndex":17,"items":[{"name":"꼼지네옥탑방작업실","tel":"","addr":"경기도 고양시 일산서구 구산동 1555-2번지","indutype":"","category":"other"},{"name":"꼼지네옥탑방작업실","tel":"00-0000-0000","addr":"경기도 고양시 일산서구 구산동 1555-2번지","indutype":"가구 - 일반가구","category":"other"}]},{"lat":"37.684015883","long":"126.70346928","imageIndex":17,"items":[{"name":"뀨규몰","tel":"031-923-3754","addr":"경기도 고양시 일산서구 구산동 1126-2번지","indutype":"","category":"other"},{"name":"뀨규몰","tel":"031-923-3754","addr":"경기도 고양시 일산서구 구산동 1126-2번지","indutype":"유통업 영리 - 기타유통업","category":"other"}]},{"lat":"37.677595002","long":"126.70110326","imageIndex":17,"items":[{"name":"노루뫼농장","tel":"070-7787-0571","addr":"경기도 고양시 일산서구 구산동 1255번지","indutype":"","category":"other"}]},{"lat":"37.684213014","long":"126.70660875","imageIndex":17,"items":[{"name":"농업회사법인 덕강 주식회사","tel":"031-923-2888","addr":"경기도 고양시 일산서구 구산동 1118번지","indutype":"","category":"other"}]},{"lat":"37.687732255","long":"126.70166307","imageIndex":17,"items":[{"name":"농업회사법인 황금귀뚤이 주식회사","tel":"","addr":"경기도 고양시 일산서구 구산동 904번지","indutype":"","category":"other"},{"name":"황금귀뚜라미농장","tel":"","addr":"경기도 고양시 일산서구 구산동 904번지","indutype":"","category":"other"}]},{"lat":"37.682795493","long":"126.70541272","imageIndex":17,"items":[{"name":"다다모터스","tel":"031-905-0851","addr":"경기도 고양시 일산서구 구산동 1139-3번지","indutype":"","category":"other"}]},{"lat":"37.695762847","long":"126.7064154","imageIndex":17,"items":[{"name":"다다종합상사","tel":"","addr":"경기도 고양시 일산서구 구산동 227-2번지","indutype":"기타 - 기계공구","category":"other"}]},{"lat":"37.68076627","long":"126.70105641","imageIndex":17,"items":[{"name":"다미상사주식회사","tel":"031-927-2200","addr":"경기도 고양시 일산서구 구산동 1194번지","indutype":"신변잡화 - 기타잡화","category":"other"}]},{"lat":"37.682574474","long":"126.70352042","imageIndex":17,"items":[{"name":"다솜미용실","tel":"031-923-0421","addr":"경기도 고양시 일산서구 구산동 1162-3번지","indutype":"","category":"other"}]},{"lat":"37.697792235","long":"126.70730308","imageIndex":17,"items":[{"name":"다스 플러스(DASS PLUS)","tel":"031-911-6104","addr":"경기도 고양시 일산서구 구산동 285-1번지","indutype":"광학제품 - 사진관","category":"other"},{"name":"다스 플러스(DASS PLUS)","tel":"031-911-6104","addr":"경기도 고양시 일산서구 구산동 285-1번지","indutype":"","category":"other"},{"name":"에그리코리아주식회사","tel":"031-922-0660","addr":"경기도 고양시 일산서구 구산동 285-1번지","indutype":"","category":"other"}]},{"lat":"37.694343583","long":"126.71173867","imageIndex":17,"items":[{"name":"대복반점","tel":"031-923-2727","addr":"경기도 고양시 일산서구 구산동 9-2번지","indutype":"","category":"other"},{"name":"대복반점","tel":"031-923-6472","addr":"경기도 고양시 일산서구 구산동 9-2번지","indutype":"","category":"other"},{"name":"전주가정식부페식당","tel":"031-914-8866","addr":"경기도 고양시 일산서구 구산동 9-2번지","indutype":"","category":"other"},{"name":"전주가정식부페식당","tel":"031-914-8866","addr":"경기도 고양시 일산서구 구산동 9-2번지","indutype":"","category":"other"},{"name":"전주식당","tel":"031-914-8866","addr":"경기도 고양시 일산서구 구산동 9-2번지","indutype":"","category":"other"}]},{"lat":"37.691708169","long":"126.70271274","imageIndex":17,"items":[{"name":"대상유통","tel":"031-923-0258","addr":"경기도 고양시 일산서구 구산동 919-5번지","indutype":"","category":"other"}]},{"lat":"37.680573489","long":"126.68932432","imageIndex":17,"items":[{"name":"대정기계","tel":"031-923-5833","addr":"경기도 고양시 일산서구 구산동 1692-1번지","indutype":"기타 - 기계공구","category":"other"},{"name":"대정기계","tel":"031-923-5833","addr":"경기도 고양시 일산서구 구산동 1692-1번지","indutype":"","category":"other"}]},{"lat":"37.694486668","long":"126.70410748","imageIndex":17,"items":[{"name":"더 트리톤 구산점","tel":"070-4151-7272","addr":"경기도 고양시 일산서구 구산동 366-5번지","indutype":"","category":"other"},{"name":"엘이디라인","tel":"031-923-1108","addr":"경기도 고양시 일산서구 구산동 366-5번지","indutype":"","category":"other"},{"name":"엘이디라인","tel":"031-923-1108","addr":"경기도 고양시 일산서구 구산동 366-5번지","indutype":"건축자재 - 조명기구","category":"other"}]},{"lat":"37.68309449","long":"126.70252072","imageIndex":17,"items":[{"name":"덕이네백반김치찜전문점","tel":"031-922-8722","addr":"경기도 고양시 일산서구 구산동 1133-18번지","indutype":"","category":"other"}]},{"lat":"37.694459008","long":"126.70385815","imageIndex":17,"items":[{"name":"도경브라인드","tel":"02-843-3116","addr":"경기도 고양시 일산서구 구산동 361-4번지","indutype":"","category":"other"},{"name":"도경브라인드","tel":"02-843-3116","addr":"경기도 고양시 일산서구 구산동 361-4번지","indutype":"건축자재 - 인테리어전문","category":"other"}]},{"lat":"37.693795596","long":"126.71238709","imageIndex":17,"items":[{"name":"동명물류기계","tel":"031-925-1578","addr":"경기도 고양시 일산서구 구산동","indutype":"기타 - 기계공구","category":"other"},{"name":"동명물류기계","tel":"031-925-1578","addr":"경기도 고양시 일산서구 구산동 10-3번지","indutype":"","category":"other"}]},{"lat":"37.697877967","long":"126.70916229","imageIndex":17,"items":[{"name":"동양특수","tel":"","addr":"경기도 고양시 일산서구 구산동 271-5번지","indutype":"사무통신 - 기타 사무용품","category":"other"},{"name":"동양특수","tel":"","addr":"경기도 고양시 일산서구 구산동 271-5번지","indutype":"","category":"other"}]},{"lat":"37.694732994","long":"126.70177081","imageIndex":17,"items":[{"name":"동진종합물류","tel":"031-947-2383","addr":"경기도 고양시 일산서구 구산동 322-2번지","indutype":"","category":"other"}]},{"lat":"37.680932608","long":"126.70268814","imageIndex":17,"items":[{"name":"동진칠판교구","tel":"031-918-7804","addr":"경기도 고양시 일산서구 구산동 625-11번지","indutype":"","category":"other"}]},{"lat":"37.683096847","long":"126.68286323","imageIndex":17,"items":[{"name":"두경","tel":"031-921-9980","addr":"경기도 고양시 일산서구 구산동 1522번지","indutype":"","category":"other"},{"name":"두경","tel":"031-921-9980","addr":"경기도 고양시 일산서구 구산동 1522번지","indutype":"가구 - 일반가구","category":"other"}]},{"lat":"37.694542212","long":"126.71190797","imageIndex":17,"items":[{"name":"두레","tel":"031-925-8460","addr":"경기도 고양시 일산서구 구산동 10-10번지","indutype":"유통업 영리 - 기타유통업","category":"other"},{"name":"두레","tel":"031-925-8460","addr":"경기도 고양시 일산서구 구산동 10-10번지","indutype":"","category":"other"}]},{"lat":"37.696292095","long":"126.70549487","imageIndex":17,"items":[{"name":"두레수산","tel":"031-921-4825","addr":"경기도 고양시 일산서구 구산동 296-1번지","indutype":"","category":"other"},{"name":"두레수산","tel":"031-921-4825","addr":"경기도 고양시 일산서구 구산동 296-1번지","indutype":"","category":"other"}]},{"lat":"37.682849759","long":"126.70194355","imageIndex":17,"items":[{"name":"디자인카","tel":"031-1599-0791","addr":"경기도 고양시 일산서구 구산동 574-1번지","indutype":"","category":"other"},{"name":"샤이닝","tel":"031-901-3256","addr":"경기도 고양시 일산서구 구산동 574-1번지","indutype":"","category":"other"},{"name":"아이러브 컴퍼니","tel":"02-1599-0791","addr":"경기도 고양시 일산서구 구산동 574-1번지","indutype":"","category":"other"},{"name":"한솔카크리닉","tel":"031-923-9880","addr":"경기도 고양시 일산서구 구산동 574-1번지","indutype":"","category":"other"}]},{"lat":"37.693461478","long":"126.70485991","imageIndex":17,"items":[{"name":"디지털O.A","tel":"031-943-9339","addr":"경기도 고양시 일산서구 구산동 372-5","indutype":"","category":"other"},{"name":"디지털O.A","tel":"031-943-9339","addr":"경기도 고양시 일산서구 구산동","indutype":"사무통신 - 사무용 OA기기","category":"other"}]},{"lat":"37.693594296","long":"126.70394099","imageIndex":17,"items":[{"name":"똑순네국수","tel":"031-921-5426","addr":"경기도 고양시 일산서구 구산동 374-1번지","indutype":"","category":"other"}]},{"lat":"37.692570132","long":"126.70155279","imageIndex":17,"items":[{"name":"라이브넷","tel":"02-522-7747","addr":"경기도 고양시 일산서구 구산동 389번지","indutype":"사무통신 - 사무용 OA기기","category":"other"},{"name":"라이브넷","tel":"02-522-7747","addr":"경기도 고양시 일산서구 구산동 389번지","indutype":"","category":"other"}]},{"lat":"37.682987407","long":"126.68907609","imageIndex":17,"items":[{"name":"란플라워","tel":"031-916-6841","addr":"경기도 고양시 일산서구 구산동 1630번지","indutype":"","category":"other"}]},{"lat":"37.698349786","long":"126.71049841","imageIndex":17,"items":[{"name":"레전드","tel":"031-922-3009","addr":"경기도 고양시 일산서구 구산동 259-6번지","indutype":"건축자재 - 기타건축자재","category":"other"},{"name":"인하에어컨","tel":"02-1666-8224","addr":"경기도 고양시 일산서구 구산동 259-6번지 2동","indutype":"","category":"other"},{"name":"인하에어컨","tel":"02-1666-8224","addr":"경기도 고양시 일산서구 구산동 259-6번지","indutype":"수리서비스 - 가정용품수리","category":"other"}]},{"lat":"37.697432248","long":"126.71108029","imageIndex":17,"items":[{"name":"로봇코리아","tel":"031-234-5801","addr":"경기도 고양시 일산서구 구산동 251-27번지","indutype":"","category":"other"},{"name":"비케이비(BKB)","tel":"031-921-4936","addr":"경기도 고양시 일산서구 구산동 251-27번지","indutype":"","category":"other"},{"name":"제이엔에스 (J&S)","tel":"031-911-3350","addr":"경기도 고양시 일산서구 구산동 251-27번지","indutype":"기타 - 기계공구","category":"other"},{"name":"제이엔에스 (J&S)","tel":"031-911-3350","addr":"경기도 고양시 일산서구 구산동 251-27번지","indutype":"","category":"other"}]},{"lat":"37.69528972","long":"126.70458047","imageIndex":17,"items":[{"name":"로빈즈홈갤러리","tel":"070-7786-5112","addr":"경기도 고양시 일산서구 구산동 355-2번지","indutype":"","category":"other"}]},{"lat":"37.693177145","long":"126.70643703","imageIndex":17,"items":[{"name":"루헨쇼파&수입매트리스.식탁(일산파주점)","tel":"031-921-3670","addr":"경기도 고양시 일산서구 구산동 182-3번지","indutype":"가구 - 일반가구","category":"other"}]},{"lat":"37.694261574","long":"126.70416507","imageIndex":17,"items":[{"name":"마린팩토리","tel":"070-8805-0846","addr":"경기도 고양시 일산서구 구산동 366-3번지","indutype":"","category":"other"},{"name":"티고전자 주식회사","tel":"031-921-2261","addr":"경기도 고양시 일산서구 구산동 366-3번지","indutype":"","category":"other"}]},{"lat":"37.682297076","long":"126.70426974","imageIndex":17,"items":[{"name":"마음푸드","tel":"031-923-5806","addr":"경기도 고양시 일산서구 구산동 1161번지","indutype":"","category":"other"},{"name":"송가식품","tel":"031-923-5806","addr":"경기도 고양시 일산서구 구산동 1161번지","indutype":"문화.취미 - 화원","category":"other"},{"name":"송가식품","tel":"031-923-5806","addr":"경기도 고양시 일산서구 구산동 1161번지","indutype":"","category":"other"}]},{"lat":"37.694961478","long":"126.71021692","imageIndex":17,"items":[{"name":"맛샘식당","tel":"031-923-2355","addr":"경기도 고양시 일산서구 구산동 240-3번지","indutype":"","category":"other"},{"name":"미림식당","tel":"031-923-0025","addr":"경기도 고양시 일산서구 구산동 240-3번지","indutype":"","category":"other"},{"name":"조은슈퍼","tel":"031-923-4010","addr":"경기도 고양시 일산서구 구산동 240-3.1","indutype":"","category":"other"}]},{"lat":"37.683375896","long":"126.68277134","imageIndex":17,"items":[{"name":"먹고보자","tel":"031-923-3339","addr":"경기도 고양시 일산서구 구산동 1522-1번지","indutype":"","category":"other"}]},{"lat":"37.685764471","long":"126.68649091","imageIndex":17,"items":[{"name":"멕시칼리","tel":"","addr":"경기도 고양시 일산서구 구산동 1492-1번지","indutype":"","category":"other"},{"name":"멕시칼리(MEXICALI)","tel":"","addr":"경기도 고양시 일산서구 구산동 1492-1번지","indutype":"","category":"other"}]},{"lat":"37.697766115","long":"126.70766602","imageIndex":17,"items":[{"name":"무지개수산","tel":"031-912-8779","addr":"경기도 고양시 일산서구 구산동 284-5번지","indutype":"","category":"other"},{"name":"주식회사지피에스오토","tel":"031-921-9580","addr":"경기도 고양시 일산서구 구산동 284-5번지","indutype":"","category":"other"}]},{"lat":"37.684426581","long":"126.6848301","imageIndex":17,"items":[{"name":"무지개스포츠","tel":"","addr":"경기도 고양시 일산서구 구산동 1517-2번지","indutype":"신변잡화 - 신발","category":"other"}]},{"lat":"37.682598822","long":"126.70246604","imageIndex":17,"items":[{"name":"미가","tel":"031-923-0669","addr":"경기도 고양시 일산서구 구산동 602-2번지","indutype":"","category":"other"}]},{"lat":"37.695179423","long":"126.7037192","imageIndex":17,"items":[{"name":"미래도서유통","tel":"031-955-6660","addr":"경기도 고양시 일산서구 구산동 348-3번지","indutype":"","category":"other"},{"name":"엘비","tel":"070-4133-1446","addr":"경기도 고양시 일산서구 구산동 348-3번지","indutype":"","category":"other"},{"name":"엘비","tel":"070-4133-1446","addr":"경기도 고양시 일산서구 구산동 348-3번지","indutype":"의류 - 아동의류","category":"other"}]},{"lat":"37.694233827","long":"126.70388173","imageIndex":17,"items":[{"name":"미래종합기전","tel":"031-923-7902","addr":"경기도 고양시 일산서구 구산동 361-9번지","indutype":"","category":"other"},{"name":"미래종합기전","tel":"031-923-7902","addr":"경기도 고양시 일산서구 구산동 361-9번지","indutype":"기타 - 기타 전문점","category":"other"}]},{"lat":"37.691293385","long":"126.70257836","imageIndex":17,"items":[{"name":"미리미네","tel":"031-923-0338","addr":"경기도 고양시 일산서구 구산동 920-3번지","indutype":"","category":"other"},{"name":"별미밥상","tel":"031-923-4562","addr":"경기도 고양시 일산서구 구산동 920-3번지","indutype":"","category":"other"},{"name":"별미밥상","tel":"031-923-4562","addr":"경기도 고양시 일산서구 구산동 920-3번지","indutype":"","category":"other"}]},{"lat":"37.684482433","long":"126.68216574","imageIndex":17,"items":[{"name":"미세방충망찬바람119","tel":"031-925-7119","addr":"경기도 고양시 일산서구 구산동 1479-1번지","indutype":"","category":"other"},{"name":"미세방충망찬바람119","tel":"031-925-7119","addr":"경기도 고양시 일산서구 구산동 1479-1번지","indutype":"건축자재 - 기타건축자재","category":"other"}]},{"lat":"37.697017811","long":"126.71108191","imageIndex":17,"items":[{"name":"바이크트라이얼스혼","tel":"070-7017-9087","addr":"경기도 고양시 일산서구 구산동 251-26번지","indutype":"","category":"other"},{"name":"주식회사 더드림그라운드","tel":"070-796-8532","addr":"경기도 고양시 일산서구 구산동 251-26번지","indutype":"","category":"other"}]},{"lat":"37.678237942","long":"126.69538744","imageIndex":17,"items":[{"name":"박필농원","tel":"070-4922-1261","addr":"경기도 고양시 일산서구 구산동 1807번지","indutype":"","category":"other"}]},{"lat":"37.684351663","long":"126.6804658","imageIndex":17,"items":[{"name":"버섯사랑영농조합법인","tel":"031-914-0988","addr":"경기도 고양시 일산서구 구산동 1463번지","indutype":"","category":"other"}]},{"lat":"37.689677854","long":"126.71224442","imageIndex":17,"items":[{"name":"베스트썬렌탈","tel":"031-922-3541","addr":"경기도 고양시 일산서구 구산동 28-6번지","indutype":"신변잡화 - 기타잡화","category":"other"},{"name":"베스트썬렌탈","tel":"031-922-3541","addr":"경기도 고양시 일산서구 구산동 28-6번지","indutype":"","category":"other"},{"name":"패밀리렌탈","tel":"031-921-2802","addr":"경기도 고양시 일산서구 구산동 28-6번지","indutype":"","category":"other"},{"name":"패밀리렌탈","tel":"031-921-2802","addr":"경기도 고양시 일산서구 구산동 28-6번지","indutype":"가구 - 기타가구","category":"other"}]},{"lat":"37.662440532","long":"126.83745974","imageIndex":17,"items":[{"name":"베이비또","tel":"031-64-6997","addr":"경기도 고양시 일산서구 구산동","indutype":"의류 - 아동의류","category":"other"}]},{"lat":"37.683234079","long":"126.68363352","imageIndex":17,"items":[{"name":"병천(대박)순대","tel":"031-911-6606","addr":"경기도 고양시 일산서구 구산동 1522-8번지","indutype":"","category":"other"},{"name":"자유로한식부페","tel":"031-922-5255","addr":"경기도 고양시 일산서구 구산동 1522-8번지","indutype":"","category":"other"}]},{"lat":"37.663044718","long":"126.83784374","imageIndex":17,"items":[{"name":"봉황혼수백화점","tel":"031-62-4579","addr":"경기도 고양시 일산서구 구산동","indutype":"직물 - 침구·수예점","category":"other"}]},{"lat":"37.672791977","long":"126.69380035","imageIndex":17,"items":[{"name":"부성농원","tel":"031-915-1418","addr":"경기도 고양시 일산서구 구산동 1883-1번지","indutype":"","category":"other"}]},{"lat":"37.691212872","long":"126.70997089","imageIndex":17,"items":[{"name":"블루베리테마식물원(농원)","tel":"031-921-2117","addr":"경기도 고양시 일산서구 구산동 1080번지","indutype":"","category":"other"},{"name":"휴앤트리식물원","tel":"031-921-2117","addr":"경기도 고양시 일산서구 구산동 1080번지","indutype":"","category":"other"}]},{"lat":"37.695151963","long":"126.70354923","imageIndex":17,"items":[{"name":"비앤제이","tel":"031-918-3044","addr":"경기도 고양시 일산서구 구산동 346-1번지","indutype":"","category":"other"},{"name":"비앤제이","tel":"031-918-3044","addr":"경기도 고양시 일산서구 구산동 346-1번지","indutype":"신변잡화 - 기타잡화","category":"other"},{"name":"신진","tel":"031-918-3044","addr":"경기도 고양시 일산서구 구산동 346-1번지","indutype":"","category":"other"}]},{"lat":"37.691987896","long":"126.70288168","imageIndex":17,"items":[{"name":"비젼스테이지","tel":"031-429-9022","addr":"경기도 고양시 일산서구 구산동 918 918-3","indutype":"","category":"other"},{"name":"비젼스테이지","tel":"031-429-9022","addr":"경기도 고양시 일산서구 구산동","indutype":"용역 서비스 - 기타용역서비스","category":"other"}]},{"lat":"37.69090201","long":"126.70102667","imageIndex":17,"items":[{"name":"사로디자인","tel":"031-919-7730","addr":"경기도 고양시 일산서구 구산동 459-1번지","indutype":"직물 - 카페트,커튼,천막,지물","category":"other"}]},{"lat":"37.688484337","long":"126.71052581","imageIndex":17,"items":[{"name":"산들꿈","tel":"02-2689-3928","addr":"경기도 고양시 일산서구 구산동 125-1번지","indutype":"","category":"other"},{"name":"산들꿈","tel":"02-2689-3928","addr":"경기도 고양시 일산서구 구산동 125-1번지","indutype":"유통업 영리 - 기타유통업","category":"other"},{"name":"상일그래픽스","tel":"031-913-4017","addr":"경기도 고양시 일산서구 구산동 125-1번지","indutype":"수리서비스 - 기타수리서비스","category":"other"},{"name":"상일그래픽스","tel":"031-913-4017","addr":"경기도 고양시 일산서구 구산동 125-1번지","indutype":"","category":"other"}]},{"lat":"37.678824089","long":"126.70258328","imageIndex":17,"items":[{"name":"삼성문화인쇄","tel":"031-923-6205","addr":"경기도 고양시 일산서구 구산동 1241-10번지","indutype":"서적문구 - 출판 및 인쇄물","category":"other"},{"name":"삼성문화인쇄","tel":"031-923-6205","addr":"경기도 고양시 일산서구 구산동 1241-10번지","indutype":"","category":"other"}]},{"lat":"37.691680591","long":"126.70249743","imageIndex":17,"items":[{"name":"새민","tel":"031-905-3618","addr":"경기도 고양시 일산서구 구산동 919-4번지","indutype":"회원제형태 - 기타1","category":"other"},{"name":"새민","tel":"031-905-3618","addr":"경기도 고양시 일산서구 구산동 919-4번지","indutype":"","category":"other"}]},{"lat":"37.679711474","long":"126.69729714","imageIndex":17,"items":[{"name":"서울애견스쿨","tel":"031-921-4094","addr":"경기도 고양시 일산서구 구산동 888번지","indutype":"","category":"other"}]},{"lat":"37.689765065","long":"126.71107632","imageIndex":17,"items":[{"name":"선원테크","tel":"031-921-5680","addr":"경기도 고양시 일산서구 구산동 131-1번지","indutype":"용역 서비스 - 기타용역서비스","category":"other"},{"name":"선원테크","tel":"031-921-5680","addr":"경기도 고양시 일산서구 구산동 131-1번지","indutype":"","category":"other"}]},{"lat":"37.681483781","long":"126.70688034","imageIndex":17,"items":[{"name":"성연딸기","tel":"02-1600-7084","addr":"경기도 고양시 일산서구 구산동 1177번지","indutype":"","category":"other"}]},{"lat":"37.683046596","long":"126.68426917","imageIndex":17,"items":[{"name":"세형건업","tel":"031-921-2923","addr":"경기도 고양시 일산서구 구산동 1522-18번지","indutype":"","category":"other"},{"name":"세형건업","tel":"031-921-2923","addr":"경기도 고양시 일산서구 구산동 1522-18번지","indutype":"건축자재 - 인테리어전문","category":"other"}]},{"lat":"37.683212585","long":"126.68235259","imageIndex":17,"items":[{"name":"소나무","tel":"031-923-4001","addr":"경기도 고양시 일산서구 구산동 1525-1번지","indutype":"","category":"other"}]},{"lat":"37.69879083","long":"126.7103266","imageIndex":17,"items":[{"name":"송이아트","tel":"031-923-4577","addr":"경기도 고양시 일산서구 구산동 254-19번지","indutype":"","category":"other"},{"name":"송이아트","tel":"031-923-4577","addr":"경기도 고양시 일산서구 구산동 254-19번지","indutype":"문화.취미 - 화방·표구점","category":"other"}]},{"lat":"37.68668069","long":"126.6821336","imageIndex":17,"items":[{"name":"송포농산","tel":"031-923-2901","addr":"경기도 고양시 일산서구 구산동 1421번지","indutype":"","category":"other"}]},{"lat":"37.682545573","long":"126.6822421","imageIndex":17,"items":[{"name":"슈퍼메이트","tel":"070-4865-6838","addr":"경기도 고양시 일산서구 구산동 1526-3번지","indutype":"신변잡화 - 기타잡화","category":"other"},{"name":"슈퍼메이트","tel":"070-4865-6838","addr":"경기도 고양시 일산서구 구산동 1526-3번지","indutype":"","category":"other"}]},{"lat":"37.695677914","long":"126.71210762","imageIndex":17,"items":[{"name":"스타이엔비","tel":"070-8283-7728","addr":"경기도 고양시 일산서구 구산동 5-6번지","indutype":"서적문구 - 문구용품","category":"other"},{"name":"스타이엔비","tel":"070-8283-7728","addr":"경기도 고양시 일산서구 구산동 5-6번지","indutype":"","category":"other"}]},{"lat":"37.685705387","long":"126.6982702","imageIndex":17,"items":[{"name":"시원한나라","tel":"031-923-8865","addr":"경기도 고양시 일산서구 구산동 820번지","indutype":"","category":"other"}]},{"lat":"37.682344705","long":"126.70174153","imageIndex":17,"items":[{"name":"신성석유","tel":"031-923-0202","addr":"경기도 고양시 일산서구 구산동 604-1번지","indutype":"","category":"other"},{"name":"신성석유","tel":"031-923-0202","addr":"경기도 고양시 일산서구 구산동 604-1번지","indutype":"","category":"other"},{"name":"일등에너지","tel":"","addr":"경기도 고양시 일산서구 구산동 604-1번지","indutype":"","category":"other"}]},{"lat":"37.694068834","long":"126.70277125","imageIndex":17,"items":[{"name":"신용잉크조색(SIC)","tel":"031-968-9465","addr":"경기도 고양시 일산서구 구산동 413-15번지","indutype":"사무통신 - 기타 사무용품","category":"other"}]},{"lat":"37.696703553","long":"126.70077638","imageIndex":17,"items":[{"name":"실크로드","tel":"031-917-2222","addr":"경기도 고양시 일산서구 구산동 309-5번지","indutype":"직물 - 침구·수예점","category":"other"}]},{"lat":"37.657629856","long":"126.8378104","imageIndex":17,"items":[{"name":"심도커텐","tel":"031-64-5114","addr":"경기도 고양시 일산서구 구산동","indutype":"직물 - 카페트,커튼,천막,지물","category":"other"}]},{"lat":"37.692681565","long":"126.70641633","imageIndex":17,"items":[{"name":"심학산블루베리농원","tel":"031-923-2272","addr":"경기도 고양시 일산서구 구산동 1012번지","indutype":"","category":"other"},{"name":"심학산블루베리농원","tel":"031-923-2272","addr":"경기도 고양시 일산서구 구산동 1012번지","indutype":"회원제형태 - 기타1","category":"other"}]},{"lat":"37.69709315","long":"126.70876854","imageIndex":17,"items":[{"name":"싱크키","tel":"031-918-7011","addr":"경기도 고양시 일산서구 구산동 277-3번지","indutype":"주방용구 - 주방용구","category":"other"},{"name":"자율식당","tel":"031-923-7548","addr":"경기도 고양시 일산서구 구산동 277-3번지","indutype":"","category":"other"},{"name":"주식회사화승물류","tel":"031-901-1877","addr":"경기도 고양시 일산서구 구산동 277-3번지","indutype":"","category":"other"},{"name":"한교원","tel":"031-2256-6603","addr":"경기도 고양시 일산서구 구산동 277-3번지","indutype":"","category":"other"},{"name":"한국상사","tel":"02-322-9573","addr":"경기도 고양시 일산서구 구산동 277-3번지","indutype":"","category":"other"}]},{"lat":"37.682573985","long":"126.70332771","imageIndex":17,"items":[{"name":"씨유고양구산점","tel":"031-977-7677","addr":"경기도 고양시 일산서구 구산동 1162번지","indutype":"유통업 영리 - 편 의 점","category":"other"},{"name":"씨유고양구산점","tel":"031-977-7677","addr":"경기도 고양시 일산서구 구산동 1162번지","indutype":"","category":"other"}]},{"lat":"37.696017739","long":"126.70388591","imageIndex":17,"items":[{"name":"아리유통","tel":"031-923-7243","addr":"경기도 고양시 일산서구 구산동 302-1번지","indutype":"","category":"other"},{"name":"아리유통","tel":"031-923-7243","addr":"경기도 고양시 일산서구 구산동 302-1번지","indutype":"농업 - 기타농업관련","category":"other"}]},{"lat":"37.695318333","long":"126.70879822","imageIndex":17,"items":[{"name":"아마테라스코리아","tel":"031-922-2258","addr":"경기도 고양시 일산서구 구산동 204-13번지","indutype":"","category":"other"}]},{"lat":"37.682400179","long":"126.70229679","imageIndex":17,"items":[{"name":"아지트","tel":"070-5099-5097","addr":"경기도 고양시 일산서구 구산동 1163-1번지","indutype":"","category":"other"},{"name":"일산아지트 (AZIT)","tel":"070-5099-5097","addr":"경기도 고양시 일산서구 구산동 1163-1번지","indutype":"","category":"other"},{"name":"후니모터스(HooniMotors)","tel":"070-8840-8840","addr":"경기도 고양시 일산서구 구산동 1163-1, 602-5","indutype":"","category":"other"}]},{"lat":"37.69292944","long":"126.70113184","imageIndex":17,"items":[{"name":"아침과책","tel":"031-919-9745","addr":"경기도 고양시 일산서구 구산동 393-1번지","indutype":"","category":"other"},{"name":"필북","tel":"031-923-7440","addr":"경기도 고양시 일산서구 구산동 393-1번지","indutype":"","category":"other"}]},{"lat":"37.695290695","long":"126.70496597","imageIndex":17,"items":[{"name":"애니알씨","tel":"031-925-7311","addr":"경기도 고양시 일산서구 구산동 355번지","indutype":"","category":"other"},{"name":"애니알씨","tel":"031-925-7311","addr":"경기도 고양시 일산서구 구산동 355번지","indutype":"전기제품 - 기타전기제품","category":"other"}]},{"lat":"37.683237794","long":"126.68168363","imageIndex":17,"items":[{"name":"에반스레이싱","tel":"070-8808-2018","addr":"경기도 고양시 일산서구 구산동 1526번지","indutype":"","category":"other"}]},{"lat":"37.683482598","long":"126.68558234","imageIndex":17,"items":[{"name":"에보니앤아이보리","tel":"031-835-5303","addr":"경기도 고양시 일산서구 구산동 1551-7번지","indutype":"","category":"other"},{"name":"에보니앤아이보리","tel":"031-835-5303","addr":"경기도 고양시 일산서구 구산동 1551-7번지","indutype":"광학제품 - 사진관","category":"other"}]},{"lat":"37.685291066","long":"126.68466769","imageIndex":17,"items":[{"name":"에스비상사","tel":"070-8244-1033","addr":"경기도 고양시 일산서구 구산동 1487번지","indutype":"","category":"other"}]},{"lat":"37.6942591","long":"126.70319","imageIndex":17,"items":[{"name":"에스엔씨컴퍼니","tel":"070-4410-1171","addr":"경기도 고양시 일산서구 구산동 413-2번지","indutype":"","category":"other"},{"name":"트리북스","tel":"031-922-6188","addr":"경기도 고양시 일산서구 구산동 413-2번지","indutype":"","category":"other"},{"name":"트리북스","tel":"031-922-6188","addr":"경기도 고양시 일산서구 구산동 413-2번지","indutype":"회원제형태 - 서적","category":"other"}]},{"lat":"37.695927068","long":"126.7036595","imageIndex":17,"items":[{"name":"에스엔씨컴퍼니","tel":"031-4410-1171","addr":"경기도 고양시 일산서구 구산동 302-3번지","indutype":"용역 서비스 - 종합용역","category":"other"},{"name":"에스엔씨컴퍼니","tel":"031-4410-1171","addr":"경기도 고양시 일산서구 구산동 302-3번지","indutype":"","category":"other"}]},{"lat":"37.692876456","long":"126.70155156","imageIndex":17,"items":[{"name":"에이스코퍼레이션","tel":"031-921-2135","addr":"경기도 고양시 일산서구 구산동 391번지","indutype":"","category":"other"}]},{"lat":"37.695900486","long":"126.70030343","imageIndex":17,"items":[{"name":"에이엘씨","tel":"070-7835-6611","addr":"경기도 고양시 일산서구 구산동 310-5번지","indutype":"건축자재 - 기타건축자재","category":"other"}]},{"lat":"37.68620675","long":"126.70407267","imageIndex":17,"items":[{"name":"에이치웨이(H-Way)","tel":"031-904-5859","addr":"경기도 고양시 일산서구 구산동 942번지","indutype":"","category":"other"},{"name":"에이치웨이(H-Way)","tel":"031-904-5859","addr":"경기도 고양시 일산서구 구산동 942번지","indutype":"레져용품 - 스포츠·레져용품","category":"other"}]},{"lat":"37.695263393","long":"126.71207522","imageIndex":17,"items":[{"name":"에코팩토리","tel":"070-7787-7805","addr":"경기도 고양시 일산서구 구산동 5-7번지","indutype":"용역 서비스 - 사무서비스","category":"other"},{"name":"에코팩토리","tel":"070-7787-7805","addr":"경기도 고양시 일산서구 구산동 5-7번지","indutype":"","category":"other"}]},{"lat":"37.682096686","long":"126.69988338","imageIndex":17,"items":[{"name":"엑스인라이트","tel":"031-973-0900","addr":"경기도 고양시 일산서구 구산동 627-25번지","indutype":"","category":"other"},{"name":"인성ENG","tel":"031-816-7726","addr":"경기도 고양시 일산서구 구산동 627-25번지","indutype":"","category":"other"}]},{"lat":"37.691766284","long":"126.70077374","imageIndex":17,"items":[{"name":"엔젤앤맘","tel":"070-4136-4990","addr":"경기도 고양시 일산서구 구산동 455-16번지","indutype":"","category":"other"},{"name":"커피머신판매수리CMC","tel":"070-8260-3322","addr":"경기도 고양시 일산서구 구산동 455-16번지","indutype":"주방용구 - 주방용구","category":"other"},{"name":"커피머신판매수리CMC","tel":"070-8260-3322","addr":"경기도 고양시 일산서구 구산동 455-16번지","indutype":"","category":"other"}]},{"lat":"37.680291917","long":"126.68510848","imageIndex":17,"items":[{"name":"엔터코리아","tel":"031-837-9337","addr":"경기도 고양시 일산서구 구산동 1664번지","indutype":"","category":"other"},{"name":"와일드윙","tel":"02-6265-3581","addr":"경기도 고양시 일산서구 구산동 1664번지","indutype":"","category":"other"},{"name":"와일드윙","tel":"02-6265-3581","addr":"경기도 고양시 일산서구 구산동 1664번지","indutype":"서적문구 - 완구점","category":"other"}]},{"lat":"37.683515969","long":"126.70529648","imageIndex":17,"items":[{"name":"엘 에제르","tel":"070-7521-2594","addr":"경기도 고양시 일산서구 구산동 1139-2번지","indutype":"","category":"other"},{"name":"엘 에제르","tel":"070-7521-2594","addr":"경기도 고양시 일산서구 구산동 1139-2번지","indutype":"문화.취미 - 화원","category":"other"}]},{"lat":"37.685072649","long":"126.70097094","imageIndex":17,"items":[{"name":"엘콤퍼니처","tel":"031-966-7570","addr":"경기도 고양시 일산서구 구산동 897번지","indutype":"","category":"other"}]},{"lat":"37.694815759","long":"126.69891323","imageIndex":17,"items":[{"name":"엠에스 에듀케이션","tel":"031-978-7893","addr":"경기도 고양시 일산서구 구산동 676번지","indutype":"","category":"other"},{"name":"엠에스 에듀케이션","tel":"031-978-7893","addr":"경기도 고양시 일산서구 구산동 676번지","indutype":"서적문구 - 일반서적","category":"other"}]},{"lat":"37.694458001","long":"126.70346132","imageIndex":17,"items":[{"name":"엠제트 퍼포먼스","tel":"02-6217-2000","addr":"경기도 고양시 일산서구 구산동 409-1번지 2동","indutype":"","category":"other"}]},{"lat":"37.6730973","long":"126.69000187","imageIndex":17,"items":[{"name":"여운농장","tel":"031-978-8258","addr":"경기도 고양시 일산서구 구산동 1861-1","indutype":"","category":"other"}]},{"lat":"37.691990108","long":"126.71094288","imageIndex":17,"items":[{"name":"예닮환경","tel":"031-923-7177","addr":"경기도 고양시 일산서구 구산동 146-2번지","indutype":"","category":"other"},{"name":"예닮환경","tel":"031-923-7177","addr":"경기도 고양시 일산서구 구산동 146-2번지","indutype":"용역 서비스 - 종합용역","category":"other"}]},{"lat":"37.682599399","long":"126.70269276","imageIndex":17,"items":[{"name":"옛날국수와해물파전","tel":"031-923-6688","addr":"경기도 고양시 일산서구 구산동 1163-6번지","indutype":"","category":"other"},{"name":"한마음한식뷔페","tel":"031-923-8382","addr":"경기도 고양시 일산서구 구산동 1163-6번지","indutype":"","category":"other"},{"name":"한마음한식뷔페 BK FOOD","tel":"031-923-8382","addr":"경기도 고양시 일산서구 구산동 1163-6번지","indutype":"","category":"other"}]},{"lat":"37.683900661","long":"126.68027503","imageIndex":17,"items":[{"name":"옛날집","tel":"031-919-5999","addr":"경기도 고양시 일산서구 구산동 1464-4번지","indutype":"","category":"other"}]},{"lat":"37.691482642","long":"126.70260027","imageIndex":17,"items":[{"name":"올인원솔루션","tel":"031-908-7614","addr":"경기도 고양시 일산서구 구산동 919-3번지","indutype":"사무통신 - 컴퓨터","category":"other"},{"name":"올인원솔루션","tel":"031-908-7614","addr":"경기도 고양시 일산서구 구산동 919-3번지","indutype":"","category":"other"}]},{"lat":"37.697151212","long":"126.71037839","imageIndex":17,"items":[{"name":"와우컴퍼니","tel":"070-8628-3441","addr":"경기도 고양시 일산서구 구산동 255-4번지","indutype":"","category":"other"}]},{"lat":"37.694958773","long":"126.71276805","imageIndex":17,"items":[{"name":"우주이앤씨","tel":"031-919-1351","addr":"경기도 고양시 일산서구 구산동 6-7번지","indutype":"","category":"other"}]},{"lat":"37.682933383","long":"126.6823878","imageIndex":17,"items":[{"name":"원무역","tel":"031-922-1008","addr":"경기도 고양시 일산서구 구산동 1525-7번지","indutype":"","category":"other"},{"name":"포스패키지(p.o.s package)","tel":"031-922-6652","addr":"경기도 고양시 일산서구 구산동 1525-7번지","indutype":"유통업 영리 - 기타유통업","category":"other"},{"name":"포스패키지(p.o.s package)","tel":"031-922-6652","addr":"경기도 고양시 일산서구 구산동 1525-7번지","indutype":"","category":"other"}]},{"lat":"37.696073437","long":"126.71174324","imageIndex":17,"items":[{"name":"위글웨글","tel":"031-926-3773","addr":"경기도 고양시 일산서구 구산동 2번지","indutype":"","category":"other"}]},{"lat":"37.692819966","long":"126.70413684","imageIndex":17,"items":[{"name":"위닉스알파플러스","tel":"02-2711-8837","addr":"경기도 고양시 일산서구 구산동 378-10번지","indutype":"수리서비스 - 가정용품수리","category":"other"},{"name":"위닉스알파플러스","tel":"02-2711-8837","addr":"경기도 고양시 일산서구 구산동 378-10번지","indutype":"","category":"other"}]},{"lat":"37.684684393","long":"126.71137964","imageIndex":17,"items":[{"name":"은광농원","tel":"031-922-8384","addr":"경기도 고양시 일산서구 구산동 1106번지","indutype":"","category":"other"}]},{"lat":"37.680959182","long":"126.69899245","imageIndex":17,"items":[{"name":"이지디자인","tel":"031-923-5517","addr":"경기도 고양시 일산서구 구산동 890번지","indutype":"","category":"other"}]},{"lat":"37.693290061","long":"126.70835271","imageIndex":17,"items":[{"name":"일산상황버섯영농조합법인","tel":"031-381-1999","addr":"경기도 고양시 일산서구 구산동 1015-1번지","indutype":"","category":"other"},{"name":"지구촌영농조합법인","tel":"","addr":"경기도 고양시 일산서구 구산동 1015-1번지","indutype":"","category":"other"}]},{"lat":"37.65771769","long":"126.83620096","imageIndex":17,"items":[{"name":"일산종합물산","tel":"031-965-5935","addr":"경기도 고양시 일산서구 구산동","indutype":"주방용구 - 주방용식기","category":"other"}]},{"lat":"37.685625142","long":"126.70566217","imageIndex":17,"items":[{"name":"자연의향기","tel":"","addr":"경기도 고양시 일산서구 구산동 986번지","indutype":"","category":"other"},{"name":"자연의향기","tel":"","addr":"경기도 고양시 일산서구 구산동 986번지","indutype":"문화.취미 - 화원","category":"other"}]},{"lat":"37.683374387","long":"126.68221585","imageIndex":17,"items":[{"name":"자유로오토월드","tel":"032-925-1266","addr":"경기도 고양시 일산서구 구산동 1525번지","indutype":"","category":"other"}]},{"lat":"37.692012816","long":"126.70205392","imageIndex":17,"items":[{"name":"장서가주니어","tel":"031-923-5988","addr":"경기도 고양시 일산서구 구산동 449-5번지","indutype":"","category":"other"}]},{"lat":"37.683205638","long":"126.68311217","imageIndex":17,"items":[{"name":"정수상사","tel":"031-922-7720","addr":"경기도 고양시 일산서구 구산동 1522-3번지","indutype":"","category":"other"}]},{"lat":"37.682277463","long":"126.68975926","imageIndex":17,"items":[{"name":"제이아이수산","tel":"031-979-9909","addr":"경기도 고양시 일산서구 구산동 1652번지","indutype":"","category":"other"}]},{"lat":"37.692485563","long":"126.70019259","imageIndex":17,"items":[{"name":"제이크라상","tel":"031-915-3410","addr":"경기도 고양시 일산서구 구산동 427번지","indutype":"","category":"other"}]},{"lat":"37.682153497","long":"126.70449704","imageIndex":17,"items":[{"name":"제일기업(MANO)","tel":"031-901-8691","addr":"경기도 고양시 일산서구 구산동 1161-1번지","indutype":"신변잡화 - 신발","category":"other"},{"name":"제일기업(MANO)/올리브물대","tel":"031-901-8691","addr":"경기도 고양시 일산서구 구산동 1161-1번지","indutype":"별도관리 - 자체물품대금","category":"other"}]},{"lat":"37.69478759","long":"126.69847115","imageIndex":17,"items":[{"name":"제일아시트","tel":"","addr":"경기도 고양시 일산서구 구산동 676-2번지","indutype":"건축자재 - 기타건축자재","category":"other"}]},{"lat":"37.693287742","long":"126.70385152","imageIndex":17,"items":[{"name":"종합전기","tel":"031-923-0954","addr":"경기도 고양시 일산서구 구산동 375-1번지","indutype":"","category":"other"},{"name":"종합전기","tel":"031-923-0954","addr":"경기도 고양시 일산서구 구산동 375-1번지","indutype":"전기제품 - 기타전기제품","category":"other"},{"name":"한뚝배기","tel":"031-922-8633","addr":"경기도 고양시 일산서구 구산동 375-1번지","indutype":"","category":"other"}]},{"lat":"37.690259831","long":"126.71076827","imageIndex":17,"items":[{"name":"주식회사 보웰컴퍼니","tel":"031-917-7727","addr":"경기도 고양시 일산서구 구산동 141-1번지","indutype":"직물 - 침구·수예점","category":"other"}]},{"lat":"37.687462634","long":"126.68143866","imageIndex":17,"items":[{"name":"주식회사 빅북프렌즈","tel":"070-8031-4038","addr":"경기도 고양시 일산서구 구산동 1405번지","indutype":"","category":"other"},{"name":"주식회사 빅북프렌즈","tel":"070-8031-4038","addr":"경기도 고양시 일산서구 구산동 1405번지","indutype":"용역 서비스 - 종합용역","category":"other"}]},{"lat":"37.691206968","long":"126.70049256","imageIndex":17,"items":[{"name":"주식회사 아트그레인","tel":"031-922-8060","addr":"경기도 고양시 일산서구 구산동 458번지","indutype":"건축자재 - 인테리어전문","category":"other"}]},{"lat":"37.693400785","long":"126.70580121","imageIndex":17,"items":[{"name":"주식회사 앤알비","tel":"031-915-2700","addr":"경기도 고양시 일산서구 구산동 377-2번지","indutype":"주방용구 - 주방용구","category":"other"}]},{"lat":"37.681096978","long":"126.70002348","imageIndex":17,"items":[{"name":"주식회사 오피스플랜","tel":"070-0-0000","addr":"경기도 고양시 일산서구 구산동 627-94번지","indutype":"","category":"other"},{"name":"주식회사 오피스플랜","tel":"070-0000-0000","addr":"경기도 고양시 일산서구 구산동 627-94번지","indutype":"가구 - 일반가구","category":"other"},{"name":"주식회사 하이원펄프","tel":"031-923-0162","addr":"경기도 고양시 일산서구 구산동 627-94번지","indutype":"신변잡화 - 기타잡화","category":"other"}]},{"lat":"37.689097125","long":"126.71058009","imageIndex":17,"items":[{"name":"주식회사 유앤유조형그룹","tel":"031-903-8957","addr":"경기도 고양시 일산서구 구산동 132-5번지","indutype":"건축자재 - 인테리어전문","category":"other"},{"name":"주식회사 유앤유조형그룹","tel":"031-903-8957","addr":"경기도 고양시 일산서구 구산동 132-5번지","indutype":"","category":"other"}]},{"lat":"37.683018679","long":"126.68394053","imageIndex":17,"items":[{"name":"주식회사 크린토피아일산지사","tel":"031-923-9066","addr":"경기도 고양시 일산서구 구산동 1522-17번지","indutype":"","category":"other"},{"name":"주식회사 크린토피아일산지사","tel":"031-923-9066","addr":"경기도 고양시 일산서구 구산동 1522-17번지","indutype":"수리서비스 - 세탁소","category":"other"},{"name":"주식회사크린토피아일산지사","tel":"031-923-9066","addr":"경기도 고양시 일산서구 구산동 1522-17번지","indutype":"수리서비스 - 세탁소","category":"other"},{"name":"주식회사크린토피아일산지사","tel":"031-923-9066","addr":"경기도 고양시 일산서구 구산동 1522-17번지","indutype":"","category":"other"}]},{"lat":"37.684512399","long":"126.71105155","imageIndex":17,"items":[{"name":"주식회사 한스컴퍼니","tel":"031-1588-2090","addr":"경기도 고양시 일산서구 구산동 1107-2번지","indutype":"","category":"other"}]},{"lat":"37.693875032","long":"126.71171783","imageIndex":17,"items":[{"name":"주식회사노아테크","tel":"070-7163-2450","addr":"경기도 고양시 일산서구 구산동 9-3번지","indutype":"","category":"other"}]},{"lat":"37.680401671","long":"126.69941415","imageIndex":17,"items":[{"name":"주식회사바다로얄","tel":"031-921-2119","addr":"경기도 고양시 일산서구 구산동 1200번지","indutype":"","category":"other"}]},{"lat":"37.693179091","long":"126.7001104","imageIndex":17,"items":[{"name":"주식회사제다임","tel":"031-923-0220","addr":"경기도 고양시 일산서구 구산동 428-1번지","indutype":"","category":"other"}]},{"lat":"37.692259917","long":"126.71074908","imageIndex":17,"items":[{"name":"주식회사제이테크","tel":"031-811-9144","addr":"경기도 고양시 일산서구 구산동 146-1번지","indutype":"신변잡화 - 기타잡화","category":"other"},{"name":"주식회사제이테크","tel":"031-811-9144","addr":"경기도 고양시 일산서구 구산동 146-1번지","indutype":"","category":"other"}]},{"lat":"37.694705361","long":"126.71230417","imageIndex":17,"items":[{"name":"주식회사코리아로지스","tel":"031-924-5812","addr":"경기도 고양시 일산서구 구산동 6-2번지","indutype":"","category":"other"}]},{"lat":"37.692044009","long":"126.70016037","imageIndex":17,"items":[{"name":"지원트레이딩","tel":"","addr":"경기도 고양시 일산서구 구산동 444번지","indutype":"","category":"other"}]},{"lat":"37.694426458","long":"126.71246399","imageIndex":17,"items":[{"name":"지지상사","tel":"053-588-0082","addr":"경기도 고양시 일산서구 구산동","indutype":"신변잡화 - 기타잡화","category":"other"}]},{"lat":"37.683041501","long":"126.70294039","imageIndex":17,"items":[{"name":"진세트장","tel":"031-923-8132","addr":"경기도 고양시 일산서구 구산동 1133-11번지","indutype":"","category":"other"},{"name":"진세트장","tel":"031-923-8132","addr":"경기도 고양시 일산서구 구산동 1133-11번지","indutype":"기타 - 기타 전문점","category":"other"}]},{"lat":"37.69526577","long":"126.70224486","imageIndex":17,"items":[{"name":"창조다움","tel":"031-921-9701","addr":"경기도 고양시 일산서구 구산동 322-1번지","indutype":"","category":"other"},{"name":"창조다움","tel":"031-921-9701","addr":"경기도 고양시 일산서구 구산동 322-1번지","indutype":"가구 - 기타가구","category":"other"}]},{"lat":"37.698819292","long":"126.71090477","imageIndex":17,"items":[{"name":"카야코리아","tel":"","addr":"경기도 고양시 일산서구 구산동 260-8번지","indutype":"","category":"other"}]},{"lat":"37.655988508","long":"126.83668079","imageIndex":17,"items":[{"name":"코오롱","tel":"031-63-8471","addr":"경기도 고양시 일산서구 구산동","indutype":"의류 - 정장","category":"other"}]},{"lat":"37.684241035","long":"126.67954801","imageIndex":17,"items":[{"name":"크래프트비어펍(Craft beer pub)","tel":"031-923-9291","addr":"경기도 고양시 일산서구 구산동 1464번지","indutype":"","category":"other"}]},{"lat":"37.686045868","long":"126.70816596","imageIndex":17,"items":[{"name":"크린라이프상사","tel":"031-915-5233","addr":"경기도 고양시 일산서구 구산동 1038번지","indutype":"전기제품 - 기타전기제품","category":"other"},{"name":"크린라이프상사","tel":"031-915-5233","addr":"경기도 고양시 일산서구 구산동 1038번지","indutype":"","category":"other"}]},{"lat":"37.683962067","long":"126.68297288","imageIndex":17,"items":[{"name":"큰가마솥순대국","tel":"031-915-5853","addr":"경기도 고양시 일산서구 구산동 1481-11번지","indutype":"","category":"other"},{"name":"햇살정","tel":"031-915-5853","addr":"경기도 고양시 일산서구 구산동 1481-11번지","indutype":"","category":"other"}]},{"lat":"37.692899988","long":"126.70371702","imageIndex":17,"items":[{"name":"타이어명가","tel":"031-921-2238","addr":"경기도 고양시 일산서구 구산동 380-1번지","indutype":"","category":"other"},{"name":"태성화물","tel":"070-8028-3744","addr":"경기도 고양시 일산서구 구산동 380-1번지","indutype":"","category":"other"}]},{"lat":"37.692320844","long":"126.70272161","imageIndex":17,"items":[{"name":"타이어뱅크21","tel":"031-924-2964","addr":"경기도 고양시 일산서구 구산동 917번지","indutype":"","category":"other"}]},{"lat":"37.683292931","long":"126.68208017","imageIndex":17,"items":[{"name":"태성건설","tel":"031-921-8814","addr":"경기도 고양시 일산서구 구산동 1525-5번지","indutype":"건축자재 - 인테리어전문","category":"other"}]},{"lat":"37.692322955","long":"126.70002318","imageIndex":17,"items":[{"name":"티디알푸드","tel":"031-901-7360","addr":"경기도 고양시 일산서구 구산동 443번지","indutype":"","category":"other"},{"name":"티디알푸드","tel":"031-901-7360","addr":"경기도 고양시 일산서구 구산동 443번지","indutype":"신변잡화 - 기타잡화","category":"other"}]},{"lat":"37.696762564","long":"126.70988102","imageIndex":17,"items":[{"name":"티엠산업주식회사","tel":"031-925-1861","addr":"경기도 고양시 일산서구 구산동 274-1번지","indutype":"","category":"other"}]},{"lat":"37.676457033","long":"126.68630373","imageIndex":17,"items":[{"name":"풍경","tel":"031-923-5727","addr":"경기도 고양시 일산서구 구산동 1778-2번지","indutype":"","category":"other"}]},{"lat":"37.655350604","long":"126.83795143","imageIndex":17,"items":[{"name":"프리티원당체인점","tel":"031-64-5357","addr":"경기도 고양시 일산서구 구산동","indutype":"의류 - 아동의류","category":"other"}]},{"lat":"37.69579299","long":"126.70407956","imageIndex":17,"items":[{"name":"피슈F&C","tel":"031-915-3352","addr":"경기도 고양시 일산서구 구산동 351번지","indutype":"","category":"other"}]},{"lat":"37.683433484","long":"126.68407479","imageIndex":17,"items":[{"name":"하나유통","tel":"070-7560-6661","addr":"경기도 고양시 일산서구 구산동 1519-25번지","indutype":"","category":"other"}]},{"lat":"37.693315834","long":"126.70427091","imageIndex":17,"items":[{"name":"하늘밥상","tel":"031-925-5078","addr":"경기도 고양시 일산서구 구산동 376-1번지","indutype":"","category":"other"}]},{"lat":"37.6727143","long":"126.69510419","imageIndex":17,"items":[{"name":"하이퍼니처","tel":"031-923-0826","addr":"경기도 고양시 일산서구 구산동 1904-3번지","indutype":"가구 - 일반가구","category":"other"}]},{"lat":"37.690378529","long":"126.70066599","imageIndex":17,"items":[{"name":"한국드론센터(KOREA DRONE CENTER)","tel":"031-919-9991","addr":"경기도 고양시 일산서구 구산동 464번지","indutype":"","category":"other"},{"name":"황토마루","tel":"031-923-5991","addr":"경기도 고양시 일산서구 구산동 464번지","indutype":"","category":"other"}]},{"lat":"37.682906012","long":"126.70280489","imageIndex":17,"items":[{"name":"한양카센타","tel":"031-923-6133","addr":"경기도 고양시 일산서구 구산동 1133-10번지","indutype":"","category":"other"}]},{"lat":"37.69479391","long":"126.70446907","imageIndex":17,"items":[{"name":"한우보감","tel":"031-921-9835","addr":"경기도 고양시 일산서구 구산동 366번지","indutype":"","category":"other"}]},{"lat":"37.694434562","long":"126.70487869","imageIndex":17,"items":[{"name":"한울미디어","tel":"070-8723-9988","addr":"경기도 고양시 일산서구 구산동 364-3번지","indutype":"","category":"other"},{"name":"한울미디어","tel":"070-8723-9988","addr":"경기도 고양시 일산서구 구산동 364-3번지","indutype":"용역 서비스 - 종합용역","category":"other"}]},{"lat":"37.685212335","long":"126.70275026","imageIndex":17,"items":[{"name":"해달별 고양가와지 볍씨 체험교육농장","tel":"031-911-7094","addr":"경기도 고양시 일산서구 구산동 937-2번지","indutype":"","category":"other"}]},{"lat":"37.693209558","long":"126.7122193","imageIndex":17,"items":[{"name":"해피라인","tel":"031-923-7681","addr":"경기도 고양시 일산서구 구산동 11번지","indutype":"레져용품 - 스포츠·레져용품","category":"other"},{"name":"해피라인","tel":"031-923-7681","addr":"경기도 고양시 일산서구 구산동 11번지","indutype":"","category":"other"}]},{"lat":"37.657742838","long":"126.83487498","imageIndex":17,"items":[{"name":"해피랜드","tel":"031-63-9453","addr":"경기도 고양시 일산서구 구산동","indutype":"의류 - 아동의류","category":"other"}]},{"lat":"37.694129088","long":"126.71244248","imageIndex":17,"items":[{"name":"현대카모터스","tel":"031-923-5757","addr":"경기도 고양시 일산서구 구산동 10-8번지","indutype":"","category":"other"}]},{"lat":"37.684988886","long":"126.70702512","imageIndex":17,"items":[{"name":"현준크레인","tel":"031-923-4841","addr":"경기도 고양시 일산서구 구산동 989-1번지","indutype":"","category":"other"}]},{"lat":"37.683239768","long":"126.70296226","imageIndex":17,"items":[{"name":"형제공업사","tel":"031-923-1427","addr":"경기도 고양시 일산서구 구산동 1133-8번지","indutype":"","category":"other"},{"name":"형제공업사","tel":"031-923-1427","addr":"경기도 고양시 일산서구 구산동 1133-8번지","indutype":"농업 - 농기계","category":"other"}]},{"lat":"37.681878118","long":"126.70249162","imageIndex":17,"items":[{"name":"혜아BNF","tel":"031-921-3245","addr":"경기도 고양시 일산서구 구산동 1167-1번지","indutype":"","category":"other"}]}]