[{"lat":"37.077186943","long":"127.42896934","imageIndex":17,"items":[{"name":"(주)홈툴스","tel":"031-676-4466","addr":"경기도 안성시 죽산면 죽산리 141-4번지","indutype":"건축자재 - 기타건축자재","category":"other"}]},{"lat":"37.075576056","long":"127.42336013","imageIndex":17,"items":[{"name":"가온유통","tel":"031-675-8905","addr":"경기도 안성시 죽산면 죽산리 437-2번지 나동 110호","indutype":"유통업 영리 - 기타유통업","category":"other"},{"name":"뮤직뱅크","tel":"031-675-6780","addr":"경기도 안성시 죽산면 죽산리 437-2번지","indutype":"광학제품 - 사진관","category":"other"},{"name":"퓨전컴퓨터","tel":"031-675-8987","addr":"경기도 안성시 죽산면 죽산리 437-2번지 나동 1층 105호","indutype":"사무통신 - 컴퓨터","category":"other"}]},{"lat":"37.073964958","long":"127.4203038","imageIndex":17,"items":[{"name":"고은미피부미용","tel":"031-675-4964","addr":"경기도 안성시 죽산면 죽산리 517-4번지","indutype":"회원제형태 - 기타4","category":"other"}]},{"lat":"37.076491271","long":"127.42697499","imageIndex":17,"items":[{"name":"광명공인중개사사무소","tel":"031-677-7894","addr":"경기도 안성시 죽산면 죽산리 117-6번지","indutype":"용역 서비스 - 부동산 중개·임대","category":"other"}]},{"lat":"37.07674368","long":"127.42694266","imageIndex":17,"items":[{"name":"굿데이스토어","tel":"","addr":"경기도 안성시 죽산면 죽산리 117-4번지 골목안 왼쪽벽돌집 3층","indutype":"가구 - 기타가구","category":"other"}]},{"lat":"37.076910206","long":"127.42824808","imageIndex":17,"items":[{"name":"노루표페인트","tel":"031-676-4571","addr":"경기도 안성시 죽산면 죽산리 134-1번지 외2필지","indutype":"건축자재 - 페인트","category":"other"}]},{"lat":"37.075574701","long":"127.42374246","imageIndex":17,"items":[{"name":"대광천막지물","tel":"031-676-6400","addr":"경기도 안성시 죽산면 죽산리 438-6","indutype":"회원제형태 - 기타4","category":"other"}]},{"lat":"37.076960796","long":"127.42921548","imageIndex":17,"items":[{"name":"대한철강","tel":"031-676-7222","addr":"경기도 안성시 죽산면 죽산리 88-2번지","indutype":"건축자재 - 기타건축자재","category":"other"}]},{"lat":"37.073439689","long":"127.42360697","imageIndex":17,"items":[{"name":"두원광고","tel":"031-675-2349","addr":"경기도 안성시 죽산면 죽산리 793-5번지","indutype":"건축자재 - 인테리어전문","category":"other"}]},{"lat":"37.076348431","long":"127.4266031","imageIndex":17,"items":[{"name":"드림디포","tel":"031-675-0448","addr":"경기도 안성시 죽산면 죽산리 119-6","indutype":"서적문구 - 문구용품","category":"other"}]},{"lat":"37.07607007","long":"127.42380143","imageIndex":17,"items":[{"name":"민트POP","tel":"070-9144-0394","addr":"경기도 안성시 죽산면 죽산리 474-1번지 301호","indutype":"문화.취미 - 문화취미기타","category":"other"},{"name":"세븐일레븐안성죽산중앙점","tel":"031-1577-0711","addr":"경기도 안성시 죽산면 죽산리 474-1번지","indutype":"유통업 영리 - 편 의 점","category":"other"}]},{"lat":"37.074685985","long":"127.4228042","imageIndex":17,"items":[{"name":"부산세탁소","tel":"031-676-6137","addr":"경기도 안성시 죽산면 죽산리 434번지","indutype":"수리서비스 - 세탁소","category":"other"},{"name":"왕빠른세탁","tel":"031-676-6108","addr":"경기도 안성시 죽산면 죽산리 434번지","indutype":"수리서비스 - 세탁소","category":"other"}]},{"lat":"37.075466457","long":"127.4237756","imageIndex":17,"items":[{"name":"부흥상회","tel":"031-676-8228","addr":"경기도 안성시 죽산면 죽산리 438-2","indutype":"주방용구 - 주방용식기","category":"other"}]},{"lat":"37.075292385","long":"127.4245843","imageIndex":17,"items":[{"name":"비첸지오쥬얼리","tel":"031-676-5893","addr":"경기도 안성시 죽산면 죽산리 497-2번지","indutype":"신변잡화 - 귀금속","category":"other"}]},{"lat":"37.075214846","long":"127.42358304","imageIndex":17,"items":[{"name":"빤짝텔레콤","tel":"070-8885-8878","addr":"경기도 안성시 죽산면 죽산리 437-19번지 1층","indutype":"사무통신 - 통신기기","category":"other"},{"name":"씨유안성죽산점","tel":"031-676-8609","addr":"경기도 안성시 죽산면 죽산리 437-19번지","indutype":"유통업 영리 - 편 의 점","category":"other"}]},{"lat":"37.079431025","long":"127.4338289","imageIndex":17,"items":[{"name":"삼성클라크물류기계판매","tel":"031-671-9032","addr":"경기도 안성시 죽산면 죽산리 34-2번지 (주)클라크지게차","indutype":"기타 - 기계공구","category":"other"}]},{"lat":"37.075909559","long":"127.42332823","imageIndex":17,"items":[{"name":"삼흥지업사","tel":"031-676-5357","addr":"경기도 안성시 죽산면 죽산리 439-3번지 가동 106호","indutype":"건축자재 - 인테리어전문","category":"other"}]},{"lat":"37.076270188","long":"127.42580423","imageIndex":17,"items":[{"name":"세븐일레븐안성죽산제일점","tel":"031-1577-0711","addr":"경기도 안성시 죽산면 죽산리 107-11번지 1층","indutype":"유통업 영리 - 편 의 점","category":"other"}]},{"lat":"37.074515465","long":"127.42261209","imageIndex":17,"items":[{"name":"신진종합건재","tel":"031-676-6613","addr":"경기도 안성시 죽산면 죽산리 508-10번지","indutype":"건축자재 - 목재·석재·철물","category":"other"}]},{"lat":"37.075710614","long":"127.42352955","imageIndex":17,"items":[{"name":"신흥상회","tel":"031-676-6264","addr":"경기도 안성시 죽산면 죽산리 437-9","indutype":"신변잡화 - 제화","category":"other"}]},{"lat":"37.075994871","long":"127.42213669","imageIndex":17,"items":[{"name":"신흥축산기구","tel":"031-676-4200","addr":"경기도 안성시 죽산면 죽산리 442-22번지","indutype":"농업 - 농기계","category":"other"}]},{"lat":"37.075744779","long":"127.42405828","imageIndex":17,"items":[{"name":"쌍방울","tel":"031-676-9262","addr":"경기도 안성시 죽산면 죽산리 475-1번지","indutype":"의류 - 내의판매","category":"other"}]},{"lat":"37.076049362","long":"127.42708499","imageIndex":17,"items":[{"name":"씨유안성죽산터미널점","tel":"031-239-6693","addr":"경기도 안성시 죽산면 죽산리 123-4번지 죽산터미널","indutype":"유통업 영리 - 편 의 점","category":"other"},{"name":"죽산버스정류소","tel":"031-676-6051","addr":"경기도 안성시 죽산면 죽산리 123-4번지","indutype":"여행 - 고속버스","category":"other"},{"name":"죽산버스정류소","tel":"031-675-6136","addr":"경기도 안성시 죽산면 죽산리 123-4번지","indutype":"여행 - 고속버스","category":"other"}]},{"lat":"37.074908294","long":"127.42363757","imageIndex":17,"items":[{"name":"아름다운세상","tel":"031-675-7296","addr":"경기도 안성시 죽산면 죽산리 435-2번지 용강프라자 2층 203호","indutype":"신변잡화 - 기타잡화","category":"other"}]},{"lat":"37.075575509","long":"127.42604777","imageIndex":17,"items":[{"name":"아방스이불.커텐","tel":"031-677-2813","addr":"경기도 안성시 죽산면 죽산리 105-9번지","indutype":"직물 - 침구·수예점","category":"other"},{"name":"하나프라자","tel":"031-691-1316","addr":"경기도 안성시 죽산면 죽산리 105-9번지","indutype":"전기제품 - 가전제품","category":"other"}]},{"lat":"37.076910702","long":"127.42305262","imageIndex":17,"items":[{"name":"안성맞춤가구","tel":"031-637-4863","addr":"경기도 안성시 죽산면 죽산리 440-1번지","indutype":"가구 - 일반가구","category":"other"}]},{"lat":"37.075964518","long":"127.42561136","imageIndex":17,"items":[{"name":"이불랜드","tel":"031-675-0776","addr":"경기도 안성시 죽산면 죽산리 106-4번지 이불랜드","indutype":"직물 - 침구·수예점","category":"other"}]},{"lat":"37.0764107","long":"127.42682835","imageIndex":17,"items":[{"name":"정성부동산컨설팅","tel":"031-676-8860","addr":"경기도 안성시 죽산면 죽산리 118-3번지 1층","indutype":"용역 서비스 - 사무서비스","category":"other"}]},{"lat":"37.075188546","long":"127.42591068","imageIndex":17,"items":[{"name":"죽산BYC","tel":"031-677-5352","addr":"경기도 안성시 죽산면 죽산리 104-5번지 1층","indutype":"의류 - 내의판매","category":"other"},{"name":"하모니크린세탁","tel":"031-676-5116","addr":"경기도 안성시 죽산면 죽산리 104-5번지 1층 102호","indutype":"수리서비스 - 세탁소","category":"other"}]},{"lat":"37.075327731","long":"127.42730587","imageIndex":17,"items":[{"name":"죽산농업협동조합","tel":"031-676-6771","addr":"경기도 안성시 죽산면 죽산리 101-1번지","indutype":"유통업 비영리 - 농,축협 직영매장","category":"other"}]},{"lat":"37.075408881","long":"127.42222342","imageIndex":17,"items":[{"name":"죽산우체국","tel":"031-676-6000","addr":"경기도 안성시 죽산면 죽산리 428-7번지","indutype":"용역 서비스 - 공공요금대행서비스/소","category":"other"}]},{"lat":"37.075549703","long":"127.42316881","imageIndex":17,"items":[{"name":"죽산이불집","tel":"031-675-5272","addr":"경기도 안성시 죽산면 죽산리 437-5","indutype":"직물 - 침구·수예점","category":"other"}]},{"lat":"37.077597617","long":"127.43002873","imageIndex":17,"items":[{"name":"죽주공인계량소","tel":"031-676-5006","addr":"경기도 안성시 죽산면 죽산리 145-8번지","indutype":"용역 서비스 - 사무서비스","category":"other"}]},{"lat":"37.083351442","long":"127.43110694","imageIndex":17,"items":[{"name":"휘모리야생화","tel":"031-426-2653","addr":"경기도 안성시 죽산면 죽산리 241번지","indutype":"문화.취미 - 화원","category":"other"}]}]