[{"lat":"37.701964956","long":"126.90005617","imageIndex":13,"items":[{"name":"STOP#김민하헤어갤러리","tel":"031-964-0100","addr":"경기도 고양시 덕양구 고양동 239-8번지","indutype":"보건위생 - 미용원","category":"beauty"}]},{"lat":"37.701020418","long":"126.90175836","imageIndex":13,"items":[{"name":"S헤어(에스헤어)","tel":"031-964-5255","addr":"경기도 고양시 덕양구 고양동 243번지","indutype":"보건위생 - 미용원","category":"beauty"},{"name":"비엔비헤어","tel":"031-963-0958","addr":"경기도 고양시 덕양구 고양동 243번지","indutype":"보건위생 - 미용원","category":"beauty"}]},{"lat":"37.705850235","long":"126.90253426","imageIndex":13,"items":[{"name":"e안경콘텍트","tel":"031-964-3210","addr":"경기도 고양시 덕양구 고양동 170번지","indutype":"보건위생 - 안경","category":"beauty"}]},{"lat":"37.711376929","long":"126.90710851","imageIndex":13,"items":[{"name":"iBrush","tel":"02-2187-2861","addr":"경기도 고양시 덕양구 고양동 599번지","indutype":"보건위생 - 의료용품","category":"beauty"}]},{"lat":"37.706796127","long":"126.9023969","imageIndex":13,"items":[{"name":"개성시대","tel":"031-963-4785","addr":"경기도 고양시 덕양구 고양동 33-6번지","indutype":"보건위생 - 미용원","category":"beauty"}]},{"lat":"37.715066537","long":"126.90192074","imageIndex":13,"items":[{"name":"고양동뷰티몽","tel":"070-8952-2609","addr":"경기도 고양시 덕양구 고양동 865번지 광명주택","indutype":"보건위생 - 피부미용실","category":"beauty"}]},{"lat":"37.705012265","long":"126.90244467","imageIndex":13,"items":[{"name":"고양체형운동원","tel":"031-963-7556","addr":"경기도 고양시 덕양구 고양동 158번지","indutype":"보건위생 - 기타대인서비스","category":"beauty"}]},{"lat":"37.700380248","long":"126.90119227","imageIndex":13,"items":[{"name":"기바라기스킨케어","tel":"070-8160-8000","addr":"경기도 고양시 덕양구 고양동 248-74번지","indutype":"보건위생 - 피부미용실","category":"beauty"},{"name":"리치헤어","tel":"031-964-9909","addr":"경기도 고양시 덕양구 고양동 248-74번지","indutype":"보건위생 - 미용원","category":"beauty"}]},{"lat":"37.705044634","long":"126.89822619","imageIndex":13,"items":[{"name":"끌림","tel":"031-963-0292","addr":"경기도 고양시 덕양구 고양동 373번지","indutype":"보건위생 - 미용원","category":"beauty"}]},{"lat":"37.703380291","long":"126.90100674","imageIndex":13,"items":[{"name":"남성컷트전문점나이스","tel":"031-964-8279","addr":"경기도 고양시 덕양구 고양동 233-13번지","indutype":"보건위생 - 미용원","category":"beauty"}]},{"lat":"37.708769625","long":"126.90285919","imageIndex":13,"items":[{"name":"네일두","tel":"031-969-9867","addr":"경기도 고양시 덕양구 고양동 721번지","indutype":"보건위생 - 피부미용실","category":"beauty"},{"name":"썬미용실","tel":"031-962-0170","addr":"경기도 고양시 덕양구 고양동 721번지","indutype":"보건위생 - 미용원","category":"beauty"},{"name":"와이비헤어갤러리","tel":"031-962-3707","addr":"경기도 고양시 덕양구 고양동 721번지","indutype":"보건위생 - 미용원","category":"beauty"},{"name":"헤어무늬(hair mooni)","tel":"031-962-2335","addr":"경기도 고양시 덕양구 고양동 721번지","indutype":"보건위생 - 미용원","category":"beauty"}]},{"lat":"37.70246179","long":"126.90156363","imageIndex":13,"items":[{"name":"더페이스샵 고양점","tel":"031-962-6977","addr":"경기도 고양시 덕양구 고양동 231-1번지","indutype":"보건위생 - 화장품","category":"beauty"}]},{"lat":"37.703128637","long":"126.90172148","imageIndex":13,"items":[{"name":"디스타일헤어","tel":"","addr":"경기도 고양시 덕양구 고양동 225-1번지","indutype":"보건위생 - 미용원","category":"beauty"},{"name":"렌즈미고양점","tel":"031-964-0075","addr":"경기도 고양시 덕양구 고양동 225-1번지","indutype":"보건위생 - 안경","category":"beauty"},{"name":"안경마을","tel":"031-970-0022","addr":"경기도 고양시 덕양구 고양동 225-1번지","indutype":"보건위생 - 안경","category":"beauty"}]},{"lat":"37.711898819","long":"126.90629129","imageIndex":13,"items":[{"name":"명진옵틱","tel":"031-957-9875","addr":"경기도 고양시 덕양구 고양동 734번지 푸른마을4단지아파트","indutype":"보건위생 - 안경","category":"beauty"}]},{"lat":"37.710267082","long":"126.90507995","imageIndex":13,"items":[{"name":"모모헤어","tel":"031-969-1884","addr":"경기도 고양시 덕양구 고양동 682번지","indutype":"보건위생 - 미용원","category":"beauty"}]},{"lat":"37.705462745","long":"126.90244406","imageIndex":13,"items":[{"name":"모찌스킨","tel":"031-000-0000","addr":"경기도 고양시 덕양구 고양동 165번지","indutype":"보건위생 - 화장품","category":"beauty"},{"name":"컷트클럽","tel":"031-969-2528","addr":"경기도 고양시 덕양구 고양동","indutype":"보건위생 - 미용원","category":"beauty"}]},{"lat":"37.711455981","long":"126.9046361","imageIndex":13,"items":[{"name":"바리퀸","tel":"031-000-0000","addr":"경기도 고양시 덕양구 고양동 752번지 푸른마을7단지아파트","indutype":"보건위생 - 피부미용실","category":"beauty"},{"name":"와이헤어","tel":"031-818-6601","addr":"경기도 고양시 덕양구 고양동","indutype":"보건위생 - 미용원","category":"beauty"}]},{"lat":"37.703901833","long":"126.89983804","imageIndex":13,"items":[{"name":"뷰티샵","tel":"031-969-1706","addr":"경기도 고양시 덕양구 고양동 109번지","indutype":"보건위생 - 미용원","category":"beauty"}]},{"lat":"37.711616714","long":"126.90292341","imageIndex":13,"items":[{"name":"비씨씨컴퍼니","tel":"02-322-6608","addr":"경기도 고양시 덕양구 고양동 719번지 푸른마을3단지아파트","indutype":"보건위생 - 안경","category":"beauty"}]},{"lat":"37.715292155","long":"126.90236275","imageIndex":13,"items":[{"name":"쁘니헤어","tel":"031-969-0677","addr":"경기도 고양시 덕양구 고양동 869번지","indutype":"보건위생 - 미용원","category":"beauty"}]},{"lat":"37.703100866","long":"126.90085971","imageIndex":13,"items":[{"name":"살롱드르뽀렘","tel":"070-8118-1078","addr":"경기도 고양시 덕양구 고양동 233-9번지","indutype":"보건위생 - 미용원","category":"beauty"}]},{"lat":"37.706958772","long":"126.90295235","imageIndex":13,"items":[{"name":"성지이용원","tel":"031-964-3522","addr":"경기도 고양시 덕양구 고양동 176-8번지","indutype":"보건위생 - 이용원","category":"beauty"}]},{"lat":"37.705575382","long":"126.89730691","imageIndex":13,"items":[{"name":"손이 예쁜날","tel":"031-000-0000","addr":"경기도 고양시 덕양구 고양동 389-1번지","indutype":"보건위생 - 피부미용실","category":"beauty"},{"name":"예쁜아이(eye)","tel":"","addr":"경기도 고양시 덕양구 고양동 389-1번지","indutype":"보건위생 - 피부미용실","category":"beauty"}]},{"lat":"37.70390359","long":"126.90186784","imageIndex":13,"items":[{"name":"스킨푸드 고양점","tel":"070-4388-0855","addr":"경기도 고양시 덕양구 고양동 124-2번지","indutype":"보건위생 - 화장품","category":"beauty"}]},{"lat":"37.705771831","long":"126.89535615","imageIndex":13,"items":[{"name":"씨에이치 트레이딩","tel":"","addr":"경기도 고양시 덕양구 고양동 414-17번지 윤창아파트","indutype":"보건위생 - 화장품","category":"beauty"}]},{"lat":"37.712267503","long":"126.90542889","imageIndex":13,"items":[{"name":"아모레카운셀러","tel":"02-338-5345","addr":"경기도 고양시 덕양구 고양동 724번지 푸른마을6단지아파트","indutype":"보건위생 - 화장품","category":"beauty"}]},{"lat":"37.70473873","long":"126.8987029","imageIndex":13,"items":[{"name":"아이리스헤어샵","tel":"031-813-5700","addr":"경기도 고양시 덕양구 고양동 89번지","indutype":"보건위생 - 미용원","category":"beauty"}]},{"lat":"37.704345012","long":"126.90181054","imageIndex":13,"items":[{"name":"아트안경","tel":"031-963-4395","addr":"경기도 고양시 덕양구 고양동 120-1번지","indutype":"보건위생 - 안경","category":"beauty"}]},{"lat":"37.700353659","long":"126.90170257","imageIndex":13,"items":[{"name":"안경디씨90","tel":"031-963-2001","addr":"경기도 고양시 덕양구 고양동 244-8번지","indutype":"보건위생 - 안경","category":"beauty"}]},{"lat":"37.717318437","long":"126.90133925","imageIndex":13,"items":[{"name":"에스앤에스헤어클럽","tel":"031-8076-8969","addr":"경기도 고양시 덕양구 고양동 968번지","indutype":"보건위생 - 미용원","category":"beauty"}]},{"lat":"37.703902652","long":"126.90077923","imageIndex":13,"items":[{"name":"여우머리","tel":"031-969-0971","addr":"경기도 고양시 덕양구 고양동 114-2번지","indutype":"보건위생 - 미용원","category":"beauty"}]},{"lat":"37.705651947","long":"126.90244381","imageIndex":13,"items":[{"name":"연인","tel":"031-570-1621","addr":"경기도 고양시 덕양구 고양동 167번지","indutype":"보건위생 - 화장품","category":"beauty"},{"name":"피부사랑","tel":"031-969-6334","addr":"경기도 고양시 덕양구 고양동","indutype":"보건위생 - 화장품","category":"beauty"}]},{"lat":"37.709455643","long":"126.90438925","imageIndex":13,"items":[{"name":"오땡큐","tel":"031-962-7656","addr":"경기도 고양시 덕양구 고양동 720번지 푸른마을2단지아파트","indutype":"보건위생 - 이용원","category":"beauty"}]},{"lat":"37.705652659","long":"126.90328296","imageIndex":13,"items":[{"name":"오존사이언스","tel":"031-966-5295","addr":"경기도 고양시 덕양구 고양동 184-25번지","indutype":"보건위생 - 의료용품","category":"beauty"}]},{"lat":"37.717184119","long":"126.90230348","imageIndex":13,"items":[{"name":"오케이뷰티","tel":"031-962-9082","addr":"경기도 고양시 덕양구 고양동 981번지","indutype":"보건위생 - 미용재료","category":"beauty"},{"name":"오케헤어","tel":"031-962-9082","addr":"경기도 고양시 덕양구 고양동 981번지","indutype":"보건위생 - 미용원","category":"beauty"}]},{"lat":"37.704795918","long":"126.90230888","imageIndex":13,"items":[{"name":"와이엔에스","tel":"070-7556-6767","addr":"경기도 고양시 덕양구 고양동 152-2번지","indutype":"보건위생 - 화장품","category":"beauty"}]},{"lat":"37.705318832","long":"126.90272775","imageIndex":13,"items":[{"name":"우래목욕탕","tel":"031-964-6496","addr":"경기도 고양시 덕양구 고양동 190번지","indutype":"보건위생 - 사우나","category":"beauty"}]},{"lat":"37.706069106","long":"126.89531036","imageIndex":13,"items":[{"name":"윤지환미용실","tel":"031-969-0491","addr":"경기도 고양시 덕양구 고양동 415-1번지","indutype":"보건위생 - 미용원","category":"beauty"}]},{"lat":"37.70395755","long":"126.90175437","imageIndex":13,"items":[{"name":"은하미용실","tel":"031-963-1363","addr":"경기도 고양시 덕양구 고양동 124-1번지","indutype":"보건위생 - 미용원","category":"beauty"}]},{"lat":"37.702714816","long":"126.90244777","imageIndex":13,"items":[{"name":"임수정미용실","tel":"031-969-8250","addr":"경기도 고양시 덕양구 고양동 197번지 삼성아파트","indutype":"보건위생 - 미용원","category":"beauty"}]},{"lat":"37.704630905","long":"126.8990319","imageIndex":13,"items":[{"name":"지선헤어스케치","tel":"031-963-6990","addr":"경기도 고양시 덕양구 고양동 69번지","indutype":"보건위생 - 미용원","category":"beauty"},{"name":"황토소금대중목욕탕","tel":"031-962-9415","addr":"경기도 고양시 덕양구 고양동 69번지","indutype":"보건위생 - 사우나","category":"beauty"}]},{"lat":"37.702957435","long":"126.90169903","imageIndex":13,"items":[{"name":"지영사","tel":"031-962-9259","addr":"경기도 고양시 덕양구 고양동 226번지","indutype":"보건위생 - 화장품","category":"beauty"}]},{"lat":"37.718481933","long":"126.90281211","imageIndex":13,"items":[{"name":"진헤어","tel":"031-967-6677","addr":"경기도 고양시 덕양구 고양동 1035번지 대림홈타운","indutype":"보건위생 - 미용원","category":"beauty"}]},{"lat":"37.703705921","long":"126.90250313","imageIndex":13,"items":[{"name":"창조미용실","tel":"031-964-9707","addr":"경기도 고양시 덕양구 고양동 133번지","indutype":"보건위생 - 미용원","category":"beauty"}]},{"lat":"37.706238206","long":"126.90319146","imageIndex":13,"items":[{"name":"클로버","tel":"070-7740-7741","addr":"경기도 고양시 덕양구 고양동 176-6번지","indutype":"보건위생 - 화장품","category":"beauty"}]},{"lat":"37.704291497","long":"126.90244564","imageIndex":13,"items":[{"name":"태양헤어뉴스","tel":"031-962-0001","addr":"경기도 고양시 덕양구 고양동 144번지","indutype":"보건위생 - 미용원","category":"beauty"}]},{"lat":"37.709932093","long":"126.90312981","imageIndex":13,"items":[{"name":"프린헤어","tel":"032-545-1215","addr":"경기도 고양시 덕양구 고양동 719번지 푸른마을3단지아파트","indutype":"보건위생 - 미용재료","category":"beauty"}]},{"lat":"37.704900259","long":"126.89797692","imageIndex":13,"items":[{"name":"피부숲","tel":"031-966-4576","addr":"경기도 고양시 덕양구 고양동 322번지","indutype":"보건위생 - 피부미용실","category":"beauty"}]},{"lat":"37.703155335","long":"126.9013359","imageIndex":13,"items":[{"name":"해피고양대리점","tel":"031-963-4323","addr":"경기도 고양시 덕양구 고양동 234-1번지","indutype":"보건위생 - 화장품","category":"beauty"}]},{"lat":"37.710266838","long":"126.9047851","imageIndex":13,"items":[{"name":"헤어디자인 하루","tel":"031-964-7758","addr":"경기도 고양시 덕양구 고양동 681번지","indutype":"보건위생 - 미용원","category":"beauty"}]},{"lat":"37.703155549","long":"126.90158537","imageIndex":13,"items":[{"name":"헤어아트","tel":"031-962-7345","addr":"경기도 고양시 덕양구 고양동 225-4번지","indutype":"보건위생 - 미용원","category":"beauty"}]},{"lat":"37.703876083","long":"126.90131223","imageIndex":13,"items":[{"name":"헤어클럽엔비","tel":"031-964-7714","addr":"경기도 고양시 덕양구 고양동 117-4번지","indutype":"보건위생 - 미용원","category":"beauty"}]},{"lat":"37.70065116","long":"126.90191761","imageIndex":13,"items":[{"name":"현대목욕탕","tel":"031-963-3732","addr":"경기도 고양시 덕양구 고양동 244번지","indutype":"보건위생 - 사우나","category":"beauty"}]},{"lat":"37.704378476","long":"126.89885082","imageIndex":13,"items":[{"name":"화영상사","tel":"","addr":"경기도 고양시 덕양구 고양동 91-1번지 한양빌라","indutype":"보건위생 - 미용재료","category":"beauty"}]},{"lat":"37.70283167","long":"126.9021301","imageIndex":13,"items":[{"name":"화이트닝피부관리","tel":"031-969-1373","addr":"경기도 고양시 덕양구 고양동 197번지 삼성아파트","indutype":"보건위생 - 피부미용실","category":"beauty"}]}]