[{"lat":"37.36476345","long":"127.3046677","imageIndex":0,"items":[{"name":"(주)원페인팅","tel":"031-4124-7848","addr":"경기도 광주시 초월읍 쌍동리 58번지","indutype":"자동차정비 유지 - 카인테리어","category":"car"}]},{"lat":"37.37064565","long":"127.3016657","imageIndex":0,"items":[{"name":"BUBBLE MAX","tel":"031-762-2785","addr":"경기도 광주시 초월읍 쌍동리 178-9번지","indutype":"자동차정비 유지 - 세차장","category":"car"}]},{"lat":"37.36825907","long":"127.3047833","imageIndex":0,"items":[{"name":"곤지암점기아오토큐","tel":"031-764-1959","addr":"경기도 광주시 초월읍 쌍동리 14-2번지","indutype":"자동차정비 유지 - 자동차정비","category":"car"}]},{"lat":"37.37161776","long":"127.3020534","imageIndex":0,"items":[{"name":"광주전자통신","tel":"070-4144-7771","addr":"경기도 광주시 초월읍 쌍동리 179-7번지 101호","indutype":"자동차정비 유지 - 자동차부품","category":"car"}]},{"lat":"37.37848287","long":"127.2950806","imageIndex":0,"items":[{"name":"국가대표 자동차유리","tel":"031-767-2882","addr":"경기도 광주시 초월읍 쌍동리 271-47번지 2층","indutype":"자동차정비 유지 - 자동차정비","category":"car"}]},{"lat":"37.36750731","long":"127.3027821","imageIndex":0,"items":[{"name":"대현","tel":"031-766-3878","addr":"경기도 광주시 초월읍 쌍동리 157-2","indutype":"자동차정비 유지 - 자동차부품","category":"car"}]},{"lat":"37.36839474","long":"127.3045806","imageIndex":0,"items":[{"name":"도곡밧데리","tel":"031-765-5178","addr":"경기도 광주시 초월읍 쌍동리 15번지","indutype":"자동차정비 유지 - 자동차정비","category":"car"}]},{"lat":"37.37403161","long":"127.2988115","imageIndex":0,"items":[{"name":"아모텍주식회사","tel":"031-768-1358","addr":"경기도 광주시 초월읍 쌍동리 262번지","indutype":"자동차정비 유지 - 자동차부품","category":"car"}]},{"lat":"37.37217835","long":"127.3012766","imageIndex":0,"items":[{"name":"태산 카 모터스","tel":"031-769-7249","addr":"경기도 광주시 초월읍 쌍동리 199-9번지 태산카모터스 1동","indutype":"자동차정비 유지 - 자동차정비","category":"car"}]},{"lat":"37.37578201","long":"127.2978361","imageIndex":0,"items":[{"name":"프리모로소","tel":"031-1111-1111","addr":"경기도 광주시 초월읍 쌍동리 257-9번지","indutype":"자동차정비 유지 - 세차장","category":"car"}]},{"lat":"37.36853454","long":"127.3027524","imageIndex":0,"items":[{"name":"한국상사","tel":"031-756-8926","addr":"경기도 광주시 초월읍 쌍동리 163-2번지","indutype":"자동차정비 유지 - 자동차부품","category":"car"}]}]