[{"lat":"37.815840911","long":"127.11076019","imageIndex":7,"items":[{"name":"(주)맛있는세상","tel":"031-865-0437","addr":"경기도 양주시 율정동 55-1번지","indutype":"음료식품 - 제과점","category":"food"}]},{"lat":"37.83985969","long":"127.10084338","imageIndex":7,"items":[{"name":"(주)히든트랙브루잉","tel":"070-4286-9193","addr":"경기도 양주시 율정동 304-13번지 에이동 비동","indutype":"음료식품 - 주류 판매점","category":"food"}]},{"lat":"37.827783252","long":"127.10533679","imageIndex":7,"items":[{"name":"농업회사법인 주식회사 청운에프앤비(F&B)","tel":"031-868-7847","addr":"경기도 양주시 율정동 185-2번지 가동","indutype":"음료식품 - 정육점","category":"food"}]},{"lat":"37.830757369","long":"127.10417091","imageIndex":7,"items":[{"name":"어화조아","tel":"031-821-2826","addr":"경기도 양주시 율정동 229-1번지 1층","indutype":"음료식품 - 농·축·수산품","category":"food"}]},{"lat":"37.826560205","long":"127.10273401","imageIndex":7,"items":[{"name":"유진생수유통","tel":"031-861-1459","addr":"경기도 양주시 율정동 414-5번지","indutype":"음료식품 - 기타음료식품","category":"food"},{"name":"평화렌탈","tel":"031-865-5706","addr":"경기도 양주시 율정동 414-5번지","indutype":"음료식품 - 기타음료식품","category":"food"}]},{"lat":"37.816313971","long":"127.10565029","imageIndex":7,"items":[{"name":"유진푸드","tel":"031-847-7942","addr":"경기도 양주시 율정동 62-1번지","indutype":"음료식품 - 기타음료식품","category":"food"}]},{"lat":"37.838643295","long":"127.08950419","imageIndex":7,"items":[{"name":"율정제분소","tel":"031-866-5093","addr":"경기도 양주시 율정동 603-21번지","indutype":"음료식품 - 제과점","category":"food"}]},{"lat":"37.819397503","long":"127.10297423","imageIndex":7,"items":[{"name":"지평편의점","tel":"031-865-7489","addr":"경기도 양주시 율정동 121-2번지","indutype":"음료식품 - 기타음료식품","category":"food"}]}]