[{"lat":"37.639718903","long":"126.81971081","imageIndex":17,"items":[{"name":"(주)다통","tel":"02-1588-0906","addr":"경기도 고양시 덕양구 대장동 54-2번지","indutype":"","category":"other"}]},{"lat":"37.63610935","long":"126.81609427","imageIndex":17,"items":[{"name":"(주)액티브몰","tel":"031-962-7602","addr":"경기도 고양시 덕양구 대장동 341-6번지","indutype":"","category":"other"}]},{"lat":"37.636330964","long":"126.81381651","imageIndex":17,"items":[{"name":"(주)엔에이피","tel":"031-905-7197","addr":"경기도 고양시 덕양구 대장동 252-8번지","indutype":"","category":"other"},{"name":"(주)엔에이피","tel":"031-905-7197","addr":"경기도 고양시 덕양구 대장동 252-8번지","indutype":"레져용품 - 스포츠·레져용품","category":"other"},{"name":"107 Kitchen","tel":"031-965-1077","addr":"경기도 고양시 덕양구 대장동 252-8번지","indutype":"","category":"other"},{"name":"주식회사 길드 1703","tel":"","addr":"경기도 고양시 덕양구 대장동 252-8번지","indutype":"건축자재 - 인테리어전문","category":"other"}]},{"lat":"37.634770415","long":"126.81265356","imageIndex":17,"items":[{"name":"HSM","tel":"031-969-0449","addr":"경기도 고양시 덕양구 대장동 380-1번지","indutype":"","category":"other"},{"name":"지향","tel":"031-968-9293","addr":"경기도 고양시 덕양구 대장동 380-1번지","indutype":"","category":"other"}]},{"lat":"37.62611123","long":"126.80129112","imageIndex":17,"items":[{"name":"KTT(케이티티)","tel":"031-969-9117","addr":"경기도 고양시 덕양구 대장동 494-1번지","indutype":"","category":"other"}]},{"lat":"37.637712677","long":"126.81584101","imageIndex":17,"items":[{"name":"[지로]엘지가스상사","tel":"031-969-9988","addr":"경기도 고양시 덕양구 대장동 309-1번지","indutype":"","category":"other"},{"name":"엘지가스상사","tel":"031-969-9986","addr":"경기도 고양시 덕양구 대장동 309-1번지","indutype":"","category":"other"}]},{"lat":"37.635997661","long":"126.81385134","imageIndex":17,"items":[{"name":"가야고기","tel":"031-967-9292","addr":"경기도 고양시 덕양구 대장동 288-1번지","indutype":"","category":"other"},{"name":"부흥슈퍼","tel":"031-967-9292","addr":"경기도 고양시 덕양구 대장동 288-1번지","indutype":"","category":"other"}]},{"lat":"37.637662047","long":"126.81801642","imageIndex":17,"items":[{"name":"감나무집","tel":"031-967-3339","addr":"경기도 고양시 덕양구 대장동 326-1번지","indutype":"","category":"other"},{"name":"평양막국수,만두전골","tel":"031-901-8844","addr":"경기도 고양시 덕양구 대장동 326-1번지","indutype":"","category":"other"}]},{"lat":"37.642492505","long":"126.81882024","imageIndex":17,"items":[{"name":"갤러리시아(Gallery SIA)","tel":"031-968-2974","addr":"경기도 고양시 덕양구 대장동 158-1번지","indutype":"문화.취미 - 민예·공예품","category":"other"},{"name":"갤러리시아(Gallery SIA)","tel":"031-968-2974","addr":"경기도 고양시 덕양구 대장동 158-1번지","indutype":"","category":"other"}]},{"lat":"37.637824948","long":"126.81848053","imageIndex":17,"items":[{"name":"고기가카페","tel":"031-966-8292","addr":"경기도 고양시 덕양구 대장동 330-6번지","indutype":"","category":"other"},{"name":"스포클(SPOCLE)","tel":"031-968-8928","addr":"경기도 고양시 덕양구 대장동 330-6번지","indutype":"레져용품 - 스포츠·레져용품","category":"other"},{"name":"스포클(SPOCLE)","tel":"031-968-8928","addr":"경기도 고양시 덕양구 대장동 330-6번지 1동","indutype":"","category":"other"}]},{"lat":"37.637332017","long":"126.81442577","imageIndex":17,"items":[{"name":"고박사 가구","tel":"031-966-0858","addr":"경기도 고양시 덕양구 대장동 298-2번지","indutype":"","category":"other"},{"name":"고박사 가구","tel":"031-966-0858","addr":"경기도 고양시 덕양구 대장동 298-2번지","indutype":"가구 - 일반가구","category":"other"}]},{"lat":"37.636691042","long":"126.81362299","imageIndex":17,"items":[{"name":"고색한지공예마을","tel":"031-970-8900","addr":"경기도 고양시 덕양구 대장동 251-3번지","indutype":"문화.취미 - 민예·공예품","category":"other"},{"name":"고색한지공예마을","tel":"031-970-8900","addr":"경기도 고양시 덕양구 대장동 251-3번지","indutype":"","category":"other"},{"name":"예빛공예","tel":"031-970-8900","addr":"경기도 고양시 덕양구 대장동 251-3번지","indutype":"","category":"other"}]},{"lat":"37.636609464","long":"126.81331731","imageIndex":17,"items":[{"name":"고색한지공예협동조합","tel":"031-965-6611","addr":"경기도 고양시 덕양구 대장동 250-2번지","indutype":"문화.취미 - 민예·공예품","category":"other"},{"name":"고색한지공예협동조합","tel":"031-965-6611","addr":"경기도 고양시 덕양구 대장동 250-2번지","indutype":"","category":"other"},{"name":"키움바이오","tel":"031-970-8900","addr":"경기도 고양시 덕양구 대장동 250-2번지","indutype":"문화.취미 - 화원","category":"other"},{"name":"한지공예마을","tel":"031-970-8900","addr":"경기도 고양시 덕양구 대장동 250-2번지","indutype":"","category":"other"}]},{"lat":"37.635049404","long":"126.81246025","imageIndex":17,"items":[{"name":"교육시크릿","tel":"02-111-1111","addr":"경기도 고양시 덕양구 대장동 285-3번지","indutype":"서적문구 - 기타서적문구","category":"other"},{"name":"로그인편의점 대곡역점","tel":"031-554-6699","addr":"경기도 고양시 덕양구 대장동 285-3번지","indutype":"유통업 영리 - 편 의 점","category":"other"},{"name":"로그인편의점 대곡역점","tel":"031-554-6699","addr":"경기도 고양시 덕양구 대장동 285-3번지","indutype":"","category":"other"}]},{"lat":"37.638220948","long":"126.81820764","imageIndex":17,"items":[{"name":"그린시스템","tel":"031-974-5166","addr":"경기도 고양시 덕양구 대장동 328-1번지","indutype":"용역 서비스 - 기타용역서비스","category":"other"},{"name":"그린시스템","tel":"031-974-5166","addr":"경기도 고양시 덕양구 대장동 328-1번지","indutype":"","category":"other"}]},{"lat":"37.628827732","long":"126.79871227","imageIndex":17,"items":[{"name":"기풍오리","tel":"031-970-0024","addr":"경기도 고양시 덕양구 대장동 498-49번지","indutype":"","category":"other"}]},{"lat":"37.625051151","long":"126.80309509","imageIndex":17,"items":[{"name":"능곡난원","tel":"031-970-8627","addr":"경기도 고양시 덕양구 대장동 490-91번지","indutype":"","category":"other"},{"name":"능곡난원","tel":"031-970-8627","addr":"경기도 고양시 덕양구 대장동 490-91번지","indutype":"문화.취미 - 화원","category":"other"}]},{"lat":"37.63799719","long":"126.81346107","imageIndex":17,"items":[{"name":"대양모터스","tel":"031-972-0909","addr":"경기도 고양시 덕양구 대장동 238번지","indutype":"","category":"other"}]},{"lat":"37.637439118","long":"126.81379104","imageIndex":17,"items":[{"name":"대연사","tel":"","addr":"경기도 고양시 덕양구 대장동 299-1번지","indutype":"","category":"other"},{"name":"대연사","tel":"","addr":"경기도 고양시 덕양구 대장동 299-1번지","indutype":"의류 - 기타의류","category":"other"}]},{"lat":"37.637132298","long":"126.81348592","imageIndex":17,"items":[{"name":"대장리사철탕","tel":"031-964-2944","addr":"경기도 고양시 덕양구 대장동 299-6번지","indutype":"","category":"other"}]},{"lat":"37.636828505","long":"126.81507282","imageIndex":17,"items":[{"name":"대한불교극락종","tel":"031-966-0177","addr":"경기도 고양시 덕양구 대장동 295번지","indutype":"기타 - 비영리/대상","category":"other"},{"name":"대한불교극락종","tel":"031-966-0177","addr":"경기도 고양시 덕양구 대장동 295번지","indutype":"","category":"other"},{"name":"애플마켓","tel":"031-963-0307","addr":"경기도 고양시 덕양구 대장동 295번지","indutype":"","category":"other"},{"name":"영덕건축","tel":"031-969-7203","addr":"경기도 고양시 덕양구 대장동 295번지","indutype":"","category":"other"}]},{"lat":"37.636269851","long":"126.81504024","imageIndex":17,"items":[{"name":"더 온다","tel":"031-966-7142","addr":"경기도 고양시 덕양구 대장동 292-1번지","indutype":"","category":"other"},{"name":"더 온다","tel":"031-966-7142","addr":"경기도 고양시 덕양구 대장동 292-1번지","indutype":"","category":"other"}]},{"lat":"37.62522197","long":"126.80287941","imageIndex":17,"items":[{"name":"더함유통","tel":"02-909-2090","addr":"경기도 고양시 덕양구 대장동 490-89번지","indutype":"","category":"other"}]},{"lat":"37.636804758","long":"126.81714618","imageIndex":17,"items":[{"name":"돈주리","tel":"031-962-5868","addr":"경기도 고양시 덕양구 대장동 318-1번지","indutype":"","category":"other"}]},{"lat":"37.643327826","long":"126.82298779","imageIndex":17,"items":[{"name":"동서농원","tel":"031-969-0863","addr":"경기도 고양시 덕양구 대장동 550-1번지","indutype":"문화.취미 - 화원","category":"other"}]},{"lat":"37.644072937","long":"126.82122975","imageIndex":17,"items":[{"name":"동일특수여객(영구차)","tel":"031-810-5444","addr":"경기도 고양시 덕양구 대장동 122-2번지","indutype":"","category":"other"},{"name":"동일특수여객(영구차)","tel":"031-810-5444","addr":"경기도 고양시 덕양구 대장동 122-2번지","indutype":"용역 서비스 - 가례서비스업","category":"other"}]},{"lat":"37.640383198","long":"126.81815697","imageIndex":17,"items":[{"name":"라온나래(Laonarae)","tel":"","addr":"경기도 고양시 덕양구 대장동 196-5번지","indutype":"서적문구 - 문구용품","category":"other"}]},{"lat":"37.638300381","long":"126.81715378","imageIndex":17,"items":[{"name":"러브로샤2","tel":"070-2699-0807","addr":"경기도 고양시 덕양구 대장동 219-2번지","indutype":"","category":"other"}]},{"lat":"37.637107444","long":"126.81484553","imageIndex":17,"items":[{"name":"럭키사","tel":"031-974-4444","addr":"경기도 고양시 덕양구 대장동 297-2번지","indutype":"","category":"other"},{"name":"럭키사","tel":"031-974-4444","addr":"경기도 고양시 덕양구 대장동 297-2번지","indutype":"용역 서비스 - 가례서비스업","category":"other"},{"name":"럭키사","tel":"031-974-4444","addr":"경기도 고양시 덕양구 대장동 297-2번지","indutype":"용역 서비스 - 가례서비스업","category":"other"},{"name":"럭키사","tel":"031-974-4444","addr":"경기도 고양시 덕양구 대장동 297-2번지","indutype":"","category":"other"}]},{"lat":"37.635744044","long":"126.81301361","imageIndex":17,"items":[{"name":"림공방","tel":"031-967-6190","addr":"경기도 고양시 덕양구 대장동 255-12번지","indutype":"문화.취미 - 문화취미기타","category":"other"},{"name":"림공방","tel":"031-967-6190","addr":"경기도 고양시 덕양구 대장동 255-12번지","indutype":"","category":"other"}]},{"lat":"37.628966795","long":"126.80098888","imageIndex":17,"items":[{"name":"마포상사","tel":"02-305-6281","addr":"경기도 고양시 덕양구 대장동 430-1번지","indutype":"","category":"other"}]},{"lat":"37.631440498","long":"126.79868247","imageIndex":17,"items":[{"name":"만냥금농원","tel":"031-904-8871","addr":"경기도 고양시 덕양구 대장동","indutype":"문화.취미 - 화원","category":"other"},{"name":"만냥금농원","tel":"031-904-8871","addr":"경기도 고양시 덕양구 대장동 405-3","indutype":"","category":"other"}]},{"lat":"37.637796481","long":"126.8175629","imageIndex":17,"items":[{"name":"명성디자인","tel":"070-4038-7750","addr":"경기도 고양시 덕양구 대장동 322-11번지","indutype":"","category":"other"},{"name":"명성디자인","tel":"070-4038-7750","addr":"경기도 고양시 덕양구 대장동 322-11번지","indutype":"건축자재 - 기타건축자재","category":"other"}]},{"lat":"37.626048027","long":"126.801212","imageIndex":17,"items":[{"name":"미도수산","tel":"031-971-1391","addr":"경기도 고양시 덕양구 대장동 495-4번지","indutype":"","category":"other"}]},{"lat":"37.633554264","long":"126.8072414","imageIndex":17,"items":[{"name":"미사랑플라워","tel":"031-1588-6879","addr":"경기도 고양시 덕양구 대장동","indutype":"문화.취미 - 화원","category":"other"},{"name":"미사랑플라워","tel":"031-1588-6879","addr":"경기도 고양시 덕양구 대장동 415-19번지","indutype":"","category":"other"}]},{"lat":"37.638079385","long":"126.81415197","imageIndex":17,"items":[{"name":"미소드림","tel":"031-962-1585","addr":"경기도 고양시 덕양구 대장동 238-3번지","indutype":"","category":"other"},{"name":"에스비산초","tel":"031-962-1585","addr":"경기도 고양시 덕양구 대장동 238-3번지","indutype":"","category":"other"}]},{"lat":"37.645109484","long":"126.8215105","imageIndex":17,"items":[{"name":"바로캠핑","tel":"070-2253-4289","addr":"경기도 고양시 덕양구 대장동 128번지","indutype":"","category":"other"}]},{"lat":"37.641908516","long":"126.81987539","imageIndex":17,"items":[{"name":"복음메디칼","tel":"031-971-9720","addr":"경기도 고양시 덕양구 대장동 62번지 소나무빌라","indutype":"","category":"other"}]},{"lat":"37.628746155","long":"126.79842929","imageIndex":17,"items":[{"name":"볼로","tel":"031-111-1111","addr":"경기도 고양시 덕양구 대장동 498-53번지","indutype":"레져용품 - 스포츠·레져용품","category":"other"},{"name":"제이시트","tel":"031-111-1111","addr":"경기도 고양시 덕양구 대장동 498-53번지","indutype":"","category":"other"}]},{"lat":"37.63977086","long":"126.81836242","imageIndex":17,"items":[{"name":"부부치즈","tel":"","addr":"경기도 고양시 덕양구 대장동 201-1번지 2동","indutype":"","category":"other"}]},{"lat":"37.63888601","long":"126.81715232","imageIndex":17,"items":[{"name":"서경SH","tel":"031-967-9655","addr":"경기도 고양시 덕양구 대장동 219-1번지","indutype":"직물 - 카페트,커튼,천막,지물","category":"other"}]},{"lat":"37.638886046","long":"126.81717498","imageIndex":17,"items":[{"name":"서경SH","tel":"031-967-9655","addr":"경기도 고양시 덕양구 대장동 219-1번지","indutype":"","category":"other"}]},{"lat":"37.626857424","long":"126.80034889","imageIndex":17,"items":[{"name":"서울난농원","tel":"031-938-3311","addr":"경기도 고양시 덕양구 대장동 497-39번지","indutype":"문화.취미 - 화원","category":"other"},{"name":"서울난농원","tel":"031-938-3311","addr":"경기도 고양시 덕양구 대장동 497-39번지","indutype":"","category":"other"}]},{"lat":"37.640881326","long":"126.81982126","imageIndex":17,"items":[{"name":"세연아트","tel":"031-966-4288","addr":"경기도 고양시 덕양구 대장동 57-2번지","indutype":"의류 - 기타의류","category":"other"},{"name":"세연아트","tel":"031-966-4288","addr":"경기도 고양시 덕양구 대장동 57-2번지","indutype":"","category":"other"}]},{"lat":"37.636771602","long":"126.81329423","imageIndex":17,"items":[{"name":"솔잎농원","tel":"031-962-5700","addr":"경기도 고양시 덕양구 대장동 250번지","indutype":"","category":"other"}]},{"lat":"37.639661981","long":"126.81787551","imageIndex":17,"items":[{"name":"수재내농장","tel":"031-962-6060","addr":"경기도 고양시 덕양구 대장동 201-3번지","indutype":"","category":"other"}]},{"lat":"37.635105324","long":"126.82520549","imageIndex":17,"items":[{"name":"식물나라","tel":"031-974-7906","addr":"경기도 고양시 덕양구 대장동 559-12번지","indutype":"","category":"other"},{"name":"식물나라","tel":"031-974-7906","addr":"경기도 고양시 덕양구 대장동 559-12번지","indutype":"문화.취미 - 화원","category":"other"}]},{"lat":"37.627111034","long":"126.80112983","imageIndex":17,"items":[{"name":"신도시플라워","tel":"031-902-5539","addr":"경기도 고양시 덕양구 대장동 490-74번지","indutype":"","category":"other"},{"name":"신도시플라워","tel":"031-902-5539","addr":"경기도 고양시 덕양구 대장동 490-74번지","indutype":"문화.취미 - 화원","category":"other"},{"name":"전태일플라워","tel":"031-938-2700","addr":"경기도 고양시 덕양구 대장동 490-74번지","indutype":"","category":"other"},{"name":"전태일플라워","tel":"031-938-2700","addr":"경기도 고양시 덕양구 대장동","indutype":"문화.취미 - 화원","category":"other"},{"name":"플라워마트","tel":"","addr":"경기도 고양시 덕양구 대장동 490-74번지","indutype":"문화.취미 - 화원","category":"other"},{"name":"플라워마트","tel":"","addr":"경기도 고양시 덕양구 대장동 490-74번지","indutype":"","category":"other"}]},{"lat":"37.63566089","long":"126.81173361","imageIndex":17,"items":[{"name":"써니의베란다이야기","tel":"031-925-3714","addr":"경기도 고양시 덕양구 대장동 284-6번지","indutype":"","category":"other"}]},{"lat":"37.624772234","long":"126.80332239","imageIndex":17,"items":[{"name":"썬플라워","tel":"031-971-4303","addr":"경기도 고양시 덕양구 대장동 490-207번지","indutype":"","category":"other"}]},{"lat":"37.634771676","long":"126.82501368","imageIndex":17,"items":[{"name":"씨앤에이치","tel":"031-971-4234","addr":"경기도 고양시 덕양구 대장동 30-2번지","indutype":"","category":"other"}]},{"lat":"37.640662977","long":"126.81846219","imageIndex":17,"items":[{"name":"아이언코리아","tel":"031-965-7269","addr":"경기도 고양시 덕양구 대장동 194-4번지","indutype":"","category":"other"}]},{"lat":"37.627186791","long":"126.80329328","imageIndex":17,"items":[{"name":"에코그린","tel":"031-978-9741","addr":"경기도 고양시 덕양구 대장동 490-163번지","indutype":"용역 서비스 - 기타용역서비스","category":"other"},{"name":"한솔닥트","tel":"031-970-1404","addr":"경기도 고양시 덕양구 대장동 490-163번지","indutype":"용역 서비스 - 기타용역서비스","category":"other"}]},{"lat":"37.637133985","long":"126.81453956","imageIndex":17,"items":[{"name":"엠.에스디자인(M.S)","tel":"031-963-1992","addr":"경기도 고양시 덕양구 대장동","indutype":"가구 - 일반가구","category":"other"},{"name":"엠.에스디자인(M.S)","tel":"031-963-1992","addr":"경기도 고양시 덕양구 대장동 298-2번지","indutype":"","category":"other"}]},{"lat":"37.636165211","long":"126.81159637","imageIndex":17,"items":[{"name":"엠아이자동차내외장관리학원","tel":"031-907-2585","addr":"경기도 고양시 덕양구 대장동 262-1번지","indutype":"","category":"other"}]},{"lat":"37.641081204","long":"126.82089713","imageIndex":17,"items":[{"name":"역전상회","tel":"031-962-5727","addr":"경기도 고양시 덕양구 대장동 69-2번지","indutype":"","category":"other"}]},{"lat":"37.645188596","long":"126.82022993","imageIndex":17,"items":[{"name":"오두막집","tel":"031-965-5251","addr":"경기도 고양시 덕양구 대장동 135-2번지","indutype":"","category":"other"},{"name":"유니웰고양평화우정지사","tel":"031-965-5251","addr":"경기도 고양시 덕양구 대장동 135-2번지","indutype":"","category":"other"}]},{"lat":"37.636523608","long":"126.81037187","imageIndex":17,"items":[{"name":"우리절","tel":"031-968-2220","addr":"경기도 고양시 덕양구 대장동 274번지","indutype":"","category":"other"},{"name":"우리절","tel":"031-968-2220","addr":"경기도 고양시 덕양구 대장동 274번지","indutype":"기타 - 비영리/대상","category":"other"}]},{"lat":"37.632829808","long":"126.81048336","imageIndex":17,"items":[{"name":"원기보신탕","tel":"032-968-6674","addr":"경기도 고양시 덕양구 대장동 397-1번지","indutype":"","category":"other"},{"name":"원기보신탕","tel":"031-968-6674","addr":"경기도 고양시 덕양구 대장동 397-1번지","indutype":"","category":"other"}]},{"lat":"37.638438878","long":"126.81929476","imageIndex":17,"items":[{"name":"월드밧데리","tel":"","addr":"경기도 고양시 덕양구 대장동 329-8번지","indutype":"","category":"other"}]},{"lat":"37.640855577","long":"126.82064842","imageIndex":17,"items":[{"name":"유리바다","tel":"031-938-0757","addr":"경기도 고양시 덕양구 대장동 68-5번지","indutype":"신변잡화 - 기념품점","category":"other"}]},{"lat":"37.64110514","long":"126.81890297","imageIndex":17,"items":[{"name":"장원","tel":"031-962-9117","addr":"경기도 고양시 덕양구 대장동 193-5번지","indutype":"","category":"other"}]},{"lat":"37.63621353","long":"126.8136242","imageIndex":17,"items":[{"name":"주식회사 엔에이피FEEL스크린지점","tel":"031-971-1307","addr":"경기도 고양시 덕양구 대장동 252-7번지","indutype":"회원제형태 - 레져업소","category":"other"},{"name":"주식회사 엔에이피FEEL스크린지점","tel":"031-971-1307","addr":"경기도 고양시 덕양구 대장동 252-7번지","indutype":"","category":"other"}]},{"lat":"37.644441652","long":"126.82078696","imageIndex":17,"items":[{"name":"주식회사 틔움세상","tel":"031-966-3409","addr":"경기도 고양시 덕양구 대장동 122-1번지","indutype":"","category":"other"},{"name":"주식회사 틔움세상","tel":"031-966-3409","addr":"경기도 고양시 덕양구 대장동 122-1번지","indutype":"문화.취미 - 화원","category":"other"}]},{"lat":"37.640079536","long":"126.81986855","imageIndex":17,"items":[{"name":"주식회사쓰리텍서울","tel":"031-973-1144","addr":"경기도 고양시 덕양구 대장동 55-5번지","indutype":"","category":"other"},{"name":"주식회사쓰리텍서울","tel":"031-973-1144","addr":"경기도 고양시 덕양구 대장동 55-5번지","indutype":"직물 - 카페트,커튼,천막,지물","category":"other"}]},{"lat":"37.636162581","long":"126.81557299","imageIndex":17,"items":[{"name":"주식회사씨엔지푸드시스템/천연포크(1)","tel":"02-867-7582","addr":"경기도 고양시 덕양구 대장동 292-5,292-6","indutype":"","category":"other"},{"name":"주식회사씨엔지푸드시스템/천연포크(1)","tel":"031-965-9966","addr":"경기도 고양시 덕양구 대장동 292-5번지","indutype":"","category":"other"}]},{"lat":"37.642551418","long":"126.8219586","imageIndex":17,"items":[{"name":"지바화원","tel":"031-967-8358","addr":"경기도 고양시 덕양구 대장동 76-15","indutype":"","category":"other"}]},{"lat":"37.636411433","long":"126.8134311","imageIndex":17,"items":[{"name":"청송매운탕","tel":"031-963-5910","addr":"경기도 고양시 덕양구 대장동 252-2번지","indutype":"","category":"other"}]},{"lat":"37.637498645","long":"126.81723508","imageIndex":17,"items":[{"name":"청학식품","tel":"031-818-7770","addr":"경기도 고양시 덕양구 대장동 321-2번지","indutype":"","category":"other"}]},{"lat":"37.636824949","long":"126.81285225","imageIndex":17,"items":[{"name":"카오스시스템","tel":"","addr":"경기도 고양시 덕양구 대장동 241번지","indutype":"","category":"other"}]},{"lat":"37.637608326","long":"126.81823182","imageIndex":17,"items":[{"name":"타임소프트 TIMESOFT","tel":"","addr":"경기도 고양시 덕양구 대장동 330-2번지","indutype":"사무통신 - 컴퓨터","category":"other"},{"name":"타임소프트 TIMESOFT","tel":"","addr":"경기도 고양시 덕양구 대장동 330-2번지","indutype":"","category":"other"}]},{"lat":"37.641357411","long":"126.81890235","imageIndex":17,"items":[{"name":"하나냉동","tel":"031-964-5147","addr":"경기도 고양시 덕양구 대장동 193-1번지","indutype":"전기제품 - 냉열기기","category":"other"}]},{"lat":"37.63313461","long":"126.81512743","imageIndex":17,"items":[{"name":"하나로농장","tel":"031-907-3508","addr":"경기도 고양시 덕양구 대장동","indutype":"농업 - 비료,사료,종자","category":"other"},{"name":"하나로농장","tel":"031-907-3508","addr":"경기도 고양시 덕양구 대장동 567-3","indutype":"","category":"other"}]},{"lat":"37.64094309","long":"126.81898268","imageIndex":17,"items":[{"name":"한일furniture","tel":"031-965-1217","addr":"경기도 고양시 덕양구 대장동 193-7번지","indutype":"주방용구 - 주방용구","category":"other"}]},{"lat":"37.625582069","long":"126.80270853","imageIndex":17,"items":[{"name":"호수화원","tel":"031-970-1737","addr":"경기도 고양시 덕양구 대장동","indutype":"문화.취미 - 화원","category":"other"},{"name":"호수화원","tel":"031-970-1737","addr":"경기도 고양시 덕양구 대장동 490-266","indutype":"","category":"other"}]}]