[{"lat":"37.3418080343","long":"126.9719271070","imageIndex":13,"items":[{"name":"(재)의왕시청소년육성재단 (상담복지센터)","tel":"031-477-1881","addr":"경기도 의왕시 고천동 100-1번지","indutype":"레저업소 - 기타레져업소","category":"leisure"},{"name":"재단법인 의왕시청소년육성재단","tel":"031-477-1881","addr":"경기도 의왕시 고천동 100-1번지","indutype":"레저업소 - 기타레져업소","category":"leisure"}]},{"lat":"37.3491424834","long":"126.9725899774","imageIndex":13,"items":[{"name":"sky 골프","tel":"031-450-6700","addr":"경기도 의왕시 고천동 290-2번지 2층","indutype":"레저업소 - 스크린골프","category":"leisure"},{"name":"스카이 노래연습장","tel":"031-450-6696","addr":"경기도 의왕시 고천동 290-2번지 대영골든밸리 101호","indutype":"레저업소 - 노 래 방","category":"leisure"},{"name":"크로스핏 라피드","tel":"031-000-0000","addr":"경기도 의왕시 고천동 290-2번지 지층 B105호","indutype":"레저업소 - 헬스클럽","category":"leisure"}]},{"lat":"37.3464218488","long":"126.9743403585","imageIndex":13,"items":[{"name":"굿샷골프","tel":"031-455-5070","addr":"경기도 의왕시 고천동 240-5번지 태보빌딩 2층","indutype":"레저업소 - 스크린골프","category":"leisure"}]},{"lat":"37.3471698567","long":"126.9750285115","imageIndex":13,"items":[{"name":"무림당구클럽","tel":"070-4246-2646","addr":"경기도 의왕시 고천동 276-8번지 대림빌딩 201호","indutype":"레저업소 - 당 구 장","category":"leisure"},{"name":"비.제이","tel":"031-455-7755","addr":"경기도 의왕시 고천동 276-8번지 대림빌딩 302호","indutype":"레저업소 - 헬스클럽","category":"leisure"}]},{"lat":"37.3491699544","long":"126.9743618903","imageIndex":13,"items":[{"name":"알치기당구장","tel":"031-341-4489","addr":"경기도 의왕시 고천동 295-26번지 지하1층","indutype":"레저업소 - 당 구 장","category":"leisure"}]},{"lat":"37.3495576241","long":"126.9753436428","imageIndex":13,"items":[{"name":"열창노래연습장","tel":"031-456-6530","addr":"경기도 의왕시 고천동 304-4번지","indutype":"레저업소 - 노 래 방","category":"leisure"}]},{"lat":"37.3497291621","long":"126.9768672202","imageIndex":13,"items":[{"name":"월드컵노래연습장","tel":"031-454-6864","addr":"경기도 의왕시 고천동 301-1번지","indutype":"레저업소 - 노 래 방","category":"leisure"}]},{"lat":"37.3535634873","long":"126.9625880986","imageIndex":13,"items":[{"name":"의왕베이스볼아카데미","tel":"031-000-0000","addr":"경기도 의왕시 고천동 397번지 (주)모든테크 B동 5층","indutype":"레저업소 - 기타레져업소","category":"leisure"}]},{"lat":"37.3447265061","long":"126.9689239726","imageIndex":13,"items":[{"name":"의왕시청","tel":"031-345-2485","addr":"경기도 의왕시 고천동 171번지 의왕시청","indutype":"레저업소 - 기타레져업소","category":"leisure"}]},{"lat":"37.3490077606","long":"126.9743168072","imageIndex":13,"items":[{"name":"훼미리노래연습장","tel":"031-452-4102","addr":"경기도 의왕시 고천동 295-27번지","indutype":"레저업소 - 노 래 방","category":"leisure"}]}]