[{"lat":"37.70077384","long":"127.45731165","imageIndex":4,"items":[{"name":"고바우쉼터","tel":"031-585-5902","addr":"경기도 가평군 설악면 회곡리 318","indutype":"일반휴게음식 - 일반한식","category":"restaurant"},{"name":"쁘띠빠리 (Petit Paris)","tel":"070-4236-8808","addr":"경기도 가평군 설악면 회곡리 318번지 웨이크사이드 B동 1층","indutype":"일반휴게음식 - 서양음식","category":"restaurant"},{"name":"집밥","tel":"031-000-0000","addr":"경기도 가평군 설악면 회곡리 318번지 웨이크사이드 B동 1층","indutype":"일반휴게음식 - 일반한식","category":"restaurant"}]},{"lat":"37.704160481","long":"127.44811319","imageIndex":4,"items":[{"name":"그레이트풀그라운드","tel":"031-584-5625","addr":"경기도 가평군 설악면 회곡리 540","indutype":"일반휴게음식 - 서양음식","category":"restaurant"}]},{"lat":"37.710775255","long":"127.44524955","imageIndex":4,"items":[{"name":"넓은뜰","tel":"031-584-0984","addr":"경기도 가평군 설악면 회곡리 473-16","indutype":"일반휴게음식 - 일반한식","category":"restaurant"}]},{"lat":"37.710523504","long":"127.44511196","imageIndex":4,"items":[{"name":"다믈촌","tel":"031-584-3364","addr":"경기도 가평군 설악면 회곡리 473-24번지 언덕위에식당","indutype":"일반휴게음식 - 일반한식","category":"restaurant"}]},{"lat":"37.721910296","long":"127.42831354","imageIndex":4,"items":[{"name":"레이크파크식당","tel":"031-584-2446","addr":"경기도 가평군 설악면 회곡리 산 105-2","indutype":"일반휴게음식 - 일반한식","category":"restaurant"}]},{"lat":"37.707080489","long":"127.44547707","imageIndex":4,"items":[{"name":"모험의시작","tel":"031-584-2594","addr":"경기도 가평군 설악면 회곡리 498번지","indutype":"일반휴게음식 - 일반한식","category":"restaurant"}]},{"lat":"37.718220614","long":"127.43458715","imageIndex":4,"items":[{"name":"바하마","tel":"031-584-5911","addr":"경기도 가평군 설악면 회곡리 산104-2번지","indutype":"일반휴게음식 - 일반한식","category":"restaurant"}]},{"lat":"37.72085931","long":"127.42744553","imageIndex":4,"items":[{"name":"뾰루봉 옛날전통 육개장 갈비탕","tel":"031-584-3504","addr":"경기도 가평군 설악면 회곡리 744-31번지","indutype":"일반휴게음식 - 일반한식","category":"restaurant"}]},{"lat":"37.686918398","long":"127.46394996","imageIndex":4,"items":[{"name":"사랑채","tel":"031-585-4803","addr":"경기도 가평군 설악면 회곡리 243-10","indutype":"일반휴게음식 - 일반한식","category":"restaurant"}]},{"lat":"37.700613422","long":"127.45450991","imageIndex":4,"items":[{"name":"산적","tel":"031-3736-9095","addr":"경기도 가평군 설악면 회곡리 307-5번지 1층","indutype":"일반휴게음식 - 일반한식","category":"restaurant"}]},{"lat":"37.687135376","long":"127.46375858","imageIndex":4,"items":[{"name":"산촌식당","tel":"031-584-2152","addr":"경기도 가평군 설악면 회곡리 243-9번지","indutype":"일반휴게음식 - 일반한식","category":"restaurant"}]},{"lat":"37.70813527","long":"127.44769469","imageIndex":4,"items":[{"name":"삼원식당","tel":"031-584-0583","addr":"경기도 가평군 설악면 회곡리 480번지","indutype":"일반휴게음식 - 일반한식","category":"restaurant"}]},{"lat":"37.687387771","long":"127.46372613","imageIndex":4,"items":[{"name":"샘물가든","tel":"031-584-8322","addr":"경기도 가평군 설악면 회곡리 243-2번지","indutype":"일반휴게음식 - 일반한식","category":"restaurant"}]},{"lat":"37.709690344","long":"127.4462524","imageIndex":4,"items":[{"name":"소풍","tel":"031-585-8032","addr":"경기도 가평군 설악면 회곡리 491-2번지","indutype":"일반휴게음식 - 일반한식","category":"restaurant"}]},{"lat":"37.676478193","long":"127.47033522","imageIndex":4,"items":[{"name":"솔고개두부마을","tel":"031-584-4408","addr":"경기도 가평군 설악면 회곡리 49-2번지","indutype":"일반휴게음식 - 일반한식","category":"restaurant"}]},{"lat":"37.67739276","long":"127.46917339","imageIndex":4,"items":[{"name":"솔골초가집","tel":"031-584-5292","addr":"경기도 가평군 설악면 회곡리 47번지","indutype":"일반휴게음식 - 일반한식","category":"restaurant"}]},{"lat":"37.699945723","long":"127.45711383","imageIndex":4,"items":[{"name":"시골빛두리","tel":"031-584-5427","addr":"경기도 가평군 설악면 회곡리 317-8번지","indutype":"일반휴게음식 - 일반한식","category":"restaurant"}]},{"lat":"37.70058609","long":"127.45458912","imageIndex":4,"items":[{"name":"안골사철탕","tel":"031-585-8105","addr":"경기도 가평군 설악면 회곡리 307-4번지","indutype":"일반휴게음식 - 일반한식","category":"restaurant"}]},{"lat":"37.686758044","long":"127.46807564","imageIndex":4,"items":[{"name":"어부바","tel":"","addr":"경기도 가평군 설악면 회곡리 17-1번지 1동 1층","indutype":"일반휴게음식 - 일반한식","category":"restaurant"}]},{"lat":"37.709494737","long":"127.44555947","imageIndex":4,"items":[{"name":"어익후","tel":"031-585-9842","addr":"경기도 가평군 설악면 회곡리 491-6번지","indutype":"일반휴게음식 - 일반한식","category":"restaurant"}]},{"lat":"37.68614","long":"127.46486343","imageIndex":4,"items":[{"name":"여미지","tel":"031-584-4605","addr":"경기도 가평군 설악면 회곡리 241-5번지 외1필지","indutype":"일반휴게음식 - 일반한식","category":"restaurant"}]},{"lat":"37.672471716","long":"127.46274976","imageIndex":4,"items":[{"name":"영광식당","tel":"031-584-0401","addr":"경기도 가평군 설악면 회곡리 104번지","indutype":"일반휴게음식 - 일반한식","category":"restaurant"}]},{"lat":"37.672387445","long":"127.46125304","imageIndex":4,"items":[{"name":"장어독립","tel":"031-584-5556","addr":"경기도 가평군 설악면 회곡리 105-2번지","indutype":"일반휴게음식 - 일반한식","category":"restaurant"}]},{"lat":"37.714637868","long":"127.44108758","imageIndex":4,"items":[{"name":"전주집","tel":"031-584-0066","addr":"경기도 가평군 설악면 회곡리 741-11번지","indutype":"일반휴게음식 - 일반한식","category":"restaurant"}]},{"lat":"37.705081018","long":"127.44769912","imageIndex":4,"items":[{"name":"주식회사 지엔에이","tel":"031-584-4568","addr":"경기도 가평군 설악면 회곡리 527번지 외3필지","indutype":"일반휴게음식 - 일반한식","category":"restaurant"}]},{"lat":"37.672553419","long":"127.46259157","imageIndex":4,"items":[{"name":"지산식당","tel":"031-584-2745","addr":"경기도 가평군 설악면 회곡리 105-7번지","indutype":"일반휴게음식 - 일반한식","category":"restaurant"}]},{"lat":"37.684999223","long":"127.49302813","imageIndex":4,"items":[{"name":"지산식당","tel":"031-584-2745","addr":"경기도 가평군 설악면 회곡리 105-7","indutype":"일반휴게음식 - 일반한식","category":"restaurant"}]},{"lat":"37.703884626","long":"127.44958569","imageIndex":4,"items":[{"name":"청담","tel":"031-585-5185","addr":"경기도 가평군 설악면 회곡리 424-5","indutype":"일반휴게음식 - 일반한식","category":"restaurant"}]},{"lat":"37.714549628","long":"127.44058805","imageIndex":4,"items":[{"name":"청풍명월","tel":"031-584-9613","addr":"경기도 가평군 설악면 회곡리 741-14번지","indutype":"일반휴게음식 - 일반한식","category":"restaurant"}]},{"lat":"37.713686991","long":"127.44239755","imageIndex":4,"items":[{"name":"카페모모","tel":"070-1111-1111","addr":"경기도 가평군 설악면 회곡리 738-3번지","indutype":"일반휴게음식 - 서양음식","category":"restaurant"}]},{"lat":"37.70044294","long":"127.45667464","imageIndex":4,"items":[{"name":"홍원","tel":"031-584-0992","addr":"경기도 가평군 설악면 회곡리 313-4번지","indutype":"일반휴게음식 - 일반한식","category":"restaurant"}]}]