[{"lat":"37.673406439","long":"126.7980121","imageIndex":13,"items":[{"name":"O's 에스테틱","tel":"","addr":"경기도 고양시 일산동구 풍동 1234-7번지","indutype":"보건위생 - 피부미용실","category":"beauty"}]},{"lat":"37.673854367","long":"126.8017628","imageIndex":13,"items":[{"name":"ZINUSOPTICAL","tel":"031-904-2227","addr":"경기도 고양시 일산동구 풍동 1240번지","indutype":"보건위생 - 안경","category":"beauty"}]},{"lat":"37.661937354","long":"126.79813429","imageIndex":13,"items":[{"name":"Zoe international","tel":"031-919-4278","addr":"경기도 고양시 일산동구 풍동 385-1번지 에이스아파트","indutype":"보건위생 - 미용재료","category":"beauty"},{"name":"볼륨톡스","tel":"070-8747-7606","addr":"경기도 고양시 일산동구 풍동 385-1번지 에이스아파트","indutype":"보건위생 - 화장품","category":"beauty"}]},{"lat":"37.667300158","long":"126.79932098","imageIndex":13,"items":[{"name":"cbc언어심리센터","tel":"031-901-5776","addr":"경기도 고양시 일산동구 풍동 1279-3번지","indutype":"보건위생 - 기타대인서비스","category":"beauty"},{"name":"풍동 에듀플렉스 심리상담연구소","tel":"031-905-0917","addr":"경기도 고양시 일산동구 풍동 1279-3번지","indutype":"보건위생 - 기타대인서비스","category":"beauty"},{"name":"한국영유아발달연구소","tel":"070-7728-3884","addr":"경기도 고양시 일산동구 풍동 1279-3번지","indutype":"보건위생 - 기타대인서비스","category":"beauty"}]},{"lat":"37.667378792","long":"126.797904","imageIndex":13,"items":[{"name":"hair VAVA(헤어바바)","tel":"031-901-9990","addr":"경기도 고양시 일산동구 풍동 1280번지","indutype":"보건위생 - 미용원","category":"beauty"},{"name":"불루불루","tel":"031-901-9965","addr":"경기도 고양시 일산동구 풍동 1280번지","indutype":"보건위생 - 미용원","category":"beauty"}]},{"lat":"37.66621142","long":"126.80015133","imageIndex":13,"items":[{"name":"네일트리","tel":"031-902-5959","addr":"경기도 고양시 일산동구 풍동 1297-1번지","indutype":"보건위생 - 피부미용실","category":"beauty"},{"name":"헤어카페","tel":"031-905-5680","addr":"경기도 고양시 일산동구 풍동 1297-1번지","indutype":"보건위생 - 미용원","category":"beauty"}]},{"lat":"37.673100682","long":"126.79834166","imageIndex":13,"items":[{"name":"네일홀릭","tel":"070-8833-5055","addr":"경기도 고양시 일산동구 풍동 1249-5번지","indutype":"보건위생 - 피부미용실","category":"beauty"}]},{"lat":"37.662882104","long":"126.79740636","imageIndex":13,"items":[{"name":"다드므리헤어샵","tel":"031-906-1322","addr":"경기도 고양시 일산동구 풍동 1292번지 숲속마을1단지아파트","indutype":"보건위생 - 미용원","category":"beauty"}]},{"lat":"37.667352294","long":"126.79821009","imageIndex":13,"items":[{"name":"더블유헤어 (W헤어)","tel":"031-905-1511","addr":"경기도 고양시 일산동구 풍동 1280-1번지","indutype":"보건위생 - 미용원","category":"beauty"}]},{"lat":"37.667325835","long":"126.79853885","imageIndex":13,"items":[{"name":"더페이스샵 풍동점","tel":"031-907-1458","addr":"경기도 고양시 일산동구 풍동 1279번지","indutype":"보건위생 - 화장품","category":"beauty"}]},{"lat":"37.660877578","long":"126.79490726","imageIndex":13,"items":[{"name":"라라 (주)","tel":"070-4849-1248","addr":"경기도 고양시 일산동구 풍동 424-3번지","indutype":"보건위생 - 화장품","category":"beauty"}]},{"lat":"37.663628835","long":"126.79679229","imageIndex":13,"items":[{"name":"레몬네일","tel":"031-906-3135","addr":"경기도 고양시 일산동구 풍동 1292-1번지","indutype":"보건위생 - 피부미용실","category":"beauty"},{"name":"헤어카페","tel":"031-901-2209","addr":"경기도 고양시 일산동구 풍동 1292-1번지","indutype":"보건위생 - 미용원","category":"beauty"}]},{"lat":"37.672018839","long":"126.7878259","imageIndex":13,"items":[{"name":"로즈마리","tel":"031-904-0267","addr":"경기도 고양시 일산동구 풍동","indutype":"보건위생 - 화장품","category":"beauty"}]},{"lat":"37.672712837","long":"126.79809336","imageIndex":13,"items":[{"name":"모조헤어(MOJOhair)","tel":"031-908-8889","addr":"경기도 고양시 일산동구 풍동 1246-1번지","indutype":"보건위생 - 미용원","category":"beauty"}]},{"lat":"37.667633554","long":"126.79934274","imageIndex":13,"items":[{"name":"미스터힐링","tel":"031-909-1001","addr":"경기도 고양시 일산동구 풍동 1273-4번지","indutype":"보건위생 - 기타대인서비스","category":"beauty"},{"name":"살롱에이(salon a)","tel":"031-904-9818","addr":"경기도 고양시 일산동구 풍동","indutype":"보건위생 - 미용원","category":"beauty"}]},{"lat":"37.667716415","long":"126.80037392","imageIndex":13,"items":[{"name":"바디밸런스","tel":"031-901-2477","addr":"경기도 고양시 일산동구 풍동 1275번지","indutype":"보건위생 - 기타대인서비스","category":"beauty"},{"name":"보노헤어","tel":"031-902-3664","addr":"경기도 고양시 일산동구 풍동 1275번지","indutype":"보건위생 - 미용원","category":"beauty"}]},{"lat":"37.663713171","long":"126.8039322","imageIndex":13,"items":[{"name":"바비헤어","tel":"031-903-3755","addr":"경기도 고양시 일산동구 풍동 184-10번지","indutype":"보건위생 - 미용원","category":"beauty"}]},{"lat":"37.673244351","long":"126.80331734","imageIndex":13,"items":[{"name":"박소연헤어갤러리","tel":"031-932-5153","addr":"경기도 고양시 일산동구 풍동 1252번지 숲속마을9단지아파트","indutype":"보건위생 - 미용원","category":"beauty"}]},{"lat":"37.66532834","long":"126.8000744","imageIndex":13,"items":[{"name":"버블그린","tel":"031-904-7887","addr":"경기도 고양시 일산동구 풍동 1297-9번지","indutype":"보건위생 - 미용원","category":"beauty"}]},{"lat":"37.667299728","long":"126.79907163","imageIndex":13,"items":[{"name":"보타니(BOTANY)일산본점","tel":"031-906-2250","addr":"경기도 고양시 일산동구 풍동 1279-2번지","indutype":"보건위생 - 미용원","category":"beauty"},{"name":"아이홉","tel":"","addr":"경기도 고양시 일산동구 풍동 1279-2번지","indutype":"보건위생 - 미용재료","category":"beauty"},{"name":"이니스프리풍동점","tel":"031-905-1567","addr":"경기도 고양시 일산동구 풍동 1279-2번지","indutype":"보건위생 - 화장품","category":"beauty"},{"name":"코코","tel":"031-906-3465","addr":"경기도 고양시 일산동구 풍동 1279-2번지","indutype":"보건위생 - 미용재료","category":"beauty"}]},{"lat":"37.667938823","long":"126.79872986","imageIndex":13,"items":[{"name":"봄봄헤어샵","tel":"031-907-7756","addr":"경기도 고양시 일산동구 풍동 1273번지","indutype":"보건위생 - 미용원","category":"beauty"}]},{"lat":"37.666103265","long":"126.80012896","imageIndex":13,"items":[{"name":"브엘세바","tel":"031-908-9901","addr":"경기도 고양시 일산동구 풍동 1297-2번지","indutype":"보건위생 - 미용원","category":"beauty"}]},{"lat":"37.668681543","long":"126.7958149","imageIndex":13,"items":[{"name":"비비네일 (BB Nail)","tel":"","addr":"경기도 고양시 일산동구 풍동 1268번지","indutype":"보건위생 - 피부미용실","category":"beauty"},{"name":"아도라프로패셔널(풍동점)","tel":"031-902-9375","addr":"경기도 고양시 일산동구 풍동 1268번지","indutype":"보건위생 - 미용원","category":"beauty"},{"name":"위브헤어","tel":"031-901-1030","addr":"경기도 고양시 일산동구 풍동 1268번지","indutype":"보건위생 - 미용원","category":"beauty"},{"name":"지지배(GGBE)","tel":"031-968-6530","addr":"경기도 고양시 일산동구 풍동 1268번지","indutype":"보건위생 - 화장품","category":"beauty"}]},{"lat":"37.665708708","long":"126.79601583","imageIndex":13,"items":[{"name":"삐삐미용실","tel":"031-904-5117","addr":"경기도 고양시 일산동구 풍동 1222번지 성원상떼빌5차아파트","indutype":"보건위생 - 미용원","category":"beauty"}]},{"lat":"37.672875698","long":"126.79848963","imageIndex":13,"items":[{"name":"살롱드 보","tel":"031-905-5055","addr":"경기도 고양시 일산동구 풍동 1246-4번지","indutype":"보건위생 - 미용원","category":"beauty"}]},{"lat":"37.667825208","long":"126.79051288","imageIndex":13,"items":[{"name":"샤밧코스메틱","tel":"","addr":"경기도 고양시 일산동구 풍동 667-17번지","indutype":"보건위생 - 화장품","category":"beauty"}]},{"lat":"37.668966135","long":"126.79885172","imageIndex":13,"items":[{"name":"샤플리헤어","tel":"","addr":"경기도 고양시 일산동구 풍동 1267번지","indutype":"보건위생 - 미용원","category":"beauty"}]},{"lat":"37.670712384","long":"126.78779567","imageIndex":13,"items":[{"name":"센토이발","tel":"031-907-0189","addr":"경기도 고양시 일산동구 풍동 1152-5번지","indutype":"보건위생 - 이용원","category":"beauty"},{"name":"희락 일산점","tel":"","addr":"경기도 고양시 일산동구 풍동 1152-5번지","indutype":"보건위생 - 기타대인서비스","category":"beauty"}]},{"lat":"37.671241193","long":"126.80154315","imageIndex":13,"items":[{"name":"수지헤어라인","tel":"031-904-8765","addr":"경기도 고양시 일산동구 풍동 1261번지 숲속마을7단지아파트","indutype":"보건위생 - 미용원","category":"beauty"}]},{"lat":"37.673545518","long":"126.80029007","imageIndex":13,"items":[{"name":"숲속테라피","tel":"","addr":"경기도 고양시 일산동구 풍동 1237-2번지","indutype":"보건위생 - 피부미용실","category":"beauty"}]},{"lat":"37.667264745","long":"126.79968377","imageIndex":13,"items":[{"name":"아리따움 풍동점","tel":"031-902-8880","addr":"경기도 고양시 일산동구 풍동 1279-4번지","indutype":"보건위생 - 화장품","category":"beauty"},{"name":"아모레카운셀러","tel":"031-908-8953","addr":"경기도 고양시 일산동구 풍동 1279-4번지","indutype":"보건위생 - 화장품","category":"beauty"},{"name":"아모레카운셀러","tel":"031-908-8953","addr":"경기도 고양시 일산동구 풍동 1279-4번지","indutype":"보건위생 - 화장품","category":"beauty"},{"name":"아모레카운셀러","tel":"031-908-8953","addr":"경기도 고양시 일산동구 풍동","indutype":"보건위생 - 화장품","category":"beauty"},{"name":"아모레카운셀러","tel":"031-908-8953","addr":"경기도 고양시 일산동구 풍동 1279-4번지","indutype":"보건위생 - 화장품","category":"beauty"},{"name":"아모레카운셀러","tel":"","addr":"경기도 고양시 일산동구 풍동 1279-4번지","indutype":"보건위생 - 화장품","category":"beauty"},{"name":"아모레카운셀러","tel":"031-908-8953","addr":"경기도 고양시 일산동구 풍동 1279-4번지","indutype":"보건위생 - 화장품","category":"beauty"},{"name":"아모레카운셀러","tel":"031-908-8953","addr":"경기도 고양시 일산동구 풍동 1279-4번지","indutype":"보건위생 - 화장품","category":"beauty"},{"name":"아모레카운셀러(조복희)","tel":"031-967-0807","addr":"경기도 고양시 일산동구 풍동 1279-4번지","indutype":"보건위생 - 화장품","category":"beauty"},{"name":"아모레퍼시픽","tel":"031-911-2473","addr":"경기도 고양시 일산동구 풍동 1279-4번지","indutype":"보건위생 - 화장품","category":"beauty"},{"name":"에코헤어","tel":"031-906-2155","addr":"경기도 고양시 일산동구 풍동 1279-4번지","indutype":"보건위생 - 미용원","category":"beauty"},{"name":"오렌즈일산풍동점","tel":"031-909-1002","addr":"경기도 고양시 일산동구 풍동 1279-4번지","indutype":"보건위생 - 안경","category":"beauty"},{"name":"휴스킨케어","tel":"031-901-4655","addr":"경기도 고양시 일산동구 풍동 1279-4번지","indutype":"보건위생 - 피부미용실","category":"beauty"}]},{"lat":"37.667238906","long":"126.80037522","imageIndex":13,"items":[{"name":"아이하우스안경원","tel":"031-932-0117","addr":"경기도 고양시 일산동구 풍동 1278번지","indutype":"보건위생 - 안경","category":"beauty"},{"name":"헤어장","tel":"031-907-8482","addr":"경기도 고양시 일산동구 풍동 1278번지","indutype":"보건위생 - 미용원","category":"beauty"}]},{"lat":"37.667544239","long":"126.79979635","imageIndex":13,"items":[{"name":"아프로디테헤어","tel":"031-903-8004","addr":"경기도 고양시 일산동구 풍동 1274-1번지","indutype":"보건위생 - 미용원","category":"beauty"}]},{"lat":"37.663326466","long":"126.79907116","imageIndex":13,"items":[{"name":"어울림심리지원센터","tel":"031-906-9006","addr":"경기도 고양시 일산동구 풍동 1293번지","indutype":"보건위생 - 기타대인서비스","category":"beauty"},{"name":"헤어참빗결","tel":"031-963-7054","addr":"경기도 고양시 일산동구 풍동 1293번지","indutype":"보건위생 - 미용원","category":"beauty"}]},{"lat":"37.670406904","long":"126.78826127","imageIndex":13,"items":[{"name":"에버미라클","tel":"031-903-1770","addr":"경기도 고양시 일산동구 풍동 1127-1번지 쌍용아파트","indutype":"보건위생 - 화장품","category":"beauty"}]},{"lat":"37.662744722","long":"126.79612606","imageIndex":13,"items":[{"name":"에스엠안경","tel":"031-902-5353","addr":"경기도 고양시 일산동구 풍동 532-8번지","indutype":"보건위생 - 안경","category":"beauty"},{"name":"장미헤어샵","tel":"031-908-4676","addr":"경기도 고양시 일산동구 풍동 532-8번지","indutype":"보건위생 - 미용원","category":"beauty"}]},{"lat":"37.673352184","long":"126.7978989","imageIndex":13,"items":[{"name":"에스헤어","tel":"031-907-9880","addr":"경기도 고양시 일산동구 풍동 1234-8번지","indutype":"보건위생 - 미용원","category":"beauty"}]},{"lat":"37.673879535","long":"126.80067456","imageIndex":13,"items":[{"name":"여자다운뷰티네일샵","tel":"070-4809-9487","addr":"경기도 고양시 일산동구 풍동 1238-11번지","indutype":"보건위생 - 피부미용실","category":"beauty"}]},{"lat":"37.66624012","long":"126.80112597","imageIndex":13,"items":[{"name":"영자클럽 일산풍동점","tel":"031-901-3905","addr":"경기도 고양시 일산동구 풍동 1298-4번지","indutype":"보건위생 - 의료용품","category":"beauty"}]},{"lat":"37.66774245","long":"126.79979581","imageIndex":13,"items":[{"name":"임마누엘","tel":"031-914-0130","addr":"경기도 고양시 일산동구 풍동 1274번지","indutype":"보건위생 - 화장품","category":"beauty"}]},{"lat":"37.667709017","long":"126.80131468","imageIndex":13,"items":[{"name":"잘난남자","tel":"031-908-0325","addr":"경기도 고양시 일산동구 풍동 1276-1번지","indutype":"보건위생 - 미용원","category":"beauty"}]},{"lat":"37.672794057","long":"126.78803903","imageIndex":13,"items":[{"name":"주식회사 일산구급센터","tel":"031-1855-1399","addr":"경기도 고양시 일산동구 풍동 1153-9번지","indutype":"보건위생 - 기타대인서비스","category":"beauty"}]},{"lat":"37.67390395","long":"126.79915558","imageIndex":13,"items":[{"name":"최민경헤어스토리","tel":"031-903-2207","addr":"경기도 고양시 일산동구 풍동 1236번지","indutype":"보건위생 - 미용원","category":"beauty"}]},{"lat":"37.667239528","long":"126.80073791","imageIndex":13,"items":[{"name":"컷트클럽","tel":"031-904-8583","addr":"경기도 고양시 일산동구 풍동 1278-1번지","indutype":"보건위생 - 미용원","category":"beauty"}]},{"lat":"37.673153342","long":"126.79753673","imageIndex":13,"items":[{"name":"피부사랑","tel":"070-4196-8227","addr":"경기도 고양시 일산동구 풍동 1234-11번지","indutype":"보건위생 - 화장품","category":"beauty"}]},{"lat":"37.673104573","long":"126.80059731","imageIndex":13,"items":[{"name":"한수민헤어","tel":"031-908-3376","addr":"경기도 고양시 일산동구 풍동 1242번지","indutype":"보건위생 - 미용원","category":"beauty"}]},{"lat":"37.668826233","long":"126.79104274","imageIndex":13,"items":[{"name":"함께하는우리","tel":"031-907-7726","addr":"경기도 고양시 일산동구 풍동 562-20번지","indutype":"보건위생 - 기타대인서비스","category":"beauty"}]},{"lat":"37.666743739","long":"126.79540092","imageIndex":13,"items":[{"name":"헤어다움","tel":"031-903-0022","addr":"경기도 고양시 일산동구 풍동 1283번지","indutype":"보건위생 - 미용원","category":"beauty"}]},{"lat":"37.673188312","long":"126.80214998","imageIndex":13,"items":[{"name":"헤어스타일","tel":"031-901-3306","addr":"경기도 고양시 일산동구 풍동 1241-5번지","indutype":"보건위생 - 미용원","category":"beauty"}]},{"lat":"37.664071078","long":"126.79723308","imageIndex":13,"items":[{"name":"현설헤어부띠끄","tel":"031-903-7778","addr":"경기도 고양시 일산동구 풍동 1354번지","indutype":"보건위생 - 미용원","category":"beauty"}]},{"lat":"37.667758611","long":"126.79871902","imageIndex":13,"items":[{"name":"희망학습심리상담소","tel":"031-904-7279","addr":"경기도 고양시 일산동구 풍동 1273-6번지","indutype":"보건위생 - 기타대인서비스","category":"beauty"}]},{"lat":"37.665328866","long":"126.80038041","imageIndex":13,"items":[{"name":"힐스템일산풍동센타","tel":"031-4749-5604","addr":"경기도 고양시 일산동구 풍동 1300-3번지","indutype":"보건위생 - 피부미용실","category":"beauty"}]}]