[{"lat":"37.633946797","long":"127.21133665","imageIndex":13,"items":[{"name":"(주)닥터신","tel":"031-592-2361","addr":"경기도 남양주시 금곡동 153-6번지","indutype":"보건위생 - 의료용품","category":"beauty"}]},{"lat":"37.636362079","long":"127.21599979","imageIndex":13,"items":[{"name":"(주)위드메디칼케어","tel":"031-595-2565","addr":"경기도 남양주시 금곡동 203-80번지 101호","indutype":"보건위생 - 의료용품","category":"beauty"}]},{"lat":"37.634201183","long":"127.21013648","imageIndex":13,"items":[{"name":"BJ바이오(BJ Bio)","tel":"","addr":"경기도 남양주시 금곡동 423-5번지 중부새마을금고 5층 A516호","indutype":"보건위생 - 의료용품","category":"beauty"},{"name":"구리남양주(닥터맘)","tel":"","addr":"경기도 남양주시 금곡동 423-5번지 중부새마을금고 5층","indutype":"보건위생 - 기타대인서비스","category":"beauty"}]},{"lat":"37.637336735","long":"127.21510754","imageIndex":13,"items":[{"name":"VAN Optical","tel":"031-577-8493","addr":"경기도 남양주시 금곡동 172-23번지 한림타운 103동 305호","indutype":"보건위생 - 안경","category":"beauty"}]},{"lat":"37.634082531","long":"127.2058311","imageIndex":13,"items":[{"name":"W헤어","tel":"031-592-4289","addr":"경기도 남양주시 금곡동 404-41번지","indutype":"보건위생 - 미용원","category":"beauty"},{"name":"엘리시아","tel":"031-559-7050","addr":"경기도 남양주시 금곡동 404-41백림빌딩1층6","indutype":"보건위생 - 화장품","category":"beauty"},{"name":"헤어센스","tel":"031-591-9471","addr":"경기도 남양주시 금곡동 404-41번지 백림빌딩 1층 3호","indutype":"보건위생 - 미용원","category":"beauty"}]},{"lat":"37.633389815","long":"127.21041745","imageIndex":13,"items":[{"name":"구리남양주가평 맘스매니저","tel":"031-563-7325","addr":"경기도 남양주시 금곡동 156-38번지 향군회관 203호","indutype":"보건위생 - 기타대인서비스","category":"beauty"}]},{"lat":"37.634362381","long":"127.21069205","imageIndex":13,"items":[{"name":"그랑프리안경남양주점","tel":"031-592-8005","addr":"경기도 남양주시 금곡동 156-20번지 남양빌딩","indutype":"보건위생 - 안경","category":"beauty"},{"name":"로미앤줄리","tel":"031-595-2399","addr":"경기도 남양주시 금곡동 156-20번지 남양빌딩","indutype":"보건위생 - 미용원","category":"beauty"}]},{"lat":"37.627276859","long":"127.20250481","imageIndex":13,"items":[{"name":"글렘네일","tel":"031-000-0000","addr":"경기도 남양주시 금곡동 651-1번지 다남프라자 133-2호","indutype":"보건위생 - 피부미용실","category":"beauty"},{"name":"더블나인헤어","tel":"031-551-7175","addr":"경기도 남양주시 금곡동 651-1번지 다남프라자 1층 124호","indutype":"보건위생 - 미용원","category":"beauty"},{"name":"미넷헤어","tel":"031-595-0737","addr":"경기도 남양주시 금곡동 651-1번지 다남프라자 128호","indutype":"보건위생 - 미용원","category":"beauty"},{"name":"블루컷","tel":"031-592-0028","addr":"경기도 남양주시 금곡동 651-1번지 외10필지 다남프라자 108호","indutype":"보건위생 - 미용원","category":"beauty"},{"name":"스완느에스테틱","tel":"031-592-2329","addr":"경기도 남양주시 금곡동 651-1번지 다남프라자 127호","indutype":"보건위생 - 피부미용실","category":"beauty"},{"name":"이제이헤어샵","tel":"031-592-2843","addr":"경기도 남양주시 금곡동 651-1번지 다남프라자 118호","indutype":"보건위생 - 미용원","category":"beauty"},{"name":"홍유스파랜드","tel":"031-593-8388","addr":"경기도 남양주시 금곡동 651-1번지 외10필지다남프라자 501동 502호","indutype":"보건위생 - 사우나","category":"beauty"},{"name":"홍유스파랜드피부관리실","tel":"031-593-1351","addr":"경기도 남양주시 금곡동 651-1번지 다남프라자 501호","indutype":"보건위생 - 피부미용실","category":"beauty"}]},{"lat":"37.633836433","long":"127.20747314","imageIndex":13,"items":[{"name":"금곡미용재료","tel":"031-592-9034","addr":"경기도 남양주시 금곡동 430-34번지","indutype":"보건위생 - 미용재료","category":"beauty"}]},{"lat":"37.6340899","long":"127.20678277","imageIndex":13,"items":[{"name":"금광미용실","tel":"031-591-3410","addr":"경기도 남양주시 금곡동 404-61번지","indutype":"보건위생 - 미용원","category":"beauty"}]},{"lat":"37.634804258","long":"127.20527794","imageIndex":13,"items":[{"name":"김헤어샵","tel":"031-594-2711","addr":"경기도 남양주시 금곡동 414-34번지 88주택 가동 101호","indutype":"보건위생 - 미용원","category":"beauty"}]},{"lat":"37.636060872","long":"127.21314393","imageIndex":13,"items":[{"name":"나나샵","tel":"031-528-6263","addr":"경기도 남양주시 금곡동 158-28번지","indutype":"보건위생 - 피부미용실","category":"beauty"}]},{"lat":"37.633864717","long":"127.20674816","imageIndex":13,"items":[{"name":"남양주 해피케어","tel":"","addr":"경기도 남양주시 금곡동 430-37번지 외 2필지 2층","indutype":"보건위생 - 기타대인서비스","category":"beauty"}]},{"lat":"37.626838987","long":"127.20036266","imageIndex":13,"items":[{"name":"남양주시장애인복지관","tel":"031-592-7150","addr":"경기도 남양주시 금곡동 615-10번지","indutype":"보건위생 - 기타대인서비스","category":"beauty"}]},{"lat":"37.634223515","long":"127.2076668","imageIndex":13,"items":[{"name":"눈치코치안경","tel":"031-559-7600","addr":"경기도 남양주시 금곡동 416-1금곡프라자104.105","indutype":"보건위생 - 안경","category":"beauty"},{"name":"머리하는 날","tel":"031-592-9195","addr":"경기도 남양주시 금곡동 416-1번지 금곡프라자 101호","indutype":"보건위생 - 미용원","category":"beauty"}]},{"lat":"37.62486013","long":"127.20375572","imageIndex":13,"items":[{"name":"닛시레","tel":"031-551-3035","addr":"경기도 남양주시 금곡동 644번지","indutype":"보건위생 - 화장품","category":"beauty"}]},{"lat":"37.633865616","long":"127.20622703","imageIndex":13,"items":[{"name":"덕성이발관","tel":"031-592-5685","addr":"경기도 남양주시 금곡동 430-40번지","indutype":"보건위생 - 이용원","category":"beauty"}]},{"lat":"37.635088934","long":"127.20738594","imageIndex":13,"items":[{"name":"디자인 (DesignbyKim)","tel":"070-8953-0024","addr":"경기도 남양주시 금곡동 404-91번지 1층","indutype":"보건위생 - 미용원","category":"beauty"}]},{"lat":"37.633253802","long":"127.20042494","imageIndex":13,"items":[{"name":"멋들이헤어","tel":"031-593-3560","addr":"경기도 남양주시 금곡동 685-17번지 금곡빌라 상가 102호","indutype":"보건위생 - 미용원","category":"beauty"}]},{"lat":"37.635918048","long":"127.21239579","imageIndex":13,"items":[{"name":"모델헤어라인","tel":"031-595-6067","addr":"경기도 남양주시 금곡동 159-5번지 모델헤어라인 1층","indutype":"보건위생 - 미용원","category":"beauty"}]},{"lat":"37.637303923","long":"127.21330604","imageIndex":13,"items":[{"name":"무지개미용원","tel":"031-511-9893","addr":"경기도 남양주시 금곡동 162-43번지","indutype":"보건위생 - 미용원","category":"beauty"}]},{"lat":"37.635726967","long":"127.20833936","imageIndex":13,"items":[{"name":"미리살롱","tel":"031-511-1664","addr":"경기도 남양주시 금곡동 406-1번지 1층 일부","indutype":"보건위생 - 미용원","category":"beauty"},{"name":"헤어천사","tel":"031-511-8950","addr":"경기도 남양주시 금곡동 406-1번지 1층","indutype":"보건위생 - 미용원","category":"beauty"}]},{"lat":"37.63466827","long":"127.21094215","imageIndex":13,"items":[{"name":"미서뷰티케어","tel":"031-591-7355","addr":"경기도 남양주시 금곡동 158-20번지","indutype":"보건위생 - 미용원","category":"beauty"}]},{"lat":"37.634748217","long":"127.21158813","imageIndex":13,"items":[{"name":"민지상사","tel":"031-592-8395","addr":"경기도 남양주시 금곡동 158-59번지 금성 종합상가","indutype":"보건위생 - 화장품","category":"beauty"},{"name":"삼성 철학관","tel":"031-595-0087","addr":"경기도 남양주시 금곡동 158-59번지 금성종합상가 2층 1호","indutype":"보건위생 - 기타대인서비스","category":"beauty"}]},{"lat":"37.636584078","long":"127.21278286","imageIndex":13,"items":[{"name":"박정님헤어Ⅱ","tel":"031-592-0731","addr":"경기도 남양주시 금곡동 162-55번지","indutype":"보건위생 - 미용원","category":"beauty"}]},{"lat":"37.635531275","long":"127.21203217","imageIndex":13,"items":[{"name":"뷰티니아","tel":"031-591-6939","addr":"경기도 남양주시 금곡동 158-6번지","indutype":"보건위생 - 화장품","category":"beauty"}]},{"lat":"37.633780346","long":"127.20863988","imageIndex":13,"items":[{"name":"생그린 남양주금곡지사","tel":"031-559-8959","addr":"경기도 남양주시 금곡동 427-23번지 대성빌딩 3층","indutype":"보건위생 - 화장품","category":"beauty"},{"name":"주식회사 이원합금","tel":"031-701-4599","addr":"경기도 남양주시 금곡동 427-23번지 대성빌딩 지하1층","indutype":"보건위생 - 의료용품","category":"beauty"}]},{"lat":"37.628366992","long":"127.20253038","imageIndex":13,"items":[{"name":"생미안","tel":"031-559-9940","addr":"경기도 남양주시 금곡동 603번지 엘지상가 104호","indutype":"보건위생 - 화장품","category":"beauty"}]},{"lat":"37.631835353","long":"127.20275491","imageIndex":13,"items":[{"name":"소영미용실","tel":"031-592-9566","addr":"경기도 남양주시 금곡동 678-43번지","indutype":"보건위생 - 미용원","category":"beauty"}]},{"lat":"37.634388771","long":"127.21105466","imageIndex":13,"items":[{"name":"아리따움금곡점","tel":"031-594-3338","addr":"경기도 남양주시 금곡동 153-1번지 센타프라자 1층 105호","indutype":"보건위생 - 화장품","category":"beauty"},{"name":"오휘금곡카운셀러","tel":"031-592-3252","addr":"경기도 남양주시 금곡동 153-1번지 센타프라자 603호","indutype":"보건위생 - 화장품","category":"beauty"}]},{"lat":"37.631287103","long":"127.20196043","imageIndex":13,"items":[{"name":"아모레 카운셀러","tel":"031-593-3292","addr":"경기도 남양주시 금곡동 678-82번지 대양빌리지 101동 402호","indutype":"보건위생 - 화장품","category":"beauty"}]},{"lat":"37.623362337","long":"127.20503169","imageIndex":13,"items":[{"name":"애터미","tel":"031-529-9982","addr":"경기도 남양주시 금곡동 486-3번지","indutype":"보건위생 - 화장품","category":"beauty"}]},{"lat":"37.6350573","long":"127.21002557","imageIndex":13,"items":[{"name":"양미용실","tel":"031-559-9875","addr":"경기도 남양주시 금곡동 159-50번지","indutype":"보건위생 - 미용원","category":"beauty"}]},{"lat":"37.636781295","long":"127.20822896","imageIndex":13,"items":[{"name":"엠헤어","tel":"070-7582-3589","addr":"경기도 남양주시 금곡동 404-15번지 서전빌딩 A동 1층","indutype":"보건위생 - 미용원","category":"beauty"}]},{"lat":"37.63411317","long":"127.20894668","imageIndex":13,"items":[{"name":"연화대리점","tel":"","addr":"경기도 남양주시 금곡동 419-4번지 2층","indutype":"보건위생 - 의료용품","category":"beauty"}]},{"lat":"37.634056261","long":"127.2053892","imageIndex":13,"items":[{"name":"영통신철학관","tel":"031-527-9243","addr":"경기도 남양주시 금곡동 404-203번지","indutype":"보건위생 - 기타대인서비스","category":"beauty"}]},{"lat":"37.635418553","long":"127.21461492","imageIndex":13,"items":[{"name":"오승민헤어클럽","tel":"031-595-5115","addr":"경기도 남양주시 금곡동 185-69번지","indutype":"보건위생 - 미용원","category":"beauty"}]},{"lat":"37.635888597","long":"127.21375523","imageIndex":13,"items":[{"name":"오투헤어샵","tel":"031-594-8353","addr":"경기도 남양주시 금곡동 158-1번지 삼정빌딩 102호","indutype":"보건위생 - 미용원","category":"beauty"}]},{"lat":"37.634561371","long":"127.21025077","imageIndex":13,"items":[{"name":"자스미뷰헤어","tel":"031-593-5388","addr":"경기도 남양주시 금곡동 422번지","indutype":"보건위생 - 미용원","category":"beauty"}]},{"lat":"37.634945406","long":"127.21216647","imageIndex":13,"items":[{"name":"장일용헤어샵","tel":"031-557-3363","addr":"경기도 남양주시 금곡동 158-14번지 만복빌딩 1층 12호","indutype":"보건위생 - 미용원","category":"beauty"},{"name":"컷팅클럽","tel":"031-592-3372","addr":"경기도 남양주시 금곡동 158-14번지 만복빌딩 상가 1층 15호","indutype":"보건위생 - 미용원","category":"beauty"}]},{"lat":"37.634278791","long":"127.21210796","imageIndex":13,"items":[{"name":"종점이발관","tel":"031-592-9390","addr":"경기도 남양주시 금곡동 154-17번지","indutype":"보건위생 - 이용원","category":"beauty"}]},{"lat":"37.634862829","long":"127.2130046","imageIndex":13,"items":[{"name":"주식회사 에스비케미칼","tel":"031-595-2201","addr":"경기도 남양주시 금곡동 158-10번지 금곡종합상가 1층 1호","indutype":"보건위생 - 화장품","category":"beauty"}]},{"lat":"37.637113627","long":"127.2139173","imageIndex":13,"items":[{"name":"주식회사 조인트케어","tel":"070-4085-5329","addr":"경기도 남양주시 금곡동 162-30번지 구원빌딩","indutype":"보건위생 - 의료용품","category":"beauty"}]},{"lat":"37.634114473","long":"127.20819897","imageIndex":13,"items":[{"name":"지연미용실","tel":"031-592-7333","addr":"경기도 남양주시 금곡동 419-10번지","indutype":"보건위생 - 미용원","category":"beauty"}]},{"lat":"37.635061888","long":"127.21252934","imageIndex":13,"items":[{"name":"티와이헤어","tel":"031-592-5342","addr":"경기도 남양주시 금곡동 158-37번지 미도파하이츠빌라 101호","indutype":"보건위생 - 미용원","category":"beauty"}]},{"lat":"37.634614791","long":"127.21061345","imageIndex":13,"items":[{"name":"포토컷헤어","tel":"","addr":"경기도 남양주시 금곡동 157-5번지 1층 일부","indutype":"보건위생 - 미용원","category":"beauty"}]},{"lat":"37.633164595","long":"127.19989225","imageIndex":13,"items":[{"name":"헤어명가","tel":"031-592-3389","addr":"경기도 남양주시 금곡동 694-31번지","indutype":"보건위생 - 미용원","category":"beauty"}]},{"lat":"37.636109677","long":"127.21102547","imageIndex":13,"items":[{"name":"헤어천사","tel":"031-592-8253","addr":"경기도 남양주시 금곡동 159-66번지 한울음악학원 6호","indutype":"보건위생 - 미용원","category":"beauty"}]},{"lat":"37.631167734","long":"127.20328557","imageIndex":13,"items":[{"name":"후원네일아트샵","tel":"","addr":"경기도 남양주시 금곡동 680-23번지 1층","indutype":"보건위생 - 피부미용실","category":"beauty"}]},{"lat":"37.632447685","long":"127.20294914","imageIndex":13,"items":[{"name":"희헤어살롱","tel":"","addr":"경기도 남양주시 금곡동 685-3번지 충용체육관 1층 5호","indutype":"보건위생 - 미용원","category":"beauty"}]}]