[{"lat":"37.164726708","long":"127.37443951","imageIndex":13,"items":[{"name":"가위쟁이","tel":"031-339-3953","addr":"경기도 용인시 처인구 백암면 백암리366-6","indutype":"보건위생 - 미용원","category":"beauty"}]},{"lat":"37.157952807","long":"127.38236548","imageIndex":13,"items":[{"name":"굿데이대리운전15888828","tel":"031-1588-8828","addr":"경기도 용인시 처인구 백암면 박곡리 682-4 2층4호","indutype":"보건위생 - 기타대인서비스","category":"beauty"}]},{"lat":"37.164669164","long":"127.37267163","imageIndex":13,"items":[{"name":"꽃샘미용실","tel":"031-332-9048","addr":"경기도 용인시 처인구 백암면 백암리 421-1번지","indutype":"보건위생 - 미용원","category":"beauty"}]},{"lat":"37.164312836","long":"127.37424609","imageIndex":13,"items":[{"name":"네일링","tel":"031-5524-6545","addr":"경기도 용인시 처인구 백암면 백암리 459-2번지 206호","indutype":"보건위생 - 피부미용실","category":"beauty"},{"name":"탈랜트미용실","tel":"031-333-8441","addr":"경기도 용인시 처인구 백암면 백암리 459-2번지 2층","indutype":"보건위생 - 미용원","category":"beauty"}]},{"lat":"37.165420568","long":"127.37442039","imageIndex":13,"items":[{"name":"대길미용","tel":"02-6008-3248","addr":"경기도 용인시 처인구 백암면 백암리 365번지 백암빌딩 3층","indutype":"보건위생 - 미용재료","category":"beauty"}]},{"lat":"37.16458758","long":"127.37282886","imageIndex":13,"items":[{"name":"더마렉스코리아","tel":"","addr":"경기도 용인시 처인구 백암면 백암리 421-2번지","indutype":"보건위생 - 화장품","category":"beauty"}]},{"lat":"37.164533296","long":"127.37000269","imageIndex":13,"items":[{"name":"더죤헤어스타일","tel":"070-8637-4439","addr":"경기도 용인시 처인구 백암면 근창리 10","indutype":"보건위생 - 미용원","category":"beauty"}]},{"lat":"37.16430893","long":"127.37261359","imageIndex":13,"items":[{"name":"르네셀","tel":"070-8180-0829","addr":"경기도 용인시 처인구 백암면 백암리 444-1번지","indutype":"보건위생 - 화장품","category":"beauty"}]},{"lat":"37.16495283","long":"127.37127695","imageIndex":13,"items":[{"name":"리제이헤어(Lee J Hair)","tel":"031-321-5930","addr":"경기도 용인시 처인구 백암면 백암리 407-14번지 1층 일부","indutype":"보건위생 - 미용원","category":"beauty"},{"name":"온헤어샵","tel":"031-334-7453","addr":"경기도 용인시 처인구 백암면 백암리407-14","indutype":"보건위생 - 미용원","category":"beauty"}]},{"lat":"37.162031263","long":"127.37486539","imageIndex":13,"items":[{"name":"미앤아이","tel":"031-651-7288","addr":"경기도 용인시 처인구 백암면 근창리 32","indutype":"보건위생 - 화장품","category":"beauty"}]},{"lat":"37.135903124","long":"127.39924935","imageIndex":13,"items":[{"name":"백봉미용실","tel":"031-333-9686","addr":"경기도 용인시 처인구 백암면 백봉리 216번지 1층","indutype":"보건위생 - 미용원","category":"beauty"}]},{"lat":"37.142810688","long":"127.35767438","imageIndex":13,"items":[{"name":"백암다래숯가마","tel":"031-339-1113","addr":"경기도 용인시 처인구 백암면 근삼리357","indutype":"보건위생 - 사우나","category":"beauty"}]},{"lat":"37.165477696","long":"127.37344116","imageIndex":13,"items":[{"name":"백암온천목욕탕","tel":"031-332-4744","addr":"경기도 용인시 처인구 백암면 백암리374-17","indutype":"보건위생 - 사우나","category":"beauty"}]},{"lat":"37.164677577","long":"127.37286307","imageIndex":13,"items":[{"name":"백암의료기","tel":"031-333-4418","addr":"경기도 용인시 처인구 백암면 백암리 420-2번지","indutype":"보건위생 - 의료용품","category":"beauty"}]},{"lat":"37.164947885","long":"127.37286439","imageIndex":13,"items":[{"name":"서울미용실","tel":"031-334-3617","addr":"경기도 용인시 처인구 백암면 백암리 418-2번지","indutype":"보건위생 - 미용원","category":"beauty"}]},{"lat":"37.164503884","long":"127.37366158","imageIndex":13,"items":[{"name":"송정은헤어","tel":"031-322-4587","addr":"경기도 용인시 처인구 백암면 백암리 459-6번지 외2필지1층","indutype":"보건위생 - 미용원","category":"beauty"}]},{"lat":"37.164064458","long":"127.37299518","imageIndex":13,"items":[{"name":"신데렐라헤어샵","tel":"031-334-3252","addr":"경기도 용인시 처인구 백암면 백암리 450-9","indutype":"보건위생 - 미용원","category":"beauty"}]},{"lat":"37.165008106","long":"127.37377663","imageIndex":13,"items":[{"name":"안경마을","tel":"031-322-1055","addr":"경기도 용인시 처인구 백암면 백암리 633-2번지 외1필지 1층","indutype":"보건위생 - 안경","category":"beauty"}]},{"lat":"37.164976097","long":"127.37536394","imageIndex":13,"items":[{"name":"에바다미용실","tel":"","addr":"경기도 용인시 처인구 백암면 백암리 342-4번지 1층","indutype":"보건위생 - 미용원","category":"beauty"}]},{"lat":"37.16511623","long":"127.37377716","imageIndex":13,"items":[{"name":"이호승헤어","tel":"031-322-1455","addr":"경기도 용인시 처인구 백암면 백암리 374-15번지","indutype":"보건위생 - 미용원","category":"beauty"}]},{"lat":"37.165703199","long":"127.37336345","imageIndex":13,"items":[{"name":"제이스타일(J. style)","tel":"031-322-9866","addr":"경기도 용인시 처인구 백암면 백암리 376-4번지 1층","indutype":"보건위생 - 미용원","category":"beauty"}]},{"lat":"37.165951079","long":"127.37477201","imageIndex":13,"items":[{"name":"중국정통약손","tel":"031-890-0092","addr":"경기도 용인시 처인구 백암면 백암리 347-2번지 2층","indutype":"보건위생 - 미용재료","category":"beauty"}]},{"lat":"37.164452743","long":"127.37272687","imageIndex":13,"items":[{"name":"필헤어","tel":"031-323-2359","addr":"경기도 용인시 처인구 백암면 백암리 446번지 1층","indutype":"보건위생 - 미용원","category":"beauty"}]},{"lat":"37.164813488","long":"127.37549825","imageIndex":13,"items":[{"name":"휴 아로마 뷰티 체험","tel":"031-336-3222","addr":"경기도 용인시 처인구 백암면 백암리 341-5번지 2층","indutype":"보건위생 - 화장품","category":"beauty"}]},{"lat":"37.165031751","long":"127.37197536","imageIndex":13,"items":[{"name":"휴헤어살롱","tel":"031-321-0544","addr":"경기도 용인시 처인구 백암면 백암리 409번지","indutype":"보건위생 - 미용원","category":"beauty"}]}]