[{"lat":"37.204699393","long":"127.65691164","imageIndex":7,"items":[{"name":"성문농장 농업회사법인 유한회사","tel":"031-884-9945","addr":"경기도 여주시 점동면 청안리 250-2번지","indutype":"음료식품 - 기타음료식품","category":"food"}]},{"lat":"37.206644445","long":"127.66199753","imageIndex":7,"items":[{"name":"오갑산정육점","tel":"031-884-4429","addr":"경기도 여주시 점동면 청안리 156-4번지","indutype":"음료식품 - 정육점","category":"food"},{"name":"점동정육점","tel":"031-883-1490","addr":"경기도 여주시 점동면 청안리 156-4번지","indutype":"음료식품 - 정육점","category":"food"}]},{"lat":"37.205259944","long":"127.6614448","imageIndex":7,"items":[{"name":"점동떡방앗간","tel":"031-883-7677","addr":"경기도 여주시 점동면 청안리 127-7번지","indutype":"음료식품 - 제과점","category":"food"}]},{"lat":"37.205756029","long":"127.66296982","imageIndex":7,"items":[{"name":"점동면주민자취위원회","tel":"031-881-1246","addr":"경기도 여주시 점동면 청안리 124-6번지","indutype":"음료식품 - 농·축·수산품","category":"food"}]},{"lat":"37.205814855","long":"127.66211423","imageIndex":7,"items":[{"name":"점동종합마트","tel":"070-8162-4223","addr":"경기도 여주시 점동면 청안리 130-3번지","indutype":"음료식품 - 기타음료식품","category":"food"}]},{"lat":"37.206286684","long":"127.66152131","imageIndex":7,"items":[{"name":"제이스베이커리","tel":"031-884-0075","addr":"경기도 여주시 점동면 청안리 155-4번지","indutype":"음료식품 - 제과점","category":"food"}]},{"lat":"37.206337798","long":"127.66205119","imageIndex":7,"items":[{"name":"풍년방앗간","tel":"031-882-7016","addr":"경기도 여주시 점동면 청안리 126-2번지","indutype":"음료식품 - 제과점","category":"food"}]},{"lat":"37.2071720084","long":"127.6627230657","imageIndex":7,"items":[{"name":"한양정육점","tel":"031-882-2573","addr":"경기도 여주시 점동면 청안리 159-6번지","indutype":"음료식품 - 정육점","category":"food"}]},{"lat":"37.209757527","long":"127.66441282","imageIndex":7,"items":[{"name":"화림가든","tel":"031-884-5689","addr":"경기도 여주시 점동면 청안리 166-11번지","indutype":"음료식품 - 미곡상","category":"food"}]}]