[{"lat":"37.48698427","long":"126.77790994","imageIndex":17,"items":[{"name":"(주) 마요","tel":"","addr":"경기도 부천시 심곡동 458-2번지 다온하브 404호","indutype":"사무통신 - 컴퓨터","category":"other"},{"name":"GS25부천다온하브점","tel":"","addr":"경기도 부천시 심곡동 458-2번지 다온하브 106호","indutype":"유통업 영리 - 편 의 점","category":"other"},{"name":"똥꼬발랄하개","tel":"032-651-7942","addr":"경기도 부천시 심곡동 458-2번지 다온하브 101호","indutype":"문화.취미 - 애완동물","category":"other"},{"name":"유진에어컨설치","tel":"02-6340-5359","addr":"경기도 부천시 심곡동 458-2번지 다온하브 1315호","indutype":"용역 서비스 - 기타용역서비스","category":"other"},{"name":"주식회사한국융합에코기술","tel":"032-612-5111","addr":"경기도 부천시 심곡동 458-2번지 14층 1401-3.4호","indutype":"건축자재 - 기타건축자재","category":"other"},{"name":"크린에이드 심곡점","tel":"032-654-4308","addr":"경기도 부천시 심곡동 458-2번지 다온허브 118호","indutype":"수리서비스 - 세탁소","category":"other"}]},{"lat":"37.488484679","long":"126.77568926","imageIndex":17,"items":[{"name":"(주)129구급대","tel":"032-111-1111","addr":"경기도 부천시 심곡동 343번지 2동","indutype":"용역 서비스 - 종합용역","category":"other"},{"name":"정우공사","tel":"032-655-9488","addr":"경기도 부천시 심곡동 343번지","indutype":"용역 서비스 - 종합용역","category":"other"}]},{"lat":"37.491398443","long":"126.77754617","imageIndex":17,"items":[{"name":"(주)경원소방","tel":"032-655-1190","addr":"경기도 부천시 심곡동 298-13번지","indutype":"건축자재 - 기타건축자재","category":"other"}]},{"lat":"37.487149605","long":"126.7748566","imageIndex":17,"items":[{"name":"(주)두리넷","tel":"032-271-3002","addr":"경기도 부천시 심곡동 352-12번지 동원빌딩 4층","indutype":"용역 서비스 - 기타용역서비스","category":"other"},{"name":"미미르A&T","tel":"031-296-3218","addr":"경기도 부천시 심곡동 352-12번지 5층","indutype":"용역 서비스 - 사무서비스","category":"other"},{"name":"스카이부천사이클아카데미","tel":"032-424-2202","addr":"경기도 부천시 심곡동 352-12번지 지층","indutype":"레져용품 - 스포츠·레져용품","category":"other"},{"name":"얘기 씨어터 컴퍼니","tel":"032-655-8815","addr":"경기도 부천시 심곡동 352-12번지 5층","indutype":"문화.취미 - 티켓","category":"other"}]},{"lat":"37.487983865","long":"126.78730303","imageIndex":17,"items":[{"name":"(주)랜디오션","tel":"032-613-6559","addr":"경기도 부천시 심곡동 133-17번지 3층","indutype":"신변잡화 - 기타잡화","category":"other"},{"name":"미래유통(공구)","tel":"070-8921-6572","addr":"경기도 부천시 심곡동 133-17번지 3층","indutype":"신변잡화 - 기타잡화","category":"other"},{"name":"화진냉열","tel":"032-668-8803","addr":"경기도 부천시 심곡동 133-17번지 1층","indutype":"전기제품 - 냉열기기","category":"other"}]},{"lat":"37.491847977","long":"126.77237727","imageIndex":17,"items":[{"name":"(주)마라테크","tel":"032-667-7481","addr":"경기도 부천시 심곡동 308-17번지 유진빌딩 6층","indutype":"기타의료기관 - 기타의료기관 및 기타","category":"other"},{"name":"고려정보통신","tel":"032-666-8611","addr":"경기도 부천시 심곡동 308-17번지 4층","indutype":"용역 서비스 - 소프트웨어","category":"other"},{"name":"주식회사 연태","tel":"032-258-3935","addr":"경기도 부천시 심곡동 308-17번지 1층","indutype":"건축자재 - 목재·석재·철물","category":"other"}]},{"lat":"37.486953521","long":"126.77596526","imageIndex":17,"items":[{"name":"(주)미래정보서울무이자할부","tel":"032-654-6900","addr":"경기도 부천시 심곡동 351-21번지","indutype":"사무통신 - 통신기기(무이자할부)","category":"other"},{"name":"주식회사미래정보","tel":"032-654-6900","addr":"경기도 부천시 심곡동 351-21번지 1층","indutype":"사무통신 - 컴퓨터","category":"other"},{"name":"주식회사미래정보_PS","tel":"032-654-6900","addr":"경기도 부천시 심곡동 351-21번지 1층","indutype":"사무통신 - 통신기기","category":"other"}]},{"lat":"37.488592452","long":"126.78507379","imageIndex":17,"items":[{"name":"(주)미래조경","tel":"032-664-3138","addr":"경기도 부천시 심곡동 160-2번지 하주빌딩 B5호","indutype":"문화.취미 - 화원","category":"other"}]},{"lat":"37.486457737","long":"126.78057991","imageIndex":17,"items":[{"name":"(주)비이인터내셔널","tel":"032-662-2164","addr":"경기도 부천시 심곡동 382-6번지 가온팰리스 501호","indutype":"신변잡화 - 시계","category":"other"},{"name":"넌.늘예솔","tel":"031-000-0000","addr":"경기도 부천시 심곡동 382-6번지 가온팰리스 504호","indutype":"신변잡화 - 액세서리","category":"other"},{"name":"모모룸(momo room)","tel":"070-8612-9729","addr":"경기도 부천시 심곡동 382-6번지 가온팰리스 1층 103호","indutype":"의류 - 정장","category":"other"},{"name":"미어캣놀이터 러블리쥬","tel":"031-0000-0000","addr":"경기도 부천시 심곡동 382-6번지 가온팰리스 202호","indutype":"문화.취미 - 애완동물","category":"other"}]},{"lat":"37.485791983","long":"126.78110199","imageIndex":17,"items":[{"name":"(주)삼영필림","tel":"02-1544-0079","addr":"경기도 부천시 심곡동 383-1번지 씨네마존 601호","indutype":"문화.취미 - 영화관","category":"other"},{"name":"미니스톱 부천시네마점","tel":"031-1577-9621","addr":"경기도 부천시 심곡동 383-1번지 시네마존 1층 103호","indutype":"유통업 영리 - 편 의 점","category":"other"},{"name":"스타일미스미스터(Style_Miss mr)","tel":"","addr":"경기도 부천시 심곡동 383-1번지 시네마존 1층 112호","indutype":"의류 - 정장","category":"other"},{"name":"쩡글","tel":"032-665-5296","addr":"경기도 부천시 심곡동 383-1번지 MMC 205호","indutype":"문화.취미 - 애완동물","category":"other"}]},{"lat":"37.486038485","long":"126.78283118","imageIndex":17,"items":[{"name":"(주)신유텔레콤","tel":"032-612-0013","addr":"경기도 부천시 심곡동 177-13번지 1층","indutype":"사무통신 - 통신기기","category":"other"},{"name":"폴더 부천점","tel":"031-000-0000","addr":"경기도 부천시 심곡동 177-13번지 1층","indutype":"신변잡화 - 신발","category":"other"}]},{"lat":"37.486208958","long":"126.78733075","imageIndex":17,"items":[{"name":"(주)아트뮤직프로젝트","tel":"070-8742-3441","addr":"경기도 부천시 심곡동 137-41번지 지하","indutype":"문화.취미 - 티켓","category":"other"},{"name":"빅영","tel":"032-654-1280","addr":"경기도 부천시 심곡동 137-41번지 1층","indutype":"의류 - 내의판매","category":"other"}]},{"lat":"37.485402622","long":"126.78007424","imageIndex":17,"items":[{"name":"(주)에프와이티(FYT)","tel":"070-4238-2474","addr":"경기도 부천시 심곡동 385번지 8층 824-825호","indutype":"용역 서비스 - 소프트웨어","category":"other"},{"name":"가시나","tel":"","addr":"경기도 부천시 심곡동 385번지 피노키오상가 1층 110호","indutype":"의류 - 정장","category":"other"},{"name":"기프트(GIFT)","tel":"070-4254-2556","addr":"경기도 부천시 심곡동 385번지 132, 133호","indutype":"신변잡화 - 액세서리","category":"other"},{"name":"다니샵","tel":"","addr":"경기도 부천시 심곡동 385번지 심곡동피노키오상가 3층 335호","indutype":"신변잡화 - 액세서리","category":"other"},{"name":"바이더윤","tel":"070-4319-6789","addr":"경기도 부천시 심곡동 385번지 심곡동피노키오상가 3층 334호","indutype":"의류 - 정장","category":"other"},{"name":"배여사#","tel":"","addr":"경기도 부천시 심곡동 385번지 심곡동피노키오상가 1층 129호","indutype":"의류 - 정장","category":"other"},{"name":"아이폰 달인","tel":"","addr":"경기도 부천시 심곡동 385번지 433호 심곡동피노키오상가","indutype":"수리서비스 - 사무·통신기기수리","category":"other"},{"name":"아이폰픽스 부천아이폰수리센터","tel":"","addr":"경기도 부천시 심곡동 385번지 심곡동피노키오상가 333호","indutype":"수리서비스 - 사무·통신기기수리","category":"other"},{"name":"안녕피어싱","tel":"032-656-3091","addr":"경기도 부천시 심곡동 385번지 까뮤피노키오상가 112호","indutype":"신변잡화 - 액세서리","category":"other"},{"name":"어싱라이프","tel":"032-612-2006","addr":"경기도 부천시 심곡동 385번지 피노키오빌딩 804호","indutype":"신변잡화 - 기타잡화","category":"other"},{"name":"에브리데이스모크(everydaysmoke)전자담배","tel":"","addr":"경기도 부천시 심곡동 385번지 심곡동피노키오상가 110호","indutype":"기타 - 기타 전문점","category":"other"},{"name":"에코114","tel":"","addr":"경기도 부천시 심곡동 385번지 피노키오상가 7층 728호","indutype":"용역 서비스 - 종합용역","category":"other"},{"name":"엔죠이","tel":"032-668-1004","addr":"경기도 부천시 심곡동 385번지 피노키오상가 3층 331호","indutype":"의류 - 정장","category":"other"},{"name":"주식회사 판","tel":"","addr":"경기도 부천시 심곡동 385번지 피노키오상가 838,839호","indutype":"용역 서비스 - 기타용역서비스","category":"other"},{"name":"키움미디어","tel":"","addr":"경기도 부천시 심곡동 385번지 심곡동피노키오상가 834호","indutype":"용역 서비스 - 종합용역","category":"other"},{"name":"헌터PC","tel":"","addr":"경기도 부천시 심곡동 385번지 피노키오 512호 511호,512호","indutype":"수리서비스 - 사무·통신기기수리","category":"other"}]},{"lat":"37.485291144","long":"126.78798916","imageIndex":17,"items":[{"name":"(주)여행콜여행사","tel":"032-1670-7965","addr":"경기도 부천시 심곡동 130-6번지 화신오피스텔 407호","indutype":"여행 - 관광여행","category":"other"},{"name":"(주)이인컴퍼니","tel":"032-652-0222","addr":"경기도 부천시 심곡동 130-6번지","indutype":"사무통신 - 컴퓨터","category":"other"},{"name":"(주)친우여행사","tel":"032-662-8206","addr":"경기도 부천시 심곡동 130-6번지 화신오피스텔 207호","indutype":"여행 - 관광여행","category":"other"},{"name":"더리틀원스","tel":"032-663-0124","addr":"경기도 부천시 심곡동 130-6번지 화신오피스텔 1010호","indutype":"문화.취미 - 애완동물","category":"other"},{"name":"들풀공인노무사사무소","tel":"032-676-8386","addr":"경기도 부천시 심곡동 130-6번지 화신오피스텔 1308호","indutype":"용역 서비스 - 법률회계서비스(개인)","category":"other"},{"name":"들풀에이치알디","tel":"","addr":"경기도 부천시 심곡동 130-6번지 화신오피스텔 13층 1308호","indutype":"용역 서비스 - 종합용역","category":"other"},{"name":"비바체","tel":"070-4898-8600","addr":"경기도 부천시 심곡동 130-6번지 화신오피스텔 201호","indutype":"가구 - 일반가구","category":"other"},{"name":"서일 이앤씨","tel":"032-324-1218","addr":"경기도 부천시 심곡동 130-6번지 화신오피스텔 2층 206호","indutype":"용역 서비스 - 가례서비스업","category":"other"},{"name":"순성상사","tel":"032-320-6550","addr":"경기도 부천시 심곡동 130-6번지 화신오피스텔 307호","indutype":"신변잡화 - 기타잡화","category":"other"},{"name":"씨유부천화신점","tel":"032-611-8484","addr":"경기도 부천시 심곡동 130-6번지 화신오피스텔 101호","indutype":"유통업 영리 - 편 의 점","category":"other"},{"name":"아트피플","tel":"070-4065-5886","addr":"경기도 부천시 심곡동 130-6번지 화신오피스텔 1110호","indutype":"문화.취미 - 화랑","category":"other"},{"name":"유림 (Yurim Co.Ltd)","tel":"02-000-0000","addr":"경기도 부천시 심곡동 130-6번지 화신오피스텔 511호","indutype":"의류 - 정장","category":"other"},{"name":"제이원","tel":"032-661-4150","addr":"경기도 부천시 심곡동 130-6번지","indutype":"전기제품 - 기타전기제품","category":"other"},{"name":"주식회사지웍스","tel":"032-664-7835","addr":"경기도 부천시 심곡동 130-6번지 화신오피스텔 511호","indutype":"용역 서비스 - 종합용역","category":"other"},{"name":"타임리 릴리프(Timely relief)","tel":"070-8818-9870","addr":"경기도 부천시 심곡동 130-6번지 화신오피스텔 12층 1210호","indutype":"신변잡화 - 기타잡화","category":"other"}]},{"lat":"37.491732544","long":"126.7732483","imageIndex":17,"items":[{"name":"(주)이엠에이","tel":"032-651-0411","addr":"경기도 부천시 심곡동 305-11번지","indutype":"전기제품 - 냉열기기","category":"other"}]},{"lat":"37.485898124","long":"126.78005015","imageIndex":17,"items":[{"name":"(주)이지앤패스","tel":"02-1522-5988","addr":"경기도 부천시 심곡동 383-8번지 프리존빌딩 2층 207호","indutype":"사무통신 - 통신기기","category":"other"},{"name":"대호이지패스","tel":"02-1522-5988","addr":"경기도 부천시 심곡동 383-8번지 프리존빌딩 2층 207호","indutype":"사무통신 - 통신기기","category":"other"},{"name":"독불장군","tel":"070-4254-0160","addr":"경기도 부천시 심곡동 383-8번지 프리존빌딩 302호","indutype":"문화.취미 - 애완동물","category":"other"},{"name":"리얼짐","tel":"032-665-9688","addr":"경기도 부천시 심곡동 383-8번지 프리존빌딩 303호","indutype":"회원제형태 - 레져업소","category":"other"},{"name":"마리엔느","tel":"070-7746-9117","addr":"경기도 부천시 심곡동 383-8번지 프리존빌딩 801호","indutype":"신변잡화 - 기타잡화","category":"other"},{"name":"부천VIP요양원","tel":"032-651-5101","addr":"경기도 부천시 심곡동 383-8번지 프리존빌딩 5층","indutype":"기타의료기관 - 기타의료기관 및 기타","category":"other"},{"name":"부천드림요양원","tel":"032-664-1010","addr":"경기도 부천시 심곡동 383-8번지 6층","indutype":"기타의료기관 - 기타의료기관 및 기타","category":"other"},{"name":"비지테크","tel":"031-7372-0312","addr":"경기도 부천시 심곡동 383-8번지 프리존빌딩 4층","indutype":"서적문구 - 과학기자재","category":"other"},{"name":"세진공조","tel":"032-813-8288","addr":"경기도 부천시 심곡동 383-8번지 프리존빌딩 401호","indutype":"용역 서비스 - 기타용역서비스","category":"other"},{"name":"엔피아DVD영화관","tel":"032-664-1003","addr":"경기도 부천시 심곡동 383-8번지 외3필지프리존타워 305동 306호","indutype":"문화.취미 - 문화취미기타","category":"other"},{"name":"예닮교육","tel":"032-681-6550","addr":"경기도 부천시 심곡동 383-8번지 프리존빌딩 815호","indutype":"서적문구 - 기타서적문구","category":"other"},{"name":"이지정보통신","tel":"","addr":"경기도 부천시 심곡동 383-8번지 프리존빌딩 2층 207호","indutype":"사무통신 - 통신기기","category":"other"},{"name":"제이피스(JFIS)","tel":"032-668-9688","addr":"경기도 부천시 심곡동 383-8번지 프리존빌딩 10층 1002호","indutype":"용역 서비스 - 사무서비스","category":"other"},{"name":"주식회사 비지엘","tel":"070-8095-4952","addr":"경기도 부천시 심곡동 383-8번지 프리존빌딩 1005-2호","indutype":"주방용구 - 주방용구","category":"other"},{"name":"톡톡","tel":"032-662-2026","addr":"경기도 부천시 심곡동 383-8번지 외3필지프리존빌딩 104호","indutype":"신변잡화 - 시계","category":"other"}]},{"lat":"37.484902669","long":"126.78741364","imageIndex":17,"items":[{"name":"(주)제이피테크컴퍼니","tel":"02-1688-6795","addr":"경기도 부천시 심곡동 139-1번지 1007호","indutype":"사무통신 - 통신기기","category":"other"},{"name":"아르티스트뷰","tel":"070-5104-5144","addr":"경기도 부천시 심곡동 139-1번지 에버그린 301호","indutype":"용역 서비스 - 사무서비스","category":"other"}]},{"lat":"37.4894038","long":"126.78532019","imageIndex":17,"items":[{"name":"(주)케이비건영","tel":"032-655-9001","addr":"경기도 부천시 심곡동 155-2번지 2층","indutype":"용역 서비스 - 기타용역서비스","category":"other"},{"name":"내셔널팀운동센터","tel":"070-8210-6863","addr":"경기도 부천시 심곡동 155-2번지 5층","indutype":"회원제형태 - 레져업소","category":"other"},{"name":"주식회사 제팻애니메이션스튜디오","tel":"070-7561-6527","addr":"경기도 부천시 심곡동 155-2번지 2층","indutype":"용역 서비스 - 사무서비스","category":"other"}]},{"lat":"37.487011501","long":"126.7733306","imageIndex":17,"items":[{"name":"(주)쿨허니문투어","tel":"032-661-6626","addr":"경기도 부천시 심곡동 358-2번지","indutype":"여행 - 관광여행","category":"other"}]},{"lat":"37.486847482","long":"126.77705103","imageIndex":17,"items":[{"name":"(주)태경전자","tel":"032-345-8011","addr":"경기도 부천시 심곡동 458-9번지","indutype":"전기제품 - 가전제품","category":"other"},{"name":"(주)태경전자_PS","tel":"032-666-2700","addr":"경기도 부천시 심곡동 458-9번지","indutype":"사무통신 - 통신기기","category":"other"},{"name":"시장사람들","tel":"070-7529-8843","addr":"경기도 부천시 심곡동 458-9번지 3층","indutype":"유통업 영리 - 기타유통업","category":"other"},{"name":"정Flower","tel":"032-665-5388","addr":"경기도 부천시 심곡동 458-9번지","indutype":"문화.취미 - 화원","category":"other"}]},{"lat":"37.488459341","long":"126.78618227","imageIndex":17,"items":[{"name":"(주)한양주철산업","tel":"032-656-8070","addr":"경기도 부천시 심곡동 153-6번지","indutype":"건축자재 - 기타건축자재","category":"other"}]},{"lat":"37.487901054","long":"126.77674257","imageIndex":17,"items":[{"name":"(주)한일종합상사","tel":"032-663-9001","addr":"경기도 부천시 심곡동 343-17번지","indutype":"사무통신 - 사무용 OA기기","category":"other"},{"name":"생활용품DC마트","tel":"032-668-0089","addr":"경기도 부천시 심곡동 343-17번지","indutype":"신변잡화 - 기타잡화","category":"other"}]},{"lat":"37.491623063","long":"126.77721758","imageIndex":17,"items":[{"name":"21세기TV","tel":"","addr":"경기도 부천시 심곡동 298-36번지 보원연립 201호","indutype":"용역 서비스 - 기타용역서비스","category":"other"}]},{"lat":"37.491792713","long":"126.7811634","imageIndex":17,"items":[{"name":"24시수도설비","tel":"032-668-0824","addr":"경기도 부천시 심곡동 431-13번지","indutype":"수리서비스 - 기타수리서비스","category":"other"}]},{"lat":"37.486068372","long":"126.77955215","imageIndex":17,"items":[{"name":"24시애견센타","tel":"032-613-8399","addr":"경기도 부천시 심곡동 394-3번지 1층","indutype":"문화.취미 - 애완동물","category":"other"},{"name":"수수꽃방","tel":"032-611-9747","addr":"경기도 부천시 심곡동 394-3번지 1층","indutype":"문화.취미 - 화원","category":"other"},{"name":"아띠아토(ATI.ATO)","tel":"032-1111-1111","addr":"경기도 부천시 심곡동 394-3번지 1층","indutype":"의류 - 정장","category":"other"}]},{"lat":"37.489257808","long":"126.77479365","imageIndex":17,"items":[{"name":"24시하수구넘버원","tel":"","addr":"경기도 부천시 심곡동 339-42번지 하이트뷰 301호","indutype":"용역 서비스 - 종합용역","category":"other"}]},{"lat":"37.487710919","long":"126.78585653","imageIndex":17,"items":[{"name":"2엑스(2X)","tel":"032-8925-5530","addr":"경기도 부천시 심곡동 152-26번지 대상하이츠 501호","indutype":"유통업 영리 - 기타유통업","category":"other"}]},{"lat":"37.491875876","long":"126.78227129","imageIndex":17,"items":[{"name":"ASA아웃도어","tel":"032-654-3566","addr":"경기도 부천시 심곡동 368-17번지","indutype":"레져용품 - 스포츠·레져용품","category":"other"}]},{"lat":"37.486066652","long":"126.78834876","imageIndex":17,"items":[{"name":"Accessory Factory","tel":"","addr":"경기도 부천시 심곡동 131-4번지 1층","indutype":"신변잡화 - 액세서리","category":"other"}]},{"lat":"37.488260288","long":"126.78087986","imageIndex":17,"items":[{"name":"Awesome 통신","tel":"032-613-4184","addr":"경기도 부천시 심곡동 377-21번지","indutype":"사무통신 - 통신기기","category":"other"}]},{"lat":"37.484731988","long":"126.78280109","imageIndex":17,"items":[{"name":"B.M.Y","tel":"032-2696-9917","addr":"경기도 부천시 심곡동 498번지 부천지하상가 107호","indutype":"의류 - 정장","category":"other"},{"name":"가디스(goddes)","tel":"02-458-4596","addr":"경기도 부천시 심곡동 498번지 5(8)호","indutype":"신변잡화 - 신발","category":"other"},{"name":"개이쁨","tel":"02-757-3465","addr":"경기도 부천시 심곡동 498번지 부천역지하도상가 121호 및 123호","indutype":"신변잡화 - 액세서리","category":"other"},{"name":"걸스토리","tel":"","addr":"경기도 부천시 심곡동 498번지 부천역지하도상가 136호","indutype":"의류 - 정장","category":"other"},{"name":"걸스토리","tel":"032-656-7686","addr":"경기도 부천시 심곡동 498번지 부천역지하도상가 237호","indutype":"의류 - 정장","category":"other"},{"name":"계명화점","tel":"032-612-1455","addr":"경기도 부천시 심곡동 498번지 부천역지하도상가 501,502호","indutype":"신변잡화 - 신발","category":"other"},{"name":"골드리본","tel":"032-665-9012","addr":"경기도 부천시 심곡동 498번지 부천역지하도 상가 170호","indutype":"신변잡화 - 기타잡화","category":"other"},{"name":"꼬망세","tel":"070-8780-2150","addr":"경기도 부천시 심곡동 498번지 70(53)호 부천역지하도 상가","indutype":"의류 - 정장","category":"other"},{"name":"닛시(NISSI)","tel":"032-655-0676","addr":"경기도 부천시 심곡동 498번지 부천역지하도 상가 78호","indutype":"의류 - 정장","category":"other"},{"name":"다온(Da on)","tel":"","addr":"경기도 부천시 심곡동 498번지 부천지하상가 48호","indutype":"의류 - 정장","category":"other"},{"name":"더걸","tel":"","addr":"경기도 부천시 심곡동 498번지 부천역지하도상가 138호","indutype":"의류 - 정장","category":"other"},{"name":"디퍼2","tel":"031-429-0130","addr":"경기도 부천시 심곡동 498번지 부천역 구지하도상가 73호","indutype":"의류 - 정장","category":"other"},{"name":"똥싼바지","tel":"070-7845-7548","addr":"경기도 부천시 심곡동 498번지 243,246호","indutype":"의류 - 정장","category":"other"},{"name":"레몬트리","tel":"070-8780-2150","addr":"경기도 부천시 심곡동 498번지 부천역지하상가 51호","indutype":"의류 - 정장","category":"other"},{"name":"루즈","tel":"032-611-6405","addr":"경기도 부천시 심곡동 498번지 16(30)호","indutype":"의류 - 정장","category":"other"},{"name":"릴리피어싱 부천점","tel":"032-611-7351","addr":"경기도 부천시 심곡동 498번지 부천역지하도상가 255호","indutype":"신변잡화 - 액세서리","category":"other"},{"name":"매직포토","tel":"032-666-7165","addr":"경기도 부천시 심곡동 498번지 52,65호","indutype":"광학제품 - 사진관","category":"other"},{"name":"맥스 피어싱","tel":"","addr":"경기도 부천시 심곡동 498번지 부천역지하도상가 131호","indutype":"신변잡화 - 액세서리","category":"other"},{"name":"맨즈비","tel":"070-9457-2661","addr":"경기도 부천시 심곡동 498번지 부천역지하도상가 248,250호","indutype":"의류 - 정장","category":"other"},{"name":"메이크유어플레이1(make your play)","tel":"070-4325-8007","addr":"경기도 부천시 심곡동 498번지 부천역지하도상가 152호","indutype":"의류 - 정장","category":"other"},{"name":"메이크유어플레이2(make your play2)","tel":"070-4325-8006","addr":"경기도 부천시 심곡동 498번지 부천역지하도상가 150호","indutype":"의류 - 정장","category":"other"},{"name":"모든","tel":"032-668-9051","addr":"경기도 부천시 심곡동 498번지 부천역지하도상가 264호","indutype":"의류 - 정장","category":"other"},{"name":"뮤즈","tel":"032-611-4329","addr":"경기도 부천시 심곡동 498번지 부천역지하도상가 1-1","indutype":"의류 - 정장","category":"other"},{"name":"미모샵","tel":"032-348-8777","addr":"경기도 부천시 심곡동 498번지 부천역지하도상가 234호","indutype":"의류 - 정장","category":"other"},{"name":"미미","tel":"","addr":"경기도 부천시 심곡동 498번지 부천역지하도상가55(43)호","indutype":"의류 - 정장","category":"other"},{"name":"백리다매","tel":"","addr":"경기도 부천시 심곡동 498번지 부천역지하도상가 128,129호","indutype":"신변잡화 - 기타잡화","category":"other"},{"name":"병아리떼 쫑쫑쫑","tel":"032-611-5528","addr":"경기도 부천시 심곡동 498번지 부천역지하도상가 165호","indutype":"의류 - 정장","category":"other"},{"name":"부천지하점(dab)","tel":"032-666-4110","addr":"경기도 부천시 심곡동 498번지 209,211호","indutype":"의류 - 내의판매","category":"other"},{"name":"블루","tel":"032-665-9911","addr":"경기도 부천시 심곡동 498번지 부천역지하도상가 147호","indutype":"의류 - 정장","category":"other"},{"name":"블루레이","tel":"032-655-2658","addr":"경기도 부천시 심곡동 498번지 부천역지하도상가 213호","indutype":"의류 - 정장","category":"other"},{"name":"비비드 제이(VIVID J)","tel":"","addr":"경기도 부천시 심곡동 498번지 부천역지하도상가 139호","indutype":"의류 - 정장","category":"other"},{"name":"비쥬","tel":"032-653-0380","addr":"경기도 부천시 심곡동 498번지 103, 106호","indutype":"신변잡화 - 액세서리","category":"other"},{"name":"비즈옷걸이","tel":"","addr":"경기도 부천시 심곡동 498번지 부천역지하도상가 67(47호)","indutype":"의류 - 정장","category":"other"},{"name":"뺑끼통","tel":"","addr":"경기도 부천시 심곡동 498번지 167 .169호","indutype":"신변잡화 - 액세서리","category":"other"},{"name":"뽐내다","tel":"070-8869-2694","addr":"경기도 부천시 심곡동 498번지 부천역지하도상가 122호","indutype":"의류 - 정장","category":"other"},{"name":"샤인","tel":"032-655-1729","addr":"경기도 부천시 심곡동 498번지 부천역지하도상가 108호","indutype":"신변잡화 - 기타잡화","category":"other"},{"name":"샵(#)66.77","tel":"032-662-0211","addr":"경기도 부천시 심곡동 498번지 부천역지하도상가 111호","indutype":"의류 - 정장","category":"other"},{"name":"성예사","tel":"032-661-4313","addr":"경기도 부천시 심곡동 498번지 부천역지하도상가 201호","indutype":"사무통신 - 통신기기","category":"other"},{"name":"스노우문 (SNOWMOON)","tel":"","addr":"경기도 부천시 심곡동 498번지 부천역지하도상가 124,126호","indutype":"신변잡화 - 액세서리","category":"other"},{"name":"시실리아노","tel":"032-652-4214","addr":"경기도 부천시 심곡동 498번지 부천역지하도 상가 137호","indutype":"의류 - 정장","category":"other"},{"name":"썬데이바이브(Sun Day Vibe)","tel":"","addr":"경기도 부천시 심곡동 498번지 부천역지하도상가 지하층 20(22)호","indutype":"의류 - 정장","category":"other"},{"name":"아람","tel":"070-7799-0771","addr":"경기도 부천시 심곡동 498번지 부천역지하도상가 54호","indutype":"신변잡화 - 액세서리","category":"other"},{"name":"앨리스옷장","tel":"","addr":"경기도 부천시 심곡동 498번지 부천역지하도상가 117호","indutype":"의류 - 정장","category":"other"},{"name":"앨리스옷장","tel":"","addr":"경기도 부천시 심곡동 498번지 부천역지하도상가 115호","indutype":"의류 - 정장","category":"other"},{"name":"앨리스옷장2","tel":"","addr":"경기도 부천시 심곡동 498번지 부천역지하도상가 12(15)호,14(17)호","indutype":"의류 - 정장","category":"other"},{"name":"에이라벨 (A label)","tel":"032-613-2189","addr":"경기도 부천시 심곡동 498번지 142,145호","indutype":"의류 - 정장","category":"other"},{"name":"에이치트렌디 (H.Trendy)","tel":"","addr":"경기도 부천시 심곡동 498번지 부천역지하도상가 112, 113호","indutype":"의류 - 정장","category":"other"},{"name":"엘라","tel":"032-613-8462","addr":"경기도 부천시 심곡동 498번지 지하1층 258,259호","indutype":"신변잡화 - 액세서리","category":"other"},{"name":"엘리스옷장","tel":"","addr":"경기도 부천시 심곡동 498번지 부천역지하도상가 119호","indutype":"의류 - 정장","category":"other"},{"name":"엘리스옷장","tel":"","addr":"경기도 부천시 심곡동 498번지 216호,218호","indutype":"의류 - 정장","category":"other"},{"name":"엠엠","tel":"","addr":"경기도 부천시 심곡동 498번지 제133, 제135호","indutype":"신변잡화 - 기타잡화","category":"other"},{"name":"예닮","tel":"032-652-0135","addr":"경기도 부천시 심곡동 498번지 지하 164,165호","indutype":"의류 - 맞춤복점","category":"other"},{"name":"오르스트디오","tel":"","addr":"경기도 부천시 심곡동 498번지 지하상가점포 195,196호","indutype":"의류 - 정장","category":"other"},{"name":"올미샵","tel":"032-652-9792","addr":"경기도 부천시 심곡동 498번지 부천역지하도상가 110호","indutype":"의류 - 정장","category":"other"},{"name":"워닛","tel":"","addr":"경기도 부천시 심곡동 498번지 부천역지하도상가 247호","indutype":"의류 - 정장","category":"other"},{"name":"웰컴케이스","tel":"","addr":"경기도 부천시 심곡동 498번지 부천역지하도상가 8호,10호","indutype":"신변잡화 - 기타잡화","category":"other"},{"name":"유니짱케이스(1)","tel":"","addr":"경기도 부천시 심곡동 498번지 부천역지하도상가 141,143호","indutype":"신변잡화 - 기타잡화","category":"other"},{"name":"이쁜케이스2","tel":"032-683-0617","addr":"경기도 부천시 심곡동 498번지 부천역지하도상가 205호","indutype":"신변잡화 - 기타잡화","category":"other"},{"name":"제이아이에이(JIA)","tel":"032-668-5679","addr":"경기도 부천시 심곡동 498번지 부천역지하상가 269호,271호","indutype":"의류 - 정장","category":"other"},{"name":"젠틀몽키","tel":"","addr":"경기도 부천시 심곡동 498번지 부천역지하도상가 지하1층 236호","indutype":"신변잡화 - 기타잡화","category":"other"},{"name":"지오패션","tel":"032-665-2759","addr":"경기도 부천시 심곡동 498번지 176,273호","indutype":"의류 - 정장","category":"other"},{"name":"초이스","tel":"032-611-2927","addr":"경기도 부천시 심곡동 498번지 부천역지하도상가 151호","indutype":"신변잡화 - 신발","category":"other"},{"name":"코스모스","tel":"032-664-4811","addr":"경기도 부천시 심곡동 498번지 부천역지하도상가 228호","indutype":"신변잡화 - 신발","category":"other"},{"name":"티파니","tel":"032-655-6011","addr":"경기도 부천시 심곡동 498번지 부천역지하도상가","indutype":"의류 - 정장","category":"other"},{"name":"해동슈즈","tel":"032-657-4867","addr":"경기도 부천시 심곡동 498번지 부천역지하도상가 153호","indutype":"신변잡화 - 신발","category":"other"},{"name":"힙트릿","tel":"032-000-0000","addr":"경기도 부천시 심곡동 498번지 230,232호","indutype":"의류 - 정장","category":"other"}]},{"lat":"37.487708278","long":"126.77960381","imageIndex":17,"items":[{"name":"DC마트심곡점","tel":"032-666-9779","addr":"경기도 부천시 심곡동 405-7번지 지층","indutype":"신변잡화 - 기타잡화","category":"other"},{"name":"세븐일레븐부천대학로점","tel":"","addr":"경기도 부천시 심곡동 405-7번지 1층","indutype":"유통업 영리 - 편 의 점","category":"other"}]},{"lat":"37.484788671","long":"126.78421424","imageIndex":17,"items":[{"name":"E.D.S","tel":"032-653-1228","addr":"경기도 부천시 심곡동 171-1","indutype":"서적문구 - 과학기자재","category":"other"}]},{"lat":"37.48915","long":"126.78449551","imageIndex":17,"items":[{"name":"ENJOY010","tel":"032-667-7760","addr":"경기도 부천시 심곡동 158-5번지","indutype":"사무통신 - 통신기기","category":"other"}]},{"lat":"37.485792662","long":"126.7814638","imageIndex":17,"items":[{"name":"FREAKER","tel":"032-653-2755","addr":"경기도 부천시 심곡동 175-14번지 1층","indutype":"레져용품 - 스포츠·레져용품","category":"other"},{"name":"행남자기코너","tel":"032-663-4431","addr":"경기도 부천시 심곡동 175-14번지","indutype":"문화.취미 - 민예·공예품","category":"other"}]},{"lat":"37.492036544","long":"126.77204877","imageIndex":17,"items":[{"name":"GH광고기획","tel":"032-655-1004","addr":"경기도 부천시 심곡동 314-17번지 1층","indutype":"용역 서비스 - 종합용역","category":"other"},{"name":"버블하얀 운동화","tel":"032-663-9042","addr":"경기도 부천시 심곡동 314-17번지 1층","indutype":"수리서비스 - 세탁소","category":"other"},{"name":"성림인쇄사","tel":"032-653-3625","addr":"경기도 부천시 심곡동 314-17번지 18호","indutype":"서적문구 - 출판 및 인쇄물","category":"other"}]},{"lat":"37.487871714","long":"126.78027043","imageIndex":17,"items":[{"name":"GR25","tel":"032-656-5594","addr":"경기도 부천시 심곡동 408-1번지 1층","indutype":"유통업 영리 - 편 의 점","category":"other"}]},{"lat":"37.4848771","long":"126.78821648","imageIndex":17,"items":[{"name":"GS25부천늘사랑점","tel":"","addr":"경기도 부천시 심곡동 129-2번지 1층","indutype":"유통업 영리 - 편 의 점","category":"other"}]},{"lat":"37.493402119","long":"126.78418913","imageIndex":17,"items":[{"name":"GS25부천대성병원점","tel":"080-555-2525","addr":"경기도 부천시 심곡동 110-1번지 1층","indutype":"유통업 영리 - 편 의 점","category":"other"}]},{"lat":"37.487293823","long":"126.77960504","imageIndex":17,"items":[{"name":"GS25부천대학점","tel":"","addr":"경기도 부천시 심곡동 404-6번지 1층","indutype":"유통업 영리 - 편 의 점","category":"other"},{"name":"MEN'S","tel":"032-666-9059","addr":"경기도 부천시 심곡동 404-6번지 1층 103호","indutype":"의류 - 정장","category":"other"},{"name":"밀크비","tel":"032-555-5555","addr":"경기도 부천시 심곡동 404-6번지 1층","indutype":"의류 - 정장","category":"other"},{"name":"해피디자이너","tel":"070-8292-0328","addr":"경기도 부천시 심곡동 404-6번지 1층 103호","indutype":"신변잡화 - 액세서리","category":"other"},{"name":"홈독(hamedog)","tel":"070-8289-0085","addr":"경기도 부천시 심곡동 404-6번지 2층","indutype":"문화.취미 - 애완동물","category":"other"}]},{"lat":"37.484128312","long":"126.78768722","imageIndex":17,"items":[{"name":"GS25부천석원점","tel":"","addr":"경기도 부천시 심곡동 128-25번지 1층","indutype":"유통업 영리 - 편 의 점","category":"other"}]},{"lat":"37.49190433","long":"126.77824572","imageIndex":17,"items":[{"name":"GS25부천신흥로점","tel":"","addr":"경기도 부천시 심곡동 446-3번지 1층","indutype":"유통업 영리 - 편 의 점","category":"other"},{"name":"노블디자인","tel":"032-613-2394","addr":"경기도 부천시 심곡동 446-3번지 1층","indutype":"건축자재 - 인테리어전문","category":"other"}]},{"lat":"37.486425947","long":"126.77337761","imageIndex":17,"items":[{"name":"GS25부천심곡산우물점","tel":"","addr":"경기도 부천시 심곡동 359번지 1층","indutype":"유통업 영리 - 편 의 점","category":"other"}]},{"lat":"37.490705773","long":"126.78290795","imageIndex":17,"items":[{"name":"GS25부천심곡점","tel":"","addr":"경기도 부천시 심곡동 366-1번지 1층 일부","indutype":"유통업 영리 - 편 의 점","category":"other"},{"name":"주식회사엘세이버코리아","tel":"032-329-6282","addr":"경기도 부천시 심곡동 366-1번지 지하","indutype":"전기제품 - 기타전기제품","category":"other"}]},{"lat":"37.48795567","long":"126.78179662","imageIndex":17,"items":[{"name":"GS25부천중앙점","tel":"","addr":"경기도 부천시 심곡동 192-15번지","indutype":"유통업 영리 - 편 의 점","category":"other"}]},{"lat":"37.490788547","long":"126.77430278","imageIndex":17,"items":[{"name":"GS25심곡공원점","tel":"","addr":"경기도 부천시 심곡동 323-22번지 1층","indutype":"유통업 영리 - 편 의 점","category":"other"}]},{"lat":"37.4886251","long":"126.78324195","imageIndex":17,"items":[{"name":"GS25심곡대로점","tel":"","addr":"경기도 부천시 심곡동 349-3번지 노마즈하우스 1층 103호,108호","indutype":"유통업 영리 - 편 의 점","category":"other"}]},{"lat":"37.487039987","long":"126.78849296","imageIndex":17,"items":[{"name":"GS25심곡복개천점","tel":"","addr":"경기도 부천시 심곡동 132-2번지 1층 1호","indutype":"유통업 영리 - 편 의 점","category":"other"}]},{"lat":"37.488319228","long":"126.77399371","imageIndex":17,"items":[{"name":"GS25심곡제일점","tel":"","addr":"경기도 부천시 심곡동 344-4번지","indutype":"유통업 영리 - 편 의 점","category":"other"}]},{"lat":"37.48693248","long":"126.78391401","imageIndex":17,"items":[{"name":"GS25심곡타운점","tel":"","addr":"경기도 부천시 심곡동 164-14번지 1층","indutype":"유통업 영리 - 편 의 점","category":"other"},{"name":"폰가게","tel":"032-662-8253","addr":"경기도 부천시 심곡동 164-14번지 1층 일부","indutype":"사무통신 - 통신기기","category":"other"}]},{"lat":"37.495455763","long":"126.7838552","imageIndex":17,"items":[{"name":"GS25심곡행운점","tel":"","addr":"경기도 부천시 심곡동 92-28번지 1층","indutype":"유통업 영리 - 편 의 점","category":"other"}]},{"lat":"37.487430739","long":"126.78538245","imageIndex":17,"items":[{"name":"GS25원미스타점","tel":"02-2006-2118","addr":"경기도 부천시 심곡동 163-27번지 1층","indutype":"유통업 영리 - 편 의 점","category":"other"}]},{"lat":"37.489761018","long":"126.78360046","imageIndex":17,"items":[{"name":"JDX 멀티스포츠 부천북부점","tel":"032-654-8849","addr":"경기도 부천시 심곡동 355-1번지 성보빌딩 101호","indutype":"레져용품 - 스포츠·레져용품","category":"other"},{"name":"스튜디오샵","tel":"032-654-5895","addr":"경기도 부천시 심곡동 355-1번지 성보빌딩 203호","indutype":"광학제품 - 사진관","category":"other"},{"name":"주식회사 비즈파트너","tel":"032-612-5883","addr":"경기도 부천시 심곡동 355-1번지 성보빌딩 10층 1002호","indutype":"용역 서비스 - 사무서비스","category":"other"},{"name":"주식회사 오엘이디코리아","tel":"032-661-2234","addr":"경기도 부천시 심곡동 355-1번지 1층","indutype":"건축자재 - 조명기구","category":"other"}]},{"lat":"37.49210992","long":"126.77738573","imageIndex":17,"items":[{"name":"JM기획","tel":"032-564-3865","addr":"경기도 부천시 심곡동 298번지 동남캐슬 가동 301호","indutype":"용역 서비스 - 종합용역","category":"other"}]},{"lat":"37.49381626","long":"126.7840183","imageIndex":17,"items":[{"name":"L&K뷰티","tel":"032-656-4802","addr":"경기도 부천시 심곡동 100-39번지","indutype":"회원제형태 - 기타4","category":"other"}]},{"lat":"37.491593423","long":"126.77121338","imageIndex":17,"items":[{"name":"LED피앤텍","tel":"070-7517-6895","addr":"경기도 부천시 심곡동 320-13번지 1층","indutype":"전기제품 - 가전제품","category":"other"},{"name":"원창오토바이","tel":"032-665-5301","addr":"경기도 부천시 심곡동 320-13번지 1층 일부","indutype":"수리서비스 - 레져용품수리","category":"other"}]},{"lat":"37.486318048","long":"126.77349101","imageIndex":17,"items":[{"name":"LED홈","tel":"070-8836-2225","addr":"경기도 부천시 심곡동 359-1번지 2층","indutype":"전기제품 - 기타전기제품","category":"other"}]},{"lat":"37.491010586","long":"126.77732119","imageIndex":17,"items":[{"name":"MAUM (마음)","tel":"","addr":"경기도 부천시 심곡동 298-23번지 늘푸른그린빌 2층 202호","indutype":"신변잡화 - 기타잡화","category":"other"}]},{"lat":"37.486571127","long":"126.77860089","imageIndex":17,"items":[{"name":"MR-BEAN","tel":"032-562-6515","addr":"경기도 부천시 심곡동 400-18번지 지층","indutype":"의류 - 기타의류","category":"other"},{"name":"아티공방","tel":"032-655-2272","addr":"경기도 부천시 심곡동 400-18번지 지층","indutype":"신변잡화 - 액세서리","category":"other"},{"name":"프라임","tel":"070-4259-4437","addr":"경기도 부천시 심곡동 400-18번지","indutype":"신변잡화 - 액세서리","category":"other"},{"name":"한일전기","tel":"032-651-3561","addr":"경기도 부천시 심곡동 400-18번지","indutype":"수리서비스 - 기타수리서비스","category":"other"}]},{"lat":"37.484733166","long":"126.78343425","imageIndex":17,"items":[{"name":"NEW보석나라","tel":"032-663-4487","addr":"경기도 부천시 심곡동 171-16번지","indutype":"신변잡화 - 시계","category":"other"}]},{"lat":"37.489231481","long":"126.77988195","imageIndex":17,"items":[{"name":"NEW스카피","tel":"032-655-1440","addr":"경기도 부천시 심곡동 420-33번지","indutype":"용역 서비스 - 종합용역","category":"other"}]},{"lat":"37.485766296","long":"126.78668754","imageIndex":17,"items":[{"name":"OA BANK","tel":"070-7674-3358","addr":"경기도 부천시 심곡동 138-4번지 1층","indutype":"사무통신 - 사무용 OA기기","category":"other"},{"name":"디지플러스","tel":"032-656-5416","addr":"경기도 부천시 심곡동 138-4번지 103호","indutype":"사무통신 - 사무용 OA기기","category":"other"},{"name":"명성OA센타","tel":"02-2681-8116","addr":"경기도 부천시 심곡동 138-4번지 1층","indutype":"사무통신 - 사무용 OA기기","category":"other"}]},{"lat":"37.48979415","long":"126.78691338","imageIndex":17,"items":[{"name":"PC천국","tel":"070-8869-9476","addr":"경기도 부천시 심곡동 123-8번지 1동 점포1칸전체","indutype":"사무통신 - 컴퓨터","category":"other"}]},{"lat":"37.48543269","long":"126.78169099","imageIndex":17,"items":[{"name":"Pick Up Line(픽업라인)","tel":"070-4103-3830","addr":"경기도 부천시 심곡동 175-9번지 로데오빌 1층 110호","indutype":"의류 - 정장","category":"other"},{"name":"녹턴","tel":"070-7716-2727","addr":"경기도 부천시 심곡동 175-9번지 로데오빌 1층 105호","indutype":"의류 - 정장","category":"other"},{"name":"놀숲 부천점","tel":"032-664-0309","addr":"경기도 부천시 심곡동 175-9번지 로데오빌 302호","indutype":"서적문구 - 일반서적","category":"other"},{"name":"빅베어","tel":"032-668-9150","addr":"경기도 부천시 심곡동 175-9번지 로데오빌딩 102호","indutype":"신변잡화 - 액세서리","category":"other"}]},{"lat":"37.488674408","long":"126.77596006","imageIndex":17,"items":[{"name":"REDJIN","tel":"032-667-0852","addr":"경기도 부천시 심곡동 340-24번지","indutype":"신변잡화 - 기타잡화","category":"other"},{"name":"가방이야기","tel":"","addr":"경기도 부천시 심곡동 340-24번지 1층 좌측점포","indutype":"수리서비스 - 신변잡화수리","category":"other"}]},{"lat":"37.487345339","long":"126.78305348","imageIndex":17,"items":[{"name":"SI 부천점","tel":"","addr":"경기도 부천시 심곡동 190-9번지 1층","indutype":"의류 - 스포츠의류","category":"other"}]},{"lat":"37.487844608","long":"126.77549898","imageIndex":17,"items":[{"name":"SJ도배이야기","tel":"032-654-0024","addr":"경기도 부천시 심곡동 348번지 1층","indutype":"건축자재 - 인테리어전문","category":"other"}]},{"lat":"37.485515743","long":"126.78274226","imageIndex":17,"items":[{"name":"SOUP(부천점)","tel":"032-651-3441","addr":"경기도 부천시 심곡동 175-26번지","indutype":"의류 - 정장","category":"other"}]},{"lat":"37.486375221","long":"126.7798226","imageIndex":17,"items":[{"name":"SS반도패션할인매장","tel":"032-656-5667","addr":"경기도 부천시 심곡동 399-12번지","indutype":"의류 - 정장","category":"other"}]},{"lat":"37.487598939","long":"126.78376508","imageIndex":17,"items":[{"name":"T WORLD","tel":"070-7664-7663","addr":"경기도 부천시 심곡동 164-1번지 1층","indutype":"사무통신 - 통신기기","category":"other"},{"name":"상승모바일 4호점","tel":"032-614-1804","addr":"경기도 부천시 심곡동 164-1번지","indutype":"사무통신 - 통신기기","category":"other"},{"name":"제이모바일","tel":"070-7664-7663","addr":"경기도 부천시 심곡동 164-1번지 1층 우엘","indutype":"사무통신 - 통신기기","category":"other"}]},{"lat":"37.4847319880","long":"126.7828010911","imageIndex":17,"items":[{"name":"T-파니","tel":"032-655-6011","addr":"경기도 부천시 심곡동 498번지 지하상가 301","indutype":"의류 - 스포츠의류","category":"other"},{"name":"그리로","tel":"032-62-3630","addr":"경기도 부천시 심곡동 498번지 지하상가 118호","indutype":"의류 - 정장","category":"other"}]},{"lat":"37.497150352","long":"126.78424605","imageIndex":17,"items":[{"name":"THE좋은 친환경페인트","tel":"032-662-5230","addr":"경기도 부천시 심곡동 39-9번지 1층 일부","indutype":"건축자재 - 페인트","category":"other"},{"name":"샤넬 디자인","tel":"032-653-7079","addr":"경기도 부천시 심곡동 39-9번지","indutype":"건축자재 - 인테리어전문","category":"other"}]},{"lat":"37.4919843","long":"126.77765749","imageIndex":17,"items":[{"name":"TJ실업","tel":"032-667-1496","addr":"경기도 부천시 심곡동 298-2번지 영우빌딩 5층","indutype":"전기제품 - 기타전기제품","category":"other"},{"name":"대경타이루상사","tel":"032-665-0277","addr":"경기도 부천시 심곡동 298-2번지","indutype":"건축자재 - 건축용 요업제품","category":"other"},{"name":"새명상사","tel":"032-651-6767","addr":"경기도 부천시 심곡동 298-2번지 영우빌딩 1층","indutype":"건축자재 - 목재·석재·철물","category":"other"},{"name":"이레소방건설（주）","tel":"032-651-6012","addr":"경기도 부천시 심곡동 298-2 영우빌딩 3층","indutype":"용역 서비스 - 기타용역서비스","category":"other"}]},{"lat":"37.486038169","long":"126.78266158","imageIndex":17,"items":[{"name":"The Best of Dance","tel":"032-668-1003","addr":"경기도 부천시 심곡동 177-9번지 지하1층","indutype":"회원제형태 - 레져업소","category":"other"}]},{"lat":"37.484595278","long":"126.78196481","imageIndex":17,"items":[{"name":"The로제","tel":"032-654-5402","addr":"경기도 부천시 심곡동 173-1번지","indutype":"용역 서비스 - 혼례서비스","category":"other"},{"name":"더위너(The Winner)","tel":"070-4232-1217","addr":"경기도 부천시 심곡동 173-1번지 신관2층 203호","indutype":"용역 서비스 - 사무서비스","category":"other"},{"name":"부천중고폰 선불폰 깨진액정매입 액정나라","tel":"032-715-6130","addr":"경기도 부천시 심곡동 173-1번지 지층 8호","indutype":"사무통신 - 통신기기","category":"other"},{"name":"오비도스","tel":"032-664-8008","addr":"경기도 부천시 심곡동 173-1번지 1층","indutype":"용역 서비스 - 혼례서비스","category":"other"},{"name":"이지꽃방","tel":"032-228-4545","addr":"경기도 부천시 심곡동 173-1번지","indutype":"문화.취미 - 화원","category":"other"},{"name":"지오스튜디오","tel":"032-322-9322","addr":"경기도 부천시 심곡동 173-1번지","indutype":"광학제품 - 사진관","category":"other"}]},{"lat":"37.485675279","long":"126.78132846","imageIndex":17,"items":[{"name":"YES 언더웨어","tel":"032-662-1925","addr":"경기도 부천시 심곡동 175-16번지 원천빌딩 1층","indutype":"의류 - 내의판매","category":"other"}]},{"lat":"37.485231952","long":"126.78518531","imageIndex":17,"items":[{"name":"YJ노인복지센터","tel":"032-667-6273","addr":"경기도 부천시 심곡동 145-11번지 3층","indutype":"기타의료기관 - 기타의료기관 및 기타","category":"other"},{"name":"YJ요양원","tel":"032-667-6273","addr":"경기도 부천시 심곡동 145-11번지 3층","indutype":"기타의료기관 - 기타의료기관 및 기타","category":"other"},{"name":"미니스톱부천소신점","tel":"032-665-8418","addr":"경기도 부천시 심곡동 145-11번지","indutype":"유통업 영리 - 편 의 점","category":"other"}]},{"lat":"37.48546056","long":"126.78701631","imageIndex":17,"items":[{"name":"YOU 건축디자인","tel":"070-8098-6891","addr":"경기도 부천시 심곡동 138-6번지 더뷰에디스 1202호","indutype":"건축자재 - 인테리어전문","category":"other"}]},{"lat":"37.48834661","long":"126.77887826","imageIndex":17,"items":[{"name":"Yo Move","tel":"032-655-0888","addr":"경기도 부천시 심곡동 407-5번지 3층","indutype":"회원제형태 - 레져업소","category":"other"}]},{"lat":"37.490792765","long":"126.78124551","imageIndex":17,"items":[{"name":"le 교육","tel":"032-684-7722","addr":"경기도 부천시 심곡동 371-6번지 101동 705호","indutype":"회원제형태 - 서적","category":"other"}]},{"lat":"37.487176198","long":"126.77463038","imageIndex":17,"items":[{"name":"가구갤러리","tel":"032-611-9100","addr":"경기도 부천시 심곡동 352-6,1층,2층","indutype":"가구 - 일반가구","category":"other"}]},{"lat":"37.487202856","long":"126.77443808","imageIndex":17,"items":[{"name":"가구랜드","tel":"032-662-6299","addr":"경기도 부천시 심곡동 352-5번지","indutype":"가구 - 일반가구","category":"other"}]},{"lat":"37.487037273","long":"126.77735575","imageIndex":17,"items":[{"name":"가구만들기","tel":"032-665-9144","addr":"경기도 부천시 심곡동 458-7번지 1층","indutype":"가구 - 일반가구","category":"other"},{"name":"현대중고알뜰매장","tel":"032-666-2828","addr":"경기도 부천시 심곡동 458-7번지 1층","indutype":"수리서비스 - 기타수리서비스","category":"other"}]},{"lat":"37.489708048","long":"126.78418859","imageIndex":17,"items":[{"name":"가나기획","tel":"032-665-5678","addr":"경기도 부천시 심곡동 158-2번지 2층","indutype":"서적문구 - 출판 및 인쇄물","category":"other"},{"name":"부천앵글","tel":"032-651-0874","addr":"경기도 부천시 심곡동 158-2번지","indutype":"건축자재 - 기타건축자재","category":"other"},{"name":"쉼터화원.난원","tel":"032-666-8855","addr":"경기도 부천시 심곡동 158-2번지","indutype":"문화.취미 - 화원","category":"other"},{"name":"영기획","tel":"032-611-9141","addr":"경기도 부천시 심곡동 158-2번지 1층","indutype":"용역 서비스 - 종합용역","category":"other"}]},{"lat":"37.489262314","long":"126.78190584","imageIndex":17,"items":[{"name":"가나안","tel":"070-4045-4854","addr":"경기도 부천시 심곡동 375-20번지 (1층좌측(상가1칸))","indutype":"수리서비스 - 기타수리서비스","category":"other"}]},{"lat":"37.487958544","long":"126.78824158","imageIndex":17,"items":[{"name":"가나안악기사","tel":"032-345-6318","addr":"경기도 부천시 심곡동 476-5번지 1층","indutype":"레져용품 - 악기점","category":"other"}]},{"lat":"37.487927094","long":"126.78582198","imageIndex":17,"items":[{"name":"가나안판촉","tel":"032-553-0707","addr":"경기도 부천시 심곡동 152-21번지 SK파크빌 101동 202호","indutype":"유통업 영리 - 기타유통업","category":"other"}]},{"lat":"37.488764012","long":"126.78043739","imageIndex":17,"items":[{"name":"가나전기","tel":"032-664-7660","addr":"경기도 부천시 심곡동 410-1번지 1층","indutype":"용역 서비스 - 기타용역서비스","category":"other"}]},{"lat":"37.490757575","long":"126.7769375","imageIndex":17,"items":[{"name":"가나종합광고","tel":"032-675-3326","addr":"경기도 부천시 심곡동 327-9번지","indutype":"건축자재 - 인테리어전문","category":"other"}]},{"lat":"37.488987031","long":"126.77454572","imageIndex":17,"items":[{"name":"가정/생활 폐기물","tel":"031-354-8694","addr":"경기도 부천시 심곡동 339-28번지 청솔하이빌 502호","indutype":"용역 서비스 - 종합용역","category":"other"}]},{"lat":"37.487010826","long":"126.77766111","imageIndex":17,"items":[{"name":"가하운동재활센타","tel":"032-566-2102","addr":"경기도 부천시 심곡동 458-4 ,12,1층","indutype":"기타의료기관 - 기타의료기관 및 기타","category":"other"}]},{"lat":"37.490819614","long":"126.77174722","imageIndex":17,"items":[{"name":"가희 일렉트로닉스","tel":"032-272-4231","addr":"경기도 부천시 심곡동 321-1번지 영빈연립 1층 104호","indutype":"전기제품 - 기타전기제품","category":"other"},{"name":"무지개광고","tel":"032-611-1433","addr":"경기도 부천시 심곡동 321-1번지 영빈연립 105호","indutype":"건축자재 - 인테리어전문","category":"other"},{"name":"큐코","tel":"032-272-4231","addr":"경기도 부천시 심곡동 321-1번지 영빈연립 104호","indutype":"전기제품 - 기타전기제품","category":"other"}]},{"lat":"37.495484738","long":"126.78490677","imageIndex":17,"items":[{"name":"강원판넬","tel":"032-655-0999","addr":"경기도 부천시 심곡동 89-8번지 1층 일부","indutype":"건축자재 - 기타건축자재","category":"other"}]},{"lat":"37.486820777","long":"126.77722072","imageIndex":17,"items":[{"name":"강테크","tel":"032-656-3353","addr":"경기도 부천시 심곡동 458-18번지","indutype":"사무통신 - 기타 사무용품","category":"other"},{"name":"부천복사골요양원","tel":"032-664-2324","addr":"경기도 부천시 심곡동 458-18번지 3,4,5층","indutype":"기타의료기관 - 기타의료기관 및 기타","category":"other"},{"name":"전국주방냉열시스템","tel":"032-667-7474","addr":"경기도 부천시 심곡동 458-18태양빌딩1~2층","indutype":"전기제품 - 기타전기제품","category":"other"}]},{"lat":"37.484850399","long":"126.78349044","imageIndex":17,"items":[{"name":"개고집 (개와고양이집)","tel":"032-666-6612","addr":"경기도 부천시 심곡동 171-14번지 1층","indutype":"문화.취미 - 애완동물","category":"other"},{"name":"황금당","tel":"032-654-2121","addr":"경기도 부천시 심곡동 171-14번지","indutype":"신변잡화 - 시계","category":"other"},{"name":"황금쥬얼리","tel":"032-654-2121","addr":"경기도 부천시 심곡동 171-14번지","indutype":"신변잡화 - 귀금속","category":"other"}]},{"lat":"37.489369609","long":"126.78632663","imageIndex":17,"items":[{"name":"갯투피싱","tel":"032-666-0926","addr":"경기도 부천시 심곡동 181-4번지 재향군인회2층","indutype":"레져용품 - 스포츠·레져용품","category":"other"},{"name":"동덕","tel":"032-614-2289","addr":"경기도 부천시 심곡동 181-4번지","indutype":"기타 - 기계공구","category":"other"}]},{"lat":"37.487625401","long":"126.7739619","imageIndex":17,"items":[{"name":"갱스터(Gangster)","tel":"070-8902-2801","addr":"경기도 부천시 심곡동 352-10번지 동신빌라 501호","indutype":"서적문구 - 완구점","category":"other"}]},{"lat":"37.497674866","long":"126.7852962","imageIndex":17,"items":[{"name":"거성정밀","tel":"032-613-8061","addr":"경기도 부천시 심곡동 78-1","indutype":"레져용품 - 스포츠·레져용품","category":"other"}]},{"lat":"37.486536443","long":"126.78412999","imageIndex":17,"items":[{"name":"건강관리샵","tel":"032-662-8849","addr":"경기도 부천시 심곡동 167-17번지 3층","indutype":"회원제형태 - 기타4","category":"other"}]},{"lat":"37.490258187","long":"126.77493761","imageIndex":17,"items":[{"name":"건영방화문","tel":"032-679-1221","addr":"경기도 부천시 심곡동 325-32번지","indutype":"건축자재 - 기타건축자재","category":"other"},{"name":"유성종합건재","tel":"032-654-9994","addr":"경기도 부천시 심곡동 325-32번지","indutype":"건축자재 - 기타건축자재","category":"other"}]},{"lat":"37.491342408","long":"126.77185868","imageIndex":17,"items":[{"name":"건우상사","tel":"032-653-1141","addr":"경기도 부천시 심곡동 320-22번지","indutype":"기타 - 기타 전문점","category":"other"}]},{"lat":"37.486733529","long":"126.78351885","imageIndex":17,"items":[{"name":"게스부천점","tel":"032-666-6100","addr":"경기도 부천시 심곡동 168-1번지 1층","indutype":"레져용품 - 스포츠·레져용품","category":"other"},{"name":"주식회사 씨에스컴퍼니","tel":"032-207-9000","addr":"경기도 부천시 심곡동 168-1번지 1층","indutype":"사무통신 - 통신기기","category":"other"}]},{"lat":"37.487959754","long":"126.78399016","imageIndex":17,"items":[{"name":"경기종합판촉물","tel":"032-664-6923","addr":"경기도 부천시 심곡동 161-20번지","indutype":"용역 서비스 - 종합용역","category":"other"},{"name":"라젤로","tel":"032-651-1256","addr":"경기도 부천시 심곡동 161-20번지 (74,75,76,81,82호내크로커다일매장)","indutype":"레져용품 - 스포츠·레져용품","category":"other"},{"name":"마드모아젤","tel":"032-653-4050","addr":"경기도 부천시 심곡동 161-20번지 부천중앙프라자 29","indutype":"의류 - 정장","category":"other"},{"name":"모닝글로리","tel":"032-612-2445","addr":"경기도 부천시 심곡동 161-20번지","indutype":"서적문구 - 문구용품","category":"other"}]},{"lat":"37.491623646","long":"126.77752288","imageIndex":17,"items":[{"name":"경남부속","tel":"032-656-4584","addr":"경기도 부천시 심곡동 298-11번지 서광더뷰 1층","indutype":"건축자재 - 기타건축자재","category":"other"},{"name":"경남시스템","tel":"032-662-8943","addr":"경기도 부천시 심곡동 298-11번지 서광더뷰","indutype":"기타 - 기계공구","category":"other"},{"name":"유성상사","tel":"032-656-2428","addr":"경기도 부천시 심곡동 298-11번지 서광더뷰","indutype":"건축자재 - 기타건축자재","category":"other"}]},{"lat":"37.496368018","long":"126.78507383","imageIndex":17,"items":[{"name":"경돈공인중개사사무소","tel":"032-655-8805","addr":"경기도 부천시 심곡동 87-11번지 202호","indutype":"용역 서비스 - 부동산 중개·임대","category":"other"},{"name":"부천북라이온스클럽","tel":"032-672-6272","addr":"경기도 부천시 심곡동 87-11번지 2층 일부","indutype":"기타 - 비영리/대상","category":"other"},{"name":"오정라이온스클럽","tel":"032-672-6272","addr":"경기도 부천시 심곡동 87-11번지 2층 201호","indutype":"기타 - 비영리/비대상","category":"other"},{"name":"인피아","tel":"032-666-8871","addr":"경기도 부천시 심곡동 87-11번지 2층","indutype":"용역 서비스 - 종합용역","category":"other"},{"name":"한일전기엘이디소방주식회사","tel":"032-664-7142","addr":"경기도 부천시 심곡동 87-11번지","indutype":"전기제품 - 기타전기제품","category":"other"}]},{"lat":"37.490233006","long":"126.78063656","imageIndex":17,"items":[{"name":"경인간판재료","tel":"032-657-5255","addr":"경기도 부천시 심곡동 426-1번지","indutype":"기타 - 기타 전문점","category":"other"}]},{"lat":"37.491759053","long":"126.77765816","imageIndex":17,"items":[{"name":"경인냉동","tel":"032-663-5519","addr":"경기도 부천시 심곡동 298-10번지","indutype":"기타 - 기계공구","category":"other"}]},{"lat":"37.486842199","long":"126.7743035","imageIndex":17,"items":[{"name":"경인대동","tel":"032-614-1677","addr":"경기도 부천시 심곡동 358-12번지","indutype":"직물 - 카페트,커튼,천막,지물","category":"other"},{"name":"크로바냉동사","tel":"032-667-4982","addr":"경기도 부천시 심곡동 358-12번지","indutype":"수리서비스 - 가정용품수리","category":"other"},{"name":"한국실용예술악기","tel":"032-611-4314","addr":"경기도 부천시 심곡동 358-12번지","indutype":"레져용품 - 악기점","category":"other"}]},{"lat":"37.484320147","long":"126.78913389","imageIndex":17,"items":[{"name":"경인전자","tel":"032-429-7757","addr":"경기도 부천시 심곡동 125-14번지","indutype":"전기제품 - 가전제품","category":"other"},{"name":"제일양품","tel":"032-651-9095","addr":"경기도 부천시 심곡동 125-14번지","indutype":"의류 - 정장","category":"other"}]},{"lat":"37.485210333","long":"126.78324064","imageIndex":17,"items":[{"name":"경인정보","tel":"032-664-5179","addr":"경기도 부천시 심곡동 170-14번지","indutype":"사무통신 - 통신기기","category":"other"}]},{"lat":"37.488091234","long":"126.77258103","imageIndex":17,"items":[{"name":"경인정보통신","tel":"032-655-0881","addr":"경기도 부천시 심곡동 346-29번지","indutype":"사무통신 - 통신기기","category":"other"}]},{"lat":"37.485041184","long":"126.78926752","imageIndex":17,"items":[{"name":"경인지물포","tel":"032-664-1552","addr":"경기도 부천시 심곡동 124-17번지","indutype":"직물 - 카페트,커튼,천막,지물","category":"other"},{"name":"어반테일러","tel":"032-666-1012","addr":"경기도 부천시 심곡동 124-17번지 1층","indutype":"의류 - 맞춤복점","category":"other"},{"name":"조은전자통신","tel":"032-651-8340","addr":"경기도 부천시 심곡동 124-17번지","indutype":"사무통신 - 통신기기","category":"other"}]},{"lat":"37.48754161","long":"126.77724116","imageIndex":17,"items":[{"name":"경제쇼파","tel":"032-611-1533","addr":"경기도 부천시 심곡동 457-12번지 1층","indutype":"수리서비스 - 기타수리서비스","category":"other"}]},{"lat":"37.494258873","long":"126.78462764","imageIndex":17,"items":[{"name":"고려그릇","tel":"032-661-5225","addr":"경기도 부천시 심곡동 93-5번지","indutype":"주방용구 - 주방용식기","category":"other"}]},{"lat":"37.491091999","long":"126.77749055","imageIndex":17,"items":[{"name":"고려앙카","tel":"032-663-0405","addr":"경기도 부천시 심곡동 298-21번지 1층","indutype":"기타 - 기계공구","category":"other"}]},{"lat":"37.485815401","long":"126.78399642","imageIndex":17,"items":[{"name":"고릴라파이프","tel":"070-8822-2040","addr":"경기도 부천시 심곡동 169-5번지 2층","indutype":"기타 - 기타 전문점","category":"other"}]},{"lat":"37.493373584","long":"126.77858055","imageIndex":17,"items":[{"name":"고양수도","tel":"032-651-5900","addr":"경기도 부천시 심곡동 443-3번지 문화연립 105호","indutype":"건축자재 - 기타건축자재","category":"other"}]},{"lat":"37.489206248","long":"126.7856826","imageIndex":17,"items":[{"name":"고양이","tel":"032-213-6393","addr":"경기도 부천시 심곡동 155-9번지 2층","indutype":"문화.취미 - 애완동물","category":"other"},{"name":"부천썬차일드","tel":"032-667-1024","addr":"경기도 부천시 심곡동 155-9번지 2층","indutype":"서적문구 - 일반서적","category":"other"},{"name":"태신전기조명","tel":"032-668-8443","addr":"경기도 부천시 심곡동 155-9번지 1층","indutype":"건축자재 - 조명기구","category":"other"},{"name":"하나조명","tel":"032-652-5152","addr":"경기도 부천시 심곡동 155-9번지 3층","indutype":"건축자재 - 조명기구","category":"other"}]},{"lat":"37.48670717","long":"126.78388075","imageIndex":17,"items":[{"name":"골드랜드(gold land)","tel":"031-613-2999","addr":"경기도 부천시 심곡동 168-6번지","indutype":"신변잡화 - 귀금속","category":"other"},{"name":"피그먼트","tel":"032-613-6703","addr":"경기도 부천시 심곡동 168-6번지","indutype":"의류 - 정장","category":"other"}]},{"lat":"37.489651722","long":"126.78296757","imageIndex":17,"items":[{"name":"구슬포토","tel":"070-3652-1489","addr":"경기도 부천시 심곡동 356-6번지 정우펠리스2차 201호","indutype":"문화.취미 - 화방·표구점","category":"other"}]},{"lat":"37.491037314","long":"126.7771628","imageIndex":17,"items":[{"name":"구제오빵","tel":"032-344-8718","addr":"경기도 부천시 심곡동 298-25번지 1층","indutype":"의류 - 정장","category":"other"},{"name":"조이풀","tel":"031-274-7988","addr":"경기도 부천시 심곡동 298-25번지 1층","indutype":"의류 - 정장","category":"other"}]},{"lat":"37.487731922","long":"126.78260007","imageIndex":17,"items":[{"name":"국일사","tel":"032-667-9192","addr":"경기도 부천시 심곡동 192-3번지 2층","indutype":"수리서비스 - 세탁소","category":"other"}]},{"lat":"37.486375434","long":"126.77993567","imageIndex":17,"items":[{"name":"굿모닝투어주식회사","tel":"032-657-4200","addr":"경기도 부천시 심곡동 399-11번지 2층","indutype":"여행 - 관광여행","category":"other"}]},{"lat":"37.485260867","long":"126.7813523","imageIndex":17,"items":[{"name":"그남자 그여자","tel":"032-611-0308","addr":"경기도 부천시 심곡동 174-5번지 지하1층 전체","indutype":"의류 - 정장","category":"other"}]},{"lat":"37.490403251","long":"126.78496677","imageIndex":17,"items":[{"name":"그린(삼화페인트)","tel":"032-666-7421","addr":"경기도 부천시 심곡동 122-4번지","indutype":"건축자재 - 페인트","category":"other"}]},{"lat":"37.490877463","long":"126.77369191","imageIndex":17,"items":[{"name":"그린세탁소","tel":"032-656-8069","addr":"경기도 부천시 심곡동 323-35번지","indutype":"수리서비스 - 세탁소","category":"other"}]},{"lat":"37.491181533","long":"126.77252631","imageIndex":17,"items":[{"name":"그린인테리어","tel":"070-8252-5533","addr":"경기도 부천시 심곡동 322-25번지 오성연립 1동 104호","indutype":"건축자재 - 인테리어전문","category":"other"},{"name":"변기막힘하수구뚫는업체24시","tel":"","addr":"경기도 부천시 심곡동 322-25번지 오성연립 202호","indutype":"용역 서비스 - 종합용역","category":"other"}]},{"lat":"37.487516779","long":"126.78318866","imageIndex":17,"items":[{"name":"그린조이 부천점","tel":"032-6573-0538","addr":"경기도 부천시 심곡동 190-8번지","indutype":"레져용품 - 스포츠·레져용품","category":"other"},{"name":"동부상사","tel":"032-668-2977","addr":"경기도 부천시 심곡동 190-8번지","indutype":"의류 - 정장","category":"other"},{"name":"소다","tel":"032-664-6373","addr":"경기도 부천시 심곡동 190-8번지","indutype":"신변잡화 - 신발","category":"other"},{"name":"정민상사","tel":"032-611-1162","addr":"경기도 부천시 심곡동 190-8번지 1층","indutype":"레져용품 - 스포츠·레져용품","category":"other"},{"name":"투미","tel":"032-655-8326","addr":"경기도 부천시 심곡동 190-8번지 1층","indutype":"의류 - 정장","category":"other"}]},{"lat":"37.491954482","long":"126.77155149","imageIndex":17,"items":[{"name":"극동종합광고","tel":"032-677-2800","addr":"경기도 부천시 심곡동 314-22번지 1층","indutype":"건축자재 - 인테리어전문","category":"other"}]},{"lat":"37.485565695","long":"126.78054863","imageIndex":17,"items":[{"name":"글랜스","tel":"032-221-2161","addr":"경기도 부천시 심곡동 383-10번지 지하1층","indutype":"의류 - 정장","category":"other"},{"name":"미스터빈티지","tel":"","addr":"경기도 부천시 심곡동 383-10번지 지하1층","indutype":"의류 - 정장","category":"other"},{"name":"야시샵","tel":"032-614-8889","addr":"경기도 부천시 심곡동 383-10번지 1호","indutype":"신변잡화 - 액세서리","category":"other"}]},{"lat":"37.489848801","long":"126.7823564","imageIndex":17,"items":[{"name":"글로벌유에스에이코리아","tel":"032-661-0327","addr":"경기도 부천시 심곡동 356-7번지 기성뷰그리안 2층 202호","indutype":"용역 서비스 - 종합용역","category":"other"},{"name":"아성컴퍼니","tel":"032-661-4245","addr":"경기도 부천시 심곡동 356-7번지 기성뷰그리안 2층 201호","indutype":"용역 서비스 - 종합용역","category":"other"}]},{"lat":"37.488510584","long":"126.77982756","imageIndex":17,"items":[{"name":"글마을","tel":"032-665-5085","addr":"경기도 부천시 심곡동 409-14번지","indutype":"서적문구 - 출판 및 인쇄물","category":"other"}]},{"lat":"37.49159657","long":"126.78227211","imageIndex":17,"items":[{"name":"금강에어컨","tel":"032-654-7377","addr":"경기도 부천시 심곡동 368-21번지 현대빌라 102호","indutype":"용역 서비스 - 기타용역서비스","category":"other"}]},{"lat":"37.485345481","long":"126.78324025","imageIndex":17,"items":[{"name":"금나라","tel":"032-651-7472","addr":"경기도 부천시 심곡동 170-16번지","indutype":"신변잡화 - 액세서리","category":"other"},{"name":"아이폰리페어부천아이폰수리센터","tel":"032-651-8889","addr":"경기도 부천시 심곡동 170-16번지 3층","indutype":"수리서비스 - 사무·통신기기수리","category":"other"},{"name":"유니온베이","tel":"032-664-3284","addr":"경기도 부천시 심곡동 170-16번지","indutype":"의류 - 정장","category":"other"},{"name":"포토영상","tel":"032-323-4718","addr":"경기도 부천시 심곡동 170-16번지","indutype":"광학제품 - 사진관","category":"other"}]},{"lat":"37.493230199","long":"126.78379386","imageIndex":17,"items":[{"name":"금성사","tel":"032-662-0044","addr":"경기도 부천시 심곡동 112-15번지 3층","indutype":"의류 - 단체복","category":"other"}]},{"lat":"37.492400024","long":"126.77832339","imageIndex":17,"items":[{"name":"금성천막사","tel":"032-653-7078","addr":"경기도 부천시 심곡동 445-3번지 1층","indutype":"직물 - 카페트,커튼,천막,지물","category":"other"}]},{"lat":"37.486929325","long":"126.782218","imageIndex":17,"items":[{"name":"금성출판사부천상사","tel":"032-62-0918","addr":"경기도 부천시 심곡동 179-11번지","indutype":"서적문구 - 일반서적","category":"other"}]},{"lat":"37.491237858","long":"126.77369081","imageIndex":17,"items":[{"name":"기광철물,공구","tel":"032-652-8909","addr":"경기도 부천시 심곡동 323-11번지","indutype":"건축자재 - 목재·석재·철물","category":"other"}]},{"lat":"37.4862602","long":"126.78094231","imageIndex":17,"items":[{"name":"김정권세무회계사무소","tel":"032-614-6252","addr":"경기도 부천시 심곡동 382-11번지 3층","indutype":"용역 서비스 - 법률회계서비스(개인)","category":"other"},{"name":"아흐살롱","tel":"032-668-9051","addr":"경기도 부천시 심곡동 382-11번지 지하층","indutype":"의류 - 정장","category":"other"},{"name":"위드미부천역점","tel":"02-6916-1500","addr":"경기도 부천시 심곡동 382-11번지 101호","indutype":"유통업 영리 - 편 의 점","category":"other"}]},{"lat":"37.486900029","long":"126.78585888","imageIndex":17,"items":[{"name":"김하선스킨케어","tel":"032-652-4408","addr":"경기도 부천시 심곡동 149-10번지 미림아트빌 101호","indutype":"회원제형태 - 기타4","category":"other"}]},{"lat":"37.486957969","long":"126.77360212","imageIndex":17,"items":[{"name":"김현숙한복","tel":"032-614-2205","addr":"경기도 부천시 심곡동 358-6번지 1층 4호","indutype":"의류 - 기타의류","category":"other"},{"name":"이태리가구","tel":"032-656-6427","addr":"경기도 부천시 심곡동 358-6번지","indutype":"가구 - 일반가구","category":"other"},{"name":"젤싸컴퓨터","tel":"032-666-8081","addr":"경기도 부천시 심곡동 358-6번지","indutype":"사무통신 - 컴퓨터","category":"other"}]},{"lat":"37.489178179","long":"126.77555147","imageIndex":17,"items":[{"name":"깨끗한세탁소","tel":"032-321-3319","addr":"경기도 부천시 심곡동 339-15번지 1층","indutype":"수리서비스 - 세탁소","category":"other"}]},{"lat":"37.486293992","long":"126.78457166","imageIndex":17,"items":[{"name":"꼬마세계","tel":"032-654-1472","addr":"경기도 부천시 심곡동 167-1번지 파라다이스","indutype":"서적문구 - 일반서적","category":"other"}]},{"lat":"37.486869914","long":"126.78418556","imageIndex":17,"items":[{"name":"꽃천지","tel":"032-668-9404","addr":"경기도 부천시 심곡동 165-21번지","indutype":"문화.취미 - 화원","category":"other"}]},{"lat":"37.490789861","long":"126.78452466","imageIndex":17,"items":[{"name":"꽃향기폴폴","tel":"032-663-4725","addr":"경기도 부천시 심곡동 122번지","indutype":"문화.취미 - 화원","category":"other"},{"name":"삼정시스템","tel":"032-655-6562","addr":"경기도 부천시 심곡동 122번지","indutype":"주방용구 - 정수기","category":"other"},{"name":"승승장구4호점","tel":"032-612-1220","addr":"경기도 부천시 심곡동 122번지 1층 1호","indutype":"사무통신 - 통신기기","category":"other"},{"name":"제이에스양복점","tel":"032-665-0451","addr":"경기도 부천시 심곡동 122번지","indutype":"의류 - 맞춤복점","category":"other"},{"name":"티파니, 쌈지","tel":"070-4800-4863","addr":"경기도 부천시 심곡동 122번지 1층","indutype":"신변잡화 - 신발","category":"other"}]},{"lat":"37.488289965","long":"126.78229315","imageIndex":17,"items":[{"name":"나라TMS","tel":"032-666-2720","addr":"경기도 부천시 심곡동 194중앙시장35","indutype":"용역 서비스 - 종합용역","category":"other"},{"name":"한국에어컨","tel":"032-328-6428","addr":"경기도 부천시 심곡동 194번지 중앙자유시장 55호","indutype":"용역 서비스 - 기타용역서비스","category":"other"}]},{"lat":"37.48537249","long":"126.77843488","imageIndex":17,"items":[{"name":"나오미패션","tel":"","addr":"경기도 부천시 심곡동 391-5번지 오성아파트","indutype":"의류 - 내의판매","category":"other"}]},{"lat":"37.487875046","long":"126.78204561","imageIndex":17,"items":[{"name":"나인","tel":"032-213-4782","addr":"경기도 부천시 심곡동 192-13번지","indutype":"광학제품 - 사진관","category":"other"}]},{"lat":"37.493680714","long":"126.77899802","imageIndex":17,"items":[{"name":"남부유통","tel":"070-3666-9980","addr":"경기도 부천시 심곡동 442-16번지","indutype":"신변잡화 - 기타잡화","category":"other"}]},{"lat":"37.486677238","long":"126.7823205","imageIndex":17,"items":[{"name":"남촌부동산공인중개사사무소","tel":"032-654-4989","addr":"경기도 부천시 심곡동 179-1번지","indutype":"용역 서비스 - 부동산 중개·임대","category":"other"}]},{"lat":"37.488735682","long":"126.77974774","imageIndex":17,"items":[{"name":"네잎클로버","tel":"032-656-3301","addr":"경기도 부천시 심곡동 409-3번지","indutype":"서적문구 - 문구용품","category":"other"}]},{"lat":"37.497458171","long":"126.78504805","imageIndex":17,"items":[{"name":"노리교육","tel":"070-7503-1194","addr":"경기도 부천시 심곡동 78-2번지","indutype":"서적문구 - 기타서적문구","category":"other"}]},{"lat":"37.490264394","long":"126.78296578","imageIndex":17,"items":[{"name":"노바","tel":"","addr":"경기도 부천시 심곡동 365-11번지 제이앤팰리스 JN펠리스 802호","indutype":"전기제품 - 기타전기제품","category":"other"}]},{"lat":"37.49561999","long":"126.78496292","imageIndex":17,"items":[{"name":"노바","tel":"032-613-7846","addr":"경기도 부천시 심곡동 89-16번지 58호","indutype":"의류 - 정장","category":"other"},{"name":"종합알뜰매장","tel":"032-667-6060","addr":"경기도 부천시 심곡동 89-16번지","indutype":"전기제품 - 가전제품","category":"other"}]},{"lat":"37.491424623","long":"126.77243511","imageIndex":17,"items":[{"name":"노엘광고","tel":"032-613-9804","addr":"경기도 부천시 심곡동 322-1번지","indutype":"용역 서비스 - 종합용역","category":"other"}]},{"lat":"37.486424644","long":"126.7773802","imageIndex":17,"items":[{"name":"뉴부천재활용센타","tel":"032-613-6332","addr":"경기도 부천시 심곡동 463-1번지","indutype":"신변잡화 - 기타잡화","category":"other"}]},{"lat":"37.486010189","long":"126.77738145","imageIndex":17,"items":[{"name":"뉴지엠상사","tel":"032-614-0082","addr":"경기도 부천시 심곡동 461-14번지 1층 101호","indutype":"주방용구 - 정수기","category":"other"}]},{"lat":"37.487709438","long":"126.77548808","imageIndex":17,"items":[{"name":"느릿","tel":"","addr":"경기도 부천시 심곡동 348-1번지 1층","indutype":"문화.취미 - 애완동물","category":"other"},{"name":"지스민","tel":"","addr":"경기도 부천시 심곡동 348-1번지","indutype":"신변잡화 - 기타잡화","category":"other"}]},{"lat":"37.489648776","long":"126.77663554","imageIndex":17,"items":[{"name":"니다ENG","tel":"032-203-3064","addr":"경기도 부천시 심곡동 329-17번지 공존펠리체 601호","indutype":"전기제품 - 기타전기제품","category":"other"}]},{"lat":"37.486291025","long":"126.77818338","imageIndex":17,"items":[{"name":"닛시","tel":"032-664-3633","addr":"경기도 부천시 심곡동 398-17번지","indutype":"문화.취미 - 화원","category":"other"},{"name":"미니스톱부천북부점","tel":"032-613-2457","addr":"경기도 부천시 심곡동 398-17번지","indutype":"유통업 영리 - 편 의 점","category":"other"},{"name":"퍼피봉봉","tel":"","addr":"경기도 부천시 심곡동 398-17번지 1층 일부","indutype":"문화.취미 - 애완동물","category":"other"}]},{"lat":"37.489483366","long":"126.78449454","imageIndex":17,"items":[{"name":"다비다소잉","tel":"032-287-3177","addr":"경기도 부천시 심곡동 158-1번지 2층 1호","indutype":"문화.취미 - 문화취미기타","category":"other"},{"name":"씨유심곡골드점","tel":"080-080-3663","addr":"경기도 부천시 심곡동 158-1번지 1층","indutype":"유통업 영리 - 편 의 점","category":"other"}]},{"lat":"37.486509108","long":"126.77915511","imageIndex":17,"items":[{"name":"다예식품","tel":"032-611-3089","addr":"경기도 부천시 심곡동 400-9번지","indutype":"회원제형태 - 기타4","category":"other"}]},{"lat":"37.484481246","long":"126.7836272","imageIndex":17,"items":[{"name":"다우통신","tel":"032-612-3011","addr":"경기도 부천시 심곡동 172-13번지","indutype":"사무통신 - 통신기기","category":"other"}]},{"lat":"37.491098422","long":"126.78088276","imageIndex":17,"items":[{"name":"다함께사회적협동조합","tel":"032-652-1474","addr":"경기도 부천시 심곡동 427-26번지","indutype":"용역 서비스 - 종합용역","category":"other"}]},{"lat":"37.488287488","long":"126.78097023","imageIndex":17,"items":[{"name":"달빛피어싱","tel":"070-8867-6672","addr":"경기도 부천시 심곡동 377-9번지","indutype":"신변잡화 - 액세서리","category":"other"}]},{"lat":"37.48722016","long":"126.77876855","imageIndex":17,"items":[{"name":"대경전기","tel":"032-1899-3272","addr":"경기도 부천시 심곡동 403-46번지 명가빌 B동 401호","indutype":"용역 서비스 - 기타용역서비스","category":"other"}]},{"lat":"37.485842778","long":"126.78910694","imageIndex":17,"items":[{"name":"대광설비철물","tel":"032-656-7324","addr":"경기도 부천시 심곡동 131-19번지","indutype":"건축자재 - 목재·석재·철물","category":"other"}]},{"lat":"37.486375159","long":"126.78954639","imageIndex":17,"items":[{"name":"대광아크릴","tel":"032-651-3446","addr":"경기도 부천시 심곡동 124-1번지","indutype":"건축자재 - 기타건축자재","category":"other"}]},{"lat":"37.486264868","long":"126.78344108","imageIndex":17,"items":[{"name":"대성서적","tel":"032-652-1377","addr":"경기도 부천시 심곡동 168-5번지 지하층","indutype":"서적문구 - 일반서적","category":"other"},{"name":"르꼬끄스포르티브 부천점","tel":"032-651-0396","addr":"경기도 부천시 심곡동 168-5번지 1층","indutype":"의류 - 스포츠의류","category":"other"},{"name":"부천FILA","tel":"032-611-2444","addr":"경기도 부천시 심곡동 168-5번지","indutype":"레져용품 - 스포츠·레져용품","category":"other"}]},{"lat":"37.487093143","long":"126.78799531","imageIndex":17,"items":[{"name":"대성유통","tel":"032-1566-3414","addr":"경기도 부천시 심곡동 134-18 거성빌라202 13/2","indutype":"회원제형태 - 기타4","category":"other"}]},{"lat":"37.489841645","long":"126.78335146","imageIndex":17,"items":[{"name":"대성인테리어건축도장시공업체","tel":"032-654-7704","addr":"경기도 부천시 심곡동 355-2번지 한영빌딩 102호","indutype":"건축자재 - 페인트","category":"other"},{"name":"삼화페인트(규진상사)","tel":"032-654-7704","addr":"경기도 부천시 심곡동 355-2번지 제2호","indutype":"건축자재 - 페인트","category":"other"}]},{"lat":"37.490230197","long":"126.77444017","imageIndex":17,"items":[{"name":"대성지물포","tel":"032-612-8021","addr":"경기도 부천시 심곡동 325-33번지","indutype":"직물 - 카페트,커튼,천막,지물","category":"other"}]},{"lat":"37.487097049","long":"126.77563693","imageIndex":17,"items":[{"name":"대성텔레샵","tel":"032-655-4700","addr":"경기도 부천시 심곡동 351-10번지 10호","indutype":"사무통신 - 통신기기","category":"other"},{"name":"부천CSK예술단","tel":"032-614-4157","addr":"경기도 부천시 심곡동 351-10번지 3층 302호","indutype":"문화.취미 - 티켓","category":"other"},{"name":"종합정보통신","tel":"032-652-4466","addr":"경기도 부천시 심곡동 351-10번지","indutype":"사무통신 - 통신기기","category":"other"}]},{"lat":"37.490316893","long":"126.78212888","imageIndex":17,"items":[{"name":"대성판매장","tel":"032-656-2921","addr":"경기도 부천시 심곡동 372-16번지","indutype":"전기제품 - 가전제품","category":"other"}]},{"lat":"37.484654718","long":"126.78980002","imageIndex":17,"items":[{"name":"대영광고사","tel":"032-664-5426","addr":"경기도 부천시 심곡동 489-1번지","indutype":"용역 서비스 - 종합용역","category":"other"},{"name":"미창상사","tel":"032-666-2388","addr":"경기도 부천시 심곡동 489-1번지","indutype":"신변잡화 - 기타잡화","category":"other"},{"name":"신우 벤처인터내셔널","tel":"","addr":"경기도 부천시 심곡동 489-1번지 2층 206호","indutype":"의류 - 정장","category":"other"}]},{"lat":"37.493733891","long":"126.78332876","imageIndex":17,"items":[{"name":"대영기획","tel":"018-***-****","addr":"경기도 부천시 심곡동 100-24번지","indutype":"용역 서비스 - 종합용역","category":"other"}]},{"lat":"37.48701394","long":"126.77930059","imageIndex":17,"items":[{"name":"대영세탁소","tel":"032-613-6988","addr":"경기도 부천시 심곡동 403-4번지 명문연립 106호","indutype":"수리서비스 - 세탁소","category":"other"},{"name":"미스킨바디","tel":"032-656-3352","addr":"경기도 부천시 심곡동 403-4번지 명문연립 103호","indutype":"회원제형태 - 기타4","category":"other"},{"name":"초이스(Cho_ice)","tel":"","addr":"경기도 부천시 심곡동 403-4번지 명문연립 105-1호","indutype":"문화.취미 - 문화취미기타","category":"other"},{"name":"형제장식","tel":"032-664-8666","addr":"경기도 부천시 심곡동 403-4번지 명문연립","indutype":"직물 - 카페트,커튼,천막,지물","category":"other"}]},{"lat":"37.484148857","long":"126.78907785","imageIndex":17,"items":[{"name":"대영오토바이","tel":"032-652-6309","addr":"경기도 부천시 심곡동 125-12번지","indutype":"수리서비스 - 기타수리서비스","category":"other"}]},{"lat":"37.494482131","long":"126.78355273","imageIndex":17,"items":[{"name":"대원설비","tel":"","addr":"경기도 부천시 심곡동 96-4번지 신흥연립 C동 207호","indutype":"전기제품 - 냉열기기","category":"other"}]},{"lat":"37.487904511","long":"126.77385929","imageIndex":17,"items":[{"name":"대진설비","tel":"032-612-7283","addr":"경기도 부천시 심곡동 347-3번지","indutype":"건축자재 - 보일러·펌프·샷시","category":"other"}]},{"lat":"37.489598683","long":"126.77871622","imageIndex":17,"items":[{"name":"대학구내서점","tel":"031-613-2440","addr":"경기도 부천시 심곡동 424번지 부천대학","indutype":"서적문구 - 일반서적","category":"other"},{"name":"부천대학산학협력단","tel":"02-6300-4102","addr":"경기도 부천시 심곡동 424번지 부천대학","indutype":"용역 서비스 - 사무서비스","category":"other"}]},{"lat":"37.48521061","long":"126.78829467","imageIndex":17,"items":[{"name":"대한공구","tel":"032-652-5157","addr":"경기도 부천시 심곡동 130-12번지","indutype":"수리서비스 - 가정용품수리","category":"other"},{"name":"라인","tel":"032-651-6252","addr":"경기도 부천시 심곡동 130-12번지","indutype":"의류 - 내의판매","category":"other"}]},{"lat":"37.496872926","long":"126.7852646","imageIndex":17,"items":[{"name":"대한법무사 조명순사무소","tel":"032-668-7441","addr":"경기도 부천시 심곡동 87-3번지 원미빌딩 2층","indutype":"용역 서비스 - 법률회계서비스(개인)","category":"other"},{"name":"부천다사랑로타리클럽","tel":"032-664-3066","addr":"경기도 부천시 심곡동 87-3번지 원미빌딩 3층","indutype":"기타 - 비영리/비대상","category":"other"},{"name":"새부천로타리클럽","tel":"032-664-3066","addr":"경기도 부천시 심곡동 87-3번지 원미빌딩 3층","indutype":"기타 - 비영리/비대상","category":"other"}]},{"lat":"37.491176303","long":"126.78399208","imageIndex":17,"items":[{"name":"대한불교법륜조계종초화당","tel":"02-1111-1111","addr":"경기도 부천시 심곡동 118-7번지","indutype":"기타 - 비영리/대상","category":"other"}]},{"lat":"37.496762823","long":"126.78419064","imageIndex":17,"items":[{"name":"대한정밀","tel":"032-612-0091","addr":"경기도 부천시 심곡동 88-13번지","indutype":"기타 - 기계공구","category":"other"}]},{"lat":"37.485427871","long":"126.78394101","imageIndex":17,"items":[{"name":"더캠프PC","tel":"02-222-2222","addr":"경기도 부천시 심곡동 170-18번지 2층","indutype":"수리서비스 - 사무·통신기기수리","category":"other"},{"name":"부천기독서점","tel":"032-612-8111","addr":"경기도 부천시 심곡동 170-18번지 3층","indutype":"서적문구 - 일반서적","category":"other"},{"name":"부천기독서점","tel":"032-612-8111","addr":"경기도 부천시 심곡동 170-18번지 3층","indutype":"서적문구 - 전문서적","category":"other"}]},{"lat":"37.487510849","long":"126.78485079","imageIndex":17,"items":[{"name":"더플라워","tel":"032-614-0205","addr":"경기도 부천시 심곡동 163-22번지 1층","indutype":"문화.취미 - 화원","category":"other"}]},{"lat":"37.48928645","long":"126.7756303","imageIndex":17,"items":[{"name":"데이터 킹","tel":"","addr":"경기도 부천시 심곡동 330-20번지","indutype":"수리서비스 - 사무·통신기기수리","category":"other"}]},{"lat":"37.492343313","long":"126.77693272","imageIndex":17,"items":[{"name":"데자뷰","tel":"","addr":"경기도 부천시 심곡동 297-8번지 스타파크힐 601호","indutype":"직물 - 카페트,커튼,천막,지물","category":"other"}]},{"lat":"37.492674278","long":"126.78041449","imageIndex":17,"items":[{"name":"도깨비다육","tel":"","addr":"경기도 부천시 심곡동 437-5번지 502호","indutype":"문화.취미 - 화원","category":"other"}]},{"lat":"37.490540425","long":"126.78121233","imageIndex":17,"items":[{"name":"도시광고","tel":"032-657-2935","addr":"경기도 부천시 심곡동 372-4번지","indutype":"용역 서비스 - 종합용역","category":"other"},{"name":"멀티데이터복구샵외장하드복구스마트폰복구","tel":"032-656-9991","addr":"경기도 부천시 심곡동 372-4번지 1층","indutype":"용역 서비스 - 사무서비스","category":"other"}]},{"lat":"37.491653276","long":"126.77418707","imageIndex":17,"items":[{"name":"독스위시(Dog's Wish)","tel":"070-8895-9204","addr":"경기도 부천시 심곡동 305-3번지 부천상공회의소 S-1호","indutype":"문화.취미 - 애완동물","category":"other"},{"name":"부천라이온스클럽","tel":"032-651-4864","addr":"경기도 부천시 심곡동 305-3번지","indutype":"기타 - 비영리/비대상","category":"other"},{"name":"부천로타리클럽","tel":"032-651-2032","addr":"경기도 부천시 심곡동 305-3번지","indutype":"기타 - 비영리/대상","category":"other"},{"name":"부천목련로타리클럽","tel":"032-651-2032","addr":"경기도 부천시 심곡동 305-3번지 상공회의소 3층","indutype":"기타 - 비영리/비대상","category":"other"},{"name":"부천복사골로타리클럽","tel":"032-651-2032","addr":"경기도 부천시 심곡동 305-3번지 상공회의소 3층","indutype":"기타 - 비영리/대상","category":"other"},{"name":"아주대학교 공학대학원 최고경영자과정 총","tel":"032-667-0777","addr":"경기도 부천시 심곡동 305-3번지 3층","indutype":"기타 - 비영리/비대상","category":"other"},{"name":"주식회사 에스엠닥터","tel":"031-1111-1111","addr":"경기도 부천시 심곡동 305-3번지 B동 1층 에스2호","indutype":"신변잡화 - 기타잡화","category":"other"},{"name":"주식회사지음코퍼레이션","tel":"032-323-7303","addr":"경기도 부천시 심곡동 305-3번지 지층 C-8호","indutype":"용역 서비스 - 사무서비스","category":"other"},{"name":"케이쓰리네트웍스","tel":"032-654-0003","addr":"경기도 부천시 심곡동 305-3번지 B-10","indutype":"용역 서비스 - 사무서비스","category":"other"}]},{"lat":"37.490509066","long":"126.77421317","imageIndex":17,"items":[{"name":"동네언니","tel":"032-655-4387","addr":"경기도 부천시 심곡동 324-8번지 1층","indutype":"의류 - 정장","category":"other"}]},{"lat":"37.48821006","long":"126.7878225","imageIndex":17,"items":[{"name":"동네펫 심곡복개천점","tel":"070-4898-0512","addr":"경기도 부천시 심곡동 188-3번지","indutype":"문화.취미 - 애완동물","category":"other"},{"name":"베스트피쉬","tel":"032-653-5632","addr":"경기도 부천시 심곡동 188-3번지 1층","indutype":"문화.취미 - 수족관","category":"other"}]},{"lat":"37.492127329","long":"126.78182956","imageIndex":17,"items":[{"name":"동부서점","tel":"032-657-6666","addr":"경기도 부천시 심곡동 368-2번지","indutype":"서적문구 - 일반서적","category":"other"},{"name":"부천시영남향우회","tel":"032-661-0909","addr":"경기도 부천시 심곡동 368-2번지 평화빌딩 4층","indutype":"기타 - 비영리/비대상","category":"other"},{"name":"부천시충청향우회","tel":"032-666-7200","addr":"경기도 부천시 심곡동 368-2번지 평화빌딩 5층","indutype":"기타 - 비영리/대상","category":"other"},{"name":"키즈인토이","tel":"032-664-1928","addr":"경기도 부천시 심곡동 368-2번지 평화빌딩 1층","indutype":"서적문구 - 완구점","category":"other"}]},{"lat":"37.487011281","long":"126.77321753","imageIndex":17,"items":[{"name":"동서가구","tel":"032-655-5814","addr":"경기도 부천시 심곡동 358-1번지","indutype":"가구 - 일반가구","category":"other"}]},{"lat":"37.490292978","long":"126.78380244","imageIndex":17,"items":[{"name":"동아금속철물","tel":"032-655-6107","addr":"경기도 부천시 심곡동 367-32번지","indutype":"건축자재 - 인테리어전문","category":"other"},{"name":"동양샷시부속","tel":"032-613-2573","addr":"경기도 부천시 심곡동 367-32번지","indutype":"기타 - 기계공구","category":"other"},{"name":"삼천리자전가대리점","tel":"032-656-8835","addr":"경기도 부천시 심곡동 367-32번지","indutype":"레져용품 - 스포츠·레져용품","category":"other"}]},{"lat":"37.485814361","long":"126.77863707","imageIndex":17,"items":[{"name":"동양광고","tel":"032-651-9999","addr":"경기도 부천시 심곡동 396-11번지","indutype":"용역 서비스 - 종합용역","category":"other"}]},{"lat":"37.484482366","long":"126.78915604","imageIndex":17,"items":[{"name":"동양종합주방","tel":"032-655-6001","addr":"경기도 부천시 심곡동 125-15번지","indutype":"전기제품 - 가전제품","category":"other"},{"name":"세무사오룡사무소","tel":"032-613-7070","addr":"경기도 부천시 심곡동 125-15번지 선빌딩 203호","indutype":"용역 서비스 - 법률회계서비스(개인)","category":"other"}]},{"lat":"37.490655149","long":"126.77993426","imageIndex":17,"items":[{"name":"동일샤링공업사","tel":"031-651-3294","addr":"경기도 부천시 심곡동 428-15번지","indutype":"기타 - 기계공구","category":"other"}]},{"lat":"37.490757791","long":"126.77705057","imageIndex":17,"items":[{"name":"동진기계","tel":"032-613-4080","addr":"경기도 부천시 심곡동 327-10번지","indutype":"기타 - 기계공구","category":"other"}]},{"lat":"37.486177247","long":"126.78971655","imageIndex":17,"items":[{"name":"두리열쇠","tel":"032-656-1303","addr":"경기도 부천시 심곡동 488-1번지","indutype":"건축자재 - 목재·석재·철물","category":"other"},{"name":"원진종합설비철물","tel":"","addr":"경기도 부천시 심곡동 488-1번지","indutype":"용역 서비스 - 기타용역서비스","category":"other"}]},{"lat":"37.487702822","long":"126.78635406","imageIndex":17,"items":[{"name":"두리인테리어","tel":"","addr":"경기도 부천시 심곡동 151-13번지 102호","indutype":"전기제품 - 기타전기제품","category":"other"}]},{"lat":"37.490926747","long":"126.7758854","imageIndex":17,"items":[{"name":"두배로문구유통","tel":"032-655-5005","addr":"경기도 부천시 심곡동 326-12번지 1층","indutype":"서적문구 - 문구용품","category":"other"}]},{"lat":"37.485211226","long":"126.78863386","imageIndex":17,"items":[{"name":"드림기획","tel":"032-613-0021","addr":"경기도 부천시 심곡동 130-3번지 동영피렌체 303호","indutype":"용역 서비스 - 종합용역","category":"other"}]},{"lat":"37.490152867","long":"126.78599646","imageIndex":17,"items":[{"name":"디스잉크(ThisInk)","tel":"032-345-2988","addr":"경기도 부천시 심곡동 126-6번지 1층","indutype":"사무통신 - 기타 사무용품","category":"other"}]},{"lat":"37.487844485","long":"126.78499682","imageIndex":17,"items":[{"name":"디자인 J","tel":"","addr":"경기도 부천시 심곡동 162-7번지 102호","indutype":"건축자재 - 인테리어전문","category":"other"}]},{"lat":"37.497845137","long":"126.78479814","imageIndex":17,"items":[{"name":"디자인스토리","tel":"032-614-1213","addr":"경기도 부천시 심곡동 82-2번지 102호","indutype":"서적문구 - 출판 및 인쇄물","category":"other"},{"name":"서림아이앤씨","tel":"032-657-0077","addr":"경기도 부천시 심곡동 82-2번지 2층","indutype":"가구 - 기타가구","category":"other"}]},{"lat":"37.494871649","long":"126.78468239","imageIndex":17,"items":[{"name":"디지털HP부천점","tel":"032-665-1110","addr":"경기도 부천시 심곡동 93-1번지","indutype":"사무통신 - 컴퓨터","category":"other"}]},{"lat":"37.486487087","long":"126.77705212","imageIndex":17,"items":[{"name":"디큐(DQ)","tel":"070-4248-5868","addr":"경기도 부천시 심곡동 463-5번지 1층 일부","indutype":"의류 - 기타의류","category":"other"}]},{"lat":"37.485455956","long":"126.77968966","imageIndex":17,"items":[{"name":"라아미스튜디오(13스냅)","tel":"070-5587-5458","addr":"경기도 부천시 심곡동 392-5번지 2층","indutype":"광학제품 - 사진관","category":"other"}]},{"lat":"37.490734106","long":"126.78360892","imageIndex":17,"items":[{"name":"라온","tel":"","addr":"경기도 부천시 심곡동 367-10번지 3층","indutype":"건축자재 - 조명기구","category":"other"},{"name":"영림인테리어필름","tel":"032-612-8835","addr":"경기도 부천시 심곡동 367-10번지 1층","indutype":"건축자재 - 기타건축자재","category":"other"},{"name":"영림인테리어필름","tel":"032-612-8835","addr":"경기도 부천시 심곡동 367-10번지","indutype":"직물 - 카페트,커튼,천막,지물","category":"other"},{"name":"주방가구전문업체 숲","tel":"032-666-5300","addr":"경기도 부천시 심곡동 367-10번지","indutype":"가구 - 일반가구","category":"other"}]},{"lat":"37.490569803","long":"126.78246736","imageIndex":17,"items":[{"name":"라온","tel":"032-613-1262","addr":"경기도 부천시 심곡동 365-6번지 수성빌딩 601호","indutype":"기타 - 기타 전문점","category":"other"},{"name":"바른감정평가사사무소","tel":"032-664-0353","addr":"경기도 부천시 심곡동 365-6번지 수성빌딩 502호","indutype":"용역 서비스 - 법률회계서비스(개인)","category":"other"}]},{"lat":"37.487120029","long":"126.78302022","imageIndex":17,"items":[{"name":"라코스테부천점","tel":"032-653-2187","addr":"경기도 부천시 심곡동 190-12번지","indutype":"레져용품 - 스포츠·레져용품","category":"other"}]},{"lat":"37.487015555","long":"126.78498792","imageIndex":17,"items":[{"name":"러블리 키덜트","tel":"032-675-6355","addr":"경기도 부천시 심곡동 165-11번지 402호","indutype":"문화.취미 - 애완동물","category":"other"}]},{"lat":"37.489626142","long":"126.77423848","imageIndex":17,"items":[{"name":"러빙플라워","tel":"032-661-0597","addr":"경기도 부천시 심곡동 330-50번지 1층","indutype":"문화.취미 - 화원","category":"other"},{"name":"미미샵","tel":"032-666-2449","addr":"경기도 부천시 심곡동 330-50번지 1층","indutype":"회원제형태 - 기타4","category":"other"},{"name":"예뿌개","tel":"032-662-2383","addr":"경기도 부천시 심곡동 330-50번지 1층","indutype":"문화.취미 - 애완동물","category":"other"}]},{"lat":"37.488314199","long":"126.78080055","imageIndex":17,"items":[{"name":"레트로제이","tel":"032-000-0000","addr":"경기도 부천시 심곡동 377-14번지","indutype":"신변잡화 - 액세서리","category":"other"}]},{"lat":"37.491654827","long":"126.7749899","imageIndex":17,"items":[{"name":"로로데이즈","tel":"","addr":"경기도 부천시 심곡동 304-4번지 엘지하이츠빌 2동 302호","indutype":"문화.취미 - 애완동물","category":"other"}]},{"lat":"37.4857361511","long":"126.7849916315","imageIndex":17,"items":[{"name":"로베르토리찌","tel":"032-666-5555","addr":"경기도 부천시 심곡동 169-9번지","indutype":"신변잡화 - 제화","category":"other"}]},{"lat":"37.489071921","long":"126.7812732","imageIndex":17,"items":[{"name":"루엔돌","tel":"","addr":"경기도 부천시 심곡동 376-6번지","indutype":"서적문구 - 완구점","category":"other"}]},{"lat":"37.491037097","long":"126.77704973","imageIndex":17,"items":[{"name":"리더-넷","tel":"032-668-9119","addr":"경기도 부천시 심곡동 298-26번지","indutype":"사무통신 - 컴퓨터","category":"other"}]},{"lat":"37.488125581","long":"126.7859684","imageIndex":17,"items":[{"name":"리빙홈케어","tel":"032-1800-3447","addr":"경기도 부천시 심곡동 152-15번지 2층","indutype":"용역 서비스 - 종합용역","category":"other"}]},{"lat":"37.488429709","long":"126.77994087","imageIndex":17,"items":[{"name":"리코복사인쇄","tel":"032-662-0467","addr":"경기도 부천시 심곡동 409-15번지","indutype":"용역 서비스 - 사무서비스","category":"other"}]},{"lat":"37.490234558","long":"126.78632414","imageIndex":17,"items":[{"name":"마로네풍선","tel":"032-612-1556","addr":"경기도 부천시 심곡동 123-2번지 1층","indutype":"기타 - 기타 전문점","category":"other"}]},{"lat":"37.486904677","long":"126.77399802","imageIndex":17,"items":[{"name":"마르스","tel":"032-666-5677","addr":"경기도 부천시 심곡동 358-9번지","indutype":"용역 서비스 - 종합용역","category":"other"},{"name":"무한종합주방센터","tel":"032-667-6666","addr":"경기도 부천시 심곡동 358-9번지 1층","indutype":"전기제품 - 가전제품","category":"other"}]},{"lat":"37.490094349","long":"126.77407875","imageIndex":17,"items":[{"name":"만능전기공사","tel":"032-666-0677","addr":"경기도 부천시 심곡동 334-6번지","indutype":"전기제품 - 기타전기제품","category":"other"}]},{"lat":"37.492237954","long":"126.77838041","imageIndex":17,"items":[{"name":"만도오토","tel":"032-656-5002","addr":"경기도 부천시 심곡동 445-9번지","indutype":"수리서비스 - 기타수리서비스","category":"other"}]},{"lat":"37.486286847","long":"126.78073871","imageIndex":17,"items":[{"name":"만화마트","tel":"032-611-1110","addr":"경기도 부천시 심곡동 382-12번지 지층","indutype":"서적문구 - 일반서적","category":"other"}]},{"lat":"37.487955204","long":"126.78154787","imageIndex":17,"items":[{"name":"매직포토","tel":"032-651-2957","addr":"경기도 부천시 심곡동 378-1번지 1층 2호","indutype":"용역 서비스 - 사무서비스","category":"other"},{"name":"영성상사","tel":"032-613-0640","addr":"경기도 부천시 심곡동 378-1번지","indutype":"의류 - 정장","category":"other"}]},{"lat":"37.486291412","long":"126.7783869","imageIndex":17,"items":[{"name":"맨스모드","tel":"032-661-6222","addr":"경기도 부천시 심곡동 398-2번지","indutype":"의류 - 정장","category":"other"},{"name":"부천꽃","tel":"032-665-7080","addr":"경기도 부천시 심곡동 398-2번지 1층","indutype":"문화.취미 - 화원","category":"other"}]},{"lat":"37.485766564","long":"126.78196137","imageIndex":17,"items":[{"name":"맨투맨양복점","tel":"032-652-6300","addr":"경기도 부천시 심곡동 175-12번지 일부 1층","indutype":"의류 - 정장","category":"other"},{"name":"승승장구텔레콤 2호점","tel":"032-652-2284","addr":"경기도 부천시 심곡동 175-12번지 1층","indutype":"사무통신 - 통신기기","category":"other"}]},{"lat":"37.49025961","long":"126.78041034","imageIndex":17,"items":[{"name":"멀티펫","tel":"","addr":"경기도 부천시 심곡동 426-6번지 옥산빌라 1층 101호","indutype":"문화.취미 - 애완동물","category":"other"}]},{"lat":"37.483956877","long":"126.78755204","imageIndex":17,"items":[{"name":"멋GYM","tel":"02-2610-4353","addr":"경기도 부천시 심곡동 127-8번지 대아맨션 402호","indutype":"회원제형태 - 레져업소","category":"other"}]},{"lat":"37.484982851","long":"126.78204282","imageIndex":17,"items":[{"name":"메이비","tel":"032-665-1377","addr":"경기도 부천시 심곡동 174-1번지 1층","indutype":"의류 - 정장","category":"other"}]},{"lat":"37.493007835","long":"126.78051527","imageIndex":17,"items":[{"name":"명덕상사","tel":"032-653-8007","addr":"경기도 부천시 심곡동 440-33번지","indutype":"직물 - 카페트,커튼,천막,지물","category":"other"}]},{"lat":"37.48754339","long":"126.78785834","imageIndex":17,"items":[{"name":"명품중독자","tel":"031-0000-0000","addr":"경기도 부천시 심곡동 133-5번지 4층","indutype":"의류 - 정장","category":"other"},{"name":"오성인쇄","tel":"032-666-5599","addr":"경기도 부천시 심곡동 133-5번지 3층","indutype":"서적문구 - 출판 및 인쇄물","category":"other"},{"name":"향기365","tel":"","addr":"경기도 부천시 심곡동 133-5번지 새부천RC빌딩 2층","indutype":"신변잡화 - 기타잡화","category":"other"}]},{"lat":"37.487425362","long":"126.77302404","imageIndex":17,"items":[{"name":"모던쇼파","tel":"032-503-7056","addr":"경기도 부천시 심곡동 357-10번지 1층","indutype":"가구 - 일반가구","category":"other"},{"name":"아가천사","tel":"070-7526-7255","addr":"경기도 부천시 심곡동 357-10번지","indutype":"의류 - 아동의류","category":"other"}]},{"lat":"37.49001581","long":"126.78012838","imageIndex":17,"items":[{"name":"모드인테리어","tel":"032-651-5001","addr":"경기도 부천시 심곡동 425-4번지","indutype":"가구 - 기타가구","category":"other"}]},{"lat":"37.488954594","long":"126.78602254","imageIndex":17,"items":[{"name":"모든교육","tel":"032-328-8260","addr":"경기도 부천시 심곡동 155-17번지 동강빌딩 지층","indutype":"회원제형태 - 서적","category":"other"},{"name":"에듀키즈","tel":"070-7538-9145","addr":"경기도 부천시 심곡동 155-17번지 동강빌딩 지하","indutype":"회원제형태 - 서적","category":"other"}]},{"lat":"37.486627107","long":"126.78443501","imageIndex":17,"items":[{"name":"모리","tel":"032-613-2869","addr":"경기도 부천시 심곡동 167-20번지 3층","indutype":"문화.취미 - 화랑","category":"other"}]},{"lat":"37.487787579","long":"126.77396141","imageIndex":17,"items":[{"name":"모토NET PLUS","tel":"031-903-6384","addr":"경기도 부천시 심곡동 347-5번지 1층","indutype":"사무통신 - 통신기기","category":"other"}]},{"lat":"37.489146958","long":"126.78285598","imageIndex":17,"items":[{"name":"무궁화피부관리샵","tel":"032-611-9909","addr":"경기도 부천시 심곡동 354-7번지","indutype":"회원제형태 - 기타4","category":"other"}]},{"lat":"37.494564393","long":"126.78418574","imageIndex":17,"items":[{"name":"무지개세탁소","tel":"032-664-1265","addr":"경기도 부천시 심곡동 96-26번지","indutype":"수리서비스 - 세탁소","category":"other"}]},{"lat":"37.487623131","long":"126.77746705","imageIndex":17,"items":[{"name":"무지개정보통신","tel":"032-1666-4486","addr":"경기도 부천시 심곡동 457-5번지 2층","indutype":"사무통신 - 통신기기","category":"other"},{"name":"세은하이진","tel":"031-311-5017","addr":"경기도 부천시 심곡동 457-5번지 1층","indutype":"신변잡화 - 기타잡화","category":"other"}]},{"lat":"37.487903215","long":"126.77319218","imageIndex":17,"items":[{"name":"무지개홈케어","tel":"032-652-9792","addr":"경기도 부천시 심곡동 346-13번지","indutype":"용역 서비스 - 종합용역","category":"other"}]},{"lat":"37.485124933","long":"126.78093436","imageIndex":17,"items":[{"name":"물목부동산중개인사무소","tel":"032-664-5989","addr":"경기도 부천시 심곡동 384번지 1층 102호","indutype":"용역 서비스 - 부동산 중개·임대","category":"other"}]},{"lat":"37.486567109","long":"126.78124668","imageIndex":17,"items":[{"name":"미니스톱 부천본점","tel":"031-1577-9621","addr":"경기도 부천시 심곡동 381-13번지 1층","indutype":"유통업 영리 - 편 의 점","category":"other"}]},{"lat":"37.488877167","long":"126.78312814","imageIndex":17,"items":[{"name":"미니스톱 부천세일점","tel":"031-1577-9621","addr":"경기도 부천시 심곡동 350-1번지","indutype":"유통업 영리 - 편 의 점","category":"other"}]},{"lat":"37.485067526","long":"126.77915941","imageIndex":17,"items":[{"name":"미니스톱 심곡제일점","tel":"031-1577-9621","addr":"경기도 부천시 심곡동 388-1번지","indutype":"유통업 영리 - 편 의 점","category":"other"},{"name":"은영세탁소","tel":"032-655-5156","addr":"경기도 부천시 심곡동 388-1번지","indutype":"수리서비스 - 세탁소","category":"other"}]},{"lat":"37.490396839","long":"126.78151805","imageIndex":17,"items":[{"name":"미래인테리어","tel":"032-667-4422","addr":"경기도 부천시 심곡동 372-8번지","indutype":"건축자재 - 인테리어전문","category":"other"}]},{"lat":"37.491148832","long":"126.77424515","imageIndex":17,"items":[{"name":"미래정보통신","tel":"032-611-7792","addr":"경기도 부천시 심곡동 323-18번지","indutype":"사무통신 - 통신기기","category":"other"}]},{"lat":"37.491704216","long":"126.77258125","imageIndex":17,"items":[{"name":"미래총포사","tel":"032-666-5500","addr":"경기도 부천시 심곡동 308-19번지","indutype":"레져용품 - 총포류판매점","category":"other"},{"name":"헤어플랜","tel":"070-8820-5067","addr":"경기도 부천시 심곡동 308-19번지 201호","indutype":"회원제형태 - 기타4","category":"other"}]},{"lat":"37.497592087","long":"126.78438046","imageIndex":17,"items":[{"name":"미소공방","tel":"070-8271-8831","addr":"경기도 부천시 심곡동 37-37번지 지층","indutype":"문화.취미 - 문화취미기타","category":"other"}]},{"lat":"37.4856205","long":"126.78579474","imageIndex":17,"items":[{"name":"미소앤제이","tel":"070-8656-9672","addr":"경기도 부천시 심곡동 146-6번지 2층","indutype":"수리서비스 - 가정용품수리","category":"other"}]},{"lat":"37.486234718","long":"126.78176777","imageIndex":17,"items":[{"name":"미스터포토","tel":"032-668-8878","addr":"경기도 부천시 심곡동 176-7번지 2층","indutype":"광학제품 - 사진관","category":"other"}]},{"lat":"37.490987245","long":"126.77455094","imageIndex":17,"items":[{"name":"미시코코","tel":"070-7656-9226","addr":"경기도 부천시 심곡동 326-41번지","indutype":"의류 - 정장","category":"other"}]},{"lat":"37.492319687","long":"126.77871939","imageIndex":17,"items":[{"name":"민경종합공사","tel":"032-664-5504","addr":"경기도 부천시 심곡동 445-2번지 평화연립 A동 107호","indutype":"용역 서비스 - 기타용역서비스","category":"other"}]},{"lat":"37.487150129","long":"126.77512796","imageIndex":17,"items":[{"name":"민들레캠핑","tel":"031-655-7384","addr":"경기도 부천시 심곡동 352-9번지 5층","indutype":"레져용품 - 스포츠·레져용품","category":"other"}]},{"lat":"37.494484224","long":"126.78468352","imageIndex":17,"items":[{"name":"믿음인쇄","tel":"032-611-3399","addr":"경기도 부천시 심곡동 93-3번지","indutype":"서적문구 - 출판 및 인쇄물","category":"other"},{"name":"오피스큐","tel":"032-662-3355","addr":"경기도 부천시 심곡동 93-3번지","indutype":"서적문구 - 문구용품","category":"other"}]},{"lat":"37.488680957","long":"126.77468234","imageIndex":17,"items":[{"name":"바보가게","tel":"032-611-7494","addr":"경기도 부천시 심곡동 344-11번지 1층","indutype":"의류 - 기타의류","category":"other"},{"name":"이브올루션","tel":"032-662-1309","addr":"경기도 부천시 심곡동 344-11번지 1층","indutype":"회원제형태 - 기타4","category":"other"}]},{"lat":"37.488872769","long":"126.78077628","imageIndex":17,"items":[{"name":"바이 더 컬러","tel":"032-555-5555","addr":"경기도 부천시 심곡동 376-17번지 2층","indutype":"의류 - 정장","category":"other"},{"name":"이벤트라온","tel":"02-2060-6882","addr":"경기도 부천시 심곡동 376-17번지 지하1층","indutype":"용역 서비스 - 종합용역","category":"other"}]},{"lat":"37.48781823","long":"126.78057588","imageIndex":17,"items":[{"name":"바이더웨이부천대학점","tel":"032-665-0927","addr":"경기도 부천시 심곡동 378-23번지","indutype":"유통업 영리 - 편 의 점","category":"other"},{"name":"세븐일레븐부천대학점","tel":"","addr":"경기도 부천시 심곡동 378-23 1층","indutype":"유통업 영리 - 편 의 점","category":"other"}]},{"lat":"37.485151425","long":"126.78549082","imageIndex":17,"items":[{"name":"바이맵","tel":"032-674-7777","addr":"경기도 부천시 심곡동 145-6번지 부천역푸르지오시티 1층 105호","indutype":"의류 - 정장","category":"other"}]},{"lat":"37.487765906","long":"126.77674298","imageIndex":17,"items":[{"name":"박사알뜰매장","tel":"","addr":"경기도 부천시 심곡동 348-34번지","indutype":"전기제품 - 가전제품","category":"other"},{"name":"입질삼삼낚시","tel":"032-613-2733","addr":"경기도 부천시 심곡동 348-34번지 1층","indutype":"레져용품 - 스포츠·레져용품","category":"other"}]},{"lat":"37.48662467","long":"126.77832937","imageIndex":17,"items":[{"name":"박사알뜰매장","tel":"032-613-4989","addr":"경기도 부천시 심곡동 402-9번지","indutype":"전기제품 - 가전제품","category":"other"},{"name":"박사알뜰매장","tel":"032-613-8949","addr":"경기도 부천시 심곡동 402-9번지 1층 1호","indutype":"전기제품 - 가전제품","category":"other"},{"name":"산마루산장","tel":"032-651-8524","addr":"경기도 부천시 심곡동 402-9번지","indutype":"레져용품 - 스포츠·레져용품","category":"other"}]},{"lat":"37.48725868","long":"126.78008003","imageIndex":17,"items":[{"name":"밤의감각","tel":"","addr":"경기도 부천시 심곡동 404-1번지 2층","indutype":"의류 - 정장","category":"other"},{"name":"주식회사 광고다","tel":"070-7783-9919","addr":"경기도 부천시 심곡동 404-1번지 3층","indutype":"용역 서비스 - 종합용역","category":"other"}]},{"lat":"37.491286229","long":"126.7754094","imageIndex":17,"items":[{"name":"백구아이","tel":"032-666-8109","addr":"경기도 부천시 심곡동 304-13번지 1층","indutype":"서적문구 - 기타서적문구","category":"other"}]},{"lat":"37.490734903","long":"126.77451778","imageIndex":17,"items":[{"name":"백제광고","tel":"032-654-9938","addr":"경기도 부천시 심곡동 326-36번지","indutype":"건축자재 - 인테리어전문","category":"other"}]},{"lat":"37.488733945","long":"126.77412813","imageIndex":17,"items":[{"name":"백조씽크인테리어","tel":"032-653-8030","addr":"경기도 부천시 심곡동 344번지","indutype":"건축자재 - 인테리어전문","category":"other"},{"name":"에스비정보통신","tel":"070-5017-9011","addr":"경기도 부천시 심곡동 344번지","indutype":"사무통신 - 통신기기","category":"other"}]},{"lat":"37.486816043","long":"126.77947078","imageIndex":17,"items":[{"name":"백조의상실","tel":"032-655-9265","addr":"경기도 부천시 심곡동 400-2번지 1층","indutype":"수리서비스 - 세탁소","category":"other"}]},{"lat":"37.49131304","long":"126.77529624","imageIndex":17,"items":[{"name":"백조장식","tel":"032-661-5915","addr":"경기도 부천시 심곡동 304-14번지 1층","indutype":"직물 - 카페트,커튼,천막,지물","category":"other"},{"name":"부광ST","tel":"032-613-2128","addr":"경기도 부천시 심곡동 304-14번지 1층 일부","indutype":"건축자재 - 인테리어전문","category":"other"}]},{"lat":"37.486954107","long":"126.77627054","imageIndex":17,"items":[{"name":"백합재활용","tel":"032-664-9050","addr":"경기도 부천시 심곡동 351-25번지","indutype":"전기제품 - 가전제품","category":"other"}]},{"lat":"37.489566343","long":"126.77593474","imageIndex":17,"items":[{"name":"뱅크라인","tel":"070-8870-5564","addr":"경기도 부천시 심곡동 329-1번지 1층","indutype":"사무통신 - 통신기기","category":"other"},{"name":"청풍시스템","tel":"","addr":"경기도 부천시 심곡동 329-1번지","indutype":"용역 서비스 - 기타용역서비스","category":"other"}]},{"lat":"37.487035738","long":"126.77655297","imageIndex":17,"items":[{"name":"버드스쿨","tel":"070-8164-7477","addr":"경기도 부천시 심곡동 351-38번지 새한빌딩 3층","indutype":"문화.취미 - 애완동물","category":"other"}]},{"lat":"37.490675891","long":"126.78138154","imageIndex":17,"items":[{"name":"베리트캔들","tel":"","addr":"경기도 부천시 심곡동 371-19번지 1층 3호","indutype":"신변잡화 - 기타잡화","category":"other"}]},{"lat":"37.486266398","long":"126.78426646","imageIndex":17,"items":[{"name":"베이비 페이스(baby face)","tel":"032-665-6368","addr":"경기도 부천시 심곡동 167-37번지 백영아트빌 1층","indutype":"신변잡화 - 기타잡화","category":"other"}]},{"lat":"37.48881456","long":"126.78337708","imageIndex":17,"items":[{"name":"베이직하우스","tel":"032-668-5488","addr":"경기도 부천시 심곡동 349-1번지","indutype":"레져용품 - 스포츠·레져용품","category":"other"}]},{"lat":"37.492150596","long":"126.77982804","imageIndex":17,"items":[{"name":"변기 막힘 하수구 뚫음 24시","tel":"","addr":"경기도 부천시 심곡동 432-3번지 삼성팰리스 502호","indutype":"수리서비스 - 기타수리서비스","category":"other"},{"name":"제이에이치(JH)주택","tel":"02-1577-0000","addr":"경기도 부천시 심곡동 432-3번지 삼성팰리스 101호","indutype":"건축자재 - 인테리어전문","category":"other"}]},{"lat":"37.487648734","long":"126.77672072","imageIndex":17,"items":[{"name":"별표광고산업","tel":"032-613-9935","addr":"경기도 부천시 심곡동 348-33번지 1층","indutype":"유통업 영리 - 기타유통업","category":"other"},{"name":"제이원테크","tel":"032-667-4454","addr":"경기도 부천시 심곡동 348-33번지 2층","indutype":"기타 - 기계공구","category":"other"},{"name":"천수광고","tel":"032-613-9935","addr":"경기도 부천시 심곡동 348-33번지 1층","indutype":"유통업 영리 - 기타유통업","category":"other"}]},{"lat":"37.484707716","long":"126.78921193","imageIndex":17,"items":[{"name":"봉자옷장","tel":"","addr":"경기도 부천시 심곡동 125-1번지","indutype":"의류 - 정장","category":"other"},{"name":"스타런","tel":"032-662-1870","addr":"경기도 부천시 심곡동 125-1번지","indutype":"의류 - 정장","category":"other"}]},{"lat":"37.492843193","long":"126.78402114","imageIndex":17,"items":[{"name":"부라더경기미싱","tel":"032-663-7718","addr":"경기도 부천시 심곡동 110-16번지 1층","indutype":"수리서비스 - 가정용품수리","category":"other"}]},{"lat":"37.4976748665","long":"126.7852962018","imageIndex":17,"items":[{"name":"부라더종합미싱","tel":"032-613-7911","addr":"경기도 부천시 심곡동 78-1번지 1통4반","indutype":"전기제품 - 가전제품","category":"other"},{"name":"통일전기","tel":"032-613-2000","addr":"경기도 부천시 심곡동 78-1번지 상가","indutype":"전기제품 - 기타전기제품","category":"other"},{"name":"한림도기","tel":"032-655-5406","addr":"경기도 부천시 심곡동 78-1번지","indutype":"건축자재 - 건축용 요업제품","category":"other"}]},{"lat":"37.488207692","long":"126.78166019","imageIndex":17,"items":[{"name":"부일당","tel":"032-668-2010","addr":"경기도 부천시 심곡동 377-17번지","indutype":"신변잡화 - 귀금속","category":"other"}]},{"lat":"37.48876493","long":"126.78577433","imageIndex":17,"items":[{"name":"부전할인마트","tel":"032-656-3118","addr":"경기도 부천시 심곡동 156-9번지 102호","indutype":"신변잡화 - 기타잡화","category":"other"}]},{"lat":"37.489568682","long":"126.77715591","imageIndex":17,"items":[{"name":"부천 당구재료","tel":"032-663-1141","addr":"경기도 부천시 심곡동 329-55번지 2층","indutype":"수리서비스 - 레져용품수리","category":"other"},{"name":"솔원유통","tel":"032-661-8398","addr":"경기도 부천시 심곡동 329-55번지","indutype":"신변잡화 - 기타잡화","category":"other"}]},{"lat":"37.483788257","long":"126.78896581","imageIndex":17,"items":[{"name":"부천개발","tel":"032-612-0025","addr":"경기도 부천시 심곡동 125-7번지","indutype":"용역 서비스 - 종합용역","category":"other"}]},{"lat":"37.487513511","long":"126.78629807","imageIndex":17,"items":[{"name":"부천게임터","tel":"032-614-7744","addr":"경기도 부천시 심곡동 151-3번지","indutype":"서적문구 - 완구점","category":"other"}]},{"lat":"37.492174025","long":"126.78271141","imageIndex":17,"items":[{"name":"부천교육연대","tel":"032-654-0405","addr":"경기도 부천시 심곡동 103-1번지 영동빌딩 4층","indutype":"기타 - 비영리/대상","category":"other"}]},{"lat":"37.48646036","long":"126.77721049","imageIndex":17,"items":[{"name":"부천꽃화원","tel":"032-664-5774","addr":"경기도 부천시 심곡동 463-4번지 1층","indutype":"문화.취미 - 화원","category":"other"}]},{"lat":"37.485650681","long":"126.7826288","imageIndex":17,"items":[{"name":"부천로엠","tel":"032-666-6166","addr":"경기도 부천시 심곡동 175-24번지 1층 3층 ,2층","indutype":"의류 - 정장","category":"other"}]},{"lat":"37.485516774","long":"126.78329628","imageIndex":17,"items":[{"name":"부천로이드","tel":"032-663-6339","addr":"경기도 부천시 심곡동 170-7번지","indutype":"신변잡화 - 시계","category":"other"},{"name":"브이네스","tel":"032-653-5786","addr":"경기도 부천시 심곡동 170-7번지","indutype":"의류 - 정장","category":"other"},{"name":"종로보석","tel":"032-656-1600","addr":"경기도 부천시 심곡동 170-7번지","indutype":"신변잡화 - 액세서리","category":"other"},{"name":"코데즈컴바인이너웨어","tel":"032-611-7005","addr":"경기도 부천시 심곡동 170-7번지","indutype":"의류 - 내의판매","category":"other"},{"name":"파이","tel":"","addr":"경기도 부천시 심곡동 170-7번지 1층 일부","indutype":"신변잡화 - 액세서리","category":"other"}]},{"lat":"37.497898778","long":"126.78457181","imageIndex":17,"items":[{"name":"부천무궁화로타리클럽","tel":"032-665-8204","addr":"경기도 부천시 심곡동 82-3번지 피렌체뷰","indutype":"기타 - 비영리/비대상","category":"other"}]},{"lat":"37.488039284","long":"126.78804913","imageIndex":17,"items":[{"name":"부천상동로타리클럽","tel":"032-668-4195","addr":"경기도 부천시 심곡동 188-5번지","indutype":"기타 - 비영리/대상","category":"other"},{"name":"서부천로타리클럽","tel":"032-668-4195","addr":"경기도 부천시 심곡동 188-5번지 3층","indutype":"기타 - 비영리/대상","category":"other"},{"name":"현대컨설팅","tel":"032-653-9037","addr":"경기도 부천시 심곡동 188-5번지 현대가","indutype":"용역 서비스 - 사무서비스","category":"other"}]},{"lat":"37.485398087","long":"126.78245994","imageIndex":17,"items":[{"name":"부천소비조합","tel":"032-667-5926","addr":"경기도 부천시 심곡동 175-6번지 14층","indutype":"서적문구 - 문구용품","category":"other"},{"name":"부천중고폰깨진액정매입중고폰나라부천역점","tel":"032-656-2549","addr":"경기도 부천시 심곡동 175-6번지 롯데시네마 부천역점 505호","indutype":"사무통신 - 통신기기","category":"other"},{"name":"아이리페어 부천아이폰수리센터","tel":"070-4105-1110","addr":"경기도 부천시 심곡동 175-6번지 해태쇼핑 16층 5호","indutype":"수리서비스 - 사무·통신기기수리","category":"other"}]},{"lat":"37.4896215","long":"126.77185267","imageIndex":17,"items":[{"name":"부천에어컨백두냉열기","tel":"032-655-7788","addr":"경기도 부천시 심곡동 335-48번지 1층","indutype":"전기제품 - 냉열기기","category":"other"},{"name":"시민낚시","tel":"032-653-7220","addr":"경기도 부천시 심곡동 335-48번지","indutype":"레져용품 - 스포츠·레져용품","category":"other"}]},{"lat":"37.486566791","long":"126.77632825","imageIndex":17,"items":[{"name":"부천열쇠도장총판","tel":"032-666-1111","addr":"경기도 부천시 심곡동 360-11번지 1층","indutype":"건축자재 - 목재·석재·철물","category":"other"}]},{"lat":"37.490819952","long":"126.77657547","imageIndex":17,"items":[{"name":"부천전기","tel":"032-654-7852","addr":"경기도 부천시 심곡동 327-6번지","indutype":"건축자재 - 조명기구","category":"other"}]},{"lat":"37.490041979","long":"126.78449291","imageIndex":17,"items":[{"name":"부천종합지도","tel":"032-667-8163","addr":"경기도 부천시 심곡동 157-2번지","indutype":"서적문구 - 출판 및 인쇄물","category":"other"},{"name":"스페이스아트","tel":"032-657-6577","addr":"경기도 부천시 심곡동 157-2번지","indutype":"문화.취미 - 화방·표구점","category":"other"},{"name":"천일상사","tel":"032-652-3465","addr":"경기도 부천시 심곡동 157-2번지","indutype":"신변잡화 - 신발","category":"other"},{"name":"현아트","tel":"032-653-7884","addr":"경기도 부천시 심곡동 157-2번지","indutype":"문화.취미 - 문화취미기타","category":"other"}]},{"lat":"37.48928633","long":"126.78030015","imageIndex":17,"items":[{"name":"부천컴퓨터","tel":"032-614-0073","addr":"경기도 부천시 심곡동 420-1번지 한주랜드 102호","indutype":"사무통신 - 사무용 OA기기","category":"other"}]},{"lat":"37.488369913","long":"126.78168233","imageIndex":17,"items":[{"name":"뷰티파트너","tel":"032-613-7190","addr":"경기도 부천시 심곡동 377-23번지","indutype":"회원제형태 - 기타4","category":"other"}]},{"lat":"37.484931761","long":"126.78363719","imageIndex":17,"items":[{"name":"뷰티플아이","tel":"032-507-3119","addr":"경기도 부천시 심곡동 171-12번지 3층 일부","indutype":"회원제형태 - 기타4","category":"other"}]},{"lat":"37.487846258","long":"126.78110722","imageIndex":17,"items":[{"name":"브레드햇샵","tel":"","addr":"경기도 부천시 심곡동 378-6번지 한양빌라 가동 502호","indutype":"신변잡화 - 기타잡화","category":"other"}]},{"lat":"37.488044412","long":"126.78107271","imageIndex":17,"items":[{"name":"브로캉트","tel":"070-4388-4860","addr":"경기도 부천시 심곡동 378-7번지 지층","indutype":"의류 - 정장","category":"other"},{"name":"브로캉트슈슈","tel":"","addr":"경기도 부천시 심곡동 378-7번지 지하","indutype":"의류 - 정장","category":"other"}]},{"lat":"37.484898069","long":"126.78007574","imageIndex":17,"items":[{"name":"브로캉트 컴퍼니","tel":"","addr":"경기도 부천시 심곡동 387-1번지 부천프라자 2층 202호","indutype":"의류 - 정장","category":"other"}]},{"lat":"37.491399971","long":"126.778349","imageIndex":17,"items":[{"name":"브리즈비하인드유","tel":"","addr":"경기도 부천시 심곡동 447-5번지 정화빌라 101동 301호","indutype":"문화.취미 - 민예·공예품","category":"other"}]},{"lat":"37.485984582","long":"126.77812776","imageIndex":17,"items":[{"name":"블랑슈","tel":"032-542-1917","addr":"경기도 부천시 심곡동 398-22번지","indutype":"의류 - 내의판매","category":"other"}]},{"lat":"37.487341535","long":"126.78101826","imageIndex":17,"items":[{"name":"블루도트디자인(bluedotdesign)","tel":"070-4190-3305","addr":"경기도 부천시 심곡동 379-4번지","indutype":"문화.취미 - 티켓","category":"other"}]},{"lat":"37.487818655","long":"126.78080201","imageIndex":17,"items":[{"name":"블루리본","tel":"032-4873-8850","addr":"경기도 부천시 심곡동 378-11번지 새한원룸 2층 204호","indutype":"회원제형태 - 기타4","category":"other"}]},{"lat":"37.488431684","long":"126.77624347","imageIndex":17,"items":[{"name":"비니스타일","tel":"","addr":"경기도 부천시 심곡동 343-4번지 1층","indutype":"의류 - 정장","category":"other"}]},{"lat":"37.490373874","long":"126.77419097","imageIndex":17,"items":[{"name":"비젼애드","tel":"031-325-0566","addr":"경기도 부천시 심곡동 324-15번지 1층","indutype":"용역 서비스 - 종합용역","category":"other"}]},{"lat":"37.48942637","long":"126.7829117","imageIndex":17,"items":[{"name":"비푸머스","tel":"031-000-0000","addr":"경기도 부천시 심곡동 354-1번지 힐카운티 1302호","indutype":"신변잡화 - 기타잡화","category":"other"}]},{"lat":"37.490176876","long":"126.78435683","imageIndex":17,"items":[{"name":"빠리","tel":"032-651-2468","addr":"경기도 부천시 심곡동 157-1번지","indutype":"의류 - 정장","category":"other"}]},{"lat":"37.485902147","long":"126.78707157","imageIndex":17,"items":[{"name":"쁘띠로라","tel":"","addr":"경기도 부천시 심곡동 137-35번지 현대푸르빌 101호","indutype":"문화.취미 - 문화취미기타","category":"other"}]},{"lat":"37.491541009","long":"126.78146944","imageIndex":17,"items":[{"name":"사계","tel":"032-000-0000","addr":"경기도 부천시 심곡동 369-18번지","indutype":"의류 - 정장","category":"other"}]},{"lat":"37.486539978","long":"126.77644139","imageIndex":17,"items":[{"name":"사람다움","tel":"032-663-4888","addr":"경기도 부천시 심곡동 360-12번지 2층 일부","indutype":"용역 서비스 - 사무서비스","category":"other"}]},{"lat":"37.489592611","long":"126.78510481","imageIndex":17,"items":[{"name":"사랑마을 요양원","tel":"032-671-2223","addr":"경기도 부천시 심곡동 155-1번지 201호,202호","indutype":"기타의료기관 - 기타의료기관 및 기타","category":"other"}]},{"lat":"37.486980182","long":"126.77577296","imageIndex":17,"items":[{"name":"사랑이야기웨딩","tel":"032-652-2437","addr":"경기도 부천시 심곡동 351-12번지","indutype":"의류 - 정장","category":"other"}]},{"lat":"37.485814026","long":"126.78815726","imageIndex":17,"items":[{"name":"사르토리아 조","tel":"","addr":"경기도 부천시 심곡동 131-15번지 3층","indutype":"의류 - 맞춤복점","category":"other"}]},{"lat":"37.490760652","long":"126.78334877","imageIndex":17,"items":[{"name":"사오 디자인","tel":"","addr":"경기도 부천시 심곡동 367-9번지 하늘미소 301호","indutype":"건축자재 - 인테리어전문","category":"other"}]},{"lat":"37.492842564","long":"126.78368191","imageIndex":17,"items":[{"name":"사회복지법인대성 부천대성요양센터","tel":"032-610-1204","addr":"경기도 부천시 심곡동 113-10번지 대성병원 5층","indutype":"기타의료기관 - 기타의료기관 및 기타","category":"other"}]},{"lat":"37.492178097","long":"126.77535015","imageIndex":17,"items":[{"name":"사후개발","tel":"031-968-7944","addr":"경기도 부천시 심곡동 303-4번지 중앙맨션 3동 501호","indutype":"회원제형태 - 기타4","category":"other"}]},{"lat":"37.487371567","long":"126.77315989","imageIndex":17,"items":[{"name":"삼광페인트","tel":"032-656-2869","addr":"경기도 부천시 심곡동 357-19번지","indutype":"건축자재 - 페인트","category":"other"}]},{"lat":"37.48906333","long":"126.77208053","imageIndex":17,"items":[{"name":"삼보싸인테크","tel":"032-663-1255","addr":"경기도 부천시 심곡동 345번지","indutype":"용역 서비스 - 종합용역","category":"other"}]},{"lat":"37.492483128","long":"126.77938606","imageIndex":17,"items":[{"name":"삼성오에이랜드","tel":"032-655-1801","addr":"경기도 부천시 심곡동 444-13번지 1층","indutype":"사무통신 - 기타 사무용품","category":"other"}]},{"lat":"37.485930846","long":"126.78798733","imageIndex":17,"items":[{"name":"삼아식품/올리브물대","tel":"016-****-****","addr":"경기도 부천시 심곡동 131-38번지","indutype":"별도관리 - 자체물품대금","category":"other"}]},{"lat":"37.492096887","long":"126.77065775","imageIndex":17,"items":[{"name":"삼원 설비","tel":"032-662-5118","addr":"경기도 부천시 심곡동 314-29번지 1층","indutype":"용역 서비스 - 기타용역서비스","category":"other"},{"name":"영인테리어","tel":"","addr":"경기도 부천시 심곡동 314-29번지","indutype":"건축자재 - 인테리어전문","category":"other"}]},{"lat":"37.491515463","long":"126.77748928","imageIndex":17,"items":[{"name":"삼은상사","tel":"032-612-4466","addr":"경기도 부천시 심곡동 298-12번지","indutype":"건축자재 - 건축용 요업제품","category":"other"}]},{"lat":"37.484733886","long":"126.78873699","imageIndex":17,"items":[{"name":"삼정철물","tel":"032-656-1660","addr":"경기도 부천시 심곡동 129-6번지","indutype":"건축자재 - 목재·석재·철물","category":"other"},{"name":"이브자리코디센","tel":"032-612-9218","addr":"경기도 부천시 심곡동 129-6번지","indutype":"직물 - 침구·수예점","category":"other"},{"name":"이화","tel":"032-612-9218","addr":"경기도 부천시 심곡동 129-6번지 2층","indutype":"직물 - 침구·수예점","category":"other"},{"name":"주식회사한가족정품","tel":"032-652-0575","addr":"경기도 부천시 심곡동 129-6번지 3층","indutype":"신변잡화 - 기타잡화","category":"other"},{"name":"형제종합공사","tel":"032-653-1294","addr":"경기도 부천시 심곡동 129-6번지 3호","indutype":"건축자재 - 보일러·펌프·샷시","category":"other"}]},{"lat":"37.492011006","long":"126.77748779","imageIndex":17,"items":[{"name":"삼화페인트(중동상사)","tel":"032-673-4884","addr":"경기도 부천시 심곡동 298-1번지 1층","indutype":"건축자재 - 페인트","category":"other"}]},{"lat":"37.489711049","long":"126.78096602","imageIndex":17,"items":[{"name":"상동종합건축","tel":"032-611-4798","addr":"경기도 부천시 심곡동 375-11번지","indutype":"용역 서비스 - 기타용역서비스","category":"other"}]},{"lat":"37.485513812","long":"126.7865752","imageIndex":17,"items":[{"name":"새길통신","tel":"070-7776-4488","addr":"경기도 부천시 심곡동 138-5번지 부천메디칼센터 5층 501호일부 506호","indutype":"사무통신 - 통신기기","category":"other"},{"name":"희망아카데미","tel":"032-614-1512","addr":"경기도 부천시 심곡동 138-5번지 4층","indutype":"유통업 영리 - 기타유통업","category":"other"}]},{"lat":"37.4905942571","long":"126.7716913733","imageIndex":17,"items":[{"name":"색동교육사","tel":"032-611-8402","addr":"경기도 부천시 심곡동 321-2번지","indutype":"서적문구 - 출판 및 인쇄물","category":"other"}]},{"lat":"37.492343034","long":"126.77212698","imageIndex":17,"items":[{"name":"샘물 인테리어","tel":"032-651-0926","addr":"경기도 부천시 심곡동 299-1번지 1층","indutype":"직물 - 카페트,커튼,천막,지물","category":"other"}]},{"lat":"37.490432787","long":"126.77205371","imageIndex":17,"items":[{"name":"샤프메즈","tel":"032-613-3122","addr":"경기도 부천시 심곡동 322-15번지","indutype":"전기제품 - 가전제품","category":"other"}]},{"lat":"37.486646983","long":"126.78544126","imageIndex":17,"items":[{"name":"샬롬","tel":"032-000-0000","addr":"경기도 부천시 심곡동 148-17번지","indutype":"의류 - 정장","category":"other"}]},{"lat":"37.487292456","long":"126.78368682","imageIndex":17,"items":[{"name":"샵포유부천점","tel":"032-666-0311","addr":"경기도 부천시 심곡동 164-2번지 1층","indutype":"의류 - 아동의류","category":"other"}]},{"lat":"37.489292294","long":"126.78348876","imageIndex":17,"items":[{"name":"서연스포츠","tel":"032-666-8080","addr":"경기도 부천시 심곡동 355-4번지 1층 전체","indutype":"레져용품 - 스포츠·레져용품","category":"other"}]},{"lat":"37.486072632","long":"126.78668666","imageIndex":17,"items":[{"name":"서울도배장판","tel":"032-613-1028","addr":"경기도 부천시 심곡동 137-23번지 1층","indutype":"직물 - 카페트,커튼,천막,지물","category":"other"}]},{"lat":"37.486571414","long":"126.78355325","imageIndex":17,"items":[{"name":"서윤옷사랑","tel":"02-000-0000","addr":"경기도 부천시 심곡동 168-7번지","indutype":"의류 - 정장","category":"other"}]},{"lat":"37.486458441","long":"126.78580362","imageIndex":17,"items":[{"name":"선민철물","tel":"032-663-6073","addr":"경기도 부천시 심곡동 147-5번지","indutype":"건축자재 - 목재·석재·철물","category":"other"}]},{"lat":"37.489322119","long":"126.77543797","imageIndex":17,"items":[{"name":"선일전기","tel":"032-612-8396","addr":"경기도 부천시 심곡동 330-33번지","indutype":"전기제품 - 기타전기제품","category":"other"}]},{"lat":"37.492594592","long":"126.78116103","imageIndex":17,"items":[{"name":"선진화건축사무소","tel":"032-665-3997","addr":"경기도 부천시 심곡동 438-1번지","indutype":"용역 서비스 - 사무서비스","category":"other"}]},{"lat":"37.492681389","long":"126.77940808","imageIndex":17,"items":[{"name":"성민설비","tel":"032-657-5566","addr":"경기도 부천시 심곡동 444-11번지","indutype":"용역 서비스 - 종합용역","category":"other"}]},{"lat":"37.486182433","long":"126.77793496","imageIndex":17,"items":[{"name":"성빈토건(주)","tel":"032-612-0051","addr":"경기도 부천시 심곡동 459-9번지 은사빌딩 1층","indutype":"주방용구 - 주방용구","category":"other"}]},{"lat":"37.488071229","long":"126.78095956","imageIndex":17,"items":[{"name":"성산유통","tel":"070-4247-1800","addr":"경기도 부천시 심곡동 378-8번지 1층","indutype":"신변잡화 - 가방","category":"other"},{"name":"잇츠 바이크","tel":"032-665-3247","addr":"경기도 부천시 심곡동 378-8번지","indutype":"레져용품 - 스포츠·레져용품","category":"other"}]},{"lat":"37.492787265","long":"126.78301492","imageIndex":17,"items":[{"name":"성실유리","tel":"032-661-6282","addr":"경기도 부천시 심곡동 97-25 1층","indutype":"건축자재 - 유리","category":"other"}]},{"lat":"37.488403511","long":"126.78038192","imageIndex":17,"items":[{"name":"성심철물","tel":"032-663-6969","addr":"경기도 부천시 심곡동 409-10번지 두리타워 1층","indutype":"건축자재 - 목재·석재·철물","category":"other"}]},{"lat":"37.485153084","long":"126.77677347","imageIndex":17,"items":[{"name":"성주컴퓨터","tel":"032-614-4974","addr":"경기도 부천시 심곡동 465-12번지 1층 203호","indutype":"사무통신 - 컴퓨터","category":"other"}]},{"lat":"37.487206926","long":"126.77655245","imageIndex":17,"items":[{"name":"성진전자","tel":"032-611-9662","addr":"경기도 부천시 심곡동 351-32번지","indutype":"전기제품 - 가전제품","category":"other"}]},{"lat":"37.490260825","long":"126.77165848","imageIndex":17,"items":[{"name":"성천인테리어","tel":"032-220-9500","addr":"경기도 부천시 심곡동 321-10번지","indutype":"건축자재 - 인테리어전문","category":"other"}]},{"lat":"37.488178872","long":"126.78554989","imageIndex":17,"items":[{"name":"세라픽","tel":"","addr":"경기도 부천시 심곡동 160-26번지 101호","indutype":"광학제품 - 사진관","category":"other"}]},{"lat":"37.487516498","long":"126.77824755","imageIndex":17,"items":[{"name":"세븐일레븐부천대정문점","tel":"","addr":"경기도 부천시 심곡동 457-26번지 1층","indutype":"유통업 영리 - 편 의 점","category":"other"}]},{"lat":"37.49312178","long":"126.77883007","imageIndex":17,"items":[{"name":"세븐일레븐부천신흥로점","tel":"031-1577-0711","addr":"경기도 부천시 심곡동 443-23번지 남양캐슬","indutype":"유통업 영리 - 편 의 점","category":"other"}]},{"lat":"37.486600391","long":"126.78460469","imageIndex":17,"items":[{"name":"세븐일레븐부천심곡드림점","tel":"031-1577-0711","addr":"경기도 부천시 심곡동 167-23번지 1층","indutype":"유통업 영리 - 편 의 점","category":"other"}]},{"lat":"37.486288973","long":"126.78674257","imageIndex":17,"items":[{"name":"세븐일레븐부천심곡으뜸점","tel":"","addr":"경기도 부천시 심곡동 137-5번지 1층","indutype":"유통업 영리 - 편 의 점","category":"other"}]},{"lat":"37.48926476","long":"126.78321747","imageIndex":17,"items":[{"name":"세일장례식장","tel":"032-666-4440","addr":"경기도 부천시 심곡동 355-6번지 세일빌딩","indutype":"용역 서비스 - 가례서비스업","category":"other"}]},{"lat":"37.48557119","long":"126.78348833","imageIndex":17,"items":[{"name":"세종카메라","tel":"032-613-7610","addr":"경기도 부천시 심곡동 170-4번지 조은빌딩 1층","indutype":"광학제품 - 카메라","category":"other"},{"name":"슈올즈 부천점","tel":"032-611-0972","addr":"경기도 부천시 심곡동 170-4번지 조은빌딩 1층 좌측","indutype":"신변잡화 - 신발","category":"other"},{"name":"임페리얼양복점","tel":"032-661-8510","addr":"경기도 부천시 심곡동 170-4번지 1층","indutype":"의류 - 맞춤복점","category":"other"}]},{"lat":"37.487841559","long":"126.78832107","imageIndex":17,"items":[{"name":"세진운반기계","tel":"032-668-4331","addr":"경기도 부천시 심곡동 476-9번지 보성빌딩 3층","indutype":"기타 - 기계공구","category":"other"}]},{"lat":"37.485014869","long":"126.78966332","imageIndex":17,"items":[{"name":"세창냉동","tel":"","addr":"경기도 부천시 심곡동 483-5번지","indutype":"전기제품 - 가전제품","category":"other"}]},{"lat":"37.489016438","long":"126.78051579","imageIndex":17,"items":[{"name":"세탁을위한사람들","tel":"032-661-0045","addr":"경기도 부천시 심곡동 420-26번지 1층","indutype":"수리서비스 - 세탁소","category":"other"}]},{"lat":"37.491233958","long":"126.7716894","imageIndex":17,"items":[{"name":"센트럴 에너텍","tel":"032-667-1675","addr":"경기도 부천시 심곡동 320-34번지","indutype":"수리서비스 - 가정용품수리","category":"other"}]},{"lat":"37.491456195","long":"126.77477566","imageIndex":17,"items":[{"name":"션토미디어","tel":"","addr":"경기도 부천시 심곡동 304-25번지 우리홈타운 502호","indutype":"전기제품 - 가전제품","category":"other"}]},{"lat":"37.484738399","long":"126.78141038","imageIndex":17,"items":[{"name":"소녀폰부천역점","tel":"032-661-9998","addr":"경기도 부천시 심곡동 173-7번지 4층 401호","indutype":"사무통신 - 통신기기","category":"other"}]},{"lat":"37.484373388","long":"126.78868148","imageIndex":17,"items":[{"name":"솔드아웃(부천심곡점)","tel":"032-613-3034","addr":"경기도 부천시 심곡동 129-20번지 1층","indutype":"유통업 영리 - 편 의 점","category":"other"}]},{"lat":"37.491843285","long":"126.78412583","imageIndex":17,"items":[{"name":"송월타월","tel":"032-656-0056","addr":"경기도 부천시 심곡동 104-3번지","indutype":"의류 - 기타의류","category":"other"},{"name":"주식회사현대유비스산업보건센터","tel":"032-327-9584","addr":"경기도 부천시 심곡동 104-3번지 3층","indutype":"용역 서비스 - 사무서비스","category":"other"}]},{"lat":"37.487261231","long":"126.78143685","imageIndex":17,"items":[{"name":"쇼미더브이알(show me the VR)","tel":"032-216-0738","addr":"경기도 부천시 심곡동 379-24번지 3층","indutype":"수리서비스 - 사무·통신기기수리","category":"other"}]},{"lat":"37.487344181","long":"126.78243161","imageIndex":17,"items":[{"name":"수미스튜디오 (SUMI STUDIO)","tel":"032-614-8733","addr":"경기도 부천시 심곡동 180-1번지 2층","indutype":"용역 서비스 - 사무서비스","category":"other"},{"name":"씨유심곡대박점","tel":"080-080-3663","addr":"경기도 부천시 심곡동 180-1번지 1층","indutype":"유통업 영리 - 편 의 점","category":"other"}]},{"lat":"37.490343669","long":"126.78199312","imageIndex":17,"items":[{"name":"스타모바일","tel":"032-201-0546","addr":"경기도 부천시 심곡동 372-15번지 1층","indutype":"사무통신 - 통신기기","category":"other"}]},{"lat":"37.495321181","long":"126.78416091","imageIndex":17,"items":[{"name":"스타일","tel":"032-613-4405","addr":"경기도 부천시 심곡동 92-45번지","indutype":"의류 - 정장","category":"other"}]},{"lat":"37.495321327","long":"126.78424007","imageIndex":17,"items":[{"name":"스타크레프트","tel":"032-611-2903","addr":"경기도 부천시 심곡동 92-46번지","indutype":"서적문구 - 완구점","category":"other"}]},{"lat":"37.486207117","long":"126.78146257","imageIndex":17,"items":[{"name":"스튜디오위드","tel":"032-612-1313","addr":"경기도 부천시 심곡동 176-17번지 3층","indutype":"광학제품 - 사진관","category":"other"}]},{"lat":"37.484709117","long":"126.78021198","imageIndex":17,"items":[{"name":"스트링창","tel":"032-656-9300","addr":"경기도 부천시 심곡동 386-4번지 지산프라자 516호","indutype":"레져용품 - 악기점","category":"other"},{"name":"예랑교육","tel":"032-205-0660","addr":"경기도 부천시 심곡동 386-4번지 지산프라자 303호","indutype":"서적문구 - 기타서적문구","category":"other"}]},{"lat":"37.48931543","long":"126.7719893","imageIndex":17,"items":[{"name":"스피드&피지컬트레이닝센터","tel":"","addr":"경기도 부천시 심곡동 335-20번지","indutype":"레져용품 - 스포츠·레져용품","category":"other"}]},{"lat":"37.485461536","long":"126.78266327","imageIndex":17,"items":[{"name":"승승장구 텔레콤","tel":"032-661-1755","addr":"경기도 부천시 심곡동 175-5번지","indutype":"사무통신 - 통신기기","category":"other"}]},{"lat":"37.486402101","long":"126.77974338","imageIndex":17,"items":[{"name":"시민당","tel":"032-611-0049","addr":"경기도 부천시 심곡동 399-13번지 1층","indutype":"신변잡화 - 귀금속","category":"other"}]},{"lat":"37.484762387","long":"126.77979348","imageIndex":17,"items":[{"name":"시온지물포","tel":"032-655-3327","addr":"경기도 부천시 심곡동 388-13번지","indutype":"직물 - 카페트,커튼,천막,지물","category":"other"}]},{"lat":"37.49317526","long":"126.77852461","imageIndex":17,"items":[{"name":"신도네트부천점/특별할부","tel":"032-613-2244","addr":"경기도 부천시 심곡동 443-4번지","indutype":"사무통신 - 통신기기(무이자할부)","category":"other"}]},{"lat":"37.48834242","long":"126.78629568","imageIndex":17,"items":[{"name":"신도전자O.A/특별할부","tel":"032-665-8811","addr":"경기도 부천시 심곡동 153-10번지","indutype":"사무통신 - 통신기기(무이자할부)","category":"other"}]},{"lat":"37.489536798","long":"126.78415517","imageIndex":17,"items":[{"name":"신세계기획","tel":"032-612-9147","addr":"경기도 부천시 심곡동 158-13번지","indutype":"서적문구 - 출판 및 인쇄물","category":"other"},{"name":"신흥","tel":"032-651-4401","addr":"경기도 부천시 심곡동 158-13번지","indutype":"신변잡화 - 신발","category":"other"},{"name":"요들가운","tel":"032-656-4607","addr":"경기도 부천시 심곡동 158-13번지","indutype":"의류 - 기타의류","category":"other"},{"name":"작은천국","tel":"032-663-1964","addr":"경기도 부천시 심곡동 158-13번지","indutype":"의류 - 정장","category":"other"}]},{"lat":"37.485342226","long":"126.77673898","imageIndex":17,"items":[{"name":"신세계재활용마트","tel":"032-665-7282","addr":"경기도 부천시 심곡동 465-11번지","indutype":"수리서비스 - 기타수리서비스","category":"other"},{"name":"원미불교사","tel":"032-468-3455","addr":"경기도 부천시 심곡동 465-11번지","indutype":"신변잡화 - 기념품점","category":"other"}]},{"lat":"37.48723702","long":"126.77815793","imageIndex":17,"items":[{"name":"신안냉난방","tel":"032-614-2233","addr":"경기도 부천시 심곡동 457-22번지 101호","indutype":"수리서비스 - 가정용품수리","category":"other"}]},{"lat":"37.484401183","long":"126.78418145","imageIndex":17,"items":[{"name":"신원종묘사","tel":"032-662-3169","addr":"경기도 부천시 심곡동 172-4번지","indutype":"농업 - 비료,사료,종자","category":"other"}]},{"lat":"37.497204139","long":"126.78409888","imageIndex":17,"items":[{"name":"신일유통","tel":"032-653-4180","addr":"경기도 부천시 심곡동 40-103번지","indutype":"신변잡화 - 신발","category":"other"}]},{"lat":"37.487960405","long":"126.77952391","imageIndex":17,"items":[{"name":"실사OK","tel":"032-657-5250","addr":"경기도 부천시 심곡동 408-16번지 3층","indutype":"기타 - 기타 전문점","category":"other"}]},{"lat":"37.486511418","long":"126.78521551","imageIndex":17,"items":[{"name":"심 (SIM)","tel":"","addr":"경기도 부천시 심곡동 167-8번지","indutype":"신변잡화 - 기타잡화","category":"other"}]},{"lat":"37.49081869","long":"126.78065744","imageIndex":17,"items":[{"name":"심곡1동주민자치센터","tel":"032-625-5605","addr":"경기도 부천시 심곡동 427-6번지","indutype":"문화.취미 - 문화취미기타","category":"other"}]},{"lat":"37.487343792","long":"126.78710135","imageIndex":17,"items":[{"name":"심곡2동주민자치위원회","tel":"032-625-5638","addr":"경기도 부천시 심곡동 135-3번지","indutype":"문화.취미 - 문화취미기타","category":"other"}]},{"lat":"37.487345832","long":"126.77382708","imageIndex":17,"items":[{"name":"심곡3동주민자치위원회","tel":"032-625-7408","addr":"경기도 부천시 심곡동 352-3번지 심곡3주민지원센터 1층 주민자치프로그램 지원실","indutype":"문화.취미 - 문화취미기타","category":"other"}]},{"lat":"37.492427606","long":"126.78341174","imageIndex":17,"items":[{"name":"심곡전시장","tel":"032-664-1491","addr":"경기도 부천시 심곡동 98-1번지","indutype":"서적문구 - 일반서적","category":"other"}]},{"lat":"37.489817441","long":"126.78487801","imageIndex":17,"items":[{"name":"심해상사","tel":"032-63-7655","addr":"경기도 부천시 심곡동 157-10번지","indutype":"건축자재 - 조명기구","category":"other"}]},{"lat":"37.485570821","long":"126.78819188","imageIndex":17,"items":[{"name":"싹싹크린","tel":"","addr":"경기도 부천시 심곡동 130-14번지 1층","indutype":"건축자재 - 인테리어전문","category":"other"}]},{"lat":"37.491679385","long":"126.7784047","imageIndex":17,"items":[{"name":"쏘울지(souzi)","tel":"","addr":"경기도 부천시 심곡동 447-4번지 한양펠리스 303호","indutype":"의류 - 정장","category":"other"}]},{"lat":"37.485148607","long":"126.78888279","imageIndex":17,"items":[{"name":"쏠블리","tel":"070-4388-1677","addr":"경기도 부천시 심곡동 130-11번지 호행빌딩 1층 5호","indutype":"의류 - 정장","category":"other"},{"name":"아싸비어 부천역점","tel":"","addr":"경기도 부천시 심곡동 130-11번지 호행빌딩 1층 2.3호","indutype":"유통업 영리 - 편 의 점","category":"other"},{"name":"월드테크","tel":"031-404-0457","addr":"경기도 부천시 심곡동 130-11번지 호행빌딩 1층 4호","indutype":"건축자재 - 조명기구","category":"other"}]},{"lat":"37.488349983","long":"126.78066476","imageIndex":17,"items":[{"name":"씨엔테크","tel":"","addr":"경기도 부천시 심곡동 377-46번지 4층","indutype":"사무통신 - 컴퓨터","category":"other"}]},{"lat":"37.497321079","long":"126.78399677","imageIndex":17,"items":[{"name":"씨엠디 테크(CMD TECH)","tel":"","addr":"경기도 부천시 심곡동 40-101번지 1층","indutype":"수리서비스 - 가정용품수리","category":"other"}]},{"lat":"37.487424988","long":"126.77283183","imageIndex":17,"items":[{"name":"씨유부천굿모닝점","tel":"080-080-3663","addr":"경기도 부천시 심곡동 357-8번지","indutype":"유통업 영리 - 편 의 점","category":"other"}]},{"lat":"37.493957833","long":"126.78262702","imageIndex":17,"items":[{"name":"씨유부천기둥점","tel":"031-898-6569","addr":"경기도 부천시 심곡동 107-6번지 1층","indutype":"유통업 영리 - 편 의 점","category":"other"}]},{"lat":"37.484764963","long":"126.78116155","imageIndex":17,"items":[{"name":"씨유부천북부점","tel":"032-651-4307","addr":"경기도 부천시 심곡동 173-10번지 1층","indutype":"유통업 영리 - 편 의 점","category":"other"}]},{"lat":"37.489259789","long":"126.7758226","imageIndex":17,"items":[{"name":"씨유부천신흥로점","tel":"032-613-2523","addr":"경기도 부천시 심곡동 329-53번지 1층","indutype":"유통업 영리 - 편 의 점","category":"other"}]},{"lat":"37.487703588","long":"126.78677241","imageIndex":17,"items":[{"name":"씨유부천심곡센터점","tel":"032-662-3089","addr":"경기도 부천시 심곡동 151-20번지 1층","indutype":"유통업 영리 - 편 의 점","category":"other"}]},{"lat":"37.496403077","long":"126.78454224","imageIndex":17,"items":[{"name":"씨유부천심곡현대점","tel":"032-662-3088","addr":"경기도 부천시 심곡동 88-21번지 1층","indutype":"유통업 영리 - 편 의 점","category":"other"}]},{"lat":"37.489012725","long":"126.77385591","imageIndex":17,"items":[{"name":"씨유부천심중로점","tel":"02-1577-8007","addr":"경기도 부천시 심곡동 336-32번지 1층","indutype":"유통업 영리 - 편 의 점","category":"other"}]},{"lat":"37.492349386","long":"126.77077005","imageIndex":17,"items":[{"name":"씨유부천중앙점","tel":"032-661-3088","addr":"경기도 부천시 심곡동 314번지 1층","indutype":"유통업 영리 - 편 의 점","category":"other"}]},{"lat":"37.491204608","long":"126.78468175","imageIndex":17,"items":[{"name":"씨유심곡DS점","tel":"032-662-3089","addr":"경기도 부천시 심곡동 120-22번지 풍산메디칼프라자 1층","indutype":"유통업 영리 - 편 의 점","category":"other"}]},{"lat":"37.486238405","long":"126.78374644","imageIndex":17,"items":[{"name":"씨유심곡블루점","tel":"032-611-2693","addr":"경기도 부천시 심곡동 168-4번지 1층","indutype":"유통업 영리 - 편 의 점","category":"other"}]},{"lat":"37.491010867","long":"126.77746818","imageIndex":17,"items":[{"name":"씨유심곡사거리점","tel":"032-612-8255","addr":"경기도 부천시 심곡동 298-22번지","indutype":"유통업 영리 - 편 의 점","category":"other"}]},{"lat":"37.491261385","long":"126.78130066","imageIndex":17,"items":[{"name":"씨유심곡중앙점","tel":"032-613-5643","addr":"경기도 부천시 심곡동 370-4번지 1층","indutype":"유통업 영리 - 편 의 점","category":"other"},{"name":"씨유심곡중앙점","tel":"02-1577-8007","addr":"경기도 부천시 심곡동 370-4번지","indutype":"유통업 영리 - 편 의 점","category":"other"}]},{"lat":"37.489736611","long":"126.78018575","imageIndex":17,"items":[{"name":"아르볼(arbol)","tel":"070-7744-7121","addr":"경기도 부천시 심곡동 422-12번지","indutype":"신변잡화 - 액세서리","category":"other"}]},{"lat":"37.486068076","long":"126.78421051","imageIndex":17,"items":[{"name":"아름다워지는공간","tel":"032-256-3304","addr":"경기도 부천시 심곡동 169-4번지 중앙위너스 702호","indutype":"회원제형태 - 기타1","category":"other"}]},{"lat":"37.484591946","long":"126.78018971","imageIndex":17,"items":[{"name":"아리네다육선인장","tel":"032-000-0000","addr":"경기도 부천시 심곡동 386-5번지 101호","indutype":"문화.취미 - 화원","category":"other"}]},{"lat":"37.493150345","long":"126.78446125","imageIndex":17,"items":[{"name":"아마빌리스 플라워","tel":"031-000-0000","addr":"경기도 부천시 심곡동 110-8번지 1층","indutype":"문화.취미 - 화원","category":"other"},{"name":"옷고름한복/파워피스","tel":"032-611-6117","addr":"경기도 부천시 심곡동 110-8번지","indutype":"의류 - 맞춤복점","category":"other"},{"name":"현대레져스포츠","tel":"032-654-0600","addr":"경기도 부천시 심곡동 110-8번지","indutype":"레져용품 - 스포츠·레져용품","category":"other"}]},{"lat":"37.491843834","long":"126.77960281","imageIndex":17,"items":[{"name":"아벨(AL)라이프","tel":"032-719-7865","addr":"경기도 부천시 심곡동 430-16번지","indutype":"직물 - 옷감·직물","category":"other"},{"name":"아인통상","tel":"031-946-5185","addr":"경기도 부천시 심곡동 430-16번지 1층 매직타월","indutype":"가구 - 일반가구","category":"other"}]},{"lat":"37.485600063","long":"126.78941291","imageIndex":17,"items":[{"name":"아성 트레이드","tel":"032-677-8820","addr":"경기도 부천시 심곡동 124-3번지 2층","indutype":"건축자재 - 조명기구","category":"other"}]},{"lat":"37.486121854","long":"126.77924671","imageIndex":17,"items":[{"name":"아송디자인","tel":"032-611-0099","addr":"경기도 부천시 심곡동 396-2번지","indutype":"서적문구 - 출판 및 인쇄물","category":"other"}]},{"lat":"37.486734348","long":"126.78887826","imageIndex":17,"items":[{"name":"아우토반","tel":"032-665-4661","addr":"경기도 부천시 심곡동 132-29번지","indutype":"용역 서비스 - 종합용역","category":"other"}]},{"lat":"37.485959601","long":"126.78401861","imageIndex":17,"items":[{"name":"아이미하우스","tel":"032-653-3433","addr":"경기도 부천시 심곡동 169-11번지 3층","indutype":"회원제형태 - 기타4","category":"other"}]},{"lat":"37.488234086","long":"126.78132091","imageIndex":17,"items":[{"name":"아이엔지","tel":"032-662-5070","addr":"경기도 부천시 심곡동 377-41번지","indutype":"의류 - 정장","category":"other"}]},{"lat":"37.485486008","long":"126.7812951","imageIndex":17,"items":[{"name":"아이엠샵","tel":"032-661-3369","addr":"경기도 부천시 심곡동 175-17번지 1층 7호","indutype":"의류 - 정장","category":"other"},{"name":"케이스바이케이스(부천1호점)","tel":"","addr":"경기도 부천시 심곡동 175-17번지","indutype":"신변잡화 - 기타잡화","category":"other"}]},{"lat":"37.486822556","long":"126.78294195","imageIndex":17,"items":[{"name":"아이지에이 심곡점","tel":"","addr":"경기도 부천시 심곡동 177-1번지 메디컬프라자 1층 105호","indutype":"유통업 영리 - 편 의 점","category":"other"}]},{"lat":"37.498014315","long":"126.78371203","imageIndex":17,"items":[{"name":"아이지에이부천심곡점","tel":"032-435-3015","addr":"경기도 부천시 심곡동 36-11번지 KS건영아느칸빌 1층 101호","indutype":"서적문구 - 완구점","category":"other"}]},{"lat":"37.486099929","long":"126.78196038","imageIndex":17,"items":[{"name":"아이픽스 부천 아이폰수리센터","tel":"070-8272-6153","addr":"경기도 부천시 심곡동 176-4번지 3층","indutype":"수리서비스 - 사무·통신기기수리","category":"other"}]},{"lat":"37.488266377","long":"126.77933078","imageIndex":17,"items":[{"name":"아지트","tel":"","addr":"경기도 부천시 심곡동 407-1번지 3층 302호","indutype":"서적문구 - 완구점","category":"other"},{"name":"주옷","tel":"032-205-7195","addr":"경기도 부천시 심곡동 407-1번지 지층","indutype":"의류 - 정장","category":"other"},{"name":"현대인쇄","tel":"032-662-7333","addr":"경기도 부천시 심곡동 407-1번지 1층","indutype":"용역 서비스 - 종합용역","category":"other"}]},{"lat":"37.487676867","long":"126.77729729","imageIndex":17,"items":[{"name":"아침사무편의점","tel":"070-8613-7126","addr":"경기도 부천시 심곡동 457-8번지 1층","indutype":"유통업 영리 - 편 의 점","category":"other"}]},{"lat":"37.494096654","long":"126.78460549","imageIndex":17,"items":[{"name":"아크릴사랑","tel":"032-661-9898","addr":"경기도 부천시 심곡동 93-6번지 대림하이츠 1층","indutype":"건축자재 - 기타건축자재","category":"other"},{"name":"태양공인중개사사무소","tel":"032-678-9001","addr":"경기도 부천시 심곡동 93-6번지 대림하이츠","indutype":"용역 서비스 - 부동산 중개·임대","category":"other"}]},{"lat":"37.484929224","long":"126.78715352","imageIndex":17,"items":[{"name":"알파텍시스템","tel":"032-655-9518","addr":"경기도 부천시 심곡동 139-13번지 3층 303호","indutype":"광학제품 - 카메라","category":"other"}]},{"lat":"37.48462507","long":"126.78835288","imageIndex":17,"items":[{"name":"앙상블(ensemble)","tel":"","addr":"경기도 부천시 심곡동 129-14번지 진주원룸 307호","indutype":"의류 - 기타의류","category":"other"}]},{"lat":"37.489983379","long":"126.78205071","imageIndex":17,"items":[{"name":"앳댓타임","tel":"070-8239-2332","addr":"경기도 부천시 심곡동 373-1번지 새청원파크빌 202호","indutype":"용역 서비스 - 종합용역","category":"other"}]},{"lat":"37.488008733","long":"126.78126504","imageIndex":17,"items":[{"name":"언더더스트","tel":"","addr":"경기도 부천시 심곡동 378-35번지 지하1층","indutype":"의류 - 정장","category":"other"}]},{"lat":"37.48606772","long":"126.78401829","imageIndex":17,"items":[{"name":"에고이스트부천점","tel":"032-663-5013","addr":"경기도 부천시 심곡동 169-7번지 1층","indutype":"의류 - 정장","category":"other"}]},{"lat":"37.490793398","long":"126.77682431","imageIndex":17,"items":[{"name":"에벤에셀커텐전문","tel":"032-664-1530","addr":"경기도 부천시 심곡동 327-8번지","indutype":"직물 - 카페트,커튼,천막,지물","category":"other"},{"name":"훈플라워","tel":"032-000-0000","addr":"경기도 부천시 심곡동 327-8번지 1층","indutype":"문화.취미 - 화원","category":"other"}]},{"lat":"37.483624211","long":"126.78793741","imageIndex":17,"items":[{"name":"에어컨365","tel":"","addr":"경기도 부천시 심곡동 127-3번지 삼융아파트 오피스텔","indutype":"용역 서비스 - 기타용역서비스","category":"other"}]},{"lat":"37.486706814","long":"126.78368853","imageIndex":17,"items":[{"name":"에이빌리지","tel":"032-612-8986","addr":"경기도 부천시 심곡동 168-12번지 동우빌딩 1층","indutype":"의류 - 정장","category":"other"}]},{"lat":"37.484933532","long":"126.77977036","imageIndex":17,"items":[{"name":"에이씨에스알(ACSR)","tel":"","addr":"경기도 부천시 심곡동 388-9번지 201호","indutype":"신변잡화 - 기타잡화","category":"other"},{"name":"엠디자인(M design)","tel":"031-000-0000","addr":"경기도 부천시 심곡동 388-9번지 205호","indutype":"건축자재 - 인테리어전문","category":"other"},{"name":"이삭광고","tel":"032-325-3919","addr":"경기도 부천시 심곡동 388-9번지","indutype":"용역 서비스 - 종합용역","category":"other"},{"name":"커리어픽쳐스","tel":"032-875-4780","addr":"경기도 부천시 심곡동 388-9번지 지하1층","indutype":"용역 서비스 - 종합용역","category":"other"}]},{"lat":"37.490953233","long":"126.77560263","imageIndex":17,"items":[{"name":"에이원시스템","tel":"","addr":"경기도 부천시 심곡동 326-7번지 남도빌라트 503호","indutype":"용역 서비스 - 기타용역서비스","category":"other"}]},{"lat":"37.491899337","long":"126.77099759","imageIndex":17,"items":[{"name":"에이콘플러스","tel":"032-666-4377","addr":"경기도 부천시 심곡동 314-4번지 1층","indutype":"건축자재 - 기타건축자재","category":"other"}]},{"lat":"37.488537358","long":"126.7796918","imageIndex":17,"items":[{"name":"에이프릴 플라워","tel":"032-662-8008","addr":"경기도 부천시 심곡동 409-13번지 해성빌딩 1층","indutype":"문화.취미 - 화원","category":"other"},{"name":"원플러스","tel":"032-651-8741","addr":"경기도 부천시 심곡동 409-13번지 해성빌딩 1층","indutype":"유통업 영리 - 편 의 점","category":"other"},{"name":"지피이엘","tel":"032-663-3436","addr":"경기도 부천시 심곡동 409-13번지 해성빌딩 1층 일부","indutype":"신변잡화 - 기타잡화","category":"other"}]},{"lat":"37.486822393","long":"126.78774733","imageIndex":17,"items":[{"name":"에이플 종합 인테리어","tel":"","addr":"경기도 부천시 심곡동 135-9번지","indutype":"건축자재 - 인테리어전문","category":"other"}]},{"lat":"37.484456949","long":"126.79004932","imageIndex":17,"items":[{"name":"에코 부천점","tel":"070-4230-2088","addr":"경기도 부천시 심곡동 489-31번지 1층","indutype":"수리서비스 - 가정용품수리","category":"other"}]},{"lat":"37.485321488","long":"126.78487977","imageIndex":17,"items":[{"name":"에코로바 부천역점","tel":"032-667-8848","addr":"경기도 부천시 심곡동 170-1번지 1층 일부","indutype":"레져용품 - 스포츠·레져용품","category":"other"}]},{"lat":"37.483822285","long":"126.78785769","imageIndex":17,"items":[{"name":"에코생활건강","tel":"032-0000-0000","addr":"경기도 부천시 심곡동 127-16번지 삼성오피스텔 402호","indutype":"신변잡화 - 기타잡화","category":"other"},{"name":"이화디.엔.피","tel":"032-349-9986","addr":"경기도 부천시 심곡동 127-16번지 외2필지 삼성오피스텔 601호","indutype":"서적문구 - 과학기자재","category":"other"}]},{"lat":"37.485099716","long":"126.77713544","imageIndex":17,"items":[{"name":"에코스마트-2","tel":"032-663-1122","addr":"경기도 부천시 심곡동 465-5번지 에코스마트2","indutype":"건축자재 - 부동산 분양","category":"other"}]},{"lat":"37.488678921","long":"126.77363078","imageIndex":17,"items":[{"name":"에코코리아","tel":"032-667-0018","addr":"경기도 부천시 심곡동 345-45번지 지층","indutype":"전기제품 - 기타전기제품","category":"other"}]},{"lat":"37.489876717","long":"126.78283123","imageIndex":17,"items":[{"name":"엔제이북","tel":"","addr":"경기도 부천시 심곡동 356-3번지 507호","indutype":"서적문구 - 일반서적","category":"other"}]},{"lat":"37.48876355","long":"126.77546227","imageIndex":17,"items":[{"name":"엔젤","tel":"032-612-1414","addr":"경기도 부천시 심곡동 339-51번지 1층","indutype":"용역 서비스 - 가례서비스업","category":"other"}]},{"lat":"37.487400936","long":"126.7790733","imageIndex":17,"items":[{"name":"엘리스핑크","tel":"032-667-5157","addr":"경기도 부천시 심곡동 403-8번지 101호","indutype":"의류 - 정장","category":"other"}]},{"lat":"37.4863177914","long":"126.7828303594","imageIndex":17,"items":[{"name":"엘칸토베가본드부천대리점","tel":"032-652-4551","addr":"경기도 부천시 심곡동 177-7번지","indutype":"신변잡화 - 제화","category":"other"}]},{"lat":"37.484955799","long":"126.7869047","imageIndex":17,"items":[{"name":"엠제이클럽","tel":"032-208-6690","addr":"경기도 부천시 심곡동 139-11 216호","indutype":"레져용품 - 스포츠·레져용품","category":"other"}]},{"lat":"37.485842828","long":"126.78421116","imageIndex":17,"items":[{"name":"엠지골프연습장","tel":"032-665-7998","addr":"경기도 부천시 심곡동 169-15번지 6층","indutype":"회원제형태 - 레져업소","category":"other"}]},{"lat":"37.493736259","long":"126.78460654","imageIndex":17,"items":[{"name":"연세복싱","tel":"070-4220-7989","addr":"경기도 부천시 심곡동 93-13번지 3층","indutype":"회원제형태 - 레져업소","category":"other"}]},{"lat":"37.492039414","long":"126.77821139","imageIndex":17,"items":[{"name":"열쇠백화점","tel":"032-611-0303","addr":"경기도 부천시 심곡동 446-2번지 성원빌딩 1층","indutype":"기타 - 기계공구","category":"other"}]},{"lat":"37.487675377","long":"126.786128","imageIndex":17,"items":[{"name":"영광테크놀로지","tel":"032-653-0023","addr":"경기도 부천시 심곡동 152-12번지","indutype":"서적문구 - 일반서적","category":"other"}]},{"lat":"37.486653844","long":"126.77945996","imageIndex":17,"items":[{"name":"영덕액자","tel":"032-653-8016","addr":"경기도 부천시 심곡동 400-4번지","indutype":"건축자재 - 유리","category":"other"}]},{"lat":"37.491039875","long":"126.78330273","imageIndex":17,"items":[{"name":"영동타일","tel":"032-657-6274","addr":"경기도 부천시 심곡동 367-26번지","indutype":"건축자재 - 건축용 요업제품","category":"other"}]},{"lat":"37.492650409","long":"126.7820994","imageIndex":17,"items":[{"name":"영신목재","tel":"032-663-2628","addr":"경기도 부천시 심곡동 103-3번지","indutype":"건축자재 - 기타건축자재","category":"other"}]},{"lat":"37.493762619","long":"126.78424461","imageIndex":17,"items":[{"name":"영애드","tel":"032-7604-6107","addr":"경기도 부천시 심곡동 94-16번지 지층","indutype":"유통업 영리 - 기타유통업","category":"other"},{"name":"작은천사","tel":"032-611-4151","addr":"경기도 부천시 심곡동 94-16번지","indutype":"의류 - 정장","category":"other"}]},{"lat":"37.49192805","long":"126.77185688","imageIndex":17,"items":[{"name":"영인목재","tel":"032-662-8897","addr":"경기도 부천시 심곡동 314-20번지 1층","indutype":"건축자재 - 기타건축자재","category":"other"}]},{"lat":"37.491459647","long":"126.77191486","imageIndex":17,"items":[{"name":"영인홈데코","tel":"032-662-8897","addr":"경기도 부천시 심곡동 320-21번지 지하1층","indutype":"건축자재 - 기타건축자재","category":"other"}]},{"lat":"37.49012751","long":"126.77726731","imageIndex":17,"items":[{"name":"영창삼익중고피아노","tel":"032-668-0022","addr":"경기도 부천시 심곡동 328-12번지","indutype":"레져용품 - 피아노대리점","category":"other"}]},{"lat":"37.488957287","long":"126.78260778","imageIndex":17,"items":[{"name":"영토하우징","tel":"032-613-7970","addr":"경기도 부천시 심곡동 353-15번지 501호","indutype":"건축자재 - 인테리어전문","category":"other"}]},{"lat":"37.487289226","long":"126.77718539","imageIndex":17,"items":[{"name":"영풍전자","tel":"032-667-5454","addr":"경기도 부천시 심곡동 457-31번지","indutype":"전기제품 - 가전제품","category":"other"}]},{"lat":"37.487650059","long":"126.77274068","imageIndex":17,"items":[{"name":"예당종합피아노","tel":"","addr":"경기도 부천시 심곡동 357-4번지","indutype":"수리서비스 - 기타수리서비스","category":"other"}]},{"lat":"37.486279425","long":"126.78644862","imageIndex":17,"items":[{"name":"예뻐지는 가게","tel":"032-321-0956","addr":"경기도 부천시 심곡동 147-46번지 예일맨션 나동 302호","indutype":"회원제형태 - 기타1","category":"other"}]},{"lat":"37.487848162","long":"126.77735331","imageIndex":17,"items":[{"name":"예원유니폼","tel":"032-662-8770","addr":"경기도 부천시 심곡동 456-17번지","indutype":"의류 - 단체복","category":"other"}]},{"lat":"37.48884395","long":"126.77982657","imageIndex":17,"items":[{"name":"예은기획","tel":"070-5033-0710","addr":"경기도 부천시 심곡동 409-2번지 대원빌딩 3층","indutype":"용역 서비스 - 종합용역","category":"other"}]},{"lat":"37.491264294","long":"126.77338543","imageIndex":17,"items":[{"name":"오성공사","tel":"032-613-5236","addr":"경기도 부천시 심곡동 323-9번지","indutype":"건축자재 - 유리","category":"other"}]},{"lat":"37.484318816","long":"126.78349199","imageIndex":17,"items":[{"name":"오에스티(OST)부천점","tel":"032-651-0865","addr":"경기도 부천시 심곡동 172-15번지 1층","indutype":"신변잡화 - 시계","category":"other"}]},{"lat":"37.488120652","long":"126.78329996","imageIndex":17,"items":[{"name":"올포유 부천북부점","tel":"032-666-9080","addr":"경기도 부천시 심곡동 349-6번지","indutype":"레져용품 - 스포츠·레져용품","category":"other"},{"name":"크로커다일 대리점","tel":"032-612-1881","addr":"경기도 부천시 심곡동 349-6번지 1층","indutype":"의류 - 스포츠의류","category":"other"}]},{"lat":"37.487599463","long":"126.78404775","imageIndex":17,"items":[{"name":"옹골진","tel":"032-663-7942","addr":"경기도 부천시 심곡동 164-15번지","indutype":"의류 - 정장","category":"other"}]},{"lat":"37.490926964","long":"126.77599847","imageIndex":17,"items":[{"name":"용기종합상사","tel":"032-662-0051","addr":"경기도 부천시 심곡동 326-13번지 1층","indutype":"유통업 영리 - 기타유통업","category":"other"}]},{"lat":"37.484122482","long":"126.78943973","imageIndex":17,"items":[{"name":"우리나비","tel":"070-8879-7093","addr":"경기도 부천시 심곡동 489-62번지","indutype":"서적문구 - 출판 및 인쇄물","category":"other"}]},{"lat":"37.486926498","long":"126.78555351","imageIndex":17,"items":[{"name":"우리인테리어","tel":"032-656-2797","addr":"경기도 부천시 심곡동 149-6번지 1층 102호","indutype":"건축자재 - 인테리어전문","category":"other"}]},{"lat":"37.496871862","long":"126.78468788","imageIndex":17,"items":[{"name":"우리종합상사","tel":"032-675-2191","addr":"경기도 부천시 심곡동 88-30번지 1층","indutype":"용역 서비스 - 종합용역","category":"other"}]},{"lat":"37.486539587","long":"126.77623787","imageIndex":17,"items":[{"name":"우성광고","tel":"032-612-5778","addr":"경기도 부천시 심곡동 360-10번지","indutype":"용역 서비스 - 종합용역","category":"other"}]},{"lat":"37.49157052","long":"126.77332795","imageIndex":17,"items":[{"name":"우성천막","tel":"032-663-9100","addr":"경기도 부천시 심곡동 305-6번지","indutype":"직물 - 카페트,커튼,천막,지물","category":"other"}]},{"lat":"37.49570783","long":"126.78374139","imageIndex":17,"items":[{"name":"우신건설","tel":"032-653-6865","addr":"경기도 부천시 심곡동 92-6번지 우신화이트빌라 503호","indutype":"용역 서비스 - 기타용역서비스","category":"other"}]},{"lat":"37.496563201","long":"126.78343356","imageIndex":17,"items":[{"name":"우신종합","tel":"032-655-5111","addr":"경기도 부천시 심곡동 40-41번지","indutype":"용역 서비스 - 기타용역서비스","category":"other"}]},{"lat":"37.4906208","long":"126.77144253","imageIndex":17,"items":[{"name":"우일시스템","tel":"032-261-8842","addr":"경기도 부천시 심곡동 321-4번지 스타파크힐","indutype":"전기제품 - 냉열기기","category":"other"}]},{"lat":"37.485930049","long":"126.77787918","imageIndex":17,"items":[{"name":"우주에어탑","tel":"032-652-0002","addr":"경기도 부천시 심곡동 459-5번지","indutype":"건축자재 - 인테리어전문","category":"other"}]},{"lat":"37.494013512","long":"126.78349756","imageIndex":17,"items":[{"name":"워시맨","tel":"032-665-9576","addr":"경기도 부천시 심곡동 100-31번지","indutype":"용역 서비스 - 종합용역","category":"other"}]},{"lat":"37.489292623","long":"126.77416035","imageIndex":17,"items":[{"name":"워싱턴디씨백화점","tel":"032-655-7015","addr":"경기도 부천시 심곡동 339번지 1층","indutype":"신변잡화 - 기타잡화","category":"other"}]},{"lat":"37.488120229","long":"126.78796975","imageIndex":17,"items":[{"name":"원경불교사","tel":"032-684-8009","addr":"경기도 부천시 심곡동 188-4번지 1층","indutype":"신변잡화 - 기념품점","category":"other"}]},{"lat":"37.493124601","long":"126.78032269","imageIndex":17,"items":[{"name":"원낚시프라자","tel":"032-612-0554","addr":"경기도 부천시 심곡동 440-2번지","indutype":"레져용품 - 스포츠·레져용품","category":"other"},{"name":"원낚시프라자","tel":"032-656-0555","addr":"경기도 부천시 심곡동 440-2번지","indutype":"레져용품 - 스포츠·레져용품","category":"other"}]},{"lat":"37.488987759","long":"126.78446206","imageIndex":17,"items":[{"name":"원더우먼","tel":"032-653-0214","addr":"경기도 부천시 심곡동 158-8번지 녹원오피스텔 1층 101호","indutype":"의류 - 정장","category":"other"}]},{"lat":"37.48598575","long":"126.78354365","imageIndex":17,"items":[{"name":"원라인","tel":"031-000-0000","addr":"경기도 부천시 심곡동 168-8번지 삼영빌딩 1층","indutype":"사무통신 - 통신기기","category":"other"}]},{"lat":"37.488147887","long":"126.77391508","imageIndex":17,"items":[{"name":"원봉워터피아(한국정수기)","tel":"032-656-5001","addr":"경기도 부천시 심곡동 347번지 1층","indutype":"주방용구 - 정수기","category":"other"}]},{"lat":"37.487011952","long":"126.78304315","imageIndex":17,"items":[{"name":"웰메이드부천북부점","tel":"032-661-6663","addr":"경기도 부천시 심곡동 190-18번지","indutype":"레져용품 - 스포츠·레져용품","category":"other"}]},{"lat":"37.493924839","long":"126.78426676","imageIndex":17,"items":[{"name":"웰콘서트","tel":"","addr":"경기도 부천시 심곡동 94-13번지 지하동","indutype":"문화.취미 - 티켓","category":"other"}]},{"lat":"37.48570506","long":"126.77801554","imageIndex":17,"items":[{"name":"위드미 부천 심곡2동점","tel":"032-654-2408","addr":"경기도 부천시 심곡동 391-9번지","indutype":"유통업 영리 - 편 의 점","category":"other"}]},{"lat":"37.488400261","long":"126.77866326","imageIndex":17,"items":[{"name":"위드미 부천대 정문점","tel":"032-613-8065","addr":"경기도 부천시 심곡동 407-8번지","indutype":"유통업 영리 - 편 의 점","category":"other"}]},{"lat":"37.495285497","long":"126.78435326","imageIndex":17,"items":[{"name":"위드유","tel":"070-8139-1633","addr":"경기도 부천시 심곡동 92-44번지","indutype":"직물 - 침구·수예점","category":"other"}]},{"lat":"37.490760358","long":"126.78319047","imageIndex":17,"items":[{"name":"위아컴퍼니(WEA Company)","tel":"032-668-2775","addr":"경기도 부천시 심곡동 367-30번지 2층","indutype":"사무통신 - 컴퓨터","category":"other"}]},{"lat":"37.494376273","long":"126.7847743","imageIndex":17,"items":[{"name":"유아사진관","tel":"032-611-2222","addr":"경기도 부천시 심곡동 93-4번지","indutype":"광학제품 - 사진관","category":"other"}]},{"lat":"37.486348938","long":"126.78021842","imageIndex":17,"items":[{"name":"유어뮤즈(Your Muse)","tel":"","addr":"경기도 부천시 심곡동 382-9번지 1층","indutype":"의류 - 정장","category":"other"}]},{"lat":"37.486092765","long":"126.77816136","imageIndex":17,"items":[{"name":"유진기획","tel":"032-614-4513","addr":"경기도 부천시 심곡동 398-3번지","indutype":"용역 서비스 - 종합용역","category":"other"}]},{"lat":"37.4853980874","long":"126.7824599399","imageIndex":17,"items":[{"name":"유현패션","tel":"032-612-4490","addr":"경기도 부천시 심곡동 175-6번지 3층 60","indutype":"의류 - 정장","category":"other"}]},{"lat":"37.490286727","long":"126.78529502","imageIndex":17,"items":[{"name":"은우","tel":"","addr":"경기도 부천시 심곡동 121-5번지 시민의강제1공영주차장 301동 지층 115호","indutype":"신변잡화 - 기타잡화","category":"other"}]},{"lat":"37.492202191","long":"126.78332194","imageIndex":17,"items":[{"name":"을지난원","tel":"032-656-1148","addr":"경기도 부천시 심곡동 98-5번지 2층","indutype":"문화.취미 - 화원","category":"other"}]},{"lat":"37.49192733","long":"126.78088031","imageIndex":17,"items":[{"name":"이네홈 (innehome)","tel":"031-662-0589","addr":"경기도 부천시 심곡동 431-6번지 우성홈타운 1층","indutype":"문화.취미 - 민예·공예품","category":"other"},{"name":"인더휠(IN THE WHEEL)","tel":"032-655-0984","addr":"경기도 부천시 심곡동 431-6번지 우성홈타운 1층","indutype":"레져용품 - 스포츠·레져용품","category":"other"}]},{"lat":"37.490898693","long":"126.78008053","imageIndex":17,"items":[{"name":"이레공예","tel":"031-311-7165","addr":"경기도 부천시 심곡동 428-8번지 예은센트러빌 303호","indutype":"가구 - 기타가구","category":"other"}]},{"lat":"37.486209936","long":"126.77818362","imageIndex":17,"items":[{"name":"이레철물","tel":"032-666-3335","addr":"경기도 부천시 심곡동 398-18번지","indutype":"기타 - 기계공구","category":"other"}]},{"lat":"37.487759731","long":"126.78301835","imageIndex":17,"items":[{"name":"이마트24 심곡북부점","tel":"","addr":"경기도 부천시 심곡동 190-3번지 1층","indutype":"유통업 영리 - 편 의 점","category":"other"},{"name":"이마트24 심곡북부점","tel":"032-1111-1111","addr":"경기도 부천시 심곡동 190-3번지","indutype":"유통업 영리 - 편 의 점","category":"other"}]},{"lat":"37.488621063","long":"126.78593305","imageIndex":17,"items":[{"name":"이마트24 원미심곡점","tel":"032-0000-0000","addr":"경기도 부천시 심곡동 153-3번지","indutype":"유통업 영리 - 편 의 점","category":"other"}]},{"lat":"37.486484743","long":"126.78540781","imageIndex":17,"items":[{"name":"이마트24심곡중심점","tel":"032-613-1730","addr":"경기도 부천시 심곡동 147-7번지","indutype":"유통업 영리 - 편 의 점","category":"other"}]},{"lat":"37.487849947","long":"126.7735994","imageIndex":17,"items":[{"name":"이엠테크놀로지","tel":"032-679-9904","addr":"경기도 부천시 심곡동 346-10번지 신화빌라","indutype":"용역 서비스 - 사무서비스","category":"other"}]},{"lat":"37.489511257","long":"126.78012988","imageIndex":17,"items":[{"name":"이지넥스인터네셔널","tel":"031-702-1542","addr":"경기도 부천시 심곡동 422-10번지 B1호","indutype":"신변잡화 - 기타잡화","category":"other"}]},{"lat":"37.48742771","long":"126.78374296","imageIndex":17,"items":[{"name":"이지댄스학원","tel":"032-611-3376","addr":"경기도 부천시 심곡동 164-12번지 2층","indutype":"회원제형태 - 레져업소","category":"other"}]},{"lat":"37.4912023","long":"126.77393968","imageIndex":17,"items":[{"name":"인켈바텔부천센터","tel":"032-654-6601","addr":"경기도 부천시 심곡동 323-13번지","indutype":"전기제품 - 가전제품","category":"other"}]},{"lat":"37.485654003","long":"126.77959861","imageIndex":17,"items":[{"name":"임대나라공인중개사사무소","tel":"032-655-3331","addr":"경기도 부천시 심곡동 394-21번지","indutype":"용역 서비스 - 부동산 중개·임대","category":"other"}]},{"lat":"37.491122065","long":"126.77438092","imageIndex":17,"items":[{"name":"잉글랜드제화","tel":"032-663-3648","addr":"경기도 부천시 심곡동 323-19번지 1층","indutype":"신변잡화 - 제화","category":"other"}]},{"lat":"37.485736151","long":"126.78499163","imageIndex":17,"items":[{"name":"자연애","tel":"032-462-1205","addr":"경기도 부천시 심곡동 169-9번지 2층 일부","indutype":"의류 - 내의판매","category":"other"},{"name":"제이에스모바일(JS mabile)","tel":"032-299-3777","addr":"경기도 부천시 심곡동 169-9번지 1층","indutype":"사무통신 - 통신기기","category":"other"},{"name":"조일라사","tel":"032-668-6051","addr":"경기도 부천시 심곡동 169-9","indutype":"의류 - 정장","category":"other"}]},{"lat":"37.486788161","long":"126.78874243","imageIndex":17,"items":[{"name":"자전거여행","tel":"070-7345-0181","addr":"경기도 부천시 심곡동 132-1번지 1층","indutype":"레져용품 - 스포츠·레져용품","category":"other"}]},{"lat":"37.493952537","long":"126.78462853","imageIndex":17,"items":[{"name":"장판월드","tel":"032-667-8803","addr":"경기도 부천시 심곡동 93-7번지 1층","indutype":"직물 - 카페트,커튼,천막,지물","category":"other"}]},{"lat":"37.487516043","long":"126.78279292","imageIndex":17,"items":[{"name":"재웅나라","tel":"032-612-4390","addr":"경기도 부천시 심곡동 190-7번지","indutype":"의류 - 정장","category":"other"}]},{"lat":"37.490509257","long":"126.78382442","imageIndex":17,"items":[{"name":"전자담배코리아데캉부천역점","tel":"032-665-6885","addr":"경기도 부천시 심곡동 367-12번지","indutype":"기타 - 기타 전문점","category":"other"}]},{"lat":"37.489125325","long":"126.78577329","imageIndex":17,"items":[{"name":"점퍼네 애완소라게","tel":"032-213-8548","addr":"경기도 부천시 심곡동 155-16번지 2층","indutype":"문화.취미 - 애완동물","category":"other"}]},{"lat":"37.48740295","long":"126.77540986","imageIndex":17,"items":[{"name":"정금당","tel":"032-655-7383","addr":"경기도 부천시 심곡동 351번지","indutype":"신변잡화 - 시계","category":"other"}]},{"lat":"37.490958975","long":"126.78340473","imageIndex":17,"items":[{"name":"정도상사","tel":"032-665-0119","addr":"경기도 부천시 심곡동 367-28번지","indutype":"건축자재 - 기타건축자재","category":"other"}]},{"lat":"37.485211571","long":"126.78390773","imageIndex":17,"items":[{"name":"정우광고","tel":"032-657-2928","addr":"경기도 부천시 심곡동 170-20번지","indutype":"용역 서비스 - 종합용역","category":"other"},{"name":"중고폰매입 리퍼닷컴 부천역점","tel":"","addr":"경기도 부천시 심곡동 170-20번지 3층 313호","indutype":"수리서비스 - 사무·통신기기수리","category":"other"}]},{"lat":"37.493410246","long":"126.77890837","imageIndex":17,"items":[{"name":"정훈기계","tel":"032-653-2869","addr":"경기도 부천시 심곡동 443-21번지 은하빌라 가동 202호","indutype":"회원제형태 - 기타4","category":"other"}]},{"lat":"37.49459006","long":"126.78345065","imageIndex":17,"items":[{"name":"제이드스토리","tel":"070-7556-7577","addr":"경기도 부천시 심곡동 96-4번지 신흥연립 A동 102호","indutype":"광학제품 - 사진관","category":"other"}]},{"lat":"37.492567881","long":"126.78133072","imageIndex":17,"items":[{"name":"제이말렌","tel":"031-000-0000","addr":"경기도 부천시 심곡동 438-5번지 4층","indutype":"문화.취미 - 문화취미기타","category":"other"}]},{"lat":"37.492262721","long":"126.77719304","imageIndex":17,"items":[{"name":"제이아트","tel":"032-662-6279","addr":"경기도 부천시 심곡동 297-24번지 2층","indutype":"문화.취미 - 문화취미기타","category":"other"}]},{"lat":"37.491205776","long":"126.7711015","imageIndex":17,"items":[{"name":"조광종합디자인","tel":"032-652-1414","addr":"경기도 부천시 심곡동 320-5번지","indutype":"건축자재 - 인테리어전문","category":"other"}]},{"lat":"37.490007522","long":"126.77577511","imageIndex":17,"items":[{"name":"조은클리닝","tel":"032-612-0825","addr":"경기도 부천시 심곡동 325-17번지","indutype":"용역 서비스 - 기타용역서비스","category":"other"}]},{"lat":"37.48687791","long":"126.77413379","imageIndex":17,"items":[{"name":"종합씽크공장","tel":"032-657-6363","addr":"경기도 부천시 심곡동 358-10번지","indutype":"주방용구 - 주방용구","category":"other"}]},{"lat":"37.4872587482","long":"126.7753876875","imageIndex":17,"items":[{"name":"종합정보통신","tel":"0032-0652-4466","addr":"경기도 부천시 심곡동 351-2번지","indutype":"별도관리 - 자체물품대금","category":"other"}]},{"lat":"37.489647019","long":"126.77571966","imageIndex":17,"items":[{"name":"주노금속","tel":"032-614-0209","addr":"경기도 부천시 심곡동 330-11번지 1층 102호","indutype":"건축자재 - 기타건축자재","category":"other"}]},{"lat":"37.491734915","long":"126.78399045","imageIndex":17,"items":[{"name":"주식회사 로어케이씨테크","tel":"032-710-5709","addr":"경기도 부천시 심곡동 105-2번지 보림빌딩 3층","indutype":"신변잡화 - 기타잡화","category":"other"}]},{"lat":"37.491209127","long":"126.7774902","imageIndex":17,"items":[{"name":"주식회사 마카롱","tel":"032-661-8992","addr":"경기도 부천시 심곡동 298-20번지 1호","indutype":"서적문구 - 완구점","category":"other"}]},{"lat":"37.486234464","long":"126.78163209","imageIndex":17,"items":[{"name":"주식회사 모옌 부천점","tel":"031-000-0000","addr":"경기도 부천시 심곡동 176-10번지","indutype":"의류 - 정장","category":"other"}]},{"lat":"37.485792622","long":"126.78630304","imageIndex":17,"items":[{"name":"주식회사 미랜코리아","tel":"032-657-8787","addr":"경기도 부천시 심곡동 146-1번지 태정빌딩 5층","indutype":"주방용구 - 주방용구","category":"other"}]},{"lat":"37.49129152","long":"126.78296277","imageIndex":17,"items":[{"name":"주식회사 사랑작업환경연구소","tel":"032-651-0035","addr":"경기도 부천시 심곡동 367-13번지 문화빌딩 3층","indutype":"용역 서비스 - 기타용역서비스","category":"other"}]},{"lat":"37.495508731","long":"126.78326703","imageIndex":17,"items":[{"name":"주식회사 엘에스","tel":"032-351-6920","addr":"경기도 부천시 심곡동 92-17번지","indutype":"사무통신 - 컴퓨터","category":"other"},{"name":"하린스카프","tel":"032-678-2320","addr":"경기도 부천시 심곡동 92-17번지","indutype":"의류 - 기타의류","category":"other"}]},{"lat":"37.490877355","long":"126.77832795","imageIndex":17,"items":[{"name":"주식회사 지구촌종합관리","tel":"032-654-1951","addr":"경기도 부천시 심곡동 448-30번지","indutype":"용역 서비스 - 종합용역","category":"other"}]},{"lat":"37.490460226","long":"126.78168747","imageIndex":17,"items":[{"name":"주식회사 지음","tel":"032-323-7303","addr":"경기도 부천시 심곡동 372-17번지","indutype":"용역 서비스 - 사무서비스","category":"other"}]},{"lat":"37.485149513","long":"126.77963404","imageIndex":17,"items":[{"name":"주식회사 코레드테크","tel":"032-612-7838","addr":"경기도 부천시 심곡동 393-1번지","indutype":"건축자재 - 조명기구","category":"other"}]},{"lat":"37.487122315","long":"126.77943595","imageIndex":17,"items":[{"name":"주식회사 투모로우스토리","tel":"070-4025-0609","addr":"경기도 부천시 심곡동 403-3번지 2층","indutype":"건축자재 - 인테리어전문","category":"other"}]},{"lat":"37.497395665","long":"126.78535355","imageIndex":17,"items":[{"name":"주식회사나나렌트카","tel":"032-668-6633","addr":"경기도 부천시 심곡동 78-3번지","indutype":"여행 - 렌터카","category":"other"}]},{"lat":"37.493618859","long":"126.78445988","imageIndex":17,"items":[{"name":"주식회사맥스플러스","tel":"070-4618-7314","addr":"경기도 부천시 심곡동 93-10번지 1층","indutype":"회원제형태 - 기타1","category":"other"}]},{"lat":"37.485733589","long":"126.77410336","imageIndex":17,"items":[{"name":"주식회사우신","tel":"032-656-8577","addr":"경기도 부천시 심곡동 359-19번지 1층","indutype":"용역 서비스 - 기타용역서비스","category":"other"}]},{"lat":"37.497511563","long":"126.78468602","imageIndex":17,"items":[{"name":"주연시스템","tel":"032-611-6233","addr":"경기도 부천시 심곡동 82-6번지 1층","indutype":"사무통신 - 컴퓨터","category":"other"}]},{"lat":"37.48806592","long":"126.7829383","imageIndex":17,"items":[{"name":"중고명품브랜드샵","tel":"032-661-4898","addr":"경기도 부천시 심곡동 350-9번지 1층","indutype":"의류 - 정장","category":"other"}]},{"lat":"37.493869278","long":"126.77865822","imageIndex":17,"items":[{"name":"중고모든전자직거래","tel":"032-666-6649","addr":"경기도 부천시 심곡동 442-5번지","indutype":"전기제품 - 가전제품","category":"other"}]},{"lat":"37.48848494","long":"126.77582494","imageIndex":17,"items":[{"name":"중동중부센타","tel":"032-667-7000","addr":"경기도 부천시 심곡동 343-1번지","indutype":"서적문구 - 정기간행물","category":"other"}]},{"lat":"37.491620075","long":"126.77102107","imageIndex":17,"items":[{"name":"지능기획","tel":"032-662-5693","addr":"경기도 부천시 심곡동 320-11번지","indutype":"건축자재 - 인테리어전문","category":"other"}]},{"lat":"37.486984365","long":"126.7876338","imageIndex":17,"items":[{"name":"지니스포츠","tel":"032-661-6644","addr":"경기도 부천시 심곡동 135-25번지 2층 일부","indutype":"레져용품 - 스포츠·레져용품","category":"other"}]},{"lat":"37.489875961","long":"126.77297131","imageIndex":17,"items":[{"name":"지케이32","tel":"070-5043-7867","addr":"경기도 부천시 심곡동 334-25번지 301호","indutype":"가구 - 기타가구","category":"other"}]},{"lat":"37.484929038","long":"126.78705176","imageIndex":17,"items":[{"name":"진문구마트","tel":"032-6511-4400","addr":"경기도 부천시 심곡동 139-12번지","indutype":"서적문구 - 문구용품","category":"other"}]},{"lat":"37.490512639","long":"126.7856562","imageIndex":17,"items":[{"name":"진빌당구재료","tel":"032-206-4939","addr":"경기도 부천시 심곡동 120-21번지 2층 202호","indutype":"레져용품 - 스포츠·레져용품","category":"other"}]},{"lat":"37.489873843","long":"126.77188582","imageIndex":17,"items":[{"name":"진세상사","tel":"032-321-5314","addr":"경기도 부천시 심곡동 335-43번지 연경빌딩 203호","indutype":"기타 - 기계공구","category":"other"}]},{"lat":"37.49095633","long":"126.77254962","imageIndex":17,"items":[{"name":"진컴퍼니(Jin company)","tel":"","addr":"경기도 부천시 심곡동 322-48번지 3층","indutype":"용역 서비스 - 종합용역","category":"other"}]},{"lat":"37.485703641","long":"126.78691385","imageIndex":17,"items":[{"name":"진화고객지원센타","tel":"032-666-3080","addr":"경기도 부천시 심곡동 138-15번지 현대빌리지 302호","indutype":"기타 - 기계공구","category":"other"}]},{"lat":"37.495286583","long":"126.78494127","imageIndex":17,"items":[{"name":"짱정보통신","tel":"032-661-1184","addr":"경기도 부천시 심곡동 89-13번지","indutype":"사무통신 - 통신기기","category":"other"}]},{"lat":"37.488847648","long":"126.78179399","imageIndex":17,"items":[{"name":"착한간판","tel":"032-203-7983","addr":"경기도 부천시 심곡동 376-14번지 삼양빌딩 1층","indutype":"용역 서비스 - 종합용역","category":"other"}]},{"lat":"37.486264855","long":"126.77863573","imageIndex":17,"items":[{"name":"창대중고알뜰매장","tel":"032-613-4843","addr":"경기도 부천시 심곡동 398-6번지","indutype":"전기제품 - 가전제품","category":"other"}]},{"lat":"37.48917475","long":"126.77377626","imageIndex":17,"items":[{"name":"창성","tel":"032-614-1758","addr":"경기도 부천시 심곡동 336-27번지","indutype":"전기제품 - 기타전기제품","category":"other"}]},{"lat":"37.491397317","long":"126.78171863","imageIndex":17,"items":[{"name":"천문사","tel":"032-612-7222","addr":"경기도 부천시 심곡동 369-4번지 정곡아트빌 401호","indutype":"기타 - 비영리/대상","category":"other"}]},{"lat":"37.486314254","long":"126.77619333","imageIndex":17,"items":[{"name":"천연염색연구원","tel":"032-662-2310","addr":"경기도 부천시 심곡동 360-17번지","indutype":"회원제형태 - 기타4","category":"other"}]},{"lat":"37.492175476","long":"126.78349163","imageIndex":17,"items":[{"name":"천우화원","tel":"032-654-6514","addr":"경기도 부천시 심곡동 98-3번지","indutype":"문화.취미 - 화원","category":"other"}]},{"lat":"37.488735274","long":"126.78434972","imageIndex":17,"items":[{"name":"청우개발주식회사","tel":"032-652-4774","addr":"경기도 부천시 심곡동 161-3번지","indutype":"용역 서비스 - 기타용역서비스","category":"other"}]},{"lat":"37.489098674","long":"126.78112613","imageIndex":17,"items":[{"name":"청화산업","tel":"032-662-2367","addr":"경기도 부천시 심곡동 376-25번지 3층","indutype":"용역 서비스 - 종합용역","category":"other"}]},{"lat":"37.48915165","long":"126.78054931","imageIndex":17,"items":[{"name":"충남인테리어","tel":"032-655-8882","addr":"경기도 부천시 심곡동 420-16번지","indutype":"건축자재 - 인테리어전문","category":"other"}]},{"lat":"37.492179819","long":"126.78099264","imageIndex":17,"items":[{"name":"충남철물전기","tel":"032-664-0234","addr":"경기도 부천시 심곡동 438-11번지 1층","indutype":"건축자재 - 목재·석재·철물","category":"other"}]},{"lat":"37.486126494","long":"126.78171156","imageIndex":17,"items":[{"name":"카우보이","tel":"032-351-5178","addr":"경기도 부천시 심곡동 176-9번지","indutype":"의류 - 기타의류","category":"other"}]},{"lat":"37.487127901","long":"126.78240963","imageIndex":17,"items":[{"name":"카페엔","tel":"032-665-3346","addr":"경기도 부천시 심곡동 180-16번지 2층","indutype":"용역 서비스 - 부동산 중개·임대","category":"other"}]},{"lat":"37.486377912","long":"126.78610913","imageIndex":17,"items":[{"name":"컴아저씨","tel":"070-7804-0020","addr":"경기도 부천시 심곡동 147-1번지 1층","indutype":"사무통신 - 컴퓨터","category":"other"}]},{"lat":"37.490432527","long":"126.77657664","imageIndex":17,"items":[{"name":"컴퓨터갤러리119","tel":"","addr":"경기도 부천시 심곡동 327-34번지","indutype":"수리서비스 - 사무·통신기기수리","category":"other"}]},{"lat":"37.487069051","long":"126.78468248","imageIndex":17,"items":[{"name":"케이팝뮤직엔터테인먼트","tel":"070-4197-7722","addr":"경기도 부천시 심곡동 165-2번지 지층 지하1층","indutype":"문화.취미 - 티켓","category":"other"}]},{"lat":"37.487314422","long":"126.78582376","imageIndex":17,"items":[{"name":"코리아무빙","tel":"070-7355-6249","addr":"경기도 부천시 심곡동 150-18번지 노마빌딩 1층","indutype":"건축자재 - 인테리어전문","category":"other"}]},{"lat":"37.487789654","long":"126.78457862","imageIndex":17,"items":[{"name":"큐티파이","tel":"032-653-7112","addr":"경기도 부천시 심곡동 162-22번지 1층","indutype":"의류 - 아동의류","category":"other"},{"name":"파인비","tel":"031-221-8735","addr":"경기도 부천시 심곡동 162-22번지 1층","indutype":"사무통신 - 컴퓨터","category":"other"},{"name":"파인비 주식회사","tel":"032-221-8735","addr":"경기도 부천시 심곡동 162-22번지","indutype":"레져용품 - 스포츠·레져용품","category":"other"}]},{"lat":"37.487232938","long":"126.78560916","imageIndex":17,"items":[{"name":"크린토피아","tel":"032-611-1222","addr":"경기도 부천시 심곡동 150-4번지","indutype":"수리서비스 - 세탁소","category":"other"}]},{"lat":"37.489625726","long":"126.77402364","imageIndex":17,"items":[{"name":"크린토피아 부천대점","tel":"032-288-1991","addr":"경기도 부천시 심곡동 334-9번지 1층 일부","indutype":"수리서비스 - 세탁소","category":"other"}]},{"lat":"37.487043018","long":"126.78038596","imageIndex":17,"items":[{"name":"클라우드타임","tel":"","addr":"경기도 부천시 심곡동 380-21번지 로뎀빌딩 3층","indutype":"유통업 영리 - 편 의 점","category":"other"}]},{"lat":"37.489433237","long":"126.78663174","imageIndex":17,"items":[{"name":"클린에어","tel":"070-8221-2238","addr":"경기도 부천시 심곡동 181-3번지 1층","indutype":"용역 서비스 - 기타용역서비스","category":"other"}]},{"lat":"37.486211223","long":"126.77415843","imageIndex":17,"items":[{"name":"타임에스","tel":"","addr":"경기도 부천시 심곡동 359-24번지","indutype":"수리서비스 - 기타수리서비스","category":"other"}]},{"lat":"37.485599294","long":"126.77454472","imageIndex":17,"items":[{"name":"탄젠트","tel":"070-8258-6778","addr":"경기도 부천시 심곡동 361-22번지 예일하이츠 나동 302호","indutype":"용역 서비스 - 사무서비스","category":"other"}]},{"lat":"37.4975389053","long":"126.7848555684","imageIndex":17,"items":[{"name":"탑정보통신","tel":"032-667-2070","addr":"경기도 부천시 심곡동 82-5번지101호","indutype":"사무통신 - 통신기기","category":"other"}]},{"lat":"37.487678719","long":"126.77826968","imageIndex":17,"items":[{"name":"태양기업","tel":"032-657-2937","addr":"경기도 부천시 심곡동 456-15번지","indutype":"전기제품 - 기타전기제품","category":"other"}]},{"lat":"37.485181905","long":"126.77771183","imageIndex":17,"items":[{"name":"태양세탁","tel":"032-664-2143","addr":"경기도 부천시 심곡동 465-23번지","indutype":"수리서비스 - 세탁소","category":"other"}]},{"lat":"37.491646772","long":"126.77085137","imageIndex":17,"items":[{"name":"태진네트웍스","tel":"032-668-0600","addr":"경기도 부천시 심곡동 320번지","indutype":"사무통신 - 통신기기","category":"other"}]},{"lat":"37.490788522","long":"126.77899535","imageIndex":17,"items":[{"name":"태진상사","tel":"032-322-9477","addr":"경기도 부천시 심곡동 448-36번지 1층","indutype":"건축자재 - 목재·석재·철물","category":"other"}]},{"lat":"37.487261697","long":"126.7816856","imageIndex":17,"items":[{"name":"테라스","tel":"032-661-1037","addr":"경기도 부천시 심곡동 180-14번지","indutype":"용역 서비스 - 부동산 중개·임대","category":"other"}]},{"lat":"37.485598788","long":"126.77898822","imageIndex":17,"items":[{"name":"테라스크린","tel":"032-203-9833","addr":"경기도 부천시 심곡동 391-19번지 1층 4호","indutype":"수리서비스 - 세탁소","category":"other"}]},{"lat":"37.48867925","long":"126.77380039","imageIndex":17,"items":[{"name":"토탈공구","tel":"032-668-0945","addr":"경기도 부천시 심곡동 345-11번지","indutype":"기타 - 기계공구","category":"other"}]},{"lat":"37.487321861","long":"126.77541011","imageIndex":17,"items":[{"name":"투라인레벨AS점","tel":"032-613-3980","addr":"경기도 부천시 심곡동 351-1번지 지층","indutype":"기타 - 기계공구","category":"other"}]},{"lat":"37.484842124","long":"126.78388619","imageIndex":17,"items":[{"name":"티유넷","tel":"032-611-0310","addr":"경기도 부천시 심곡동 171-6번지","indutype":"전기제품 - 가전제품","category":"other"}]},{"lat":"37.492840518","long":"126.77780191","imageIndex":17,"items":[{"name":"티티존","tel":"070-4897-7127","addr":"경기도 부천시 심곡동 296-7번지 영제빌딩 501호","indutype":"레져용품 - 스포츠·레져용품","category":"other"}]},{"lat":"37.490650364","long":"126.78218444","imageIndex":17,"items":[{"name":"팅클로사","tel":"070-8727-1999","addr":"경기도 부천시 심곡동 371-1번지 탑빌라 501호","indutype":"회원제형태 - 기타4","category":"other"}]},{"lat":"37.494480363","long":"126.78260287","imageIndex":17,"items":[{"name":"파랑스튜디오","tel":"032-323-1447","addr":"경기도 부천시 심곡동 107-30번지","indutype":"광학제품 - 사진관","category":"other"}]},{"lat":"37.488343083","long":"126.7866575","imageIndex":17,"items":[{"name":"파워텍코리아","tel":"032-614-1180","addr":"경기도 부천시 심곡동 800번지 하나리아벨주상복합아파트 1층 103호","indutype":"전기제품 - 가전제품","category":"other"}]},{"lat":"37.486233531","long":"126.7811346","imageIndex":17,"items":[{"name":"퍼플그레이 (Purple Gray)","tel":"032-1234-5678","addr":"경기도 부천시 심곡동 382-3번지 유원빌딩 1동 107호","indutype":"의류 - 정장","category":"other"}]},{"lat":"37.486653635","long":"126.78416357","imageIndex":17,"items":[{"name":"페이스독","tel":"032-613-7979","addr":"경기도 부천시 심곡동 167-2번지 3층","indutype":"문화.취미 - 애완동물","category":"other"}]},{"lat":"37.486597187","long":"126.78777059","imageIndex":17,"items":[{"name":"페인팅포유","tel":"","addr":"경기도 부천시 심곡동 136-1번지 장호연립 207호","indutype":"용역 서비스 - 기타용역서비스","category":"other"}]},{"lat":"37.489903325","long":"126.782605","imageIndex":17,"items":[{"name":"평화목재사","tel":"032-664-3377","addr":"경기도 부천시 심곡동 356-4번지","indutype":"건축자재 - 기타건축자재","category":"other"}]},{"lat":"37.489815458","long":"126.77429444","imageIndex":17,"items":[{"name":"포그니","tel":"032-655-3691","addr":"경기도 부천시 심곡동 330-51번지","indutype":"직물 - 카페트,커튼,천막,지물","category":"other"}]},{"lat":"37.486482763","long":"126.779517","imageIndex":17,"items":[{"name":"포인트24","tel":"032-664-2761","addr":"경기도 부천시 심곡동 400-5번지 1층","indutype":"유통업 영리 - 편 의 점","category":"other"}]},{"lat":"37.488039248","long":"126.7831306","imageIndex":17,"items":[{"name":"포토윌 스튜디오","tel":"032-664-7474","addr":"경기도 부천시 심곡동 349-10번지 4층","indutype":"광학제품 - 사진관","category":"other"}]},{"lat":"37.490484173","long":"126.78487607","imageIndex":17,"items":[{"name":"푸드하우스","tel":"032-667-5802","addr":"경기도 부천시 심곡동 122-3번지","indutype":"레져용품 - 스포츠·레져용품","category":"other"}]},{"lat":"37.486564322","long":"126.77976551","imageIndex":17,"items":[{"name":"프린세스말티즈","tel":"070-8279-5074","addr":"경기도 부천시 심곡동 399-9번지 2층","indutype":"문화.취미 - 애완동물","category":"other"}]},{"lat":"37.48884593","long":"126.78087812","imageIndex":17,"items":[{"name":"플라이덕(FLYDUCK)","tel":"031-0000-0000","addr":"경기도 부천시 심곡동 376-18번지","indutype":"의류 - 정장","category":"other"}]},{"lat":"37.48465542","long":"126.78040434","imageIndex":17,"items":[{"name":"플리츠플러스","tel":"032-235-3232","addr":"경기도 부천시 심곡동 386-7번지 1층 24~27호","indutype":"의류 - 정장","category":"other"}]},{"lat":"37.486427193","long":"126.78351975","imageIndex":17,"items":[{"name":"피부사랑","tel":"032-667-7780","addr":"경기도 부천시 심곡동 168-3번지","indutype":"회원제형태 - 기타4","category":"other"}]},{"lat":"37.486040551","long":"126.77913389","imageIndex":17,"items":[{"name":"피아노치는고양이","tel":"032-656-3163","addr":"경기도 부천시 심곡동 396-3번지","indutype":"문화.취미 - 애완동물","category":"other"}]},{"lat":"37.487346663","long":"126.77896039","imageIndex":17,"items":[{"name":"핀테크포스","tel":"032-1899-3272","addr":"경기도 부천시 심곡동 403-9번지 101호","indutype":"사무통신 - 통신기기","category":"other"}]},{"lat":"37.491856545","long":"126.78157028","imageIndex":17,"items":[{"name":"필아트디자인","tel":"032-668-8020","addr":"경기도 부천시 심곡동 369-13번지 쌍용빌라 A동 202호","indutype":"신변잡화 - 기타잡화","category":"other"}]},{"lat":"37.488765594","long":"126.78613616","imageIndex":17,"items":[{"name":"하나올리브크린","tel":"","addr":"경기도 부천시 심곡동 154-1번지 영동아트빌 201호","indutype":"용역 서비스 - 종합용역","category":"other"}]},{"lat":"37.497070121","long":"126.78470992","imageIndex":17,"items":[{"name":"하나종합건축","tel":"032-672-8791","addr":"경기도 부천시 심곡동 88-6번지","indutype":"건축자재 - 인테리어전문","category":"other"},{"name":"한빛상사","tel":"032-613-8384","addr":"경기도 부천시 심곡동 88-6번지","indutype":"기타 - 기계공구","category":"other"}]},{"lat":"37.488175844","long":"126.78391038","imageIndex":17,"items":[{"name":"하나통상","tel":"032-656-6724","addr":"경기도 부천시 심곡동 161-6번지 복음빌딩 5층","indutype":"사무통신 - 통신기기","category":"other"}]},{"lat":"37.49197987","long":"126.77071465","imageIndex":17,"items":[{"name":"하늘정보통신","tel":"032-651-5010","addr":"경기도 부천시 심곡동 314-2번지 1층","indutype":"사무통신 - 통신기기","category":"other"}]},{"lat":"37.486878158","long":"126.78868564","imageIndex":17,"items":[{"name":"하성조명","tel":"032-663-0663","addr":"경기도 부천시 심곡동 132-22번지 남성빌딩","indutype":"건축자재 - 조명기구","category":"other"}]},{"lat":"37.488707681","long":"126.77452396","imageIndex":17,"items":[{"name":"하얀사","tel":"032-611-8232","addr":"경기도 부천시 심곡동 344-10번지 1층 일부","indutype":"수리서비스 - 세탁소","category":"other"}]},{"lat":"37.489040237","long":"126.77410458","imageIndex":17,"items":[{"name":"한국공인중개사사무소","tel":"032-655-5250","addr":"경기도 부천시 심곡동 339-38","indutype":"용역 서비스 - 부동산 중개·임대","category":"other"}]},{"lat":"37.491397969","long":"126.77262742","imageIndex":17,"items":[{"name":"한국금속","tel":"032-665-0007","addr":"경기도 부천시 심곡동 322-2번지 1층","indutype":"건축자재 - 보일러·펌프·샷시","category":"other"}]},{"lat":"37.492009925","long":"126.7816829","imageIndex":17,"items":[{"name":"한국렉산","tel":"032-651-4214","addr":"경기도 부천시 심곡동 368-6번지 세웅파크힐","indutype":"건축자재 - 유리","category":"other"}]},{"lat":"37.490238079","long":"126.7833503","imageIndex":17,"items":[{"name":"한국몬테소리 부천","tel":"032-651-2600","addr":"경기도 부천시 심곡동 365-1호의7","indutype":"서적문구 - 전문서적","category":"other"}]},{"lat":"37.489511064","long":"126.78485629","imageIndex":17,"items":[{"name":"한국민속침구","tel":"032-656-5842","addr":"경기도 부천시 심곡동 156-1번지 1층","indutype":"직물 - 침구·수예점","category":"other"}]},{"lat":"37.492485943","long":"126.78087866","imageIndex":17,"items":[{"name":"한국유리공업사","tel":"032-656-6204","addr":"경기도 부천시 심곡동 437-6번지","indutype":"건축자재 - 유리","category":"other"}]},{"lat":"37.49250777","long":"126.78291397","imageIndex":17,"items":[{"name":"한길","tel":"070-7753-8906","addr":"경기도 부천시 심곡동 97-30번지 1층","indutype":"건축자재 - 조명기구","category":"other"}]},{"lat":"37.487540551","long":"126.77668713","imageIndex":17,"items":[{"name":"한마음통신","tel":"032-666-4848","addr":"경기도 부천시 심곡동 348-32번지","indutype":"용역 서비스 - 기타용역서비스","category":"other"}]},{"lat":"37.492207274","long":"126.78121871","imageIndex":17,"items":[{"name":"한양문구팬시","tel":"032-665-4101","addr":"경기도 부천시 심곡동 438-4번지","indutype":"서적문구 - 문구용품","category":"other"}]},{"lat":"37.492542222","long":"126.77729397","imageIndex":17,"items":[{"name":"한우전자","tel":"02-2274-3473","addr":"경기도 부천시 심곡동 297-2번지","indutype":"전기제품 - 냉열기기","category":"other"}]},{"lat":"37.491341221","long":"126.78063328","imageIndex":17,"items":[{"name":"한일종합인테리어","tel":"032-611-1518","addr":"경기도 부천시 심곡동 427-1번지","indutype":"건축자재 - 인테리어전문","category":"other"}]},{"lat":"37.48950638","long":"126.77288198","imageIndex":17,"items":[{"name":"함께걷다","tel":"","addr":"경기도 부천시 심곡동 336번지 태강탑스빌 5동 303호","indutype":"서적문구 - 일반서적","category":"other"}]},{"lat":"37.484486374","long":"126.78640857","imageIndex":17,"items":[{"name":"해피케어","tel":"032-651-3579","addr":"경기도 부천시 심곡동 140-4번지 보보스오피스텔 201호","indutype":"용역 서비스 - 종합용역","category":"other"}]},{"lat":"37.48873023","long":"126.77221724","imageIndex":17,"items":[{"name":"혁신광고","tel":"032-652-6238","addr":"경기도 부천시 심곡동 345-19번지","indutype":"용역 서비스 - 종합용역","category":"other"}]},{"lat":"37.49542976","long":"126.78440938","imageIndex":17,"items":[{"name":"현대세탁","tel":"032-657-8809","addr":"경기도 부천시 심곡동 92-3 1층","indutype":"수리서비스 - 세탁소","category":"other"}]},{"lat":"37.490370064","long":"126.78165382","imageIndex":17,"items":[{"name":"현대전자","tel":"032-664-0414","addr":"경기도 부천시 심곡동 372-18번지","indutype":"사무통신 - 사무용 OA기기","category":"other"}]},{"lat":"37.487708959","long":"126.77523933","imageIndex":17,"items":[{"name":"현대종합장식","tel":"032-661-5454","addr":"경기도 부천시 심곡동 347-34번지","indutype":"직물 - 카페트,커튼,천막,지물","category":"other"}]},{"lat":"37.488265799","long":"126.77902549","imageIndex":17,"items":[{"name":"현스틸","tel":"032-668-1688","addr":"경기도 부천시 심곡동 407-4번지","indutype":"건축자재 - 기타건축자재","category":"other"}]},{"lat":"37.485679986","long":"126.78876821","imageIndex":17,"items":[{"name":"현진테크","tel":"032-525-0498","addr":"경기도 부천시 심곡동 131-3번지","indutype":"신변잡화 - 기타잡화","category":"other"}]},{"lat":"37.49128899","long":"126.77218676","imageIndex":17,"items":[{"name":"협신오토바이","tel":"032-651-5489","addr":"경기도 부천시 심곡동 322-5번지 1층 일부","indutype":"수리서비스 - 레져용품수리","category":"other"}]},{"lat":"37.490459591","long":"126.78134826","imageIndex":17,"items":[{"name":"형제천막","tel":"032-651-7809","addr":"경기도 부천시 심곡동 372-5번지","indutype":"직물 - 카페트,커튼,천막,지물","category":"other"}]},{"lat":"37.484623259","long":"126.78735791","imageIndex":17,"items":[{"name":"호현","tel":"032-657-8777","addr":"경기도 부천시 심곡동 139-7번지","indutype":"용역 서비스 - 부동산 중개·임대","category":"other"}]},{"lat":"37.486400687","long":"126.7838025","imageIndex":17,"items":[{"name":"홀사운드팩토리","tel":"","addr":"경기도 부천시 심곡동 168-9번지 지하1층","indutype":"용역 서비스 - 사무서비스","category":"other"}]},{"lat":"37.490125142","long":"126.78077257","imageIndex":17,"items":[{"name":"홈홈","tel":"032-1566-5568","addr":"경기도 부천시 심곡동 426-8번지","indutype":"신변잡화 - 기타잡화","category":"other"}]},{"lat":"37.488016631","long":"126.78551644","imageIndex":17,"items":[{"name":"홍언니네 파우더룸","tel":"032-662-8842","addr":"경기도 부천시 심곡동 162-21번지 1층","indutype":"회원제형태 - 기타4","category":"other"}]},{"lat":"37.487320425","long":"126.77937882","imageIndex":17,"items":[{"name":"화비꽃방","tel":"032-652-4990","addr":"경기도 부천시 심곡동 403-1번지","indutype":"문화.취미 - 화원","category":"other"}]},{"lat":"37.491153797","long":"126.77216456","imageIndex":17,"items":[{"name":"화신전자","tel":"032-652-1053","addr":"경기도 부천시 심곡동 322-33번지","indutype":"전기제품 - 기타전기제품","category":"other"}]},{"lat":"37.487537001","long":"126.78437583","imageIndex":17,"items":[{"name":"효사랑요양원1호점","tel":"032-662-6002","addr":"경기도 부천시 심곡동 163-3번지 경원빌딩 5층","indutype":"기타의료기관 - 기타의료기관 및 기타","category":"other"},{"name":"효사랑요양원2호점","tel":"070-8935-1366","addr":"경기도 부천시 심곡동 163-3번지 경원빌딩 6층","indutype":"기타의료기관 - 기타의료기관 및 기타","category":"other"}]},{"lat":"37.48932077","long":"126.78426887","imageIndex":17,"items":[{"name":"효성앵글","tel":"032-652-9005","addr":"경기도 부천시 심곡동 158-3번지","indutype":"기타 - 기계공구","category":"other"}]},{"lat":"37.484708533","long":"126.78966419","imageIndex":17,"items":[{"name":"휴먼오토바이","tel":"070-7321-5568","addr":"경기도 부천시 심곡동 489-36번지 1층","indutype":"수리서비스 - 레져용품수리","category":"other"}]},{"lat":"37.490516249","long":"126.78273889","imageIndex":17,"items":[{"name":"휴먼홈케어","tel":"","addr":"경기도 부천시 심곡동 365-8번지 남영라끄빌 7층 705호","indutype":"사무통신 - 컴퓨터","category":"other"}]},{"lat":"37.489513931","long":"126.77679425","imageIndex":17,"items":[{"name":"힐링테마 여행","tel":"","addr":"경기도 부천시 심곡동 329-23번지","indutype":"용역 서비스 - 사무서비스","category":"other"}]}]