[{"lat":"37.129494952","long":"126.68356616","imageIndex":17,"items":[{"name":"경기이벤트","tel":"","addr":"경기도 화성시 서신면 궁평리 507번지","indutype":"레져용품 - 악기점","category":"other"}]},{"lat":"37.121384908","long":"126.69009274","imageIndex":17,"items":[{"name":"군산공업사","tel":"031-9100-3588","addr":"경기도 화성시 서신면 궁평리 649-20번지","indutype":"수리서비스 - 기타수리서비스","category":"other"}]},{"lat":"37.129251611","long":"126.68354467","imageIndex":17,"items":[{"name":"궁평편의점","tel":"031-355-6244","addr":"경기도 화성시 서신면 궁평리 507-1번지","indutype":"유통업 영리 - 편 의 점","category":"other"}]},{"lat":"37.116332828","long":"126.68437529","imageIndex":17,"items":[{"name":"궁평항 가는날","tel":"031-357-7772","addr":"경기도 화성시 서신면 궁평리 699-2번지","indutype":"유통업 영리 - 편 의 점","category":"other"}]},{"lat":"37.135581835","long":"126.69911652","imageIndex":17,"items":[{"name":"대웅","tel":"031-366-7245","addr":"경기도 화성시 서신면 궁평리 261번지","indutype":"건축자재 - 기타건축자재","category":"other"}]},{"lat":"37.13138923","long":"126.69456429","imageIndex":17,"items":[{"name":"마지막슈퍼낚시","tel":"031-356-3607","addr":"경기도 화성시 서신면 궁평리 322-1번지","indutype":"레져용품 - 스포츠·레져용품","category":"other"}]},{"lat":"37.12247635","long":"126.69053834","imageIndex":17,"items":[{"name":"미래마린","tel":"031-246-4664","addr":"경기도 화성시 서신면 궁평리 654-1번지","indutype":"수리서비스 - 기타수리서비스","category":"other"}]},{"lat":"37.116307523","long":"126.68167505","imageIndex":17,"items":[{"name":"서해관광해운","tel":"031-356-3607","addr":"경기도 화성시 서신면 궁평리 689번지 1층","indutype":"여행 - 여객선","category":"other"}]},{"lat":"37.12136007","long":"126.6909255","imageIndex":17,"items":[{"name":"서해마린","tel":"031-355-8441","addr":"경기도 화성시 서신면 궁평리 649-34번지","indutype":"기타 - 기계공구","category":"other"}]},{"lat":"37.116918956","long":"126.6845416","imageIndex":17,"items":[{"name":"서해편의점","tel":"031-111-1111","addr":"경기도 화성시 서신면 궁평리 666-38번지 1층 1호","indutype":"유통업 영리 - 편 의 점","category":"other"}]},{"lat":"37.120999448","long":"126.69084822","imageIndex":17,"items":[{"name":"씨유화성궁평항주유소점","tel":"031-366-9727","addr":"경기도 화성시 서신면 궁평리 649-37번지","indutype":"유통업 영리 - 편 의 점","category":"other"}]},{"lat":"37.133300856","long":"126.69859671","imageIndex":17,"items":[{"name":"주식회사에코에프엠","tel":"032-837-5560","addr":"경기도 화성시 서신면 궁평리 296-15번지","indutype":"건축자재 - 목재·석재·철물","category":"other"}]},{"lat":"37.121998592","long":"126.69046154","imageIndex":17,"items":[{"name":"피싱캠프","tel":"031-356-8668","addr":"경기도 화성시 서신면 궁평리 654-6번지","indutype":"레져용품 - 스포츠·레져용품","category":"other"}]},{"lat":"37.122169938","long":"126.6905171","imageIndex":17,"items":[{"name":"현대전기정보통신","tel":"031-356-3976","addr":"경기도 화성시 서신면 궁평리 654-5번지","indutype":"기타 - 기계공구","category":"other"}]}]