[{"lat":"37.483886528","long":"127.50111818","imageIndex":17,"items":[{"name":"(주)승진소방","tel":"031-772-3019","addr":"경기도 양평군 양평읍 창대리 684번지","indutype":"기타 - 기계공구","category":"other"},{"name":"YJ스피닝3호","tel":"0502-2011-1588","addr":"경기도 양평군 양평읍 창대리 684번지","indutype":"회원제형태 - 레져업소","category":"other"},{"name":"라라광고기획","tel":"","addr":"경기도 양평군 양평읍 창대리 684번지 103호","indutype":"용역 서비스 - 종합용역","category":"other"},{"name":"영엔틱","tel":"","addr":"경기도 양평군 양평읍 창대리 684번지 104호~106호","indutype":"가구 - 기타가구","category":"other"}]},{"lat":"37.474584179","long":"127.51681539","imageIndex":17,"items":[{"name":"(주)양평엘리베이터","tel":"031-775-1638","addr":"경기도 양평군 양평읍 창대리 47-4번지 1동","indutype":"용역 서비스 - 기타용역서비스","category":"other"},{"name":"주식회사 양평에리베이터","tel":"031-775-1638","addr":"경기도 양평군 양평읍 창대리 47-4번지","indutype":"기타 - 기계공구","category":"other"}]},{"lat":"37.479836294","long":"127.50225577","imageIndex":17,"items":[{"name":"(주)화창산업","tel":"031-771-4878","addr":"경기도 양평군 양평읍 창대리 569-1번지","indutype":"건축자재 - 기타건축자재","category":"other"}]},{"lat":"37.474303947","long":"127.51702826","imageIndex":17,"items":[{"name":"GS25양평양근로점","tel":"","addr":"경기도 양평군 양평읍 창대리 47-6번지","indutype":"유통업 영리 - 편 의 점","category":"other"}]},{"lat":"37.48997283","long":"127.50850826","imageIndex":17,"items":[{"name":"SD하우징","tel":"031-771-0740","addr":"경기도 양평군 양평읍 창대리 635번지","indutype":"건축자재 - 기타건축자재","category":"other"},{"name":"허니 페어(HONEY PEAR)","tel":"031-775-9007","addr":"경기도 양평군 양평읍 창대리 635번지 4호,5호","indutype":"사무통신 - 통신기기","category":"other"}]},{"lat":"37.481442966","long":"127.50156549","imageIndex":17,"items":[{"name":"그린렌터카(주)양평지점","tel":"031-773-5557","addr":"경기도 양평군 양평읍 창대리 538-4번지 1층 103호","indutype":"여행 - 렌터카","category":"other"},{"name":"세븐일레븐양평창대리점","tel":"031-1577-0711","addr":"경기도 양평군 양평읍 창대리 538-4번지","indutype":"유통업 영리 - 편 의 점","category":"other"}]},{"lat":"37.487494755","long":"127.50859332","imageIndex":17,"items":[{"name":"글헤는 밤","tel":"","addr":"경기도 양평군 양평읍 창대리 628번지 영림연립 2층 203호","indutype":"서적문구 - 일반서적","category":"other"}]},{"lat":"37.483219912","long":"127.50109114","imageIndex":17,"items":[{"name":"늘솜","tel":"031-775-6434","addr":"경기도 양평군 양평읍 창대리 686-1번지","indutype":"의류 - 정장","category":"other"},{"name":"오케이클린","tel":"031-771-9001","addr":"경기도 양평군 양평읍 창대리 686-1번지 1층 4호","indutype":"수리서비스 - 세탁소","category":"other"}]},{"lat":"37.480357711","long":"127.50039379","imageIndex":17,"items":[{"name":"대광건설중기","tel":"031-771-1112","addr":"경기도 양평군 양평읍 창대리 516-6번지","indutype":"기타 - 기계공구","category":"other"},{"name":"범호건설중기","tel":"031-771-1995","addr":"경기도 양평군 양평읍 창대리 516-6번지","indutype":"기타 - 기계공구","category":"other"},{"name":"유명중기","tel":"031-0000-0000","addr":"경기도 양평군 양평읍 창대리 516-6번지","indutype":"기타 - 기계공구","category":"other"}]},{"lat":"37.477138635","long":"127.5073704","imageIndex":17,"items":[{"name":"동양 건업","tel":"031-775-8504","addr":"경기도 양평군 양평읍 창대리 423-1번지 1층","indutype":"용역 서비스 - 기타용역서비스","category":"other"}]},{"lat":"37.485023999","long":"127.49844611","imageIndex":17,"items":[{"name":"동해전기공사","tel":"031-771-3492","addr":"경기도 양평군 양평읍 창대리 711-40번지","indutype":"전기제품 - 기타전기제품","category":"other"}]},{"lat":"37.484077826","long":"127.50062197","imageIndex":17,"items":[{"name":"럭키 종합설비","tel":"031-773-3370","addr":"경기도 양평군 양평읍 창대리 674-7번지","indutype":"용역 서비스 - 기타용역서비스","category":"other"},{"name":"비전인테리어","tel":"031-771-9469","addr":"경기도 양평군 양평읍 창대리 674-7번지","indutype":"건축자재 - 조명기구","category":"other"}]},{"lat":"37.484303115","long":"127.50061216","imageIndex":17,"items":[{"name":"럭키상사","tel":"031-774-0266","addr":"경기도 양평군 양평읍 창대리 673번지","indutype":"건축자재 - 기타건축자재","category":"other"},{"name":"시온성어닝&천막사","tel":"031-774-1954","addr":"경기도 양평군 양평읍 창대리 673번지","indutype":"직물 - 카페트,커튼,천막,지물","category":"other"}]},{"lat":"37.481080815","long":"127.5019814","imageIndex":17,"items":[{"name":"리버스아트","tel":"031-774-2118","addr":"경기도 양평군 양평읍 창대리 559-2번지","indutype":"용역 서비스 - 기타용역서비스","category":"other"}]},{"lat":"37.489998455","long":"127.50883634","imageIndex":17,"items":[{"name":"명품LED 조명","tel":"031-772-3424","addr":"경기도 양평군 양평읍 창대리 634-9번지 1층","indutype":"건축자재 - 조명기구","category":"other"},{"name":"명품조명","tel":"031-772-3424","addr":"경기도 양평군 양평읍 창대리 634-9번지","indutype":"건축자재 - 조명기구","category":"other"},{"name":"칠성종합개발","tel":"031-774-7746","addr":"경기도 양평군 양평읍 창대리 634-9번지","indutype":"건축자재 - 기타건축자재","category":"other"}]},{"lat":"37.483941611","long":"127.49873292","imageIndex":17,"items":[{"name":"민턴하우스","tel":"031-771-9820","addr":"경기도 양평군 양평읍 창대리 707-3번지","indutype":"레져용품 - 스포츠·레져용품","category":"other"},{"name":"청원열기","tel":"031-775-3652","addr":"경기도 양평군 양평읍 창대리 707-3","indutype":"전기제품 - 냉열기기","category":"other"}]},{"lat":"37.487667272","long":"127.50192345","imageIndex":17,"items":[{"name":"사띠아요가(SATTYA YOGA)","tel":"031-775-0665","addr":"경기도 양평군 양평읍 창대리 649-3번지 3층","indutype":"회원제형태 - 레져업소","category":"other"}]},{"lat":"37.481301945","long":"127.50295518","imageIndex":17,"items":[{"name":"샴플라워","tel":"02-540-0206","addr":"경기도 양평군 양평읍 창대리 549번지","indutype":"문화.취미 - 화원","category":"other"}]},{"lat":"37.474912784","long":"127.51997171","imageIndex":17,"items":[{"name":"성동에너시스","tel":"031-773-8576","addr":"경기도 양평군 양평읍 창대리 826-26번지 ,5호","indutype":"건축자재 - 보일러·펌프·샷시","category":"other"}]},{"lat":"37.488611418","long":"127.50237071","imageIndex":17,"items":[{"name":"수재샵양평점","tel":"","addr":"경기도 양평군 양평읍 창대리 649-9번지","indutype":"직물 - 침구·수예점","category":"other"}]},{"lat":"37.479023763","long":"127.50050931","imageIndex":17,"items":[{"name":"싸인광고기획","tel":"031-772-5507","addr":"경기도 양평군 양평읍 창대리 511-6번지","indutype":"건축자재 - 인테리어전문","category":"other"},{"name":"양평 스포츠 멀티샵","tel":"","addr":"경기도 양평군 양평읍 창대리 511-6번지","indutype":"의류 - 스포츠의류","category":"other"}]},{"lat":"37.477863485","long":"127.50852841","imageIndex":17,"items":[{"name":"씨유양평창대리점","tel":"031-774-5461","addr":"경기도 양평군 양평읍 창대리 408-4번지","indutype":"유통업 영리 - 편 의 점","category":"other"}]},{"lat":"37.487638473","long":"127.50869605","imageIndex":17,"items":[{"name":"알파시스템","tel":"031-774-9916","addr":"경기도 양평군 양평읍 창대리 628-2번지","indutype":"건축자재 - 기타건축자재","category":"other"}]},{"lat":"37.475134014","long":"127.52088893","imageIndex":17,"items":[{"name":"양평골재","tel":"031-771-9751","addr":"경기도 양평군 양평읍 창대리 12-1번지","indutype":"건축자재 - 기타건축자재","category":"other"}]},{"lat":"37.482966341","long":"127.49925786","imageIndex":17,"items":[{"name":"양평군건강가정지원센터/아이돌봄","tel":"031-775-5955","addr":"경기도 양평군 양평읍 창대리 701번지","indutype":"기타 - 비영리/대상","category":"other"}]},{"lat":"37.474780619","long":"127.51722371","imageIndex":17,"items":[{"name":"양평서울건축","tel":"031-775-4141","addr":"경기도 양평군 양평읍 창대리 44-1번지","indutype":"용역 서비스 - 종합용역","category":"other"}]},{"lat":"37.482049805","long":"127.50081203","imageIndex":17,"items":[{"name":"양평종합건재","tel":"031-771-3927","addr":"경기도 양평군 양평읍 창대리 537-13번지","indutype":"건축자재 - 기타건축자재","category":"other"}]},{"lat":"37.478696142","long":"127.50553807","imageIndex":17,"items":[{"name":"양평토이쇼","tel":"031-771-0057","addr":"경기도 양평군 양평읍 창대리 436-1번지","indutype":"서적문구 - 완구점","category":"other"}]},{"lat":"37.485052402","long":"127.49811841","imageIndex":17,"items":[{"name":"영남철재","tel":"031-774-5038","addr":"경기도 양평군 양평읍 창대리 716-3번지","indutype":"신변잡화 - 기타잡화","category":"other"}]},{"lat":"37.487442874","long":"127.50808416","imageIndex":17,"items":[{"name":"와우식품서비스","tel":"031-4244-4961","addr":"경기도 양평군 양평읍 창대리 630-1번지 궁전레스빌1차 302호","indutype":"회원제형태 - 기타4","category":"other"}]},{"lat":"37.484910375","long":"127.4997569","imageIndex":17,"items":[{"name":"와이피공연기획","tel":"031-775-5768","addr":"경기도 양평군 양평읍 창대리 711-12번지","indutype":"용역 서비스 - 종합용역","category":"other"}]},{"lat":"37.475301774","long":"127.52167013","imageIndex":17,"items":[{"name":"유성상사","tel":"031-775-0100","addr":"경기도 양평군 양평읍 창대리 12-4번지","indutype":"건축자재 - 기타건축자재","category":"other"}]},{"lat":"37.483664098","long":"127.50044963","imageIndex":17,"items":[{"name":"이룸","tel":"031-774-7074","addr":"경기도 양평군 양평읍 창대리 689-2","indutype":"용역 서비스 - 종합용역","category":"other"}]},{"lat":"37.476917931","long":"127.51469469","imageIndex":17,"items":[{"name":"인파이프(INPIPE)","tel":"031-1522-2521","addr":"경기도 양평군 양평읍 창대리 154-3번지","indutype":"가구 - 기타가구","category":"other"}]},{"lat":"37.476691123","long":"127.5150549","imageIndex":17,"items":[{"name":"종합농기계","tel":"031-771-7087","addr":"경기도 양평군 양평읍 창대리 50-5번지","indutype":"농업 - 농기계","category":"other"}]},{"lat":"37.472051843","long":"127.51278496","imageIndex":17,"items":[{"name":"주식회사 갈월장례식장","tel":"031-774-6066","addr":"경기도 양평군 양평읍 창대리 177번지 1층","indutype":"용역 서비스 - 가례서비스업","category":"other"}]},{"lat":"37.47677867","long":"127.51564337","imageIndex":17,"items":[{"name":"주식회사 더블유엔에스","tel":"031-772-3772","addr":"경기도 양평군 양평읍 창대리 50-17번지 1층","indutype":"농업 - 농기계","category":"other"}]},{"lat":"37.483168903","long":"127.50036721","imageIndex":17,"items":[{"name":"주식회사 한백이엔지","tel":"031-773-5584","addr":"경기도 양평군 양평읍 창대리 694-3번지 3호","indutype":"용역 서비스 - 기타용역서비스","category":"other"}]},{"lat":"37.485966031","long":"127.50153902","imageIndex":7,"items":[{"name":"(주)양평청과","tel":"031-1111-1111","addr":"경기도 양평군 양평읍 창대리 646-14번지","indutype":"음료식품 - 농·축·수산품","category":"food"}]},{"lat":"37.479023763","long":"127.50050931","imageIndex":7,"items":[{"name":"남양유업양평가정대리점","tel":"031-771-5679","addr":"경기도 양평군 양평읍 창대리 511-6번지","indutype":"음료식품 - 기타음료식품","category":"food"}]},{"lat":"37.489998455","long":"127.50883634","imageIndex":7,"items":[{"name":"양림농원","tel":"031-774-8841","addr":"경기도 양평군 양평읍 창대리 634-9번지","indutype":"음료식품 - 농·축·수산품","category":"food"}]},{"lat":"37.484077826","long":"127.50062197","imageIndex":7,"items":[{"name":"양평수산","tel":"031-773-5965","addr":"경기도 양평군 양평읍 창대리 674-7번지 1층","indutype":"음료식품 - 농·축·수산품","category":"food"}]},{"lat":"37.478197663","long":"127.50833847","imageIndex":7,"items":[{"name":"양평유통","tel":"031-772-2547","addr":"경기도 양평군 양평읍 창대리 411-1번지","indutype":"음료식품 - 정육점","category":"food"}]},{"lat":"37.469636735","long":"127.50869908","imageIndex":7,"items":[{"name":"이롬생식","tel":"031-773-2246","addr":"경기도 양평군 양평읍 창대리 191-1번지 2층","indutype":"건강식품 - 기타건강식품","category":"food"}]},{"lat":"37.484916689","long":"127.49825319","imageIndex":7,"items":[{"name":"정연유통","tel":"","addr":"경기도 양평군 양평읍 창대리 716-5번지","indutype":"음료식품 - 기타음료식품","category":"food"}]},{"lat":"37.48074746","long":"127.50197919","imageIndex":7,"items":[{"name":"주식회사 야호(YAHOH)","tel":"031-772-5781","addr":"경기도 양평군 양평읍 창대리 557-2번지","indutype":"음료식품 - 기타음료식품","category":"food"}]},{"lat":"37.47963521","long":"127.50505822","imageIndex":0,"items":[{"name":"(주)양평현대모터스","tel":"031-775-0020","addr":"경기도 양평군 양평읍 창대리 581-8 -9","indutype":"자동차정비 유지 - 자동차정비","category":"car"}]},{"lat":"37.486272024","long":"127.5016202","imageIndex":0,"items":[{"name":"바로 세차장","tel":"","addr":"경기도 양평군 양평읍 창대리 646-13번지 바로세차장","indutype":"자동차정비 유지 - 세차장","category":"car"}]},{"lat":"37.479551864","long":"127.50558903","imageIndex":0,"items":[{"name":"워시캠프","tel":"02-1111-1111","addr":"경기도 양평군 양평읍 창대리 582-3번지","indutype":"자동차정비 유지 - 세차장","category":"car"}]},{"lat":"37.474780619","long":"127.51722371","imageIndex":0,"items":[{"name":"제이엔제이휠타이어","tel":"031-771-4351","addr":"경기도 양평군 양평읍 창대리 44-1","indutype":"자동차정비 유지 - 자동차시트·타이어","category":"car"}]},{"lat":"37.483440381","long":"127.50008635","imageIndex":0,"items":[{"name":"타이어테크양평점","tel":"031-773-5839","addr":"경기도 양평군 양평읍 창대리 691-3번지","indutype":"자동차정비 유지 - 자동차시트·타이어","category":"car"}]},{"lat":"37.477691093","long":"127.50880989","imageIndex":0,"items":[{"name":"한국자동차공업사","tel":"031-771-0512","addr":"경기도 양평군 양평읍 창대리 408-1번지","indutype":"자동차정비 유지 - 자동차정비","category":"car"}]},{"lat":"37.486272024","long":"127.5016202","imageIndex":4,"items":[{"name":"넘버원 아저씨","tel":"","addr":"경기도 양평군 양평읍 창대리 646-13번지","indutype":"일반휴게음식 - 일반한식","category":"restaurant"}]},{"lat":"37.483077494","long":"127.498535","imageIndex":4,"items":[{"name":"두리봉막국수","tel":"031-771-3052","addr":"경기도 양평군 양평읍 창대리 721번지 1층","indutype":"일반휴게음식 - 일반한식","category":"restaurant"}]},{"lat":"37.487946093","long":"127.50203838","imageIndex":4,"items":[{"name":"로비한","tel":"031-772-5568","addr":"경기도 양평군 양평읍 창대리 649-2번지 2층","indutype":"일반휴게음식 - 일반한식","category":"restaurant"}]},{"lat":"37.483168903","long":"127.50036721","imageIndex":4,"items":[{"name":"무지개식당","tel":"031-771-7477","addr":"경기도 양평군 양평읍 창대리 694-3번지 1층","indutype":"일반휴게음식 - 일반한식","category":"restaurant"},{"name":"바로짬뽕","tel":"031-771-1185","addr":"경기도 양평군 양평읍 창대리 694-3번지","indutype":"일반휴게음식 - 중국식","category":"restaurant"}]},{"lat":"37.488188922","long":"127.50214176","imageIndex":4,"items":[{"name":"민갈비앤쌈밥","tel":"031-775-1580","addr":"경기도 양평군 양평읍 창대리 649-6","indutype":"일반휴게음식 - 일반한식","category":"restaurant"}]},{"lat":"37.483834805","long":"127.50056383","imageIndex":4,"items":[{"name":"밀양돼지국밥","tel":"031-772-2202","addr":"경기도 양평군 양평읍 창대리 687-7번지","indutype":"일반휴게음식 - 일반한식","category":"restaurant"}]},{"lat":"37.489974039","long":"127.50822559","imageIndex":4,"items":[{"name":"부산돼지국밥","tel":"031-775-0701","addr":"경기도 양평군 양평읍 창대리 635-2번지","indutype":"일반휴게음식 - 일반한식","category":"restaurant"}]},{"lat":"37.487667272","long":"127.50192345","imageIndex":4,"items":[{"name":"양평어무이해장국","tel":"031-771-7557","addr":"경기도 양평군 양평읍 창대리 649-3번지 1층","indutype":"일반휴게음식 - 일반한식","category":"restaurant"}]},{"lat":"37.477691093","long":"127.50880989","imageIndex":4,"items":[{"name":"핫플레이스","tel":"031-2111-1111","addr":"경기도 양평군 양평읍 창대리 408-1번지","indutype":"일반휴게음식 - 서양음식","category":"restaurant"}]},{"lat":"37.477884792","long":"127.50775979","imageIndex":4,"items":[{"name":"홍일식당","tel":"031-772-1990","addr":"경기도 양평군 양평읍 창대리 416-1번지","indutype":"일반휴게음식 - 일반한식","category":"restaurant"}]},{"lat":"37.477633585","long":"127.50750939","imageIndex":4,"items":[{"name":"황금룡","tel":"031-774-9235","addr":"경기도 양평군 양평읍 창대리 414-2번지","indutype":"일반휴게음식 - 중국식","category":"restaurant"}]},{"lat":"37.487946093","long":"127.50203838","imageIndex":13,"items":[{"name":"노래천국 노래연습장","tel":"031-775-8588","addr":"경기도 양평군 양평읍 창대리 649-2번지 3층","indutype":"레저업소 - 노 래 방","category":"leisure"}]},{"lat":"37.482724859","long":"127.50097479","imageIndex":13,"items":[{"name":"모모스크린골프","tel":"031-773-7900","addr":"경기도 양평군 양평읍 창대리 692-1번지","indutype":"레저업소 - 스크린골프","category":"leisure"}]},{"lat":"37.488188922","long":"127.50214176","imageIndex":13,"items":[{"name":"에이스노래방","tel":"031-775-1587","addr":"경기도 양평군 양평읍 창대리 649-6번지 3층","indutype":"레저업소 - 노 래 방","category":"leisure"}]},{"lat":"37.489863069","long":"127.50889196","imageIndex":13,"items":[{"name":"다정미용실","tel":"031-772-3257","addr":"경기도 양평군 양평읍 창대리 634번지","indutype":"보건위생 - 미용원","category":"beauty"}]},{"lat":"37.483168903","long":"127.50036721","imageIndex":13,"items":[{"name":"딜라잇헤어","tel":"031-771-8068","addr":"경기도 양평군 양평읍 창대리 694-3번지","indutype":"보건위생 - 미용원","category":"beauty"}]},{"lat":"37.487946093","long":"127.50203838","imageIndex":13,"items":[{"name":"오휘컨설턴트","tel":"031-771-5251","addr":"경기도 양평군 양평읍 창대리 649-2번지 4층","indutype":"보건위생 - 화장품","category":"beauty"},{"name":"오휘컨설턴트","tel":"031-771-5251","addr":"경기도 양평군 양평읍 창대리 649-2번지 4층","indutype":"보건위생 - 화장품","category":"beauty"},{"name":"오휘컨설턴트","tel":"031-771-5251","addr":"경기도 양평군 양평읍 창대리 649-2번지 4층","indutype":"보건위생 - 화장품","category":"beauty"},{"name":"오휘컨설턴트","tel":"031-771-5251","addr":"경기도 양평군 양평읍 창대리 649-2번지 4층","indutype":"보건위생 - 화장품","category":"beauty"},{"name":"오휘컨설턴트","tel":"031-771-5251","addr":"경기도 양평군 양평읍 창대리 649-2번지 대경빌딩 4층","indutype":"보건위생 - 화장품","category":"beauty"},{"name":"오휘컨설턴트","tel":"031-771-5251","addr":"경기도 양평군 양평읍 창대리 649-2번지 4층","indutype":"보건위생 - 화장품","category":"beauty"}]},{"lat":"37.48997283","long":"127.50850826","imageIndex":13,"items":[{"name":"우리들의료기","tel":"031-774-3632","addr":"경기도 양평군 양평읍 창대리 635번지 1층","indutype":"보건위생 - 의료용품","category":"beauty"}]},{"lat":"37.478917884","long":"127.49997725","imageIndex":16,"items":[{"name":"아소비학원","tel":"031-1111-1111","addr":"경기도 양평군 양평읍 창대리 511-5번지 창대빌라 1층","indutype":"학원 - 보습학원","category":"study"}]},{"lat":"37.474467561","long":"127.50198264","imageIndex":16,"items":[{"name":"양평하나유치원[아이행복]","tel":"031-774-0021","addr":"경기도 양평군 양평읍 창대리 310번지","indutype":"학원 - 유치원","category":"study"}]},{"lat":"37.487667272","long":"127.50192345","imageIndex":16,"items":[{"name":"에잇비트 소프트웨어 캠퍼스학원","tel":"031-774-8617","addr":"경기도 양평군 양평읍 창대리 649-3번지 2층","indutype":"학원 - 컴퓨터학원","category":"study"}]}]