[{"lat":"37.062421355","long":"126.79292058","imageIndex":17,"items":[{"name":"(주) 더위더스","tel":"031-351-8887","addr":"경기도 화성시 우정읍 화산리 668-12번지 벧엘빌딩 106호","indutype":"용역 서비스 - 종합용역","category":"other"}]},{"lat":"37.074228009","long":"126.79450735","imageIndex":17,"items":[{"name":"(주)핸즈이노베이션","tel":"032-202-8807","addr":"경기도 화성시 우정읍 화산리 364-8번지 핸즈이노베이션(주)","indutype":"건축자재 - 기타건축자재","category":"other"},{"name":"비엔에스","tel":"070-8186-9940","addr":"경기도 화성시 우정읍 화산리 364-8번지","indutype":"기타 - 기계공구","category":"other"}]},{"lat":"37.070895385","long":"126.81130488","imageIndex":17,"items":[{"name":"GS25화성화산점","tel":"02-2006-2118","addr":"경기도 화성시 우정읍 화산리 3-18","indutype":"유통업 영리 - 편 의 점","category":"other"}]},{"lat":"37.070038037","long":"126.81047494","imageIndex":17,"items":[{"name":"고려페인트혜림상사","tel":"031-351-7745","addr":"경기도 화성시 우정읍 화산리 5-4번지","indutype":"건축자재 - 페인트","category":"other"}]},{"lat":"37.061285424","long":"126.78756064","imageIndex":17,"items":[{"name":"대일종합상사","tel":"031-351-7270","addr":"경기도 화성시 우정읍 화산리 733-7번지","indutype":"레져용품 - 스포츠·레져용품","category":"other"}]},{"lat":"37.07378092","long":"126.79135992","imageIndex":17,"items":[{"name":"목재공방","tel":"031-495-5814","addr":"경기도 화성시 우정읍 화산리 244-24번지","indutype":"가구 - 일반가구","category":"other"}]},{"lat":"37.071399848","long":"126.8112249","imageIndex":17,"items":[{"name":"미나패션","tel":"070-2278-3930","addr":"경기도 화성시 우정읍 화산리 3-39번지 17-205(희망빌리지17동205호~205호)","indutype":"회원제형태 - 기타4","category":"other"}]},{"lat":"37.057450842","long":"126.79481182","imageIndex":17,"items":[{"name":"보경컨테이너","tel":"031-351-1659","addr":"경기도 화성시 우정읍 화산리 701-16번지","indutype":"건축자재 - 기타건축자재","category":"other"}]},{"lat":"37.059483997","long":"126.79297364","imageIndex":17,"items":[{"name":"서서울유압","tel":"031-358-9275","addr":"경기도 화성시 우정읍 화산리 692-23","indutype":"수리서비스 - 기타수리서비스","category":"other"}]},{"lat":"37.06123085","long":"126.78727971","imageIndex":17,"items":[{"name":"선진특장산업","tel":"031-278-8500","addr":"경기도 화성시 우정읍 화산리 733-1번지","indutype":"기타 - 기계공구","category":"other"}]},{"lat":"37.064254474","long":"126.79517552","imageIndex":17,"items":[{"name":"온누리시스템","tel":"031-358-3511","addr":"경기도 화성시 우정읍 화산리 663-1번지","indutype":"사무통신 - 컴퓨터","category":"other"}]},{"lat":"37.060148363","long":"126.79161139","imageIndex":17,"items":[{"name":"우정가설재","tel":"070-4161-7458","addr":"경기도 화성시 우정읍 화산리 693-5번지","indutype":"건축자재 - 기타건축자재","category":"other"}]},{"lat":"37.064120946","long":"126.79610912","imageIndex":17,"items":[{"name":"이마트24 화성카렌스점","tel":"031-000-0000","addr":"경기도 화성시 우정읍 화산리 664-35번지","indutype":"유통업 영리 - 편 의 점","category":"other"},{"name":"이마트24 화성카렌스점","tel":"031-000-0000","addr":"경기도 화성시 우정읍 화산리 664-35번지 1층","indutype":"유통업 영리 - 편 의 점","category":"other"}]},{"lat":"37.05711682","long":"126.79445296","imageIndex":17,"items":[{"name":"이마트24 화성화산점","tel":"031-000-0000","addr":"경기도 화성시 우정읍 화산리 1203-11번지 1층","indutype":"유통업 영리 - 편 의 점","category":"other"}]},{"lat":"37.063342692","long":"126.79419981","imageIndex":17,"items":[{"name":"이화종합공구","tel":"031-8050-8879","addr":"경기도 화성시 우정읍 화산리 665-6번지","indutype":"건축자재 - 목재·석재·철물","category":"other"}]},{"lat":"37.07039926","long":"126.81096879","imageIndex":17,"items":[{"name":"조암 가구","tel":"031-358-7488","addr":"경기도 화성시 우정읍 화산리 3-32번지","indutype":"가구 - 일반가구","category":"other"}]},{"lat":"37.066368973","long":"126.79864418","imageIndex":17,"items":[{"name":"주식회사 조앤윤","tel":"031-351-1300","addr":"경기도 화성시 우정읍 화산리 589-4번지","indutype":"건축자재 - 기타건축자재","category":"other"}]},{"lat":"37.072758138","long":"126.79903187","imageIndex":17,"items":[{"name":"주식회사태경에너지","tel":"031-353-2864","addr":"경기도 화성시 우정읍 화산리 138-1번지","indutype":"건축자재 - 보일러·펌프·샷시","category":"other"}]},{"lat":"37.073116027","long":"126.80825188","imageIndex":17,"items":[{"name":"프리즘인터내셔널","tel":"031-663-0447","addr":"경기도 화성시 우정읍 화산리 산12-1번지","indutype":"의류 - 내의판매","category":"other"}]},{"lat":"37.068095585","long":"126.80730894","imageIndex":17,"items":[{"name":"현대스포츠","tel":"031-358-5476","addr":"경기도 화성시 우정읍 화산리 13-5","indutype":"레져용품 - 스포츠·레져용품","category":"other"}]},{"lat":"37.071950035","long":"126.81156086","imageIndex":17,"items":[{"name":"희망24시편의점","tel":"031-358-2233","addr":"경기도 화성시 우정읍 화산리 3-7번지 102호","indutype":"유통업 영리 - 편 의 점","category":"other"}]}]