[{"lat":"36.963774989","long":"126.91835009","imageIndex":4,"items":[{"name":"만다린","tel":"031-684-9389","addr":"경기도 평택시 현덕면 도대리 15-37번지 1층","indutype":"일반휴게음식 - 중국식","category":"restaurant"},{"name":"만다린","tel":"","addr":"경기도 평택시 현덕면 도대리 15-37번지 101호","indutype":"음식점 - 중식","category":"restaurant"},{"name":"중국집","tel":"","addr":"경기도 평택시 현덕면 도대리 15-37번지","indutype":"음식점 - 중식","category":"restaurant"}]},{"lat":"36.965379379","long":"126.91902207","imageIndex":4,"items":[{"name":"유가네식당","tel":"031-682-1856","addr":"경기도 평택시 현덕면 도대리 17-125번지 1층","indutype":"일반휴게음식 - 일반한식","category":"restaurant"},{"name":"티바두마리치킨현덕점","tel":"031-686-9292","addr":"경기도 평택시 현덕면 도대리 17-125번지 2층","indutype":"일반휴게음식 - 주점","category":"restaurant"}]},{"lat":"36.959440006","long":"126.91722082","imageIndex":4,"items":[{"name":"자연만찬","tel":"031-686-5599","addr":"경기도 평택시 현덕면 도대리 37-15번지","indutype":"일반휴게음식 - 일반한식","category":"restaurant"},{"name":"자연만찬","tel":"031-686-5599","addr":"경기도 평택시 현덕면 도대리 37-15번지 1층","indutype":"일반휴게음식 - 일반한식","category":"restaurant"}]},{"lat":"36.962052357","long":"126.91616239","imageIndex":4,"items":[{"name":"참살이콩이야기","tel":"031-683-0054","addr":"경기도 평택시 현덕면 도대리 17-77번지","indutype":"일반휴게음식 - 일반한식","category":"restaurant"},{"name":"참살이콩이야기","tel":"","addr":"경기도 평택시 현덕면 도대리 17-77번지","indutype":"음식점 - 한식","category":"restaurant"}]},{"lat":"36.962602217","long":"126.91644249","imageIndex":4,"items":[{"name":"청담","tel":"031-681-7624","addr":"경기도 평택시 현덕면 도대리 15-31번지 1층","indutype":"일반휴게음식 - 일반한식","category":"restaurant"}]},{"lat":"36.96202498","long":"126.91569082","imageIndex":4,"items":[{"name":"팔복순대국","tel":"031-683-2669","addr":"경기도 평택시 현덕면 도대리 17-81","indutype":"일반휴게음식 - 일반한식","category":"restaurant"},{"name":"팔복순대국","tel":"031-681-3919","addr":"경기도 평택시 현덕면 도대리 17-81번지","indutype":"음식점 - 한식","category":"restaurant"}]}]