[{"lat":"37.143332481","long":"127.04942342","imageIndex":0,"items":[{"name":"(자)대우건기","tel":"031-372-8850","addr":"경기도 오산시 누읍동 424-3번지","indutype":"자동차정비 유지 - 중장비수리","category":"car"}]},{"lat":"37.138726733","long":"127.05284206","imageIndex":0,"items":[{"name":"남해경정비카센타","tel":"031-372-3088","addr":"경기도 오산시 누읍동 271번지","indutype":"자동차정비 유지 - 자동차정비","category":"car"},{"name":"메카디테일링","tel":"","addr":"경기도 오산시 누읍동 271번지","indutype":"자동차정비 유지 - 세차장","category":"car"},{"name":"브라더카(Brother Car)","tel":"031-374-3734","addr":"경기도 오산시 누읍동 271번지 1층","indutype":"자동차정비 유지 - 카인테리어","category":"car"}]},{"lat":"37.138978913","long":"127.05311235","imageIndex":0,"items":[{"name":"닥터후카센터","tel":"031-376-0427","addr":"경기도 오산시 누읍동 626-10번지","indutype":"자동차정비 유지 - 자동차시트·타이어","category":"car"}]},{"lat":"37.139032736","long":"127.05367512","imageIndex":0,"items":[{"name":"두원상사","tel":"031-374-1461","addr":"경기도 오산시 누읍동 629-4번지","indutype":"자동차정비 유지 - 자동차부품","category":"car"}]},{"lat":"37.141702593","long":"127.04677744","imageIndex":0,"items":[{"name":"제2다우상사","tel":"031-374-0330","addr":"경기도 오산시 누읍동 561-6","indutype":"자동차판매 - 중고자동차판매","category":"car"}]},{"lat":"37.139167883","long":"127.05369772","imageIndex":0,"items":[{"name":"중앙상사","tel":"031-374-4050","addr":"경기도 오산시 누읍동 629-3번지","indutype":"자동차정비 유지 - 자동차부품","category":"car"}]},{"lat":"37.142338881","long":"127.05528685","imageIndex":0,"items":[{"name":"현대라이닝","tel":"031-372-4848","addr":"경기도 오산시 누읍동 366번지","indutype":"자동차정비 유지 - 자동차부품","category":"car"}]}]