[{"lat":"37.3526112224","long":"126.9719226708","imageIndex":13,"items":[{"name":"(주)47컴퍼니","tel":"031-457-7006","addr":"경기도 의왕시 오전동 276-1번지 대덕하이베라스 305호","indutype":"레저업소 - 헬스클럽","category":"leisure"},{"name":"골드볼링장","tel":"031-451-6611","addr":"경기도 의왕시 오전동 276-1번지 대덕하이베라스 4층","indutype":"레저업소 - 볼 링 장","category":"leisure"},{"name":"더온필라테스","tel":"031-457-7006","addr":"경기도 의왕시 오전동 276-1번지 대덕하이베라스 305호","indutype":"레저업소 - 헬스클럽","category":"leisure"},{"name":"메이저스크린","tel":"031-427-1415","addr":"경기도 의왕시 오전동 276-1번지 대덕하이베라스 5층 501호","indutype":"레저업소 - 스크린골프","category":"leisure"},{"name":"에소르휘트니스","tel":"031-457-2006","addr":"경기도 의왕시 오전동 276-1번지 대덕하이베라스 306동 310호","indutype":"레저업소 - 헬스클럽","category":"leisure"},{"name":"주주노래연습장","tel":"031-427-6633","addr":"경기도 의왕시 오전동 276-1대덕하이베라스2층205호.206호","indutype":"레저업소 - 노 래 방","category":"leisure"},{"name":"주주당구클럽","tel":"070-8227-1005","addr":"경기도 의왕시 오전동 276-1번지 대덕하이베라스 202호","indutype":"레저업소 - 당 구 장","category":"leisure"}]},{"lat":"37.3584756913","long":"126.9678341748","imageIndex":13,"items":[{"name":"EST복싱다이어트","tel":"02-732-9484","addr":"경기도 의왕시 오전동 839번지 동원빌딩 3층","indutype":"레저업소 - 헬스클럽","category":"leisure"},{"name":"테마노래연습장","tel":"031-477-0609","addr":"경기도 의왕시 오전동 839지하1층","indutype":"레저업소 - 노 래 방","category":"leisure"}]},{"lat":"37.3645296372","long":"126.9650092491","imageIndex":13,"items":[{"name":"KK휘트니스","tel":"031-429-5552","addr":"경기도 의왕시 오전동 25-10번지 한이프라자 2,3층","indutype":"레저업소 - 헬스클럽","category":"leisure"}]},{"lat":"37.3555020502","long":"126.9668648682","imageIndex":13,"items":[{"name":"RNJ골프존","tel":"031-427-3456","addr":"경기도 의왕시 오전동 196-5번지 3,4층","indutype":"레저업소 - 골프연습장","category":"leisure"},{"name":"벽산골프","tel":"031-456-2240","addr":"경기도 의왕시 오전동 196-5번지","indutype":"레저업소 - 골프연습장","category":"leisure"},{"name":"주식회사데코팔","tel":"031-427-3500","addr":"경기도 의왕시 오전동 196-5번지","indutype":"레저업소 - 골프연습장","category":"leisure"}]},{"lat":"37.3588092491","long":"126.9684548367","imageIndex":13,"items":[{"name":"Season i PC방","tel":"070-8802-2544","addr":"경기도 의왕시 오전동 104-2번지 지층","indutype":"레저업소 - 기타레져업소","category":"leisure"},{"name":"아이비짐(IB-GYM)","tel":"031-427-1378","addr":"경기도 의왕시 오전동 104-2번지 3층","indutype":"레저업소 - 헬스클럽","category":"leisure"}]},{"lat":"37.3583675226","long":"126.9676761999","imageIndex":13,"items":[{"name":"당구스포션","tel":"031-456-0161","addr":"경기도 의왕시 오전동 839-1 도원빌딩지하1층","indutype":"레저업소 - 당 구 장","category":"leisure"}]},{"lat":"37.3675301883","long":"126.9655608963","imageIndex":13,"items":[{"name":"대한전통무술진흥재단","tel":"031-451-1929","addr":"경기도 의왕시 오전동 832번지","indutype":"레저업소 - 헬스클럽","category":"leisure"}]},{"lat":"37.3600881745","long":"126.9667272231","imageIndex":13,"items":[{"name":"럭셔리노래연습장","tel":"031-427-3737","addr":"경기도 의왕시 오전동 32-152번지","indutype":"레저업소 - 노 래 방","category":"leisure"}]},{"lat":"37.3593945780","long":"126.9673370900","imageIndex":13,"items":[{"name":"모락산노래연습장","tel":"031-427-3391","addr":"경기도 의왕시 오전동 108번지 현대프라자 지하 비02","indutype":"레저업소 - 노 래 방","category":"leisure"}]},{"lat":"37.3541968487","long":"126.9713125273","imageIndex":13,"items":[{"name":"몸반테라피","tel":"","addr":"경기도 의왕시 오전동 846번지","indutype":"레저업소 - 헬스클럽","category":"leisure"}]},{"lat":"37.3535300216","long":"126.9710306368","imageIndex":13,"items":[{"name":"민속노래연습장","tel":"031-454-6659","addr":"경기도 의왕시 오전동 843-7번지","indutype":"레저업소 - 노 래 방","category":"leisure"}]},{"lat":"37.3580069746","long":"126.9672022950","imageIndex":13,"items":[{"name":"방방타요","tel":"031-429-8250","addr":"경기도 의왕시 오전동 839-4번지 의왕그린프라자 501,502,503호","indutype":"레저업소 - 기타레져업소","category":"leisure"},{"name":"월드노래연습장","tel":"031-458-5958","addr":"경기도 의왕시 오전동 839-4,2층201,202,203호","indutype":"레저업소 - 노 래 방","category":"leisure"}]},{"lat":"37.3601696088","long":"126.9678672504","imageIndex":13,"items":[{"name":"비비씨(BBC)24 휘트니스","tel":"031-451-6006","addr":"경기도 의왕시 오전동 101-3번지 그레이스빌딩 601호","indutype":"레저업소 - 헬스클럽","category":"leisure"}]},{"lat":"37.3593674659","long":"126.9670661988","imageIndex":13,"items":[{"name":"빌리어드잼","tel":"031-459-8899","addr":"경기도 의왕시 오전동 108번지 현대프라자 401호","indutype":"레저업소 - 당 구 장","category":"leisure"},{"name":"빌리어드잼","tel":"031-455-8899","addr":"경기도 의왕시 오전동 108번지 현대프라자 4층 1호","indutype":"레저업소 - 당 구 장","category":"leisure"},{"name":"엔핫요가","tel":"031-454-6300","addr":"경기도 의왕시 오전동 108번지 현대프라자 503호","indutype":"레저업소 - 헬스클럽","category":"leisure"}]},{"lat":"37.3581692252","long":"126.9674279679","imageIndex":13,"items":[{"name":"샹떼PC방 의왕오전점","tel":"02-222-2222","addr":"경기도 의왕시 오전동 839-3번지 한마음프라자 지하1층","indutype":"레저업소 - 기타레져업소","category":"leisure"}]},{"lat":"37.3524222104","long":"126.9727015256","imageIndex":13,"items":[{"name":"소리샘노래연습장","tel":"031-455-5877","addr":"경기도 의왕시 오전동 314-13번지","indutype":"레저업소 - 노 래 방","category":"leisure"}]},{"lat":"37.3591152227","long":"126.9672017702","imageIndex":13,"items":[{"name":"스킬당구클럽","tel":"031-452-3949","addr":"경기도 의왕시 오전동 109번지 흥명상가 302호 (오전동)","indutype":"레저업소 - 당 구 장","category":"leisure"}]},{"lat":"37.3511427679","long":"126.9727020379","imageIndex":13,"items":[{"name":"아방궁당구장","tel":"031-459-3958","addr":"경기도 의왕시 오전동 323-3번지 오전빌딩 202호","indutype":"레저업소 - 당 구 장","category":"leisure"},{"name":"특급노래연습장","tel":"031-429-8392","addr":"경기도 의왕시 오전동 323-3번지","indutype":"레저업소 - 노 래 방","category":"leisure"}]},{"lat":"37.3582500285","long":"126.9664797800","imageIndex":13,"items":[{"name":"아싸노래연습장","tel":"031-458-1723","addr":"경기도 의왕시 오전동 838-5번지 진양빌딩 지층","indutype":"레저업소 - 노 래 방","category":"leisure"}]},{"lat":"37.3510348197","long":"126.9733905527","imageIndex":13,"items":[{"name":"에스비에스 당구장","tel":"031-689-3311","addr":"경기도 의왕시 오전동 324-10번지 덕암빌딩 3층","indutype":"레저업소 - 당 구 장","category":"leisure"}]},{"lat":"37.3507023139","long":"126.9771151844","imageIndex":13,"items":[{"name":"월드당구장","tel":"031-458-0850","addr":"경기도 의왕시 오전동 373-5, 지하층","indutype":"레저업소 - 당 구 장","category":"leisure"}]},{"lat":"37.3629631400","long":"126.9691979603","imageIndex":13,"items":[{"name":"윤선생골프스쿨","tel":"","addr":"경기도 의왕시 오전동 100번지","indutype":"레저업소 - 골프연습장","category":"leisure"}]},{"lat":"37.3549186811","long":"126.9753981189","imageIndex":13,"items":[{"name":"의왕도시공사/국민체육센터","tel":"031-8086-7405","addr":"경기도 의왕시 오전동 852번지 의왕도시공사 시설운영팀","indutype":"레저업소 - 수 영 장","category":"leisure"}]},{"lat":"37.3660614756","long":"126.9653697165","imageIndex":13,"items":[{"name":"조앤다이어트클럽","tel":"031-429-2240","addr":"경기도 의왕시 오전동 24-2번지 3층","indutype":"레저업소 - 헬스클럽","category":"leisure"}]},{"lat":"37.3618638640","long":"126.9690629953","imageIndex":13,"items":[{"name":"주식회사 고릴라짐","tel":"031-395-9600","addr":"경기도 의왕시 오전동 100번지 지하층","indutype":"레저업소 - 헬스클럽","category":"leisure"}]},{"lat":"37.3500080075","long":"126.9748130238","imageIndex":13,"items":[{"name":"줌바위드베키","tel":"","addr":"경기도 의왕시 오전동 333-7번지 천용빌딩 2층","indutype":"레저업소 - 헬스클럽","category":"leisure"}]},{"lat":"37.3596469061","long":"126.9674837112","imageIndex":13,"items":[{"name":"찬스노래연습장","tel":"031-427-8430","addr":"경기도 의왕시 오전동 104-5번지 지하1층","indutype":"레저업소 - 노 래 방","category":"leisure"}]},{"lat":"37.3596380669","long":"126.9680593884","imageIndex":13,"items":[{"name":"케이원(K1)필라테스","tel":"031-427-7977","addr":"경기도 의왕시 오전동 104번지 지하1층","indutype":"레저업소 - 헬스클럽","category":"leisure"}]},{"lat":"37.3593135037","long":"126.9673935665","imageIndex":13,"items":[{"name":"팡팡노리터","tel":"031-451-0080","addr":"경기도 의왕시 오전동 109번지 3층 일부","indutype":"레저업소 - 기타레져업소","category":"leisure"}]}]