[{"lat":"38.03211576","long":"127.1026137","imageIndex":4,"items":[{"name":"궁평국수","tel":"031-832-0934","addr":"경기도 연천군 청산면 궁평리 590번지","indutype":"일반휴게음식 - 일반한식","category":"restaurant"}]},{"lat":"38.03117178","long":"127.1105854","imageIndex":4,"items":[{"name":"금잔디우렁이쌈밥집","tel":"031-835-8100","addr":"경기도 연천군 청산면 궁평리 154-6번지","indutype":"일반휴게음식 - 일반한식","category":"restaurant"}]},{"lat":"38.03214325","long":"127.1020556","imageIndex":4,"items":[{"name":"놀부","tel":"031-833-5019","addr":"경기도 연천군 청산면 궁평리 592-2번지 1","indutype":"일반휴게음식 - 일반한식","category":"restaurant"}]},{"lat":"38.03514202","long":"127.1035518","imageIndex":4,"items":[{"name":"라피유","tel":"031-5177-9979","addr":"경기도 연천군 청산면 궁평리 562-6번지","indutype":"일반휴게음식 - 서양음식","category":"restaurant"}]},{"lat":"38.02506524","long":"127.108777","imageIndex":4,"items":[{"name":"민경이네김밥 청산궁평점","tel":"031-833-6655","addr":"경기도 연천군 청산면 궁평리 231-4번지","indutype":"일반휴게음식 - 일반한식","category":"restaurant"}]},{"lat":"38.0299221","long":"127.1077247","imageIndex":4,"items":[{"name":"백인더 처치","tel":"031-833-1121","addr":"경기도 연천군 청산면 궁평리 489-18번지","indutype":"일반휴게음식 - 일반한식","category":"restaurant"}]},{"lat":"38.03217049","long":"127.1018051","imageIndex":4,"items":[{"name":"부산돼지국밥","tel":"031-833-1331","addr":"경기도 연천군 청산면 궁평리 592-5번지","indutype":"일반휴게음식 - 일반한식","category":"restaurant"}]},{"lat":"38.02478591","long":"127.1088335","imageIndex":4,"items":[{"name":"삼월애","tel":"031-832-3090","addr":"경기도 연천군 청산면 궁평리 231-17번지","indutype":"일반휴게음식 - 일반한식","category":"restaurant"}]},{"lat":"38.0325028","long":"127.1030243","imageIndex":4,"items":[{"name":"오두막가마솥손두부","tel":"031-472-9991","addr":"경기도 연천군 청산면 궁평리 587-1번지","indutype":"일반휴게음식 - 일반한식","category":"restaurant"}]},{"lat":"38.03047939","long":"127.1091379","imageIndex":4,"items":[{"name":"용궁","tel":"031-835-2451","addr":"경기도 연천군 청산면 궁평리 165-33번지 2층","indutype":"일반휴게음식 - 서양음식","category":"restaurant"}]},{"lat":"38.03086666","long":"127.1092751","imageIndex":4,"items":[{"name":"인제막국수","tel":"031-832-0605","addr":"경기도 연천군 청산면 궁평리 165-13번지","indutype":"일반휴게음식 - 일반한식","category":"restaurant"}]},{"lat":"38.03075862","long":"127.1091952","imageIndex":4,"items":[{"name":"청산치킨","tel":"031-835-1231","addr":"경기도 연천군 청산면 궁평리 165-19번지","indutype":"일반휴게음식 - 스넥","category":"restaurant"}]},{"lat":"38.02445222","long":"127.1092203","imageIndex":4,"items":[{"name":"카페리히트","tel":"031-832-7548","addr":"경기도 연천군 청산면 궁평리 232번지","indutype":"일반휴게음식 - 서양음식","category":"restaurant"}]},{"lat":"38.03203327","long":"127.1042538","imageIndex":4,"items":[{"name":"큰맘할매순대국","tel":"031-832-8866","addr":"경기도 연천군 청산면 궁평리 531번지","indutype":"일반휴게음식 - 일반한식","category":"restaurant"}]},{"lat":"38.03606378","long":"127.1105242","imageIndex":4,"items":[{"name":"플렛하우스","tel":"031-832-2171","addr":"경기도 연천군 청산면 궁평리 38-4번지","indutype":"일반휴게음식 - 서양음식","category":"restaurant"}]},{"lat":"38.03189569","long":"127.1070555","imageIndex":0,"items":[{"name":"금강산정비공업사","tel":"031-832-4485","addr":"경기도 연천군 청산면 궁평리 526-25번지","indutype":"자동차정비 유지 - 자동차정비","category":"car"}]},{"lat":"38.03298037","long":"127.1029224","imageIndex":0,"items":[{"name":"청산자동차정비공업사","tel":"031-835-1707","addr":"경기도 연천군 청산면 궁평리 581-5","indutype":"자동차정비 유지 - 자동차정비","category":"car"}]},{"lat":"38.02100659","long":"127.1036919","imageIndex":7,"items":[{"name":"농업회사법인 연천바이오텍주식회사","tel":"031-832-3778","addr":"경기도 연천군 청산면 궁평리 371번지","indutype":"음료식품 - 농·축·수산품","category":"food"}]},{"lat":"38.03298037","long":"127.1029224","imageIndex":7,"items":[{"name":"명성상회","tel":"031-835-1707","addr":"경기도 연천군 청산면 궁평리 581-5","indutype":"음료식품 - 기타음료식품","category":"food"}]},{"lat":"38.0346503","long":"127.1094742","imageIndex":7,"items":[{"name":"연린자회","tel":"","addr":"경기도 연천군 청산면 궁평리 49-6번지","indutype":"음료식품 - 기타음료식품","category":"food"}]},{"lat":"38.02353366","long":"127.108809","imageIndex":7,"items":[{"name":"향산농원","tel":"02-3215-3259","addr":"경기도 연천군 청산면 궁평리 409-11번지","indutype":"음료식품 - 농·축·수산품","category":"food"}]},{"lat":"38.02673243","long":"127.1082213","imageIndex":8,"items":[{"name":"메디팜 원무약국","tel":"031-833-3578","addr":"경기도 연천군 청산면 궁평리 474-2","indutype":"약국 - 약국","category":"medical"}]},{"lat":"38.03186844","long":"127.1073061","imageIndex":17,"items":[{"name":"바른교육","tel":"031-1577-0000","addr":"경기도 연천군 청산면 궁평리 526-11번지 1층","indutype":"서적문구 - 일반서적","category":"other"}]},{"lat":"38.0314515","long":"127.1101074","imageIndex":17,"items":[{"name":"서진산업","tel":"031-833-1117","addr":"경기도 연천군 청산면 궁평리 154-3,68-7,73-4","indutype":"기타 - 기타 전문점","category":"other"}]},{"lat":"38.03200584","long":"127.1047207","imageIndex":17,"items":[{"name":"씨유연천궁평리점","tel":"031-832-8866","addr":"경기도 연천군 청산면 궁평리 531-3번지","indutype":"유통업 영리 - 편 의 점","category":"other"}]},{"lat":"38.03723311","long":"127.1125307","imageIndex":17,"items":[{"name":"예술문화단놀패","tel":"031-824-7542","addr":"경기도 연천군 청산면 궁평리 31-1번지","indutype":"문화.취미 - 티켓","category":"other"}]},{"lat":"38.02306665","long":"127.1071683","imageIndex":17,"items":[{"name":"원통목공예산업","tel":"032-571-5689","addr":"경기도 연천군 청산면 궁평리 381번지","indutype":"기타 - 기타 전문점","category":"other"}]},{"lat":"38.03473056","long":"127.1103856","imageIndex":17,"items":[{"name":"주식회사 파라데우스교육","tel":"070-8272-3809","addr":"경기도 연천군 청산면 궁평리 48-4번지","indutype":"서적문구 - 일반서적","category":"other"},{"name":"천자교육","tel":"070-8156-3282","addr":"경기도 연천군 청산면 궁평리 48-4번지","indutype":"회원제형태 - 서적","category":"other"}]},{"lat":"38.03636924","long":"127.1114473","imageIndex":17,"items":[{"name":"지오상상","tel":"","addr":"경기도 연천군 청산면 궁평리 38-10번지","indutype":"용역 서비스 - 종합용역","category":"other"}]},{"lat":"38.01595125","long":"127.1051085","imageIndex":17,"items":[{"name":"청송수목원","tel":"031-935-1802","addr":"경기도 연천군 청산면 궁평리 312","indutype":"농업 - 비료,사료,종자","category":"other"}]},{"lat":"38.0325028","long":"127.1030243","imageIndex":7,"items":[{"name":"오두막편의점","tel":"031-387-2854","addr":"경기도 연천군 청산면 궁평리 587-1번지","indutype":"유통업 영리 - 슈퍼마켓","category":"mart"}]},{"lat":"38.03606378","long":"127.1105242","imageIndex":5,"items":[{"name":"플랫하우스","tel":"031-832-2171","addr":"경기도 연천군 청산면 궁평리 38-4번지 2동","indutype":"숙박업 - 여관/기타숙박업","category":"hotel"}]}]