[{"lat":"37.732288366","long":"126.97772086","imageIndex":17,"items":[{"name":"(주)에스라인몰","tel":"031-855-4188","addr":"경기도 양주시 장흥면 부곡리 201-12번지","indutype":"직물 - 카페트,커튼,천막,지물","category":"other"}]},{"lat":"37.72132329","long":"126.97585308","imageIndex":17,"items":[{"name":"GS25양주송추점","tel":"","addr":"경기도 양주시 장흥면 부곡리 569-4번지","indutype":"유통업 영리 - 편 의 점","category":"other"}]},{"lat":"37.715847055","long":"126.95310397","imageIndex":17,"items":[{"name":"WILD STONE","tel":"031-829-7189","addr":"경기도 양주시 장흥면 부곡리 646-74번지","indutype":"신변잡화 - 기념품점","category":"other"}]},{"lat":"37.718096792","long":"126.97155568","imageIndex":17,"items":[{"name":"공간사랑","tel":"031-826-3000","addr":"경기도 양주시 장흥면 부곡리 624-34번지 1층","indutype":"신변잡화 - 액세서리","category":"other"}]},{"lat":"37.721738934","long":"126.98173965","imageIndex":17,"items":[{"name":"금성테크","tel":"031-878-3805","addr":"경기도 양주시 장흥면 부곡리 520-1번지","indutype":"건축자재 - 인테리어전문","category":"other"}]},{"lat":"37.724990395","long":"126.97674784","imageIndex":17,"items":[{"name":"기광w/n","tel":"031-8126-0080","addr":"경기도 양주시 장흥면 부곡리 477-9번지","indutype":"용역 서비스 - 기타용역서비스","category":"other"},{"name":"미니스톱 양주장흥점","tel":"031-1577-9621","addr":"경기도 양주시 장흥면 부곡리 477-9번지","indutype":"유통업 영리 - 편 의 점","category":"other"}]},{"lat":"37.719043708","long":"126.97518473","imageIndex":17,"items":[{"name":"나드리사진관","tel":"031-928-5828","addr":"경기도 양주시 장흥면 부곡리 540-20번지 3층","indutype":"광학제품 - 사진관","category":"other"}]},{"lat":"37.729792053","long":"126.97479504","imageIndex":17,"items":[{"name":"다모아","tel":"070-8877-0469","addr":"경기도 양주시 장흥면 부곡리 277","indutype":"의류 - 내의판매","category":"other"}]},{"lat":"37.737342747","long":"126.97777587","imageIndex":17,"items":[{"name":"대석전","tel":"031-796-2554","addr":"경기도 양주시 장흥면 부곡리 144-1번지 1층","indutype":"문화.취미 - 민예·공예품","category":"other"},{"name":"세븐일레븐양주송추점","tel":"031-1577-0711","addr":"경기도 양주시 장흥면 부곡리 144-1번지 1층","indutype":"유통업 영리 - 편 의 점","category":"other"}]},{"lat":"37.718900097","long":"126.97760063","imageIndex":17,"items":[{"name":"대성오토바이","tel":"031-855-1446","addr":"경기도 양주시 장흥면 부곡리 537-3번지","indutype":"수리서비스 - 레져용품수리","category":"other"}]},{"lat":"37.740289238","long":"126.97954474","imageIndex":17,"items":[{"name":"더해피케어요양원","tel":"","addr":"경기도 양주시 장흥면 부곡리 77-46번지","indutype":"기타의료기관 - 기타의료기관 및 기타","category":"other"}]},{"lat":"37.735261375","long":"126.97702784","imageIndex":17,"items":[{"name":"디도르","tel":"02-537-1943","addr":"경기도 양주시 장흥면 부곡리 185-3","indutype":"직물 - 카페트,커튼,천막,지물","category":"other"}]},{"lat":"37.738378685","long":"126.97702675","imageIndex":17,"items":[{"name":"만물제작소","tel":"02-000-0000","addr":"경기도 양주시 장흥면 부곡리 139-7번지","indutype":"수리서비스 - 기타수리서비스","category":"other"}]},{"lat":"37.718963089","long":"126.977249","imageIndex":17,"items":[{"name":"명희인테리어","tel":"031-826-4100","addr":"경기도 양주시 장흥면 부곡리 537-1","indutype":"직물 - 카페트,커튼,천막,지물","category":"other"}]},{"lat":"37.732017265","long":"126.97415894","imageIndex":17,"items":[{"name":"미래콜렉션","tel":"031-5428-8542","addr":"경기도 양주시 장흥면 부곡리 285-1번지","indutype":"신변잡화 - 기념품점","category":"other"}]},{"lat":"37.712545085","long":"126.96541119","imageIndex":17,"items":[{"name":"베스트케어요양원","tel":"031-873-3388","addr":"경기도 양주시 장흥면 부곡리 636-14번지","indutype":"기타의료기관 - 기타의료기관 및 기타","category":"other"}]},{"lat":"37.723404665","long":"126.97655557","imageIndex":17,"items":[{"name":"부곡철물건재","tel":"031-879-0861","addr":"경기도 양주시 장흥면 부곡리 486-6","indutype":"건축자재 - 목재·석재·철물","category":"other"}]},{"lat":"37.74090133","long":"126.97687839","imageIndex":17,"items":[{"name":"비 인 아트","tel":"031-855-1999","addr":"경기도 양주시 장흥면 부곡리 123-30번지","indutype":"문화.취미 - 화원","category":"other"}]},{"lat":"37.741180954","long":"126.97840992","imageIndex":17,"items":[{"name":"사랑사랑 요양원","tel":"031-878-8833","addr":"경기도 양주시 장흥면 부곡리 77-4번지","indutype":"기타의료기관 - 기타의료기관 및 기타","category":"other"}]},{"lat":"37.741036904","long":"126.97890916","imageIndex":17,"items":[{"name":"서울스마트 효 요양원","tel":"031-829-8556","addr":"경기도 양주시 장흥면 부곡리 77-39번지","indutype":"기타의료기관 - 기타의료기관 및 기타","category":"other"}]},{"lat":"37.736378788","long":"126.9780825","imageIndex":17,"items":[{"name":"성순자원개발","tel":"","addr":"경기도 양주시 장흥면 부곡리 145-1번지 145-6","indutype":"신변잡화 - 기타잡화","category":"other"}]},{"lat":"37.737567846","long":"126.97712914","imageIndex":17,"items":[{"name":"성일상사","tel":"031-836-7800","addr":"경기도 양주시 장흥면 부곡리 142-1번지","indutype":"기타 - 기타 전문점","category":"other"}]},{"lat":"37.740847788","long":"126.979329","imageIndex":17,"items":[{"name":"송추VIP요양원","tel":"031-855-6699","addr":"경기도 양주시 장흥면 부곡리 77번지","indutype":"기타의료기관 - 기타의료기관 및 기타","category":"other"}]},{"lat":"37.740126767","long":"126.97808125","imageIndex":17,"items":[{"name":"송추푸른요양원","tel":"032-855-2005","addr":"경기도 양주시 장흥면 부곡리 77-19번지","indutype":"기타의료기관 - 기타의료기관 및 기타","category":"other"}]},{"lat":"37.720683674","long":"126.97613687","imageIndex":17,"items":[{"name":"쇼파닥터","tel":"031-888-9999","addr":"경기도 양주시 장흥면 부곡리 563-8번지","indutype":"수리서비스 - 신변잡화수리","category":"other"},{"name":"알트비(ALTBEE)","tel":"031-855-5986","addr":"경기도 양주시 장흥면 부곡리 563-8번지","indutype":"레져용품 - 스포츠·레져용품","category":"other"}]},{"lat":"37.715929095","long":"126.95541759","imageIndex":17,"items":[{"name":"신상호스튜디오","tel":"031-826-4549","addr":"경기도 양주시 장흥면 부곡리 646-48번지 지층","indutype":"문화.취미 - 화랑","category":"other"}]},{"lat":"37.726512933","long":"126.97638432","imageIndex":17,"items":[{"name":"신한자판기","tel":"02-3493-2008","addr":"경기도 양주시 장흥면 부곡리 408-11번지 신한자판기","indutype":"기타 - 기타 전문점","category":"other"}]},{"lat":"37.721845841","long":"126.9758302","imageIndex":17,"items":[{"name":"씨유양주우남점","tel":"031-878-8205","addr":"경기도 양주시 장흥면 부곡리 486-20번지 1층","indutype":"유통업 영리 - 편 의 점","category":"other"}]},{"lat":"37.726098536","long":"126.9765773","imageIndex":17,"items":[{"name":"연디자인","tel":"070-8391-1010","addr":"경기도 양주시 장흥면 부곡리 408-3번지","indutype":"건축자재 - 인테리어전문","category":"other"}]},{"lat":"37.740703355","long":"126.97796761","imageIndex":17,"items":[{"name":"연세요양원","tel":"031-876-3600","addr":"경기도 양주시 장흥면 부곡리 77-16번지","indutype":"기타의료기관 - 기타의료기관 및 기타","category":"other"}]},{"lat":"37.740460365","long":"126.97927239","imageIndex":17,"items":[{"name":"온누리요양원","tel":"031-877-7711","addr":"경기도 양주시 장흥면 부곡리 77-5번지","indutype":"기타의료기관 - 기타의료기관 및 기타","category":"other"}]},{"lat":"37.721764781","long":"126.97594366","imageIndex":17,"items":[{"name":"우남공인중개사사무소","tel":"031-877-4291","addr":"경기도 양주시 장흥면 부곡리 486-19","indutype":"용역 서비스 - 부동산 중개·임대","category":"other"}]},{"lat":"37.740288961","long":"126.9781833","imageIndex":17,"items":[{"name":"이레실버케어","tel":"031-878-0998","addr":"경기도 양주시 장흥면 부곡리 77-20번지","indutype":"기타의료기관 - 기타의료기관 및 기타","category":"other"}]},{"lat":"37.740514223","long":"126.97829668","imageIndex":17,"items":[{"name":"이화실버케어요양원","tel":"031-877-7807","addr":"경기도 양주시 장흥면 부곡리 77-21번지","indutype":"기타의료기관 - 기타의료기관 및 기타","category":"other"}]},{"lat":"37.719070993","long":"126.97629624","imageIndex":17,"items":[{"name":"장흥농협송추지소","tel":"031-826-4074","addr":"경기도 양주시 장흥면 부곡리 539-1번지","indutype":"유통업 비영리 - 농,축협 직영매장","category":"other"},{"name":"장흥농협송추지점","tel":"031-826-4074","addr":"경기도 양주시 장흥면 부곡리 539-1번지","indutype":"유통업 비영리 - 농,축협 직영매장","category":"other"},{"name":"장흥농협송추지점","tel":"031-826-3135","addr":"경기도 양주시 장흥면 부곡리 539-1번지","indutype":"유통업 영리 - 상품권","category":"other"},{"name":"장흥농협송추지점","tel":"031-826-3135","addr":"경기도 양주시 장흥면 부곡리 539-1번지","indutype":"유통업 비영리 - 농,축협 직영매장","category":"other"},{"name":"장흥농협송추지점(구매계)","tel":"031-826-4074","addr":"경기도 양주시 장흥면 부곡리 539-1","indutype":"유통업 비영리 - 농,축협 직영매장","category":"other"}]},{"lat":"37.718683141","long":"126.97441361","imageIndex":17,"items":[{"name":"전원부동산중개","tel":"031-858-8700","addr":"경기도 양주시 장흥면 부곡리 545-2","indutype":"용역 서비스 - 부동산 중개·임대","category":"other"}]},{"lat":"37.731404906","long":"126.97538431","imageIndex":17,"items":[{"name":"주식회사 클럽타이콘","tel":"02-313-0781","addr":"경기도 양주시 장흥면 부곡리 316-26번지 1층","indutype":"서적문구 - 완구점","category":"other"}]},{"lat":"37.713627024","long":"126.96797375","imageIndex":17,"items":[{"name":"천일어닝천막","tel":"031-837-3638","addr":"경기도 양주시 장흥면 부곡리 629-1번지 1층","indutype":"직물 - 카페트,커튼,천막,지물","category":"other"}]},{"lat":"37.725927259","long":"126.97615767","imageIndex":17,"items":[{"name":"청련사 포교원 수불사","tel":"070-5022-4846","addr":"경기도 양주시 장흥면 부곡리 408-2번지","indutype":"기타 - 비영리/대상","category":"other"}]},{"lat":"37.716568117","long":"126.95380667","imageIndex":17,"items":[{"name":"청향사","tel":"031-877-3150","addr":"경기도 양주시 장흥면 부곡리 646-37번지","indutype":"신변잡화 - 기념품점","category":"other"}]},{"lat":"37.733649065","long":"126.97893423","imageIndex":17,"items":[{"name":"태화","tel":"031-837-8941","addr":"경기도 양주시 장흥면 부곡리 29","indutype":"의류 - 기타의류","category":"other"}]},{"lat":"37.741343379","long":"126.97965786","imageIndex":17,"items":[{"name":"하나유통","tel":"031-829-1232","addr":"경기도 양주시 장흥면 부곡리 79-3번지","indutype":"건축자재 - 목재·석재·철물","category":"other"}]},{"lat":"37.740649075","long":"126.9769352","imageIndex":17,"items":[{"name":"형제패션","tel":"031-826-4842","addr":"경기도 양주시 장흥면 부곡리 123-6번지","indutype":"직물 - 옷감·직물","category":"other"}]}]