[{"lat":"37.404030136","long":"126.89313466","imageIndex":16,"items":[{"name":"I FUN 스쿨","tel":"070-8757-3451","addr":"경기도 안양시 만안구 박달동 616-9번지 대림한숲타운아파트","indutype":"학원 - 기타 교육기관","category":"study"},{"name":"한숲어린이집[아이행복]","tel":"031-464-0588","addr":"경기도 안양시 만안구 박달동 616-9번지 대림한숲타운아파트","indutype":"학원 - 유아원","category":"study"}]},{"lat":"37.402332263","long":"126.9094797","imageIndex":16,"items":[{"name":"국제인지문화협회 안양시지부","tel":"031-466-0909","addr":"경기도 안양시 만안구 박달동 68-8번지","indutype":"학원 - 기타 교육기관","category":"study"}]},{"lat":"37.399514408","long":"126.90134045","imageIndex":16,"items":[{"name":"금호가베어린이집[아이행복]","tel":"031-468-1906","addr":"경기도 안양시 만안구 박달동 149-1번지 금호타운","indutype":"학원 - 유아원","category":"study"}]},{"lat":"37.398973901","long":"126.90145412","imageIndex":16,"items":[{"name":"금호학원","tel":"031-444-2221","addr":"경기도 안양시 만안구 박달동 149-1번지","indutype":"회원제형태 - 학원","category":"study"},{"name":"윤스영어어학원","tel":"031-443-1295","addr":"경기도 안양시 만안구 박달동 149-1번지","indutype":"학원 - 외국어학원","category":"study"},{"name":"죠이피아노음악교습소","tel":"031-442-6129","addr":"경기도 안양시 만안구 박달동 149-1번지","indutype":"학원 - 예·체능계학원","category":"study"},{"name":"효경희태권도장","tel":"031-469-8444","addr":"경기도 안양시 만안구 박달동 149-1번지","indutype":"학원 - 예·체능계학원","category":"study"}]},{"lat":"37.400805503","long":"126.90447841","imageIndex":16,"items":[{"name":"김앤조영수마스터보습학원","tel":"031-468-4333","addr":"경기도 안양시 만안구 박달동 139-4번지","indutype":"회원제형태 - 학원","category":"study"}]},{"lat":"37.399695871","long":"126.90281969","imageIndex":16,"items":[{"name":"까사데 밤비니몬테소리어린이집[아이행복]","tel":"031-444-4034","addr":"경기도 안양시 만안구 박달동 139-202번지 극동아파트","indutype":"학원 - 유아원","category":"study"},{"name":"예인음악학원","tel":"031-441-1147","addr":"경기도 안양시 만안구 박달동 139-202번지","indutype":"학원 - 예·체능계학원","category":"study"},{"name":"홍익호야미술학원","tel":"031-444-2474","addr":"경기도 안양시 만안구 박달동 139-202번지","indutype":"학원 - 예·체능계학원","category":"study"}]},{"lat":"37.405162996","long":"126.91148661","imageIndex":16,"items":[{"name":"꿈사랑어린이집[아이행복]","tel":"031-349-8688","addr":"경기도 안양시 만안구 박달동 58-20번지","indutype":"학원 - 유아원","category":"study"}]},{"lat":"37.404691286","long":"126.90745506","imageIndex":16,"items":[{"name":"넥서스영어학원","tel":"031-411-0090","addr":"경기도 안양시 만안구 박달동 34번지","indutype":"학원 - 외국어학원","category":"study"},{"name":"한사랑어린이집[아이행복]","tel":"031-443-5003","addr":"경기도 안양시 만안구 박달동 34번지","indutype":"학원 - 유아원","category":"study"},{"name":"한신태권도장","tel":"031-466-6669","addr":"경기도 안양시 만안구 박달동","indutype":"학원 - 예·체능계학원","category":"study"},{"name":"행복한음악학원","tel":"031-466-6651","addr":"경기도 안양시 만안구 박달동 34번지","indutype":"학원 - 예·체능계학원","category":"study"}]},{"lat":"37.403885471","long":"126.89259274","imageIndex":16,"items":[{"name":"다솜어린이집[아이행복]","tel":"031-464-2240","addr":"경기도 안양시 만안구 박달동 616-9번지 대림한숲타운아파트","indutype":"학원 - 유아원","category":"study"},{"name":"한숲해법영어교습소","tel":"","addr":"경기도 안양시 만안구 박달동 616-9번지","indutype":"학원 - 외국어학원","category":"study"}]},{"lat":"37.402331582","long":"126.90862135","imageIndex":16,"items":[{"name":"대치수학학원","tel":"031-349-0304","addr":"경기도 안양시 만안구 박달동 85-9번지","indutype":"학원 - 보습학원","category":"study"},{"name":"생각채움수학학원","tel":"031-442-1489","addr":"경기도 안양시 만안구 박달동 85-9번지","indutype":"학원 - 보습학원","category":"study"},{"name":"하이탑독서실","tel":"031-441-1121","addr":"경기도 안양시 만안구 박달동 85-9번지","indutype":"학원 - 독서실","category":"study"}]},{"lat":"37.404494644","long":"126.90943184","imageIndex":16,"items":[{"name":"동신요양보호사교육원","tel":"031-443-5895","addr":"경기도 안양시 만안구 박달동 21-16번지","indutype":"학원 - 기능학원","category":"study"}]},{"lat":"37.403302357","long":"126.90576269","imageIndex":16,"items":[{"name":"드뷔시피아노교습소","tel":"031-445-0311","addr":"경기도 안양시 만안구 박달동","indutype":"학원 - 예·체능계학원","category":"study"}]},{"lat":"37.401223316","long":"126.90858886","imageIndex":16,"items":[{"name":"또래또어린이집[아이행복]","tel":"031-464-3311","addr":"경기도 안양시 만안구 박달동 94-99번지","indutype":"학원 - 유아원","category":"study"}]},{"lat":"37.403995545","long":"126.90505025","imageIndex":16,"items":[{"name":"레드헤어","tel":"031-444-0086","addr":"경기도 안양시 만안구 박달동 111-1번지 신한아파트","indutype":"회원제형태 - 학원","category":"study"}]},{"lat":"37.402361221","long":"126.91195307","imageIndex":16,"items":[{"name":"로뎀보습학원","tel":"031-443-0755","addr":"경기도 안양시 만안구 박달동 68-37번지","indutype":"학원 - 보습학원","category":"study"}]},{"lat":"37.400804672","long":"126.90348455","imageIndex":16,"items":[{"name":"리더스음악교습소","tel":"031-445-7008","addr":"경기도 안양시 만안구 박달동 140-9번지","indutype":"학원 - 예·체능계학원","category":"study"}]},{"lat":"37.406081073","long":"126.91026567","imageIndex":16,"items":[{"name":"만안유치원[아이행복]","tel":"031-449-0089","addr":"경기도 안양시 만안구 박달동 52-13번지","indutype":"학원 - 유치원","category":"study"}]},{"lat":"37.4020503","long":"126.90618219","imageIndex":16,"items":[{"name":"모모수학학원","tel":"","addr":"경기도 안양시 만안구 박달동 139-18번지","indutype":"학원 - 보습학원","category":"study"}]},{"lat":"37.403548694","long":"126.90956855","imageIndex":16,"items":[{"name":"문성보습어학학원","tel":"031-441-8400","addr":"경기도 안양시 만안구 박달동","indutype":"학원 - 기타 교육기관","category":"study"}]},{"lat":"37.404834346","long":"126.90609955","imageIndex":16,"items":[{"name":"미리별어린이집[아이행복]","tel":"031-466-2801","addr":"경기도 안양시 만안구 박달동 37번지 한신휴플러스타운","indutype":"학원 - 유아원","category":"study"}]},{"lat":"37.40330281","long":"126.90631611","imageIndex":16,"items":[{"name":"박달바둑학원","tel":"031-469-4606","addr":"경기도 안양시 만안구 박달동","indutype":"학원 - 기타 교육기관","category":"study"},{"name":"자연을닮은어린이집[아이행복]","tel":"031-445-3386","addr":"경기도 안양시 만안구 박달동 107번지 박달벽산아파트","indutype":"학원 - 유아원","category":"study"}]},{"lat":"37.402332788","long":"126.91014605","imageIndex":16,"items":[{"name":"박달이엠학원","tel":"031-469-6611","addr":"경기도 안양시 만안구 박달동 68-16번지","indutype":"학원 - 보습학원","category":"study"}]},{"lat":"37.39950125","long":"126.89661972","imageIndex":16,"items":[{"name":"박달중학교","tel":"031-631-3850","addr":"경기도 안양시 만안구 박달동 590번지","indutype":"학원 - 초중고교육기관","category":"study"}]},{"lat":"37.401029122","long":"126.90253557","imageIndex":16,"items":[{"name":"박달초등학교","tel":"031-447-8386","addr":"경기도 안양시 만안구 박달동 128-7번지","indutype":"학원 - 초중고교육기관","category":"study"},{"name":"박달초병설유치원[아이행복]","tel":"031-444-9195","addr":"경기도 안양시 만안구 박달동 128-7번지","indutype":"학원 - 유치원","category":"study"}]},{"lat":"37.401996073","long":"126.90597896","imageIndex":16,"items":[{"name":"박달컴퓨터학원","tel":"031-442-4002","addr":"경기도 안양시 만안구 박달동 139-95번지","indutype":"회원제형태 - 학원","category":"study"},{"name":"정철수학학원","tel":"031-469-4003","addr":"경기도 안양시 만안구 박달동 139-95번지","indutype":"학원 - 보습학원","category":"study"}]},{"lat":"37.403865196","long":"126.91103642","imageIndex":16,"items":[{"name":"베이비스쿨어린이집[아이행복]","tel":"031-445-0579","addr":"경기도 안양시 만안구 박달동 64-1번지 짜임아파트","indutype":"학원 - 유아원","category":"study"}]},{"lat":"37.403410292","long":"126.90553666","imageIndex":16,"items":[{"name":"벽산해법학원","tel":"031-466-4118","addr":"경기도 안양시 만안구 박달동 108-2번지","indutype":"회원제형태 - 학원","category":"study"}]},{"lat":"37.403996132","long":"126.90576179","imageIndex":16,"items":[{"name":"별하이수학원","tel":"031-345-9184","addr":"경기도 안양시 만안구 박달동 108-6번지","indutype":"학원 - 보습학원","category":"study"},{"name":"한탑학원","tel":"031-468-1111","addr":"경기도 안양시 만안구 박달동 108-6번지","indutype":"학원 - 보습학원","category":"study"}]},{"lat":"37.402307666","long":"126.9014948","imageIndex":16,"items":[{"name":"비발디어린이집[아이행복]","tel":"031-464-3065","addr":"경기도 안양시 만안구 박달동 114번지 한라비발디아파트","indutype":"학원 - 유아원","category":"study"}]},{"lat":"37.401385915","long":"126.89836762","imageIndex":16,"items":[{"name":"비티수학학원","tel":"031-123-1234","addr":"경기도 안양시 만안구 박달동 606-2번지","indutype":"학원 - 보습학원","category":"study"}]},{"lat":"37.403461975","long":"126.90269044","imageIndex":16,"items":[{"name":"살롱드로사","tel":"070-8690-2836","addr":"경기도 안양시 만안구 박달동 114번지 한라비발디아파트","indutype":"학원 - 기능학원","category":"study"}]},{"lat":"37.402855539","long":"126.8994837","imageIndex":16,"items":[{"name":"삼봉초등학교","tel":"031-466-1081","addr":"경기도 안양시 만안구 박달동 114-3번지","indutype":"학원 - 초중고교육기관","category":"study"}]},{"lat":"37.402000408","long":"126.90043358","imageIndex":16,"items":[{"name":"삼성영어박달학원","tel":"031-465-0579","addr":"경기도 안양시 만안구 박달동 157-13번지","indutype":"회원제형태 - 학원","category":"study"},{"name":"슬기주머니미술교습소","tel":"","addr":"경기도 안양시 만안구 박달동 157-13번지","indutype":"학원 - 예·체능계학원","category":"study"},{"name":"올림픽태권도교육관","tel":"031-444-8501","addr":"경기도 안양시 만안구 박달동 157-13번지","indutype":"학원 - 예·체능계학원","category":"study"},{"name":"청명보습학원","tel":"031-466-9601","addr":"경기도 안양시 만안구 박달동 157-13번지","indutype":"학원 - 보습학원","category":"study"},{"name":"한라비발디해법영어학원","tel":"031-468-0210","addr":"경기도 안양시 만안구 박달동 157-13번지","indutype":"학원 - 보습학원","category":"study"}]},{"lat":"37.40110998","long":"126.89217893","imageIndex":16,"items":[{"name":"서조어린이집[아이행복]","tel":"031-465-9965","addr":"경기도 안양시 만안구 박달동 산21번지","indutype":"학원 - 유아원","category":"study"}]},{"lat":"37.405802299","long":"126.91095499","imageIndex":16,"items":[{"name":"석사경희대충무태권도장","tel":"","addr":"경기도 안양시 만안구 박달동 55-26번지","indutype":"학원 - 예·체능계학원","category":"study"}]},{"lat":"37.403665753","long":"126.90947805","imageIndex":16,"items":[{"name":"선상음악학원","tel":"031-446-3396","addr":"경기도 안양시 만안구 박달동 17-4번지","indutype":"학원 - 예·체능계학원","category":"study"}]},{"lat":"37.404024678","long":"126.90762533","imageIndex":16,"items":[{"name":"세일영어","tel":"02-444-1318","addr":"경기도 안양시 만안구 박달동 45-15번지","indutype":"회원제형태 - 학원","category":"study"}]},{"lat":"37.402215626","long":"126.8992587","imageIndex":16,"items":[{"name":"세종무용학원","tel":"031-442-1491","addr":"경기도 안양시 만안구 박달동 158-1번지","indutype":"학원 - 예·체능계학원","category":"study"}]},{"lat":"37.403298899","long":"126.90164029","imageIndex":16,"items":[{"name":"셀파한라교실","tel":"","addr":"경기도 안양시 만안구 박달동 114번지 한라비발디아파트","indutype":"학원 - 기타 교육기관","category":"study"}]},{"lat":"37.400525378","long":"126.90350751","imageIndex":16,"items":[{"name":"소리숲피아노교습소","tel":"031-443-6020","addr":"경기도 안양시 만안구 박달동 139-78번지","indutype":"학원 - 예·체능계학원","category":"study"},{"name":"위드유영수전문학원","tel":"031-443-9900","addr":"경기도 안양시 만안구 박달동 139-78번지","indutype":"학원 - 보습학원","category":"study"}]},{"lat":"37.404221384","long":"126.9057615","imageIndex":16,"items":[{"name":"소리엘음악학원","tel":"031-448-7909","addr":"경기도 안양시 만안구 박달동 41-17번지","indutype":"학원 - 예·체능계학원","category":"study"}]},{"lat":"37.401191867","long":"126.90320169","imageIndex":16,"items":[{"name":"송원아이어린이집[아이행복]","tel":"031-444-6016","addr":"경기도 안양시 만안구 박달동 144-5번지","indutype":"학원 - 유아원","category":"study"},{"name":"송원어린이집[아이행복]","tel":"031-444-6017","addr":"경기도 안양시 만안구 박달동 144-5번지","indutype":"학원 - 유아원","category":"study"}]},{"lat":"37.404382161","long":"126.90406713","imageIndex":16,"items":[{"name":"숙명어린이집[아이행복]","tel":"031-448-8330","addr":"경기도 안양시 만안구 박달동 838-29번지","indutype":"학원 - 유아원","category":"study"}]},{"lat":"37.402806682","long":"126.9056165","imageIndex":16,"items":[{"name":"스카이수학교습소","tel":"031-468-8611","addr":"경기도 안양시 만안구 박달동 135-7번지","indutype":"학원 - 보습학원","category":"study"}]},{"lat":"37.401606149","long":"126.90298656","imageIndex":16,"items":[{"name":"시립박달어린이집[아이행복]","tel":"031-444-3049","addr":"경기도 안양시 만안구 박달동 128-2번지","indutype":"학원 - 유아원","category":"study"}]},{"lat":"37.405773545","long":"126.90876387","imageIndex":16,"items":[{"name":"신남수수학학원","tel":"031-341-5016","addr":"경기도 안양시 만안구 박달동 23-5번지","indutype":"학원 - 보습학원","category":"study"}]},{"lat":"37.402394311","long":"126.89754175","imageIndex":16,"items":[{"name":"아가어린이집[아이행복]","tel":"031-443-7581","addr":"경기도 안양시 만안구 박달동 607-1번지 한일유앤아이아파트","indutype":"학원 - 유아원","category":"study"}]},{"lat":"37.400640745","long":"126.90142929","imageIndex":16,"items":[{"name":"안양고등학교","tel":"031-443-2142","addr":"경기도 안양시 만안구 박달동 144-3번지","indutype":"학원 - 초중고교육기관","category":"study"},{"name":"안양고등학교_수업료","tel":"031-443-2142","addr":"경기도 안양시 만안구 박달동 144-3번지","indutype":"학원 - 초중고교육기관","category":"study"}]},{"lat":"37.40157671","long":"126.90017439","imageIndex":16,"items":[{"name":"안양예일보습학원","tel":"031-464-9966","addr":"경기도 안양시 만안구 박달동","indutype":"학원 - 보습학원","category":"study"},{"name":"여명태권도장","tel":"031-442-3462","addr":"경기도 안양시 만안구 박달동 157-26번지","indutype":"학원 - 예·체능계학원","category":"study"}]},{"lat":"37.402913445","long":"126.90397871","imageIndex":16,"items":[{"name":"에듀파크어린이집[아이행복]","tel":"031-465-7940","addr":"경기도 안양시 만안구 박달동 939번지 한양수자인에듀파크","indutype":"학원 - 유아원","category":"study"}]},{"lat":"37.405467265","long":"126.90884331","imageIndex":16,"items":[{"name":"에스스터디학원","tel":"","addr":"경기도 안양시 만안구 박달동 22-37번지","indutype":"학원 - 보습학원","category":"study"}]},{"lat":"37.400384828","long":"126.90790098","imageIndex":16,"items":[{"name":"엘림음악학원","tel":"031-469-3123","addr":"경기도 안양시 만안구 박달동 85번지","indutype":"학원 - 예·체능계학원","category":"study"},{"name":"우성미술학원","tel":"031-446-4010","addr":"경기도 안양시 만안구 박달동 85번지","indutype":"학원 - 예·체능계학원","category":"study"},{"name":"잉큐영어학원","tel":"031-441-8205","addr":"경기도 안양시 만안구 박달동","indutype":"회원제형태 - 학원","category":"study"},{"name":"태풍합기도태권도장","tel":"031-443-5333","addr":"경기도 안양시 만안구 박달동 85번지","indutype":"학원 - 예·체능계학원","category":"study"}]},{"lat":"37.40379479","long":"126.90203493","imageIndex":16,"items":[{"name":"예원어린이집[아이행복]","tel":"031-464-9659","addr":"경기도 안양시 만안구 박달동 114번지 한라비발디아파트","indutype":"학원 - 유아원","category":"study"}]},{"lat":"37.402194072","long":"126.90570765","imageIndex":16,"items":[{"name":"올인스터디센터프리미엄독서실","tel":"031-8845-7862","addr":"경기도 안양시 만안구 박달동 135-5번지","indutype":"학원 - 독서실","category":"study"}]},{"lat":"37.403778995","long":"126.90467782","imageIndex":16,"items":[{"name":"용인대태권도의장","tel":"031-441-8778","addr":"경기도 안양시 만안구 박달동 111-1번지","indutype":"학원 - 예·체능계학원","category":"study"}]},{"lat":"37.403584341","long":"126.90907155","imageIndex":16,"items":[{"name":"우일어린이집[아이행복]","tel":"031-445-0305","addr":"경기도 안양시 만안구 박달동 50-2번지","indutype":"학원 - 유아원","category":"study"}]},{"lat":"37.401446115","long":"126.90556179","imageIndex":16,"items":[{"name":"원더풀원쌤공부방","tel":"031-444-0770","addr":"경기도 안양시 만안구 박달동 139-21번지","indutype":"회원제형태 - 학원","category":"study"}]},{"lat":"37.401522147","long":"126.91048587","imageIndex":16,"items":[{"name":"위즈맘어린이집[아이행복]","tel":"031-442-8467","addr":"경기도 안양시 만안구 박달동 94-93번지","indutype":"학원 - 유아원","category":"study"},{"name":"위즈맘어린이집[아이행복]","tel":"031-442-8467","addr":"경기도 안양시 만안구 박달동 94-93번지","indutype":"학원 - 유아원","category":"study"}]},{"lat":"37.40212448","long":"126.89807295","imageIndex":16,"items":[{"name":"유앤아이 푸르미어린이집[아이행복]","tel":"031-341-1522","addr":"경기도 안양시 만안구 박달동 607-1번지 한일유앤아이아파트","indutype":"학원 - 유아원","category":"study"}]},{"lat":"37.403966911","long":"126.90313025","imageIndex":16,"items":[{"name":"윤선생우리집앞영어한라공부방","tel":"031-381-4843","addr":"경기도 안양시 만안구 박달동 114번지 한라비발디아파트","indutype":"학원 - 보습학원","category":"study"}]},{"lat":"37.399386879","long":"126.89973693","imageIndex":16,"items":[{"name":"이룸어린이집[아이행복]","tel":"031-441-2002","addr":"경기도 안양시 만안구 박달동 150번지 브라운스톤하나마을","indutype":"학원 - 유아원","category":"study"}]},{"lat":"37.404195706","long":"126.90742181","imageIndex":16,"items":[{"name":"이보영의토킹클럽박달어학원","tel":"031-448-0506","addr":"경기도 안양시 만안구 박달동 44-5번지","indutype":"학원 - 외국어학원","category":"study"}]},{"lat":"37.402747144","long":"126.91001001","imageIndex":16,"items":[{"name":"이철수학학원","tel":"031-442-1941","addr":"경기도 안양시 만안구 박달동 18-7번지","indutype":"학원 - 보습학원","category":"study"},{"name":"이철영어학원","tel":"031-442-1005","addr":"경기도 안양시 만안구 박달동 18-7번지","indutype":"학원 - 보습학원","category":"study"}]},{"lat":"37.403133298","long":"126.90839446","imageIndex":16,"items":[{"name":"조은샘어린이집[아이행복]","tel":"031-468-4483","addr":"경기도 안양시 만안구 박달동 100-1번지","indutype":"학원 - 유아원","category":"study"}]},{"lat":"37.40390931","long":"126.90983916","imageIndex":16,"items":[{"name":"지멘토영수단과학원","tel":"031-441-1002","addr":"경기도 안양시 만안구 박달동 20-1번지","indutype":"학원 - 보습학원","category":"study"}]},{"lat":"37.401945838","long":"126.89984636","imageIndex":16,"items":[{"name":"지앤수피아노","tel":"031-464-7025","addr":"경기도 안양시 만안구 박달동 157-31번지","indutype":"학원 - 예·체능계학원","category":"study"}]},{"lat":"37.402131842","long":"126.90673549","imageIndex":16,"items":[{"name":"지엠에이개념원리수학박달제일학원","tel":"031-465-7749","addr":"경기도 안양시 만안구 박달동 94-143번지","indutype":"학원 - 보습학원","category":"study"},{"name":"코딩클라우드학원","tel":"","addr":"경기도 안양시 만안구 박달동 94-143번지","indutype":"학원 - 기능학원","category":"study"}]},{"lat":"37.400819717","long":"126.90000602","imageIndex":16,"items":[{"name":"참사랑가베어린이집","tel":"031-464-7866","addr":"경기도 안양시 만안구 박달동 152번지 신안아파트","indutype":"학원 - 유아원","category":"study"},{"name":"참사랑가베어린이집[아이행복]","tel":"031-464-7866","addr":"경기도 안양시 만안구 박달동 152번지 신안아파트","indutype":"학원 - 유아원","category":"study"}]},{"lat":"37.406639626","long":"126.91017463","imageIndex":16,"items":[{"name":"키즈사랑어린이집[아이행복]","tel":"031-466-3329","addr":"경기도 안양시 만안구 박달동 31-8번지","indutype":"학원 - 유아원","category":"study"}]},{"lat":"37.40075133","long":"126.90434295","imageIndex":16,"items":[{"name":"키즈스타","tel":"031-405-4404","addr":"경기도 안양시 만안구 박달동 139-5번지","indutype":"학원 - 기타 교육기관","category":"study"},{"name":"한솔플러스영어수학학원","tel":"031-468-4688","addr":"경기도 안양시 만안구 박달동 139-5번지","indutype":"회원제형태 - 학원","category":"study"}]},{"lat":"37.404662346","long":"126.90511715","imageIndex":16,"items":[{"name":"튼튼어린이집[아이행복]","tel":"031-464-1636","addr":"경기도 안양시 만안구 박달동 7-50번지 박달1차한신휴플러스","indutype":"학원 - 유아원","category":"study"}]},{"lat":"37.405216706","long":"126.91103477","imageIndex":16,"items":[{"name":"필학원","tel":"031-466-9200","addr":"경기도 안양시 만안구 박달동 57-9번지","indutype":"학원 - 보습학원","category":"study"}]},{"lat":"37.402498327","long":"126.90319996","imageIndex":16,"items":[{"name":"한라비발디음악학원","tel":"031-464-0511","addr":"경기도 안양시 만안구 박달동 114-6번지","indutype":"학원 - 예·체능계학원","category":"study"}]},{"lat":"37.402637191","long":"126.90770614","imageIndex":16,"items":[{"name":"한보학원 주식회사","tel":"031-447-6080","addr":"경기도 안양시 만안구 박달동 100-26번지","indutype":"학원 - 외국어학원","category":"study"}]},{"lat":"37.404860409","long":"126.90492489","imageIndex":16,"items":[{"name":"한우리독서지도","tel":"070-8286-8368","addr":"경기도 안양시 만안구 박달동 7-50번지 박달1차한신휴플러스","indutype":"학원 - 기타 교육기관","category":"study"}]},{"lat":"37.403942183","long":"126.9058974","imageIndex":16,"items":[{"name":"합격독서실","tel":"031-444-8310","addr":"경기도 안양시 만안구 박달동 108-7번지","indutype":"학원 - 독서실","category":"study"}]},{"lat":"37.404980443","long":"126.90849379","imageIndex":16,"items":[{"name":"해와솔어린이집[아이행복]","tel":"031-441-3116","addr":"경기도 안양시 만안구 박달동 15-2번지 박달동동원베네스트","indutype":"학원 - 유아원","category":"study"}]},{"lat":"37.402696062","long":"126.9026237","imageIndex":16,"items":[{"name":"해피키즈어린이집[아이행복]","tel":"031-341-2772","addr":"경기도 안양시 만안구 박달동 114-9번지","indutype":"학원 - 유아원","category":"study"}]},{"lat":"37.400941375","long":"126.90534786","imageIndex":16,"items":[{"name":"현어린이집[아이행복]","tel":"031-448-9554","addr":"경기도 안양시 만안구 박달동 139-101번지","indutype":"학원 - 유아원","category":"study"}]},{"lat":"37.402890053","long":"126.90842865","imageIndex":16,"items":[{"name":"화가들의마을미술교습소","tel":"031-348-9866","addr":"경기도 안양시 만안구 박달동 100-11번지","indutype":"학원 - 예·체능계학원","category":"study"}]},{"lat":"37.401691533","long":"126.90820427","imageIndex":16,"items":[{"name":"화음음악학원","tel":"031-448-6809","addr":"경기도 안양시 만안구 박달동 85-26번지","indutype":"학원 - 예·체능계학원","category":"study"}]}]