[{"lat":"37.007248181","long":"127.27150872","imageIndex":7,"items":[{"name":"배스킨라빈스31","tel":"031-671-0031","addr":"경기도 안성시 동본동 34번지 1층","indutype":"음료식품 - 제과점","category":"food"},{"name":"비알코리아(주) 베스킨라빈스 안성중앙점","tel":"031-0000-0000","addr":"경기도 안성시 동본동 34번지","indutype":"음료식품 - 제과점","category":"food"}]},{"lat":"37.007220768","long":"127.27167716","imageIndex":7,"items":[{"name":"샐러디하우스","tel":"031-674-7004","addr":"경기도 안성시 동본동 35번지 1층","indutype":"음료식품 - 기타음료식품","category":"food"}]},{"lat":"37.006158561","long":"127.27121278","imageIndex":7,"items":[{"name":"성모헬스케어","tel":"031-675-2664","addr":"경기도 안성시 동본동 95번지 1층","indutype":"건강식품 - 기타건강식품","category":"food"}]},{"lat":"37.007860774","long":"127.27156706","imageIndex":7,"items":[{"name":"아빠이발관","tel":"031-674-2859","addr":"경기도 안성시 동본동 22번지","indutype":"회원제형태 - 건강식품","category":"food"}]},{"lat":"37.006077542","long":"127.27117878","imageIndex":7,"items":[{"name":"와와수산","tel":"031-677-2777","addr":"경기도 안성시 동본동 95-1번지","indutype":"음료식품 - 농·축·수산품","category":"food"}]},{"lat":"37.007498389","long":"127.27243091","imageIndex":7,"items":[{"name":"우리가게","tel":"","addr":"경기도 안성시 동본동 26번지","indutype":"음료식품 - 기타음료식품","category":"food"}]},{"lat":"37.006356667","long":"127.27126965","imageIndex":7,"items":[{"name":"제일헬스케어","tel":"031-674-1041","addr":"경기도 안성시 동본동 75번지 1층","indutype":"건강식품 - 기타건강식품","category":"food"}]},{"lat":"37.008356051","long":"127.27170363","imageIndex":7,"items":[{"name":"천수흑염소","tel":"031-673-1432","addr":"경기도 안성시 동본동 10번지","indutype":"건강식품 - 기타건강식품","category":"food"}]},{"lat":"37.006165562","long":"127.27210038","imageIndex":7,"items":[{"name":"초앤초","tel":"00-0000-0000","addr":"경기도 안성시 동본동 85번지","indutype":"음료식품 - 기타음료식품","category":"food"}]},{"lat":"37.007111113","long":"127.27235089","imageIndex":7,"items":[{"name":"팔도정육점","tel":"031-675-2665","addr":"경기도 안성시 동본동 43번지 1층","indutype":"음료식품 - 정육점","category":"food"}]}]