[{"lat":"37.444043624","long":"126.7982097","imageIndex":16,"items":[{"name":"가람학원","tel":"031-317-7748","addr":"경기도 시흥시 은행동 534-2번지 3층","indutype":"교육서비스업 - 입시, 외국어학원","category":"study"}]},{"lat":"37.43742808","long":"126.80218249","imageIndex":16,"items":[{"name":"고수학교습소","tel":"","addr":"경기도 시흥시 은행동 646-5번지 은계프라자 5층 508호","indutype":"교육서비스업 - 학원","category":"study"},{"name":"더공터영어수학여우학원","tel":"031-312-7705","addr":"경기도 시흥시 은행동 646-5번지 은계프라자 603호","indutype":"교육서비스업 - 학원","category":"study"},{"name":"뮤엠영어은계온탑학원","tel":"031-318-3535","addr":"경기도 시흥시 은행동 646-5번지 은계프라자 501호","indutype":"교육서비스업 - 영어학원","category":"study"},{"name":"왈츠음악학원","tel":"031-331-1702","addr":"경기도 시흥시 은행동 646-5번지 은계프라자 604호","indutype":"교육서비스업 - 학원","category":"study"},{"name":"은계북꼬리독서학원","tel":"031-313-3338","addr":"경기도 시흥시 은행동 646-5번지 은계프라자 601호","indutype":"교육서비스업 - 학원","category":"study"}]},{"lat":"37.443075979","long":"126.7961557","imageIndex":16,"items":[{"name":"글로리 음악학원","tel":"031-312-3972","addr":"경기도 시흥시 은행동 550번지 대우3차아파트 상가 2동 2203호","indutype":"교육서비스업 - 음악학원","category":"study"}]},{"lat":"37.436537796","long":"126.8031905","imageIndex":16,"items":[{"name":"나디아잉글리쉬어학원","tel":"031-8042-7950","addr":"경기도 시흥시 은행동 645-5번지 은계디스퀘어 603동 605호","indutype":"교육서비스업 - 어학원","category":"study"},{"name":"마음을 그리는 미술학원","tel":"","addr":"경기도 시흥시 은행동 645-5번지 은계디스퀘어 606호","indutype":"교육서비스업 - 미술학원","category":"study"},{"name":"위매스 수학학원","tel":"","addr":"경기도 시흥시 은행동 645-5번지 은계 디스퀘어 705호","indutype":"교육서비스업 - 보습학원","category":"study"}]},{"lat":"37.436571172","long":"126.80161982","imageIndex":16,"items":[{"name":"나의 미술관 미술학원","tel":"031-311-7245","addr":"경기도 시흥시 은행동 646번지 태산W타워 515호","indutype":"교육서비스업 - 미술학원","category":"study"},{"name":"쎈수학&삼성영어은계학원","tel":"031-314-1119","addr":"경기도 시흥시 은행동 646번지 태산W타워 513~4호","indutype":"교육서비스업 - 학원","category":"study"},{"name":"제이원태권도장","tel":"031-312-2130","addr":"경기도 시흥시 은행동 646번지 501-504호","indutype":"교육서비스업 - 학원","category":"study"}]},{"lat":"37.443515017","long":"126.79994008","imageIndex":16,"items":[{"name":"노피곰생각터학원","tel":"070-7557-7884","addr":"경기도 시흥시 은행동 540-12번지 4층","indutype":"교육서비스업 - 학원","category":"study"}]},{"lat":"37.439158222","long":"126.79707044","imageIndex":16,"items":[{"name":"로사음악학원","tel":"031-316-4451","addr":"경기도 시흥시 은행동 547-4번지","indutype":"교육서비스업 - 음악학원","category":"study"}]},{"lat":"37.443181784","long":"126.80002008","imageIndex":16,"items":[{"name":"몰입학원","tel":"031-312-7981","addr":"경기도 시흥시 은행동 540-9번지 4층","indutype":"교육서비스업 - 보습학원","category":"study"},{"name":"킹덤ELC학원","tel":"031-311-3405","addr":"경기도 시흥시 은행동 540-9번지 2층","indutype":"교육서비스업 - 보습학원","category":"study"}]},{"lat":"37.44429764","long":"126.79921474","imageIndex":16,"items":[{"name":"박지훈수학학원","tel":"031-313-5318","addr":"경기도 시흥시 은행동 530-3번지 2층 일부","indutype":"교육서비스업 - 보습학원","category":"study"},{"name":"지오엠(GOM)수학교습소","tel":"031-311-7935","addr":"경기도 시흥시 은행동 530-3번지 만경빌딩 501호","indutype":"교육서비스업 - 학원","category":"study"}]},{"lat":"37.445074593","long":"126.80043309","imageIndex":16,"items":[{"name":"베르디음악학원","tel":"031-314-5634","addr":"경기도 시흥시 은행동 599번지 (우남@상가 2동 201호)","indutype":"교육서비스업 - 음악학원","category":"study"}]},{"lat":"37.444738699","long":"126.79896494","imageIndex":16,"items":[{"name":"비상잉글리시아이 케이트점","tel":"031-315-1600","addr":"경기도 시흥시 은행동 531-3번지 호정빌딩 201호","indutype":"교육서비스업 - 학원","category":"study"},{"name":"에녹실용음악학원","tel":"","addr":"경기도 시흥시 은행동 531-3번지 호정빌딩 203~204호","indutype":"교육서비스업 - 학원","category":"study"}]},{"lat":"37.437204878","long":"126.80339212","imageIndex":16,"items":[{"name":"빨리 강해지는 학원","tel":"031-315-1143","addr":"경기도 시흥시 은행동 646-9번지 유테라스 604,605호","indutype":"교육서비스업 - 보습학원","category":"study"}]},{"lat":"37.43917382","long":"126.80088967","imageIndex":16,"items":[{"name":"삼성영어 쎈수학 은계학원","tel":"031-314-2226","addr":"경기도 시흥시 은행동 619번지 은계센트럴타운 204~205호","indutype":"교육서비스업 - 영어, 수학학원","category":"study"}]},{"lat":"37.431106786","long":"126.79394023","imageIndex":16,"items":[{"name":"아이비츠정상학원","tel":"031-316-1009","addr":"경기도 시흥시 은행동 289-11번지 삼성홈타운 상가동 2층","indutype":"교육서비스업 - 보습학원","category":"study"}]},{"lat":"37.443406936","long":"126.79996297","imageIndex":16,"items":[{"name":"에듀탑영수전문학원","tel":"031-314-9177","addr":"경기도 시흥시 은행동 540-11번지 1층","indutype":"교육서비스업 - 학원","category":"study"}]},{"lat":"37.435913656","long":"126.80174587","imageIndex":16,"items":[{"name":"와튼영어학원","tel":"031-317-8686","addr":"경기도 시흥시 은행동 644번지 시흥은계호반써밋플레이스 216~7호","indutype":"교육서비스업 - 보습학원","category":"study"}]},{"lat":"37.44520784","long":"126.79932528","imageIndex":16,"items":[{"name":"은행동씨앤씨미술학원","tel":"031-435-2577","addr":"경기도 시흥시 은행동 528-1번지 삼은넥스타운 401호","indutype":"교육서비스업 - 미술학원","category":"study"}]},{"lat":"37.443074053","long":"126.80024638","imageIndex":16,"items":[{"name":"일등급학원","tel":"031-311-6393","addr":"경기도 시흥시 은행동 540-7번지 2층","indutype":"교육서비스업 - 보습학원","category":"study"}]},{"lat":"37.442407063","long":"126.80010127","imageIndex":16,"items":[{"name":"정철어학원","tel":"031-316-0526","addr":"경기도 시흥시 은행동 539-4번지 정철어학원 2층 201호","indutype":"교육서비스업 - 영어학원","category":"study"}]},{"lat":"37.444835919","long":"126.80313455","imageIndex":16,"items":[{"name":"주식회사 제임스에듀학원","tel":"031-314-9119","addr":"경기도 시흥시 은행동 611번지 우평라비엔상가 7층 705호일부호","indutype":"교육서비스업 - 학원경영관리","category":"study"}]},{"lat":"37.44398929","long":"126.79805164","imageIndex":16,"items":[{"name":"진영음악학원","tel":"031-313-5146","addr":"경기도 시흥시 은행동 534-3번지","indutype":"교육서비스업 - 피아노학원","category":"study"}]},{"lat":"37.440129029","long":"126.79576831","imageIndex":16,"items":[{"name":"표경진음악학원","tel":"","addr":"경기도 시흥시 은행동 599-1번지 303~304호","indutype":"교육서비스업 - 음악학원","category":"study"}]}]