[{"lat":"37.82192462","long":"127.15019172","imageIndex":4,"items":[{"name":"동해바다호프","tel":"031-542-9535","addr":"경기도 포천시 소흘읍 초가팔리 279-2번지 1층","indutype":"일반휴게음식 - 주점","category":"restaurant"},{"name":"산천초목","tel":"031-541-9697","addr":"경기도 포천시 소흘읍 초가팔리 279-2번지","indutype":"일반휴게음식 - 일반한식","category":"restaurant"},{"name":"술통","tel":"031-542-7442","addr":"경기도 포천시 소흘읍 초가팔리 279-2번지","indutype":"일반휴게음식 - 주점","category":"restaurant"}]},{"lat":"37.819755934","long":"127.14810901","imageIndex":4,"items":[{"name":"상운식당","tel":"541-3701","addr":"경기도 포천시 소흘읍 초가팔리 336번지 포천상운아파트","indutype":"음식 - 한식","category":"restaurant"}]},{"lat":"37.817202835","long":"127.15086376","imageIndex":4,"items":[{"name":"육격탄","tel":"031-542-5969","addr":"경기도 포천시 소흘읍 초가팔리 226-4번지 1층","indutype":"일반휴게음식 - 일반한식","category":"restaurant"},{"name":"육격탄","tel":"542-5969","addr":"경기도 포천시 소흘읍 초가팔리 226-4번지","indutype":"음식 - 한식","category":"restaurant"},{"name":"천하장사","tel":"031-542-5969","addr":"경기도 포천시 소흘읍 초가팔리 226-4번지","indutype":"일반휴게음식 - 일반한식","category":"restaurant"}]},{"lat":"37.819421279","long":"127.14916459","imageIndex":4,"items":[{"name":"인창식당","tel":"031-534-9887","addr":"경기도 포천시 소흘읍 초가팔리 288-18번지 1층 101호","indutype":"일반휴게음식 - 일반한식","category":"restaurant"},{"name":"인창치킨","tel":"031-543-8882","addr":"경기도 포천시 소흘읍 초가팔리 288-18번지","indutype":"일반휴게음식 - 스넥","category":"restaurant"}]},{"lat":"37.819730702","long":"127.14664386","imageIndex":4,"items":[{"name":"지니","tel":"542-9875","addr":"경기도 포천시 소흘읍 초가팔리 338-4번지","indutype":"음식 - 커피 등","category":"restaurant"},{"name":"지니","tel":"031-542-9875","addr":"경기도 포천시 소흘읍 초가팔리 338-4번지","indutype":"일반휴게음식 - 서양음식","category":"restaurant"}]},{"lat":"37.816530213","long":"127.15550739","imageIndex":4,"items":[{"name":"카페콤마","tel":"031-543-0210","addr":"경기도 포천시 소흘읍 초가팔리 24-3번지 1층","indutype":"일반휴게음식 - 서양음식","category":"restaurant"}]}]