[{"lat":"37.3037007228","long":"126.9017062899","imageIndex":8,"items":[{"name":"녹십자약국","tel":"031-437-8174","addr":"경기도 안산시 상록구 건건동 927-7번지","indutype":"도매 및 소매업 - 약국","category":"medical"}]},{"lat":"37.303818048","long":"126.90193172","imageIndex":8,"items":[{"name":"녹십자약국","tel":"031-437-8080","addr":"경기도 안산시 상록구 건건동 922-4번지","indutype":"약국 - 약국","category":"medical"}]},{"lat":"37.304394914","long":"126.9021791","imageIndex":8,"items":[{"name":"바른몸 한의원","tel":"031-438-1914","addr":"경기도 안산시 상록구 건건동 650-1번지 센타프라자 3층 301호","indutype":"의원 - 한의원","category":"medical"},{"name":"반월원광한의원","tel":"031-502-7399","addr":"경기도 안산시 상록구 건건동 650-1번지 센타프라자 404호","indutype":"의원 - 한의원","category":"medical"},{"name":"반월화성약국","tel":"031-502-0165","addr":"경기도 안산시 상록구 건건동 650-1 센타프라자 105","indutype":"약국 - 약국","category":"medical"},{"name":"서울의원","tel":"031-437-9437","addr":"경기도 안산시 상록구 건건동 650-1번지 센터프라자 401호","indutype":"의원 - 의원","category":"medical"},{"name":"서울치과의원","tel":"031-437-2875","addr":"경기도 안산시 상록구 건건동 650-1번지 센터프라자 402호","indutype":"의원 - 치과의원","category":"medical"}]},{"lat":"37.311587477","long":"126.90504603","imageIndex":8,"items":[{"name":"반월경기한의원","tel":"031-438-2900","addr":"경기도 안산시 상록구 건건동 532번지 덕천상가 302호 301호,302호","indutype":"의원 - 한의원","category":"medical"},{"name":"봄온우리약국","tel":"031-438-6282","addr":"경기도 안산시 상록구 건건동 532번지 204호","indutype":"약국 - 약국","category":"medical"},{"name":"원소아과의원","tel":"031-438-0503","addr":"경기도 안산시 상록구 건건동 532번지 건건동,덕천빌딩 402호","indutype":"의원 - 의원","category":"medical"}]},{"lat":"37.311226694","long":"126.90459528","imageIndex":8,"items":[{"name":"반월동물병원","tel":"031-407-0075","addr":"경기도 안산시 상록구 건건동 536-5번지 1층 101호, 102호","indutype":"기타의료기관 - 동물병원","category":"medical"},{"name":"새이화약국","tel":"031-502-7991","addr":"경기도 안산시 상록구 건건동 536-5번지 한종빌딩 106호","indutype":"약국 - 약국","category":"medical"},{"name":"서울윌치과","tel":"031-437-2887","addr":"경기도 안산시 상록구 건건동 536-5번지 3층","indutype":"의원 - 치과의원","category":"medical"},{"name":"현대외과의원","tel":"031-437-8000","addr":"경기도 안산시 상록구 건건동 536-5번지 한종빌딩 2층","indutype":"의원 - 의원","category":"medical"}]},{"lat":"37.302871734","long":"126.901651","imageIndex":8,"items":[{"name":"반월제일의원","tel":"031-438-8001","addr":"경기도 안산시 상록구 건건동 902-1번지 한일프라자 제 1층 105호","indutype":"의원 - 의원","category":"medical"},{"name":"하늘약국","tel":"031-502-1090","addr":"경기도 안산시 상록구 건건동 902-1번지 한일프라자 104호","indutype":"약국 - 약국","category":"medical"}]},{"lat":"37.310786431","long":"126.90609615","imageIndex":8,"items":[{"name":"반월치과의원","tel":"031-599-0828","addr":"경기도 안산시 상록구 건건동 987번지 건건e-편한세상 3층 304","indutype":"의원 - 치과의원","category":"medical"}]},{"lat":"37.3031244248","long":"126.9021243943","imageIndex":8,"items":[{"name":"소나무한의원","tel":"031-501-8275","addr":"경기도 안산시 상록구 건건동 904번지","indutype":"보건업 및 사회복지서비스업 - 한의원","category":"medical"}]},{"lat":"37.303124425","long":"126.90212439","imageIndex":8,"items":[{"name":"소나무한의원","tel":"031-501-8275","addr":"경기도 안산시 상록구 건건동 904번지 재진빌딩 2층 201호","indutype":"의원 - 한의원","category":"medical"}]},{"lat":"37.303033967","long":"126.90170718","imageIndex":8,"items":[{"name":"신성한의원","tel":"031-507-3433","addr":"경기도 안산시 상록구 건건동 904-2번지 1층","indutype":"의원 - 한의원","category":"medical"}]},{"lat":"37.3112266944","long":"126.9045952839","imageIndex":8,"items":[{"name":"제중당한의원","tel":"031-402-8778","addr":"경기도 안산시 상록구 건건동 536-5번지","indutype":"보건업 및 사회복지서비스업 - 한의원","category":"medical"}]}]