[{"lat":"37.241799901","long":"127.11435463","imageIndex":16,"items":[{"name":"G-3 CONSULTING GROUP","tel":"031-308-0553","addr":"경기도 용인시 기흥구 공세동 447-4번지 르노삼성자동차중앙연구소6층교육운영실","indutype":"학원 - 기타 교육기관","category":"study"}]},{"lat":"37.239019759","long":"127.10996663","imageIndex":16,"items":[{"name":"J음악학원","tel":"031-282-8998","addr":"경기도 용인시 기흥구 공세동 734-3번지 212호","indutype":"학원 - 예·체능계학원","category":"study"},{"name":"김재현 로스팅학원","tel":"031-823-0350","addr":"경기도 용인시 기흥구 공세동 734-3번지 탐실프라자 301,302호","indutype":"학원 - 기능학원","category":"study"},{"name":"꿈을이루는이룸학원","tel":"","addr":"경기도 용인시 기흥구 공세동 734-3번지 306호","indutype":"학원 - 보습학원","category":"study"},{"name":"에꼴드에뜨왈미술교습소","tel":"031-111-1111","addr":"경기도 용인시 기흥구 공세동 734-3번지 2층 203호","indutype":"학원 - 예·체능계학원","category":"study"}]},{"lat":"37.243100724","long":"127.12022837","imageIndex":16,"items":[{"name":"Trinity","tel":"031-308-0553","addr":"경기도 용인시 기흥구 공세동 133-8","indutype":"학원 - 기타 교육기관","category":"study"}]},{"lat":"37.241246552","long":"127.10858356","imageIndex":16,"items":[{"name":"개인과외","tel":"031-575-5737","addr":"경기도 용인시 기흥구 공세동 694번지 탑실마을대주피오레1단지","indutype":"회원제형태 - 학원","category":"study"}]},{"lat":"37.242991117","long":"127.12171588","imageIndex":16,"items":[{"name":"경희대석사라온태권도","tel":"031-274-5676","addr":"경기도 용인시 기흥구 공세동 714번지","indutype":"학원 - 예·체능계학원","category":"study"},{"name":"공세뮤엠영어교습소","tel":"031-283-2205","addr":"경기도 용인시 기흥구 공세동 714번지","indutype":"학원 - 외국어학원","category":"study"},{"name":"공세뮤즈음악교습소","tel":"031-2850-908","addr":"경기도 용인시 기흥구 공세동 714번지","indutype":"학원 - 예·체능계학원","category":"study"},{"name":"공세뮤즈음악교습소","tel":"031-285-0998","addr":"경기도 용인시 기흥구 공세동 714번지 탑실마을대주피오레2단지 상가 501동 301호","indutype":"학원 - 예·체능계학원","category":"study"},{"name":"숲미술교습소","tel":"031-281-3953","addr":"경기도 용인시 기흥구 공세동 714번지 탑실마을대주피오레2단지","indutype":"학원 - 예·체능계학원","category":"study"},{"name":"차이랑용인공세중국어교습소","tel":"031-274-7780","addr":"경기도 용인시 기흥구 공세동 714번지","indutype":"학원 - 외국어학원","category":"study"},{"name":"필수학전문학원","tel":"","addr":"경기도 용인시 기흥구 공세동 714번지 501동 211,212,213호","indutype":"학원 - 보습학원","category":"study"}]},{"lat":"37.24401558","long":"127.10533027","imageIndex":16,"items":[{"name":"공터영어앨리외국어학원","tel":"031-283-1104","addr":"경기도 용인시 기흥구 공세동 672-1번지 산타프라자","indutype":"학원 - 외국어학원","category":"study"},{"name":"파이널 유도 멀티짐","tel":"","addr":"경기도 용인시 기흥구 공세동 672-1번지 산타프라자 1층","indutype":"학원 - 예·체능계학원","category":"study"}]},{"lat":"37.231910053","long":"127.11057635","imageIndex":16,"items":[{"name":"기흥사관학원","tel":"031-286-8966","addr":"경기도 용인시 기흥구 공세동 197-4번지","indutype":"학원 - 보습학원","category":"study"}]},{"lat":"37.232632676","long":"127.10858281","imageIndex":16,"items":[{"name":"기흥예인음악학원","tel":"031-286-8967","addr":"경기도 용인시 기흥구 공세동 204-4번지 남일빌딩 4층","indutype":"학원 - 예·체능계학원","category":"study"},{"name":"용인대예닮태권도(기흥1관)","tel":"031-285-8886","addr":"경기도 용인시 기흥구 공세동 204-4번지 남일빌딩 301호","indutype":"학원 - 예·체능계학원","category":"study"}]},{"lat":"37.232884643","long":"127.10894376","imageIndex":16,"items":[{"name":"꽃뜰음악학원","tel":"031-274-8120","addr":"경기도 용인시 기흥구 공세동 204-11번지 진승빌딩 3층","indutype":"학원 - 예·체능계학원","category":"study"}]},{"lat":"37.244742684","long":"127.10844193","imageIndex":16,"items":[{"name":"꿈꾸는장쌤수학교습소","tel":"070-9193-9420","addr":"경기도 용인시 기흥구 공세동 674번지 한보리마을휴먼시아 상가동 201호","indutype":"학원 - 보습학원","category":"study"},{"name":"리틀피카소미술교습소","tel":"070-4082-3034","addr":"경기도 용인시 기흥구 공세동 674번지 한보라마을휴먼시아제가상가동202호","indutype":"학원 - 예·체능계학원","category":"study"},{"name":"한보라7단지이해법수학교습소","tel":"031-8005-6696","addr":"경기도 용인시 기흥구 공세동 674 한보라마을휴먼시아상가동202호","indutype":"회원제형태 - 학원","category":"study"}]},{"lat":"37.238884808","long":"127.10974104","imageIndex":16,"items":[{"name":"쁘띠예종무용학원","tel":"031-281-3666","addr":"경기도 용인시 기흥구 공세동 734-2번지 2층 208호","indutype":"학원 - 예·체능계학원","category":"study"},{"name":"홍익생각하는미술관미술교습소","tel":"031-284-5488","addr":"경기도 용인시 기흥구 공세동 734-2번지 207호","indutype":"학원 - 예·체능계학원","category":"study"}]},{"lat":"37.244051162","long":"127.10586003","imageIndex":16,"items":[{"name":"송윤정논술교습소","tel":"031-285-8404","addr":"경기도 용인시 기흥구 공세동 672-3번지 서원프라자 301호","indutype":"회원제형태 - 학원","category":"study"},{"name":"예명음악학원","tel":"031-1111-1111","addr":"경기도 용인시 기흥구 공세동 672-3번지 203호","indutype":"학원 - 예·체능계학원","category":"study"},{"name":"용인대효석사태권도장","tel":"031-275-8808","addr":"경기도 용인시 기흥구 공세동 672-3번지 3층 302,303호","indutype":"학원 - 예·체능계학원","category":"study"}]},{"lat":"37.241866323","long":"127.12021519","imageIndex":16,"items":[{"name":"아트앤하트 공세점","tel":"","addr":"경기도 용인시 기흥구 공세동 714번지 탑실마을대주피오레2단지","indutype":"학원 - 기타 교육기관","category":"study"}]},{"lat":"37.239740431","long":"127.11013669","imageIndex":16,"items":[{"name":"오르프아카데미","tel":"070-8234-4676","addr":"경기도 용인시 기흥구 공세동 694번지 탑실마을대주피오레1단지","indutype":"회원제형태 - 학원","category":"study"}]},{"lat":"37.240815276","long":"127.10720803","imageIndex":16,"items":[{"name":"윤선생우리집앞영어교실","tel":"031-4791-9400","addr":"경기도 용인시 기흥구 공세동 694번지 탑실마을대주피오레1단지 103동 601호","indutype":"학원 - 보습학원","category":"study"}]},{"lat":"37.245288866","long":"127.11224089","imageIndex":16,"items":[{"name":"키즈앳플레이","tel":"","addr":"경기도 용인시 기흥구 공세동 676번지 화성파크드림프라브 809동 405호","indutype":"학원 - 기타 교육기관","category":"study"}]},{"lat":"37.243876897","long":"127.10933108","imageIndex":16,"items":[{"name":"한별유치원","tel":"031-693-8899","addr":"경기도 용인시 기흥구 공세동 677번지","indutype":"학원 - 유치원","category":"study"}]},{"lat":"37.242391453","long":"127.10792022","imageIndex":16,"items":[{"name":"한보라 9네스트","tel":"","addr":"경기도 용인시 기흥구 공세동 679번지 한보라마을휴먼시아9단지아파트","indutype":"학원 - 기타 교육기관","category":"study"}]},{"lat":"37.244321501","long":"127.10582659","imageIndex":16,"items":[{"name":"한솔수학삼성영어학원","tel":"031-274-0944","addr":"경기도 용인시 기흥구 공세동 671-2번지 유림프라자 202호","indutype":"학원 - 보습학원","category":"study"}]},{"lat":"37.232380608","long":"127.10833454","imageIndex":16,"items":[{"name":"한영어린이집","tel":"031-286-9767","addr":"경기도 용인시 기흥구 공세동 206번지","indutype":"학원 - 유치원","category":"study"}]},{"lat":"37.244519727","long":"127.10582686","imageIndex":16,"items":[{"name":"한울국어논술학원","tel":"031-275-1313","addr":"경기도 용인시 기흥구 공세동 671-1번지 휴먼프라자 3층 302호","indutype":"학원 - 보습학원","category":"study"}]},{"lat":"37.244051377","long":"127.10561208","imageIndex":16,"items":[{"name":"한일경희대태권도","tel":"031-982-5999","addr":"경기도 용인시 기흥구 공세동 672-2번지 칸프라자 401호","indutype":"학원 - 예·체능계학원","category":"study"}]}]