[{"lat":"37.297094061","long":"126.99370139","imageIndex":13,"items":[{"name":"(주)에스비라인","tel":"031-269-0936","addr":"경기도 수원시 장안구 정자동 872-2번지 라이프스포츠수원 401호","indutype":"레저업소 - 볼 링 장","category":"leisure"},{"name":"(주)에스비라인","tel":"031-269-0937","addr":"경기도 수원시 장안구 정자동 872-2번지 라이프스포츠수원 401호","indutype":"레저업소 - 볼 링 장","category":"leisure"},{"name":"골프존비전 정자점","tel":"031-269-7799","addr":"경기도 수원시 장안구 정자동 872-2번지 라이프스포츠수원 3층","indutype":"레저업소 - 골프연습장","category":"leisure"},{"name":"라이프스크린골프","tel":"031-268-4000","addr":"경기도 수원시 장안구 정자동 872-2번지 라이프스크린골프 501호","indutype":"레저업소 - 스크린골프","category":"leisure"},{"name":"온스크린골프","tel":"031-269-2696","addr":"경기도 수원시 장안구 정자동 872-2번지 라이프스포츠 204호~207호","indutype":"레저업소 - 스크린골프","category":"leisure"},{"name":"원펀치 복싱클럽","tel":"031-271-0112","addr":"경기도 수원시 장안구 정자동 872-2번지 210호 ,211,212호","indutype":"레저업소 - 헬스클럽","category":"leisure"}]},{"lat":"37.299040039","long":"126.99106195","imageIndex":13,"items":[{"name":"(주)케이익스트림롤러파크","tel":"031-269-5800","addr":"경기도 수원시 장안구 정자동 266-3번지 파크프라자 5층 501,502호","indutype":"레저업소 - 기타레져업소","category":"leisure"},{"name":"수정골프클럽","tel":"031-268-2242","addr":"경기도 수원시 장안구 정자동 266-3번지 파크프라자 2층 202-1호","indutype":"레저업소 - 골프연습장","category":"leisure"},{"name":"점핑파크 정자점","tel":"031-269-5678","addr":"경기도 수원시 장안구 정자동 266-3번지 파크프라자 6층 601호","indutype":"레저업소 - 기타레져업소","category":"leisure"}]},{"lat":"37.295814647","long":"126.99423162","imageIndex":13,"items":[{"name":"(주)한국부동산분양연구소","tel":"031-247-4746","addr":"경기도 수원시 장안구 정자동 876-4세경프라자2층,3층","indutype":"레저업소 - 기타레져업소","category":"leisure"},{"name":"킹콩당구장","tel":"031-271-7770","addr":"경기도 수원시 장안구 정자동 876-4번지 세경프라자 5층","indutype":"레저업소 - 당 구 장","category":"leisure"},{"name":"탁구세상","tel":"031-258-7553","addr":"경기도 수원시 장안구 정자동 876-4번지 세경프라자 3층","indutype":"레저업소 - 기타레져업소","category":"leisure"},{"name":"프로방스정자동점","tel":"031-269-8066","addr":"경기도 수원시 장안구 정자동 876-4번지 세경프라자 401호","indutype":"레저업소 - 노 래 방","category":"leisure"}]},{"lat":"37.305284338","long":"126.99333945","imageIndex":13,"items":[{"name":"3pop PC방","tel":"070-4768-1685","addr":"경기도 수원시 장안구 정자동 429-43번지 지하","indutype":"레저업소 - 기타레져업소","category":"leisure"},{"name":"메카(Mecca)당구클럽","tel":"","addr":"경기도 수원시 장안구 정자동 429-43번지 가동 5층","indutype":"레저업소 - 당 구 장","category":"leisure"},{"name":"카인드짐","tel":"031-243-5353","addr":"경기도 수원시 장안구 정자동 429-43번지 일성빌딩 가동 3,4층","indutype":"레저업소 - 헬스클럽","category":"leisure"},{"name":"허브노래연습장","tel":"031-257-7770","addr":"경기도 수원시 장안구 정자동 429-43번지 2층","indutype":"레저업소 - 노 래 방","category":"leisure"}]},{"lat":"37.290147501","long":"127.00095355","imageIndex":13,"items":[{"name":"3구4구당구클럽","tel":"031-234-0150","addr":"경기도 수원시 장안구 정자동 76-1번지 연세소아과의원 302호","indutype":"레저업소 - 당 구 장","category":"leisure"},{"name":"프라임복싱클럽","tel":"031-248-7989","addr":"경기도 수원시 장안구 정자동 76-1번지 연세소아과의원 502호","indutype":"레저업소 - 헬스클럽","category":"leisure"},{"name":"히트노래연습장","tel":"031-241-4611","addr":"경기도 수원시 장안구 정자동 76-1번지 지하1층","indutype":"레저업소 - 노 래 방","category":"leisure"}]},{"lat":"37.3060681","long":"126.99186171","imageIndex":13,"items":[{"name":"Queen pc방","tel":"070-7079-2349","addr":"경기도 수원시 장안구 정자동 435-8번지 3층","indutype":"레저업소 - 기타레져업소","category":"leisure"}]},{"lat":"37.295535601","long":"126.99964515","imageIndex":13,"items":[{"name":"경기도수영연맹","tel":"031-271-0843","addr":"경기도 수원시 장안구 정자동 27-10번지 경기도체육회관 816호","indutype":"레저업소 - 수 영 장","category":"leisure"}]},{"lat":"37.309536158","long":"126.98473211","imageIndex":13,"items":[{"name":"골프존W","tel":"031-243-7777","addr":"경기도 수원시 장안구 정자동 600-28번지 5층","indutype":"레저업소 - 스크린골프","category":"leisure"}]},{"lat":"37.296346229","long":"126.99392705","imageIndex":13,"items":[{"name":"궁노래연습장","tel":"031-454-4018","addr":"경기도 수원시 장안구 정자동 876-1번지 2층","indutype":"레저업소 - 노 래 방","category":"leisure"},{"name":"궁노래연습장","tel":"031-271-3112","addr":"경기도 수원시 장안구 정자동 876-1 2층(201,202,203호)","indutype":"레저업소 - 노 래 방","category":"leisure"},{"name":"레알pc존","tel":"","addr":"경기도 수원시 장안구 정자동 876-1번지","indutype":"레저업소 - 기타레져업소","category":"leisure"},{"name":"케이투당구클럽","tel":"070-7778-2460","addr":"경기도 수원시 장안구 정자동 876-1번지 3층 301호,302호","indutype":"레저업소 - 당 구 장","category":"leisure"}]},{"lat":"37.302121736","long":"126.9932045","imageIndex":13,"items":[{"name":"궁전노래연습장","tel":"031-255-5607","addr":"경기도 수원시 장안구 정자동 384번지 세하빌딩 지하1층","indutype":"레저업소 - 노 래 방","category":"leisure"},{"name":"인디고PC방 수원정자점","tel":"","addr":"경기도 수원시 장안구 정자동 384번지 세하빌딩 301호","indutype":"레저업소 - 기타레져업소","category":"leisure"}]},{"lat":"37.294039945","long":"127.0029158","imageIndex":13,"items":[{"name":"김태승골프아카데미","tel":"070-2580-5580","addr":"경기도 수원시 장안구 정자동 38-42번지","indutype":"레저업소 - 골프연습장","category":"leisure"}]},{"lat":"37.295481217","long":"126.99356625","imageIndex":13,"items":[{"name":"다올필라테스","tel":"031-323-6016","addr":"경기도 수원시 장안구 정자동 877-4번지 정연메이져 1124호","indutype":"레저업소 - 헬스클럽","category":"leisure"},{"name":"무드라요가","tel":"031-254-8500","addr":"경기도 수원시 장안구 정자동 877-4번지 7층 711호,712호","indutype":"레저업소 - 헬스클럽","category":"leisure"},{"name":"플레이타임","tel":"031-269-7713","addr":"경기도 수원시 장안구 정자동 877-4번지 정연메이져 1010동 1011호","indutype":"레저업소 - 기타레져업소","category":"leisure"}]},{"lat":"37.295787933","long":"127.00289325","imageIndex":13,"items":[{"name":"다원노래연습장","tel":"031-243-4233","addr":"경기도 수원시 장안구 정자동 35-3번지","indutype":"레저업소 - 노 래 방","category":"leisure"},{"name":"콩당구클럽","tel":"031-241-8589","addr":"경기도 수원시 장안구 정자동 35-3번지","indutype":"레저업소 - 당 구 장","category":"leisure"}]},{"lat":"37.295679476","long":"126.99400607","imageIndex":13,"items":[{"name":"더블유짐 정자8호점","tel":"031-268-5400","addr":"경기도 수원시 장안구 정자동 876-5번지 뱅뱅프라자 4층 403호","indutype":"레저업소 - 헬스클럽","category":"leisure"},{"name":"뱅뱅노래연습장","tel":"031-269-6006","addr":"경기도 수원시 장안구 정자동 876-5번지 뱅뱅프라자 501호,502호","indutype":"레저업소 - 노 래 방","category":"leisure"},{"name":"뱅뱅노래연습장","tel":"031-269-8315","addr":"경기도 수원시 장안구 정자동 876-5번지 뱅뱅프라자 501동 502호","indutype":"레저업소 - 노 래 방","category":"leisure"},{"name":"탑당구장","tel":"031-271-2949","addr":"경기도 수원시 장안구 정자동 876-5번지 뱅뱅프라자 5층 503,504호","indutype":"레저업소 - 당 구 장","category":"leisure"},{"name":"피크오브필라테스 수원정자점","tel":"031-269-9993","addr":"경기도 수원시 장안구 정자동 876-5번지 뱅뱅프라자 401,402호","indutype":"레저업소 - 헬스클럽","category":"leisure"}]},{"lat":"37.30661768","long":"126.99139916","imageIndex":13,"items":[{"name":"도깨비노래연습장","tel":"02-1577-0000","addr":"경기도 수원시 장안구 정자동 535-12번지","indutype":"레저업소 - 노 래 방","category":"leisure"},{"name":"로또당구장","tel":"","addr":"경기도 수원시 장안구 정자동 535-12번지 3층","indutype":"레저업소 - 당 구 장","category":"leisure"}]},{"lat":"37.305455423","long":"126.99206483","imageIndex":13,"items":[{"name":"디.디(D.D)클럽","tel":"031-244-4706","addr":"경기도 수원시 장안구 정자동 434-10번지 동우빌딩 402동 403호","indutype":"레저업소 - 헬스클럽","category":"leisure"},{"name":"렛츠고점핑","tel":"031-269-8105","addr":"경기도 수원시 장안구 정자동 434-10번지 동우빌딩 501-1호","indutype":"레저업소 - 기타레져업소","category":"leisure"},{"name":"무궁화탁구클럽","tel":"031-268-7999","addr":"경기도 수원시 장안구 정자동 434-10번지 동우빌딩 6층 602, 603호","indutype":"레저업소 - 기타레져업소","category":"leisure"}]},{"lat":"37.292210781","long":"127.00733663","imageIndex":13,"items":[{"name":"라이프타임휘트니스","tel":"031-547-9479","addr":"경기도 수원시 장안구 정자동 81-15번지 알파빌딩 4층","indutype":"레저업소 - 헬스클럽","category":"leisure"},{"name":"싸이클론 PC","tel":"031-268-0068","addr":"경기도 수원시 장안구 정자동 81-15번지 알파빌딩 3층","indutype":"레저업소 - 기타레져업소","category":"leisure"},{"name":"알파스크린골프","tel":"031-254-8007","addr":"경기도 수원시 장안구 정자동 81-15번지 알파빌딩 지하1층","indutype":"레저업소 - 스크린골프","category":"leisure"},{"name":"주식회사 라이프타임컴퍼니","tel":"031-547-9479","addr":"경기도 수원시 장안구 정자동 81-15번지 알파빌딩 501호","indutype":"레저업소 - 헬스클럽","category":"leisure"}]},{"lat":"37.295571664","long":"127.00519399","imageIndex":13,"items":[{"name":"라인피씨클럽","tel":"031-309-3933","addr":"경기도 수원시 장안구 정자동 36-22번지","indutype":"레저업소 - 기타레져업소","category":"leisure"},{"name":"엄지노래연습장","tel":"031-253-4234","addr":"경기도 수원시 장안구 정자동 36-22번지 지하층","indutype":"레저업소 - 노 래 방","category":"leisure"}]},{"lat":"37.296148011","long":"126.99402857","imageIndex":13,"items":[{"name":"랑데뷰","tel":"031-248-0082","addr":"경기도 수원시 장안구 정자동 876-2번지","indutype":"레저업소 - 당 구 장","category":"leisure"}]},{"lat":"37.289958282","long":"127.0007844","imageIndex":13,"items":[{"name":"로얄당구클럽","tel":"031-253-6578","addr":"경기도 수원시 장안구 정자동 75-11","indutype":"레저업소 - 당 구 장","category":"leisure"},{"name":"캐슬노래연습장","tel":"031-251-2964","addr":"경기도 수원시 장안구 정자동 75-11번지 지하층","indutype":"레저업소 - 노 래 방","category":"leisure"}]},{"lat":"37.301707276","long":"126.9933399","imageIndex":13,"items":[{"name":"매너짐","tel":"031-385-2928","addr":"경기도 수원시 장안구 정자동 383번지 범야 상가 308호","indutype":"레저업소 - 헬스클럽","category":"leisure"}]},{"lat":"37.292174782","long":"126.99975807","imageIndex":13,"items":[{"name":"메인노래연습장","tel":"031-243-2447","addr":"경기도 수원시 장안구 정자동 45-2번지 노블레스아파트 지하층 101호","indutype":"레저업소 - 노 래 방","category":"leisure"}]},{"lat":"37.29373357","long":"127.00038957","imageIndex":13,"items":[{"name":"상상PC방","tel":"070-5105-3435","addr":"경기도 수원시 장안구 정자동 41-2번지","indutype":"레저업소 - 기타레져업소","category":"leisure"}]},{"lat":"37.290012303","long":"126.99914919","imageIndex":13,"items":[{"name":"샤이닝","tel":"031-293-0279","addr":"경기도 수원시 장안구 정자동 74-19번지 정승빌딩 204호","indutype":"레저업소 - 헬스클럽","category":"leisure"}]},{"lat":"37.296427369","long":"126.99459245","imageIndex":13,"items":[{"name":"선일주차타워노래방","tel":"031-269-0403","addr":"경기도 수원시 장안구 정자동 875번지 선일주차타운 3층 304호","indutype":"레저업소 - 노 래 방","category":"leisure"}]},{"lat":"37.305509571","long":"126.99305743","imageIndex":13,"items":[{"name":"스티번헬스크리닉","tel":"031-246-0101","addr":"경기도 수원시 장안구 정자동 429-41번지","indutype":"레저업소 - 헬스클럽","category":"leisure"}]},{"lat":"37.290814243","long":"127.000119","imageIndex":13,"items":[{"name":"신바람노래연습장","tel":"031-256-1270","addr":"경기도 수원시 장안구 정자동 74-42번지","indutype":"레저업소 - 노 래 방","category":"leisure"}]},{"lat":"37.295373385","long":"127.00714509","imageIndex":13,"items":[{"name":"아이비스PC(정자동)","tel":"02-222-2222","addr":"경기도 수원시 장안구 정자동 9-5번지 메디플라자 2층 202,203호","indutype":"레저업소 - 기타레져업소","category":"leisure"}]},{"lat":"37.293066776","long":"127.00672769","imageIndex":13,"items":[{"name":"앨비스 노래연습장","tel":"031-252-5396","addr":"경기도 수원시 장안구 정자동 68-8번지 광일빌딩 B01호","indutype":"레저업소 - 노 래 방","category":"leisure"}]},{"lat":"37.292481059","long":"127.00805842","imageIndex":13,"items":[{"name":"야미사클럽","tel":"031-227-7002","addr":"경기도 수원시 장안구 정자동 82-16번지 창신빌딩 B층 1호","indutype":"레저업소 - 기타레져업소","category":"leisure"}]},{"lat":"37.290453863","long":"127.00219405","imageIndex":13,"items":[{"name":"어썸PC CAFE","tel":"070-3526-1400","addr":"경기도 수원시 장안구 정자동 76-6번지 동호빌딩 3층","indutype":"레저업소 - 기타레져업소","category":"leisure"}]},{"lat":"37.304041137","long":"126.99645272","imageIndex":13,"items":[{"name":"얼짱노래연습장","tel":"031-256-9145","addr":"경기도 수원시 장안구 정자동 418-1번지 목한의원 지하층 2호","indutype":"레저업소 - 노 래 방","category":"leisure"}]},{"lat":"37.294346269","long":"127.00050232","imageIndex":13,"items":[{"name":"에스핏다이어트","tel":"031-223-5214","addr":"경기도 수원시 장안구 정자동 32-15번지 옹산빌딩","indutype":"레저업소 - 헬스클럽","category":"leisure"}]},{"lat":"37.296904961","long":"126.99531421","imageIndex":13,"items":[{"name":"엠pc방","tel":"070-2830-1384","addr":"경기도 수원시 장안구 정자동 874-1번지 선일프라자 2층 201,202,203호","indutype":"레저업소 - 기타레져업소","category":"leisure"}]},{"lat":"37.296066992","long":"126.99506618","imageIndex":13,"items":[{"name":"오엠요가","tel":"","addr":"경기도 수원시 장안구 정자동 874-5번지 레몬스포렉스 208,209호","indutype":"레저업소 - 헬스클럽","category":"leisure"},{"name":"헬로방방(북수원점)","tel":"031-268-1175","addr":"경기도 수원시 장안구 정자동 874-5번지 503,504호","indutype":"레저업소 - 기타레져업소","category":"leisure"},{"name":"황후요가","tel":"031-268-8887","addr":"경기도 수원시 장안구 정자동 874-5번지 2층 207-1호","indutype":"레저업소 - 헬스클럽","category":"leisure"}]},{"lat":"37.304428264","long":"126.99214393","imageIndex":13,"items":[{"name":"오월파크요가","tel":"031-746-6786","addr":"경기도 수원시 장안구 정자동 840-77번지 센타프라자빌딩 7층","indutype":"레저업소 - 헬스클럽","category":"leisure"}]},{"lat":"37.290625042","long":"127.00084076","imageIndex":13,"items":[{"name":"올댓필라테스","tel":"031-207-9888","addr":"경기도 수원시 장안구 정자동 73-10번지 정자종합상가 402,408호","indutype":"레저업소 - 헬스클럽","category":"leisure"},{"name":"탐라노래연습장","tel":"031-243-0066","addr":"경기도 수원시 장안구 정자동 73-10번지 2층 221호","indutype":"레저업소 - 노 래 방","category":"leisure"}]},{"lat":"37.294733666","long":"126.998867","imageIndex":13,"items":[{"name":"우리노래연습장","tel":"031-244-9348","addr":"경기도 수원시 장안구 정자동 29-24번지 지층","indutype":"레저업소 - 노 래 방","category":"leisure"}]},{"lat":"37.305761661","long":"126.99092554","imageIndex":13,"items":[{"name":"월드노래연습장","tel":"031-1111-1111","addr":"경기도 수원시 장안구 정자동 536-2번지 3층","indutype":"레저업소 - 노 래 방","category":"leisure"}]},{"lat":"37.295571384","long":"126.99442338","imageIndex":13,"items":[{"name":"월드당구클럽","tel":"031-269-0935","addr":"경기도 수원시 장안구 정자동 878-1번지 4층","indutype":"레저업소 - 당 구 장","category":"leisure"}]},{"lat":"37.295238184","long":"127.00830673","imageIndex":13,"items":[{"name":"위즈당구클럽","tel":"031-242-5845","addr":"경기도 수원시 장안구 정자동 9-1번지 3층","indutype":"레저업소 - 당 구 장","category":"leisure"}]},{"lat":"37.296481484","long":"126.9953932","imageIndex":13,"items":[{"name":"윈휘트니스(WinFitness)","tel":"031-269-0999","addr":"경기도 수원시 장안구 정자동 874-2번지 롯데프라자 302동 304호","indutype":"레저업소 - 헬스클럽","category":"leisure"},{"name":"제닉스 아레나 정자점","tel":"070-8816-1183","addr":"경기도 수원시 장안구 정자동 874-2번지 롯데프라자 308호","indutype":"레저업소 - 기타레져업소","category":"leisure"}]},{"lat":"37.293012703","long":"126.99873176","imageIndex":13,"items":[{"name":"제우스 노래연습장","tel":"031-256-0032","addr":"경기도 수원시 장안구 정자동 42-67번지","indutype":"레저업소 - 노 래 방","category":"leisure"}]},{"lat":"37.290237496","long":"126.99750268","imageIndex":13,"items":[{"name":"조이방방","tel":"","addr":"경기도 수원시 장안구 정자동 887-1번지 두견마을 영남,우방,한솔아파트 지하1층","indutype":"레저업소 - 기타레져업소","category":"leisure"}]},{"lat":"37.295265014","long":"126.9941189","imageIndex":13,"items":[{"name":"채플린(정자2)노래연습장","tel":"","addr":"경기도 수원시 장안구 정자동 878-10번지 3층","indutype":"레저업소 - 노 래 방","category":"leisure"},{"name":"큐당구클럽","tel":"031-269-0377","addr":"경기도 수원시 장안구 정자동 878-10번지 501호","indutype":"레저업소 - 당 구 장","category":"leisure"}]},{"lat":"37.289787078","long":"127.0002882","imageIndex":13,"items":[{"name":"채플린노래연습장(정자점)","tel":"031-243-9324","addr":"경기도 수원시 장안구 정자동 75-8번지","indutype":"레저업소 - 노 래 방","category":"leisure"}]},{"lat":"37.290345715","long":"127.00036712","imageIndex":13,"items":[{"name":"코리아 언더독","tel":"031-252-8296","addr":"경기도 수원시 장안구 정자동 74-32번지 지하1층","indutype":"레저업소 - 헬스클럽","category":"leisure"}]},{"lat":"37.293841691","long":"127.00028806","imageIndex":13,"items":[{"name":"키미스골프 아카데미","tel":"031-244-1100","addr":"경기도 수원시 장안구 정자동 41-1번지 2층","indutype":"레저업소 - 골프연습장","category":"leisure"}]},{"lat":"37.306401453","long":"126.99159095","imageIndex":13,"items":[{"name":"파브노래연습장","tel":"031-246-7848","addr":"경기도 수원시 장안구 정자동 537-2번지","indutype":"레저업소 - 노 래 방","category":"leisure"}]},{"lat":"37.292291863","long":"127.00758475","imageIndex":13,"items":[{"name":"풀타임PC방","tel":"","addr":"경기도 수원시 장안구 정자동 81-9번지 가구프라자 3층","indutype":"레저업소 - 기타레져업소","category":"leisure"},{"name":"풀타임PC방","tel":"070-8720-2414","addr":"경기도 수원시 장안구 정자동 81-9번지 가구프라자 3층","indutype":"레저업소 - 기타레져업소","category":"leisure"}]},{"lat":"37.294733689","long":"126.99961135","imageIndex":13,"items":[{"name":"필당구장","tel":"031-253-7717","addr":"경기도 수원시 장안구 정자동 31-1번지 4층","indutype":"레저업소 - 당 구 장","category":"leisure"}]},{"lat":"37.291571106","long":"127.00558858","imageIndex":13,"items":[{"name":"필당구장","tel":"031-111-1111","addr":"경기도 수원시 장안구 정자동 80-8번지 2층","indutype":"레저업소 - 당 구 장","category":"leisure"}]},{"lat":"37.306257249","long":"126.99117362","imageIndex":13,"items":[{"name":"황금마차노래연습장","tel":"031-258-4996","addr":"경기도 수원시 장안구 정자동 535-30번지 지층","indutype":"레저업소 - 노 래 방","category":"leisure"}]}]