[{"lat":"37.253083145","long":"127.49298914","imageIndex":7,"items":[{"name":"가루영웅베이커리 하이닉스점","tel":"031-638-0149","addr":"경기도 이천시 부발읍 아미리 652번지 1동 102호","indutype":"음료식품 - 제과점","category":"food"}]},{"lat":"37.252585107","long":"127.49140789","imageIndex":7,"items":[{"name":"국선생 하이닉스점","tel":"","addr":"경기도 이천시 부발읍 아미리 670-5번지 1층 106호 상가 (리슈빌)","indutype":"음료식품 - 기타음료식품","category":"food"},{"name":"남매과일","tel":"031-633-3331","addr":"경기도 이천시 부발읍 아미리 670-5번지 107호(라슈빌s상가)","indutype":"음료식품 - 농·축·수산품","category":"food"},{"name":"남매과일","tel":"","addr":"경기도 이천시 부발읍 아미리 670-5번지 107호 (이천부발역 리슈빌S상가)","indutype":"음료식품 - 농·축·수산품","category":"food"}]},{"lat":"37.270801147","long":"127.50707283","imageIndex":7,"items":[{"name":"그린식품","tel":"031-631-0040","addr":"경기도 이천시 부발읍 아미리 130-10번지","indutype":"음료식품 - 농·축·수산품","category":"food"}]},{"lat":"37.25411165","long":"127.49048218","imageIndex":7,"items":[{"name":"달콤과일","tel":"","addr":"경기도 이천시 부발읍 아미리 730번지 이천신일해피트리트리빌1단지 101동 상가111호","indutype":"음료식품 - 농·축·수산품","category":"food"}]},{"lat":"37.248303316","long":"127.49187617","imageIndex":7,"items":[{"name":"담원정육","tel":"031-631-3233","addr":"경기도 이천시 부발읍 아미리 694-4번지 1동 1층","indutype":"음료식품 - 정육점","category":"food"}]},{"lat":"37.251250234","long":"127.49173741","imageIndex":7,"items":[{"name":"데카마트이천점정육","tel":"031-637-8908","addr":"경기도 이천시 부발읍 아미리 673번지","indutype":"음료식품 - 정육점","category":"food"}]},{"lat":"37.251827567","long":"127.50237016","imageIndex":7,"items":[{"name":"땅강아지","tel":"","addr":"경기도 이천시 부발읍 아미리 923-1번지","indutype":"음료식품 - 농·축·수산품","category":"food"}]},{"lat":"37.25211148","long":"127.49045802","imageIndex":7,"items":[{"name":"뚜레쥬르하이닉스","tel":"031-638-9988","addr":"경기도 이천시 부발읍 아미리 725-8번지 1층 103-104호","indutype":"음료식품 - 제과점","category":"food"}]},{"lat":"37.256299474","long":"127.49306633","imageIndex":7,"items":[{"name":"라선생꽃케이크","tel":"","addr":"경기도 이천시 부발읍 아미리 597-1번지","indutype":"음료식품 - 제과점","category":"food"}]},{"lat":"37.253167967","long":"127.48990124","imageIndex":7,"items":[{"name":"먹물수산","tel":"031-638-2016","addr":"경기도 이천시 부발읍 아미리 733-1번지 영원타운 107호","indutype":"음료식품 - 농·축·수산품","category":"food"}]},{"lat":"37.254306792","long":"127.48904064","imageIndex":7,"items":[{"name":"뽀빠이마트정육","tel":"031-633-2333","addr":"경기도 이천시 부발읍 아미리 737-6번지","indutype":"음료식품 - 정육점","category":"food"},{"name":"뽀빠이마트정육","tel":"031-633-2333","addr":"경기도 이천시 부발읍 아미리 737-6번지 뽀빠이마트 내","indutype":"음료식품 - 정육점","category":"food"}]},{"lat":"37.256916212","long":"127.48990283","imageIndex":7,"items":[{"name":"신라명과","tel":"031-638-7984","addr":"경기도 이천시 부발읍 아미리 753번지","indutype":"음료식품 - 제과점","category":"food"}]},{"lat":"37.252692014","long":"127.48951495","imageIndex":7,"items":[{"name":"아미떡마을","tel":"031-635-4113","addr":"경기도 이천시 부발읍 아미리 726-9번지 현대시티프라자 109호","indutype":"음료식품 - 제과점","category":"food"}]},{"lat":"37.250525196","long":"127.49275842","imageIndex":7,"items":[{"name":"엄마의부엌","tel":"031-633-5255","addr":"경기도 이천시 부발읍 아미리 1003-5번지","indutype":"음료식품 - 기타음료식품","category":"food"}]},{"lat":"37.267523833","long":"127.50650984","imageIndex":7,"items":[{"name":"엘지농장","tel":"031-632-5712","addr":"경기도 이천시 부발읍 아미리 93-1번지","indutype":"음료식품 - 농·축·수산품","category":"food"}]},{"lat":"37.252971978","long":"127.49154565","imageIndex":7,"items":[{"name":"오레시피 이천부발점","tel":"031-633-1239","addr":"경기도 이천시 부발읍 아미리 665-2번지 1동 102호","indutype":"음료식품 - 기타음료식품","category":"food"}]},{"lat":"37.253443611","long":"127.49079349","imageIndex":7,"items":[{"name":"올찬","tel":"031-638-1154","addr":"경기도 이천시 부발읍 아미리 729번지 이천신일해피트리트리빌2단지 107호","indutype":"음료식품 - 기타음료식품","category":"food"},{"name":"총각네푸줏간 하이닉스점","tel":"031-631-4666","addr":"경기도 이천시 부발읍 아미리 729번지 신일해피트리2단지 2동 101호","indutype":"음료식품 - 정육점","category":"food"}]},{"lat":"37.252827818","long":"127.49154471","imageIndex":7,"items":[{"name":"육도","tel":"031-635-1301","addr":"경기도 이천시 부발읍 아미리 666번지","indutype":"음료식품 - 정육점","category":"food"}]},{"lat":"37.268996665","long":"127.50126594","imageIndex":7,"items":[{"name":"이천푸드","tel":"031-635-1262","addr":"경기도 이천시 부발읍 아미리 1143-1번지 2층","indutype":"음료식품 - 농·축·수산품","category":"food"},{"name":"주식회사 이천유통","tel":"031-631-9687","addr":"경기도 이천시 부발읍 아미리 1143-1번지","indutype":"음료식품 - 기타음료식품","category":"food"}]},{"lat":"37.250079302","long":"127.48945306","imageIndex":7,"items":[{"name":"현대엘리베이터 사내 매점","tel":"","addr":"경기도 이천시 부발읍 아미리 702번지","indutype":"음료식품 - 기타음료식품","category":"food"}]},{"lat":"37.253780322","long":"127.48998409","imageIndex":7,"items":[{"name":"화룡정육점","tel":"031-636-2228","addr":"경기도 이천시 부발읍 아미리 737-16번지","indutype":"음료식품 - 정육점","category":"food"}]}]