[{"lat":"37.005103135","long":"127.08011191","imageIndex":7,"items":[{"name":"대복","tel":"031-691-4734","addr":"경기도 평택시 세교동 245-14번지","indutype":"음료식품 - 정육점","category":"food"}]},{"lat":"37.0006874","long":"127.08087139","imageIndex":7,"items":[{"name":"델리쇼우과자점","tel":"031-652-0045","addr":"경기도 평택시 세교동 561-1번지","indutype":"음료식품 - 제과점","category":"food"}]},{"lat":"37.000074347","long":"127.08136507","imageIndex":7,"items":[{"name":"동네정육점","tel":"031-658-9641","addr":"경기도 평택시 세교동 562-5번지","indutype":"음료식품 - 정육점","category":"food"}]},{"lat":"37.011405593","long":"127.08747787","imageIndex":7,"items":[{"name":"마노아티 (MANOAH TEA)","tel":"031-000-0000","addr":"경기도 평택시 세교동 303-3번지 힐스테이트평택 110동 2603호","indutype":"음료식품 - 기타음료식품","category":"food"},{"name":"미로유통","tel":"","addr":"경기도 평택시 세교동 303-3번지 힐스테이트평택 110동 13층 1304호","indutype":"음료식품 - 기타음료식품","category":"food"},{"name":"풍년축산","tel":"031-656-6662","addr":"경기도 평택시 세교동 303-3번지 힐스테이트평택 122동 110호","indutype":"음료식품 - 정육점","category":"food"}]},{"lat":"37.000047847","long":"127.08055617","imageIndex":7,"items":[{"name":"불만난고기","tel":"031-654-7738","addr":"경기도 평택시 세교동 567-3번지","indutype":"음료식품 - 정육점","category":"food"}]},{"lat":"37.004355299","long":"127.08003251","imageIndex":7,"items":[{"name":"사랑스런 내 떡방앗간","tel":"031-618-0804","addr":"경기도 평택시 세교동 243-1번지 102호","indutype":"음료식품 - 제과점","category":"food"}]},{"lat":"37.007880078","long":"127.07753056","imageIndex":7,"items":[{"name":"산골농산","tel":"031-656-2044","addr":"경기도 평택시 세교동 431번지","indutype":"음료식품 - 농·축·수산품","category":"food"}]},{"lat":"37.000436648","long":"127.07847821","imageIndex":7,"items":[{"name":"세교점핑다이어트클럽","tel":"","addr":"경기도 평택시 세교동 568-7번지 은실신협 3층","indutype":"건강식품 - 기타건강식품","category":"food"}]},{"lat":"37.013323791","long":"127.08897442","imageIndex":7,"items":[{"name":"세교중학교","tel":"031-615-9100","addr":"경기도 평택시 세교동 304-11번지 세교중학교","indutype":"음료식품 - 기타음료식품","category":"food"}]},{"lat":"37.00079474","long":"127.08206235","imageIndex":7,"items":[{"name":"아이스께끼","tel":"031-656-5655","addr":"경기도 평택시 세교동 559번지 개나리아파트 상가동 102호","indutype":"음료식품 - 기타음료식품","category":"food"}]},{"lat":"37.00027304","long":"127.08066875","imageIndex":7,"items":[{"name":"은혜반찬","tel":"031-651-6370","addr":"경기도 평택시 세교동 567번지 1층","indutype":"음료식품 - 기타음료식품","category":"food"}]},{"lat":"37.004497407","long":"127.08314475","imageIndex":7,"items":[{"name":"이든네이처(평택세교지사)","tel":"031-657-7171","addr":"경기도 평택시 세교동 554번지 태영청솔아파트 상가동 201호","indutype":"건강식품 - 기타건강식품","category":"food"},{"name":"이롬세교중앙지사","tel":"031-657-9982","addr":"경기도 평택시 세교동 554번지 태영상가 204호","indutype":"소매업 - 건강기능식품","category":"food"},{"name":"태영공판장","tel":"","addr":"경기도 평택시 세교동 554번지 태영상가 101호","indutype":"소매업 - 식품, 잡화","category":"food"}]},{"lat":"37.015551445","long":"127.08614531","imageIndex":7,"items":[{"name":"주식회사영진푸드","tel":"031-651-9002","addr":"경기도 평택시 세교동 362-4번지","indutype":"음료식품 - 기타음료식품","category":"food"}]},{"lat":"36.999407318","long":"127.08172388","imageIndex":7,"items":[{"name":"천하명당 복권방","tel":"031-656-6116","addr":"경기도 평택시 세교동 563-4번지 1층","indutype":"음료식품 - 기타음료식품","category":"food"}]},{"lat":"37.011099485","long":"127.08711798","imageIndex":7,"items":[{"name":"파리바게트평택힐스테이트점","tel":"","addr":"경기도 평택시 세교동 303-1번지 힐스테이트평택2차 상가 221동 B103호,B104호","indutype":"음료식품 - 제과점","category":"food"}]},{"lat":"37.00555121","long":"127.06928169","imageIndex":7,"items":[{"name":"평택미에로","tel":"","addr":"경기도 평택시 세교동 480-6번지 1층","indutype":"음료식품 - 기타음료식품","category":"food"}]},{"lat":"37.012466784","long":"127.09033303","imageIndex":7,"items":[{"name":"평택여자고등학교매점","tel":"031-654-3559","addr":"경기도 평택시 세교동 1-2번지 평택여자고등학교 매점","indutype":"음료식품 - 기타음료식품","category":"food"}]},{"lat":"37.003080939","long":"127.08574973","imageIndex":7,"items":[{"name":"한우세상","tel":"031-655-3315","addr":"경기도 평택시 세교동 555번지 부영아파트 2동 1층 102호","indutype":"음료식품 - 정육점","category":"food"}]},{"lat":"37.000552387","long":"127.08064656","imageIndex":7,"items":[{"name":"현미박사누룽지세교점","tel":"031-5229-9246","addr":"경기도 평택시 세교동 561-3번지 1층","indutype":"음료식품 - 기타음료식품","category":"food"}]}]