[{"lat":"37.321125427","long":"127.10529945","imageIndex":0,"items":[{"name":"(주)위드와이","tel":"070-5097-0217","addr":"경기도 용인시 기흥구 보정동 375-16번지 르노삼성남분당정비사업소 313호","indutype":"자동차정비 유지 - 자동차부품","category":"car"},{"name":"트리니티","tel":"031-262-3599","addr":"경기도 용인시 기흥구 보정동 375-16번지 1층","indutype":"자동차정비 유지 - 자동차부품","category":"car"},{"name":"팝 카오디오","tel":"031-276-7117","addr":"경기도 용인시 기흥구 보정동 375-16번지 1층 르노삼성 남분당 정비사업소","indutype":"자동차정비 유지 - 자동차부품","category":"car"}]},{"lat":"37.310736461","long":"127.10552225","imageIndex":0,"items":[{"name":"(주)죽전현대모터스","tel":"031-262-6768","addr":"경기도 용인시 기흥구 보정동 636-4번지","indutype":"자동차정비 유지 - 자동차정비","category":"car"},{"name":"EDS보정오토랜드","tel":"031-266-6260","addr":"경기도 용인시 기흥구 보정동 636-4번지","indutype":"자동차정비 유지 - 세차장","category":"car"}]},{"lat":"37.293874155","long":"127.09977018","imageIndex":0,"items":[{"name":"(주)카마스터","tel":"031-264-0078","addr":"경기도 용인시 기흥구 보정동 1032-3번지 정비공장 제1호","indutype":"자동차정비 유지 - 자동차정비","category":"car"}]},{"lat":"37.322233827","long":"127.10513172","imageIndex":0,"items":[{"name":"(주)프로샤인","tel":"031-889-9949","addr":"경기도 용인시 기흥구 보정동 374-59번지 큰집추어탕 1층 101호","indutype":"자동차정비 유지 - 자동차부품","category":"car"},{"name":"덴트올라 (DENT OLA)","tel":"031-272-8881","addr":"경기도 용인시 기흥구 보정동 374-59번지 큰집추어탕 1동","indutype":"자동차정비 유지 - 자동차정비","category":"car"},{"name":"부엉이카워시","tel":"070-4116-2161","addr":"경기도 용인시 기흥구 보정동 374-59번지","indutype":"자동차정비 유지 - 카인테리어","category":"car"}]},{"lat":"37.318290209","long":"127.10177577","imageIndex":0,"items":[{"name":"(주)현대서부자동차공업사","tel":"02-576-0097","addr":"경기도 용인시 기흥구 보정동 720-5번지","indutype":"자동차정비 유지 - 자동차정비","category":"car"}]},{"lat":"37.307592161","long":"127.10521341","imageIndex":0,"items":[{"name":"24시카센터","tel":"031-283-0070","addr":"경기도 용인시 기흥구 보정동 675-1번지","indutype":"자동차정비 유지 - 자동차정비","category":"car"},{"name":"아우토반덴트칼라","tel":"031-282-9077","addr":"경기도 용인시 기흥구 보정동 675-1번지","indutype":"자동차정비 유지 - 자동차정비","category":"car"},{"name":"현대차유리","tel":"031-287-7763","addr":"경기도 용인시 기흥구 보정동 675-1번지","indutype":"자동차정비 유지 - 자동차부품","category":"car"}]},{"lat":"37.308626721","long":"127.09626972","imageIndex":0,"items":[{"name":"3M오토필름","tel":"031-265-1022","addr":"경기도 용인시 기흥구 보정동 444-1번지","indutype":"자동차정비 유지 - 카인테리어","category":"car"},{"name":"뮤즈카오디오","tel":"031-265-0282","addr":"경기도 용인시 기흥구 보정동 444-1번지","indutype":"자동차정비 유지 - 자동차부품","category":"car"}]},{"lat":"37.293514105","long":"127.09932988","imageIndex":0,"items":[{"name":"Before 서비스","tel":"031-889-6665","addr":"경기도 용인시 기흥구 보정동 1033번지","indutype":"자동차정비 유지 - 카인테리어","category":"car"},{"name":"비포자동차서비스","tel":"031-889-6665","addr":"경기도 용인시 기흥구 보정동 1033번지","indutype":"자동차정비 유지 - 카인테리어","category":"car"}]},{"lat":"37.31976108","long":"127.10960722","imageIndex":0,"items":[{"name":"Meguiar's","tel":"031-261-6033","addr":"경기도 용인시 기흥구 보정동 1262번지 아이원주차빌딩 싱싱마트 2층","indutype":"자동차정비 유지 - 세차장","category":"car"},{"name":"스피트메이트보정점","tel":"031-889-9089","addr":"경기도 용인시 기흥구 보정동 1262번지 (126호,127호,128호,129호)","indutype":"자동차정비 유지 - 자동차정비","category":"car"},{"name":"아이원프라자","tel":"031-9076-3623","addr":"경기도 용인시 기흥구 보정동 1262번지 아이원프라자","indutype":"자동차정비 유지 - 주차장","category":"car"},{"name":"케이디씨외형복원 죽전점","tel":"070-7573-3727","addr":"경기도 용인시 기흥구 보정동 1262번지 아이원프라자 121,122호","indutype":"자동차정비 유지 - 자동차정비","category":"car"}]},{"lat":"37.321120081","long":"127.11130143","imageIndex":0,"items":[{"name":"R&J빌딩","tel":"031-897-8881","addr":"경기도 용인시 기흥구 보정동 1190","indutype":"자동차정비 유지 - 주차장","category":"car"},{"name":"헤르마주차장","tel":"031-897-8818","addr":"경기도 용인시 기흥구 보정동 1190번지 2층~4층","indutype":"자동차정비 유지 - 주차장","category":"car"}]},{"lat":"37.319756787","long":"127.11426657","imageIndex":0,"items":[{"name":"갤럭시광택","tel":"031-889-3351","addr":"경기도 용인시 기흥구 보정동 1266-1번지 리베로3 303호","indutype":"자동차정비 유지 - 세차장","category":"car"},{"name":"주식회사 한국미래도시개발","tel":"031-263-9939","addr":"경기도 용인시 기흥구 보정동 1266-1번지 리베로3 166호","indutype":"자동차정비 유지 - 주차장","category":"car"}]},{"lat":"37.293739343","long":"127.09935272","imageIndex":0,"items":[{"name":"그린오토","tel":"031-263-4296","addr":"경기도 용인시 기흥구 보정동 1033-15번지","indutype":"자동차정비 유지 - 자동차정비","category":"car"}]},{"lat":"37.321371453","long":"127.11229461","imageIndex":0,"items":[{"name":"글라스틴트 수지점","tel":"031-272-7008","addr":"경기도 용인시 기흥구 보정동 1203-2번지 1층","indutype":"자동차정비 유지 - 카인테리어","category":"car"}]},{"lat":"37.320451869","long":"127.11287993","imageIndex":0,"items":[{"name":"누리에뜰 노상주차장","tel":"031-123-4567","addr":"경기도 용인시 기흥구 보정동 1353번지","indutype":"자동차정비 유지 - 주차장","category":"car"}]},{"lat":"37.319958251","long":"127.11076952","imageIndex":0,"items":[{"name":"누리에뜰스팀세차","tel":"031-889-3512","addr":"경기도 용인시 기흥구 보정동 1263번지 죽전누리에뜰 지하2층","indutype":"자동차정비 유지 - 세차장","category":"car"},{"name":"누리에뜰입점자대표회의","tel":"031-889-5347","addr":"경기도 용인시 기흥구 보정동 1263번지 상가관리사무실103동 5층","indutype":"자동차정비 유지 - 주차장","category":"car"}]},{"lat":"37.317430836","long":"127.10576826","imageIndex":0,"items":[{"name":"더원모터스(The 1 Motors)","tel":"031-896-4444","addr":"경기도 용인시 기흥구 보정동 547-26번지","indutype":"자동차정비 유지 - 자동차정비","category":"car"}]},{"lat":"37.308147715","long":"127.09810777","imageIndex":0,"items":[{"name":"라이온셀프세차장","tel":"031-272-2838","addr":"경기도 용인시 기흥구 보정동 852번지","indutype":"자동차정비 유지 - 세차장","category":"car"}]},{"lat":"37.320706916","long":"127.09938718","imageIndex":0,"items":[{"name":"롯데마트 수지점/주차장","tel":"02-2145-8276","addr":"경기도 용인시 기흥구 보정동 266-4번지 외4필지","indutype":"자동차정비 유지 - 주차장","category":"car"},{"name":"주식회사 스피드플러스원","tel":"031-897-4026","addr":"경기도 용인시 기흥구 보정동 266-4번지 롯데마트수지점 3층","indutype":"자동차정비 유지 - 자동차정비","category":"car"},{"name":"주식회사스피드플러스원","tel":"031-897-4026","addr":"경기도 용인시 기흥구 보정동 266-4번지 롯데마트수지점 3층","indutype":"자동차정비 유지 - 자동차정비","category":"car"},{"name":"클린조이(주)","tel":"031-897-3341","addr":"경기도 용인시 기흥구 보정동 266-4번지 롯데마트수지점 4층 스팀세차코너","indutype":"자동차정비 유지 - 세차장","category":"car"}]},{"lat":"37.312340639","long":"127.10510704","imageIndex":0,"items":[{"name":"루마쉴드런 기흥보정점","tel":"070-8886-8251","addr":"경기도 용인시 기흥구 보정동 614-2번지","indutype":"자동차정비 유지 - 카인테리어","category":"car"},{"name":"오일특별시","tel":"031-266-5182","addr":"경기도 용인시 기흥구 보정동 614-2번지","indutype":"자동차정비 유지 - 자동차시트·타이어","category":"car"},{"name":"유워시 손세차장","tel":"031-266-4837","addr":"경기도 용인시 기흥구 보정동 614-2번지","indutype":"자동차정비 유지 - 세차장","category":"car"},{"name":"유워시(U-WASH)분당용인센터","tel":"031-262-2462","addr":"경기도 용인시 기흥구 보정동 614-2번지","indutype":"자동차정비 유지 - 세차장","category":"car"}]},{"lat":"37.304095424","long":"127.10609975","imageIndex":0,"items":[{"name":"루마썬팅(용인구성점)","tel":"031-214-5290","addr":"경기도 용인시 기흥구 보정동 700-7번지 A동107호-108호 A동 107호","indutype":"자동차정비 유지 - 카인테리어","category":"car"}]},{"lat":"37.321235709","long":"127.10277244","imageIndex":0,"items":[{"name":"리오오일","tel":"031-268-2551","addr":"경기도 용인시 기흥구 보정동 323-4번지","indutype":"자동차정비 유지 - 윤활유 전문 판매","category":"car"}]},{"lat":"37.31389919","long":"127.10535733","imageIndex":0,"items":[{"name":"만도그린상사","tel":"031-261-8200","addr":"경기도 용인시 기흥구 보정동 593-8번지","indutype":"자동차정비 유지 - 자동차부품","category":"car"},{"name":"작스모터스 죽전점","tel":"070-8659-9016","addr":"경기도 용인시 기흥구 보정동 593-8번지","indutype":"자동차정비 유지 - 자동차정비","category":"car"}]},{"lat":"37.302957219","long":"127.09885693","imageIndex":0,"items":[{"name":"만도종합","tel":"031-265-8077","addr":"경기도 용인시 기흥구 보정동 901-3번지 만도종합","indutype":"자동차정비 유지 - 자동차부품","category":"car"},{"name":"보라상사","tel":"031-285-8388","addr":"경기도 용인시 기흥구 보정동 901-3번지 가동 2층","indutype":"자동차정비 유지 - 자동차부품","category":"car"},{"name":"카매니저","tel":"031-265-8077","addr":"경기도 용인시 기흥구 보정동 901-3번지 가동호","indutype":"자동차정비 유지 - 자동차정비","category":"car"}]},{"lat":"37.315203284","long":"127.10807784","imageIndex":0,"items":[{"name":"매직터치보정역점","tel":"031-896-0077","addr":"경기도 용인시 기흥구 보정동 573-2번지 부동산뱅크 1호","indutype":"자동차정비 유지 - 자동차정비","category":"car"},{"name":"카집(CARZIP)","tel":"031-264-7536","addr":"경기도 용인시 기흥구 보정동 573-2 상가 9","indutype":"자동차정비 유지 - 자동차부품","category":"car"}]},{"lat":"37.309484783","long":"127.10466325","imageIndex":0,"items":[{"name":"메이저카","tel":"031-265-8873","addr":"경기도 용인시 기흥구 보정동 617-2","indutype":"자동차정비 유지 - 카인테리어","category":"car"}]},{"lat":"37.306961251","long":"127.10543816","imageIndex":0,"items":[{"name":"메이저카 (용인기흥구점)","tel":"031-274-4655","addr":"경기도 용인시 기흥구 보정동 681-3번지 1층 3호 4호 5호","indutype":"자동차정비 유지 - 자동차시트·타이어","category":"car"},{"name":"휠박스","tel":"","addr":"경기도 용인시 기흥구 보정동 681-3번지","indutype":"자동차정비 유지 - 자동차부품","category":"car"}]},{"lat":"37.312619907","long":"127.10516382","imageIndex":0,"items":[{"name":"모두배터리","tel":"","addr":"경기도 용인시 기흥구 보정동 614-17번지 1층 105호","indutype":"자동차정비 유지 - 자동차부품","category":"car"},{"name":"오토모빌코리아","tel":"031-265-6282","addr":"경기도 용인시 기흥구 보정동 614-17번지","indutype":"자동차정비 유지 - 자동차부품","category":"car"}]},{"lat":"37.294711533","long":"127.10047049","imageIndex":0,"items":[{"name":"모토게이지","tel":"031-261-6900","addr":"경기도 용인시 기흥구 보정동 994-7번지","indutype":"자동차판매 - 이륜차판매","category":"car"},{"name":"죽전중고타이어","tel":"","addr":"경기도 용인시 기흥구 보정동 994-7번지","indutype":"자동차정비 유지 - 자동차시트·타이어","category":"car"}]},{"lat":"37.319621464","long":"127.10444","imageIndex":0,"items":[{"name":"무주지포트","tel":"031-266-7359","addr":"경기도 용인시 기흥구 보정동 499번지","indutype":"자동차정비 유지 - 자동차정비","category":"car"}]},{"lat":"37.320958125","long":"127.111053","imageIndex":0,"items":[{"name":"보정현대공업사","tel":"031-889-6673","addr":"경기도 용인시 기흥구 보정동 1191-8번지","indutype":"자동차정비 유지 - 자동차정비","category":"car"}]},{"lat":"37.308064816","long":"127.11071869","imageIndex":0,"items":[{"name":"블루모터스 (BLUE MOTORS)","tel":"031-265-9519","addr":"경기도 용인시 기흥구 보정동 1324-2번지 101호","indutype":"자동차정비 유지 - 자동차정비","category":"car"}]},{"lat":"37.323152769","long":"127.10524579","imageIndex":0,"items":[{"name":"서울카크리닉","tel":"031-262-7135","addr":"경기도 용인시 기흥구 보정동 235-1번지","indutype":"자동차정비 유지 - 자동차정비","category":"car"}]},{"lat":"37.322791587","long":"127.10613659","imageIndex":0,"items":[{"name":"성남중고타이어","tel":"031-896-0020","addr":"경기도 용인시 기흥구 보정동 198-12번지","indutype":"자동차정비 유지 - 자동차시트·타이어","category":"car"}]},{"lat":"37.304988395","long":"127.10499558","imageIndex":0,"items":[{"name":"스피드메이트 이마트 구성","tel":"031-286-7191","addr":"경기도 용인시 기흥구 보정동 1019-488번지 지하1층","indutype":"자동차정비 유지 - 자동차정비","category":"car"},{"name":"클린보이(구성점)","tel":"031-287-6033","addr":"경기도 용인시 기흥구 보정동 1019-488번지","indutype":"자동차정비 유지 - 세차장","category":"car"}]},{"lat":"37.321009179","long":"127.10427264","imageIndex":0,"items":[{"name":"스피드핏 보정점","tel":"02-111-1111","addr":"경기도 용인시 기흥구 보정동 408-3번지","indutype":"자동차정비 유지 - 세차장","category":"car"}]},{"lat":"37.304092918","long":"127.0983508","imageIndex":0,"items":[{"name":"신갈 출장스팀 손세차","tel":"","addr":"경기도 용인시 기흥구 보정동 884번지","indutype":"자동차정비 유지 - 세차장","category":"car"}]},{"lat":"37.321291502","long":"127.11105348","imageIndex":0,"items":[{"name":"신세계카서비스","tel":"031-889-5812","addr":"경기도 용인시 기흥구 보정동 1189-8번지 1층","indutype":"자동차정비 유지 - 자동차정비","category":"car"}]},{"lat":"37.321371171","long":"127.11259922","imageIndex":0,"items":[{"name":"신화상사","tel":"031-296-2111","addr":"경기도 용인시 기흥구 보정동 1203-4번지 101호","indutype":"자동차정비 유지 - 자동차부품","category":"car"}]},{"lat":"37.304014086","long":"127.10638162","imageIndex":0,"items":[{"name":"쌍용차전문점","tel":"031-284-8582","addr":"경기도 용인시 기흥구 보정동 700-13번지","indutype":"자동차정비 유지 - 자동차정비","category":"car"}]},{"lat":"37.312070722","long":"127.10465545","imageIndex":0,"items":[{"name":"아이씨디상사","tel":"02-502-7477","addr":"경기도 용인시 기흥구 보정동 614-3번지","indutype":"자동차정비 유지 - 자동차시트·타이어","category":"car"}]},{"lat":"37.314511766","long":"127.10549354","imageIndex":0,"items":[{"name":"에스탑모터스주식회사","tel":"031-264-2000","addr":"경기도 용인시 기흥구 보정동 593-6번지","indutype":"자동차정비 유지 - 자동차정비","category":"car"}]},{"lat":"37.308043129","long":"127.10468387","imageIndex":0,"items":[{"name":"에이원모터스","tel":"031-283-8828","addr":"경기도 용인시 기흥구 보정동 619-5번지 1층","indutype":"자동차정비 유지 - 자동차정비","category":"car"}]},{"lat":"37.302650533","long":"127.09927387","imageIndex":0,"items":[{"name":"엘카(ELCA)","tel":"031-262-4624","addr":"경기도 용인시 기흥구 보정동 1019-107번지","indutype":"자동차정비 유지 - 자동차정비","category":"car"}]},{"lat":"37.320148376","long":"127.10976571","imageIndex":0,"items":[{"name":"오스코(AUSKO)","tel":"070-8875-7932","addr":"경기도 용인시 기흥구 보정동 1261-4번지 장은메디칼프라자 6층","indutype":"자동차정비 유지 - 자동차시트·타이어","category":"car"}]},{"lat":"37.319764976","long":"127.11513528","imageIndex":0,"items":[{"name":"우영프라자 관리단","tel":"031-896-4038","addr":"경기도 용인시 기흥구 보정동 1266-2번지 우영프라자 지하2층","indutype":"자동차정비 유지 - 주차장","category":"car"}]},{"lat":"37.318485029","long":"127.10576969","imageIndex":0,"items":[{"name":"유한회사하나모터스","tel":"031-265-5444","addr":"경기도 용인시 기흥구 보정동 547-3번지","indutype":"자동차정비 유지 - 자동차정비","category":"car"}]},{"lat":"37.309925925","long":"127.09404911","imageIndex":0,"items":[{"name":"이현세차장","tel":"","addr":"경기도 용인시 기흥구 보정동 438번지","indutype":"자동차정비 유지 - 세차장","category":"car"},{"name":"클럽티에스피(Club TSP)","tel":"031-262-5184","addr":"경기도 용인시 기흥구 보정동 438번지 3층","indutype":"자동차정비 유지 - 자동차시트·타이어","category":"car"}]},{"lat":"37.309399213","long":"127.09924864","imageIndex":0,"items":[{"name":"재현카센타","tel":"031-276-2296","addr":"경기도 용인시 기흥구 보정동 1019-6번지","indutype":"자동차정비 유지 - 자동차정비","category":"car"}]},{"lat":"37.320679117","long":"127.11071414","imageIndex":0,"items":[{"name":"주식회사 디밸롭더문","tel":"02-547-7744","addr":"경기도 용인시 기흥구 보정동 1197-2번지 801호 내 알22호","indutype":"자동차정비 유지 - 주차장","category":"car"},{"name":"주식회사에이에이티","tel":"031-264-3305","addr":"경기도 용인시 기흥구 보정동 1197-2번지 풍산프라자 803호","indutype":"자동차정비 유지 - 자동차부품","category":"car"}]},{"lat":"37.320095056","long":"127.10894207","imageIndex":0,"items":[{"name":"주식회사 에스알개발","tel":"031-889-8554","addr":"경기도 용인시 기흥구 보정동 1261-2번지 현타워 306-1호","indutype":"자동차정비 유지 - 주차장","category":"car"}]},{"lat":"37.320148772","long":"127.10932573","imageIndex":0,"items":[{"name":"주식회사 포은","tel":"02-1111-1111","addr":"경기도 용인시 기흥구 보정동 1261-3번지 한솔프라자 304호","indutype":"자동차정비 유지 - 카인테리어","category":"car"}]},{"lat":"37.322791882","long":"127.10579813","imageIndex":0,"items":[{"name":"죽전곰탱이24시셀프세차장","tel":"031-266-2169","addr":"경기도 용인시 기흥구 보정동 198-4,198-5","indutype":"자동차정비 유지 - 세차장","category":"car"}]},{"lat":"37.322233466","long":"127.10554916","imageIndex":0,"items":[{"name":"죽전자동차매매상사","tel":"031-263-3500","addr":"경기도 용인시 기흥구 보정동 374-30번지","indutype":"자동차판매 - 중고자동차판매","category":"car"}]},{"lat":"37.311376381","long":"127.10529751","imageIndex":0,"items":[{"name":"죽전중고타이어","tel":"031-264-1877","addr":"경기도 용인시 기흥구 보정동 637-6번지","indutype":"자동차정비 유지 - 자동차시트·타이어","category":"car"}]},{"lat":"37.307321758","long":"127.10532585","imageIndex":0,"items":[{"name":"죽전탑차냉동","tel":"031-284-2369","addr":"경기도 용인시 기흥구 보정동 676번지","indutype":"자동차정비 유지 - 자동차정비","category":"car"}]},{"lat":"37.300342908","long":"127.10050032","imageIndex":0,"items":[{"name":"준스개러지","tel":"02-6375-2778","addr":"경기도 용인시 기흥구 보정동 1019-149번지","indutype":"자동차정비 유지 - 자동차부품","category":"car"}]},{"lat":"37.320035574","long":"127.10485798","imageIndex":0,"items":[{"name":"지에스스팀손세차장","tel":"031-896-7111","addr":"경기도 용인시 기흥구 보정동 498-6,8","indutype":"자동차정비 유지 - 세차장","category":"car"}]},{"lat":"37.3154826","long":"127.10807823","imageIndex":0,"items":[{"name":"카존","tel":"031-266-4333","addr":"경기도 용인시 기흥구 보정동 573-6번지 1층","indutype":"자동차정비 유지 - 자동차부품","category":"car"}]},{"lat":"37.321623081","long":"127.10285193","imageIndex":0,"items":[{"name":"탑클래스(Top class)","tel":"031-896-8800","addr":"경기도 용인시 기흥구 보정동 312-1번지","indutype":"자동차정비 유지 - 자동차정비","category":"car"},{"name":"풍덕현대공업사","tel":"031-896-8805","addr":"경기도 용인시 기흥구 보정동 312-1번지","indutype":"자동차정비 유지 - 자동차정비","category":"car"}]},{"lat":"37.313677288","long":"127.10140874","imageIndex":0,"items":[{"name":"탑휠(TOPWHEEL)","tel":"","addr":"경기도 용인시 기흥구 보정동 407-1번지","indutype":"자동차정비 유지 - 자동차정비","category":"car"}]},{"lat":"37.294045276","long":"127.09986062","imageIndex":0,"items":[{"name":"티알씨(TRC)","tel":"031-306-1070","addr":"경기도 용인시 기흥구 보정동 1032-2번지 1층","indutype":"자동차정비 유지 - 카인테리어","category":"car"}]},{"lat":"37.321453967","long":"127.10035838","imageIndex":0,"items":[{"name":"한진자동차","tel":"031-896-9001","addr":"경기도 용인시 기흥구 보정동 300-1번지","indutype":"자동차정비 유지 - 자동차부품","category":"car"},{"name":"한진자동차","tel":"031-263-3102","addr":"경기도 용인시 기흥구 보정동 300-1번지","indutype":"자동차정비 유지 - 자동차시트·타이어","category":"car"}]},{"lat":"37.306988526","long":"127.1051562","imageIndex":0,"items":[{"name":"현대우림자동차공업사","tel":"031-284-0088","addr":"경기도 용인시 기흥구 보정동 681-4번지","indutype":"자동차정비 유지 - 자동차정비","category":"car"}]}]