[{"lat":"37.4483551","long":"127.1569826","imageIndex":17,"items":[{"name":".조이 음악 학원","tel":"031-701-8153","addr":"경기도 성남시 수정구 단대동 165-1번지","indutype":"","category":"other"},{"name":"굿모닝마트 단대점","tel":"031-732-5250","addr":"경기도 성남시 수정구 단대동 165-1번지","indutype":"","category":"other"},{"name":"성남만남돌봄센터","tel":"031-748-3503","addr":"경기도 성남시 수정구 단대동 165-1번지","indutype":"","category":"other"}]},{"lat":"37.4486059","long":"127.1580906","imageIndex":17,"items":[{"name":"1936육개장터 성남단대점","tel":"031-745-6966","addr":"경기도 성남시 수정구 단대동 160-1번지","indutype":"","category":"other"}]},{"lat":"37.4616101","long":"127.1559812","imageIndex":17,"items":[{"name":"강산촌","tel":"031-746-1250","addr":"경기도 성남시 수정구 단대동 산164-20번지","indutype":"","category":"other"},{"name":"노다지","tel":"031-748-3181","addr":"경기도 성남시 수정구 단대동 산164-20번지","indutype":"","category":"other"},{"name":"대궐","tel":"031-746-0070","addr":"경기도 성남시 수정구 단대동 산164-20번지","indutype":"","category":"other"},{"name":"대청마루","tel":"031-743-5389","addr":"경기도 성남시 수정구 단대동 산164-20번지","indutype":"","category":"other"},{"name":"동산가든","tel":"031-745-2725","addr":"경기도 성남시 수정구 단대동 산164-20번지","indutype":"","category":"other"},{"name":"동의궁","tel":"031-736-1213","addr":"경기도 성남시 수정구 단대동 산164-20번지","indutype":"","category":"other"},{"name":"등나무집","tel":"031-731-8811","addr":"경기도 성남시 수정구 단대동 산164-20번지","indutype":"","category":"other"},{"name":"맛따라길따라","tel":"031-745-4380","addr":"경기도 성남시 수정구 단대동 산164-20번지","indutype":"","category":"other"},{"name":"맛따라길따라","tel":"031-745-4380","addr":"경기도 성남시 수정구 단대동 산164-20번지","indutype":"","category":"other"},{"name":"복골별장집","tel":"031-743-8929","addr":"경기도 성남시 수정구 단대동 산164-20번지","indutype":"","category":"other"},{"name":"사랑방","tel":"031-746-2123","addr":"경기도 성남시 수정구 단대동 산164-20번지","indutype":"","category":"other"},{"name":"옛날등나무집","tel":"031-731-8811","addr":"경기도 성남시 수정구 단대동 산164-20번지","indutype":"","category":"other"},{"name":"유정집","tel":"031-748-8791","addr":"경기도 성남시 수정구 단대동 산164-20번지","indutype":"","category":"other"},{"name":"장마담집(논골점)","tel":"031-745-5700","addr":"경기도 성남시 수정구 단대동 산164-20번지","indutype":"","category":"other"},{"name":"정일품","tel":"","addr":"경기도 성남시 수정구 단대동 산164-20번지","indutype":"","category":"other"},{"name":"초원집","tel":"031-742-5449","addr":"경기도 성남시 수정구 단대동 산164-20번지","indutype":"","category":"other"},{"name":"한국관","tel":"031-746-6166","addr":"경기도 성남시 수정구 단대동 산164-20번지","indutype":"","category":"other"}]},{"lat":"37.4505779","long":"127.1589875","imageIndex":17,"items":[{"name":"길벗한의원","tel":"031-759-7007","addr":"경기도 성남시 수정구 단대동 97-2번지","indutype":"","category":"other"},{"name":"옵티마봄약국","tel":"031-732-3248","addr":"경기도 성남시 수정구 단대동 97-2번지","indutype":"","category":"other"}]},{"lat":"37.4564426","long":"127.1595648","imageIndex":17,"items":[{"name":"남동유통","tel":"031-732-3889","addr":"경기도 성남시 수정구 단대동 59-1번지","indutype":"","category":"other"}]},{"lat":"37.4473812","long":"127.1575908","imageIndex":17,"items":[{"name":"네일스케치 단대점","tel":"","addr":"경기도 성남시 수정구 단대동 161-6번지","indutype":"","category":"other"}]},{"lat":"37.4625247","long":"127.1593401","imageIndex":17,"items":[{"name":"논골감나무집","tel":"031-747-3680","addr":"경기도 성남시 수정구 단대동 1-7번지","indutype":"","category":"other"}]},{"lat":"37.4543601","long":"127.1605098","imageIndex":17,"items":[{"name":"논골종로약국","tel":"031-732-2878","addr":"경기도 성남시 수정구 단대동 67-4번지","indutype":"","category":"other"}]},{"lat":"37.4504158","long":"127.1589306","imageIndex":17,"items":[{"name":"놀뫼곱창","tel":"031-735-5525","addr":"경기도 성남시 수정구 단대동 97-3번지","indutype":"","category":"other"}]},{"lat":"37.4594359","long":"127.1580678","imageIndex":17,"items":[{"name":"동성식품","tel":"031-735-3538","addr":"경기도 성남시 수정구 단대동 18-1번지 금성주택","indutype":"","category":"other"}]},{"lat":"37.4515505","long":"127.1593738","imageIndex":17,"items":[{"name":"마노핀 남한산성입구역점","tel":"031-741-4789","addr":"경기도 성남시 수정구 단대동 95-5번지","indutype":"","category":"other"}]},{"lat":"37.4479422","long":"127.1557386","imageIndex":17,"items":[{"name":"마망베이커리&카페3호점","tel":"031-739-1001","addr":"경기도 성남시 수정구 단대동 186-2번지","indutype":"","category":"other"}]},{"lat":"37.4555499","long":"127.1601506","imageIndex":17,"items":[{"name":"만다린","tel":"031-736-1888","addr":"경기도 성남시 수정구 단대동 60-6번지","indutype":"","category":"other"}]},{"lat":"37.4511634","long":"127.1591243","imageIndex":17,"items":[{"name":"몽뻬르과자점","tel":"031-744-0444","addr":"경기도 성남시 수정구 단대동 99-6번지","indutype":"","category":"other"}]},{"lat":"37.4461667","long":"127.1561193","imageIndex":17,"items":[{"name":"미도회관","tel":"031-748-3540","addr":"경기도 성남시 수정구 단대동 181번지","indutype":"","category":"other"}]},{"lat":"37.4569929","long":"127.1590686","imageIndex":17,"items":[{"name":"박애약국","tel":"031-747-6505","addr":"경기도 성남시 수정구 단대동 55-7번지","indutype":"","category":"other"}]},{"lat":"37.446994","long":"127.1574318","imageIndex":17,"items":[{"name":"방가네밥상","tel":"031-748-5164","addr":"경기도 성남시 수정구 단대동 173-1번지","indutype":"","category":"other"},{"name":"웨스턴","tel":"031-743-7006","addr":"경기도 성남시 수정구 단대동 173-1번지","indutype":"","category":"other"}]},{"lat":"37.4548829","long":"127.1603414","imageIndex":17,"items":[{"name":"베이비포즈스튜디오","tel":"031-735-6177","addr":"경기도 성남시 수정구 단대동 66-4번지","indutype":"","category":"other"}]},{"lat":"37.4479674","long":"127.1571513","imageIndex":17,"items":[{"name":"복골별장","tel":"031-743-8929","addr":"경기도 성남시 수정구 단대동 164-3번지","indutype":"","category":"other"}]},{"lat":"37.4547206","long":"127.1603975","imageIndex":17,"items":[{"name":"삼성태권스쿨","tel":"031-747-5557","addr":"경기도 성남시 수정구 단대동 67-1번지","indutype":"","category":"other"}]},{"lat":"37.4587425","long":"127.1578177","imageIndex":17,"items":[{"name":"삼애반점","tel":"031-748-2373","addr":"경기도 성남시 수정구 단대동 30-3번지 우람빌라2차","indutype":"","category":"other"}]},{"lat":"37.4624077","long":"127.1592042","imageIndex":17,"items":[{"name":"서편제가든","tel":"031-748-7480","addr":"경기도 성남시 수정구 단대동 1-8번지","indutype":"","category":"other"}]},{"lat":"37.4484708","long":"127.1580112","imageIndex":17,"items":[{"name":"성남만남지역자활센터서로좋은가게","tel":"031-748-8801","addr":"경기도 성남시 수정구 단대동 160-20번지","indutype":"","category":"other"}]},{"lat":"37.4469139","long":"127.1566519","imageIndex":17,"items":[{"name":"슈슈플라워","tel":"031-731-9100","addr":"경기도 성남시 수정구 단대동 176-4번지","indutype":"","category":"other"},{"name":"화영하이퍼","tel":"031-747-5995","addr":"경기도 성남시 수정구 단대동 176-4번지","indutype":"","category":"other"}]},{"lat":"37.4514082","long":"127.1579269","imageIndex":17,"items":[{"name":"신대복방아간","tel":"031-731-6959","addr":"경기도 성남시 수정구 단대동 101-1번지","indutype":"","category":"other"},{"name":"안심K축산물공판장","tel":"031-736-1150","addr":"경기도 성남시 수정구 단대동 101-1번지","indutype":"","category":"other"},{"name":"앤할인마트","tel":"031-741-0166","addr":"경기도 성남시 수정구 단대동 101-1번지","indutype":"","category":"other"},{"name":"헤어예다움","tel":"031-732-6361","addr":"경기도 성남시 수정구 단대동 101-1번지","indutype":"","category":"other"}]},{"lat":"37.4456346","long":"127.1565363","imageIndex":17,"items":[{"name":"아모레성남중원특약점","tel":"031-742-6451","addr":"경기도 성남시 수정구 단대동 180-3번지","indutype":"","category":"other"}]},{"lat":"37.4511633","long":"127.1592034","imageIndex":17,"items":[{"name":"아이갤러리","tel":"031-734-1613","addr":"경기도 성남시 수정구 단대동 95-8번지","indutype":"","category":"other"}]},{"lat":"37.4498865","long":"127.1571779","imageIndex":17,"items":[{"name":"알앤비스커피 (RNBS)","tel":"070-8193-1136","addr":"경기도 성남시 수정구 단대동 100번지 푸르지오","indutype":"","category":"other"}]},{"lat":"37.450749","long":"127.159067","imageIndex":17,"items":[{"name":"여명약국","tel":"031-735-4549","addr":"경기도 성남시 수정구 단대동 97-1번지","indutype":"","category":"other"}]},{"lat":"37.455217","long":"127.1597657","imageIndex":17,"items":[{"name":"영동돈까스","tel":"031-732-2334","addr":"경기도 성남시 수정구 단대동 61-6번지","indutype":"","category":"other"}]},{"lat":"37.46238","long":"127.159758","imageIndex":17,"items":[{"name":"옛날촌닭집","tel":"031-742-9925","addr":"경기도 성남시 수정구 단대동 1-2번지","indutype":"","category":"other"}]},{"lat":"37.4516585","long":"127.1594305","imageIndex":17,"items":[{"name":"올가뷰티","tel":"031-731-0212","addr":"경기도 성남시 수정구 단대동 95-4번지","indutype":"","category":"other"}]},{"lat":"37.4464987","long":"127.1572048","imageIndex":17,"items":[{"name":"이태리안경콘택트","tel":"031-742-9657","addr":"경기도 성남시 수정구 단대동 179-5번지","indutype":"","category":"other"}]},{"lat":"37.448381","long":"127.157785","imageIndex":17,"items":[{"name":"이튼수학학원","tel":"031-733-6130","addr":"경기도 성남시 수정구 단대동 160-18번지","indutype":"","category":"other"}]},{"lat":"37.4465804","long":"127.1567077","imageIndex":17,"items":[{"name":"장수추어탕","tel":"031-745-3664","addr":"경기도 성남시 수정구 단대동 181-5번지","indutype":"","category":"other"}]},{"lat":"37.4553876","long":"127.1602068","imageIndex":17,"items":[{"name":"청정해역","tel":"031-741-3322","addr":"경기도 성남시 수정구 단대동 60-8번지","indutype":"","category":"other"}]},{"lat":"37.448831","long":"127.1582041","imageIndex":17,"items":[{"name":"춘천골낙지닭갈비","tel":"031-749-6600","addr":"경기도 성남시 수정구 단대동 159-1번지","indutype":"","category":"other"}]},{"lat":"37.4480205","long":"127.1578747","imageIndex":17,"items":[{"name":"충남식당 단대점","tel":"031-747-7850","addr":"경기도 성남시 수정구 단대동 161-2번지","indutype":"","category":"other"}]},{"lat":"37.4471921","long":"127.1575113","imageIndex":17,"items":[{"name":"친정맘","tel":"031-605-1515","addr":"경기도 성남시 수정구 단대동 161-7번지","indutype":"","category":"other"}]},{"lat":"37.458796","long":"127.1582586","imageIndex":17,"items":[{"name":"털보네","tel":"031-747-2710","addr":"경기도 성남시 수정구 단대동 28-3번지 금성주택","indutype":"","category":"other"}]},{"lat":"37.4583011","long":"127.1577377","imageIndex":17,"items":[{"name":"한국유통(단대점)","tel":"031-744-7121","addr":"경기도 성남시 수정구 단대동 46-1번지","indutype":"","category":"other"}]},{"lat":"37.4493806","long":"127.1582052","imageIndex":17,"items":[{"name":"행복한하루","tel":"031-755-3589","addr":"경기도 성남시 수정구 단대동 157-1번지","indutype":"","category":"other"}]},{"lat":"37.4571643","long":"127.1588995","imageIndex":17,"items":[{"name":"헤어두","tel":"031-741-5639","addr":"경기도 성남시 수정구 단대동 54-6번지","indutype":"","category":"other"}]}]