[{"lat":"37.072156063","long":"127.16477562","imageIndex":4,"items":[{"name":"가물치가든","tel":"031-655-6189","addr":"경기도 안성시 원곡면 성은리 79-1번지","indutype":"일반휴게음식 - 일반한식","category":"restaurant"}]},{"lat":"37.073427261","long":"127.15749148","imageIndex":4,"items":[{"name":"고향부폐","tel":"031-655-4037","addr":"경기도 안성시 원곡면 성은리 350-1번지","indutype":"일반휴게음식 - 일반한식","category":"restaurant"}]},{"lat":"37.075789762","long":"127.15615806","imageIndex":4,"items":[{"name":"낙원한우정육구이","tel":"031-655-9984","addr":"경기도 안성시 원곡면 성은리 286-1번지 1층","indutype":"일반휴게음식 - 일반한식","category":"restaurant"}]},{"lat":"37.075239755","long":"127.15643809","imageIndex":4,"items":[{"name":"대성식당","tel":"031-652-3855","addr":"경기도 안성시 원곡면 성은리 286-3","indutype":"일반휴게음식 - 일반한식","category":"restaurant"}]},{"lat":"37.073482216","long":"127.15680563","imageIndex":4,"items":[{"name":"대호한정식뷔페","tel":"031-654-6949","addr":"경기도 안성시 원곡면 성은리 347-3번지","indutype":"일반휴게음식 - 일반한식","category":"restaurant"}]},{"lat":"37.087203203","long":"127.15138974","imageIndex":4,"items":[{"name":"리오","tel":"","addr":"경기도 안성시 원곡면 성은리 188-1번지","indutype":"일반휴게음식 - 서양음식","category":"restaurant"},{"name":"자매한정식뷔페","tel":"031-692-3622","addr":"경기도 안성시 원곡면 성은리 188-1번지 1층","indutype":"일반휴게음식 - 일반한식","category":"restaurant"}]},{"lat":"37.071928319","long":"127.15991734","imageIndex":4,"items":[{"name":"보신마을","tel":"031-652-1771","addr":"경기도 안성시 원곡면 성은리 377-2","indutype":"일반휴게음식 - 일반한식","category":"restaurant"}]},{"lat":"37.077093364","long":"127.15840982","imageIndex":4,"items":[{"name":"산모롱이","tel":"031-655-0139","addr":"경기도 안성시 원곡면 성은리 102번지","indutype":"일반휴게음식 - 일반한식","category":"restaurant"}]},{"lat":"37.073157076","long":"127.15738972","imageIndex":4,"items":[{"name":"산촌","tel":"031-111-1111","addr":"경기도 안성시 원곡면 성은리 349-1번지 1층 우측","indutype":"일반휴게음식 - 일반한식","category":"restaurant"},{"name":"산촌식당","tel":"031-618-6699","addr":"경기도 안성시 원곡면 성은리 349-1번지","indutype":"일반휴게음식 - 일반한식","category":"restaurant"}]},{"lat":"37.071323282","long":"127.16091688","imageIndex":4,"items":[{"name":"삼일부대찌개전문점","tel":"031-651-5657","addr":"경기도 안성시 원곡면 성은리 375-2","indutype":"일반휴게음식 - 일반한식","category":"restaurant"}]},{"lat":"37.078289284","long":"127.15335163","imageIndex":4,"items":[{"name":"성은각","tel":"031-618-1237","addr":"경기도 안성시 원곡면 성은리 275-8번지","indutype":"일반휴게음식 - 중국식","category":"restaurant"}]},{"lat":"37.066344171","long":"127.17129609","imageIndex":4,"items":[{"name":"아로니아","tel":"031-111-1111","addr":"경기도 안성시 원곡면 성은리 452-1번지","indutype":"일반휴게음식 - 일반한식","category":"restaurant"}]},{"lat":"37.07084425","long":"127.16201787","imageIndex":4,"items":[{"name":"옛날치킨","tel":"031-655-6908","addr":"경기도 안성시 원곡면 성은리 383번지 1층","indutype":"일반휴게음식 - 스넥","category":"restaurant"}]}]