[{"lat":"37.24501833","long":"127.06183843","imageIndex":13,"items":[{"name":"(주)플레이타임그룹 판타지움 영통점챔피언","tel":"031-202-0206","addr":"경기도 수원시 영통구 영통동 981-2번지 3층 일부","indutype":"레저업소 - 기타레져업소","category":"leisure"},{"name":"로라비트","tel":"","addr":"경기도 수원시 영통구 영통동 981-2번지 1층","indutype":"레저업소 - 기타레져업소","category":"leisure"},{"name":"어 뿌띠크 필라테스 (A Boutique Pilates)","tel":"031-111-1111","addr":"경기도 수원시 영통구 영통동 981-2번지 4층","indutype":"레저업소 - 헬스클럽","category":"leisure"},{"name":"주식회사 강지만골프존드라이빙레인지","tel":"","addr":"경기도 수원시 영통구 영통동 981-2번지 더판타지움 지하1층","indutype":"레저업소 - 골프연습장","category":"leisure"},{"name":"주식회사 스킬업","tel":"031-202-5955","addr":"경기도 수원시 영통구 영통동 981-2번지 3층","indutype":"레저업소 - 기타레져업소","category":"leisure"}]},{"lat":"37.252020271","long":"127.07630539","imageIndex":13,"items":[{"name":"1000점당구장","tel":"031-203-8049","addr":"경기도 수원시 영통구 영통동 1010-4번지","indutype":"레저업소 - 당 구 장","category":"leisure"},{"name":"달콤","tel":"070-9144-8324","addr":"경기도 수원시 영통구 영통동 1010-4번지 성우테마21 203호","indutype":"레저업소 - 헬스클럽","category":"leisure"}]},{"lat":"37.246182211","long":"127.05863844","imageIndex":13,"items":[{"name":"25시당구클럽","tel":"031-203-9525","addr":"경기도 수원시 영통구 영통동 976-7번지 현대프라자 405호","indutype":"레저업소 - 당 구 장","category":"leisure"},{"name":"영통탁구클럽","tel":"031-205-0722","addr":"경기도 수원시 영통구 영통동 976-7번지 현대프라자 304호~306호","indutype":"레저업소 - 기타레져업소","category":"leisure"},{"name":"와와노래방","tel":"031-202-3885","addr":"경기도 수원시 영통구 영통동 976-7번지 현대프라자 401호","indutype":"레저업소 - 노 래 방","category":"leisure"},{"name":"주식회사에스지세븐골프","tel":"031-205-7933","addr":"경기도 수원시 영통구 영통동 976-7번지 현대프라자 6층 601호","indutype":"레저업소 - 골프연습장","category":"leisure"}]},{"lat":"37.247909957","long":"127.07885992","imageIndex":13,"items":[{"name":"3POP PC방","tel":"070-7075-4709","addr":"경기도 수원시 영통구 영통동 1024-16번지 일번지프라자빌딩 3층","indutype":"레저업소 - 기타레져업소","category":"leisure"}]},{"lat":"37.246605117","long":"127.059856","imageIndex":13,"items":[{"name":"815노래연습장","tel":"031-205-1815","addr":"경기도 수원시 영통구 영통동 974-10번지","indutype":"레저업소 - 노 래 방","category":"leisure"}]},{"lat":"37.246182417","long":"127.05819888","imageIndex":13,"items":[{"name":"BEBENOLL","tel":"031-8067-5959","addr":"경기도 수원시 영통구 영통동 976-5번지 도담빌딩 4층","indutype":"레저업소 - 기타레져업소","category":"leisure"},{"name":"타이거짐 망포9호점","tel":"031-203-3020","addr":"경기도 수원시 영통구 영통동 976-5번지 도담빌딩 3층","indutype":"레저업소 - 헬스클럽","category":"leisure"}]},{"lat":"37.250606029","long":"127.07569536","imageIndex":13,"items":[{"name":"DS당구클럽","tel":"031-3389-0081","addr":"경기도 수원시 영통구 영통동 1008-13번지 영혁빌딩 3층","indutype":"레저업소 - 당 구 장","category":"leisure"},{"name":"킥앤핏","tel":"031-205-1288","addr":"경기도 수원시 영통구 영통동 1008-13번지 영혁빌딩 4층","indutype":"레저업소 - 헬스클럽","category":"leisure"}]},{"lat":"37.264850284","long":"127.07735501","imageIndex":13,"items":[{"name":"JJ에어로빅","tel":"031-305-6763","addr":"경기도 수원시 영통구 영통동 949-5번지 4층","indutype":"레저업소 - 헬스클럽","category":"leisure"},{"name":"영통스토리 탁구클럽","tel":"070-8171-0976","addr":"경기도 수원시 영통구 영통동 949-5번지 3층","indutype":"레저업소 - 기타레져업소","category":"leisure"}]},{"lat":"37.25099334","long":"127.07590989","imageIndex":13,"items":[{"name":"M노래연습장","tel":"031-203-5235","addr":"경기도 수원시 영통구 영통동 1009-3번지 호원빌딩 701호","indutype":"레저업소 - 노 래 방","category":"leisure"}]},{"lat":"37.253102414","long":"127.07482984","imageIndex":13,"items":[{"name":"SM락볼링","tel":"031-273-0925","addr":"경기도 수원시 영통구 영통동 998-2번지 르네상스시티프라자 2층 218-230 ,235,237,238","indutype":"레저업소 - 볼 링 장","category":"leisure"},{"name":"고수의 운전면허 영통점","tel":"031-205-6522","addr":"경기도 수원시 영통구 영통동 998-2번지 르네상스시티프라자 330,331,332,333호","indutype":"레저업소 - 기타레져업소","category":"leisure"}]},{"lat":"37.246271506","long":"127.06032913","imageIndex":13,"items":[{"name":"S노래연습장","tel":"031-204-0910","addr":"경기도 수원시 영통구 영통동 976-16번지 한샘 201호","indutype":"레저업소 - 노 래 방","category":"leisure"}]},{"lat":"37.26679377","long":"127.08158461","imageIndex":13,"items":[{"name":"S스크린골프연습장","tel":"031-205-4488","addr":"경기도 수원시 영통구 영통동 945-4한솔프라자201,202,203,208,209호전체","indutype":"레저업소 - 스크린골프","category":"leisure"},{"name":"뉴맘모스당구장","tel":"031-204-9209","addr":"경기도 수원시 영통구 영통동 945-4번지 한솔프라자 502호","indutype":"레저업소 - 당 구 장","category":"leisure"},{"name":"민 STUDIO","tel":"","addr":"경기도 수원시 영통구 영통동 945-4번지 한솔프라자 601-1호","indutype":"레저업소 - 헬스클럽","category":"leisure"},{"name":"케어무브","tel":"031-203-2289","addr":"경기도 수원시 영통구 영통동 945-4번지 한솔프라자 6층 601-1호","indutype":"레저업소 - 헬스클럽","category":"leisure"},{"name":"특급노래연습장","tel":"031-234-1700","addr":"경기도 수원시 영통구 영통동 945-4번지 304호 303호,304호","indutype":"레저업소 - 노 래 방","category":"leisure"}]},{"lat":"37.251994412","long":"127.07438919","imageIndex":13,"items":[{"name":"W필라테스 영통","tel":"031-204-9177","addr":"경기도 수원시 영통구 영통동 998-6번지 아셈프라자 606,607호","indutype":"레저업소 - 헬스클럽","category":"leisure"},{"name":"드림노래연습장1","tel":"031-206-7110","addr":"경기도 수원시 영통구 영통동 998-6번지 아셈프라자 305호","indutype":"레저업소 - 노 래 방","category":"leisure"},{"name":"아셈노래연습장","tel":"031-206-9135","addr":"경기도 수원시 영통구 영통동 998-6번지 아셈프라자 309,310","indutype":"레저업소 - 노 래 방","category":"leisure"}]},{"lat":"37.252327596","long":"127.07471638","imageIndex":13,"items":[{"name":"가꾸다 필라테스","tel":"","addr":"경기도 수원시 영통구 영통동 998-7번지 영통클래시아 5층 508호","indutype":"레저업소 - 헬스클럽","category":"leisure"},{"name":"못된브이알","tel":"031-8009-0123","addr":"경기도 수원시 영통구 영통동 998-7번지 클래시아영통 3층 310호","indutype":"레저업소 - 기타레져업소","category":"leisure"},{"name":"브리즈(VRIZ) PC방","tel":"070-5933-8255","addr":"경기도 수원시 영통구 영통동 998-7번지 401동 406호","indutype":"레저업소 - 기타레져업소","category":"leisure"}]},{"lat":"37.251210332","long":"127.07469278","imageIndex":13,"items":[{"name":"가자노래연습장","tel":"031-000-0000","addr":"경기도 수원시 영통구 영통동 1008-5번지 3층","indutype":"레저업소 - 노 래 방","category":"leisure"}]},{"lat":"37.247910417","long":"127.07813858","imageIndex":13,"items":[{"name":"경희당구클럽","tel":"070-7717-2323","addr":"경기도 수원시 영통구 영통동 1024-13번지 진상빌딩 4층","indutype":"레저업소 - 당 구 장","category":"leisure"},{"name":"킹노래연습장","tel":"031-202-5553","addr":"경기도 수원시 영통구 영통동 1024-13번지 2층","indutype":"레저업소 - 노 래 방","category":"leisure"}]},{"lat":"37.246435923","long":"127.05552789","imageIndex":13,"items":[{"name":"골드노래연습장","tel":"031-205-0085","addr":"경기도 수원시 영통구 영통동 978-1번지 3층 302호","indutype":"레저업소 - 노 래 방","category":"leisure"}]},{"lat":"37.264850453","long":"127.07708444","imageIndex":13,"items":[{"name":"골프존파크 영통렛츠골프점","tel":"031-273-0782","addr":"경기도 수원시 영통구 영통동 952-3번지 2,3,4층","indutype":"레저업소 - 스크린골프","category":"leisure"}]},{"lat":"37.252237928","long":"127.07399491","imageIndex":13,"items":[{"name":"궁","tel":"031-204-0029","addr":"경기도 수원시 영통구 영통동 998-5번지 센타프라자 3층 303호","indutype":"레저업소 - 헬스클럽","category":"leisure"},{"name":"모던 플라잉&필라테스","tel":"031-203-6988","addr":"경기도 수원시 영통구 영통동 998-5번지 센타프라자 8층 806호","indutype":"레저업소 - 헬스클럽","category":"leisure"},{"name":"바디다룸(BODY DARUM)","tel":"031-202-5355","addr":"경기도 수원시 영통구 영통동 998-5번지 센타프라자 6동 603호","indutype":"레저업소 - 헬스클럽","category":"leisure"},{"name":"신은철복싱월드","tel":"031-202-8090","addr":"경기도 수원시 영통구 영통동 998-5번지 센터프라자 306호","indutype":"레저업소 - 기타레져업소","category":"leisure"}]},{"lat":"37.252876902","long":"127.07524668","imageIndex":13,"items":[{"name":"궁궐노래연습장","tel":"031-205-8003","addr":"경기도 수원시 영통구 영통동 998-8번지 키라레스토아 409호","indutype":"레저업소 - 노 래 방","category":"leisure"},{"name":"다함께 야구왕 영통","tel":"031-202-7500","addr":"경기도 수원시 영통구 영통동 998-8번지 키라레스토아 401,402,410호","indutype":"레저업소 - 기타레져업소","category":"leisure"},{"name":"탑플레이스피씨(PC)","tel":"070-4930-8150","addr":"경기도 수원시 영통구 영통동 998-8번지 키라레스토아 302-305호","indutype":"레저업소 - 기타레져업소","category":"leisure"},{"name":"팝스타 코인노래연습장","tel":"070-7779-9310","addr":"경기도 수원시 영통구 영통동 998-8번지 키라레스토아 3층 301,311호","indutype":"레저업소 - 노 래 방","category":"leisure"},{"name":"프로방스노래연습장","tel":"031-202-7927","addr":"경기도 수원시 영통구 영통동 998-8번지 키라레스토아 308,309호","indutype":"레저업소 - 노 래 방","category":"leisure"}]},{"lat":"37.25065724","long":"127.08019271","imageIndex":13,"items":[{"name":"그대가피트니스","tel":"","addr":"경기도 수원시 영통구 영통동 1028-11번지 103호","indutype":"레저업소 - 헬스클럽","category":"leisure"}]},{"lat":"37.247153544","long":"127.0623022","imageIndex":13,"items":[{"name":"그랜드당구장","tel":"031-206-7090","addr":"경기도 수원시 영통구 영통동 971-1번지 롯데프라자지하1층122~127호","indutype":"레저업소 - 당 구 장","category":"leisure"},{"name":"제로존PC방","tel":"02-222-2222","addr":"경기도 수원시 영통구 영통동 971-1번지 벽적골롯데프라자생활편의시설 지하1층 105,128호","indutype":"레저업소 - 기타레져업소","category":"leisure"}]},{"lat":"37.252352663","long":"127.07788375","imageIndex":13,"items":[{"name":"금나와라뚝딱","tel":"031-205-1483","addr":"경기도 수원시 영통구 영통동 1034-2번지","indutype":"레저업소 - 노 래 방","category":"leisure"},{"name":"본주짓수 영통","tel":"","addr":"경기도 수원시 영통구 영통동 1034-2번지 4층","indutype":"레저업소 - 헬스클럽","category":"leisure"}]},{"lat":"37.25099435","long":"127.07425299","imageIndex":13,"items":[{"name":"까메오노래연습장","tel":"031-204-5877","addr":"경기도 수원시 영통구 영통동 1008-1번지","indutype":"레저업소 - 노 래 방","category":"leisure"}]},{"lat":"37.252155565","long":"127.07608009","imageIndex":13,"items":[{"name":"꽃보다당구장","tel":"031-203-3949","addr":"경기도 수원시 영통구 영통동 1010-3번지","indutype":"레저업소 - 당 구 장","category":"leisure"},{"name":"영통탁구장","tel":"031-205-7733","addr":"경기도 수원시 영통구 영통동 1010-3번지 대림빌딩 5층 501호","indutype":"레저업소 - 기타레져업소","category":"leisure"},{"name":"필노래연습장","tel":"031-205-2900","addr":"경기도 수원시 영통구 영통동 1010-3번지 대림빌딩 302호","indutype":"레저업소 - 노 래 방","category":"leisure"}]},{"lat":"37.246631864","long":"127.06044211","imageIndex":13,"items":[{"name":"뉴파브노래연습장","tel":"","addr":"경기도 수원시 영통구 영통동 974-7번지 4층","indutype":"레저업소 - 노 래 방","category":"leisure"},{"name":"선우당구장","tel":"031-203-5034","addr":"경기도 수원시 영통구 영통동 974-7번지 5층","indutype":"레저업소 - 당 구 장","category":"leisure"}]},{"lat":"37.266208102","long":"127.081584","imageIndex":13,"items":[{"name":"뉴핏 필라테스 영통점","tel":"","addr":"경기도 수원시 영통구 영통동 945-7번지 4층","indutype":"레저업소 - 헬스클럽","category":"leisure"},{"name":"엘에이당구클럽","tel":"031-203-4939","addr":"경기도 수원시 영통구 영통동 945-7번지 3층 1호","indutype":"레저업소 - 당 구 장","category":"leisure"}]},{"lat":"37.251987415","long":"127.07097388","imageIndex":13,"items":[{"name":"닥터필라테스 수원영통점","tel":"031-202-9949","addr":"경기도 수원시 영통구 영통동 960-3번지 뉴월드프라자 6층 610호","indutype":"레저업소 - 헬스클럽","category":"leisure"},{"name":"커브스 영통클럽","tel":"031-205-7330","addr":"경기도 수원시 영통구 영통동 960-3번지 뉴월드프라자 2층 209호","indutype":"레저업소 - 헬스클럽","category":"leisure"},{"name":"플라잉요가N핫요가 영통역점","tel":"031-273-0083","addr":"경기도 수원시 영통구 영통동 960-3번지 NEW WORLD PLAZA 5층 504호","indutype":"레저업소 - 헬스클럽","category":"leisure"}]},{"lat":"37.25240811","long":"127.07566328","imageIndex":13,"items":[{"name":"당구나라","tel":"031-202-4939","addr":"경기도 수원시 영통구 영통동 1010-1번지","indutype":"레저업소 - 당 구 장","category":"leisure"},{"name":"퀸스애비뉴노래연습장","tel":"031-205-9888","addr":"경기도 수원시 영통구 영통동 1010-1번지 월드프라자 701호","indutype":"레저업소 - 노 래 방","category":"leisure"}]},{"lat":"37.251795679","long":"127.0752231","imageIndex":13,"items":[{"name":"당구야놀자","tel":"031-651-8449","addr":"경기도 수원시 영통구 영통동 1009-1번지 아이텐텐빌딩 403호","indutype":"레저업소 - 당 구 장","category":"leisure"}]},{"lat":"37.247911121","long":"127.07702275","imageIndex":13,"items":[{"name":"당구존","tel":"031-206-8213","addr":"경기도 수원시 영통구 영통동 1024-7번지 영통빌딩 501호","indutype":"레저업소 - 당 구 장","category":"leisure"}]},{"lat":"37.255463467","long":"127.07424593","imageIndex":13,"items":[{"name":"더뉴로메카닉(The Neuromechanic)","tel":"","addr":"경기도 수원시 영통구 영통동 958-2번지 훼미리타워 1603호","indutype":"레저업소 - 헬스클럽","category":"leisure"},{"name":"본필라테스","tel":"","addr":"경기도 수원시 영통구 영통동 958-2번지 훼미리타워 1324호","indutype":"레저업소 - 헬스클럽","category":"leisure"},{"name":"비젼골프존 영통","tel":"031-205-4038","addr":"경기도 수원시 영통구 영통동 958-2번지 훼미리타워 2층 201,202호","indutype":"레저업소 - 골프연습장","category":"leisure"}]},{"lat":"37.254408805","long":"127.07500016","imageIndex":13,"items":[{"name":"더제이필라테스(The J pilates)","tel":"","addr":"경기도 수원시 영통구 영통동 996-4번지 7층 719호","indutype":"레저업소 - 헬스클럽","category":"leisure"},{"name":"망고키즈카페 영통점","tel":"031-203-7595","addr":"경기도 수원시 영통구 영통동 996-4번지 보보스프라자 704~706호","indutype":"레저업소 - 기타레져업소","category":"leisure"},{"name":"메르디앙노래연습장","tel":"031-206-0877","addr":"경기도 수원시 영통구 영통동 996-4번지 보보스프라자 704,705,706호","indutype":"레저업소 - 노 래 방","category":"leisure"},{"name":"살린요가영통점","tel":"031-202-0550","addr":"경기도 수원시 영통구 영통동 996-4번지 보보스프라자 212호","indutype":"레저업소 - 헬스클럽","category":"leisure"},{"name":"서명덕 탁구클럽","tel":"031-895-5110","addr":"경기도 수원시 영통구 영통동 996-4번지 보보스프라자 707호","indutype":"레저업소 - 기타레져업소","category":"leisure"},{"name":"영통요가라이프","tel":"031-202-5994","addr":"경기도 수원시 영통구 영통동 996-4번지 보브스프라자 405호","indutype":"레저업소 - 헬스클럽","category":"leisure"},{"name":"해비치스크린골프","tel":"031-202-2221","addr":"경기도 수원시 영통구 영통동 996-4번지 4층","indutype":"레저업소 - 스크린골프","category":"leisure"}]},{"lat":"37.252571126","long":"127.07429956","imageIndex":13,"items":[{"name":"더플레이어보드게임","tel":"031-206-6667","addr":"경기도 수원시 영통구 영통동 998-4번지 e-폴리스 501호","indutype":"레저업소 - 기타레져업소","category":"leisure"},{"name":"셜록홈즈방탈출카페 영통점","tel":"031-206-3351","addr":"경기도 수원시 영통구 영통동 998-4번지 e-폴리스 4층 402,403호","indutype":"레저업소 - 기타레져업소","category":"leisure"}]},{"lat":"37.255518076","long":"127.07333294","imageIndex":13,"items":[{"name":"동아스크린골프","tel":"031-202-2115","addr":"경기도 수원시 영통구 영통동 961-4번지 117-1, 117-2, 117-3호","indutype":"레저업소 - 스크린골프","category":"leisure"},{"name":"크로스핏 토르","tel":"031-202-4251","addr":"경기도 수원시 영통구 영통동 961-4번지 1층 119-1,119-2,119-3","indutype":"레저업소 - 헬스클럽","category":"leisure"}]},{"lat":"37.247910259","long":"127.07838654","imageIndex":13,"items":[{"name":"라이또PC방 경희대점","tel":"070-4198-3521","addr":"경기도 수원시 영통구 영통동 1024-14번지 경희유니빌 301호","indutype":"레저업소 - 기타레져업소","category":"leisure"},{"name":"에이스 PC CAFE","tel":"070-2151-7107","addr":"경기도 수원시 영통구 영통동 1024-14번지 201,202호","indutype":"레저업소 - 기타레져업소","category":"leisure"}]},{"lat":"37.25315598","long":"127.07564146","imageIndex":13,"items":[{"name":"럭셔리당구장","tel":"031-202-7769","addr":"경기도 수원시 영통구 영통동 998-9번지 럭셔리프라자 6층","indutype":"레저업소 - 당 구 장","category":"leisure"}]},{"lat":"37.249910231","long":"127.07888447","imageIndex":13,"items":[{"name":"레인보우테니스 아카데미 (수원 영통점)","tel":"031-203-7081","addr":"경기도 수원시 영통구 영통동 1013-1번지 탑빌딩","indutype":"레저업소 - 테니스장","category":"leisure"}]},{"lat":"37.251605832","long":"127.07624863","imageIndex":13,"items":[{"name":"리얼야구존","tel":"031-204-0759","addr":"경기도 수원시 영통구 영통동 1010-9번지 대원빌딩 2층 201-204호, 206-210호","indutype":"레저업소 - 기타레져업소","category":"leisure"},{"name":"영통노래연습장","tel":"031-206-4242","addr":"경기도 수원시 영통구 영통동 1010-9번지 대원빌딩 307호","indutype":"레저업소 - 노 래 방","category":"leisure"},{"name":"영통당구클럽","tel":"031-223-5214","addr":"경기도 수원시 영통구 영통동 1010-9번지 대원빌딩 401,402호","indutype":"레저업소 - 당 구 장","category":"leisure"}]},{"lat":"37.252578113","long":"127.07757964","imageIndex":13,"items":[{"name":"리오노래연습장","tel":"070-8947-4490","addr":"경기도 수원시 영통구 영통동 1037-13번지","indutype":"레저업소 - 노 래 방","category":"leisure"},{"name":"우정당구장","tel":"031-202-7732","addr":"경기도 수원시 영통구 영통동 1037-13번지 3층","indutype":"레저업소 - 당 구 장","category":"leisure"}]},{"lat":"37.266767001","long":"127.08119","imageIndex":13,"items":[{"name":"마블짐 휘트니스","tel":"070-5091-0774","addr":"경기도 수원시 영통구 영통동 946-7번지 4,5층","indutype":"레저업소 - 헬스클럽","category":"leisure"},{"name":"해피노래연습장","tel":"031-205-5513","addr":"경기도 수원시 영통구 영통동 946-7번지 현명빌딩","indutype":"레저업소 - 노 래 방","category":"leisure"}]},{"lat":"37.251543528","long":"127.07499743","imageIndex":13,"items":[{"name":"매직당구장","tel":"031-205-0757","addr":"경기도 수원시 영통구 영통동 1009-6번지 매직프라자","indutype":"레저업소 - 당 구 장","category":"leisure"},{"name":"시즌원PC","tel":"","addr":"경기도 수원시 영통구 영통동 1009-6번지 매직프라자 3층 304~306호","indutype":"레저업소 - 기타레져업소","category":"leisure"},{"name":"헬로방방","tel":"","addr":"경기도 수원시 영통구 영통동 1009-6번지 매직프라자 701호","indutype":"레저업소 - 기타레져업소","category":"leisure"}]},{"lat":"37.266433621","long":"127.08118965","imageIndex":13,"items":[{"name":"맥스피드 영통점","tel":"","addr":"경기도 수원시 영통구 영통동 946-5번지 3층","indutype":"레저업소 - 기타레져업소","category":"leisure"},{"name":"세븐노래연습장","tel":"031-202-3789","addr":"경기도 수원시 영통구 영통동 946-5번지 2층 전체","indutype":"레저업소 - 노 래 방","category":"leisure"}]},{"lat":"37.248405704","long":"127.07857864","imageIndex":13,"items":[{"name":"맥스피드PC","tel":"","addr":"경기도 수원시 영통구 영통동 1021-3번지 2층","indutype":"레저업소 - 기타레져업소","category":"leisure"}]},{"lat":"37.259820869","long":"127.07996535","imageIndex":13,"items":[{"name":"미래노래방","tel":"031-203-5638","addr":"경기도 수원시 영통구 영통동 1050-9번지","indutype":"레저업소 - 노 래 방","category":"leisure"}]},{"lat":"37.265021493","long":"127.07733263","imageIndex":13,"items":[{"name":"방방노리","tel":"031-203-8811","addr":"경기도 수원시 영통구 영통동 949-4번지 4층","indutype":"레저업소 - 기타레져업소","category":"leisure"},{"name":"엑스핏앤다이어트","tel":"031-223-5214","addr":"경기도 수원시 영통구 영통동 949-4번지","indutype":"레저업소 - 헬스클럽","category":"leisure"}]},{"lat":"37.24968378","long":"127.08072147","imageIndex":13,"items":[{"name":"보보스당구클럽","tel":"031-204-4900","addr":"경기도 수원시 영통구 영통동 1025-1번지 보보스스포렉스 3층 303호","indutype":"레저업소 - 당 구 장","category":"leisure"},{"name":"보보스스크린","tel":"031-202-2068","addr":"경기도 수원시 영통구 영통동 1025-1번지 2층","indutype":"레저업소 - 스크린골프","category":"leisure"}]},{"lat":"37.251380811","long":"127.07586518","imageIndex":13,"items":[{"name":"본노래연습장","tel":"031-204-3677","addr":"경기도 수원시 영통구 영통동 1009-2번지 (영통동210,211호)","indutype":"레저업소 - 노 래 방","category":"leisure"}]},{"lat":"37.246659389","long":"127.05941648","imageIndex":13,"items":[{"name":"샴푸노래연습장","tel":"031-206-5799","addr":"경기도 수원시 영통구 영통동 974-1번지 토야플라자 2층 201호","indutype":"레저업소 - 노 래 방","category":"leisure"}]},{"lat":"37.248188921","long":"127.07941249","imageIndex":13,"items":[{"name":"샹떼pc방 수원경희대점","tel":"02-222-2222","addr":"경기도 수원시 영통구 영통동 1025-8번지 대경빌딩 3,4층","indutype":"레저업소 - 기타레져업소","category":"leisure"}]},{"lat":"37.246489014","long":"127.05766938","imageIndex":13,"items":[{"name":"서린노래연습장","tel":"031-206-1855","addr":"경기도 수원시 영통구 영통동 975-13번지 서린프라자 403호","indutype":"레저업소 - 노 래 방","category":"leisure"},{"name":"서린당구장","tel":"031-204-3930","addr":"경기도 수원시 영통구 영통동 975-13번지 서린프라자 301호","indutype":"레저업소 - 당 구 장","category":"leisure"}]},{"lat":"37.246605019","long":"127.06005888","imageIndex":13,"items":[{"name":"세일당구장","tel":"031-204-7426","addr":"경기도 수원시 영통구 영통동 974-9번지 동도빌딩 5층","indutype":"레저업소 - 당 구 장","category":"leisure"},{"name":"좋은세상노래연습장","tel":"031-205-6006","addr":"경기도 수원시 영통구 영통동 974-9번지 3층","indutype":"레저업소 - 노 래 방","category":"leisure"}]},{"lat":"37.250939755","long":"127.07513211","imageIndex":13,"items":[{"name":"소리샘노래연습장","tel":"031-202-6032","addr":"경기도 수원시 영통구 영통동 1008-9번지 지층","indutype":"레저업소 - 노 래 방","category":"leisure"}]},{"lat":"37.253353677","long":"127.07649831","imageIndex":13,"items":[{"name":"스카이2노래연습장","tel":"031-273-7204","addr":"경기도 수원시 영통구 영통동 1037-3번지","indutype":"레저업소 - 노 래 방","category":"leisure"}]},{"lat":"37.248271022","long":"127.07783462","imageIndex":13,"items":[{"name":"스토리피씨랩경희대점","tel":"070-4575-3349","addr":"경기도 수원시 영통구 영통동 1022-5번지 3층","indutype":"레저업소 - 기타레져업소","category":"leisure"},{"name":"용당구클럽","tel":"031-234-0150","addr":"경기도 수원시 영통구 영통동 1022-5번지 4층","indutype":"레저업소 - 당 구 장","category":"leisure"}]},{"lat":"37.246515941","long":"127.05789482","imageIndex":13,"items":[{"name":"스팅","tel":"031-206-3312","addr":"경기도 수원시 영통구 영통동 975-12번지 2층","indutype":"레저업소 - 노 래 방","category":"leisure"},{"name":"타잔101클라이밍 수원망포점","tel":"031-205-1015","addr":"경기도 수원시 영통구 영통동 975-12번지 3층","indutype":"레저업소 - 기타레져업소","category":"leisure"}]},{"lat":"37.265463033","long":"127.0772767","imageIndex":13,"items":[{"name":"스파르타복싱체육관","tel":"031-247-3416","addr":"경기도 수원시 영통구 영통동 949-1번지 대교빌딩 2층","indutype":"레저업소 - 헬스클럽","category":"leisure"},{"name":"황골당구클럽","tel":"031-206-7779","addr":"경기도 수원시 영통구 영통동 949-1번지 대교빌딩 5층","indutype":"레저업소 - 당 구 장","category":"leisure"}]},{"lat":"37.255850672","long":"127.07464082","imageIndex":13,"items":[{"name":"스포인","tel":"031-206-8765","addr":"경기도 수원시 영통구 영통동 958-1번지 드림피아빌딩 601~606호","indutype":"레저업소 - 헬스클럽","category":"leisure"},{"name":"클릭노래연습장","tel":"031-205-8687","addr":"경기도 수원시 영통구 영통동 958-1번지 드림피아빌딩 215.216호","indutype":"레저업소 - 노 래 방","category":"leisure"}]},{"lat":"37.25116167","long":"127.08041866","imageIndex":13,"items":[{"name":"신바람노래연습장","tel":"031-205-2432","addr":"경기도 수원시 영통구 영통동 1027-4번지","indutype":"레저업소 - 노 래 방","category":"leisure"}]},{"lat":"37.244605753","long":"127.05789343","imageIndex":13,"items":[{"name":"썬당구클럽","tel":"031-273-4939","addr":"경기도 수원시 영통구 영통동 1106번지 현대프라자 204호,205호","indutype":"레저업소 - 당 구 장","category":"leisure"}]},{"lat":"37.24666021","long":"127.0576695","imageIndex":13,"items":[{"name":"썸노래연습장","tel":"031-205-9669","addr":"경기도 수원시 영통구 영통동 975-3번지 3층","indutype":"레저업소 - 노 래 방","category":"leisure"}]},{"lat":"37.246298318","long":"127.06077998","imageIndex":13,"items":[{"name":"쓰리팝PC방","tel":"","addr":"경기도 수원시 영통구 영통동 976-18번지 5층","indutype":"레저업소 - 기타레져업소","category":"leisure"},{"name":"주식회사 피트니스바디7","tel":"070-4006-6596","addr":"경기도 수원시 영통구 영통동 976-18번지 3층","indutype":"레저업소 - 헬스클럽","category":"leisure"}]},{"lat":"37.252849254","long":"127.07624984","imageIndex":13,"items":[{"name":"씨제이 실내테니스장","tel":"031-205-0005","addr":"경기도 수원시 영통구 영통동 1011-1번지 영통시네마 205,206,207호","indutype":"레저업소 - 테니스장","category":"leisure"},{"name":"주식회사 선유전설","tel":"031-8019-8833","addr":"경기도 수원시 영통구 영통동 1011-1번지 3층","indutype":"레저업소 - 기타레져업소","category":"leisure"},{"name":"키넥스PC방","tel":"","addr":"경기도 수원시 영통구 영통동 1011-1번지 210호","indutype":"레저업소 - 기타레져업소","category":"leisure"},{"name":"키넥스노래연습장","tel":"031-202-5242","addr":"경기도 수원시 영통구 영통동 1011-1번지","indutype":"레저업소 - 노 래 방","category":"leisure"}]},{"lat":"37.266595806","long":"127.08118982","imageIndex":13,"items":[{"name":"아이비스PC/주식회사 엘에스제이테크","tel":"","addr":"경기도 수원시 영통구 영통동 946-6번지 2층","indutype":"레저업소 - 기타레져업소","category":"leisure"},{"name":"테라핏 피트니스","tel":"","addr":"경기도 수원시 영통구 영통동 946-6번지 5층","indutype":"레저업소 - 헬스클럽","category":"leisure"}]},{"lat":"37.246570978","long":"127.0557534","imageIndex":13,"items":[{"name":"알 짐","tel":"031-202-0911","addr":"경기도 수원시 영통구 영통동 978-2번지 4층","indutype":"레저업소 - 헬스클럽","category":"leisure"}]},{"lat":"37.257325122","long":"127.06438432","imageIndex":13,"items":[{"name":"에이스 노래방","tel":"031-203-1488","addr":"경기도 수원시 영통구 영통동 70-2번지 3층","indutype":"레저업소 - 노 래 방","category":"leisure"}]},{"lat":"37.253101269","long":"127.07668968","imageIndex":13,"items":[{"name":"엠노래연습장","tel":"031-204-4750","addr":"경기도 수원시 영통구 영통동 1037-6번지 남일빌딩 401호","indutype":"레저업소 - 노 래 방","category":"leisure"}]},{"lat":"37.245046315","long":"127.05988864","imageIndex":13,"items":[{"name":"엠파이어노래연습장","tel":"031-286-3553","addr":"경기도 수원시 영통구 영통동 980-3번지 디지털엠파이어빌딩 2층 243호","indutype":"레저업소 - 노 래 방","category":"leisure"}]},{"lat":"37.266262863","long":"127.08052432","imageIndex":13,"items":[{"name":"영통1동주민자치위원회","tel":"031-228-8740","addr":"경기도 수원시 영통구 영통동 947-6번지","indutype":"레저업소 - 기타레져업소","category":"leisure"}]},{"lat":"37.251993685","long":"127.07558398","imageIndex":13,"items":[{"name":"오투당구장","tel":"031-202-7555","addr":"경기도 수원시 영통구 영통동 1010-12번지 2층 대우월드마크 202호 201","indutype":"레저업소 - 당 구 장","category":"leisure"},{"name":"오투당구장","tel":"031-202-5401","addr":"경기도 수원시 영통구 영통동 1010-12번지 2층","indutype":"레저업소 - 당 구 장","category":"leisure"}]},{"lat":"37.246208981","long":"127.05919073","imageIndex":13,"items":[{"name":"와우PC방","tel":"070-5445-3961","addr":"경기도 수원시 영통구 영통동 976-11번지 3층","indutype":"레저업소 - 기타레져업소","category":"leisure"}]},{"lat":"37.250544105","long":"127.0738017","imageIndex":13,"items":[{"name":"와이제이 (YJ DANCE)","tel":"031-206-3111","addr":"경기도 수원시 영통구 영통동 1000-4번지 지하1층","indutype":"레저업소 - 헬스클럽","category":"leisure"}]},{"lat":"37.252236294","long":"127.07666629","imageIndex":13,"items":[{"name":"웨스턴짐","tel":"031-257-2080","addr":"경기도 수원시 영통구 영통동 1011-5번지 8층 801~804,809,810호","indutype":"레저업소 - 헬스클럽","category":"leisure"}]},{"lat":"37.254931044","long":"127.0755868","imageIndex":13,"items":[{"name":"유룩 필라테스","tel":"031-205-7525","addr":"경기도 수원시 영통구 영통동 996-3번지 대우월드마크영통 2층 214호","indutype":"레저업소 - 헬스클럽","category":"leisure"}]},{"lat":"37.246435737","long":"127.05594491","imageIndex":13,"items":[{"name":"윤필라테스 인헨스","tel":"031-201-0037","addr":"경기도 수원시 영통구 영통동 978-11번지 망포프라자 5층","indutype":"레저업소 - 헬스클럽","category":"leisure"},{"name":"이엠에스(EMS)트레이닝아카데미코리아","tel":"031-205-7731","addr":"경기도 수원시 영통구 영통동 978-11번지 망포프라자 401호","indutype":"레저업소 - 헬스클럽","category":"leisure"}]},{"lat":"37.24627161","long":"127.06011498","imageIndex":13,"items":[{"name":"쟁반노래연습장","tel":"031-223-9159","addr":"경기도 수원시 영통구 영통동 976-15번지 코원빌딩 2층","indutype":"레저업소 - 노 래 방","category":"leisure"},{"name":"짱 오락실","tel":"","addr":"경기도 수원시 영통구 영통동 976-15번지 코원빌딩 1층","indutype":"레저업소 - 기타레져업소","category":"leisure"}]},{"lat":"37.248406177","long":"127.07783475","imageIndex":13,"items":[{"name":"정글북","tel":"031-203-1565","addr":"경기도 수원시 영통구 영통동 1022-4번지 만월빌딩","indutype":"레저업소 - 기타레져업소","category":"leisure"}]},{"lat":"37.246570806","long":"127.05613661","imageIndex":13,"items":[{"name":"주식회사 이든필라테스","tel":"031-213-4028","addr":"경기도 수원시 영통구 영통동 978-4번지 2,3,4층","indutype":"레저업소 - 헬스클럽","category":"leisure"}]},{"lat":"37.249216074","long":"127.07944734","imageIndex":13,"items":[{"name":"준노래연습장","tel":"031-273-4597","addr":"경기도 수원시 영통구 영통동 1019-18번지 지층","indutype":"레저업소 - 노 래 방","category":"leisure"}]},{"lat":"37.246244796","long":"127.05966413","imageIndex":13,"items":[{"name":"즐거운 노래연습장","tel":"031-206-7883","addr":"경기도 수원시 영통구 영통동 976-13번지 3층","indutype":"레저업소 - 노 래 방","category":"leisure"},{"name":"피크바이짐(PEAK BY GYM)","tel":"031-205-9994","addr":"경기도 수원시 영통구 영통동 976-13번지 인우빌딩 5호","indutype":"레저업소 - 헬스클럽","category":"leisure"}]},{"lat":"37.250046825","long":"127.0766078","imageIndex":13,"items":[{"name":"지니스크린골프","tel":"","addr":"경기도 수원시 영통구 영통동 1005-7번지 ,3,4층","indutype":"레저업소 - 스크린골프","category":"leisure"}]},{"lat":"37.252821654","long":"127.07716282","imageIndex":13,"items":[{"name":"채플린노래연습장","tel":"031-273-1525","addr":"경기도 수원시 영통구 영통동 1037-10번지 지층","indutype":"레저업소 - 노 래 방","category":"leisure"}]},{"lat":"37.254299045","long":"127.07763769","imageIndex":13,"items":[{"name":"청명노래연습장","tel":"031-204-8496","addr":"경기도 수원시 영통구 영통동 1038-9번지 2층","indutype":"레저업소 - 노 래 방","category":"leisure"}]},{"lat":"37.2465435","long":"127.05674521","imageIndex":13,"items":[{"name":"카페활","tel":"031-305-2400","addr":"경기도 수원시 영통구 영통동 978-7번지 501호","indutype":"레저업소 - 기타레져업소","category":"leisure"}]},{"lat":"37.24671282","long":"127.06072394","imageIndex":13,"items":[{"name":"퀸스애비뉴노래연습장","tel":"031-202-8555","addr":"경기도 수원시 영통구 영통동 974-6번지 세일빌딩 203호","indutype":"레저업소 - 노 래 방","category":"leisure"},{"name":"퀸스애비뉴노래연습장Ⅱ","tel":"070-4090-0997","addr":"경기도 수원시 영통구 영통동 974-6번지 세일빌딩 201 201호202동","indutype":"레저업소 - 노 래 방","category":"leisure"},{"name":"핫요가웰리스 망포점","tel":"031-204-3681","addr":"경기도 수원시 영통구 영통동 974-6번지 세일빌딩 7층 702,703호","indutype":"레저업소 - 헬스클럽","category":"leisure"}]},{"lat":"37.251767292","long":"127.07740976","imageIndex":13,"items":[{"name":"크라이오존 수원영통점","tel":"031-303-9939","addr":"경기도 수원시 영통구 영통동 1012-1번지 351호,352호","indutype":"레저업소 - 헬스클럽","category":"leisure"}]},{"lat":"37.253992624","long":"127.07775011","imageIndex":13,"items":[{"name":"큰마당노래연습장","tel":"031-204-4669","addr":"경기도 수원시 영통구 영통동 1039-14번지","indutype":"레저업소 - 노 래 방","category":"leisure"}]},{"lat":"37.253435589","long":"127.07516831","imageIndex":13,"items":[{"name":"킹덤볼링장","tel":"031-206-3066","addr":"경기도 수원시 영통구 영통동 998-1번지","indutype":"레저업소 - 볼 링 장","category":"leisure"}]},{"lat":"37.246604926","long":"127.06025048","imageIndex":13,"items":[{"name":"텐피씨카페","tel":"","addr":"경기도 수원시 영통구 영통동 974-8번지 2층","indutype":"레저업소 - 기타레져업소","category":"leisure"}]},{"lat":"37.25735164","long":"127.06536504","imageIndex":13,"items":[{"name":"톡(Tok) 테니스 아카데미","tel":"","addr":"경기도 수원시 영통구 영통동 63-2번지 4층 402호","indutype":"레저업소 - 테니스장","category":"leisure"},{"name":"해성","tel":"031-205-8963","addr":"경기도 수원시 영통구 영통동 63-2번지 3층","indutype":"레저업소 - 노 래 방","category":"leisure"}]},{"lat":"37.248405841","long":"127.07836449","imageIndex":13,"items":[{"name":"파브노래연습장","tel":"031-202-5838","addr":"경기도 수원시 영통구 영통동 1021-2번지","indutype":"레저업소 - 노 래 방","category":"leisure"}]},{"lat":"37.252688807","long":"127.07338666","imageIndex":13,"items":[{"name":"팻앤핏짐(Fat&Fit gym)","tel":"031-204-8777","addr":"경기도 수원시 영통구 영통동 995-5번지 밀레니엄프라자 210호","indutype":"레저업소 - 헬스클럽","category":"leisure"}]},{"lat":"37.245186948","long":"127.06680891","imageIndex":13,"items":[{"name":"포인트노래연습장","tel":"031-206-0753","addr":"경기도 수원시 영통구 영통동 985-5번지","indutype":"레저업소 - 노 래 방","category":"leisure"}]},{"lat":"37.264490134","long":"127.07693753","imageIndex":13,"items":[{"name":"허브노래연습장","tel":"070-8947-4490","addr":"경기도 수원시 영통구 영통동 953-1번지 2층","indutype":"레저업소 - 노 래 방","category":"leisure"}]},{"lat":"37.246182317","long":"127.05841303","imageIndex":13,"items":[{"name":"허브노래연습장","tel":"031-202-7269","addr":"경기도 수원시 영통구 영통동 976-6번지 2층","indutype":"레저업소 - 노 래 방","category":"leisure"}]},{"lat":"37.247911772","long":"127.07597455","imageIndex":13,"items":[{"name":"허슬짐","tel":"031-273-0918","addr":"경기도 수원시 영통구 영통동 1024-1번지 2동","indutype":"레저업소 - 헬스클럽","category":"leisure"}]},{"lat":"37.266406328","long":"127.08158421","imageIndex":13,"items":[{"name":"헌터PC수원영통점","tel":"070-4714-5687","addr":"경기도 수원시 영통구 영통동 945-6번지 한성프라자 2층 201호","indutype":"레저업소 - 기타레져업소","category":"leisure"}]},{"lat":"37.264679413","long":"127.07683626","imageIndex":13,"items":[{"name":"황골노래연습장","tel":"031-202-5243","addr":"경기도 수원시 영통구 영통동 952-5번지","indutype":"레저업소 - 노 래 방","category":"leisure"}]},{"lat":"37.248765435","long":"127.07963849","imageIndex":13,"items":[{"name":"황제 노래연습장2","tel":"","addr":"경기도 수원시 영통구 영통동 1025-5번지 2층","indutype":"레저업소 - 노 래 방","category":"leisure"},{"name":"황제노래연습장","tel":"031-202-0616","addr":"경기도 수원시 영통구 영통동 1025-5번지 2층","indutype":"레저업소 - 노 래 방","category":"leisure"}]},{"lat":"37.266014472","long":"127.0743348","imageIndex":13,"items":[{"name":"휴스크린골프","tel":"031-222-2911","addr":"경기도 수원시 영통구 영통동 1번지 1층","indutype":"레저업소 - 스크린골프","category":"leisure"}]},{"lat":"37.252128957","long":"127.07539249","imageIndex":13,"items":[{"name":"힐링바디케어","tel":"031-202-8085","addr":"경기도 수원시 영통구 영통동 1010-13번지 거성빌딩 303호","indutype":"레저업소 - 헬스클럽","category":"leisure"}]}]