[{"lat":"37.301291993","long":"127.01972149","imageIndex":4,"items":[{"name":"(MOOㅇO)무","tel":"031-256-9597","addr":"경기도 수원시 장안구 조원동 456-17번지 1층","indutype":"일반휴게음식 - 서양음식","category":"restaurant"}]},{"lat":"37.299760877","long":"127.01453292","imageIndex":4,"items":[{"name":"(장안)전주콩나물국밥","tel":"031-251-1174","addr":"경기도 수원시 장안구 조원동 766-11번지","indutype":"일반휴게음식 - 일반한식","category":"restaurant"},{"name":"돈.돼지족발","tel":"031-246-9544","addr":"경기도 수원시 장안구 조원동 766-11번지 상가 1층 4호","indutype":"일반휴게음식 - 일반한식","category":"restaurant"},{"name":"명품추억82꽈배기","tel":"031-244-5760","addr":"경기도 수원시 장안구 조원동 766-11번지 101호","indutype":"일반휴게음식 - 일반한식","category":"restaurant"},{"name":"피자먹는날","tel":"031-258-9924","addr":"경기도 수원시 장안구 조원동 766-11번지 1층","indutype":"일반휴게음식 - 서양음식","category":"restaurant"}]},{"lat":"37.302761178","long":"127.01558235","imageIndex":4,"items":[{"name":"BHC조원주공한일점","tel":"031-243-9982","addr":"경기도 수원시 장안구 조원동 731-1번지 그린프라자 103호","indutype":"일반휴게음식 - 스넥","category":"restaurant"},{"name":"비에이치씨BHC조원주공한일점","tel":"031-243-9982","addr":"경기도 수원시 장안구 조원동 731-1번지 그린프라자 103호","indutype":"일반휴게음식 - 스넥","category":"restaurant"},{"name":"카페구나","tel":"031-000-0000","addr":"경기도 수원시 장안구 조원동 731-1번지 그린프라자 104호","indutype":"일반휴게음식 - 서양음식","category":"restaurant"}]},{"lat":"37.29781498","long":"127.01069795","imageIndex":4,"items":[{"name":"KT야구장점","tel":"031-240-2700","addr":"경기도 수원시 장안구 조원동 775번지 수원KT위즈파크2층B105호,C107호","indutype":"일반휴게음식 - 서양음식","category":"restaurant"},{"name":"SNB","tel":"070-7848-9304","addr":"경기도 수원시 장안구 조원동 775번지 KT야구장 C동 202호","indutype":"일반휴게음식 - 일반한식","category":"restaurant"},{"name":"까삐푸드","tel":"031-252-6122","addr":"경기도 수원시 장안구 조원동 775번지 수원KT위즈파크2층","indutype":"일반휴게음식 - 서양음식","category":"restaurant"},{"name":"꿀닭","tel":"","addr":"경기도 수원시 장안구 조원동 775번지 수원종합운동장 C동 203호","indutype":"일반휴게음식 - 스넥","category":"restaurant"},{"name":"마돈나/마을을가꾸는돈가스나들터사회적협","tel":"031-241-9855","addr":"경기도 수원시 장안구 조원동 775번지 수원종합운동장 B동 202호","indutype":"일반휴게음식 - 일반한식","category":"restaurant"},{"name":"머거버거푸드트럭","tel":"02-111-1111","addr":"경기도 수원시 장안구 조원동 775번지","indutype":"일반휴게음식 - 서양음식","category":"restaurant"},{"name":"바네스코리아","tel":"031-241-3555","addr":"경기도 수원시 장안구 조원동 775번지 D-104,D-105호","indutype":"일반휴게음식 - 서양음식","category":"restaurant"},{"name":"바비옹","tel":"070-7848-9306","addr":"경기도 수원시 장안구 조원동 775번지 수원종합운동장(주경기장) 4층 405호","indutype":"일반휴게음식 - 일반한식","category":"restaurant"},{"name":"본도시락 수원KT위즈파크점","tel":"063-841-1458","addr":"경기도 수원시 장안구 조원동 775번지 2층 수원종합운동장 D-103호","indutype":"일반휴게음식 - 일반한식","category":"restaurant"},{"name":"비비큐2호점","tel":"","addr":"경기도 수원시 장안구 조원동 775번지 수원종합운동장(주경기장) H동 101호","indutype":"일반휴게음식 - 스넥","category":"restaurant"},{"name":"세젤핫빙","tel":"070-7848-9304","addr":"경기도 수원시 장안구 조원동 775번지 5층 G-501호","indutype":"일반휴게음식 - 일반한식","category":"restaurant"},{"name":"솔대노리협동조합","tel":"","addr":"경기도 수원시 장안구 조원동 775번지 수원종합운동장 B동 2층 201호","indutype":"일반휴게음식 - 일반한식","category":"restaurant"},{"name":"어메불","tel":"031-2240-2700","addr":"경기도 수원시 장안구 조원동 775번지 수원종합운동장 B동 203호","indutype":"일반휴게음식 - 일반한식","category":"restaurant"},{"name":"에이미스KT위즈점","tel":"031-111-1111","addr":"경기도 수원시 장안구 조원동 775번지 수원종합운동장야구장 1층","indutype":"일반휴게음식 - 서양음식","category":"restaurant"},{"name":"이사만루스크린야구 앤드 펍","tel":"031-246-2400","addr":"경기도 수원시 장안구 조원동 775번지 2층 E-206호","indutype":"일반휴게음식 - 주점","category":"restaurant"},{"name":"컬투치킨","tel":"031-243-1030","addr":"경기도 수원시 장안구 조원동 775번지 수원종합운동장야구장 C동 2층 201호","indutype":"일반휴게음식 - 스넥","category":"restaurant"},{"name":"파파존스 KT위즈파크점","tel":"031-253-8088","addr":"경기도 수원시 장안구 조원동 775번지 수원종합운동장(주경기장) 504호","indutype":"일반휴게음식 - 서양음식","category":"restaurant"},{"name":"푸드코트","tel":"031-240-2700","addr":"경기도 수원시 장안구 조원동 775번지 2층 201,202,203수원종합운동장","indutype":"일반휴게음식 - 스넥","category":"restaurant"},{"name":"하이트펍/식객 (주)","tel":"031-251-5600","addr":"경기도 수원시 장안구 조원동 775번지 3층","indutype":"일반휴게음식 - 주점","category":"restaurant"},{"name":"홈런비어","tel":"","addr":"경기도 수원시 장안구 조원동 775번지 수원종합운동장 2층","indutype":"일반휴게음식 - 주점","category":"restaurant"}]},{"lat":"37.299625943","long":"127.01202902","imageIndex":4,"items":[{"name":"감골오리","tel":"031-244-3325","addr":"경기도 수원시 장안구 조원동 762-16번지","indutype":"일반휴게음식 - 일반한식","category":"restaurant"}]},{"lat":"37.299598367","long":"127.01747665","imageIndex":4,"items":[{"name":"강릉교동짬뽕","tel":"","addr":"경기도 수원시 장안구 조원동 739-28번지 1층","indutype":"일반휴게음식 - 중국식","category":"restaurant"}]},{"lat":"37.297291346","long":"127.02041986","imageIndex":4,"items":[{"name":"강식당","tel":"031-253-4222","addr":"경기도 수원시 장안구 조원동 519-287번지","indutype":"일반휴게음식 - 일반한식","category":"restaurant"}]},{"lat":"37.303013546","long":"127.01480413","imageIndex":4,"items":[{"name":"강정이기가막혀(조원점)","tel":"031-258-7982","addr":"경기도 수원시 장안구 조원동 730-5번지","indutype":"일반휴게음식 - 스넥","category":"restaurant"},{"name":"쉼팡호프","tel":"031-243-3366","addr":"경기도 수원시 장안구 조원동 730-5번지 1층","indutype":"일반휴게음식 - 주점","category":"restaurant"}]},{"lat":"37.303680687","long":"127.01003307","imageIndex":4,"items":[{"name":"건강카페 샘","tel":"070-4409-4004","addr":"경기도 수원시 장안구 조원동 888번지","indutype":"일반휴게음식 - 서양음식","category":"restaurant"},{"name":"상남자푸드트럭(SANGNAMJA Foodtruck)","tel":"02-000-0000","addr":"경기도 수원시 장안구 조원동 888번지","indutype":"일반휴게음식 - 일반한식","category":"restaurant"}]},{"lat":"37.303202782","long":"127.01458985","imageIndex":4,"items":[{"name":"고굽남","tel":"031-245-2243","addr":"경기도 수원시 장안구 조원동 726-16번지 조원동빌딩","indutype":"일반휴게음식 - 일반한식","category":"restaurant"},{"name":"바보스","tel":"031-304-9292","addr":"경기도 수원시 장안구 조원동 726-16번지 조원동빌딩","indutype":"일반휴게음식 - 주점","category":"restaurant"}]},{"lat":"37.299652483","long":"127.01702551","imageIndex":4,"items":[{"name":"고기마루","tel":"031-242-4321","addr":"경기도 수원시 장안구 조원동 742-9번지","indutype":"일반휴게음식 - 일반한식","category":"restaurant"},{"name":"육부장정육식당 수원점","tel":"","addr":"경기도 수원시 장안구 조원동 742-9번지 1층 103호,104호","indutype":"일반휴게음식 - 일반한식","category":"restaurant"}]},{"lat":"37.303068095","long":"127.00803659","imageIndex":4,"items":[{"name":"고기마을","tel":"031-251-0116","addr":"경기도 수원시 장안구 조원동 894번지 일호골든타워 1층 116호","indutype":"일반휴게음식 - 일반한식","category":"restaurant"},{"name":"국수나무조원점","tel":"031-241-3006","addr":"경기도 수원시 장안구 조원동 894번지 일호골든타워 119-8","indutype":"일반휴게음식 - 일반한식","category":"restaurant"},{"name":"돈발북수원점","tel":"031-247-7171","addr":"경기도 수원시 장안구 조원동 894번지 일호골든타워 106호","indutype":"일반휴게음식 - 일반한식","category":"restaurant"},{"name":"동이칼국수","tel":"031-245-1223","addr":"경기도 수원시 장안구 조원동 894번지 일호골든타워 1호203 1203-204","indutype":"일반휴게음식 - 일반한식","category":"restaurant"},{"name":"떡이랑닭이랑","tel":"031-242-3633","addr":"경기도 수원시 장안구 조원동 894번지 일호골든타워 105호","indutype":"일반휴게음식 - 일반한식","category":"restaurant"},{"name":"명동샤브샤브해물찜탕","tel":"031-303-1500","addr":"경기도 수원시 장안구 조원동 894원호골든타워2층206,207호","indutype":"일반휴게음식 - 일반한식","category":"restaurant"},{"name":"빠닭","tel":"031-255-9259","addr":"경기도 수원시 장안구 조원동 894번지 일호골든타워 215호","indutype":"일반휴게음식 - 스넥","category":"restaurant"},{"name":"빽다방수원장안 CGV점","tel":"070-8416-2160","addr":"경기도 수원시 장안구 조원동 894번지 일호골든타워 108호","indutype":"일반휴게음식 - 서양음식","category":"restaurant"},{"name":"석기정","tel":"031-245-0039","addr":"경기도 수원시 장안구 조원동 894번지 일호골든타워 206호","indutype":"일반휴게음식 - 일반한식","category":"restaurant"},{"name":"설빙수원장안구청점","tel":"031-241-0188","addr":"경기도 수원시 장안구 조원동 894번지 일호골든타워 201,202","indutype":"일반휴게음식 - 스넥","category":"restaurant"},{"name":"신전떡볶이(장안구청점)","tel":"031-241-2918","addr":"경기도 수원시 장안구 조원동 894번지 일호골든타워 121호","indutype":"일반휴게음식 - 일반한식","category":"restaurant"},{"name":"아마스빈 수원장안구청점","tel":"031-252-2918","addr":"경기도 수원시 장안구 조원동 894번지 일호골든타워 1층 111호","indutype":"일반휴게음식 - 서양음식","category":"restaurant"},{"name":"윤성철초밥","tel":"031-242-5270","addr":"경기도 수원시 장안구 조원동 894번지 일호골든타워 208호","indutype":"일반휴게음식 - 일반한식","category":"restaurant"},{"name":"일디즈커피(YILDIZ COFFEE)","tel":"","addr":"경기도 수원시 장안구 조원동 894번지 일호골든타워 211호","indutype":"일반휴게음식 - 서양음식","category":"restaurant"},{"name":"정릉냉면","tel":"","addr":"경기도 수원시 장안구 조원동 894번지 일호골든타워 212호","indutype":"일반휴게음식 - 일반한식","category":"restaurant"},{"name":"짜우탕","tel":"031-241-0877","addr":"경기도 수원시 장안구 조원동 894번지 일호골든타워 214호","indutype":"일반휴게음식 - 중국식","category":"restaurant"},{"name":"청년다방","tel":"031-244-9249","addr":"경기도 수원시 장안구 조원동 894번지 일호골든타워 114호","indutype":"일반휴게음식 - 일반한식","category":"restaurant"},{"name":"투썸플레이스 장안구청점","tel":"031-246-0600","addr":"경기도 수원시 장안구 조원동 894번지 일호골든타워 104-2,206,207호","indutype":"일반휴게음식 - 서양음식","category":"restaurant"},{"name":"피자연합","tel":"","addr":"경기도 수원시 장안구 조원동 894번지 일호골든타워 123호","indutype":"일반휴게음식 - 서양음식","category":"restaurant"}]},{"lat":"37.302067904","long":"127.00917571","imageIndex":4,"items":[{"name":"고봉민김밥장안구청점","tel":"031-247-9797","addr":"경기도 수원시 장안구 조원동 898-1번지 메가플러스2차 112호","indutype":"일반휴게음식 - 일반한식","category":"restaurant"},{"name":"공화춘","tel":"031-207-0571","addr":"경기도 수원시 장안구 조원동 898-1번지 메가플러스 108호","indutype":"일반휴게음식 - 중국식","category":"restaurant"},{"name":"김밥천국","tel":"031-243-1001","addr":"경기도 수원시 장안구 조원동 898-1번지 메가플러스2차 106호","indutype":"일반휴게음식 - 일반한식","category":"restaurant"},{"name":"도을 참 숯불갈비","tel":"031-245-0410","addr":"경기도 수원시 장안구 조원동 898-1번지 메가플러스2차 2층 202호","indutype":"일반휴게음식 - 일반한식","category":"restaurant"},{"name":"동대문엽기떡볶이","tel":"031-251-8592","addr":"경기도 수원시 장안구 조원동 898-1번지 메가플러스2차 102호","indutype":"일반휴게음식 - 일반한식","category":"restaurant"},{"name":"베트남쌀국수포메인(북수원점)","tel":"031-265-6171","addr":"경기도 수원시 장안구 조원동 898-1번지 매가플러스 3차 205호","indutype":"일반휴게음식 - 일반한식","category":"restaurant"},{"name":"본죽(한일타운점)","tel":"031-243-1551","addr":"경기도 수원시 장안구 조원동 898-1번지 매가플러스3차 1층 113호","indutype":"일반휴게음식 - 일반한식","category":"restaurant"},{"name":"아굼터","tel":"031-244-9297","addr":"경기도 수원시 장안구 조원동 898-1번지 메가플러스III 2층 205호","indutype":"일반휴게음식 - 일반한식","category":"restaurant"},{"name":"아지매산꼼장어","tel":"031-242-8292","addr":"경기도 수원시 장안구 조원동 898-1번지 매가플러스 114호","indutype":"일반휴게음식 - 일반한식","category":"restaurant"},{"name":"에스메랄다커피전문점","tel":"031-247-6565","addr":"경기도 수원시 장안구 조원동 898-1번지 메가플러스2차 102호","indutype":"일반휴게음식 - 서양음식","category":"restaurant"},{"name":"죠스떡볶이 장안구청점","tel":"031-241-6633","addr":"경기도 수원시 장안구 조원동 898-1번지 메가플러스2차 110호","indutype":"일반휴게음식 - 스넥","category":"restaurant"},{"name":"쥬씨 북수원점","tel":"031-257-2996","addr":"경기도 수원시 장안구 조원동 898-1번지 메가플러스2차 114호","indutype":"일반휴게음식 - 서양음식","category":"restaurant"},{"name":"피자스쿨(북수원점)","tel":"031-258-7711","addr":"경기도 수원시 장안구 조원동 898-1번지 메가플러스3차 107호","indutype":"일반휴게음식 - 서양음식","category":"restaurant"}]},{"lat":"37.297903921","long":"127.02122077","imageIndex":4,"items":[{"name":"고향밥상","tel":"031-244-1541","addr":"경기도 수원시 장안구 조원동 510외1필지212,213호","indutype":"일반휴게음식 - 일반한식","category":"restaurant"},{"name":"국수부자국수","tel":"031-247-3123","addr":"경기도 수원시 장안구 조원동 510번지 벽산 상가 110호","indutype":"일반휴게음식 - 스넥","category":"restaurant"}]},{"lat":"37.300454875","long":"127.01216447","imageIndex":4,"items":[{"name":"고향생고기전문점","tel":"031-257-3332","addr":"경기도 수원시 장안구 조원동 753-10번지","indutype":"일반휴게음식 - 일반한식","category":"restaurant"}]},{"lat":"37.301959715","long":"127.01030361","imageIndex":4,"items":[{"name":"곱창주점","tel":"","addr":"경기도 수원시 장안구 조원동 752-1번지 1층","indutype":"일반휴게음식 - 일반한식","category":"restaurant"}]},{"lat":"37.300535763","long":"127.01447665","imageIndex":4,"items":[{"name":"공간포차","tel":"070-7554-0296","addr":"경기도 수원시 장안구 조원동 757-22번지","indutype":"일반휴게음식 - 일반한식","category":"restaurant"},{"name":"오빠곱창족발","tel":"031-254-1444","addr":"경기도 수원시 장안구 조원동 757-22번지 1층 104호","indutype":"일반휴게음식 - 일반한식","category":"restaurant"},{"name":"진수성찬","tel":"031-243-9945","addr":"경기도 수원시 장안구 조원동 757-22번지","indutype":"일반휴게음식 - 일반한식","category":"restaurant"},{"name":"황소곱창","tel":"031-247-3014","addr":"경기도 수원시 장안구 조원동 757-22번지 1층 103호","indutype":"일반휴게음식 - 일반한식","category":"restaurant"}]},{"lat":"37.300238239","long":"127.01624738","imageIndex":4,"items":[{"name":"공릉동멸치국수","tel":"","addr":"경기도 수원시 장안구 조원동 742-2번지 1층","indutype":"일반휴게음식 - 일반한식","category":"restaurant"}]},{"lat":"37.302230029","long":"127.01020212","imageIndex":4,"items":[{"name":"공차 (장안구청점)","tel":"","addr":"경기도 수원시 장안구 조원동 750-32번지 1층","indutype":"일반휴게음식 - 서양음식","category":"restaurant"}]},{"lat":"37.298570928","long":"127.01952915","imageIndex":4,"items":[{"name":"광교스크린골프@광교레스토랑","tel":"031-247-7247","addr":"경기도 수원시 장안구 조원동 519-27번지 상가동 지하1층 1호","indutype":"일반휴게음식 - 일반한식","category":"restaurant"}]},{"lat":"37.306203282","long":"127.01360898","imageIndex":4,"items":[{"name":"교동반점교동짬뽕","tel":"031-245-3833","addr":"경기도 수원시 장안구 조원동 52-2번지","indutype":"일반휴게음식 - 중국식","category":"restaurant"}]},{"lat":"37.301734077","long":"127.01495055","imageIndex":4,"items":[{"name":"교촌치킨","tel":"031-248-5425","addr":"경기도 수원시 장안구 조원동 729-12번지","indutype":"일반휴게음식 - 스넥","category":"restaurant"},{"name":"서연네퓨전포차","tel":"031-252-3338","addr":"경기도 수원시 장안구 조원동 729-12번지 1층","indutype":"일반휴게음식 - 주점","category":"restaurant"}]},{"lat":"37.3014004","long":"127.01758978","imageIndex":4,"items":[{"name":"구미관","tel":"031-309-5647","addr":"경기도 수원시 장안구 조원동 866-3번지 그랜드빌 1층","indutype":"일반휴게음식 - 일반한식","category":"restaurant"},{"name":"카페톡","tel":"031-242-2323","addr":"경기도 수원시 장안구 조원동 866-3번지 그랜드빌 102호","indutype":"일반휴게음식 - 서양음식","category":"restaurant"}]},{"lat":"37.300562984","long":"127.01233367","imageIndex":4,"items":[{"name":"굴섬","tel":"031-235-0264","addr":"경기도 수원시 장안구 조원동 756-6번지","indutype":"일반휴게음식 - 일반한식","category":"restaurant"}]},{"lat":"37.30342853","long":"127.00739369","imageIndex":4,"items":[{"name":"그때...그라이브","tel":"031-243-7080","addr":"경기도 수원시 장안구 조원동 893번지 406호,407호,408호","indutype":"일반휴게음식 - 주점","category":"restaurant"},{"name":"라비알레(La Viale)","tel":"031-255-5381","addr":"경기도 수원시 장안구 조원동 893번지 아일렛쇼핑타운 274호","indutype":"일반휴게음식 - 서양음식","category":"restaurant"},{"name":"마마스누들","tel":"031-253-1151","addr":"경기도 수원시 장안구 조원동 893번지 아일렛쇼핑타운 405호","indutype":"일반휴게음식 - 일반한식","category":"restaurant"},{"name":"빵과빵사이","tel":"031-242-3040","addr":"경기도 수원시 장안구 조원동 893번지 아일렛쇼핑타운 439호","indutype":"일반휴게음식 - 스넥","category":"restaurant"},{"name":"샤브향","tel":"031-258-0646","addr":"경기도 수원시 장안구 조원동 893번지 아일렛쇼핑타운 271호,272호","indutype":"일반휴게음식 - 일반한식","category":"restaurant"},{"name":"소문난 제주돼지 김치찌개","tel":"031-111-1111","addr":"경기도 수원시 장안구 조원동 893번지 아울렛쇼핑타운 273호","indutype":"일반휴게음식 - 일반한식","category":"restaurant"},{"name":"스무디킹 북수원CGV점","tel":"031-207-0117","addr":"경기도 수원시 장안구 조원동 893번지 아일렛쇼핑타운 4층 436호","indutype":"일반휴게음식 - 서양음식","category":"restaurant"},{"name":"슬라임데이","tel":"031-309-1001","addr":"경기도 수원시 장안구 조원동 893번지 아울렛쇼핑타운 2층 266호","indutype":"일반휴게음식 - 서양음식","category":"restaurant"},{"name":"주식회사 씨네메카 수원","tel":"031-252-1702","addr":"경기도 수원시 장안구 조원동 893번지 아일렛타운 322호","indutype":"일반휴게음식 - 일반한식","category":"restaurant"},{"name":"카페 제이","tel":"031-111-1111","addr":"경기도 수원시 장안구 조원동 893번지 아울렛쇼핑타운 438호","indutype":"일반휴게음식 - 서양음식","category":"restaurant"},{"name":"카페벨라","tel":"031-248-3060","addr":"경기도 수원시 장안구 조원동 893번지 206-207호","indutype":"일반휴게음식 - 서양음식","category":"restaurant"},{"name":"커피라이트북수원점","tel":"031-258-9001","addr":"경기도 수원시 장안구 조원동 893번지 아울렛쇼핑타운 206호","indutype":"일반휴게음식 - 서양음식","category":"restaurant"},{"name":"탕화쿵푸마라탕","tel":"031-747-8874","addr":"경기도 수원시 장안구 조원동 893번지 아울렛쇼핑타운 2층 239호","indutype":"일반휴게음식 - 중국식","category":"restaurant"},{"name":"파스타 팔리오","tel":"031-242-8225","addr":"경기도 수원시 장안구 조원동 893번지 북수원패션아울렛 2층 203,204,205호","indutype":"일반휴게음식 - 서양음식","category":"restaurant"}]},{"lat":"37.301734482","long":"127.00994265","imageIndex":4,"items":[{"name":"그릴룸","tel":"031-241-9293","addr":"경기도 수원시 장안구 조원동 752-5번지","indutype":"일반휴게음식 - 일반한식","category":"restaurant"},{"name":"펀 비어킹(장안구청점)","tel":"","addr":"경기도 수원시 장안구 조원동 752-5번지 ,1,2층","indutype":"일반휴게음식 - 일반한식","category":"restaurant"},{"name":"할머니손순대","tel":"031-252-3612","addr":"경기도 수원시 장안구 조원동 752-5번지","indutype":"일반휴게음식 - 일반한식","category":"restaurant"}]},{"lat":"37.300733307","long":"127.02008229","imageIndex":4,"items":[{"name":"그릴에이치","tel":"031-257-9289","addr":"경기도 수원시 장안구 조원동 459-25번지","indutype":"일반휴게음식 - 일반한식","category":"restaurant"}]},{"lat":"37.297733626","long":"127.01397997","imageIndex":4,"items":[{"name":"그섬에가면..","tel":"031-241-2966","addr":"경기도 수원시 장안구 조원동 763-21번지 창경빌딩 101호","indutype":"일반휴게음식 - 일식·회집","category":"restaurant"}]},{"lat":"37.29659848","long":"127.01231061","imageIndex":4,"items":[{"name":"그집해장국","tel":"031-244-6694","addr":"경기도 수원시 장안구 조원동 778-8번지","indutype":"일반휴게음식 - 일반한식","category":"restaurant"}]},{"lat":"37.299201842","long":"127.01806306","imageIndex":4,"items":[{"name":"기사식당 돈&카레''s","tel":"031-243-8883","addr":"경기도 수원시 장안구 조원동 739-16번지 1층","indutype":"일반휴게음식 - 일반한식","category":"restaurant"},{"name":"참살이직화쭈꾸미","tel":"031-248-8837","addr":"경기도 수원시 장안구 조원동 739-16번지","indutype":"일반휴게음식 - 일반한식","category":"restaurant"}]},{"lat":"37.299480867","long":"127.02019479","imageIndex":4,"items":[{"name":"길만두","tel":"031-248-8254","addr":"경기도 수원시 장안구 조원동 525-18번지 1층 101호","indutype":"일반휴게음식 - 일반한식","category":"restaurant"},{"name":"연탄집","tel":"070-4400-1145","addr":"경기도 수원시 장안구 조원동 525-18번지 1층 해피하우스 우측상가","indutype":"일반휴게음식 - 일반한식","category":"restaurant"}]},{"lat":"37.295706541","long":"127.01130675","imageIndex":4,"items":[{"name":"김떡튀순대리아","tel":"031-244-2886","addr":"경기도 수원시 장안구 조원동 776-3번지 스톤하우스 102호","indutype":"일반휴게음식 - 스넥","category":"restaurant"}]},{"lat":"37.300679804","long":"127.01567223","imageIndex":4,"items":[{"name":"김밥나라","tel":"031-251-9366","addr":"경기도 수원시 장안구 조원동 742번지","indutype":"일반휴게음식 - 일반한식","category":"restaurant"},{"name":"다원사뎅이","tel":"031-251-3009","addr":"경기도 수원시 장안구 조원동 742번지","indutype":"일반휴게음식 - 일반한식","category":"restaurant"}]},{"lat":"37.303815679","long":"127.01233407","imageIndex":4,"items":[{"name":"김밥나라","tel":"031-245-1400","addr":"경기도 수원시 장안구 조원동 851-7번지","indutype":"일반휴게음식 - 일반한식","category":"restaurant"}]},{"lat":"37.303400889","long":"127.01572909","imageIndex":4,"items":[{"name":"김밥타운","tel":"031-257-7578","addr":"경기도 수원시 장안구 조원동 857번지 뉴타운프라자 106호","indutype":"일반휴게음식 - 스넥","category":"restaurant"},{"name":"꾼떡","tel":"031-255-4630","addr":"경기도 수원시 장안구 조원동 857번지 103호","indutype":"일반휴게음식 - 스넥","category":"restaurant"},{"name":"심봉사도로케(수원조원점)","tel":"031-242-4700","addr":"경기도 수원시 장안구 조원동 857번지 뉴타운프라자 107호","indutype":"일반휴게음식 - 서양음식","category":"restaurant"},{"name":"오구피자","tel":"031-243-0040","addr":"경기도 수원시 장안구 조원동 857번지 104호","indutype":"일반휴게음식 - 서양음식","category":"restaurant"},{"name":"킹부대찌개 테이크아웃","tel":"031-245-4200","addr":"경기도 수원시 장안구 조원동 857번지 뉴타운프라자 1층 105호","indutype":"일반휴게음식 - 일반한식","category":"restaurant"}]},{"lat":"37.2978147","long":"127.01417171","imageIndex":4,"items":[{"name":"까삐네 칼국수","tel":"","addr":"경기도 수원시 장안구 조원동 763-20번지 1층","indutype":"일반휴게음식 - 일반한식","category":"restaurant"},{"name":"포근한 작은집","tel":"070-8341-6122","addr":"경기도 수원시 장안구 조원동 763-20번지 1층","indutype":"일반휴게음식 - 서양음식","category":"restaurant"}]},{"lat":"37.3002924","long":"127.0153338","imageIndex":4,"items":[{"name":"깡돈조원점","tel":"","addr":"경기도 수원시 장안구 조원동 742-23번지 조원시장 가동 3호","indutype":"일반휴게음식 - 일반한식","category":"restaurant"},{"name":"마을을가꾸는돈가스나들터사회적협동조합","tel":"031-241-9855","addr":"경기도 수원시 장안구 조원동 742-23번지","indutype":"일반휴게음식 - 일반한식","category":"restaurant"},{"name":"민속한마당","tel":"031-257-1555","addr":"경기도 수원시 장안구 조원동 742-23번지 나동 4호 5","indutype":"일반휴게음식 - 일반한식","category":"restaurant"},{"name":"소머리국밥","tel":"031-243-4177","addr":"경기도 수원시 장안구 조원동 742-23번지","indutype":"일반휴게음식 - 일반한식","category":"restaurant"},{"name":"소문난통닭","tel":"031-247-5718","addr":"경기도 수원시 장안구 조원동 742-23번지 가동 5호","indutype":"일반휴게음식 - 스넥","category":"restaurant"},{"name":"조원밥상","tel":"031-242-8008","addr":"경기도 수원시 장안구 조원동 742-23번지","indutype":"일반휴게음식 - 일반한식","category":"restaurant"}]},{"lat":"37.302094356","long":"127.01616875","imageIndex":4,"items":[{"name":"꽁돈삼겹살","tel":"031-245-4570","addr":"경기도 수원시 장안구 조원동 731-15번지 메가타워 1층 102호","indutype":"일반휴게음식 - 일반한식","category":"restaurant"},{"name":"명륜진사갈비","tel":"031-248-0101","addr":"경기도 수원시 장안구 조원동 731-15번지 메가타워 101-1,102호","indutype":"일반휴게음식 - 일반한식","category":"restaurant"}]},{"lat":"37.298841641","long":"127.01633736","imageIndex":4,"items":[{"name":"꿀맛생고기","tel":"031-892-6314","addr":"경기도 수원시 장안구 조원동 768-8번지","indutype":"일반휴게음식 - 일반한식","category":"restaurant"}]},{"lat":"37.298292144","long":"127.01516429","imageIndex":4,"items":[{"name":"늘푸른솔","tel":"070-8992-3603","addr":"경기도 수원시 장안구 조원동 769-17 1층","indutype":"일반휴게음식 - 주점","category":"restaurant"}]},{"lat":"37.299733594","long":"127.01686762","imageIndex":4,"items":[{"name":"달구리닭갈비","tel":"031-241-2992","addr":"경기도 수원시 장안구 조원동 742-8번지 호석빌딩 1층","indutype":"일반휴게음식 - 일반한식","category":"restaurant"}]},{"lat":"37.306761832","long":"127.01450016","imageIndex":4,"items":[{"name":"대유평","tel":"031-227-2358","addr":"경기도 수원시 장안구 조원동 53-1번지","indutype":"일반휴게음식 - 일반한식","category":"restaurant"}]},{"lat":"37.29906719","long":"127.01345007","imageIndex":4,"items":[{"name":"대추골이가돈까스","tel":"031-245-8993","addr":"경기도 수원시 장안구 조원동 764-1번지","indutype":"일반휴게음식 - 일반한식","category":"restaurant"}]},{"lat":"37.306230201","long":"127.01478207","imageIndex":4,"items":[{"name":"더끌림","tel":"031-246-1249","addr":"경기도 수원시 장안구 조원동 50번지 2층","indutype":"일반휴게음식 - 일반한식","category":"restaurant"},{"name":"포명천천","tel":"031-242-1029","addr":"경기도 수원시 장안구 조원동 50번지","indutype":"일반휴게음식 - 중국식","category":"restaurant"}]},{"lat":"37.301815264","long":"127.01398057","imageIndex":4,"items":[{"name":"돈강족발 불족에반하다","tel":"031-258-9245","addr":"경기도 수원시 장안구 조원동 745-24번지 1층","indutype":"일반휴게음식 - 일반한식","category":"restaurant"}]},{"lat":"37.298760283","long":"127.01850284","imageIndex":4,"items":[{"name":"돈돈고추장","tel":"031-244-1680","addr":"경기도 수원시 장안구 조원동 528-15번지","indutype":"일반휴게음식 - 칵테일바","category":"restaurant"}]},{"lat":"37.301590316","long":"127.00997648","imageIndex":4,"items":[{"name":"동강나루터","tel":"031-245-5550","addr":"경기도 수원시 장안구 조원동 752-6번지","indutype":"일반휴게음식 - 일반한식","category":"restaurant"}]},{"lat":"37.300626001","long":"127.01299913","imageIndex":4,"items":[{"name":"동강맑은송어","tel":"031-245-3545","addr":"경기도 수원시 장안구 조원동 759-17번지 1층","indutype":"일반휴게음식 - 일반한식","category":"restaurant"}]},{"lat":"37.30173418","long":"127.01389032","imageIndex":4,"items":[{"name":"동네방네달리는생돈까스","tel":"031-251-6674","addr":"경기도 수원시 장안구 조원동 745-23번지 1층","indutype":"일반휴게음식 - 일반한식","category":"restaurant"}]},{"lat":"37.302175961","long":"127.01030363","imageIndex":4,"items":[{"name":"동성전통순대","tel":"031-253-4523","addr":"경기도 수원시 장안구 조원동 750-31번지","indutype":"일반휴게음식 - 스넥","category":"restaurant"}]},{"lat":"37.301202404","long":"127.01561593","imageIndex":4,"items":[{"name":"땅땅치킨 조원시장점","tel":"031-255-5355","addr":"경기도 수원시 장안구 조원동 733-20번지","indutype":"일반휴게음식 - 스넥","category":"restaurant"}]},{"lat":"37.302535986","long":"127.01497324","imageIndex":4,"items":[{"name":"또래오래","tel":"031-241-2323","addr":"경기도 수원시 장안구 조원동 732번지","indutype":"일반휴게음식 - 서양음식","category":"restaurant"}]},{"lat":"37.303013589","long":"127.01436424","imageIndex":4,"items":[{"name":"또먹고싶은떡볶이","tel":"031-243-2929","addr":"경기도 수원시 장안구 조원동 727-4번지 1층","indutype":"일반휴게음식 - 일반한식","category":"restaurant"},{"name":"장터즉석치킨","tel":"031-232-7314","addr":"경기도 수원시 장안구 조원동 727-4번지 1층","indutype":"일반휴게음식 - 스넥","category":"restaurant"}]},{"lat":"37.303373965","long":"127.01470267","imageIndex":4,"items":[{"name":"또봉이통닭","tel":"031-255-7555","addr":"경기도 수원시 장안구 조원동 726-15번지","indutype":"일반휴게음식 - 스넥","category":"restaurant"}]},{"lat":"37.293426966","long":"127.01105838","imageIndex":4,"items":[{"name":"또와즉석김밥","tel":"031-243-1515","addr":"경기도 수원시 장안구 조원동 676-14번지","indutype":"일반휴게음식 - 스넥","category":"restaurant"}]},{"lat":"37.301482203","long":"127.00980728","imageIndex":4,"items":[{"name":"뜰21","tel":"031-309-4521","addr":"경기도 수원시 장안구 조원동 752-17번지 1층","indutype":"일반휴게음식 - 서양음식","category":"restaurant"},{"name":"빨간벽돌집","tel":"031-236-5355","addr":"경기도 수원시 장안구 조원동 752-17번지 2층","indutype":"일반휴게음식 - 일반한식","category":"restaurant"},{"name":"인생극장 쪽갈비","tel":"031-207-5666","addr":"경기도 수원시 장안구 조원동 752-17번지","indutype":"일반휴게음식 - 일반한식","category":"restaurant"}]},{"lat":"37.301400827","long":"127.01361958","imageIndex":4,"items":[{"name":"라니펍","tel":"070-7500-1618","addr":"경기도 수원시 장안구 조원동 745-18번지 1층","indutype":"일반휴게음식 - 일반한식","category":"restaurant"},{"name":"스카이호프","tel":"031-243-7583","addr":"경기도 수원시 장안구 조원동 745-18번지 1층","indutype":"일반휴게음식 - 주점","category":"restaurant"}]},{"lat":"37.29984168","long":"127.01717217","imageIndex":4,"items":[{"name":"마포집","tel":"031-269-5692","addr":"경기도 수원시 장안구 조원동 739-25번지","indutype":"일반휴게음식 - 일반한식","category":"restaurant"}]},{"lat":"37.301229637","long":"127.01356316","imageIndex":4,"items":[{"name":"만리장성","tel":"031-251-5700","addr":"경기도 수원시 장안구 조원동 757번지","indutype":"일반휴게음식 - 중국식","category":"restaurant"},{"name":"역사는밤에이루어진다","tel":"031-000-0000","addr":"경기도 수원시 장안구 조원동 757번지","indutype":"일반휴게음식 - 일반한식","category":"restaurant"}]},{"lat":"37.298877181","long":"127.02019465","imageIndex":4,"items":[{"name":"만만포차","tel":"031-242-5544","addr":"경기도 수원시 장안구 조원동 519-215번지 104호","indutype":"일반휴게음식 - 주점","category":"restaurant"}]},{"lat":"37.302374235","long":"127.00948027","imageIndex":4,"items":[{"name":"맘스터치 (조원점)","tel":"031-207-2255","addr":"경기도 수원시 장안구 조원동 898-2번지 1층 114호","indutype":"일반휴게음식 - 서양음식","category":"restaurant"},{"name":"치어스","tel":"031-207-7333","addr":"경기도 수원시 장안구 조원동 898-2번지 메가플러스 103호~106호","indutype":"일반휴게음식 - 서양음식","category":"restaurant"},{"name":"커피에반하다","tel":"070-4158-7765","addr":"경기도 수원시 장안구 조원동 898-2번지 메가플러스3차 102호","indutype":"일반휴게음식 - 서양음식","category":"restaurant"}]},{"lat":"37.303229949","long":"127.01311227","imageIndex":4,"items":[{"name":"맛고을코다리한상","tel":"031-244-7529","addr":"경기도 수원시 장안구 조원동 728-18번지","indutype":"일반휴게음식 - 일반한식","category":"restaurant"},{"name":"바다회집","tel":"031-245-6433","addr":"경기도 수원시 장안구 조원동 728-18번지","indutype":"일반휴게음식 - 일식·회집","category":"restaurant"}]},{"lat":"37.295292172","long":"127.00972777","imageIndex":4,"items":[{"name":"망향비빔국수","tel":"031-256-7088","addr":"경기도 수원시 장안구 조원동 675-2번지","indutype":"일반휴게음식 - 일반한식","category":"restaurant"},{"name":"풀잎채한상","tel":"031-256-7088","addr":"경기도 수원시 장안구 조원동 675-2번지","indutype":"일반휴게음식 - 일반한식","category":"restaurant"}]},{"lat":"37.299931848","long":"127.01661952","imageIndex":4,"items":[{"name":"명가참치","tel":"031-254-3789","addr":"경기도 수원시 장안구 조원동 742-5","indutype":"일반휴게음식 - 일식·회집","category":"restaurant"},{"name":"여장군조원점","tel":"02-309-7957","addr":"경기도 수원시 장안구 조원동 742-5번지 1층","indutype":"일반휴게음식 - 주점","category":"restaurant"}]},{"lat":"37.299453626","long":"127.02158207","imageIndex":4,"items":[{"name":"명성식당","tel":"031-258-3265","addr":"경기도 수원시 장안구 조원동 471-12번지","indutype":"일반휴게음식 - 일반한식","category":"restaurant"}]},{"lat":"37.304923944","long":"127.01225525","imageIndex":4,"items":[{"name":"명인 한상복오리집","tel":"031-245-7892","addr":"경기도 수원시 장안구 조원동 300번지 계성빌딩 202호","indutype":"일반휴게음식 - 일반한식","category":"restaurant"},{"name":"테라스(주)","tel":"031-245-7892","addr":"경기도 수원시 장안구 조원동 300번지","indutype":"일반휴게음식 - 일반한식","category":"restaurant"}]},{"lat":"37.296849798","long":"127.02072427","imageIndex":4,"items":[{"name":"무한리필닭갈비","tel":"031-242-9266","addr":"경기도 수원시 장안구 조원동 515-2번지 1층","indutype":"일반휴게음식 - 일반한식","category":"restaurant"}]},{"lat":"37.298093889","long":"127.01544622","imageIndex":4,"items":[{"name":"민속한마당","tel":"031-242-1555","addr":"경기도 수원시 장안구 조원동 770-11번지 1층","indutype":"일반휴게음식 - 일반한식","category":"restaurant"},{"name":"택이네육칼국수","tel":"031-251-1105","addr":"경기도 수원시 장안구 조원동 770-11번지 1층","indutype":"일반휴게음식 - 일반한식","category":"restaurant"}]},{"lat":"37.299905024","long":"127.01470213","imageIndex":4,"items":[{"name":"바다공원","tel":"031-243-9288","addr":"경기도 수원시 장안구 조원동 766-12번지 1층","indutype":"일반휴게음식 - 일식·회집","category":"restaurant"}]},{"lat":"37.302040461","long":"127.01458967","imageIndex":4,"items":[{"name":"바다목장","tel":"031-268-2511","addr":"경기도 수원시 장안구 조원동 729-24번지","indutype":"일반휴게음식 - 일반한식","category":"restaurant"},{"name":"총각치킨","tel":"031-247-2512","addr":"경기도 수원시 장안구 조원동 729-24번지 1층","indutype":"일반휴게음식 - 일반한식","category":"restaurant"}]},{"lat":"37.302401213","long":"127.01036005","imageIndex":4,"items":[{"name":"배부장찌개 장안구청점","tel":"031-253-1117","addr":"경기도 수원시 장안구 조원동 750번지","indutype":"일반휴게음식 - 일반한식","category":"restaurant"},{"name":"보드람치킨","tel":"031-892-7282","addr":"경기도 수원시 장안구 조원동 750번지 탁사발 상가 101호","indutype":"일반휴게음식 - 서양음식","category":"restaurant"},{"name":"장안닭갈비","tel":"031-256-9494","addr":"경기도 수원시 장안구 조원동 750번지 탁사발 1층 102호","indutype":"일반휴게음식 - 일반한식","category":"restaurant"}]},{"lat":"37.30365347","long":"127.01263859","imageIndex":4,"items":[{"name":"백청우칼국수","tel":"031-246-2005","addr":"경기도 수원시 장안구 조원동 851-5번지","indutype":"일반휴게음식 - 일반한식","category":"restaurant"}]},{"lat":"37.298039224","long":"127.0202283","imageIndex":4,"items":[{"name":"병천순대","tel":"031-258-2321","addr":"경기도 수원시 장안구 조원동 519-12번지","indutype":"일반휴게음식 - 일반한식","category":"restaurant"}]},{"lat":"37.297011994","long":"127.02064536","imageIndex":4,"items":[{"name":"보훈식당","tel":"031-257-6193","addr":"경기도 수원시 장안구 조원동 516-6번지 1층","indutype":"일반휴게음식 - 일반한식","category":"restaurant"}]},{"lat":"37.302454774","long":"127.01608986","imageIndex":4,"items":[{"name":"봉구스밥버거(조원점)","tel":"031-247-0909","addr":"경기도 수원시 장안구 조원동 731-7번지 1층","indutype":"일반휴게음식 - 스넥","category":"restaurant"}]},{"lat":"37.299346091","long":"127.01738637","imageIndex":4,"items":[{"name":"봉이치킨 (조원점)","tel":"031-207-9655","addr":"경기도 수원시 장안구 조원동 740-1번지","indutype":"일반휴게음식 - 스넥","category":"restaurant"}]},{"lat":"37.297508352","long":"127.01417167","imageIndex":4,"items":[{"name":"봉화연탄불고기","tel":"031-241-4474","addr":"경기도 수원시 장안구 조원동 774-5번지","indutype":"일반휴게음식 - 일반한식","category":"restaurant"},{"name":"불새","tel":"031-207-9969","addr":"경기도 수원시 장안구 조원동 774-5번지","indutype":"일반휴게음식 - 주점","category":"restaurant"}]},{"lat":"37.303347094","long":"127.01297693","imageIndex":4,"items":[{"name":"부경정","tel":"031-243-2300","addr":"경기도 수원시 장안구 조원동 728-31번지 1층","indutype":"일반휴게음식 - 일반한식","category":"restaurant"},{"name":"이호낙지","tel":"031-255-5551","addr":"경기도 수원시 장안구 조원동 728-31번지 2층","indutype":"일반휴게음식 - 일반한식","category":"restaurant"}]},{"lat":"37.300013133","long":"127.01483749","imageIndex":4,"items":[{"name":"부자치킨","tel":"031-241-2777","addr":"경기도 수원시 장안구 조원동 766-13번지","indutype":"일반휴게음식 - 일반한식","category":"restaurant"}]},{"lat":"37.300543959","long":"127.02097328","imageIndex":4,"items":[{"name":"브솔시냇가","tel":"031-254-0780","addr":"경기도 수원시 장안구 조원동 467-41번지 1층","indutype":"일반휴게음식 - 서양음식","category":"restaurant"}]},{"lat":"37.301563303","long":"127.00967194","imageIndex":4,"items":[{"name":"비비큐","tel":"031-253-1555","addr":"경기도 수원시 장안구 조원동 752-18번지 2층","indutype":"일반휴게음식 - 스넥","category":"restaurant"},{"name":"전설의포차","tel":"070-7763-5026","addr":"경기도 수원시 장안구 조원동 752-18번지 1 202호","indutype":"일반휴게음식 - 일반한식","category":"restaurant"}]},{"lat":"37.30201379","long":"127.01008931","imageIndex":4,"items":[{"name":"비쥬","tel":"031-255-4667","addr":"경기도 수원시 장안구 조원동 752번지 203호","indutype":"일반휴게음식 - 주점","category":"restaurant"}]},{"lat":"37.297814638","long":"127.01480331","imageIndex":4,"items":[{"name":"뽕이돈까스","tel":"031-251-2512","addr":"경기도 수원시 장안구 조원동 774번지 조원빌딩","indutype":"일반휴게음식 - 서양음식","category":"restaurant"},{"name":"장수면옥","tel":"","addr":"경기도 수원시 장안구 조원동 774번지 조원빌딩 1층","indutype":"일반휴게음식 - 일반한식","category":"restaurant"},{"name":"장실장네","tel":"031-251-7128","addr":"경기도 수원시 장안구 조원동 774번지 조원빌딩 1층","indutype":"일반휴게음식 - 일반한식","category":"restaurant"}]},{"lat":"37.299652813","long":"127.01392385","imageIndex":4,"items":[{"name":"사랑이네 베트남쌀국수","tel":"","addr":"경기도 수원시 장안구 조원동 759-5번지","indutype":"일반휴게음식 - 서양음식","category":"restaurant"},{"name":"황금막창","tel":"070-4946-5181","addr":"경기도 수원시 장안구 조원동 759-5번지 1층","indutype":"일반휴게음식 - 일반한식","category":"restaurant"}]},{"lat":"37.301428136","long":"127.00989751","imageIndex":4,"items":[{"name":"삼구포차(북수원)","tel":"031-245-3900","addr":"경기도 수원시 장안구 조원동 752-16번지 2층","indutype":"일반휴게음식 - 일반한식","category":"restaurant"},{"name":"옥이이모","tel":"031-242-3559","addr":"경기도 수원시 장안구 조원동 752-16번지 1층","indutype":"일반휴게음식 - 일반한식","category":"restaurant"}]},{"lat":"37.299265018","long":"127.01722845","imageIndex":4,"items":[{"name":"삼순이식당","tel":"031-308-3338","addr":"경기도 수원시 장안구 조원동 740-2번지 A동 1층","indutype":"일반휴게음식 - 일반한식","category":"restaurant"}]},{"lat":"37.303707482","long":"127.01322513","imageIndex":4,"items":[{"name":"삼시세끼김치찜","tel":"031-207-0075","addr":"경기도 수원시 장안구 조원동 727-16번지","indutype":"일반휴게음식 - 일반한식","category":"restaurant"}]},{"lat":"37.299570933","long":"127.02044295","imageIndex":4,"items":[{"name":"삼옥이네순대국","tel":"031-244-2378","addr":"경기도 수원시 장안구 조원동 525-8번지","indutype":"일반휴게음식 - 일반한식","category":"restaurant"}]},{"lat":"37.299066391","long":"127.02022853","imageIndex":4,"items":[{"name":"삼통치킨","tel":"031-257-3079","addr":"경기도 수원시 장안구 조원동 519-180번지","indutype":"일반휴게음식 - 일반한식","category":"restaurant"}]},{"lat":"37.299066846","long":"127.01677727","imageIndex":4,"items":[{"name":"상하이","tel":"031-241-1658","addr":"경기도 수원시 장안구 조원동 740-6번지 1층","indutype":"일반휴게음식 - 중국식","category":"restaurant"}]},{"lat":"37.301454614","long":"127.01630399","imageIndex":4,"items":[{"name":"서동진의커피랩2호점","tel":"031-248-9001","addr":"경기도 수원시 장안구 조원동 733-5번지","indutype":"일반휴게음식 - 일반한식","category":"restaurant"}]},{"lat":"37.301508973","long":"127.01336017","imageIndex":4,"items":[{"name":"선참치","tel":"031-251-3737","addr":"경기도 수원시 장안구 조원동 746-5번지 101호","indutype":"일반휴게음식 - 일식·회집","category":"restaurant"},{"name":"청춘찜닭","tel":"","addr":"경기도 수원시 장안구 조원동 746-5번지 1층","indutype":"일반휴게음식 - 일반한식","category":"restaurant"},{"name":"트루스비어(Truth비어)","tel":"031-248-0852","addr":"경기도 수원시 장안구 조원동 746-5번지 1층","indutype":"일반휴게음식 - 일반한식","category":"restaurant"}]},{"lat":"37.309203979","long":"127.00967263","imageIndex":4,"items":[{"name":"성당길화로구이","tel":"031-241-1990","addr":"경기도 수원시 장안구 조원동 131-2번지","indutype":"일반휴게음식 - 일반한식","category":"restaurant"}]},{"lat":"37.302013516","long":"127.01369862","imageIndex":4,"items":[{"name":"소곤소곤","tel":"","addr":"경기도 수원시 장안구 조원동 746-14번지 1층 1호","indutype":"일반휴게음식 - 서양음식","category":"restaurant"}]},{"lat":"37.304428422","long":"127.01172506","imageIndex":4,"items":[{"name":"소래버섯나라","tel":"031-251-6110","addr":"경기도 수원시 장안구 조원동 288-7번지 조원빌딩 8,9,10호1층","indutype":"일반휴게음식 - 일반한식","category":"restaurant"},{"name":"콩닥콩닭","tel":"031-241-4525","addr":"경기도 수원시 장안구 조원동 288-7번지 조원빌딩 1층 4호","indutype":"일반휴게음식 - 스넥","category":"restaurant"}]},{"lat":"37.301508842","long":"127.01474749","imageIndex":4,"items":[{"name":"소바씨바","tel":"","addr":"경기도 수원시 장안구 조원동 745-2번지 지하1층","indutype":"일반휴게음식 - 일반한식","category":"restaurant"}]},{"lat":"37.303563172","long":"127.01478165","imageIndex":4,"items":[{"name":"소풍길양념소갈비살","tel":"031-256-8859","addr":"경기도 수원시 장안구 조원동 725-9번지 1층","indutype":"일반휴게음식 - 일반한식","category":"restaurant"}]},{"lat":"37.301814933","long":"127.01708231","imageIndex":4,"items":[{"name":"손이가","tel":"031-252-5410","addr":"경기도 수원시 장안구 조원동 866-7번지 1층","indutype":"일반휴게음식 - 스넥","category":"restaurant"}]},{"lat":"37.304625839","long":"127.01930489","imageIndex":4,"items":[{"name":"솔리에보","tel":"070-4334-4644","addr":"경기도 수원시 장안구 조원동 351-3번지 평안교회 가동 지하1층","indutype":"일반휴게음식 - 서양음식","category":"restaurant"}]},{"lat":"37.301121708","long":"127.01113817","imageIndex":4,"items":[{"name":"수빈푸드","tel":"031-242-6512","addr":"경기도 수원시 장안구 조원동 754-10번지 재광빌딩 1층","indutype":"일반휴게음식 - 일반한식","category":"restaurant"}]},{"lat":"37.308374716","long":"127.01394769","imageIndex":4,"items":[{"name":"쉬어가다","tel":"031-111-1111","addr":"경기도 수원시 장안구 조원동 57-1번지 1층","indutype":"일반휴게음식 - 서양음식","category":"restaurant"}]},{"lat":"37.303869649","long":"127.0134169","imageIndex":4,"items":[{"name":"시골감자탕","tel":"031-244-7952","addr":"경기도 수원시 장안구 조원동 727번지 1층","indutype":"일반휴게음식 - 일반한식","category":"restaurant"}]},{"lat":"37.299454237","long":"127.01719465","imageIndex":4,"items":[{"name":"심쿵포차","tel":"031-251-3977","addr":"경기도 수원시 장안구 조원동 740번지 1층","indutype":"일반휴게음식 - 주점","category":"restaurant"},{"name":"큰맘할매순대국","tel":"031-243-8279","addr":"경기도 수원시 장안구 조원동 740번지 1층","indutype":"일반휴게음식 - 일반한식","category":"restaurant"}]},{"lat":"37.303455222","long":"127.01292055","imageIndex":4,"items":[{"name":"씨.후레쉬(Sea Fresh)","tel":"031-242-2920","addr":"경기도 수원시 장안구 조원동 728-19번지","indutype":"일반휴게음식 - 일반한식","category":"restaurant"},{"name":"최다연샤브샤브","tel":"031-245-6889","addr":"경기도 수원시 장안구 조원동 728-19 동소 728-30/1층","indutype":"일반휴게음식 - 일반한식","category":"restaurant"}]},{"lat":"37.299986074","long":"127.01511945","imageIndex":4,"items":[{"name":"아구와낙지","tel":"031-247-6186","addr":"경기도 수원시 장안구 조원동 766-1번지 103호","indutype":"일반휴게음식 - 일반한식","category":"restaurant"}]},{"lat":"37.306536571","long":"127.01455653","imageIndex":4,"items":[{"name":"아낌없이주는나무","tel":"070-4827-3328","addr":"경기도 수원시 장안구 조원동 52-1번지 서문교회","indutype":"일반휴게음식 - 스넥","category":"restaurant"}]},{"lat":"37.30432008","long":"127.01428548","imageIndex":4,"items":[{"name":"아이엠꼬마김밥","tel":"","addr":"경기도 수원시 장안구 조원동 725-18번지","indutype":"일반휴게음식 - 스넥","category":"restaurant"}]},{"lat":"37.305176209","long":"127.012526","imageIndex":4,"items":[{"name":"아주좋은우리동네커피집","tel":"031-251-5020","addr":"경기도 수원시 장안구 조원동 101-4번지 조원대간타워 101호","indutype":"일반휴게음식 - 서양음식","category":"restaurant"},{"name":"항아리보쌈조원점","tel":"031-235-1333","addr":"경기도 수원시 장안구 조원동 101-4번지","indutype":"일반휴게음식 - 일반한식","category":"restaurant"}]},{"lat":"37.298427254","long":"127.01558162","imageIndex":4,"items":[{"name":"알콩달콩 커피","tel":"050-5306-1472","addr":"경기도 수원시 장안구 조원동 769-15번지","indutype":"일반휴게음식 - 서양음식","category":"restaurant"}]},{"lat":"37.29637305","long":"127.01428428","imageIndex":4,"items":[{"name":"야구광의시 이자카야","tel":"","addr":"경기도 수원시 장안구 조원동 780-3번지 1층 103호","indutype":"일반휴게음식 - 일식·회집","category":"restaurant"}]},{"lat":"37.299120891","long":"127.0169239","imageIndex":4,"items":[{"name":"야미가","tel":"031-248-4006","addr":"경기도 수원시 장안구 조원동 740-5번지 1층","indutype":"일반휴게음식 - 일반한식","category":"restaurant"}]},{"lat":"37.304707547","long":"127.01400355","imageIndex":4,"items":[{"name":"양꼬치앤칭다오","tel":"070-4068-6858","addr":"경기도 수원시 장안구 조원동 846-4번지 1층","indutype":"일반휴게음식 - 일반한식","category":"restaurant"}]},{"lat":"37.300733975","long":"127.01461202","imageIndex":4,"items":[{"name":"양숙이네순대국밥","tel":"031-269-8836","addr":"경기도 수원시 장안구 조원동 744-19번지","indutype":"일반휴게음식 - 일반한식","category":"restaurant"}]},{"lat":"37.301508537","long":"127.01747701","imageIndex":4,"items":[{"name":"어달촌","tel":"031-241-8020","addr":"경기도 수원시 장안구 조원동 866-4번지 나영빌 1층","indutype":"일반휴게음식 - 주점","category":"restaurant"}]},{"lat":"37.301986449","long":"127.0140821","imageIndex":4,"items":[{"name":"엄마손눈꽃빙수","tel":"","addr":"경기도 수원시 장안구 조원동 745번지 1층 103호","indutype":"일반휴게음식 - 일반한식","category":"restaurant"}]},{"lat":"37.296958748","long":"127.01394602","imageIndex":4,"items":[{"name":"에이투플러스(A2+)","tel":"","addr":"경기도 수원시 장안구 조원동 779-1번지 유래빌딩 2층","indutype":"일반휴게음식 - 서양음식","category":"restaurant"}]},{"lat":"37.295454134","long":"127.0128631","imageIndex":4,"items":[{"name":"연탄삼겹","tel":"031-244-5610","addr":"경기도 수원시 장안구 조원동 645-61번지 1층","indutype":"일반휴게음식 - 일반한식","category":"restaurant"}]},{"lat":"37.298146931","long":"127.02286749","imageIndex":4,"items":[{"name":"예그리나/아름학교","tel":"031-249-0167","addr":"경기도 수원시 장안구 조원동 495번지 경기도교육청 1호동 1층","indutype":"일반휴게음식 - 서양음식","category":"restaurant"}]},{"lat":"37.300454624","long":"127.01495035","imageIndex":4,"items":[{"name":"옛날통닭","tel":"031-243-9288","addr":"경기도 수원시 장안구 조원동 743-9번지 106호","indutype":"일반휴게음식 - 스넥","category":"restaurant"},{"name":"조원떡볶이","tel":"031-244-5602","addr":"경기도 수원시 장안구 조원동 743-9번지 104호","indutype":"일반휴게음식 - 스넥","category":"restaurant"}]},{"lat":"37.302482027","long":"127.01392427","imageIndex":4,"items":[{"name":"오르막길","tel":"","addr":"경기도 수원시 장안구 조원동 728-12번지 1층","indutype":"일반휴게음식 - 일반한식","category":"restaurant"}]},{"lat":"37.303067126","long":"127.01888722","imageIndex":4,"items":[{"name":"오븐과 숯불바베큐","tel":"031-246-4202","addr":"경기도 수원시 장안구 조원동 861번지 주공뉴타운 103호","indutype":"일반휴게음식 - 스넥","category":"restaurant"}]},{"lat":"37.300319279","long":"127.01669855","imageIndex":4,"items":[{"name":"오븐마루 수원조원점","tel":"031-252-5092","addr":"경기도 수원시 장안구 조원동 734-19번지 1층","indutype":"일반휴게음식 - 스넥","category":"restaurant"}]},{"lat":"37.302427953","long":"127.01405961","imageIndex":4,"items":[{"name":"우기스","tel":"031-203-7138","addr":"경기도 수원시 장안구 조원동 728-11번지","indutype":"일반휴게음식 - 서양음식","category":"restaurant"}]},{"lat":"37.296679561","long":"127.01244596","imageIndex":4,"items":[{"name":"원조송탄 숯고개부대찌개","tel":"031-242-1458","addr":"경기도 수원시 장안구 조원동 778-7번지 1층","indutype":"일반휴게음식 - 일반한식","category":"restaurant"}]},{"lat":"37.30170746","long":"127.00978475","imageIndex":4,"items":[{"name":"원할머니보쌈족발 박가부대찌개 조원점","tel":"031-244-5252","addr":"경기도 수원시 장안구 조원동 752-19번지 2층","indutype":"일반휴게음식 - 일반한식","category":"restaurant"},{"name":"콩닥콩닭운동장점","tel":"031-242-9292","addr":"경기도 수원시 장안구 조원동 752-19번지 1층","indutype":"일반휴게음식 - 스넥","category":"restaurant"}]},{"lat":"37.303788416","long":"127.01489448","imageIndex":4,"items":[{"name":"웨일스타운(WHALE''S TOWN)","tel":"","addr":"경기도 수원시 장안구 조원동 725-7번지 105호","indutype":"일반휴게음식 - 서양음식","category":"restaurant"},{"name":"한우동조원점","tel":"031-251-9777","addr":"경기도 수원시 장안구 조원동 725-7번지 102호","indutype":"일반휴게음식 - 일반한식","category":"restaurant"}]},{"lat":"37.302896403","long":"127.01489434","imageIndex":4,"items":[{"name":"은자네만두","tel":"031-251-8435","addr":"경기도 수원시 장안구 조원동 730-8번지","indutype":"일반휴게음식 - 스넥","category":"restaurant"}]},{"lat":"37.295985878","long":"127.0110361","imageIndex":4,"items":[{"name":"이공치킨","tel":"031-241-3120","addr":"경기도 수원시 장안구 조원동 776-9번지 1층","indutype":"일반휴게음식 - 스넥","category":"restaurant"},{"name":"청미식당","tel":"031-246-6281","addr":"경기도 수원시 장안구 조원동 776-9번지","indutype":"일반휴게음식 - 일반한식","category":"restaurant"}]},{"lat":"37.295931588","long":"127.01386692","imageIndex":4,"items":[{"name":"이구커피","tel":"","addr":"경기도 수원시 장안구 조원동 637-3번지 101호","indutype":"일반휴게음식 - 서양음식","category":"restaurant"}]},{"lat":"37.302680053","long":"127.01588688","imageIndex":4,"items":[{"name":"이디야수원조원점","tel":"031-255-7965","addr":"경기도 수원시 장안구 조원동 731-6번지 1층 102호","indutype":"일반휴게음식 - 서양음식","category":"restaurant"}]},{"lat":"37.300707252","long":"127.01092382","imageIndex":4,"items":[{"name":"이비가짬뽕수원KT위즈파크점","tel":"031-207-6550","addr":"경기도 수원시 장안구 조원동 753-15번지 1층","indutype":"일반휴게음식 - 중국식","category":"restaurant"}]},{"lat":"37.303094505","long":"127.01605614","imageIndex":4,"items":[{"name":"이삭토스트수원조원점","tel":"031-258-2492","addr":"경기도 수원시 장안구 조원동 859-3번지 뉴타운프라자 106호","indutype":"일반휴게음식 - 스넥","category":"restaurant"}]},{"lat":"37.299319437","long":"127.01388997","imageIndex":4,"items":[{"name":"이성호옛날순대국","tel":"031-244-6636","addr":"경기도 수원시 장안구 조원동 765번지 1층 102,103호","indutype":"일반휴게음식 - 일반한식","category":"restaurant"}]},{"lat":"37.295733629","long":"127.01047217","imageIndex":4,"items":[{"name":"이은영모듬김치찌개","tel":"031-241-1253","addr":"경기도 수원시 장안구 조원동 664-2번지","indutype":"일반휴게음식 - 일반한식","category":"restaurant"}]},{"lat":"37.300706877","long":"127.01527748","imageIndex":4,"items":[{"name":"이조순대감자탕","tel":"031-248-3009","addr":"경기도 수원시 장안구 조원동 743-7번지 102호","indutype":"일반휴게음식 - 일반한식","category":"restaurant"},{"name":"쫄보왕족발","tel":"031-256-2555","addr":"경기도 수원시 장안구 조원동 743-7번지","indutype":"일반휴게음식 - 일반한식","category":"restaurant"}]},{"lat":"37.301869633","long":"127.0099765","imageIndex":4,"items":[{"name":"이차돌장안구청점","tel":"031-111-1111","addr":"경기도 수원시 장안구 조원동 752-22번지","indutype":"일반휴게음식 - 일반한식","category":"restaurant"}]},{"lat":"37.309285049","long":"127.0100336","imageIndex":4,"items":[{"name":"일미식당","tel":"031-244-5592","addr":"경기도 수원시 장안구 조원동 131번지 A ,B,C동","indutype":"일반휴게음식 - 일반한식","category":"restaurant"}]},{"lat":"37.299788012","long":"127.01341633","imageIndex":4,"items":[{"name":"임가네칡냉면","tel":"031-251-2672","addr":"경기도 수원시 장안구 조원동 760-1번지","indutype":"일반휴게음식 - 일반한식","category":"restaurant"}]},{"lat":"37.298147936","long":"127.01558158","imageIndex":4,"items":[{"name":"작은사랑","tel":"031-246-3004","addr":"경기도 수원시 장안구 조원동 770-12번지 1층","indutype":"일반휴게음식 - 일반한식","category":"restaurant"}]},{"lat":"37.308645012","long":"127.01406053","imageIndex":4,"items":[{"name":"장수촌","tel":"031-248-0502","addr":"경기도 수원시 장안구 조원동 58번지","indutype":"일반휴게음식 - 일반한식","category":"restaurant"}]},{"lat":"37.30373455","long":"127.01278524","imageIndex":4,"items":[{"name":"장수추어탕","tel":"031-245-8850","addr":"경기도 수원시 장안구 조원동 851-4번지 미락 1층","indutype":"일반휴게음식 - 일반한식","category":"restaurant"}]},{"lat":"37.301869616","long":"127.01025848","imageIndex":4,"items":[{"name":"장안먹거리","tel":"031-8013-3838","addr":"경기도 수원시 장안구 조원동 752-2번지 2층","indutype":"일반휴게음식 - 일반한식","category":"restaurant"}]},{"lat":"37.29850777","long":"127.02013818","imageIndex":4,"items":[{"name":"전설의치킨","tel":"031-241-8488","addr":"경기도 수원시 장안구 조원동 519-37번지","indutype":"일반휴게음식 - 스넥","category":"restaurant"}]},{"lat":"37.294877342","long":"127.014363","imageIndex":4,"items":[{"name":"전통잔치","tel":"031-253-3495","addr":"경기도 수원시 장안구 조원동 639-19번지","indutype":"일반휴게음식 - 일반한식","category":"restaurant"}]},{"lat":"37.308681122","long":"127.01330477","imageIndex":4,"items":[{"name":"정가네외양간","tel":"031-257-5667","addr":"경기도 수원시 장안구 조원동 78-10번지","indutype":"일반휴게음식 - 일반한식","category":"restaurant"}]},{"lat":"37.300986384","long":"127.01330371","imageIndex":4,"items":[{"name":"조원점 굽네치킨","tel":"031-241-9294","addr":"경기도 수원시 장안구 조원동 757-3번지 1층","indutype":"일반휴게음식 - 일반한식","category":"restaurant"},{"name":"조은친구","tel":"031-257-9713","addr":"경기도 수원시 장안구 조원동 757-3번지","indutype":"일반휴게음식 - 주점","category":"restaurant"}]},{"lat":"37.298454216","long":"127.01620195","imageIndex":4,"items":[{"name":"조원치킨","tel":"031-269-3641","addr":"경기도 수원시 장안구 조원동 770번지","indutype":"일반휴게음식 - 일반한식","category":"restaurant"}]},{"lat":"37.296319199","long":"127.01183689","imageIndex":4,"items":[{"name":"주인장","tel":"031-243-9382","addr":"경기도 수원시 장안구 조원동 777-4번지","indutype":"일반휴게음식 - 일반한식","category":"restaurant"}]},{"lat":"37.303923744","long":"127.01303341","imageIndex":4,"items":[{"name":"진포 숯불돼지갈비","tel":"031-891-2358","addr":"경기도 수원시 장안구 조원동 851-2번지 정원빌","indutype":"일반휴게음식 - 일반한식","category":"restaurant"}]},{"lat":"37.300346758","long":"127.0120855","imageIndex":4,"items":[{"name":"참치집","tel":"","addr":"경기도 수원시 장안구 조원동 753-21번지 101호","indutype":"일반휴게음식 - 일식·회집","category":"restaurant"}]},{"lat":"37.30465297","long":"127.01856045","imageIndex":4,"items":[{"name":"청춘면가","tel":"031-241-9994","addr":"경기도 수원시 장안구 조원동 357번지","indutype":"일반휴게음식 - 일반한식","category":"restaurant"}]},{"lat":"37.302040793","long":"127.0105292","imageIndex":4,"items":[{"name":"초밥집","tel":"031-256-5632","addr":"경기도 수원시 장안구 조원동 750-26번지 1층","indutype":"일반휴게음식 - 일식·회집","category":"restaurant"}]},{"lat":"37.299787598","long":"127.01734134","imageIndex":4,"items":[{"name":"치맥라이프","tel":"031-000-0000","addr":"경기도 수원시 장안구 조원동 739-24번지 1층","indutype":"일반휴게음식 - 스넥","category":"restaurant"},{"name":"토속촌","tel":"031-254-8770","addr":"경기도 수원시 장안구 조원동 739-24번지","indutype":"일반휴게음식 - 일반한식","category":"restaurant"}]},{"lat":"37.299454169","long":"127.01774731","imageIndex":4,"items":[{"name":"카스톡스","tel":"031-248-2767","addr":"경기도 수원시 장안구 조원동 739-19번지 1층","indutype":"일반휴게음식 - 일반한식","category":"restaurant"}]},{"lat":"37.304040726","long":"127.01466894","imageIndex":4,"items":[{"name":"카페슈","tel":"031-257-9800","addr":"경기도 수원시 장안구 조원동 725-4번지 월드빌 101호","indutype":"일반휴게음식 - 일반한식","category":"restaurant"}]},{"lat":"37.307986696","long":"127.01900106","imageIndex":4,"items":[{"name":"카페파라","tel":"070-5121-9192","addr":"경기도 수원시 장안구 조원동 25번지 다송 G동 1층","indutype":"일반휴게음식 - 서양음식","category":"restaurant"}]},{"lat":"37.2995357","long":"127.01369826","imageIndex":4,"items":[{"name":"카페혜시","tel":"031-258-6529","addr":"경기도 수원시 장안구 조원동 760-4번지 4층 조원보석사우나","indutype":"일반휴게음식 - 서양음식","category":"restaurant"}]},{"lat":"37.301814978","long":"127.01669882","imageIndex":4,"items":[{"name":"커피하우스","tel":"031-253-9835","addr":"경기도 수원시 장안구 조원동 735-1번지 근영빌딩 1층","indutype":"일반휴게음식 - 서양음식","category":"restaurant"}]},{"lat":"37.304428217","long":"127.01413886","imageIndex":4,"items":[{"name":"커피홍","tel":"031-307-5599","addr":"경기도 수원시 장안구 조원동 725번지","indutype":"일반휴게음식 - 서양음식","category":"restaurant"}]},{"lat":"37.300202133","long":"127.01681131","imageIndex":4,"items":[{"name":"키다리아저씨","tel":"031-223-0496","addr":"경기도 수원시 장안구 조원동 734-18번지 성모빌딩 3층","indutype":"일반휴게음식 - 주점","category":"restaurant"}]},{"lat":"37.295066908","long":"127.00986309","imageIndex":4,"items":[{"name":"키다리아저씨","tel":"031-223-0496","addr":"경기도 수원시 장안구 조원동 675-4번지 조원샤르망 104호","indutype":"일반휴게음식 - 일반한식","category":"restaurant"}]},{"lat":"37.301319291","long":"127.01772512","imageIndex":4,"items":[{"name":"태평김치찌개","tel":"031-223-5214","addr":"경기도 수원시 장안구 조원동 866-2번지","indutype":"일반휴게음식 - 일반한식","category":"restaurant"}]},{"lat":"37.303815634","long":"127.01288676","imageIndex":4,"items":[{"name":"택이네 조개전골&칼국수","tel":"031-252-1779","addr":"경기도 수원시 장안구 조원동 851-3번지 성은빌","indutype":"일반휴게음식 - 일반한식","category":"restaurant"}]},{"lat":"37.300175537","long":"127.01242385","imageIndex":4,"items":[{"name":"토속함지박","tel":"031-252-5150","addr":"경기도 수원시 장안구 조원동 762-1번지","indutype":"일반휴게음식 - 일반한식","category":"restaurant"}]},{"lat":"37.299904759","long":"127.01711578","imageIndex":4,"items":[{"name":"토암골옛날막창","tel":"031-258-8333","addr":"경기도 수원시 장안구 조원동 739-26번지 1층일부","indutype":"일반휴게음식 - 일반한식","category":"restaurant"}]},{"lat":"37.301373674","long":"127.0148941","imageIndex":4,"items":[{"name":"티기고굴리고","tel":"070-7420-6815","addr":"경기도 수원시 장안구 조원동 743번지 1층","indutype":"일반휴게음식 - 일반한식","category":"restaurant"}]},{"lat":"37.300292473","long":"127.01461196","imageIndex":4,"items":[{"name":"페리카나(조원점)","tel":"031-252-5675","addr":"경기도 수원시 장안구 조원동 757-23번지 1층 106호","indutype":"일반휴게음식 - 스넥","category":"restaurant"},{"name":"홍가네솥뚜껑생삽겹살","tel":"031-241-8985","addr":"경기도 수원시 장안구 조원동 757-23번지","indutype":"일반휴게음식 - 일반한식","category":"restaurant"}]},{"lat":"37.301265485","long":"127.0155257","imageIndex":4,"items":[{"name":"함흥면옥","tel":"","addr":"경기도 수원시 장안구 조원동 733-13번지","indutype":"일반휴게음식 - 일반한식","category":"restaurant"}]},{"lat":"37.295598327","long":"127.01250222","imageIndex":4,"items":[{"name":"햄마니 부대찌개","tel":"031-246-3363","addr":"경기도 수원시 장안구 조원동 782-22번지 1층","indutype":"일반휴게음식 - 서양음식","category":"restaurant"}]},{"lat":"37.297823663","long":"127.01465669","imageIndex":4,"items":[{"name":"행복한 밥상","tel":"031-241-9688","addr":"경기도 수원시 장안구 조원동 774-2번지 A동 1층","indutype":"일반휴게음식 - 일반한식","category":"restaurant"}]},{"lat":"37.299481595","long":"127.01417196","imageIndex":4,"items":[{"name":"화덕애","tel":"031-244-6775","addr":"경기도 수원시 장안구 조원동 766-8번지 101호","indutype":"일반휴게음식 - 일반한식","category":"restaurant"}]},{"lat":"37.300067478","long":"127.0115892","imageIndex":4,"items":[{"name":"황봉삼계탕&간고등어","tel":"031-257-9915","addr":"경기도 수원시 장안구 조원동 753-12번지","indutype":"일반휴게음식 - 일반한식","category":"restaurant"}]},{"lat":"37.297931809","long":"127.01441986","imageIndex":4,"items":[{"name":"황성정","tel":"031-241-2287","addr":"경기도 수원시 장안구 조원동 763-17번지","indutype":"일반휴게음식 - 일반한식","category":"restaurant"}]},{"lat":"37.302293096","long":"127.01028108","imageIndex":4,"items":[{"name":"회타운","tel":"031-253-8900","addr":"경기도 수원시 장안구 조원동 750-33번지","indutype":"일반휴게음식 - 일반한식","category":"restaurant"}]}]