[{"lat":"37.003660535","long":"127.26812565","imageIndex":7,"items":[{"name":"대교정육점","tel":"031-674-2768","addr":"경기도 안성시 인지동 449-1번지","indutype":"음료식품 - 정육점","category":"food"},{"name":"안성제분소","tel":"031-673-0855","addr":"경기도 안성시 인지동 449-1번지 안성제분소","indutype":"음료식품 - 제과점","category":"food"}]},{"lat":"37.004523061","long":"127.26924091","imageIndex":7,"items":[{"name":"대진농산","tel":"031-676-3280","addr":"경기도 안성시 인지동 385-31번지","indutype":"음료식품 - 농·축·수산품","category":"food"}]},{"lat":"37.004330099","long":"127.2668809","imageIndex":7,"items":[{"name":"먹보네","tel":"031-677-9838","addr":"경기도 안성시 인지동 461-33번지","indutype":"음료식품 - 농·축·수산품","category":"food"}]},{"lat":"37.004498018","long":"127.26835326","imageIndex":7,"items":[{"name":"명품주류","tel":"031-677-3250","addr":"경기도 안성시 인지동 419-2번지","indutype":"음료식품 - 기타음료식품","category":"food"}]},{"lat":"37.005135353","long":"127.26943404","imageIndex":7,"items":[{"name":"민경이네","tel":"00-0000-00","addr":"경기도 안성시 인지동 388-2번지","indutype":"음료식품 - 농·축·수산품","category":"food"}]},{"lat":"37.004830001","long":"127.26898358","imageIndex":7,"items":[{"name":"바른영양","tel":"031-000-0000","addr":"경기도 안성시 인지동 385-43번지 1층","indutype":"건강식품 - 기타건강식품","category":"food"}]},{"lat":"37.004245168","long":"127.26859955","imageIndex":7,"items":[{"name":"복인당","tel":"031-675-8382","addr":"경기도 안성시 인지동 426-23번지","indutype":"음료식품 - 기타음료식품","category":"food"},{"name":"우리동네 담뱃잎 가게","tel":"031-1111-1111","addr":"경기도 안성시 인지동 426-23번지 1층","indutype":"음료식품 - 기타음료식품","category":"food"}]},{"lat":"37.005606095","long":"127.26845823","imageIndex":7,"items":[{"name":"삼양상회","tel":"031-675-5281","addr":"경기도 안성시 인지동 356-5번지","indutype":"음료식품 - 기타음료식품","category":"food"}]},{"lat":"37.00391396","long":"127.26762096","imageIndex":7,"items":[{"name":"신현제분소","tel":"031-675-6465","addr":"경기도 안성시 인지동 426-9번지","indutype":"음료식품 - 미곡상","category":"food"}]},{"lat":"37.0049935","long":"127.26839992","imageIndex":7,"items":[{"name":"안성청과","tel":"031-671-3744","addr":"경기도 안성시 인지동 462-7번지","indutype":"음료식품 - 농·축·수산품","category":"food"}]},{"lat":"37.00541027","long":"127.26737898","imageIndex":7,"items":[{"name":"안흥석유사","tel":"031-675-3550","addr":"경기도 안성시 인지동 409-3번지","indutype":"음료식품 - 기타음료식품","category":"food"}]},{"lat":"37.005494463","long":"127.27001952","imageIndex":7,"items":[{"name":"오흥정육점","tel":"031-675-6058","addr":"경기도 안성시 인지동 362-2번지","indutype":"음료식품 - 정육점","category":"food"}]},{"lat":"37.004303571","long":"127.27067821","imageIndex":7,"items":[{"name":"우촌정육점","tel":"031-675-3314","addr":"경기도 안성시 인지동 106번지","indutype":"음료식품 - 정육점","category":"food"}]},{"lat":"37.005388532","long":"127.2690417","imageIndex":7,"items":[{"name":"정담은 정육점","tel":"031-677-3855","addr":"경기도 안성시 인지동 390-35번지 101호","indutype":"음료식품 - 정육점","category":"food"}]},{"lat":"37.004639644","long":"127.26948849","imageIndex":7,"items":[{"name":"제일탕제원","tel":"031-674-6384","addr":"경기도 안성시 인지동 385-50번지","indutype":"건강식품 - 기타건강식품","category":"food"}]},{"lat":"37.003326263","long":"127.26851771","imageIndex":7,"items":[{"name":"종표유통","tel":"031-675-3688","addr":"경기도 안성시 인지동 449-7번지","indutype":"음료식품 - 기타음료식품","category":"food"}]},{"lat":"37.004665868","long":"127.2698481","imageIndex":7,"items":[{"name":"체리부로안성대리점","tel":"031-677-7801","addr":"경기도 안성시 인지동 384-1번지","indutype":"음료식품 - 정육점","category":"food"}]}]