[{"lat":"37.710772057","long":"127.40062397","imageIndex":4,"items":[{"name":"(주)느리세상레드포크","tel":"02-3141-8607","addr":"경기도 가평군 청평면 삼회리 85-7번지","indutype":"일반휴게음식 - 일반한식","category":"restaurant"}]},{"lat":"37.666587489","long":"127.38473589","imageIndex":4,"items":[{"name":"MAMMA/애프터유","tel":"031-585-6583","addr":"경기도 가평군 청평면 삼회리 490-1번지 (490-3.490-8)","indutype":"일반휴게음식 - 일반한식","category":"restaurant"},{"name":"애프터유","tel":"031-584-0155","addr":"경기도 가평군 청평면 삼회리 490-1 490-3.490-8","indutype":"일반휴게음식 - 일반한식","category":"restaurant"}]},{"lat":"37.669282834","long":"127.3814854","imageIndex":4,"items":[{"name":"너른마당","tel":"031-584-7844","addr":"경기도 가평군 청평면 삼회리 474-5번지","indutype":"일반휴게음식 - 일반한식","category":"restaurant"}]},{"lat":"37.69602538","long":"127.39192798","imageIndex":4,"items":[{"name":"느티나무아래서","tel":"031-585-8819","addr":"경기도 가평군 청평면 삼회리 205-1번지","indutype":"일반휴게음식 - 일반한식","category":"restaurant"}]},{"lat":"37.66311363","long":"127.38074006","imageIndex":4,"items":[{"name":"베네치아카페","tel":"031-584-8592","addr":"경기도 가평군 청평면 삼회리 598-7번지","indutype":"일반휴게음식 - 서양음식","category":"restaurant"}]},{"lat":"37.685690925","long":"127.38656834","imageIndex":4,"items":[{"name":"아마란스타운 주식회사 청평지점","tel":"031-584-4411","addr":"경기도 가평군 청평면 삼회리 279-11번지","indutype":"일반휴게음식 - 일반한식","category":"restaurant"},{"name":"아마란스타운주식회사청평지점","tel":"031-584-4411","addr":"경기도 가평군 청평면 삼회리 279-11번지","indutype":"일반휴게음식 - 일반한식","category":"restaurant"}]},{"lat":"37.661087475","long":"127.3804238","imageIndex":4,"items":[{"name":"어부네집","tel":"031-584-1264","addr":"경기도 가평군 청평면 삼회리 606번지","indutype":"일반휴게음식 - 일반한식","category":"restaurant"}]},{"lat":"37.705249056","long":"127.3979863","imageIndex":4,"items":[{"name":"여행스케치","tel":"031-585-4177","addr":"경기도 가평군 청평면 삼회리 122-6번지","indutype":"일반휴게음식 - 일반한식","category":"restaurant"}]},{"lat":"37.703326428","long":"127.39636587","imageIndex":4,"items":[{"name":"예나지나","tel":"031-584-1111","addr":"경기도 가평군 청평면 삼회리 108-9","indutype":"일반휴게음식 - 일반한식","category":"restaurant"}]},{"lat":"37.711384542","long":"127.40067261","imageIndex":4,"items":[{"name":"오늘은봄날","tel":"031-584-6911","addr":"경기도 가평군 청평면 삼회리 82-4번지 오늘은봄날","indutype":"일반휴게음식 - 일반한식","category":"restaurant"}]},{"lat":"37.667303925","long":"127.3832888","imageIndex":4,"items":[{"name":"은행나무이장님댁","tel":"031-585-7668","addr":"경기도 가평군 청평면 삼회리 464-3번지","indutype":"일반휴게음식 - 일반한식","category":"restaurant"}]},{"lat":"37.702334977","long":"127.39648537","imageIndex":4,"items":[{"name":"이경숙할머니음식점","tel":"031-584-0064","addr":"경기도 가평군 청평면 삼회리 189-37번지","indutype":"일반휴게음식 - 일반한식","category":"restaurant"}]},{"lat":"37.710160909","long":"127.40017842","imageIndex":4,"items":[{"name":"정원가든","tel":"031-584-3647","addr":"경기도 가평군 청평면 삼회리 94-1번지","indutype":"일반휴게음식 - 일반한식","category":"restaurant"}]},{"lat":"37.698299028","long":"127.39367469","imageIndex":4,"items":[{"name":"청평 돌짜장","tel":"031-585-3812","addr":"경기도 가평군 청평면 삼회리 181-9번지","indutype":"일반휴게음식 - 일반한식","category":"restaurant"}]},{"lat":"37.663943337","long":"127.38048359","imageIndex":4,"items":[{"name":"청평스카이타워","tel":"031-584-0750","addr":"경기도 가평군 청평면 삼회리 479-15번지 청평타워","indutype":"일반휴게음식 - 서양음식","category":"restaurant"}]},{"lat":"37.701273417","long":"127.39601485","imageIndex":4,"items":[{"name":"카페드모파상","tel":"","addr":"경기도 가평군 청평면 삼회리 189-22번지","indutype":"일반휴게음식 - 서양음식","category":"restaurant"}]},{"lat":"37.663392416","long":"127.38090014","imageIndex":4,"items":[{"name":"케니지","tel":"031-585-3252","addr":"경기도 가평군 청평면 삼회리 599번지","indutype":"일반휴게음식 - 서양음식","category":"restaurant"}]},{"lat":"37.670033074","long":"127.3945352","imageIndex":4,"items":[{"name":"팜스테이","tel":"031-584-9269","addr":"경기도 가평군 청평면 삼회리 425번지","indutype":"일반휴게음식 - 일반한식","category":"restaurant"},{"name":"팜스테이","tel":"070-2617-0499","addr":"경기도 가평군 청평면 삼회리 425번지","indutype":"일반휴게음식 - 일반한식","category":"restaurant"}]}]