[{"lat":"37.37106353","long":"127.2267058","imageIndex":0,"items":[{"name":"(주)신경안모터스","tel":"031-766-6114","addr":"경기도 광주시 오포읍 고산리 304-8번지","indutype":"자동차정비 유지 - 자동차정비","category":"car"}]},{"lat":"37.36834112","long":"127.2321165","imageIndex":0,"items":[{"name":"수연카공업사","tel":"031-766-8876","addr":"경기도 광주시 오포읍 고산리 233-3번지","indutype":"자동차정비 유지 - 자동차정비","category":"car"}]},{"lat":"37.38103788","long":"127.2404765","imageIndex":0,"items":[{"name":"스피드준서비스","tel":"031-888-9876","addr":"경기도 광주시 오포읍 고산리 25-6번지","indutype":"자동차정비 유지 - 자동차정비","category":"car"}]},{"lat":"37.37467185","long":"127.2384242","imageIndex":0,"items":[{"name":"에이엠","tel":"031-765-2562","addr":"경기도 광주시 오포읍 고산리 147-3번지","indutype":"자동차정비 유지 - 자동차부품","category":"car"}]},{"lat":"37.37342297","long":"127.2366478","imageIndex":0,"items":[{"name":"여름자동차공업사","tel":"031-768-5111","addr":"경기도 광주시 오포읍 고산리 157-1번지","indutype":"자동차정비 유지 - 자동차정비","category":"car"}]},{"lat":"37.37092486","long":"127.2332307","imageIndex":0,"items":[{"name":"우림카센타","tel":"031-768-0884","addr":"경기도 광주시 오포읍 고산리 183-6번지","indutype":"자동차정비 유지 - 자동차정비","category":"car"}]},{"lat":"37.38065422","long":"127.2385897","imageIndex":0,"items":[{"name":"카앤파츠","tel":"070-4189-0288","addr":"경기도 광주시 오포읍 고산리 33-3번지 오페라하우스 나동 302호","indutype":"자동차정비 유지 - 자동차부품","category":"car"}]},{"lat":"37.37223331","long":"127.2368135","imageIndex":0,"items":[{"name":"커스텀(CUSTOM FX KOREA)","tel":"070-8811-0076","addr":"경기도 광주시 오포읍 고산리 144-2번지 우측건물 1층","indutype":"자동차정비 유지 - 카인테리어","category":"car"}]}]