[{"lat":"37.183466596","long":"126.78694403","imageIndex":4,"items":[{"name":"공단집","tel":"","addr":"경기도 화성시 마도면 쌍송리 670-29번지 1층","indutype":"일반휴게음식 - 일반한식","category":"restaurant"}]},{"lat":"37.196882174","long":"126.79144498","imageIndex":4,"items":[{"name":"그린한식뷔페","tel":"031-356-9650","addr":"경기도 화성시 마도면 쌍송리 13-13번지 1층 101호","indutype":"일반휴게음식 - 일반한식","category":"restaurant"}]},{"lat":"37.184414751","long":"126.78807875","imageIndex":4,"items":[{"name":"꿈에본닭","tel":"031-357-9171","addr":"경기도 화성시 마도면 쌍송리 669-20번지","indutype":"일반휴게음식 - 스넥","category":"restaurant"},{"name":"해양마루한식부페","tel":"031-8995-7341","addr":"경기도 화성시 마도면 쌍송리 669-20번지","indutype":"일반휴게음식 - 일반한식","category":"restaurant"}]},{"lat":"37.182664326","long":"126.78675487","imageIndex":4,"items":[{"name":"대장금한식뷔페","tel":"031-356-5922","addr":"경기도 화성시 마도면 쌍송리 670-25번지 110호","indutype":"일반휴게음식 - 일반한식","category":"restaurant"},{"name":"화룡각","tel":"031-356-8928","addr":"경기도 화성시 마도면 쌍송리 670-25번지 1층","indutype":"일반휴게음식 - 중국식","category":"restaurant"}]},{"lat":"37.186049848","long":"126.79041657","imageIndex":4,"items":[{"name":"두리아바베큐치킨","tel":"031-356-9285","addr":"경기도 화성시 마도면 쌍송리 662번지 마도공구상가 가동 307호","indutype":"일반휴게음식 - 주점","category":"restaurant"},{"name":"평화식당","tel":"031-355-1811","addr":"경기도 화성시 마도면 쌍송리 662번지 지동 103호 마도공구유통 상가 ,104,105,106호","indutype":"일반휴게음식 - 일반한식","category":"restaurant"},{"name":"황금포차","tel":"031-355-0335","addr":"경기도 화성시 마도면 쌍송리 662번지 마도지구유통업무및지원시설 316호","indutype":"일반휴게음식 - 주점","category":"restaurant"}]},{"lat":"37.185217549","long":"126.78856073","imageIndex":4,"items":[{"name":"마도정육점식당","tel":"031-355-2549","addr":"경기도 화성시 마도면 쌍송리 669-2번지 2동","indutype":"일반휴게음식 - 일반한식","category":"restaurant"},{"name":"안동장터소고기국밥(화성마도점)","tel":"031-357-1602","addr":"경기도 화성시 마도면 쌍송리 669-2번지 4동 1층","indutype":"일반휴게음식 - 일반한식","category":"restaurant"}]},{"lat":"37.184577202","long":"126.78822469","imageIndex":4,"items":[{"name":"마도토종순대국","tel":"031-357-1197","addr":"경기도 화성시 마도면 쌍송리 669-19번지","indutype":"일반휴게음식 - 일반한식","category":"restaurant"},{"name":"통큰집생선구이&탕","tel":"031-355-9892","addr":"경기도 화성시 마도면 쌍송리 669-19번지","indutype":"일반휴게음식 - 일반한식","category":"restaurant"}]},{"lat":"37.18283025","long":"126.79386029","imageIndex":4,"items":[{"name":"미소진한식뷔페","tel":"031-355-3640","addr":"경기도 화성시 마도면 쌍송리 665-4번지","indutype":"일반휴게음식 - 위탁급식업","category":"restaurant"}]},{"lat":"37.188188848","long":"126.77769565","imageIndex":4,"items":[{"name":"민지한식뷔페","tel":"031-355-8073","addr":"경기도 화성시 마도면 쌍송리 410-4번지 1층","indutype":"일반휴게음식 - 일반한식","category":"restaurant"}]},{"lat":"37.184242614","long":"126.78756121","imageIndex":4,"items":[{"name":"백두산 양꼬치","tel":"031-355-1809","addr":"경기도 화성시 마도면 쌍송리 669-24번지","indutype":"일반휴게음식 - 일반한식","category":"restaurant"}]},{"lat":"37.1840253","long":"126.78697622","imageIndex":4,"items":[{"name":"술친구","tel":"031-356-3587","addr":"경기도 화성시 마도면 쌍송리 670-9번지 104~106호","indutype":"일반휴게음식 - 스넥","category":"restaurant"},{"name":"피치족포차","tel":"031-357-4385","addr":"경기도 화성시 마도면 쌍송리 670-9번지 101호","indutype":"일반휴게음식 - 서양음식","category":"restaurant"}]},{"lat":"37.184080979","long":"126.78786572","imageIndex":4,"items":[{"name":"쉐프 강정열의 차이나","tel":"031-358-5222","addr":"경기도 화성시 마도면 쌍송리 669-22번지 1동 1층","indutype":"일반휴게음식 - 중국식","category":"restaurant"}]},{"lat":"37.175248799","long":"126.786776","imageIndex":4,"items":[{"name":"신성푸드스토리","tel":"02-830-2205","addr":"경기도 화성시 마도면 쌍송리 691-8번지","indutype":"일반휴게음식 - 일반한식","category":"restaurant"}]},{"lat":"37.184216278","long":"126.78794417","imageIndex":4,"items":[{"name":"아이조아라","tel":"031-357-9732","addr":"경기도 화성시 마도면 쌍송리 669-21번지","indutype":"일반휴게음식 - 일반한식","category":"restaurant"}]},{"lat":"37.188799516","long":"126.79125354","imageIndex":4,"items":[{"name":"악어토스트커피","tel":"031-357-8732","addr":"경기도 화성시 마도면 쌍송리 141-59번지 1층","indutype":"일반휴게음식 - 서양음식","category":"restaurant"}]},{"lat":"37.185463184","long":"126.78986639","imageIndex":4,"items":[{"name":"예진분식","tel":"031-366-7853","addr":"경기도 화성시 마도면 쌍송리 662번지 나동 107호","indutype":"일반휴게음식 - 스넥","category":"restaurant"}]},{"lat":"37.187103675","long":"126.79019964","imageIndex":4,"items":[{"name":"요거프레소 마도산단점","tel":"031-355-1603","addr":"경기도 화성시 마도면 쌍송리 187-4번지","indutype":"일반휴게음식 - 서양음식","category":"restaurant"}]},{"lat":"37.190413659","long":"126.7820814","imageIndex":4,"items":[{"name":"윤가네한식부페","tel":"031-355-3185","addr":"경기도 화성시 마도면 쌍송리 290-3번지","indutype":"일반휴게음식 - 일반한식","category":"restaurant"}]},{"lat":"37.193600315","long":"126.79028279","imageIndex":4,"items":[{"name":"은장농원","tel":"031-357-4082","addr":"경기도 화성시 마도면 쌍송리 63-4번지 1층","indutype":"일반휴게음식 - 일반한식","category":"restaurant"}]},{"lat":"37.192075907","long":"126.78936352","imageIndex":4,"items":[{"name":"일류한식뷔페","tel":"","addr":"경기도 화성시 마도면 쌍송리 90번지","indutype":"일반휴게음식 - 일반한식","category":"restaurant"}]},{"lat":"37.18429686","long":"126.78766241","imageIndex":4,"items":[{"name":"참나무능이버섯백숙","tel":"031-356-5187","addr":"경기도 화성시 마도면 쌍송리 669-14번지","indutype":"일반휴게음식 - 일반한식","category":"restaurant"}]},{"lat":"37.198328715","long":"126.78914317","imageIndex":4,"items":[{"name":"큰손셀프밥상","tel":"031-355-4626","addr":"경기도 화성시 마도면 쌍송리 7-3번지 1층","indutype":"일반휴게음식 - 일반한식","category":"restaurant"}]},{"lat":"37.184970197","long":"126.79130927","imageIndex":4,"items":[{"name":"풍성한식당","tel":"031-355-4476","addr":"경기도 화성시 마도면 쌍송리 663-2번지","indutype":"일반휴게음식 - 위탁급식업","category":"restaurant"}]},{"lat":"37.183295953","long":"126.78724857","imageIndex":4,"items":[{"name":"한식부페다정","tel":"031-357-1584","addr":"경기도 화성시 마도면 쌍송리 670-19번지 1층","indutype":"일반휴게음식 - 일반한식","category":"restaurant"}]}]