[{"lat":"38.03186844","long":"127.1073061","imageIndex":17,"items":[{"name":"바른교육","tel":"031-1577-0000","addr":"경기도 연천군 청산면 궁평리 526-11번지 1층","indutype":"서적문구 - 일반서적","category":"other"}]},{"lat":"38.0314515","long":"127.1101074","imageIndex":17,"items":[{"name":"서진산업","tel":"031-833-1117","addr":"경기도 연천군 청산면 궁평리 154-3,68-7,73-4","indutype":"기타 - 기타 전문점","category":"other"}]},{"lat":"38.03200584","long":"127.1047207","imageIndex":17,"items":[{"name":"씨유연천궁평리점","tel":"031-832-8866","addr":"경기도 연천군 청산면 궁평리 531-3번지","indutype":"유통업 영리 - 편 의 점","category":"other"}]},{"lat":"38.03723311","long":"127.1125307","imageIndex":17,"items":[{"name":"예술문화단놀패","tel":"031-824-7542","addr":"경기도 연천군 청산면 궁평리 31-1번지","indutype":"문화.취미 - 티켓","category":"other"}]},{"lat":"38.02306665","long":"127.1071683","imageIndex":17,"items":[{"name":"원통목공예산업","tel":"032-571-5689","addr":"경기도 연천군 청산면 궁평리 381번지","indutype":"기타 - 기타 전문점","category":"other"}]},{"lat":"38.03473056","long":"127.1103856","imageIndex":17,"items":[{"name":"주식회사 파라데우스교육","tel":"070-8272-3809","addr":"경기도 연천군 청산면 궁평리 48-4번지","indutype":"서적문구 - 일반서적","category":"other"},{"name":"천자교육","tel":"070-8156-3282","addr":"경기도 연천군 청산면 궁평리 48-4번지","indutype":"회원제형태 - 서적","category":"other"}]},{"lat":"38.03636924","long":"127.1114473","imageIndex":17,"items":[{"name":"지오상상","tel":"","addr":"경기도 연천군 청산면 궁평리 38-10번지","indutype":"용역 서비스 - 종합용역","category":"other"}]},{"lat":"38.01595125","long":"127.1051085","imageIndex":17,"items":[{"name":"청송수목원","tel":"031-935-1802","addr":"경기도 연천군 청산면 궁평리 312","indutype":"농업 - 비료,사료,종자","category":"other"}]}]