[{"lat":"37.47022297","long":"127.3127215","imageIndex":4,"items":[{"name":"BHC 퇴촌점","tel":"031-768-9954","addr":"경기도 광주시 퇴촌면 광동리 173-7번지 샬롬빌딩","indutype":"일반휴게음식 - 스넥","category":"restaurant"},{"name":"오가다김밥","tel":"031-765-8643","addr":"경기도 광주시 퇴촌면 광동리 173-7번지 샬롬빌딩 1층","indutype":"일반휴게음식 - 스넥","category":"restaurant"},{"name":"커피나무","tel":"031-798-9309","addr":"경기도 광주시 퇴촌면 광동리 173-7번지 샬롬빌딩","indutype":"일반휴게음식 - 일반한식","category":"restaurant"}]},{"lat":"37.47071943","long":"127.308914","imageIndex":4,"items":[{"name":"ok능이마을 퇴촌점","tel":"031-761-4675","addr":"경기도 광주시 퇴촌면 광동리 241-3번지","indutype":"일반휴게음식 - 일반한식","category":"restaurant"}]},{"lat":"37.47163671","long":"127.3095847","imageIndex":4,"items":[{"name":"가마솥보리밥","tel":"031-767-1334","addr":"경기도 광주시 퇴촌면 광동리 190-2번지","indutype":"일반휴게음식 - 일반한식","category":"restaurant"},{"name":"퇴촌골남원추어탕","tel":"031-763-3537","addr":"경기도 광주시 퇴촌면 광동리 190-2번지 1층","indutype":"일반휴게음식 - 일반한식","category":"restaurant"}]},{"lat":"37.47008382","long":"127.3073288","imageIndex":4,"items":[{"name":"고구려","tel":"031-767-3207","addr":"경기도 광주시 퇴촌면 광동리 234-1번지","indutype":"일반휴게음식 - 일반한식","category":"restaurant"},{"name":"임실피자","tel":"031-766-2982","addr":"경기도 광주시 퇴촌면 광동리 234-1번지","indutype":"일반휴게음식 - 일반한식","category":"restaurant"},{"name":"카페토마토","tel":"031-766-5075","addr":"경기도 광주시 퇴촌면 광동리 234-1번지","indutype":"일반휴게음식 - 서양음식","category":"restaurant"}]},{"lat":"37.4715818","long":"127.3099123","imageIndex":4,"items":[{"name":"고기박사(퇴촌본점)","tel":"031-767-1596","addr":"경기도 광주시 퇴촌면 광동리 190-3번지","indutype":"일반휴게음식 - 일반한식","category":"restaurant"}]},{"lat":"37.47007562","long":"127.3104939","imageIndex":4,"items":[{"name":"광동반점","tel":"031-767-2079","addr":"경기도 광주시 퇴촌면 광동리 142번지 1층","indutype":"일반휴게음식 - 중국식","category":"restaurant"},{"name":"광동반점","tel":"031-767-2079","addr":"경기도 광주시 퇴촌면 광동리 142번지","indutype":"일반휴게음식 - 중국식","category":"restaurant"},{"name":"돈떡이네","tel":"031-766-2600","addr":"경기도 광주시 퇴촌면 광동리 142번지 1층","indutype":"일반휴게음식 - 일반한식","category":"restaurant"},{"name":"만득이감자탕","tel":"031-769-1452","addr":"경기도 광주시 퇴촌면 광동리 142번지","indutype":"일반휴게음식 - 일반한식","category":"restaurant"},{"name":"스위틴","tel":"070-4131-7505","addr":"경기도 광주시 퇴촌면 광동리 142번지","indutype":"일반휴게음식 - 서양음식","category":"restaurant"}]},{"lat":"37.47166399","long":"127.3129422","imageIndex":4,"items":[{"name":"구슬고개동태찜","tel":"031-767-1989","addr":"경기도 광주시 퇴촌면 광동리 177번지","indutype":"일반휴게음식 - 일반한식","category":"restaurant"}]},{"lat":"37.47135322","long":"127.3077183","imageIndex":4,"items":[{"name":"나는돼지","tel":"02-766-9233","addr":"경기도 광주시 퇴촌면 광동리 197-5번지 101호","indutype":"일반휴게음식 - 일반한식","category":"restaurant"}]},{"lat":"37.47155397","long":"127.3102174","imageIndex":4,"items":[{"name":"나리손짜장","tel":"031-763-1471","addr":"경기도 광주시 퇴촌면 광동리 182-3번지 1층","indutype":"일반휴게음식 - 일반한식","category":"restaurant"},{"name":"풀향기","tel":"031-798-3661","addr":"경기도 광주시 퇴촌면 광동리 182-3","indutype":"일반휴게음식 - 일반한식","category":"restaurant"}]},{"lat":"37.4702718","long":"127.3078043","imageIndex":4,"items":[{"name":"나주골","tel":"031-767-8636","addr":"경기도 광주시 퇴촌면 광동리 235-8번지","indutype":"일반휴게음식 - 일반한식","category":"restaurant"},{"name":"포차동아리","tel":"031-766-9292","addr":"경기도 광주시 퇴촌면 광동리 235-8번지","indutype":"일반휴게음식 - 일반한식","category":"restaurant"}]},{"lat":"37.47001974","long":"127.3111946","imageIndex":4,"items":[{"name":"너에게꼬치닭","tel":"","addr":"경기도 광주시 퇴촌면 광동리 144-3번지","indutype":"일반휴게음식 - 일반한식","category":"restaurant"},{"name":"장땡포차","tel":"","addr":"경기도 광주시 퇴촌면 광동리 144-3번지 1층","indutype":"일반휴게음식 - 일반한식","category":"restaurant"}]},{"lat":"37.47096833","long":"127.3136628","imageIndex":4,"items":[{"name":"다리집","tel":"031-767-9583","addr":"경기도 광주시 퇴촌면 광동리 176-2번지","indutype":"일반휴게음식 - 일반한식","category":"restaurant"}]},{"lat":"37.47180386","long":"127.3076636","imageIndex":4,"items":[{"name":"대복식당","tel":"031-763-3341","addr":"경기도 광주시 퇴촌면 광동리 192-1번지 연희빌딩","indutype":"일반휴게음식 - 일반한식","category":"restaurant"},{"name":"카페투","tel":"031-762-9480","addr":"경기도 광주시 퇴촌면 광동리 192-1번지 연희빌딩 1316호","indutype":"일반휴게음식 - 서양음식","category":"restaurant"},{"name":"콩깍지협동조합/공방까페콩깍지","tel":"031-769-8500","addr":"경기도 광주시 퇴촌면 광동리 192-1번지 연희빌딩 2층","indutype":"일반휴게음식 - 서양음식","category":"restaurant"}]},{"lat":"37.47169371","long":"127.3119136","imageIndex":4,"items":[{"name":"돌찻집","tel":"031-765-5562","addr":"경기도 광주시 퇴촌면 광동리 180번지 지하1층","indutype":"일반휴게음식 - 서양음식","category":"restaurant"}]},{"lat":"37.47013162","long":"127.3097481","imageIndex":4,"items":[{"name":"떠블떠블고기집","tel":"031-797-0977","addr":"경기도 광주시 퇴촌면 광동리 146-5번지","indutype":"일반휴게음식 - 일반한식","category":"restaurant"},{"name":"샘터","tel":"031-767-2144","addr":"경기도 광주시 퇴촌면 광동리 146-5번지","indutype":"일반휴게음식 - 주점","category":"restaurant"}]},{"lat":"37.4716057","long":"127.3076402","imageIndex":4,"items":[{"name":"또래오래 광주퇴촌점","tel":"031-797-9982","addr":"경기도 광주시 퇴촌면 광동리 197-3번지","indutype":"일반휴게음식 - 스넥","category":"restaurant"},{"name":"민희네","tel":"031-761-6268","addr":"경기도 광주시 퇴촌면 광동리 197-3번지","indutype":"일반휴게음식 - 일반한식","category":"restaurant"},{"name":"봉낭김밥","tel":"031-766-0720","addr":"경기도 광주시 퇴촌면 광동리 197-3번지 선진빌딩 1층","indutype":"일반휴게음식 - 스넥","category":"restaurant"},{"name":"삼수사","tel":"02-1111-1111","addr":"경기도 광주시 퇴촌면 광동리 197-3번지 선진빌딩 103호","indutype":"일반휴게음식 - 일반한식","category":"restaurant"},{"name":"서울갈비탕","tel":"","addr":"경기도 광주시 퇴촌면 광동리 197-3번지 선진빌딩 1층","indutype":"일반휴게음식 - 일반한식","category":"restaurant"},{"name":"송가네족발&보쌈하우스","tel":"031-767-6785","addr":"경기도 광주시 퇴촌면 광동리 197-3번지 1층","indutype":"일반휴게음식 - 일반한식","category":"restaurant"}]},{"lat":"37.47068684","long":"127.3075799","imageIndex":4,"items":[{"name":"또봉이통닭&59쌀피자","tel":"031-797-0717","addr":"경기도 광주시 퇴촌면 광동리 235-17번지","indutype":"일반휴게음식 - 스넥","category":"restaurant"},{"name":"사거리포차","tel":"","addr":"경기도 광주시 퇴촌면 광동리 235-17번지 1층","indutype":"일반휴게음식 - 일반한식","category":"restaurant"}]},{"lat":"37.47051999","long":"127.3093879","imageIndex":4,"items":[{"name":"랑호프","tel":"031-765-2700","addr":"경기도 광주시 퇴촌면 광동리 244-8번지","indutype":"일반휴게음식 - 주점","category":"restaurant"},{"name":"서울김밥","tel":"031-767-0507","addr":"경기도 광주시 퇴촌면 광동리 244-8번지","indutype":"일반휴게음식 - 스넥","category":"restaurant"}]},{"lat":"37.47165921","long":"127.3113257","imageIndex":4,"items":[{"name":"롯데리아 광주퇴촌점","tel":"031-769-1233","addr":"경기도 광주시 퇴촌면 광동리 182-5번지","indutype":"일반휴게음식 - 서양음식","category":"restaurant"}]},{"lat":"37.47091673","long":"127.3127243","imageIndex":4,"items":[{"name":"모퉁이","tel":"031-427-0052","addr":"경기도 광주시 퇴촌면 광동리 174-1번지 1층","indutype":"일반휴게음식 - 서양음식","category":"restaurant"}]},{"lat":"37.47024542","long":"127.3075555","imageIndex":4,"items":[{"name":"미도리","tel":"031-768-0753","addr":"경기도 광주시 퇴촌면 광동리 235-2번지","indutype":"일반휴게음식 - 일반한식","category":"restaurant"},{"name":"전주집","tel":"031-767-9903","addr":"경기도 광주시 퇴촌면 광동리 235-2번지","indutype":"일반휴게음식 - 일반한식","category":"restaurant"}]},{"lat":"37.47113125","long":"127.3133809","imageIndex":4,"items":[{"name":"배꼽시계칼국수","tel":"031-767-0460","addr":"경기도 광주시 퇴촌면 광동리 176-11번지","indutype":"일반휴게음식 - 일반한식","category":"restaurant"}]},{"lat":"37.4702505","long":"127.3055773","imageIndex":4,"items":[{"name":"벌판해장국","tel":"031-761-1011","addr":"경기도 광주시 퇴촌면 광동리 220-2번지 1층 1,2,3호","indutype":"일반휴게음식 - 일반한식","category":"restaurant"}]},{"lat":"37.47085437","long":"127.3089936","imageIndex":4,"items":[{"name":"불향기","tel":"031-763-8250","addr":"경기도 광주시 퇴촌면 광동리 241-2번지","indutype":"일반휴게음식 - 일반한식","category":"restaurant"}]},{"lat":"37.47024948","long":"127.309466","imageIndex":4,"items":[{"name":"소문난김밥","tel":"031-766-9262","addr":"경기도 광주시 퇴촌면 광동리 244-2번지","indutype":"일반휴게음식 - 스넥","category":"restaurant"}]},{"lat":"37.46991519","long":"127.3063333","imageIndex":4,"items":[{"name":"소풍","tel":"031-767-1334","addr":"경기도 광주시 퇴촌면 광동리 281-1번지","indutype":"일반휴게음식 - 서양음식","category":"restaurant"}]},{"lat":"37.4702171","long":"127.3080528","imageIndex":4,"items":[{"name":"시골집","tel":"031-769-3379","addr":"경기도 광주시 퇴촌면 광동리 236-2번지","indutype":"일반휴게음식 - 일반한식","category":"restaurant"}]},{"lat":"37.47174708","long":"127.3087147","imageIndex":4,"items":[{"name":"신촌설렁탕","tel":"031-797-9030","addr":"경기도 광주시 퇴촌면 광동리 191-1번지 1층","indutype":"일반휴게음식 - 일반한식","category":"restaurant"},{"name":"퇴촌왕돈까스","tel":"031-867-4847","addr":"경기도 광주시 퇴촌면 광동리 191-1번지 1층","indutype":"일반휴게음식 - 스넥","category":"restaurant"}]},{"lat":"37.46663195","long":"127.3112146","imageIndex":4,"items":[{"name":"엄지식당","tel":"031-767-5839","addr":"경기도 광주시 퇴촌면 광동리 126-1번지","indutype":"일반휴게음식 - 일반한식","category":"restaurant"}]},{"lat":"37.46957991","long":"127.307078","imageIndex":4,"items":[{"name":"연화식당","tel":"031-765-0905","addr":"경기도 광주시 퇴촌면 광동리 247-34번지","indutype":"일반휴게음식 - 일반한식","category":"restaurant"},{"name":"이가네함흥냉면","tel":"031-765-1993","addr":"경기도 광주시 퇴촌면 광동리 247-34번지 1층","indutype":"일반휴게음식 - 일반한식","category":"restaurant"},{"name":"퇴촌칼국수","tel":"031-763-9998","addr":"경기도 광주시 퇴촌면 광동리 247-34번지","indutype":"일반휴게음식 - 일반한식","category":"restaurant"},{"name":"하비비","tel":"031-767-1503","addr":"경기도 광주시 퇴촌면 광동리 247-34번지 1층","indutype":"일반휴게음식 - 일반한식","category":"restaurant"}]},{"lat":"37.46874269","long":"127.3068034","imageIndex":4,"items":[{"name":"우드카페","tel":"070-9303-1479","addr":"경기도 광주시 퇴촌면 광동리 269-1번지","indutype":"일반휴게음식 - 서양음식","category":"restaurant"}]},{"lat":"37.47166493","long":"127.3125805","imageIndex":4,"items":[{"name":"우슬초","tel":"031-767-0579","addr":"경기도 광주시 퇴촌면 광동리 178번지 179호","indutype":"일반휴게음식 - 일반한식","category":"restaurant"}]},{"lat":"37.47183226","long":"127.3071324","imageIndex":4,"items":[{"name":"육감만족","tel":"031-798-9212","addr":"경기도 광주시 퇴촌면 광동리 198-3번지","indutype":"일반휴게음식 - 일반한식","category":"restaurant"},{"name":"쥬씨 광주퇴촌점","tel":"031-200-0793","addr":"경기도 광주시 퇴촌면 광동리 198-3번지","indutype":"일반휴게음식 - 서양음식","category":"restaurant"}]},{"lat":"37.47022176","long":"127.3062441","imageIndex":4,"items":[{"name":"이디야커피(퇴촌점)","tel":"031-769-9632","addr":"경기도 광주시 퇴촌면 광동리 278-3번지 대원빌딩 1층","indutype":"일반휴게음식 - 서양음식","category":"restaurant"}]},{"lat":"37.47124554","long":"127.3075483","imageIndex":4,"items":[{"name":"이화가든","tel":"031-767-3009","addr":"경기도 광주시 퇴촌면 광동리 196-1","indutype":"일반휴게음식 - 일반한식","category":"restaurant"}]},{"lat":"37.47086004","long":"127.3068006","imageIndex":4,"items":[{"name":"저팔계감자탕","tel":"031-767-6965","addr":"경기도 광주시 퇴촌면 광동리 230번지","indutype":"일반휴게음식 - 일반한식","category":"restaurant"}]},{"lat":"37.47155551","long":"127.3061365","imageIndex":4,"items":[{"name":"차이얀","tel":"031-762-3161","addr":"경기도 광주시 퇴촌면 광동리 207-1번지 1층","indutype":"일반휴게음식 - 중국식","category":"restaurant"}]},{"lat":"37.469995","long":"127.306831","imageIndex":4,"items":[{"name":"치킨플러스퇴촌점","tel":"","addr":"경기도 광주시 퇴촌면 광동리 232-10번지","indutype":"일반휴게음식 - 주점","category":"restaurant"}]},{"lat":"37.46726577","long":"127.3065261","imageIndex":4,"items":[{"name":"카페319","tel":"031-000-0000","addr":"경기도 광주시 퇴촌면 광동리 319-2번지 라온빌 A동 1층 101호","indutype":"일반휴게음식 - 스넥","category":"restaurant"}]},{"lat":"37.47166438","long":"127.3093361","imageIndex":4,"items":[{"name":"카페우아(cafe wu.a)","tel":"031-765-5839","addr":"경기도 광주시 퇴촌면 광동리 190-1번지","indutype":"일반휴게음식 - 서양음식","category":"restaurant"}]},{"lat":"37.47116128","long":"127.3052757","imageIndex":4,"items":[{"name":"크랩홀릭(Crab Hoilc)","tel":"031-000-0000","addr":"경기도 광주시 퇴촌면 광동리 221번지","indutype":"일반휴게음식 - 일반한식","category":"restaurant"}]},{"lat":"37.4701621","long":"127.3118847","imageIndex":4,"items":[{"name":"터줏골한식부페","tel":"031-767-0118","addr":"경기도 광주시 퇴촌면 광동리 161-9번지","indutype":"일반휴게음식 - 일반한식","category":"restaurant"}]},{"lat":"37.47055265","long":"127.3106881","imageIndex":4,"items":[{"name":"퇴촌 국수집","tel":"","addr":"경기도 광주시 퇴촌면 광동리 155-1번지 1층 3호","indutype":"일반휴게음식 - 스넥","category":"restaurant"}]},{"lat":"37.47110514","long":"127.3130303","imageIndex":4,"items":[{"name":"페리카나치킨 퇴촌점","tel":"031-766-5633","addr":"경기도 광주시 퇴촌면 광동리 175-1","indutype":"일반휴게음식 - 주점","category":"restaurant"}]},{"lat":"37.47063342","long":"127.307331","imageIndex":4,"items":[{"name":"호식이두마리치킨 퇴촌점","tel":"031-769-9776","addr":"경기도 광주시 퇴촌면 광동리 235-14번지 명성빌딩 1층","indutype":"일반휴게음식 - 스넥","category":"restaurant"}]},{"lat":"37.47099495","long":"127.3068916","imageIndex":4,"items":[{"name":"홍두깨칼국수","tel":"031-767-9245","addr":"경기도 광주시 퇴촌면 광동리 230-1번지","indutype":"일반휴게음식 - 일반한식","category":"restaurant"}]}]