[{"lat":"37.226611609","long":"127.24059964","imageIndex":8,"items":[{"name":"감인의료재단 백세요양병원","tel":"031-332-5200","addr":"경기도 용인시 처인구 마평동 128번지","indutype":"병원 - 병원","category":"medical"},{"name":"용인목토요양병원","tel":"031-332-5752","addr":"경기도 용인시 처인구 마평동 128번지 지하 1~지상4층","indutype":"병원 - 병원","category":"medical"}]},{"lat":"37.233469745","long":"127.21120948","imageIndex":8,"items":[{"name":"굿모닝동물병원","tel":"031-339-5575","addr":"경기도 용인시 처인구 마평동 907번지","indutype":"기타의료기관 - 동물병원","category":"medical"}]},{"lat":"37.234747496","long":"127.21218213","imageIndex":8,"items":[{"name":"대명한의원","tel":"031-321-1275","addr":"경기도 용인시 처인구 마평동 625-5번지","indutype":"의원 - 한의원","category":"medical"},{"name":"서원치과의원","tel":"031-337-2875","addr":"경기도 용인시 처인구 마평동 625-5번지","indutype":"의원 - 치과의원","category":"medical"}]},{"lat":"37.237165107","long":"127.21056602","imageIndex":8,"items":[{"name":"드림24동물병원","tel":"031-335-7582","addr":"경기도 용인시 처인구 마평동 717-3번지 1층","indutype":"기타의료기관 - 동물병원","category":"medical"}]},{"lat":"37.233471207","long":"127.21545784","imageIndex":8,"items":[{"name":"사랑의 요양병원","tel":"031-321-6262","addr":"경기도 용인시 처인구 마평동 612-1번지","indutype":"병원 - 병원","category":"medical"},{"name":"샘물약국","tel":"031-321-2667","addr":"경기도 용인시 처인구 마평동 612-1번지","indutype":"약국 - 약국","category":"medical"}]},{"lat":"37.23480404","long":"127.21584473","imageIndex":8,"items":[{"name":"소망약국","tel":"031-338-0734","addr":"경기도 용인시 처인구 마평동 643번지 104호","indutype":"약국 - 약국","category":"medical"},{"name":"햇살치과의원","tel":"031-321-2879","addr":"경기도 용인시 처인구 마평동 643번지 201호","indutype":"의원 - 치과의원","category":"medical"}]},{"lat":"37.230409789","long":"127.2142886","imageIndex":8,"items":[{"name":"송라한의원","tel":"053-421-7975","addr":"경기도 용인시 처인구 마평동 593-6번지 A동 2층 204호","indutype":"의원 - 한의원","category":"medical"}]},{"lat":"37.232882508","long":"127.2120981","imageIndex":8,"items":[{"name":"스마일동물병원","tel":"031-337-0372","addr":"경기도 용인시 처인구 마평동 858-9번지","indutype":"기타의료기관 - 동물병원","category":"medical"},{"name":"주식회사 용인가축약품","tel":"031-296-2272","addr":"경기도 용인시 처인구 마평동 858-9번지","indutype":"기타의료기관 - 동물병원","category":"medical"}]},{"lat":"37.235604904","long":"127.21137312","imageIndex":8,"items":[{"name":"용인제일한의원","tel":"031-332-8887","addr":"경기도 용인시 처인구 마평동 727-1번지 2층","indutype":"의원 - 한의원","category":"medical"}]},{"lat":"37.234997928","long":"127.21323085","imageIndex":8,"items":[{"name":"유사랑의원","tel":"031-321-3231","addr":"경기도 용인시 처인구 마평동 652-4번지","indutype":"의원 - 의원","category":"medical"}]},{"lat":"37.234744397","long":"127.21392882","imageIndex":8,"items":[{"name":"참조은약국","tel":"031-322-6911","addr":"경기도 용인시 처인구 마평동 649-6번지","indutype":"약국 - 약국","category":"medical"}]},{"lat":"37.234885092","long":"127.21079642","imageIndex":8,"items":[{"name":"포브스요양병원","tel":"031-338-0911","addr":"경기도 용인시 처인구 마평동 735-2번지","indutype":"병원 - 병원","category":"medical"}]},{"lat":"37.233882675","long":"127.21712679","imageIndex":8,"items":[{"name":"한일화공약품","tel":"031-335-1491","addr":"경기도 용인시 처인구 마평동 638-4번지","indutype":"약국 - 제약회사","category":"medical"}]}]