[{"lat":"37.29329933","long":"127.66607963","imageIndex":4,"items":[{"name":"CAFE THE RIVER","tel":"031-882-1142","addr":"경기도 여주시 연양동 304-8번지 리버스랜드 C동 2층","indutype":"일반휴게음식 - 서양음식","category":"restaurant"},{"name":"국수가","tel":"031-1111-1111","addr":"경기도 여주시 연양동 304-8번지","indutype":"일반휴게음식 - 일반한식","category":"restaurant"},{"name":"원두막식당","tel":"031-885-0073","addr":"경기도 여주시 연양동 304-8번지","indutype":"일반휴게음식 - 일반한식","category":"restaurant"},{"name":"캠핑포장마차","tel":"031-886-2323","addr":"경기도 여주시 연양동 304-8번지","indutype":"일반휴게음식 - 주점","category":"restaurant"}]},{"lat":"37.292854467","long":"127.66022269","imageIndex":4,"items":[{"name":"O cafe","tel":"031-880-3852","addr":"경기도 여주시 연양동 414번지","indutype":"일반휴게음식 - 서양음식","category":"restaurant"}]},{"lat":"37.292274347","long":"127.66729988","imageIndex":4,"items":[{"name":"개성궁손만두","tel":"02-1111-1111","addr":"경기도 여주시 연양동 316번지 1층","indutype":"일반휴게음식 - 일반한식","category":"restaurant"}]},{"lat":"37.293856872","long":"127.66466354","imageIndex":4,"items":[{"name":"라니커피","tel":"031-885-7739","addr":"경기도 여주시 연양동 304-19번지","indutype":"일반휴게음식 - 서양음식","category":"restaurant"}]},{"lat":"37.293776849","long":"127.66285841","imageIndex":4,"items":[{"name":"알펜시아","tel":"031-884-2356","addr":"경기도 여주시 연양동 304-18번지 1,2층","indutype":"일반휴게음식 - 서양음식","category":"restaurant"}]},{"lat":"37.291555178","long":"127.65730184","imageIndex":4,"items":[{"name":"여주막국수","tel":"031-886-1148","addr":"경기도 여주시 연양동 430번지","indutype":"일반휴게음식 - 일반한식","category":"restaurant"}]},{"lat":"37.292167147","long":"127.66552838","imageIndex":4,"items":[{"name":"연양정원","tel":"031-648-7651","addr":"경기도 여주시 연양동 327-1번지","indutype":"일반휴게음식 - 서양음식","category":"restaurant"}]},{"lat":"37.289527899","long":"127.66055462","imageIndex":4,"items":[{"name":"영진밥상","tel":"031-882-2456","addr":"경기도 여주시 연양동 348-4번지 영진리버빌아파트","indutype":"일반휴게음식 - 일반한식","category":"restaurant"}]},{"lat":"37.291857282","long":"127.66615719","imageIndex":4,"items":[{"name":"온 리버(OnRiver)","tel":"031-886-2112","addr":"경기도 여주시 연양동 321번지","indutype":"일반휴게음식 - 서양음식","category":"restaurant"}]},{"lat":"37.2935532822","long":"127.6689914880","imageIndex":4,"items":[{"name":"은모래 식당","tel":"031-886-6869","addr":"경기도 여주시 연양동 307-1번지","indutype":"일반휴게음식 - 일반한식","category":"restaurant"}]},{"lat":"37.291582478","long":"127.6588809","imageIndex":4,"items":[{"name":"장수촌","tel":"031-886-5287","addr":"경기도 여주시 연양동 409-1번지","indutype":"일반휴게음식 - 일반한식","category":"restaurant"}]},{"lat":"37.288746425","long":"127.66658096","imageIndex":4,"items":[{"name":"진안마이산흑생돼지","tel":"031-882-3988","addr":"경기도 여주시 연양동 249-2번지","indutype":"일반휴게음식 - 일반한식","category":"restaurant"}]},{"lat":"37.291164563","long":"127.66435803","imageIndex":4,"items":[{"name":"하늘천따지","tel":"031-881-0011","addr":"경기도 여주시 연양동 279-1번지","indutype":"일반휴게음식 - 일반한식","category":"restaurant"}]}]