[{"lat":"37.293562722","long":"126.95753383","imageIndex":7,"items":[{"name":"대한수산","tel":"031-8004-2002","addr":"경기도 수원시 권선구 입북동 419-1번지 1층","indutype":"음료식품 - 농·축·수산품","category":"food"}]},{"lat":"37.293895822","long":"126.95681184","imageIndex":7,"items":[{"name":"약초농산","tel":"031-242-6459","addr":"경기도 수원시 권선구 입북동 419-5번지","indutype":"음료식품 - 농·축·수산품","category":"food"},{"name":"코메스KOMES","tel":"031-1899-8609","addr":"경기도 수원시 권선구 입북동 419-5번지","indutype":"음료식품 - 농·축·수산품","category":"food"}]},{"lat":"37.292815682","long":"126.9596996","imageIndex":7,"items":[{"name":"영덕수산","tel":"031-000-0000","addr":"경기도 수원시 권선구 입북동 429-3번지","indutype":"음료식품 - 농·축·수산품","category":"food"}]},{"lat":"37.294680753","long":"126.95956319","imageIndex":7,"items":[{"name":"오십보상사","tel":"031-295-6370","addr":"경기도 수원시 권선구 입북동 251-8번지 입북프라자 1층 104호","indutype":"건강식품 - 기타건강식품","category":"food"}]},{"lat":"37.292401552","long":"126.96064716","imageIndex":7,"items":[{"name":"주식회사 패밀리로지스","tel":"02-574-9400","addr":"경기도 수원시 권선구 입북동 430-17번지","indutype":"음료식품 - 기타음료식품","category":"food"}]},{"lat":"37.297275166","long":"126.95811807","imageIndex":7,"items":[{"name":"천년의 향기","tel":"031-292-5178","addr":"경기도 수원시 권선구 입북동 153번지 웅비아파트 마동 301호","indutype":"음료식품 - 농·축·수산품","category":"food"}]},{"lat":"37.295257247","long":"126.95912302","imageIndex":7,"items":[{"name":"파리바게트 수원입북점","tel":"031-298-8121","addr":"경기도 수원시 권선구 입북동 251-12번지 1층 101,102호","indutype":"음료식품 - 제과점","category":"food"}]},{"lat":"37.292590507","long":"126.95992528","imageIndex":7,"items":[{"name":"한남글로벌 주식회사","tel":"031-501-2561","addr":"경기도 수원시 권선구 입북동 430-32번지 C동 1층","indutype":"음료식품 - 기타음료식품","category":"food"}]},{"lat":"37.29484373","long":"126.96178487","imageIndex":7,"items":[{"name":"향원 야채과일","tel":"031-291-5574","addr":"경기도 수원시 권선구 입북동 230번지","indutype":"음료식품 - 농·축·수산품","category":"food"}]}]