[{"lat":"37.34286109","long":"126.82065999","imageIndex":4,"items":[{"name":"1잔할래?","tel":"031-402-3328","addr":"경기도 안산시 단원구 와동 808-4번지 1층","indutype":"일반휴게음식 - 주점","category":"restaurant"}]},{"lat":"37.333727425","long":"126.82238591","imageIndex":4,"items":[{"name":"208커피","tel":"031-405-0208","addr":"경기도 안산시 단원구 와동 736-1번지 상가동 102호","indutype":"일반휴게음식 - 일반한식","category":"restaurant"},{"name":"막끌리네","tel":"031-405-5014","addr":"경기도 안산시 단원구 와동 736-1번지 효자연립 상가 108호","indutype":"일반휴게음식 - 주점","category":"restaurant"},{"name":"막끌리네","tel":"031-405-5014","addr":"경기도 안산시 단원구 와동 736-1번지 효자연립 상가 108호","indutype":"일반휴게음식 - 주점","category":"restaurant"}]},{"lat":"37.342834789","long":"126.82113404","imageIndex":4,"items":[{"name":"7080낭만라이브","tel":"031-413-3307","addr":"경기도 안산시 단원구 와동 808-7번지 2층","indutype":"일반휴게음식 - 서양음식","category":"restaurant"},{"name":"또봉이통닭","tel":"031-403-9282","addr":"경기도 안산시 단원구 와동 808-7번지 1층 일부","indutype":"일반휴게음식 - 주점","category":"restaurant"}]},{"lat":"37.334395681","long":"126.82941419","imageIndex":4,"items":[{"name":"99왕오리목","tel":"031-410-2534","addr":"경기도 안산시 단원구 와동 700-8번지 1층","indutype":"일반휴게음식 - 일반한식","category":"restaurant"},{"name":"양꼬치엔칭따오","tel":"031-506-4818","addr":"경기도 안산시 단원구 와동 700-8번지 1층","indutype":"일반휴게음식 - 일반한식","category":"restaurant"}]},{"lat":"37.332226126","long":"126.81874491","imageIndex":4,"items":[{"name":"BHC치킨","tel":"031-414-9982","addr":"경기도 안산시 단원구 와동 840-4번지 101호","indutype":"일반휴게음식 - 스넥","category":"restaurant"},{"name":"토종순대국","tel":"031-414-2737","addr":"경기도 안산시 단원구 와동 840-4번지 1층","indutype":"일반휴게음식 - 일반한식","category":"restaurant"}]},{"lat":"37.342645524","long":"126.82110064","imageIndex":4,"items":[{"name":"COFFEEDA(커피다)","tel":"031-111-1111","addr":"경기도 안산시 단원구 와동 808-8번지 102호","indutype":"일반휴게음식 - 서양음식","category":"restaurant"},{"name":"안산곱창","tel":"031-509-0480","addr":"경기도 안산시 단원구 와동 808-8번지 104호","indutype":"일반휴게음식 - 일반한식","category":"restaurant"}]},{"lat":"37.334116069","long":"126.82921173","imageIndex":4,"items":[{"name":"EDIYA COFFEE","tel":"031-405-3777","addr":"경기도 안산시 단원구 와동 700-6번지 1층","indutype":"일반휴게음식 - 서양음식","category":"restaurant"},{"name":"정가네숯불갈비","tel":"031-484-9234","addr":"경기도 안산시 단원구 와동 700-6번지 1층","indutype":"일반휴게음식 - 일반한식","category":"restaurant"}]},{"lat":"37.331561056","long":"126.81982975","imageIndex":4,"items":[{"name":"e맛있는푸드","tel":"031-414-2558","addr":"경기도 안산시 단원구 와동 836-6번지 1층일부","indutype":"일반휴게음식 - 일반한식","category":"restaurant"}]},{"lat":"37.334306593","long":"126.82404326","imageIndex":4,"items":[{"name":"가마솥소머리국밥","tel":"031-403-5627","addr":"경기도 안산시 단원구 와동 732-7번지 1층","indutype":"일반휴게음식 - 일반한식","category":"restaurant"},{"name":"곱창백화점","tel":"031-403-5627","addr":"경기도 안산시 단원구 와동 732-7번지 1층 101,102호","indutype":"일반휴게음식 - 주점","category":"restaurant"}]},{"lat":"37.33950187","long":"126.82766461","imageIndex":4,"items":[{"name":"갈비나라","tel":"031-484-8789","addr":"경기도 안산시 단원구 와동 119-1번지 1층","indutype":"일반휴게음식 - 일반한식","category":"restaurant"}]},{"lat":"37.335702268","long":"126.82949018","imageIndex":4,"items":[{"name":"강마을민물매운탕","tel":"031-414-7773","addr":"경기도 안산시 단원구 와동 707번지 1층","indutype":"일반휴게음식 - 일반한식","category":"restaurant"},{"name":"그집가자","tel":"031-403-0803","addr":"경기도 안산시 단원구 와동 707번지 1층 102호","indutype":"일반휴게음식 - 스넥","category":"restaurant"}]},{"lat":"37.333973184","long":"126.82402149","imageIndex":4,"items":[{"name":"객주막","tel":"031-111-1111","addr":"경기도 안산시 단원구 와동 727번지 돈장군왕족발보쌈 102호","indutype":"일반휴게음식 - 주점","category":"restaurant"},{"name":"국산돼지생삼겹살","tel":"02-000-0000","addr":"경기도 안산시 단원구 와동 727번지 돈장군왕족발보쌈 101호","indutype":"일반휴게음식 - 일반한식","category":"restaurant"}]},{"lat":"37.336584085","long":"126.82868697","imageIndex":4,"items":[{"name":"갤러리호프","tel":"031-402-0929","addr":"경기도 안산시 단원구 와동 713-8번지 1층","indutype":"일반휴게음식 - 주점","category":"restaurant"},{"name":"놀러와 치킨호프","tel":"031-401-2180","addr":"경기도 안산시 단원구 와동 713-8번지 1층","indutype":"일반휴게음식 - 일반한식","category":"restaurant"},{"name":"놀러와치킨호프","tel":"031-475-6781","addr":"경기도 안산시 단원구 와동 713-8번지 시화종합자동차정비 102호","indutype":"일반휴게음식 - 주점","category":"restaurant"},{"name":"피자샵","tel":"031-410-7774","addr":"경기도 안산시 단원구 와동 713-8번지","indutype":"일반휴게음식 - 서양음식","category":"restaurant"}]},{"lat":"37.345555552","long":"126.82093562","imageIndex":4,"items":[{"name":"계동치킨","tel":"031-475-6622","addr":"경기도 안산시 단원구 와동 797-11번지 103호","indutype":"일반휴게음식 - 서양음식","category":"restaurant"}]},{"lat":"37.341392759","long":"126.82682513","imageIndex":4,"items":[{"name":"고기밥상","tel":"031-402-5716","addr":"경기도 안산시 단원구 와동 98-7번지 104,105호","indutype":"일반휴게음식 - 일반한식","category":"restaurant"},{"name":"금강호프치킨","tel":"031-410-1971","addr":"경기도 안산시 단원구 와동 98-7번지 111호","indutype":"일반휴게음식 - 주점","category":"restaurant"},{"name":"베를린","tel":"031-482-9481","addr":"경기도 안산시 단원구 와동 98-7번지 201호","indutype":"일반휴게음식 - 주점","category":"restaurant"},{"name":"포차마차","tel":"","addr":"경기도 안산시 단원구 와동 98-7번지 111호","indutype":"일반휴게음식 - 일반한식","category":"restaurant"}]},{"lat":"37.332480249","long":"126.82585297","imageIndex":4,"items":[{"name":"고향쌈밥","tel":"031-483-0333","addr":"경기도 안산시 단원구 와동 724-5번지 103호","indutype":"일반휴게음식 - 일반한식","category":"restaurant"}]},{"lat":"37.332284128","long":"126.82129486","imageIndex":4,"items":[{"name":"고향포차","tel":"031-402-4901","addr":"경기도 안산시 단원구 와동 832-2번지 1층","indutype":"일반휴게음식 - 주점","category":"restaurant"},{"name":"푸드뱅크&마시내탕수육&파닭","tel":"031-439-0181","addr":"경기도 안산시 단원구 와동 832-2번지 1층","indutype":"일반휴게음식 - 일반한식","category":"restaurant"}]},{"lat":"37.334251353","long":"126.82930169","imageIndex":4,"items":[{"name":"곱창왕십리막창","tel":"031-505-5452","addr":"경기도 안산시 단원구 와동 700-7번지 102호,103호","indutype":"일반휴게음식 - 일반한식","category":"restaurant"},{"name":"옛날장터치킨","tel":"031-401-2585","addr":"경기도 안산시 단원구 와동 700-7번지 1층","indutype":"일반휴게음식 - 일반한식","category":"restaurant"}]},{"lat":"37.341642314","long":"126.81910561","imageIndex":4,"items":[{"name":"공원치킨호프","tel":"031-410-2315","addr":"경기도 안산시 단원구 와동 811-15번지 1층","indutype":"일반휴게음식 - 주점","category":"restaurant"},{"name":"유가네왕족발","tel":"031-486-4496","addr":"경기도 안산시 단원구 와동 811-15번지 1층","indutype":"일반휴게음식 - 일반한식","category":"restaurant"}]},{"lat":"37.332752253","long":"126.82699198","imageIndex":4,"items":[{"name":"교촌치킨(고잔2호점)","tel":"031-482-4241","addr":"경기도 안산시 단원구 와동 720-13번지 101호","indutype":"일반휴게음식 - 스넥","category":"restaurant"}]},{"lat":"37.341090577","long":"126.82359835","imageIndex":4,"items":[{"name":"국수랑김밥","tel":"031-403-0024","addr":"경기도 안산시 단원구 와동 760-5번지 1층","indutype":"일반휴게음식 - 일반한식","category":"restaurant"},{"name":"치킨런","tel":"031-487-4878","addr":"경기도 안산시 단원구 와동 760-5번지 101호","indutype":"일반휴게음식 - 주점","category":"restaurant"}]},{"lat":"37.338337639","long":"126.82043395","imageIndex":4,"items":[{"name":"국수집","tel":"031-000-0000","addr":"경기도 안산시 단원구 와동 752-8번지 신세계낚시프라자 1층 102호","indutype":"일반휴게음식 - 일반한식","category":"restaurant"},{"name":"맛나니식당","tel":"031-482-0860","addr":"경기도 안산시 단원구 와동 752-8번지","indutype":"일반휴게음식 - 일반한식","category":"restaurant"},{"name":"좋은날퓨전마차","tel":"031-414-7521","addr":"경기도 안산시 단원구 와동 752-8번지 1층","indutype":"일반휴게음식 - 주점","category":"restaurant"},{"name":"화끈한야참","tel":"031-410-3339","addr":"경기도 안산시 단원구 와동 752-8번지 1층 일부","indutype":"일반휴게음식 - 일반한식","category":"restaurant"},{"name":"화끈한야참","tel":"031-410-3339","addr":"경기도 안산시 단원구 와동 752-8번지 신세계낚시프라자 1층 일부","indutype":"일반휴게음식 - 일반한식","category":"restaurant"}]},{"lat":"37.343475149","long":"126.82155005","imageIndex":4,"items":[{"name":"굴따러가세","tel":"031-403-6092","addr":"경기도 안산시 단원구 와동 771-11번지 좌측상가 1층","indutype":"일반휴게음식 - 일반한식","category":"restaurant"},{"name":"참불로훈제막창","tel":"031-520-5995","addr":"경기도 안산시 단원구 와동 771-11번지 1층","indutype":"일반휴게음식 - 일반한식","category":"restaurant"}]},{"lat":"37.338645182","long":"126.82121184","imageIndex":4,"items":[{"name":"굽네치킨(와동점)","tel":"031-485-9294","addr":"경기도 안산시 단원구 와동 753-9번지 1층","indutype":"일반휴게음식 - 일반한식","category":"restaurant"},{"name":"호박마차","tel":"031-407-2484","addr":"경기도 안산시 단원구 와동 753-9번지 1층","indutype":"일반휴게음식 - 주점","category":"restaurant"},{"name":"호박식당","tel":"031-407-2484","addr":"경기도 안산시 단원구 와동 753-9번지 1층","indutype":"일반휴게음식 - 일반한식","category":"restaurant"}]},{"lat":"37.341116305","long":"126.82274064","imageIndex":4,"items":[{"name":"굿데이","tel":"031-411-8992","addr":"경기도 안산시 단원구 와동 760번지 101호","indutype":"일반휴게음식 - 주점","category":"restaurant"}]},{"lat":"37.332925213","long":"126.82218473","imageIndex":4,"items":[{"name":"굿맘할매순대국와동점","tel":"031-481-8181","addr":"경기도 안산시 단원구 와동 830-4번지 1층","indutype":"일반휴게음식 - 일반한식","category":"restaurant"}]},{"lat":"37.333141011","long":"126.82788249","imageIndex":4,"items":[{"name":"궁짬뽕","tel":"031-403-2776","addr":"경기도 안산시 단원구 와동 719-2번지","indutype":"일반휴게음식 - 중국식","category":"restaurant"},{"name":"치킨하우스","tel":"031-475-8486","addr":"경기도 안산시 단원구 와동 719-2번지","indutype":"일반휴게음식 - 스넥","category":"restaurant"}]},{"lat":"37.33508938","long":"126.82935618","imageIndex":4,"items":[{"name":"기절초풍물닭갈비","tel":"031-475-5008","addr":"경기도 안산시 단원구 와동 716-4번지 1층","indutype":"일반휴게음식 - 일반한식","category":"restaurant"}]},{"lat":"37.346393962","long":"126.82123831","imageIndex":4,"items":[{"name":"김가네불족발보쌈","tel":"031-484-2848","addr":"경기도 안산시 단원구 와동 793-13번지 1층","indutype":"일반휴게음식 - 일반한식","category":"restaurant"},{"name":"꽃돼지감자탕","tel":"","addr":"경기도 안산시 단원구 와동 793-13번지 1층","indutype":"일반휴게음식 - 일반한식","category":"restaurant"}]},{"lat":"37.335144003","long":"126.82973971","imageIndex":4,"items":[{"name":"김미자당진아구동태찜탕","tel":"031-486-5117","addr":"경기도 안산시 단원구 와동 707-16번지 1층","indutype":"일반휴게음식 - 일반한식","category":"restaurant"},{"name":"신마포갈매기","tel":"031-411-9992","addr":"경기도 안산시 단원구 와동 707-16번지 1층","indutype":"일반휴게음식 - 일반한식","category":"restaurant"}]},{"lat":"37.34206042","long":"126.82146317","imageIndex":4,"items":[{"name":"김밥나라 와동점","tel":"031-402-8444","addr":"경기도 안산시 단원구 와동 764번지","indutype":"일반휴게음식 - 스넥","category":"restaurant"}]},{"lat":"37.343916126","long":"126.82121043","imageIndex":4,"items":[{"name":"김밥천국","tel":"031-413-1179","addr":"경기도 안산시 단원구 와동 802-10번지 1층","indutype":"일반휴게음식 - 일반한식","category":"restaurant"}]},{"lat":"37.334638541","long":"126.82913154","imageIndex":4,"items":[{"name":"김밥천국","tel":"031-401-6634","addr":"경기도 안산시 단원구 와동 716-7번지 103호","indutype":"일반휴게음식 - 스넥","category":"restaurant"},{"name":"마X포차(와동점)","tel":"031-405-4404","addr":"경기도 안산시 단원구 와동 716-7번지 1층 101,102호","indutype":"일반휴게음식 - 일반한식","category":"restaurant"}]},{"lat":"37.339393196","long":"126.82729247","imageIndex":4,"items":[{"name":"김밥천국","tel":"031-410-0002","addr":"경기도 안산시 단원구 와동 112-23번지 1층","indutype":"일반휴게음식 - 일반한식","category":"restaurant"}]},{"lat":"37.332806113","long":"126.82685645","imageIndex":4,"items":[{"name":"꼬꼬시티 와동점","tel":"031-475-7770","addr":"경기도 안산시 단원구 와동 720-12번지 2층","indutype":"일반휴게음식 - 일반한식","category":"restaurant"},{"name":"화평동왕냉면","tel":"031-480-6136","addr":"경기도 안산시 단원구 와동 720-12번지 1층","indutype":"일반휴게음식 - 일반한식","category":"restaurant"}]},{"lat":"37.331924641","long":"126.82788531","imageIndex":4,"items":[{"name":"꼬레랑옛날치킨","tel":"031-504-5393","addr":"경기도 안산시 단원구 와동 681-2번지 101호","indutype":"일반휴게음식 - 일반한식","category":"restaurant"},{"name":"맛파오통닭","tel":"031-504-5393","addr":"경기도 안산시 단원구 와동 681-2번지 1층 103호","indutype":"일반휴게음식 - 일반한식","category":"restaurant"}]},{"lat":"37.343916731","long":"126.82160541","imageIndex":4,"items":[{"name":"꽃돼지삼겹살","tel":"031-401-0221","addr":"경기도 안산시 단원구 와동 772-5번지 1층","indutype":"일반휴게음식 - 일반한식","category":"restaurant"},{"name":"또아포차","tel":"031-482-9981","addr":"경기도 안산시 단원구 와동 772-5번지 한사랑내과의원 103호","indutype":"일반휴게음식 - 일반한식","category":"restaurant"}]},{"lat":"37.332028324","long":"126.8190162","imageIndex":4,"items":[{"name":"꽃을든돼지","tel":"031-403-3233","addr":"경기도 안산시 단원구 와동 839-6번지 101호","indutype":"일반휴게음식 - 일반한식","category":"restaurant"}]},{"lat":"37.341169178","long":"126.82196185","imageIndex":4,"items":[{"name":"꿉자","tel":"031-414-5106","addr":"경기도 안산시 단원구 와동 759-2번지 오성천막 101호","indutype":"일반휴게음식 - 일반한식","category":"restaurant"}]},{"lat":"37.342338885","long":"126.82090953","imageIndex":4,"items":[{"name":"나누리 호프","tel":"031-413-2692","addr":"경기도 안산시 단원구 와동 808-11번지","indutype":"일반휴게음식 - 주점","category":"restaurant"},{"name":"아싸치킨호프","tel":"031-406-9597","addr":"경기도 안산시 단원구 와동 808-11번지 오성식당 101호","indutype":"일반휴게음식 - 일반한식","category":"restaurant"},{"name":"흑돼지","tel":"","addr":"경기도 안산시 단원구 와동 808-11번지 오성식당 1층 103호","indutype":"일반휴게음식 - 일반한식","category":"restaurant"}]},{"lat":"37.340305936","long":"126.82912977","imageIndex":4,"items":[{"name":"나무커피","tel":"031-410-8568","addr":"경기도 안산시 단원구 와동 131번지","indutype":"일반휴게음식 - 서양음식","category":"restaurant"}]},{"lat":"37.346916861","long":"126.8214402","imageIndex":4,"items":[{"name":"날라리삼겹살","tel":"","addr":"경기도 안산시 단원구 와동 793-9번지 101호","indutype":"일반휴게음식 - 일반한식","category":"restaurant"},{"name":"삼겹살에소주한잔호로록","tel":"031-414-3392","addr":"경기도 안산시 단원구 와동 793-9번지 1층","indutype":"일반휴게음식 - 일반한식","category":"restaurant"}]},{"lat":"37.331613085","long":"126.81852073","imageIndex":4,"items":[{"name":"남이네집밥","tel":"031-403-3108","addr":"경기도 안산시 단원구 와동 845-11번지 1층 101호","indutype":"일반휴게음식 - 일반한식","category":"restaurant"}]},{"lat":"37.344727729","long":"126.82165989","imageIndex":4,"items":[{"name":"낭만요리사의짬뽕","tel":"031-405-9214","addr":"경기도 안산시 단원구 와동 779-5번지 2층","indutype":"일반휴게음식 - 중국식","category":"restaurant"},{"name":"미스터브리즈","tel":"070-8785-7130","addr":"경기도 안산시 단원구 와동 779-5번지 1층 103호","indutype":"일반휴게음식 - 서양음식","category":"restaurant"}]},{"lat":"37.333612317","long":"126.82371768","imageIndex":4,"items":[{"name":"내사랑일번","tel":"031-439-8300","addr":"경기도 안산시 단원구 와동 726-9번지 은혜교회 상가 104호","indutype":"일반휴게음식 - 일반한식","category":"restaurant"},{"name":"명태선장","tel":"031-401-0942","addr":"경기도 안산시 단원구 와동 726-9번지 은혜교회 101호","indutype":"일반휴게음식 - 일반한식","category":"restaurant"},{"name":"본가장충동왕족발보쌈","tel":"031-414-1910","addr":"경기도 안산시 단원구 와동 726-9번지","indutype":"일반휴게음식 - 일반한식","category":"restaurant"}]},{"lat":"37.341142406","long":"126.82213119","imageIndex":4,"items":[{"name":"네네치킨","tel":"031-401-4406","addr":"경기도 안산시 단원구 와동 759-3번지","indutype":"일반휴게음식 - 스넥","category":"restaurant"},{"name":"네네치킨","tel":"031-401-4406","addr":"경기도 안산시 단원구 와동 759-3번지 101호","indutype":"일반휴게음식 - 스넥","category":"restaurant"}]},{"lat":"37.344276583","long":"126.82124341","imageIndex":4,"items":[{"name":"노가리본가 와동점","tel":"031-487-8829","addr":"경기도 안산시 단원구 와동 802-8번지 101호","indutype":"일반휴게음식 - 주점","category":"restaurant"},{"name":"노가리포차","tel":"031-487-8826","addr":"경기도 안산시 단원구 와동 802-8번지 1층","indutype":"일반휴게음식 - 일반한식","category":"restaurant"}]},{"lat":"37.341754041","long":"126.82144134","imageIndex":4,"items":[{"name":"노가리앤비어(와동점)","tel":"031-405-7657","addr":"경기도 안산시 단원구 와동 764-24번지 102호","indutype":"일반휴게음식 - 일반한식","category":"restaurant"},{"name":"동해루","tel":"031-483-0144","addr":"경기도 안산시 단원구 와동 764-24번지 1층","indutype":"일반휴게음식 - 중국식","category":"restaurant"}]},{"lat":"37.341642752","long":"126.81938773","imageIndex":4,"items":[{"name":"노을","tel":"070-4200-1450","addr":"경기도 안산시 단원구 와동 811-13번지","indutype":"일반휴게음식 - 일반한식","category":"restaurant"},{"name":"짝","tel":"070-1111-1111","addr":"경기도 안산시 단원구 와동 811-13번지","indutype":"일반휴게음식 - 일반한식","category":"restaurant"},{"name":"호박넝쿨","tel":"031-484-7352","addr":"경기도 안산시 단원구 와동 811-13번지 1층","indutype":"일반휴게음식 - 일반한식","category":"restaurant"}]},{"lat":"37.341502224","long":"126.82174664","imageIndex":4,"items":[{"name":"녹색갈비","tel":"031-411-7662","addr":"경기도 안산시 단원구 와동 764-21번지 1층","indutype":"일반휴게음식 - 일반한식","category":"restaurant"}]},{"lat":"37.332508643","long":"126.82676688","imageIndex":4,"items":[{"name":"놀러와","tel":"031-484-9282","addr":"경기도 안산시 단원구 와동 721-2번지 아녜스피아노교습소 102호","indutype":"일반휴게음식 - 주점","category":"restaurant"},{"name":"안다까","tel":"031-401-5055","addr":"경기도 안산시 단원구 와동 721-2번지 1층","indutype":"일반휴게음식 - 일반한식","category":"restaurant"},{"name":"풍성가","tel":"031-507-5050","addr":"경기도 안산시 단원구 와동 721-2번지 1층","indutype":"일반휴게음식 - 일반한식","category":"restaurant"}]},{"lat":"37.331592165","long":"126.82849539","imageIndex":4,"items":[{"name":"니혼만땅","tel":"031-401-0409","addr":"경기도 안산시 단원구 와동 681-6번지 102호","indutype":"일반휴게음식 - 일반한식","category":"restaurant"},{"name":"니혼만땅","tel":"","addr":"경기도 안산시 단원구 와동 681-6번지 1층 102호","indutype":"일반휴게음식 - 일반한식","category":"restaurant"},{"name":"호식이두마리치킨고잔2호점","tel":"050-7340-9628","addr":"경기도 안산시 단원구 와동 681-6번지 1층 103호","indutype":"일반휴게음식 - 스넥","category":"restaurant"}]},{"lat":"37.344859455","long":"126.81943633","imageIndex":4,"items":[{"name":"다담백반","tel":"031-485-2769","addr":"경기도 안산시 단원구 와동 800-13번지 롯데햄 104호","indutype":"일반휴게음식 - 일반한식","category":"restaurant"}]},{"lat":"37.341362569","long":"126.82471491","imageIndex":4,"items":[{"name":"다물","tel":"031-480-5222","addr":"경기도 안산시 단원구 와동 763-12번지 101호","indutype":"일반휴게음식 - 일반한식","category":"restaurant"},{"name":"왕십리곱창","tel":"031-484-8899","addr":"경기도 안산시 단원구 와동 763-12번지 1층","indutype":"일반휴게음식 - 일반한식","category":"restaurant"},{"name":"치킨마루","tel":"031-480-8221","addr":"경기도 안산시 단원구 와동 763-12번지","indutype":"일반휴게음식 - 서양음식","category":"restaurant"}]},{"lat":"37.339834375","long":"126.82707703","imageIndex":4,"items":[{"name":"다시스","tel":"031-411-7878","addr":"경기도 안산시 단원구 와동 112-17번지 101호","indutype":"일반휴게음식 - 서양음식","category":"restaurant"},{"name":"술마실줄 아는 사람들","tel":"031-482-8259","addr":"경기도 안산시 단원구 와동 112-17번지 1층 103호","indutype":"일반휴게음식 - 주점","category":"restaurant"},{"name":"아트모","tel":"031-405-4275","addr":"경기도 안산시 단원구 와동 112-17번지","indutype":"일반휴게음식 - 주점","category":"restaurant"}]},{"lat":"37.33439649","long":"126.82390764","imageIndex":4,"items":[{"name":"다와불고기전문점","tel":"031-481-9245","addr":"경기도 안산시 단원구 와동 732-8번지 1층 103호","indutype":"일반휴게음식 - 일반한식","category":"restaurant"}]},{"lat":"37.344500846","long":"126.82059961","imageIndex":4,"items":[{"name":"달덩이부침개","tel":"031-411-0716","addr":"경기도 안산시 단원구 와동 802-3번지 1층","indutype":"일반휴게음식 - 주점","category":"restaurant"},{"name":"아지트","tel":"031-411-0716","addr":"경기도 안산시 단원구 와동 802-3번지 1층","indutype":"일반휴게음식 - 주점","category":"restaurant"}]},{"lat":"37.338285852","long":"126.82790441","imageIndex":4,"items":[{"name":"닭코치비어선수","tel":"02-0000-0000","addr":"경기도 안산시 단원구 와동 115-9번지","indutype":"일반휴게음식 - 일반한식","category":"restaurant"}]},{"lat":"37.336223928","long":"126.82885707","imageIndex":4,"items":[{"name":"대박 닭발","tel":"031-405-4404","addr":"경기도 안산시 단원구 와동 715-2번지 103호","indutype":"일반휴게음식 - 일반한식","category":"restaurant"},{"name":"비에스푸드 (BS Food)","tel":"070-8613-1333","addr":"경기도 안산시 단원구 와동 715-2번지 1동 103호","indutype":"일반휴게음식 - 일반한식","category":"restaurant"},{"name":"앗싸돼지껍데기","tel":"031-485-9996","addr":"경기도 안산시 단원구 와동 715-2번지 1층","indutype":"일반휴게음식 - 일반한식","category":"restaurant"}]},{"lat":"37.341142923","long":"126.82246973","imageIndex":4,"items":[{"name":"대박왕숯불구이","tel":"031-483-7079","addr":"경기도 안산시 단원구 와동 759-5번지 1층","indutype":"일반휴게음식 - 일반한식","category":"restaurant"},{"name":"돈가","tel":"031-411-4748","addr":"경기도 안산시 단원구 와동 759-5번지","indutype":"일반휴게음식 - 일반한식","category":"restaurant"}]},{"lat":"37.342611966","long":"126.82874076","imageIndex":4,"items":[{"name":"대박장어","tel":"031-487-7568","addr":"경기도 안산시 단원구 와동 97번지","indutype":"일반휴게음식 - 일반한식","category":"restaurant"},{"name":"천하장어","tel":"031-487-7568","addr":"경기도 안산시 단원구 와동 97번지 1층","indutype":"일반휴게음식 - 일반한식","category":"restaurant"}]},{"lat":"37.346728236","long":"126.82182437","imageIndex":4,"items":[{"name":"대성생고기와낙지찜","tel":"031-482-3536","addr":"경기도 안산시 단원구 와동 781-15번지 1층","indutype":"일반휴게음식 - 일반한식","category":"restaurant"},{"name":"왕대박포차","tel":"031-482-3983","addr":"경기도 안산시 단원구 와동 781-15번지 104호 103","indutype":"일반휴게음식 - 주점","category":"restaurant"},{"name":"최닭갈비","tel":"031-482-3983","addr":"경기도 안산시 단원구 와동 781-15번지 1층","indutype":"일반휴게음식 - 일반한식","category":"restaurant"},{"name":"한라산도야지","tel":"031-485-5970","addr":"경기도 안산시 단원구 와동 781-15번지 1층","indutype":"일반휴게음식 - 일반한식","category":"restaurant"}]},{"lat":"37.334088587","long":"126.82288154","imageIndex":4,"items":[{"name":"대왕비빔밥","tel":"031-401-2855","addr":"경기도 안산시 단원구 와동 737-7번지 1층","indutype":"일반휴게음식 - 일반한식","category":"restaurant"}]},{"lat":"37.332951514","long":"126.82769111","imageIndex":4,"items":[{"name":"대풍미가","tel":"031-481-8771","addr":"경기도 안산시 단원구 와동 719-4번지","indutype":"일반휴게음식 - 일반한식","category":"restaurant"},{"name":"대풍찌개마을","tel":"031-481-8872","addr":"경기도 안산시 단원구 와동 719-4번지 1층","indutype":"일반휴게음식 - 일반한식","category":"restaurant"},{"name":"찌개마을","tel":"031-481-8872","addr":"경기도 안산시 단원구 와동 719-4번지 1층","indutype":"일반휴게음식 - 일반한식","category":"restaurant"}]},{"lat":"37.347168919","long":"126.82129288","imageIndex":4,"items":[{"name":"대현생삼겹살","tel":"031-483-3950","addr":"경기도 안산시 단원구 와동 788-11번지 1층","indutype":"일반휴게음식 - 일반한식","category":"restaurant"},{"name":"춘자야오리잡아놨나","tel":"031-483-3950","addr":"경기도 안산시 단원구 와동 788-11번지 1층 102호","indutype":"일반휴게음식 - 일반한식","category":"restaurant"}]},{"lat":"37.336199096","long":"126.83035792","imageIndex":4,"items":[{"name":"더(The)청년","tel":"031-405-0111","addr":"경기도 안산시 단원구 와동 705-7번지 102호","indutype":"일반휴게음식 - 스넥","category":"restaurant"},{"name":"컵밥스","tel":"02-1111-1111","addr":"경기도 안산시 단원구 와동 705-7번지 104호","indutype":"일반휴게음식 - 스넥","category":"restaurant"}]},{"lat":"37.338945355","long":"126.82909905","imageIndex":4,"items":[{"name":"도도야","tel":"031-413-5503","addr":"경기도 안산시 단원구 와동 126-7번지 일월빌5차 1층 101호","indutype":"일반휴게음식 - 일반한식","category":"restaurant"}]},{"lat":"37.332699714","long":"126.82801892","imageIndex":4,"items":[{"name":"도둑고기 안산와동점","tel":"031-414-8826","addr":"경기도 안산시 단원구 와동 679-10번지 1층","indutype":"일반휴게음식 - 일반한식","category":"restaurant"}]},{"lat":"37.334782902","long":"126.82926661","imageIndex":4,"items":[{"name":"도드람쪽갈비","tel":"031-482-6085","addr":"경기도 안산시 단원구 와동 716-6번지 안산종합가전마트 101호","indutype":"일반휴게음식 - 일반한식","category":"restaurant"},{"name":"초지참숯갈비","tel":"031-484-3392","addr":"경기도 안산시 단원구 와동 716-6번지 1층","indutype":"일반휴게음식 - 일반한식","category":"restaurant"}]},{"lat":"37.338585875","long":"126.81782662","imageIndex":4,"items":[{"name":"도미노피자","tel":"031-411-8185","addr":"경기도 안산시 단원구 와동 820번지 노블시티 1층","indutype":"일반휴게음식 - 서양음식","category":"restaurant"},{"name":"처갓집플러스케이준","tel":"031-482-9281","addr":"경기도 안산시 단원구 와동 820번지 노블시티 103호","indutype":"일반휴게음식 - 일반한식","category":"restaurant"}]},{"lat":"37.336001514","long":"126.83079845","imageIndex":4,"items":[{"name":"돈까스데이","tel":"031-403-9787","addr":"경기도 안산시 단원구 와동 703.104","indutype":"일반휴게음식 - 일반한식","category":"restaurant"}]},{"lat":"37.344501107","long":"126.82076889","imageIndex":4,"items":[{"name":"돈앤우(2호점)","tel":"031-405-5920","addr":"경기도 안산시 단원구 와동 802-4번지 벽제부동산 101호","indutype":"일반휴게음식 - 일반한식","category":"restaurant"}]},{"lat":"37.346394827","long":"126.8218026","imageIndex":4,"items":[{"name":"돈장군왕갈비","tel":"031-405-1259","addr":"경기도 안산시 단원구 와동 781-13번지","indutype":"일반휴게음식 - 일반한식","category":"restaurant"},{"name":"어사출도와동점","tel":"031-405-9114","addr":"경기도 안산시 단원구 와동 781-13번지 1,2층","indutype":"일반휴게음식 - 일식·회집","category":"restaurant"}]},{"lat":"37.344474337","long":"126.82093823","imageIndex":4,"items":[{"name":"동명카츠","tel":"031-401-0882","addr":"경기도 안산시 단원구 와동 802-5번지 1층","indutype":"일반휴게음식 - 일식·회집","category":"restaurant"},{"name":"시골밥상","tel":"031-414-1092","addr":"경기도 안산시 단원구 와동 802-5번지 1층","indutype":"일반휴게음식 - 일반한식","category":"restaurant"},{"name":"이모네생아나고","tel":"031-403-0668","addr":"경기도 안산시 단원구 와동 802-5번지","indutype":"일반휴게음식 - 일반한식","category":"restaurant"}]},{"lat":"37.331723657","long":"126.82010016","imageIndex":4,"items":[{"name":"동이네미니족발바베큐","tel":"031-480-8001","addr":"경기도 안산시 단원구 와동 835번지 두원캐슬 1층","indutype":"일반휴게음식 - 일반한식","category":"restaurant"}]},{"lat":"37.345083726","long":"126.8188038","imageIndex":4,"items":[{"name":"동춘칡냉면","tel":"031-405-0996","addr":"경기도 안산시 단원구 와동 800-18번지","indutype":"일반휴게음식 - 일반한식","category":"restaurant"}]},{"lat":"37.331897193","long":"126.82760329","imageIndex":4,"items":[{"name":"동해생선조림","tel":"031-405-0301","addr":"경기도 안산시 단원구 와동 681-12번지 104호","indutype":"일반휴게음식 - 주점","category":"restaurant"},{"name":"번지없는 주막","tel":"031-414-3728","addr":"경기도 안산시 단원구 와동 681-12번지","indutype":"일반휴게음식 - 일반한식","category":"restaurant"},{"name":"열혈주당","tel":"031-402-5789","addr":"경기도 안산시 단원구 와동 681-12번지 102호","indutype":"일반휴게음식 - 일반한식","category":"restaurant"},{"name":"친구야포차치킨","tel":"","addr":"경기도 안산시 단원구 와동 681-12번지 1층","indutype":"일반휴게음식 - 일반한식","category":"restaurant"},{"name":"한양왕족발","tel":"031-411-6111","addr":"경기도 안산시 단원구 와동 681-12번지 102호","indutype":"일반휴게음식 - 일반한식","category":"restaurant"}]},{"lat":"37.341778708","long":"126.81990651","imageIndex":4,"items":[{"name":"돼지성오리장군","tel":"031-401-9291","addr":"경기도 안산시 단원구 와동 812-14번지 1층","indutype":"일반휴게음식 - 일반한식","category":"restaurant"}]},{"lat":"37.341423747","long":"126.82346214","imageIndex":4,"items":[{"name":"두리반순대국","tel":"031-405-5674","addr":"경기도 안산시 단원구 와동 763-19번지 1층","indutype":"일반휴게음식 - 일반한식","category":"restaurant"}]},{"lat":"37.34211325","long":"126.8206618","imageIndex":4,"items":[{"name":"두메산골밥집","tel":"031-503-7304","addr":"경기도 안산시 단원구 와동 810-12번지 1층","indutype":"일반휴게음식 - 일반한식","category":"restaurant"}]},{"lat":"37.332834249","long":"126.82760111","imageIndex":4,"items":[{"name":"드럼통","tel":"031-482-8640","addr":"경기도 안산시 단원구 와동 719-5번지 1층","indutype":"일반휴게음식 - 일반한식","category":"restaurant"}]},{"lat":"37.337976118","long":"126.81971262","imageIndex":4,"items":[{"name":"들꽂피네카페사회적협동조합","tel":"070-4154-2836","addr":"경기도 안산시 단원구 와동 751-6번지 1층","indutype":"일반휴게음식 - 서양음식","category":"restaurant"}]},{"lat":"37.335809781","long":"126.8172128","imageIndex":4,"items":[{"name":"딱조아","tel":"031-411-6417","addr":"경기도 안산시 단원구 와동 827번지 1층","indutype":"일반휴게음식 - 주점","category":"restaurant"},{"name":"딱조아","tel":"031-411-5949","addr":"경기도 안산시 단원구 와동 827번지 1층","indutype":"일반휴게음식 - 일반한식","category":"restaurant"}]},{"lat":"37.342834529","long":"126.82096476","imageIndex":4,"items":[{"name":"딱좋아감자탕생삼겹살","tel":"031-483-4670","addr":"경기도 안산시 단원구 와동 808-6 1층2칸","indutype":"일반휴게음식 - 일반한식","category":"restaurant"},{"name":"피치홈","tel":"031-401-2999","addr":"경기도 안산시 단원구 와동 808-6번지 101호","indutype":"일반휴게음식 - 서양음식","category":"restaurant"}]},{"lat":"37.333865352","long":"126.82421357","imageIndex":4,"items":[{"name":"땡겨유포차","tel":"031-487-2277","addr":"경기도 안산시 단원구 와동 727-1번지 101호","indutype":"일반휴게음식 - 일반한식","category":"restaurant"}]},{"lat":"37.344087318","long":"126.82121001","imageIndex":4,"items":[{"name":"땡기네","tel":"031-403-3077","addr":"경기도 안산시 단원구 와동 802-9번지 1층","indutype":"일반휴게음식 - 주점","category":"restaurant"},{"name":"마성떡볶이 안산와동점","tel":"031-405-7977","addr":"경기도 안산시 단원구 와동 802-9번지 1층 101호","indutype":"일반휴게음식 - 일반한식","category":"restaurant"},{"name":"요거프레소(안산와동점)","tel":"031-405-8029","addr":"경기도 안산시 단원구 와동 802-9번지 103호","indutype":"일반휴게음식 - 서양음식","category":"restaurant"}]},{"lat":"37.345303875","long":"126.82133122","imageIndex":4,"items":[{"name":"떡볶이하우스","tel":"031-439-0530","addr":"경기도 안산시 단원구 와동 799-9번지 101호","indutype":"일반휴게음식 - 스넥","category":"restaurant"}]},{"lat":"37.331031063","long":"126.82682675","imageIndex":4,"items":[{"name":"또봉이통닭 와동2호점","tel":"031-403-5432","addr":"경기도 안산시 단원구 와동 682-7번지 1층","indutype":"일반휴게음식 - 스넥","category":"restaurant"}]},{"lat":"37.34039255","long":"126.82677104","imageIndex":4,"items":[{"name":"똑소리나는구이","tel":"031-439-5289","addr":"경기도 안산시 단원구 와동 112-7번지 1층","indutype":"일반휴게음식 - 일반한식","category":"restaurant"},{"name":"순자네분식","tel":"031-410-9530","addr":"경기도 안산시 단원구 와동 112-7번지 속셈전문학원 102호","indutype":"일반휴게음식 - 일반한식","category":"restaurant"}]},{"lat":"37.346359252","long":"126.8221074","imageIndex":4,"items":[{"name":"뜨끈이해장국","tel":"","addr":"경기도 안산시 단원구 와동 781-11번지 1층 103호","indutype":"일반휴게음식 - 일반한식","category":"restaurant"},{"name":"파랑새포차","tel":"031-402-5343","addr":"경기도 안산시 단원구 와동 781-11번지 1층 103호","indutype":"일반휴게음식 - 일반한식","category":"restaurant"}]},{"lat":"37.336170481","long":"126.8292747","imageIndex":4,"items":[{"name":"러브송","tel":"070-8966-3527","addr":"경기도 안산시 단원구 와동 708-8번지 103호","indutype":"일반휴게음식 - 일반한식","category":"restaurant"}]},{"lat":"37.344475394","long":"126.82162664","imageIndex":4,"items":[{"name":"레인보우","tel":"031-480-6711","addr":"경기도 안산시 단원구 와동 772번지 지하1층","indutype":"일반휴게음식 - 일반한식","category":"restaurant"}]},{"lat":"37.334340875","long":"126.82890654","imageIndex":4,"items":[{"name":"롯데리아 와동지점","tel":"031-401-2188","addr":"경기도 안산시 단원구 와동 716-9번지 1층","indutype":"일반휴게음식 - 서양음식","category":"restaurant"}]},{"lat":"37.332613597","long":"126.81876653","imageIndex":4,"items":[{"name":"마니커치킨","tel":"031-403-9885","addr":"경기도 안산시 단원구 와동 840-2번지 1층","indutype":"일반휴게음식 - 스넥","category":"restaurant"},{"name":"소가네곱창","tel":"031-410-7621","addr":"경기도 안산시 단원구 와동 840-2번지","indutype":"일반휴게음식 - 일반한식","category":"restaurant"}]},{"lat":"37.331587352","long":"126.81935577","imageIndex":4,"items":[{"name":"마라도","tel":"031-411-5656","addr":"경기도 안산시 단원구 와동 836-9번지 1층","indutype":"일반휴게음식 - 일식·회집","category":"restaurant"}]},{"lat":"37.340861362","long":"126.82696179","imageIndex":4,"items":[{"name":"마루꼬치호프","tel":"031-402-1520","addr":"경기도 안산시 단원구 와동 111-7번지","indutype":"일반휴게음식 - 주점","category":"restaurant"}]},{"lat":"37.345727386","long":"126.82135278","imageIndex":4,"items":[{"name":"마린보이동태해물찜코다리1번가","tel":"031-481-8833","addr":"경기도 안산시 단원구 와동 794-9번지 청솔회관 1층","indutype":"일반휴게음식 - 일반한식","category":"restaurant"},{"name":"장터삼겹살","tel":"03-403-7022","addr":"경기도 안산시 단원구 와동 794-9번지 1층","indutype":"일반휴게음식 - 일반한식","category":"restaurant"}]},{"lat":"37.332226599","long":"126.81904956","imageIndex":4,"items":[{"name":"마실","tel":"","addr":"경기도 안산시 단원구 와동 839-7번지 103호","indutype":"일반휴게음식 - 주점","category":"restaurant"},{"name":"술의나라","tel":"031-403-5213","addr":"경기도 안산시 단원구 와동 839-7번지 1층","indutype":"일반휴게음식 - 주점","category":"restaurant"},{"name":"잘먹구잘사는집","tel":"031-439-9880","addr":"경기도 안산시 단원구 와동 839-7번지 104호","indutype":"일반휴게음식 - 일반한식","category":"restaurant"}]},{"lat":"37.344114954","long":"126.82160494","imageIndex":4,"items":[{"name":"마포네숯불갈비","tel":"031-405-9282","addr":"경기도 안산시 단원구 와동 772-6번지 1층","indutype":"일반휴게음식 - 일반한식","category":"restaurant"}]},{"lat":"37.344500638","long":"126.82046418","imageIndex":4,"items":[{"name":"막퍼주는집","tel":"031-482-8496","addr":"경기도 안산시 단원구 와동 802-2번지 1층","indutype":"일반휴게음식 - 주점","category":"restaurant"}]},{"lat":"37.336755161","long":"126.82860759","imageIndex":4,"items":[{"name":"만남","tel":"031-401-0058","addr":"경기도 안산시 단원구 와동 713-7번지 1층","indutype":"일반휴게음식 - 일반한식","category":"restaurant"}]},{"lat":"37.345555899","long":"126.82116133","imageIndex":4,"items":[{"name":"만남생고기감자탕","tel":"031-410-2147","addr":"경기도 안산시 단원구 와동 794-11번지 1층","indutype":"일반휴게음식 - 일반한식","category":"restaurant"}]},{"lat":"37.333864943","long":"126.82394275","imageIndex":4,"items":[{"name":"만냥포차","tel":"","addr":"경기도 안산시 단원구 와동 727-9번지 상가 101호","indutype":"일반휴게음식 - 일반한식","category":"restaurant"},{"name":"화통족발","tel":"031-487-5450","addr":"경기도 안산시 단원구 와동 727-9번지 1층","indutype":"일반휴게음식 - 일반한식","category":"restaurant"}]},{"lat":"37.341476298","long":"126.82246894","imageIndex":4,"items":[{"name":"만복만두","tel":"031-482-4123","addr":"경기도 안산시 단원구 와동 764-17번지 1층","indutype":"일반휴게음식 - 일반한식","category":"restaurant"}]},{"lat":"37.338082944","long":"126.81887731","imageIndex":4,"items":[{"name":"맘스터치치킨","tel":"031-483-1414","addr":"경기도 안산시 단원구 와동 819-15번지 1층","indutype":"일반휴게음식 - 스넥","category":"restaurant"},{"name":"맘스터치치킨","tel":"031-483-1414","addr":"경기도 안산시 단원구 와동 819-15번지 1층","indutype":"일반휴게음식 - 스넥","category":"restaurant"}]},{"lat":"37.332086289","long":"126.82752386","imageIndex":4,"items":[{"name":"맛강정치킨(와동점)","tel":"02-930-2001","addr":"경기도 안산시 단원구 와동 681번지 1층","indutype":"일반휴게음식 - 스넥","category":"restaurant"}]},{"lat":"37.345169277","long":"126.82169269","imageIndex":4,"items":[{"name":"맞짱","tel":"031-484-3190","addr":"경기도 안산시 단원구 와동 779번지 1층","indutype":"일반휴게음식 - 주점","category":"restaurant"},{"name":"맞짱","tel":"031-484-3190","addr":"경기도 안산시 단원구 와동 779번지 1층 101,102,103호","indutype":"일반휴게음식 - 주점","category":"restaurant"},{"name":"용추골순대국","tel":"031-414-3676","addr":"경기도 안산시 단원구 와동 779번지 106,107호","indutype":"일반휴게음식 - 일반한식","category":"restaurant"},{"name":"착칸","tel":"031-481-8571","addr":"경기도 안산시 단원구 와동 779번지 2층","indutype":"일반휴게음식 - 일반한식","category":"restaurant"}]},{"lat":"37.335279072","long":"126.82968298","imageIndex":4,"items":[{"name":"맥노","tel":"031-410-1989","addr":"경기도 안산시 단원구 와동 707-17번지 102호","indutype":"일반휴게음식 - 주점","category":"restaurant"},{"name":"멕시카나와동사랑점","tel":"031-401-0082","addr":"경기도 안산시 단원구 와동 707-17번지 1층","indutype":"일반휴게음식 - 스넥","category":"restaurant"},{"name":"카페브론즈","tel":"031-000-0000","addr":"경기도 안산시 단원구 와동 707-17번지 1층","indutype":"일반휴게음식 - 서양음식","category":"restaurant"}]},{"lat":"37.331617912","long":"126.82762651","imageIndex":4,"items":[{"name":"맥시칸","tel":"031-405-3012","addr":"경기도 안산시 단원구 와동 683번지 1층","indutype":"일반휴게음식 - 주점","category":"restaurant"},{"name":"배트맨","tel":"031-410-8586","addr":"경기도 안산시 단원구 와동 683번지 1층","indutype":"일반휴게음식 - 스넥","category":"restaurant"},{"name":"사리골 엔 콩나물","tel":"031-405-0102","addr":"경기도 안산시 단원구 와동 683번지","indutype":"일반휴게음식 - 일반한식","category":"restaurant"}]},{"lat":"37.33275036","long":"126.81980429","imageIndex":4,"items":[{"name":"맹구분식","tel":"031-403-0919","addr":"경기도 안산시 단원구 와동 837번지 101호","indutype":"일반휴게음식 - 일반한식","category":"restaurant"},{"name":"맹구분식 안산점","tel":"031-403-0919","addr":"경기도 안산시 단원구 와동 837번지 1층 101호","indutype":"일반휴게음식 - 일반한식","category":"restaurant"}]},{"lat":"37.337424079","long":"126.81815672","imageIndex":4,"items":[{"name":"머슴식당양푼생갈비","tel":"031-413-7724","addr":"경기도 안산시 단원구 와동 821번지 103호","indutype":"일반휴게음식 - 일반한식","category":"restaurant"},{"name":"이모네칼국수","tel":"031-401-0767","addr":"경기도 안산시 단원구 와동 821번지","indutype":"일반휴게음식 - 일반한식","category":"restaurant"}]},{"lat":"37.342029539","long":"126.81896925","imageIndex":4,"items":[{"name":"먹거리장터","tel":"031-439-3220","addr":"경기도 안산시 단원구 와동 810-25번지","indutype":"일반휴게음식 - 일반한식","category":"restaurant"}]},{"lat":"37.343673406","long":"126.82157214","imageIndex":4,"items":[{"name":"멀티포차","tel":"031-413-9400","addr":"경기도 안산시 단원구 와동 771번지 2층","indutype":"일반휴게음식 - 주점","category":"restaurant"},{"name":"별이빛나는밤에","tel":"","addr":"경기도 안산시 단원구 와동 771번지 2층","indutype":"일반휴게음식 - 일반한식","category":"restaurant"}]},{"lat":"37.343167435","long":"126.82065925","imageIndex":4,"items":[{"name":"명동꼼장어닭발","tel":"031-414-9293","addr":"경기도 안산시 단원구 와동 805-7번지 1층","indutype":"일반휴게음식 - 일반한식","category":"restaurant"}]},{"lat":"37.333945522","long":"126.82360405","imageIndex":4,"items":[{"name":"명성오리","tel":"031-414-8222","addr":"경기도 안산시 단원구 와동 733-4번지 1층","indutype":"일반휴게음식 - 일반한식","category":"restaurant"},{"name":"종갓집","tel":"031-483-9888","addr":"경기도 안산시 단원구 와동 733-4 101호~102호","indutype":"일반휴게음식 - 일반한식","category":"restaurant"},{"name":"푸른바다","tel":"031-483-9888","addr":"경기도 안산시 단원구 와동 733-4번지 101,102호","indutype":"일반휴게음식 - 일반한식","category":"restaurant"}]},{"lat":"37.341116854","long":"126.82310175","imageIndex":4,"items":[{"name":"모란생삼겹살","tel":"031-486-1337","addr":"경기도 안산시 단원구 와동 760-2번지 1층","indutype":"일반휴게음식 - 일반한식","category":"restaurant"},{"name":"백마강호프","tel":"031-402-8032","addr":"경기도 안산시 단원구 와동 760-2번지 1층","indutype":"일반휴게음식 - 주점","category":"restaurant"},{"name":"에이블커피","tel":"031-000-0000","addr":"경기도 안산시 단원구 와동 760-2번지 고려약국 101호","indutype":"일반휴게음식 - 서양음식","category":"restaurant"}]},{"lat":"37.3333954","long":"126.81743314","imageIndex":4,"items":[{"name":"무진각중화요리","tel":"031-487-5633","addr":"경기도 안산시 단원구 와동 829번지 무진연립 상가 102호","indutype":"일반휴게음식 - 중국식","category":"restaurant"}]},{"lat":"37.333585247","long":"126.82974329","imageIndex":4,"items":[{"name":"문스갈비","tel":"031-486-9279","addr":"경기도 안산시 단원구 와동 698-10번지 농심가슈퍼 1층 101호","indutype":"일반휴게음식 - 일반한식","category":"restaurant"}]},{"lat":"37.336088859","long":"126.8289138","imageIndex":4,"items":[{"name":"물보라호프","tel":"031-413-8689","addr":"경기도 안산시 단원구 와동 715-3번지 1층","indutype":"일반휴게음식 - 주점","category":"restaurant"},{"name":"하노이포","tel":"031-401-5024","addr":"경기도 안산시 단원구 와동 715-3번지 오터월드 1층 101호","indutype":"일반휴게음식 - 서양음식","category":"restaurant"}]},{"lat":"37.332202752","long":"126.82707225","imageIndex":4,"items":[{"name":"미가백반전문점","tel":"031-402-8934","addr":"경기도 안산시 단원구 와동 721-5번지 1층일부","indutype":"일반휴게음식 - 스넥","category":"restaurant"},{"name":"커피가게(coffee gage)","tel":"031-486-8476","addr":"경기도 안산시 단원구 와동 721-5번지 1층","indutype":"일반휴게음식 - 서양음식","category":"restaurant"}]},{"lat":"37.346583434","long":"126.82140714","imageIndex":4,"items":[{"name":"미가설렁탕전문","tel":"031-486-9669","addr":"경기도 안산시 단원구 와동 793-11번지 103호","indutype":"일반휴게음식 - 일반한식","category":"restaurant"},{"name":"빛고을","tel":"031-401-3330","addr":"경기도 안산시 단원구 와동 793-11번지 1층 104호","indutype":"일반휴게음식 - 주점","category":"restaurant"}]},{"lat":"37.347169784","long":"126.82185717","imageIndex":4,"items":[{"name":"미미초밥","tel":"031-480-1288","addr":"경기도 안산시 단원구 와동 786-13번지 다인빌 102호","indutype":"일반휴게음식 - 일식·회집","category":"restaurant"},{"name":"월매","tel":"031-482-8738","addr":"경기도 안산시 단원구 와동 786-13번지 다인빌 1층 101호","indutype":"일반휴게음식 - 일반한식","category":"restaurant"}]},{"lat":"37.333226006","long":"126.82446332","imageIndex":4,"items":[{"name":"미미치킨","tel":"031-402-1826","addr":"경기도 안산시 단원구 와동 726-5번지","indutype":"일반휴게음식 - 일반한식","category":"restaurant"},{"name":"호박이넝쿨째","tel":"","addr":"경기도 안산시 단원구 와동 726-5번지 훼미리탕수육 102호","indutype":"일반휴게음식 - 일반한식","category":"restaurant"}]},{"lat":"37.333448575","long":"126.82269124","imageIndex":4,"items":[{"name":"민속주점마당","tel":"031-439-6269","addr":"경기도 안산시 단원구 와동 735-2번지 104,105호","indutype":"일반휴게음식 - 일반한식","category":"restaurant"},{"name":"안산고기","tel":"031-403-9969","addr":"경기도 안산시 단원구 와동 735-2번지","indutype":"일반휴게음식 - 일반한식","category":"restaurant"},{"name":"인생푸드 안산단원점","tel":"031-401-1306","addr":"경기도 안산시 단원구 와동 735-2번지 101호","indutype":"일반휴게음식 - 일반한식","category":"restaurant"}]},{"lat":"37.344780716","long":"126.82096006","imageIndex":4,"items":[{"name":"바람부리명태찜","tel":"031-413-8497","addr":"경기도 안산시 단원구 와동 799-14번지","indutype":"일반휴게음식 - 일반한식","category":"restaurant"}]},{"lat":"37.333307234","long":"126.8245534","imageIndex":4,"items":[{"name":"바위섬","tel":"031-403-3468","addr":"경기도 안산시 단원구 와동 726-4번지 으뜸피아노교습소 104호","indutype":"일반휴게음식 - 일반한식","category":"restaurant"}]},{"lat":"37.337916737","long":"126.82810839","imageIndex":4,"items":[{"name":"박가네숯불갈비","tel":"031-402-8883","addr":"경기도 안산시 단원구 와동 714번지 문빌딩 1층 10호","indutype":"일반휴게음식 - 일반한식","category":"restaurant"},{"name":"피자헐","tel":"031-439-8482","addr":"경기도 안산시 단원구 와동 714번지 문빌딩 101호","indutype":"일반휴게음식 - 서양음식","category":"restaurant"}]},{"lat":"37.345312626","long":"126.82116192","imageIndex":4,"items":[{"name":"박대포5000냥포차","tel":"031-411-8205","addr":"경기도 안산시 단원구 와동 799-8번지 1층","indutype":"일반휴게음식 - 일반한식","category":"restaurant"}]},{"lat":"37.346087583","long":"126.82121648","imageIndex":4,"items":[{"name":"밥심이 청국장","tel":"031-411-5103","addr":"경기도 안산시 단원구 와동 794-6번지 102호","indutype":"일반휴게음식 - 일반한식","category":"restaurant"}]},{"lat":"37.333423684","long":"126.82410177","imageIndex":4,"items":[{"name":"방자전","tel":"031-403-4161","addr":"경기도 안산시 단원구 와동 726-7번지 103호","indutype":"일반휴게음식 - 일반한식","category":"restaurant"}]},{"lat":"37.334503223","long":"126.82901901","imageIndex":4,"items":[{"name":"배가족발","tel":"031-439-9595","addr":"경기도 안산시 단원구 와동 716-8번지 102호","indutype":"일반휴게음식 - 일반한식","category":"restaurant"},{"name":"사랑터 호프","tel":"","addr":"경기도 안산시 단원구 와동 716-8번지 1층","indutype":"일반휴게음식 - 주점","category":"restaurant"}]},{"lat":"37.333333864","long":"126.81841497","imageIndex":4,"items":[{"name":"배달의쌀국수 안산단원점","tel":"031-401-0844","addr":"경기도 안산시 단원구 와동 829-1번지 마동 101,106호","indutype":"일반휴게음식 - 서양음식","category":"restaurant"},{"name":"호호커피","tel":"031-413-7702","addr":"경기도 안산시 단원구 와동 829-1번지 배원연립","indutype":"일반휴게음식 - 서양음식","category":"restaurant"}]},{"lat":"37.33491822","long":"126.82937914","imageIndex":4,"items":[{"name":"백년교동짬뽕","tel":"031-484-9666","addr":"경기도 안산시 단원구 와동 716-5번지 102,103호","indutype":"일반휴게음식 - 중국식","category":"restaurant"}]},{"lat":"37.343699848","long":"126.82118838","imageIndex":4,"items":[{"name":"베리치킨","tel":"031-401-1015","addr":"경기도 안산시 단원구 와동 805-1번지 1층","indutype":"일반휴게음식 - 주점","category":"restaurant"}]},{"lat":"37.342061025","long":"126.82185814","imageIndex":4,"items":[{"name":"별난식당","tel":"","addr":"경기도 안산시 단원구 와동 765번지 1층","indutype":"일반휴게음식 - 일반한식","category":"restaurant"}]},{"lat":"37.342312115","long":"126.82107887","imageIndex":4,"items":[{"name":"병천순대","tel":"031-482-1239","addr":"경기도 안산시 단원구 와동 808-10번지 1층","indutype":"일반휴게음식 - 일반한식","category":"restaurant"}]},{"lat":"37.332536546","long":"126.82735356","imageIndex":4,"items":[{"name":"병천순대 감자탕","tel":"031-413-3332","addr":"경기도 안산시 단원구 와동 719-8번지","indutype":"일반휴게음식 - 일반한식","category":"restaurant"},{"name":"이가네","tel":"031-413-3331","addr":"경기도 안산시 단원구 와동 719-8번지 1층","indutype":"일반휴게음식 - 일반한식","category":"restaurant"}]},{"lat":"37.341424294","long":"126.82382326","imageIndex":4,"items":[{"name":"보니또치킨호프","tel":"031-499-5809","addr":"경기도 안산시 단원구 와동 763-17번지 1층","indutype":"일반휴게음식 - 주점","category":"restaurant"}]},{"lat":"37.341474269","long":"126.82710707","imageIndex":4,"items":[{"name":"봉달이","tel":"031-405-0766","addr":"경기도 안산시 단원구 와동 98-6번지 1층 101,102호","indutype":"일반휴게음식 - 일반한식","category":"restaurant"}]},{"lat":"37.335755484","long":"126.82891457","imageIndex":4,"items":[{"name":"봉황뜰오리","tel":"031-486-5989","addr":"경기도 안산시 단원구 와동 715-6번지","indutype":"일반휴게음식 - 일반한식","category":"restaurant"}]},{"lat":"37.331782797","long":"126.8175725","imageIndex":4,"items":[{"name":"불날개","tel":"031-486-2088","addr":"경기도 안산시 단원구 와동 845-17번지 103호","indutype":"일반휴게음식 - 주점","category":"restaurant"}]},{"lat":"37.33120291","long":"126.8272664","imageIndex":4,"items":[{"name":"불족대감","tel":"031-413-4214","addr":"경기도 안산시 단원구 와동 684-9번지 102호","indutype":"일반휴게음식 - 일반한식","category":"restaurant"},{"name":"엽기떡볶이","tel":"031-402-8592","addr":"경기도 안산시 단원구 와동 684-9번지 상가 1층","indutype":"일반휴게음식 - 스넥","category":"restaurant"},{"name":"하노이찜닭","tel":"031-402-3002","addr":"경기도 안산시 단원구 와동 684-9번지 상가 103호","indutype":"일반휴게음식 - 일반한식","category":"restaurant"}]},{"lat":"37.333783134","long":"126.82346903","imageIndex":4,"items":[{"name":"불타는생돼지","tel":"031-405-2731","addr":"경기도 안산시 단원구 와동 733-5번지 1층","indutype":"일반휴게음식 - 일반한식","category":"restaurant"},{"name":"손미명태항구","tel":"031-439-9922","addr":"경기도 안산시 단원구 와동 733-5번지 혜운프라자 104호","indutype":"일반휴게음식 - 일반한식","category":"restaurant"}]},{"lat":"37.340305405","long":"126.82876865","imageIndex":4,"items":[{"name":"브라보치킨호프","tel":"031-413-4464","addr":"경기도 안산시 단원구 와동 121-6번지 101호","indutype":"일반휴게음식 - 주점","category":"restaurant"},{"name":"브라보치킨호프","tel":"031-413-4464","addr":"경기도 안산시 단원구 와동 121-6번지 101호","indutype":"일반휴게음식 - 일반한식","category":"restaurant"}]},{"lat":"37.334946521","long":"126.83024794","imageIndex":4,"items":[{"name":"블랙로즈","tel":"031-413-2676","addr":"경기도 안산시 단원구 와동 694-8번지 1층","indutype":"일반휴게음식 - 일반한식","category":"restaurant"},{"name":"힐링포차","tel":"031-402-2837","addr":"경기도 안산시 단원구 와동 694-8번지 1층","indutype":"일반휴게음식 - 일반한식","category":"restaurant"}]},{"lat":"37.344806982","long":"126.82046344","imageIndex":4,"items":[{"name":"블랙로즈","tel":"031-403-2676","addr":"경기도 안산시 단원구 와동 799-17번지","indutype":"일반휴게음식 - 주점","category":"restaurant"},{"name":"와동웰빙가정식백반","tel":"031-483-7237","addr":"경기도 안산시 단원구 와동 799-17번지 1층","indutype":"일반휴게음식 - 일반한식","category":"restaurant"}]},{"lat":"37.341804759","long":"126.81927449","imageIndex":4,"items":[{"name":"비버스치킨","tel":"031-483-8292","addr":"경기도 안산시 단원구 와동 811-7번지 101호","indutype":"일반휴게음식 - 주점","category":"restaurant"}]},{"lat":"37.332895996","long":"126.82670956","imageIndex":4,"items":[{"name":"비어사케와동점","tel":"031-485-2210","addr":"경기도 안산시 단원구 와동 720-11번지 1층","indutype":"일반휴게음식 - 스넥","category":"restaurant"}]},{"lat":"37.33306057","long":"126.82832274","imageIndex":4,"items":[{"name":"비어엔터","tel":"031-482-2004","addr":"경기도 안산시 단원구 와동 679번지 2층","indutype":"일반휴게음식 - 주점","category":"restaurant"},{"name":"용팔이네","tel":"070-4307-9241","addr":"경기도 안산시 단원구 와동 679번지 1층","indutype":"일반휴게음식 - 일반한식","category":"restaurant"}]},{"lat":"37.34288786","long":"126.82049065","imageIndex":4,"items":[{"name":"빨강여우","tel":"","addr":"경기도 안산시 단원구 와동 808-3번지 1층","indutype":"일반휴게음식 - 일반한식","category":"restaurant"},{"name":"힐링비어","tel":"070-4254-0160","addr":"경기도 안산시 단원구 와동 808-3번지 1층","indutype":"일반휴게음식 - 주점","category":"restaurant"}]},{"lat":"37.3451692771","long":"126.8216926856","imageIndex":4,"items":[{"name":"뿅가아이스 와동2호점","tel":"031-410-6588","addr":"경기도 안산시 단원구 와동 779번지","indutype":"도매 및 소매업 - 기타음식","category":"restaurant"}]},{"lat":"37.338784362","long":"126.8179954","imageIndex":4,"items":[{"name":"뿅닭도리탕&찜닭","tel":"031-487-1442","addr":"경기도 안산시 단원구 와동 814-5번지 104호","indutype":"일반휴게음식 - 일반한식","category":"restaurant"}]},{"lat":"37.346393719","long":"126.82108032","imageIndex":4,"items":[{"name":"사랑나누미카페","tel":"031-405-6448","addr":"경기도 안산시 단원구 와동 793-14번지","indutype":"일반휴게음식 - 서양음식","category":"restaurant"}]},{"lat":"37.337116569","long":"126.8174127","imageIndex":4,"items":[{"name":"삼국집돼지국밥감자탕","tel":"031-443-5340","addr":"경기도 안산시 단원구 와동 821-17번지 1층","indutype":"일반휴게음식 - 일반한식","category":"restaurant"}]},{"lat":"37.331673007","long":"126.82832595","imageIndex":4,"items":[{"name":"삼부자","tel":"031-401-0544","addr":"경기도 안산시 단원구 와동 681-5번지 1층 101호","indutype":"일반휴게음식 - 일반한식","category":"restaurant"}]},{"lat":"37.33150063","long":"126.82752523","imageIndex":4,"items":[{"name":"새벽수산","tel":"031-410-2888","addr":"경기도 안산시 단원구 와동 683-9번지 1층","indutype":"일반휴게음식 - 일반한식","category":"restaurant"}]},{"lat":"37.341449817","long":"126.82283012","imageIndex":4,"items":[{"name":"서울깍두기","tel":"031-403-7922","addr":"경기도 안산시 단원구 와동 764-15번지 1층","indutype":"일반휴게음식 - 일반한식","category":"restaurant"}]},{"lat":"37.332588033","long":"126.82562705","imageIndex":4,"items":[{"name":"서울돈까스","tel":"031-481-9775","addr":"경기도 안산시 단원구 와동 724-6번지 101호","indutype":"일반휴게음식 - 일반한식","category":"restaurant"}]},{"lat":"37.344389841","long":"126.81873778","imageIndex":4,"items":[{"name":"선부할머니닭발","tel":"031-480-5530","addr":"경기도 안산시 단원구 와동 801-19번지","indutype":"일반휴게음식 - 일반한식","category":"restaurant"}]},{"lat":"37.344807243","long":"126.82063272","imageIndex":4,"items":[{"name":"세븐호프","tel":"031-410-8619","addr":"경기도 안산시 단원구 와동 799-16번지 1층","indutype":"일반휴게음식 - 주점","category":"restaurant"}]},{"lat":"37.332391814","long":"126.82697026","imageIndex":4,"items":[{"name":"소주창고","tel":"031-484-1103","addr":"경기도 안산시 단원구 와동 721-3번지 101-102호","indutype":"일반휴게음식 - 주점","category":"restaurant"},{"name":"하나비","tel":"031-403-1890","addr":"경기도 안산시 단원구 와동 721-3번지 101. 102호","indutype":"일반휴게음식 - 주점","category":"restaurant"},{"name":"할매곱창막창","tel":"031-481-9424","addr":"경기도 안산시 단원구 와동 721-3번지 1층","indutype":"일반휴게음식 - 일반한식","category":"restaurant"},{"name":"화덕 불 닭발포차","tel":"031-414-8161","addr":"경기도 안산시 단원구 와동 721-3번지 1층 102호","indutype":"일반휴게음식 - 일반한식","category":"restaurant"}]},{"lat":"37.33175278","long":"126.82743437","imageIndex":4,"items":[{"name":"솔이네 아구찜","tel":"031-414-8374","addr":"경기도 안산시 단원구 와동 682-1번지 1층","indutype":"일반휴게음식 - 일반한식","category":"restaurant"}]},{"lat":"37.347805309","long":"126.81913573","imageIndex":4,"items":[{"name":"송가네","tel":"031-401-8188","addr":"경기도 안산시 단원구 와동 789번지 1층","indutype":"일반휴게음식 - 일반한식","category":"restaurant"},{"name":"옛날잔치국수","tel":"031-475-7007","addr":"경기도 안산시 단원구 와동 789번지","indutype":"일반휴게음식 - 일반한식","category":"restaurant"},{"name":"오마니순대국","tel":"031-439-9290","addr":"경기도 안산시 단원구 와동 789번지 1층","indutype":"일반휴게음식 - 일반한식","category":"restaurant"},{"name":"일광식당","tel":"031-410-9888","addr":"경기도 안산시 단원구 와동 789번지 1층","indutype":"일반휴게음식 - 일반한식","category":"restaurant"}]},{"lat":"37.3369452","long":"126.81730028","imageIndex":4,"items":[{"name":"송담추어탕","tel":"031-401-1336","addr":"경기도 안산시 단원구 와동 821-16번지 1층","indutype":"일반휴게음식 - 일반한식","category":"restaurant"}]},{"lat":"37.342251083","long":"126.82241066","imageIndex":4,"items":[{"name":"수마일","tel":"031-439-1599","addr":"경기도 안산시 단원구 와동 768-14번지 1층","indutype":"일반휴게음식 - 일반한식","category":"restaurant"}]},{"lat":"37.339916119","long":"126.82751695","imageIndex":4,"items":[{"name":"수정커피숍","tel":"02-000-0000","addr":"경기도 안산시 단원구 와동 120번지 1층 16호","indutype":"일반휴게음식 - 일반한식","category":"restaurant"},{"name":"하하떡볶이","tel":"070-4090-3033","addr":"경기도 안산시 단원구 와동 120번지 1동 16호","indutype":"일반휴게음식 - 일반한식","category":"restaurant"}]},{"lat":"37.332952282","long":"126.82821016","imageIndex":4,"items":[{"name":"수제 수원갈비","tel":"031-405-7662","addr":"경기도 안산시 단원구 와동 679-12번지 1층","indutype":"일반휴게음식 - 일반한식","category":"restaurant"}]},{"lat":"37.333695672","long":"126.82521823","imageIndex":4,"items":[{"name":"순수치킨","tel":"031-410-5855","addr":"경기도 안산시 단원구 와동 720번지 1층","indutype":"일반휴게음식 - 주점","category":"restaurant"}]},{"lat":"37.342086567","long":"126.82088757","imageIndex":4,"items":[{"name":"술이동동","tel":"070-4254-0160","addr":"경기도 안산시 단원구 와동 812번지 한다정육점 1층 102호","indutype":"일반휴게음식 - 일반한식","category":"restaurant"},{"name":"시골밥상","tel":"031-414-3614","addr":"경기도 안산시 단원구 와동 812번지","indutype":"일반휴게음식 - 일반한식","category":"restaurant"},{"name":"후라이드바삭킹 와동점","tel":"031-410-5556","addr":"경기도 안산시 단원구 와동 812번지","indutype":"일반휴게음식 - 일반한식","category":"restaurant"}]},{"lat":"37.347169179","long":"126.82146216","imageIndex":4,"items":[{"name":"술집ㅋㅋ","tel":"031-111-1111","addr":"경기도 안산시 단원구 와동 788-10번지 1층","indutype":"일반휴게음식 - 일반한식","category":"restaurant"},{"name":"장수흑염소","tel":"031-500-8817","addr":"경기도 안산시 단원구 와동 788-10번지 1층","indutype":"일반휴게음식 - 일반한식","category":"restaurant"}]},{"lat":"37.334006016","long":"126.82191133","imageIndex":4,"items":[{"name":"쉐프의미식","tel":"031-487-8977","addr":"경기도 안산시 단원구 와동 736번지 효자빌라 상가동 1층 106호","indutype":"일반휴게음식 - 일반한식","category":"restaurant"}]},{"lat":"37.33183362","long":"126.82726493","imageIndex":4,"items":[{"name":"스마일","tel":"","addr":"경기도 안산시 단원구 와동 682번지","indutype":"일반휴게음식 - 스넥","category":"restaurant"}]},{"lat":"37.340394186","long":"126.82188471","imageIndex":4,"items":[{"name":"스시63","tel":"031-402-3302","addr":"경기도 안산시 단원구 와동 758-9번지 1층","indutype":"일반휴게음식 - 일식·회집","category":"restaurant"}]},{"lat":"37.336836817","long":"126.82899106","imageIndex":4,"items":[{"name":"시골누룽지","tel":"031-401-8338","addr":"경기도 안산시 단원구 와동 709-7번지 102호","indutype":"일반휴게음식 - 일반한식","category":"restaurant"}]},{"lat":"37.341753902","long":"126.82732083","imageIndex":4,"items":[{"name":"시골밥상","tel":"031-439-9233","addr":"경기도 안산시 단원구 와동 98-10번지 1층","indutype":"일반휴게음식 - 일반한식","category":"restaurant"}]},{"lat":"37.331612821","long":"126.81835148","imageIndex":4,"items":[{"name":"시골장터","tel":"031-416-1211","addr":"경기도 안산시 단원구 와동 845-12번지 101,102호","indutype":"일반휴게음식 - 일반한식","category":"restaurant"},{"name":"준희네백반","tel":"062-945-3033","addr":"경기도 안산시 단원구 와동 845-12번지 1층","indutype":"일반휴게음식 - 일반한식","category":"restaurant"}]},{"lat":"37.33997972","long":"126.82188571","imageIndex":4,"items":[{"name":"시골집","tel":"031-495-1574","addr":"경기도 안산시 단원구 와동 758-7번지 1층","indutype":"일반휴게음식 - 일반한식","category":"restaurant"}]},{"lat":"37.342782508","long":"126.82229653","imageIndex":4,"items":[{"name":"시골포장마차","tel":"031-411-7018","addr":"경기도 안산시 단원구 와동 769-5번지 1층","indutype":"일반휴게음식 - 일반한식","category":"restaurant"},{"name":"시골포차","tel":"031-411-7018","addr":"경기도 안산시 단원구 와동 769-5번지","indutype":"일반휴게음식 - 일반한식","category":"restaurant"}]},{"lat":"37.33328529","long":"126.82796114","imageIndex":4,"items":[{"name":"시루향기콩나물국밥(와동점)","tel":"031-411-1723","addr":"경기도 안산시 단원구 와동 719-1번지 102호","indutype":"일반휴게음식 - 일반한식","category":"restaurant"},{"name":"연탄마루","tel":"031-403-2828","addr":"경기도 안산시 단원구 와동 719-1번지","indutype":"일반휴게음식 - 일반한식","category":"restaurant"},{"name":"한우모리","tel":"031-402-5237","addr":"경기도 안산시 단원구 와동 719-1번지 1층","indutype":"일반휴게음식 - 일반한식","category":"restaurant"}]},{"lat":"37.344889911","long":"126.8216595","imageIndex":4,"items":[{"name":"신서방장수왕족발보쌈","tel":"031-410-7333","addr":"경기도 안산시 단원구 와동 779-6번지 101호","indutype":"일반휴게음식 - 일반한식","category":"restaurant"}]},{"lat":"37.333229517","long":"126.82085252","imageIndex":4,"items":[{"name":"신유닭발","tel":"031-413-1076","addr":"경기도 안산시 단원구 와동 830-2번지 신유빌라7차 상가동 1층 101호","indutype":"일반휴게음식 - 일반한식","category":"restaurant"}]},{"lat":"37.341672309","long":"126.82102399","imageIndex":4,"items":[{"name":"신주 사골칼국수","tel":"031-401-1110","addr":"경기도 안산시 단원구 와동 812-4번지 대원부동산 1층 101호","indutype":"일반휴게음식 - 일반한식","category":"restaurant"},{"name":"진땡이명태조림","tel":"031-401-3124","addr":"경기도 안산시 단원구 와동 812-4번지 1층 일부 103호","indutype":"일반휴게음식 - 일반한식","category":"restaurant"}]},{"lat":"37.342861299","long":"126.82079542","imageIndex":4,"items":[{"name":"실내포차하누리","tel":"031-402-9770","addr":"경기도 안산시 단원구 와동 808-5번지 1층","indutype":"일반휴게음식 - 주점","category":"restaurant"},{"name":"엄마밥상","tel":"031-484-9996","addr":"경기도 안산시 단원구 와동 808-5번지 1층","indutype":"일반휴게음식 - 일반한식","category":"restaurant"},{"name":"한판한우곱창","tel":"031-484-6879","addr":"경기도 안산시 단원구 와동 808-5번지 1층","indutype":"일반휴게음식 - 일반한식","category":"restaurant"}]},{"lat":"37.333755298","long":"126.82293876","imageIndex":4,"items":[{"name":"씨엠엑스맥스치킨","tel":"031-402-9242","addr":"경기도 안산시 단원구 와동 735번지 1층","indutype":"일반휴게음식 - 주점","category":"restaurant"},{"name":"천산대반점","tel":"031-747-3133","addr":"경기도 안산시 단원구 와동 735번지 1층","indutype":"일반휴게음식 - 중국식","category":"restaurant"}]},{"lat":"37.340340122","long":"126.83407243","imageIndex":4,"items":[{"name":"안산시니어클럽꽃빛공원휴게소","tel":"031-403-6360","addr":"경기도 안산시 단원구 와동 37-2번지 A동관리사무소 2층","indutype":"일반휴게음식 - 일반한식","category":"restaurant"}]},{"lat":"37.341951658","long":"126.82104588","imageIndex":4,"items":[{"name":"애플김밥","tel":"031-414-1277","addr":"경기도 안산시 단원구 와동 812-2번지","indutype":"일반휴게음식 - 일반한식","category":"restaurant"},{"name":"오돌불닭발","tel":"031-482-5253","addr":"경기도 안산시 단원구 와동 812-2번지 1층","indutype":"일반휴게음식 - 일반한식","category":"restaurant"}]},{"lat":"37.340168932","long":"126.82188526","imageIndex":4,"items":[{"name":"야꼬닭","tel":"031-483-8254","addr":"경기도 안산시 단원구 와동 758-8번지 1층 101호,102호","indutype":"일반휴게음식 - 일반한식","category":"restaurant"}]},{"lat":"37.336368008","long":"126.82880031","imageIndex":4,"items":[{"name":"야화","tel":"031-402-6782","addr":"경기도 안산시 단원구 와동 715-1번지 1층","indutype":"일반휴게음식 - 주점","category":"restaurant"}]},{"lat":"37.331613295","long":"126.81865613","imageIndex":4,"items":[{"name":"얌얌분식","tel":"031-414-6723","addr":"경기도 안산시 단원구 와동 845-10번지 101호","indutype":"일반휴게음식 - 스넥","category":"restaurant"},{"name":"한판승부","tel":"031-475-9960","addr":"경기도 안산시 단원구 와동 845-10번지 1층","indutype":"일반휴게음식 - 주점","category":"restaurant"}]},{"lat":"37.340671444","long":"126.82648827","imageIndex":4,"items":[{"name":"양양막국수","tel":"031-413-2224","addr":"경기도 안산시 단원구 와동 112번지","indutype":"일반휴게음식 - 일반한식","category":"restaurant"}]},{"lat":"37.333646894","long":"126.82877274","imageIndex":4,"items":[{"name":"엄마손포천순대국","tel":"031-439-8351","addr":"경기도 안산시 단원구 와동 697-10번지 C2911004(1층)","indutype":"일반휴게음식 - 일반한식","category":"restaurant"},{"name":"황소숯불꼼장어","tel":"031-484-5707","addr":"경기도 안산시 단원구 와동 697-10번지 1층","indutype":"일반휴게음식 - 일반한식","category":"restaurant"}]},{"lat":"37.339339914","long":"126.82183082","imageIndex":4,"items":[{"name":"에스에디치킨","tel":"031-482-0219","addr":"경기도 안산시 단원구 와동 753-14번지","indutype":"일반휴게음식 - 스넥","category":"restaurant"}]},{"lat":"37.331474867","long":"126.82838283","imageIndex":4,"items":[{"name":"에스제이푸드 (SJFOOD)시스템","tel":"031-405-6004","addr":"경기도 안산시 단원구 와동 681-7번지 1층 101호,102호","indutype":"일반휴게음식 - 일반한식","category":"restaurant"}]},{"lat":"37.343089197","long":"126.8225215","imageIndex":4,"items":[{"name":"에스제이푸드(SJ FOOD)시스템","tel":"031-405-6004","addr":"경기도 안산시 단원구 와동 770-7번지 신풍전력 104호","indutype":"일반휴게음식 - 일반한식","category":"restaurant"},{"name":"호야돈가스","tel":"031-405-8821","addr":"경기도 안산시 단원구 와동 770-7번지 신풍전력 104호","indutype":"일반휴게음식 - 일반한식","category":"restaurant"}]},{"lat":"37.331753859","long":"126.82216497","imageIndex":4,"items":[{"name":"에스푸드","tel":"031-484-2999","addr":"경기도 안산시 단원구 와동 849-7번지 굿모닝빌 101호","indutype":"일반휴게음식 - 스넥","category":"restaurant"}]},{"lat":"37.337503952","long":"126.8173779","imageIndex":4,"items":[{"name":"엔치킨","tel":"031-401-9086","addr":"경기도 안산시 단원구 와동 820-9번지 102호","indutype":"일반휴게음식 - 스넥","category":"restaurant"}]},{"lat":"37.332617754","long":"126.82743236","imageIndex":4,"items":[{"name":"엘리스라이브","tel":"031-414-8655","addr":"경기도 안산시 단원구 와동 719-7번지 301호","indutype":"일반휴게음식 - 일반한식","category":"restaurant"},{"name":"오렌지감자탕","tel":"031-405-5000","addr":"경기도 안산시 단원구 와동 719-7번지 1층","indutype":"일반휴게음식 - 일반한식","category":"restaurant"},{"name":"키스라이브레스토랑","tel":"070-4090-0352","addr":"경기도 안산시 단원구 와동 719-7번지 3층","indutype":"일반휴게음식 - 서양음식","category":"restaurant"}]},{"lat":"37.346917448","long":"126.82182391","imageIndex":4,"items":[{"name":"여기서묵자","tel":"031-411-5028","addr":"경기도 안산시 단원구 와동 781번지 1층","indutype":"일반휴게음식 - 일반한식","category":"restaurant"}]},{"lat":"37.334892213","long":"126.83007881","imageIndex":4,"items":[{"name":"열려문횟집","tel":"031-482-0467","addr":"경기도 안산시 단원구 와동 694-9번지 그린농산토종마을 103호","indutype":"일반휴게음식 - 일반한식","category":"restaurant"},{"name":"일월","tel":"031-483-0630","addr":"경기도 안산시 단원구 와동 694-9번지 1층","indutype":"일반휴게음식 - 주점","category":"restaurant"}]},{"lat":"37.333917531","long":"126.82899779","imageIndex":4,"items":[{"name":"영양순대국","tel":"031-410-8806","addr":"경기도 안산시 단원구 와동 697번지 1층","indutype":"일반휴게음식 - 일반한식","category":"restaurant"},{"name":"우리곱창","tel":"031-485-8783","addr":"경기도 안산시 단원구 와동 697번지 105호","indutype":"일반휴게음식 - 일반한식","category":"restaurant"}]},{"lat":"37.343168198","long":"126.8211558","imageIndex":4,"items":[{"name":"영카페","tel":"","addr":"경기도 안산시 단원구 와동 805-4번지 지하1층","indutype":"일반휴게음식 - 일반한식","category":"restaurant"}]},{"lat":"37.340554615","long":"126.82669167","imageIndex":4,"items":[{"name":"옛날맛집","tel":"031-413-3130","addr":"경기도 안산시 단원구 와동 112-3번지 1층 101호","indutype":"일반휴게음식 - 일반한식","category":"restaurant"},{"name":"전주식당","tel":"031-480-4630","addr":"경기도 안산시 단원구 와동 112-3번지 1층","indutype":"일반휴게음식 - 일반한식","category":"restaurant"}]},{"lat":"37.330699044","long":"126.82774147","imageIndex":4,"items":[{"name":"옛장터족발순대국","tel":"031-414-2926","addr":"경기도 안산시 단원구 와동 685-4번지 1층","indutype":"일반휴게음식 - 일반한식","category":"restaurant"}]},{"lat":"37.338420888","long":"126.82782511","imageIndex":4,"items":[{"name":"오광한식부페","tel":"031-413-0054","addr":"경기도 안산시 단원구 와동 115-8번지 1층 102호","indutype":"일반휴게음식 - 일반한식","category":"restaurant"}]},{"lat":"37.343141774","long":"126.82155085","imageIndex":4,"items":[{"name":"오구(59)쌀피자","tel":"031-483-8259","addr":"경기도 안산시 단원구 와동 771-9번지 1층","indutype":"일반휴게음식 - 서양음식","category":"restaurant"},{"name":"이삭토스트","tel":"031-482-7892","addr":"경기도 안산시 단원구 와동 771-9번지 1층","indutype":"일반휴게음식 - 스넥","category":"restaurant"}]},{"lat":"37.332949855","long":"126.82657403","imageIndex":4,"items":[{"name":"오늘도비어","tel":"031-401-6223","addr":"경기도 안산시 단원구 와동 720-10번지 1층","indutype":"일반휴게음식 - 일반한식","category":"restaurant"}]},{"lat":"37.34280928","long":"126.82212719","imageIndex":4,"items":[{"name":"오리궁디","tel":"031-475-8252","addr":"경기도 안산시 단원구 와동 769-4번지","indutype":"일반휴게음식 - 일반한식","category":"restaurant"}]},{"lat":"37.334919044","long":"126.82388383","imageIndex":4,"items":[{"name":"오빠가구운돼지 와동점","tel":"031-403-9588","addr":"경기도 안산시 단원구 와동 731-8번지 1층 일부","indutype":"일반휴게음식 - 일반한식","category":"restaurant"}]},{"lat":"37.343339391","long":"126.82115539","imageIndex":4,"items":[{"name":"오징어입앤노가리","tel":"031-403-6341","addr":"경기도 안산시 단원구 와동 805-3번지","indutype":"일반휴게음식 - 일반한식","category":"restaurant"},{"name":"중앙한우곱창","tel":"031-480-7245","addr":"경기도 안산시 단원구 와동 805-3번지 1층 101호","indutype":"일반휴게음식 - 일반한식","category":"restaurant"},{"name":"청춘닭갈비","tel":"031-405-3400","addr":"경기도 안산시 단원구 와동 805-3번지 1층 일부","indutype":"일반휴게음식 - 일반한식","category":"restaurant"},{"name":"황둔(찐빵,만두)","tel":"070-4150-7737","addr":"경기도 안산시 단원구 와동 805-3번지","indutype":"일반휴게음식 - 스넥","category":"restaurant"}]},{"lat":"37.341140441","long":"126.82680315","imageIndex":4,"items":[{"name":"온정한식뷔페","tel":"031-413-7789","addr":"경기도 안산시 단원구 와동 111-9번지 2층","indutype":"일반휴게음식 - 일반한식","category":"restaurant"}]},{"lat":"37.331002549","long":"126.81991008","imageIndex":4,"items":[{"name":"와동오리집","tel":"031-482-4942","addr":"경기도 안산시 단원구 와동 846-5번지","indutype":"일반휴게음식 - 일반한식","category":"restaurant"}]},{"lat":"37.347728497","long":"126.82191225","imageIndex":4,"items":[{"name":"와동화로구이","tel":"031-402-0034","addr":"경기도 안산시 단원구 와동 786번지 1층","indutype":"일반휴게음식 - 일반한식","category":"restaurant"},{"name":"풍차한정식","tel":"031-405-4830","addr":"경기도 안산시 단원구 와동 786번지 2층","indutype":"일반휴게음식 - 일반한식","category":"restaurant"}]},{"lat":"37.343726236","long":"126.82077076","imageIndex":4,"items":[{"name":"와동회수산","tel":"031-000-0000","addr":"경기도 안산시 단원구 와동 804-10번지 1층 일부","indutype":"일반휴게음식 - 일식·회집","category":"restaurant"}]},{"lat":"37.345889568","long":"126.82135239","imageIndex":4,"items":[{"name":"왕돈보따리","tel":"","addr":"경기도 안산시 단원구 와동 794-8번지","indutype":"일반휴게음식 - 일반한식","category":"restaurant"},{"name":"원조미꾸리마을","tel":"031-401-1513","addr":"경기도 안산시 단원구 와동 794-8번지 1층","indutype":"일반휴게음식 - 일반한식","category":"restaurant"}]},{"lat":"37.347806114","long":"126.81965488","imageIndex":4,"items":[{"name":"왕수타자금성","tel":"031-487-5002","addr":"경기도 안산시 단원구 와동 789-3번지 1층","indutype":"일반휴게음식 - 중국식","category":"restaurant"}]},{"lat":"37.332447096","long":"126.82779383","imageIndex":4,"items":[{"name":"요거프레소 안산창동사거리점","tel":"031-439-0233","addr":"경기도 안산시 단원구 와동 679-8번지 1층","indutype":"일반휴게음식 - 서양음식","category":"restaurant"}]},{"lat":"37.33258704","long":"126.81907125","imageIndex":4,"items":[{"name":"요녀석","tel":"031-509-9977","addr":"경기도 안산시 단원구 와동 839-9번지 1층","indutype":"일반휴게음식 - 서양음식","category":"restaurant"},{"name":"치킨매니저","tel":"031-480-9980","addr":"경기도 안산시 단원구 와동 839-9번지 101호","indutype":"일반휴게음식 - 스넥","category":"restaurant"},{"name":"치킨플러스 와동점","tel":"031-413-0515","addr":"경기도 안산시 단원구 와동 839-9번지 105호","indutype":"일반휴게음식 - 스넥","category":"restaurant"}]},{"lat":"37.346060812","long":"126.82138583","imageIndex":4,"items":[{"name":"용궁","tel":"031-411-7982","addr":"경기도 안산시 단원구 와동 794-7번지 2층","indutype":"일반휴게음식 - 중국식","category":"restaurant"},{"name":"장수돌생구이촌","tel":"031-414-8578","addr":"경기도 안산시 단원구 와동 794-7번지 1층","indutype":"일반휴게음식 - 일반한식","category":"restaurant"}]},{"lat":"37.332591426","long":"126.82790633","imageIndex":4,"items":[{"name":"용추골미궁순대","tel":"031-411-8102","addr":"경기도 안산시 단원구 와동 679-9번지","indutype":"일반휴게음식 - 일반한식","category":"restaurant"},{"name":"장미막창","tel":"031-413-7114","addr":"경기도 안산시 단원구 와동 679-9번지","indutype":"일반휴게음식 - 일반한식","category":"restaurant"}]},{"lat":"37.347168537","long":"126.82104459","imageIndex":4,"items":[{"name":"우리집분식","tel":"031-401-3340","addr":"경기도 안산시 단원구 와동 790-11번지 1층","indutype":"일반휴게음식 - 스넥","category":"restaurant"}]},{"lat":"37.337811655","long":"126.81824604","imageIndex":4,"items":[{"name":"웅이네오돌뼈","tel":"031-410-3884","addr":"경기도 안산시 단원구 와동 819-19번지 1층","indutype":"일반휴게음식 - 일반한식","category":"restaurant"}]},{"lat":"37.344448968","long":"126.82202169","imageIndex":4,"items":[{"name":"원조장충동왕족발보쌈","tel":"031-482-5858","addr":"경기도 안산시 단원구 와동 773번지","indutype":"일반휴게음식 - 일반한식","category":"restaurant"}]},{"lat":"37.335423152","long":"126.82962623","imageIndex":4,"items":[{"name":"원치킨호프","tel":"031-413-1118","addr":"경기도 안산시 단원구 와동 707-18번지 101호","indutype":"일반휴게음식 - 일반한식","category":"restaurant"},{"name":"준(June)","tel":"031-414-3728","addr":"경기도 안산시 단원구 와동 707-18번지 101호","indutype":"일반휴게음식 - 주점","category":"restaurant"}]},{"lat":"37.343115003","long":"126.82172019","imageIndex":4,"items":[{"name":"월수금통돼지잡는집(3호점)","tel":"031-411-3385","addr":"경기도 안산시 단원구 와동 771-8번지","indutype":"일반휴게음식 - 일반한식","category":"restaurant"}]},{"lat":"37.342443443","long":"126.81860711","imageIndex":4,"items":[{"name":"웰빙꼬마김밥","tel":"031-411-2815","addr":"경기도 안산시 단원구 와동 807-17번지 일호빌리지 1층 101호","indutype":"일반휴게음식 - 일반한식","category":"restaurant"}]},{"lat":"37.339339838","long":"126.82776655","imageIndex":4,"items":[{"name":"윙윙호프치킨","tel":"031-403-4658","addr":"경기도 안산시 단원구 와동 118-13번지 1층 일부","indutype":"일반휴게음식 - 일반한식","category":"restaurant"}]},{"lat":"37.341033473","long":"126.82160106","imageIndex":4,"items":[{"name":"유가네왕족발","tel":"031-486-4489","addr":"경기도 안산시 단원구 와동 759-11번지 1층","indutype":"일반휴게음식 - 일반한식","category":"restaurant"},{"name":"코리안왕돈까스","tel":"031-403-3228","addr":"경기도 안산시 단원구 와동 759-11번지 1층","indutype":"일반휴게음식 - 스넥","category":"restaurant"}]},{"lat":"37.332031022","long":"126.82671158","imageIndex":4,"items":[{"name":"유로코피자","tel":"031-403-1828","addr":"경기도 안산시 단원구 와동 721-8번지 1층","indutype":"일반휴게음식 - 서양음식","category":"restaurant"},{"name":"인푸드","tel":"031-411-9289","addr":"경기도 안산시 단원구 와동 721-8번지 1층","indutype":"일반휴게음식 - 일반한식","category":"restaurant"},{"name":"치킨쉐프(와동점)","tel":"031-480-7111","addr":"경기도 안산시 단원구 와동 721-8번지 1층","indutype":"일반휴게음식 - 일반한식","category":"restaurant"},{"name":"치킨쉐프(와동점)","tel":"031-480-7111","addr":"경기도 안산시 단원구 와동 721-8번지","indutype":"일반휴게음식 - 스넥","category":"restaurant"}]},{"lat":"37.338753615","long":"126.8214147","imageIndex":4,"items":[{"name":"이가네김치찌개전문점","tel":"031-410-4093","addr":"경기도 안산시 단원구 와동 753-10번지 1층","indutype":"일반휴게음식 - 일반한식","category":"restaurant"},{"name":"흥부네순대국","tel":"031-482-6768","addr":"경기도 안산시 단원구 와동 753-10번지 103호","indutype":"일반휴게음식 - 일반한식","category":"restaurant"}]},{"lat":"37.331753307","long":"126.82180389","imageIndex":4,"items":[{"name":"이모네포차","tel":"031-402-2887","addr":"경기도 안산시 단원구 와동 848-2번지","indutype":"일반휴게음식 - 일반한식","category":"restaurant"},{"name":"한냉골바지락칼국수","tel":"031-482-6111","addr":"경기도 안산시 단원구 와동 848-2번지 와동장 1층 2호","indutype":"일반휴게음식 - 일반한식","category":"restaurant"},{"name":"황우와꺼먹돼지","tel":"031-402-9989","addr":"경기도 안산시 단원구 와동 848-2,3,4호","indutype":"일반휴게음식 - 일반한식","category":"restaurant"}]},{"lat":"37.334503952","long":"126.8295155","imageIndex":4,"items":[{"name":"이삭토스트와동점","tel":"031-475-1615","addr":"경기도 안산시 단원구 와동 700-9번지 101호","indutype":"일반휴게음식 - 스넥","category":"restaurant"}]},{"lat":"37.338229135","long":"126.82018595","imageIndex":4,"items":[{"name":"이태리하우스","tel":"031-487-4926","addr":"경기도 안산시 단원구 와동 752-7번지 1층","indutype":"일반휴게음식 - 서양음식","category":"restaurant"}]},{"lat":"37.344832896","long":"126.81974111","imageIndex":4,"items":[{"name":"인생호프","tel":"031-402-8040","addr":"경기도 안산시 단원구 와동 800-11번지","indutype":"일반휴게음식 - 일반한식","category":"restaurant"},{"name":"치킨과바람피자","tel":"031-413-9133","addr":"경기도 안산시 단원구 와동 800-11번지 보현공판장 101호","indutype":"일반휴게음식 - 일반한식","category":"restaurant"}]},{"lat":"37.338115858","long":"126.82871729","imageIndex":4,"items":[{"name":"자연담은산골우렁쌈밥","tel":"031-439-8939","addr":"경기도 안산시 단원구 와동 712-2번지 101호","indutype":"일반휴게음식 - 일반한식","category":"restaurant"}]},{"lat":"37.330590805","long":"126.82766274","imageIndex":4,"items":[{"name":"장충동왕족발보쌈선부점","tel":"031-487-3300","addr":"경기도 안산시 단원구 와동 685-5번지 1층","indutype":"일반휴게음식 - 일반한식","category":"restaurant"}]},{"lat":"37.3413888","long":"126.82418446","imageIndex":4,"items":[{"name":"전설막창","tel":"031-410-9253","addr":"경기도 안산시 단원구 와동 763-15번지 1층 101호","indutype":"일반휴게음식 - 일반한식","category":"restaurant"}]},{"lat":"37.342811217","long":"126.82943998","imageIndex":4,"items":[{"name":"전통국수집","tel":"031-403-0973","addr":"경기도 안산시 단원구 와동 96-3번지 1층","indutype":"일반휴게음식 - 일반한식","category":"restaurant"}]},{"lat":"37.334144888","long":"126.82435959","imageIndex":4,"items":[{"name":"정가네실내포장마차","tel":"031-480-1902","addr":"경기도 안산시 단원구 와동 728-11번지","indutype":"일반휴게음식 - 일반한식","category":"restaurant"}]},{"lat":"37.344561823","long":"126.81924521","imageIndex":4,"items":[{"name":"젠","tel":"031-414-5009","addr":"경기도 안산시 단원구 와동 801-3번지 1층","indutype":"일반휴게음식 - 일반한식","category":"restaurant"},{"name":"할매사골순대국","tel":"","addr":"경기도 안산시 단원구 와동 801-3번지 1층","indutype":"일반휴게음식 - 일반한식","category":"restaurant"},{"name":"할매사골순대국","tel":"031-411-9933","addr":"경기도 안산시 단원구 와동 801-3번지 1층","indutype":"일반휴게음식 - 일반한식","category":"restaurant"}]},{"lat":"37.332085452","long":"126.82695969","imageIndex":4,"items":[{"name":"종가대박집","tel":"031-401-9253","addr":"경기도 안산시 단원구 와동 721-6번지","indutype":"일반휴게음식 - 일반한식","category":"restaurant"}]},{"lat":"37.342808814","long":"126.82182249","imageIndex":4,"items":[{"name":"주모대박삼겹살","tel":"031-413-7847","addr":"경기도 안산시 단원구 와동 769-2번지 1층 101,102호","indutype":"일반휴게음식 - 일반한식","category":"restaurant"}]},{"lat":"37.332060277","long":"126.82821222","imageIndex":4,"items":[{"name":"중앙한우곱창","tel":"031-401-6570","addr":"경기도 안산시 단원구 와동 680-4번지","indutype":"일반휴게음식 - 일반한식","category":"restaurant"}]},{"lat":"37.345141641","long":"126.82129776","imageIndex":4,"items":[{"name":"지코바치킨","tel":"031-402-1284","addr":"경기도 안산시 단원구 와동 799-10번지 1층","indutype":"일반휴게음식 - 일반한식","category":"restaurant"}]},{"lat":"37.33178505","long":"126.81901679","imageIndex":4,"items":[{"name":"지평선포차","tel":"031-411-8440","addr":"경기도 안산시 단원구 와동 836번지 102호","indutype":"일반휴게음식 - 주점","category":"restaurant"},{"name":"지평선포차","tel":"031-411-8440","addr":"경기도 안산시 단원구 와동 836번지 102호","indutype":"일반휴게음식 - 일반한식","category":"restaurant"}]},{"lat":"37.332005482","long":"126.82771587","imageIndex":4,"items":[{"name":"진미불족","tel":"031-485-7272","addr":"경기도 안산시 단원구 와동 681-1번지 상가 102호","indutype":"일반휴게음식 - 일반한식","category":"restaurant"},{"name":"코리안숯불바베큐","tel":"050-7900-8340","addr":"경기도 안산시 단원구 와동 681-1번지","indutype":"일반휴게음식 - 스넥","category":"restaurant"},{"name":"태극김밥(와동점)","tel":"031-439-8887","addr":"경기도 안산시 단원구 와동 681-1번지 1층","indutype":"일반휴게음식 - 스넥","category":"restaurant"}]},{"lat":"37.341581947","long":"126.82085493","imageIndex":4,"items":[{"name":"집밥","tel":"070-8816-8255","addr":"경기도 안산시 단원구 와동 812-6번지 102호","indutype":"일반휴게음식 - 일반한식","category":"restaurant"}]},{"lat":"37.33158709","long":"126.81918652","imageIndex":4,"items":[{"name":"쪼개냐 조개구이","tel":"070-4708-2029","addr":"경기도 안산시 단원구 와동 836-10번지 한올속셈태권도피아노학원 1층 102호","indutype":"일반휴게음식 - 일반한식","category":"restaurant"}]},{"lat":"37.3314195","long":"126.82152261","imageIndex":4,"items":[{"name":"차가네","tel":"031-487-9321","addr":"경기도 안산시 단원구 와동 847번지 1층","indutype":"일반휴게음식 - 일반한식","category":"restaurant"}]},{"lat":"37.341362824","long":"126.82488419","imageIndex":4,"items":[{"name":"차칸","tel":"031-475-9011","addr":"경기도 안산시 단원구 와동 763-11번지 1호","indutype":"일반휴게음식 - 일반한식","category":"restaurant"}]},{"lat":"37.339700354","long":"126.82185253","imageIndex":4,"items":[{"name":"착한벌교꼬막집","tel":"031-401-1143","addr":"경기도 안산시 단원구 와동 753번지 1층 102호 일부, 103호~105호","indutype":"일반휴게음식 - 일반한식","category":"restaurant"}]},{"lat":"37.337279352","long":"126.81779597","imageIndex":4,"items":[{"name":"찬엔찬치킨","tel":"031-483-6825","addr":"경기도 안산시 단원구 와동 821-19번지 101호","indutype":"일반휴게음식 - 스넥","category":"restaurant"}]},{"lat":"37.337612604","long":"126.81771616","imageIndex":4,"items":[{"name":"참숯불곰장어","tel":"031-401-0532","addr":"경기도 안산시 단원구 와동 820-7번지 1층","indutype":"일반휴게음식 - 일반한식","category":"restaurant"}]},{"lat":"37.333755182","long":"126.82888533","imageIndex":4,"items":[{"name":"참치에빠지다","tel":"031-416-7714","addr":"경기도 안산시 단원구 와동 697-11번지 1층 101호","indutype":"일반휴게음식 - 일반한식","category":"restaurant"}]},{"lat":"37.340949729","long":"126.82579924","imageIndex":4,"items":[{"name":"최가네순대","tel":"031-414-9777","addr":"경기도 안산시 단원구 와동 762 유통상가2동2107호~2108호","indutype":"일반휴게음식 - 일반한식","category":"restaurant"}]},{"lat":"37.346394221","long":"126.8214076","imageIndex":4,"items":[{"name":"추억의옛날통닭","tel":"","addr":"경기도 안산시 단원구 와동 793-12번지 1층","indutype":"일반휴게음식 - 스넥","category":"restaurant"}]},{"lat":"37.334252703","long":"126.82415623","imageIndex":4,"items":[{"name":"춘천전통명물닭갈비","tel":"031-480-5752","addr":"경기도 안산시 단원구 와동 732-6번지","indutype":"일반휴게음식 - 일반한식","category":"restaurant"}]},{"lat":"37.343276926","long":"126.82155052","imageIndex":4,"items":[{"name":"치어스","tel":"031-475-8880","addr":"경기도 안산시 단원구 와동 771-10번지 1층 일부","indutype":"일반휴게음식 - 주점","category":"restaurant"}]},{"lat":"37.332695867","long":"126.82543497","imageIndex":4,"items":[{"name":"치킨의민족 안산와동점","tel":"031-401-0090","addr":"경기도 안산시 단원구 와동 724-7번지 1층 102호","indutype":"일반휴게음식 - 스넥","category":"restaurant"}]},{"lat":"37.332223488","long":"126.82288599","imageIndex":4,"items":[{"name":"친구야치킨호프","tel":"031-402-3676","addr":"경기도 안산시 단원구 와동 851번지 태산파크빌라 105호 106호","indutype":"일반휴게음식 - 주점","category":"restaurant"}]},{"lat":"37.335917783","long":"126.82899318","imageIndex":4,"items":[{"name":"카라","tel":"031-401-8657","addr":"경기도 안산시 단원구 와동 715-4번지 포트랜드 103호","indutype":"일반휴게음식 - 일반한식","category":"restaurant"}]},{"lat":"37.33214299","long":"126.81743622","imageIndex":4,"items":[{"name":"카페다락","tel":"031-520-7566","addr":"경기도 안산시 단원구 와동 845번지 1층","indutype":"일반휴게음식 - 서양음식","category":"restaurant"}]},{"lat":"37.344588116","long":"126.81877115","imageIndex":4,"items":[{"name":"카페파구스","tel":"031-439-6675","addr":"경기도 안산시 단원구 와동 801번지","indutype":"일반휴게음식 - 서양음식","category":"restaurant"}]},{"lat":"37.341555177","long":"126.82102427","imageIndex":4,"items":[{"name":"커피","tel":"02-1111-1111","addr":"경기도 안산시 단원구 와동 812-5번지","indutype":"일반휴게음식 - 서양음식","category":"restaurant"},{"name":"큰맘할매순대국(와동체육공원점)","tel":"031-405-1807","addr":"경기도 안산시 단원구 와동 812-5번지 1층","indutype":"일반휴게음식 - 일반한식","category":"restaurant"}]},{"lat":"37.340284546","long":"126.82685029","imageIndex":4,"items":[{"name":"커피톡","tel":"070-5017-7808","addr":"경기도 안산시 단원구 와동 112-8번지","indutype":"일반휴게음식 - 일반한식","category":"restaurant"}]},{"lat":"37.344727988","long":"126.82182917","imageIndex":4,"items":[{"name":"쿠웨이트떡볶이","tel":"031-401-7763","addr":"경기도 안산시 단원구 와동 779-4번지","indutype":"일반휴게음식 - 일반한식","category":"restaurant"}]},{"lat":"37.344780473","long":"126.82080207","imageIndex":4,"items":[{"name":"쿨(COOL)호프","tel":"070-4254-0160","addr":"경기도 안산시 단원구 와동 799-15번지 1층","indutype":"일반휴게음식 - 주점","category":"restaurant"}]},{"lat":"37.347700827","long":"126.82149474","imageIndex":4,"items":[{"name":"태봉추어탕부대찌개","tel":"031-487-1025","addr":"경기도 안산시 단원구 와동 788-7번지 1층","indutype":"일반휴게음식 - 일반한식","category":"restaurant"}]},{"lat":"37.333250033","long":"126.82849156","imageIndex":4,"items":[{"name":"태양막국수 족발 수육","tel":"031-401-5559","addr":"경기도 안산시 단원구 와동 697-7번지 1층","indutype":"일반휴게음식 - 일반한식","category":"restaurant"},{"name":"향미각","tel":"031-414-1188","addr":"경기도 안산시 단원구 와동 697-7번지 104.105호","indutype":"일반휴게음식 - 중국식","category":"restaurant"}]},{"lat":"37.34116859","long":"126.82157816","imageIndex":4,"items":[{"name":"탬버린라이브","tel":"031-111-1111","addr":"경기도 안산시 단원구 와동 759번지 지층","indutype":"일반휴게음식 - 일반한식","category":"restaurant"}]},{"lat":"37.334089855","long":"126.82371654","imageIndex":4,"items":[{"name":"테마호프","tel":"031-417-1742","addr":"경기도 안산시 단원구 와동 733-3번지","indutype":"일반휴게음식 - 주점","category":"restaurant"}]},{"lat":"37.343641913","long":"126.81868318","imageIndex":4,"items":[{"name":"토담골","tel":"031-481-9399","addr":"경기도 안산시 단원구 와동 806-19번지 1층","indutype":"일반휴게음식 - 일반한식","category":"restaurant"}]},{"lat":"37.331338668","long":"126.82169206","imageIndex":4,"items":[{"name":"토속촌","tel":"031-505-8448","addr":"경기도 안산시 단원구 와동 847-1번지 1층","indutype":"일반휴게음식 - 일반한식","category":"restaurant"}]},{"lat":"37.334250976","long":"126.82301656","imageIndex":4,"items":[{"name":"토인민속주점","tel":"031-487-8951","addr":"경기도 안산시 단원구 와동 737-6번지 1층","indutype":"일반휴게음식 - 칵테일바","category":"restaurant"}]},{"lat":"37.341054793","long":"126.82376771","imageIndex":4,"items":[{"name":"토크쇼(와동점)","tel":"031-411-6453","addr":"경기도 안산시 단원구 와동 760-6번지 1층 1호","indutype":"일반휴게음식 - 주점","category":"restaurant"},{"name":"프리스타일라이브빠","tel":"070-8800-7071","addr":"경기도 안산시 단원구 와동 760-6번지","indutype":"일반휴게음식 - 일반한식","category":"restaurant"}]},{"lat":"37.346446581","long":"126.82030147","imageIndex":4,"items":[{"name":"통달배족발보쌈삼겹(안산와동점)","tel":"031-481-9282","addr":"경기도 안산시 단원구 와동 793-19번지 1층","indutype":"일반휴게음식 - 일반한식","category":"restaurant"}]},{"lat":"37.332257967","long":"126.82785069","imageIndex":4,"items":[{"name":"통족구이","tel":"031-482-9245","addr":"경기도 안산시 단원구 와동 679-6번지 101,102","indutype":"일반휴게음식 - 일반한식","category":"restaurant"}]},{"lat":"37.347332","long":"126.82187935","imageIndex":4,"items":[{"name":"퇴근길","tel":"031-439-4003","addr":"경기도 안산시 단원구 와동 786-14번지","indutype":"일반휴게음식 - 주점","category":"restaurant"},{"name":"퇴근길","tel":"031-439-4003","addr":"경기도 안산시 단원구 와동 786-14번지 창성교회 1층 104호","indutype":"일반휴게음식 - 일반한식","category":"restaurant"}]},{"lat":"37.341090081","long":"126.82327109","imageIndex":4,"items":[{"name":"튀떡순","tel":"031-405-9954","addr":"경기도 안산시 단원구 와동 760-3번지 1층 101호","indutype":"일반휴게음식 - 일반한식","category":"restaurant"},{"name":"한잔에추억","tel":"031-485-2247","addr":"경기도 안산시 단원구 와동 760-3번지","indutype":"일반휴게음식 - 주점","category":"restaurant"}]},{"lat":"37.332141168","long":"126.82807663","imageIndex":4,"items":[{"name":"펀비어킹","tel":"031-413-7727","addr":"경기도 안산시 단원구 와동 680-5번지 와동숯불갈비 101호","indutype":"일반휴게음식 - 주점","category":"restaurant"}]},{"lat":"37.34261009","long":"126.8214957","imageIndex":4,"items":[{"name":"펀비어킹","tel":"031-403-1337","addr":"경기도 안산시 단원구 와동 769-27번지","indutype":"일반휴게음식 - 일반한식","category":"restaurant"}]},{"lat":"37.341502777","long":"126.82210775","imageIndex":4,"items":[{"name":"풍미찌개마을","tel":"031-410-1682","addr":"경기도 안산시 단원구 와동 764-19번지 대우타운 104,105호","indutype":"일반휴게음식 - 일반한식","category":"restaurant"}]},{"lat":"37.332785491","long":"126.81921746","imageIndex":4,"items":[{"name":"피자디아","tel":"031-413-9979","addr":"경기도 안산시 단원구 와동 839-1번지","indutype":"일반휴게음식 - 일반한식","category":"restaurant"},{"name":"피자디아","tel":"031-241-1665","addr":"경기도 안산시 단원구 와동 839-1번지 1층","indutype":"일반휴게음식 - 일반한식","category":"restaurant"}]},{"lat":"37.345556159","long":"126.82133062","imageIndex":4,"items":[{"name":"피자마루(안산와동점)","tel":"031-413-1082","addr":"경기도 안산시 단원구 와동 794-10번지 1층","indutype":"일반휴게음식 - 일반한식","category":"restaurant"}]},{"lat":"37.344894759","long":"126.81896226","imageIndex":4,"items":[{"name":"피자몽","tel":"031-402-6154","addr":"경기도 안산시 단원구 와동 800-16번지 1층","indutype":"일반휴게음식 - 서양음식","category":"restaurant"}]},{"lat":"37.337890306","long":"126.82851469","imageIndex":4,"items":[{"name":"피자비토랩와동점","tel":"031-414-3999","addr":"경기도 안산시 단원구 와동 712-15번지 천용빌딩 1층","indutype":"일반휴게음식 - 일반한식","category":"restaurant"}]},{"lat":"37.338200602","long":"126.81921556","imageIndex":4,"items":[{"name":"피제이피자","tel":"031-000-0000","addr":"경기도 안산시 단원구 와동 819-13번지 103호","indutype":"일반휴게음식 - 서양음식","category":"restaurant"}]},{"lat":"37.332835","long":"126.82810888","imageIndex":4,"items":[{"name":"해중수산","tel":"031-483-5782","addr":"경기도 안산시 단원구 와동 679-11번지 1층","indutype":"일반휴게음식 - 일반한식","category":"restaurant"}]},{"lat":"37.337611158","long":"126.82862818","imageIndex":4,"items":[{"name":"행복한식당","tel":"031-484-0878","addr":"경기도 안산시 단원구 와동 712-17번지 1층 102호","indutype":"일반휴게음식 - 일반한식","category":"restaurant"}]},{"lat":"37.331698351","long":"126.82718626","imageIndex":4,"items":[{"name":"헐렁이","tel":"031-483-8640","addr":"경기도 안산시 단원구 와동 682-13번지 102호","indutype":"일반휴게음식 - 중국식","category":"restaurant"}]},{"lat":"37.330671646","long":"126.8274933","imageIndex":4,"items":[{"name":"호미불닭발","tel":"031-113-4848","addr":"경기도 안산시 단원구 와동 685-6번지 1층 103호","indutype":"일반휴게음식 - 일반한식","category":"restaurant"}]},{"lat":"37.33272601","long":"126.82752238","imageIndex":4,"items":[{"name":"홍성한우정육점식당","tel":"031-411-7661","addr":"경기도 안산시 단원구 와동 719-6번지 1층","indutype":"일반휴게음식 - 일반한식","category":"restaurant"}]},{"lat":"37.341502518","long":"126.82193848","imageIndex":4,"items":[{"name":"화진불날개닭발","tel":"031-481-8228","addr":"경기도 안산시 단원구 와동 764-20번지 1층","indutype":"일반휴게음식 - 일반한식","category":"restaurant"}]},{"lat":"37.341642524","long":"126.81924103","imageIndex":4,"items":[{"name":"황금찹쌀꽈배기","tel":"031-506-8822","addr":"경기도 안산시 단원구 와동 811-14번지 공원수퍼 103호","indutype":"일반휴게음식 - 스넥","category":"restaurant"}]},{"lat":"37.33361093","long":"126.82280369","imageIndex":4,"items":[{"name":"황태자","tel":"031-484-3666","addr":"경기도 안산시 단원구 와동 735-1번지 지하1층","indutype":"일반휴게음식 - 주점","category":"restaurant"},{"name":"황태자","tel":"031-484-3666","addr":"경기도 안산시 단원구 와동 735-1번지 지하","indutype":"일반휴게음식 - 주점","category":"restaurant"}]},{"lat":"37.341916224","long":"126.82144095","imageIndex":4,"items":[{"name":"황토마을","tel":"031-411-5220","addr":"경기도 안산시 단원구 와동 764-25번지 1층","indutype":"일반휴게음식 - 일반한식","category":"restaurant"}]},{"lat":"37.346754678","long":"126.82144059","imageIndex":4,"items":[{"name":"회마당","tel":"031-414-5988","addr":"경기도 안산시 단원구 와동 793-10번지 1층","indutype":"일반휴게음식 - 일반한식","category":"restaurant"}]},{"lat":"37.331784541","long":"126.81868957","imageIndex":4,"items":[{"name":"훌랄라숯불바베큐","tel":"031-401-9992","addr":"경기도 안산시 단원구 와동 845-9번지 SK빌라 101호","indutype":"일반휴게음식 - 일반한식","category":"restaurant"}]},{"lat":"37.33770061","long":"126.82818788","imageIndex":4,"items":[{"name":"훌랄라숯불바베큐치킨","tel":"031-414-9288","addr":"경기도 안산시 단원구 와동 713-1 101호~102호","indutype":"일반휴게음식 - 주점","category":"restaurant"}]}]