[{"lat":"37.892576468","long":"127.05317651","imageIndex":0,"items":[{"name":"KH프라자","tel":"","addr":"경기도 동두천시 지행동 693-5번지","indutype":"자동차정비 유지 - 주차장","category":"car"}]},{"lat":"37.893633051","long":"127.04695853","imageIndex":0,"items":[{"name":"경기북부센타","tel":"031-864-0242","addr":"경기도 동두천시 지행동 686-5번지","indutype":"자동차정비 유지 - 자동차부품","category":"car"}]},{"lat":"37.890520575","long":"127.05715401","imageIndex":0,"items":[{"name":"나래자동차공업사","tel":"031-863-3330","addr":"경기도 동두천시 지행동 351-2번지","indutype":"자동차정비 유지 - 자동차정비","category":"car"}]},{"lat":"37.891972252","long":"127.05454032","imageIndex":0,"items":[{"name":"미래종합관리","tel":"031-857-7808","addr":"경기도 동두천시 지행동 721-2번지 지행역프라자 지하1층 관리사무소","indutype":"자동차정비 유지 - 주차장","category":"car"}]},{"lat":"37.895799487","long":"127.05834026","imageIndex":0,"items":[{"name":"셀프24시","tel":"031-861-8922","addr":"경기도 동두천시 지행동 275-3번지","indutype":"자동차정비 유지 - 세차장","category":"car"},{"name":"카 케어존","tel":"031-861-5055","addr":"경기도 동두천시 지행동 275-3번지","indutype":"자동차정비 유지 - 자동차정비","category":"car"}]},{"lat":"37.889437984","long":"127.0602567","imageIndex":0,"items":[{"name":"수빈모터스","tel":"031-867-1300","addr":"경기도 동두천시 지행동 367-3번지","indutype":"자동차정비 유지 - 자동차정비","category":"car"}]},{"lat":"37.890719288","long":"127.05604006","imageIndex":0,"items":[{"name":"수호상사","tel":"070-8899-2196","addr":"경기도 동두천시 지행동 738-3번지 뉴스타빌 407호","indutype":"자동차정비 유지 - 자동차부품","category":"car"}]},{"lat":"37.890214258","long":"127.05715378","imageIndex":0,"items":[{"name":"스피드메이트 지행점","tel":"031-868-8368","addr":"경기도 동두천시 지행동 479-1번지","indutype":"자동차정비 유지 - 자동차정비","category":"car"}]},{"lat":"37.894773246","long":"127.05656594","imageIndex":0,"items":[{"name":"애니카랜드지행정","tel":"031-861-3484","addr":"경기도 동두천시 지행동 727-7번지","indutype":"자동차정비 유지 - 자동차정비","category":"car"}]},{"lat":"37.893026934","long":"127.05317682","imageIndex":0,"items":[{"name":"예일빌딩주차타워","tel":"02-955-0761","addr":"경기도 동두천시 지행동 694번지 예일복합타워 5층 501호","indutype":"자동차정비 유지 - 주차장","category":"car"}]},{"lat":"37.889331411","long":"127.05700535","imageIndex":0,"items":[{"name":"오토오아시스지행점","tel":"031-866-0951","addr":"경기도 동두천시 지행동 477-3번지","indutype":"자동차정비 유지 - 자동차시트·타이어","category":"car"}]},{"lat":"37.887240553","long":"127.05849299","imageIndex":0,"items":[{"name":"우주크레인","tel":"031-862-3131","addr":"경기도 동두천시 지행동 406-58번지 동진빌라 나동 303호","indutype":"자동차판매 - 기타운송","category":"car"}]},{"lat":"37.889663201","long":"127.06029098","imageIndex":0,"items":[{"name":"지행명품손세차","tel":"031-868-2567","addr":"경기도 동두천시 지행동 368-9번지","indutype":"자동차정비 유지 - 세차장","category":"car"}]},{"lat":"37.887610509","long":"127.05726555","imageIndex":0,"items":[{"name":"지행점기아오토큐","tel":"031-863-8582","addr":"경기도 동두천시 지행동 406-2","indutype":"자동차정비 유지 - 자동차정비","category":"car"}]},{"lat":"37.890187563","long":"127.0564262","imageIndex":0,"items":[{"name":"타이어프로동두천지행역점","tel":"031-865-6625","addr":"경기도 동두천시 지행동 736-5번지","indutype":"자동차정비 유지 - 자동차시트·타이어","category":"car"}]},{"lat":"37.896768748","long":"127.04573252","imageIndex":0,"items":[{"name":"트윈픽스","tel":"031-862-7896","addr":"경기도 동두천시 지행동 661번지","indutype":"자동차정비 유지 - 자동차부품","category":"car"}]},{"lat":"37.891439515","long":"127.05717742","imageIndex":0,"items":[{"name":"티스테이션 동두천점","tel":"031-862-2446","addr":"경기도 동두천시 지행동 340-17번지","indutype":"자동차정비 유지 - 자동차시트·타이어","category":"car"}]},{"lat":"37.891052125","long":"127.0571544","imageIndex":0,"items":[{"name":"효진카프라자","tel":"031-864-3070","addr":"경기도 동두천시 지행동 352-5번지","indutype":"자동차정비 유지 - 자동차정비","category":"car"}]}]