[{"lat":"37.117444159","long":"126.88832893","imageIndex":0,"items":[{"name":"그린고속종합카센타","tel":"031-353-7915","addr":"경기도 화성시 팔탄면 매곡리 109-18번지","indutype":"자동차정비 유지 - 자동차정비","category":"car"}]},{"lat":"37.113366752","long":"126.88360963","imageIndex":0,"items":[{"name":"발안오일","tel":"031-359-8468","addr":"경기도 화성시 팔탄면 매곡리 195-1번지","indutype":"자동차정비 유지 - 윤활유 전문 판매","category":"car"}]},{"lat":"37.118471996","long":"126.88899123","imageIndex":0,"items":[{"name":"발안타이어","tel":"031-354-5102","addr":"경기도 화성시 팔탄면 매곡리 100-1번지","indutype":"자동차정비 유지 - 자동차시트·타이어","category":"car"}]},{"lat":"37.118391117","long":"126.88921639","imageIndex":0,"items":[{"name":"배터리총판","tel":"031-8059-2058","addr":"경기도 화성시 팔탄면 매곡리 99-1번지","indutype":"자동차정비 유지 - 자동차부품","category":"car"}]},{"lat":"37.113116311","long":"126.88546644","imageIndex":0,"items":[{"name":"새타이어할인매장","tel":"031-352-5665","addr":"경기도 화성시 팔탄면 매곡리 206-6번지 B동104호,105호","indutype":"자동차정비 유지 - 자동차시트·타이어","category":"car"}]},{"lat":"37.117922862","long":"126.88952089","imageIndex":0,"items":[{"name":"신발안현대서비스","tel":"031-353-2458","addr":"경기도 화성시 팔탄면 매곡리 103-1번지","indutype":"자동차정비 유지 - 자동차정비","category":"car"}]},{"lat":"37.112755723","long":"126.88529823","imageIndex":0,"items":[{"name":"카인커스텀(Car In Custom)","tel":"031-296-1580","addr":"경기도 화성시 팔탄면 매곡리 209-30번지 102,103호","indutype":"자동차정비 유지 - 카인테리어","category":"car"}]},{"lat":"37.118643357","long":"126.88915975","imageIndex":0,"items":[{"name":"타이어세이프","tel":"031-354-8549","addr":"경기도 화성시 팔탄면 매곡리 100번지 2층","indutype":"자동차정비 유지 - 자동차시트·타이어","category":"car"}]},{"lat":"37.116424891","long":"126.88721656","imageIndex":0,"items":[{"name":"휠09화성점","tel":"031-353-7802","addr":"경기도 화성시 팔탄면 매곡리 149-1번지","indutype":"자동차정비 유지 - 자동차시트·타이어","category":"car"}]}]