[{"lat":"37.4286084","long":"127.1396561","imageIndex":17,"items":[{"name":"(유)익수기업","tel":"031-754-3764","addr":"경기도 성남시 중원구 하대원동 114-13번지","indutype":"","category":"other"}]},{"lat":"37.4285827","long":"127.138515","imageIndex":17,"items":[{"name":"(자)합동운수","tel":"031-752-0545","addr":"경기도 성남시 중원구 하대원동 113-2번지","indutype":"","category":"other"}]},{"lat":"37.4274156","long":"127.1426253","imageIndex":17,"items":[{"name":"ok상사","tel":"031-752-8883","addr":"경기도 성남시 중원구 하대원동 148-17번지","indutype":"","category":"other"}]},{"lat":"37.4275774","long":"127.150342","imageIndex":17,"items":[{"name":"㈜ 새솔미트 축산물직판장","tel":"070-7699-8970","addr":"경기도 성남시 중원구 하대원동 158-1번지","indutype":"","category":"other"},{"name":"세영축산유통","tel":"031-763-4578","addr":"경기도 성남시 중원구 하대원동 158-1번지","indutype":"","category":"other"}]},{"lat":"37.4268069","long":"127.1468156","imageIndex":17,"items":[{"name":"㈜한비 성남직매장","tel":"031-754-6869","addr":"경기도 성남시 중원구 하대원동 162번지","indutype":"","category":"other"}]},{"lat":"37.4284989","long":"127.1483215","imageIndex":17,"items":[{"name":"가봉갈비","tel":"031-721-2182","addr":"경기도 성남시 중원구 하대원동 143-3번지","indutype":"","category":"other"}]},{"lat":"37.4293052","long":"127.1447415","imageIndex":17,"items":[{"name":"가호식당","tel":"031-751-8684","addr":"경기도 성남시 중원구 하대원동 126-6번지","indutype":"","category":"other"}]},{"lat":"37.4306387","long":"127.1520654","imageIndex":17,"items":[{"name":"건창카센타","tel":"031-756-2100","addr":"경기도 성남시 중원구 하대원동 136-6번지 엘지빌라","indutype":"","category":"other"}]},{"lat":"37.4271894","long":"127.143427","imageIndex":17,"items":[{"name":"경기종합식자재","tel":"031-756-2199","addr":"경기도 성남시 중원구 하대원동 266-2번지","indutype":"","category":"other"},{"name":"만덕상사","tel":"031-722-0072","addr":"경기도 성남시 중원구 하대원동 266-2번지","indutype":"","category":"other"},{"name":"해남수산","tel":"031-758-4974","addr":"경기도 성남시 중원구 하대원동 266-2번지","indutype":"","category":"other"}]},{"lat":"37.4274951","long":"127.143936","imageIndex":17,"items":[{"name":"경주상회","tel":"031-751-7411","addr":"경기도 성남시 중원구 하대원동 147-7번지","indutype":"","category":"other"}]},{"lat":"37.4273876","long":"127.1434613","imageIndex":17,"items":[{"name":"계룡푸드","tel":"031-751-2363","addr":"경기도 성남시 중원구 하대원동 148-20번지","indutype":"","category":"other"}]},{"lat":"37.4304686","long":"127.1511499","imageIndex":17,"items":[{"name":"고박사카센타","tel":"031-751-4776","addr":"경기도 성남시 중원구 하대원동 135-3번지","indutype":"","category":"other"}]},{"lat":"37.4273891","long":"127.1421507","imageIndex":17,"items":[{"name":"광주상회 하대원점","tel":"031-757-7240","addr":"경기도 성남시 중원구 하대원동 266-1번지","indutype":"","category":"other"},{"name":"기사상회","tel":"031-754-2137","addr":"경기도 성남시 중원구 하대원동 266-1번지","indutype":"","category":"other"},{"name":"대광상회","tel":"031-757-7867","addr":"경기도 성남시 중원구 하대원동 266-1번지","indutype":"","category":"other"},{"name":"대복상회","tel":"031-754-7493","addr":"경기도 성남시 중원구 하대원동 266-1번지","indutype":"","category":"other"},{"name":"대성상회","tel":"","addr":"경기도 성남시 중원구 하대원동 266-1번지","indutype":"","category":"other"},{"name":"대원유통","tel":"031-752-6679","addr":"경기도 성남시 중원구 하대원동 266-1번지","indutype":"","category":"other"},{"name":"도경수산","tel":"031-752-4803","addr":"경기도 성남시 중원구 하대원동 266-1번지","indutype":"","category":"other"},{"name":"부안상회","tel":"031-755-3063","addr":"경기도 성남시 중원구 하대원동 266-1번지","indutype":"","category":"other"},{"name":"신일상회","tel":"031-758-9462","addr":"경기도 성남시 중원구 하대원동 266-1번지","indutype":"","category":"other"},{"name":"온누리유통","tel":"","addr":"경기도 성남시 중원구 하대원동 266-1번지","indutype":"","category":"other"},{"name":"자립수산","tel":"031-752-1850","addr":"경기도 성남시 중원구 하대원동 266-1번지","indutype":"","category":"other"},{"name":"조치원유통","tel":"031-757-7438","addr":"경기도 성남시 중원구 하대원동 266-1번지","indutype":"","category":"other"},{"name":"진호상회","tel":"031-756-8203","addr":"경기도 성남시 중원구 하대원동 266-1번지","indutype":"","category":"other"},{"name":"해오름유통","tel":"","addr":"경기도 성남시 중원구 하대원동 266-1번지","indutype":"","category":"other"}]},{"lat":"37.4298852","long":"127.1493523","imageIndex":17,"items":[{"name":"군산식당","tel":"031-753-2926","addr":"경기도 성남시 중원구 하대원동 132-1번지","indutype":"","category":"other"}]},{"lat":"37.4289166","long":"127.129929","imageIndex":17,"items":[{"name":"금강종합철물","tel":"031-755-3377","addr":"경기도 성남시 중원구 하대원동 100-9번지","indutype":"","category":"other"},{"name":"성남서현사료","tel":"031-754-4829","addr":"경기도 성남시 중원구 하대원동 100-9번지","indutype":"","category":"other"}]},{"lat":"37.4281414","long":"127.1459595","imageIndex":17,"items":[{"name":"김가네옹기추어탕","tel":"031-757-8446","addr":"경기도 성남시 중원구 하대원동 145번지","indutype":"","category":"other"}]},{"lat":"37.4305581","long":"127.1516811","imageIndex":17,"items":[{"name":"낙원음악학원","tel":"031-755-9962","addr":"경기도 성남시 중원구 하대원동 136번지","indutype":"","category":"other"}]},{"lat":"37.4287236","long":"127.148819","imageIndex":17,"items":[{"name":"노랑머리","tel":"031-758-1697","addr":"경기도 성남시 중원구 하대원동 143-1번지 태연스카이빌","indutype":"","category":"other"},{"name":"샌드앤푸드","tel":"031-751-8560","addr":"경기도 성남시 중원구 하대원동 143-1번지 태연스카이빌","indutype":"","category":"other"},{"name":"스카이 안경마트","tel":"031-753-3345","addr":"경기도 성남시 중원구 하대원동 143-1번지 태연스카이빌","indutype":"","category":"other"},{"name":"여우야스킨앤바디","tel":"031-755-9585","addr":"경기도 성남시 중원구 하대원동 143-1번지 태연스카이빌","indutype":"","category":"other"},{"name":"파리바게뜨 하대원동점","tel":"031-721-8244","addr":"경기도 성남시 중원구 하대원동 143-1번지 태연스카이빌","indutype":"","category":"other"},{"name":"하늘김밥","tel":"031-752-6627","addr":"경기도 성남시 중원구 하대원동 143-1번지 태연스카이빌","indutype":"","category":"other"},{"name":"하늘옵티마약국","tel":"031-751-7990","addr":"경기도 성남시 중원구 하대원동 143-1번지 태연스카이빌","indutype":"","category":"other"},{"name":"한우세상","tel":"031-743-9994","addr":"경기도 성남시 중원구 하대원동 143-1번지 태연스카이빌","indutype":"","category":"other"}]},{"lat":"37.432164","long":"127.1570172","imageIndex":17,"items":[{"name":"담양돗자리","tel":"031-757-5733","addr":"경기도 성남시 중원구 하대원동 225-5번지","indutype":"","category":"other"}]},{"lat":"37.4274423","long":"127.1428739","imageIndex":17,"items":[{"name":"대가종합식품","tel":"031-722-5794","addr":"경기도 성남시 중원구 하대원동 148-10번지","indutype":"","category":"other"}]},{"lat":"37.4300828","long":"127.1498724","imageIndex":17,"items":[{"name":"대림운수","tel":"031-752-0239","addr":"경기도 성남시 중원구 하대원동 132-4번지","indutype":"","category":"other"}]},{"lat":"37.4268314","long":"127.1488719","imageIndex":17,"items":[{"name":"대아운수㈜","tel":"031-753-6640","addr":"경기도 성남시 중원구 하대원동 161-7번지","indutype":"","category":"other"}]},{"lat":"37.4279981","long":"127.1452362","imageIndex":17,"items":[{"name":"대원문구슈퍼","tel":"031-758-1654","addr":"경기도 성남시 중원구 하대원동 146-2번지","indutype":"","category":"other"}]},{"lat":"37.4283903","long":"127.1487619","imageIndex":17,"items":[{"name":"대원상회","tel":"031-754-6141","addr":"경기도 성남시 중원구 하대원동 154-3번지 가나빌라","indutype":"","category":"other"}]},{"lat":"37.4270244","long":"127.1457653","imageIndex":17,"items":[{"name":"대일실업","tel":"031-752-2260","addr":"경기도 성남시 중원구 하대원동 343-9번지","indutype":"","category":"other"}]},{"lat":"37.4275305","long":"127.1444896","imageIndex":17,"items":[{"name":"대흥건어물","tel":"031-755-5121","addr":"경기도 성남시 중원구 하대원동 147-10번지","indutype":"","category":"other"},{"name":"부영축산","tel":"031-758-3399","addr":"경기도 성남시 중원구 하대원동 147-10번지","indutype":"","category":"other"},{"name":"애경상회","tel":"031-751-3517","addr":"경기도 성남시 중원구 하대원동 147-10번지","indutype":"","category":"other"}]},{"lat":"37.4283895","long":"127.149372","imageIndex":17,"items":[{"name":"더-마트","tel":"031-721-8250","addr":"경기도 성남시 중원구 하대원동 155-1번지","indutype":"","category":"other"}]},{"lat":"37.4289966","long":"127.1466277","imageIndex":17,"items":[{"name":"독도회","tel":"031-757-5840","addr":"경기도 성남시 중원구 하대원동 128-6번지 라인맨션","indutype":"","category":"other"}]},{"lat":"37.4290528","long":"127.1371261","imageIndex":17,"items":[{"name":"돌쌈장작구이","tel":"031-755-3392","addr":"경기도 성남시 중원구 하대원동 110-7번지","indutype":"","category":"other"}]},{"lat":"37.4283894","long":"127.142017","imageIndex":17,"items":[{"name":"라이프헬스","tel":"031-757-3365","addr":"경기도 성남시 중원구 하대원동 118-6번지","indutype":"","category":"other"}]},{"lat":"37.4299469","long":"127.1504258","imageIndex":17,"items":[{"name":"레벨업보습학원","tel":"031-754-9842","addr":"경기도 성남시 중원구 하대원동 132-8번지","indutype":"","category":"other"}]},{"lat":"37.4294986","long":"127.1486511","imageIndex":17,"items":[{"name":"마스터즈 학원","tel":"070-4843-3727","addr":"경기도 성남시 중원구 하대원동 131-16번지","indutype":"","category":"other"},{"name":"맑은눈안경원","tel":"031-722-5656","addr":"경기도 성남시 중원구 하대원동 131-16번지","indutype":"","category":"other"},{"name":"피노키오아카데미종합학원","tel":"031-722-1905","addr":"경기도 성남시 중원구 하대원동 131-16번지","indutype":"","category":"other"}]},{"lat":"37.4306105","long":"127.1529353","imageIndex":17,"items":[{"name":"마포숯불갈비 하대원점","tel":"031-752-1855","addr":"경기도 성남시 중원구 하대원동 139-6번지","indutype":"","category":"other"}]},{"lat":"37.4297498","long":"127.1495441","imageIndex":17,"items":[{"name":"만포낙지골","tel":"031-754-0048","addr":"경기도 성남시 중원구 하대원동 132-12번지","indutype":"","category":"other"}]},{"lat":"37.4288894","long":"127.1382105","imageIndex":17,"items":[{"name":"모란농산물","tel":"","addr":"경기도 성남시 중원구 하대원동 111-21번지","indutype":"","category":"other"}]},{"lat":"37.4273846","long":"127.1459016","imageIndex":17,"items":[{"name":"몽실유통 도소매 할인마트","tel":"031-722-5575","addr":"경기도 성남시 중원구 하대원동 149-5번지","indutype":"","category":"other"}]},{"lat":"37.4277192","long":"127.144908","imageIndex":17,"items":[{"name":"미당","tel":"","addr":"경기도 성남시 중원구 하대원동 146-5번지","indutype":"","category":"other"}]},{"lat":"37.4288877","long":"127.1396566","imageIndex":17,"items":[{"name":"바로식자재총판","tel":"031-753-8333","addr":"경기도 성남시 중원구 하대원동 114-1번지","indutype":"","category":"other"}]},{"lat":"37.4324972","long":"127.1571535","imageIndex":17,"items":[{"name":"바른정육점","tel":"031-754-0122","addr":"경기도 성남시 중원구 하대원동 228번지","indutype":"","category":"other"}]},{"lat":"37.4290782","long":"127.1304377","imageIndex":17,"items":[{"name":"바이크 파크","tel":"031-721-3332","addr":"경기도 성남시 중원구 하대원동 101번지","indutype":"","category":"other"},{"name":"성남특수용접학원","tel":"","addr":"경기도 성남시 중원구 하대원동 101번지","indutype":"","category":"other"},{"name":"아이뻐","tel":"070-4194-4944","addr":"경기도 성남시 중원구 하대원동 101번지","indutype":"","category":"other"}]},{"lat":"37.4295021","long":"127.1381212","imageIndex":17,"items":[{"name":"반찬전문점 또바기","tel":"031-757-1210","addr":"경기도 성남시 중원구 하대원동 111-32번지","indutype":"","category":"other"}]},{"lat":"37.4295255","long":"127.1488206","imageIndex":17,"items":[{"name":"벧엘온누리약국","tel":"031-751-4061","addr":"경기도 성남시 중원구 하대원동 131-18번지","indutype":"","category":"other"}]},{"lat":"37.429502","long":"127.1382681","imageIndex":17,"items":[{"name":"사계절화원","tel":"031-755-8907","addr":"경기도 성남시 중원구 하대원동 111-33번지","indutype":"","category":"other"}]},{"lat":"37.4304427","long":"127.1502347","imageIndex":17,"items":[{"name":"새한칼라인쇄","tel":"031-758-0377","addr":"경기도 성남시 중원구 하대원동 133-7번지","indutype":"","category":"other"}]},{"lat":"37.4277497","long":"127.1419593","imageIndex":17,"items":[{"name":"서연식품","tel":"031-753-3032","addr":"경기도 성남시 중원구 하대원동 148-2번지","indutype":"","category":"other"}]},{"lat":"37.4322466","long":"127.1558762","imageIndex":17,"items":[{"name":"선연유통주식회사","tel":"031-747-9360","addr":"경기도 성남시 중원구 하대원동 217번지 자이아트빌","indutype":"","category":"other"}]},{"lat":"37.4299115","long":"127.1499286","imageIndex":17,"items":[{"name":"섬마을해물탕찜","tel":"031-753-6969","addr":"경기도 성남시 중원구 하대원동 132-9번지","indutype":"","category":"other"},{"name":"쭈와닭","tel":"031-754-4926","addr":"경기도 성남시 중원구 하대원동 132-9번지","indutype":"","category":"other"}]},{"lat":"37.4274699","long":"127.1423768","imageIndex":17,"items":[{"name":"섬진강 민물장어","tel":"031-751-4900","addr":"경기도 성남시 중원구 하대원동 148-11번지","indutype":"","category":"other"}]},{"lat":"37.4284688","long":"127.1356225","imageIndex":17,"items":[{"name":"성남디자인(sm디자인)","tel":"031-751-6842","addr":"경기도 성남시 중원구 하대원동 105-5번지","indutype":"","category":"other"}]},{"lat":"37.4274691","long":"127.1430999","imageIndex":17,"items":[{"name":"성남유통","tel":"031-758-7595","addr":"경기도 성남시 중원구 하대원동 148-8번지","indutype":"","category":"other"}]},{"lat":"37.4327219","long":"127.157572","imageIndex":17,"items":[{"name":"성남현대자동차써비스","tel":"031-722-2481","addr":"경기도 성남시 중원구 하대원동 230-4번지","indutype":"","category":"other"}]},{"lat":"37.4296333","long":"127.1490468","imageIndex":17,"items":[{"name":"성원닭갈비 하대원점","tel":"031-751-4027","addr":"경기도 성남시 중원구 하대원동 131-36번지","indutype":"","category":"other"},{"name":"아낌없는 푸줏간","tel":"031-723-8182","addr":"경기도 성남시 중원구 하대원동 131-36번지","indutype":"","category":"other"}]},{"lat":"37.4286604","long":"127.1414074","imageIndex":17,"items":[{"name":"성일운수(유)","tel":"031-753-4704","addr":"경기도 성남시 중원구 하대원동 118-8번지","indutype":"","category":"other"}]},{"lat":"37.4317781","long":"127.1558188","imageIndex":17,"items":[{"name":"세화운수(유)","tel":"031-723-8415","addr":"경기도 성남시 중원구 하대원동 216-19번지","indutype":"","category":"other"}]},{"lat":"37.427439","long":"127.1456757","imageIndex":17,"items":[{"name":"송계식당","tel":"031-757-5774","addr":"경기도 성남시 중원구 하대원동 149-4번지","indutype":"","category":"other"}]},{"lat":"37.427134","long":"127.144568","imageIndex":17,"items":[{"name":"스마일유통","tel":"031-754-5674","addr":"경기도 성남시 중원구 하대원동 352-10번지","indutype":"","category":"other"}]},{"lat":"37.4296962","long":"127.1491486","imageIndex":17,"items":[{"name":"신안안경","tel":"031-755-3737","addr":"경기도 성남시 중원구 하대원동 131-13번지","indutype":"","category":"other"}]},{"lat":"37.4301916","long":"127.1492964","imageIndex":17,"items":[{"name":"쌍둥이네","tel":"031-721-7796","addr":"경기도 성남시 중원구 하대원동 133-10번지","indutype":"","category":"other"}]},{"lat":"37.4293593","long":"127.1369346","imageIndex":17,"items":[{"name":"아이플러스","tel":"031-733-9007","addr":"경기도 성남시 중원구 하대원동 110-3번지","indutype":"","category":"other"}]},{"lat":"37.428246","long":"127.1488181","imageIndex":17,"items":[{"name":"안골해장국","tel":"031-756-5122","addr":"경기도 성남시 중원구 하대원동 154-51번지 가나빌라","indutype":"","category":"other"}]},{"lat":"37.4287242","long":"127.1483445","imageIndex":17,"items":[{"name":"어진약국","tel":"031-698-2172","addr":"경기도 성남시 중원구 하대원동 143-14번지","indutype":"","category":"other"}]},{"lat":"37.4286381","long":"127.1450453","imageIndex":17,"items":[{"name":"에이스공영","tel":"031-752-0046","addr":"경기도 성남시 중원구 하대원동 127-3번지","indutype":"","category":"other"}]},{"lat":"37.4268051","long":"127.1482391","imageIndex":17,"items":[{"name":"영문구","tel":"031-745-0767","addr":"경기도 성남시 중원구 하대원동 161-25번지","indutype":"","category":"other"}]},{"lat":"37.4316883","long":"127.1555926","imageIndex":17,"items":[{"name":"영일운수(자)","tel":"031-754-2071","addr":"경기도 성남시 중원구 하대원동 216-20번지","indutype":"","category":"other"}]},{"lat":"37.4276054","long":"127.1420946","imageIndex":17,"items":[{"name":"예림상사","tel":"031-752-9088","addr":"경기도 성남시 중원구 하대원동 148-14번지","indutype":"","category":"other"}]},{"lat":"37.4271369","long":"127.1495164","imageIndex":17,"items":[{"name":"우리식품","tel":"031-753-1345","addr":"경기도 성남시 중원구 하대원동 159-18번지","indutype":"","category":"other"}]},{"lat":"37.4271331","long":"127.1453249","imageIndex":17,"items":[{"name":"유복F&C","tel":"031-722-4786","addr":"경기도 성남시 중원구 하대원동 356-11번지","indutype":"","category":"other"}]},{"lat":"37.4285278","long":"127.1392605","imageIndex":17,"items":[{"name":"이천쌀유통","tel":"031-755-5722","addr":"경기도 성남시 중원구 하대원동 114-15번지 중앙빌라","indutype":"","category":"other"}]},{"lat":"37.4289433","long":"127.1302115","imageIndex":17,"items":[{"name":"일번지한우 축산물도매센타","tel":"031-742-3783","addr":"경기도 성남시 중원구 하대원동 100-11번지","indutype":"","category":"other"}]},{"lat":"37.4298314","long":"127.1491488","imageIndex":17,"items":[{"name":"제일성모의원","tel":"031-755-4114","addr":"경기도 성남시 중원구 하대원동 131-12번지","indutype":"","category":"other"}]},{"lat":"37.4266903","long":"127.1463522","imageIndex":17,"items":[{"name":"중원","tel":"031-754-1745","addr":"경기도 성남시 중원구 하대원동 317-4번지","indutype":"","category":"other"}]},{"lat":"37.429723","long":"127.1494085","imageIndex":17,"items":[{"name":"중원사진실","tel":"031-752-0125","addr":"경기도 성남시 중원구 하대원동 132-13번지","indutype":"","category":"other"}]},{"lat":"37.4289161","long":"127.1461305","imageIndex":17,"items":[{"name":"진로마트 하대원","tel":"031-758-5344","addr":"경기도 성남시 중원구 하대원동 128-1번지","indutype":"","category":"other"}]},{"lat":"37.4278008","long":"127.1445127","imageIndex":17,"items":[{"name":"진미식당","tel":"031-753-8166","addr":"경기도 성남시 중원구 하대원동 147-2번지","indutype":"","category":"other"}]},{"lat":"37.4276409","long":"127.1499919","imageIndex":17,"items":[{"name":"진영슈퍼","tel":"031-754-4020","addr":"경기도 성남시 중원구 하대원동 158번지","indutype":"","category":"other"}]},{"lat":"37.4286412","long":"127.1345382","imageIndex":17,"items":[{"name":"진흥운수","tel":"031-754-8013","addr":"경기도 성남시 중원구 하대원동 104-5번지","indutype":"","category":"other"}]},{"lat":"37.4288831","long":"127.1358266","imageIndex":17,"items":[{"name":"청진동해장국","tel":"031-758-1922","addr":"경기도 성남시 중원구 하대원동 105-2번지 주원파크빌","indutype":"","category":"other"},{"name":"횡성한우국밥","tel":"031-757-1253","addr":"경기도 성남시 중원구 하대원동 105-2번지 주원파크빌","indutype":"","category":"other"}]},{"lat":"37.4281058","long":"127.1456205","imageIndex":17,"items":[{"name":"최가네사철탕","tel":"031-757-5571","addr":"경기도 성남시 중원구 하대원동 146-8번지","indutype":"","category":"other"}]},{"lat":"37.4318581","long":"127.1566776","imageIndex":17,"items":[{"name":"태능갈비","tel":"031-752-0810","addr":"경기도 성남시 중원구 하대원동 222-8번지","indutype":"","category":"other"}]},{"lat":"37.4294452","long":"127.1481764","imageIndex":17,"items":[{"name":"태창한약방","tel":"031-758-9595","addr":"경기도 성남시 중원구 하대원동 129-10번지","indutype":"","category":"other"},{"name":"효성인쇄","tel":"031-756-9608","addr":"경기도 성남시 중원구 하대원동 129-10번지","indutype":"","category":"other"}]},{"lat":"37.4286105","long":"127.1378484","imageIndex":17,"items":[{"name":"토박이생선구이","tel":"031-751-3244","addr":"경기도 성남시 중원구 하대원동 113번지","indutype":"","category":"other"}]},{"lat":"37.4280025","long":"127.1490097","imageIndex":17,"items":[{"name":"페리카나 하대원점","tel":"031-755-0521","addr":"경기도 성남시 중원구 하대원동 154-44번지","indutype":"","category":"other"}]},{"lat":"37.4284419","long":"127.1433164","imageIndex":17,"items":[{"name":"포석정","tel":"031-723-7774","addr":"경기도 성남시 중원구 하대원동 121-7번지","indutype":"","category":"other"}]},{"lat":"37.4306939","long":"127.1511277","imageIndex":17,"items":[{"name":"플러스원학원","tel":"031-758-8010","addr":"경기도 성남시 중원구 하대원동 134-7번지","indutype":"","category":"other"}]},{"lat":"37.4303326","long":"127.1518501","imageIndex":17,"items":[{"name":"필 미술","tel":"031-752-6622","addr":"경기도 성남시 중원구 하대원동 136-3번지","indutype":"","category":"other"}]},{"lat":"37.4298037","long":"127.1497137","imageIndex":17,"items":[{"name":"한림외국어학원","tel":"031-758-6153","addr":"경기도 성남시 중원구 하대원동 132-11번지","indutype":"","category":"other"}]},{"lat":"37.4287994","long":"127.1457913","imageIndex":17,"items":[{"name":"한주","tel":"031-755-9978","addr":"경기도 성남시 중원구 하대원동 127-8번지","indutype":"","category":"other"}]},{"lat":"37.4281926","long":"127.148287","imageIndex":17,"items":[{"name":"햇쌀떡방앗간","tel":"031-752-8988","addr":"경기도 성남시 중원구 하대원동 154번지","indutype":"","category":"other"}]},{"lat":"37.4283899","long":"127.149067","imageIndex":17,"items":[{"name":"헤어필","tel":"031-603-1479","addr":"경기도 성남시 중원구 하대원동 155번지 대흥에버빌","indutype":"","category":"other"}]},{"lat":"37.427804","long":"127.14179","imageIndex":17,"items":[{"name":"현대청과","tel":"031-754-2088","addr":"경기도 성남시 중원구 하대원동 148-1번지","indutype":"","category":"other"}]},{"lat":"37.4303058","long":"127.151658","imageIndex":17,"items":[{"name":"화인플라워","tel":"031-752-3388","addr":"경기도 성남시 중원구 하대원동 136-4번지","indutype":"","category":"other"}]},{"lat":"37.4299667","long":"127.1490474","imageIndex":17,"items":[{"name":"활어뱅크","tel":"031-721-3139","addr":"경기도 성남시 중원구 하대원동 131-42번지","indutype":"","category":"other"}]}]