[{"lat":"37.655075573","long":"126.78998258","imageIndex":16,"items":[{"name":"(주)랜드마크에듀케이션","tel":"031-902-0525","addr":"경기도 고양시 일산동구 일산로","indutype":"회원제형태 - 학원","category":"study"}]},{"lat":"37.658405684","long":"126.78806917","imageIndex":16,"items":[{"name":"공감학원","tel":"031-904-4080","addr":"경기도 고양시 일산동구 일산로","indutype":"학원 - 보습학원","category":"study"},{"name":"공감학원","tel":"031-904-4080","addr":"경기도 고양시 일산동구 일산로","indutype":"학원 - 보습학원","category":"study"},{"name":"이은영 국어학원","tel":"031-901-9509","addr":"경기도 고양시 일산동구 일산로","indutype":"학원 - 보습학원","category":"study"},{"name":"한서학원","tel":"031-906-3900","addr":"경기도 고양시 일산동구 일산로","indutype":"회원제형태 - 학원","category":"study"}]},{"lat":"37.672903735","long":"126.77918611","imageIndex":16,"items":[{"name":"더웨이컴퍼니","tel":"070-7825-2611","addr":"경기도 고양시 일산동구 일산로","indutype":"회원제형태 - 학원","category":"study"}]},{"lat":"37.657045168","long":"126.78803909","imageIndex":16,"items":[{"name":"막강수학학원","tel":"031-906-7508","addr":"경기도 고양시 일산동구 일산로","indutype":"학원 - 보습학원","category":"study"}]},{"lat":"37.658161204","long":"126.78740124","imageIndex":16,"items":[{"name":"백마포티언어학학원","tel":"031-905-0595","addr":"경기도 고양시 일산동구 일산로","indutype":"학원 - 보습학원","category":"study"}]},{"lat":"37.655237603","long":"126.78990279","imageIndex":16,"items":[{"name":"보리수학교습소","tel":"070-8792-2818","addr":"경기도 고양시 일산동구 일산로","indutype":"학원 - 보습학원","category":"study"}]},{"lat":"37.657127635","long":"126.78879813","imageIndex":16,"items":[{"name":"브릭스영어학원","tel":"031-905-7336","addr":"경기도 고양시 일산동구 일산로","indutype":"회원제형태 - 학원","category":"study"},{"name":"엠펙트수학학원","tel":"031-813-1885","addr":"경기도 고양시 일산동구 일산로","indutype":"학원 - 보습학원","category":"study"},{"name":"정일품수학학원","tel":"031-904-1053","addr":"경기도 고양시 일산동구 일산로","indutype":"회원제형태 - 학원","category":"study"}]},{"lat":"37.664660562","long":"126.78434502","imageIndex":16,"items":[{"name":"세계로우리말영어교습소","tel":"031-902-0978","addr":"경기도 고양시 일산동구 일산로","indutype":"학원 - 외국어학원","category":"study"}]},{"lat":"37.654156099","long":"126.78971323","imageIndex":16,"items":[{"name":"씨아이어학원","tel":"031-902-5049","addr":"경기도 고양시 일산동구 일산로","indutype":"회원제형태 - 학원","category":"study"},{"name":"윙스 짐(GYM)","tel":"031-915-7803","addr":"경기도 고양시 일산동구 일산로","indutype":"회원제형태 - 학원","category":"study"}]},{"lat":"37.65634126","long":"126.7874065","imageIndex":16,"items":[{"name":"아트앤하트","tel":"031-903-5971","addr":"경기도 고양시 일산동구 일산로","indutype":"회원제형태 - 학원","category":"study"}]},{"lat":"37.67273986","long":"126.77829114","imageIndex":16,"items":[{"name":"원월드학원","tel":"031-915-3305","addr":"경기도 고양시 일산동구 일산로","indutype":"회원제형태 - 학원","category":"study"}]},{"lat":"37.673627886","long":"126.77623681","imageIndex":16,"items":[{"name":"이엠스터디학원","tel":"031-919-9328","addr":"경기도 고양시 일산동구 일산로","indutype":"회원제형태 - 학원","category":"study"}]},{"lat":"37.655632016","long":"126.78879109","imageIndex":16,"items":[{"name":"주식회사 남경에이엔씨","tel":"031-907-2345","addr":"경기도 고양시 일산동구 일산로","indutype":"회원제형태 - 학원","category":"study"}]},{"lat":"37.649215055","long":"126.79265085","imageIndex":16,"items":[{"name":"참조운고시원","tel":"031-901-6490","addr":"경기도 고양시 일산동구 일산로","indutype":"학원 - 독서실","category":"study"}]},{"lat":"37.673962524","long":"126.77690457","imageIndex":16,"items":[{"name":"최강수학교습소","tel":"031-925-7082","addr":"경기도 고양시 일산동구 일산로","indutype":"회원제형태 - 학원","category":"study"}]},{"lat":"37.654714143","long":"126.78940567","imageIndex":16,"items":[{"name":"최영미수학교습소","tel":"031-901-2688","addr":"경기도 고양시 일산동구 일산로","indutype":"회원제형태 - 학원","category":"study"}]},{"lat":"37.674097038","long":"126.77657544","imageIndex":16,"items":[{"name":"한웅논술학원","tel":"031-906-7959","addr":"경기도 고양시 일산동구 일산로","indutype":"학원 - 보습학원","category":"study"}]},{"lat":"37.650156054","long":"126.79490317","imageIndex":17,"items":[{"name":"(주)자인글로벌","tel":"031-904-0500","addr":"경기도 고양시 일산동구 일산로","indutype":"기타 - 기계공구","category":"other"},{"name":"주식회사 아이엑스","tel":"031-995-6444","addr":"경기도 고양시 일산동구 일산로","indutype":"기타 - 기계공구","category":"other"}]},{"lat":"37.655408643","long":"126.78982298","imageIndex":17,"items":[{"name":"CLE 105","tel":"031-901-9750","addr":"경기도 고양시 일산동구 일산로","indutype":"의류 - 정장","category":"other"}]},{"lat":"37.660771169","long":"126.78585239","imageIndex":17,"items":[{"name":"HONESTY CAMP","tel":"070-4232-3169","addr":"경기도 고양시 일산동구 일산로","indutype":"회원제형태 - 레져업소","category":"other"}]},{"lat":"37.649802515","long":"126.79368036","imageIndex":17,"items":[{"name":"그린커머스(주)","tel":"031-905-8940","addr":"경기도 고양시 일산동구 일산로","indutype":"사무통신 - 통신기기","category":"other"},{"name":"다나산업","tel":"031-906-8611","addr":"경기도 고양시 일산동구 일산로","indutype":"의류 - 정장","category":"other"},{"name":"주식회사더휩스","tel":"070-4349-2091","addr":"경기도 고양시 일산동구 일산로","indutype":"기타 - 기계공구","category":"other"}]},{"lat":"37.646907778","long":"126.79220411","imageIndex":17,"items":[{"name":"더 보웰 컴퍼니","tel":"070-7519-5454","addr":"경기도 고양시 일산동구 일산로","indutype":"신변잡화 - 기타잡화","category":"other"}]},{"lat":"37.654156099","long":"126.78971323","imageIndex":17,"items":[{"name":"라이프타임스위밍 주식회사","tel":"031-819-6500","addr":"경기도 고양시 일산동구 일산로","indutype":"회원제형태 - 레져업소","category":"other"},{"name":"소나무","tel":"031-901-4931","addr":"경기도 고양시 일산동구 일산로","indutype":"신변잡화 - 액세서리","category":"other"},{"name":"엘라","tel":"031-901-0815","addr":"경기도 고양시 일산동구 일산로","indutype":"의류 - 정장","category":"other"}]},{"lat":"37.64046905","long":"126.78406467","imageIndex":17,"items":[{"name":"르네셀","tel":"031-327-5628","addr":"경기도 고양시 일산동구 일산로","indutype":"회원제형태 - 기타1","category":"other"}]},{"lat":"37.640300505","long":"126.78549274","imageIndex":17,"items":[{"name":"용가리","tel":"02-6408-6724","addr":"경기도 고양시 일산동구 일산로","indutype":"신변잡화 - 기타잡화","category":"other"}]},{"lat":"37.65355112","long":"126.78897838","imageIndex":17,"items":[{"name":"웰컴텍","tel":"02-715-9476","addr":"경기도 고양시 일산동구 일산로","indutype":"회원제형태 - 기타3","category":"other"}]},{"lat":"37.673825247","long":"126.77579414","imageIndex":17,"items":[{"name":"이오기획인쇄","tel":"031-912-6100","addr":"경기도 고양시 일산동구 일산로","indutype":"서적문구 - 출판 및 인쇄물","category":"other"}]},{"lat":"37.654714143","long":"126.78940567","imageIndex":17,"items":[{"name":"트라이BYC할인매장","tel":"031-908-8684","addr":"경기도 고양시 일산동구 일산로","indutype":"의류 - 내의판매","category":"other"}]},{"lat":"37.641035795","long":"126.78359847","imageIndex":17,"items":[{"name":"한정보서비스","tel":"031-814-2233","addr":"경기도 고양시 일산동구 일산로","indutype":"회원제형태 - 기타4","category":"other"}]},{"lat":"37.641492318","long":"126.78687155","imageIndex":17,"items":[{"name":"효성세탁소","tel":"031-901-0110","addr":"경기도 고양시 일산동구 일산로","indutype":"수리서비스 - 세탁소","category":"other"}]},{"lat":"37.642268928","long":"126.78784371","imageIndex":4,"items":[{"name":"곱창이야기 백석역점","tel":"070-8245-6695","addr":"경기도 고양시 일산동구 일산로","indutype":"일반휴게음식 - 일반한식","category":"restaurant"}]},{"lat":"37.654714143","long":"126.78940567","imageIndex":4,"items":[{"name":"또또닭강정","tel":"031-908-7992","addr":"경기도 고양시 일산동구 일산로","indutype":"일반휴게음식 - 일반한식","category":"restaurant"}]},{"lat":"37.654156099","long":"126.78971323","imageIndex":4,"items":[{"name":"로뎀나무","tel":"031-913-9131","addr":"경기도 고양시 일산동구 일산로","indutype":"일반휴게음식 - 서양음식","category":"restaurant"}]},{"lat":"37.654409575","long":"126.79038111","imageIndex":4,"items":[{"name":"브라운치킨","tel":"031-903-3334","addr":"경기도 고양시 일산동구 일산로","indutype":"일반휴게음식 - 스넥","category":"restaurant"}]},{"lat":"37.656713624","long":"126.7890373","imageIndex":4,"items":[{"name":"신전떡볶이","tel":"031-908-1878","addr":"경기도 고양시 일산동구 일산로","indutype":"일반휴게음식 - 스넥","category":"restaurant"}]},{"lat":"37.644462932","long":"126.79040944","imageIndex":4,"items":[{"name":"전주남문토종순대국백석","tel":"031-908-9003","addr":"경기도 고양시 일산동구 일산로","indutype":"일반휴게음식 - 일반한식","category":"restaurant"}]},{"lat":"37.656680967","long":"126.78595496","imageIndex":4,"items":[{"name":"카페투웰브피엠(마두점)","tel":"031-903-5151","addr":"경기도 고양시 일산동구 일산로","indutype":"일반휴게음식 - 스넥","category":"restaurant"}]},{"lat":"37.641772239","long":"126.78721065","imageIndex":4,"items":[{"name":"콘참치&맛스시","tel":"031-901-0103","addr":"경기도 고양시 일산동구 일산로","indutype":"일반휴게음식 - 일식·회집","category":"restaurant"}]},{"lat":"37.674097038","long":"126.77657544","imageIndex":13,"items":[{"name":"더필라테스 일산점","tel":"031-921-1224","addr":"경기도 고양시 일산동구 일산로","indutype":"레저업소 - 헬스클럽","category":"leisure"}]},{"lat":"37.673155164","long":"126.77874329","imageIndex":13,"items":[{"name":"큐당구장","tel":"031-924-1031","addr":"경기도 고양시 일산동구 일산로","indutype":"레저업소 - 당 구 장","category":"leisure"}]},{"lat":"37.657243132","long":"126.78790253","imageIndex":7,"items":[{"name":"목우촌마두점","tel":"031-901-5255","addr":"경기도 고양시 일산동구 일산로","indutype":"음료식품 - 정육점","category":"food"}]},{"lat":"37.645494253","long":"126.79276331","imageIndex":13,"items":[{"name":"세안안경백석점","tel":"031-907-0363","addr":"경기도 고양시 일산동구 일산로","indutype":"보건위생 - 안경","category":"beauty"}]},{"lat":"37.657406625","long":"126.78862734","imageIndex":13,"items":[{"name":"차정미헤어샬롱","tel":"031-813-3114","addr":"경기도 고양시 일산동구 일산로","indutype":"보건위생 - 미용원","category":"beauty"}]},{"lat":"37.655075573","long":"126.78998258","imageIndex":13,"items":[{"name":"홀리미용실","tel":"031-906-2229","addr":"경기도 고양시 일산동구 일산로","indutype":"보건위생 - 미용원","category":"beauty"}]},{"lat":"37.654877627","long":"126.79013046","imageIndex":13,"items":[{"name":"홀리미용실(4호점)","tel":"031-908-5735","addr":"경기도 고양시 일산동구 일산로","indutype":"보건위생 - 미용원","category":"beauty"}]},{"lat":"37.660906209","long":"126.78579533","imageIndex":0,"items":[{"name":"유로카서비스","tel":"031-907-0331","addr":"경기도 고양시 일산동구 일산로","indutype":"자동차정비 유지 - 자동차시트·타이어","category":"car"}]},{"lat":"37.655105068","long":"126.7913537","imageIndex":7,"items":[{"name":"한우촌 두배로마트","tel":"031-903-9622","addr":"경기도 고양시 일산동구 일산로","indutype":"유통업 영리 - 슈퍼마켓","category":"mart"}]}]