[{"lat":"37.656194615","long":"127.24299363","imageIndex":7,"items":[{"name":"곡물마을","tel":"","addr":"경기도 남양주시 호평동 622번지 호평두산위브파크 상가동 114-5호","indutype":"음료식품 - 미곡상","category":"food"},{"name":"호평만두","tel":"070-7768-1599","addr":"경기도 남양주시 호평동 622번지 호평두산위브파크 상가동 1층 121호","indutype":"음료식품 - 기타음료식품","category":"food"}]},{"lat":"37.661208122","long":"127.24537841","imageIndex":7,"items":[{"name":"광어2마리","tel":"031-559-5651","addr":"경기도 남양주시 호평동 613번지 호평마을대주파크빌 1202동 1802호","indutype":"음료식품 - 농·축·수산품","category":"food"},{"name":"호주컴퍼니","tel":"031-1644-5086","addr":"경기도 남양주시 호평동 613번지 호평마을대주파크빌 1202동 903호","indutype":"건강식품 - 기타건강식품","category":"food"}]},{"lat":"37.660166937","long":"127.24783429","imageIndex":7,"items":[{"name":"국선생","tel":"031-511-7444","addr":"경기도 남양주시 호평동 617-1번지 금강프라자 103호","indutype":"음료식품 - 기타음료식품","category":"food"},{"name":"르뽀미에(남양주 호평점)","tel":"031-595-8808","addr":"경기도 남양주시 호평동 617-1번지 금강프라자 107호","indutype":"음료식품 - 제과점","category":"food"},{"name":"이지핏다이어트","tel":"031-511-6266","addr":"경기도 남양주시 호평동 617-1번지 금강프라자 3층 305호","indutype":"건강식품 - 기타건강식품","category":"food"},{"name":"정성가득찬","tel":"031-511-8803","addr":"경기도 남양주시 호평동 617-1번지 금강프라자 112호","indutype":"음료식품 - 기타음료식품","category":"food"},{"name":"종로떡집","tel":"031-559-3575","addr":"경기도 남양주시 호평동 617-1번지 금강프라자 102호","indutype":"음료식품 - 제과점","category":"food"},{"name":"호평한우축산물정육점","tel":"031-594-6689","addr":"경기도 남양주시 호평동 617-1번지 금강프라자 109호","indutype":"음료식품 - 정육점","category":"food"}]},{"lat":"37.655329953","long":"127.24725178","imageIndex":7,"items":[{"name":"그래이마카롱","tel":"031-528-6263","addr":"경기도 남양주시 호평동 651-2번지 1층 101호","indutype":"음료식품 - 기타음료식품","category":"food"}]},{"lat":"37.654778504","long":"127.25666704","imageIndex":7,"items":[{"name":"기호유통","tel":"","addr":"경기도 남양주시 호평동 25-1번지","indutype":"음료식품 - 농·축·수산품","category":"food"}]},{"lat":"37.661558576","long":"127.23691362","imageIndex":7,"items":[{"name":"나래유통","tel":"","addr":"경기도 남양주시 호평동 569-2번지 훼밀리타운 402호","indutype":"음료식품 - 농·축·수산품","category":"food"}]},{"lat":"37.655888455","long":"127.24729894","imageIndex":7,"items":[{"name":"낙원떡집","tel":"031-559-6315","addr":"경기도 남양주시 호평동 650-2번지","indutype":"음료식품 - 기타음료식품","category":"food"}]},{"lat":"37.661558744","long":"127.25008284","imageIndex":7,"items":[{"name":"녹즙건강생활","tel":"031-511-2157","addr":"경기도 남양주시 호평동 273-11번지 해오름파크빌 102동 105호","indutype":"건강식품 - 기타건강식품","category":"food"},{"name":"성봉건강원","tel":"031-591-9054","addr":"경기도 남양주시 호평동 273-11번지 해오름파크빌 102동 1층 103호","indutype":"건강식품 - 기타건강식품","category":"food"}]},{"lat":"37.656554132","long":"127.24779975","imageIndex":7,"items":[{"name":"농가축산물도매센타","tel":"031-511-3214","addr":"경기도 남양주시 호평동 194-7번지","indutype":"음료식품 - 정육점","category":"food"}]},{"lat":"37.656277985","long":"127.25485895","imageIndex":7,"items":[{"name":"더달달호평점","tel":"","addr":"경기도 남양주시 호평동 674-1번지 호평아카데미 1층 103호","indutype":"음료식품 - 기타음료식품","category":"food"},{"name":"한상가득","tel":"031-511-0164","addr":"경기도 남양주시 호평동 674-1번지 호평아카데미 107호","indutype":"음료식품 - 기타음료식품","category":"food"}]},{"lat":"37.661089432","long":"127.24172874","imageIndex":7,"items":[{"name":"덕유상회","tel":"070-7719-1918","addr":"경기도 남양주시 호평동 612번지 호평동현대아이파크 1108동 1001호","indutype":"음료식품 - 농·축·수산품","category":"food"}]},{"lat":"37.658808904","long":"127.24666255","imageIndex":7,"items":[{"name":"델리퀸 호평점","tel":"031-595-7390","addr":"경기도 남양주시 호평동 175-15번지 101호","indutype":"음료식품 - 정육점","category":"food"}]},{"lat":"37.654026196","long":"127.2415588","imageIndex":7,"items":[{"name":"도농정육점","tel":"031-511-5767","addr":"경기도 남양주시 호평동 632-4번지 1층","indutype":"음료식품 - 정육점","category":"food"}]},{"lat":"37.661587341","long":"127.24055168","imageIndex":7,"items":[{"name":"도리스","tel":"070-8256-1160","addr":"경기도 남양주시 호평동 726번지 엘에이치호평1단지 106동 102호","indutype":"음료식품 - 미곡상","category":"food"}]},{"lat":"37.656053087","long":"127.24610958","imageIndex":7,"items":[{"name":"도시속의약초건강원","tel":"031-559-3374","addr":"경기도 남양주시 호평동 168-27번지","indutype":"건강식품 - 기타건강식품","category":"food"}]},{"lat":"37.654279083","long":"127.24125364","imageIndex":7,"items":[{"name":"도쿄베이커리","tel":"031-576-0738","addr":"경기도 남양주시 호평동 631-17번지","indutype":"음료식품 - 제과점","category":"food"}]},{"lat":"37.653669322","long":"127.25291236","imageIndex":7,"items":[{"name":"두런두런순두부","tel":"031-595-9933","addr":"경기도 남양주시 호평동 118","indutype":"음료식품 - 기타음료식품","category":"food"}]},{"lat":"37.655835909","long":"127.25514077","imageIndex":7,"items":[{"name":"뚜레쥬르남양주호평효성","tel":"031-593-4242","addr":"경기도 남양주시 호평동 674-5번지 1층","indutype":"음료식품 - 제과점","category":"food"}]},{"lat":"37.659384939","long":"127.24255058","imageIndex":7,"items":[{"name":"뚜레쥬르호평문화체육센타점","tel":"031-565-4500","addr":"경기도 남양주시 호평동 716-12번지 2호","indutype":"음료식품 - 제과점","category":"food"},{"name":"파리바게뜨 호평문화센터점","tel":"031-559-1170","addr":"경기도 남양주시 호평동 716-12번지","indutype":"음료식품 - 제과점","category":"food"}]},{"lat":"37.656195345","long":"127.24702797","imageIndex":7,"items":[{"name":"라비에벨","tel":"031-592-7708","addr":"경기도 남양주시 호평동 153-7번지","indutype":"음료식품 - 기타음료식품","category":"food"},{"name":"종점로또토토방","tel":"031-591-6003","addr":"경기도 남양주시 호평동 153-7번지 1층 1-1호","indutype":"음료식품 - 기타음료식품","category":"food"}]},{"lat":"37.654417595","long":"127.24403046","imageIndex":7,"items":[{"name":"르브레드랩 평내호평점","tel":"031-511-0308","addr":"경기도 남양주시 호평동 640-2번지 CH리베로빌딩 103호","indutype":"음료식품 - 제과점","category":"food"},{"name":"빵장수단팥빵 남양주점","tel":"031-594-7167","addr":"경기도 남양주시 호평동 640-2번지 CH리베로빌딩 1층 110호","indutype":"음료식품 - 제과점","category":"food"},{"name":"한국마그나스","tel":"02-514-4658","addr":"경기도 남양주시 호평동 640-2번지","indutype":"건강식품 - 기타건강식품","category":"food"}]},{"lat":"37.657747827","long":"127.2456618","imageIndex":7,"items":[{"name":"마마카롱","tel":"","addr":"경기도 남양주시 호평동 213-1번지 타워빌딩 1층","indutype":"음료식품 - 기타음료식품","category":"food"},{"name":"허브힐링점핑","tel":"","addr":"경기도 남양주시 호평동 213-1번지 우성빌딩 3층","indutype":"건강식품 - 기타건강식품","category":"food"}]},{"lat":"37.65596839","long":"127.24785449","imageIndex":7,"items":[{"name":"막퍼주는집","tel":"","addr":"경기도 남양주시 호평동 666-1번지 1층 104호","indutype":"음료식품 - 농·축·수산품","category":"food"},{"name":"토종명품한우","tel":"031-595-6665","addr":"경기도 남양주시 호평동 666-1번지 104호","indutype":"음료식품 - 정육점","category":"food"}]},{"lat":"37.65588671","long":"127.25665948","imageIndex":7,"items":[{"name":"맛깔찬","tel":"031-594-2933","addr":"경기도 남양주시 호평동 681번지 휴먼시아 상가 101호","indutype":"음료식품 - 기타음료식품","category":"food"}]},{"lat":"37.655003243","long":"127.24402103","imageIndex":7,"items":[{"name":"밝은아이건강","tel":"031-559-5703","addr":"경기도 남양주시 호평동 640번지 호평메인씨네마타워 502호","indutype":"회원제형태 - 건강식품","category":"food"},{"name":"베스킨라빈스31남양주호평점","tel":"031-593-3136","addr":"경기도 남양주시 호평동 640번지 메인시네마타워 108호","indutype":"음료식품 - 제과점","category":"food"},{"name":"스위트바(SWEET BAR)","tel":"031-559-1421","addr":"경기도 남양주시 호평동 640번지 메인시네마타워 9층","indutype":"음료식품 - 기타음료식품","category":"food"},{"name":"파스텔로 케이크&디저트","tel":"031-591-8119","addr":"경기도 남양주시 호평동 640번지 메인시네마타워 2층 210-1호","indutype":"음료식품 - 기타음료식품","category":"food"}]},{"lat":"37.654942256","long":"127.24300093","imageIndex":7,"items":[{"name":"베스킨라빈스남양주이마트점","tel":"031-593-3036","addr":"경기도 남양주시 호평동 637번지 이마트 3층","indutype":"음료식품 - 제과점","category":"food"}]},{"lat":"37.65502426","long":"127.24694481","imageIndex":7,"items":[{"name":"베이커리졸리","tel":"031-559-0092","addr":"경기도 남양주시 호평동 649-8번지 101호","indutype":"음료식품 - 제과점","category":"food"}]},{"lat":"37.654030135","long":"127.24405187","imageIndex":7,"items":[{"name":"별&별식빵","tel":"031-593-3888","addr":"경기도 남양주시 호평동 641번지 에이스프라자 104호","indutype":"음료식품 - 제과점","category":"food"},{"name":"빛고을","tel":"","addr":"경기도 남양주시 호평동 641번지 에이스프라자 801호","indutype":"음료식품 - 농·축·수산품","category":"food"}]},{"lat":"37.655664012","long":"127.24691291","imageIndex":7,"items":[{"name":"부부엠","tel":"031-594-2877","addr":"경기도 남양주시 호평동 649-3번지 민빌딩 1층 103호","indutype":"음료식품 - 제과점","category":"food"}]},{"lat":"37.667139447","long":"127.24829923","imageIndex":7,"items":[{"name":"부엌/(주)제이제이컴퍼니","tel":"031-591-6723","addr":"경기도 남양주시 호평동 386-4번지 동양프라자 103호","indutype":"음료식품 - 기타음료식품","category":"food"}]},{"lat":"37.656988711","long":"127.25109895","imageIndex":7,"items":[{"name":"상윤수산","tel":"031-557-9113","addr":"경기도 남양주시 호평동 676번지 호평마을동원로얄듀크 1705동 1602호","indutype":"음료식품 - 농·축·수산품","category":"food"}]},{"lat":"37.661975815","long":"127.24882623","imageIndex":7,"items":[{"name":"서민반찬(남양주호평점)","tel":"031-595-0500","addr":"경기도 남양주시 호평동 269-1번지 1층 일부 102호","indutype":"음료식품 - 기타음료식품","category":"food"},{"name":"파리바게뜨(호평제일점)","tel":"031-594-8833","addr":"경기도 남양주시 호평동 269-1번지","indutype":"음료식품 - 제과점","category":"food"}]},{"lat":"37.656223006","long":"127.24672209","imageIndex":7,"items":[{"name":"솔이의냉장고","tel":"","addr":"경기도 남양주시 호평동 188-4번지 1층","indutype":"음료식품 - 제과점","category":"food"}]},{"lat":"37.656469372","long":"127.24521567","imageIndex":7,"items":[{"name":"송은농장","tel":"031-595-9190","addr":"경기도 남양주시 호평동 170-3,5","indutype":"음료식품 - 농·축·수산품","category":"food"}]},{"lat":"37.659356989","long":"127.24738964","imageIndex":7,"items":[{"name":"슈가박스","tel":"","addr":"경기도 남양주시 호평동 617-4번지 로제카운티 102호","indutype":"음료식품 - 기타음료식품","category":"food"},{"name":"최고반찬","tel":"000-000-0000","addr":"경기도 남양주시 호평동 617-4번지 로제카운티 113호","indutype":"음료식품 - 기타음료식품","category":"food"},{"name":"형제떡집","tel":"031-516-5383","addr":"경기도 남양주시 호평동 617-4번지 로제카운티 1층 114호","indutype":"음료식품 - 제과점","category":"food"}]},{"lat":"37.658451906","long":"127.24058702","imageIndex":7,"items":[{"name":"시골한우 정육점","tel":"031-528-9349","addr":"경기도 남양주시 호평동 712번지 휴먼시아 상가동 104호","indutype":"음료식품 - 정육점","category":"food"}]},{"lat":"37.661747899","long":"127.25010613","imageIndex":7,"items":[{"name":"신나라","tel":"031-559-0355","addr":"경기도 남양주시 호평동 273-7번지 해오름파크빌 104동 102호","indutype":"음료식품 - 농·축·수산품","category":"food"}]},{"lat":"37.657168383","long":"127.24703116","imageIndex":7,"items":[{"name":"신명정육점","tel":"031-591-2009","addr":"경기도 남양주시 호평동 185-2번지","indutype":"음료식품 - 정육점","category":"food"}]},{"lat":"37.654475938","long":"127.24633108","imageIndex":7,"items":[{"name":"씨드앤너츠(평내호평점)","tel":"031-511-3884","addr":"경기도 남양주시 호평동 656-9번지","indutype":"음료식품 - 기타음료식품","category":"food"}]},{"lat":"37.659615166","long":"127.24452326","imageIndex":7,"items":[{"name":"야물계","tel":"","addr":"경기도 남양주시 호평동 615-6번지 B03호","indutype":"음료식품 - 농·축·수산품","category":"food"}]},{"lat":"37.655746807","long":"127.24608592","imageIndex":7,"items":[{"name":"야채가게","tel":"031-559-9992","addr":"경기도 남양주시 호평동 645-6번지 경록빌딩 1층 101호","indutype":"음료식품 - 농·축·수산품","category":"food"}]},{"lat":"37.655142447","long":"127.242027","imageIndex":7,"items":[{"name":"엄마맘반찬","tel":"031-1111-1111","addr":"경기도 남양주시 호평동 629-9번지","indutype":"음료식품 - 기타음료식품","category":"food"}]},{"lat":"37.670341813","long":"127.25072404","imageIndex":7,"items":[{"name":"용재농원","tel":"031-595-9618","addr":"경기도 남양주시 호평동 724번지 호평파라곤 107동 1503호","indutype":"음료식품 - 농·축·수산품","category":"food"}]},{"lat":"37.656836526","long":"127.24630479","imageIndex":7,"items":[{"name":"인천상회","tel":"070-9144-4701","addr":"경기도 남양주시 호평동 168-6번지 아리수 C동 302호","indutype":"음료식품 - 농·축·수산품","category":"food"}]},{"lat":"37.655110013","long":"127.26166569","imageIndex":7,"items":[{"name":"정안농원","tel":"031-558-1658","addr":"경기도 남양주시 호평동 산 22-20","indutype":"음료식품 - 농·축·수산품","category":"food"}]},{"lat":"37.65402766","long":"127.24083355","imageIndex":7,"items":[{"name":"천마산방앗간","tel":"031-552-0625","addr":"경기도 남양주시 호평동 633-5","indutype":"음료식품 - 기타음료식품","category":"food"}]},{"lat":"37.661812673","long":"127.24493838","imageIndex":7,"items":[{"name":"천하푸드","tel":"","addr":"경기도 남양주시 호평동 613번지 호평마을대주파크빌 1208동 301호","indutype":"음료식품 - 기타음료식품","category":"food"}]},{"lat":"37.6551710582","long":"127.2412451628","imageIndex":7,"items":[{"name":"카페어바웃센베이(153베이커리)","tel":"031-573-6731","addr":"경기도 남양주시 호평동 627-2번지","indutype":"음료식품 - 기타음료식품","category":"food"}]},{"lat":"37.660087182","long":"127.24280217","imageIndex":7,"items":[{"name":"커피로스터리웰컴하우스","tel":"","addr":"경기도 남양주시 호평동 715-10번지 1층 101호","indutype":"음료식품 - 기타음료식품","category":"food"}]},{"lat":"37.656277453","long":"127.25510826","imageIndex":7,"items":[{"name":"파리바게뜨(호평점)","tel":"031-591-8934","addr":"경기도 남양주시 호평동 674-2번지 호평메디뷰 101호","indutype":"음료식품 - 제과점","category":"food"}]},{"lat":"37.660495647","long":"127.24130752","imageIndex":7,"items":[{"name":"픽미픽미아이스호평점","tel":"","addr":"경기도 남양주시 호평동 612번지 호평동현대아이파크 상가동 107호","indutype":"음료식품 - 기타음료식품","category":"food"}]},{"lat":"37.653560767","long":"127.25733148","imageIndex":7,"items":[{"name":"하얀집","tel":"031-594-2722","addr":"경기도 남양주시 호평동 23-6번지","indutype":"음료식품 - 기타음료식품","category":"food"}]},{"lat":"37.654004679","long":"127.24328121","imageIndex":7,"items":[{"name":"한국인삼공사정관장홍삼호평점","tel":"031-593-2388","addr":"경기도 남양주시 호평동 638-1번지 늘봄타워 102호","indutype":"건강식품 - 홍삼제품","category":"food"},{"name":"한국인삼공사정관장홍삼호평점","tel":"031-593-2388","addr":"경기도 남양주시 호평동 638-1번지 늘봄타원 102호","indutype":"건강식품 - 홍삼제품","category":"food"},{"name":"행복축산","tel":"031-222-2222","addr":"경기도 남양주시 호평동 638-1번지 늘봄타워 111호","indutype":"음료식품 - 정육점","category":"food"}]},{"lat":"37.661387895","long":"127.24558299","imageIndex":7,"items":[{"name":"행복한공간","tel":"","addr":"경기도 남양주시 호평동 613번지 대주파크빌 상가 103호","indutype":"음료식품 - 제과점","category":"food"}]},{"lat":"37.665500902","long":"127.24771581","imageIndex":7,"items":[{"name":"현대정육(더육)","tel":"031-573-9006","addr":"경기도 남양주시 호평동 408-2번지 마동 일부","indutype":"음료식품 - 정육점","category":"food"}]},{"lat":"37.655635599","long":"127.24758142","imageIndex":7,"items":[{"name":"현미와누룽지","tel":"031-1111-1111","addr":"경기도 남양주시 호평동 650-5번지 1층 102호","indutype":"음료식품 - 기타음료식품","category":"food"}]}]