[{"lat":"37.655909036","long":"126.77320827","imageIndex":7,"items":[{"name":"YES마트","tel":"031-904-6625","addr":"경기도 고양시 일산동구 장항동 854-1번지","indutype":"유통업 영리 - 슈퍼마켓","category":"mart"}]},{"lat":"37.664573692","long":"126.76729939","imageIndex":7,"items":[{"name":"고구려마트","tel":"031-915-1417","addr":"경기도 고양시 일산동구 장항동 731번지","indutype":"유통업 영리 - 슈퍼마켓","category":"mart"}]},{"lat":"37.644267177","long":"126.76346581","imageIndex":7,"items":[{"name":"대박복권방","tel":"031-904-0645","addr":"경기도 고양시 일산동구 장항동 543-4번지","indutype":"유통업 영리 - 슈퍼마켓","category":"mart"}]},{"lat":"37.663016071","long":"126.76782565","imageIndex":7,"items":[{"name":"데이앤나이트","tel":"031-916-0041","addr":"경기도 고양시 일산동구 장항동 734-2번지","indutype":"유통업 영리 - 슈퍼마켓","category":"mart"}]},{"lat":"37.63946596","long":"126.76393441","imageIndex":7,"items":[{"name":"럭키슈퍼","tel":"031-901-8604","addr":"경기도 고양시 일산동구 장항동 558번지","indutype":"유통업 영리 - 슈퍼마켓","category":"mart"}]},{"lat":"37.656848579","long":"126.76990762","imageIndex":7,"items":[{"name":"모아슈퍼","tel":"031-932-6800","addr":"경기도 고양시 일산동구 장항동 864-3번지","indutype":"유통업 영리 - 슈퍼마켓","category":"mart"}]},{"lat":"37.659716427","long":"126.76677076","imageIndex":7,"items":[{"name":"비손할인마트","tel":"031-902-8981","addr":"경기도 고양시 일산동구 장항동 752-1번지","indutype":"유통업 영리 - 슈퍼마켓","category":"mart"}]},{"lat":"37.634606998","long":"126.780989","imageIndex":7,"items":[{"name":"우리슈퍼","tel":"070-4922-1261","addr":"경기도 고양시 일산동구 장항동 624-9번지","indutype":"유통업 영리 - 슈퍼마켓","category":"mart"}]},{"lat":"37.642939329","long":"126.76623469","imageIndex":7,"items":[{"name":"이전유통장항점","tel":"031-903-8868","addr":"경기도 고양시 일산동구 장항동 547-13번지","indutype":"유통업 영리 - 슈퍼마켓","category":"mart"}]},{"lat":"37.640266954","long":"126.76798799","imageIndex":7,"items":[{"name":"장마트","tel":"031-097-9399","addr":"경기도 고양시 일산동구 장항동 572-7번지","indutype":"유통업 영리 - 슈퍼마켓","category":"mart"}]},{"lat":"37.641658078","long":"126.7698191","imageIndex":7,"items":[{"name":"지라난마트 주식회사(JEERANAN MART CO.,LT","tel":"","addr":"경기도 고양시 일산동구 장항동 566-42번지","indutype":"유통업 영리 - 슈퍼마켓","category":"mart"}]},{"lat":"37.664185055","long":"126.7666886","imageIndex":7,"items":[{"name":"한국청과할인마트","tel":"031-913-5011","addr":"경기도 고양시 일산동구 장항동 731-2번지","indutype":"유통업 영리 - 슈퍼마켓","category":"mart"}]},{"lat":"37.638576592","long":"126.76521752","imageIndex":7,"items":[{"name":"한진마트","tel":"031-901-6035","addr":"경기도 고양시 일산동구 장항동 569번지","indutype":"유통업 영리 - 슈퍼마켓","category":"mart"}]},{"lat":"37.659850701","long":"126.77087287","imageIndex":7,"items":[{"name":"현대25시","tel":"031-905-1980","addr":"경기도 고양시 일산동구 장항동 771-1번지","indutype":"유통업 영리 - 슈퍼마켓","category":"mart"}]},{"lat":"37.642602346","long":"126.76443423","imageIndex":7,"items":[{"name":"현대25시마트","tel":"031-902-9118","addr":"경기도 고양시 일산동구 장항동 547-3번지","indutype":"유통업 영리 - 슈퍼마켓","category":"mart"}]},{"lat":"37.649243741","long":"126.76062832","imageIndex":7,"items":[{"name":"현대슈퍼","tel":"031-902-4393","addr":"경기도 고양시 일산동구 장항동 673-19번지","indutype":"유통업 영리 - 슈퍼마켓","category":"mart"}]},{"lat":"37.655436152","long":"126.75760515","imageIndex":7,"items":[{"name":"호박슈퍼","tel":"031-901-1034","addr":"경기도 고양시 일산동구 장항동 648번지","indutype":"유통업 영리 - 슈퍼마켓","category":"mart"}]}]