[{"lat":"37.47183226","long":"127.3071324","imageIndex":7,"items":[{"name":"강원농산","tel":"031-434-0793","addr":"경기도 광주시 퇴촌면 광동리 198-3","indutype":"음료식품 - 농·축·수산품","category":"food"}]},{"lat":"37.4715818","long":"127.3099123","imageIndex":7,"items":[{"name":"고기박사 (퇴촌본점)","tel":"031-768-1594","addr":"경기도 광주시 퇴촌면 광동리 190-3번지","indutype":"음료식품 - 정육점","category":"food"}]},{"lat":"37.46761449","long":"127.3110377","imageIndex":7,"items":[{"name":"나봄","tel":"02-6107-7101","addr":"경기도 광주시 퇴촌면 광동리 133번지 금성빌라","indutype":"음료식품 - 기타음료식품","category":"food"}]},{"lat":"37.47063342","long":"127.307331","imageIndex":7,"items":[{"name":"늘푸른건강원","tel":"031-767-9199","addr":"경기도 광주시 퇴촌면 광동리 235-14번지","indutype":"건강식품 - 기타건강식품","category":"food"}]},{"lat":"37.4702171","long":"127.3080528","imageIndex":7,"items":[{"name":"대박집","tel":"031-768-1382","addr":"경기도 광주시 퇴촌면 광동리 236-2번지","indutype":"음료식품 - 기타음료식품","category":"food"}]},{"lat":"37.47024542","long":"127.3075555","imageIndex":7,"items":[{"name":"뚜레쥬르 광주퇴촌(2)","tel":"031-761-0259","addr":"경기도 광주시 퇴촌면 광동리 235-2번지","indutype":"음료식품 - 제과점","category":"food"}]},{"lat":"37.46874269","long":"127.3068034","imageIndex":7,"items":[{"name":"마루","tel":"070-1111-1111","addr":"경기도 광주시 퇴촌면 광동리 269-1번지 1층","indutype":"음료식품 - 기타음료식품","category":"food"}]},{"lat":"37.47155397","long":"127.3102174","imageIndex":7,"items":[{"name":"맛집반찬","tel":"","addr":"경기도 광주시 퇴촌면 광동리 182-3번지 1층","indutype":"음료식품 - 기타음료식품","category":"food"}]},{"lat":"37.47016668","long":"127.3066396","imageIndex":7,"items":[{"name":"베스트축산","tel":"031-716-2271","addr":"경기도 광주시 퇴촌면 광동리 232-4번지","indutype":"음료식품 - 정육점","category":"food"},{"name":"영진축산","tel":"031-767-9911","addr":"경기도 광주시 퇴촌면 광동리 232-4","indutype":"음료식품 - 정육점","category":"food"}]},{"lat":"37.471384","long":"127.3062601","imageIndex":7,"items":[{"name":"선물농장","tel":"070-2699-0807","addr":"경기도 광주시 퇴촌면 광동리 206번지 금성빌라","indutype":"음료식품 - 농·축·수산품","category":"food"}]},{"lat":"37.47157986","long":"127.3106584","imageIndex":7,"items":[{"name":"순아수산","tel":"031-763-8083","addr":"경기도 광주시 퇴촌면 광동리 182-2번지 동현빌딩 182-2","indutype":"음료식품 - 농·축·수산품","category":"food"},{"name":"오케이축산(OK축산)","tel":"031-763-8083","addr":"경기도 광주시 퇴촌면 광동리 182-2번지 동현빌딩 마트내 정육코너","indutype":"음료식품 - 정육점","category":"food"}]},{"lat":"37.47163333","long":"127.3108847","imageIndex":7,"items":[{"name":"오케이수산","tel":"031-763-3758","addr":"경기도 광주시 퇴촌면 광동리 182-1","indutype":"음료식품 - 농·축·수산품","category":"food"}]},{"lat":"37.4691041","long":"127.3064092","imageIndex":7,"items":[{"name":"자영애건강원","tel":"031-769-8890","addr":"경기도 광주시 퇴촌면 광동리 275-1번지 2호","indutype":"건강식품 - 기타건강식품","category":"food"}]},{"lat":"37.4701621","long":"127.3118847","imageIndex":7,"items":[{"name":"주식회사 가온가","tel":"031-767-7870","addr":"경기도 광주시 퇴촌면 광동리 161-9번지 1층 2호","indutype":"음료식품 - 농·축·수산품","category":"food"}]},{"lat":"37.47019504","long":"127.3096127","imageIndex":7,"items":[{"name":"참샘한우촌정육점","tel":"031-768-3169","addr":"경기도 광주시 퇴촌면 광동리 146-4번지","indutype":"음료식품 - 정육점","category":"food"}]},{"lat":"37.47013162","long":"127.3097481","imageIndex":7,"items":[{"name":"퇴촌정육","tel":"031-767-0923","addr":"경기도 광주시 퇴촌면 광동리 146-5","indutype":"음료식품 - 정육점","category":"food"}]},{"lat":"37.47068684","long":"127.3075799","imageIndex":7,"items":[{"name":"파리바게뜨","tel":"031-764-0090","addr":"경기도 광주시 퇴촌면 광동리 235-17번지 1층","indutype":"음료식품 - 제과점","category":"food"}]}]