[{"lat":"37.268793067","long":"126.95642127","imageIndex":8,"items":[{"name":"경희금호한의원","tel":"031-294-7582","addr":"경기도 수원시 권선구 호매실동 395-5번지","indutype":"의원 - 한의원","category":"medical"}]},{"lat":"37.258766871","long":"126.96259357","imageIndex":8,"items":[{"name":"경희윤한의원","tel":"031-227-0695","addr":"경기도 수원시 권선구 호매실동 1400-2번지 금호프라자 1동 4층 401,402호","indutype":"의원 - 한의원","category":"medical"},{"name":"메디팜 하늘약국","tel":"031-296-6975","addr":"경기도 수원시 권선구 호매실동 1400-2번지 104호 105호","indutype":"약국 - 약국","category":"medical"},{"name":"성모속내과","tel":"031-000-0000","addr":"경기도 수원시 권선구 호매실동 1400-2번지 4층 404 ,405호","indutype":"의원 - 의원","category":"medical"},{"name":"키즈원","tel":"031-227-0075","addr":"경기도 수원시 권선구 호매실동 110-3 금호프라자 605","indutype":"의원 - 의원","category":"medical"},{"name":"호매실연세이비인후과","tel":"031-293-7582","addr":"경기도 수원시 권선구 호매실동 1400-2번지 금호프라자 304호","indutype":"의원 - 의원","category":"medical"}]},{"lat":"37.269289692","long":"126.9592057","imageIndex":8,"items":[{"name":"두암경희한의원","tel":"031-750-4320","addr":"경기도 수원시 권선구 호매실동 89-1번지 1층","indutype":"의원 - 한의원","category":"medical"}]},{"lat":"37.265512272","long":"126.95381908","imageIndex":8,"items":[{"name":"메리 동물병원","tel":"031-296-7582","addr":"경기도 수원시 권선구 호매실동 1362-1번지 103-2호","indutype":"기타의료기관 - 동물병원","category":"medical"}]},{"lat":"37.268485492","long":"126.95340001","imageIndex":8,"items":[{"name":"미소애치과","tel":"031-296-2580","addr":"경기도 수원시 권선구 호매실동 402-2번지","indutype":"의원 - 치과의원","category":"medical"}]},{"lat":"37.265713281","long":"126.96106792","imageIndex":8,"items":[{"name":"민이비인후과의원","tel":"031-291-9897","addr":"경기도 수원시 권선구 호매실동 1376번지 아트프라자 302호","indutype":"의원 - 의원","category":"medical"},{"name":"참좋은치과의원","tel":"070-7711-6195","addr":"경기도 수원시 권선구 호매실동 1376번지 301호","indutype":"의원 - 치과의원","category":"medical"},{"name":"호매실우리약국","tel":"031-292-1215","addr":"경기도 수원시 권선구 호매실동 1376번지 아트프라자 1층 101호","indutype":"약국 - 약국","category":"medical"}]},{"lat":"37.269595616","long":"126.95806682","imageIndex":8,"items":[{"name":"새서울내과의원","tel":"031-296-3475","addr":"경기도 수원시 권선구 호매실동 82-6번지 2층","indutype":"의원 - 의원","category":"medical"},{"name":"호매실하늘약국","tel":"031-292-8875","addr":"경기도 수원시 권선구 호매실동 82-6번지 1층 3호","indutype":"약국 - 약국","category":"medical"}]},{"lat":"37.266010552","long":"126.9608761","imageIndex":8,"items":[{"name":"새솔치과의원","tel":"031-291-2870","addr":"경기도 수원시 권선구 호매실동 1375번지 3층 303호","indutype":"의원 - 치과의원","category":"medical"},{"name":"연세소아청소년과의원","tel":"070-4789-2382","addr":"경기도 수원시 권선구 호매실동 1375번지 현대프라자 3층 302호","indutype":"의원 - 의원","category":"medical"},{"name":"호매실은누리약국","tel":"031-296-3377","addr":"경기도 수원시 권선구 호매실동 1375번지 1층","indutype":"약국 - 약국","category":"medical"}]},{"lat":"37.268874896","long":"126.95833783","imageIndex":8,"items":[{"name":"서성은치과의원","tel":"031-297-0799","addr":"경기도 수원시 권선구 호매실동 84-8번지 엘지 상가 302호","indutype":"의원 - 치과의원","category":"medical"}]},{"lat":"37.268765213","long":"126.9543694","imageIndex":8,"items":[{"name":"선한약국","tel":"031-296-5046","addr":"경기도 수원시 권선구 호매실동 402-29번지","indutype":"약국 - 약국","category":"medical"}]},{"lat":"37.269235205","long":"126.95806703","imageIndex":8,"items":[{"name":"양동준치과의원","tel":"031-297-2275","addr":"경기도 수원시 권선구 호매실동 82-19번지","indutype":"의원 - 치과의원","category":"medical"}]},{"lat":"37.259380109","long":"126.96420524","imageIndex":8,"items":[{"name":"유연약국","tel":"031-296-6794","addr":"경기도 수원시 권선구 호매실동 1397번지 호매실가든주차타워","indutype":"약국 - 약국","category":"medical"}]},{"lat":"37.26026767","long":"126.95236828","imageIndex":8,"items":[{"name":"제민한의원","tel":"031-292-8275","addr":"경기도 수원시 권선구 호매실동 1388번지 수원호매실휴먼시아15단지아파트","indutype":"의원 - 한의원","category":"medical"}]},{"lat":"37.268738001","long":"126.95392973","imageIndex":8,"items":[{"name":"제일의원","tel":"031-295-0986","addr":"경기도 수원시 권선구 호매실동 402-1번지 2호","indutype":"의원 - 의원","category":"medical"}]},{"lat":"37.268648773","long":"126.95609441","imageIndex":8,"items":[{"name":"최희정한의원","tel":"031-294-6816","addr":"경기도 수원시 권선구 호매실동 395-7번지","indutype":"의원 - 한의원","category":"medical"}]},{"lat":"37.268513086","long":"126.95476415","imageIndex":8,"items":[{"name":"호매실치과의원","tel":"031-292-9929","addr":"경기도 수원시 권선구 호매실동 395-2번지","indutype":"의원 - 치과의원","category":"medical"}]}]