[{"lat":"37.093811909","long":"126.90079372","imageIndex":7,"items":[{"name":"다옴협동조합","tel":"031-111-1111","addr":"경기도 화성시 향남읍 상신리 874번지 2층 에이호","indutype":"음료식품 - 기타음료식품","category":"food"},{"name":"두레모아 협동조합","tel":"031-8059-4668","addr":"경기도 화성시 향남읍 상신리 874번지","indutype":"음료식품 - 기타음료식품","category":"food"},{"name":"화성시 발효식품협동조합","tel":"031-290-8976","addr":"경기도 화성시 향남읍 상신리 874번지 2층 4호","indutype":"음료식품 - 기타음료식품","category":"food"},{"name":"화성식품제조협동조합연합회","tel":"070-7799-0415","addr":"경기도 화성시 향남읍 상신리 874번지 급식동 별관","indutype":"음료식품 - 기타음료식품","category":"food"}]},{"lat":"37.105252829","long":"126.8979659","imageIndex":7,"items":[{"name":"예뜰반찬","tel":"031-352-0425","addr":"경기도 화성시 향남읍 상신리 1288-4번지","indutype":"음료식품 - 기타음료식품","category":"food"}]},{"lat":"37.099451912","long":"126.90009996","imageIndex":7,"items":[{"name":"카페알자스","tel":"","addr":"경기도 화성시 향남읍 상신리 1311-4번지 106호","indutype":"음료식품 - 기타음료식품","category":"food"}]},{"lat":"37.104946272","long":"126.89774133","imageIndex":7,"items":[{"name":"커피어라운드","tel":"031-475-5308","addr":"경기도 화성시 향남읍 상신리 1288-7번지 1층 102호","indutype":"음료식품 - 기타음료식품","category":"food"}]},{"lat":"37.103784402","long":"126.89829417","imageIndex":7,"items":[{"name":"통하자 향남점","tel":"031-358-0675","addr":"경기도 화성시 향남읍 상신리 1299-12번지 101호","indutype":"음료식품 - 기타음료식품","category":"food"}]},{"lat":"37.100926383","long":"126.89640823","imageIndex":7,"items":[{"name":"파리바게트향남상신점/원산업개발(주)","tel":"031-354-4884","addr":"경기도 화성시 향남읍 상신리 1327-2번지 원메디피아 1층 105,106호","indutype":"음료식품 - 제과점","category":"food"}]},{"lat":"37.093450625","long":"126.88990604","imageIndex":7,"items":[{"name":"풍성유통 청과야채","tel":"070-4851-6846","addr":"경기도 화성시 향남읍 상신리 455-46번지","indutype":"음료식품 - 농·축·수산품","category":"food"}]}]