[{"lat":"37.219385816","long":"127.03269387","imageIndex":17,"items":[{"name":"(주) 에코애드","tel":"031-245-7400","addr":"경기도 화성시 진안동 127-4번지","indutype":"기타 - 기계공구","category":"other"}]},{"lat":"37.210887492","long":"127.03831202","imageIndex":17,"items":[{"name":"(주)KC에너지아","tel":"02-2613-6779","addr":"경기도 화성시 진안동 524-1번지 메트로프라자 607호","indutype":"전기제품 - 기타전기제품","category":"other"},{"name":"여성타운","tel":"031-222-2243","addr":"경기도 화성시 진안동 524-1번지 메트로프라자 701동 705호","indutype":"회원제형태 - 레져업소","category":"other"},{"name":"제이에스컴퍼니 (JSCompany)","tel":"031-232-7909","addr":"경기도 화성시 진안동 524-1번지 메트로프라자 3층 304호","indutype":"의류 - 정장","category":"other"},{"name":"쿠쿠화성점","tel":"031-225-4993","addr":"경기도 화성시 진안동 524-1메트로프라자1층121,122호","indutype":"전기제품 - 가전제품","category":"other"}]},{"lat":"37.211329067","long":"127.03808691","imageIndex":17,"items":[{"name":"(주)경동나비엔신재생","tel":"031-548-2788","addr":"경기도 화성시 진안동 514-2번지 렉스몰 304호","indutype":"전기제품 - 냉열기기","category":"other"},{"name":"(주)엠케이글로벌","tel":"031-226-5505","addr":"경기도 화성시 진안동 514-2번지 렉스몰 501호","indutype":"직물 - 기타직물","category":"other"},{"name":"도서출판체데크","tel":"031-254-9182","addr":"경기도 화성시 진안동 514-2번지 렉스몰 302호","indutype":"서적문구 - 출판 및 인쇄물","category":"other"},{"name":"병점삼산 무에타이","tel":"031-222-2264","addr":"경기도 화성시 진안동 514-2번지 렉스몰 305호","indutype":"회원제형태 - 레져업소","category":"other"},{"name":"스쿨룩스","tel":"031-226-2816","addr":"경기도 화성시 진안동 514-2,렉스몰103호~104호","indutype":"의류 - 단체복","category":"other"},{"name":"엘리트학생복","tel":"031-226-3618","addr":"경기도 화성시 진안동 514-2번지 렉스몰 101호","indutype":"의류 - 맞춤복점","category":"other"},{"name":"우주#","tel":"031-000-0000","addr":"경기도 화성시 진안동 514-2번지 1층 엑스몰 105호","indutype":"의류 - 정장","category":"other"},{"name":"제이제이컴퓨터","tel":"031-225-2274","addr":"경기도 화성시 진안동 514-2번지 렉스몰 107호","indutype":"사무통신 - 컴퓨터","category":"other"},{"name":"큐앤아이학생복","tel":"031-221-0177","addr":"경기도 화성시 진안동 514-2번지 렉스몰 105호","indutype":"의류 - 단체복","category":"other"}]},{"lat":"37.21279828","long":"127.03628507","imageIndex":17,"items":[{"name":"(주)경영","tel":"031-224-1018","addr":"경기도 화성시 진안동 494-21번지 정안빌딩 107호","indutype":"신변잡화 - 기타잡화","category":"other"},{"name":"위드미진안화남점","tel":"02-6916-1500","addr":"경기도 화성시 진안동 494-21번지 정안빌딩","indutype":"유통업 영리 - 편 의 점","category":"other"}]},{"lat":"37.215185767","long":"127.03719868","imageIndex":17,"items":[{"name":"(주)광명상사","tel":"031-226-7704","addr":"경기도 화성시 진안동 416-11번지 1층","indutype":"용역 서비스 - 기타용역서비스","category":"other"}]},{"lat":"37.214580435","long":"127.04244839","imageIndex":17,"items":[{"name":"(주)드림씨앤에스","tel":"031-255-7655","addr":"경기도 화성시 진안동 914-2번지 미래프라자 802호","indutype":"건축자재 - 기타건축자재","category":"other"},{"name":"기억하고싶은날엔","tel":"031-221-2287","addr":"경기도 화성시 진안동 914-2번지 미래프라자 404호","indutype":"광학제품 - 사진관","category":"other"},{"name":"길이열리는서점","tel":"031-238-9947","addr":"경기도 화성시 진안동 914-2번지 미래프라자 205호","indutype":"서적문구 - 일반서적","category":"other"},{"name":"미랑한복","tel":"070-8870-3461","addr":"경기도 화성시 진안동 914-2번지 미래프라자 2층 203호","indutype":"의류 - 맞춤복점","category":"other"},{"name":"병점태양권투체육관","tel":"031-232-6843","addr":"경기도 화성시 진안동 914-2번지 미래프라자 702호","indutype":"회원제형태 - 레져업소","category":"other"},{"name":"제일크리닝상사","tel":"031-111-1111","addr":"경기도 화성시 진안동 914-2번지 미래프라자 701호","indutype":"용역 서비스 - 종합용역","category":"other"},{"name":"주식회사 봉자체인본부","tel":"070-7747-7776","addr":"경기도 화성시 진안동 914-2번지 미래프라자 706호","indutype":"주방용구 - 주방용구","category":"other"},{"name":"주약손","tel":"031-898-8689","addr":"경기도 화성시 진안동 914-2번지 미래프라자 303호","indutype":"회원제형태 - 기타4","category":"other"}]},{"lat":"37.212130916","long":"127.03833513","imageIndex":17,"items":[{"name":"(주)멘토소리","tel":"031-898-8516","addr":"경기도 화성시 진안동 878-3번지 지하층 2호","indutype":"레져용품 - 악기점","category":"other"},{"name":"(주)모닝","tel":"070-8888-9777","addr":"경기도 화성시 진안동 878-3번지 정현빌딩 102호","indutype":"서적문구 - 문구용품","category":"other"},{"name":"LOVE&SHOES(슈즈)","tel":"031-305-3289","addr":"경기도 화성시 진안동 878-3번지 102호","indutype":"신변잡화 - 기타잡화","category":"other"}]},{"lat":"37.213914274","long":"127.04058916","imageIndex":17,"items":[{"name":"(주)배니솔","tel":"031-8031-9611","addr":"경기도 화성시 진안동 874-3번지 5층","indutype":"용역 서비스 - 종합용역","category":"other"}]},{"lat":"37.21971832","long":"127.03600645","imageIndex":17,"items":[{"name":"(주)애니캅보안","tel":"031-236-9117","addr":"경기도 화성시 진안동 918-3번지 1층 101호","indutype":"용역 서비스 - 종합용역","category":"other"}]},{"lat":"37.217691964","long":"127.03231014","imageIndex":17,"items":[{"name":"(주)애드랜드","tel":"031-232-1251","addr":"경기도 화성시 진안동 121-1번지","indutype":"용역 서비스 - 종합용역","category":"other"}]},{"lat":"37.211662745","long":"127.03708443","imageIndex":17,"items":[{"name":"(주)원봉경기지점","tel":"031-278-6700","addr":"경기도 화성시 진안동 513-3번지","indutype":"전기제품 - 가전제품","category":"other"},{"name":"양지공예","tel":"031-234-7268","addr":"경기도 화성시 진안동 513-3번지","indutype":"사무통신 - 사무용 OA기기","category":"other"},{"name":"지드","tel":"031-223-3357","addr":"경기도 화성시 진안동 513-3번지 104호","indutype":"건축자재 - 인테리어전문","category":"other"},{"name":"파르베558","tel":"","addr":"경기도 화성시 진안동 513-3번지 102호","indutype":"의류 - 정장","category":"other"}]},{"lat":"37.217826398","long":"127.03508176","imageIndex":17,"items":[{"name":"(주)지인","tel":"031-221-1902","addr":"경기도 화성시 진안동 144-9번지 레이크2 101호","indutype":"레져용품 - 스포츠·레져용품","category":"other"}]},{"lat":"37.20971741","long":"127.0337828","imageIndex":17,"items":[{"name":"(주)한국주방설비","tel":"031-233-4982","addr":"경기도 화성시 진안동 541-2번지","indutype":"주방용구 - 주방용구","category":"other"}]},{"lat":"37.215464295","long":"127.03983509","imageIndex":17,"items":[{"name":"5Who(오후)","tel":"031-223-0682","addr":"경기도 화성시 진안동 864-3번지 지성2차 103호","indutype":"문화.취미 - 화원","category":"other"}]},{"lat":"37.211997221","long":"127.03306273","imageIndex":17,"items":[{"name":"GS25병점붐비오점","tel":"","addr":"경기도 화성시 진안동 476-6번지 병점패션타운 E동 106호","indutype":"유통업 영리 - 편 의 점","category":"other"}]},{"lat":"37.210851811","long":"127.03708406","imageIndex":17,"items":[{"name":"GS25병점중앙로점","tel":"","addr":"경기도 화성시 진안동 524-2번지 1층","indutype":"유통업 영리 - 편 의 점","category":"other"}]},{"lat":"37.207942552","long":"127.03306112","imageIndex":17,"items":[{"name":"GS25병점희망점","tel":"","addr":"경기도 화성시 진안동 824-5번지 1층","indutype":"유통업 영리 - 편 의 점","category":"other"},{"name":"에디 노래뮤비방","tel":"070-8817-1111","addr":"경기도 화성시 진안동 824-5번지 2층","indutype":"용역 서비스 - 종합용역","category":"other"}]},{"lat":"37.212661391","long":"127.04195169","imageIndex":17,"items":[{"name":"GS25진안명가점","tel":"02-2006-2118","addr":"경기도 화성시 진안동 882-7번지 전체 1층","indutype":"유통업 영리 - 편 의 점","category":"other"}]},{"lat":"37.216546468","long":"127.03672611","imageIndex":17,"items":[{"name":"GS25진안자이점","tel":"02-2006-2485","addr":"경기도 화성시 진안동 193-2번지 오페라하우스","indutype":"유통업 영리 - 편 의 점","category":"other"}]},{"lat":"37.211914651","long":"127.03839136","imageIndex":17,"items":[{"name":"GS25진안제일점","tel":"","addr":"경기도 화성시 진안동 878-17번지 1층","indutype":"유통업 영리 - 편 의 점","category":"other"}]},{"lat":"37.216498869","long":"127.04470266","imageIndex":17,"items":[{"name":"GS25화성효행로점","tel":"","addr":"경기도 화성시 진안동 911번지 진안골마을주공11단지 상가동 103호","indutype":"유통업 영리 - 편 의 점","category":"other"}]},{"lat":"37.215327794","long":"127.04392465","imageIndex":17,"items":[{"name":"KTOTAL휘트니스","tel":"031-893-1005","addr":"경기도 화성시 진안동 914-7번지 거성프라자 901동 906호","indutype":"회원제형태 - 레져업소","category":"other"},{"name":"비와이씨진안점","tel":"031-222-4511","addr":"경기도 화성시 진안동 914-7번지 거성프라자 104호","indutype":"의류 - 내의판매","category":"other"},{"name":"아이티(IT)시스템","tel":"070-8265-5514","addr":"경기도 화성시 진안동 914-7번지 거성프라자 404호","indutype":"수리서비스 - 기타수리서비스","category":"other"},{"name":"주식회사 아크컴퍼니","tel":"070-5099-3399","addr":"경기도 화성시 진안동 914-7번지 거성프라자 306호","indutype":"의류 - 정장","category":"other"}]},{"lat":"37.213274818","long":"127.03969883","imageIndex":17,"items":[{"name":"May (메이)","tel":"","addr":"경기도 화성시 진안동 874-9번지 청풍빌딩 104호","indutype":"의류 - 정장","category":"other"}]},{"lat":"37.212076921","long":"127.03810979","imageIndex":17,"items":[{"name":"SMBYC","tel":"031-234-9226","addr":"경기도 화성시 진안동 878-1번지","indutype":"의류 - 내의판매","category":"other"},{"name":"SNSMV스튜디오","tel":"031-233-7670","addr":"경기도 화성시 진안동 878-1번지 지하층","indutype":"용역 서비스 - 종합용역","category":"other"}]},{"lat":"37.211633942","long":"127.04275102","imageIndex":17,"items":[{"name":"THE공감인테리어","tel":"031-221-5521","addr":"경기도 화성시 진안동 888-6번지 102호","indutype":"건축자재 - 인테리어전문","category":"other"},{"name":"위드미화성진안점","tel":"031-239-7664","addr":"경기도 화성시 진안동 888-6번지 101호","indutype":"유통업 영리 - 편 의 점","category":"other"},{"name":"유니크박스","tel":"031-000-0000","addr":"경기도 화성시 진안동 888-6번지 1층 101호","indutype":"서적문구 - 완구점","category":"other"},{"name":"이마트24 화성진안점","tel":"","addr":"경기도 화성시 진안동 888-6번지 101호","indutype":"유통업 영리 - 편 의 점","category":"other"}]},{"lat":"37.216437798","long":"127.038585","imageIndex":17,"items":[{"name":"TTS","tel":"031-222-4174","addr":"경기도 화성시 진안동 857-4번지 태건빌딩","indutype":"전기제품 - 기타전기제품","category":"other"},{"name":"태양창호","tel":"031-222-6022","addr":"경기도 화성시 진안동 857-4번지 202호","indutype":"건축자재 - 보일러·펌프·샷시","category":"other"}]},{"lat":"37.212887259","long":"127.04005915","imageIndex":17,"items":[{"name":"The 설렘","tel":"070-7529-8517","addr":"경기도 화성시 진안동 877-1번지 삼성프라자 103호","indutype":"의류 - 정장","category":"other"},{"name":"앤숍","tel":"031-267-1432","addr":"경기도 화성시 진안동 877-1번지 삼성프라자 102호","indutype":"의류 - 정장","category":"other"}]},{"lat":"37.21455358","long":"127.04191887","imageIndex":17,"items":[{"name":"WIDE GYM","tel":"031-898-5979","addr":"경기도 화성시 진안동 914-1번지 메인프라자 1001동 1007호","indutype":"회원제형태 - 레져업소","category":"other"},{"name":"골드맥스시계나라","tel":"031-224-7210","addr":"경기도 화성시 진안동 914-1번지 메인프라자 102호","indutype":"신변잡화 - 시계","category":"other"},{"name":"김샘수학 병점캠퍼스","tel":"031-222-7142","addr":"경기도 화성시 진안동 914-1번지 메인프라자 605호","indutype":"서적문구 - 일반서적","category":"other"},{"name":"로이드 병점점","tel":"031-226-8733","addr":"경기도 화성시 진안동 914-1번지 메인프라자 103호","indutype":"신변잡화 - 시계","category":"other"},{"name":"모아퍼스널","tel":"031-1577-7497","addr":"경기도 화성시 진안동 914-1번지 메인프라자 3층 307호","indutype":"레져용품 - 스포츠·레져용품","category":"other"},{"name":"삼성F&D","tel":"031-224-5923","addr":"경기도 화성시 진안동 914-1번지 메인프라자 1005호","indutype":"레져용품 - 스포츠·레져용품","category":"other"},{"name":"아센사우나스포츠","tel":"031-898-8880","addr":"경기도 화성시 진안동 914-1번지 메인프라자 9층","indutype":"회원제형태 - 레져업소","category":"other"},{"name":"아센휘트니스","tel":"031-234-3367","addr":"경기도 화성시 진안동 914-1번지 메인프라자 8층 803호","indutype":"레져용품 - 골프용품 전문점","category":"other"},{"name":"엘더스LED조명","tel":"031-232-9781","addr":"경기도 화성시 진안동 914-1번지 메인프라자 412호","indutype":"건축자재 - 조명기구","category":"other"},{"name":"한국광고공사","tel":"","addr":"경기도 화성시 진안동 914-1번지 메인프라자 6층 609-1호","indutype":"용역 서비스 - 종합용역","category":"other"}]},{"lat":"37.208797674","long":"127.0362833","imageIndex":17,"items":[{"name":"bbodog(뽀독)","tel":"031-224-2837","addr":"경기도 화성시 진안동 526-30번지 1층","indutype":"문화.취미 - 애완동물","category":"other"}]},{"lat":"37.215021643","long":"127.04333864","imageIndex":17,"items":[{"name":"강남퀸즈산후조리원 주식회사 예송점","tel":"031-223-5000","addr":"경기도 화성시 진안동 914-5번지 나라프라자 7,8,9층","indutype":"기타의료기관 - 산후조리원","category":"other"},{"name":"주식회사 케이비국민컨설팅(KBkookminconsu","tel":"02-1577-9628","addr":"경기도 화성시 진안동 914-5번지 나라프라자 203호","indutype":"용역 서비스 - 사무서비스","category":"other"},{"name":"크린토피아 병점진안점","tel":"031-988-2339","addr":"경기도 화성시 진안동 914-5번지 나라프라자 1층 108호","indutype":"수리서비스 - 세탁소","category":"other"}]},{"lat":"37.215185033","long":"127.03964343","imageIndex":17,"items":[{"name":"개발바닥","tel":"031-221-8985","addr":"경기도 화성시 진안동 863-14번지 블리스빌 상가 103호","indutype":"문화.취미 - 애완동물","category":"other"}]},{"lat":"37.208077323","long":"127.0345369","imageIndex":17,"items":[{"name":"갤러리","tel":"031-237-3045","addr":"경기도 화성시 진안동 527-19번지","indutype":"의류 - 정장","category":"other"},{"name":"미소","tel":"031-224-9774","addr":"경기도 화성시 진안동 527-19번지 101호","indutype":"의류 - 정장","category":"other"}]},{"lat":"37.210609502","long":"127.03353533","imageIndex":17,"items":[{"name":"게이트맨대리점화성점","tel":"031-374-6784","addr":"경기도 화성시 진안동 544-98","indutype":"기타 - 기계공구","category":"other"},{"name":"대아기계펌프","tel":"031-221-3216","addr":"경기도 화성시 진안동 544-98","indutype":"건축자재 - 보일러·펌프·샷시","category":"other"}]},{"lat":"37.214131343","long":"127.03791922","imageIndex":17,"items":[{"name":"경기유리알미늄","tel":"031-238-9494","addr":"경기도 화성시 진안동 867-3번지","indutype":"건축자재 - 유리","category":"other"}]},{"lat":"37.218969869","long":"127.03805666","imageIndex":17,"items":[{"name":"경기총판재활용센타","tel":"032-235-3788","addr":"경기도 화성시 진안동 927-8번지","indutype":"신변잡화 - 기타잡화","category":"other"}]},{"lat":"37.212410779","long":"127.03647641","imageIndex":17,"items":[{"name":"경성모방","tel":"031-224-3680","addr":"경기도 화성시 진안동 507-12번지 현인","indutype":"직물 - 옷감·직물","category":"other"}]},{"lat":"37.208277375","long":"127.02675278","imageIndex":17,"items":[{"name":"곰과여우","tel":"031-267-2257","addr":"경기도 화성시 진안동 832-29번지","indutype":"문화.취미 - 화원","category":"other"}]},{"lat":"37.218970048","long":"127.03744826","imageIndex":17,"items":[{"name":"굿초이스","tel":"","addr":"경기도 화성시 진안동 925-4번지 101호","indutype":"의류 - 정장","category":"other"}]},{"lat":"37.216841928","long":"127.04277629","imageIndex":17,"items":[{"name":"굿클린","tel":"","addr":"경기도 화성시 진안동 908번지 진안골마을주공10단지 1002동 1504호","indutype":"용역 서비스 - 종합용역","category":"other"}]},{"lat":"37.212664131","long":"127.03249971","imageIndex":17,"items":[{"name":"극동인테리어장식,철물","tel":"031-239-5925","addr":"경기도 화성시 진안동 457-3번지 A동 1층","indutype":"건축자재 - 목재·석재·철물","category":"other"},{"name":"제이베딩","tel":"031-234-0150","addr":"경기도 화성시 진안동 457-3번지","indutype":"직물 - 침구·수예점","category":"other"}]},{"lat":"37.210411585","long":"127.03230731","imageIndex":17,"items":[{"name":"근풍","tel":"031-235-5204","addr":"경기도 화성시 진안동 544-41번지","indutype":"유통업 영리 - 편 의 점","category":"other"},{"name":"태안컴퓨터","tel":"031-222-5235","addr":"경기도 화성시 진안동 544-41번지","indutype":"사무통신 - 컴퓨터","category":"other"}]},{"lat":"37.215914856","long":"127.03970012","imageIndex":17,"items":[{"name":"금선이엔지","tel":"031-372-9113","addr":"경기도 화성시 진안동 859-5번지 설화타운 상가 2호","indutype":"용역 서비스 - 기타용역서비스","category":"other"}]},{"lat":"37.214913614","long":"127.04305693","imageIndex":17,"items":[{"name":"기억사진관","tel":"031-898-5353","addr":"경기도 화성시 진안동 914-4번지 메디프렌드 1동 108호","indutype":"광학제품 - 사진관","category":"other"}]},{"lat":"37.215580228","long":"127.04350793","imageIndex":17,"items":[{"name":"기찬광고","tel":"031-226-9889","addr":"경기도 화성시 진안동 914-8번지 외1필지 124동 125호","indutype":"용역 서비스 - 종합용역","category":"other"},{"name":"블루리본","tel":"","addr":"경기도 화성시 진안동 914-8번지 뱅뱅프라자 112호","indutype":"의류 - 정장","category":"other"},{"name":"씨유화성행운점","tel":"031-235-2780","addr":"경기도 화성시 진안동 914-8번지 뱅뱅프라자 1층 116호","indutype":"유통업 영리 - 편 의 점","category":"other"},{"name":"작은아씨들","tel":"031-231-1024","addr":"경기도 화성시 진안동 914-8번지 뱅뱅프라자","indutype":"의류 - 정장","category":"other"}]},{"lat":"37.211274806","long":"127.03875155","imageIndex":17,"items":[{"name":"김옥명주짓수클럽","tel":"031-237-5220","addr":"경기도 화성시 진안동 879-6번지 서원빌딩 3층","indutype":"회원제형태 - 레져업소","category":"other"}]},{"lat":"37.214915295","long":"127.03775059","imageIndex":17,"items":[{"name":"김헤수플라워","tel":"031-224-3837","addr":"경기도 화성시 진안동 861-10번지","indutype":"문화.취미 - 화원","category":"other"}]},{"lat":"37.208248913","long":"127.03302744","imageIndex":17,"items":[{"name":"나래솔루션","tel":"031-000-0000","addr":"경기도 화성시 진안동 824-2번지","indutype":"건축자재 - 기타건축자재","category":"other"}]},{"lat":"37.212465992","long":"127.03213913","imageIndex":17,"items":[{"name":"나비화원","tel":"031-211-4705","addr":"경기도 화성시 진안동 477-1번지","indutype":"문화.취미 - 화원","category":"other"}]},{"lat":"37.212410054","long":"127.03894361","imageIndex":17,"items":[{"name":"놀숲 화성병점점","tel":"070-5135-6141","addr":"경기도 화성시 진안동 878-5번지 외1필지 다성빌딩 2층","indutype":"서적문구 - 일반서적","category":"other"}]},{"lat":"37.215995145","long":"127.04220127","imageIndex":17,"items":[{"name":"다람 인테리어 디자인","tel":"031-234-3511","addr":"경기도 화성시 진안동 908번지 주공10단지 상가 102호","indutype":"건축자재 - 인테리어전문","category":"other"}]},{"lat":"37.214050629","long":"127.03661233","imageIndex":17,"items":[{"name":"다물기획","tel":"031-222-1161","addr":"경기도 화성시 진안동 862-1번지","indutype":"건축자재 - 인테리어전문","category":"other"}]},{"lat":"37.207356647","long":"127.03395082","imageIndex":17,"items":[{"name":"다온 (study DAON)","tel":"","addr":"경기도 화성시 진안동 531번지 2층","indutype":"용역 서비스 - 사무서비스","category":"other"},{"name":"밀레니엄패션","tel":"070-7862-6628","addr":"경기도 화성시 진안동 531번지 1층 101호","indutype":"의류 - 기타의류","category":"other"}]},{"lat":"37.210518681","long":"127.03619394","imageIndex":17,"items":[{"name":"다인넷상사","tel":"031-235-0756","addr":"경기도 화성시 진안동 516-4번지","indutype":"건축자재 - 기타건축자재","category":"other"}]},{"lat":"37.213438288","long":"127.03530522","imageIndex":17,"items":[{"name":"닥터컴","tel":"031-234-9023","addr":"경기도 화성시 진안동 460-14번지 서진빌 304호","indutype":"사무통신 - 컴퓨터","category":"other"},{"name":"신진냉동","tel":"031-239-6114","addr":"경기도 화성시 진안동 460-14번지 서진빌 302호","indutype":"용역 서비스 - 기타용역서비스","category":"other"}]},{"lat":"37.209482588","long":"127.03583299","imageIndex":17,"items":[{"name":"달리아","tel":"070-5118-2236","addr":"경기도 화성시 진안동 525-20번지 라온빌리지 가동 1층 101호","indutype":"의류 - 정장","category":"other"}]},{"lat":"37.212329866","long":"127.03583423","imageIndex":17,"items":[{"name":"대동이엔지","tel":"031-253-5133","addr":"경기도 화성시 진안동 493-18번지 현대빌 2동 104호","indutype":"전기제품 - 냉열기기","category":"other"}]},{"lat":"37.215770665","long":"127.03977891","imageIndex":17,"items":[{"name":"대림기업","tel":"031-226-3262","addr":"경기도 화성시 진안동 859-4번지 노블레스 102호","indutype":"건축자재 - 조명기구","category":"other"}]},{"lat":"37.213493463","long":"127.03094534","imageIndex":17,"items":[{"name":"대림중기","tel":"031-713-8220","addr":"경기도 화성시 진안동 592-2번지","indutype":"기타 - 기계공구","category":"other"},{"name":"태성중기","tel":"031-224-5599","addr":"경기도 화성시 진안동 592-2번지 1층","indutype":"기타 - 기계공구","category":"other"}]},{"lat":"37.212914669","long":"127.03883119","imageIndex":17,"items":[{"name":"대양종합철물건재","tel":"031-221-2734","addr":"경기도 화성시 진안동 873-13번지","indutype":"건축자재 - 목재·석재·철물","category":"other"}]},{"lat":"37.208608826","long":"127.03494266","imageIndex":17,"items":[{"name":"도매마트","tel":"031-233-9833","addr":"경기도 화성시 진안동 527-14 도매마트","indutype":"의류 - 내의판매","category":"other"}]},{"lat":"37.212103183","long":"127.04061079","imageIndex":17,"items":[{"name":"동신서비스센타","tel":"031-238-4781","addr":"경기도 화성시 진안동 883-1번지","indutype":"수리서비스 - 기타수리서비스","category":"other"}]},{"lat":"37.216800851","long":"127.02836656","imageIndex":17,"items":[{"name":"동양샷다","tel":"031-233-4265","addr":"경기도 화성시 진안동 692-390번지","indutype":"건축자재 - 목재·석재·철물","category":"other"}]},{"lat":"37.210852339","long":"127.03520272","imageIndex":17,"items":[{"name":"동영리모델링","tel":"031-223-5541","addr":"경기도 화성시 진안동 486-2번지","indutype":"직물 - 카페트,커튼,천막,지물","category":"other"},{"name":"명성볼트","tel":"031-223-8708","addr":"경기도 화성시 진안동 486-2번지 1층 4호","indutype":"기타 - 기계공구","category":"other"}]},{"lat":"37.219268032","long":"127.03517251","imageIndex":17,"items":[{"name":"동우툴마켓 (동우TM)","tel":"031-225-6486","addr":"경기도 화성시 진안동 917-1번지 103호","indutype":"전기제품 - 기타전기제품","category":"other"},{"name":"청정공간","tel":"070-8227-0975","addr":"경기도 화성시 진안동 917-1번지 105호","indutype":"용역 서비스 - 종합용역","category":"other"}]},{"lat":"37.214581237","long":"127.03996985","imageIndex":17,"items":[{"name":"드림인테리어","tel":"031-225-7159","addr":"경기도 화성시 진안동 870-5번지 102호","indutype":"직물 - 카페트,커튼,천막,지물","category":"other"},{"name":"세븐일레븐병점원룸점","tel":"","addr":"경기도 화성시 진안동 870-5번지 1층","indutype":"유통업 영리 - 편 의 점","category":"other"}]},{"lat":"37.210023842","long":"127.03347876","imageIndex":17,"items":[{"name":"드림종합상사","tel":"031-226-9700","addr":"경기도 화성시 진안동 544-8번지","indutype":"용역 서비스 - 사무서비스","category":"other"},{"name":"백년해로한복대여점","tel":"031-233-0075","addr":"경기도 화성시 진안동 544-8번지","indutype":"의류 - 맞춤복점","category":"other"}]},{"lat":"37.22505292","long":"127.03428483","imageIndex":17,"items":[{"name":"디자인투디","tel":"031-1600-7482","addr":"경기도 화성시 진안동 43-4번지 3층","indutype":"건축자재 - 인테리어전문","category":"other"}]},{"lat":"37.211691044","long":"127.03236414","imageIndex":17,"items":[{"name":"디즈니골프","tel":"031-232-8529","addr":"경기도 화성시 진안동 480-1번지 병점아울렛 B동 106호 107호","indutype":"레져용품 - 골프용품 전문점","category":"other"},{"name":"서진유통","tel":"","addr":"경기도 화성시 진안동 480-1번지 병점패션타운 B동 109호 110호","indutype":"의류 - 정장","category":"other"},{"name":"컬럼비아병점점","tel":"031-223-0382","addr":"경기도 화성시 진안동 480-1 병점아울렛A동 106호~107호","indutype":"레져용품 - 스포츠·레져용품","category":"other"}]},{"lat":"37.214914927","long":"127.0389786","imageIndex":17,"items":[{"name":"라임하우스","tel":"02-6340-5385","addr":"경기도 화성시 진안동 863-17번지 104호","indutype":"직물 - 침구·수예점","category":"other"}]},{"lat":"37.213274423","long":"127.04094935","imageIndex":17,"items":[{"name":"레이디바디","tel":"","addr":"경기도 화성시 진안동 877-5번지 601호","indutype":"레져용품 - 스포츠·레져용품","category":"other"}]},{"lat":"37.213995092","long":"127.04144541","imageIndex":17,"items":[{"name":"로즈플라워","tel":"031-225-2290","addr":"경기도 화성시 진안동 875-4번지","indutype":"문화.취미 - 화원","category":"other"},{"name":"주식회사08콜라진안데일리","tel":"070-8882-5089","addr":"경기도 화성시 진안동 875-4번지 1층","indutype":"의류 - 정장","category":"other"}]},{"lat":"37.21660782","long":"127.04229172","imageIndex":17,"items":[{"name":"마망드플레르","tel":"","addr":"경기도 화성시 진안동 908번지 진안골마을주공10단지 1001동 1층 6호","indutype":"문화.취미 - 화원","category":"other"}]},{"lat":"37.211249346","long":"127.03311876","imageIndex":17,"items":[{"name":"마코","tel":"031-898-5908","addr":"경기도 화성시 진안동 481-9번지","indutype":"의류 - 스포츠의류","category":"other"},{"name":"올리비아하슬러(병점점)","tel":"031-233-2288","addr":"경기도 화성시 진안동 481-9 병점아울렛 H동111호","indutype":"레져용품 - 스포츠·레져용품","category":"other"}]},{"lat":"37.224521536","long":"127.03341701","imageIndex":17,"items":[{"name":"만물철강","tel":"031-237-4563","addr":"경기도 화성시 진안동 46-10번지","indutype":"기타 - 기계공구","category":"other"}]},{"lat":"37.214104649","long":"127.03675881","imageIndex":17,"items":[{"name":"맥스몰","tel":"070-8240-4447","addr":"경기도 화성시 진안동 862-12번지 1층","indutype":"의류 - 정장","category":"other"}]},{"lat":"37.215104121","long":"127.03905755","imageIndex":17,"items":[{"name":"무지개종합장식","tel":"031-239-2549","addr":"경기도 화성시 진안동 863-6번지 베스트빌 1층","indutype":"직물 - 카페트,커튼,천막,지물","category":"other"}]},{"lat":"37.219078","long":"127.03803418","imageIndex":17,"items":[{"name":"문짝 스토리","tel":"031-225-9982","addr":"경기도 화성시 진안동 927-7번지 101호","indutype":"용역 서비스 - 기타용역서비스","category":"other"},{"name":"태성유리.샷시","tel":"031-235-3204","addr":"경기도 화성시 진안동 927-7번지 모던하우스 1층 상가 102호","indutype":"건축자재 - 유리","category":"other"}]},{"lat":"37.210438406","long":"127.03314097","imageIndex":17,"items":[{"name":"미광상사","tel":"031-226-7714","addr":"경기도 화성시 진안동 544-93번지","indutype":"건축자재 - 페인트","category":"other"},{"name":"반도콤푸레샤","tel":"031-222-8915","addr":"경기도 화성시 진안동 544-93번지","indutype":"기타 - 기계공구","category":"other"},{"name":"이태리전기조명","tel":"031-236-5443","addr":"경기도 화성시 진안동 544-93번지","indutype":"건축자재 - 조명기구","category":"other"}]},{"lat":"37.214103571","long":"127.0403414","imageIndex":17,"items":[{"name":"미니스톱진안대풍점","tel":"031-1577-9621","addr":"경기도 화성시 진안동 871-6번지 미니스톱진안대풍점 1층","indutype":"유통업 영리 - 편 의 점","category":"other"}]},{"lat":"37.211635295","long":"127.03850388","imageIndex":17,"items":[{"name":"미담","tel":"031-231-2379","addr":"경기도 화성시 진안동 879-1번지 드림빌딩 101호","indutype":"의류 - 정장","category":"other"}]},{"lat":"37.211382562","long":"127.03994576","imageIndex":17,"items":[{"name":"미래정보","tel":"031-8003-7470","addr":"경기도 화성시 진안동 885-4번지 1층 102호","indutype":"전기제품 - 가전제품","category":"other"}]},{"lat":"37.215158141","long":"127.03919277","imageIndex":17,"items":[{"name":"미르종합광고","tel":"031-233-4282","addr":"경기도 화성시 진안동 863-7번지 상가 102호","indutype":"건축자재 - 인테리어전문","category":"other"}]},{"lat":"37.21624629","long":"127.04551369","imageIndex":17,"items":[{"name":"미소진하우스","tel":"070-4842-8424","addr":"경기도 화성시 진안동 911번지 진안골마을주공11단지 1106동 104호","indutype":"건축자재 - 인테리어전문","category":"other"}]},{"lat":"37.21251847","long":"127.03797481","imageIndex":17,"items":[{"name":"바나나쥬얼리","tel":"070-8886-0016","addr":"경기도 화성시 진안동 873-3번지 상가 104호","indutype":"신변잡화 - 액세서리","category":"other"},{"name":"예삐꽃방","tel":"031-238-3683","addr":"경기도 화성시 진안동 873-3번지","indutype":"문화.취미 - 화원","category":"other"}]},{"lat":"37.215165724","long":"127.04358657","imageIndex":17,"items":[{"name":"바디타임즈 피트니스","tel":"031-232-5553","addr":"경기도 화성시 진안동 914-6번지 9층","indutype":"레져용품 - 스포츠·레져용품","category":"other"},{"name":"세신중공업","tel":"02-2605-2660","addr":"경기도 화성시 진안동 914-6번지 메디피아 504호","indutype":"기타 - 기계공구","category":"other"}]},{"lat":"37.217689452","long":"127.04110929","imageIndex":17,"items":[{"name":"바른손진안점","tel":"031-232-0049","addr":"경기도 화성시 진안동 910,진안골마을주공12단지상가105","indutype":"서적문구 - 문구용품","category":"other"},{"name":"씨유진안주공12점","tel":"080-080-3663","addr":"경기도 화성시 진안동 910번지 진안골마을 제가상가동 제1층 제101호","indutype":"유통업 영리 - 편 의 점","category":"other"},{"name":"여우짓","tel":"031-237-7419","addr":"경기도 화성시 진안동 910번지 진안골마을주공12단지 가상가동 1층 105호","indutype":"의류 - 정장","category":"other"},{"name":"진안문구","tel":"031-235-7674","addr":"경기도 화성시 진안동 910번지 진안골마을주공12단지 상가동 1층 102호","indutype":"서적문구 - 문구용품","category":"other"},{"name":"토와빔","tel":"031-613-9893","addr":"경기도 화성시 진안동 910","indutype":"문화.취미 - 화원","category":"other"},{"name":"희망세탁소","tel":"031-0000-0000","addr":"경기도 화성시 진안동 910 진안골마을제가상가동202호","indutype":"수리서비스 - 세탁소","category":"other"}]},{"lat":"37.210717109","long":"127.03547303","imageIndex":17,"items":[{"name":"백운조명","tel":"031-376-7031","addr":"경기도 화성시 진안동 512-25번지","indutype":"건축자재 - 조명기구","category":"other"}]},{"lat":"37.215384595","long":"127.03505819","imageIndex":17,"items":[{"name":"버블맨24셀프빨래방진안점","tel":"031-221-4956","addr":"경기도 화성시 진안동 432-10번지 그랜드빌 B102-2호","indutype":"수리서비스 - 세탁소","category":"other"}]},{"lat":"37.212102508","long":"127.04267241","imageIndex":17,"items":[{"name":"범우종합전기","tel":"031-222-3214","addr":"경기도 화성시 진안동 888-2번지","indutype":"전기제품 - 기타전기제품","category":"other"}]},{"lat":"37.218969965","long":"127.03772993","imageIndex":17,"items":[{"name":"베라테크 (Veritas Life Technology)","tel":"031-377-5674","addr":"경기도 화성시 진안동 926-3번지 토담빌 101호","indutype":"서적문구 - 과학기자재","category":"other"}]},{"lat":"37.210609841","long":"127.03219474","imageIndex":17,"items":[{"name":"베베끌레르","tel":"070-7720-1550","addr":"경기도 화성시 진안동 545-10번지 C동 205호","indutype":"의류 - 아동의류","category":"other"},{"name":"잉크박사토너박사무한프린트나라","tel":"070-4102-6111","addr":"경기도 화성시 진안동 545-10번지 샹그리라 C동 1층 101호","indutype":"사무통신 - 기타 사무용품","category":"other"}]},{"lat":"37.213130354","long":"127.04064509","imageIndex":17,"items":[{"name":"베스트","tel":"","addr":"경기도 화성시 진안동 877-4번지 아시아빌딩 1층 동축(1-2)","indutype":"문화.취미 - 애완동물","category":"other"},{"name":"요가라이프","tel":"031-222-2982","addr":"경기도 화성시 진안동 877-4번지 아시아빌딩 3층","indutype":"회원제형태 - 레져업소","category":"other"}]},{"lat":"37.210105627","long":"127.03067371","imageIndex":17,"items":[{"name":"베스트광고(주)","tel":"000-1544-7454","addr":"경기도 화성시 진안동 703번지 4층","indutype":"건축자재 - 인테리어전문","category":"other"}]},{"lat":"37.21088782","long":"127.03719673","imageIndex":17,"items":[{"name":"벽지장판할인매장","tel":"031-222-3173","addr":"경기도 화성시 진안동 524-30번지","indutype":"직물 - 카페트,커튼,천막,지물","category":"other"}]},{"lat":"37.209915712","long":"127.03350125","imageIndex":17,"items":[{"name":"병점 삼화페인트","tel":"031-223-7704","addr":"경기도 화성시 진안동 544-11번지","indutype":"건축자재 - 페인트","category":"other"}]},{"lat":"37.212105521","long":"127.0323643","imageIndex":17,"items":[{"name":"병점가구거리&라자가구","tel":"02-1111-1111","addr":"경기도 화성시 진안동 478-1번지","indutype":"가구 - 일반가구","category":"other"},{"name":"오성빌딩","tel":"031-237-5454","addr":"경기도 화성시 진안동 478-1번지","indutype":"가구 - 일반가구","category":"other"},{"name":"주식회사 가구만드는남자","tel":"031-224-2096","addr":"경기도 화성시 진안동 478-1번지","indutype":"가구 - 일반가구","category":"other"}]},{"lat":"37.216801526","long":"127.02500917","imageIndex":17,"items":[{"name":"병점난원","tel":"031-000-0000","addr":"경기도 화성시 진안동 692-220번지","indutype":"문화.취미 - 화원","category":"other"}]},{"lat":"37.210384084","long":"127.03414357","imageIndex":17,"items":[{"name":"병점삼화페인트","tel":"031-223-7704","addr":"경기도 화성시 진안동 544-38번지 1층","indutype":"건축자재 - 페인트","category":"other"}]},{"lat":"37.218185565","long":"127.03938576","imageIndex":17,"items":[{"name":"병점서울애견미용","tel":"031-238-7979","addr":"경기도 화성시 진안동 910번지 진안골마을주공12단지 1211동 1004호","indutype":"문화.취미 - 애완동물","category":"other"}]},{"lat":"37.21079782","long":"127.03683619","imageIndex":17,"items":[{"name":"병점아이나비","tel":"031-8003-4701","addr":"경기도 화성시 진안동 516-2번지 상가 101호","indutype":"전기제품 - 가전제품","category":"other"}]},{"lat":"37.209158526","long":"127.03469506","imageIndex":17,"items":[{"name":"병점페인트","tel":"031-234-0954","addr":"경기도 화성시 진안동 525-69번지 101호","indutype":"건축자재 - 페인트","category":"other"}]},{"lat":"37.213690117","long":"127.03695015","imageIndex":17,"items":[{"name":"보물섬","tel":"031-233-5495","addr":"경기도 화성시 진안동 868-1번지","indutype":"의류 - 정장","category":"other"},{"name":"현대상사","tel":"031-225-3233","addr":"경기도 화성시 진안동 868-1번지","indutype":"건축자재 - 목재·석재·철물","category":"other"}]},{"lat":"37.208555258","long":"127.03306136","imageIndex":17,"items":[{"name":"보물찾기 (구제옷)","tel":"031-238-2335","addr":"경기도 화성시 진안동 538-3번지 1층","indutype":"의류 - 정장","category":"other"}]},{"lat":"37.211634871","long":"127.03988955","imageIndex":17,"items":[{"name":"볼래에듀케이션","tel":"02-6242-0616","addr":"경기도 화성시 진안동 884-11번지 재연빌딩 1층 101호","indutype":"서적문구 - 기타서적문구","category":"other"}]},{"lat":"37.211105102","long":"127.03342287","imageIndex":17,"items":[{"name":"봄비오스크린골프","tel":"031-225-0070","addr":"경기도 화성시 진안동 484-5번지 J동 201호","indutype":"회원제형태 - 레져업소","category":"other"}]},{"lat":"37.212518936","long":"127.0363638","imageIndex":17,"items":[{"name":"블루 당구재료","tel":"031-222-2994","addr":"경기도 화성시 진안동 493-5번지 1층","indutype":"레져용품 - 스포츠·레져용품","category":"other"}]},{"lat":"37.215158401","long":"127.03833655","imageIndex":17,"items":[{"name":"비비빅(bibibig)","tel":"","addr":"경기도 화성시 진안동 860-10번지 104호","indutype":"의류 - 정장","category":"other"}]},{"lat":"37.219186231","long":"127.03767369","imageIndex":17,"items":[{"name":"비오티오(BOTO)","tel":"031-257-7279","addr":"경기도 화성시 진안동 926-1번지 401호","indutype":"용역 서비스 - 종합용역","category":"other"}]},{"lat":"37.22562948","long":"127.03466817","imageIndex":17,"items":[{"name":"사회복지법인감천복지재단 갓바위치매센터","tel":"031-968-7700","addr":"경기도 화성시 진안동 34-1번지","indutype":"기타의료기관 - 기타의료기관 및 기타","category":"other"}]},{"lat":"37.218215893","long":"127.02636158","imageIndex":17,"items":[{"name":"산림가든센터","tel":"031-224-8171","addr":"경기도 화성시 진안동 692-207","indutype":"건축자재 - 인테리어전문","category":"other"}]},{"lat":"37.209329403","long":"127.03586672","imageIndex":17,"items":[{"name":"삼성법원경매정보","tel":"","addr":"경기도 화성시 진안동 525-20번지 라온빌리지 나동 102호","indutype":"용역 서비스 - 사무서비스","category":"other"}]},{"lat":"37.214996331","long":"127.03794216","imageIndex":17,"items":[{"name":"삼성세탁","tel":"031-223-3812","addr":"경기도 화성시 진안동 861-9번지 선이빌 103호","indutype":"수리서비스 - 세탁소","category":"other"}]},{"lat":"37.213716003","long":"127.04072425","imageIndex":17,"items":[{"name":"삼성종합광고","tel":"031-267-0055","addr":"경기도 화성시 진안동 874-4번지 로얄프라자 107호","indutype":"서적문구 - 출판 및 인쇄물","category":"other"},{"name":"원더우먼","tel":"031-231-8834","addr":"경기도 화성시 진안동 874-4번지 로얄프라자 1층 104호","indutype":"의류 - 정장","category":"other"}]},{"lat":"37.211131329","long":"127.03639699","imageIndex":17,"items":[{"name":"삼정시스템","tel":"031-221-9544","addr":"경기도 화성시 진안동 512-1번지 비젼월드 109호","indutype":"전기제품 - 냉열기기","category":"other"},{"name":"이불사랑","tel":"031-223-9643","addr":"경기도 화성시 진안동 512-1번지 비젼월드 105,106호","indutype":"직물 - 침구·수예점","category":"other"}]},{"lat":"37.208852522","long":"127.03336564","imageIndex":17,"items":[{"name":"서광테크","tel":"031-236-5073","addr":"경기도 화성시 진안동 540-14번지 2층 202호","indutype":"수리서비스 - 가정용품수리","category":"other"},{"name":"아이들세상","tel":"","addr":"경기도 화성시 진안동 540-14번지 201호","indutype":"광학제품 - 사진관","category":"other"}]},{"lat":"37.219603387","long":"127.02686901","imageIndex":17,"items":[{"name":"서해벽돌","tel":"031-223-2000","addr":"경기도 화성시 진안동 692-341번지","indutype":"건축자재 - 기타건축자재","category":"other"},{"name":"세화샤링","tel":"031-239-5800","addr":"경기도 화성시 진안동 692-341번지","indutype":"건축자재 - 기타건축자재","category":"other"},{"name":"에이치에스공압","tel":"031-226-3198","addr":"경기도 화성시 진안동 692-341번지","indutype":"기타 - 기계공구","category":"other"}]},{"lat":"37.21760113","long":"127.03511547","imageIndex":17,"items":[{"name":"세계로 인테리어","tel":"031-236-3854","addr":"경기도 화성시 진안동 144-12번지 1층","indutype":"건축자재 - 인테리어전문","category":"other"}]},{"lat":"37.214275108","long":"127.03924868","imageIndex":17,"items":[{"name":"세명주택관리","tel":"031-267-4257","addr":"경기도 화성시 진안동 870-13번지 은하수빌 상가 102호","indutype":"용역 서비스 - 기타용역서비스","category":"other"},{"name":"에스이테크","tel":"031-238-0821","addr":"경기도 화성시 진안동 870-13번지 2호","indutype":"서적문구 - 과학기자재","category":"other"},{"name":"이강디자인","tel":"031-309-7277","addr":"경기도 화성시 진안동 870-13번지 은하수빌 101호","indutype":"건축자재 - 인테리어전문","category":"other"}]},{"lat":"37.21035593","long":"127.03814279","imageIndex":17,"items":[{"name":"세븐일레븐병점중앙점","tel":"","addr":"경기도 화성시 진안동 524-14번지 2층","indutype":"유통업 영리 - 편 의 점","category":"other"},{"name":"에코애드","tel":"031-245-7400","addr":"경기도 화성시 진안동 524-14번지","indutype":"건축자재 - 기타건축자재","category":"other"}]},{"lat":"37.213078114","long":"127.03441506","imageIndex":17,"items":[{"name":"세븐일레븐병점진안점","tel":"031-1577-0711","addr":"경기도 화성시 진안동 460-8번지","indutype":"유통업 영리 - 편 의 점","category":"other"}]},{"lat":"37.218907238","long":"127.03653563","imageIndex":17,"items":[{"name":"세븐일레븐화성진안중앙점","tel":"031-1577-0711","addr":"경기도 화성시 진안동 922-6번지 대성빌 1층","indutype":"유통업 영리 - 편 의 점","category":"other"}]},{"lat":"37.209493057","long":"127.03008769","imageIndex":17,"items":[{"name":"세원상사(KCC페인트)","tel":"031-254-0792","addr":"경기도 화성시 진안동 711-14번지","indutype":"건축자재 - 페인트","category":"other"}]},{"lat":"37.219330814","long":"127.03622035","imageIndex":17,"items":[{"name":"세진미디어","tel":"031-226-4872","addr":"경기도 화성시 진안동 919-12번지 하늘채 101호","indutype":"전기제품 - 가전제품","category":"other"}]},{"lat":"37.207942454","long":"127.03344413","imageIndex":17,"items":[{"name":"세포 엔터테인먼트(Sefo entertainment)","tel":"031-1800-8790","addr":"경기도 화성시 진안동 537-3번지 2층","indutype":"전기제품 - 가전제품","category":"other"}]},{"lat":"37.216465249","long":"127.03716546","imageIndex":17,"items":[{"name":"손 아트","tel":"031-294-3153","addr":"경기도 화성시 진안동 856-16번지","indutype":"문화.취미 - 문화취미기타","category":"other"}]},{"lat":"37.21307833","long":"127.03359265","imageIndex":17,"items":[{"name":"스마트에어컨","tel":"","addr":"경기도 화성시 진안동 458-22번지 10동 103호","indutype":"용역 서비스 - 기타용역서비스","category":"other"}]},{"lat":"37.213716718","long":"127.03841473","imageIndex":17,"items":[{"name":"스타(star)스포츠","tel":"031-224-9887","addr":"경기도 화성시 진안동 869-14번지","indutype":"레져용품 - 스포츠·레져용품","category":"other"},{"name":"에듀바비 경기화성지점","tel":"031-000-0000","addr":"경기도 화성시 진안동 869-14번지 B동 301호","indutype":"용역 서비스 - 사무서비스","category":"other"}]},{"lat":"37.21358166","long":"127.03808796","imageIndex":17,"items":[{"name":"스타에어컨","tel":"031-226-3690","addr":"경기도 화성시 진안동 869-12번지 1층 102호","indutype":"전기제품 - 가전제품","category":"other"}]},{"lat":"37.216825169","long":"127.03883305","imageIndex":17,"items":[{"name":"시크릿","tel":"031-713-0535","addr":"경기도 화성시 진안동 858-12번지 장미빌라 가동 303호","indutype":"의류 - 내의판매","category":"other"}]},{"lat":"37.211303822","long":"127.03145148","imageIndex":17,"items":[{"name":"신광합판목재창호","tel":"031-225-0003","addr":"경기도 화성시 진안동 551-8번지","indutype":"가구 - 일반가구","category":"other"}]},{"lat":"37.208996411","long":"127.03442463","imageIndex":17,"items":[{"name":"써니데이","tel":"","addr":"경기도 화성시 진안동 525-12번지 101호","indutype":"의류 - 기타의류","category":"other"},{"name":"영광전기조명","tel":"031-234-0242","addr":"경기도 화성시 진안동 525-12","indutype":"건축자재 - 조명기구","category":"other"}]},{"lat":"37.213132336","long":"127.03380673","imageIndex":17,"items":[{"name":"씨유병점진안센터점","tel":"031-898-6566","addr":"경기도 화성시 진안동 459-5번지 1층","indutype":"유통업 영리 - 편 의 점","category":"other"}]},{"lat":"37.217547129","long":"127.03489011","imageIndex":17,"items":[{"name":"씨유진안다람점","tel":"031-235-5113","addr":"경기도 화성시 진안동 137-12번지","indutype":"유통업 영리 - 편 의 점","category":"other"}]},{"lat":"37.211382751","long":"127.03933742","imageIndex":17,"items":[{"name":"씨유진안사랑점","tel":"031-232-0535","addr":"경기도 화성시 진안동 884-2번지","indutype":"유통업 영리 - 편 의 점","category":"other"}]},{"lat":"37.210276934","long":"127.03020063","imageIndex":17,"items":[{"name":"씨유진안원룸점","tel":"031-223-2348","addr":"경기도 화성시 진안동 712-14번지","indutype":"유통업 영리 - 편 의 점","category":"other"}]},{"lat":"37.215770742","long":"127.03953105","imageIndex":17,"items":[{"name":"씨유화성광림점","tel":"031-234-8891","addr":"경기도 화성시 진안동 859-1번지 광림빌딩","indutype":"유통업 영리 - 편 의 점","category":"other"}]},{"lat":"37.211859386","long":"127.04219912","imageIndex":17,"items":[{"name":"씨유화성병점원룸점","tel":"031-231-9266","addr":"경기도 화성시 진안동 887-2번지 1층","indutype":"유통업 영리 - 편 의 점","category":"other"}]},{"lat":"37.212328623","long":"127.04003635","imageIndex":17,"items":[{"name":"씨유화성진안점","tel":"031-238-6574","addr":"경기도 화성시 진안동 880-7번지","indutype":"유통업 영리 - 편 의 점","category":"other"}]},{"lat":"37.219664086","long":"127.03661483","imageIndex":17,"items":[{"name":"씨유화성진안중앙점","tel":"031-231-9057","addr":"경기도 화성시 진안동 923-1번지","indutype":"유통업 영리 - 편 의 점","category":"other"}]},{"lat":"37.209275089","long":"127.03675666","imageIndex":17,"items":[{"name":"아이씨케이(인천코리아)","tel":"","addr":"경기도 화성시 진안동 526-31번지","indutype":"신변잡화 - 기타잡화","category":"other"}]},{"lat":"37.211824817","long":"127.0374788","imageIndex":17,"items":[{"name":"알레르망","tel":"031-236-7177","addr":"경기도 화성시 진안동 513-2번지","indutype":"직물 - 침구·수예점","category":"other"}]},{"lat":"37.213103698","long":"127.0394509","imageIndex":17,"items":[{"name":"알파문구태안점","tel":"031-221-8553","addr":"경기도 화성시 진안동 873-10번지","indutype":"서적문구 - 문구용품","category":"other"}]},{"lat":"37.213798072","long":"127.03753603","imageIndex":17,"items":[{"name":"애드뱅크","tel":"031-206-7894","addr":"경기도 화성시 진안동 867-7번지 예당빌 상가 1층","indutype":"서적문구 - 출판 및 인쇄물","category":"other"}]},{"lat":"37.209527341","long":"127.03689195","imageIndex":17,"items":[{"name":"애드지오","tel":"031-234-1321","addr":"경기도 화성시 진안동 525-140황금빌상가1","indutype":"용역 서비스 - 종합용역","category":"other"}]},{"lat":"37.213771431","long":"127.03617284","imageIndex":17,"items":[{"name":"에스엠 (SM)모바일","tel":"031-222-5989","addr":"경기도 화성시 진안동 431-5번지 B동 101호","indutype":"사무통신 - 통신기기","category":"other"}]},{"lat":"37.20988752","long":"127.03770322","imageIndex":17,"items":[{"name":"에임하이(aim high)","tel":"031-223-3571","addr":"경기도 화성시 진안동 524-19번지 2층","indutype":"신변잡화 - 기타잡화","category":"other"},{"name":"태안페인트","tel":"031-232-2342","addr":"경기도 화성시 진안동 524-19번지","indutype":"건축자재 - 페인트","category":"other"}]},{"lat":"37.216131244","long":"127.03924957","imageIndex":17,"items":[{"name":"엠공조시스템","tel":"","addr":"경기도 화성시 진안동 858-11번지 301호","indutype":"용역 서비스 - 기타용역서비스","category":"other"}]},{"lat":"37.210492128","long":"127.03444778","imageIndex":17,"items":[{"name":"영신철물","tel":"031-298-8096","addr":"경기도 화성시 진안동 485-5번지 101호","indutype":"건축자재 - 목재·석재·철물","category":"other"},{"name":"잉크충전토너충전","tel":"031-225-1103","addr":"경기도 화성시 진안동 485-5번지 103호","indutype":"사무통신 - 기타 사무용품","category":"other"}]},{"lat":"37.211301539","long":"127.03972041","imageIndex":17,"items":[{"name":"영진","tel":"031-234-8837","addr":"경기도 화성시 진안동 885-2번지 신도빌 303호","indutype":"사무통신 - 컴퓨터","category":"other"}]},{"lat":"37.222547297","long":"127.03697667","imageIndex":17,"items":[{"name":"예지장","tel":"070-8805-1797","addr":"경기도 화성시 진안동 70번지","indutype":"가구 - 일반가구","category":"other"}]},{"lat":"37.211105266","long":"127.03278074","imageIndex":17,"items":[{"name":"올포유(병점점)","tel":"031-236-6262","addr":"경기도 화성시 진안동 481-1번지 D동101,102호","indutype":"레져용품 - 스포츠·레져용품","category":"other"}]},{"lat":"37.215275444","long":"127.03864079","imageIndex":17,"items":[{"name":"우성","tel":"070-8274-2158","addr":"경기도 화성시 진안동 860-9번지 신도빌딩 2층 202호","indutype":"전기제품 - 기타전기제품","category":"other"}]},{"lat":"37.212463263","long":"127.04164741","imageIndex":17,"items":[{"name":"월드체능교실","tel":"031-238-8955","addr":"경기도 화성시 진안동 883-8번지","indutype":"회원제형태 - 레져업소","category":"other"}]},{"lat":"37.217384455","long":"127.03664762","imageIndex":17,"items":[{"name":"위너정보통신","tel":"","addr":"경기도 화성시 진안동 856-11번지 부원주택 102호","indutype":"사무통신 - 컴퓨터","category":"other"},{"name":"제이에스에어컨 (JS에어컨)","tel":"031-000-0000","addr":"경기도 화성시 진안동 856-11번지 부원주택 302호","indutype":"용역 서비스 - 기타용역서비스","category":"other"}]},{"lat":"37.214852014","long":"127.03844906","imageIndex":17,"items":[{"name":"위드미병점진안점","tel":"02-6916-1500","addr":"경기도 화성시 진안동 863-1번지 105호","indutype":"유통업 영리 - 편 의 점","category":"other"},{"name":"키즈아트","tel":"070-5133-1934","addr":"경기도 화성시 진안동 863-1번지 204호","indutype":"서적문구 - 기타서적문구","category":"other"}]},{"lat":"37.213914053","long":"127.04127638","imageIndex":17,"items":[{"name":"유명브렌드할인매장","tel":"031-222-1338","addr":"경기도 화성시 진안동 875-5번지","indutype":"신변잡화 - 신발","category":"other"},{"name":"탑라운드병점점","tel":"070-4126-4739","addr":"경기도 화성시 진안동 875-5번지 1층","indutype":"의류 - 정장","category":"other"}]},{"lat":"37.212743206","long":"127.03969858","imageIndex":17,"items":[{"name":"유코디","tel":"","addr":"경기도 화성시 진안동 878-9번지 103호","indutype":"의류 - 정장","category":"other"},{"name":"케미스트리","tel":"070-4068-1215","addr":"경기도 화성시 진안동 878-9번지 1층 103호","indutype":"의류 - 정장","category":"other"}]},{"lat":"37.215519781","long":"127.03494559","imageIndex":17,"items":[{"name":"이마트24 병점중앙로점","tel":"","addr":"경기도 화성시 진안동 432-9번지 102호","indutype":"유통업 영리 - 편 의 점","category":"other"}]},{"lat":"37.213553591","long":"127.04142265","imageIndex":17,"items":[{"name":"이브자리","tel":"031-238-1195","addr":"경기도 화성시 진안동 876-2번지","indutype":"직물 - 침구·수예점","category":"other"}]},{"lat":"37.224881857","long":"127.03377772","imageIndex":17,"items":[{"name":"이오테크","tel":"031-233-9841","addr":"경기도 화성시 진안동 46-17번지","indutype":"사무통신 - 기타 사무용품","category":"other"}]},{"lat":"37.216050267","long":"127.03886648","imageIndex":17,"items":[{"name":"이온인테리어","tel":"031-898-6848","addr":"경기도 화성시 진안동 857-7번지 현재빌딩 107호","indutype":"용역 서비스 - 기타용역서비스","category":"other"}]},{"lat":"37.20941118","long":"127.03330954","imageIndex":17,"items":[{"name":"이화상사","tel":"031-236-1056","addr":"경기도 화성시 진안동 541-13번지","indutype":"건축자재 - 건축용 요업제품","category":"other"},{"name":"플러스광고기획","tel":"031-223-1328","addr":"경기도 화성시 진안동 541-13번지 202호","indutype":"용역 서비스 - 종합용역","category":"other"}]},{"lat":"37.219357371","long":"127.03786531","imageIndex":17,"items":[{"name":"제일건업","tel":"070-3746-5537","addr":"경기도 화성시 진안동 927-4번지 303호","indutype":"건축자재 - 인테리어전문","category":"other"}]},{"lat":"37.214184917","long":"127.03953029","imageIndex":17,"items":[{"name":"주식회사 가인애드아트","tel":"031-225-6631","addr":"경기도 화성시 진안동 870-8번지 1층 102호","indutype":"건축자재 - 인테리어전문","category":"other"}]},{"lat":"37.21252711","long":"127.03920278","imageIndex":17,"items":[{"name":"주식회사 비즈메이드","tel":"050-4023-1868","addr":"경기도 화성시 진안동 878-6번지 302호","indutype":"전기제품 - 기타전기제품","category":"other"},{"name":"페로하임 (Perro heim)","tel":"031-238-1599","addr":"경기도 화성시 진안동 878-6번지 101호","indutype":"문화.취미 - 애완동물","category":"other"}]},{"lat":"37.20979746","long":"127.03755673","imageIndex":17,"items":[{"name":"주식회사 크림씨앤엠","tel":"070-4027-1611","addr":"경기도 화성시 진안동 524-11번지 3층","indutype":"회원제형태 - 사무서비스","category":"other"},{"name":"태안종합공구상사","tel":"031-234-1289","addr":"경기도 화성시 진안동 524-11번지","indutype":"기타 - 기계공구","category":"other"}]},{"lat":"37.21215876","long":"127.03550745","imageIndex":17,"items":[{"name":"주식회사더모스트(The Most)","tel":"031-222-7155","addr":"경기도 화성시 진안동 493-2번지 101호","indutype":"수리서비스 - 가정용품수리","category":"other"}]},{"lat":"37.211466068","long":"127.03120369","imageIndex":17,"items":[{"name":"중원냉동산업","tel":"031-256-1106","addr":"경기도 화성시 진안동 552-1번지","indutype":"전기제품 - 냉열기기","category":"other"}]},{"lat":"37.217302868","long":"127.03833755","imageIndex":17,"items":[{"name":"지사이언스","tel":"","addr":"경기도 화성시 진안동 853-12번지 1층 101호","indutype":"서적문구 - 과학기자재","category":"other"}]},{"lat":"37.212247977","long":"127.03858303","imageIndex":17,"items":[{"name":"지센코리아","tel":"031-222-6446","addr":"경기도 화성시 진안동 878-16번지 102호","indutype":"의류 - 스포츠의류","category":"other"}]},{"lat":"37.213276206","long":"127.03492211","imageIndex":17,"items":[{"name":"진안동주민자치센터","tel":"031-369-4015","addr":"경기도 화성시 진안동 460-9번지","indutype":"문화.취미 - 문화취미기타","category":"other"}]},{"lat":"37.217608769","long":"127.0398136","imageIndex":17,"items":[{"name":"천국C","tel":"031-1111-1111","addr":"경기도 화성시 진안동 910번지 진안골마을주공12단지 1210동 802호","indutype":"용역 서비스 - 기타용역서비스","category":"other"}]},{"lat":"37.209995599","long":"127.03786098","imageIndex":17,"items":[{"name":"청아장식","tel":"031-226-5033","addr":"경기도 화성시 진안동 524-20번지","indutype":"직물 - 카페트,커튼,천막,지물","category":"other"}]},{"lat":"37.212409857","long":"127.03958576","imageIndex":17,"items":[{"name":"초원","tel":"","addr":"경기도 화성시 진안동 878-12번지 3층","indutype":"신변잡화 - 기타잡화","category":"other"}]},{"lat":"37.226413275","long":"127.03506288","imageIndex":17,"items":[{"name":"케이엠","tel":"031-278-2739","addr":"경기도 화성시 진안동 39-6번지","indutype":"전기제품 - 기타전기제품","category":"other"}]},{"lat":"37.210852573","long":"127.03433528","imageIndex":17,"items":[{"name":"코코라이팅","tel":"031-223-2006","addr":"경기도 화성시 진안동 486번지","indutype":"건축자재 - 조명기구","category":"other"}]},{"lat":"37.212276551","long":"127.03302904","imageIndex":17,"items":[{"name":"콜핑(경기병점점)","tel":"031-238-6080","addr":"경기도 화성시 진안동 476-1 병점아울렛E동101호~102호 E-101","indutype":"레져용품 - 스포츠·레져용품","category":"other"}]},{"lat":"37.213490566","long":"127.04127616","imageIndex":17,"items":[{"name":"크로커다일레이디병점점","tel":"031-235-5012","addr":"경기도 화성시 진안동 876-1번지","indutype":"레져용품 - 스포츠·레져용품","category":"other"}]},{"lat":"37.212852985","long":"127.03391927","imageIndex":17,"items":[{"name":"크린워터 시스템","tel":"","addr":"경기도 화성시 진안동 458-26번지 204호","indutype":"주방용구 - 정수기","category":"other"}]},{"lat":"37.214302767","long":"127.03714195","imageIndex":17,"items":[{"name":"크린토피아 화성진안점","tel":"031-224-3322","addr":"경기도 화성시 진안동 862-3번지 덕원빌딩 1층","indutype":"수리서비스 - 세탁소","category":"other"}]},{"lat":"37.212463355","long":"127.04136577","imageIndex":17,"items":[{"name":"타이샵","tel":"031-1577-0000","addr":"경기도 화성시 진안동 883-7번지 4층 401호","indutype":"신변잡화 - 기타잡화","category":"other"}]},{"lat":"37.208798308","long":"127.03395141","imageIndex":17,"items":[{"name":"태안열쇠","tel":"031-233-0155","addr":"경기도 화성시 진안동 525-45번지","indutype":"기타 - 기계공구","category":"other"}]},{"lat":"37.211076433","long":"127.03922461","imageIndex":17,"items":[{"name":"티앤비테크놀로지","tel":"031-235-3624","addr":"경기도 화성시 진안동 879-4번지 402호","indutype":"전기제품 - 가전제품","category":"other"}]},{"lat":"37.209636975","long":"127.03114668","imageIndex":17,"items":[{"name":"파란환경철거","tel":"031-217-8873","addr":"경기도 화성시 진안동 709-1번지","indutype":"용역 서비스 - 기타용역서비스","category":"other"}]},{"lat":"37.216436354","long":"127.04309154","imageIndex":17,"items":[{"name":"피렌체","tel":"111-1111-111","addr":"경기도 화성시 진안동 908번지 진안골마을주공10단지 1004동 104호","indutype":"회원제형태 - 기타4","category":"other"},{"name":"한빛에어컨","tel":"","addr":"경기도 화성시 진안동 908번지 진안골마을주공10단지 1004동 802호","indutype":"용역 서비스 - 기타용역서비스","category":"other"}]},{"lat":"37.216357196","long":"127.03691755","imageIndex":17,"items":[{"name":"하나세탁","tel":"031-224-7520","addr":"경기도 화성시 진안동 193-1번지 104호","indutype":"수리서비스 - 세탁소","category":"other"}]},{"lat":"37.213076736","long":"127.03922557","imageIndex":17,"items":[{"name":"하나유통","tel":"031-238-9791","addr":"경기도 화성시 진안동 873-11번지 상동빌딩 2층 202호","indutype":"서적문구 - 완구점","category":"other"}]},{"lat":"37.215546474","long":"127.03617362","imageIndex":17,"items":[{"name":"하이크리닝월드점","tel":"031-232-9260","addr":"경기도 화성시 진안동 935번지 월드메르디앙 상가동 102호","indutype":"수리서비스 - 세탁소","category":"other"}]},{"lat":"37.226656356","long":"127.03578412","imageIndex":17,"items":[{"name":"하이테크/원격지","tel":"031-234-8177","addr":"경기도 화성시 진안동 36-1번지","indutype":"기타 - 기타 전문점","category":"other"}]},{"lat":"37.219438849","long":"127.03653586","imageIndex":17,"items":[{"name":"하하세탁소","tel":"031-233-1369","addr":"경기도 화성시 진안동 922-1번지 1층","indutype":"수리서비스 - 세탁소","category":"other"}]},{"lat":"37.214771339","long":"127.0370295","imageIndex":17,"items":[{"name":"한국난방관리 오산지사","tel":"031-224-3747","addr":"경기도 화성시 진안동 861-4번지 1층","indutype":"용역 서비스 - 기타용역서비스","category":"other"}]},{"lat":"37.209717673","long":"127.03275766","imageIndex":17,"items":[{"name":"한솔전통건축연구소","tel":"031-267-1244","addr":"경기도 화성시 진안동 543-15번지 한양빌딩","indutype":"건축자재 - 인테리어전문","category":"other"}]},{"lat":"37.21496875","long":"127.03975599","imageIndex":17,"items":[{"name":"행복열쇠종합설비","tel":"031-214-0100","addr":"경기도 화성시 진안동 866-7번지 101호","indutype":"기타 - 기계공구","category":"other"}]},{"lat":"37.218215638","long":"127.02761217","imageIndex":17,"items":[{"name":"현대종합상사","tel":"031-226-2070","addr":"경기도 화성시 진안동 692-583번지","indutype":"건축자재 - 기타건축자재","category":"other"}]},{"lat":"37.212637139","long":"127.03234198","imageIndex":17,"items":[{"name":"형제본드","tel":"031-233-8765","addr":"경기도 화성시 진안동 457-5번지","indutype":"신변잡화 - 기타잡화","category":"other"}]},{"lat":"37.216302615","long":"127.03867507","imageIndex":17,"items":[{"name":"홍반장","tel":"031-222-6042","addr":"경기도 화성시 진안동 857-5번지 1층 102호","indutype":"용역 서비스 - 종합용역","category":"other"}]},{"lat":"37.214969064","long":"127.03873077","imageIndex":17,"items":[{"name":"힐링펫샵","tel":"031-237-0256","addr":"경기도 화성시 진안동 863-4번지 덕양하이빌 1층","indutype":"문화.취미 - 애완동물","category":"other"}]}]