[{"lat":"37.66202738","long":"127.16739654","imageIndex":4,"items":[{"name":"달음","tel":"031-575-1615","addr":"경기도 남양주시 진건읍 신월리 117-5번지 1층","indutype":"일반휴게음식 - 서양음식","category":"restaurant"}]},{"lat":"37.659133696","long":"127.15515064","imageIndex":4,"items":[{"name":"삼거리식당","tel":"031-527-5556","addr":"경기도 남양주시 진건읍 신월리 540-9번지","indutype":"일반휴게음식 - 일반한식","category":"restaurant"}]},{"lat":"37.661190931","long":"127.1527862","imageIndex":4,"items":[{"name":"세상만사감자탕","tel":"031-529-0977","addr":"경기도 남양주시 진건읍 신월리 597-3번지","indutype":"일반휴게음식 - 일반한식","category":"restaurant"}]},{"lat":"37.663304223","long":"127.16920138","imageIndex":4,"items":[{"name":"신월어칼국수","tel":"031-527-6650","addr":"경기도 남양주시 진건읍 신월리 154번지","indutype":"일반휴게음식 - 일반한식","category":"restaurant"}]},{"lat":"37.662859921","long":"127.17119508","imageIndex":4,"items":[{"name":"요세포프","tel":"031-529-2658","addr":"경기도 남양주시 진건읍 신월리 65-1번지 1층","indutype":"일반휴게음식 - 서양음식","category":"restaurant"}]},{"lat":"37.667413846","long":"127.16833782","imageIndex":4,"items":[{"name":"울트라 쭈꾸미","tel":"031-573-4988","addr":"경기도 남양주시 진건읍 신월리 180번지","indutype":"일반휴게음식 - 일반한식","category":"restaurant"}]},{"lat":"37.660306597","long":"127.1538724","imageIndex":4,"items":[{"name":"일미칼국수","tel":"031-527-6143","addr":"경기도 남양주시 진건읍 신월리 544-3번지","indutype":"일반휴게음식 - 일반한식","category":"restaurant"}]},{"lat":"37.663720849","long":"127.15419665","imageIndex":4,"items":[{"name":"친미세계 푸드","tel":"","addr":"경기도 남양주시 진건읍 신월리 578번지","indutype":"일반휴게음식 - 스넥","category":"restaurant"}]},{"lat":"37.660973703","long":"127.15356775","imageIndex":4,"items":[{"name":"한드리능이백숙","tel":"031-574-5868","addr":"경기도 남양주시 진건읍 신월리 544-4번지","indutype":"일반휴게음식 - 일반한식","category":"restaurant"},{"name":"한드리능이백숙","tel":"031-574-5868","addr":"경기도 남양주시 진건읍 신월리 544-4번지","indutype":"일반휴게음식 - 일반한식","category":"restaurant"}]}]