[{"lat":"37.76483783","long":"126.77467633","imageIndex":13,"items":[{"name":"(주)엔비어스컴퍼니","tel":"031-957-7576","addr":"경기도 파주시 금촌동 329-158번지","indutype":"레저업소 - 헬스클럽","category":"leisure"},{"name":"샹떼PC방 파주메가박스점","tel":"070-7758-9048","addr":"경기도 파주시 금촌동 329-158번지","indutype":"레저업소 - 기타레져업소","category":"leisure"}]},{"lat":"37.757482951","long":"126.77774015","imageIndex":13,"items":[{"name":"010노래연습장","tel":"031-941-8151","addr":"경기도 파주시 금촌동 776-16번지","indutype":"레저업소 - 노 래 방","category":"leisure"}]},{"lat":"37.759032321","long":"126.77293522","imageIndex":13,"items":[{"name":"24시프로당구클럽","tel":"031-948-8251","addr":"경기도 파주시 금촌동 307-42번지","indutype":"레저업소 - 당 구 장","category":"leisure"}]},{"lat":"37.76319756","long":"126.77439766","imageIndex":13,"items":[{"name":"3POP PC 금촌점","tel":"","addr":"경기도 파주시 금촌동 62-1번지","indutype":"레저업소 - 기타레져업소","category":"leisure"},{"name":"DS당구클럽","tel":"031-948-4939","addr":"경기도 파주시 금촌동 62-1번지","indutype":"레저업소 - 당 구 장","category":"leisure"}]},{"lat":"37.752035959","long":"126.76587633","imageIndex":13,"items":[{"name":"40피티","tel":"031-000-0000","addr":"경기도 파주시 금촌동 986-1번지","indutype":"레저업소 - 헬스클럽","category":"leisure"}]},{"lat":"37.751227338","long":"126.7669909","imageIndex":13,"items":[{"name":"FOX노래연습장","tel":"031-945-7082","addr":"경기도 파주시 금촌동 990-1번지","indutype":"레저업소 - 노 래 방","category":"leisure"},{"name":"강호당구클럽","tel":"031-941-0770","addr":"경기도 파주시 금촌동 990-1번지","indutype":"레저업소 - 당 구 장","category":"leisure"},{"name":"쿵노래연습장","tel":"031-527-4906","addr":"경기도 파주시 금촌동 990-1번지","indutype":"레저업소 - 노 래 방","category":"leisure"}]},{"lat":"37.763980854","long":"126.77412287","imageIndex":13,"items":[{"name":"K-2클럽당구장","tel":"070-9719-3949","addr":"경기도 파주시 금촌동 59-9번지","indutype":"레저업소 - 당 구 장","category":"leisure"}]},{"lat":"37.75186667","long":"126.76681867","imageIndex":13,"items":[{"name":"Lee스피닝, 요가","tel":"031-945-2345","addr":"경기도 파주시 금촌동 988-1번지","indutype":"레저업소 - 헬스클럽","category":"leisure"},{"name":"락휴코인노래연습장 금릉역점","tel":"031-947-8912","addr":"경기도 파주시 금촌동 988-1번지","indutype":"레저업소 - 노 래 방","category":"leisure"}]},{"lat":"37.757087978","long":"126.77381501","imageIndex":13,"items":[{"name":"MYQ당구장","tel":"070-8243-4530","addr":"경기도 파주시 금촌동 952-6번지 현대메트로 401호","indutype":"레저업소 - 당 구 장","category":"leisure"},{"name":"모어겐(morgen)","tel":"02-3110-1171","addr":"경기도 파주시 금촌동 952-6번지","indutype":"레저업소 - 헬스클럽","category":"leisure"},{"name":"별빛노래연습장","tel":"031-943-5313","addr":"경기도 파주시 금촌동 952-6번지","indutype":"레저업소 - 노 래 방","category":"leisure"}]},{"lat":"37.759065265","long":"126.77598775","imageIndex":13,"items":[{"name":"M노래연습장","tel":"031-957-7999","addr":"경기도 파주시 금촌동 765-19번지","indutype":"레저업소 - 노 래 방","category":"leisure"},{"name":"브레인당구장","tel":"031-000-0000","addr":"경기도 파주시 금촌동 765-19번지","indutype":"레저업소 - 당 구 장","category":"leisure"}]},{"lat":"37.755421271","long":"126.77384285","imageIndex":13,"items":[{"name":"VIP 당구장","tel":"031-949-1974","addr":"경기도 파주시 금촌동 953-9번지","indutype":"레저업소 - 당 구 장","category":"leisure"}]},{"lat":"37.757865516","long":"126.77060116","imageIndex":13,"items":[{"name":"가왕노래연습장","tel":"031-0000-0000","addr":"경기도 파주시 금촌동 943-30번지","indutype":"레저업소 - 노 래 방","category":"leisure"}]},{"lat":"37.761864798","long":"126.77473086","imageIndex":13,"items":[{"name":"거기2노래연습장","tel":"031-111-1111","addr":"경기도 파주시 금촌동 65-7번지","indutype":"레저업소 - 노 래 방","category":"leisure"}]},{"lat":"37.756976077","long":"126.77187489","imageIndex":13,"items":[{"name":"거기노래연습장","tel":"031-948-9736","addr":"경기도 파주시 금촌동 254-1번지","indutype":"레저업소 - 노 래 방","category":"leisure"},{"name":"거기노래연습장","tel":"031-948-9736","addr":"경기도 파주시 금촌동 254-1번지 형창빌딩 201호","indutype":"레저업소 - 노 래 방","category":"leisure"},{"name":"베레타사격연습장","tel":"031-957-8088","addr":"경기도 파주시 금촌동 254-1번지 형창빌딩","indutype":"레저업소 - 기타레져업소","category":"leisure"},{"name":"쓰리포당구장","tel":"02-778-4169","addr":"경기도 파주시 금촌동 254-1번지","indutype":"레저업소 - 당 구 장","category":"leisure"},{"name":"후PC방","tel":"031-957-8058","addr":"경기도 파주시 금촌동 254-1번지","indutype":"레저업소 - 기타레져업소","category":"leisure"}]},{"lat":"37.758531868","long":"126.77503615","imageIndex":13,"items":[{"name":"고래고래노래연습장","tel":"031-948-4245","addr":"경기도 파주시 금촌동 947-30번지","indutype":"레저업소 - 노 래 방","category":"leisure"}]},{"lat":"37.75786612","long":"126.77090755","imageIndex":13,"items":[{"name":"고퀄짐","tel":"031-943-7918","addr":"경기도 파주시 금촌동 944-31번지","indutype":"레저업소 - 헬스클럽","category":"leisure"},{"name":"스포츠당구장","tel":"031-948-1489","addr":"경기도 파주시 금촌동 944-31번지 인오프라자 3층","indutype":"레저업소 - 당 구 장","category":"leisure"},{"name":"오셀롯 PC 금촌점","tel":"","addr":"경기도 파주시 금촌동 944-31번지","indutype":"레저업소 - 기타레져업소","category":"leisure"},{"name":"젠노래방","tel":"031-942-5899","addr":"경기도 파주시 금촌동 944-31번지","indutype":"레저업소 - 노 래 방","category":"leisure"}]},{"lat":"37.756920394","long":"126.77104667","imageIndex":13,"items":[{"name":"골드짐","tel":"031-942-9494","addr":"경기도 파주시 금촌동 253-5번지","indutype":"레저업소 - 헬스클럽","category":"leisure"},{"name":"비젼노래연습장","tel":"031-0000-0000","addr":"경기도 파주시 금촌동 253-5번지","indutype":"레저업소 - 노 래 방","category":"leisure"},{"name":"코리아당구클럽","tel":"031-948-4993","addr":"경기도 파주시 금촌동 253-5번지","indutype":"레저업소 - 당 구 장","category":"leisure"}]},{"lat":"37.757227318","long":"126.77135211","imageIndex":13,"items":[{"name":"궁노래연습장","tel":"031-941-1224","addr":"경기도 파주시 금촌동 959-10번지","indutype":"레저업소 - 노 래 방","category":"leisure"},{"name":"피트니스퍼스트 액션스피닝","tel":"031-941-4486","addr":"경기도 파주시 금촌동 959-10번지","indutype":"레저업소 - 헬스클럽","category":"leisure"}]},{"lat":"37.76519812","long":"126.77462983","imageIndex":13,"items":[{"name":"궁전노래연습장","tel":"031-972-2535","addr":"경기도 파주시 금촌동 329-19번지","indutype":"레저업소 - 노 래 방","category":"leisure"},{"name":"무지개노래연습장","tel":"070-8161-2324","addr":"경기도 파주시 금촌동 329-19번지 지하","indutype":"레저업소 - 노 래 방","category":"leisure"}]},{"lat":"37.763284031","long":"126.7725362","imageIndex":13,"items":[{"name":"금촌골프스쿨","tel":"031-946-2636","addr":"경기도 파주시 금촌동 324-16번지","indutype":"레저업소 - 골프연습장","category":"leisure"}]},{"lat":"37.760478898","long":"126.77554085","imageIndex":13,"items":[{"name":"꿈돌이원노래연습장","tel":"070-4242-0229","addr":"경기도 파주시 금촌동 71-15번지","indutype":"레저업소 - 노 래 방","category":"leisure"}]},{"lat":"37.757336567","long":"126.77193051","imageIndex":13,"items":[{"name":"네오당구클럽","tel":"031-944-3949","addr":"경기도 파주시 금촌동 959-7번지","indutype":"레저업소 - 당 구 장","category":"leisure"},{"name":"채플린노래연습장","tel":"031-941-8998","addr":"경기도 파주시 금촌동 959-7번지","indutype":"레저업소 - 노 래 방","category":"leisure"}]},{"lat":"37.757538304","long":"126.76914965","imageIndex":13,"items":[{"name":"님과함께노래연습장","tel":"031-949-5654","addr":"경기도 파주시 금촌동 961-2번지","indutype":"레저업소 - 노 래 방","category":"leisure"}]},{"lat":"37.758785316","long":"126.77564817","imageIndex":13,"items":[{"name":"다우노래연습장","tel":"031-947-7870","addr":"경기도 파주시 금촌동 765-22번지","indutype":"레저업소 - 노 래 방","category":"leisure"}]},{"lat":"37.757815379","long":"126.77259855","imageIndex":13,"items":[{"name":"도레미노래연습장","tel":"031-943-3960","addr":"경기도 파주시 금촌동 945-11번지","indutype":"레저업소 - 노 래 방","category":"leisure"},{"name":"엔돌핀II노래방","tel":"031-943-3968","addr":"경기도 파주시 금촌동 945-11번지","indutype":"레저업소 - 노 래 방","category":"leisure"}]},{"lat":"37.761585834","long":"126.77490195","imageIndex":13,"items":[{"name":"라라노래연습장","tel":"031-948-5585","addr":"경기도 파주시 금촌동 65-3번지","indutype":"레저업소 - 노 래 방","category":"leisure"}]},{"lat":"37.758090574","long":"126.77050967","imageIndex":13,"items":[{"name":"라이또PC금촌점","tel":"070-7529-4721","addr":"경기도 파주시 금촌동 943-6번지","indutype":"레저업소 - 기타레져업소","category":"leisure"},{"name":"짱구노래연습장","tel":"031-949-3263","addr":"경기도 파주시 금촌동 943-6번지","indutype":"레저업소 - 노 래 방","category":"leisure"}]},{"lat":"37.755455364","long":"126.77284416","imageIndex":13,"items":[{"name":"레드PC","tel":"070-8276-7733","addr":"경기도 파주시 금촌동 956-9번지","indutype":"레저업소 - 기타레져업소","category":"leisure"}]},{"lat":"37.751868167","long":"126.76756756","imageIndex":13,"items":[{"name":"로데오노래연습장","tel":"031-957-8894","addr":"경기도 파주시 금촌동 988-4번지","indutype":"레저업소 - 노 래 방","category":"leisure"}]},{"lat":"37.760782276","long":"126.77401924","imageIndex":13,"items":[{"name":"리오노래연습장","tel":"031-945-8801","addr":"경기도 파주시 금촌동 311-31번지","indutype":"레저업소 - 노 래 방","category":"leisure"}]},{"lat":"37.757225822","long":"126.77059181","imageIndex":13,"items":[{"name":"리치노래연습장","tel":"031-941-6904","addr":"경기도 파주시 금촌동 960-7번지","indutype":"레저업소 - 노 래 방","category":"leisure"}]},{"lat":"37.752364186","long":"126.76781563","imageIndex":13,"items":[{"name":"마이당구클럽","tel":"031-957-9000","addr":"경기도 파주시 금촌동 987-4번지","indutype":"레저업소 - 당 구 장","category":"leisure"}]},{"lat":"37.758676721","long":"126.77539884","imageIndex":13,"items":[{"name":"만번노래연습장","tel":"031-941-3697","addr":"경기도 파주시 금촌동 765-24번지","indutype":"레저업소 - 노 래 방","category":"leisure"}]},{"lat":"37.761730621","long":"126.77523061","imageIndex":13,"items":[{"name":"만화카페하늘","tel":"031-8154-3966","addr":"경기도 파주시 금촌동 56-9번지","indutype":"레저업소 - 기타레져업소","category":"leisure"},{"name":"메카당구쿨럽","tel":"070-5014-5701","addr":"경기도 파주시 금촌동 56-9번지","indutype":"레저업소 - 당 구 장","category":"leisure"},{"name":"별난노래연습장","tel":"031-943-3429","addr":"경기도 파주시 금촌동 56-9번지","indutype":"레저업소 - 노 래 방","category":"leisure"}]},{"lat":"37.751868733","long":"126.76785124","imageIndex":13,"items":[{"name":"매니아당구클럽","tel":"031-941-1029","addr":"경기도 파주시 금촌동 988-5번지","indutype":"레저업소 - 당 구 장","category":"leisure"},{"name":"에이스짐 크로스핏","tel":"031-944-6166","addr":"경기도 파주시 금촌동 988-5번지","indutype":"레저업소 - 헬스클럽","category":"leisure"},{"name":"탑플레이스PC","tel":"070-5105-3491","addr":"경기도 파주시 금촌동 988-5번지","indutype":"레저업소 - 기타레져업소","category":"leisure"}]},{"lat":"37.757537696","long":"126.76884326","imageIndex":13,"items":[{"name":"맥스피드PC 금촌본점","tel":"031-000-0000","addr":"경기도 파주시 금촌동 961-1번지","indutype":"레저업소 - 기타레져업소","category":"leisure"}]},{"lat":"37.759756957","long":"126.77493026","imageIndex":13,"items":[{"name":"맹꽁이 노래연습장","tel":"031-948-2358","addr":"경기도 파주시 금촌동 73-26번지","indutype":"레저업소 - 노 래 방","category":"leisure"}]},{"lat":"37.757539181","long":"126.76959222","imageIndex":13,"items":[{"name":"몽실노래연습장","tel":"","addr":"경기도 파주시 금촌동 960-17번지","indutype":"레저업소 - 노 래 방","category":"leisure"}]},{"lat":"37.757617985","long":"126.77768301","imageIndex":13,"items":[{"name":"문화당구장","tel":"02-778-4169","addr":"경기도 파주시 금촌동 776-17번지","indutype":"레저업소 - 당 구 장","category":"leisure"}]},{"lat":"37.757505182","long":"126.77062498","imageIndex":13,"items":[{"name":"미팅 당구장","tel":"031-1111-1111","addr":"경기도 파주시 금촌동 960-5번지","indutype":"레저업소 - 당 구 장","category":"leisure"},{"name":"솔레노래연습장","tel":"031-945-5004","addr":"경기도 파주시 금촌동 960-5번지","indutype":"레저업소 - 노 래 방","category":"leisure"}]},{"lat":"37.756951754","long":"126.77325939","imageIndex":13,"items":[{"name":"발리노래연습장","tel":"031-947-9400","addr":"경기도 파주시 금촌동 958-25번지","indutype":"레저업소 - 노 래 방","category":"leisure"}]},{"lat":"37.759979331","long":"126.77812978","imageIndex":13,"items":[{"name":"버호벤 3쿠션 당구장","tel":"031-944-9177","addr":"경기도 파주시 금촌동 768-6번지","indutype":"레저업소 - 당 구 장","category":"leisure"}]},{"lat":"37.757226604","long":"126.77098898","imageIndex":13,"items":[{"name":"별밤노래연습장","tel":"031-948-2118","addr":"경기도 파주시 금촌동 959-11번지","indutype":"레저업소 - 노 래 방","category":"leisure"},{"name":"스펙피씨(금촌본점)","tel":"070-8246-1123","addr":"경기도 파주시 금촌동 959-11번지","indutype":"레저업소 - 기타레져업소","category":"leisure"}]},{"lat":"37.760811766","long":"126.77529017","imageIndex":13,"items":[{"name":"보림노래연습장","tel":"031-000-0000","addr":"경기도 파주시 금촌동 71-4번지","indutype":"레저업소 - 노 래 방","category":"leisure"}]},{"lat":"37.76397518","long":"126.77584792","imageIndex":13,"items":[{"name":"불독 PC CAFE","tel":"070-6209-1160","addr":"경기도 파주시 금촌동 51-8번지","indutype":"레저업소 - 기타레져업소","category":"leisure"}]},{"lat":"37.76458874","long":"126.7763227","imageIndex":13,"items":[{"name":"불러","tel":"031-957-8362","addr":"경기도 파주시 금촌동 43-6번지","indutype":"레저업소 - 노 래 방","category":"leisure"}]},{"lat":"37.764226591","long":"126.77540454","imageIndex":13,"items":[{"name":"브이알 플레이스(VR place)","tel":"070-4036-1540","addr":"경기도 파주시 금촌동 50-26번지","indutype":"레저업소 - 기타레져업소","category":"leisure"}]},{"lat":"37.751533433","long":"126.76687646","imageIndex":13,"items":[{"name":"비비안 필라테스 금촌점","tel":"02-2678-7789","addr":"경기도 파주시 금촌동 989-1번지","indutype":"레저업소 - 헬스클럽","category":"leisure"},{"name":"퀸노래연습장","tel":"031-946-8133","addr":"경기도 파주시 금촌동 989-1번지","indutype":"레저업소 - 노 래 방","category":"leisure"},{"name":"클라스피씨방","tel":"031-000-0000","addr":"경기도 파주시 금촌동 989-1번지","indutype":"레저업소 - 기타레져업소","category":"leisure"}]},{"lat":"37.757563601","long":"126.77284898","imageIndex":13,"items":[{"name":"빈 노래연습장","tel":"","addr":"경기도 파주시 금촌동 958-9번지","indutype":"레저업소 - 노 래 방","category":"leisure"}]},{"lat":"37.751867396","long":"126.76718177","imageIndex":13,"items":[{"name":"빌리원당구클럽","tel":"070-8715-1636","addr":"경기도 파주시 금촌동 988-2번지","indutype":"레저업소 - 당 구 장","category":"leisure"},{"name":"쎄븐힐","tel":"031-957-0007","addr":"경기도 파주시 금촌동 988-2번지","indutype":"레저업소 - 골프연습장","category":"leisure"},{"name":"아이탐스PC카페","tel":"031-111-1111","addr":"경기도 파주시 금촌동 988-2번지","indutype":"레저업소 - 기타레져업소","category":"leisure"},{"name":"체리노래연습장","tel":"031-945-7209","addr":"경기도 파주시 금촌동 988-2번지","indutype":"레저업소 - 노 래 방","category":"leisure"},{"name":"펀앤조이 금릉점","tel":"","addr":"경기도 파주시 금촌동 988-2번지","indutype":"레저업소 - 기타레져업소","category":"leisure"}]},{"lat":"37.760509176","long":"126.77723166","imageIndex":13,"items":[{"name":"샌즈노래연습","tel":"031-942-7958","addr":"경기도 파주시 금촌동 768-17번지","indutype":"레저업소 - 노 래 방","category":"leisure"}]},{"lat":"37.765531404","long":"126.77459476","imageIndex":13,"items":[{"name":"샵노래연습장","tel":"","addr":"경기도 파주시 금촌동 329-41번지","indutype":"레저업소 - 노 래 방","category":"leisure"}]},{"lat":"37.75558862","long":"126.78126364","imageIndex":13,"items":[{"name":"샹떼피씨(PC)방 파주금촌점","tel":"","addr":"경기도 파주시 금촌동 796-1번지","indutype":"레저업소 - 기타레져업소","category":"leisure"}]},{"lat":"37.758121057","long":"126.77226851","imageIndex":13,"items":[{"name":"소래샘노래연습장","tel":"031-946-0417","addr":"경기도 파주시 금촌동 945-37번지","indutype":"레저업소 - 노 래 방","category":"leisure"}]},{"lat":"37.752174489","long":"126.76756659","imageIndex":13,"items":[{"name":"수노래연습장","tel":"031-948-4556","addr":"경기도 파주시 금촌동 987-6번지","indutype":"레저업소 - 노 래 방","category":"leisure"}]},{"lat":"37.75083909","long":"126.7665723","imageIndex":13,"items":[{"name":"스카이볼링장","tel":"031-941-1990","addr":"경기도 파주시 금촌동 986-5번지","indutype":"레저업소 - 볼 링 장","category":"leisure"}]},{"lat":"37.758006669","long":"126.77835136","imageIndex":13,"items":[{"name":"스카이탁구클럽","tel":"031-945-2483","addr":"경기도 파주시 금촌동 777-3번지","indutype":"레저업소 - 기타레져업소","category":"leisure"}]},{"lat":"37.752174987","long":"126.76781623","imageIndex":13,"items":[{"name":"스타노래연습장","tel":"031-957-8884","addr":"경기도 파주시 금촌동 987-5번지","indutype":"레저업소 - 노 래 방","category":"leisure"}]},{"lat":"37.757810855","long":"126.77029493","imageIndex":13,"items":[{"name":"스타노래연습장","tel":"031-943-0081","addr":"경기도 파주시 금촌동 943-11번지","indutype":"레저업소 - 노 래 방","category":"leisure"}]},{"lat":"37.758562175","long":"126.77673826","imageIndex":13,"items":[{"name":"스포츠당구장","tel":"031-943-4506","addr":"경기도 파주시 금촌동 772-9번지","indutype":"레저업소 - 당 구 장","category":"leisure"}]},{"lat":"37.764566093","long":"126.77392814","imageIndex":13,"items":[{"name":"스피드노래연습장","tel":"031-946-7911","addr":"경기도 파주시 금촌동 329-98번지","indutype":"레저업소 - 노 래 방","category":"leisure"}]},{"lat":"37.75534224","long":"126.77029132","imageIndex":13,"items":[{"name":"슬림피티","tel":"","addr":"경기도 파주시 금촌동 235-1번지","indutype":"레저업소 - 헬스클럽","category":"leisure"}]},{"lat":"37.763171344","long":"126.77481764","imageIndex":13,"items":[{"name":"시즌아이PC방(금촌역점)","tel":"02-222-2222","addr":"경기도 파주시 금촌동 54-24번지","indutype":"레저업소 - 기타레져업소","category":"leisure"}]},{"lat":"37.757455709","long":"126.77296279","imageIndex":13,"items":[{"name":"심쿵노래연습장","tel":"031-941-9888","addr":"경기도 파주시 금촌동 958-30번지","indutype":"레저업소 - 노 래 방","category":"leisure"},{"name":"킹당구장","tel":"031-945-6577","addr":"경기도 파주시 금촌동 958-30번지","indutype":"레저업소 - 당 구 장","category":"leisure"}]},{"lat":"37.760703214","long":"126.77506353","imageIndex":13,"items":[{"name":"썸피싱카페","tel":"031-942-1385","addr":"경기도 파주시 금촌동 71-9번지 장안아파트","indutype":"레저업소 - 기타레져업소","category":"leisure"}]},{"lat":"37.755648226","long":"126.77012014","imageIndex":13,"items":[{"name":"아이와키즈카페","tel":"031-944-1297","addr":"경기도 파주시 금촌동 246-52번지","indutype":"레저업소 - 기타레져업소","category":"leisure"}]},{"lat":"37.756591597","long":"126.77337398","imageIndex":13,"items":[{"name":"아테네노래연습장","tel":"031-942-9914","addr":"경기도 파주시 금촌동 958-13번지","indutype":"레저업소 - 노 래 방","category":"leisure"}]},{"lat":"37.756816446","long":"126.7778443","imageIndex":13,"items":[{"name":"앵콜노래연습장","tel":"031-944-9658","addr":"경기도 파주시 금촌동 785-3번지","indutype":"레저업소 - 노 래 방","category":"leisure"}]},{"lat":"37.75878715","long":"126.7766014","imageIndex":13,"items":[{"name":"어린왕자노래연습장","tel":"070-8156-6802","addr":"경기도 파주시 금촌동 772-8번지","indutype":"레저업소 - 노 래 방","category":"leisure"}]},{"lat":"37.751094733","long":"126.76826217","imageIndex":13,"items":[{"name":"에스바디핏 파주금릉지점","tel":"031-942-8251","addr":"경기도 파주시 금촌동 989-8번지","indutype":"레저업소 - 헬스클럽","category":"leisure"}]},{"lat":"37.756897964","long":"126.77807101","imageIndex":13,"items":[{"name":"에스비에스(SBS)노래연습장","tel":"","addr":"경기도 파주시 금촌동 784-1번지","indutype":"레저업소 - 노 래 방","category":"leisure"}]},{"lat":"37.763288204","long":"126.7746811","imageIndex":13,"items":[{"name":"엔젤스코인노래연습장","tel":"070-4150-5802","addr":"경기도 파주시 금촌동 54-33번지","indutype":"레저업소 - 노 래 방","category":"leisure"}]},{"lat":"37.751534091","long":"126.76720552","imageIndex":13,"items":[{"name":"엘지노래연습장","tel":"031-949-1239","addr":"경기도 파주시 금촌동 989-2번지","indutype":"레저업소 - 노 래 방","category":"leisure"},{"name":"플러스존","tel":"031-949-2479","addr":"경기도 파주시 금촌동 989-2번지","indutype":"레저업소 - 헬스클럽","category":"leisure"}]},{"lat":"37.76128707","long":"126.77415387","imageIndex":13,"items":[{"name":"연출노래연습장","tel":"031-945-4277","addr":"경기도 파주시 금촌동 70-25번지","indutype":"레저업소 - 노 래 방","category":"leisure"}]},{"lat":"37.757086838","long":"126.77790022","imageIndex":13,"items":[{"name":"열정노래연습장","tel":"031-944-6668","addr":"경기도 파주시 금촌동 776-11번지","indutype":"레저업소 - 노 래 방","category":"leisure"}]},{"lat":"37.760982727","long":"126.77517616","imageIndex":13,"items":[{"name":"오투노래연습장","tel":"031-948-2030","addr":"경기도 파주시 금촌동 68-4번지","indutype":"레저업소 - 노 래 방","category":"leisure"}]},{"lat":"37.759225663","long":"126.77506806","imageIndex":13,"items":[{"name":"올스타노래연습장","tel":"031-949-3797","addr":"경기도 파주시 금촌동 764-12번지","indutype":"레저업소 - 노 래 방","category":"leisure"}]},{"lat":"37.76055983","long":"126.77546116","imageIndex":13,"items":[{"name":"올인노래연습장","tel":"031-941-7245","addr":"경기도 파주시 금촌동 71-7번지","indutype":"레저업소 - 노 래 방","category":"leisure"}]},{"lat":"37.757780951","long":"126.7688425","imageIndex":13,"items":[{"name":"와우노래연습장","tel":"031-000-0000","addr":"경기도 파주시 금촌동 942-6번지","indutype":"레저업소 - 노 래 방","category":"leisure"}]},{"lat":"37.758059564","long":"126.7730744","imageIndex":13,"items":[{"name":"우리노래연습장","tel":"031-949-4009","addr":"경기도 파주시 금촌동 945-8번지","indutype":"레저업소 - 노 래 방","category":"leisure"}]},{"lat":"37.757810564","long":"126.77014741","imageIndex":13,"items":[{"name":"우정노래연습장","tel":"031-941-1090","addr":"경기도 파주시 금촌동 943-15번지","indutype":"레저업소 - 노 래 방","category":"leisure"}]},{"lat":"37.756532965","long":"126.77103654","imageIndex":13,"items":[{"name":"유니댄스아카데미","tel":"070-4150-5894","addr":"경기도 파주시 금촌동 251-10번지","indutype":"레저업소 - 헬스클럽","category":"leisure"}]},{"lat":"37.758364357","long":"126.77229045","imageIndex":13,"items":[{"name":"유엔미노래연습장","tel":"031-905-5444","addr":"경기도 파주시 금촌동 945-36번지","indutype":"레저업소 - 노 래 방","category":"leisure"}]},{"lat":"37.761037481","long":"126.76638098","imageIndex":13,"items":[{"name":"유일스크린골프","tel":"031-944-6107","addr":"경기도 파주시 금촌동 496-4번지","indutype":"레저업소 - 스크린골프","category":"leisure"}]},{"lat":"37.765701814","long":"126.76960063","imageIndex":13,"items":[{"name":"유진스크린&유진상가","tel":"031-942-0778","addr":"경기도 파주시 금촌동 386-1번지","indutype":"레저업소 - 스크린골프","category":"leisure"}]},{"lat":"37.757955432","long":"126.77051009","imageIndex":13,"items":[{"name":"은하노래연습장","tel":"031-944-7708","addr":"경기도 파주시 금촌동 943-7번지","indutype":"레저업소 - 노 래 방","category":"leisure"}]},{"lat":"37.756924084","long":"126.77293039","imageIndex":13,"items":[{"name":"이조노래연습장","tel":"031-941-9939","addr":"경기도 파주시 금촌동 958-15번지","indutype":"레저업소 - 노 래 방","category":"leisure"}]},{"lat":"37.757313435","long":"126.7739278","imageIndex":13,"items":[{"name":"제이엘 필라테스","tel":"031-949-0383","addr":"경기도 파주시 금촌동 952-1번지","indutype":"레저업소 - 헬스클럽","category":"leisure"},{"name":"플레이볼죤 금촌점","tel":"","addr":"경기도 파주시 금촌동 952-1번지","indutype":"레저업소 - 기타레져업소","category":"leisure"}]},{"lat":"37.759090959","long":"126.77529544","imageIndex":13,"items":[{"name":"제이제이노래연습장","tel":"031-943-9026","addr":"경기도 파주시 금촌동 765-2번지","indutype":"레저업소 - 노 래 방","category":"leisure"}]},{"lat":"37.751534817","long":"126.76756862","imageIndex":13,"items":[{"name":"조은당구장","tel":"070-7500-9499","addr":"경기도 파주시 금촌동 989-4번지","indutype":"레저업소 - 당 구 장","category":"leisure"},{"name":"카카오PC방","tel":"031-975-4231","addr":"경기도 파주시 금촌동 989-4번지","indutype":"레저업소 - 기타레져업소","category":"leisure"},{"name":"퀸스애비뉴노래연습장","tel":"031-942-9188","addr":"경기도 파주시 금촌동 989-4번지","indutype":"레저업소 - 노 래 방","category":"leisure"}]},{"lat":"37.756618973","long":"126.77823072","imageIndex":13,"items":[{"name":"좋은노래방","tel":"031-949-2121","addr":"경기도 파주시 금촌동 784-3번지","indutype":"레저업소 - 노 래 방","category":"leisure"}]},{"lat":"37.757225285","long":"126.77031946","imageIndex":13,"items":[{"name":"주식회사케이티라이브온","tel":"00-1800-0752","addr":"경기도 파주시 금촌동 960-8번지","indutype":"레저업소 - 골프연습장","category":"leisure"}]},{"lat":"37.76411714","long":"126.7747126","imageIndex":13,"items":[{"name":"준노래연습장","tel":"031-944-5580","addr":"경기도 파주시 금촌동 44-12번지","indutype":"레저업소 - 노 래 방","category":"leisure"}]},{"lat":"37.761225828","long":"126.77509598","imageIndex":13,"items":[{"name":"질러노래연습장","tel":"031-945-9123","addr":"경기도 파주시 금촌동 68-2번지","indutype":"레저업소 - 노 래 방","category":"leisure"}]},{"lat":"37.764313718","long":"126.77387217","imageIndex":13,"items":[{"name":"짱노래방","tel":"031-942-5047","addr":"경기도 파주시 금촌동 329-187번지","indutype":"레저업소 - 노 래 방","category":"leisure"}]},{"lat":"37.768398098","long":"126.77545986","imageIndex":13,"items":[{"name":"챔피온 롤러 클럽 금촌본점","tel":"031-945-7711","addr":"경기도 파주시 금촌동 20-8번지","indutype":"레저업소 - 기타레져업소","category":"leisure"}]},{"lat":"37.756482554","long":"126.77289772","imageIndex":13,"items":[{"name":"체리노래연습장","tel":"031-947-5958","addr":"경기도 파주시 금촌동 957-5번지","indutype":"레저업소 - 노 래 방","category":"leisure"}]},{"lat":"37.758534826","long":"126.77192678","imageIndex":13,"items":[{"name":"카네기노래연습장","tel":"031-943-8801","addr":"경기도 파주시 금촌동 939-19번지","indutype":"레저업소 - 노 래 방","category":"leisure"}]},{"lat":"37.760899818","long":"126.7742345","imageIndex":13,"items":[{"name":"쿨노래연습장","tel":"031-941-2414","addr":"경기도 파주시 금촌동 311-17번지","indutype":"레저업소 - 노 래 방","category":"leisure"}]},{"lat":"37.76014511","long":"126.77531491","imageIndex":13,"items":[{"name":"큐노래연습장","tel":"031-942-2999","addr":"경기도 파주시 금촌동 71-32번지","indutype":"레저업소 - 노 래 방","category":"leisure"}]},{"lat":"37.763593711","long":"126.77426025","imageIndex":13,"items":[{"name":"키네마DVD","tel":"031-941-2233","addr":"경기도 파주시 금촌동 60-1번지","indutype":"레저업소 - 기타레져업소","category":"leisure"}]},{"lat":"37.752372652","long":"126.76754327","imageIndex":13,"items":[{"name":"키다리방방","tel":"031-949-4123","addr":"경기도 파주시 금촌동 987-3번지","indutype":"레저업소 - 기타레져업소","category":"leisure"},{"name":"텐짐 (TEN GYM)","tel":"031-947-1011","addr":"경기도 파주시 금촌동 987-3번지","indutype":"레저업소 - 헬스클럽","category":"leisure"}]},{"lat":"37.764449081","long":"126.77398525","imageIndex":13,"items":[{"name":"탁틴노래연습장","tel":"031-942-7866","addr":"경기도 파주시 금촌동 329-99번지","indutype":"레저업소 - 노 래 방","category":"leisure"}]},{"lat":"37.762586322","long":"126.77512585","imageIndex":13,"items":[{"name":"탑 빌리야드","tel":"031-942-8756","addr":"경기도 파주시 금촌동 55-4번지","indutype":"레저업소 - 당 구 장","category":"leisure"}]},{"lat":"37.757814391","long":"126.76753738","imageIndex":13,"items":[{"name":"파라다이스노래연습장","tel":"031-477-2158","addr":"경기도 파주시 금촌동 970번지","indutype":"레저업소 - 노 래 방","category":"leisure"}]},{"lat":"37.751536084","long":"126.76820404","imageIndex":13,"items":[{"name":"파주금릉 점프클럽","tel":"031-946-2122","addr":"경기도 파주시 금촌동 989-6번지","indutype":"레저업소 - 헬스클럽","category":"leisure"}]},{"lat":"37.763702976","long":"126.76128823","imageIndex":13,"items":[{"name":"파주시배드민턴협회","tel":"","addr":"경기도 파주시 금촌동 714번지","indutype":"레저업소 - 기타레져업소","category":"leisure"},{"name":"파주시배드민턴협회 (금촌구장)","tel":"031-000-0000","addr":"경기도 파주시 금촌동 714번지","indutype":"레저업소 - 기타레져업소","category":"leisure"},{"name":"파주시배드민턴협회 (파주구장)","tel":"031-044-2256","addr":"경기도 파주시 금촌동 714번지","indutype":"레저업소 - 기타레져업소","category":"leisure"}]},{"lat":"37.763560963","long":"126.77596267","imageIndex":13,"items":[{"name":"파주클라이밍","tel":"070-8952-0570","addr":"경기도 파주시 금촌동 52-36번지","indutype":"레저업소 - 기타레져업소","category":"leisure"}]},{"lat":"37.757562936","long":"126.77250854","imageIndex":13,"items":[{"name":"파트너노래연습장","tel":"031-941-3690","addr":"경기도 파주시 금촌동 958-3번지","indutype":"레저업소 - 노 래 방","category":"leisure"}]},{"lat":"37.765171136","long":"126.77465261","imageIndex":13,"items":[{"name":"팡팡노래연습장","tel":"031-949-3373","addr":"경기도 파주시 금촌동 329-223번지","indutype":"레저업소 - 노 래 방","category":"leisure"}]},{"lat":"37.756726935","long":"126.77815096","imageIndex":13,"items":[{"name":"포커스당구장","tel":"02-2677-0443","addr":"경기도 파주시 금촌동 784-2번지","indutype":"레저업소 - 당 구 장","category":"leisure"}]},{"lat":"37.765476819","long":"126.77432255","imageIndex":13,"items":[{"name":"하이런 당구클럽","tel":"031-944-7939","addr":"경기도 파주시 금촌동 329-39번지","indutype":"레저업소 - 당 구 장","category":"leisure"}]},{"lat":"37.764371268","long":"126.77567647","imageIndex":13,"items":[{"name":"허리우드당구장","tel":"031-945-1401","addr":"경기도 파주시 금촌동 50-23번지","indutype":"레저업소 - 당 구 장","category":"leisure"}]},{"lat":"37.752144734","long":"126.76620504","imageIndex":13,"items":[{"name":"헬로방방 파주금릉점","tel":"031-949-9913","addr":"경기도 파주시 금촌동 986-2번지","indutype":"레저업소 - 기타레져업소","category":"leisure"}]},{"lat":"37.757561959","long":"126.77200924","imageIndex":13,"items":[{"name":"황금노래연습장","tel":"031-957-3779","addr":"경기도 파주시 금촌동 959-5번지","indutype":"레저업소 - 노 래 방","category":"leisure"}]},{"lat":"37.760228293","long":"126.77640409","imageIndex":13,"items":[{"name":"황실노래연습장","tel":"031-959-5957","addr":"경기도 파주시 금촌동 767-3번지","indutype":"레저업소 - 노 래 방","category":"leisure"}]},{"lat":"37.757476451","long":"126.76976263","imageIndex":13,"items":[{"name":"훼미리노래연습장","tel":"031-957-2859","addr":"경기도 파주시 금촌동 960-2번지","indutype":"레저업소 - 노 래 방","category":"leisure"}]}]