[{"lat":"37.502348006","long":"126.79360616","imageIndex":0,"items":[{"name":"(주)성원모터스","tel":"032-661-9659","addr":"경기도 부천시 춘의동 192-11 3층","indutype":"자동차정비 유지 - 자동차부품","category":"car"}]},{"lat":"37.499928519","long":"126.78593426","imageIndex":0,"items":[{"name":"X-바이크","tel":"032-655-1450","addr":"경기도 부천시 춘의동 210-2번지","indutype":"자동차판매 - 이륜차판매","category":"car"}]},{"lat":"37.501895885","long":"126.78279596","imageIndex":0,"items":[{"name":"그린카써비스","tel":"032-661-5959","addr":"경기도 부천시 춘의동 178-4번지","indutype":"자동차정비 유지 - 자동차정비","category":"car"}]},{"lat":"37.505036197","long":"126.78058138","imageIndex":0,"items":[{"name":"금호타이어프로도당점","tel":"032-652-3001","addr":"경기도 부천시 춘의동 131-20번지 외2필지","indutype":"자동차정비 유지 - 자동차시트·타이어","category":"car"},{"name":"심원자동차부분정비공업사","tel":"032-329-3513","addr":"경기도 부천시 춘의동 131-20번지","indutype":"자동차정비 유지 - 자동차부품","category":"car"}]},{"lat":"37.504232149","long":"126.79421161","imageIndex":0,"items":[{"name":"뉴신한모터스","tel":"032-612-7966","addr":"경기도 부천시 춘의동 149-4번지","indutype":"자동차정비 유지 - 자동차정비","category":"car"},{"name":"진우1급자동차공업사","tel":"032-655-0307","addr":"경기도 부천시 춘의동 149-4번지","indutype":"자동차정비 유지 - 자동차정비","category":"car"}]},{"lat":"37.499816247","long":"126.78368415","imageIndex":0,"items":[{"name":"다이아몬드덴트칼라","tel":"032-213-1765","addr":"경기도 부천시 춘의동 220-51번지 1층","indutype":"자동차정비 유지 - 자동차정비","category":"car"}]},{"lat":"37.505979313","long":"126.80965578","imageIndex":0,"items":[{"name":"동부모터스","tel":"032-344-6488","addr":"경기도 부천시 춘의동 421번지 1층","indutype":"자동차정비 유지 - 자동차시트·타이어","category":"car"},{"name":"원미모터스","tel":"032-677-1010","addr":"경기도 부천시 춘의동 421번지","indutype":"자동차정비 유지 - 자동차부품","category":"car"}]},{"lat":"37.501259082","long":"126.78435847","imageIndex":0,"items":[{"name":"동원카부분정비업","tel":"032-663-5161","addr":"경기도 부천시 춘의동 215-17번지","indutype":"자동차정비 유지 - 자동차정비","category":"car"}]},{"lat":"37.503230018","long":"126.78315394","imageIndex":0,"items":[{"name":"드림모터스","tel":"032-682-5197","addr":"경기도 부천시 춘의동 143-3번지","indutype":"자동차판매 - 이륜차판매","category":"car"}]},{"lat":"37.503958595","long":"126.78249586","imageIndex":0,"items":[{"name":"라이더샵 부천","tel":"032-676-6429","addr":"경기도 부천시 춘의동 144-30번지 백운센트럴빌 101호","indutype":"자동차판매 - 이륜차판매","category":"car"}]},{"lat":"37.501844234","long":"126.79404862","imageIndex":0,"items":[{"name":"메트로셀프세차장부천점","tel":"032-651-7515","addr":"경기도 부천시 춘의동 188-7","indutype":"자동차정비 유지 - 세차장","category":"car"}]},{"lat":"37.505786485","long":"126.78676554","imageIndex":0,"items":[{"name":"부천밧데리","tel":"032-672-8669","addr":"경기도 부천시 춘의동 120-1번지 나동 111호","indutype":"자동차정비 유지 - 자동차부품","category":"car"}]},{"lat":"37.502535691","long":"126.78285063","imageIndex":0,"items":[{"name":"부천총판","tel":"032-435-1240","addr":"경기도 부천시 춘의동 173-5번지","indutype":"자동차정비 유지 - 자동차시트·타이어","category":"car"}]},{"lat":"37.502790403","long":"126.78416175","imageIndex":0,"items":[{"name":"부천커먼레일","tel":"032-657-1531","addr":"경기도 부천시 춘의동 173-22번지 1층","indutype":"자동차정비 유지 - 자동차부품","category":"car"},{"name":"수 모터스","tel":"070-4117-5887","addr":"경기도 부천시 춘의동 173-22번지 1층","indutype":"자동차정비 유지 - 자동차부품","category":"car"}]},{"lat":"37.502256888","long":"126.78801971","imageIndex":0,"items":[{"name":"서림테크노파크1차 관리운영위원회","tel":"032-668-9328","addr":"경기도 부천시 춘의동 165-1번지","indutype":"자동차정비 유지 - 주차장","category":"car"}]},{"lat":"37.503230397","long":"126.78335751","imageIndex":0,"items":[{"name":"슈퍼텐트칼라","tel":"032-672-0960","addr":"경기도 부천시 춘의동 143-7번지 1층","indutype":"자동차정비 유지 - 카인테리어","category":"car"}]},{"lat":"37.499316823","long":"126.78646754","imageIndex":0,"items":[{"name":"스마트카","tel":"032-611-3344","addr":"경기도 부천시 춘의동 205-12번지 101호","indutype":"자동차정비 유지 - 자동차부품","category":"car"},{"name":"오토스","tel":"032-661-0235","addr":"경기도 부천시 춘의동 205-12번지 1층 101호","indutype":"자동차정비 유지 - 자동차부품","category":"car"},{"name":"프리미어 모터스(주) 부천지점","tel":"032-710-3355","addr":"경기도 부천시 춘의동 205-12번지 에스에이치타워 지하1층","indutype":"자동차판매 - 수입자동차","category":"car"}]},{"lat":"37.502125853","long":"126.79029322","imageIndex":0,"items":[{"name":"양 카샵","tel":"032-666-1377","addr":"경기도 부천시 춘의동 196-5번지","indutype":"자동차정비 유지 - 자동차부품","category":"car"}]},{"lat":"37.502763059","long":"126.78399219","imageIndex":0,"items":[{"name":"에이스덴트","tel":"032-656-5688","addr":"경기도 부천시 춘의동 173-20번지","indutype":"자동차정비 유지 - 카인테리어","category":"car"}]},{"lat":"37.504092418","long":"126.79163346","imageIndex":0,"items":[{"name":"오토오아시스일광점","tel":"032-345-8373","addr":"경기도 부천시 춘의동 155-1번지","indutype":"자동차정비 유지 - 자동차정비","category":"car"}]},{"lat":"37.506313487","long":"126.79423975","imageIndex":0,"items":[{"name":"오토패션","tel":"032-675-7205","addr":"경기도 부천시 춘의동 106-4번지 1층","indutype":"자동차정비 유지 - 자동차부품","category":"car"}]},{"lat":"37.502150809","long":"126.79418348","imageIndex":0,"items":[{"name":"우일세차장","tel":"","addr":"경기도 부천시 춘의동 188-1번지","indutype":"자동차정비 유지 - 세차장","category":"car"},{"name":"푸른정비서비스","tel":"070-7720-1276","addr":"경기도 부천시 춘의동 188-1번지","indutype":"자동차정비 유지 - 자동차정비","category":"car"},{"name":"한국에코그린서비스협동조합","tel":"032-654-6788","addr":"경기도 부천시 춘의동 188-1번지 2층","indutype":"자동차정비 유지 - 세차장","category":"car"}]},{"lat":"37.499760476","long":"126.78765368","imageIndex":0,"items":[{"name":"원미현대모터스","tel":"032-614-3900","addr":"경기도 부천시 춘의동 205-30번지","indutype":"자동차정비 유지 - 자동차정비","category":"car"}]},{"lat":"37.503065238","long":"126.78662636","imageIndex":0,"items":[{"name":"유에이치엠코리아","tel":"032-663-6796","addr":"경기도 부천시 춘의동 166-1번지","indutype":"자동차정비 유지 - 세차장","category":"car"},{"name":"춘의 카 서비스","tel":"032-655-7771","addr":"경기도 부천시 춘의동 166-1번지 B동 1층","indutype":"자동차정비 유지 - 자동차정비","category":"car"}]},{"lat":"37.502569488","long":"126.7865147","imageIndex":0,"items":[{"name":"이화카써비스센터","tel":"070-7317-3843","addr":"경기도 부천시 춘의동 167-7번지 외2필지","indutype":"자동차정비 유지 - 자동차정비","category":"car"}]},{"lat":"37.504174093","long":"126.7919612","imageIndex":0,"items":[{"name":"일석밧데리 할인매장","tel":"032-678-7373","addr":"경기도 부천시 춘의동 151-2번지 1층 일부","indutype":"자동차정비 유지 - 자동차부품","category":"car"},{"name":"포스코컬러하우징","tel":"032-614-4848","addr":"경기도 부천시 춘의동 151-2번지","indutype":"자동차정비 유지 - 자동차부품","category":"car"}]},{"lat":"37.5027576","long":"126.7908795","imageIndex":0,"items":[{"name":"주식회사 선경","tel":"032-655-2100","addr":"경기도 부천시 춘의동 158-2번지","indutype":"자동차정비 유지 - 자동차정비","category":"car"}]},{"lat":"37.505458229","long":"126.79462666","imageIndex":0,"items":[{"name":"주식회사 스타클럽","tel":"032-671-0888","addr":"경기도 부천시 춘의동 102-4번지 서주빌딩","indutype":"자동차정비 유지 - 자동차부품","category":"car"}]},{"lat":"37.503153926","long":"126.78585707","imageIndex":0,"items":[{"name":"주식회사 제이원엔터프라이즈","tel":"031-1111-1111","addr":"경기도 부천시 춘의동 168-7번지 1층","indutype":"자동차정비 유지 - 세차장","category":"car"}]},{"lat":"37.501569433","long":"126.79151617","imageIndex":0,"items":[{"name":"주식회사킹터보","tel":"032-1544-1923","addr":"경기도 부천시 춘의동 195번지 삼보테크노타워 337호","indutype":"자동차정비 유지 - 자동차부품","category":"car"}]},{"lat":"37.505647865","long":"126.78004802","imageIndex":0,"items":[{"name":"중동오토바이","tel":"032-676-4741","addr":"경기도 부천시 춘의동 133번지","indutype":"자동차판매 - 이륜차판매","category":"car"}]},{"lat":"37.501067904","long":"126.78329598","imageIndex":0,"items":[{"name":"중앙자동차전문정비","tel":"032-666-9125","addr":"경기도 부천시 춘의동 216-4번지 1층","indutype":"자동차정비 유지 - 자동차정비","category":"car"}]},{"lat":"37.501538416","long":"126.78929969","imageIndex":0,"items":[{"name":"춘의테크노파크 1차 경영자협의회","tel":"032-714-0670","addr":"경기도 부천시 춘의동 200-1번지 지하1층","indutype":"자동차정비 유지 - 주차장","category":"car"}]},{"lat":"37.501427775","long":"126.787909","imageIndex":0,"items":[{"name":"춘의테크노파크2 관리단대표회의","tel":"032-623-0114","addr":"경기도 부천시 춘의동 202번지 원미구 춘의테크노파크2","indutype":"자동차정비 유지 - 주차장","category":"car"}]},{"lat":"37.502563141","long":"126.78307673","imageIndex":0,"items":[{"name":"카스타일","tel":"032-665-5505","addr":"경기도 부천시 춘의동 173-4번지 1층","indutype":"자동차정비 유지 - 자동차부품","category":"car"}]},{"lat":"37.500010893","long":"126.78663517","imageIndex":0,"items":[{"name":"킹콩샤워","tel":"032-667-3377","addr":"경기도 부천시 춘의동 205-8번지","indutype":"자동차정비 유지 - 세차장","category":"car"}]},{"lat":"37.504510775","long":"126.79382632","imageIndex":0,"items":[{"name":"하이카프라자 춘의점","tel":"032-662-7784","addr":"경기도 부천시 춘의동 149-7","indutype":"자동차정비 유지 - 자동차정비","category":"car"}]},{"lat":"37.502014441","long":"126.793494","imageIndex":0,"items":[{"name":"현대카서비스","tel":"032-653-5414","addr":"경기도 부천시 춘의동 192-2대명빌딩1층1,2호","indutype":"자동차정비 유지 - 자동차정비","category":"car"}]},{"lat":"37.49817871","long":"126.78491025","imageIndex":0,"items":[{"name":"현대카서비스","tel":"032-655-5238","addr":"경기도 부천시 춘의동 222-21번지","indutype":"자동차정비 유지 - 자동차정비","category":"car"}]},{"lat":"37.501235531","long":"126.78624713","imageIndex":0,"items":[{"name":"형제오토바이","tel":"032-664-7516","addr":"경기도 부천시 춘의동 209-4번지 101호","indutype":"자동차판매 - 이륜차판매","category":"car"}]}]