[{"lat":"37.359387782","long":"126.93215343","imageIndex":4,"items":[{"name":"#요리연구소","tel":"070-4200-8397","addr":"경기도 군포시 산본동 1134-1번지 센타빌딩 3층 02호","indutype":"일반휴게음식 - 주점","category":"restaurant"},{"name":"녹스","tel":"031-399-3609","addr":"경기도 군포시 산본동 1134-1번지 센터빌딩 4층 404호","indutype":"일반휴게음식 - 일반한식","category":"restaurant"},{"name":"더키친","tel":"031-344-6399","addr":"경기도 군포시 산본동 1134-1번지 센터빌딩 304호","indutype":"일반휴게음식 - 서양음식","category":"restaurant"},{"name":"롤링파스타 산본역점","tel":"031-391-0706","addr":"경기도 군포시 산본동 1134-1번지 센타빌딩 2층 1,2,3,4,15,17,19호","indutype":"일반휴게음식 - 서양음식","category":"restaurant"},{"name":"미가우동","tel":"031-397-1123","addr":"경기도 군포시 산본동 1134-1번지 센타빌딩 1층 5호","indutype":"일반휴게음식 - 일반한식","category":"restaurant"},{"name":"벌툰 산본역점","tel":"031-393-2515","addr":"경기도 군포시 산본동 1134-1번지 센타빌딩 4층 403호","indutype":"일반휴게음식 - 일반한식","category":"restaurant"},{"name":"암사해물탕","tel":"031-391-8883","addr":"경기도 군포시 산본동 1134-1번지 센터빌딩B동201~207,215,7,9221","indutype":"일반휴게음식 - 일반한식","category":"restaurant"},{"name":"에이스","tel":"031-396-8279","addr":"경기도 군포시 산본동 1134-1번지 센타빌딩 501호","indutype":"일반휴게음식 - 주점","category":"restaurant"},{"name":"장원","tel":"070-4649-1101","addr":"경기도 군포시 산본동 1134-1번지 2층 20,22호","indutype":"일반휴게음식 - 일반한식","category":"restaurant"},{"name":"장장원감자탕해장국","tel":"070-4649-1101","addr":"경기도 군포시 산본동 1134-1번지 센타빌딩 B동 107호,108호,109호,110호","indutype":"일반휴게음식 - 일반한식","category":"restaurant"},{"name":"지금보고싶다(산본점)","tel":"","addr":"경기도 군포시 산본동 1134-1번지 쎈타빌딩 2층 8호~14호","indutype":"일반휴게음식 - 주점","category":"restaurant"},{"name":"카페네로","tel":"031-395-4960","addr":"경기도 군포시 산본동 1134-1번지 센타빌딩 301,307호","indutype":"일반휴게음식 - 서양음식","category":"restaurant"},{"name":"하남돼지집산본역점","tel":"031-398-6720","addr":"경기도 군포시 산본동 1134-1번지 센타빌딩 2층 5 ,6,7,21호,19호 일부호","indutype":"일반휴게음식 - 일반한식","category":"restaurant"}]},{"lat":"37.370500211","long":"126.93723449","imageIndex":4,"items":[{"name":"(STPC)짱치킨","tel":"031-393-7177","addr":"경기도 군포시 산본동 216-1번지 1층 일부호","indutype":"일반휴게음식 - 스넥","category":"restaurant"}]},{"lat":"37.36300063","long":"126.93178882","imageIndex":4,"items":[{"name":"(재)kt그룹희망나눔재단 산본점","tel":"031-391-0841","addr":"경기도 군포시 산본동 1096-3번지 KT군포지점 4층","indutype":"일반휴게음식 - 일반한식","category":"restaurant"}]},{"lat":"37.358558876","long":"126.93219936","imageIndex":4,"items":[{"name":"(주)노랑강정산본점","tel":"031-399-9192","addr":"경기도 군포시 산본동 1142-10번지 동산 상가 107호","indutype":"일반휴게음식 - 일반한식","category":"restaurant"},{"name":"Green토스트","tel":"031-395-5051","addr":"경기도 군포시 산본동 1142-10번지 동산 상가 107호","indutype":"일반휴게음식 - 스넥","category":"restaurant"},{"name":"교동전선생 산본","tel":"031-393-1700","addr":"경기도 군포시 산본동 1142-10번지 동산상가 206호","indutype":"일반휴게음식 - 일반한식","category":"restaurant"},{"name":"노랑강정본점(주)","tel":"031-399-9192","addr":"경기도 군포시 산본동 1142-10번지 동산상가 1층 107호","indutype":"일반휴게음식 - 스넥","category":"restaurant"},{"name":"참참참","tel":"031-392-5840","addr":"경기도 군포시 산본동 1142-10번지 동산 상가 107호","indutype":"일반휴게음식 - 서양음식","category":"restaurant"}]},{"lat":"37.359918404","long":"126.93053879","imageIndex":4,"items":[{"name":"(주)롯데리아산본중앙점","tel":"031-391-9595","addr":"경기도 군포시 산본동 1137번지 동화프라자 106호","indutype":"일반휴게음식 - 서양음식","category":"restaurant"},{"name":"국수나무산본점","tel":"031-394-8988","addr":"경기도 군포시 산본동 1137번지 동화프라자 102호","indutype":"일반휴게음식 - 스넥","category":"restaurant"},{"name":"늘봄쌈밥 갈비찜","tel":"031-396-8856","addr":"경기도 군포시 산본동 1137번지 동화프라자 205호","indutype":"일반휴게음식 - 일반한식","category":"restaurant"},{"name":"미소야(산본로데오점)","tel":"031-391-2222","addr":"경기도 군포시 산본동 1137번지 동화프라자 101호","indutype":"일반휴게음식 - 스넥","category":"restaurant"},{"name":"바우네나주곰탕산본중앙점","tel":"031-395-9595","addr":"경기도 군포시 산본동 1137번지 동화프라자 202,203호","indutype":"일반휴게음식 - 일반한식","category":"restaurant"},{"name":"스콜라스터디카페","tel":"031-399-3732","addr":"경기도 군포시 산본동 1137번지 동화프라자 601호","indutype":"일반휴게음식 - 서양음식","category":"restaurant"},{"name":"신뽕의전설","tel":"031-393-6143","addr":"경기도 군포시 산본동 1137번지 동화프라자 101호","indutype":"일반휴게음식 - 중국식","category":"restaurant"},{"name":"쑤쑤(SSuSSu)","tel":"031-393-3404","addr":"경기도 군포시 산본동 1137번지 동화프라자 201호","indutype":"일반휴게음식 - 서양음식","category":"restaurant"},{"name":"포사이공(PHO0420)","tel":"070-8251-2492","addr":"경기도 군포시 산본동 1137번지 동화프라자 201호","indutype":"일반휴게음식 - 일반한식","category":"restaurant"}]},{"lat":"37.359001227","long":"126.93364376","imageIndex":4,"items":[{"name":"(주)정성담에프앤비군포지점(명가원설농탕)","tel":"031-383-3777","addr":"경기도 군포시 산본동 1142-1번지 1층 5~7호, 2층 3~4호","indutype":"일반휴게음식 - 일반한식","category":"restaurant"},{"name":"산본한식뷔페","tel":"031-399-5395","addr":"경기도 군포시 산본동 1142-1번지 유화프라자빌딩 202호","indutype":"일반휴게음식 - 일반한식","category":"restaurant"},{"name":"상무초밥산본점","tel":"031-397-2009","addr":"경기도 군포시 산본동 1142-1번지 유화프라자빌딩 1층 1,2,3,4호","indutype":"일반휴게음식 - 일식·회집","category":"restaurant"},{"name":"우리동네생고기","tel":"031-398-5004","addr":"경기도 군포시 산본동 1142-1번지 유화프라자","indutype":"일반휴게음식 - 일반한식","category":"restaurant"},{"name":"조순금닭도리탕","tel":"031-393-5009","addr":"경기도 군포시 산본동 1142-1번지 유화프라자빌딩 2층 1호","indutype":"일반휴게음식 - 일반한식","category":"restaurant"}]},{"lat":"37.358422954","long":"126.930924","imageIndex":4,"items":[{"name":"(주)커피빈코리아 산본역점","tel":"031-399-8812","addr":"경기도 군포시 산본동 1143-3번지 신산본빌딩 104호 ,204,204,207호","indutype":"일반휴게음식 - 서양음식","category":"restaurant"},{"name":"(주)커피빈코리아 산본역점","tel":"031-399-8812","addr":"경기도 군포시 산본동 1143-3번지 104,203,204,207호","indutype":"일반휴게음식 - 서양음식","category":"restaurant"},{"name":"고릴라펍","tel":"031-392-3465","addr":"경기도 군포시 산본동 1143-3번지 신산본빌딩 1층","indutype":"일반휴게음식 - 주점","category":"restaurant"},{"name":"동구리동동","tel":"031-396-3632","addr":"경기도 군포시 산본동 1143-3번지 107,108","indutype":"일반휴게음식 - 주점","category":"restaurant"},{"name":"산본닭발","tel":"031-392-7959","addr":"경기도 군포시 산본동 1143-3번지 신산본빌딩 206호","indutype":"일반휴게음식 - 칵테일바","category":"restaurant"},{"name":"신전떡볶이 산본점","tel":"031-391-8588","addr":"경기도 군포시 산본동 1143-3번지 신산본빌딩 1층 102호","indutype":"일반휴게음식 - 스넥","category":"restaurant"},{"name":"원할머니보쌈 산본점","tel":"031-392-3914","addr":"경기도 군포시 산본동 1143-3번지 2층 201,202호","indutype":"일반휴게음식 - 일반한식","category":"restaurant"},{"name":"총각포차","tel":"031-454-7777","addr":"경기도 군포시 산본동 1143-3번지 신산본빌딩 207호","indutype":"일반휴게음식 - 주점","category":"restaurant"},{"name":"카라","tel":"031-398-4002","addr":"경기도 군포시 산본동 1143-3번지 신산본빌딩 205호","indutype":"일반휴게음식 - 주점","category":"restaurant"},{"name":"카페(cafe)21","tel":"031-395-2121","addr":"경기도 군포시 산본동 1143-3번지 신산본빌딩 B1층 2호","indutype":"일반휴게음식 - 서양음식","category":"restaurant"},{"name":"풍성곱창","tel":"031-395-9792","addr":"경기도 군포시 산본동 1143-3번지 신산본빌딩 109호","indutype":"일반휴게음식 - 일반한식","category":"restaurant"},{"name":"화수분","tel":"031-396-3766","addr":"경기도 군포시 산본동 1143-3번지 신산본빌딩 1층 108호","indutype":"일반휴게음식 - 일반한식","category":"restaurant"}]},{"lat":"37.371165189","long":"126.93411803","imageIndex":4,"items":[{"name":"24시전주명가콩나물국밥 산본점","tel":"031-393-8959","addr":"경기도 군포시 산본동 1061-2번지 성원빌딩 1층 101호","indutype":"일반휴게음식 - 일반한식","category":"restaurant"},{"name":"24시전주명가콩나물국밥 산본점","tel":"031-393-8959","addr":"경기도 군포시 산본동 1061-2번지 성원빌딩 1층 일부호","indutype":"일반휴게음식 - 일반한식","category":"restaurant"},{"name":"KFC군포산본점","tel":"031-391-8573","addr":"경기도 군포시 산본동 1061-2번지 성원빌딩","indutype":"일반휴게음식 - 서양음식","category":"restaurant"},{"name":"스시노백쉐프 군포산본점","tel":"031-396-5802","addr":"경기도 군포시 산본동 1061-2번지 성원빌딩 2층 201호","indutype":"일반휴게음식 - 일반한식","category":"restaurant"}]},{"lat":"37.35983767","long":"126.93112583","imageIndex":4,"items":[{"name":"30센치옛날수제왕돈가스","tel":"031-397-6120","addr":"경기도 군포시 산본동 1136-1번지 청송프라자 303호","indutype":"일반휴게음식 - 스넥","category":"restaurant"},{"name":"가마로강정","tel":"031-393-8292","addr":"경기도 군포시 산본동 1136-1번지 청송프라자 106호","indutype":"일반휴게음식 - 스넥","category":"restaurant"},{"name":"강씨네칠복닭강정","tel":"031-392-9969","addr":"경기도 군포시 산본동 1136-1번지 청송프라자 103호","indutype":"일반휴게음식 - 일반한식","category":"restaurant"},{"name":"놀숲산본점","tel":"031-394-3340","addr":"경기도 군포시 산본동 1136-1번지 청송프라자 304 306","indutype":"일반휴게음식 - 서양음식","category":"restaurant"},{"name":"닭면","tel":"031-398-4279","addr":"경기도 군포시 산본동 1136-1번지 청송프라자 201,202호","indutype":"일반휴게음식 - 일반한식","category":"restaurant"},{"name":"더식당 화덕피자앤직화구이","tel":"070-4139-9588","addr":"경기도 군포시 산본동 1136-1번지 청송프라자 203호","indutype":"일반휴게음식 - 서양음식","category":"restaurant"},{"name":"딘딘향 산본점","tel":"031-344-8988","addr":"경기도 군포시 산본동 1136-1번지 청송프라자 2층 206호","indutype":"일반휴게음식 - 중국식","category":"restaurant"},{"name":"르헤브01케이크","tel":"031-399-2627","addr":"경기도 군포시 산본동 1136-1번지 청송프라자 205호","indutype":"일반휴게음식 - 서양음식","category":"restaurant"},{"name":"머글커피","tel":"031-396-9948","addr":"경기도 군포시 산본동 1136-1번지 청송프라자 204호","indutype":"일반휴게음식 - 서양음식","category":"restaurant"},{"name":"우마이스시","tel":"031-392-3399","addr":"경기도 군포시 산본동 1136-1번지 청송프라자 1층 109호","indutype":"일반휴게음식 - 일반한식","category":"restaurant"},{"name":"원바(ONEBar)","tel":"031-111-1111","addr":"경기도 군포시 산본동 1136-1번지 청송프라자 601호","indutype":"일반휴게음식 - 주점","category":"restaurant"},{"name":"유한회사 에스피 산본지점","tel":"031-396-7501","addr":"경기도 군포시 산본동 1136-1, 청송빌딩 101,102,103호","indutype":"일반휴게음식 - 스넥","category":"restaurant"},{"name":"이쯔모","tel":"031-393-2346","addr":"경기도 군포시 산본동 1136-1번지 청송프라자 5층 503호","indutype":"일반휴게음식 - 일식·회집","category":"restaurant"},{"name":"차얌 (산본점)","tel":"","addr":"경기도 군포시 산본동 1136-1번지 청송프라자 1층 111호","indutype":"일반휴게음식 - 서양음식","category":"restaurant"},{"name":"춘천골닭갈비","tel":"031-398-4279","addr":"경기도 군포시 산본동 1136-1번지 청송프라자 201호,202호","indutype":"일반휴게음식 - 일반한식","category":"restaurant"},{"name":"틈새라면","tel":"031-398-5020","addr":"경기도 군포시 산본동 1136-1번지 청송빌딩 110호","indutype":"일반휴게음식 - 일반한식","category":"restaurant"}]},{"lat":"37.373609977","long":"126.93956877","imageIndex":4,"items":[{"name":"365푸드","tel":"031-397-0222","addr":"경기도 군포시 산본동 78-15번지","indutype":"일반휴게음식 - 일반한식","category":"restaurant"}]},{"lat":"37.368698659","long":"126.93809403","imageIndex":4,"items":[{"name":"369김밥","tel":"031-391-9703","addr":"경기도 군포시 산본동 224-22번지","indutype":"일반휴게음식 - 스넥","category":"restaurant"}]},{"lat":"37.367888036","long":"126.9386253","imageIndex":4,"items":[{"name":"59쌀피자","tel":"031-391-5933","addr":"경기도 군포시 산본동 225-9번지","indutype":"일반휴게음식 - 서양음식","category":"restaurant"},{"name":"카페인중독 군포점","tel":"","addr":"경기도 군포시 산본동 225-9번지 1층","indutype":"일반휴게음식 - 서양음식","category":"restaurant"}]},{"lat":"37.371223534","long":"126.94193027","imageIndex":4,"items":[{"name":"6.회전","tel":"031-396-7211","addr":"경기도 군포시 산본동 265-15번지","indutype":"일반휴게음식 - 일반한식","category":"restaurant"},{"name":"신선풍천장어","tel":"031-391-1092","addr":"경기도 군포시 산본동 265-15번지","indutype":"일반휴게음식 - 일반한식","category":"restaurant"}]},{"lat":"37.373918376","long":"126.94353124","imageIndex":4,"items":[{"name":"97도씨","tel":"070-4808-0518","addr":"경기도 군포시 산본동 1026-10번지 금정삼성쉐르빌 1층 129호","indutype":"일반휴게음식 - 서양음식","category":"restaurant"},{"name":"군산오징어 리틀 금정역점","tel":"031-455-5333","addr":"경기도 군포시 산본동 1026-10번지 금정삼성쉐르빌 1층 145호","indutype":"일반휴게음식 - 일반한식","category":"restaurant"},{"name":"남노갈비(금정역점)","tel":"031-452-6958","addr":"경기도 군포시 산본동 1026-10번지 금정삼성쉐르빌 135호","indutype":"일반휴게음식 - 일반한식","category":"restaurant"},{"name":"누나 (nuna)","tel":"031-427-1852","addr":"경기도 군포시 산본동 1026-10번지 금정삼성쉐르빌 134호","indutype":"일반휴게음식 - 주점","category":"restaurant"},{"name":"더빈마켓(TheBeanmarket)","tel":"031-427-4006","addr":"경기도 군포시 산본동 1026-10번지 금정삼성쉐르빌 1층 104호","indutype":"일반휴게음식 - 서양음식","category":"restaurant"},{"name":"모리화","tel":"031-111-1111","addr":"경기도 군포시 산본동 1026-10번지 금정삼성쉐르빌 1층 105호","indutype":"일반휴게음식 - 중국식","category":"restaurant"},{"name":"무교동 낙지마을","tel":"031-427-8484","addr":"경기도 군포시 산본동 1026-10번지 금정삼성쉐르빌 120,123호","indutype":"일반휴게음식 - 일반한식","category":"restaurant"},{"name":"보석이네","tel":"031-448-2888","addr":"경기도 군포시 산본동 1026-10번지 금정삼성쉐르빌 125호","indutype":"일반휴게음식 - 일반한식","category":"restaurant"},{"name":"블랙차이나","tel":"031-429-7681","addr":"경기도 군포시 산본동 1026-10번지 101,102호","indutype":"일반휴게음식 - 중국식","category":"restaurant"},{"name":"비비큐(BBQ)참숯바베큐","tel":"031-459-8292","addr":"경기도 군포시 산본동 1026-10번지 금정삼성쉐르빌 1층 108호","indutype":"일반휴게음식 - 스넥","category":"restaurant"},{"name":"비어케이셀프바","tel":"070-8845-2917","addr":"경기도 군포시 산본동 1026-10번지 금정삼성쉐르빌 2층 210호","indutype":"일반휴게음식 - 일반한식","category":"restaurant"},{"name":"새벽집","tel":"031-347-8183","addr":"경기도 군포시 산본동 1026-10번지 금정삼성쉐르빌 126호","indutype":"일반휴게음식 - 일반한식","category":"restaurant"},{"name":"세미(SEME)","tel":"070-0000-0000","addr":"경기도 군포시 산본동 1026-10번지 금정삼성쉐르빌 126,127 호","indutype":"일반휴게음식 - 일반한식","category":"restaurant"},{"name":"셀렉토커피 금정역점","tel":"031-388-1110","addr":"경기도 군포시 산본동 1026-10번지 금정삼성쉐르빌 142호","indutype":"일반휴게음식 - 서양음식","category":"restaurant"},{"name":"소갈비살과 샤브구이정","tel":"070-8184-7566","addr":"경기도 군포시 산본동 1026-10번지 금정삼성쉐르빌 제1층 118 ,121호","indutype":"일반휴게음식 - 일반한식","category":"restaurant"},{"name":"수작","tel":"031-429-7063","addr":"경기도 군포시 산본동 1026-10번지 금정삼성쉐르빌119,120,123","indutype":"일반휴게음식 - 주점","category":"restaurant"},{"name":"애솔촌돼지","tel":"031-454-8585","addr":"경기도 군포시 산본동 1026-10번지 금정삼성쉐르빌 146호","indutype":"일반휴게음식 - 일반한식","category":"restaurant"},{"name":"양신","tel":"031-458-8585","addr":"경기도 군포시 산본동 1026-10번지 금정삼성쉐르빌 136호","indutype":"일반휴게음식 - 일반한식","category":"restaurant"},{"name":"열정포차","tel":"031-427-2792","addr":"경기도 군포시 산본동 1026-10번지 금정삼성쉐르빌 1층 109호","indutype":"일반휴게음식 - 주점","category":"restaurant"},{"name":"이자카야단잔","tel":"031-481-9520","addr":"경기도 군포시 산본동 1026-10번지 금정삼성쉐르빌 1층 119호","indutype":"일반휴게음식 - 주점","category":"restaurant"},{"name":"참별난참치","tel":"031-455-0266","addr":"경기도 군포시 산본동 1026-10번지 금정삼성쉐르빌 107호","indutype":"일반휴게음식 - 일반한식","category":"restaurant"},{"name":"칭따오양꼬치","tel":"070-4203-5288","addr":"경기도 군포시 산본동 1026-10번지 금정삼성쉐르빌 1층 147호","indutype":"일반휴게음식 - 중국식","category":"restaurant"},{"name":"카페앤펍","tel":"031-427-7797","addr":"경기도 군포시 산본동 1026-10번지 금정삼성쉐르빌 109호","indutype":"일반휴게음식 - 서양음식","category":"restaurant"},{"name":"통큰무한삼겹금정역점","tel":"031-387-1030","addr":"경기도 군포시 산본동 1026-10번지 금정삼성쉐르빌 1층 105호","indutype":"일반휴게음식 - 일반한식","category":"restaurant"},{"name":"투썸플레이스 금정역점","tel":"031-427-2308","addr":"경기도 군포시 산본동 1026-10번지 149,150호","indutype":"일반휴게음식 - 서양음식","category":"restaurant"},{"name":"행복한숯불돌쇠구이","tel":"031-453-9293","addr":"경기도 군포시 산본동 1026-10번지 금정삼성쉐르빌상가143,144","indutype":"일반휴게음식 - 일반한식","category":"restaurant"}]},{"lat":"37.360171778","long":"126.93234459","imageIndex":4,"items":[{"name":"BAR125","tel":"031-342-1255","addr":"경기도 군포시 산본동 1131-1번지 미성빌딩 3층 303호","indutype":"일반휴게음식 - 주점","category":"restaurant"},{"name":"고양이를부탁해","tel":"070-4045-0108","addr":"경기도 군포시 산본동 1131-1번지 미성빌딩 603호","indutype":"일반휴게음식 - 서양음식","category":"restaurant"},{"name":"공덕왕족발과전","tel":"031-394-7071","addr":"경기도 군포시 산본동 1131-1번지 미성빌딩 102호","indutype":"일반휴게음식 - 일반한식","category":"restaurant"},{"name":"더참맛 수육국밥 앤 족발","tel":"031-399-7071","addr":"경기도 군포시 산본동 1131-1번지 미성빌딩 1층 102호","indutype":"일반휴게음식 - 일반한식","category":"restaurant"},{"name":"마시짱","tel":"031-396-5535","addr":"경기도 군포시 산본동 1131-1번지 미성빌딩 103호","indutype":"일반휴게음식 - 스넥","category":"restaurant"},{"name":"맥쓰 (MEXX)세계치킨 산본점","tel":"031-399-8808","addr":"경기도 군포시 산본동 1131-1번지 미성빌딩 지층 B101호 ,B102,B103호","indutype":"일반휴게음식 - 주점","category":"restaurant"},{"name":"미스터복국","tel":"031-393-4687","addr":"경기도 군포시 산본동 1131-1번지 미성빌딩 203,204호","indutype":"일반휴게음식 - 일반한식","category":"restaurant"},{"name":"송탄부대찌개산본","tel":"031-393-0126","addr":"경기도 군포시 산본동 1131-1번지 미성빌딩 204호","indutype":"일반휴게음식 - 일반한식","category":"restaurant"},{"name":"언타이카페","tel":"031-396-8686","addr":"경기도 군포시 산본동 1131-1번지 201,202호","indutype":"일반휴게음식 - 서양음식","category":"restaurant"},{"name":"이삭토스트산본점","tel":"031-735-5791","addr":"경기도 군포시 산본동 1131-1번지 미성빌딩 103호","indutype":"일반휴게음식 - 스넥","category":"restaurant"},{"name":"탕반","tel":"070-2714-2456","addr":"경기도 군포시 산본동 1131-1번지 미성빌딩 201동 202호","indutype":"일반휴게음식 - 일반한식","category":"restaurant"},{"name":"핸즈카페(HANDS CAFE)","tel":"031-396-8114","addr":"경기도 군포시 산본동 1131-1번지 미성빌딩 304호","indutype":"일반휴게음식 - 서양음식","category":"restaurant"}]},{"lat":"37.371503074","long":"126.94237033","imageIndex":4,"items":[{"name":"BHC 군포금정역점","tel":"031-395-9999","addr":"경기도 군포시 산본동 265-11번지 2층","indutype":"일반휴게음식 - 주점","category":"restaurant"},{"name":"BHC군포금정역점","tel":"031-395-9999","addr":"경기도 군포시 산본동 265-11번지 2층","indutype":"일반휴게음식 - 주점","category":"restaurant"},{"name":"독도참치","tel":"031-395-1400","addr":"경기도 군포시 산본동 265-11번지","indutype":"일반휴게음식 - 일식·회집","category":"restaurant"}]},{"lat":"37.364306209","long":"126.93032009","imageIndex":4,"items":[{"name":"BKR버거킹산본점","tel":"031-395-0332","addr":"경기도 군포시 산본동 1097번지 101호 진달래각","indutype":"일반휴게음식 - 서양음식","category":"restaurant"},{"name":"김밥천국","tel":"031-399-1194","addr":"경기도 군포시 산본동 1097번지 진달래각 103호","indutype":"일반휴게음식 - 스넥","category":"restaurant"},{"name":"미소야","tel":"031-394-4550","addr":"경기도 군포시 산본동 1097번지 진달래각 102호","indutype":"일반휴게음식 - 일반한식","category":"restaurant"},{"name":"이바돔감자탕(산본점)","tel":"031-398-8877","addr":"경기도 군포시 산본동 1097번지 2층","indutype":"일반휴게음식 - 일반한식","category":"restaurant"}]},{"lat":"37.364666427","long":"126.93001496","imageIndex":4,"items":[{"name":"CAFE TOWB(카페토브)","tel":"031-397-1693","addr":"경기도 군포시 산본동 1099-4 대림타운109호,110호","indutype":"일반휴게음식 - 서양음식","category":"restaurant"},{"name":"메콩타이산본점","tel":"031-399-1666","addr":"경기도 군포시 산본동 1099-4번지 대림타운 201,202호","indutype":"일반휴게음식 - 서양음식","category":"restaurant"},{"name":"이디야 산본학원가점","tel":"031-399-7779","addr":"경기도 군포시 산본동 1099-4번지","indutype":"일반휴게음식 - 서양음식","category":"restaurant"}]},{"lat":"37.373636113","long":"126.93792043","imageIndex":4,"items":[{"name":"CF바베큐치킨","tel":"031-395-9200","addr":"경기도 군포시 산본동 73-32번지 1층","indutype":"일반휴게음식 - 스넥","category":"restaurant"}]},{"lat":"37.370664485","long":"126.94111788","imageIndex":4,"items":[{"name":"PlayGround:놀이터","tel":"031-477-3505","addr":"경기도 군포시 산본동 238-11번지 1층","indutype":"일반휴게음식 - 주점","category":"restaurant"},{"name":"꼬지사께","tel":"031-393-8957","addr":"경기도 군포시 산본동 238-11번지","indutype":"일반휴게음식 - 주점","category":"restaurant"}]},{"lat":"37.370142643","long":"126.94256334","imageIndex":4,"items":[{"name":"가르텐비어(금정점)","tel":"031-391-4408","addr":"경기도 군포시 산본동 246번지 1층","indutype":"일반휴게음식 - 주점","category":"restaurant"}]},{"lat":"37.369942358","long":"126.93864613","imageIndex":4,"items":[{"name":"가마치통닭","tel":"031-393-9500","addr":"경기도 군포시 산본동 222-5번지 1층","indutype":"일반휴게음식 - 스넥","category":"restaurant"},{"name":"계추옛날통닭","tel":"031-393-9500","addr":"경기도 군포시 산본동 222-5번지","indutype":"일반휴게음식 - 스넥","category":"restaurant"}]},{"lat":"37.370367139","long":"126.94109555","imageIndex":4,"items":[{"name":"가야성","tel":"031-397-3663","addr":"경기도 군포시 산본동 239-6번지 1층","indutype":"일반휴게음식 - 중국식","category":"restaurant"}]},{"lat":"37.359171633","long":"126.93231166","imageIndex":4,"items":[{"name":"가이아","tel":"031-398-0909","addr":"경기도 군포시 산본동 1134-2번지 신명빌딩 4층 401호","indutype":"일반휴게음식 - 주점","category":"restaurant"},{"name":"담소사골순대 산본점","tel":"031-394-1821","addr":"경기도 군포시 산본동 1134-2번지 신명타워","indutype":"일반휴게음식 - 일반한식","category":"restaurant"},{"name":"대한민국 넘버원 피씨방 (No1 PC방)","tel":"070-2245-1677","addr":"경기도 군포시 산본동 1134-2번지 신명타워 5001호","indutype":"일반휴게음식 - 일반한식","category":"restaurant"},{"name":"듬박이","tel":"031-394-5012","addr":"경기도 군포시 산본동 1134-2번지 신명타워 지하 1004호","indutype":"일반휴게음식 - 일반한식","category":"restaurant"},{"name":"샘(SAM)","tel":"031-394-3378","addr":"경기도 군포시 산본동 1134-2번지 신명타워 4층 4002호","indutype":"일반휴게음식 - 주점","category":"restaurant"},{"name":"아울(owl)","tel":"031-399-3997","addr":"경기도 군포시 산본동 1134-2번지 신명타워 4003호","indutype":"일반휴게음식 - 일반한식","category":"restaurant"},{"name":"자갈치 숯불 꼼장어","tel":"031-397-1253","addr":"경기도 군포시 산본동 1134-2번지 3005호, 3006호","indutype":"일반휴게음식 - 서양음식","category":"restaurant"},{"name":"짬뽕타운(산본점)","tel":"031-396-0410","addr":"경기도 군포시 산본동 1134-2번지 신명타워 2층 2001호","indutype":"일반휴게음식 - 중국식","category":"restaurant"},{"name":"카페런던","tel":"031-399-9091","addr":"경기도 군포시 산본동 1134-2번지 신명빌딩 7층 7004호","indutype":"일반휴게음식 - 서양음식","category":"restaurant"},{"name":"카페베네 산본역점","tel":"031-399-8201","addr":"경기도 군포시 산본동 1134-2번지 신명빌딩 1008호,1009호,2006호","indutype":"일반휴게음식 - 서양음식","category":"restaurant"},{"name":"테라스","tel":"031-394-7333","addr":"경기도 군포시 산본동 1134-2번지 2층 (2002-2003호)","indutype":"일반휴게음식 - 서양음식","category":"restaurant"},{"name":"토마토","tel":"031-391-1811","addr":"경기도 군포시 산본동 1134-2번지 신명타워 2005호","indutype":"일반휴게음식 - 주점","category":"restaurant"},{"name":"흥성양꼬치","tel":"031-392-1340","addr":"경기도 군포시 산본동 1134-2번지","indutype":"일반휴게음식 - 일반한식","category":"restaurant"}]},{"lat":"37.372393948","long":"126.94020201","imageIndex":4,"items":[{"name":"가주우육면","tel":"031-399-8200","addr":"경기도 군포시 산본동 94-30번지 1층","indutype":"일반휴게음식 - 일반한식","category":"restaurant"},{"name":"길림음식점","tel":"031-393-7758","addr":"경기도 군포시 산본동 94-30번지 101호","indutype":"일반휴게음식 - 일반한식","category":"restaurant"},{"name":"밀짚모자","tel":"031-394-9883","addr":"경기도 군포시 산본동 94-30번지 1층","indutype":"일반휴게음식 - 주점","category":"restaurant"}]},{"lat":"37.369636476","long":"126.93950437","imageIndex":4,"items":[{"name":"가희","tel":"031-393-0356","addr":"경기도 군포시 산본동 236-17번지 1층","indutype":"일반휴게음식 - 주점","category":"restaurant"}]},{"lat":"37.370890287","long":"126.9421789","imageIndex":4,"items":[{"name":"간절곶수산","tel":"031-391-9991","addr":"경기도 군포시 산본동 259-15번지","indutype":"일반휴게음식 - 일식·회집","category":"restaurant"}]},{"lat":"37.365170736","long":"126.92959679","imageIndex":4,"items":[{"name":"감탄산본3호점","tel":"031-399-5889","addr":"경기도 군포시 산본동 1099-2번지 대림프라자 104호","indutype":"일반휴게음식 - 스넥","category":"restaurant"},{"name":"김밥천국","tel":"031-398-2004","addr":"경기도 군포시 산본동 1099-2,3대림프라자107","indutype":"일반휴게음식 - 일반한식","category":"restaurant"},{"name":"대박왕만두","tel":"031-399-1593","addr":"경기도 군포시 산본동 1099-2번지 대림프라자 1층 106호","indutype":"일반휴게음식 - 일반한식","category":"restaurant"},{"name":"본죽(산본제일병원점)","tel":"031-394-6388","addr":"경기도 군포시 산본동 1099-2번지 대림프라자 1층 105호","indutype":"일반휴게음식 - 일반한식","category":"restaurant"},{"name":"쥬씨 예술회관점","tel":"","addr":"경기도 군포시 산본동 1099-2번지 대림프라자 1층 107호","indutype":"일반휴게음식 - 서양음식","category":"restaurant"},{"name":"커반 (산본학원가점)","tel":"031-425-2040","addr":"경기도 군포시 산본동 1099-2번지 대림프라자 110호","indutype":"일반휴게음식 - 서양음식","category":"restaurant"},{"name":"풍천맥반석민물장어","tel":"031-391-0592","addr":"경기도 군포시 산본동 1099-2번지 대림프라자 101호","indutype":"일반휴게음식 - 일반한식","category":"restaurant"}]},{"lat":"37.371332066","long":"126.94273173","imageIndex":4,"items":[{"name":"갓포야끼","tel":"031-393-1829","addr":"경기도 군포시 산본동 266-14번지","indutype":"일반휴게음식 - 주점","category":"restaurant"},{"name":"넘버텐","tel":"031-391-8848","addr":"경기도 군포시 산본동 266-14번지 2층","indutype":"일반휴게음식 - 주점","category":"restaurant"}]},{"lat":"37.359255406","long":"126.92240103","imageIndex":4,"items":[{"name":"강남동태찜,탕전문점","tel":"031-395-8283","addr":"경기도 군포시 산본동 1151번지 GS휘트니스클럽빌딩 109호","indutype":"일반휴게음식 - 일반한식","category":"restaurant"},{"name":"누룩나무","tel":"031-391-0070","addr":"경기도 군포시 산본동 1151번지 GS휘트니스클럽빌딩 1층 105호","indutype":"일반휴게음식 - 주점","category":"restaurant"},{"name":"백가네 정육식당","tel":"031-393-6655","addr":"경기도 군포시 산본동 1151번지 109호 GS휘트니스","indutype":"일반휴게음식 - 일반한식","category":"restaurant"},{"name":"본향칼국수","tel":"031-398-9794","addr":"경기도 군포시 산본동 1151번지 그린스포츠센터 104호","indutype":"일반휴게음식 - 일반한식","category":"restaurant"},{"name":"수르씨엘","tel":"031-391-3212","addr":"경기도 군포시 산본동 1151번지 GS휘트니스클럽빌딩 102호","indutype":"일반휴게음식 - 서양음식","category":"restaurant"},{"name":"쉐프돈까스","tel":"031-396-7111","addr":"경기도 군포시 산본동 1151번지 GS휘트니스클럽빌딩 108호","indutype":"일반휴게음식 - 서양음식","category":"restaurant"},{"name":"이명옥시골손두부","tel":"031-399-7925","addr":"경기도 군포시 산본동 1151번지 GS휘트니스클럽빌딩 101호","indutype":"일반휴게음식 - 일반한식","category":"restaurant"},{"name":"지카페","tel":"031-399-3135","addr":"경기도 군포시 산본동 1151번지 GS휘트니스클럽빌딩 2층 202호","indutype":"일반휴게음식 - 서양음식","category":"restaurant"}]},{"lat":"37.368221576","long":"126.93892982","imageIndex":4,"items":[{"name":"강릉김밥","tel":"031-396-7257","addr":"경기도 군포시 산본동 229-1번지","indutype":"일반휴게음식 - 스넥","category":"restaurant"}]},{"lat":"37.369699608","long":"126.93961721","imageIndex":4,"items":[{"name":"강화밴댕이","tel":"031-391-0766","addr":"경기도 군포시 산본동 236-16번지 1층","indutype":"일반휴게음식 - 일반한식","category":"restaurant"},{"name":"강화밴댕이","tel":"031-391-1130","addr":"경기도 군포시 산본동 236-16번지","indutype":"일반휴게음식 - 일반한식","category":"restaurant"},{"name":"대박포차","tel":"031-345-4310","addr":"경기도 군포시 산본동 236-16번지 1층","indutype":"일반휴게음식 - 주점","category":"restaurant"}]},{"lat":"37.359144237","long":"126.93170215","imageIndex":4,"items":[{"name":"갯바위","tel":"031-396-3356","addr":"경기도 군포시 산본동 1135-1번지 롯데프라자 113호","indutype":"일반휴게음식 - 일반한식","category":"restaurant"},{"name":"라이브짚시","tel":"031-397-7100","addr":"경기도 군포시 산본동 1135-1번지 롯데프라자 지층 3호","indutype":"일반휴게음식 - 주점","category":"restaurant"},{"name":"블루","tel":"031-397-5813","addr":"경기도 군포시 산본동 1135-1번지 롯데프라자 4층 406호","indutype":"일반휴게음식 - 주점","category":"restaurant"},{"name":"소담촌(산본점)","tel":"031-399-8388","addr":"경기도 군포시 산본동 1135-1번지 롯데프라자 5층","indutype":"일반휴게음식 - 일반한식","category":"restaurant"},{"name":"소문난김밥","tel":"031-395-7887","addr":"경기도 군포시 산본동 1135-1번지 롯데프라자 1층 105호","indutype":"일반휴게음식 - 스넥","category":"restaurant"},{"name":"연탄사랑","tel":"031-398-7820","addr":"경기도 군포시 산본동 1135-1번지 롯데프라자 108호","indutype":"일반휴게음식 - 일반한식","category":"restaurant"},{"name":"전과육회점","tel":"02-805-0369","addr":"경기도 군포시 산본동 1135-1번지 롯데프라자 110호","indutype":"일반휴게음식 - 일반한식","category":"restaurant"},{"name":"참치나라","tel":"031-397-8051","addr":"경기도 군포시 산본동 1135-1번지 롯데프라자 111호","indutype":"일반휴게음식 - 일식·회집","category":"restaurant"},{"name":"통 소문난김밥","tel":"031-395-7887","addr":"경기도 군포시 산본동 1135-1번지 롯데프라자 1층","indutype":"일반휴게음식 - 일반한식","category":"restaurant"}]},{"lat":"37.370754645","long":"126.9412307","imageIndex":4,"items":[{"name":"갯바위꼼장어세꼬시","tel":"031-393-3489","addr":"경기도 군포시 산본동 238-10번지 광정빌딩 2층","indutype":"일반휴게음식 - 일반한식","category":"restaurant"}]},{"lat":"37.359946639","long":"126.93253669","imageIndex":4,"items":[{"name":"거부기식당","tel":"031-391-3337","addr":"경기도 군포시 산본동 1130번지 군포프라자 2층 203호","indutype":"일반휴게음식 - 일반한식","category":"restaurant"},{"name":"남도아구찜/주식회사 남도푸드","tel":"031-395-9872","addr":"경기도 군포시 산본동 1130번지 군포프라자 201호","indutype":"일반휴게음식 - 일반한식","category":"restaurant"},{"name":"메가엠지씨커피산본역점","tel":"070-1111-1111","addr":"경기도 군포시 산본동 1130번지 군포프라자 1층 103호","indutype":"일반휴게음식 - 서양음식","category":"restaurant"},{"name":"신의주찹쌀순대산본점","tel":"031-393-9388","addr":"경기도 군포시 산본동 1130번지 군포프라자 101호 ,102,107호","indutype":"일반휴게음식 - 일반한식","category":"restaurant"},{"name":"엘가커피","tel":"031-399-0370","addr":"경기도 군포시 산본동 1130번지 군포프라자 202호","indutype":"일반휴게음식 - 서양음식","category":"restaurant"},{"name":"파스타부오노(산본점)","tel":"031-395-1127","addr":"경기도 군포시 산본동 1130번지 군포프라자 1층 105,106,108호","indutype":"일반휴게음식 - 서양음식","category":"restaurant"}]},{"lat":"37.369059353","long":"126.93862431","imageIndex":4,"items":[{"name":"경성각","tel":"031-396-6868","addr":"경기도 군포시 산본동 224-17번지 1층","indutype":"일반휴게음식 - 중국식","category":"restaurant"}]},{"lat":"37.359667258","long":"126.93242407","imageIndex":4,"items":[{"name":"경성양꼬치","tel":"031-392-0040","addr":"경기도 군포시 산본동 1130-2번지 1층 6,7호","indutype":"일반휴게음식 - 일반한식","category":"restaurant"},{"name":"그려보다","tel":"031-391-1113","addr":"경기도 군포시 산본동 1130-2번지 3층1호,4호","indutype":"일반휴게음식 - 일반한식","category":"restaurant"},{"name":"돈통마늘보쌈","tel":"031-396-5382","addr":"경기도 군포시 산본동 1130-2번지 정완빌딩 101호,102호","indutype":"일반휴게음식 - 일반한식","category":"restaurant"},{"name":"배부장찌개","tel":"031-398-9969","addr":"경기도 군포시 산본동 1130-2번지 정완프라자 103,104호","indutype":"일반휴게음식 - 일반한식","category":"restaurant"},{"name":"브로(Bro)","tel":"031-393-6988","addr":"경기도 군포시 산본동 1130-2번지 정완빌딩 203호","indutype":"일반휴게음식 - 주점","category":"restaurant"},{"name":"손가네장충한방족발","tel":"031-398-5777","addr":"경기도 군포시 산본동 1130-2번지 정완프라자 1층 5호","indutype":"일반휴게음식 - 일반한식","category":"restaurant"},{"name":"시장을여는사람들","tel":"031-391-1110","addr":"경기도 군포시 산본동 1130-2번지 정완빌딩 2층 1,4호","indutype":"일반휴게음식 - 일반한식","category":"restaurant"},{"name":"중앙숯불닭발꼼장어","tel":"031-393-3220","addr":"경기도 군포시 산본동 1130-2번지 정완빌딩 2층 2호","indutype":"일반휴게음식 - 일반한식","category":"restaurant"},{"name":"화덕육선생","tel":"031-391-7767","addr":"경기도 군포시 산본동 1130-2번지 정완빌딩 3층 302호,303호","indutype":"일반휴게음식 - 일반한식","category":"restaurant"}]},{"lat":"37.36002678","long":"126.93095633","imageIndex":4,"items":[{"name":"경성함바그","tel":"031-392-9150","addr":"경기도 군포시 산본동 1136번지 한솔프라자 201호","indutype":"일반휴게음식 - 서양음식","category":"restaurant"},{"name":"고봉민김밥인","tel":"031-348-3477","addr":"경기도 군포시 산본동 1136번지 한솔프라자 106호","indutype":"일반휴게음식 - 일반한식","category":"restaurant"},{"name":"긴자인도레스토랑주식회사","tel":"031-392-2203","addr":"경기도 군포시 산본동 1136번지 한솔프라자 401동 402호","indutype":"일반휴게음식 - 서양음식","category":"restaurant"},{"name":"닭탕에숯불닭","tel":"031-395-3635","addr":"경기도 군포시 산본동 1136번지 한솔프라자 3층 302호","indutype":"일반휴게음식 - 일반한식","category":"restaurant"},{"name":"메인보드","tel":"031-394-8889","addr":"경기도 군포시 산본동 1136번지 한솔프라자 306호","indutype":"일반휴게음식 - 서양음식","category":"restaurant"},{"name":"명랑시대쌀핫도그산본점","tel":"031-393-1988","addr":"경기도 군포시 산본동 1136번지 한솔프라자 1층 108호","indutype":"일반휴게음식 - 스넥","category":"restaurant"},{"name":"수리산추어탕","tel":"031-399-1788","addr":"경기도 군포시 산본동 1136번지 한솔프라자 2층 207호","indutype":"일반휴게음식 - 일반한식","category":"restaurant"},{"name":"역전우동0410 산본역점","tel":"031-397-0410","addr":"경기도 군포시 산본동 1136번지 한솔프라자 105,109,110호","indutype":"일반휴게음식 - 일반한식","category":"restaurant"},{"name":"죠스떡볶이 산본점","tel":"031-391-0135","addr":"경기도 군포시 산본동 1136번지 한솔프라자 107호","indutype":"일반휴게음식 - 스넥","category":"restaurant"},{"name":"춤추는왕만두","tel":"031-382-4434","addr":"경기도 군포시 산본동 1136번지 한솔프라자 1층 101,102호","indutype":"일반휴게음식 - 일반한식","category":"restaurant"}]},{"lat":"37.359450131","long":"126.93095688","imageIndex":4,"items":[{"name":"고기랑해산물안서방구이","tel":"031-452-9911","addr":"경기도 군포시 산본동 1138-1번지 202 거성3차빌딩제2층","indutype":"일반휴게음식 - 일반한식","category":"restaurant"},{"name":"오사카부루스 산본점","tel":"031-395-1999","addr":"경기도 군포시 산본동 1138-1번지 3층 301호-303호","indutype":"일반휴게음식 - 주점","category":"restaurant"},{"name":"유가네","tel":"031-398-9992","addr":"경기도 군포시 산본동 1138-1번지 거성3차빌딩 201호","indutype":"일반휴게음식 - 일반한식","category":"restaurant"}]},{"lat":"37.370998777","long":"126.94290134","imageIndex":4,"items":[{"name":"고기창고","tel":"","addr":"경기도 군포시 산본동 266-11번지","indutype":"일반휴게음식 - 일반한식","category":"restaurant"}]},{"lat":"37.36009022","long":"126.93156581","imageIndex":4,"items":[{"name":"고기향기","tel":"031-392-1263","addr":"경기도 군포시 산본동 1133-1번지 성보빌딩 105,107,108,110호","indutype":"일반휴게음식 - 일반한식","category":"restaurant"},{"name":"노블호프","tel":"031-393-6322","addr":"경기도 군포시 산본동 1133-1번지","indutype":"일반휴게음식 - 주점","category":"restaurant"},{"name":"라이브재즈","tel":"031-396-1011","addr":"경기도 군포시 산본동 1133-1번지 성보프라자 407호","indutype":"일반휴게음식 - 주점","category":"restaurant"},{"name":"북앤빅뱅산본점","tel":"031-398-0160","addr":"경기도 군포시 산본동 1133-1번지 705~709호, 711호","indutype":"일반휴게음식 - 서양음식","category":"restaurant"},{"name":"스푼더마켓 산본역점","tel":"031-394-8272","addr":"경기도 군포시 산본동 1133-1번지 성보빌딩 6층","indutype":"일반휴게음식 - 일반한식","category":"restaurant"},{"name":"육쌈냉면","tel":"031-393-6392","addr":"경기도 군포시 산본동 1133-1번지 (201호,202호)","indutype":"일반휴게음식 - 일반한식","category":"restaurant"},{"name":"쿠우쿠우산본점","tel":"031-392-3377","addr":"경기도 군포시 산본동 1133-1번지 성보빌딩 8층 801~806호","indutype":"일반휴게음식 - 일식·회집","category":"restaurant"},{"name":"포커몬","tel":"","addr":"경기도 군포시 산본동 1133-1번지 401호,402호","indutype":"일반휴게음식 - 주점","category":"restaurant"},{"name":"하늘장어","tel":"031-391-3339","addr":"경기도 군포시 산본동 1133-1번지 성보빌딩 109호","indutype":"일반휴게음식 - 일반한식","category":"restaurant"}]},{"lat":"37.36542288","long":"126.92937078","imageIndex":4,"items":[{"name":"고두방해장국밥","tel":"031-399-9247","addr":"경기도 군포시 산본동 1099-1번지 태주빌딩 1층 3호","indutype":"일반휴게음식 - 일반한식","category":"restaurant"},{"name":"모퉁이 분식","tel":"031-391-0660","addr":"경기도 군포시 산본동 1099-1번지 태주빌딩 지하B104호","indutype":"일반휴게음식 - 스넥","category":"restaurant"},{"name":"서리서리 막국수&돈까스","tel":"031-399-7914","addr":"경기도 군포시 산본동 1099-1번지 태주빌딩 101호","indutype":"일반휴게음식 - 일반한식","category":"restaurant"},{"name":"스테이크1.5","tel":"031-393-7043","addr":"경기도 군포시 산본동 1099-1번지 태주빌딩 2층 201호","indutype":"일반휴게음식 - 서양음식","category":"restaurant"},{"name":"코다리명가","tel":"031-424-9247","addr":"경기도 군포시 산본동 1099-1번지 태주빌딩 1층","indutype":"일반휴게음식 - 일반한식","category":"restaurant"}]},{"lat":"37.370395025","long":"126.94275506","imageIndex":4,"items":[{"name":"고르목","tel":"031-111-1111","addr":"경기도 군포시 산본동 248-5번지 101호","indutype":"일반휴게음식 - 일식·회집","category":"restaurant"},{"name":"카제","tel":"031-441-7292","addr":"경기도 군포시 산본동 248-5번지 101호","indutype":"일반휴게음식 - 일식·회집","category":"restaurant"}]},{"lat":"37.373891807","long":"126.94445703","imageIndex":4,"items":[{"name":"고릴라","tel":"","addr":"경기도 군포시 산본동 1026-52번지 1층 105호, 106호","indutype":"일반휴게음식 - 일반한식","category":"restaurant"},{"name":"비앤에스푸드","tel":"031-429-2234","addr":"경기도 군포시 산본동 1026-52번지 L&C타워 지하 102호","indutype":"일반휴게음식 - 일반한식","category":"restaurant"},{"name":"비어캐빈","tel":"031-477-8900","addr":"경기도 군포시 산본동 1026-52번지 L&C타워 103동 104호","indutype":"일반휴게음식 - 주점","category":"restaurant"},{"name":"슈퍼커피금정L&C타워점","tel":"070-8970-4011","addr":"경기도 군포시 산본동 1026-52번지 L&C타워 107호","indutype":"일반휴게음식 - 서양음식","category":"restaurant"},{"name":"아라일식","tel":"031-454-5785","addr":"경기도 군포시 산본동 1026-52번지 L&C타워 201호","indutype":"일반휴게음식 - 일식·회집","category":"restaurant"},{"name":"지리산청정흑돼지","tel":"031-427-8849","addr":"경기도 군포시 산본동 1026-52번지 L&G타워 1층 108~110호","indutype":"일반휴게음식 - 일반한식","category":"restaurant"},{"name":"청정흑우촌/주식회사 좋은음식","tel":"031-429-8847","addr":"경기도 군포시 산본동 1026-52번지 L&C타워 111,112,113호","indutype":"일반휴게음식 - 일반한식","category":"restaurant"}]},{"lat":"37.369664071","long":"126.94056553","imageIndex":4,"items":[{"name":"고릴라식당","tel":"070-9201-4441","addr":"경기도 군포시 산본동 235-4번지 1층","indutype":"일반휴게음식 - 서양음식","category":"restaurant"}]},{"lat":"37.369824269","long":"126.93690769","imageIndex":4,"items":[{"name":"고봉민김밥인(군포래미안하이어스점)","tel":"031-396-8000","addr":"경기도 군포시 산본동 1240번지 145동 1105호 래미안항이어스","indutype":"일반휴게음식 - 일반한식","category":"restaurant"},{"name":"심야오뎅","tel":"","addr":"경기도 군포시 산본동 1240번지 래미안하이어스 145동 1층 1104호","indutype":"일반휴게음식 - 주점","category":"restaurant"},{"name":"피자알볼로산본점","tel":"031-392-8495","addr":"경기도 군포시 산본동 1240번지 외6필지래미안하이어스145-1101","indutype":"일반휴게음식 - 서양음식","category":"restaurant"}]},{"lat":"37.358864759","long":"126.93143152","imageIndex":4,"items":[{"name":"고양이란","tel":"031-398-3137","addr":"경기도 군포시 산본동 1140번지 동원프라자 403호","indutype":"일반휴게음식 - 일반한식","category":"restaurant"},{"name":"도깨비양꼬치","tel":"","addr":"경기도 군포시 산본동 1140번지 동원프라자 201호","indutype":"일반휴게음식 - 일반한식","category":"restaurant"},{"name":"명물황소곱창","tel":"031-392-2992","addr":"경기도 군포시 산본동 1140번지 동원프라자 102호","indutype":"일반휴게음식 - 일반한식","category":"restaurant"},{"name":"세븐카페","tel":"031-392-5526","addr":"경기도 군포시 산본동 1140번지 동원프라자 401호","indutype":"일반휴게음식 - 주점","category":"restaurant"},{"name":"술래","tel":"031-391-0503","addr":"경기도 군포시 산본동 1140번지 동원프라자 301호,302호","indutype":"일반휴게음식 - 서양음식","category":"restaurant"},{"name":"스시한판","tel":"031-392-9591","addr":"경기도 군포시 산본동 1140번지 동원프라자 1층 103호","indutype":"일반휴게음식 - 일식·회집","category":"restaurant"},{"name":"존슨식당","tel":"031-391-6372","addr":"경기도 군포시 산본동 1140번지 동원프라자 101호","indutype":"일반휴게음식 - 일반한식","category":"restaurant"},{"name":"키친하나시","tel":"070-1111-1111","addr":"경기도 군포시 산본동 1140번지 동원프라자 104,105호","indutype":"일반휴게음식 - 일반한식","category":"restaurant"},{"name":"타라(TARA)","tel":"031-399-3876","addr":"경기도 군포시 산본동 1140번지 동원프라자 4층 401호","indutype":"일반휴게음식 - 칵테일바","category":"restaurant"}]},{"lat":"37.358089764","long":"126.93122908","imageIndex":4,"items":[{"name":"고요남 산본점","tel":"031-392-6508","addr":"경기도 군포시 산본동 1142-8번지 성원빌딩 102호일부, 103호 일부","indutype":"일반휴게음식 - 일반한식","category":"restaurant"},{"name":"놀부산본역점","tel":"031-399-5382","addr":"경기도 군포시 산본동 1142-8번지 1층","indutype":"일반휴게음식 - 일반한식","category":"restaurant"},{"name":"철판떼기 산본점","tel":"031-1111-1111","addr":"경기도 군포시 산본동 1142-8번지 1층 102호 일부,103호 일부","indutype":"일반휴게음식 - 일반한식","category":"restaurant"},{"name":"철판떼기 산본점/철판떼기주식회사","tel":"070-1111-1111","addr":"경기도 군포시 산본동 1142-8번지 성원빌딩 1층 101호","indutype":"일반휴게음식 - 일반한식","category":"restaurant"},{"name":"투썸플레이스 산본역점","tel":"031-341-5474","addr":"경기도 군포시 산본동 1142-8번지 성원빌딩 1층 101호 일부호","indutype":"일반휴게음식 - 서양음식","category":"restaurant"}]},{"lat":"37.359783334","long":"126.93067437","imageIndex":4,"items":[{"name":"고피자 산본중심가점","tel":"","addr":"경기도 군포시 산본동 1137-1번지 대원프라자빌딩 1층 105호","indutype":"일반휴게음식 - 서양음식","category":"restaurant"},{"name":"뚱보집","tel":"031-391-6781","addr":"경기도 군포시 산본동 1137-1번지 대원프라자빌딩 103호","indutype":"일반휴게음식 - 일반한식","category":"restaurant"},{"name":"매콤돈가스","tel":"031-391-1102","addr":"경기도 군포시 산본동 1137-1번지 대원프라자 104호","indutype":"일반휴게음식 - 일반한식","category":"restaurant"},{"name":"사랑채","tel":"031-399-6868","addr":"경기도 군포시 산본동 1137-1번지 대원프라자빌딩 303,304호","indutype":"일반휴게음식 - 일반한식","category":"restaurant"},{"name":"알딸딸","tel":"031-392-5592","addr":"경기도 군포시 산본동 1137-1번지 대원프라자 101호","indutype":"일반휴게음식 - 주점","category":"restaurant"},{"name":"일키로바베큐","tel":"","addr":"경기도 군포시 산본동 1137-1번지 대원프라자빌딩 2층 201~204호","indutype":"일반휴게음식 - 일반한식","category":"restaurant"},{"name":"일키로바베큐","tel":"031-392-1254","addr":"경기도 군포시 산본동 1137-1번지 대원프라자빌딩 201,202,203,204호","indutype":"일반휴게음식 - 일반한식","category":"restaurant"},{"name":"쭈구리","tel":"031-386-4211","addr":"경기도 군포시 산본동 1137-1번지 대원프라자빌딩 1층 102,106호","indutype":"일반휴게음식 - 일반한식","category":"restaurant"},{"name":"홍대꼬치","tel":"031-397-3307","addr":"경기도 군포시 산본동 1137-1번지 대원프라자빌딩 301, 302호","indutype":"일반휴게음식 - 주점","category":"restaurant"},{"name":"홍짜장","tel":"031-399-2001","addr":"경기도 군포시 산본동 1137-1번지 102호 대원프라자빌딩제1층102호~106호","indutype":"일반휴게음식 - 중국식","category":"restaurant"}]},{"lat":"37.370691908","long":"126.94187425","imageIndex":4,"items":[{"name":"고향닭발","tel":"031-346-1613","addr":"경기도 군포시 산본동 259-18번지 1층","indutype":"일반휴게음식 - 일반한식","category":"restaurant"},{"name":"모토이","tel":"070-8170-8556","addr":"경기도 군포시 산본동 259-18번지 1층","indutype":"일반휴게음식 - 일반한식","category":"restaurant"},{"name":"저잣거리","tel":"031-394-3200","addr":"경기도 군포시 산본동 259-18번지 1층","indutype":"일반휴게음식 - 일반한식","category":"restaurant"},{"name":"찌개마을앵기리","tel":"031-312-7311","addr":"경기도 군포시 산본동 259-18번지","indutype":"일반휴게음식 - 일반한식","category":"restaurant"}]},{"lat":"37.370222609","long":"126.94039573","imageIndex":4,"items":[{"name":"고향보쌈","tel":"031-393-0709","addr":"경기도 군포시 산본동 238-18번지 1층","indutype":"일반휴게음식 - 일반한식","category":"restaurant"},{"name":"꿈의대화","tel":"031-394-0044","addr":"경기도 군포시 산본동 238-18번지 지층","indutype":"일반휴게음식 - 주점","category":"restaurant"}]},{"lat":"37.370836169","long":"126.94206605","imageIndex":4,"items":[{"name":"고향불닭발","tel":"031-396-1613","addr":"경기도 군포시 산본동 259-16번지 에코하우스 1층","indutype":"일반휴게음식 - 일반한식","category":"restaurant"}]},{"lat":"37.370610365","long":"126.94100504","imageIndex":4,"items":[{"name":"고향집","tel":"031-399-9630","addr":"경기도 군포시 산본동 238-12번지 1층","indutype":"일반휴게음식 - 일반한식","category":"restaurant"},{"name":"프라자호프","tel":"031-395-6480","addr":"경기도 군포시 산본동 238-12번지 1층","indutype":"일반휴게음식 - 주점","category":"restaurant"}]},{"lat":"37.371864654","long":"126.92861938","imageIndex":4,"items":[{"name":"고향집","tel":"031-446-0303","addr":"경기도 군포시 산본동 1087-2번지","indutype":"일반휴게음식 - 일반한식","category":"restaurant"},{"name":"다미","tel":"031-392-7799","addr":"경기도 군포시 산본동 1087-2번지 102호","indutype":"일반휴게음식 - 스넥","category":"restaurant"}]},{"lat":"37.358477507","long":"126.93173665","imageIndex":4,"items":[{"name":"고향촌분식","tel":"031-397-3556","addr":"경기도 군포시 산본동 1141-1번지 청진빌딩 107호","indutype":"일반휴게음식 - 일반한식","category":"restaurant"},{"name":"마구로코다와리 스시","tel":"031-393-6986","addr":"경기도 군포시 산본동 1141-1번지 청진빌딩 103,106호","indutype":"일반휴게음식 - 일식·회집","category":"restaurant"},{"name":"병천순대","tel":"031-391-9789","addr":"경기도 군포시 산본동 1141-1청진빌딩101호,102호","indutype":"일반휴게음식 - 일반한식","category":"restaurant"},{"name":"스트릿스테이크(STREE STEAK)","tel":"031-391-1119","addr":"경기도 군포시 산본동 1141-1번지 청진빌딩 5층 3호","indutype":"일반휴게음식 - 서양음식","category":"restaurant"},{"name":"이조숯불갈비","tel":"031-395-2575","addr":"경기도 군포시 산본동 1141-1번지 청진빌딩 201~202호","indutype":"일반휴게음식 - 일반한식","category":"restaurant"},{"name":"커피향","tel":"031-391-0709","addr":"경기도 군포시 산본동 1141-1 청진빌딩3층,4층","indutype":"일반휴게음식 - 서양음식","category":"restaurant"}]},{"lat":"37.370394672","long":"126.94206641","imageIndex":4,"items":[{"name":"고향추어탕","tel":"031-393-4928","addr":"경기도 군포시 산본동 252-15번지 1층","indutype":"일반휴게음식 - 일반한식","category":"restaurant"},{"name":"하람양꼬치","tel":"031-393-5888","addr":"경기도 군포시 산본동 252-15번지 1층","indutype":"일반휴게음식 - 중국식","category":"restaurant"}]},{"lat":"37.371580505","long":"126.93559657","imageIndex":4,"items":[{"name":"곤파스타(GON PASTA)","tel":"031-391-8870","addr":"경기도 군포시 산본동 207-10번지 2층","indutype":"일반휴게음식 - 서양음식","category":"restaurant"},{"name":"오색쌈밥","tel":"031-393-6698","addr":"경기도 군포시 산본동 207-10번지 1층 102호","indutype":"일반휴게음식 - 일반한식","category":"restaurant"},{"name":"이디야커피 산본사거리점","tel":"031-346-5455","addr":"경기도 군포시 산본동 207-10번지","indutype":"일반휴게음식 - 서양음식","category":"restaurant"}]},{"lat":"37.371557262","long":"126.94261865","imageIndex":4,"items":[{"name":"골목집","tel":"","addr":"경기도 군포시 산본동 266-16번지 1층","indutype":"일반휴게음식 - 일반한식","category":"restaurant"},{"name":"용범이네인계동껍데기금정점","tel":"031-000-0000","addr":"경기도 군포시 산본동 266-16번지 1층","indutype":"일반휴게음식 - 일반한식","category":"restaurant"},{"name":"잭팟플레이스","tel":"031-345-5689","addr":"경기도 군포시 산본동 266-16번지 2층","indutype":"일반휴게음식 - 주점","category":"restaurant"},{"name":"족발야시장금정역점","tel":"031-393-5353","addr":"경기도 군포시 산본동 266-16번지 1층","indutype":"일반휴게음식 - 일반한식","category":"restaurant"}]},{"lat":"37.360252321","long":"126.9314302","imageIndex":4,"items":[{"name":"곱분이곱창 산본점","tel":"031-393-4531","addr":"경기도 군포시 산본동 1133번지 삼정빌딩 1층 106호","indutype":"일반휴게음식 - 일반한식","category":"restaurant"},{"name":"두끼 산본점","tel":"031-397-2771","addr":"경기도 군포시 산본동 1133번지 삼정빌딩 202호","indutype":"일반휴게음식 - 스넥","category":"restaurant"},{"name":"뽀메르지오빠스토","tel":"031-399-9991","addr":"경기도 군포시 산본동 1133번지 삼정빌딩 202호","indutype":"일반휴게음식 - 서양음식","category":"restaurant"},{"name":"와플크림","tel":"031-398-6575","addr":"경기도 군포시 산본동 1133번지 삼정빌딩 104호","indutype":"일반휴게음식 - 스넥","category":"restaurant"},{"name":"춘천마을","tel":"031-391-9568","addr":"경기도 군포시 산본동 1133번지 삼정빌딩 201호","indutype":"일반휴게음식 - 일반한식","category":"restaurant"}]},{"lat":"37.37086049","long":"126.93700839","imageIndex":4,"items":[{"name":"곱창아&병점포차닭발&통닭","tel":"","addr":"경기도 군포시 산본동 213-4번지 1층","indutype":"일반휴게음식 - 일반한식","category":"restaurant"}]},{"lat":"37.370890667","long":"126.942924","imageIndex":4,"items":[{"name":"곱창집","tel":"031-399-7555","addr":"경기도 군포시 산본동 266-10번지","indutype":"일반휴게음식 - 일반한식","category":"restaurant"},{"name":"맥주클럽","tel":"031-391-9535","addr":"경기도 군포시 산본동 266-10번지 청산빌딩 2층","indutype":"일반휴게음식 - 주점","category":"restaurant"},{"name":"명품압구정 닭꼬치","tel":"031-9245-7798","addr":"경기도 군포시 산본동 266-10번지 1층","indutype":"일반휴게음식 - 일반한식","category":"restaurant"}]},{"lat":"37.370863425","long":"126.94250632","imageIndex":4,"items":[{"name":"곱창폭식 금정점","tel":"031-396-6692","addr":"경기도 군포시 산본동 252-7번지 1층","indutype":"일반휴게음식 - 일반한식","category":"restaurant"},{"name":"크라운호프 금정역점","tel":"031-398-6692","addr":"경기도 군포시 산본동 252-7번지 1층","indutype":"일반휴게음식 - 주점","category":"restaurant"}]},{"lat":"37.371309463","long":"126.93430982","imageIndex":4,"items":[{"name":"공구통비어","tel":"031-398-0362","addr":"경기도 군포시 산본동 1061-1번지 현대아카데미센터 103호","indutype":"일반휴게음식 - 주점","category":"restaurant"},{"name":"더카페(산본나눔점)","tel":"031-397-2030","addr":"경기도 군포시 산본동 1061-1번지 현대아카데미센터 101호","indutype":"일반휴게음식 - 서양음식","category":"restaurant"},{"name":"더카페(산본대박점)","tel":"031-397-2030","addr":"경기도 군포시 산본동 1061-1번지 현대아카데미센타 101호","indutype":"일반휴게음식 - 서양음식","category":"restaurant"},{"name":"도둑고기 군포산본점","tel":"031-393-3392","addr":"경기도 군포시 산본동 1061-1번지 현대아카데미센타 104호","indutype":"일반휴게음식 - 일반한식","category":"restaurant"},{"name":"만선코다리","tel":"031-393-7272","addr":"경기도 군포시 산본동 1061-1번지 현대아카데미센타 2층 201호","indutype":"일반휴게음식 - 일반한식","category":"restaurant"},{"name":"양자강","tel":"031-397-2850","addr":"경기도 군포시 산본동 1061-1번지 현대아카데미센타 105호","indutype":"일반휴게음식 - 중국식","category":"restaurant"},{"name":"촌닭숯불바베큐","tel":"031-397-9255","addr":"경기도 군포시 산본동 1061-1번지 현대아카데미센터 102호","indutype":"일반휴게음식 - 주점","category":"restaurant"},{"name":"화통삼 산본점","tel":"031-393-3392","addr":"경기도 군포시 산본동 1061-1번지 현대아카데미센터 104호","indutype":"일반휴게음식 - 일반한식","category":"restaurant"}]},{"lat":"37.374081209","long":"126.94484074","imageIndex":4,"items":[{"name":"공릉동멸치국수","tel":"031-469-9999","addr":"경기도 군포시 산본동 1026-9번지 금정하이뷰 1층 107호","indutype":"일반휴게음식 - 일반한식","category":"restaurant"}]},{"lat":"37.358225521","long":"126.93223353","imageIndex":4,"items":[{"name":"공씨네주먹밥","tel":"031-391-0690","addr":"경기도 군포시 산본동 1142-5번지 금화프라자 106호","indutype":"일반휴게음식 - 일반한식","category":"restaurant"},{"name":"니뽕내뽕(산본역점)","tel":"031-393-3770","addr":"경기도 군포시 산본동 1142-5번지 금화프라자 2층 209호","indutype":"일반휴게음식 - 중국식","category":"restaurant"},{"name":"달보드레","tel":"070-4338-7519","addr":"경기도 군포시 산본동 1142-5번지 금화프라자 2층 201호","indutype":"일반휴게음식 - 서양음식","category":"restaurant"},{"name":"달인즉석계란말이김밥","tel":"031-397-6636","addr":"경기도 군포시 산본동 1142-5번지 금화프라자 103호","indutype":"일반휴게음식 - 일반한식","category":"restaurant"},{"name":"마실 (MasiL)","tel":"031-111-1111","addr":"경기도 군포시 산본동 1142-5번지 금화프라자 2층 206호","indutype":"일반휴게음식 - 서양음식","category":"restaurant"},{"name":"면사랑","tel":"031-396-3033","addr":"경기도 군포시 산본동 1142-5번지 금화프라자 122호","indutype":"일반휴게음식 - 스넥","category":"restaurant"},{"name":"손커피연구소","tel":"","addr":"경기도 군포시 산본동 1142-5번지 금화프라자 2층 202호","indutype":"일반휴게음식 - 서양음식","category":"restaurant"},{"name":"액티브","tel":"031-398-7217","addr":"경기도 군포시 산본동 1142-5번지 금화프라자 B101호","indutype":"일반휴게음식 - 주점","category":"restaurant"},{"name":"전주연잎보리밥","tel":"031-393-9797","addr":"경기도 군포시 산본동 1142-5번지 금화프라자 206호","indutype":"일반휴게음식 - 일반한식","category":"restaurant"},{"name":"정든닭발","tel":"031-393-9966","addr":"경기도 군포시 산본동 1142-5번지 금화프라자 205호","indutype":"일반휴게음식 - 일반한식","category":"restaurant"},{"name":"황궁쟁반짜장","tel":"031-391-1888","addr":"경기도 군포시 산본동 1142-5번지 금화프라자 202호","indutype":"일반휴게음식 - 중국식","category":"restaurant"}]},{"lat":"37.371052918","long":"126.94305935","imageIndex":4,"items":[{"name":"공주","tel":"031-393-4577","addr":"경기도 군포시 산본동 266-8번지 화성빌딩 지하1층","indutype":"일반휴게음식 - 일반한식","category":"restaurant"},{"name":"설빙 금정점","tel":"031-398-7289","addr":"경기도 군포시 산본동 266-8번지 화성빌딩 2층","indutype":"일반휴게음식 - 일반한식","category":"restaurant"}]},{"lat":"37.360054498","long":"126.93209637","imageIndex":4,"items":[{"name":"공차산본점","tel":"031-391-0505","addr":"경기도 군포시 산본동 1131-2번지 청운빌딩","indutype":"일반휴게음식 - 서양음식","category":"restaurant"},{"name":"더블클릭","tel":"031-394-4244","addr":"경기도 군포시 산본동 1131-2번지 청운빌딩 701호","indutype":"일반휴게음식 - 주점","category":"restaurant"},{"name":"등촌칼국수","tel":"031-393-9522","addr":"경기도 군포시 산본동 1131-2번지 청운빌딩 201호","indutype":"일반휴게음식 - 일반한식","category":"restaurant"},{"name":"레인보우 마카롱 산본점","tel":"031-393-7661","addr":"경기도 군포시 산본동 1131-2번지 청운빌딩 1층 101호","indutype":"일반휴게음식 - 서양음식","category":"restaurant"},{"name":"만들기전문점","tel":"031-000-0000","addr":"경기도 군포시 산본동 1131-2번지 청운빌딩 3층 301호","indutype":"일반휴게음식 - 서양음식","category":"restaurant"},{"name":"신화쭈꾸미","tel":"031-393-1114","addr":"경기도 군포시 산본동 1131-2번지 청운빌딩 202호","indutype":"일반휴게음식 - 서양음식","category":"restaurant"},{"name":"아소산","tel":"031-345-7254","addr":"경기도 군포시 산본동 1131-2번지 청운빌딩 106호","indutype":"일반휴게음식 - 스넥","category":"restaurant"},{"name":"오드(odd)","tel":"02-411-1111","addr":"경기도 군포시 산본동 1131-2번지 청운빌딩 501호","indutype":"일반휴게음식 - 일반한식","category":"restaurant"}]},{"lat":"37.372392505","long":"126.93753766","imageIndex":4,"items":[{"name":"광수네생고기","tel":"031-395-9294","addr":"경기도 군포시 산본동 80번지 거성빌딩 102동 103호","indutype":"일반휴게음식 - 일반한식","category":"restaurant"},{"name":"대구생막창이야기","tel":"031-348-9295","addr":"경기도 군포시 산본동 80번지 거성빌딩 1층","indutype":"일반휴게음식 - 일반한식","category":"restaurant"},{"name":"동네방네퓨전호프","tel":"031-8033-7813","addr":"경기도 군포시 산본동 80번지 거성빌딩 101호","indutype":"일반휴게음식 - 주점","category":"restaurant"},{"name":"회포차","tel":"031-441-6979","addr":"경기도 군포시 산본동 80번지 거성빌딩 1층","indutype":"일반휴게음식 - 일반한식","category":"restaurant"}]},{"lat":"37.35911792","long":"126.93289867","imageIndex":4,"items":[{"name":"광어2마리","tel":"070-4649-1101","addr":"경기도 군포시 산본동 1128-1번지 103호,104호","indutype":"일반휴게음식 - 일반한식","category":"restaurant"},{"name":"노가리까는오빠","tel":"031-394-0425","addr":"경기도 군포시 산본동 1128-1번지 동아프라자 105호","indutype":"일반휴게음식 - 일반한식","category":"restaurant"},{"name":"박만선영양탕","tel":"031-395-0010","addr":"경기도 군포시 산본동 1128-1번지 동아프라자빌딩 204호","indutype":"일반휴게음식 - 일반한식","category":"restaurant"},{"name":"별난남원골추어탕","tel":"031-397-3837","addr":"경기도 군포시 산본동 1128-1번지 동아프라자 203호","indutype":"일반휴게음식 - 일반한식","category":"restaurant"},{"name":"부산복해물칼국수","tel":"031-393-9791","addr":"경기도 군포시 산본동 1128-1번지 동아프라자 201호","indutype":"일반휴게음식 - 일반한식","category":"restaurant"},{"name":"빙화만두집","tel":"","addr":"경기도 군포시 산본동 1128-1번지 동아프라자빌딩 1층 106호","indutype":"일반휴게음식 - 스넥","category":"restaurant"},{"name":"코니와","tel":"031-395-9998","addr":"경기도 군포시 산본동 1128-1번지 동아프라자빌딩 107호","indutype":"일반휴게음식 - 일식·회집","category":"restaurant"}]},{"lat":"37.368780021","long":"126.93859068","imageIndex":4,"items":[{"name":"교동짬뽕","tel":"031-445-3950","addr":"경기도 군포시 산본동 226-1번지 1층","indutype":"일반휴게음식 - 일반한식","category":"restaurant"},{"name":"방글방글호프","tel":"031-391-8626","addr":"경기도 군포시 산본동 226-1번지 1층","indutype":"일반휴게음식 - 주점","category":"restaurant"},{"name":"장식당","tel":"031-429-0119","addr":"경기도 군포시 산본동 226-1번지 1층","indutype":"일반휴게음식 - 일반한식","category":"restaurant"}]},{"lat":"37.358027095","long":"126.9318951","imageIndex":4,"items":[{"name":"교촌치킨","tel":"031-397-1991","addr":"경기도 군포시 산본동 1142-6번지 신명산빌딩 1층 108호","indutype":"일반휴게음식 - 주점","category":"restaurant"},{"name":"구공탄곱창산본점","tel":"031-342-0828","addr":"경기도 군포시 산본동 1142-6번지 신명산빌딩 114호","indutype":"일반휴게음식 - 일반한식","category":"restaurant"},{"name":"굿맘할매순대국 양선지해장국","tel":"031-000-0000","addr":"경기도 군포시 산본동 1142-6번지 신명산빌딩 101호","indutype":"일반휴게음식 - 일반한식","category":"restaurant"},{"name":"날마다조은날","tel":"031-396-0733","addr":"경기도 군포시 산본동 1142-6번지 신명산빌딩 401호","indutype":"일반휴게음식 - 스넥","category":"restaurant"},{"name":"닭발퀸","tel":"031-344-4848","addr":"경기도 군포시 산본동 1142-6번지 신명산빌딩 2층 203호","indutype":"일반휴게음식 - 일반한식","category":"restaurant"},{"name":"대륙참치","tel":"031-397-3537","addr":"경기도 군포시 산본동 1142-6번지 신명산빌딩 2층 210호","indutype":"일반휴게음식 - 일식·회집","category":"restaurant"},{"name":"또봉이통닭","tel":"031-391-3881","addr":"경기도 군포시 산본동 1142-6번지 신명산빌딩 1층 113호","indutype":"일반휴게음식 - 스넥","category":"restaurant"},{"name":"본가삼계탕","tel":"031-393-7337","addr":"경기도 군포시 산본동 1142-6번지 신명산빌딩 212,213호","indutype":"일반휴게음식 - 일반한식","category":"restaurant"},{"name":"빨간낙지집낙지마당","tel":"031-391-5456","addr":"경기도 군포시 산본동 1142-6번지 신명산빌딩 110호 111호","indutype":"일반휴게음식 - 일반한식","category":"restaurant"},{"name":"송이족발","tel":"031-396-9628","addr":"경기도 군포시 산본동 1142-6번지 신명산빌딩 112호","indutype":"일반휴게음식 - 일반한식","category":"restaurant"},{"name":"역전식당","tel":"031-468-2984","addr":"경기도 군포시 산본동 1142-6번지 신명산빌딩 지하1층 3,13호","indutype":"일반휴게음식 - 일반한식","category":"restaurant"},{"name":"오빠들이만든떡볶이(산본점)","tel":"031-391-3458","addr":"경기도 군포시 산본동 1142-6번지 신명산빌딩 1층 103호","indutype":"일반휴게음식 - 스넥","category":"restaurant"},{"name":"유니크","tel":"070-4145-8270","addr":"경기도 군포시 산본동 1142-6번지 신명산빌딩 201호","indutype":"일반휴게음식 - 일반한식","category":"restaurant"},{"name":"투덜이네막창","tel":"031-391-5077","addr":"경기도 군포시 산본동 1142-6번지 신명산빌딩 107호","indutype":"일반휴게음식 - 일반한식","category":"restaurant"}]},{"lat":"37.367502249","long":"126.92626431","imageIndex":4,"items":[{"name":"교촌치킨산본1호점","tel":"031-399-8399","addr":"경기도 군포시 산본동 1106-3번지","indutype":"일반휴게음식 - 스넥","category":"restaurant"}]},{"lat":"37.375222369","long":"126.9387884","imageIndex":4,"items":[{"name":"교촌치킨산본3호점","tel":"031-391-4484","addr":"경기도 군포시 산본동 48번지 산본에덴다모은정아파트","indutype":"일반휴게음식 - 스넥","category":"restaurant"}]},{"lat":"37.368075335","long":"126.9351933","imageIndex":4,"items":[{"name":"구구82치킨","tel":"031-399-9982","addr":"경기도 군포시 산본동 1240번지 래미안 하이어스 아파트 상가(145동) 145동 1110호","indutype":"일반휴게음식 - 스넥","category":"restaurant"},{"name":"만  김밥팥죽","tel":"031-391-8882","addr":"경기도 군포시 산본동 1240번지 래미안 하이어스 아파트상가(147동) 147동 3111호","indutype":"일반휴게음식 - 스넥","category":"restaurant"},{"name":"브레드본","tel":"031-390-6780","addr":"경기도 군포시 산본동 1240번지 래미안 하이어스 아파트 상가(145동) 145동 1120호","indutype":"일반휴게음식 - 일반한식","category":"restaurant"}]},{"lat":"37.370636528","long":"126.93936806","imageIndex":4,"items":[{"name":"구름상상(산본점)","tel":"070-1111-1111","addr":"경기도 군포시 산본동 89-21번지","indutype":"일반휴게음식 - 서양음식","category":"restaurant"},{"name":"메밀국수와우동","tel":"031-394-4668","addr":"경기도 군포시 산본동 89-21번지 1층","indutype":"일반휴게음식 - 일반한식","category":"restaurant"}]},{"lat":"37.359359533","long":"126.93014425","imageIndex":4,"items":[{"name":"구포국수","tel":"031-391-0038","addr":"경기도 군포시 산본동 1144-1번지 유공빌딩 1층 101호","indutype":"일반휴게음식 - 일반한식","category":"restaurant"},{"name":"뚜리바","tel":"031-399-7701","addr":"경기도 군포시 산본동 1144-1번지 유공빌딩 지하1층 지06호","indutype":"일반휴게음식 - 스넥","category":"restaurant"},{"name":"빠족떡볶이","tel":"031-391-5675","addr":"경기도 군포시 산본동 1144-1번지 유공빌딩 107호","indutype":"일반휴게음식 - 스넥","category":"restaurant"},{"name":"산본꽃돼지","tel":"031-398-8993","addr":"경기도 군포시 산본동 1144-1번지 유공빌딩 110호","indutype":"일반휴게음식 - 일반한식","category":"restaurant"},{"name":"산본염소탕","tel":"031-429-9918","addr":"경기도 군포시 산본동 1144-1번지 유공빌딩 202호","indutype":"일반휴게음식 - 일반한식","category":"restaurant"},{"name":"한솥","tel":"031-397-9948","addr":"경기도 군포시 산본동 1144-1번지 유공빌딩 108호","indutype":"일반휴게음식 - 일반한식","category":"restaurant"},{"name":"한우궁 군포산본점","tel":"031-393-8822","addr":"경기도 군포시 산본동 1144-1번지 유공빌딩 109호","indutype":"일반휴게음식 - 일반한식","category":"restaurant"},{"name":"현주식당","tel":"031-391-7577","addr":"경기도 군포시 산본동 1144-1번지 유공빌딩 지층 13호","indutype":"일반휴게음식 - 일반한식","category":"restaurant"},{"name":"홍두깨손칼국수","tel":"","addr":"경기도 군포시 산본동 1144-1번지 유공빌딩 1층 제105호","indutype":"일반휴게음식 - 스넥","category":"restaurant"},{"name":"홍루이젠 산본점","tel":"031-111-1111","addr":"경기도 군포시 산본동 1144-1번지 유공빌딩 1층 107호","indutype":"일반휴게음식 - 서양음식","category":"restaurant"}]},{"lat":"37.371526535","long":"126.93575467","imageIndex":4,"items":[{"name":"국수나무 산본시장점","tel":"031-397-1110","addr":"경기도 군포시 산본동 207-12번지 산본두성프라자 1층 103호","indutype":"일반휴게음식 - 일반한식","category":"restaurant"},{"name":"명품찹쌀꽈배기","tel":"031-397-3452","addr":"경기도 군포시 산본동 207-12번지 산본두성프라자 1층 107호","indutype":"일반휴게음식 - 스넥","category":"restaurant"},{"name":"본죽(산본래미안점)","tel":"031-392-6289","addr":"경기도 군포시 산본동 207-12번지 산본두성프라자 1층 101호","indutype":"일반휴게음식 - 일반한식","category":"restaurant"},{"name":"유연참치","tel":"031-391-0118","addr":"경기도 군포시 산본동 207-12번지 산본두성프라자 102호","indutype":"일반휴게음식 - 일식·회집","category":"restaurant"},{"name":"죽1001이야기금정점","tel":"031-399-6225","addr":"경기도 군포시 산본동 207-12번지 산본두성프라자 107호","indutype":"일반휴게음식 - 일반한식","category":"restaurant"},{"name":"피자스쿨산본시장점","tel":"031-391-2111","addr":"경기도 군포시 산본동 207-12번지 두성빌딩 104호","indutype":"일반휴게음식 - 서양음식","category":"restaurant"}]},{"lat":"37.370915359","long":"126.93847596","imageIndex":4,"items":[{"name":"국수집","tel":"070-8722-9494","addr":"경기도 군포시 산본동 89-5번지 1층","indutype":"일반휴게음식 - 일반한식","category":"restaurant"}]},{"lat":"37.364082573","long":"126.93300694","imageIndex":4,"items":[{"name":"군포시늘푸른노인복지관","tel":"031-392-5755","addr":"경기도 군포시 산본동 1096번지","indutype":"일반휴게음식 - 위탁급식업","category":"restaurant"},{"name":"늘푸른북카페","tel":"031-392-5755","addr":"경기도 군포시 산본동 1096번지 1층","indutype":"일반휴게음식 - 일반한식","category":"restaurant"}]},{"lat":"37.371249216","long":"126.93936754","imageIndex":4,"items":[{"name":"굴다리돼지갈비","tel":"031-393-3310","addr":"경기도 군포시 산본동 90-44번지 1층","indutype":"일반휴게음식 - 일반한식","category":"restaurant"}]},{"lat":"37.367756349","long":"126.92912015","imageIndex":4,"items":[{"name":"굽네치킨(광정점)","tel":"031-391-8392","addr":"경기도 군포시 산본동 1091-1번지 한국공영목련 상가 101호","indutype":"일반휴게음식 - 스넥","category":"restaurant"}]},{"lat":"37.370033486","long":"126.94056523","imageIndex":4,"items":[{"name":"굽네치킨(산본1동점)","tel":"031-394-5999","addr":"경기도 군포시 산본동 239-1번지 1층","indutype":"일반휴게음식 - 스넥","category":"restaurant"}]},{"lat":"37.369970122","long":"126.94001211","imageIndex":4,"items":[{"name":"굿타임","tel":"031-399-9944","addr":"경기도 군포시 산본동 236-12번지 1층","indutype":"일반휴게음식 - 일반한식","category":"restaurant"},{"name":"호치킨군포금정역점","tel":"031-397-5727","addr":"경기도 군포시 산본동 236-12번지","indutype":"일반휴게음식 - 스넥","category":"restaurant"}]},{"lat":"37.365002864","long":"126.92092738","imageIndex":4,"items":[{"name":"궁안골","tel":"031-398-4667","addr":"경기도 군포시 산본동 1149-2번지 해아름빌리지 101호","indutype":"일반휴게음식 - 일반한식","category":"restaurant"},{"name":"궁안골","tel":"031-398-4667","addr":"경기도 군포시 산본동 1149-2번지 해아름빌리지 1층","indutype":"일반휴게음식 - 일반한식","category":"restaurant"},{"name":"궁안골","tel":"031-398-4667","addr":"경기도 군포시 산본동 1149-2번지 해아름빌리지 1층","indutype":"일반휴게음식 - 일반한식","category":"restaurant"},{"name":"나바리스타커피","tel":"070-7733-7533","addr":"경기도 군포시 산본동 1149-2번지 해아름빌리지 지하1층","indutype":"일반휴게음식 - 일반한식","category":"restaurant"}]},{"lat":"37.37147587","long":"126.94203167","imageIndex":4,"items":[{"name":"궁전호프","tel":"031-396-2230","addr":"경기도 군포시 산본동 265-8번지 지층","indutype":"일반휴게음식 - 주점","category":"restaurant"},{"name":"궁전호프","tel":"","addr":"경기도 군포시 산본동 265-8번지 지층","indutype":"일반휴게음식 - 주점","category":"restaurant"}]},{"lat":"37.359585903","long":"126.93198393","imageIndex":4,"items":[{"name":"그곳에 가면 통나무 닭갈비","tel":"031-391-9226","addr":"경기도 군포시 산본동 1134번지 센타빌딩 4층 1호","indutype":"일반휴게음식 - 일반한식","category":"restaurant"}]},{"lat":"37.358729689","long":"126.9315671","imageIndex":4,"items":[{"name":"그랑데뷰꼬치구이산본","tel":"031-398-9595","addr":"경기도 군포시 산본동 1140-1번지 계정빌딩 102호","indutype":"일반휴게음식 - 주점","category":"restaurant"},{"name":"둘둘치킨","tel":"031-399-2275","addr":"경기도 군포시 산본동 1140-1번지 계정프라자 103호","indutype":"일반휴게음식 - 주점","category":"restaurant"},{"name":"보드람치킨산본점","tel":"031-397-3338","addr":"경기도 군포시 산본동 1140-1번지 계정프라자 101호","indutype":"일반휴게음식 - 주점","category":"restaurant"},{"name":"숨맑은집","tel":"031-426-0157","addr":"경기도 군포시 산본동 1140-1번지 계정빌딩 201,203호","indutype":"일반휴게음식 - 서양음식","category":"restaurant"},{"name":"쭈꾸미브라더스 산본점","tel":"070-8671-5554","addr":"경기도 군포시 산본동 1140-1번지 계정빌딩 301호~302호","indutype":"일반휴게음식 - 일반한식","category":"restaurant"}]},{"lat":"37.371142611","long":"126.94225772","imageIndex":4,"items":[{"name":"그램그램 금정점","tel":"031-392-6692","addr":"경기도 군포시 산본동 259-8번지 1층 산봉동","indutype":"일반휴게음식 - 일반한식","category":"restaurant"}]},{"lat":"37.372223454","long":"126.94153432","imageIndex":4,"items":[{"name":"그린포장마차","tel":"031-396-1486","addr":"경기도 군포시 산본동 98-30번지","indutype":"일반휴게음식 - 주점","category":"restaurant"}]},{"lat":"37.369835084","long":"126.94022671","imageIndex":4,"items":[{"name":"금자네소머리곰탕순대국밥","tel":"031-399-4090","addr":"경기도 군포시 산본동 235-16번지 1층","indutype":"일반휴게음식 - 일반한식","category":"restaurant"}]},{"lat":"37.371115179","long":"126.94147878","imageIndex":4,"items":[{"name":"금정명가","tel":"031-394-8985","addr":"경기도 군포시 산본동 265-3번지 1층 일부호","indutype":"일반휴게음식 - 일반한식","category":"restaurant"}]},{"lat":"37.367888944","long":"126.94031864","imageIndex":4,"items":[{"name":"금정산본네네치킨","tel":"031-396-9255","addr":"경기도 군포시 산본동 1033-5번지 101~102호","indutype":"일반휴게음식 - 일반한식","category":"restaurant"}]},{"lat":"37.372276654","long":"126.93989729","imageIndex":4,"items":[{"name":"금정쇼촬땐","tel":"031-345-9998","addr":"경기도 군포시 산본동 94-41번지 1층","indutype":"일반휴게음식 - 중국식","category":"restaurant"}]},{"lat":"37.370529934","long":"126.9422808","imageIndex":4,"items":[{"name":"금정제주아방","tel":"031-394-3883","addr":"경기도 군포시 산본동 252-13번지 1층","indutype":"일반휴게음식 - 일반한식","category":"restaurant"},{"name":"스타호프","tel":"031-398-7166","addr":"경기도 군포시 산본동 252-13번지","indutype":"일반휴게음식 - 주점","category":"restaurant"}]},{"lat":"37.373115759","long":"126.94212066","imageIndex":4,"items":[{"name":"김밥마을","tel":"031-399-9443","addr":"경기도 군포시 산본동 97-43번지 101호","indutype":"일반휴게음식 - 스넥","category":"restaurant"}]},{"lat":"37.371611126","long":"126.94223477","imageIndex":4,"items":[{"name":"김밥천국","tel":"031-394-3656","addr":"경기도 군포시 산본동 265-10번지 1층","indutype":"일반휴게음식 - 일반한식","category":"restaurant"},{"name":"디저트39금정역점","tel":"031-392-3912","addr":"경기도 군포시 산본동 265-10번지 101호","indutype":"일반휴게음식 - 서양음식","category":"restaurant"},{"name":"복성루샤부샤부성","tel":"031-395-8883","addr":"경기도 군포시 산본동 265-10번지 201호","indutype":"일반휴게음식 - 중국식","category":"restaurant"}]},{"lat":"37.368392431","long":"126.93830878","imageIndex":4,"items":[{"name":"김밥하우스","tel":"031-396-1535","addr":"경기도 군포시 산본동 225-13번지 1층","indutype":"일반휴게음식 - 스넥","category":"restaurant"},{"name":"치킨뽀또산본래미안점","tel":"031-392-7992","addr":"경기도 군포시 산본동 225-13번지 1층","indutype":"일반휴게음식 - 스넥","category":"restaurant"}]},{"lat":"37.359613432","long":"126.93281919","imageIndex":4,"items":[{"name":"김수사","tel":"031-391-7472","addr":"경기도 군포시 산본동 1129번지 청우빌딩 3층","indutype":"일반휴게음식 - 일식·회집","category":"restaurant"},{"name":"남오토코","tel":"070-8186-4473","addr":"경기도 군포시 산본동 1129번지 청우빌딩 103호","indutype":"일반휴게음식 - 주점","category":"restaurant"},{"name":"먹방촌쪽파곱창&양대창","tel":"031-395-0888","addr":"경기도 군포시 산본동 1129번지 청우빌딩 103호","indutype":"일반휴게음식 - 일반한식","category":"restaurant"},{"name":"야호양꼬치","tel":"031-397-5372","addr":"경기도 군포시 산본동 1129번지 청우빌딩 1층 101호","indutype":"일반휴게음식 - 일반한식","category":"restaurant"},{"name":"연화산","tel":"031-398-5599","addr":"경기도 군포시 산본동 1129번지 청우빌딩 2층","indutype":"일반휴게음식 - 중국식","category":"restaurant"}]},{"lat":"37.369887735","long":"126.93761886","imageIndex":4,"items":[{"name":"까치골","tel":"","addr":"경기도 군포시 산본동 216-7번지 1층","indutype":"일반휴게음식 - 일반한식","category":"restaurant"}]},{"lat":"37.359170445","long":"126.93034761","imageIndex":4,"items":[{"name":"까페68번길","tel":"031-391-8202","addr":"경기도 군포시 산본동 1144-2번지 세종빌딩 102호","indutype":"일반휴게음식 - 서양음식","category":"restaurant"},{"name":"내고향왕만두산본점","tel":"070-4808-0518","addr":"경기도 군포시 산본동 1144-2번지 세종빌딩 108호","indutype":"일반휴게음식 - 일반한식","category":"restaurant"},{"name":"디델리산본점","tel":"031-396-1194","addr":"경기도 군포시 산본동 1144-2번지 산본씨네 마동 114호","indutype":"일반휴게음식 - 일반한식","category":"restaurant"},{"name":"마리웨일237 산본로데오점","tel":"031-000-0000","addr":"경기도 군포시 산본동 1144-2번지 세종빌딩 106호","indutype":"일반휴게음식 - 서양음식","category":"restaurant"},{"name":"맘스터치(Mom's Touch)","tel":"031-393-8009","addr":"경기도 군포시 산본동 1144-2번지 세종빌딩 203호","indutype":"일반휴게음식 - 서양음식","category":"restaurant"},{"name":"백철판0410산본역점","tel":"031-393-0410","addr":"경기도 군포시 산본동 1144-2번지 세종빌딩 2층 204호","indutype":"일반휴게음식 - 일반한식","category":"restaurant"},{"name":"본설 산본점","tel":"031-392-3754","addr":"경기도 군포시 산본동 1144-2번지 세종빌딩 2층 204호","indutype":"일반휴게음식 - 일반한식","category":"restaurant"},{"name":"빨개빨개","tel":"031-393-8243","addr":"경기도 군포시 산본동 1144-2번지 세종빌딩 103호","indutype":"일반휴게음식 - 스넥","category":"restaurant"},{"name":"삼시세끼바다","tel":"031-111-1111","addr":"경기도 군포시 산본동 1144-2번지 세종빌딩 2층 202호","indutype":"일반휴게음식 - 일반한식","category":"restaurant"},{"name":"서가앤쿡(군포점)","tel":"","addr":"경기도 군포시 산본동 1144-2번지 세종빌딩 3층 302호, 303호","indutype":"일반휴게음식 - 서양음식","category":"restaurant"},{"name":"아웃닭산본역점","tel":"031-391-7776","addr":"경기도 군포시 산본동 1144-2번지 세종빌딩 2층 205호","indutype":"일반휴게음식 - 스넥","category":"restaurant"},{"name":"와삭통통닭강정","tel":"031-390-6506","addr":"경기도 군포시 산본동 1144-2번지 세종빌딩 112호","indutype":"일반휴게음식 - 스넥","category":"restaurant"},{"name":"유천칡냉면","tel":"031-399-0515","addr":"경기도 군포시 산본동 1144-2번지 산본시네마 205호","indutype":"일반휴게음식 - 일반한식","category":"restaurant"},{"name":"장발장국물닭발","tel":"070-8800-0928","addr":"경기도 군포시 산본동 1144-2번지 세종빌딩 3층 301호","indutype":"일반휴게음식 - 일반한식","category":"restaurant"}]},{"lat":"37.34381239","long":"126.92298178","imageIndex":4,"items":[{"name":"까페봄","tel":"031-391-3960","addr":"경기도 군포시 산본동 1155-8번지 가야종합상가 101호","indutype":"일반휴게음식 - 서양음식","category":"restaurant"},{"name":"동해식당","tel":"031-398-1888","addr":"경기도 군포시 산본동 1155-8번지 가야 종합상가 104호","indutype":"일반휴게음식 - 일반한식","category":"restaurant"},{"name":"멕시칸치킨산본5분점","tel":"031-392-4168","addr":"경기도 군포시 산본동 1155-8번지 가야주공 종합상가 107호","indutype":"일반휴게음식 - 스넥","category":"restaurant"},{"name":"무림반점","tel":"031-392-2939","addr":"경기도 군포시 산본동 1155-8가야주공종합상가204","indutype":"일반휴게음식 - 중국식","category":"restaurant"}]},{"lat":"37.360387704","long":"126.93181386","imageIndex":4,"items":[{"name":"깔레","tel":"031-393-3955","addr":"경기도 군포시 산본동 1132-2번지 군포명동상가 201호","indutype":"일반휴게음식 - 일반한식","category":"restaurant"},{"name":"용범이네인계동껍데기산본점주식회사","tel":"031-000-0000","addr":"경기도 군포시 산본동 1132-2번지 군포명동상가 1층 101호","indutype":"일반휴게음식 - 일반한식","category":"restaurant"},{"name":"황제곱창","tel":"031-395-9505","addr":"경기도 군포시 산본동 1132-2번지 군포명동상가 202호","indutype":"일반휴게음식 - 일반한식","category":"restaurant"}]},{"lat":"37.370168739","long":"126.94075703","imageIndex":4,"items":[{"name":"깡돈","tel":"031-393-4020","addr":"경기도 군포시 산본동 239-3번지 1층","indutype":"일반휴게음식 - 일반한식","category":"restaurant"},{"name":"알랑가 숯불닭갈비","tel":"031-393-4020","addr":"경기도 군포시 산본동 239-3번지 1층","indutype":"일반휴게음식 - 일반한식","category":"restaurant"},{"name":"어정낙지촌","tel":"031-396-0309","addr":"경기도 군포시 산본동 239-3번지 1층","indutype":"일반휴게음식 - 일반한식","category":"restaurant"}]},{"lat":"37.370944232","long":"126.94195307","imageIndex":4,"items":[{"name":"깡식이네","tel":"031-399-1270","addr":"경기도 군포시 산본동 259-5번지 102호","indutype":"일반휴게음식 - 주점","category":"restaurant"},{"name":"대포","tel":"02-1577-0000","addr":"경기도 군포시 산본동 259-5번지 1층","indutype":"일반휴게음식 - 일반한식","category":"restaurant"},{"name":"땡초우동 인 포차","tel":"031-594-2587","addr":"경기도 군포시 산본동 259-5번지 1층","indutype":"일반휴게음식 - 주점","category":"restaurant"},{"name":"신족발","tel":"031-393-1667","addr":"경기도 군포시 산본동 259-5번지 1층","indutype":"일반휴게음식 - 일반한식","category":"restaurant"},{"name":"엄마칼국수","tel":"031-441-7872","addr":"경기도 군포시 산본동 259-5번지 1층 101호","indutype":"일반휴게음식 - 일반한식","category":"restaurant"}]},{"lat":"37.370421587","long":"126.9418406","imageIndex":4,"items":[{"name":"꼬꼬바베큐","tel":"031-381-2622","addr":"경기도 군포시 산본동 252-1번지 1층","indutype":"일반휴게음식 - 일반한식","category":"restaurant"},{"name":"바다로가자","tel":"031-399-8589","addr":"경기도 군포시 산본동 252-1번지","indutype":"일반휴게음식 - 일반한식","category":"restaurant"},{"name":"밥먹고술먹고","tel":"031-392-4966","addr":"경기도 군포시 산본동 252-1번지 1층","indutype":"일반휴게음식 - 일반한식","category":"restaurant"}]},{"lat":"37.359451309","long":"126.93292093","imageIndex":4,"items":[{"name":"꼬꼬아찌 산본역점","tel":"070-6563-1257","addr":"경기도 군포시 산본동 1129-1번지 럭키빌딩 1층 101호","indutype":"일반휴게음식 - 일반한식","category":"restaurant"},{"name":"남플라","tel":"031-477-2882","addr":"경기도 군포시 산본동 1129-1번지 럭키빌딩 201호","indutype":"일반휴게음식 - 서양음식","category":"restaurant"},{"name":"레드BAR","tel":"031-399-9196","addr":"경기도 군포시 산본동 1129-1번지 럭키빌딩 201호","indutype":"일반휴게음식 - 주점","category":"restaurant"},{"name":"박은자 맛사랑","tel":"031-398-0292","addr":"경기도 군포시 산본동 1129-1번지 럭키빌딩 203호","indutype":"일반휴게음식 - 일반한식","category":"restaurant"},{"name":"온다피자","tel":"031-394-0667","addr":"경기도 군포시 산본동 1129-1번지 럭키빌딩 102호","indutype":"일반휴게음식 - 서양음식","category":"restaurant"},{"name":"제니스바","tel":"031-398-8839","addr":"경기도 군포시 산본동 1129-1번지 럭키빌딩 202호","indutype":"일반휴게음식 - 일반한식","category":"restaurant"},{"name":"풍미칼국수","tel":"031-394-5452","addr":"경기도 군포시 산본동 1129-1번지 럭키빌딩 1층 105호","indutype":"일반휴게음식 - 일반한식","category":"restaurant"}]},{"lat":"37.364999864","long":"126.93011623","imageIndex":4,"items":[{"name":"꼬지사께(군포산본점)","tel":"031-396-4577","addr":"경기도 군포시 산본동 1094-1번지 신호프라자 103호","indutype":"일반휴게음식 - 주점","category":"restaurant"},{"name":"달봉이치킨군포산본점","tel":"031-392-7788","addr":"경기도 군포시 산본동 1094-1번지 신호프라자 1층 106호","indutype":"일반휴게음식 - 스넥","category":"restaurant"},{"name":"비에이치씨산본중앙점","tel":"031-398-9282","addr":"경기도 군포시 산본동 1094-1번지 신호프라자 102호","indutype":"일반휴게음식 - 스넥","category":"restaurant"},{"name":"탁사발 산본점","tel":"031-393-1507","addr":"경기도 군포시 산본동 1094-1 신호프라자 104호, 105호","indutype":"일반휴게음식 - 일반한식","category":"restaurant"}]},{"lat":"37.370971419","long":"126.94225786","imageIndex":4,"items":[{"name":"꼬챙이","tel":"031-391-0410","addr":"경기도 군포시 산본동 259-14번지","indutype":"일반휴게음식 - 일반한식","category":"restaurant"},{"name":"태능숯불갈비","tel":"031-391-9210","addr":"경기도 군포시 산본동 259-14번지 1층","indutype":"일반휴게음식 - 일반한식","category":"restaurant"}]},{"lat":"37.372556439","long":"126.94078893","imageIndex":4,"items":[{"name":"꽃과나비커피호프","tel":"","addr":"경기도 군포시 산본동 94-18번지 2층","indutype":"일반휴게음식 - 주점","category":"restaurant"},{"name":"동북옛날삭당","tel":"031-8033-8677","addr":"경기도 군포시 산본동 94-18번지 1층","indutype":"일반휴게음식 - 중국식","category":"restaurant"},{"name":"동북옛날식당","tel":"031-8033-8677","addr":"경기도 군포시 산본동 94-18번지 1층","indutype":"일반휴게음식 - 일반한식","category":"restaurant"},{"name":"마라해물포차","tel":"02-6340-5385","addr":"경기도 군포시 산본동 94-18번지 2층","indutype":"일반휴게음식 - 주점","category":"restaurant"},{"name":"선양숯불구이","tel":"031-398-5198","addr":"경기도 군포시 산본동 94-18번지 1층","indutype":"일반휴게음식 - 일반한식","category":"restaurant"}]},{"lat":"37.369338893","long":"126.93904177","imageIndex":4,"items":[{"name":"꿈의궁전","tel":"031-391-4755","addr":"경기도 군포시 산본동 224-13번지","indutype":"일반휴게음식 - 주점","category":"restaurant"}]},{"lat":"37.370475478","long":"126.94151317","imageIndex":4,"items":[{"name":"꿍푸주마라탕","tel":"","addr":"경기도 군포시 산본동 239-10번지","indutype":"일반휴게음식 - 중국식","category":"restaurant"},{"name":"호박","tel":"031-392-2117","addr":"경기도 군포시 산본동 239-10번지 1층","indutype":"일반휴게음식 - 주점","category":"restaurant"}]},{"lat":"37.358784398","long":"126.93265065","imageIndex":4,"items":[{"name":"나나바","tel":"031-111-1111","addr":"경기도 군포시 산본동 1142-12번지 군포상가 4층 402호","indutype":"일반휴게음식 - 주점","category":"restaurant"},{"name":"라화방마라탕","tel":"","addr":"경기도 군포시 산본동 1142-12번지 군포상가 2층 201호","indutype":"일반휴게음식 - 중국식","category":"restaurant"},{"name":"미라클","tel":"070-7565-9633","addr":"경기도 군포시 산본동 1142-12번지 군포상가 406호","indutype":"일반휴게음식 - 주점","category":"restaurant"},{"name":"분식랜드","tel":"031-398-5395","addr":"경기도 군포시 산본동 1142-12 군포상가 107","indutype":"일반휴게음식 - 스넥","category":"restaurant"},{"name":"비호프","tel":"031-392-2158","addr":"경기도 군포시 산본동 1142-12번지 군포상가 506호","indutype":"일반휴게음식 - 일반한식","category":"restaurant"},{"name":"사조참치","tel":"031-393-4007","addr":"경기도 군포시 산본동 1142-12번지","indutype":"일반휴게음식 - 일반한식","category":"restaurant"},{"name":"산본무도카페","tel":"031-399-3303","addr":"경기도 군포시 산본동 1142-12번지 군포상가 지하1층 106호","indutype":"일반휴게음식 - 서양음식","category":"restaurant"},{"name":"산본식당","tel":"031-399-3303","addr":"경기도 군포시 산본동 1142-12번지 군포상가 B104호","indutype":"일반휴게음식 - 주점","category":"restaurant"},{"name":"산본식당","tel":"031-399-3303","addr":"경기도 군포시 산본동 1142-12번지 군포상가 지하1층104","indutype":"일반휴게음식 - 일반한식","category":"restaurant"},{"name":"설악추어탕","tel":"031-398-9898","addr":"경기도 군포시 산본동 1142-12번지 군포상가 202호","indutype":"일반휴게음식 - 일반한식","category":"restaurant"},{"name":"스노우","tel":"031-443-4706","addr":"경기도 군포시 산본동 1142-12번지 군포상가 503호","indutype":"일반휴게음식 - 주점","category":"restaurant"},{"name":"스페인","tel":"031-396-2655","addr":"경기도 군포시 산본동 1142-12번지 군포상가 401호","indutype":"일반휴게음식 - 서양음식","category":"restaurant"},{"name":"천인감자탕","tel":"031-393-3443","addr":"경기도 군포시 산본동 1142-12번지 군포상가 2층 205호","indutype":"일반휴게음식 - 일반한식","category":"restaurant"},{"name":"홀릭","tel":"","addr":"경기도 군포시 산본동 1142-12번지 군포상가 4층 401호","indutype":"일반휴게음식 - 주점","category":"restaurant"},{"name":"화통삼산본역점","tel":"031-397-1003","addr":"경기도 군포시 산본동 1142-12번지 2층 206,207호","indutype":"일반휴게음식 - 일반한식","category":"restaurant"}]},{"lat":"37.372782286","long":"126.941929","imageIndex":4,"items":[{"name":"나드리","tel":"031-391-8122","addr":"경기도 군포시 산본동 98-6번지 1층","indutype":"일반휴게음식 - 주점","category":"restaurant"},{"name":"막걸리와지짐이","tel":"031-393-3209","addr":"경기도 군포시 산본동 98-6번지 1층","indutype":"일반휴게음식 - 일반한식","category":"restaurant"},{"name":"안동고을감자탕","tel":"031-399-0052","addr":"경기도 군포시 산본동 98-6번지 1층","indutype":"일반휴게음식 - 일반한식","category":"restaurant"},{"name":"향기호프","tel":"031-396-8915","addr":"경기도 군포시 산본동 98-6번지","indutype":"일반휴게음식 - 주점","category":"restaurant"}]},{"lat":"37.359089705","long":"126.93092336","imageIndex":4,"items":[{"name":"나라","tel":"070-4108-1977","addr":"경기도 군포시 산본동 1139-3번지 거성빌딩1차 301호","indutype":"일반휴게음식 - 주점","category":"restaurant"},{"name":"더벤티산본점","tel":"070-7608-0713","addr":"경기도 군포시 산본동 1139-3번지 거성빌딩1차 101동 1층 101-1,101-2","indutype":"일반휴게음식 - 서양음식","category":"restaurant"},{"name":"두그루나무","tel":"031-394-6372","addr":"경기도 군포시 산본동 1139-3번지 거성1차프라자104","indutype":"일반휴게음식 - 서양음식","category":"restaurant"},{"name":"봉추찜닭","tel":"031-392-6981","addr":"경기도 군포시 산본동 1139-3번지 거성1차 201호","indutype":"일반휴게음식 - 일반한식","category":"restaurant"},{"name":"쉐프의부대찌개(산본점)","tel":"031-393-4162","addr":"경기도 군포시 산본동 1139-3번지 거성빌딩1차 2층 202호","indutype":"일반휴게음식 - 일반한식","category":"restaurant"},{"name":"아마스빈 산본역점","tel":"031-399-1151","addr":"경기도 군포시 산본동 1139-3번지 거성빌딩1차 거성프라자 1충103호","indutype":"일반휴게음식 - 일반한식","category":"restaurant"},{"name":"여심저격","tel":"","addr":"경기도 군포시 산본동 1139-3번지 거성빌딩1차 1층 102호","indutype":"일반휴게음식 - 서양음식","category":"restaurant"},{"name":"주식회사 더감에프비","tel":"070-4791-1984","addr":"경기도 군포시 산본동 1139-3번지 거성빌딩1차 203호","indutype":"일반휴게음식 - 서양음식","category":"restaurant"},{"name":"코코로","tel":"070-4062-9772","addr":"경기도 군포시 산본동 1139-3번지 거성빌딩1차 2층 203호","indutype":"일반휴게음식 - 일식·회집","category":"restaurant"}]},{"lat":"37.359459903","long":"126.93222109","imageIndex":4,"items":[{"name":"나주설렁탕","tel":"031-397-1122","addr":"경기도 군포시 산본동 1134-1번지 센타빌딩 B동 106호","indutype":"일반휴게음식 - 일반한식","category":"restaurant"}]},{"lat":"37.370248867","long":"126.93895068","imageIndex":4,"items":[{"name":"남궁가 족발,보쌈","tel":"031-111-1111","addr":"경기도 군포시 산본동 222-1번지 2층","indutype":"일반휴게음식 - 일반한식","category":"restaurant"}]},{"lat":"37.370890131","long":"126.94187409","imageIndex":4,"items":[{"name":"남도갯뻘","tel":"031-393-7544","addr":"경기도 군포시 산본동 259-4번지","indutype":"일반휴게음식 - 일반한식","category":"restaurant"}]},{"lat":"37.370420993","long":"126.94070038","imageIndex":4,"items":[{"name":"남원집","tel":"031-393-4629","addr":"경기도 군포시 산본동 238-15번지 1층","indutype":"일반휴게음식 - 일반한식","category":"restaurant"}]},{"lat":"37.370304356","long":"126.94164878","imageIndex":4,"items":[{"name":"낭만한사발","tel":"031-391-2905","addr":"경기도 군포시 산본동 240-9번지 1층","indutype":"일반휴게음식 - 일반한식","category":"restaurant"},{"name":"통큰이모숯불갈비","tel":"031-386-5557","addr":"경기도 군포시 산본동 240-9번지","indutype":"일반휴게음식 - 일반한식","category":"restaurant"}]},{"lat":"37.367330859","long":"126.92595968","imageIndex":4,"items":[{"name":"내치킨내놔라","tel":"031-395-2511","addr":"경기도 군포시 산본동 1106-1번지 1층","indutype":"일반휴게음식 - 스넥","category":"restaurant"},{"name":"따뜻한밥집","tel":"031-398-3285","addr":"경기도 군포시 산본동 1106-1번지 104호","indutype":"일반휴게음식 - 일반한식","category":"restaurant"},{"name":"문이네(moon.ene)","tel":"031-392-2778","addr":"경기도 군포시 산본동 1106-1번지 103,104호","indutype":"일반휴게음식 - 서양음식","category":"restaurant"},{"name":"수리산 잔치국수","tel":"031-392-1288","addr":"경기도 군포시 산본동 1106-1번지 1층","indutype":"일반휴게음식 - 일반한식","category":"restaurant"},{"name":"청렴스시","tel":"031-1600-7454","addr":"경기도 군포시 산본동 1106-1번지 1층 101호","indutype":"일반휴게음식 - 일식·회집","category":"restaurant"}]},{"lat":"37.370583681","long":"126.94167113","imageIndex":4,"items":[{"name":"노가리풍년","tel":"031-395-3247","addr":"경기도 군포시 산본동 259-20번지 1층","indutype":"일반휴게음식 - 주점","category":"restaurant"},{"name":"주주포차","tel":"031-389-8881","addr":"경기도 군포시 산본동 259-20번지","indutype":"일반휴게음식 - 주점","category":"restaurant"}]},{"lat":"37.358729471","long":"126.93120589","imageIndex":4,"items":[{"name":"노란통닭 산본역점","tel":"031-393-8268","addr":"경기도 군포시 산본동 1140-3번지 백두빌딩 1층 101호","indutype":"일반휴게음식 - 스넥","category":"restaurant"},{"name":"쓰리고(3GO)갈비살","tel":"031-392-6868","addr":"경기도 군포시 산본동 1140-3번지 백두빌딩 101호","indutype":"일반휴게음식 - 일반한식","category":"restaurant"},{"name":"아름당","tel":"031-123-4567","addr":"경기도 군포시 산본동 1140-3번지 백두빌딩 2층 202호 일부","indutype":"일반휴게음식 - 일반한식","category":"restaurant"},{"name":"아맛나양꼬치 (산본점)","tel":"031-347-2092","addr":"경기도 군포시 산본동 1140-3번지 백두빌딩 201호","indutype":"일반휴게음식 - 중국식","category":"restaurant"},{"name":"정과마음을담아","tel":"031-391-2263","addr":"경기도 군포시 산본동 1140-3번지 백두빌딩 2층 202호","indutype":"일반휴게음식 - 주점","category":"restaurant"}]},{"lat":"37.359415108","long":"126.93265006","imageIndex":4,"items":[{"name":"노바세컨드","tel":"031-398-0014","addr":"경기도 군포시 산본동 1129-2번지 산본플라자 3층 301호","indutype":"일반휴게음식 - 서양음식","category":"restaurant"},{"name":"동대문엽기떡볶이","tel":"031-398-7888","addr":"경기도 군포시 산본동 1129-2번지 산본플라자 207호","indutype":"일반휴게음식 - 일반한식","category":"restaurant"},{"name":"락","tel":"031-399-3475","addr":"경기도 군포시 산본동 1129-2번지 산본프라자 204호","indutype":"일반휴게음식 - 일반한식","category":"restaurant"},{"name":"마왕족발 산본역점","tel":"031-392-7892","addr":"경기도 군포시 산본동 1129-2번지 산본플라자 1층 111호","indutype":"일반휴게음식 - 일반한식","category":"restaurant"},{"name":"먹거리","tel":"031-391-7735","addr":"경기도 군포시 산본동 1129-2번지 산본프라자 지하층 B12호","indutype":"일반휴게음식 - 일반한식","category":"restaurant"},{"name":"무한삼겹시대(산본점)","tel":"031-396-6092","addr":"경기도 군포시 산본동 1129-2번지 산본프라자 202,203호","indutype":"일반휴게음식 - 일반한식","category":"restaurant"},{"name":"미르바","tel":"031-462-5811","addr":"경기도 군포시 산본동 1129-2번지 산본프라자 303호","indutype":"일반휴게음식 - 주점","category":"restaurant"},{"name":"부산오뎅(내맘대로골라먹는꼬지전문점)","tel":"031-111-1111","addr":"경기도 군포시 산본동 1129-2번지 산본프라자 102호","indutype":"일반휴게음식 - 일반한식","category":"restaurant"},{"name":"불족발왕족발보쌈","tel":"031-392-7892","addr":"경기도 군포시 산본동 1129-2번지 산본프라자 111,113호","indutype":"일반휴게음식 - 일반한식","category":"restaurant"},{"name":"산자갈치꼼장어","tel":"031-394-8827","addr":"경기도 군포시 산본동 1129-2번지 산본프라자 102호","indutype":"일반휴게음식 - 일반한식","category":"restaurant"},{"name":"생방송꼬치체인산본점","tel":"031-97-1585","addr":"경기도 군포시 산본동 1129-2번지 산본프라자 116호","indutype":"일반휴게음식 - 주점","category":"restaurant"},{"name":"석기정","tel":"031-391-0889","addr":"경기도 군포시 산본동 1129-2번지 산본프라자 208,209호","indutype":"일반휴게음식 - 일반한식","category":"restaurant"},{"name":"아라","tel":"070-7848-9306","addr":"경기도 군포시 산본동 1129-2번지 산본플라자 3층 302호","indutype":"일반휴게음식 - 주점","category":"restaurant"},{"name":"연정옥","tel":"031-397-6725","addr":"경기도 군포시 산본동 1129-2번지 산본프라자 115호","indutype":"일반휴게음식 - 일반한식","category":"restaurant"},{"name":"오징어총각","tel":"031-397-6797","addr":"경기도 군포시 산본동 1129-2 111.113호","indutype":"일반휴게음식 - 주점","category":"restaurant"},{"name":"왕통골뱅이","tel":"031-390-6029","addr":"경기도 군포시 산본동 1129-2번지 산본프라자 108호","indutype":"일반휴게음식 - 일반한식","category":"restaurant"},{"name":"종로빈대떡산본역지점","tel":"031-391-2535","addr":"경기도 군포시 산본동 1129-2번지 산본프라자 1층 107호","indutype":"일반휴게음식 - 일반한식","category":"restaurant"},{"name":"주민밥집","tel":"031-394-0612","addr":"경기도 군포시 산본동 1129-2번지 산본프라자 106호","indutype":"일반휴게음식 - 일반한식","category":"restaurant"},{"name":"참새방앗간","tel":"031-395-9494","addr":"경기도 군포시 산본동 1129-2 산본프라자104호,105호","indutype":"일반휴게음식 - 일반한식","category":"restaurant"},{"name":"펀비어킹산본역점","tel":"031-395-7884","addr":"경기도 군포시 산본동 1129-2번지 산본프라자204,205,206호","indutype":"일반휴게음식 - 주점","category":"restaurant"},{"name":"폭스","tel":"031-396-0270","addr":"경기도 군포시 산본동 1129-2번지 산본프라자 3층 301호","indutype":"일반휴게음식 - 주점","category":"restaurant"},{"name":"형제양곱창","tel":"031-397-1585","addr":"경기도 군포시 산본동 1129-2번지 산본프라자 116호","indutype":"일반휴게음식 - 일반한식","category":"restaurant"},{"name":"활어마을","tel":"031-395-4545","addr":"경기도 군포시 산본동 1129-2번지 산본프라자 201호","indutype":"일반휴게음식 - 일식·회집","category":"restaurant"},{"name":"흥수식당","tel":"031-396-9615","addr":"경기도 군포시 산본동 1129-2번지 산본프라자 지하1층 B06호","indutype":"일반휴게음식 - 일반한식","category":"restaurant"}]},{"lat":"37.361645568","long":"126.92612352","imageIndex":4,"items":[{"name":"노벨레테","tel":"070-4159-2884","addr":"경기도 군포시 산본동 1146번지 솔거대림상가 108호","indutype":"일반휴게음식 - 서양음식","category":"restaurant"},{"name":"시간창조도서관/주식회사 지엔지(GNG)","tel":"031-399-7792","addr":"경기도 군포시 산본동 1146번지 한숲스포츠센터 501호","indutype":"일반휴게음식 - 서양음식","category":"restaurant"}]},{"lat":"37.358585377","long":"126.93131891","imageIndex":4,"items":[{"name":"노이키친","tel":"031-395-9063","addr":"경기도 군포시 산본동 1140-2번지 산수빌딩 302호","indutype":"일반휴게음식 - 서양음식","category":"restaurant"},{"name":"락 부산오뎅","tel":"031-391-5082","addr":"경기도 군포시 산본동 1140-2번지 산수빌딩 104호","indutype":"일반휴게음식 - 주점","category":"restaurant"},{"name":"삼통치킨","tel":"031-393-1225","addr":"경기도 군포시 산본동 1140-2번지 신수상가 103호","indutype":"일반휴게음식 - 주점","category":"restaurant"},{"name":"슈가링","tel":"","addr":"경기도 군포시 산본동 1140-2번지 산수빌딩 7층 702호 일부","indutype":"일반휴게음식 - 서양음식","category":"restaurant"},{"name":"엔","tel":"","addr":"경기도 군포시 산본동 1140-2번지 산수빌딩 4층 402호","indutype":"일반휴게음식 - 일식·회집","category":"restaurant"},{"name":"크래프트한스(산본점)","tel":"031-395-1112","addr":"경기도 군포시 산본동 1140-2번지 산수빌딩 105호","indutype":"일반휴게음식 - 일반한식","category":"restaurant"},{"name":"한패","tel":"031-396-8820","addr":"경기도 군포시 산본동 1140-2번지 산수빌딩 201,202호","indutype":"일반휴게음식 - 일반한식","category":"restaurant"}]},{"lat":"37.368978201","long":"126.93851148","imageIndex":4,"items":[{"name":"놀부장어","tel":"031-396-3362","addr":"경기도 군포시 산본동 224-18번지","indutype":"일반휴게음식 - 일반한식","category":"restaurant"}]},{"lat":"37.370448791","long":"126.94217926","imageIndex":4,"items":[{"name":"놀부포차","tel":"031-392-1583","addr":"경기도 군포시 산본동 252-14번지 102호","indutype":"일반휴게음식 - 주점","category":"restaurant"},{"name":"더통닭","tel":"031-399-8234","addr":"경기도 군포시 산본동 252-14번지","indutype":"일반휴게음식 - 스넥","category":"restaurant"},{"name":"만천칼국수","tel":"031-399-8823","addr":"경기도 군포시 산본동 252-14번지 1층","indutype":"일반휴게음식 - 일반한식","category":"restaurant"},{"name":"벌교꼬막집","tel":"031-477-0234","addr":"경기도 군포시 산본동 252-14번지 103호","indutype":"일반휴게음식 - 일반한식","category":"restaurant"},{"name":"보글보글찌개전문","tel":"031-391-6025","addr":"경기도 군포시 산본동 252-14번지 101호","indutype":"일반휴게음식 - 일반한식","category":"restaurant"},{"name":"보글보글찌개전문","tel":"","addr":"경기도 군포시 산본동 252-14번지 1층 일부","indutype":"일반휴게음식 - 일반한식","category":"restaurant"}]},{"lat":"37.357837664","long":"126.93153408","imageIndex":4,"items":[{"name":"뉴궁전컨벤션웨딩뷔페","tel":"031-398-8011","addr":"경기도 군포시 산본동 1142-7번지 중앙타워 6층","indutype":"일반휴게음식 - 일반한식","category":"restaurant"},{"name":"파티마마슈","tel":"031-398-8011","addr":"경기도 군포시 산본동 1142-7번지 중앙타워","indutype":"일반휴게음식 - 일반한식","category":"restaurant"}]},{"lat":"37.370944825","long":"126.94311588","imageIndex":4,"items":[{"name":"뉴욕야시장 금정역점","tel":"031-397-1121","addr":"경기도 군포시 산본동 266-9번지 2층","indutype":"일반휴게음식 - 주점","category":"restaurant"},{"name":"쥬씨금정역점","tel":"02-1234-5678","addr":"경기도 군포시 산본동 266-9번지 1층","indutype":"일반휴게음식 - 일반한식","category":"restaurant"}]},{"lat":"37.370833984","long":"126.93795672","imageIndex":4,"items":[{"name":"늘보리밥","tel":"031-391-2507","addr":"경기도 군포시 산본동 963-230번지 1층","indutype":"일반휴게음식 - 일반한식","category":"restaurant"}]},{"lat":"37.360811498","long":"126.93234399","imageIndex":4,"items":[{"name":"능이야(산본점)","tel":"031-391-3625","addr":"경기도 군포시 산본동 1125번지 현대코아텔 205,206호","indutype":"일반휴게음식 - 일반한식","category":"restaurant"},{"name":"능이야산본점","tel":"031-391-3625","addr":"경기도 군포시 산본동 1125번지 현대코아텔 205,206호","indutype":"일반휴게음식 - 일반한식","category":"restaurant"},{"name":"닐리비스트로","tel":"031-396-9966","addr":"경기도 군포시 산본동 1125번지 현대코아텔 108호","indutype":"일반휴게음식 - 서양음식","category":"restaurant"},{"name":"미스터포","tel":"031-399-7278","addr":"경기도 군포시 산본동 1125 현대코아텔203호~204호","indutype":"일반휴게음식 - 서양음식","category":"restaurant"},{"name":"윤쉐프의 짬뽕데이 산본점","tel":"031-111-1111","addr":"경기도 군포시 산본동 1125번지 현대코아텔 207,208호","indutype":"일반휴게음식 - 중국식","category":"restaurant"},{"name":"장수토종순대국","tel":"031-393-4006","addr":"경기도 군포시 산본동 1125번지 현대코아텔 202호","indutype":"일반휴게음식 - 일반한식","category":"restaurant"},{"name":"최군맥주산본역점","tel":"031-391-4231","addr":"경기도 군포시 산본동 1125번지 현대코아텔 1층 110호","indutype":"일반휴게음식 - 주점","category":"restaurant"},{"name":"탕휘쿵푸","tel":"031-747-8874","addr":"경기도 군포시 산본동 1125번지 현대코아텔 2층 201호","indutype":"일반휴게음식 - 중국식","category":"restaurant"}]},{"lat":"37.370611296","long":"126.94281133","imageIndex":4,"items":[{"name":"단골손님금정점","tel":"","addr":"경기도 군포시 산본동 248-1번지 2층","indutype":"일반휴게음식 - 주점","category":"restaurant"},{"name":"소메랑금정점","tel":"031-397-1898","addr":"경기도 군포시 산본동 248-1번지","indutype":"일반휴게음식 - 일반한식","category":"restaurant"}]},{"lat":"37.371418195","long":"126.93537093","imageIndex":4,"items":[{"name":"단골식당","tel":"031-915-2471","addr":"경기도 군포시 산본동 207-8번지 1층","indutype":"일반휴게음식 - 일반한식","category":"restaurant"}]},{"lat":"37.364477553","long":"126.93056827","imageIndex":4,"items":[{"name":"달 (Dall)","tel":"070-4111-7330","addr":"경기도 군포시 산본동 1095번지 덕양빌딩 1층 104호","indutype":"일반휴게음식 - 서양음식","category":"restaurant"},{"name":"맛드리면","tel":"031-399-3113","addr":"경기도 군포시 산본동 1095번지 덕양빌딩 105호","indutype":"일반휴게음식 - 일반한식","category":"restaurant"},{"name":"명가옛날통닭","tel":"031-391-9555","addr":"경기도 군포시 산본동 1095번지 덕양빌딩 101호","indutype":"일반휴게음식 - 스넥","category":"restaurant"},{"name":"요거프레소","tel":"031-398-4904","addr":"경기도 군포시 산본동 1095번지 덕양빌딩 102호","indutype":"일반휴게음식 - 서양음식","category":"restaurant"},{"name":"요거프레소/산본1호점","tel":"031-398-4904","addr":"경기도 군포시 산본동 1095번지 덕양빌딩 102호","indutype":"일반휴게음식 - 서양음식","category":"restaurant"},{"name":"치킨마루광정초교점","tel":"031-391-9191","addr":"경기도 군포시 산본동 1095번지 덕양빌딩 103호","indutype":"일반휴게음식 - 스넥","category":"restaurant"}]},{"lat":"37.359197964","long":"126.93114901","imageIndex":4,"items":[{"name":"달봉비어","tel":"031-393-8231","addr":"경기도 군포시 산본동 1139번지 거성빌딩2차 지층 1호","indutype":"일반휴게음식 - 주점","category":"restaurant"},{"name":"토담샤브샤브칼국수","tel":"031-392-8852","addr":"경기도 군포시 산본동 1139번지 거성빌딩2차 201호","indutype":"일반휴게음식 - 일반한식","category":"restaurant"}]},{"lat":"37.370998118","long":"126.94161434","imageIndex":4,"items":[{"name":"달봉비어","tel":"031-453-8738","addr":"경기도 군포시 산본동 265-18번지","indutype":"일반휴게음식 - 주점","category":"restaurant"},{"name":"해피꼬맹이뀀","tel":"031-252-3474","addr":"경기도 군포시 산본동 265-18번지 1층","indutype":"일반휴게음식 - 주점","category":"restaurant"}]},{"lat":"37.371196329","long":"126.9415916","imageIndex":4,"items":[{"name":"대동집(금정역점)","tel":"","addr":"경기도 군포시 산본동 265-4번지 1층","indutype":"일반휴게음식 - 일반한식","category":"restaurant"},{"name":"엄지","tel":"031-393-9135","addr":"경기도 군포시 산본동 265-4번지","indutype":"일반휴게음식 - 서양음식","category":"restaurant"}]},{"lat":"37.37039379","long":"126.94037301","imageIndex":4,"items":[{"name":"대초원샤브샤브","tel":"031-391-5888","addr":"경기도 군포시 산본동 238-2번지 1층","indutype":"일반휴게음식 - 중국식","category":"restaurant"}]},{"lat":"37.360359901","long":"126.93053836","imageIndex":4,"items":[{"name":"더까페","tel":"031-394-0447","addr":"경기도 군포시 산본동 1123-2번지 인베스텔 지하층 1호","indutype":"일반휴게음식 - 서양음식","category":"restaurant"},{"name":"오로라테이블","tel":"031-111-1111","addr":"경기도 군포시 산본동 1123-2번지 인베스텔 지층 101호","indutype":"일반휴게음식 - 서양음식","category":"restaurant"},{"name":"자연별곡 산본점","tel":"031-340-3854","addr":"경기도 군포시 산본동 1123-2번지 인베스텔 지하1층 101호","indutype":"일반휴게음식 - 일반한식","category":"restaurant"},{"name":"최수사","tel":"031-392-5901","addr":"경기도 군포시 산본동 1123-2번지 인베스텔 1층 101호","indutype":"일반휴게음식 - 일식·회집","category":"restaurant"}]},{"lat":"37.371169798","long":"126.94256252","imageIndex":4,"items":[{"name":"더네이버스","tel":"031-391-9298","addr":"경기도 군포시 산본동 259-11번지 1층","indutype":"일반휴게음식 - 주점","category":"restaurant"}]},{"lat":"37.370141315","long":"126.94001196","imageIndex":4,"items":[{"name":"더봄플라워카페","tel":"031-397-0395","addr":"경기도 군포시 산본동 236-8번지 1층","indutype":"일반휴게음식 - 서양음식","category":"restaurant"},{"name":"섭이네꼬마김밥","tel":"031-398-4500","addr":"경기도 군포시 산본동 236-8번지 1층","indutype":"일반휴게음식 - 스넥","category":"restaurant"}]},{"lat":"37.360532298","long":"126.93253614","imageIndex":4,"items":[{"name":"더브라더스","tel":"031-000-0000","addr":"경기도 군포시 산본동 1125-2번지 1층 1호일부, 2호","indutype":"일반휴게음식 - 주점","category":"restaurant"},{"name":"마이다스","tel":"031-394-8686","addr":"경기도 군포시 산본동 1125-2번지 보람타워 207호","indutype":"일반휴게음식 - 주점","category":"restaurant"},{"name":"바르다김선생 군포시청점","tel":"031-399-7800","addr":"경기도 군포시 산본동 1125-2번지 1층 7,8호","indutype":"일반휴게음식 - 스넥","category":"restaurant"},{"name":"밥집모락모락","tel":"02-6340-5359","addr":"경기도 군포시 산본동 1125-2번지 보람타워빌딩 지하1층 제1호-제11호","indutype":"일반휴게음식 - 일반한식","category":"restaurant"},{"name":"밥집모락모락","tel":"031-398-5444","addr":"경기도 군포시 산본동 1125-2번지 보람타워빌딩 지하1층 1호","indutype":"일반휴게음식 - 일반한식","category":"restaurant"},{"name":"비비스토리 (BB Story)","tel":"031-395-6777","addr":"경기도 군포시 산본동 1125-2번지 보람타워빌딩 1층 3호","indutype":"일반휴게음식 - 서양음식","category":"restaurant"},{"name":"비비스토리(BB story)","tel":"031-395-6777","addr":"경기도 군포시 산본동 1125-2번지 보람타워빌딩 1층 3호","indutype":"일반휴게음식 - 일반한식","category":"restaurant"},{"name":"새싹인삼칼국수","tel":"031-399-7758","addr":"경기도 군포시 산본동 1125-2번지 보람타워 1층 10호","indutype":"일반휴게음식 - 일반한식","category":"restaurant"},{"name":"소잡는해녀","tel":"031-392-9291","addr":"경기도 군포시 산본동 1125-2번지 보람타워201,202,203,204,207호","indutype":"일반휴게음식 - 일반한식","category":"restaurant"},{"name":"커반 (군포시청점)","tel":"070-7804-6672","addr":"경기도 군포시 산본동 1125-2번지 보람타워 1층 9호","indutype":"일반휴게음식 - 서양음식","category":"restaurant"}]},{"lat":"37.371529368","long":"126.94094783","imageIndex":4,"items":[{"name":"더카페215에스티","tel":"070-9977-9987","addr":"경기도 군포시 산본동 92-9번지 1층","indutype":"일반휴게음식 - 일반한식","category":"restaurant"},{"name":"명가설렁탕","tel":"031-391-8884","addr":"경기도 군포시 산본동 92-9번지 1층","indutype":"일반휴게음식 - 일반한식","category":"restaurant"}]},{"lat":"37.375080277","long":"126.94272874","imageIndex":4,"items":[{"name":"더킹라운지앤펍","tel":"070-7862-1697","addr":"경기도 군포시 산본동 1026-24번지 대맥프라자 7층 701호","indutype":"일반휴게음식 - 주점","category":"restaurant"},{"name":"지리산고향흑돼지","tel":"031-427-7929","addr":"경기도 군포시 산본동 1026-24번지 1층 102호~107호","indutype":"일반휴게음식 - 일반한식","category":"restaurant"},{"name":"한우만","tel":"031-427-8829","addr":"경기도 군포시 산본동 1026-24번지 대맥프라자","indutype":"일반휴게음식 - 일반한식","category":"restaurant"}]},{"lat":"37.355944158","long":"126.92928973","imageIndex":4,"items":[{"name":"덮불","tel":"","addr":"경기도 군포시 산본동 1231번지 1층 1-가호","indutype":"일반휴게음식 - 일반한식","category":"restaurant"},{"name":"스파랜드","tel":"031-397-0808","addr":"경기도 군포시 산본동 1231번지 산본스파랜드 지하1층","indutype":"일반휴게음식 - 일반한식","category":"restaurant"},{"name":"이디야 산본역사점","tel":"031-395-1004","addr":"경기도 군포시 산본동 1231번지 3층 산본역사 다호","indutype":"일반휴게음식 - 서양음식","category":"restaurant"}]},{"lat":"37.371611391","long":"126.94275409","imageIndex":4,"items":[{"name":"도깨비통닭","tel":"070-8185-9982","addr":"경기도 군포시 산본동 266-3번지 1층 52호","indutype":"일반휴게음식 - 주점","category":"restaurant"},{"name":"엔제리너스커피금정민병철점","tel":"031-398-2101","addr":"경기도 군포시 산본동 266-3번지 2층","indutype":"일반휴게음식 - 서양음식","category":"restaurant"}]},{"lat":"37.375251709","long":"126.94320278","imageIndex":4,"items":[{"name":"도란도란","tel":"031-451-9991","addr":"경기도 군포시 산본동 1026-30번지 에스에이타워 104호","indutype":"일반휴게음식 - 일반한식","category":"restaurant"},{"name":"이향원","tel":"031-427-9881","addr":"경기도 군포시 산본동 1026-30 외2필지SA타워101호~103호","indutype":"일반휴게음식 - 중국식","category":"restaurant"}]},{"lat":"37.367195868","long":"126.92620817","imageIndex":4,"items":[{"name":"도미노피자","tel":"031-391-3083","addr":"경기도 군포시 산본동 1104-2번지","indutype":"일반휴게음식 - 서양음식","category":"restaurant"}]},{"lat":"37.36027847","long":"126.92998534","imageIndex":4,"items":[{"name":"도쿄빙수산본점","tel":"070-7862-1697","addr":"경기도 군포시 산본동 1123-3번지 (1층105-2호)","indutype":"일반휴게음식 - 일반한식","category":"restaurant"},{"name":"돌깨마을맷돌순두부","tel":"031-394-8728","addr":"경기도 군포시 산본동 1123-3 성원골프연습장 106-1","indutype":"일반휴게음식 - 일반한식","category":"restaurant"},{"name":"라라코스트 군포산본점","tel":"031-399-3230","addr":"경기도 군포시 산본동 1123-3번지 센트로601 오피스텔 313호. 314호","indutype":"일반휴게음식 - 서양음식","category":"restaurant"},{"name":"라붐커피산본점","tel":"031-399-3737","addr":"경기도 군포시 산본동 1123-3번지 센트로601오피스텔 214호","indutype":"일반휴게음식 - 서양음식","category":"restaurant"},{"name":"바나나테이블 산본점","tel":"031-392-4475","addr":"경기도 군포시 산본동 1123-3번지 센트로 601 오피스텔 2층 201호","indutype":"일반휴게음식 - 일반한식","category":"restaurant"},{"name":"왕대박 감자탕","tel":"031-394-0051","addr":"경기도 군포시 산본동 1123-3번지","indutype":"일반휴게음식 - 일반한식","category":"restaurant"},{"name":"이학갈비(산본)","tel":"031-392-2095","addr":"경기도 군포시 산본동 1123-3번지 센트로601오피스텔 2층 205~211호","indutype":"일반휴게음식 - 일반한식","category":"restaurant"},{"name":"최네집","tel":"031-399-3477","addr":"경기도 군포시 산본동 1123-3번지 센트롤601오피스텔 2층 213호","indutype":"일반휴게음식 - 일반한식","category":"restaurant"}]},{"lat":"37.371886501","long":"126.93498666","imageIndex":4,"items":[{"name":"도토리정식","tel":"031-396-6367","addr":"경기도 군포시 산본동 1060-1번지 하나로빌딩 201호 일부","indutype":"일반휴게음식 - 일반한식","category":"restaurant"},{"name":"홍두깨","tel":"031-399-2263","addr":"경기도 군포시 산본동 1060-1번지 하나로빌딩 201호","indutype":"일반휴게음식 - 일반한식","category":"restaurant"}]},{"lat":"37.360778196","long":"126.92251228","imageIndex":4,"items":[{"name":"돈어담","tel":"031-398-5392","addr":"경기도 군포시 산본동 1147번지 금강2당지주상복합상가제시,디(923,924)동제2층","indutype":"일반휴게음식 - 일반한식","category":"restaurant"},{"name":"레드생튜나","tel":"031-392-1022","addr":"경기도 군포시 산본동 1147번지 금강2단지주상복합아파트","indutype":"일반휴게음식 - 일반한식","category":"restaurant"},{"name":"배스킨라빈스산본백두점","tel":"031-394-5231","addr":"경기도 군포시 산본동 1147번지 금강주상복합 상가 CD동 120-2,3","indutype":"일반휴게음식 - 서양음식","category":"restaurant"},{"name":"상큼스스토리","tel":"031-391-5001","addr":"경기도 군포시 산본동 1147번지 금강2단지주상복합상가 제시,디(923,924)동 1층 101호","indutype":"일반휴게음식 - 서양음식","category":"restaurant"},{"name":"소느로","tel":"031-394-4254","addr":"경기도 군포시 산본동 1147번지 금강2차주상복합상가아파트 B동 206호","indutype":"일반휴게음식 - 서양음식","category":"restaurant"},{"name":"소렐라","tel":"031-111-1111","addr":"경기도 군포시 산본동 1147번지 금강2단지주상복합아파트","indutype":"일반휴게음식 - 서양음식","category":"restaurant"},{"name":"소문난분식","tel":"031-392-7426","addr":"경기도 군포시 산본동 1147번지 주상복합상가 A동 B118호","indutype":"일반휴게음식 - 스넥","category":"restaurant"},{"name":"원조마포숯불갈비","tel":"031-394-5454","addr":"경기도 군포시 산본동 1147번지 금강2단지주상복합아파트","indutype":"일반휴게음식 - 일반한식","category":"restaurant"},{"name":"인터넷2호점","tel":"031-398-7535","addr":"경기도 군포시 산본동 1147번지 금강2단지주상복합아파트","indutype":"일반휴게음식 - 주점","category":"restaurant"},{"name":"커피보요","tel":"031-391-6430","addr":"경기도 군포시 산본동 1147번지 금강2단지주상복합상가 C ,D동 1층 103호","indutype":"일반휴게음식 - 서양음식","category":"restaurant"},{"name":"피자스쿨","tel":"031-396-0550","addr":"경기도 군포시 산본동 1147번지 금강2단지주상복합상가제C D동 113호","indutype":"일반휴게음식 - 서양음식","category":"restaurant"},{"name":"피자에땅 산본점","tel":"031-395-3360","addr":"경기도 군포시 산본동 1147번지 금강2단지주상복합아파트","indutype":"일반휴게음식 - 서양음식","category":"restaurant"},{"name":"혜밀","tel":"031-391-5002","addr":"경기도 군포시 산본동 1147번지 금강2단지주상복합상가동 B18호","indutype":"일반휴게음식 - 스넥","category":"restaurant"}]},{"lat":"37.359449911","long":"126.93059567","imageIndex":4,"items":[{"name":"돈치킨호프","tel":"031-398-7778","addr":"경기도 군포시 산본동 1138-3번지 씨티빌딩 203호","indutype":"일반휴게음식 - 스넥","category":"restaurant"},{"name":"마실","tel":"070-8761-2222","addr":"경기도 군포시 산본동 1138-3번지 씨티프라자 301호","indutype":"일반휴게음식 - 일반한식","category":"restaurant"},{"name":"양은냄비","tel":"031-399-8436","addr":"경기도 군포시 산본동 1138-3 씨티제1층106,107,108호","indutype":"일반휴게음식 - 일반한식","category":"restaurant"},{"name":"킹콩쥬스&커피산본로데오점","tel":"031-395-9997","addr":"경기도 군포시 산본동 1138-3번지 씨티프라자 1층 103호","indutype":"일반휴게음식 - 서양음식","category":"restaurant"},{"name":"텬고 산본점","tel":"031-392-4888","addr":"경기도 군포시 산본동 1138-3번지 씨티프라자 102호","indutype":"일반휴게음식 - 스넥","category":"restaurant"},{"name":"한신포차 산본역점","tel":"031-398-0410","addr":"경기도 군포시 산본동 1138-3번지 씨디빌딩 201,202호","indutype":"일반휴게음식 - 주점","category":"restaurant"}]},{"lat":"37.371275795","long":"126.9385321","imageIndex":4,"items":[{"name":"돌이네밥상","tel":"031-396-0891","addr":"경기도 군포시 산본동 81-33번지 1층","indutype":"일반휴게음식 - 일반한식","category":"restaurant"}]},{"lat":"37.35906288","long":"126.93126201","imageIndex":4,"items":[{"name":"돔토루산본점","tel":"031-399-6494","addr":"경기도 군포시 산본동 1139-1번지 태경빌딩 지하1층","indutype":"일반휴게음식 - 주점","category":"restaurant"},{"name":"등짝","tel":"031-391-9252","addr":"경기도 군포시 산본동 1139-1번지 태경빌딩 1층 1002호","indutype":"일반휴게음식 - 일반한식","category":"restaurant"}]},{"lat":"37.370503684","long":"126.92792079","imageIndex":4,"items":[{"name":"동네반찬한식뷔페","tel":"","addr":"경기도 군포시 산본동 1088번지 지하1층 일부호(54,55호)","indutype":"일반휴게음식 - 일반한식","category":"restaurant"}]},{"lat":"37.372111897","long":"126.93523483","imageIndex":4,"items":[{"name":"동서네낙지산본점","tel":"031-392-5455","addr":"경기도 군포시 산본동 1060번지 2층 201호","indutype":"일반휴게음식 - 일반한식","category":"restaurant"},{"name":"수리산두부마을","tel":"031-391-2201","addr":"경기도 군포시 산본동 1060번지 203,204,205호","indutype":"일반휴게음식 - 일반한식","category":"restaurant"},{"name":"조이분식","tel":"070-7452-4957","addr":"경기도 군포시 산본동 1060번지 산본타운 108호","indutype":"일반휴게음식 - 스넥","category":"restaurant"}]},{"lat":"37.358811835","long":"126.93333917","imageIndex":4,"items":[{"name":"두근두근소야소","tel":"031-391-8562","addr":"경기도 군포시 산본동 1142-2번지 대우디오플러스 211호,212호,213호","indutype":"일반휴게음식 - 일반한식","category":"restaurant"},{"name":"마빈스","tel":"031-391-1400","addr":"경기도 군포시 산본동 1142-2번지 대우디오플러스 211호","indutype":"일반휴게음식 - 서양음식","category":"restaurant"},{"name":"마쯔","tel":"031-398-9998","addr":"경기도 군포시 산본동 1142-2번지 대우디오플러스 1층 132호","indutype":"일반휴게음식 - 일반한식","category":"restaurant"},{"name":"본죽","tel":"031-390-6330","addr":"경기도 군포시 산본동 1142-2번지 외1필지산본대우디오프러스 103동 104호","indutype":"일반휴게음식 - 일반한식","category":"restaurant"},{"name":"산쪼메 산본점","tel":"02-511-8355","addr":"경기도 군포시 산본동 1142-2번지 대우디오플러스 1층 138호","indutype":"일반휴게음식 - 일식·회집","category":"restaurant"},{"name":"엔소쿠","tel":"031-392-1007","addr":"경기도 군포시 산본동 1142-2번지 대우디오플러스 2층 202,203호","indutype":"일반휴게음식 - 서양음식","category":"restaurant"},{"name":"옹골네순대국","tel":"031-391-3464","addr":"경기도 군포시 산본동 1142-2번지 디오플러스 105,106호","indutype":"일반휴게음식 - 일반한식","category":"restaurant"},{"name":"전주콩나물해장국","tel":"031-393-9799","addr":"경기도 군포시 산본동 1142-2번지 대우디오플러스 109호","indutype":"일반휴게음식 - 일반한식","category":"restaurant"},{"name":"채선당 산본점","tel":"031-344-3520","addr":"경기도 군포시 산본동 1142-2번지 대우디오플러스 304호","indutype":"일반휴게음식 - 일반한식","category":"restaurant"},{"name":"카리스커피","tel":"02-794-0554","addr":"경기도 군포시 산본동 1142-2번지 산본대우디오플러스 301호","indutype":"일반휴게음식 - 서양음식","category":"restaurant"},{"name":"태연올갱이해장국","tel":"031-399-9438","addr":"경기도 군포시 산본동 1142-2 외1필지산본대우디오플러스 107호108호","indutype":"일반휴게음식 - 일반한식","category":"restaurant"},{"name":"포메인산본점","tel":"031-344-9294","addr":"경기도 군포시 산본동 1142-2번지 산본대우디오플러스제305호","indutype":"일반휴게음식 - 서양음식","category":"restaurant"},{"name":"헤라(hera)","tel":"031-397-5458","addr":"경기도 군포시 산본동 1142-2번지 대우디오플러스 1층 133호","indutype":"일반휴게음식 - 서양음식","category":"restaurant"}]},{"lat":"37.372778916","long":"126.9357084","imageIndex":4,"items":[{"name":"두레박호프","tel":"031-391-4855","addr":"경기도 군포시 산본동 106-4번지 임광그대가아파트","indutype":"일반휴게음식 - 주점","category":"restaurant"}]},{"lat":"37.370727438","long":"126.94089205","imageIndex":4,"items":[{"name":"드라마","tel":"031-396-4949","addr":"경기도 군포시 산본동 238-7번지 2층","indutype":"일반휴게음식 - 주점","category":"restaurant"},{"name":"드라마","tel":"031-396-4949","addr":"경기도 군포시 산본동 238-7번지 2층","indutype":"일반휴게음식 - 일반한식","category":"restaurant"}]},{"lat":"37.371025538","long":"126.94237071","imageIndex":4,"items":[{"name":"등빨","tel":"070-8747-3192","addr":"경기도 군포시 산본동 259-13번지 1층","indutype":"일반휴게음식 - 일반한식","category":"restaurant"},{"name":"신안홍어","tel":"031-398-8860","addr":"경기도 군포시 산본동 259-13번지 1층","indutype":"일반휴게음식 - 일반한식","category":"restaurant"},{"name":"요미남","tel":"070-8285-9761","addr":"경기도 군포시 산본동 259-13번지 1층","indutype":"일반휴게음식 - 주점","category":"restaurant"}]},{"lat":"37.367311996","long":"126.93975468","imageIndex":4,"items":[{"name":"디하우스(군포점)","tel":"031-427-9280","addr":"경기도 군포시 산본동 1034번지 1층","indutype":"일반휴게음식 - 일반한식","category":"restaurant"}]},{"lat":"37.371003742","long":"126.93539388","imageIndex":4,"items":[{"name":"땡큐(thank U)","tel":"","addr":"경기도 군포시 산본동 207-28번지 1층 103호","indutype":"일반휴게음식 - 주점","category":"restaurant"},{"name":"부뚜막소막창","tel":"","addr":"경기도 군포시 산본동 207-28번지 1층 103호","indutype":"일반휴게음식 - 일반한식","category":"restaurant"}]},{"lat":"37.367807135","long":"126.93897533","imageIndex":4,"items":[{"name":"떡앤빙산본점","tel":"031-398-5522","addr":"경기도 군포시 산본동 230-3번지 104호","indutype":"일반휴게음식 - 스넥","category":"restaurant"},{"name":"오고파식당","tel":"031-396-7710","addr":"경기도 군포시 산본동 230-3번지","indutype":"일반휴게음식 - 일반한식","category":"restaurant"}]},{"lat":"37.370530136","long":"126.94267592","imageIndex":4,"items":[{"name":"또와돈","tel":"031-379-0477","addr":"경기도 군포시 산본동 248-6번지 105호","indutype":"일반휴게음식 - 일반한식","category":"restaurant"},{"name":"선호네찌개짚","tel":"031-391-1322","addr":"경기도 군포시 산본동 248-6번지 1층","indutype":"일반휴게음식 - 일반한식","category":"restaurant"},{"name":"종로앞집","tel":"070-7715-1606","addr":"경기도 군포시 산본동 248-6번지 1층","indutype":"일반휴게음식 - 주점","category":"restaurant"},{"name":"친구야친구","tel":"031-393-5112","addr":"경기도 군포시 산본동 248-6번지 103호","indutype":"일반휴게음식 - 주점","category":"restaurant"},{"name":"환","tel":"031-111-1111","addr":"경기도 군포시 산본동 248-6번지 1층","indutype":"일반휴게음식 - 주점","category":"restaurant"}]},{"lat":"37.351364641","long":"126.92559224","imageIndex":4,"items":[{"name":"뜨락정원","tel":"031-458-2800","addr":"경기도 군포시 산본동 1154번지","indutype":"일반휴게음식 - 일반한식","category":"restaurant"}]},{"lat":"37.372611221","long":"126.94217752","imageIndex":4,"items":[{"name":"라메이즈마라탕(금정)","tel":"","addr":"경기도 군포시 산본동 98-3번지","indutype":"일반휴게음식 - 중국식","category":"restaurant"},{"name":"만남의광장","tel":"031-391-0335","addr":"경기도 군포시 산본동 98-3번지 지하1층","indutype":"일반휴게음식 - 주점","category":"restaurant"}]},{"lat":"37.355421369","long":"126.91573446","imageIndex":4,"items":[{"name":"라면이라면 (분점)","tel":"070-7895-1489","addr":"경기도 군포시 산본동 1152번지 4층","indutype":"일반휴게음식 - 일반한식","category":"restaurant"},{"name":"아미스카페3호","tel":"070-4419-7807","addr":"경기도 군포시 산본동 1152번지 중앙도서관 1층","indutype":"일반휴게음식 - 서양음식","category":"restaurant"},{"name":"제이엘(JL)푸드","tel":"070-7556-3461","addr":"경기도 군포시 산본동 1152번지 군포시중앙도서관 4층","indutype":"일반휴게음식 - 일반한식","category":"restaurant"}]},{"lat":"37.371386213","long":"126.94290103","imageIndex":4,"items":[{"name":"라타왈리","tel":"031-399-6835","addr":"경기도 군포시 산본동 266-5번지","indutype":"일반휴게음식 - 서양음식","category":"restaurant"},{"name":"카페파스쿠찌금정역점","tel":"031-399-8497","addr":"경기도 군포시 산본동 266-5번지 1층","indutype":"일반휴게음식 - 서양음식","category":"restaurant"},{"name":"카페파스쿠찌금정역점","tel":"031-399-8497","addr":"경기도 군포시 산본동 266-5번지 1층","indutype":"일반휴게음식 - 서양음식","category":"restaurant"}]},{"lat":"37.371891443","long":"126.92823551","imageIndex":4,"items":[{"name":"램스다이닝","tel":"031-1899-3272","addr":"경기도 군포시 산본동 1082-3번지 1층","indutype":"일반휴게음식 - 일반한식","category":"restaurant"}]},{"lat":"37.372112416","long":"126.93614928","imageIndex":4,"items":[{"name":"레드브릭(Red Brick)","tel":"031-399-8921","addr":"경기도 군포시 산본동 206-7번지 1층","indutype":"일반휴게음식 - 서양음식","category":"restaurant"}]},{"lat":"37.358811236","long":"126.91856373","imageIndex":4,"items":[{"name":"레인보우2호점","tel":"031-395-1811","addr":"경기도 군포시 산본동 1151-10번지 수리산상상마을 1층 103호","indutype":"일반휴게음식 - 서양음식","category":"restaurant"},{"name":"아미스카페4호","tel":"031-391-5553","addr":"경기도 군포시 산본동 1151-10번지 1층","indutype":"일반휴게음식 - 서양음식","category":"restaurant"}]},{"lat":"37.371421205","long":"126.9408689","imageIndex":4,"items":[{"name":"롯데리아 금정역점","tel":"031-398-8989","addr":"경기도 군포시 산본동 92-15번지 1층","indutype":"일반휴게음식 - 서양음식","category":"restaurant"},{"name":"미인초밥","tel":"031-398-9400","addr":"경기도 군포시 산본동 92-15번지 2층","indutype":"일반휴게음식 - 일반한식","category":"restaurant"}]},{"lat":"37.369221907","long":"126.9393128","imageIndex":4,"items":[{"name":"루비","tel":"031-394-2861","addr":"경기도 군포시 산본동 226-7번지 1층","indutype":"일반휴게음식 - 주점","category":"restaurant"},{"name":"별미포차","tel":"031-393-2977","addr":"경기도 군포시 산본동 226-7번지","indutype":"일반휴게음식 - 주점","category":"restaurant"},{"name":"치킨선생 산본점","tel":"031-391-9006","addr":"경기도 군포시 산본동 226-7번지 1층","indutype":"일반휴게음식 - 주점","category":"restaurant"}]},{"lat":"37.371088493","long":"126.94214487","imageIndex":4,"items":[{"name":"리얼펍REALPUB (금정점)","tel":"031-391-2500","addr":"경기도 군포시 산본동 259-7번지 1층","indutype":"일반휴게음식 - 주점","category":"restaurant"}]},{"lat":"37.35963902","long":"126.93042618","imageIndex":4,"items":[{"name":"리틀크레이지피자","tel":"031-392-0282","addr":"경기도 군포시 산본동 1137-2번지 여명프라자 105,106호","indutype":"일반휴게음식 - 스넥","category":"restaurant"},{"name":"먹싸갈비(산본역점)","tel":"031-391-8292","addr":"경기도 군포시 산본동 1137-2번지 여명프라자 2층 202호","indutype":"일반휴게음식 - 일반한식","category":"restaurant"},{"name":"삼정복집","tel":"031-395-5880","addr":"경기도 군포시 산본동 1137-2번지 여명프라자 201호","indutype":"일반휴게음식 - 일반한식","category":"restaurant"},{"name":"센본","tel":"031-397-3737","addr":"경기도 군포시 산본동 1137-2번지 여명프라자 301호","indutype":"일반휴게음식 - 주점","category":"restaurant"},{"name":"에그드랍(EGGDROP)","tel":"031-000-0000","addr":"경기도 군포시 산본동 1137-2번지 여명프라자 1층 104호","indutype":"일반휴게음식 - 일반한식","category":"restaurant"},{"name":"우린 붕어빵","tel":"031-713-3465","addr":"경기도 군포시 산본동 1137-2번지 여명프라자 101호","indutype":"일반휴게음식 - 일반한식","category":"restaurant"},{"name":"지지고 산본점","tel":"031-395-1253","addr":"경기도 군포시 산본동 1137-2번지 여명프라자 104호","indutype":"일반휴게음식 - 일반한식","category":"restaurant"}]},{"lat":"37.372331067","long":"126.94056333","imageIndex":4,"items":[{"name":"림해식당","tel":"031-392-9767","addr":"경기도 군포시 산본동 93-11번지","indutype":"일반휴게음식 - 일반한식","category":"restaurant"}]},{"lat":"37.372274707","long":"126.93634106","imageIndex":4,"items":[{"name":"마라천하","tel":"070-8623-5999","addr":"경기도 군포시 산본동 206-8번지 1층","indutype":"일반휴게음식 - 중국식","category":"restaurant"},{"name":"어해랑","tel":"031-430-1535","addr":"경기도 군포시 산본동 206-8번지 1층 102호","indutype":"일반휴게음식 - 일반한식","category":"restaurant"},{"name":"피넛","tel":"","addr":"경기도 군포시 산본동 206-8번지 1층","indutype":"일반휴게음식 - 서양음식","category":"restaurant"}]},{"lat":"37.372583759","long":"126.9413421","imageIndex":4,"items":[{"name":"마라탕","tel":"031-331-4999","addr":"경기도 군포시 산본동 98-26번지 1층","indutype":"일반휴게음식 - 중국식","category":"restaurant"},{"name":"보성족발","tel":"070-8111-9985","addr":"경기도 군포시 산본동 98-26번지 1층 일부호","indutype":"일반휴게음식 - 일반한식","category":"restaurant"}]},{"lat":"37.370305009","long":"126.94292447","imageIndex":4,"items":[{"name":"마루이","tel":"031-393-6388","addr":"경기도 군포시 산본동 248-3번지 1층","indutype":"일반휴게음식 - 일반한식","category":"restaurant"},{"name":"샤갈의오후","tel":"031-399-3800","addr":"경기도 군포시 산본동 248-3번지 2층","indutype":"일반휴게음식 - 주점","category":"restaurant"},{"name":"육회지존","tel":"031-391-6467","addr":"경기도 군포시 산본동 248-3번지 1층","indutype":"일반휴게음식 - 일반한식","category":"restaurant"},{"name":"찌개지존","tel":"031-399-8838","addr":"경기도 군포시 산본동 248-3번지","indutype":"일반휴게음식 - 일반한식","category":"restaurant"}]},{"lat":"37.360531799","long":"126.93170084","imageIndex":4,"items":[{"name":"마산아구찜","tel":"031-393-5955","addr":"경기도 군포시 산본동 1132-3번지 성진빌딩 2층 202호","indutype":"일반휴게음식 - 일반한식","category":"restaurant"},{"name":"참치봉","tel":"031-399-3788","addr":"경기도 군포시 산본동 1132-3번지 성진빌딩 103호","indutype":"일반휴게음식 - 일반한식","category":"restaurant"},{"name":"피자헛산본점","tel":"031-393-0505","addr":"경기도 군포시 산본동 1132-3번지 성진빌딩 201동 202호","indutype":"일반휴게음식 - 서양음식","category":"restaurant"}]},{"lat":"37.359946934","long":"126.93303335","imageIndex":4,"items":[{"name":"마시따통영","tel":"031-393-9189","addr":"경기도 군포시 산본동 1126번지 경원빌딩 6호","indutype":"일반휴게음식 - 일반한식","category":"restaurant"},{"name":"모로미쿠시 산본점","tel":"031-689-5766","addr":"경기도 군포시 산본동 1126번지 경원빌딩 1층 12호","indutype":"일반휴게음식 - 일반한식","category":"restaurant"},{"name":"바다양푼이동태탕.찜","tel":"031-392-9800","addr":"경기도 군포시 산본동 1126번지 경원빌딩 2층 4호","indutype":"일반휴게음식 - 일반한식","category":"restaurant"},{"name":"비스트로302","tel":"031-395-1538","addr":"경기도 군포시 산본동 1126번지 경원빌딩 1층 10,11호","indutype":"일반휴게음식 - 일반한식","category":"restaurant"},{"name":"사주카페","tel":"031-393-5171","addr":"경기도 군포시 산본동 1126번지 경원빌딩 203호","indutype":"일반휴게음식 - 칵테일바","category":"restaurant"},{"name":"오리장터","tel":"031-394-2626","addr":"경기도 군포시 산본동 1126번지 경원빌딩 204호","indutype":"일반휴게음식 - 일반한식","category":"restaurant"},{"name":"카페행선지","tel":"","addr":"경기도 군포시 산본동 1126번지 경원빌딩 2층 2호","indutype":"일반휴게음식 - 서양음식","category":"restaurant"}]},{"lat":"37.369834862","long":"126.93980901","imageIndex":4,"items":[{"name":"만남호프광장","tel":"031-393-5860","addr":"경기도 군포시 산본동 236-14번지 1층","indutype":"일반휴게음식 - 주점","category":"restaurant"}]},{"lat":"37.371283248","long":"126.93573231","imageIndex":4,"items":[{"name":"만복순대국산본점","tel":"031-391-5900","addr":"경기도 군포시 산본동 207-31번지","indutype":"일반휴게음식 - 일반한식","category":"restaurant"}]},{"lat":"37.371002895","long":"126.93392625","imageIndex":4,"items":[{"name":"맘마미야도시락","tel":"031-396-1253","addr":"경기도 군포시 산본동 1061-3번지 미성프라자 202호","indutype":"일반휴게음식 - 일반한식","category":"restaurant"},{"name":"생과일전문점시소","tel":"031-397-7066","addr":"경기도 군포시 산본동 1061-3번지 미성프라자 209호","indutype":"일반휴게음식 - 서양음식","category":"restaurant"},{"name":"치킨마루 동백우성점","tel":"031-392-1253","addr":"경기도 군포시 산본동 1061-3번지 미성프라자 1층 111호","indutype":"일반휴게음식 - 스넥","category":"restaurant"},{"name":"커반(곡란점)","tel":"031-392-1341","addr":"경기도 군포시 산본동 1061-3번지 미성프라자 112호","indutype":"일반휴게음식 - 서양음식","category":"restaurant"}]},{"lat":"37.370834823","long":"126.93950336","imageIndex":4,"items":[{"name":"맘스김밥","tel":"031-342-7379","addr":"경기도 군포시 산본동 91-3번지 102호","indutype":"일반휴게음식 - 일반한식","category":"restaurant"},{"name":"숟가락젓가락","tel":"","addr":"경기도 군포시 산본동 91-3번지 1층","indutype":"일반휴게음식 - 일반한식","category":"restaurant"}]},{"lat":"37.359585194","long":"126.93081001","imageIndex":4,"items":[{"name":"매키스(산본점)","tel":"031-399-4234","addr":"경기도 군포시 산본동 1138번지 성훈빌딩 104호","indutype":"일반휴게음식 - 서양음식","category":"restaurant"},{"name":"아지트","tel":"031-399-6277","addr":"경기도 군포시 산본동 1138번지 우정빌딩 301호","indutype":"일반휴게음식 - 주점","category":"restaurant"},{"name":"칠성포차산본점","tel":"031-399-7384","addr":"경기도 군포시 산본동 1138번지 우정빌딩 2층","indutype":"일반휴게음식 - 일반한식","category":"restaurant"},{"name":"화이트캐슬","tel":"031-391-2068","addr":"경기도 군포시 산본동 1138번지 우정빌딩 6층","indutype":"일반휴게음식 - 일반한식","category":"restaurant"}]},{"lat":"37.373365241","long":"126.9368933","imageIndex":4,"items":[{"name":"맥도날드 군포산본DT점","tel":"070-7209-0582","addr":"경기도 군포시 산본동 51-1번지 ,1,2층","indutype":"일반휴게음식 - 서양음식","category":"restaurant"},{"name":"맥도날드 군포산본DT점","tel":"070-7209-0582","addr":"경기도 군포시 산본동 51-1번지","indutype":"일반휴게음식 - 서양음식","category":"restaurant"}]},{"lat":"37.371449169","long":"126.94267519","imageIndex":4,"items":[{"name":"맥주왕뚜껑식당","tel":"031-348-4422","addr":"경기도 군포시 산본동 266-15번지 2층","indutype":"일반휴게음식 - 일반한식","category":"restaurant"},{"name":"삼겹싸롱 금정역점","tel":"031-391-7077","addr":"경기도 군포시 산본동 266-15번지 1층","indutype":"일반휴게음식 - 일반한식","category":"restaurant"},{"name":"시티라인레스토랑","tel":"031-394-4500","addr":"경기도 군포시 산본동 266-15번지","indutype":"일반휴게음식 - 서양음식","category":"restaurant"},{"name":"완차이","tel":"031-392-9915","addr":"경기도 군포시 산본동 266-15번지 1층","indutype":"일반휴게음식 - 일반한식","category":"restaurant"}]},{"lat":"37.359639529","long":"126.93126147","imageIndex":4,"items":[{"name":"맥주창고","tel":"031-394-1517","addr":"경기도 군포시 산본동 1136-2번지 삼일빌딩 301동 302호","indutype":"일반휴게음식 - 주점","category":"restaurant"},{"name":"맥주클럽","tel":"031-394-1813","addr":"경기도 군포시 산본동 1136-2번지 삼일빌딩 802호","indutype":"일반휴게음식 - 주점","category":"restaurant"},{"name":"명성왕족발","tel":"031-399-9088","addr":"경기도 군포시 산본동 1136-2번지 삼일빌딩 107호","indutype":"일반휴게음식 - 일반한식","category":"restaurant"},{"name":"몬스터피자 산본점","tel":"031-399-8869","addr":"경기도 군포시 산본동 1136-2번지 삼일빌딩 1층 5호","indutype":"일반휴게음식 - 서양음식","category":"restaurant"},{"name":"스시하우스","tel":"031-398-5689","addr":"경기도 군포시 산본동 1136-2번지 삼일빌딩 305호 303","indutype":"일반휴게음식 - 일식·회집","category":"restaurant"},{"name":"와인싸롱 뱅뱅 산본역점","tel":"031-398-8550","addr":"경기도 군포시 산본동 1136-2번지 삼일빌딩 2층 2호","indutype":"일반휴게음식 - 칵테일바","category":"restaurant"},{"name":"홍콩반점0410산본역점","tel":"031-391-0410","addr":"경기도 군포시 산본동 1136-2번지 삼일빌딩 2층 3호","indutype":"일반휴게음식 - 중국식","category":"restaurant"},{"name":"화포식당 산본역점","tel":"02-000-0000","addr":"경기도 군포시 산본동 1136-2번지 삼일빌딩 2-1호","indutype":"일반휴게음식 - 일반한식","category":"restaurant"}]},{"lat":"37.371755525","long":"126.94269752","imageIndex":4,"items":[{"name":"먹깨비김밥","tel":"031-391-0766","addr":"경기도 군포시 산본동 266-2번지 1층","indutype":"일반휴게음식 - 일반한식","category":"restaurant"},{"name":"좋은향기콩나물국밥","tel":"031-399-9958","addr":"경기도 군포시 산본동 266-2번지 1층","indutype":"일반휴게음식 - 일반한식","category":"restaurant"}]},{"lat":"37.359305818","long":"126.93070869","imageIndex":4,"items":[{"name":"먹깨비김밥·만두","tel":"031-391-4858","addr":"경기도 군포시 산본동 1138-2번지 1층 101호","indutype":"일반휴게음식 - 스넥","category":"restaurant"},{"name":"설빙산본점","tel":"031-393-5311","addr":"경기도 군포시 산본동 1138-2번지 201호","indutype":"일반휴게음식 - 스넥","category":"restaurant"}]},{"lat":"37.369474403","long":"126.93970771","imageIndex":4,"items":[{"name":"메모리","tel":"031-391-9666","addr":"경기도 군포시 산본동 232-1번지 1층","indutype":"일반휴게음식 - 주점","category":"restaurant"},{"name":"화를품은닭본점","tel":"031-391-9254","addr":"경기도 군포시 산본동 232-1번지 1층","indutype":"일반휴게음식 - 일반한식","category":"restaurant"}]},{"lat":"37.362254852","long":"126.92104325","imageIndex":4,"items":[{"name":"메밀사랑","tel":"031-398-8955","addr":"경기도 군포시 산본동 1148번지 묘향롯데아파트 202호","indutype":"일반휴게음식 - 일반한식","category":"restaurant"}]},{"lat":"37.368249068","long":"126.93978776","imageIndex":4,"items":[{"name":"멕시카나군포금정산본행복점","tel":"031-393-9288","addr":"경기도 군포시 산본동 231-7번지 1층 일부호","indutype":"일반휴게음식 - 스넥","category":"restaurant"}]},{"lat":"37.367636833","long":"126.94064623","imageIndex":4,"items":[{"name":"멜팅","tel":"031-345-5550","addr":"경기도 군포시 산본동 1034-11번지 1층","indutype":"일반휴게음식 - 서양음식","category":"restaurant"},{"name":"멜팅","tel":"031-3455-5550","addr":"경기도 군포시 산본동 1034-11번지 1층","indutype":"일반휴게음식 - 서양음식","category":"restaurant"}]},{"lat":"37.360197085","long":"126.92951133","imageIndex":4,"items":[{"name":"명가스시앤그릴","tel":"031-391-2370","addr":"경기도 군포시 산본동 1123-5번지 신원타워빌딩 1001,1002호","indutype":"일반휴게음식 - 일식·회집","category":"restaurant"},{"name":"명가스시앤그릴","tel":"031-391-2370","addr":"경기도 군포시 산본동 1123-5번지 신원타워빌딩 1001,1002호","indutype":"일반휴게음식 - 일식·회집","category":"restaurant"},{"name":"보타닉가든 (Botanic Garden)","tel":"031-392-4214","addr":"경기도 군포시 산본동 1123-5번지 신원타워빌딩 203호","indutype":"일반휴게음식 - 서양음식","category":"restaurant"},{"name":"왕짜장","tel":"031-394-8880","addr":"경기도 군포시 산본동 1123-5번지 신원타워빌딩 201호","indutype":"일반휴게음식 - 중국식","category":"restaurant"},{"name":"크레마S","tel":"070-8802-7750","addr":"경기도 군포시 산본동 1123-5번지 신원빌딩 2층 202호","indutype":"일반휴게음식 - 서양음식","category":"restaurant"}]},{"lat":"37.371890677","long":"126.94269741","imageIndex":4,"items":[{"name":"명랑시대쌀핫도그 금정역점","tel":"02-000-0000","addr":"경기도 군포시 산본동 266-1번지 두성빌딩 1층","indutype":"일반휴게음식 - 서양음식","category":"restaurant"},{"name":"홍콩반점0410(금정역점)","tel":"031-392-0410","addr":"경기도 군포시 산본동 266-1번지 2층","indutype":"일반휴게음식 - 중국식","category":"restaurant"}]},{"lat":"37.370004698","long":"126.93731395","imageIndex":4,"items":[{"name":"명랑시대쌀핫도그 산본시장점","tel":"02-000-0000","addr":"경기도 군포시 산본동 216-18번지 1층","indutype":"일반휴게음식 - 서양음식","category":"restaurant"}]},{"lat":"37.370167321","long":"126.93811534","imageIndex":4,"items":[{"name":"못난이찹쌀꽈배기","tel":"031-451-3358","addr":"경기도 군포시 산본동 220-4번지 1층","indutype":"일반휴게음식 - 일반한식","category":"restaurant"}]},{"lat":"37.371142385","long":"126.94181744","imageIndex":4,"items":[{"name":"무한도전","tel":"031-391-9019","addr":"경기도 군포시 산본동 265-16번지 1층","indutype":"일반휴게음식 - 일반한식","category":"restaurant"},{"name":"우리두리","tel":"031-391-9019","addr":"경기도 군포시 산본동 265-16번지","indutype":"일반휴게음식 - 주점","category":"restaurant"}]},{"lat":"37.370836509","long":"126.94273212","imageIndex":4,"items":[{"name":"물만난 오징어","tel":"031-392-7774","addr":"경기도 군포시 산본동 252-9번지 1층","indutype":"일반휴게음식 - 일식·회집","category":"restaurant"},{"name":"본빠","tel":"031-393-4393","addr":"경기도 군포시 산본동 252-9번지 지층","indutype":"일반휴게음식 - 주점","category":"restaurant"},{"name":"본빠","tel":"031-393-4393","addr":"경기도 군포시 산본동 252-9번지 지층","indutype":"일반휴게음식 - 주점","category":"restaurant"}]},{"lat":"37.36519799","long":"126.929958","imageIndex":4,"items":[{"name":"미담","tel":"031-399-4356","addr":"경기도 군포시 산본동 1094번지 삼대빌딩 1층","indutype":"일반휴게음식 - 일반한식","category":"restaurant"},{"name":"아기숟가락 산본점","tel":"031-395-2610","addr":"경기도 군포시 산본동 1094번지 삼내빌딩 1층","indutype":"일반휴게음식 - 일반한식","category":"restaurant"},{"name":"춘하추동","tel":"031-396-0789","addr":"경기도 군포시 산본동 1094번지 삼대빌딩 1층","indutype":"일반휴게음식 - 일반한식","category":"restaurant"}]},{"lat":"37.36927615","long":"126.93965143","imageIndex":4,"items":[{"name":"미리네호프","tel":"031-396-5386","addr":"경기도 군포시 산본동 232-15번지","indutype":"일반휴게음식 - 칵테일바","category":"restaurant"}]},{"lat":"37.371755387","long":"126.94242657","imageIndex":4,"items":[{"name":"미스사이공 금정역점","tel":"031-395-0420","addr":"경기도 군포시 산본동 266-18번지 2층","indutype":"일반휴게음식 - 스넥","category":"restaurant"},{"name":"빽다방","tel":"070-4203-8416","addr":"경기도 군포시 산본동 266-18번지","indutype":"일반휴게음식 - 서양음식","category":"restaurant"},{"name":"빽다방 금정역점","tel":"031-393-3694","addr":"경기도 군포시 산본동 266-18번지","indutype":"일반휴게음식 - 서양음식","category":"restaurant"}]},{"lat":"37.358639095","long":"126.93075448","imageIndex":4,"items":[{"name":"미스사이공 산본점","tel":"031-398-0420","addr":"경기도 군포시 산본동 1143-2번지 우주타운빌딩 109,110호","indutype":"일반휴게음식 - 서양음식","category":"restaurant"},{"name":"브라보","tel":"","addr":"경기도 군포시 산본동 1143-2번지 우주타운빌딩 1층 114호","indutype":"일반휴게음식 - 서양음식","category":"restaurant"},{"name":"써브웨이 산본로데오점","tel":"031-391-0776","addr":"경기도 군포시 산본동 1143-2번지 102.103호","indutype":"일반휴게음식 - 서양음식","category":"restaurant"},{"name":"알콜라떼","tel":"031-398-1717","addr":"경기도 군포시 산본동 1143-2번지 우주타운빌딩 208호 207호,208호","indutype":"일반휴게음식 - 주점","category":"restaurant"},{"name":"애플김밥산본점","tel":"031-393-1277","addr":"경기도 군포시 산본동 1143-2번지 우주타운빌딩 1층 101호","indutype":"일반휴게음식 - 일반한식","category":"restaurant"}]},{"lat":"37.359333334","long":"126.93151009","imageIndex":4,"items":[{"name":"미스터피자 산본점","tel":"031-396-8892","addr":"경기도 군포시 산본동 1135번지 광림빌딩 204,205,207,208호","indutype":"일반휴게음식 - 서양음식","category":"restaurant"},{"name":"본죽&비빔밥카페 산본로데오점","tel":"031-398-6282","addr":"경기도 군포시 산본동 1135번지 광림빌딩 201,202호","indutype":"일반휴게음식 - 일반한식","category":"restaurant"},{"name":"와바","tel":"031-395-9089","addr":"경기도 군포시 산본동 1135번지 광림프라자 201동 202호","indutype":"일반휴게음식 - 주점","category":"restaurant"},{"name":"전주식당","tel":"031-397-8311","addr":"경기도 군포시 산본동 1135번지 광림프라자 209호","indutype":"일반휴게음식 - 일반한식","category":"restaurant"},{"name":"제이바","tel":"031-391-4949","addr":"경기도 군포시 산본동 1135번지 광림프라자 703호","indutype":"일반휴게음식 - 주점","category":"restaurant"},{"name":"제이바","tel":"031-391-7749","addr":"경기도 군포시 산본동 1135번지 광림빌딩 7층 703호","indutype":"일반휴게음식 - 칵테일바","category":"restaurant"},{"name":"킹콩푸드","tel":"","addr":"경기도 군포시 산본동 1135번지 광림빌딩 8층 805-1호","indutype":"일반휴게음식 - 일반한식","category":"restaurant"}]},{"lat":"37.372421299","long":"126.94081162","imageIndex":4,"items":[{"name":"미운오리","tel":"031-395-0150","addr":"경기도 군포시 산본동 93-13번지 1층","indutype":"일반휴게음식 - 일반한식","category":"restaurant"},{"name":"송화강","tel":"031-391-9198","addr":"경기도 군포시 산본동 93-13","indutype":"일반휴게음식 - 일반한식","category":"restaurant"},{"name":"약속","tel":"031-395-7300","addr":"경기도 군포시 산본동 93-13번지 지하층","indutype":"일반휴게음식 - 주점","category":"restaurant"},{"name":"왕꼬치아시대관","tel":"031-226-4025","addr":"경기도 군포시 산본동 93-13번지 1층","indutype":"일반휴게음식 - 일반한식","category":"restaurant"}]},{"lat":"37.368086467","long":"126.93900896","imageIndex":4,"items":[{"name":"민이네음식접","tel":"031-399-5838","addr":"경기도 군포시 산본동 229-16번지 1층 102호","indutype":"일반휴게음식 - 일반한식","category":"restaurant"}]},{"lat":"37.371526866","long":"126.93634172","imageIndex":4,"items":[{"name":"바베큐나라","tel":"031-397-6692","addr":"경기도 군포시 산본동 101-4번지","indutype":"일반휴게음식 - 주점","category":"restaurant"}]},{"lat":"37.349418991","long":"126.92642941","imageIndex":4,"items":[{"name":"바비큐산본1호점","tel":"031-396-9282","addr":"경기도 군포시 산본동 1156-8번지 주공4단지상가동108,109호","indutype":"일반휴게음식 - 주점","category":"restaurant"},{"name":"카페카리스","tel":"031-394-0217","addr":"경기도 군포시 산본동 1156-8번지 주공 상가 110호","indutype":"일반휴게음식 - 스넥","category":"restaurant"},{"name":"트윈스치킨","tel":"031-391-0955","addr":"경기도 군포시 산본동 1156-8번지 주공4단지 상가 102호","indutype":"일반휴게음식 - 주점","category":"restaurant"}]},{"lat":"37.371889979","long":"126.94134267","imageIndex":4,"items":[{"name":"바우네나주곰탕","tel":"031-393-6068","addr":"경기도 군포시 산본동 92번지 1층","indutype":"일반휴게음식 - 일반한식","category":"restaurant"}]},{"lat":"37.372917408","long":"126.94187245","imageIndex":4,"items":[{"name":"발해양꼬치","tel":"031-471-9340","addr":"경기도 군포시 산본동 97-31번지 1층","indutype":"일반휴게음식 - 주점","category":"restaurant"},{"name":"정민레스토랑","tel":"031-93-3051","addr":"경기도 군포시 산본동 97-31번지","indutype":"일반휴게음식 - 서양음식","category":"restaurant"}]},{"lat":"37.372809129","long":"126.94156771","imageIndex":4,"items":[{"name":"발해초두부","tel":"031-342-2999","addr":"경기도 군포시 산본동 97-18번지 1층","indutype":"일반휴게음식 - 일반한식","category":"restaurant"}]},{"lat":"37.359783113","long":"126.93031316","imageIndex":4,"items":[{"name":"밥보야뚠뚠이김밥산본점","tel":"031-399-1962","addr":"경기도 군포시 산본동 1137-3번지 옥산빌딩 1층 102호","indutype":"일반휴게음식 - 스넥","category":"restaurant"},{"name":"별주막","tel":"031-393-7016","addr":"경기도 군포시 산본동 1137-3번지 2층 205,206호","indutype":"일반휴게음식 - 일반한식","category":"restaurant"},{"name":"빽다방 산본중앙점","tel":"031-393-8550","addr":"경기도 군포시 산본동 1137-3번지 옥산빌딩 103호","indutype":"일반휴게음식 - 서양음식","category":"restaurant"},{"name":"서정한정식","tel":"031-452-7372","addr":"경기도 군포시 산본동 1137-3번지 옥산빌딩 205동 206호","indutype":"일반휴게음식 - 일반한식","category":"restaurant"},{"name":"신씨화로산본점","tel":"031-381-8592","addr":"경기도 군포시 산본동 1137-3번지 옥산프라자 202동 203호","indutype":"일반휴게음식 - 일반한식","category":"restaurant"},{"name":"야미쿡","tel":"032-123-1234","addr":"경기도 군포시 산본동 1137-3번지 옥산프라자 2층 204호","indutype":"일반휴게음식 - 서양음식","category":"restaurant"},{"name":"이디야 산본점","tel":"031-399-9120","addr":"경기도 군포시 산본동 1137-3번지 옥산빌딩 1층 108호","indutype":"일반휴게음식 - 서양음식","category":"restaurant"},{"name":"청년다방 (산본점)","tel":"031-399-8898","addr":"경기도 군포시 산본동 1137-3번지 옥산빌딩 105,106,107호","indutype":"일반휴게음식 - 일반한식","category":"restaurant"}]},{"lat":"37.35991789","long":"126.92970349","imageIndex":4,"items":[{"name":"밥이좋아","tel":"031-399-0204","addr":"경기도 군포시 산본동 1123-4번지 유공프라자 111,112,113,121호","indutype":"일반휴게음식 - 일반한식","category":"restaurant"},{"name":"신산본웨딩부페","tel":"031-396-3330","addr":"경기도 군포시 산본동 1123-4번지 유공프라자빌딩 4층","indutype":"일반휴게음식 - 서양음식","category":"restaurant"},{"name":"임실엔(N)치즈피자산본점","tel":"031-395-2020","addr":"경기도 군포시 산본동 1123-4 유공프라자 201.202.203.204호(2층)","indutype":"일반휴게음식 - 서양음식","category":"restaurant"},{"name":"자연밥상","tel":"031-392-5228","addr":"경기도 군포시 산본동 1123-4번지 유공프라자 지하 5,6,7,8,9호","indutype":"일반휴게음식 - 일반한식","category":"restaurant"},{"name":"자연밥상","tel":"031-392-5228","addr":"경기도 군포시 산본동 1123-4번지 B층5,6,8,9,10호","indutype":"일반휴게음식 - 일반한식","category":"restaurant"},{"name":"카페드더치","tel":"070-4132-3370","addr":"경기도 군포시 산본동 1123-4번지 유공프라자 2층 223호","indutype":"일반휴게음식 - 서양음식","category":"restaurant"},{"name":"카페보네르두","tel":"070-7792-6843","addr":"경기도 군포시 산본동 1123-4번지 유공프라자 201,202,203,204호","indutype":"일반휴게음식 - 서양음식","category":"restaurant"},{"name":"해미청","tel":"031-398-8899","addr":"경기도 군포시 산본동 1123-4번지 유공프라자212,215~219,228,229,233호","indutype":"일반휴게음식 - 일반한식","category":"restaurant"}]},{"lat":"37.371331598","long":"126.94181728","imageIndex":4,"items":[{"name":"방망이닭꼬치(금정역점)","tel":"","addr":"경기도 군포시 산본동 265-6번지 세환타워 1층 103호","indutype":"일반휴게음식 - 일반한식","category":"restaurant"},{"name":"본죽금정역점","tel":"031-391-6233","addr":"경기도 군포시 산본동 265-6번지 세환타워 104호","indutype":"일반휴게음식 - 일반한식","category":"restaurant"}]},{"lat":"37.374505281","long":"126.92967803","imageIndex":4,"items":[{"name":"방자생고기","tel":"031-396-5587","addr":"경기도 군포시 산본동 1069-1번지","indutype":"일반휴게음식 - 일반한식","category":"restaurant"}]},{"lat":"37.372026488","long":"126.92806604","imageIndex":4,"items":[{"name":"방파제횟집","tel":"031-392-7198","addr":"경기도 군포시 산본동 1082-2번지","indutype":"일반휴게음식 - 일식·회집","category":"restaurant"},{"name":"숨두부촌","tel":"031-394-0292","addr":"경기도 군포시 산본동 1082-2번지","indutype":"일반휴게음식 - 일반한식","category":"restaurant"}]},{"lat":"37.372475461","long":"126.9410035","imageIndex":4,"items":[{"name":"배나무골호프","tel":"031-396-2389","addr":"경기도 군포시 산본동 93-26번지 1층","indutype":"일반휴게음식 - 주점","category":"restaurant"}]},{"lat":"37.367114667","long":"126.92603892","imageIndex":4,"items":[{"name":"배터지는 생동까스","tel":"031-344-3423","addr":"경기도 군포시 산본동 1104-1번지 103호","indutype":"일반휴게음식 - 일반한식","category":"restaurant"},{"name":"착한밥집","tel":"031-394-3221","addr":"경기도 군포시 산본동 1104-1번지 102호","indutype":"일반휴게음식 - 일반한식","category":"restaurant"}]},{"lat":"37.370304009","long":"126.94098271","imageIndex":4,"items":[{"name":"백제고추장숯불구이","tel":"031-398-9254","addr":"경기도 군포시 산본동 239-5번지 1층","indutype":"일반휴게음식 - 일반한식","category":"restaurant"}]},{"lat":"37.370337966","long":"126.93712174","imageIndex":4,"items":[{"name":"백채 산본시장점","tel":"070-4388-1024","addr":"경기도 군포시 산본동 216-21번지","indutype":"일반휴게음식 - 일반한식","category":"restaurant"}]},{"lat":"37.369500318","long":"126.93765306","imageIndex":4,"items":[{"name":"밸류브릿지(Value bridge)","tel":"031-396-1693","addr":"경기도 군포시 산본동 216-13번지 4층","indutype":"일반휴게음식 - 서양음식","category":"restaurant"}]},{"lat":"37.371005325","long":"126.93822752","imageIndex":4,"items":[{"name":"뱃사람들","tel":"031-454-2258","addr":"경기도 군포시 산본동 81-43번지 1층","indutype":"일반휴게음식 - 일식·회집","category":"restaurant"}]},{"lat":"37.371141004","long":"126.93919829","imageIndex":4,"items":[{"name":"버니커피","tel":"031-398-1188","addr":"경기도 군포시 산본동 90-7번지 명지빌딩 1층","indutype":"일반휴게음식 - 서양음식","category":"restaurant"},{"name":"일번지호프&커피","tel":"031-395-4442","addr":"경기도 군포시 산본동 90-7번지 명지빌딩 1층 2호","indutype":"일반휴게음식 - 서양음식","category":"restaurant"}]},{"lat":"37.371337058","long":"126.93529197","imageIndex":4,"items":[{"name":"버드앤스카이","tel":"031-342-1003","addr":"경기도 군포시 산본동 207-7번지 101호","indutype":"일반휴게음식 - 주점","category":"restaurant"}]},{"lat":"37.368834143","long":"126.93870352","imageIndex":4,"items":[{"name":"버섯촌","tel":"031-391-6764","addr":"경기도 군포시 산본동 226-2번지","indutype":"일반휴게음식 - 일반한식","category":"restaurant"}]},{"lat":"37.370502391","long":"126.94128736","imageIndex":4,"items":[{"name":"벌매골오리","tel":"031-397-5289","addr":"경기도 군포시 산본동 239-8번지 1층","indutype":"일반휴게음식 - 일반한식","category":"restaurant"}]},{"lat":"37.364054056","long":"126.93053482","imageIndex":4,"items":[{"name":"보리가실","tel":"031-398-8484","addr":"경기도 군포시 산본동 1097-1번지 산본사이버텔 112호","indutype":"일반휴게음식 - 일반한식","category":"restaurant"},{"name":"포마토김밥","tel":"031-399-7315","addr":"경기도 군포시 산본동 1097-1번지 산본사이버텔 106호","indutype":"일반휴게음식 - 일반한식","category":"restaurant"},{"name":"피자마루","tel":"031-394-8566","addr":"경기도 군포시 산본동 1097-1번지 산본사이버텔 105호","indutype":"일반휴게음식 - 서양음식","category":"restaurant"},{"name":"한스 산본점","tel":"031-393-1236","addr":"경기도 군포시 산본동 1097-1번지 1층 108호 산본사이버텔","indutype":"일반휴게음식 - 일반한식","category":"restaurant"}]},{"lat":"37.372692068","long":"126.94170328","imageIndex":4,"items":[{"name":"보성샤브샤브(금정본점)","tel":"031-394-9888","addr":"경기도 군포시 산본동 98-14번지 101호","indutype":"일반휴게음식 - 일반한식","category":"restaurant"}]},{"lat":"37.367887722","long":"126.93804957","imageIndex":4,"items":[{"name":"본비빔밥(산본래미안점)","tel":"031-393-6288","addr":"경기도 군포시 산본동 1240번지 래미안하이어스 상가 147동 3115호","indutype":"일반휴게음식 - 일반한식","category":"restaurant"},{"name":"치킨매니아(산본2호점)","tel":"031-392-9218","addr":"경기도 군포시 산본동 1240번지 래미안하이어스 상가 147동 3113호","indutype":"일반휴게음식 - 주점","category":"restaurant"},{"name":"팟드미엘 (Pot de miel)","tel":"070-0000-0000","addr":"경기도 군포시 산본동 1240번지","indutype":"일반휴게음식 - 서양음식","category":"restaurant"}]},{"lat":"37.372526837","long":"126.93606989","imageIndex":4,"items":[{"name":"본스튜감자탕","tel":"031-398-0398","addr":"경기도 군포시 산본동 107번지 1층","indutype":"일반휴게음식 - 일반한식","category":"restaurant"}]},{"lat":"37.359811339","long":"126.93228849","imageIndex":4,"items":[{"name":"북경","tel":"031-393-9688","addr":"경기도 군포시 산본동 1130-3번지 백운빌딩 지층 05호","indutype":"일반휴게음식 - 중국식","category":"restaurant"},{"name":"요술잔","tel":"031-393-0750","addr":"경기도 군포시 산본동 1130-3번지 백운빌딩 2층 203호","indutype":"일반휴게음식 - 주점","category":"restaurant"},{"name":"쥬씨 산본점","tel":"","addr":"경기도 군포시 산본동 1130-3번지 백운빌딩 106호","indutype":"일반휴게음식 - 서양음식","category":"restaurant"},{"name":"쥬씨산본점","tel":"031-000-0000","addr":"경기도 군포시 산본동 1130-3번지 백운빌딩 106호","indutype":"일반휴게음식 - 서양음식","category":"restaurant"},{"name":"착한코다리산본점","tel":"031-393-9922","addr":"경기도 군포시 산본동 1130-3번지 백운빌딩 2층 202호","indutype":"일반휴게음식 - 일반한식","category":"restaurant"},{"name":"황제곱창","tel":"031-446-9524","addr":"경기도 군포시 산본동 1130-3번지 백운빌딩 지하1층 5호","indutype":"일반휴게음식 - 일반한식","category":"restaurant"}]},{"lat":"37.370449143","long":"126.94286791","imageIndex":4,"items":[{"name":"불난술집","tel":"031-393-9955","addr":"경기도 군포시 산본동 248-2번지 1층","indutype":"일반휴게음식 - 주점","category":"restaurant"},{"name":"야밤포차","tel":"070-4253-6165","addr":"경기도 군포시 산본동 248-2번지 2층","indutype":"일반휴게음식 - 주점","category":"restaurant"},{"name":"참좋은참치","tel":"031-394-3733","addr":"경기도 군포시 산본동 248-2번지","indutype":"일반휴게음식 - 일식·회집","category":"restaurant"}]},{"lat":"37.368303189","long":"126.93990061","imageIndex":4,"items":[{"name":"불스떡볶이","tel":"031-393-3005","addr":"경기도 군포시 산본동 231-8번지","indutype":"일반휴게음식 - 스넥","category":"restaurant"}]},{"lat":"37.359811554","long":"126.93264969","imageIndex":4,"items":[{"name":"붉은닭발","tel":"031-399-8880","addr":"경기도 군포시 산본동 1130-1번지 비전빌딩 202호","indutype":"일반휴게음식 - 일반한식","category":"restaurant"},{"name":"뽕잎사랑 산본점","tel":"031-391-5554","addr":"경기도 군포시 산본동 1130-1번지 비전빌딩 2층","indutype":"일반휴게음식 - 일반한식","category":"restaurant"},{"name":"시루향기(산본점)","tel":"031-393-9000","addr":"경기도 군포시 산본동 1130-1번지","indutype":"일반휴게음식 - 일반한식","category":"restaurant"},{"name":"참치왕양승호(본점)","tel":"031-395-3790","addr":"경기도 군포시 산본동 1130-1번지 비전빌딩 301호","indutype":"일반휴게음식 - 일반한식","category":"restaurant"},{"name":"토프레소 산본중심가점","tel":"031-391-3363","addr":"경기도 군포시 산본동 1130-1번지 비전빌딩 102호","indutype":"일반휴게음식 - 서양음식","category":"restaurant"}]},{"lat":"37.37286326","long":"126.94170315","imageIndex":4,"items":[{"name":"비","tel":"031-399-3981","addr":"경기도 군포시 산본동 97-19번지 1층","indutype":"일반휴게음식 - 주점","category":"restaurant"},{"name":"야화","tel":"031-394-8876","addr":"경기도 군포시 산본동 97-19번지 1층","indutype":"일반휴게음식 - 주점","category":"restaurant"},{"name":"엔돌핀","tel":"031-399-4115","addr":"경기도 군포시 산본동 97-19번지 1층","indutype":"일반휴게음식 - 주점","category":"restaurant"},{"name":"엔젤","tel":"031-391-5111","addr":"경기도 군포시 산본동 97-19번지","indutype":"일반휴게음식 - 주점","category":"restaurant"},{"name":"피카소","tel":"031-399-3726","addr":"경기도 군포시 산본동 97-19번지 101호","indutype":"일반휴게음식 - 주점","category":"restaurant"},{"name":"피카소","tel":"031-399-3726","addr":"경기도 군포시 산본동 97-19번지 1층","indutype":"일반휴게음식 - 주점","category":"restaurant"}]},{"lat":"37.368915068","long":"126.93839865","imageIndex":4,"items":[{"name":"비버스치킨","tel":"031-399-5585","addr":"경기도 군포시 산본동 224-19번지 1층","indutype":"일반휴게음식 - 주점","category":"restaurant"}]},{"lat":"37.367032068","long":"126.93861475","imageIndex":4,"items":[{"name":"비비큐 금정점","tel":"031-392-7292","addr":"경기도 군포시 산본동 1036-2번지 화남빌딩 제 1층 102호","indutype":"일반휴게음식 - 스넥","category":"restaurant"},{"name":"토프레소 산본시장점","tel":"031-395-6500","addr":"경기도 군포시 산본동 1036-2번지 화남상가 107호","indutype":"일반휴게음식 - 서양음식","category":"restaurant"}]},{"lat":"37.366644098","long":"126.92295757","imageIndex":4,"items":[{"name":"비비큐산본2호점","tel":"031-397-3433","addr":"경기도 군포시 산본동 1118-6번지 1층 103호","indutype":"일반휴게음식 - 스넥","category":"restaurant"}]},{"lat":"37.367877028","long":"126.93504672","imageIndex":4,"items":[{"name":"비비큐올리브떡볶이(산본래미안점)","tel":"031-391-0090","addr":"경기도 군포시 산본동 1240번지 래미안하이어스 상가 146동 2103호","indutype":"일반휴게음식 - 일반한식","category":"restaurant"}]},{"lat":"37.372774761","long":"126.92875396","imageIndex":4,"items":[{"name":"비비큐치킨산본3점","tel":"031-395-8252","addr":"경기도 군포시 산본동 1078번지","indutype":"일반휴게음식 - 스넥","category":"restaurant"}]},{"lat":"37.370330832","long":"126.94058756","imageIndex":4,"items":[{"name":"비스트로쥐","tel":"031-1111-1111","addr":"경기도 군포시 산본동 238-16번지","indutype":"일반휴게음식 - 서양음식","category":"restaurant"}]},{"lat":"37.359334556","long":"126.93356444","imageIndex":4,"items":[{"name":"비틀주스산본점","tel":"031-392-1737","addr":"경기도 군포시 산본동 1142번지 원광대학교의과대학산본병원 1층","indutype":"일반휴게음식 - 일반한식","category":"restaurant"},{"name":"삼성웰스토리(주)원광대산본병원","tel":"031-5171-1417","addr":"경기도 군포시 산본동 1142번지 원광대학교의과대학산본병원 15층","indutype":"일반휴게음식 - 위탁급식업","category":"restaurant"}]},{"lat":"37.372671399","long":"126.93678101","imageIndex":4,"items":[{"name":"빅스타피자군포산본점","tel":"031-397-7440","addr":"경기도 군포시 산본동 55번지 1층","indutype":"일반휴게음식 - 서양음식","category":"restaurant"}]},{"lat":"37.358946116","long":"126.93187166","imageIndex":4,"items":[{"name":"빽다방 산본역점","tel":"031-390-6210","addr":"경기도 군포시 산본동 1135-2번지","indutype":"일반휴게음식 - 서양음식","category":"restaurant"}]},{"lat":"37.359950161","long":"126.92384512","imageIndex":4,"items":[{"name":"산공애/경기마을교육공동체 사회적협동조합","tel":"031-390-4670","addr":"경기도 군포시 산본동 1146-14번지 산본공업고등학교","indutype":"일반휴게음식 - 일반한식","category":"restaurant"}]},{"lat":"37.359226176","long":"126.93312432","imageIndex":4,"items":[{"name":"산본갈비성","tel":"031-391-0900","addr":"경기도 군포시 산본동 1128번지 금성프라자 301동 302호","indutype":"일반휴게음식 - 일반한식","category":"restaurant"},{"name":"일식 송수사","tel":"031-393-0116","addr":"경기도 군포시 산본동 1128번지 금성프라자 201호","indutype":"일반휴게음식 - 일식·회집","category":"restaurant"},{"name":"커핀플 산본점","tel":"031-391-3939","addr":"경기도 군포시 산본동 1128번지 금성프라자 1층 109호","indutype":"일반휴게음식 - 서양음식","category":"restaurant"},{"name":"퇴근후애","tel":"070-4649-1101","addr":"경기도 군포시 산본동 1128번지 금성프라자빌딩 3층 301호","indutype":"일반휴게음식 - 주점","category":"restaurant"}]},{"lat":"37.371644106","long":"126.93653354","imageIndex":4,"items":[{"name":"산본골목냉면","tel":"031-391-5997","addr":"경기도 군포시 산본동 99-37번지 1층","indutype":"일반휴게음식 - 일반한식","category":"restaurant"}]},{"lat":"37.370248158","long":"126.93765241","imageIndex":4,"items":[{"name":"산본녹두전","tel":"070-7011-9163","addr":"경기도 군포시 산본동 963-135번지","indutype":"일반휴게음식 - 일반한식","category":"restaurant"},{"name":"삼촌스토리 산본시장점","tel":"031-395-6055","addr":"경기도 군포시 산본동 963-135번지 1층","indutype":"일반휴게음식 - 스넥","category":"restaurant"}]},{"lat":"37.369915161","long":"126.93834134","imageIndex":4,"items":[{"name":"산본대성곱창","tel":"031-394-0939","addr":"경기도 군포시 산본동 222-4번지","indutype":"일반휴게음식 - 일반한식","category":"restaurant"}]},{"lat":"37.36030685","long":"126.93220901","imageIndex":4,"items":[{"name":"산본생선가","tel":"031-399-8832","addr":"경기도 군포시 산본동 1131번지 2층 203,204호","indutype":"일반휴게음식 - 일반한식","category":"restaurant"},{"name":"소메랑 산본점","tel":"031-393-9293","addr":"경기도 군포시 산본동 1131번지 102호.103호.104호","indutype":"일반휴게음식 - 일반한식","category":"restaurant"},{"name":"연안식당 산본점","tel":"031-399-4976","addr":"경기도 군포시 산본동 1131번지 서련빌딩 1층 105호","indutype":"일반휴게음식 - 일반한식","category":"restaurant"}]},{"lat":"37.370806322","long":"126.93681651","imageIndex":4,"items":[{"name":"산본짬뽕","tel":"070-8945-2153","addr":"경기도 군포시 산본동 213-9번지 1층 102호","indutype":"일반휴게음식 - 중국식","category":"restaurant"},{"name":"신전떡볶이 금정점","tel":"031-395-3330","addr":"경기도 군포시 산본동 213-9번지 104호","indutype":"일반휴게음식 - 스넥","category":"restaurant"},{"name":"홍짜장","tel":"070-7944-0935","addr":"경기도 군포시 산본동 213-9번지 102호","indutype":"일반휴게음식 - 중국식","category":"restaurant"}]},{"lat":"37.369779644","long":"126.9376754","imageIndex":4,"items":[{"name":"산본참닭강정","tel":"031-395-9491","addr":"경기도 군포시 산본동 216-8번지 1층 일부호","indutype":"일반휴게음식 - 스넥","category":"restaurant"}]},{"lat":"37.370642864","long":"126.93457008","imageIndex":4,"items":[{"name":"산본카리스","tel":"031-394-2733","addr":"경기도 군포시 산본동 1062번지","indutype":"일반휴게음식 - 일반한식","category":"restaurant"}]},{"lat":"37.364527272","long":"126.92378388","imageIndex":4,"items":[{"name":"산본횟집","tel":"031-399-2554","addr":"경기도 군포시 산본동 1119한양백두상가지하2호","indutype":"일반휴게음식 - 일식·회집","category":"restaurant"},{"name":"엄마네분식","tel":"031-391-1591","addr":"경기도 군포시 산본동 1119 한양백두상가지층","indutype":"일반휴게음식 - 스넥","category":"restaurant"},{"name":"청학동지짐이","tel":"031-392-3944","addr":"경기도 군포시 산본동 1119 백두한양상가 109","indutype":"일반휴게음식 - 주점","category":"restaurant"},{"name":"청학동지짐이","tel":"031-392-3944","addr":"경기도 군포시 산본동 1119 한양백두상가 109","indutype":"일반휴게음식 - 주점","category":"restaurant"}]},{"lat":"37.370196293","long":"126.94176176","imageIndex":4,"items":[{"name":"산성가마솥","tel":"031-393-4656","addr":"경기도 군포시 산본동 240-10번지","indutype":"일반휴게음식 - 일반한식","category":"restaurant"}]},{"lat":"37.372503042","long":"126.94206471","imageIndex":4,"items":[{"name":"산청추어탕","tel":"031-393-5581","addr":"경기도 군포시 산본동 98-9번지 1층","indutype":"일반휴게음식 - 일반한식","category":"restaurant"}]},{"lat":"37.36969983","long":"126.94003491","imageIndex":4,"items":[{"name":"삼각포차","tel":"031-390-6920","addr":"경기도 군포시 산본동 234-1번지","indutype":"일반휴게음식 - 주점","category":"restaurant"},{"name":"원조주문진오징어보쌈","tel":"031-443-3446","addr":"경기도 군포시 산본동 234-1번지 1층","indutype":"일반휴게음식 - 일반한식","category":"restaurant"},{"name":"전가네골목족발","tel":"031-396-6777","addr":"경기도 군포시 산본동 234-1번지 1층","indutype":"일반휴게음식 - 일반한식","category":"restaurant"},{"name":"프로포즈","tel":"031-398-0943","addr":"경기도 군포시 산본동 234-1번지 1층","indutype":"일반휴게음식 - 주점","category":"restaurant"}]},{"lat":"37.363277647","long":"126.92806343","imageIndex":4,"items":[{"name":"삼다돈","tel":"031-394-8882","addr":"경기도 군포시 산본동 1120번지 주몽A종합상가101,102,110호","indutype":"일반휴게음식 - 일반한식","category":"restaurant"}]},{"lat":"37.371277647","long":"126.94203183","imageIndex":4,"items":[{"name":"삼척통골뱅이","tel":"031-393-5191","addr":"경기도 군포시 산본동 265-14번지","indutype":"일반휴게음식 - 일반한식","category":"restaurant"},{"name":"오뎅앤사케","tel":"031-394-7116","addr":"경기도 군포시 산본동 265-14번지 1층","indutype":"일반휴게음식 - 주점","category":"restaurant"}]},{"lat":"37.370665202","long":"126.94250647","imageIndex":4,"items":[{"name":"새마을식당","tel":"031-395-4700","addr":"경기도 군포시 산본동 252-11번지 1층","indutype":"일반휴게음식 - 일반한식","category":"restaurant"}]},{"lat":"37.370862855","long":"126.94139996","imageIndex":4,"items":[{"name":"샛별커피&맥주","tel":"","addr":"경기도 군포시 산본동 265-20번지 지층","indutype":"일반휴게음식 - 주점","category":"restaurant"},{"name":"오징어나라","tel":"031-395-5089","addr":"경기도 군포시 산본동 265-20번지","indutype":"일반휴게음식 - 주점","category":"restaurant"}]},{"lat":"37.371277879","long":"126.9424834","imageIndex":4,"items":[{"name":"서래갈매기살부속고기","tel":"031-391-0833","addr":"경기도 군포시 산본동 259-10번지","indutype":"일반휴게음식 - 일반한식","category":"restaurant"},{"name":"토시래군포금정역점","tel":"031-398-7825","addr":"경기도 군포시 산본동 259-10번지 1층","indutype":"일반휴게음식 - 일반한식","category":"restaurant"}]},{"lat":"37.370611083","long":"126.94239362","imageIndex":4,"items":[{"name":"서민수산","tel":"031-391-0999","addr":"경기도 군포시 산본동 252-12번지 1층","indutype":"일반휴게음식 - 일반한식","category":"restaurant"}]},{"lat":"37.364810755","long":"126.93028574","imageIndex":4,"items":[{"name":"서유기","tel":"031-393-3450","addr":"경기도 군포시 산본동 1094-2번지 102,103호","indutype":"일반휴게음식 - 주점","category":"restaurant"},{"name":"원챠우","tel":"031-391-7711","addr":"경기도 군포시 산본동 1094-2번지 메디메이드산본센터 104동 105호","indutype":"일반휴게음식 - 중국식","category":"restaurant"}]},{"lat":"37.369393233","long":"126.93956102","imageIndex":4,"items":[{"name":"성신회집","tel":"031-390-6352","addr":"경기도 군포시 산본동 232-16번지 101호","indutype":"일반휴게음식 - 일반한식","category":"restaurant"}]},{"lat":"37.372528489","long":"126.93906164","imageIndex":4,"items":[{"name":"세븐수타피자","tel":"031-397-8295","addr":"경기도 군포시 산본동 83-2번지 1층","indutype":"일반휴게음식 - 서양음식","category":"restaurant"}]},{"lat":"37.371697159","long":"126.93476104","imageIndex":4,"items":[{"name":"셀렉토커피산본사거리점","tel":"031-391-1253","addr":"경기도 군포시 산본동 1060-2번지 1층","indutype":"일반휴게음식 - 서양음식","category":"restaurant"}]},{"lat":"37.372721785","long":"126.93050391","imageIndex":4,"items":[{"name":"소담김밥분식","tel":"031-390-6055","addr":"경기도 군포시 산본동 1066-2번지 1층 104-1호","indutype":"일반휴게음식 - 스넥","category":"restaurant"}]},{"lat":"37.37067134","long":"126.93712145","imageIndex":4,"items":[{"name":"소문난가마솥순대국","tel":"031-391-0079","addr":"경기도 군포시 산본동 213-6번지 1층","indutype":"일반휴게음식 - 일반한식","category":"restaurant"},{"name":"홍두깨손칼국수","tel":"031-305-1392","addr":"경기도 군포시 산본동 213-6번지","indutype":"일반휴게음식 - 일반한식","category":"restaurant"}]},{"lat":"37.371420067","long":"126.93873519","imageIndex":4,"items":[{"name":"소문날돼지부속","tel":"031-393-6567","addr":"경기도 군포시 산본동 82-12번지 101호","indutype":"일반휴게음식 - 일반한식","category":"restaurant"}]},{"lat":"37.370862696","long":"126.94109514","imageIndex":4,"items":[{"name":"소백양샤브샤브전문점","tel":"031-399-1368","addr":"경기도 군포시 산본동 238-9번지 2층","indutype":"일반휴게음식 - 일반한식","category":"restaurant"}]},{"lat":"37.369609657","long":"126.93989952","imageIndex":4,"items":[{"name":"수리골주막","tel":"031-452-1439","addr":"경기도 군포시 산본동 234-16번지 1층","indutype":"일반휴게음식 - 주점","category":"restaurant"},{"name":"윤솔빈의신나는명태조림","tel":"031-394-5010","addr":"경기도 군포시 산본동 234-16번지 1층","indutype":"일반휴게음식 - 일반한식","category":"restaurant"}]},{"lat":"37.372116468","long":"126.92787402","imageIndex":4,"items":[{"name":"수리산","tel":"031-397-9005","addr":"경기도 군포시 산본동 1082-1번지 1층","indutype":"일반휴게음식 - 일반한식","category":"restaurant"}]},{"lat":"37.374054621","long":"126.92943009","imageIndex":4,"items":[{"name":"수리산돌솥쌈밥","tel":"031-394-7682","addr":"경기도 군포시 산본동 1069-5번지","indutype":"일반휴게음식 - 일반한식","category":"restaurant"}]},{"lat":"37.371088649","long":"126.94244969","imageIndex":4,"items":[{"name":"수상한포차","tel":"031-399-1733","addr":"경기도 군포시 산본동 259-12번지","indutype":"일반휴게음식 - 주점","category":"restaurant"},{"name":"준식당","tel":"031-395-1124","addr":"경기도 군포시 산본동 259-12번지","indutype":"일반휴게음식 - 일반한식","category":"restaurant"}]},{"lat":"37.370726822","long":"126.93972924","imageIndex":4,"items":[{"name":"수정양꼬치","tel":"031-398-8808","addr":"경기도 군포시 산본동 91-5번지 2층","indutype":"일반휴게음식 - 일반한식","category":"restaurant"},{"name":"한아름곱창","tel":"031-395-3339","addr":"경기도 군포시 산본동 91-5번지 101호","indutype":"일반휴게음식 - 주점","category":"restaurant"}]},{"lat":"37.36839272","long":"126.93883937","imageIndex":4,"items":[{"name":"순살로치킨피자","tel":"02-2696-3072","addr":"경기도 군포시 산본동 227-16번지 1층","indutype":"일반휴게음식 - 칵테일바","category":"restaurant"}]},{"lat":"37.372780773","long":"126.93906143","imageIndex":4,"items":[{"name":"시골촌닭바베큐","tel":"031-399-2829","addr":"경기도 군포시 산본동 84-18번지 A동 1층","indutype":"일반휴게음식 - 주점","category":"restaurant"}]},{"lat":"37.372393623","long":"126.93959237","imageIndex":4,"items":[{"name":"식사합시다&포차","tel":"","addr":"경기도 군포시 산본동 84-25번지 1층","indutype":"일반휴게음식 - 일반한식","category":"restaurant"}]},{"lat":"37.36619642","long":"126.92725904","imageIndex":4,"items":[{"name":"식의 플로렌스파티하우스 군포산본역점","tel":"031-752-6114","addr":"경기도 군포시 산본동 1101번지 문화예술회관 지하1층","indutype":"일반휴게음식 - 일반한식","category":"restaurant"}]},{"lat":"37.367060518","long":"126.92590351","imageIndex":4,"items":[{"name":"신광정육식당","tel":"031-395-1863","addr":"경기도 군포시 산본동 1104번지 102호","indutype":"일반휴게음식 - 일반한식","category":"restaurant"}]},{"lat":"37.371446054","long":"126.93683853","imageIndex":4,"items":[{"name":"신나라짬뽕","tel":"031-395-7775","addr":"경기도 군포시 산본동 99-50번지 102호","indutype":"일반휴게음식 - 중국식","category":"restaurant"}]},{"lat":"37.371781681","long":"126.94100407","imageIndex":4,"items":[{"name":"신의주토종순대","tel":"031-393-0888","addr":"경기도 군포시 산본동 92-4번지","indutype":"일반휴게음식 - 일반한식","category":"restaurant"}]},{"lat":"37.370113673","long":"126.93887177","imageIndex":4,"items":[{"name":"심봉사도로케","tel":"031-399-8101","addr":"경기도 군포시 산본동 222-2번지 1층 102호","indutype":"일반휴게음식 - 서양음식","category":"restaurant"},{"name":"왕궁장충왕족발","tel":"031-393-9949","addr":"경기도 군포시 산본동 222-2번지 1층 1호","indutype":"일반휴게음식 - 일반한식","category":"restaurant"}]},{"lat":"37.358360239","long":"126.93151101","imageIndex":4,"items":[{"name":"썬더치킨","tel":"031-393-9292","addr":"경기도 군포시 산본동 1141번지 동선빌딩 104호","indutype":"일반휴게음식 - 주점","category":"restaurant"},{"name":"썬더치킨(산본점)","tel":"031-393-9292","addr":"경기도 군포시 산본동 1141번지 동선빌딩 104호","indutype":"일반휴게음식 - 스넥","category":"restaurant"},{"name":"영웅싸롱","tel":"031-397-5164","addr":"경기도 군포시 산본동 1141번지 7호 제1층","indutype":"일반휴게음식 - 주점","category":"restaurant"},{"name":"카리브참치","tel":"031-392-6644","addr":"경기도 군포시 산본동 1141번지 동선빌딩 103호","indutype":"일반휴게음식 - 일식·회집","category":"restaurant"}]},{"lat":"37.372475188","long":"126.94048418","imageIndex":4,"items":[{"name":"쑈진촬","tel":"070-4922-1261","addr":"경기도 군포시 산본동 94-26번지","indutype":"일반휴게음식 - 일반한식","category":"restaurant"}]},{"lat":"37.372393888","long":"126.94008911","imageIndex":4,"items":[{"name":"아궁자이 오리목점","tel":"031-394-5289","addr":"경기도 군포시 산본동 94-31번지","indutype":"일반휴게음식 - 일반한식","category":"restaurant"}]},{"lat":"37.371167765","long":"126.93870153","imageIndex":4,"items":[{"name":"아라물꼬기","tel":"031-469-0045","addr":"경기도 군포시 산본동 89번지","indutype":"일반휴게음식 - 일반한식","category":"restaurant"}]},{"lat":"37.371503316","long":"126.94284449","imageIndex":4,"items":[{"name":"아모르커피숍","tel":"031-399-3378","addr":"경기도 군포시 산본동 266-4번지 지층","indutype":"일반휴게음식 - 주점","category":"restaurant"},{"name":"촌닭숯불바베큐","tel":"031-396-8292","addr":"경기도 군포시 산본동 266-4번지 1층","indutype":"일반휴게음식 - 주점","category":"restaurant"}]},{"lat":"37.372060591","long":"126.94023615","imageIndex":4,"items":[{"name":"아성원","tel":"031-393-6246","addr":"경기도 군포시 산본동 90-40 1층","indutype":"일반휴게음식 - 중국식","category":"restaurant"}]},{"lat":"37.370583175","long":"126.94070025","imageIndex":4,"items":[{"name":"아이비","tel":"031-393-5159","addr":"경기도 군포시 산본동 238-5번지 지층","indutype":"일반휴게음식 - 주점","category":"restaurant"},{"name":"장미커피숍","tel":"031-393-5159","addr":"경기도 군포시 산본동 238-5번지 지층","indutype":"일반휴게음식 - 주점","category":"restaurant"}]},{"lat":"37.368554694","long":"126.9384554","imageIndex":4,"items":[{"name":"안다미로","tel":"031-392-1483","addr":"경기도 군포시 산본동 225-2번지 1층","indutype":"일반휴게음식 - 일반한식","category":"restaurant"}]},{"lat":"37.363307441","long":"126.93256742","imageIndex":4,"items":[{"name":"안방손님과코다리생선","tel":"031-399-3392","addr":"경기도 군포시 산본동 1096-2번지 디퍼아울렛타운 1층 114호","indutype":"일반휴게음식 - 일반한식","category":"restaurant"}]},{"lat":"37.372971539","long":"126.94200788","imageIndex":4,"items":[{"name":"압록강","tel":"031-393-5959","addr":"경기도 군포시 산본동 97-32번지 1층","indutype":"일반휴게음식 - 중국식","category":"restaurant"}]},{"lat":"37.365810364","long":"126.92944942","imageIndex":4,"items":[{"name":"애월똥돼지","tel":"031-399-5222","addr":"경기도 군포시 산본동 1093번지 호영빌딩 1층 101~104호","indutype":"일반휴게음식 - 일반한식","category":"restaurant"}]},{"lat":"37.359676052","long":"126.93206286","imageIndex":4,"items":[{"name":"엉터리생고기 산본점","tel":"031-393-1777","addr":"경기도 군포시 산본동 1134번지 센타빌딩 A동 2층 7호","indutype":"일반휴게음식 - 일반한식","category":"restaurant"},{"name":"타코비 산본역점","tel":"070-8709-8705","addr":"경기도 군포시 산본동 1134번지 센타빌딩 A동 1층 10호","indutype":"일반휴게음식 - 서양음식","category":"restaurant"}]},{"lat":"37.371111928","long":"126.93550667","imageIndex":4,"items":[{"name":"여향","tel":"031-392-1155","addr":"경기도 군포시 산본동 207-29번지 1층","indutype":"일반휴게음식 - 중국식","category":"restaurant"}]},{"lat":"37.3732779","long":"126.9420415","imageIndex":4,"items":[{"name":"역전","tel":"031-458-9554","addr":"경기도 군포시 산본동 97-41번지 지하1층","indutype":"일반휴게음식 - 주점","category":"restaurant"}]},{"lat":"37.368833761","long":"126.9380036","imageIndex":4,"items":[{"name":"연꽃커피앤호프","tel":"031-394-7209","addr":"경기도 군포시 산본동 224-1번지 지층","indutype":"일반휴게음식 - 주점","category":"restaurant"}]},{"lat":"37.372529332","long":"126.94064219","imageIndex":4,"items":[{"name":"연변왕꼬치","tel":"","addr":"경기도 군포시 산본동 94-19번지","indutype":"일반휴게음식 - 일반한식","category":"restaurant"}]},{"lat":"37.368978034","long":"126.93820668","imageIndex":4,"items":[{"name":"연어&육회데이(day)","tel":"031-391-0607","addr":"경기도 군포시 산본동 224-3번지 2층","indutype":"일반휴게음식 - 일반한식","category":"restaurant"}]},{"lat":"37.370755361","long":"126.9426193","imageIndex":4,"items":[{"name":"연통삼금정역점","tel":"031-398-9289","addr":"경기도 군포시 산본동 252-10번지 1층","indutype":"일반휴게음식 - 일반한식","category":"restaurant"}]},{"lat":"37.374279944","long":"126.92954277","imageIndex":4,"items":[{"name":"엽전","tel":"031-396-5777","addr":"경기도 군포시 산본동 1069-3번지 101호","indutype":"일반휴게음식 - 일반한식","category":"restaurant"},{"name":"처갓집양념치킨산본점","tel":"031-393-9282","addr":"경기도 군포시 산본동 1069-3번지","indutype":"일반휴게음식 - 스넥","category":"restaurant"}]},{"lat":"37.372755452","long":"126.94231287","imageIndex":4,"items":[{"name":"영커피호프","tel":"031-397-9209","addr":"경기도 군포시 산본동 98-1번지 선한빌딩 지하1층","indutype":"일반휴게음식 - 주점","category":"restaurant"},{"name":"카페무아","tel":"031-393-4813","addr":"경기도 군포시 산본동 98-1번지","indutype":"일반휴게음식 - 스넥","category":"restaurant"},{"name":"한솥도시락 (금정역점)","tel":"031-396-2276","addr":"경기도 군포시 산본동 98-1번지 선한빌딩 1층","indutype":"일반휴게음식 - 일반한식","category":"restaurant"}]},{"lat":"37.369501075","long":"126.93904163","imageIndex":4,"items":[{"name":"옛날보리밥","tel":"031-398-7999","addr":"경기도 군포시 산본동 224-11번지","indutype":"일반휴게음식 - 일반한식","category":"restaurant"}]},{"lat":"37.370861212","long":"126.93831796","imageIndex":4,"items":[{"name":"옛날손칼국수","tel":"031-397-0287","addr":"경기도 군포시 산본동 89-6번지 1층","indutype":"일반휴게음식 - 일반한식","category":"restaurant"}]},{"lat":"37.360169043","long":"126.9278972","imageIndex":4,"items":[{"name":"오늘도 맑음","tel":"031-393-2355","addr":"경기도 군포시 산본동 1146-4번지 우북상가 106호","indutype":"일반휴게음식 - 일반한식","category":"restaurant"}]},{"lat":"37.373086891","long":"126.93864345","imageIndex":4,"items":[{"name":"오빠돼지","tel":"031-344-1022","addr":"경기도 군포시 산본동 73-24번지 1층","indutype":"일반휴게음식 - 일반한식","category":"restaurant"}]},{"lat":"37.370944573","long":"126.94261914","imageIndex":4,"items":[{"name":"오이시","tel":"031-393-1399","addr":"경기도 군포시 산본동 252-8번지 2층","indutype":"일반휴게음식 - 일식·회집","category":"restaurant"},{"name":"제주꽃돼지 금정점","tel":"031-397-6489","addr":"경기도 군포시 산본동 252-8번지 1층","indutype":"일반휴게음식 - 일반한식","category":"restaurant"}]},{"lat":"37.370059262","long":"126.93822833","imageIndex":4,"items":[{"name":"오향왕족발","tel":"031-393-4484","addr":"경기도 군포시 산본동 220-5번지","indutype":"일반휴게음식 - 일반한식","category":"restaurant"}]},{"lat":"37.370033253","long":"126.94012495","imageIndex":4,"items":[{"name":"옥여집김치찌개","tel":"031-391-8839","addr":"경기도 군포시 산본동 236-11번지 1층","indutype":"일반휴게음식 - 일반한식","category":"restaurant"},{"name":"이모네식탁","tel":"031-347-8989","addr":"경기도 군포시 산본동 236-11번지","indutype":"일반휴게음식 - 일반한식","category":"restaurant"}]},{"lat":"37.370527379","long":"126.93748283","imageIndex":4,"items":[{"name":"완도김밥","tel":"031-395-0289","addr":"경기도 군포시 산본동 233-11번지","indutype":"일반휴게음식 - 스넥","category":"restaurant"}]},{"lat":"37.369581378","long":"126.93759654","imageIndex":4,"items":[{"name":"요거프레소산본시장점","tel":"031-387-8855","addr":"경기도 군포시 산본동 216-14번지 1층","indutype":"일반휴게음식 - 서양음식","category":"restaurant"}]},{"lat":"37.372168267","long":"126.93940063","imageIndex":4,"items":[{"name":"용승관","tel":"031-393-0165","addr":"경기도 군포시 산본동 83-4번지 원일연립","indutype":"일반휴게음식 - 중국식","category":"restaurant"}]},{"lat":"37.371115881","long":"126.9428448","imageIndex":4,"items":[{"name":"우리감자탕","tel":"031-393-9582","addr":"경기도 군포시 산본동 266-12번지","indutype":"일반휴게음식 - 일반한식","category":"restaurant"}]},{"lat":"37.360198593","long":"126.93198335","imageIndex":4,"items":[{"name":"우정원","tel":"031-393-6332","addr":"경기도 군포시 산본동 1131-3번지 다복 상가 103호","indutype":"일반휴게음식 - 일반한식","category":"restaurant"},{"name":"육회독존","tel":"031-391-9094","addr":"경기도 군포시 산본동 1131-3번지 다복상가 104호","indutype":"일반휴게음식 - 일반한식","category":"restaurant"},{"name":"육회플러스","tel":"","addr":"경기도 군포시 산본동 1131-3번지 다복빌딩 1층 104호","indutype":"일반휴게음식 - 일반한식","category":"restaurant"}]},{"lat":"37.370556263","long":"126.94092605","imageIndex":4,"items":[{"name":"원시쪽갈비(산본점)","tel":"031-394-8800","addr":"경기도 군포시 산본동 238-13번지 1층","indutype":"일반휴게음식 - 일반한식","category":"restaurant"}]},{"lat":"37.369608663","long":"126.93805938","imageIndex":4,"items":[{"name":"원조장충왕족발","tel":"031-391-1254","addr":"경기도 군포시 산본동 221-5번지 1층","indutype":"일반휴게음식 - 일반한식","category":"restaurant"}]},{"lat":"37.369834113","long":"126.93842044","imageIndex":4,"items":[{"name":"원조장충왕족발(산본가)/주식회사산본가","tel":"031-391-0645","addr":"경기도 군포시 산본동 222-3번지 1층","indutype":"일반휴게음식 - 일반한식","category":"restaurant"}]},{"lat":"37.373555084","long":"126.9380334","imageIndex":4,"items":[{"name":"원주추어탕","tel":"031-391-3003","addr":"경기도 군포시 산본동 73-31번지 1층","indutype":"일반휴게음식 - 일반한식","category":"restaurant"}]},{"lat":"37.370970917","long":"126.94128697","imageIndex":4,"items":[{"name":"웰빙보리밥","tel":"031-396-6889","addr":"경기도 군포시 산본동 265-1번지 1층","indutype":"일반휴게음식 - 일반한식","category":"restaurant"}]},{"lat":"37.377413387","long":"126.94173332","imageIndex":4,"items":[{"name":"웰빙한식푸드","tel":"031-111-1111","addr":"경기도 군포시 산본동 1-19번지 1층","indutype":"일반휴게음식 - 일반한식","category":"restaurant"}]},{"lat":"37.370583541","long":"126.94140018","imageIndex":4,"items":[{"name":"유가네양꼬치","tel":"","addr":"경기도 군포시 산본동 239-9번지 1층","indutype":"일반휴게음식 - 중국식","category":"restaurant"}]},{"lat":"37.376864326","long":"126.94281763","imageIndex":4,"items":[{"name":"유진식당","tel":"031-427-8956","addr":"경기도 군포시 산본동 18-13번지 3층","indutype":"일반휴게음식 - 일반한식","category":"restaurant"}]},{"lat":"37.37127812","long":"126.94295756","imageIndex":4,"items":[{"name":"육돈천하","tel":"031-395-1210","addr":"경기도 군포시 산본동 266-6번지 1층","indutype":"일반휴게음식 - 일반한식","category":"restaurant"}]},{"lat":"37.357528183","long":"126.92651148","imageIndex":4,"items":[{"name":"을지","tel":"031-397-2225","addr":"경기도 군포시 산본동 1145-14번지 을지 상가 102호","indutype":"일반휴게음식 - 주점","category":"restaurant"}]},{"lat":"37.371061077","long":"126.94139979","imageIndex":4,"items":[{"name":"이디야 (금정역점)","tel":"031-398-5505","addr":"경기도 군포시 산본동 265-2번지 1층","indutype":"일반휴게음식 - 서양음식","category":"restaurant"}]},{"lat":"37.372671044","long":"126.93614879","imageIndex":4,"items":[{"name":"이순신","tel":"031-393-8785","addr":"경기도 군포시 산본동 107번지 1층","indutype":"일반휴게음식 - 일반한식","category":"restaurant"},{"name":"장어독존","tel":"031-393-8785","addr":"경기도 군포시 산본동 107번지","indutype":"일반휴게음식 - 일반한식","category":"restaurant"}]},{"lat":"37.371358796","long":"126.94214466","imageIndex":4,"items":[{"name":"이차돌군포금정역점/(주)산길","tel":"","addr":"경기도 군포시 산본동 265-13번지","indutype":"일반휴게음식 - 일반한식","category":"restaurant"},{"name":"토끼굴","tel":"031-393-5555","addr":"경기도 군포시 산본동 265-13번지 지하1층","indutype":"일반휴게음식 - 주점","category":"restaurant"}]},{"lat":"37.37261086","long":"126.94147756","imageIndex":4,"items":[{"name":"자매관","tel":"031-000-0000","addr":"경기도 군포시 산본동 98-25번지","indutype":"일반휴게음식 - 일반한식","category":"restaurant"}]},{"lat":"37.365165062","long":"126.92094979","imageIndex":4,"items":[{"name":"자연한정식산오름","tel":"031-397-8856","addr":"경기도 군포시 산본동 1149번지 1층","indutype":"일반휴게음식 - 일반한식","category":"restaurant"}]},{"lat":"37.366812052","long":"126.932011","imageIndex":4,"items":[{"name":"잔비어","tel":"031-399-0924","addr":"경기도 군포시 산본동 1092번지 A동 103,104호","indutype":"일반휴게음식 - 주점","category":"restaurant"}]},{"lat":"37.371665326","long":"126.94250567","imageIndex":4,"items":[{"name":"장가네육회","tel":"031-000-0000","addr":"경기도 군포시 산본동 266-17번지 1층","indutype":"일반휴게음식 - 일반한식","category":"restaurant"},{"name":"종로빈대떡","tel":"031-391-1054","addr":"경기도 군포시 산본동 266-17번지","indutype":"일반휴게음식 - 일반한식","category":"restaurant"}]},{"lat":"37.370112788","long":"126.9372574","imageIndex":4,"items":[{"name":"장호덕손만두","tel":"031-399-1123","addr":"경기도 군포시 산본동 216-19번지 103호","indutype":"일반휴게음식 - 일반한식","category":"restaurant"},{"name":"토종순대나라","tel":"031-396-3130","addr":"경기도 군포시 산본동 216-19번지","indutype":"일반휴게음식 - 일반한식","category":"restaurant"},{"name":"하루엔소쿠","tel":"031-391-2345","addr":"경기도 군포시 산본동 216-19번지 102호","indutype":"일반휴게음식 - 일반한식","category":"restaurant"}]},{"lat":"37.369086798","long":"126.93939194","imageIndex":4,"items":[{"name":"저잣거리 (돼지부속)","tel":"031-392-0802","addr":"경기도 군포시 산본동 226-8번지 1층","indutype":"일반휴게음식 - 일반한식","category":"restaurant"}]},{"lat":"37.369915026","long":"126.93809298","imageIndex":4,"items":[{"name":"전라도집","tel":"031-397-2033","addr":"경기도 군포시 산본동 221-2번지 1층","indutype":"일반휴게음식 - 일반한식","category":"restaurant"}]},{"lat":"37.369195101","long":"126.93973053","imageIndex":4,"items":[{"name":"전부쳐","tel":"031-446-2645","addr":"경기도 군포시 산본동 232-14번지","indutype":"일반휴게음식 - 일반한식","category":"restaurant"}]},{"lat":"37.370808981","long":"126.94176126","imageIndex":4,"items":[{"name":"전주곱창","tel":"031-392-9992","addr":"경기도 군포시 산본동 259-3번지 101호","indutype":"일반휴게음식 - 일반한식","category":"restaurant"}]},{"lat":"37.371196713","long":"126.94233671","imageIndex":4,"items":[{"name":"제주연통산본점","tel":"031-394-9297","addr":"경기도 군포시 산본동 259-9번지 1층","indutype":"일반휴게음식 - 일반한식","category":"restaurant"}]},{"lat":"37.372358734","long":"126.94178258","imageIndex":4,"items":[{"name":"조개폭식","tel":"031-395-8592","addr":"경기도 군포시 산본동 98-18번지 1층","indutype":"일반휴게음식 - 일반한식","category":"restaurant"},{"name":"조개폭식","tel":"031-395-8592","addr":"경기도 군포시 산본동 98-18번지 1층","indutype":"일반휴게음식 - 일반한식","category":"restaurant"}]},{"lat":"37.371970941","long":"126.94109423","imageIndex":4,"items":[{"name":"조아포차","tel":"031-392-7775","addr":"경기도 군포시 산본동 93-20번지 1층","indutype":"일반휴게음식 - 주점","category":"restaurant"}]},{"lat":"37.372699566","long":"126.93884699","imageIndex":4,"items":[{"name":"종로민속전","tel":"031-397-9505","addr":"경기도 군포시 산본동 83번지 1층","indutype":"일반휴게음식 - 주점","category":"restaurant"}]},{"lat":"37.372809386","long":"126.94206446","imageIndex":4,"items":[{"name":"줘마양다리구이","tel":"031-391-6166","addr":"경기도 군포시 산본동 98-5번지 1층","indutype":"일반휴게음식 - 중국식","category":"restaurant"},{"name":"줘마양다리구이","tel":"031-393-6166","addr":"경기도 군포시 산본동 98-5번지 1층","indutype":"일반휴게음식 - 중국식","category":"restaurant"},{"name":"핫오리","tel":"","addr":"경기도 군포시 산본동 98-5번지 1층 101호","indutype":"일반휴게음식 - 일반한식","category":"restaurant"}]},{"lat":"37.373892383","long":"126.92933993","imageIndex":4,"items":[{"name":"진수네보쌈","tel":"031-391-5515","addr":"경기도 군포시 산본동 1070번지 101호","indutype":"일반휴게음식 - 일반한식","category":"restaurant"}]},{"lat":"37.374862275","long":"126.93936449","imageIndex":4,"items":[{"name":"진안식당","tel":"031-393-9689","addr":"경기도 군포시 산본동 74-24번지 1층","indutype":"일반휴게음식 - 일반한식","category":"restaurant"}]},{"lat":"37.37133905","long":"126.93887073","imageIndex":4,"items":[{"name":"진진김밥","tel":"031-391-8888","addr":"경기도 군포시 산본동 90번지 1층","indutype":"일반휴게음식 - 일반한식","category":"restaurant"}]},{"lat":"37.37158527","long":"126.92850676","imageIndex":4,"items":[{"name":"참새방앗간","tel":"031-399-1253","addr":"경기도 군포시 산본동 1087-4번지 1층","indutype":"일반휴게음식 - 일반한식","category":"restaurant"},{"name":"호아 (Ho;a)","tel":"031-399-1253","addr":"경기도 군포시 산본동 1087-4번지 1층","indutype":"일반휴게음식 - 서양음식","category":"restaurant"}]},{"lat":"37.369916235","long":"126.94033954","imageIndex":4,"items":[{"name":"처음처럼","tel":"031-395-5324","addr":"경기도 군포시 산본동 235-17번지 1층","indutype":"일반휴게음식 - 주점","category":"restaurant"}]},{"lat":"37.372610589","long":"126.94095823","imageIndex":4,"items":[{"name":"천지식당","tel":"031-396-5393","addr":"경기도 군포시 산본동 94-6번지 1층","indutype":"일반휴게음식 - 일반한식","category":"restaurant"}]},{"lat":"37.369581496","long":"126.93781104","imageIndex":4,"items":[{"name":"천하일미닭강정(산본시장점)","tel":"031-396-1286","addr":"경기도 군포시 산본동 216-10번지","indutype":"일반휴게음식 - 일반한식","category":"restaurant"}]},{"lat":"37.371834771","long":"126.93917513","imageIndex":4,"items":[{"name":"총각네옛날통닭(산본점)","tel":"031-391-1400","addr":"경기도 군포시 산본동 83-9번지 1층 일부호","indutype":"일반휴게음식 - 스넥","category":"restaurant"}]},{"lat":"37.371421925","long":"126.9422575","imageIndex":4,"items":[{"name":"춘천골","tel":"031-397-5008","addr":"경기도 군포시 산본동 265-12번지","indutype":"일반휴게음식 - 일반한식","category":"restaurant"}]},{"lat":"37.368942715","long":"126.93953882","imageIndex":4,"items":[{"name":"치요남치킨","tel":"031-397-2078","addr":"경기도 군포시 산본동 227-8번지 1층","indutype":"일반휴게음식 - 스넥","category":"restaurant"}]},{"lat":"37.3706378","long":"126.94178398","imageIndex":4,"items":[{"name":"치치 금정역점","tel":"031-399-0095","addr":"경기도 군포시 산본동 259-19번지 1층","indutype":"일반휴게음식 - 일식·회집","category":"restaurant"}]},{"lat":"37.374388114","long":"126.9296217","imageIndex":4,"items":[{"name":"치킨뽀또산본개나리점","tel":"031-393-7782","addr":"경기도 군포시 산본동 1069-2번지 101,102호","indutype":"일반휴게음식 - 스넥","category":"restaurant"}]},{"lat":"37.371250448","long":"126.94170445","imageIndex":4,"items":[{"name":"친구랑","tel":"","addr":"경기도 군포시 산본동 265-5번지 2층","indutype":"일반휴게음식 - 주점","category":"restaurant"},{"name":"훼밀리한식뷔페","tel":"031-394-7775","addr":"경기도 군포시 산본동 265-5번지 1층 101호","indutype":"일반휴게음식 - 일반한식","category":"restaurant"}]},{"lat":"37.366112592","long":"126.9230936","imageIndex":4,"items":[{"name":"카디프","tel":"031-397-0670","addr":"경기도 군포시 산본동 1100-2번지 1층 106호","indutype":"일반휴게음식 - 일반한식","category":"restaurant"}]},{"lat":"37.368393541","long":"126.94037467","imageIndex":4,"items":[{"name":"카리스커피 (금정동)","tel":"031-391-1941","addr":"경기도 군포시 산본동 1031-5번지 1층","indutype":"일반휴게음식 - 서양음식","category":"restaurant"}]},{"lat":"37.367222443","long":"126.92550824","imageIndex":4,"items":[{"name":"카페비","tel":"031-393-1305","addr":"경기도 군포시 산본동 1111-4번지","indutype":"일반휴게음식 - 서양음식","category":"restaurant"}]},{"lat":"37.371249052","long":"126.93906273","imageIndex":4,"items":[{"name":"카페타임 cafetime","tel":"031-000-0000","addr":"경기도 군포시 산본동 90-6번지 현지에코빌 2층","indutype":"일반휴게음식 - 서양음식","category":"restaurant"}]},{"lat":"37.369672402","long":"126.93928985","imageIndex":4,"items":[{"name":"커피원(coffee one)","tel":"031-392-9157","addr":"경기도 군포시 산본동 236-1번지","indutype":"일반휴게음식 - 서양음식","category":"restaurant"}]},{"lat":"37.37214238","long":"126.94156826","imageIndex":4,"items":[{"name":"코리아(Korea)숯불바베큐","tel":"031-391-9233","addr":"경기도 군포시 산본동 98-31번지 1층","indutype":"일반휴게음식 - 주점","category":"restaurant"},{"name":"호수다방","tel":"031-391-2342","addr":"경기도 군포시 산본동 98-31번지 지층","indutype":"일반휴게음식 - 서양음식","category":"restaurant"}]},{"lat":"37.370502736","long":"126.94195343","imageIndex":4,"items":[{"name":"키무","tel":"","addr":"경기도 군포시 산본동 252-2번지","indutype":"일반휴게음식 - 일식·회집","category":"restaurant"}]},{"lat":"37.372088173","long":"126.94128606","imageIndex":4,"items":[{"name":"태산갈비","tel":"031-397-1717","addr":"경기도 군포시 산본동 93-30번지 1층","indutype":"일반휴게음식 - 일반한식","category":"restaurant"},{"name":"하나로해물찜","tel":"031-399-3211","addr":"경기도 군포시 산본동 93-30번지 2층","indutype":"일반휴게음식 - 일반한식","category":"restaurant"}]},{"lat":"37.371223973","long":"126.94278826","imageIndex":4,"items":[{"name":"태양아구탕","tel":"031-391-5559","addr":"경기도 군포시 산본동 266-13번지 2층","indutype":"일반휴게음식 - 일반한식","category":"restaurant"},{"name":"펀비어킹(금정역점)","tel":"031-406-9262","addr":"경기도 군포시 산본동 266-13번지","indutype":"일반휴게음식 - 스넥","category":"restaurant"}]},{"lat":"37.368779811","long":"126.93820685","imageIndex":4,"items":[{"name":"토속정","tel":"031-452-4513","addr":"경기도 군포시 산본동 224-21번지 1층","indutype":"일반휴게음식 - 일반한식","category":"restaurant"}]},{"lat":"37.371471743","long":"126.93447901","imageIndex":4,"items":[{"name":"투썸플레이스 산본사거리점","tel":"031-399-8566","addr":"경기도 군포시 산본동 1061번지 한빛타운빌딩 2층 210호","indutype":"일반휴게음식 - 서양음식","category":"restaurant"}]},{"lat":"37.37067281","long":"126.9398196","imageIndex":4,"items":[{"name":"팝세계맥주","tel":"031-397-1289","addr":"경기도 군포시 산본동 91-6번지 2층","indutype":"일반휴게음식 - 주점","category":"restaurant"}]},{"lat":"37.367943626","long":"126.94150394","imageIndex":4,"items":[{"name":"패밀리카페","tel":"031-000-0000","addr":"경기도 군포시 산본동 1029-5번지 1층","indutype":"일반휴게음식 - 서양음식","category":"restaurant"}]},{"lat":"37.372471466","long":"126.93378943","imageIndex":4,"items":[{"name":"페리카나12.13단지점","tel":"031-392-4444","addr":"경기도 군포시 산본동 1059번지 우성 상가 A동 8,9호","indutype":"일반휴게음식 - 스넥","category":"restaurant"}]},{"lat":"37.367249348","long":"126.9253163","imageIndex":4,"items":[{"name":"페리카나8,9체인점","tel":"031-393-0861","addr":"경기도 군포시 산본동 1111-3번지 1층","indutype":"일반휴게음식 - 스넥","category":"restaurant"}]},{"lat":"37.351417809","long":"126.92423781","imageIndex":4,"items":[{"name":"페리카나산본5단지","tel":"031-392-5354","addr":"경기도 군포시 산본동 1155번지 가야주공 211호","indutype":"일반휴게음식 - 주점","category":"restaurant"}]},{"lat":"37.367671867","long":"126.93876096","imageIndex":4,"items":[{"name":"페리카나치킨","tel":"031-393-3070","addr":"경기도 군포시 산본동 230-1번지","indutype":"일반휴게음식 - 주점","category":"restaurant"}]},{"lat":"37.368393332","long":"126.93997956","imageIndex":4,"items":[{"name":"푸라닭 군포산본점","tel":"031-399-9206","addr":"경기도 군포시 산본동 231-9번지 1층 일부호","indutype":"일반휴게음식 - 스넥","category":"restaurant"}]},{"lat":"37.372531403","long":"126.92861873","imageIndex":4,"items":[{"name":"프레쉬팩토리","tel":"031-000-0000","addr":"경기도 군포시 산본동 1078-2번지 1층 101호","indutype":"일반휴게음식 - 서양음식","category":"restaurant"}]},{"lat":"37.36649986","long":"126.92284484","imageIndex":4,"items":[{"name":"피자인","tel":"031-392-2124","addr":"경기도 군포시 산본동 1118-5번지 1층","indutype":"일반휴게음식 - 서양음식","category":"restaurant"}]},{"lat":"37.372475924","long":"126.94189538","imageIndex":4,"items":[{"name":"하남돼지집 금정역점","tel":"031-390-6133","addr":"경기도 군포시 산본동 98-11번지 금본빌딩 1층","indutype":"일반휴게음식 - 일반한식","category":"restaurant"}]},{"lat":"37.372446322","long":"126.93709732","imageIndex":4,"items":[{"name":"하은백반전문","tel":"031-396-5553","addr":"경기도 군포시 산본동 55-7번지 1층","indutype":"일반휴게음식 - 일반한식","category":"restaurant"}]},{"lat":"37.370998351","long":"126.94206592","imageIndex":4,"items":[{"name":"한가네숯불닭갈비","tel":"031-398-4792","addr":"경기도 군포시 산본동 259-6번지 1층","indutype":"일반휴게음식 - 일반한식","category":"restaurant"}]},{"lat":"37.372250554","long":"126.94166977","imageIndex":4,"items":[{"name":"한방전주콩나물국밥(금정점)","tel":"031-395-3398","addr":"경기도 군포시 산본동 98-21번지 1층","indutype":"일반휴게음식 - 일반한식","category":"restaurant"}]},{"lat":"37.37069175","long":"126.94156944","imageIndex":4,"items":[{"name":"한아름식당","tel":"031-348-7547","addr":"경기도 군포시 산본동 259-1번지","indutype":"일반휴게음식 - 일반한식","category":"restaurant"},{"name":"홍길동전","tel":"031-111-1111","addr":"경기도 군포시 산본동 259-1번지","indutype":"일반휴게음식 - 일반한식","category":"restaurant"}]},{"lat":"37.35694562","long":"126.91784343","imageIndex":4,"items":[{"name":"한양호프치킨","tel":"031-391-3888","addr":"경기도 군포시 산본동 1151-5번지 한양프라자 1층 118호","indutype":"일반휴게음식 - 일반한식","category":"restaurant"},{"name":"해밀","tel":"031-394-3667","addr":"경기도 군포시 산본동 1151-5번지 한양프라자 1층 101-1호","indutype":"일반휴게음식 - 서양음식","category":"restaurant"}]},{"lat":"37.371087611","long":"126.94045146","imageIndex":4,"items":[{"name":"할매순대국금정역점","tel":"031-398-9981","addr":"경기도 군포시 산본동 91-39번지","indutype":"일반휴게음식 - 일반한식","category":"restaurant"}]},{"lat":"37.369916414","long":"126.94067822","imageIndex":4,"items":[{"name":"할매정성밥상","tel":"031-391-5339","addr":"경기도 군포시 산본동 239-18번지 1층","indutype":"일반휴게음식 - 일반한식","category":"restaurant"}]},{"lat":"37.370473746","long":"126.93826184","imageIndex":4,"items":[{"name":"함평밥상","tel":"031-391-8089","addr":"경기도 군포시 산본동 220-1번지","indutype":"일반휴게음식 - 일반한식","category":"restaurant"}]},{"lat":"37.370276729","long":"126.94050858","imageIndex":4,"items":[{"name":"해물나라","tel":"031-395-2562","addr":"경기도 군포시 산본동 238-17번지 1층","indutype":"일반휴게음식 - 일반한식","category":"restaurant"}]},{"lat":"37.368555442","long":"126.93984395","imageIndex":4,"items":[{"name":"향","tel":"031-391-0922","addr":"경기도 군포시 산본동 229-9번지 1층","indutype":"일반휴게음식 - 서양음식","category":"restaurant"}]},{"lat":"37.370475113","long":"126.94081323","imageIndex":4,"items":[{"name":"향교연 쌀국수","tel":"031-397-8188","addr":"경기도 군포시 산본동 238-14번지","indutype":"일반휴게음식 - 서양음식","category":"restaurant"}]},{"lat":"37.369888808","long":"126.93959447","imageIndex":4,"items":[{"name":"향기","tel":"031-398-3376","addr":"경기도 군포시 산본동 236-4번지 지하1층","indutype":"일반휴게음식 - 주점","category":"restaurant"}]},{"lat":"37.372250355","long":"126.94128593","imageIndex":4,"items":[{"name":"향림주점","tel":"031-391-7394","addr":"경기도 군포시 산본동 93-34번지","indutype":"일반휴게음식 - 일반한식","category":"restaurant"}]},{"lat":"37.377198105","long":"126.94361898","imageIndex":4,"items":[{"name":"황금밥상한식부페","tel":"031-427-3986","addr":"경기도 군포시 산본동 18-39번지 1층","indutype":"일반휴게음식 - 일반한식","category":"restaurant"}]},{"lat":"37.368888889","long":"126.93997914","imageIndex":4,"items":[{"name":"훌랄라숯불닭바베큐","tel":"031-399-6138","addr":"경기도 군포시 산본동 232-11번지 1층","indutype":"일반휴게음식 - 스넥","category":"restaurant"}]}]