[{"lat":"37.82273786","long":"127.51582395","imageIndex":0,"items":[{"name":"가평자동차유리","tel":"031-582-6008","addr":"경기도 가평군 가평읍 대곡리 217번지 2층","indutype":"자동차정비 유지 - 자동차부품","category":"car"},{"name":"만능카센타","tel":"031-582-5120","addr":"경기도 가평군 가평읍 대곡리 217","indutype":"자동차정비 유지 - 자동차정비","category":"car"}]},{"lat":"37.8257657","long":"127.50941616","imageIndex":0,"items":[{"name":"가평점 현대자동차","tel":"031-582-2119","addr":"경기도 가평군 가평읍 대곡리 269-2","indutype":"자동차정비 유지 - 자동차정비","category":"car"}]},{"lat":"37.826680011","long":"127.51465861","imageIndex":0,"items":[{"name":"경기카센타","tel":"031-582-8932","addr":"경기도 가평군 가평읍 대곡리 233-3번지","indutype":"자동차정비 유지 - 자동차정비","category":"car"}]},{"lat":"37.820151588","long":"127.51388666","imageIndex":0,"items":[{"name":"경춘밧데리","tel":"031-582-3006","addr":"경기도 가평군 가평읍 대곡리 103-3번지","indutype":"자동차정비 유지 - 자동차정비","category":"car"}]},{"lat":"37.820876055","long":"127.51302849","imageIndex":0,"items":[{"name":"골드상사","tel":"031-582-0295","addr":"경기도 가평군 가평읍 대곡리 130-1번지","indutype":"자동차정비 유지 - 자동차시트·타이어","category":"car"}]},{"lat":"37.826125773","long":"127.51157669","imageIndex":0,"items":[{"name":"벧엘정비소","tel":"031-582-8257","addr":"경기도 가평군 가평읍 대곡리 261-10번지","indutype":"자동차정비 유지 - 자동차정비","category":"car"}]},{"lat":"37.81918303","long":"127.51493621","imageIndex":0,"items":[{"name":"애니카랜드가평점","tel":"031-581-5555","addr":"경기도 가평군 가평읍 대곡리 97번지","indutype":"자동차정비 유지 - 자동차정비","category":"car"}]},{"lat":"37.817794841","long":"127.51510833","imageIndex":0,"items":[{"name":"일단정지","tel":"031-581-7724","addr":"경기도 가평군 가평읍 대곡리 63-8번지","indutype":"자동차정비 유지 - 자동차정비","category":"car"}]}]