[{"lat":"37.17635753","long":"127.04475935","imageIndex":7,"items":[{"name":"고쉬(GOSH)베이커리","tel":"070-8638-0974","addr":"경기도 오산시 금암동 516-2번지 정원프라자 105호","indutype":"음료식품 - 제과점","category":"food"},{"name":"대박축산","tel":"031-377-7161","addr":"경기도 오산시 금암동 516-2번지 정원프라자 1층","indutype":"음료식품 - 정육점","category":"food"}]},{"lat":"37.175526403","long":"127.05050162","imageIndex":7,"items":[{"name":"고집쎈빵","tel":"031-377-8097","addr":"경기도 오산시 금암동 500-2번지 1층 103호","indutype":"음료식품 - 제과점","category":"food"}]},{"lat":"37.177245657","long":"127.05464657","imageIndex":7,"items":[{"name":"남쓰브레드","tel":"031-377-0453","addr":"경기도 오산시 금암동 490-1번지 1층 102호","indutype":"음료식품 - 제과점","category":"food"}]},{"lat":"37.175219971","long":"127.05069286","imageIndex":7,"items":[{"name":"담아담아세교점","tel":"031-374-2577","addr":"경기도 오산시 금암동 501-2번지 104, 105호","indutype":"음료식품 - 기타음료식품","category":"food"}]},{"lat":"37.176753602","long":"127.04584057","imageIndex":7,"items":[{"name":"라오제대만대왕카스테라금암점","tel":"","addr":"경기도 오산시 금암동 516-6번지 웅신아트프라자 102호","indutype":"음료식품 - 제과점","category":"food"},{"name":"민트글라스 세교점","tel":"031-372-8294","addr":"경기도 오산시 금암동 516-6번지 웅신아트프라자 102호","indutype":"음료식품 - 기타음료식품","category":"food"},{"name":"신개념축산","tel":"070-4136-7487","addr":"경기도 오산시 금암동 516-6번지 웅신아트프라자 101호","indutype":"음료식품 - 정육점","category":"food"}]},{"lat":"37.177110456","long":"127.05474782","imageIndex":7,"items":[{"name":"리추얼케이크(Ritualcake)","tel":"031-000-0000","addr":"경기도 오산시 금암동 490-9번지 1층","indutype":"음료식품 - 제과점","category":"food"},{"name":"오색건강원","tel":"031-372-5585","addr":"경기도 오산시 금암동 490-9번지 1층","indutype":"건강식품 - 기타건강식품","category":"food"},{"name":"행복카롱","tel":"031-252-3474","addr":"경기도 오산시 금암동 490-9번지 101호","indutype":"음료식품 - 제과점","category":"food"}]},{"lat":"37.17727628","long":"127.04563818","imageIndex":7,"items":[{"name":"맘(MOM)과일&채소","tel":"031-2246-5540","addr":"경기도 오산시 금암동 512-4번지 롯데슈퍼 1층 105호","indutype":"음료식품 - 농·축·수산품","category":"food"}]},{"lat":"37.177083558","long":"127.05444377","imageIndex":7,"items":[{"name":"몽땅떡볶이","tel":"031-000-0000","addr":"경기도 오산시 금암동 492-5번지 1층","indutype":"음료식품 - 기타음료식품","category":"food"}]},{"lat":"37.174751192","long":"127.05127809","imageIndex":7,"items":[{"name":"뻥튀기공작소오산점","tel":"","addr":"경기도 오산시 금암동 503-2번지 지플레이스세교 106호","indutype":"음료식품 - 기타음료식품","category":"food"}]},{"lat":"37.175193238","long":"127.04994966","imageIndex":7,"items":[{"name":"서민반찬세교점","tel":"031-372-0947","addr":"경기도 오산시 금암동 502-1번지 108호","indutype":"음료식품 - 기타음료식품","category":"food"}]},{"lat":"37.17758288","long":"127.04495146","imageIndex":7,"items":[{"name":"손맛찬","tel":"031-290-8557","addr":"경기도 오산시 금암동 512번지 1층","indutype":"음료식품 - 기타음료식품","category":"food"}]},{"lat":"37.174670421","long":"127.05047857","imageIndex":7,"items":[{"name":"여의도떡집","tel":"031-373-7531","addr":"경기도 오산시 금암동 502-4번지 101호","indutype":"음료식품 - 제과점","category":"food"}]},{"lat":"37.171365193","long":"127.04631043","imageIndex":7,"items":[{"name":"우리동네반찬","tel":"031-375-6446","addr":"경기도 오산시 금암동 522번지 금암마을휴먼시아 102호","indutype":"음료식품 - 기타음료식품","category":"food"}]},{"lat":"37.176330598","long":"127.04447783","imageIndex":7,"items":[{"name":"장독대세교점","tel":"031-377-5287","addr":"경기도 오산시 금암동 516-1번지 센타프라자 104호","indutype":"음료식품 - 기타음료식품","category":"food"}]},{"lat":"37.174418043","long":"127.05069235","imageIndex":7,"items":[{"name":"파리바게트 오산휴먼시아점","tel":"031-373-8269","addr":"경기도 오산시 금암동 502-5번지 인피니트타워 105호","indutype":"음료식품 - 제과점","category":"food"}]},{"lat":"37.177308901","long":"127.0542525","imageIndex":7,"items":[{"name":"펜더맨커피랩 (fenderman coffee LAB)","tel":"","addr":"경기도 오산시 금암동 492-3번지 101호","indutype":"음료식품 - 기타음료식품","category":"food"}]},{"lat":"37.175391337","long":"127.05027633","imageIndex":7,"items":[{"name":"행복한 정육점","tel":"","addr":"경기도 오산시 금암동 500-1번지 102-1호","indutype":"음료식품 - 정육점","category":"food"}]}]