[{"lat":"37.4100863","long":"127.1292421","imageIndex":17,"items":[{"name":"(주) 탑클라스코리아","tel":"031-718-2400","addr":"경기도 성남시 분당구 야탑동 367-4번지","indutype":"","category":"other"},{"name":"미아트미용학원","tel":"031-781-9902","addr":"경기도 성남시 분당구 야탑동 367-4번지","indutype":"","category":"other"},{"name":"빠리안경","tel":"031-701-7354","addr":"경기도 성남시 분당구 야탑동 367-4번지","indutype":"","category":"other"},{"name":"옥스포드(프리모)학생복","tel":"031-705-1536","addr":"경기도 성남시 분당구 야탑동 367-4번지","indutype":"","category":"other"},{"name":"테마보석사우나","tel":"031-707-3337","addr":"경기도 성남시 분당구 야탑동 367-4번지","indutype":"","category":"other"}]},{"lat":"37.4116705","long":"127.1307357","imageIndex":17,"items":[{"name":"1인자감자탕","tel":"031-709-3949","addr":"경기도 성남시 분당구 야탑동 372-2번지","indutype":"","category":"other"}]},{"lat":"37.410753","long":"127.1374549","imageIndex":17,"items":[{"name":"2.9샌또다방","tel":"031-706-7630","addr":"경기도 성남시 분당구 야탑동 306-5번지","indutype":"","category":"other"}]},{"lat":"37.4130305","long":"127.1311786","imageIndex":17,"items":[{"name":"248고깃집 야탑점","tel":"031-707-2388","addr":"경기도 성남시 분당구 야탑동 377-5번지","indutype":"","category":"other"}]},{"lat":"37.413388","long":"127.1254635","imageIndex":17,"items":[{"name":"24시 전주명가콩나물국밥","tel":"031-781-4281","addr":"경기도 성남시 분당구 야탑동 342-1번지","indutype":"","category":"other"},{"name":"미락맛집","tel":"031-708-5919","addr":"경기도 성남시 분당구 야탑동 342-1번지","indutype":"","category":"other"},{"name":"생가(家)면","tel":"","addr":"경기도 성남시 분당구 야탑동 342-1번지","indutype":"","category":"other"},{"name":"칼국수한마당마루 야탑점","tel":"031-717-7400","addr":"경기도 성남시 분당구 야탑동 342-1번지","indutype":"","category":"other"},{"name":"한살림성남용인소비자 생협 야탑매장","tel":"031-701-4001","addr":"경기도 성남시 분당구 야탑동 342-1번지","indutype":"","category":"other"},{"name":"행복한 안경원","tel":"031-707-1577","addr":"경기도 성남시 분당구 야탑동 342-1번지","indutype":"","category":"other"}]},{"lat":"37.4115813","long":"127.1379873","imageIndex":17,"items":[{"name":"59피자","tel":"031-701-5949","addr":"경기도 성남시 분당구 야탑동 275-4번지","indutype":"","category":"other"}]},{"lat":"37.4110858","long":"127.1297972","imageIndex":17,"items":[{"name":"CURLY HAIR (컬리헤어)","tel":"031-8017-4645","addr":"경기도 성남시 분당구 야탑동 366-3번지","indutype":"","category":"other"},{"name":"마로네","tel":"070-8839-1028","addr":"경기도 성남시 분당구 야탑동 366-3번지","indutype":"","category":"other"},{"name":"에일린에스테틱","tel":"031-704-9996","addr":"경기도 성남시 분당구 야탑동 366-3번지","indutype":"","category":"other"},{"name":"이삭토스트 야탑점","tel":"031-781-8255","addr":"경기도 성남시 분당구 야탑동 366-3번지","indutype":"","category":"other"}]},{"lat":"37.4115863","long":"127.1335482","imageIndex":17,"items":[{"name":"U & Sie Flower","tel":"031-708-3983","addr":"경기도 성남시 분당구 야탑동 382-5번지","indutype":"","category":"other"},{"name":"횡성한우축산","tel":"031-701-5152","addr":"경기도 성남시 분당구 야탑동 382-5번지","indutype":"","category":"other"}]},{"lat":"37.4056656","long":"127.1261512","imageIndex":17,"items":[{"name":"㈜ 새농 야탑점","tel":"031-708-9800","addr":"경기도 성남시 분당구 야탑동 532-3번지","indutype":"","category":"other"}]},{"lat":"37.4093872","long":"127.1257394","imageIndex":17,"items":[{"name":"㈜디에스유통","tel":"031-701-7997","addr":"경기도 성남시 분당구 야탑동 502번지","indutype":"","category":"other"},{"name":"함께하는약국","tel":"031-702-7100","addr":"경기도 성남시 분당구 야탑동 502번지","indutype":"","category":"other"}]},{"lat":"37.4103295","long":"127.1206016","imageIndex":17,"items":[{"name":"㈜성남시민프로축구단","tel":"031-709-4133","addr":"경기도 성남시 분당구 야탑동 486번지","indutype":"","category":"other"},{"name":"경기성남만남지역자활센터(서로좋은식당)","tel":"031-706-8009","addr":"경기도 성남시 분당구 야탑동 486번지","indutype":"","category":"other"},{"name":"보바스(BOVAS)","tel":"031-703-8090","addr":"경기도 성남시 분당구 야탑동 486번지","indutype":"","category":"other"},{"name":"통일스포츠","tel":"031-709-4133","addr":"경기도 성남시 분당구 야탑동 486번지","indutype":"","category":"other"}]},{"lat":"37.410556","long":"127.1281585","imageIndex":17,"items":[{"name":"㈜심리상담센터아이엠미","tel":"031-718-6572","addr":"경기도 성남시 분당구 야탑동 358-3번지","indutype":"","category":"other"},{"name":"까사커텐전문점","tel":"031-747-5050","addr":"경기도 성남시 분당구 야탑동 358-3번지","indutype":"","category":"other"},{"name":"대한안경","tel":"031-622-1356","addr":"경기도 성남시 분당구 야탑동 358-3번지","indutype":"","category":"other"},{"name":"스테이스윗","tel":"031-622-0131","addr":"경기도 성남시 분당구 야탑동 358-3번지","indutype":"","category":"other"},{"name":"아미고쿡","tel":"031-622-0352","addr":"경기도 성남시 분당구 야탑동 358-3번지","indutype":"","category":"other"},{"name":"안경나라 야탑점","tel":"031-622-0313","addr":"경기도 성남시 분당구 야탑동 358-3번지","indutype":"","category":"other"},{"name":"알파문구","tel":"031-622-1470","addr":"경기도 성남시 분당구 야탑동 358-3번지","indutype":"","category":"other"},{"name":"연세안경콘택트","tel":"031-622-1005","addr":"경기도 성남시 분당구 야탑동 358-3번지","indutype":"","category":"other"},{"name":"오엘안경","tel":"031-622-1600","addr":"경기도 성남시 분당구 야탑동 358-3번지","indutype":"","category":"other"},{"name":"허지스헤어아트테라피","tel":"031-622-0222","addr":"경기도 성남시 분당구 야탑동 358-3번지","indutype":"","category":"other"}]},{"lat":"37.41108","long":"127.1267701","imageIndex":17,"items":[{"name":"㈜이자르산후조리원 분당야탑점","tel":"031-705-1998","addr":"경기도 성남시 분당구 야탑동 355-1번지","indutype":"","category":"other"},{"name":"미소맘 산후조리원","tel":"031-705-1998","addr":"경기도 성남시 분당구 야탑동 355-1번지","indutype":"","category":"other"},{"name":"베러덴 휘트니스","tel":"031-705-9696","addr":"경기도 성남시 분당구 야탑동 355-1번지","indutype":"","category":"other"},{"name":"빽다방 야탑점NC점","tel":"031-703-3965","addr":"경기도 성남시 분당구 야탑동 355-1번지","indutype":"","category":"other"},{"name":"삐사감김밥","tel":"031-703-3210","addr":"경기도 성남시 분당구 야탑동 355-1번지","indutype":"","category":"other"},{"name":"참진짜장짬뽕","tel":"031-706-0845","addr":"경기도 성남시 분당구 야탑동 355-1번지","indutype":"","category":"other"}]},{"lat":"37.412501","long":"127.1292123","imageIndex":17,"items":[{"name":"가마로강정 (야탑점)","tel":"031-704-7292","addr":"경기도 성남시 분당구 야탑동 360-6번지","indutype":"","category":"other"},{"name":"메트로안경","tel":"031-706-9066","addr":"경기도 성남시 분당구 야탑동 360-6번지","indutype":"","category":"other"},{"name":"메트로약국","tel":"031-708-1238","addr":"경기도 성남시 분당구 야탑동 360-6번지","indutype":"","category":"other"},{"name":"분당아이엠 미술학원","tel":"031-701-1718","addr":"경기도 성남시 분당구 야탑동 360-6번지","indutype":"","category":"other"},{"name":"장독대 야탑역점","tel":"031-707-7761","addr":"경기도 성남시 분당구 야탑동 360-6번지","indutype":"","category":"other"},{"name":"장독대야탑역점","tel":"031-707-7761","addr":"경기도 성남시 분당구 야탑동 360-6번지","indutype":"","category":"other"}]},{"lat":"37.4120857","long":"127.1381238","imageIndex":17,"items":[{"name":"가마솥순대국","tel":"031-702-6663","addr":"경기도 성남시 분당구 야탑동 275-1번지","indutype":"","category":"other"},{"name":"윤선생영어숲분당탑보습학원","tel":"","addr":"경기도 성남시 분당구 야탑동 275-1번지","indutype":"","category":"other"}]},{"lat":"37.4122211","long":"127.1297992","imageIndex":17,"items":[{"name":"가족사랑한의원","tel":"031-703-7521","addr":"경기도 성남시 분당구 야탑동 361-5번지","indutype":"","category":"other"},{"name":"굴러들어온복","tel":"","addr":"경기도 성남시 분당구 야탑동 361-5번지","indutype":"","category":"other"},{"name":"꾸밈 야탑점","tel":"031-704-0850","addr":"경기도 성남시 분당구 야탑동 361-5번지","indutype":"","category":"other"},{"name":"베스트분당점","tel":"031-744-7338","addr":"경기도 성남시 분당구 야탑동 361-5번지","indutype":"","category":"other"},{"name":"베스트헬스케어","tel":"031-707-9712","addr":"경기도 성남시 분당구 야탑동 361-5번지","indutype":"","category":"other"},{"name":"보다안경","tel":"031-707-1116","addr":"경기도 성남시 분당구 야탑동 361-5번지","indutype":"","category":"other"},{"name":"본죽앤비빔밥카페 분당야탑역점","tel":"031-702-5420","addr":"경기도 성남시 분당구 야탑동 361-5번지","indutype":"","category":"other"},{"name":"분당그린치과의원","tel":"031-704-2804","addr":"경기도 성남시 분당구 야탑동 361-5번지","indutype":"","category":"other"},{"name":"분당베스트병원","tel":"031-707-9712","addr":"경기도 성남시 분당구 야탑동 361-5번지","indutype":"","category":"other"},{"name":"살롱드반","tel":"031-781-2220","addr":"경기도 성남시 분당구 야탑동 361-5번지","indutype":"","category":"other"},{"name":"쌀치킹","tel":"","addr":"경기도 성남시 분당구 야탑동 361-5번지","indutype":"","category":"other"},{"name":"오하라뷰티하우스","tel":"031-707-1112","addr":"경기도 성남시 분당구 야탑동 361-5번지","indutype":"","category":"other"},{"name":"우호우상헤어살롱","tel":"031-8017-5878","addr":"경기도 성남시 분당구 야탑동 361-5번지","indutype":"","category":"other"},{"name":"이오헤어 (EOHAIR)","tel":"031-707-8500","addr":"경기도 성남시 분당구 야탑동 361-5번지","indutype":"","category":"other"},{"name":"커피랑도서관 야탑역점","tel":"","addr":"경기도 성남시 분당구 야탑동 361-5번지","indutype":"","category":"other"},{"name":"허지스 헤어","tel":"031-706-8333","addr":"경기도 성남시 분당구 야탑동 361-5번지","indutype":"","category":"other"}]},{"lat":"37.4056932","long":"127.1256543","imageIndex":17,"items":[{"name":"갈비정원","tel":"031-705-9400","addr":"경기도 성남시 분당구 야탑동 532-1번지","indutype":"","category":"other"}]},{"lat":"37.4056968","long":"127.1221304","imageIndex":17,"items":[{"name":"감탄 아름마을점","tel":"031-709-1505","addr":"경기도 성남시 분당구 야탑동 533-3번지","indutype":"","category":"other"}]},{"lat":"37.4132196","long":"127.1312693","imageIndex":17,"items":[{"name":"강남가브리살과뽈살","tel":"031-708-2874","addr":"경기도 성남시 분당구 야탑동 377-4번지","indutype":"","category":"other"}]},{"lat":"37.4115543","long":"127.1298206","imageIndex":17,"items":[{"name":"경민미용예술학원","tel":"031-708-1104","addr":"경기도 성남시 분당구 야탑동 366-1번지","indutype":"","category":"other"},{"name":"정금자","tel":"031-708-4711","addr":"경기도 성남시 분당구 야탑동 366-1번지","indutype":"","category":"other"}]},{"lat":"37.4075549","long":"127.1447909","imageIndex":17,"items":[{"name":"고방","tel":"031-701-0295","addr":"경기도 성남시 분당구 야탑동 174-2번지","indutype":"","category":"other"}]},{"lat":"37.4123865","long":"127.1429362","imageIndex":17,"items":[{"name":"고스트","tel":"031-706-7752","addr":"경기도 성남시 분당구 야탑동 219-1번지","indutype":"","category":"other"},{"name":"엔조이슈","tel":"031-702-0401","addr":"경기도 성남시 분당구 야탑동 219-1번지","indutype":"","category":"other"},{"name":"오니기리와이규동(분당매화마을점)","tel":"031-706-0290","addr":"경기도 성남시 분당구 야탑동 219-1번지","indutype":"","category":"other"}]},{"lat":"37.4123378","long":"127.1301834","imageIndex":17,"items":[{"name":"곰바우 양곱창","tel":"031-707-3000","addr":"경기도 성남시 분당구 야탑동 361-8번지","indutype":"","category":"other"}]},{"lat":"37.4056649","long":"127.1268741","imageIndex":17,"items":[{"name":"과일사랑","tel":"031-707-5759","addr":"경기도 성남시 분당구 야탑동 532-6번지","indutype":"","category":"other"},{"name":"젠틀맨미용실","tel":"031-703-5777","addr":"경기도 성남시 분당구 야탑동 532-6번지","indutype":"","category":"other"},{"name":"케?하우스 엠마","tel":"031-708-8799","addr":"경기도 성남시 분당구 야탑동 532-6번지","indutype":"","category":"other"}]},{"lat":"37.4115303","long":"127.1269854","imageIndex":17,"items":[{"name":"광명(분당)","tel":"031-703-5009","addr":"경기도 성남시 분당구 야탑동 353-3번지","indutype":"","category":"other"},{"name":"신선낙지","tel":"031-708-9200","addr":"경기도 성남시 분당구 야탑동 353-3번지","indutype":"","category":"other"},{"name":"에머이 야탑점","tel":"031-708-7174","addr":"경기도 성남시 분당구 야탑동 353-3번지","indutype":"","category":"other"}]},{"lat":"37.4122537","long":"127.132962","imageIndex":17,"items":[{"name":"광복동야시장","tel":"031-705-8357","addr":"경기도 성남시 분당구 야탑동 383-3번지","indutype":"","category":"other"}]},{"lat":"37.4122473","long":"127.1306012","imageIndex":17,"items":[{"name":"광장호프","tel":"031-702-5550","addr":"경기도 성남시 분당구 야탑동 375-1번지","indutype":"","category":"other"}]},{"lat":"37.4118876","long":"127.1380669","imageIndex":17,"items":[{"name":"굴사냥","tel":"031-781-8017","addr":"경기도 성남시 분당구 야탑동 275-2번지","indutype":"","category":"other"},{"name":"석촌회집","tel":"031-704-2988","addr":"경기도 성남시 분당구 야탑동 275-2번지","indutype":"","category":"other"},{"name":"토고리옛날막창소갈비살(야탑점)","tel":"031-781-8017","addr":"경기도 성남시 분당구 야탑동 275-2번지","indutype":"","category":"other"},{"name":"플레잉음악학원","tel":"","addr":"경기도 성남시 분당구 야탑동 275-2번지","indutype":"","category":"other"}]},{"lat":"37.4130867","long":"127.1292358","imageIndex":17,"items":[{"name":"그린탑약국","tel":"031-8016-5515","addr":"경기도 성남시 분당구 야탑동 360-4번지","indutype":"","category":"other"},{"name":"하늘치과의원","tel":"031-703-2080","addr":"경기도 성남시 분당구 야탑동 360-4번지","indutype":"","category":"other"}]},{"lat":"37.4104408","long":"127.1262946","imageIndex":17,"items":[{"name":"금룡","tel":"031-707-3008","addr":"경기도 성남시 분당구 야탑동 354-4번지","indutype":"","category":"other"}]},{"lat":"37.4121659","long":"127.1308495","imageIndex":17,"items":[{"name":"금송한우갈비","tel":"031-706-5483","addr":"경기도 성남시 분당구 야탑동 375-3번지","indutype":"","category":"other"}]},{"lat":"37.413419","long":"127.1301852","imageIndex":17,"items":[{"name":"기장새벽산꼼장어","tel":"031-706-9282","addr":"경기도 성남시 분당구 야탑동 360-3번지","indutype":"","category":"other"}]},{"lat":"37.4115266","long":"127.1385181","imageIndex":17,"items":[{"name":"김밥매니아","tel":"031-708-3314","addr":"경기도 성남시 분당구 야탑동 272-4번지","indutype":"","category":"other"},{"name":"남해아구","tel":"031-703-3437","addr":"경기도 성남시 분당구 야탑동 272-4번지","indutype":"","category":"other"},{"name":"유후점핑클럽","tel":"031-703-8588","addr":"경기도 성남시 분당구 야탑동 272-4번지","indutype":"","category":"other"}]},{"lat":"37.4056651","long":"127.1266256","imageIndex":17,"items":[{"name":"끼니꿈","tel":"031-703-3392","addr":"경기도 성남시 분당구 야탑동 532-5번지","indutype":"","category":"other"},{"name":"파인드코딩학원","tel":"031-705-3437","addr":"경기도 성남시 분당구 야탑동 532-5번지","indutype":"","category":"other"}]},{"lat":"37.4128097","long":"127.1352898","imageIndex":17,"items":[{"name":"나 피자 너 떡볶이","tel":"031-705-7430","addr":"경기도 성남시 분당구 야탑동 287-7번지","indutype":"","category":"other"}]},{"lat":"37.4115297","long":"127.1275728","imageIndex":17,"items":[{"name":"나비드라","tel":"","addr":"경기도 성남시 분당구 야탑동 353-5번지","indutype":"","category":"other"},{"name":"미스터피자 야탑점","tel":"031-703-7676","addr":"경기도 성남시 분당구 야탑동 353-5번지","indutype":"","category":"other"},{"name":"설빙야탑점","tel":"031-708-3733","addr":"경기도 성남시 분당구 야탑동 353-5번지","indutype":"","category":"other"},{"name":"신우사","tel":"031-708-8834","addr":"경기도 성남시 분당구 야탑동 353-5번지","indutype":"","category":"other"},{"name":"오니기리와이규동","tel":"031-709-0290","addr":"경기도 성남시 분당구 야탑동 353-5번지","indutype":"","category":"other"},{"name":"참치마당","tel":"031-708-3864","addr":"경기도 성남시 분당구 야탑동 353-5번지","indutype":"","category":"other"},{"name":"한솔약국","tel":"031-705-3715","addr":"경기도 성남시 분당구 야탑동 353-5번지","indutype":"","category":"other"}]},{"lat":"37.4130826","long":"127.1329634","imageIndex":17,"items":[{"name":"낙지왕궁","tel":"031-703-8882","addr":"경기도 성남시 분당구 야탑동 381-1번지","indutype":"","category":"other"}]},{"lat":"37.4058386","long":"127.1554837","imageIndex":17,"items":[{"name":"남성운수","tel":"031-707-1863","addr":"경기도 성남시 분당구 야탑동 192-1번지","indutype":"","category":"other"}]},{"lat":"37.4102471","long":"127.1305752","imageIndex":17,"items":[{"name":"남영불갈비","tel":"031-703-8892","addr":"경기도 성남시 분당구 야탑동 368-3번지","indutype":"","category":"other"}]},{"lat":"37.4130257","long":"127.1272138","imageIndex":17,"items":[{"name":"다비치 성남야탑터미널점","tel":"031-781-1357","addr":"경기도 성남시 분당구 야탑동 341번지","indutype":"","category":"other"},{"name":"메이비코코","tel":"","addr":"경기도 성남시 분당구 야탑동 341번지","indutype":"","category":"other"},{"name":"못된 고양이(야탑홈플러스점)","tel":"","addr":"경기도 성남시 분당구 야탑동 341번지","indutype":"","category":"other"},{"name":"못된고양이성남야탑터미널점","tel":"070-4296-5931","addr":"경기도 성남시 분당구 야탑동 341번지","indutype":"","category":"other"},{"name":"순흥기지떡 야탑점","tel":"031-707-4374","addr":"경기도 성남시 분당구 야탑동 341번지","indutype":"","category":"other"},{"name":"쌀로 요리한 닭","tel":"031-702-8292","addr":"경기도 성남시 분당구 야탑동 341번지","indutype":"","category":"other"},{"name":"써브웨이 성남터미널점","tel":"031-705-7022","addr":"경기도 성남시 분당구 야탑동 341번지","indutype":"","category":"other"},{"name":"야탑슈즈","tel":"031-725-0927","addr":"경기도 성남시 분당구 야탑동 341번지","indutype":"","category":"other"},{"name":"이금연토탈샵","tel":"031-715-2326","addr":"경기도 성남시 분당구 야탑동 341번지","indutype":"","category":"other"},{"name":"허지에스헤어","tel":"031-705-9222","addr":"경기도 성남시 분당구 야탑동 341번지","indutype":"","category":"other"}]},{"lat":"37.411531","long":"127.1262964","imageIndex":17,"items":[{"name":"닥터쥬스 야탑점","tel":"031-708-5141","addr":"경기도 성남시 분당구 야탑동 353-1번지","indutype":"","category":"other"},{"name":"북경관","tel":"","addr":"경기도 성남시 분당구 야탑동 353-1번지","indutype":"","category":"other"},{"name":"분당요리제과제빵학원","tel":"031-707-5700","addr":"경기도 성남시 분당구 야탑동 353-1번지","indutype":"","category":"other"},{"name":"전주숯불갈비","tel":"031-706-7477","addr":"경기도 성남시 분당구 야탑동 353-1번지","indutype":"","category":"other"}]},{"lat":"37.4114132","long":"127.1352987","imageIndex":17,"items":[{"name":"대성물류","tel":"031-781-9962","addr":"경기도 성남시 분당구 야탑동 295-8번지","indutype":"","category":"other"}]},{"lat":"37.4070576","long":"127.1462131","imageIndex":17,"items":[{"name":"더팬 (THE FAN)","tel":"031-707-9235","addr":"경기도 성남시 분당구 야탑동 175-3번지","indutype":"","category":"other"}]},{"lat":"37.4106656","long":"127.1267694","imageIndex":17,"items":[{"name":"더풋샵 야탑","tel":"031-707-8788","addr":"경기도 성남시 분당구 야탑동 355-3번지","indutype":"","category":"other"},{"name":"맘스스시","tel":"031-708-6274","addr":"경기도 성남시 분당구 야탑동 355-3번지","indutype":"","category":"other"},{"name":"신주쿠마쯔야","tel":"031-704-5977","addr":"경기도 성남시 분당구 야탑동 355-3번지","indutype":"","category":"other"},{"name":"연안식당 야탑점","tel":"031-707-2040","addr":"경기도 성남시 분당구 야탑동 355-3번지","indutype":"","category":"other"},{"name":"이가부대찌개","tel":"070-7005-9155","addr":"경기도 성남시 분당구 야탑동 355-3번지","indutype":"","category":"other"}]},{"lat":"37.4121649","long":"127.1317645","imageIndex":17,"items":[{"name":"델피그","tel":"031-704-3292","addr":"경기도 성남시 분당구 야탑동 375-15번지","indutype":"","category":"other"}]},{"lat":"37.411275","long":"127.1379303","imageIndex":17,"items":[{"name":"도토베르치킨","tel":"031-704-9291","addr":"경기도 성남시 분당구 야탑동 274-1번지","indutype":"","category":"other"},{"name":"안경박사 야탑점","tel":"031-706-8985","addr":"경기도 성남시 분당구 야탑동 274-1번지","indutype":"","category":"other"}]},{"lat":"37.411865","long":"127.1341247","imageIndex":17,"items":[{"name":"돌체스푼","tel":"031-705-7430","addr":"경기도 성남시 분당구 야탑동 290-4번지","indutype":"","category":"other"},{"name":"인토야탑독서실","tel":"031-701-8829","addr":"경기도 성남시 분당구 야탑동 290-4번지","indutype":"","category":"other"},{"name":"킹스타피자 분당야탑점","tel":"031-781-2018","addr":"경기도 성남시 분당구 야탑동 290-4번지","indutype":"","category":"other"}]},{"lat":"37.4100584","long":"127.1301005","imageIndex":17,"items":[{"name":"동방양꼬치","tel":"031-721-1315","addr":"경기도 성남시 분당구 야탑동 367-6번지","indutype":"","category":"other"},{"name":"야탑옹기족발","tel":"031-704-3434","addr":"경기도 성남시 분당구 야탑동 367-6번지","indutype":"","category":"other"}]},{"lat":"37.4122457","long":"127.1320131","imageIndex":17,"items":[{"name":"동해세꼬시","tel":"031-709-0393","addr":"경기도 성남시 분당구 야탑동 379-7번지","indutype":"","category":"other"}]},{"lat":"37.4125861","long":"127.1254622","imageIndex":17,"items":[{"name":"두시루 콩나물국밥","tel":"031-704-8985","addr":"경기도 성남시 분당구 야탑동 342-3번지","indutype":"","category":"other"},{"name":"명가원설농탕","tel":"","addr":"경기도 성남시 분당구 야탑동 342-3번지","indutype":"","category":"other"},{"name":"어화둥둥","tel":"031-712-1230","addr":"경기도 성남시 분당구 야탑동 342-3번지","indutype":"","category":"other"},{"name":"원두막한식뷔페","tel":"031-709-5324","addr":"경기도 성남시 분당구 야탑동 342-3번지","indutype":"","category":"other"},{"name":"정관장홍삼전시판매장(야탑점)","tel":"031-704-3389","addr":"경기도 성남시 분당구 야탑동 342-3번지","indutype":"","category":"other"},{"name":"콤마 (Comma)","tel":"031-705-6430","addr":"경기도 성남시 분당구 야탑동 342-3번지","indutype":"","category":"other"}]},{"lat":"37.4119715","long":"127.1272346","imageIndex":17,"items":[{"name":"드림갤러리","tel":"031-708-0608","addr":"경기도 성남시 분당구 야탑동 352-4번지","indutype":"","category":"other"},{"name":"스낵스토리","tel":"","addr":"경기도 성남시 분당구 야탑동 352-4번지","indutype":"","category":"other"}]},{"lat":"37.4056353","long":"127.1292911","imageIndex":17,"items":[{"name":"등소평","tel":"031-704-1991","addr":"경기도 성남시 분당구 야탑동 527-1번지","indutype":"","category":"other"}]},{"lat":"37.411253","long":"127.1335137","imageIndex":17,"items":[{"name":"떼루아헤어 1호점","tel":"031-704-2277","addr":"경기도 성남시 분당구 야탑동 382-7번지","indutype":"","category":"other"}]},{"lat":"37.4126398","long":"127.1342052","imageIndex":17,"items":[{"name":"또래오래 야탑점","tel":"031-709-0019","addr":"경기도 성남시 분당구 야탑동 289-4번지","indutype":"","category":"other"}]},{"lat":"37.4071661","long":"127.1458519","imageIndex":17,"items":[{"name":"또와분식","tel":"031-705-5254","addr":"경기도 성남시 분당구 야탑동 175-1번지","indutype":"","category":"other"},{"name":"브레멘음악대음악학원","tel":"031-708-8882","addr":"경기도 성남시 분당구 야탑동 175-1번지","indutype":"","category":"other"},{"name":"석봉토스트","tel":"031-705-7252","addr":"경기도 성남시 분당구 야탑동 175-1번지","indutype":"","category":"other"}]},{"lat":"37.4107795","long":"127.1297967","imageIndex":17,"items":[{"name":"로건아트미술학원","tel":"070-8864-5579","addr":"경기도 성남시 분당구 야탑동 366-4번지","indutype":"","category":"other"},{"name":"야탑마을사진관","tel":"","addr":"경기도 성남시 분당구 야탑동 366-4번지","indutype":"","category":"other"}]},{"lat":"37.4127527","long":"127.1297888","imageIndex":17,"items":[{"name":"로스팅카페마라마테 (MARAMATE)","tel":"031-706-0606","addr":"경기도 성남시 분당구 야탑동 361-3번지","indutype":"","category":"other"}]},{"lat":"37.4056693","long":"127.1226047","imageIndex":17,"items":[{"name":"마리헤어 야탑점","tel":"031-707-1249","addr":"경기도 성남시 분당구 야탑동 533-5번지","indutype":"","category":"other"},{"name":"주주브","tel":"031-705-8876","addr":"경기도 성남시 분당구 야탑동 533-5번지","indutype":"","category":"other"},{"name":"캡틴땡글수학학원","tel":"031-703-1379","addr":"경기도 성남시 분당구 야탑동 533-5번지","indutype":"","category":"other"},{"name":"한양 블랑 무용학원","tel":"031-7009-4768","addr":"경기도 성남시 분당구 야탑동 533-5번지","indutype":"","category":"other"}]},{"lat":"37.4124725","long":"127.1306242","imageIndex":17,"items":[{"name":"마산아구꽃게랜드","tel":"031-701-6991","addr":"경기도 성남시 분당구 야탑동 376-8번지","indutype":"","category":"other"}]},{"lat":"37.4129401","long":"127.1314608","imageIndex":17,"items":[{"name":"만강","tel":"031-705-8892","addr":"경기도 성남시 분당구 야탑동 377-6번지","indutype":"","category":"other"}]},{"lat":"37.4130321","long":"127.1296876","imageIndex":17,"items":[{"name":"만강홍","tel":"031-781-1566","addr":"경기도 성남시 분당구 야탑동 361-1번지","indutype":"","category":"other"}]},{"lat":"37.4153861","long":"127.1274662","imageIndex":17,"items":[{"name":"만나슈퍼","tel":"031-704-6071","addr":"경기도 성남시 분당구 야탑동 331번지 장미마을","indutype":"","category":"other"},{"name":"배달한우","tel":"031-703-6999","addr":"경기도 성남시 분당구 야탑동 331번지 장미마을","indutype":"","category":"other"},{"name":"야탑과일","tel":"031-704-5183","addr":"경기도 성남시 분당구 야탑동 331번지 장미마을","indutype":"","category":"other"},{"name":"장미마트","tel":"031-706-4923","addr":"경기도 성남시 분당구 야탑동 331번지 장미마을","indutype":"","category":"other"}]},{"lat":"37.4128874","long":"127.1302069","imageIndex":17,"items":[{"name":"만석생태한마리","tel":"031-708-8167","addr":"경기도 성남시 분당구 야탑동 361-12번지","indutype":"","category":"other"},{"name":"미래포차","tel":"031-705-8512","addr":"경기도 성남시 분당구 야탑동 361-12번지","indutype":"","category":"other"}]},{"lat":"37.4134197","long":"127.1295188","imageIndex":17,"items":[{"name":"맑은샘심리상담연구소","tel":"031-702-1897","addr":"경기도 성남시 분당구 야탑동 360-1번지","indutype":"","category":"other"}]},{"lat":"37.4110255","long":"127.1355465","imageIndex":17,"items":[{"name":"메트로커피","tel":"070-4709-9277","addr":"경기도 성남시 분당구 야탑동 298-1번지","indutype":"","category":"other"}]},{"lat":"37.4127749","long":"127.1342054","imageIndex":17,"items":[{"name":"명동칼국수","tel":"031-701-5570","addr":"경기도 성남시 분당구 야탑동 289-3번지","indutype":"","category":"other"}]},{"lat":"37.4121942","long":"127.1377964","imageIndex":17,"items":[{"name":"명품식당","tel":"031-753-3992","addr":"경기도 성남시 분당구 야탑동 276-4번지","indutype":"","category":"other"}]},{"lat":"37.4040336","long":"127.1507928","imageIndex":17,"items":[{"name":"모란식당","tel":"031-703-3175","addr":"경기도 성남시 분당구 야탑동 151번지","indutype":"","category":"other"},{"name":"양씨네왕순대","tel":"031-709-5871","addr":"경기도 성남시 분당구 야탑동 151번지","indutype":"","category":"other"},{"name":"원가네","tel":"031-703-4931","addr":"경기도 성남시 분당구 야탑동 151번지","indutype":"","category":"other"},{"name":"정가네","tel":"031-704-1777","addr":"경기도 성남시 분당구 야탑동 151번지","indutype":"","category":"other"},{"name":"종합슈퍼","tel":"031-707-8980","addr":"경기도 성남시 분당구 야탑동 151번지","indutype":"","category":"other"},{"name":"중국성","tel":"031-708-2000","addr":"경기도 성남시 분당구 야탑동 151번지","indutype":"","category":"other"},{"name":"킨카츠","tel":"031-8016-0040","addr":"경기도 성남시 분당구 야탑동 151번지","indutype":"","category":"other"},{"name":"한약국","tel":"031-704-0738","addr":"경기도 성남시 분당구 야탑동 151번지","indutype":"","category":"other"}]},{"lat":"37.4072273","long":"127.1318464","imageIndex":17,"items":[{"name":"목우촌야탑점","tel":"031-781-0737","addr":"경기도 성남시 분당구 야탑동 525번지 탑마을경남아너스빌","indutype":"","category":"other"}]},{"lat":"37.4073937","long":"127.1362065","imageIndex":17,"items":[{"name":"무봉리토종순대국 야탑점","tel":"031-785-8585","addr":"경기도 성남시 분당구 야탑동 482-2번지","indutype":"","category":"other"}]},{"lat":"37.4119995","long":"127.1262972","imageIndex":17,"items":[{"name":"미가참치","tel":"031-703-3750","addr":"경기도 성남시 분당구 야탑동 352-1번지","indutype":"","category":"other"},{"name":"솔루나안경원","tel":"031-709-1204","addr":"경기도 성남시 분당구 야탑동 352-1번지","indutype":"","category":"other"},{"name":"예가갑오징어","tel":"031-703-4351","addr":"경기도 성남시 분당구 야탑동 352-1번지","indutype":"","category":"other"},{"name":"자갈치시장","tel":"031-781-9776","addr":"경기도 성남시 분당구 야탑동 352-1번지","indutype":"","category":"other"},{"name":"주식회사 백년각","tel":"031-215-7339","addr":"경기도 성남시 분당구 야탑동 352-1번지","indutype":"","category":"other"},{"name":"카밀라폴앤벨리댄스학원","tel":"031-702-2324","addr":"경기도 성남시 분당구 야탑동 352-1번지","indutype":"","category":"other"}]},{"lat":"37.4111663","long":"127.1384271","imageIndex":17,"items":[{"name":"미소분식","tel":"031-707-9913","addr":"경기도 성남시 분당구 야탑동 273-1번지","indutype":"","category":"other"},{"name":"우연화장품 보떼야탑","tel":"031-702-8659","addr":"경기도 성남시 분당구 야탑동 273-1번지","indutype":"","category":"other"}]},{"lat":"37.4165578","long":"127.1353529","imageIndex":17,"items":[{"name":"미스터현 돼지꿈","tel":"031-703-3392","addr":"경기도 성남시 분당구 야탑동 202-3번지","indutype":"","category":"other"}]},{"lat":"37.4056688","long":"127.1230452","imageIndex":17,"items":[{"name":"바나나","tel":"031-702-7005","addr":"경기도 성남시 분당구 야탑동 533-7번지","indutype":"","category":"other"},{"name":"오땡큐 토탈헤어샵","tel":"031-746-3207","addr":"경기도 성남시 분당구 야탑동 533-7번지","indutype":"","category":"other"},{"name":"충무전통누비","tel":"031-707-4248","addr":"경기도 성남시 분당구 야탑동 533-7번지","indutype":"","category":"other"}]},{"lat":"37.4105032","long":"127.1352971","imageIndex":17,"items":[{"name":"박가네가마솥삼겹살","tel":"031-708-0552","addr":"경기도 성남시 분당구 야탑동 319-8번지","indutype":"","category":"other"}]},{"lat":"37.4071119","long":"127.1460438","imageIndex":17,"items":[{"name":"배달정육점","tel":"","addr":"경기도 성남시 분당구 야탑동 175-2번지","indutype":"","category":"other"},{"name":"봉평메밀면사무소 야탑","tel":"031-708-7084","addr":"경기도 성남시 분당구 야탑동 175-2번지","indutype":"","category":"other"},{"name":"안심 축산물 전문점(야탑점)","tel":"031-703-0563","addr":"경기도 성남시 분당구 야탑동 175-2번지","indutype":"","category":"other"}]},{"lat":"37.4071967","long":"127.1350767","imageIndex":17,"items":[{"name":"본가장수촌","tel":"031-703-3003","addr":"경기도 성남시 분당구 야탑동 598번지","indutype":"","category":"other"}]},{"lat":"37.4065594","long":"127.140881","imageIndex":17,"items":[{"name":"분당서서갈비","tel":"031-706-5050","addr":"경기도 성남시 분당구 야탑동 401-1번지","indutype":"","category":"other"}]},{"lat":"37.405697","long":"127.1219045","imageIndex":17,"items":[{"name":"분당스터디뱅크 독서실","tel":"031-702-1110","addr":"경기도 성남시 분당구 야탑동 533-2번지","indutype":"","category":"other"}]},{"lat":"37.4095269","long":"127.1299301","imageIndex":17,"items":[{"name":"블럭제빵소 야탑점","tel":"031-708-0089","addr":"경기도 성남시 분당구 야탑동 514-2번지","indutype":"","category":"other"},{"name":"신풍","tel":"031-702-8337","addr":"경기도 성남시 분당구 야탑동 514-2번지","indutype":"","category":"other"},{"name":"원더맘","tel":"031-608-5086","addr":"경기도 성남시 분당구 야탑동 514-2번지","indutype":"","category":"other"}]},{"lat":"37.4126389","long":"127.1349846","imageIndex":17,"items":[{"name":"비비큐","tel":"031-704-2060","addr":"경기도 성남시 분당구 야탑동 287-10번지","indutype":"","category":"other"}]},{"lat":"37.4106666","long":"127.1341791","imageIndex":17,"items":[{"name":"비전 뮤직홀 음악학원","tel":"031-702-6070","addr":"경기도 성남시 분당구 야탑동 322-1번지","indutype":"","category":"other"}]},{"lat":"37.4097203","long":"127.1344034","imageIndex":17,"items":[{"name":"뿅의전설 야탑점","tel":"031-703-3062","addr":"경기도 성남시 분당구 야탑동 321-2번지","indutype":"","category":"other"}]},{"lat":"37.4126081","long":"127.1301839","imageIndex":17,"items":[{"name":"뿔난꽃소","tel":"031-701-3998","addr":"경기도 성남시 분당구 야탑동 361-10번지","indutype":"","category":"other"}]},{"lat":"37.4124143","long":"127.1344307","imageIndex":17,"items":[{"name":"사거리집","tel":"031-708-8755","addr":"경기도 성남시 분당구 야탑동 286-1번지","indutype":"","category":"other"}]},{"lat":"37.4170837","long":"127.1324281","imageIndex":17,"items":[{"name":"사계진미","tel":"031-707-5868","addr":"경기도 성남시 분당구 야탑동 338-8번지","indutype":"","category":"other"}]},{"lat":"37.4170575","long":"127.1316599","imageIndex":17,"items":[{"name":"사철갈매기","tel":"031-701-1278","addr":"경기도 성남시 분당구 야탑동 338-3번지","indutype":"","category":"other"},{"name":"사철회관","tel":"031-701-1278","addr":"경기도 성남시 분당구 야탑동 338-3번지","indutype":"","category":"other"}]},{"lat":"37.4114994","long":"127.1387327","imageIndex":17,"items":[{"name":"산마루생감자치킨","tel":"031-707-9887","addr":"경기도 성남시 분당구 야탑동 272-5번지","indutype":"","category":"other"}]},{"lat":"37.4124722","long":"127.1309291","imageIndex":17,"items":[{"name":"산천민물매운탕","tel":"031-701-7732","addr":"경기도 성남시 분당구 야탑동 375-9번지","indutype":"","category":"other"}]},{"lat":"37.4114141","long":"127.1344289","imageIndex":17,"items":[{"name":"살롱드아바나(Salon de Habana)","tel":"031-708-7274","addr":"경기도 성남시 분당구 야탑동 292-2번지","indutype":"","category":"other"}]},{"lat":"37.4105824","long":"127.136935","imageIndex":17,"items":[{"name":"새빌랴남성헤어?","tel":"031-706-3006","addr":"경기도 성남시 분당구 야탑동 310-1번지","indutype":"","category":"other"}]},{"lat":"37.4104403","long":"127.126769","imageIndex":17,"items":[{"name":"서울분식","tel":"031-703-1816","addr":"경기도 성남시 분당구 야탑동 355-4번지","indutype":"","category":"other"},{"name":"와르바시","tel":"031-707-2497","addr":"경기도 성남시 분당구 야탑동 355-4번지","indutype":"","category":"other"}]},{"lat":"37.4130543","long":"127.1420112","imageIndex":17,"items":[{"name":"성도상사","tel":"031-706-8112","addr":"경기도 성남시 분당구 야탑동 211-3번지","indutype":"","category":"other"}]},{"lat":"37.4056132","long":"127.15563","imageIndex":17,"items":[{"name":"성아운수","tel":"031-781-1248","addr":"경기도 성남시 분당구 야탑동 192-2번지","indutype":"","category":"other"}]},{"lat":"37.4117539","long":"127.1367903","imageIndex":17,"items":[{"name":"세진유통","tel":"031-709-2940","addr":"경기도 성남시 분당구 야탑동 302-2번지","indutype":"","category":"other"}]},{"lat":"37.4124429","long":"127.1329623","imageIndex":17,"items":[{"name":"속초게찜6242","tel":"031-707-6242","addr":"경기도 성남시 분당구 야탑동 383-1번지","indutype":"","category":"other"}]},{"lat":"37.4056956","long":"127.1232712","imageIndex":17,"items":[{"name":"송파필보습학원","tel":"","addr":"경기도 성남시 분당구 야탑동 533-8번지","indutype":"","category":"other"}]},{"lat":"37.4112823","long":"127.1314354","imageIndex":17,"items":[{"name":"쉐프의밥","tel":"031-8972-7727","addr":"경기도 성남시 분당구 야탑동 373-2번지","indutype":"","category":"other"}]},{"lat":"37.4118638","long":"127.1351526","imageIndex":17,"items":[{"name":"스윗봉쥬르","tel":"031-608-0123","addr":"경기도 성남시 분당구 야탑동 295-2번지","indutype":"","category":"other"}]},{"lat":"37.4101071","long":"127.1349914","imageIndex":17,"items":[{"name":"스튜디오지지","tel":"031-707-4479","addr":"경기도 성남시 분당구 야탑동 320-10번지","indutype":"","category":"other"}]},{"lat":"37.4130005","long":"127.1254629","imageIndex":17,"items":[{"name":"시골사철탕","tel":"031-703-6630","addr":"경기도 성남시 분당구 야탑동 342-2번지","indutype":"","category":"other"},{"name":"연안골","tel":"031-706-9369","addr":"경기도 성남시 분당구 야탑동 342-2번지","indutype":"","category":"other"},{"name":"착한해장국&닭발","tel":"031-706-9360","addr":"경기도 성남시 분당구 야탑동 342-2번지","indutype":"","category":"other"},{"name":"홍코코로스시","tel":"070-7576-0330","addr":"경기도 성남시 분당구 야탑동 342-2번지","indutype":"","category":"other"}]},{"lat":"37.4050053","long":"127.151879","imageIndex":17,"items":[{"name":"신가네남원추어탕","tel":"031-702-9902","addr":"경기도 성남시 분당구 야탑동 149-10번지","indutype":"","category":"other"},{"name":"잇커피","tel":"070-4179-6750","addr":"경기도 성남시 분당구 야탑동 149-10번지","indutype":"","category":"other"}]},{"lat":"37.4105538","long":"127.1301804","imageIndex":17,"items":[{"name":"신미낙지","tel":"031-705-2308","addr":"경기도 성남시 분당구 야탑동 366-8번지","indutype":"","category":"other"}]},{"lat":"37.4123876","long":"127.1341257","imageIndex":17,"items":[{"name":"신서당 독서실","tel":"031-708-1609","addr":"경기도 성남시 분당구 야탑동 290-1번지","indutype":"","category":"other"},{"name":"신전떡볶이(야탑점)","tel":"031-701-2340","addr":"경기도 성남시 분당구 야탑동 290-1번지","indutype":"","category":"other"}]},{"lat":"37.408553","long":"127.1220785","imageIndex":17,"items":[{"name":"아이맘케어","tel":"031-732-8338","addr":"경기도 성남시 분당구 야탑동 537-4번지","indutype":"","category":"other"}]},{"lat":"37.4095543","long":"127.1296026","imageIndex":17,"items":[{"name":"아이패밀리","tel":"031-701-5670","addr":"경기도 성남시 분당구 야탑동 514-1번지","indutype":"","category":"other"}]},{"lat":"37.4056965","long":"127.1223789","imageIndex":17,"items":[{"name":"아카데미라운지야탑독서실","tel":"031-609-0904","addr":"경기도 성남시 분당구 야탑동 533-4번지","indutype":"","category":"other"},{"name":"한스잉글리쉬학원","tel":"031-703-9313","addr":"경기도 성남시 분당구 야탑동 533-4번지","indutype":"","category":"other"}]},{"lat":"37.4108883","long":"127.129187","imageIndex":17,"items":[{"name":"안경마을","tel":"031-707-2111","addr":"경기도 성남시 분당구 야탑동 367-1번지","indutype":"","category":"other"},{"name":"중앙한미캐드정보처리학원","tel":"031-783-8808","addr":"경기도 성남시 분당구 야탑동 367-1번지","indutype":"","category":"other"}]},{"lat":"37.4116072","long":"127.1309277","imageIndex":17,"items":[{"name":"안동황우촌","tel":"031-707-3392","addr":"경기도 성남시 분당구 야탑동 372-3번지","indutype":"","category":"other"}]},{"lat":"37.4098632","long":"127.1355106","imageIndex":17,"items":[{"name":"야탑등촌샤브칼국수","tel":"031-781-4995","addr":"경기도 성남시 분당구 야탑동 314-1번지","indutype":"","category":"other"}]},{"lat":"37.4121371","long":"127.1324874","imageIndex":17,"items":[{"name":"야탑멸치집","tel":"031-707-9089","addr":"경기도 성남시 분당구 야탑동 380-7번지","indutype":"","category":"other"},{"name":"참조은정육","tel":"031-701-9232","addr":"경기도 성남시 분당구 야탑동 380-7번지","indutype":"","category":"other"}]},{"lat":"37.4101118","long":"127.1307105","imageIndex":17,"items":[{"name":"야탑어촌","tel":"031-708-7009","addr":"경기도 성남시 분당구 야탑동 368-10번지","indutype":"","category":"other"}]},{"lat":"37.4104468","long":"127.1291862","imageIndex":17,"items":[{"name":"약선당한의원","tel":"031-708-5075","addr":"경기도 성남시 분당구 야탑동 367-3번지","indutype":"","category":"other"}]},{"lat":"37.4086696","long":"127.1225756","imageIndex":17,"items":[{"name":"엄마손 산후조리원","tel":"031-703-5550","addr":"경기도 성남시 분당구 야탑동 537-6번지","indutype":"","category":"other"}]},{"lat":"37.4120272","long":"127.134125","imageIndex":17,"items":[{"name":"엉터리생고기 야탑점","tel":"031-707-8684","addr":"경기도 성남시 분당구 야탑동 290-3번지","indutype":"","category":"other"}]},{"lat":"37.4095033","long":"127.1267675","imageIndex":17,"items":[{"name":"열두광주리떡집","tel":"031-706-0904","addr":"경기도 성남시 분당구 야탑동 503번지","indutype":"","category":"other"},{"name":"예인헤어갤러리","tel":"031-709-1031","addr":"경기도 성남시 분당구 야탑동 503번지","indutype":"","category":"other"},{"name":"팀바이크 삼천리자전거 야탑점","tel":"031-781-2333","addr":"경기도 성남시 분당구 야탑동 503번지","indutype":"","category":"other"}]},{"lat":"37.4125559","long":"127.1367126","imageIndex":17,"items":[{"name":"예돈 돈까스","tel":"031-707-0171","addr":"경기도 성남시 분당구 야탑동 283-10번지","indutype":"","category":"other"}]},{"lat":"37.40456","long":"127.154905","imageIndex":17,"items":[{"name":"오가닉 팩토리","tel":"070-8227-8126","addr":"경기도 성남시 분당구 야탑동 145번지","indutype":"","category":"other"}]},{"lat":"37.4116087","long":"127.1376598","imageIndex":17,"items":[{"name":"온고을","tel":"031-705-7787","addr":"경기도 성남시 분당구 야탑동 304-3번지","indutype":"","category":"other"}]},{"lat":"37.4056972","long":"127.1216786","imageIndex":17,"items":[{"name":"옵티카안경","tel":"031-703-7900","addr":"경기도 성남시 분당구 야탑동 533-1번지 제일빌딩","indutype":"","category":"other"}]},{"lat":"37.4124427","long":"127.1331882","imageIndex":17,"items":[{"name":"옹기구이쌈밥","tel":"031-709-7300","addr":"경기도 성남시 분당구 야탑동 383-18번지","indutype":"","category":"other"}]},{"lat":"37.4109418","long":"127.1378506","imageIndex":17,"items":[{"name":"와그너치킨","tel":"031-708-1515","addr":"경기도 성남시 분당구 야탑동 274-3번지","indutype":"","category":"other"},{"name":"정성떡집","tel":"031-707-6936","addr":"경기도 성남시 분당구 야탑동 274-3번지","indutype":"","category":"other"}]},{"lat":"37.4117789","long":"127.138575","imageIndex":17,"items":[{"name":"요거프레소 야탑점","tel":"031-701-8952","addr":"경기도 성남시 분당구 야탑동 272-2번지","indutype":"","category":"other"},{"name":"클라비어음악학원","tel":"","addr":"경기도 성남시 분당구 야탑동 272-2번지","indutype":"","category":"other"},{"name":"하버드원리수학학원","tel":"031-706-0909","addr":"경기도 성남시 분당구 야탑동 272-2번지","indutype":"","category":"other"}]},{"lat":"37.4104182","long":"127.1305755","imageIndex":17,"items":[{"name":"원쭈꾸미","tel":"031-702-7592","addr":"경기도 성남시 분당구 야탑동 368-2번지","indutype":"","category":"other"}]},{"lat":"37.4145596","long":"127.1414831","imageIndex":17,"items":[{"name":"윤애영 음악학원","tel":"031-702-0191","addr":"경기도 성남시 분당구 야탑동 209-2번지","indutype":"","category":"other"}]},{"lat":"37.4111383","long":"127.1312996","imageIndex":17,"items":[{"name":"장흥한우삼합","tel":"031-709-3222","addr":"경기도 성남시 분당구 야탑동 373-8번지","indutype":"","category":"other"}]},{"lat":"37.4025334","long":"127.1314882","imageIndex":17,"items":[{"name":"재단법인 성남문화재단","tel":"031-783-8168","addr":"경기도 성남시 분당구 야탑동 757번지","indutype":"","category":"other"}]},{"lat":"37.4117524","long":"127.1380441","imageIndex":17,"items":[{"name":"정관장 중탑점","tel":"031-703-2304","addr":"경기도 성남시 분당구 야탑동 275-3번지","indutype":"","category":"other"}]},{"lat":"37.4074463","long":"127.1451295","imageIndex":17,"items":[{"name":"정민헤어","tel":"031-781-1181","addr":"경기도 성남시 분당구 야탑동 174-4번지","indutype":"","category":"other"}]},{"lat":"37.4134722","long":"127.1310212","imageIndex":17,"items":[{"name":"정원참치","tel":"031-706-8837","addr":"경기도 성남시 분당구 야탑동 376-13번지","indutype":"","category":"other"}]},{"lat":"37.4119457","long":"127.1344863","imageIndex":17,"items":[{"name":"조이 자동차 서비스","tel":"031-702-1669","addr":"경기도 성남시 분당구 야탑동 293번지","indutype":"","category":"other"}]},{"lat":"37.4100858","long":"127.1297165","imageIndex":17,"items":[{"name":"종로떡방 야탑점","tel":"031-708-7567","addr":"경기도 성남시 분당구 야탑동 367-5번지","indutype":"","category":"other"}]},{"lat":"37.4109769","long":"127.1305764","imageIndex":17,"items":[{"name":"종로빈대떡(야탑)","tel":"031-708-7500","addr":"경기도 성남시 분당구 야탑동 370-2번지","indutype":"","category":"other"}]},{"lat":"37.4115306","long":"127.1267143","imageIndex":17,"items":[{"name":"주먹다GYM","tel":"031-8016-8285","addr":"경기도 성남시 분당구 야탑동 353-2번지","indutype":"","category":"other"}]},{"lat":"37.41203","long":"127.1315496","imageIndex":17,"items":[{"name":"주식회사 왕노가","tel":"031-702-5992","addr":"경기도 성남시 분당구 야탑동 375-16번지","indutype":"","category":"other"}]},{"lat":"37.4108585","long":"127.1317058","imageIndex":17,"items":[{"name":"지호한방삼계탕","tel":"031-704-4064","addr":"경기도 성남시 분당구 야탑동 388-3번지","indutype":"","category":"other"}]},{"lat":"37.4114445","long":"127.1314357","imageIndex":17,"items":[{"name":"찌마기","tel":"031-707-0101","addr":"경기도 성남시 분당구 야탑동 373-1번지","indutype":"","category":"other"}]},{"lat":"37.4122193","long":"127.131437","imageIndex":17,"items":[{"name":"철뚝집(야탑점)","tel":"031-701-2726","addr":"경기도 성남시 분당구 야탑동 375-6번지","indutype":"","category":"other"}]},{"lat":"37.4120304","long":"127.1311317","imageIndex":17,"items":[{"name":"청정여수동갈매기살","tel":"031-706-8832","addr":"경기도 성남시 분당구 야탑동 375-4번지","indutype":"","category":"other"}]},{"lat":"37.4116699","long":"127.1312666","imageIndex":17,"items":[{"name":"총각수산","tel":"031-707-2888","addr":"경기도 성남시 분당구 야탑동 372-15번지","indutype":"","category":"other"}]},{"lat":"37.4132471","long":"127.130874","imageIndex":17,"items":[{"name":"춘향골남원추어탕","tel":"031-708-1773","addr":"경기도 성남시 분당구 야탑동 376-10번지","indutype":"","category":"other"}]},{"lat":"37.4170563","long":"127.1327105","imageIndex":17,"items":[{"name":"치킨마루 야탑중학점","tel":"031-707-9393","addr":"경기도 성남시 분당구 야탑동 338-9번지","indutype":"","category":"other"}]},{"lat":"37.4110811","long":"127.1341234","imageIndex":17,"items":[{"name":"큰사랑분식","tel":"","addr":"경기도 성남시 분당구 야탑동 291-4번지","indutype":"","category":"other"}]},{"lat":"37.4066993","long":"127.1367135","imageIndex":17,"items":[{"name":"탑골직화구이","tel":"031-706-0048","addr":"경기도 성남시 분당구 야탑동 478번지","indutype":"","category":"other"}]},{"lat":"37.4122254","long":"127.1341254","imageIndex":17,"items":[{"name":"탑빈대떡","tel":"031-701-3150","addr":"경기도 성남시 분당구 야탑동 290-2번지","indutype":"","category":"other"}]},{"lat":"37.4089702","long":"127.1363787","imageIndex":17,"items":[{"name":"토끼마트","tel":"031-708-9234","addr":"경기도 성남시 분당구 야탑동 519번지 진흥더블파크","indutype":"","category":"other"}]},{"lat":"37.4114151","long":"127.1335479","imageIndex":17,"items":[{"name":"토즈스터디센터야탑2독서실","tel":"031-781-3337","addr":"경기도 성남시 분당구 야탑동 382-6번지","indutype":"","category":"other"},{"name":"펫아일럿","tel":"","addr":"경기도 성남시 분당구 야탑동 382-6번지","indutype":"","category":"other"}]},{"lat":"37.411252","long":"127.1344286","imageIndex":17,"items":[{"name":"페리카나 야탑점","tel":"031-705-4999","addr":"경기도 성남시 분당구 야탑동 292-3번지","indutype":"","category":"other"}]},{"lat":"37.412386","long":"127.1355489","imageIndex":17,"items":[{"name":"풀무원녹즙(분당지사)","tel":"031-707-4100","addr":"경기도 성남시 분당구 야탑동 285-1번지","indutype":"","category":"other"}]},{"lat":"37.4120039","long":"127.1387336","imageIndex":17,"items":[{"name":"피자마루 야탑점","tel":"031-709-3121","addr":"경기도 성남시 분당구 야탑동 272-1번지","indutype":"","category":"other"}]},{"lat":"37.4124133","long":"127.1352891","imageIndex":17,"items":[{"name":"피자에땅(야탑점)","tel":"031-703-9282","addr":"경기도 성남시 분당구 야탑동 286-7번지","indutype":"","category":"other"}]},{"lat":"37.4108911","long":"127.1348459","imageIndex":17,"items":[{"name":"피자이딸리아나","tel":"031-708-5061","addr":"경기도 성남시 분당구 야탑동 297-11번지","indutype":"","category":"other"}]},{"lat":"37.4067489","long":"127.1406216","imageIndex":17,"items":[{"name":"하늘로학원","tel":"031-778-6260","addr":"경기도 성남시 분당구 야탑동 401번지","indutype":"","category":"other"}]},{"lat":"37.4110007","long":"127.1334907","imageIndex":17,"items":[{"name":"하모니마트 야탑점","tel":"031-701-6763","addr":"경기도 성남시 분당구 야탑동 382-8번지","indutype":"","category":"other"},{"name":"하모니마트탑마을점","tel":"031-701-6763","addr":"경기도 성남시 분당구 야탑동 382-8번지","indutype":"","category":"other"}]},{"lat":"37.4108919","long":"127.134123","imageIndex":17,"items":[{"name":"한우물","tel":"031-705-5988","addr":"경기도 성남시 분당구 야탑동 291-5번지","indutype":"","category":"other"},{"name":"할매순대국 야탑점","tel":"","addr":"경기도 성남시 분당구 야탑동 291-5번지","indutype":"","category":"other"}]},{"lat":"37.4118926","long":"127.1335487","imageIndex":17,"items":[{"name":"할매순대국 야탑지점","tel":"031-709-8889","addr":"경기도 성남시 분당구 야탑동 382-4번지","indutype":"","category":"other"}]},{"lat":"37.4114968","long":"127.1245681","imageIndex":17,"items":[{"name":"해인약국","tel":"031-8017-2243","addr":"경기도 성남시 분당구 야탑동 347번지","indutype":"","category":"other"}]},{"lat":"37.4108906","long":"127.1352978","imageIndex":17,"items":[{"name":"해정뚝배기","tel":"031-781-1502","addr":"경기도 성남시 분당구 야탑동 297-8번지","indutype":"","category":"other"}]},{"lat":"37.4040812","long":"127.1558754","imageIndex":17,"items":[{"name":"향기나는터","tel":"031-8017-1717","addr":"경기도 성남시 분당구 야탑동 140번지","indutype":"","category":"other"}]},{"lat":"37.4102221","long":"127.1368779","imageIndex":17,"items":[{"name":"현대컴퓨터세탁","tel":"031-781-0155","addr":"경기도 성남시 분당구 야탑동 311-1번지","indutype":"","category":"other"}]},{"lat":"37.4111387","long":"127.1309382","imageIndex":17,"items":[{"name":"황가네손두부","tel":"031-703-2243","addr":"경기도 성남시 분당구 야탑동 372-6번지","indutype":"","category":"other"}]},{"lat":"37.4106385","long":"127.1351279","imageIndex":17,"items":[{"name":"훼르자스포츠","tel":"031-756-0448","addr":"경기도 성남시 분당구 야탑동 319-6번지","indutype":"","category":"other"}]}]