[{"lat":"37.130585377","long":"127.07897882","imageIndex":4,"items":[{"name":"(주)목우촌식자재대리점고양점","tel":"031-376-5399","addr":"경기도 오산시 갈곶동 347번지","indutype":"일반휴게음식 - 일반한식","category":"restaurant"}]},{"lat":"37.129976837","long":"127.07216984","imageIndex":4,"items":[{"name":"가마솥한식부페","tel":"031-377-9937","addr":"경기도 오산시 갈곶동 256번지","indutype":"일반휴게음식 - 일반한식","category":"restaurant"}]},{"lat":"37.131141153","long":"127.06872727","imageIndex":4,"items":[{"name":"가장맛있는족발갈곶점","tel":"031-378-2558","addr":"경기도 오산시 갈곶동 162-4번지 1층","indutype":"일반휴게음식 - 일반한식","category":"restaurant"},{"name":"칸타타호프","tel":"031-111-1111","addr":"경기도 오산시 갈곶동 162-4번지 1층","indutype":"일반휴게음식 - 주점","category":"restaurant"}]},{"lat":"37.129698074","long":"127.07120179","imageIndex":4,"items":[{"name":"간장에빠진새우","tel":"031-372-3392","addr":"경기도 오산시 갈곶동 259번지 신웅빌딩 1층 106호","indutype":"일반휴게음식 - 일반한식","category":"restaurant"},{"name":"김가네닭강정","tel":"031-372-9949","addr":"경기도 오산시 갈곶동 259번지 신웅빌딩 1층 103호","indutype":"일반휴게음식 - 일반한식","category":"restaurant"},{"name":"불로불러바베큐치킨","tel":"031-378-1006","addr":"경기도 오산시 갈곶동 259번지 신웅빌딩 107호","indutype":"일반휴게음식 - 주점","category":"restaurant"},{"name":"얼큰이뚝배기","tel":"031-374-3748","addr":"경기도 오산시 갈곶동 259번지 신웅빌딩 106호","indutype":"일반휴게음식 - 일반한식","category":"restaurant"}]},{"lat":"37.127870957","long":"127.06761037","imageIndex":4,"items":[{"name":"갈곶야식당","tel":"031-375-4780","addr":"경기도 오산시 갈곶동 192번지 1층","indutype":"일반휴게음식 - 일반한식","category":"restaurant"}]},{"lat":"37.13350241","long":"127.06780649","imageIndex":4,"items":[{"name":"강강술래","tel":"031-374-3711","addr":"경기도 오산시 갈곶동 110-5번지 우방힐타운상가동 202호","indutype":"일반휴게음식 - 일반한식","category":"restaurant"},{"name":"배터지는생돈가스(갈곶동)","tel":"031-373-5989","addr":"경기도 오산시 갈곶동 110-5우방힐타운상가102","indutype":"일반휴게음식 - 서양음식","category":"restaurant"}]},{"lat":"37.13200621","long":"127.06863799","imageIndex":4,"items":[{"name":"거기서맏나","tel":"031-377-8930","addr":"경기도 오산시 갈곶동 130-10번지 지하1층","indutype":"일반휴게음식 - 주점","category":"restaurant"},{"name":"참참참","tel":"031-377-8930","addr":"경기도 오산시 갈곶동 130-10번지 지하1층","indutype":"일반휴게음식 - 주점","category":"restaurant"},{"name":"청사초롱","tel":"031-376-9005","addr":"경기도 오산시 갈곶동 130-10번지 1층 103호","indutype":"일반휴게음식 - 일반한식","category":"restaurant"}]},{"lat":"37.127673251","long":"127.06664243","imageIndex":4,"items":[{"name":"김가네볼태기","tel":"031-373-4118","addr":"경기도 오산시 갈곶동 186번지","indutype":"일반휴게음식 - 일반한식","category":"restaurant"},{"name":"킹콩쭈꾸미","tel":"031-376-7946","addr":"경기도 오산시 갈곶동 186번지 1층","indutype":"일반휴게음식 - 일반한식","category":"restaurant"}]},{"lat":"37.131589893","long":"127.07186746","imageIndex":4,"items":[{"name":"김경옥추(  )가마솥추어탕본점","tel":"031-373-8022","addr":"경기도 오산시 갈곶동 273-6,275-1,275-9","indutype":"일반휴게음식 - 일반한식","category":"restaurant"}]},{"lat":"37.133925382","long":"127.06875219","imageIndex":4,"items":[{"name":"깁밥천국 갈곶점","tel":"031-375-1999","addr":"경기도 오산시 갈곶동 675번지 리치타워 102호","indutype":"일반휴게음식 - 스넥","category":"restaurant"},{"name":"신통치킨(갈곶점)","tel":"031-375-5989","addr":"경기도 오산시 갈곶동 675번지 리치빌타워 104호","indutype":"일반휴게음식 - 스넥","category":"restaurant"},{"name":"피자스쿨갈곶점","tel":"031-374-3390","addr":"경기도 오산시 갈곶동 675번지 107호","indutype":"일반휴게음식 - 서양음식","category":"restaurant"}]},{"lat":"37.128754316","long":"127.06700345","imageIndex":4,"items":[{"name":"남원추어탕","tel":"031-378-7877","addr":"경기도 오산시 갈곶동 184번지","indutype":"일반휴게음식 - 일반한식","category":"restaurant"}]},{"lat":"37.128502065","long":"127.06692446","imageIndex":4,"items":[{"name":"내고향영양탕","tel":"031-375-3348","addr":"경기도 오산시 갈곶동 184-5번지","indutype":"일반휴게음식 - 일반한식","category":"restaurant"},{"name":"무더리아귀찜","tel":"031-375-7706","addr":"경기도 오산시 갈곶동 184-5번지 1층","indutype":"일반휴게음식 - 일반한식","category":"restaurant"},{"name":"백년손님","tel":"000-000-0000","addr":"경기도 오산시 갈곶동 184-5번지 1층","indutype":"일반휴게음식 - 일반한식","category":"restaurant"},{"name":"신창신토리순대","tel":"031-377-0543","addr":"경기도 오산시 갈곶동 184-5번지","indutype":"일반휴게음식 - 일반한식","category":"restaurant"},{"name":"열린공간","tel":"031-000-0000","addr":"경기도 오산시 갈곶동 184-5번지 2층","indutype":"일반휴게음식 - 서양음식","category":"restaurant"}]},{"lat":"37.128890962","long":"127.07966358","imageIndex":4,"items":[{"name":"다다복아구찜","tel":"031-663-0447","addr":"경기도 오산시 갈곶동 360번지 1층","indutype":"일반휴게음식 - 일반한식","category":"restaurant"}]},{"lat":"37.130780564","long":"127.06903081","imageIndex":4,"items":[{"name":"대원각","tel":"","addr":"경기도 오산시 갈곶동 212-2번지","indutype":"일반휴게음식 - 중국식","category":"restaurant"}]},{"lat":"37.12872534","long":"127.07050321","imageIndex":4,"items":[{"name":"대찬짬뽕","tel":"031-375-8250","addr":"경기도 오산시 갈곶동 226-1번지 1층","indutype":"일반휴게음식 - 중국식","category":"restaurant"},{"name":"대찬짬뽕","tel":"031-375-8250","addr":"경기도 오산시 갈곶동 226-1번지 명품가구백화점 1층 11호","indutype":"일반휴게음식 - 중국식","category":"restaurant"},{"name":"동태한마리","tel":"070-1111-1111","addr":"경기도 오산시 갈곶동 226-1번지","indutype":"일반휴게음식 - 일반한식","category":"restaurant"},{"name":"동해바다이야기","tel":"031-374-9932","addr":"경기도 오산시 갈곶동 226-1번지 명품가구백화점 1층","indutype":"일반휴게음식 - 일반한식","category":"restaurant"},{"name":"미소짓는한우","tel":"031-376-1455","addr":"경기도 오산시 갈곶동 226-1번지 명품가구백화점","indutype":"일반휴게음식 - 일반한식","category":"restaurant"},{"name":"시은이네부대찌개","tel":"031-377-2703","addr":"경기도 오산시 갈곶동 226-1번지 명품가구백화점 1층","indutype":"일반휴게음식 - 일반한식","category":"restaurant"},{"name":"옛날집","tel":"031-378-7768","addr":"경기도 오산시 갈곶동 226-1번지 1층","indutype":"일반휴게음식 - 일반한식","category":"restaurant"},{"name":"원삼골생오리돌구이","tel":"031-373-9252","addr":"경기도 오산시 갈곶동 226-1번지","indutype":"일반휴게음식 - 일반한식","category":"restaurant"},{"name":"원하우스(One House)","tel":"031-373-9595","addr":"경기도 오산시 갈곶동 226-1번지 1층","indutype":"일반휴게음식 - 서양음식","category":"restaurant"},{"name":"청호우렁쌈밥","tel":"031-378-8817","addr":"경기도 오산시 갈곶동 226-1외4필지5","indutype":"일반휴게음식 - 일반한식","category":"restaurant"}]},{"lat":"37.132559455","long":"127.07775412","imageIndex":4,"items":[{"name":"덕성족발","tel":"031-373-0445","addr":"경기도 오산시 갈곶동 333번지 1층","indutype":"일반휴게음식 - 일반한식","category":"restaurant"}]},{"lat":"37.129674947","long":"127.07955183","imageIndex":4,"items":[{"name":"돈가네돼지찌개","tel":"031-372-8955","addr":"경기도 오산시 갈곶동 350-1번지","indutype":"일반휴게음식 - 일반한식","category":"restaurant"}]},{"lat":"37.131418206","long":"127.07270008","imageIndex":4,"items":[{"name":"동네방네","tel":"031-374-9042","addr":"경기도 오산시 갈곶동 273-5번지","indutype":"일반휴게음식 - 일반한식","category":"restaurant"}]},{"lat":"37.12929486","long":"127.06716145","imageIndex":4,"items":[{"name":"둥지향토면옥갈곶점","tel":"031-377-3337","addr":"경기도 오산시 갈곶동 180-1번지 정우빌딩 A동 1층","indutype":"일반휴게음식 - 일반한식","category":"restaurant"}]},{"lat":"37.131834854","long":"127.06891919","imageIndex":4,"items":[{"name":"마포잡부구이","tel":"031-377-1792","addr":"경기도 오산시 갈곶동 152-6번지 1층","indutype":"일반휴게음식 - 일반한식","category":"restaurant"}]},{"lat":"37.130501868","long":"127.06789395","imageIndex":4,"items":[{"name":"만두먹고 찐빵먹고","tel":"031-375-9637","addr":"경기도 오산시 갈곶동 168-8번지 1층","indutype":"일반휴게음식 - 스넥","category":"restaurant"}]},{"lat":"37.128312484","long":"127.06758824","imageIndex":4,"items":[{"name":"만석골칼국수","tel":"031-375-1665","addr":"경기도 오산시 갈곶동 205-13번지","indutype":"일반휴게음식 - 일반한식","category":"restaurant"}]},{"lat":"37.128420732","long":"127.06736327","imageIndex":4,"items":[{"name":"맛고을부대찌개","tel":"031-376-0623","addr":"경기도 오산시 갈곶동 206-4번지","indutype":"일반휴게음식 - 일반한식","category":"restaurant"}]},{"lat":"37.13206113","long":"127.06707376","imageIndex":4,"items":[{"name":"맛닭꼬갈곶점","tel":"031-373-3492","addr":"경기도 오산시 갈곶동 713번지 오산케이씨씨스위첸 상가동 101호","indutype":"일반휴게음식 - 스넥","category":"restaurant"}]},{"lat":"37.132537453","long":"127.06931368","imageIndex":4,"items":[{"name":"맥주마트 갈곶점","tel":"031-374-0433","addr":"경기도 오산시 갈곶동 126-25번지 2층","indutype":"일반휴게음식 - 주점","category":"restaurant"},{"name":"카페하나(cafe HaNa)","tel":"031-4108-1205","addr":"경기도 오산시 갈곶동 126-25번지 1층","indutype":"일반휴게음식 - 서양음식","category":"restaurant"}]},{"lat":"37.129918099","long":"127.07975464","imageIndex":4,"items":[{"name":"멕시칸치킨청호갈곶점","tel":"031-297-3401","addr":"경기도 오산시 갈곶동 349번지 101호","indutype":"일반휴게음식 - 스넥","category":"restaurant"},{"name":"선주갈곶자이점","tel":"031-378-0331","addr":"경기도 오산시 갈곶동 349번지","indutype":"일반휴게음식 - 일반한식","category":"restaurant"},{"name":"선주갈곶자이점","tel":"031-373-3329","addr":"경기도 오산시 갈곶동 349번지 1층 103호","indutype":"일반휴게음식 - 주점","category":"restaurant"},{"name":"촌놈","tel":"070-8682-6359","addr":"경기도 오산시 갈곶동 349번지 105호","indutype":"일반휴게음식 - 일반한식","category":"restaurant"},{"name":"촌놈","tel":"031-666-0518","addr":"경기도 오산시 갈곶동 349번지","indutype":"일반휴게음식 - 일반한식","category":"restaurant"}]},{"lat":"37.125560804","long":"127.07367369","imageIndex":4,"items":[{"name":"멜로디","tel":"031-373-3684","addr":"경기도 오산시 갈곶동 237-4번지 1층","indutype":"일반휴게음식 - 일반한식","category":"restaurant"}]},{"lat":"37.130008495","long":"127.07930459","imageIndex":4,"items":[{"name":"바다향왕코다리","tel":"031-377-8386","addr":"경기도 오산시 갈곶동 350번지 화남빌딩 102호,103호","indutype":"일반휴게음식 - 일반한식","category":"restaurant"},{"name":"임대리아구낙지해물찜","tel":"031-377-8386","addr":"경기도 오산시 갈곶동 350번지 화남빌딩 1층","indutype":"일반휴게음식 - 일반한식","category":"restaurant"}]},{"lat":"37.134141634","long":"127.06875238","imageIndex":4,"items":[{"name":"바라던치킨오산점","tel":"031-374-9400","addr":"경기도 오산시 갈곶동 680번지 ,1,2층","indutype":"일반휴게음식 - 스넥","category":"restaurant"}]},{"lat":"37.132447631","long":"127.06880718","imageIndex":4,"items":[{"name":"복자수산","tel":"031-376-7616","addr":"경기도 오산시 갈곶동 126-17번지 심안빌딩 2층","indutype":"일반휴게음식 - 일식·회집","category":"restaurant"}]},{"lat":"37.132168105","long":"127.06916706","imageIndex":4,"items":[{"name":"복자육회","tel":"031-373-0620","addr":"경기도 오산시 갈곶동 150-2번지 2층","indutype":"일반휴게음식 - 일반한식","category":"restaurant"}]},{"lat":"37.135114891","long":"127.06852814","imageIndex":4,"items":[{"name":"본죽오산갈곶점","tel":"031-373-2356","addr":"경기도 오산시 갈곶동 659-2번지 외3필지 105호","indutype":"일반휴게음식 - 일반한식","category":"restaurant"}]},{"lat":"37.131703409","long":"127.07783205","imageIndex":4,"items":[{"name":"블랙(Black 333)333","tel":"031-376-7982","addr":"경기도 오산시 갈곶동 336번지 1층 2층","indutype":"일반휴게음식 - 일반한식","category":"restaurant"}]},{"lat":"37.1314464","long":"127.07069694","imageIndex":4,"items":[{"name":"비에이치씨 원동점","tel":"031-374-9983","addr":"경기도 오산시 갈곶동 272-1번지 1층 일부","indutype":"일반휴게음식 - 주점","category":"restaurant"}]},{"lat":"37.135502261","long":"127.06867478","imageIndex":4,"items":[{"name":"뽕차이","tel":"031-375-9495","addr":"경기도 오산시 갈곶동 667번지 1층","indutype":"일반휴게음식 - 중국식","category":"restaurant"}]},{"lat":"37.132838837","long":"127.07766436","imageIndex":4,"items":[{"name":"삼대째손두부","tel":"031-373-6363","addr":"경기도 오산시 갈곶동 332번지","indutype":"일반휴게음식 - 일반한식","category":"restaurant"}]},{"lat":"37.132754249","long":"127.06833478","imageIndex":4,"items":[{"name":"서가닭발","tel":"031-374-0018","addr":"경기도 오산시 갈곶동 112-28번지 1층","indutype":"일반휴게음식 - 일반한식","category":"restaurant"}]},{"lat":"37.132258454","long":"127.06872824","imageIndex":4,"items":[{"name":"서유기 오산갈곶점","tel":"031-352-1673","addr":"경기도 오산시 갈곶동 130-7번지","indutype":"일반휴게음식 - 주점","category":"restaurant"},{"name":"소문난생고기","tel":"031-372-0709","addr":"경기도 오산시 갈곶동 130-7번지","indutype":"일반휴게음식 - 일반한식","category":"restaurant"},{"name":"신서유기","tel":"031-375-0158","addr":"경기도 오산시 갈곶동 130-7번지 2층","indutype":"일반휴게음식 - 일반한식","category":"restaurant"}]},{"lat":"37.130699331","long":"127.06927832","imageIndex":4,"items":[{"name":"수림정숯불갈비","tel":"031-377-5579","addr":"경기도 오산시 갈곶동 214번지","indutype":"일반휴게음식 - 일반한식","category":"restaurant"}]},{"lat":"37.131754116","long":"127.06827765","imageIndex":4,"items":[{"name":"쏘울편의점포차/(주)디자인그룹소울박스 오","tel":"","addr":"경기도 오산시 갈곶동 149번지 1층 101호","indutype":"일반휴게음식 - 주점","category":"restaurant"}]},{"lat":"37.131198162","long":"127.07886689","imageIndex":4,"items":[{"name":"쏘자오산점","tel":"070-4208-7216","addr":"경기도 오산시 갈곶동 342번지","indutype":"일반휴게음식 - 주점","category":"restaurant"},{"name":"자이분식","tel":"031-374-2321","addr":"경기도 오산시 갈곶동 342번지 104호","indutype":"일반휴게음식 - 스넥","category":"restaurant"}]},{"lat":"37.131033307","long":"127.06822076","imageIndex":4,"items":[{"name":"아궁이","tel":"031-378-2055","addr":"경기도 오산시 갈곶동 163-2번지","indutype":"일반휴게음식 - 일반한식","category":"restaurant"}]},{"lat":"37.127836515","long":"127.08000011","imageIndex":4,"items":[{"name":"아제수산","tel":"031-376-5004","addr":"경기도 오산시 갈곶동 372번지 1층","indutype":"일반휴게음식 - 일식·회집","category":"restaurant"}]},{"lat":"37.129114252","long":"127.06789277","imageIndex":4,"items":[{"name":"어촌","tel":"031-375-8485","addr":"경기도 오산시 갈곶동 207번지 1층","indutype":"일반휴게음식 - 일반한식","category":"restaurant"},{"name":"카페쉼표","tel":"031-377-6604","addr":"경기도 오산시 갈곶동 207번지 1층","indutype":"일반휴게음식 - 서양음식","category":"restaurant"}]},{"lat":"37.131925636","long":"127.0676926","imageIndex":4,"items":[{"name":"언니커피","tel":"","addr":"경기도 오산시 갈곶동 133-1번지 1층 101호","indutype":"일반휴게음식 - 서양음식","category":"restaurant"}]},{"lat":"37.132086916","long":"127.0693358","imageIndex":4,"items":[{"name":"엄마김밥 갈곶점","tel":"031-372-2948","addr":"경기도 오산시 갈곶동 152-13번지 1층","indutype":"일반휴게음식 - 일반한식","category":"restaurant"}]},{"lat":"37.132033023","long":"127.0690319","imageIndex":4,"items":[{"name":"에이요부라더","tel":"031-377-4787","addr":"경기도 오산시 갈곶동 152-1번지 ,1,2층","indutype":"일반휴게음식 - 일반한식","category":"restaurant"}]},{"lat":"37.128195756","long":"127.06683418","imageIndex":4,"items":[{"name":"오산본가왕뼈감자탕","tel":"031-372-3121","addr":"경기도 오산시 갈곶동 184-1번지","indutype":"일반휴게음식 - 일반한식","category":"restaurant"}]},{"lat":"37.12844689","long":"127.06895","imageIndex":4,"items":[{"name":"우도갈비","tel":"031-377-2323","addr":"경기도 오산시 갈곶동 223-3번지","indutype":"일반휴게음식 - 일반한식","category":"restaurant"},{"name":"우도막국수","tel":"031-372-3387","addr":"경기도 오산시 갈곶동 223-3번지 1층","indutype":"일반휴게음식 - 일반한식","category":"restaurant"},{"name":"육품(갈곶점)","tel":"","addr":"경기도 오산시 갈곶동 223-3번지 2층","indutype":"일반휴게음식 - 일반한식","category":"restaurant"}]},{"lat":"37.130278933","long":"127.07911355","imageIndex":4,"items":[{"name":"우리설렁탕","tel":"031-375-2229","addr":"경기도 오산시 갈곶동 348번지 1층","indutype":"일반휴게음식 - 일반한식","category":"restaurant"}]},{"lat":"37.129170323","long":"127.07960759","imageIndex":4,"items":[{"name":"유장춘닭개장오산점","tel":"031-377-3563","addr":"경기도 오산시 갈곶동 356-1번지 101호","indutype":"일반휴게음식 - 일반한식","category":"restaurant"}]},{"lat":"37.130950887","long":"127.07058396","imageIndex":4,"items":[{"name":"장산식당","tel":"031-375-7945","addr":"경기도 오산시 갈곶동 269-3번지 1층","indutype":"일반휴게음식 - 일반한식","category":"restaurant"}]},{"lat":"37.132781019","long":"127.06880747","imageIndex":4,"items":[{"name":"정준하순대국","tel":"031-376-7758","addr":"경기도 오산시 갈곶동 126-8번지 훼밀리마트 1층 101호","indutype":"일반휴게음식 - 일반한식","category":"restaurant"}]},{"lat":"37.132339209","long":"127.06933602","imageIndex":4,"items":[{"name":"초가둥지","tel":"031-376-2939","addr":"경기도 오산시 갈곶동 151번지","indutype":"일반휴게음식 - 일반한식","category":"restaurant"}]},{"lat":"37.127925198","long":"127.06728408","imageIndex":4,"items":[{"name":"코나","tel":"02-1111-1111","addr":"경기도 오산시 갈곶동 192-3번지 1층","indutype":"일반휴게음식 - 서양음식","category":"restaurant"}]},{"lat":"37.133141438","long":"127.06880778","imageIndex":4,"items":[{"name":"태화정","tel":"031-376-2309","addr":"경기도 오산시 갈곶동 126-4번지 지하층","indutype":"일반휴게음식 - 일반한식","category":"restaurant"}]},{"lat":"37.132195524","long":"127.06846935","imageIndex":4,"items":[{"name":"투다리(갈곶점)","tel":"031-374-3888","addr":"경기도 오산시 갈곶동 130-6","indutype":"일반휴게음식 - 주점","category":"restaurant"}]},{"lat":"37.132366517","long":"127.06884087","imageIndex":4,"items":[{"name":"투썸플레이스오산갈곶점","tel":"031-377-9047","addr":"경기도 오산시 갈곶동 129-6번지 1-2층","indutype":"일반휴게음식 - 서양음식","category":"restaurant"}]},{"lat":"37.130924901","long":"127.06872709","imageIndex":4,"items":[{"name":"티바두마리치킨","tel":"031-378-8293","addr":"경기도 오산시 갈곶동 164-4번지 하나지물백화점 1층","indutype":"일반휴게음식 - 주점","category":"restaurant"},{"name":"한입 쪽갈비","tel":"031-374-3868","addr":"경기도 오산시 갈곶동 164-4번지 1층","indutype":"일반휴게음식 - 일반한식","category":"restaurant"}]},{"lat":"37.13269966","long":"127.06928006","imageIndex":4,"items":[{"name":"페리카나","tel":"031-372-3573","addr":"경기도 오산시 갈곶동 126-23번지","indutype":"일반휴게음식 - 칵테일바","category":"restaurant"}]},{"lat":"37.130727006","long":"127.06811922","imageIndex":4,"items":[{"name":"한가(  )네해물칼국수","tel":"031-111-1111","addr":"경기도 오산시 갈곶동 167-2번지 외4필지 A동","indutype":"일반휴게음식 - 일반한식","category":"restaurant"}]},{"lat":"37.13270003","long":"127.06861608","imageIndex":4,"items":[{"name":"한돈고집","tel":"031-377-0338","addr":"경기도 오산시 갈곶동 126-12번지","indutype":"일반휴게음식 - 일반한식","category":"restaurant"}]},{"lat":"37.131978714","long":"127.06947075","imageIndex":4,"items":[{"name":"행복한식당","tel":"031-373-0015","addr":"경기도 오산시 갈곶동 152-14번지","indutype":"일반휴게음식 - 일반한식","category":"restaurant"}]},{"lat":"37.132087023","long":"127.06914448","imageIndex":4,"items":[{"name":"황금돼지솥뚜껑삼겹살갈곶점","tel":"031-374-4787","addr":"경기도 오산시 갈곶동 152번지 1층","indutype":"일반휴게음식 - 일반한식","category":"restaurant"}]},{"lat":"37.131447541","long":"127.06867127","imageIndex":4,"items":[{"name":"황제","tel":"031-376-0616","addr":"경기도 오산시 갈곶동 162-1번지","indutype":"일반휴게음식 - 일반한식","category":"restaurant"}]}]