[{"lat":"37.817989623","long":"127.52410443","imageIndex":17,"items":[{"name":"(주)코리아세븐가평자라섬점","tel":"02-3284-8168","addr":"경기도 가평군 가평읍 달전리 산7","indutype":"유통업 영리 - 편 의 점","category":"other"},{"name":"(주)코리아세븐가평자라섬점","tel":"02-3284-8168","addr":"경기도 가평군 가평읍 달전리 산7","indutype":"유통업 영리 - 편 의 점","category":"other"}]},{"lat":"37.806569489","long":"127.52529595","imageIndex":17,"items":[{"name":"GS25남이섬","tel":"","addr":"경기도 가평군 가평읍 달전리 113-4번지","indutype":"유통업 영리 - 편 의 점","category":"other"}]},{"lat":"37.81364923","long":"127.51540902","imageIndex":17,"items":[{"name":"가평 수상레저 레전드 빠지","tel":"02-2047-1322","addr":"경기도 가평군 가평읍 달전리 466번지 성빈남이타운 5동 1층 102호","indutype":"용역 서비스 - 종합용역","category":"other"}]},{"lat":"37.805819116","long":"127.52588113","imageIndex":17,"items":[{"name":"가평 수상레저 케이탑랜드 빠지","tel":"02-111-1111","addr":"경기도 가평군 가평읍 달전리 108-3번지","indutype":"레져용품 - 스포츠·레져용품","category":"other"}]},{"lat":"37.814344609","long":"127.51502771","imageIndex":17,"items":[{"name":"가평군농협하나로마트자라섬지점","tel":"031-582-9720","addr":"경기도 가평군 가평읍 달전리 452-1번지","indutype":"유통업 비영리 - 농,축협 직영매장","category":"other"}]},{"lat":"37.805264984","long":"127.52487798","imageIndex":17,"items":[{"name":"가평수상레저 놀러와 빠지","tel":"031-4510-1088","addr":"경기도 가평군 가평읍 달전리 110-1번지 올인펜션 303호","indutype":"용역 서비스 - 종합용역","category":"other"},{"name":"가평수상레저 케이탑 빠지","tel":"033-264-2223","addr":"경기도 가평군 가평읍 달전리 110-1번지 올인펜션 301호","indutype":"용역 서비스 - 종합용역","category":"other"},{"name":"씨유남이섬점","tel":"031-581-2461","addr":"경기도 가평군 가평읍 달전리 110-1","indutype":"유통업 영리 - 편 의 점","category":"other"}]},{"lat":"37.810573136","long":"127.50374798","imageIndex":17,"items":[{"name":"가평역레져","tel":"031-581-1717","addr":"경기도 가평군 가평읍 달전리 633-7","indutype":"레져용품 - 스포츠·레져용품","category":"other"}]},{"lat":"37.815844381","long":"127.51612831","imageIndex":17,"items":[{"name":"가평축산업협동조합유통사업본부","tel":"031-581-1592","addr":"경기도 가평군 가평읍 달전리 382-1번지","indutype":"유통업 비영리 - 농,축협 직영매장","category":"other"},{"name":"가평축산업협동조합한우명가사업소","tel":"031-582-4111","addr":"경기도 가평군 가평읍 달전리 382-1번지","indutype":"유통업 비영리 - 농,축협 직영매장","category":"other"},{"name":"가평축협 한우명가","tel":"031-581-1592","addr":"경기도 가평군 가평읍 달전리 382-1번지","indutype":"유통업 비영리 - 농,축협 직영매장","category":"other"}]},{"lat":"37.813515002","long":"127.51932603","imageIndex":17,"items":[{"name":"가평콩나물","tel":"031-582-8825","addr":"경기도 가평군 가평읍 달전리 382-1","indutype":"","category":"other"}]},{"lat":"37.811706904","long":"127.5207443","imageIndex":17,"items":[{"name":"강원공예사","tel":"031-582-3430","addr":"경기도 가평군 가평읍 달전리 304","indutype":"문화.취미 - 문화취미기타","category":"other"}]},{"lat":"37.816509898","long":"127.51432719","imageIndex":17,"items":[{"name":"남이사","tel":"031-581-3949","addr":"경기도 가평군 가평읍 달전리 405-15번지","indutype":"건축자재 - 기타건축자재","category":"other"},{"name":"씨유가평자라점","tel":"031-582-9032","addr":"경기도 가평군 가평읍 달전리 405-15번지","indutype":"유통업 영리 - 편 의 점","category":"other"}]},{"lat":"37.809238443","long":"127.52480375","imageIndex":17,"items":[{"name":"남이섬수","tel":"031-582-6111","addr":"경기도 가평군 가평읍 달전리 69번지","indutype":"용역 서비스 - 부동산 중개·임대","category":"other"}]},{"lat":"37.803705254","long":"127.52512816","imageIndex":17,"items":[{"name":"남이섬주차장선물코너","tel":"031-582-2217","addr":"경기도 가평군 가평읍 달전리 140-2","indutype":"신변잡화 - 기념품점","category":"other"}]},{"lat":"37.813843672","long":"127.51627345","imageIndex":17,"items":[{"name":"놀자레저","tel":"","addr":"경기도 가평군 가평읍 달전리 454-4번지","indutype":"레져용품 - 스포츠·레져용품","category":"other"}]},{"lat":"37.812135743","long":"127.52156493","imageIndex":17,"items":[{"name":"달리는사람들","tel":"031-1577-0100","addr":"경기도 가평군 가평읍 달전리 272-10번지 남이주택 다동 301호","indutype":"서적문구 - 출판 및 인쇄물","category":"other"}]},{"lat":"37.814374893","long":"127.51841215","imageIndex":17,"items":[{"name":"대성이엔씨","tel":"033-262-9155","addr":"경기도 가평군 가평읍 달전리 338-2","indutype":"기타 - 기계공구","category":"other"}]},{"lat":"37.81648272","long":"127.51849494","imageIndex":17,"items":[{"name":"대일건축","tel":"031-582-5770","addr":"경기도 가평군 가평읍 달전리 345-1 32/4","indutype":"건축자재 - 인테리어전문","category":"other"}]},{"lat":"37.806379644","long":"127.52544223","imageIndex":17,"items":[{"name":"미니맥스 주식회사","tel":"031-582-8092","addr":"경기도 가평군 가평읍 달전리 112-2번지","indutype":"레져용품 - 스포츠·레져용품","category":"other"}]},{"lat":"37.80587438","long":"127.525609","imageIndex":17,"items":[{"name":"미니스톱 가평남이섬점","tel":"031-1577-9621","addr":"경기도 가평군 가평읍 달전리 108-5번지 1층","indutype":"유통업 영리 - 편 의 점","category":"other"}]},{"lat":"37.812870789","long":"127.516244","imageIndex":17,"items":[{"name":"보람수족관","tel":"031-582-9076","addr":"경기도 가평군 가평읍 달전리 470-7번지","indutype":"문화.취미 - 수족관","category":"other"}]},{"lat":"37.814735551","long":"127.51421274","imageIndex":17,"items":[{"name":"세븐일레븐가평역점","tel":"031-1577-0711","addr":"경기도 가평군 가평읍 달전리 429-10번지","indutype":"유통업 영리 - 편 의 점","category":"other"}]},{"lat":"37.81093152","long":"127.50421599","imageIndex":17,"items":[{"name":"신가평레져","tel":"031-581-1717","addr":"경기도 가평군 가평읍 달전리 산9-7번지","indutype":"레져용품 - 스포츠·레져용품","category":"other"}]},{"lat":"37.805905484","long":"127.52468945","imageIndex":17,"items":[{"name":"온엑스 주식회사","tel":"031-582-0625","addr":"경기도 가평군 가평읍 달전리 119번지 3층","indutype":"전기제품 - 가전제품","category":"other"}]},{"lat":"37.813906561","long":"127.51216287","imageIndex":17,"items":[{"name":"이마트24 가평역점","tel":"","addr":"경기도 가평군 가평읍 달전리 603-6번지","indutype":"유통업 영리 - 편 의 점","category":"other"},{"name":"이마트24 가평역점","tel":"031-9079-3261","addr":"경기도 가평군 가평읍 달전리 603-6번지","indutype":"유통업 영리 - 편 의 점","category":"other"}]},{"lat":"37.808375029","long":"127.52446836","imageIndex":17,"items":[{"name":"이마트24 남이섬","tel":"","addr":"경기도 가평군 가평읍 달전리 91-1번지 101호","indutype":"유통업 영리 - 편 의 점","category":"other"},{"name":"이마트24남이섬점","tel":"031-111-1111","addr":"경기도 가평군 가평읍 달전리 91-1번지 115호","indutype":"유통업 영리 - 편 의 점","category":"other"}]},{"lat":"37.810878375","long":"127.52271444","imageIndex":17,"items":[{"name":"하루키 모형","tel":"031-582-2795","addr":"경기도 가평군 가평읍 달전리 267-2번지","indutype":"서적문구 - 완구점","category":"other"}]}]