[{"lat":"37.646275771","long":"126.8896972","imageIndex":4,"items":[{"name":"(주)고양식당","tel":"070-8884-8295","addr":"경기도 고양시 덕양구 동산동 365번지 동산마을22단지호반베르디움","indutype":"일반휴게음식 - 일반한식","category":"restaurant"},{"name":"위드주디","tel":"","addr":"경기도 고양시 덕양구 동산동 365번지 동산마을22단지호반베르디움","indutype":"일반휴게음식 - 서양음식","category":"restaurant"},{"name":"지코바 삼송1호점","tel":"02-356-8292","addr":"경기도 고양시 덕양구 동산동 365번지 동산마을22단지호반베르디움","indutype":"일반휴게음식 - 스넥","category":"restaurant"},{"name":"키펠 플라워카페","tel":"031-1111-1111","addr":"경기도 고양시 덕양구 동산동 365번지 동산마을22단지호반베르디움","indutype":"일반휴게음식 - 서양음식","category":"restaurant"},{"name":"페이보릿","tel":"031-000-0000","addr":"경기도 고양시 덕양구 동산동 365번지 동산마을22단지호반베르디움","indutype":"일반휴게음식 - 서양음식","category":"restaurant"}]},{"lat":"37.649525524","long":"126.89642313","imageIndex":4,"items":[{"name":"(주)백반하우스동산점","tel":"02-381-3738","addr":"경기도 고양시 덕양구 동산동 369번지","indutype":"일반휴게음식 - 일반한식","category":"restaurant"},{"name":"1998옛날통닭","tel":"02-381-3214","addr":"경기도 고양시 덕양구 동산동 369번지","indutype":"일반휴게음식 - 스넥","category":"restaurant"},{"name":"고향옥얼큰순대국","tel":"02-371-3393","addr":"경기도 고양시 덕양구 동산동 369번지","indutype":"일반휴게음식 - 일반한식","category":"restaurant"},{"name":"김가네삼송점","tel":"02-371-2084","addr":"경기도 고양시 덕양구 동산동 369번지","indutype":"일반휴게음식 - 일반한식","category":"restaurant"},{"name":"놀란돼지 삼송점","tel":"02-371-2497","addr":"경기도 고양시 덕양구 동산동 369번지","indutype":"일반휴게음식 - 일반한식","category":"restaurant"},{"name":"레드락삼송점/(주)리얼슬로우","tel":"02-381-8827","addr":"경기도 고양시 덕양구 동산동 369번지","indutype":"일반휴게음식 - 일반한식","category":"restaurant"},{"name":"루스(LUZ)","tel":"0507-1331-0717","addr":"경기도 고양시 덕양구 동산동 369번지","indutype":"일반휴게음식 - 서양음식","category":"restaurant"},{"name":"맛정가네 김밥","tel":"02-381-2777","addr":"경기도 고양시 덕양구 동산동 369번지","indutype":"일반휴게음식 - 일반한식","category":"restaurant"},{"name":"메가커피 고양삼송시티점","tel":"02-371-1889","addr":"경기도 고양시 덕양구 동산동 369번지","indutype":"일반휴게음식 - 서양음식","category":"restaurant"},{"name":"미니뷔페백반하우스","tel":"02-381-3738","addr":"경기도 고양시 덕양구 동산동 369번지","indutype":"일반휴게음식 - 일반한식","category":"restaurant"},{"name":"미미고 찹쌀꽈배기","tel":"02-371-3889","addr":"경기도 고양시 덕양구 동산동 369번지","indutype":"일반휴게음식 - 일반한식","category":"restaurant"},{"name":"미양떡볶이","tel":"02-371-3074","addr":"경기도 고양시 덕양구 동산동 369번지","indutype":"일반휴게음식 - 스넥","category":"restaurant"},{"name":"베를린 부대찌개","tel":"","addr":"경기도 고양시 덕양구 동산동 369번지","indutype":"일반휴게음식 - 일반한식","category":"restaurant"},{"name":"베일리가든","tel":"02-123-4567","addr":"경기도 고양시 덕양구 동산동 369번지","indutype":"일반휴게음식 - 서양음식","category":"restaurant"},{"name":"봉추찜닭 고양삼송점","tel":"02-381-9381","addr":"경기도 고양시 덕양구 동산동 369번지","indutype":"일반휴게음식 - 일반한식","category":"restaurant"},{"name":"불닭발동대문엽기떡볶이","tel":"02-353-8593","addr":"경기도 고양시 덕양구 동산동 369번지","indutype":"일반휴게음식 - 일반한식","category":"restaurant"},{"name":"비에이치씨(BHC)삼송스타필드점","tel":"02-371-3555","addr":"경기도 고양시 덕양구 동산동 369번지","indutype":"일반휴게음식 - 스넥","category":"restaurant"},{"name":"소울커피&샌드위치","tel":"02-1234-1234","addr":"경기도 고양시 덕양구 동산동 369번지","indutype":"일반휴게음식 - 서양음식","category":"restaurant"},{"name":"숲숯불직화꼬치구이","tel":"02-381-9242","addr":"경기도 고양시 덕양구 동산동 369번지","indutype":"일반휴게음식 - 일반한식","category":"restaurant"},{"name":"스톡 (Stock)","tel":"031-527-4906","addr":"경기도 고양시 덕양구 동산동 369번지","indutype":"일반휴게음식 - 칵테일바","category":"restaurant"},{"name":"안군비어&왕노가리","tel":"031-111-1111","addr":"경기도 고양시 덕양구 동산동 369번지","indutype":"일반휴게음식 - 주점","category":"restaurant"},{"name":"엠아이스위트","tel":"","addr":"경기도 고양시 덕양구 동산동 369번지","indutype":"일반휴게음식 - 서양음식","category":"restaurant"},{"name":"원짜장","tel":"031-587-8362","addr":"경기도 고양시 덕양구 동산동 369번지","indutype":"일반휴게음식 - 중국식","category":"restaurant"},{"name":"이디야커피 고양삼송시티점","tel":"02-6403-7890","addr":"경기도 고양시 덕양구 동산동 369번지","indutype":"일반휴게음식 - 서양음식","category":"restaurant"},{"name":"정식당 한식뷔페","tel":"031-925-1515","addr":"경기도 고양시 덕양구 동산동 369번지","indutype":"일반휴게음식 - 일반한식","category":"restaurant"},{"name":"족발야시장","tel":"02-381-4965","addr":"경기도 고양시 덕양구 동산동 369번지","indutype":"일반휴게음식 - 일반한식","category":"restaurant"},{"name":"진미","tel":"","addr":"경기도 고양시 덕양구 동산동 369번지","indutype":"일반휴게음식 - 중국식","category":"restaurant"},{"name":"집가기전애","tel":"070-7576-1754","addr":"경기도 고양시 덕양구 동산동 369번지","indutype":"일반휴게음식 - 일반한식","category":"restaurant"},{"name":"짚신매운갈비찜고양삼송점","tel":"02-381-9969","addr":"경기도 고양시 덕양구 동산동 369번지","indutype":"일반휴게음식 - 일반한식","category":"restaurant"},{"name":"카페게이트 삼송시티점","tel":"","addr":"경기도 고양시 덕양구 동산동 369번지","indutype":"일반휴게음식 - 서양음식","category":"restaurant"},{"name":"큰맘할매순대국삼송점","tel":"02-381-6489","addr":"경기도 고양시 덕양구 동산동 369번지","indutype":"일반휴게음식 - 일반한식","category":"restaurant"},{"name":"포메인고양삼송점","tel":"02-381-4447","addr":"경기도 고양시 덕양구 동산동 369번지","indutype":"일반휴게음식 - 일반한식","category":"restaurant"},{"name":"포스터","tel":"","addr":"경기도 고양시 덕양구 동산동 369번지","indutype":"일반휴게음식 - 서양음식","category":"restaurant"},{"name":"하츠야","tel":"02-381-7199","addr":"경기도 고양시 덕양구 동산동 369번지","indutype":"일반휴게음식 - 일식·회집","category":"restaurant"}]},{"lat":"37.648962813","long":"126.90199896","imageIndex":4,"items":[{"name":"(주)한스","tel":"02-2219-3588","addr":"경기도 고양시 덕양구 동산동 376번지","indutype":"일반휴게음식 - 일반한식","category":"restaurant"},{"name":"다올푸드","tel":"02-2219-3330","addr":"경기도 고양시 덕양구 동산동 376번지","indutype":"일반휴게음식 - 일반한식","category":"restaurant"},{"name":"돈타운","tel":"02-2219-3337","addr":"경기도 고양시 덕양구 동산동 376번지","indutype":"일반휴게음식 - 일반한식","category":"restaurant"},{"name":"먹골식당","tel":"02-356-9915","addr":"경기도 고양시 덕양구 동산동 376번지","indutype":"일반휴게음식 - 일반한식","category":"restaurant"},{"name":"바른밥상","tel":"02-2219-3149","addr":"경기도 고양시 덕양구 동산동 376번지","indutype":"일반휴게음식 - 일반한식","category":"restaurant"},{"name":"삼송만두앤국수","tel":"02-381-8830","addr":"경기도 고양시 덕양구 동산동 376번지","indutype":"일반휴게음식 - 일반한식","category":"restaurant"},{"name":"삼송미담","tel":"02-2219-3455","addr":"경기도 고양시 덕양구 동산동 376번지","indutype":"일반휴게음식 - 일반한식","category":"restaurant"},{"name":"삼송테크노식당","tel":"","addr":"경기도 고양시 덕양구 동산동 376번지","indutype":"일반휴게음식 - 일반한식","category":"restaurant"},{"name":"요거프레소 삼송테크노밸리점","tel":"","addr":"경기도 고양시 덕양구 동산동 376번지","indutype":"일반휴게음식 - 서양음식","category":"restaurant"},{"name":"차이니코드","tel":"02-2219-3125","addr":"경기도 고양시 덕양구 동산동 376번지","indutype":"일반휴게음식 - 중국식","category":"restaurant"},{"name":"한가본","tel":"02-2219-4488","addr":"경기도 고양시 덕양구 동산동 376번지","indutype":"일반휴게음식 - 일반한식","category":"restaurant"}]},{"lat":"37.642602718","long":"126.88350505","imageIndex":4,"items":[{"name":"37.5 고양삼송점","tel":"02-371-3705","addr":"경기도 고양시 덕양구 동산동 350-1번지","indutype":"일반휴게음식 - 서양음식","category":"restaurant"}]},{"lat":"37.646685684","long":"126.90475547","imageIndex":4,"items":[{"name":"갈비예찬","tel":"02-356-6974","addr":"경기도 고양시 덕양구 동산동 8-2번지","indutype":"일반휴게음식 - 일반한식","category":"restaurant"}]},{"lat":"37.649164047","long":"126.89522252","imageIndex":4,"items":[{"name":"걸작떡볶이치킨","tel":"02-371-2821","addr":"경기도 고양시 덕양구 동산동 368-2번지","indutype":"일반휴게음식 - 일반한식","category":"restaurant"},{"name":"더드소(The드소)","tel":"02-381-9290","addr":"경기도 고양시 덕양구 동산동 368-2번지","indutype":"일반휴게음식 - 일반한식","category":"restaurant"},{"name":"삶는족족","tel":"02-381-7669","addr":"경기도 고양시 덕양구 동산동 368-2번지","indutype":"일반휴게음식 - 일반한식","category":"restaurant"},{"name":"소월설향","tel":"031-902-6062","addr":"경기도 고양시 덕양구 동산동 368-2번지","indutype":"일반휴게음식 - 일반한식","category":"restaurant"},{"name":"진미즉석떡볶이","tel":"02-381-7668","addr":"경기도 고양시 덕양구 동산동 368-2번지","indutype":"일반휴게음식 - 스넥","category":"restaurant"},{"name":"치킨마루 고양스타필드점","tel":"02-371-0188","addr":"경기도 고양시 덕양구 동산동 368-2번지","indutype":"일반휴게음식 - 스넥","category":"restaurant"}]},{"lat":"37.644054624","long":"126.88483974","imageIndex":4,"items":[{"name":"곰뼈","tel":"","addr":"경기도 고양시 덕양구 동산동 354-1번지","indutype":"일반휴게음식 - 일반한식","category":"restaurant"}]},{"lat":"37.643721458","long":"126.88503289","imageIndex":4,"items":[{"name":"굽네치킨 삼송1호점","tel":"02-381-9294","addr":"경기도 고양시 덕양구 동산동 355-1번지","indutype":"일반휴게음식 - 스넥","category":"restaurant"}]},{"lat":"37.644551543","long":"126.88623263","imageIndex":4,"items":[{"name":"김밥나라","tel":"02-371-0966","addr":"경기도 고양시 덕양구 동산동 352-1번지","indutype":"일반휴게음식 - 스넥","category":"restaurant"},{"name":"미소야 고양삼송점","tel":"02-381-7017","addr":"경기도 고양시 덕양구 동산동 352-1번지","indutype":"일반휴게음식 - 일식·회집","category":"restaurant"},{"name":"봉봉키즈","tel":"02-381-7955","addr":"경기도 고양시 덕양구 동산동 352-1번지","indutype":"일반휴게음식 - 서양음식","category":"restaurant"},{"name":"옛날통닭","tel":"","addr":"경기도 고양시 덕양구 동산동 352-1번지","indutype":"일반휴게음식 - 일반한식","category":"restaurant"}]},{"lat":"37.643108912","long":"126.88514716","imageIndex":4,"items":[{"name":"깨순이식당","tel":"031-353-3728","addr":"경기도 고양시 덕양구 동산동 355-6번지","indutype":"일반휴게음식 - 일반한식","category":"restaurant"}]},{"lat":"37.644577796","long":"126.88545077","imageIndex":4,"items":[{"name":"꼬꼬시티 동산점","tel":"033-111-111","addr":"경기도 고양시 덕양구 동산동 351-6번지","indutype":"일반휴게음식 - 스넥","category":"restaurant"},{"name":"야식앤포차","tel":"02-381-2040","addr":"경기도 고양시 덕양구 동산동 351-6번지","indutype":"일반휴게음식 - 일반한식","category":"restaurant"}]},{"lat":"37.645832143","long":"126.89708559","imageIndex":4,"items":[{"name":"나주곰탕","tel":"031-385-7206","addr":"경기도 고양시 덕양구 동산동 78-6번지","indutype":"일반휴게음식 - 일반한식","category":"restaurant"}]},{"lat":"37.643804141","long":"126.8866417","imageIndex":4,"items":[{"name":"노가리와생맥주","tel":"070-4406-0389","addr":"경기도 고양시 덕양구 동산동 353번지","indutype":"일반휴게음식 - 주점","category":"restaurant"},{"name":"이디야커피","tel":"02-381-8821","addr":"경기도 고양시 덕양구 동산동 353번지","indutype":"일반휴게음식 - 서양음식","category":"restaurant"}]},{"lat":"37.643523131","long":"126.8849199","imageIndex":4,"items":[{"name":"놀부부대찌개,철판구이","tel":"02-795-1103","addr":"경기도 고양시 덕양구 동산동 355-9번지","indutype":"일반휴게음식 - 일반한식","category":"restaurant"}]},{"lat":"37.643631191","long":"126.88486307","imageIndex":4,"items":[{"name":"닐스엔카페고양점/(주)닐스 닐스엔카페","tel":"02-6052-6966","addr":"경기도 고양시 덕양구 동산동 355번지","indutype":"일반휴게음식 - 서양음식","category":"restaurant"},{"name":"돈의품격","tel":"070-5096-5848","addr":"경기도 고양시 덕양구 동산동 355번지","indutype":"일반휴게음식 - 일반한식","category":"restaurant"}]},{"lat":"37.642328422","long":"126.88855882","imageIndex":4,"items":[{"name":"다이야가든","tel":"02-387-7261","addr":"경기도 고양시 덕양구 동산동 159-28번지","indutype":"일반휴게음식 - 일반한식","category":"restaurant"}]},{"lat":"37.646637025","long":"126.90050641","imageIndex":4,"items":[{"name":"당가원","tel":"02-388-5388","addr":"경기도 고양시 덕양구 동산동 47-132번지","indutype":"일반휴게음식 - 중국식","category":"restaurant"}]},{"lat":"37.646166028","long":"126.89767433","imageIndex":4,"items":[{"name":"대박순대국","tel":"02-384-4291","addr":"경기도 고양시 덕양구 동산동 77-1번지","indutype":"일반휴게음식 - 일반한식","category":"restaurant"}]},{"lat":"37.642937059","long":"126.88447894","imageIndex":4,"items":[{"name":"도담도담","tel":"070-8945-3313","addr":"경기도 고양시 덕양구 동산동 348-3번지","indutype":"일반휴게음식 - 서양음식","category":"restaurant"}]},{"lat":"37.64329933","long":"126.88637055","imageIndex":4,"items":[{"name":"도희동태탕찜왕해물찜","tel":"02-381-8003","addr":"경기도 고양시 덕양구 동산동 358-7번지","indutype":"일반휴게음식 - 일반한식","category":"restaurant"}]},{"lat":"37.642965005","long":"126.88539666","imageIndex":4,"items":[{"name":"루아빈(RUABEAN)","tel":"02-381-8193","addr":"경기도 고양시 덕양구 동산동 358-1번지","indutype":"일반휴게음식 - 서양음식","category":"restaurant"}]},{"lat":"37.644939362","long":"126.88663993","imageIndex":4,"items":[{"name":"루완708","tel":"070-2256-0605","addr":"경기도 고양시 덕양구 동산동 361번지","indutype":"일반휴게음식 - 중국식","category":"restaurant"}]},{"lat":"37.643882689","long":"126.8840922","imageIndex":4,"items":[{"name":"만리향","tel":"02-371-2575","addr":"경기도 고양시 덕양구 동산동 345-10번지","indutype":"일반휴게음식 - 중국식","category":"restaurant"}]},{"lat":"37.646357162","long":"126.89986093","imageIndex":4,"items":[{"name":"만석면옥","tel":"","addr":"경기도 고양시 덕양구 동산동 48-6번지","indutype":"일반휴게음식 - 일반한식","category":"restaurant"}]},{"lat":"37.645074864","long":"126.8870023","imageIndex":4,"items":[{"name":"맘스터치(MOM's TOUCH)","tel":"02-381-9252","addr":"경기도 고양시 덕양구 동산동 361-2번지","indutype":"일반휴게음식 - 서양음식","category":"restaurant"}]},{"lat":"37.644993588","long":"126.8868098","imageIndex":4,"items":[{"name":"명수네국물떡볶이","tel":"070-4919-5892","addr":"경기도 고양시 덕양구 동산동 361-1번지","indutype":"일반휴게음식 - 스넥","category":"restaurant"},{"name":"커피에반하다 고양동산점","tel":"02-371-3179","addr":"경기도 고양시 덕양구 동산동 361-1번지","indutype":"일반휴게음식 - 서양음식","category":"restaurant"}]},{"lat":"37.643495272","long":"126.88409281","imageIndex":4,"items":[{"name":"명태예찬","tel":"02-381-5289","addr":"경기도 고양시 덕양구 동산동 346-6번지","indutype":"일반휴게음식 - 일반한식","category":"restaurant"}]},{"lat":"37.642882886","long":"126.88436572","imageIndex":4,"items":[{"name":"문할로커피","tel":"031-1111-0000","addr":"경기도 고양시 덕양구 동산동 348-4번지","indutype":"일반휴게음식 - 서양음식","category":"restaurant"}]},{"lat":"37.64371372","long":"126.88631325","imageIndex":4,"items":[{"name":"배태랑피자","tel":"02-381-9799","addr":"경기도 고양시 덕양구 동산동 357-5번지","indutype":"일반휴게음식 - 서양음식","category":"restaurant"}]},{"lat":"37.642657815","long":"126.88453603","imageIndex":4,"items":[{"name":"보꼬네바이잇소스","tel":"070-4222-2435","addr":"경기도 고양시 덕양구 동산동 350-7번지","indutype":"일반휴게음식 - 서양음식","category":"restaurant"}]},{"lat":"37.645192346","long":"126.8873647","imageIndex":4,"items":[{"name":"봉구스밥버거(삼송점)","tel":"02-371-1821","addr":"경기도 고양시 덕양구 동산동 361-4번지","indutype":"일반휴게음식 - 일반한식","category":"restaurant"},{"name":"친절한분식","tel":"02-381-5635","addr":"경기도 고양시 덕양구 동산동 361-4번지","indutype":"일반휴게음식 - 스넥","category":"restaurant"}]},{"lat":"37.642910811","long":"126.88526078","imageIndex":4,"items":[{"name":"빵을요리하다","tel":"02-371-0250","addr":"경기도 고양시 덕양구 동산동 358번지","indutype":"일반휴게음식 - 스넥","category":"restaurant"}]},{"lat":"37.644244821","long":"126.88583654","imageIndex":4,"items":[{"name":"뻠스392","tel":"","addr":"경기도 고양시 덕양구 동산동 354-10번지","indutype":"일반휴게음식 - 일반한식","category":"restaurant"}]},{"lat":"37.644442346","long":"126.88514506","imageIndex":4,"items":[{"name":"삼송묵은지","tel":"02-371-1315","addr":"경기도 고양시 덕양구 동산동 351-4번지","indutype":"일반휴게음식 - 일반한식","category":"restaurant"}]},{"lat":"37.644082927","long":"126.88612005","imageIndex":4,"items":[{"name":"삼송장군집","tel":"02-371-2292","addr":"경기도 고양시 덕양구 동산동 356-5번지","indutype":"일반휴게음식 - 일반한식","category":"restaurant"},{"name":"후니당","tel":"02-000-0000","addr":"경기도 고양시 덕양구 동산동 356-5번지","indutype":"일반휴게음식 - 일반한식","category":"restaurant"}]},{"lat":"37.646939005","long":"126.89561099","imageIndex":4,"items":[{"name":"설빙고양스타필드점","tel":"031-5173-3430","addr":"경기도 고양시 덕양구 동산동 370번지","indutype":"일반휴게음식 - 서양음식","category":"restaurant"},{"name":"아메리칸트레일러 스타필드 고양점","tel":"","addr":"경기도 고양시 덕양구 동산동 370번지","indutype":"일반휴게음식 - 서양음식","category":"restaurant"},{"name":"책으로가는문","tel":"031-6083-1900","addr":"경기도 고양시 덕양구 동산동 370번지","indutype":"일반휴게음식 - 일반한식","category":"restaurant"}]},{"lat":"37.644217273","long":"126.88531537","imageIndex":4,"items":[{"name":"수피자","tel":"02-381-8333","addr":"경기도 고양시 덕양구 동산동 354-4번지","indutype":"일반휴게음식 - 서양음식","category":"restaurant"}]},{"lat":"37.644379887","long":"126.88575701","imageIndex":4,"items":[{"name":"신전떡볶이","tel":"02-381-1999","addr":"경기도 고양시 덕양구 동산동 354-7번지","indutype":"일반휴게음식 - 스넥","category":"restaurant"}]},{"lat":"37.643551624","long":"126.88639282","imageIndex":4,"items":[{"name":"싸그리(SSA그리)","tel":"02-381-0733","addr":"경기도 고양시 덕양구 동산동 357-6번지","indutype":"일반휴게음식 - 일반한식","category":"restaurant"}]},{"lat":"37.642854656","long":"126.88317607","imageIndex":4,"items":[{"name":"아쯔다무라","tel":"02-373-3256","addr":"경기도 고양시 덕양구 동산동 345-1번지","indutype":"일반휴게음식 - 일식·회집","category":"restaurant"}]},{"lat":"37.64465921","long":"126.88577923","imageIndex":4,"items":[{"name":"야미분식","tel":"031-000-0000","addr":"경기도 고양시 덕양구 동산동 351-8번지","indutype":"일반휴게음식 - 스넥","category":"restaurant"}]},{"lat":"37.642576226","long":"126.88403762","imageIndex":4,"items":[{"name":"어뮤즈 (amuse)","tel":"02-371-3504","addr":"경기도 고양시 덕양구 동산동 350-4번지","indutype":"일반휴게음식 - 서양음식","category":"restaurant"}]},{"lat":"37.64260289","long":"126.88367501","imageIndex":4,"items":[{"name":"어썸커피","tel":"02-371-2910","addr":"경기도 고양시 덕양구 동산동 350-2번지","indutype":"일반휴게음식 - 서양음식","category":"restaurant"}]},{"lat":"37.644025571","long":"126.88283427","imageIndex":4,"items":[{"name":"영미 불닭발 닭강정","tel":"02-381-8981","addr":"경기도 고양시 덕양구 동산동 343번지","indutype":"일반휴게음식 - 일반한식","category":"restaurant"},{"name":"장호덕손만두 삼송점","tel":"02-381-6699","addr":"경기도 고양시 덕양구 동산동 343번지","indutype":"일반휴게음식 - 스넥","category":"restaurant"},{"name":"청년피자 삼송점","tel":"02-371-2582","addr":"경기도 고양시 덕양구 동산동 343번지","indutype":"일반휴게음식 - 서양음식","category":"restaurant"},{"name":"코리안바베큐동산점","tel":"","addr":"경기도 고양시 덕양구 동산동 343번지","indutype":"일반휴게음식 - 스넥","category":"restaurant"}]},{"lat":"37.644019691","long":"126.88595019","imageIndex":4,"items":[{"name":"온고(ONGO)","tel":"031-000-0000","addr":"경기도 고양시 덕양구 동산동 356-4번지","indutype":"일반휴게음식 - 일반한식","category":"restaurant"}]},{"lat":"37.645272644","long":"126.89608928","imageIndex":4,"items":[{"name":"우리동네국수집","tel":"02-356-6010","addr":"경기도 고양시 덕양구 동산동 75-3번지","indutype":"일반휴게음식 - 일반한식","category":"restaurant"}]},{"lat":"37.644413861","long":"126.89297458","imageIndex":4,"items":[{"name":"원주골추어탕","tel":"02-351-3303","addr":"경기도 고양시 덕양구 동산동 67-5번지","indutype":"일반휴게음식 - 일반한식","category":"restaurant"}]},{"lat":"37.642828304","long":"126.88384461","imageIndex":4,"items":[{"name":"월계수다방","tel":"02-381-0818","addr":"경기도 고양시 덕양구 동산동 347번지","indutype":"일반휴게음식 - 서양음식","category":"restaurant"}]},{"lat":"37.644188386","long":"126.89272564","imageIndex":4,"items":[{"name":"유가네원조양평해장국","tel":"","addr":"경기도 고양시 덕양구 동산동 175-8번지","indutype":"일반휴게음식 - 일반한식","category":"restaurant"}]},{"lat":"37.642576055","long":"126.88386767","imageIndex":4,"items":[{"name":"일품양꼬치","tel":"031-216-2766","addr":"경기도 고양시 덕양구 동산동 350-3번지","indutype":"일반휴게음식 - 일반한식","category":"restaurant"}]},{"lat":"37.645270852","long":"126.8847585","imageIndex":4,"items":[{"name":"제주고기맛있는집 삼송고기집","tel":"02-359-8003","addr":"경기도 고양시 덕양구 동산동 344번지 동산마을호반베르디움","indutype":"일반휴게음식 - 일반한식","category":"restaurant"}]},{"lat":"37.643135158","long":"126.88436532","imageIndex":4,"items":[{"name":"진솔곰탕","tel":"02-371-0809","addr":"경기도 고양시 덕양구 동산동 348-2번지","indutype":"일반휴게음식 - 일반한식","category":"restaurant"}]},{"lat":"37.643408431","long":"126.90753575","imageIndex":4,"items":[{"name":"청록식당","tel":"031-359-1155","addr":"경기도 고양시 덕양구 동산동 4-13번지","indutype":"일반휴게음식 - 일반한식","category":"restaurant"}]},{"lat":"37.648329679","long":"126.899167","imageIndex":4,"items":[{"name":"춘천3대막국수","tel":"","addr":"경기도 고양시 덕양구 동산동 373번지","indutype":"일반휴게음식 - 위탁급식업","category":"restaurant"},{"name":"카페베네 삼송하나로마트점","tel":"02-381-2185","addr":"경기도 고양시 덕양구 동산동 373번지","indutype":"일반휴게음식 - 서양음식","category":"restaurant"},{"name":"한뜰","tel":"02-3431-0957","addr":"경기도 고양시 덕양구 동산동 373번지","indutype":"일반휴게음식 - 일반한식","category":"restaurant"},{"name":"한뜰","tel":"02-000-0000","addr":"경기도 고양시 덕양구 동산동 373번지","indutype":"일반휴게음식 - 일반한식","category":"restaurant"}]},{"lat":"37.643080426","long":"126.88369691","imageIndex":4,"items":[{"name":"카페 느루네","tel":"031-000-0000","addr":"경기도 고양시 덕양구 동산동 346-2번지","indutype":"일반휴게음식 - 서양음식","category":"restaurant"},{"name":"카페느루네","tel":"","addr":"경기도 고양시 덕양구 동산동 346-2번지","indutype":"일반휴게음식 - 서양음식","category":"restaurant"}]},{"lat":"37.642665614","long":"126.883335","imageIndex":4,"items":[{"name":"카페제니스","tel":"","addr":"경기도 고양시 덕양구 동산동 350번지","indutype":"일반휴게음식 - 서양음식","category":"restaurant"}]},{"lat":"37.64607801","long":"126.90003128","imageIndex":4,"items":[{"name":"커피동산","tel":"","addr":"경기도 고양시 덕양구 동산동 48번지","indutype":"일반휴게음식 - 서양음식","category":"restaurant"}]},{"lat":"37.646802205","long":"126.90403013","imageIndex":4,"items":[{"name":"털보집","tel":"02-389-3408","addr":"경기도 고양시 덕양구 동산동 9-10번지","indutype":"일반휴게음식 - 일반한식","category":"restaurant"}]},{"lat":"37.645968259","long":"126.89817317","imageIndex":4,"items":[{"name":"평양손만두","tel":"031-919-1382","addr":"경기도 고양시 덕양구 동산동 77-8번지","indutype":"일반휴게음식 - 일반한식","category":"restaurant"}]},{"lat":"37.646355897","long":"126.8984219","imageIndex":4,"items":[{"name":"포차포차","tel":"","addr":"경기도 고양시 덕양구 동산동 76-1번지","indutype":"일반휴게음식 - 일반한식","category":"restaurant"}]},{"lat":"37.643497398","long":"126.88622295","imageIndex":4,"items":[{"name":"피자나라치킨공주 동산점","tel":"02-371-2609","addr":"경기도 고양시 덕양구 동산동 357-7번지","indutype":"일반휴게음식 - 서양음식","category":"restaurant"}]},{"lat":"37.643245104","long":"126.88620068","imageIndex":4,"items":[{"name":"피자앤와인","tel":"02-381-9841","addr":"경기도 고양시 덕양구 동산동 358-6번지","indutype":"일반휴게음식 - 서양음식","category":"restaurant"}]},{"lat":"37.642855024","long":"126.88353864","imageIndex":4,"items":[{"name":"피자이탈리고양삼송점","tel":"","addr":"경기도 고양시 덕양구 동산동 346번지","indutype":"일반휴게음식 - 서양음식","category":"restaurant"}]},{"lat":"37.644299047","long":"126.88600641","imageIndex":4,"items":[{"name":"한우와한돈마을","tel":"02-381-3592","addr":"경기도 고양시 덕양구 동산동 354-9번지","indutype":"일반휴게음식 - 일반한식","category":"restaurant"}]}]