[{"lat":"37.781230778","long":"126.84999985","imageIndex":13,"items":[{"name":"그린헤어뷰티샵","tel":"031-947-4724","addr":"경기도 파주시 광탄면 신산리 217-9","indutype":"보건위생 - 미용원","category":"beauty"}]},{"lat":"37.779229124","long":"126.8488121","imageIndex":13,"items":[{"name":"네일스토리","tel":"031-947-9189","addr":"경기도 파주시 광탄면 신산리 183-6","indutype":"보건위생 - 피부미용실","category":"beauty"}]},{"lat":"37.781785409","long":"126.84697919","imageIndex":13,"items":[{"name":"로이미용실","tel":"031-957-5007","addr":"경기도 파주시 광탄면 신산리 371-11번지","indutype":"보건위생 - 미용원","category":"beauty"}]},{"lat":"37.780921817","long":"126.84797993","imageIndex":13,"items":[{"name":"루나헤어","tel":"031-942-5490","addr":"경기도 파주시 광탄면 신산리 187-8번지","indutype":"보건위생 - 미용원","category":"beauty"}]},{"lat":"37.781509038","long":"126.84920467","imageIndex":13,"items":[{"name":"마임광탄중부지사","tel":"031-941-1247","addr":"경기도 파주시 광탄면 신산리 221-23번지","indutype":"보건위생 - 화장품","category":"beauty"}]},{"lat":"37.781445705","long":"126.84900048","imageIndex":13,"items":[{"name":"명동 헤어샵","tel":"031-941-7689","addr":"경기도 파주시 광탄면 신산리 221-4번지","indutype":"보건위생 - 미용원","category":"beauty"}]},{"lat":"37.780030014","long":"126.84808395","imageIndex":13,"items":[{"name":"미미네일","tel":"","addr":"경기도 파주시 광탄면 신산리 184-1번지","indutype":"보건위생 - 피부미용실","category":"beauty"}]},{"lat":"37.780453206","long":"126.8478901","imageIndex":13,"items":[{"name":"수정미용실","tel":"031-947-5978","addr":"경기도 파주시 광탄면 신산리 188-7","indutype":"보건위생 - 미용원","category":"beauty"}]},{"lat":"37.781616781","long":"126.84892066","imageIndex":13,"items":[{"name":"씨저스헤어","tel":"031-947-0015","addr":"경기도 파주시 광탄면 신산리 220-1 1층","indutype":"보건위생 - 미용원","category":"beauty"}]},{"lat":"37.782226767","long":"126.8468988","imageIndex":13,"items":[{"name":"코스메틱","tel":"031-941-2229","addr":"경기도 파주시 광탄면 신산리 370-1번지","indutype":"보건위생 - 화장품","category":"beauty"}]},{"lat":"37.782784948","long":"126.84659113","imageIndex":13,"items":[{"name":"혜음샵(혜음#)","tel":"031-942-1975","addr":"경기도 파주시 광탄면 신산리 369-5번지","indutype":"보건위생 - 미용원","category":"beauty"}]}]