[{"lat":"37.420578027","long":"126.99225162","imageIndex":17,"items":[{"name":"(주)래미안휘트니스","tel":"02-3678-9933","addr":"경기도 과천시 원문동 4","indutype":"회원제형태 - 레져업소","category":"other"},{"name":"(주)신양이앤씨","tel":"02-3679-8574","addr":"경기도 과천시 원문동 4번지 래미안슈르 1층 1002호 , C상가","indutype":"전기제품 - 가전제품","category":"other"},{"name":"(주)엘림텍","tel":"02-504-9100","addr":"경기도 과천시 원문동 4번지 래미안슈르 B동 지하 23-1호","indutype":"건축자재 - 기타건축자재","category":"other"},{"name":"GS25과천래미안점","tel":"","addr":"경기도 과천시 원문동 4번지 1층 1086~1087호","indutype":"유통업 영리 - 편 의 점","category":"other"},{"name":"GS25과천삼성점","tel":"","addr":"경기도 과천시 원문동 4번지 래미안슈르C상가 1005,1006호","indutype":"유통업 영리 - 편 의 점","category":"other"},{"name":"라헬","tel":"031-3418-6608","addr":"경기도 과천시 원문동 4번지 래미안 슈르 상가동 1025호","indutype":"의류 - 정장","category":"other"},{"name":"래미안명품","tel":"02-507-0775","addr":"경기도 과천시 원문동 4번지 래미안슈르 상가 A동 1038호","indutype":"수리서비스 - 세탁소","category":"other"},{"name":"레이첼홈","tel":"070-7571-9908","addr":"경기도 과천시 원문동 4번지 래미안슈르 상가 1052호","indutype":"직물 - 침구·수예점","category":"other"},{"name":"리디아","tel":"02-538-7503","addr":"경기도 과천시 원문동 4 래미안슈르B상가 1083-2호","indutype":"의류 - 정장","category":"other"},{"name":"모닝글로리","tel":"02-502-3727","addr":"경기도 과천시 원문동 4래미안종합상가1095,1096호","indutype":"서적문구 - 문구용품","category":"other"},{"name":"법무사동고사무소","tel":"02-3418-0101","addr":"경기도 과천시 원문동 4번지 래미안슈르 상가 4045호","indutype":"용역 서비스 - 법률회계서비스(개인)","category":"other"},{"name":"삼성119세탁소","tel":"02-507-7119","addr":"경기도 과천시 원문동 4번지 래미안종합상가B동1076","indutype":"수리서비스 - 세탁소","category":"other"},{"name":"삼성공인중개사사무소","tel":"02-507-8888","addr":"경기도 과천시 원문동 4번지 래미안슈르A상가1층 1022호","indutype":"용역 서비스 - 부동산 중개·임대","category":"other"},{"name":"새과천공인중개사","tel":"02-502-0177","addr":"경기도 과천시 원문동 4 래미안슈르상가C동1013호","indutype":"용역 서비스 - 부동산 중개·임대","category":"other"},{"name":"세탁을위한사람들","tel":"070-7696-4800","addr":"경기도 과천시 원문동 4번지 1층 레미안슈르B상가","indutype":"수리서비스 - 세탁소","category":"other"},{"name":"소소공방","tel":"02-6382-5238","addr":"경기도 과천시 원문동 4번지 래미안슈르상가층2050호","indutype":"문화.취미 - 문화취미기타","category":"other"},{"name":"아이디센터","tel":"02-502-5454","addr":"경기도 과천시 원문동 4번지 래미안슈르 상가동 1층 1026호","indutype":"건축자재 - 인테리어전문","category":"other"},{"name":"알파공인중개사사무소","tel":"02-504-1100","addr":"경기도 과천시 원문동 4 래미안상가 C-1013","indutype":"용역 서비스 - 부동산 중개·임대","category":"other"},{"name":"엠티","tel":"070-4410-3131","addr":"경기도 과천시 원문동 4번지 래미안슈르 상가동 1058호","indutype":"사무통신 - 통신기기","category":"other"},{"name":"영재개발놀이원","tel":"02-504-0533","addr":"경기도 과천시 원문동 4번지 래미안슈르상가 b동3층 영재개발놀이원","indutype":"서적문구 - 기타서적문구","category":"other"},{"name":"오성설비","tel":"02-502-4846","addr":"경기도 과천시 원문동 4 삼성슈르B-1085","indutype":"수리서비스 - 기타수리서비스","category":"other"},{"name":"오스플라워(Oh_s_flowers)","tel":"02-3679-5625","addr":"경기도 과천시 원문동 4번지 래미안슈르 B동 2074호","indutype":"문화.취미 - 문화취미기타","category":"other"},{"name":"원조명","tel":"02-503-5888","addr":"경기도 과천시 원문동 4번지 래미안슈르 상가동 1101호","indutype":"건축자재 - 조명기구","category":"other"},{"name":"인스타일","tel":"031-504-2007","addr":"경기도 과천시 원문동 4번지 래미안슈르상가B동1077-1호","indutype":"의류 - 정장","category":"other"},{"name":"주식회사 두인컴","tel":"02-703-1079","addr":"경기도 과천시 원문동 4번지 렘안슈르 A동 3036호","indutype":"용역 서비스 - 소프트웨어","category":"other"},{"name":"캐롤","tel":"02-595-7020","addr":"경기도 과천시 원문동 4 래미안슈르상가 비-1078","indutype":"의류 - 정장","category":"other"},{"name":"크라스플러스과천점","tel":"02-3679-8209","addr":"경기도 과천시 원문동 4번지 상가동 2층 래미안슈르 2001-2007호","indutype":"용역 서비스 - 사무서비스","category":"other"},{"name":"크린토피아(과천3단지)","tel":"02-507-5559","addr":"경기도 과천시 원문동 4 래미안슈르 상가-1090","indutype":"수리서비스 - 세탁소","category":"other"},{"name":"플러쉬(PLUSH)","tel":"070-8866-6932","addr":"경기도 과천시 원문동 4번지 래미안슈르 상가 B동 2049호","indutype":"의류 - 정장","category":"other"},{"name":"한우축산","tel":"02-502-6888","addr":"경기도 과천시 원문동 4번지 래미안슈르상가제1층 상가-1091","indutype":"소매업 - 식육","category":"other"},{"name":"홍글리쉬(Honglish)","tel":"02-504-5988","addr":"경기도 과천시 원문동 4번지 래미안슈르 2025호","indutype":"서적문구 - 출판 및 인쇄물","category":"other"}]},{"lat":"37.457075605","long":"127.02727239","imageIndex":17,"items":[{"name":"GS26과천래미안점","tel":"02-504-2031","addr":"경기도 과천시 원문동 4번지 래미안 슈르 상가동 1층 1086, 1087","indutype":"소매업 - 편의점","category":"other"}]},{"lat":"37.459354971","long":"127.02805302","imageIndex":17,"items":[{"name":"경희대석사태권도장","tel":"02-3418-8888","addr":"경기도 과천시 원문동 4래미안슈르상가,제2층2077-2081호","indutype":"교육서비스업 - 태권도장","category":"other"},{"name":"설렘 꽃 작업실","tel":"02-3418-5545","addr":"경기도 과천시 원문동 4번지 래미안슈르 상가동 1층 1059호","indutype":"소매업 - 화초 및 산식물 소매업","category":"other"},{"name":"슈르네일","tel":"02-502-9587","addr":"경기도 과천시 원문동 4번지 래미안슈르 상가 B동 1081호","indutype":"서비스 - 네일아트","category":"other"},{"name":"자연인의집","tel":"02-503-3647","addr":"경기도 과천시 원문동 4","indutype":"소매업 - 생화, 금붕어","category":"other"},{"name":"지혜의 샘 - 지샘논술","tel":"","addr":"경기도 과천시 원문동 4번지 래미안 슈르 B동 4층 73호","indutype":"교육서비스업 - 교습소","category":"other"}]},{"lat":"37.461272944","long":"127.03299305","imageIndex":17,"items":[{"name":"과천서울이비인후과의원","tel":"02-502-8080","addr":"경기도 과천시 원문동 4번지 래미안슈르 상가동 3027호","indutype":"보건업 - 이비인후과","category":"other"}]},{"lat":"37.423911882","long":"126.99388927","imageIndex":17,"items":[{"name":"김동수음악학원","tel":"02-503-3327","addr":"경기도 과천시 원문동 4번지 래미안슈르 상가 A동 4층 4004-17,18,19호","indutype":"서비스 - 음악","category":"other"}]},{"lat":"37.427911942","long":"126.98964076","imageIndex":17,"items":[{"name":"김재훈 태권도장","tel":"02-507-2210","addr":"경기도 과천시 원문동 4번지 래미안슈르D상가 상가 D동 4001~4005호","indutype":"교육서비스업 - 태권도","category":"other"}]},{"lat":"37.437634433","long":"126.99855428","imageIndex":17,"items":[{"name":"낙원떡집","tel":"02-503-3397","addr":"경기도 과천시 원문동 4번지 래미안슈르상가 A동 1층 1016호","indutype":"도소매 - 떡류","category":"other"}]},{"lat":"37.421893612","long":"126.99364097","imageIndex":17,"items":[{"name":"남산 과 수원","tel":"","addr":"경기도 과천시 원문동 4번지 래미안슈르 327동 801호","indutype":"용역 서비스 - 부동산 중개·임대","category":"other"}]},{"lat":"37.4205780269","long":"126.9922516242","imageIndex":17,"items":[{"name":"더나은의원","tel":"02-1588-2623","addr":"경기도 과천시 원문동 4번지 래미안 슈르 3층 3011호~3022호","indutype":"보건업 - 통증의학과","category":"other"},{"name":"삼점일(3.1)","tel":"02-914-0634","addr":"경기도 과천시 원문동 4 , 래미안슈르 상가 B동 1701호","indutype":"의류 - 정장","category":"other"},{"name":"인스타일","tel":"02-504-2007","addr":"경기도 과천시 원문동 4번지 래미안슈르상가B동1077-1호","indutype":"소매업 - 의류, 잡화","category":"other"}]},{"lat":"37.426749933","long":"126.9924993","imageIndex":17,"items":[{"name":"라헬","tel":"02-3418-6608","addr":"경기도 과천시 원문동 4번지 래미안슈르 상가 1025호","indutype":"소매업 - 의류","category":"other"},{"name":"오스플라워","tel":"02-3679-5625","addr":"경기도 과천시 원문동 4번지 래미안슈르 B동 2074호","indutype":"서비스 - 생화","category":"other"},{"name":"월드공인중개사사무소","tel":"02-504-0333","addr":"경기도 과천시 원문동 4번지 래미안슈르A상가 1005호","indutype":"부동산업 - 부당산중개업","category":"other"},{"name":"홍익떡집","tel":"02-757-3340","addr":"경기도 과천시 원문동 4번지 래미안슈르종합상가동1027호~1028호","indutype":"도소매 - 떡방앗간","category":"other"}]},{"lat":"37.457578964","long":"127.03252817","imageIndex":17,"items":[{"name":"래미안명품","tel":"02-507-0775","addr":"경기도 과천시 원문동 4번지 래미안슈르 상가 A동 1038호","indutype":"서비스 - 세탁","category":"other"}]},{"lat":"37.454384113","long":"127.00089281","imageIndex":17,"items":[{"name":"리디아","tel":"02-538-7503","addr":"경기도 과천시 원문동 4번지 래미안슈르 B상가 1083-2호","indutype":"소매업 - 의류","category":"other"}]},{"lat":"37.432326698","long":"126.98825025","imageIndex":17,"items":[{"name":"매일공인중개사사무소","tel":"02-503-1800","addr":"경기도 과천시 원문동 4번지 래미안슈르 상가(4번지)동 1층1045호","indutype":"부동산업 - 부동산중개업","category":"other"},{"name":"플러쉬(PLUSH)","tel":"","addr":"경기도 과천시 원문동 4번지 래미안슈르 상가 B동 2049호","indutype":"소매업 - 의류","category":"other"}]},{"lat":"37.463579379","long":"127.03346872","imageIndex":17,"items":[{"name":"모닝글로리","tel":"02-502-3727","addr":"경기도 과천시 원문동 4번지 래미안종합상가1095, 1096호","indutype":"소매업 - 문구","category":"other"}]},{"lat":"37.453663262","long":"127.0069167","imageIndex":17,"items":[{"name":"미주공인중개사사무소","tel":"02-503-8949","addr":"경기도 과천시 원문동 4번지 래미안슈르B상가 1063호","indutype":"서비스 - 부동산중개업","category":"other"}]},{"lat":"37.434021393","long":"126.99807994","imageIndex":17,"items":[{"name":"바짝독서실","tel":"02-504-0912","addr":"경기도 과천시 원문동 4번지 래미안슈르 A동 4층 4004호","indutype":"서비스 - 독서실운영","category":"other"}]},{"lat":"37.448545446","long":"127.0097756","imageIndex":17,"items":[{"name":"비타민","tel":"02-503-0502","addr":"경기도 과천시 원문동 4번지 래미안 슈르 상가(4번지)동 1층 1099-1100호","indutype":"도소매 - 야채, 청과","category":"other"}]},{"lat":"37.427245524","long":"126.99295115","imageIndex":17,"items":[{"name":"삼성119세탁소","tel":"02-507-7119","addr":"경기도 과천시 원문동 4번지 래미안종합상가B동1076","indutype":"서비스 - 세탁업","category":"other"}]},{"lat":"37.452885568","long":"127.0290793","imageIndex":17,"items":[{"name":"삼점일(3.1)","tel":"02-507-7331","addr":"경기도 과천시 원문동 4번지 래미안슈르 상가 B동 1071호","indutype":"소매업 - 의류","category":"other"}]},{"lat":"37.428083503","long":"126.99350464","imageIndex":17,"items":[{"name":"서울웰치과의원","tel":"02-507-2994","addr":"경기도 과천시 원문동 4, 래미안슈르C상가3층301~304호","indutype":"보건업 - 치과","category":"other"}]},{"lat":"37.446462575","long":"127.02327979","imageIndex":17,"items":[{"name":"성심공인중개사사무소","tel":"02-504-6262","addr":"경기도 과천시 원문동 4번지 래미안슈르 A동 상가1014호","indutype":"부동산업 - 부동산중개업","category":"other"}]},{"lat":"37.449662816","long":"126.99877961","imageIndex":17,"items":[{"name":"세탁을위한사람들","tel":"070-7696-4800","addr":"경기도 과천시 원문동 4번지 레미안슈르B상가 1073호","indutype":"서비스 - 세탁편의점","category":"other"}]},{"lat":"37.429444392","long":"127.00285936","imageIndex":17,"items":[{"name":"솔로몬공인중개사사무소","tel":"02-503-7744","addr":"경기도 과천시 원문동 4번지 래미안슈르 상가D동 1층 1007호","indutype":"부동산업 - 공인중개사","category":"other"}]},{"lat":"37.428191537","long":"126.99247651","imageIndex":17,"items":[{"name":"슈르동물병원","tel":"02-3418-7500","addr":"경기도 과천시 원문동 4번지 래미안슈르 상가 1010호","indutype":"보건업 - 수의업","category":"other"}]},{"lat":"37.449635537","long":"126.99419132","imageIndex":17,"items":[{"name":"신세계공인중개사사무소","tel":"02-502-3717","addr":"경기도 과천시 원문동 4번지 래미안 종합상가 B동 1088호","indutype":"부동산업 - 부동산중개업","category":"other"}]},{"lat":"37.447300577","long":"127.02286188","imageIndex":17,"items":[{"name":"아이엔아이스포츠클럽","tel":"02-3679-5044","addr":"경기도 과천시 원문동 4번지 래미안슈르상가 B동 4층 4065~4069호","indutype":"서비스 - 어린이생활체육","category":"other"}]},{"lat":"37.460436026","long":"127.02872024","imageIndex":17,"items":[{"name":"아트(ART)","tel":"","addr":"경기도 과천시 원문동 4번지 래미안 슈르 제상가동 1054호","indutype":"소매업 - 의류","category":"other"}]},{"lat":"37.420713098","long":"126.99140434","imageIndex":17,"items":[{"name":"아트앤하트(평안지국)","tel":"02-503-8932","addr":"경기도 과천시 원문동 4번지 래미안슈르 341동 1602호","indutype":"회원제형태 - 서적","category":"other"}]},{"lat":"37.428470935","long":"126.99350459","imageIndex":17,"items":[{"name":"애플부동산공인중개사사무소","tel":"02-503-6363","addr":"경기도 과천시 원문동 4번지 래미안슈르제상가 4번지 1층 1033호","indutype":"부동산업 - 부동산중개업","category":"other"},{"name":"원조명","tel":"","addr":"경기도 과천시 원문동 4번지 래미안슈르 상가동 1101호","indutype":"도소매 - 조명","category":"other"}]},{"lat":"37.431075023","long":"126.99624978","imageIndex":17,"items":[{"name":"여우별 네일","tel":"02-3679-3367","addr":"경기도 과천시 원문동 4번지 래미안슈르 상가 A동 2027호","indutype":"서비스 - 네일샵","category":"other"}]},{"lat":"37.459299634","long":"127.03346697","imageIndex":17,"items":[{"name":"연세박상학의원","tel":"02-503-7581","addr":"경기도 과천시 원문동 4번지 래미안슈르상가 B동 2072호~2073호","indutype":"보건업 - 내과","category":"other"}]},{"lat":"37.455688686","long":"127.02405083","imageIndex":17,"items":[{"name":"오레시피과천원문점","tel":"02-504-5353","addr":"경기도 과천시 원문동 4번지 래미안슈르 상가 1층 A-1004호","indutype":"소매업 - 반찬가게","category":"other"}]},{"lat":"37.421181833","long":"126.99384441","imageIndex":17,"items":[{"name":"은복J삼마","tel":"02-3679-0341","addr":"경기도 과천시 원문동 4번지 래미안슈르 329동 201호","indutype":"의류 - 정장","category":"other"}]},{"lat":"37.447797006","long":"127.0167256","imageIndex":17,"items":[{"name":"전주반찬","tel":"02-502-2008","addr":"경기도 과천시 원문동 4번지 래미안슈르A상가 1037호","indutype":"도소매 - 반찬","category":"other"}]},{"lat":"37.434913459","long":"127.00531124","imageIndex":17,"items":[{"name":"크라스플러스 과천독서실","tel":"02-3679-8209","addr":"경기도 과천시 원문동 4번지 래미안슈르 상가동 2층 2001-2007호","indutype":"서비스 - 독서실운영","category":"other"}]},{"lat":"37.454356965","long":"127.00855552","imageIndex":17,"items":[{"name":"크린토피아(과천3단지)","tel":"02-507-5559","addr":"경기도 과천시 원문동 4 래미안슈르 상가 B1090","indutype":"서비스 - 세탁중개","category":"other"}]},{"lat":"37.424659801","long":"126.99508671","imageIndex":17,"items":[{"name":"토종한우","tel":"02-504-2977","addr":"경기도 과천시 원문동 4번지 래미안슈르A상가 1041호","indutype":"소매업 - 식육","category":"other"}]},{"lat":"37.429876627","long":"126.99525564","imageIndex":17,"items":[{"name":"화이트치과","tel":"02-502-8803","addr":"경기도 과천시 원문동 4번지 B동-2051.2052호","indutype":"보건업 - 치과","category":"other"}]}]