[{"lat":"37.41299772","long":"127.2530365","imageIndex":4,"items":[{"name":"(CPC)켈리포니아 피자치킨 광주경안점","tel":"","addr":"경기도 광주시 경안동 124-14번지 1층","indutype":"일반휴게음식 - 일반한식","category":"restaurant"}]},{"lat":"37.40958413","long":"127.2566961","imageIndex":4,"items":[{"name":"(주)비에이치더블유","tel":"031-767-6969","addr":"경기도 광주시 경안동 36-29번지","indutype":"일반휴게음식 - 서양음식","category":"restaurant"}]},{"lat":"37.40942064","long":"127.2573055","imageIndex":4,"items":[{"name":"24시옛날통닭","tel":"031-797-1553","addr":"경기도 광주시 경안동 34-3번지 1층","indutype":"일반휴게음식 - 스넥","category":"restaurant"},{"name":"궁","tel":"031-765-3718","addr":"경기도 광주시 경안동 34-3번지","indutype":"일반휴게음식 - 일반한식","category":"restaurant"},{"name":"서민만원족발","tel":"031-764-1259","addr":"경기도 광주시 경안동 34-3번지","indutype":"일반휴게음식 - 일반한식","category":"restaurant"},{"name":"오케이 포차","tel":"031-111-1111","addr":"경기도 광주시 경안동 34-3번지 1층","indutype":"일반휴게음식 - 주점","category":"restaurant"}]},{"lat":"37.41314208","long":"127.2571712","imageIndex":4,"items":[{"name":"24시전주명가콩나물국밥(경인동)","tel":"031-763-7677","addr":"경기도 광주시 경안동 75-11번지 1층","indutype":"일반휴게음식 - 일반한식","category":"restaurant"},{"name":"다모아","tel":"031-767-9880","addr":"경기도 광주시 경안동 75-11번지","indutype":"일반휴게음식 - 주점","category":"restaurant"}]},{"lat":"37.41019591","long":"127.2571161","imageIndex":4,"items":[{"name":"52번가의기적","tel":"031-764-5631","addr":"경기도 광주시 경안동 52-10번지","indutype":"일반휴게음식 - 일반한식","category":"restaurant"},{"name":"사이공리","tel":"","addr":"경기도 광주시 경안동 52-10번지 1층","indutype":"일반휴게음식 - 일반한식","category":"restaurant"},{"name":"술익는마을","tel":"02-763-3000","addr":"경기도 광주시 경안동 52-10번지","indutype":"일반휴게음식 - 일반한식","category":"restaurant"},{"name":"쉘브르","tel":"031-762-1408","addr":"경기도 광주시 경안동 52-10번지 2층","indutype":"일반휴게음식 - 주점","category":"restaurant"}]},{"lat":"37.41353156","long":"127.2519765","imageIndex":4,"items":[{"name":"99푸드","tel":"031-764-0040","addr":"경기도 광주시 경안동 124-27번지 영공빌딩 1층 103호","indutype":"일반휴게음식 - 일반한식","category":"restaurant"},{"name":"월드곱창모이세","tel":"031-766-1677","addr":"경기도 광주시 경안동 124-27번지","indutype":"일반휴게음식 - 일반한식","category":"restaurant"}]},{"lat":"37.41272541","long":"127.2623319","imageIndex":4,"items":[{"name":"Cafe Anthony (카페 앤써니)","tel":"031-768-1491","addr":"경기도 광주시 경안동 418-4번지 1층","indutype":"일반휴게음식 - 서양음식","category":"restaurant"}]},{"lat":"37.40950224","long":"127.2612252","imageIndex":4,"items":[{"name":"I컨벤션웨딩부페","tel":"031-799-7500","addr":"경기도 광주시 경안동 25-3번지 이프라자2147호~2154호 2층","indutype":"일반휴게음식 - 일반한식","category":"restaurant"},{"name":"가마로강정","tel":"031-799-7692","addr":"경기도 광주시 경안동 25-3번지 광주터미널이프라자 1층 108호","indutype":"일반휴게음식 - 스넥","category":"restaurant"},{"name":"공차 (경기광주터미널점)","tel":"031-799-7779","addr":"경기도 광주시 경안동 25-3번지 광주터미널이프라자 107-1호","indutype":"일반휴게음식 - 서양음식","category":"restaurant"},{"name":"나니가","tel":"031-799-7910","addr":"경기도 광주시 경안동 25-3번지 광주터미널이프라자 134호","indutype":"일반휴게음식 - 일식·회집","category":"restaurant"},{"name":"다미소반","tel":"031-799-7711","addr":"경기도 광주시 경안동 25-3번지 광주터미널이프라자 129호","indutype":"일반휴게음식 - 일반한식","category":"restaurant"},{"name":"루안바오경기광주터미널점","tel":"031-799-7685","addr":"경기도 광주시 경안동 25-3번지 광주종합터미널 1층 113호","indutype":"일반휴게음식 - 서양음식","category":"restaurant"},{"name":"마미쥬스","tel":"031-799-7509","addr":"경기도 광주시 경안동 25-3번지 광주터미널이프라자 114호","indutype":"일반휴게음식 - 서양음식","category":"restaurant"},{"name":"마토이(경기광주점)","tel":"031-799-7945","addr":"경기도 광주시 경안동 25-3번지 광주터미널 1층 138호 ,139,140호","indutype":"일반휴게음식 - 일식·회집","category":"restaurant"},{"name":"모노치즈","tel":"031-797-9835","addr":"경기도 광주시 경안동 25-3번지 광주터미널이프라자 1층 103호","indutype":"일반휴게음식 - 서양음식","category":"restaurant"},{"name":"바푸리김밥(광주점)","tel":"031-799-7773","addr":"경기도 광주시 경안동 25-3번지 광주터미널이프라자 1층 4","indutype":"일반휴게음식 - 스넥","category":"restaurant"},{"name":"분식사관학교","tel":"","addr":"경기도 광주시 경안동 25-3번지 광주터미널푸드코트 137호","indutype":"일반휴게음식 - 스넥","category":"restaurant"},{"name":"빽다방 경기광주 이마트점","tel":"031-799-7710","addr":"경기도 광주시 경안동 25-3번지 광주터미널이프라자","indutype":"일반휴게음식 - 서양음식","category":"restaurant"},{"name":"소담옥수수손칼국수","tel":"031-799-7887","addr":"경기도 광주시 경안동 25-3번지 광주터미널이프라자 12호","indutype":"일반휴게음식 - 일반한식","category":"restaurant"},{"name":"신참떡볶이","tel":"031-799-7699","addr":"경기도 광주시 경안동 25-3번지 광주터미널이프라자 107호","indutype":"일반휴게음식 - 스넥","category":"restaurant"},{"name":"여기닭꼬치","tel":"031-762-7014","addr":"경기도 광주시 경안동 25-3번지 광주터미널이프라자 1층 136호","indutype":"일반휴게음식 - 일반한식","category":"restaurant"},{"name":"연안식당","tel":"031-769-0218","addr":"경기도 광주시 경안동 25-3번지 150,151호","indutype":"일반휴게음식 - 일반한식","category":"restaurant"},{"name":"오늘도 돈까스","tel":"031-799-7711","addr":"경기도 광주시 경안동 25-3번지 광두터미널푸드코트 1층 26호","indutype":"일반휴게음식 - 서양음식","category":"restaurant"},{"name":"요기","tel":"031-799-7910","addr":"경기도 광주시 경안동 25-3번지 광주터미널 1층 132호","indutype":"일반휴게음식 - 스넥","category":"restaurant"},{"name":"전주 오가네 비빔밥","tel":"031-799-7711","addr":"경기도 광주시 경안동 25-3번지 광주종합터미널 1층 131호","indutype":"일반휴게음식 - 일반한식","category":"restaurant"},{"name":"타코비","tel":"031-000-0000","addr":"경기도 광주시 경안동 25-3번지 광주터미널이프라자 1층 135호","indutype":"일반휴게음식 - 일식·회집","category":"restaurant"},{"name":"파파이스/주식회사 오노르떼","tel":"031-799-7724","addr":"경기도 광주시 경안동 25-3번지 116호,117호,118호","indutype":"일반휴게음식 - 서양음식","category":"restaurant"},{"name":"판다","tel":"031-799-7711","addr":"경기도 광주시 경안동 25-3번지 광주터미널이프라자 128호","indutype":"일반휴게음식 - 중국식","category":"restaurant"},{"name":"황가면옥","tel":"070-8955-9084","addr":"경기도 광주시 경안동 25-3번지 광주터미널이프라자 127호","indutype":"일반휴게음식 - 일반한식","category":"restaurant"}]},{"lat":"37.41003332","long":"127.2573075","imageIndex":4,"items":[{"name":"O라이브","tel":"031-764-3383","addr":"경기도 광주시 경안동 52-3번지","indutype":"일반휴게음식 - 주점","category":"restaurant"},{"name":"도문강양꼬치","tel":"031-797-6336","addr":"경기도 광주시 경안동 52-3번지 2층","indutype":"일반휴게음식 - 중국식","category":"restaurant"}]},{"lat":"37.40956222","long":"127.2585032","imageIndex":4,"items":[{"name":"PLACE (플레이스)","tel":"031-762-4768","addr":"경기도 광주시 경안동 30-3번지 2층 202호","indutype":"일반휴게음식 - 주점","category":"restaurant"},{"name":"우리돈네","tel":"031-797-3000","addr":"경기도 광주시 경안동 30-3번지 2층 201호","indutype":"일반휴게음식 - 일반한식","category":"restaurant"}]},{"lat":"37.41438734","long":"127.2520584","imageIndex":4,"items":[{"name":"Vanessa's it (바네사스잇)","tel":"031-798-7942","addr":"경기도 광주시 경안동 265-11번지 은혜빌딩 2층","indutype":"일반휴게음식 - 서양음식","category":"restaurant"},{"name":"가마솥순대국","tel":"031-767-8488","addr":"경기도 광주시 경안동 265-11번지 은혜빌딩 1층 101호","indutype":"일반휴게음식 - 일반한식","category":"restaurant"}]},{"lat":"37.41245056","long":"127.2561184","imageIndex":4,"items":[{"name":"olens","tel":"031-762-6578","addr":"경기도 광주시 경안동 73-29번지","indutype":"일반휴게음식 - 서양음식","category":"restaurant"},{"name":"곽두리쪽갈비","tel":"031-768-6952","addr":"경기도 광주시 경안동 73-29번지","indutype":"일반휴게음식 - 일반한식","category":"restaurant"},{"name":"배우까페","tel":"031-1111-1111","addr":"경기도 광주시 경안동 73-29번지 지하1층","indutype":"일반휴게음식 - 서양음식","category":"restaurant"},{"name":"싹쓸이 삼겹살","tel":"031-768-0305","addr":"경기도 광주시 경안동 73-29번지","indutype":"일반휴게음식 - 일반한식","category":"restaurant"}]},{"lat":"37.41374839","long":"127.2516948","imageIndex":4,"items":[{"name":"가마솥손두부","tel":"031-761-4911","addr":"경기도 광주시 경안동 124-10번지","indutype":"일반휴게음식 - 일반한식","category":"restaurant"}]},{"lat":"37.40886779","long":"127.2588058","imageIndex":4,"items":[{"name":"감성커피","tel":"","addr":"경기도 광주시 경안동 28-11번지 1층","indutype":"일반휴게음식 - 서양음식","category":"restaurant"},{"name":"미소야","tel":"031-798-3337","addr":"경기도 광주시 경안동 28-11번지","indutype":"일반휴게음식 - 스넥","category":"restaurant"},{"name":"예송김밥사랑","tel":"031-761-8326","addr":"경기도 광주시 경안동 28-11번지","indutype":"일반휴게음식 - 일반한식","category":"restaurant"}]},{"lat":"37.41138872","long":"127.2596729","imageIndex":4,"items":[{"name":"강마을유황오리주물럭","tel":"031-768-7976","addr":"경기도 광주시 경안동 17-6번지","indutype":"일반휴게음식 - 일반한식","category":"restaurant"}]},{"lat":"37.41008934","long":"127.2563928","imageIndex":4,"items":[{"name":"경안김밥","tel":"031-763-2388","addr":"경기도 광주시 경안동 36-75번지 1층 102호","indutype":"일반휴게음식 - 스넥","category":"restaurant"}]},{"lat":"37.40925064","long":"127.2567514","imageIndex":4,"items":[{"name":"경안동","tel":"02-1234-1234","addr":"경기도 광주시 경안동 36-18번지 1층","indutype":"일반휴게음식 - 일반한식","category":"restaurant"}]},{"lat":"37.40874885","long":"127.2596413","imageIndex":4,"items":[{"name":"경안동밥집","tel":"031-762-4728","addr":"경기도 광주시 경안동 28-5번지 1층","indutype":"일반휴게음식 - 일반한식","category":"restaurant"}]},{"lat":"37.41289045","long":"127.2568654","imageIndex":4,"items":[{"name":"경일통닭","tel":"031-761-4136","addr":"경기도 광주시 경안동 75-13번지","indutype":"일반휴게음식 - 일반한식","category":"restaurant"}]},{"lat":"37.40975359","long":"127.2574986","imageIndex":4,"items":[{"name":"계경목장","tel":"031-765-9235","addr":"경기도 광주시 경안동 35-5번지 2층","indutype":"일반휴게음식 - 일반한식","category":"restaurant"}]},{"lat":"37.40730805","long":"127.2508151","imageIndex":4,"items":[{"name":"고기나라","tel":"031-766-8984","addr":"경기도 광주시 경안동 189-2번지 3호","indutype":"일반휴게음식 - 일반한식","category":"restaurant"}]},{"lat":"37.40944682","long":"127.2577009","imageIndex":4,"items":[{"name":"고릴라포차","tel":"031-769-0577","addr":"경기도 광주시 경안동 33-2번지 1층","indutype":"일반휴게음식 - 일반한식","category":"restaurant"},{"name":"동해춘","tel":"031-761-2351","addr":"경기도 광주시 경안동 33-2번지","indutype":"일반휴게음식 - 중국식","category":"restaurant"}]},{"lat":"37.40933197","long":"127.2566388","imageIndex":4,"items":[{"name":"고창수산장어","tel":"031-766-3334","addr":"경기도 광주시 경안동 36-31번지","indutype":"일반휴게음식 - 일반한식","category":"restaurant"},{"name":"닭갈비제작소 광주경안점","tel":"031-761-3962","addr":"경기도 광주시 경안동 36-31번지 2층","indutype":"일반휴게음식 - 일반한식","category":"restaurant"},{"name":"장터생삼겹산낙지","tel":"031-765-5647","addr":"경기도 광주시 경안동 36-31번지","indutype":"일반휴게음식 - 일반한식","category":"restaurant"}]},{"lat":"37.41233954","long":"127.2532489","imageIndex":4,"items":[{"name":"골목길삼겹살","tel":"031-767-9420","addr":"경기도 광주시 경안동 86-9번지 정다운빌딩","indutype":"일반휴게음식 - 일반한식","category":"restaurant"},{"name":"투다리","tel":"","addr":"경기도 광주시 경안동 86-9번지","indutype":"일반휴게음식 - 칵테일바","category":"restaurant"}]},{"lat":"37.40900049","long":"127.2557566","imageIndex":4,"items":[{"name":"곰미커피","tel":"031-762-3182","addr":"경기도 광주시 경안동 38-39번지","indutype":"일반휴게음식 - 서양음식","category":"restaurant"}]},{"lat":"37.41169712","long":"127.2587251","imageIndex":4,"items":[{"name":"곱마을","tel":"031-765-3800","addr":"경기도 광주시 경안동 61-4번지 2층","indutype":"일반휴게음식 - 일반한식","category":"restaurant"},{"name":"산카이 (경안점)","tel":"031-797-4536","addr":"경기도 광주시 경안동 61-4번지 성일빌딩","indutype":"일반휴게음식 - 주점","category":"restaurant"}]},{"lat":"37.4101108","long":"127.2589795","imageIndex":4,"items":[{"name":"곱창고광주경안점","tel":"031-764-5592","addr":"경기도 광주시 경안동 24-6번지","indutype":"일반휴게음식 - 일반한식","category":"restaurant"},{"name":"신장곱창","tel":"031-764-4471","addr":"경기도 광주시 경안동 24-6번지","indutype":"일반휴게음식 - 일반한식","category":"restaurant"},{"name":"푸지막","tel":"031-768-9297","addr":"경기도 광주시 경안동 24-6번지 1층","indutype":"일반휴게음식 - 일반한식","category":"restaurant"}]},{"lat":"37.41016827","long":"127.2573984","imageIndex":4,"items":[{"name":"곱창마을","tel":"031-769-2001","addr":"경기도 광주시 경안동 52-2번지","indutype":"일반휴게음식 - 일반한식","category":"restaurant"}]},{"lat":"37.41106147","long":"127.2568366","imageIndex":4,"items":[{"name":"관계","tel":"","addr":"경기도 광주시 경안동 71-18번지 1층","indutype":"일반휴게음식 - 주점","category":"restaurant"},{"name":"왕대박골","tel":"031-765-2188","addr":"경기도 광주시 경안동 71-18번지","indutype":"일반휴게음식 - 일반한식","category":"restaurant"}]},{"lat":"37.40908679","long":"127.2533059","imageIndex":4,"items":[{"name":"광주닭한마리","tel":"031-765-0067","addr":"경기도 광주시 경안동 167-21번지","indutype":"일반휴게음식 - 일반한식","category":"restaurant"},{"name":"꿀샘천일염두부전문","tel":"031-769-8688","addr":"경기도 광주시 경안동 167-21번지 1층","indutype":"일반휴게음식 - 일반한식","category":"restaurant"},{"name":"소라브루잉","tel":"070-4790-7422","addr":"경기도 광주시 경안동 167-21번지 1,층","indutype":"일반휴게음식 - 서양음식","category":"restaurant"}]},{"lat":"37.41158667","long":"127.2556185","imageIndex":4,"items":[{"name":"광주뚝배기","tel":"031-761-3500","addr":"경기도 광주시 경안동 72-21번지","indutype":"일반휴게음식 - 일반한식","category":"restaurant"},{"name":"자르갈란트","tel":"031-763-4116","addr":"경기도 광주시 경안동 72-21번지","indutype":"일반휴게음식 - 일반한식","category":"restaurant"},{"name":"지코바치킨","tel":"031-761-8258","addr":"경기도 광주시 경안동 72-21번지","indutype":"일반휴게음식 - 스넥","category":"restaurant"}]},{"lat":"37.41272743","long":"127.2530356","imageIndex":4,"items":[{"name":"광주보신탕","tel":"031-768-9511","addr":"경기도 광주시 경안동 89번지","indutype":"일반휴게음식 - 일반한식","category":"restaurant"}]},{"lat":"37.41044847","long":"127.2527569","imageIndex":4,"items":[{"name":"광주시립도서관구내식당","tel":"","addr":"경기도 광주시 경안동 161-24번지 지하1층","indutype":"일반휴게음식 - 일반한식","category":"restaurant"}]},{"lat":"37.4134752","long":"127.2572853","imageIndex":4,"items":[{"name":"광주식당","tel":"031-764-2118","addr":"경기도 광주시 경안동 76-1","indutype":"일반휴게음식 - 일반한식","category":"restaurant"}]},{"lat":"37.40925358","long":"127.2595639","imageIndex":4,"items":[{"name":"광주해물24시감자탕","tel":"031-761-1177","addr":"경기도 광주시 경안동 20-20번지 1층","indutype":"일반휴게음식 - 일반한식","category":"restaurant"}]},{"lat":"37.41311139","long":"127.2588655","imageIndex":4,"items":[{"name":"광주회관","tel":"031-2-2996","addr":"경기도 광주시 경안동 11-23번지","indutype":"일반휴게음식 - 일반한식","category":"restaurant"}]},{"lat":"37.41200102","long":"127.2514179","imageIndex":4,"items":[{"name":"교촌치킨 광주1호점","tel":"031-765-8292","addr":"경기도 광주시 경안동 154-1번지 1층","indutype":"일반휴게음식 - 스넥","category":"restaurant"}]},{"lat":"37.41322474","long":"127.2522014","imageIndex":4,"items":[{"name":"구구푸드","tel":"031-769-9919","addr":"경기도 광주시 경안동 148-64번지","indutype":"일반휴게음식 - 일반한식","category":"restaurant"},{"name":"닭튀기는 사람들","tel":"031-797-1940","addr":"경기도 광주시 경안동 148-64번지 1층 102호","indutype":"일반휴게음식 - 스넥","category":"restaurant"}]},{"lat":"37.41358857","long":"127.2548345","imageIndex":4,"items":[{"name":"구이사꼬막 요리전문점","tel":"","addr":"경기도 광주시 경안동 81-13번지 2층","indutype":"일반휴게음식 - 일반한식","category":"restaurant"}]},{"lat":"37.41447505","long":"127.2488958","imageIndex":4,"items":[{"name":"국민닭발","tel":"031-763-9235","addr":"경기도 광주시 경안동 128-11번지","indutype":"일반휴게음식 - 일반한식","category":"restaurant"},{"name":"또봉이통닭","tel":"031-768-2738","addr":"경기도 광주시 경안동 128-11번지 1층","indutype":"일반휴게음식 - 스넥","category":"restaurant"}]},{"lat":"37.4127553","long":"127.2568649","imageIndex":4,"items":[{"name":"귀인","tel":"031-768-6890","addr":"경기도 광주시 경안동 74-25번지","indutype":"일반휴게음식 - 주점","category":"restaurant"}]},{"lat":"37.41133257","long":"127.252229","imageIndex":4,"items":[{"name":"그녀의 샌드위치","tel":"031-797-9220","addr":"경기도 광주시 경안동 159-13번지 1층 1호","indutype":"일반휴게음식 - 스넥","category":"restaurant"}]},{"lat":"37.41211751","long":"127.2517233","imageIndex":4,"items":[{"name":"글로리아","tel":"031-885-7458","addr":"경기도 광주시 경안동 153-2번지 2층","indutype":"일반휴게음식 - 서양음식","category":"restaurant"},{"name":"무쏘 광주경안","tel":"070-4178-0707","addr":"경기도 광주시 경안동 153-2번지 3층 302호","indutype":"일반휴게음식 - 서양음식","category":"restaurant"},{"name":"우면당","tel":"031-763-3763","addr":"경기도 광주시 경안동 153-2번지 일공이빌딩 2층","indutype":"일반휴게음식 - 일반한식","category":"restaurant"}]},{"lat":"37.41208429","long":"127.2546487","imageIndex":4,"items":[{"name":"기남아귀찜","tel":"031-763-5998","addr":"경기도 광주시 경안동 83-19번지 1층 1호","indutype":"일반휴게음식 - 일반한식","category":"restaurant"}]},{"lat":"37.4106133","long":"127.2515037","imageIndex":4,"items":[{"name":"길동소나기 감자탕","tel":"031-762-8593","addr":"경기도 광주시 경안동 162-4번지","indutype":"일반휴게음식 - 일반한식","category":"restaurant"},{"name":"길동소나기감자탕","tel":"031-762-8953","addr":"경기도 광주시 경안동 162-4번지","indutype":"일반휴게음식 - 일반한식","category":"restaurant"},{"name":"프롤로그(Prologue)","tel":"","addr":"경기도 광주시 경안동 162-4번지 동은빌딩 1층","indutype":"일반휴게음식 - 일반한식","category":"restaurant"}]},{"lat":"37.4090054","long":"127.2576655","imageIndex":4,"items":[{"name":"김가네왕족발","tel":"031-767-5014","addr":"경기도 광주시 경안동 33-24번지 1층","indutype":"일반휴게음식 - 일반한식","category":"restaurant"}]},{"lat":"37.412392","long":"127.2540059","imageIndex":4,"items":[{"name":"김밥세상","tel":"031-766-8613","addr":"경기도 광주시 경안동 92-8번지","indutype":"일반휴게음식 - 스넥","category":"restaurant"},{"name":"오복미 락 호프","tel":"031-797-5575","addr":"경기도 광주시 경안동 92-8번지 1층","indutype":"일반휴게음식 - 주점","category":"restaurant"}]},{"lat":"37.41036566","long":"127.2577831","imageIndex":4,"items":[{"name":"김밥천국","tel":"031-0000-0000","addr":"경기도 광주시 경안동 54-14번지 1층","indutype":"일반휴게음식 - 스넥","category":"restaurant"}]},{"lat":"37.4124702","long":"127.2553616","imageIndex":4,"items":[{"name":"김밥천국","tel":"031-766-8682","addr":"경기도 광주시 경안동 82-12번지 1층","indutype":"일반휴게음식 - 스넥","category":"restaurant"}]},{"lat":"37.41125308","long":"127.2514719","imageIndex":4,"items":[{"name":"까만돼지","tel":"031-769-7422","addr":"경기도 광주시 경안동 156-17번지 블루스카이맨션 101호","indutype":"일반휴게음식 - 일반한식","category":"restaurant"},{"name":"달빛호프","tel":"","addr":"경기도 광주시 경안동 156-17번지 블루스카이맨션","indutype":"일반휴게음식 - 일반한식","category":"restaurant"},{"name":"파도횟집","tel":"031-761-2586","addr":"경기도 광주시 경안동 156-17번지 지하1층 B103호","indutype":"일반휴게음식 - 일반한식","category":"restaurant"}]},{"lat":"37.41286078","long":"127.2622307","imageIndex":4,"items":[{"name":"까페 PABALO(파발로)","tel":"031-766-7493","addr":"경기도 광주시 경안동 418-3번지 2층","indutype":"일반휴게음식 - 서양음식","category":"restaurant"}]},{"lat":"37.40966599","long":"127.2563349","imageIndex":4,"items":[{"name":"꼬마마녀김밥","tel":"031-762-0083","addr":"경기도 광주시 경안동 36-94번지 1층","indutype":"일반휴게음식 - 스넥","category":"restaurant"}]},{"lat":"37.41089413","long":"127.2592307","imageIndex":4,"items":[{"name":"꼬지사께 (경안점)","tel":"031-761-0145","addr":"경기도 광주시 경안동 20-2번지","indutype":"일반휴게음식 - 주점","category":"restaurant"},{"name":"다깡 경안점","tel":"","addr":"경기도 광주시 경안동 20-2번지 1층","indutype":"일반휴게음식 - 일반한식","category":"restaurant"},{"name":"더맛있는족발보쌈","tel":"031-000-0000","addr":"경기도 광주시 경안동 20-2번지 1동","indutype":"일반휴게음식 - 일반한식","category":"restaurant"},{"name":"불난맥주(경안점)","tel":"031-763-6549","addr":"경기도 광주시 경안동 20-2번지 102호","indutype":"일반휴게음식 - 일반한식","category":"restaurant"},{"name":"술로","tel":"","addr":"경기도 광주시 경안동 20-2번지 2동 2층","indutype":"일반휴게음식 - 주점","category":"restaurant"},{"name":"스왈로","tel":"031-797-8778","addr":"경기도 광주시 경안동 20-2번지","indutype":"일반휴게음식 - 주점","category":"restaurant"},{"name":"오늘와인한잔 광주터미널점","tel":"031-529-9149","addr":"경기도 광주시 경안동 20-2번지 1동 1층 1호","indutype":"일반휴게음식 - 칵테일바","category":"restaurant"},{"name":"오늘통닭1977","tel":"031-762-5977","addr":"경기도 광주시 경안동 20-2번지 1동","indutype":"일반휴게음식 - 스넥","category":"restaurant"}]},{"lat":"37.40933446","long":"127.2554754","imageIndex":4,"items":[{"name":"꼬치랜드","tel":"070-4922-1261","addr":"경기도 광주시 경안동 36-46번지","indutype":"일반휴게음식 - 일반한식","category":"restaurant"},{"name":"너나들이","tel":"031-798-2929","addr":"경기도 광주시 경안동 36-46(경안로42번길7)","indutype":"일반휴게음식 - 스넥","category":"restaurant"}]},{"lat":"37.41272236","long":"127.255419","imageIndex":4,"items":[{"name":"꼼씨네숯불꼼장어","tel":"031-797-5646","addr":"경기도 광주시 경안동 81-35번지","indutype":"일반휴게음식 - 일반한식","category":"restaurant"},{"name":"우리집김밥","tel":"031-798-1999","addr":"경기도 광주시 경안동 81-35번지 1층","indutype":"일반휴게음식 - 스넥","category":"restaurant"}]},{"lat":"37.41236722","long":"127.252944","imageIndex":4,"items":[{"name":"꿍시꿍시","tel":"031-768-9620","addr":"경기도 광주시 경안동 151-1번지","indutype":"일반휴게음식 - 일반한식","category":"restaurant"}]},{"lat":"37.4095306","long":"127.2564474","imageIndex":4,"items":[{"name":"나고야참치","tel":"031-797-3444","addr":"경기도 광주시 경안동 36-53번지","indutype":"일반휴게음식 - 일식·회집","category":"restaurant"},{"name":"맥주벙커","tel":"031-766-8689","addr":"경기도 광주시 경안동 36-53번지 한솔빌딩","indutype":"일반휴게음식 - 주점","category":"restaurant"},{"name":"순이네제주토종흑돼지","tel":"031-761-0335","addr":"경기도 광주시 경안동 36-53번지 한솔빌딩 1층","indutype":"일반휴게음식 - 일반한식","category":"restaurant"},{"name":"환상양꼬치","tel":"031-769-9279","addr":"경기도 광주시 경안동 36-53번지 한솔빌딩","indutype":"일반휴게음식 - 일반한식","category":"restaurant"}]},{"lat":"37.4116714","long":"127.2581151","imageIndex":4,"items":[{"name":"나성갈비","tel":"031-762-4292","addr":"경기도 광주시 경안동 63-7번지 1층","indutype":"일반휴게음식 - 일반한식","category":"restaurant"}]},{"lat":"37.41150219","long":"127.2571996","imageIndex":4,"items":[{"name":"날으는완다비어","tel":"031-769-1680","addr":"경기도 광주시 경안동 71-7번지 2층","indutype":"일반휴게음식 - 주점","category":"restaurant"}]},{"lat":"37.41225584","long":"127.2544799","imageIndex":4,"items":[{"name":"낭만기타","tel":"031-000-0000","addr":"경기도 광주시 경안동 83-10번지 2층","indutype":"일반휴게음식 - 일반한식","category":"restaurant"},{"name":"소주와호프의만남","tel":"031-761-6484","addr":"경기도 광주시 경안동 83-10번지 18","indutype":"일반휴게음식 - 주점","category":"restaurant"},{"name":"정목생고기","tel":"031-768-9050","addr":"경기도 광주시 경안동 83-10번지","indutype":"일반휴게음식 - 일반한식","category":"restaurant"}]},{"lat":"37.41427862","long":"127.2523404","imageIndex":4,"items":[{"name":"낭만차이나","tel":"031-797-7989","addr":"경기도 광주시 경안동 96-7번지 파크빌딩","indutype":"일반휴게음식 - 중국식","category":"restaurant"},{"name":"영양순대국","tel":"031-761-7727","addr":"경기도 광주시 경안동 96-7번지 파크빌딩","indutype":"일반휴게음식 - 일반한식","category":"restaurant"}]},{"lat":"37.4129147","long":"127.2539512","imageIndex":4,"items":[{"name":"냉돈고","tel":"031-761-7617","addr":"경기도 광주시 경안동 95-5번지 1층 101호","indutype":"일반휴게음식 - 일반한식","category":"restaurant"},{"name":"여기서보세","tel":"","addr":"경기도 광주시 경안동 95-5번지 1층","indutype":"일반휴게음식 - 일반한식","category":"restaurant"},{"name":"짬뽕만","tel":"031-765-5077","addr":"경기도 광주시 경안동 95-5번지","indutype":"일반휴게음식 - 중국식","category":"restaurant"}]},{"lat":"37.41025092","long":"127.2566757","imageIndex":4,"items":[{"name":"네이밍카페 CAFE랑#2","tel":"031-797-7212","addr":"경기도 광주시 경안동 49-11번지","indutype":"일반휴게음식 - 서양음식","category":"restaurant"}]},{"lat":"37.4098894","long":"127.2571941","imageIndex":4,"items":[{"name":"누나홀닭(경기광주점)","tel":"031-763-9399","addr":"경기도 광주시 경안동 35-10번지","indutype":"일반휴게음식 - 스넥","category":"restaurant"}]},{"lat":"37.40916553","long":"127.2586148","imageIndex":4,"items":[{"name":"니뽕내뽕","tel":"031-8027-2648","addr":"경기도 광주시 경안동 28-1번지 2층","indutype":"일반휴게음식 - 중국식","category":"restaurant"}]},{"lat":"37.41033401","long":"127.2599178","imageIndex":4,"items":[{"name":"다께야","tel":"031-764-5571","addr":"경기도 광주시 경안동 21-1번지 1층","indutype":"일반휴게음식 - 주점","category":"restaurant"},{"name":"비너스","tel":"031-797-9033","addr":"경기도 광주시 경안동 21-1번지 2층","indutype":"일반휴게음식 - 주점","category":"restaurant"}]},{"lat":"37.40961554","long":"127.2588423","imageIndex":4,"items":[{"name":"다채울라이프","tel":"031-798-7008","addr":"경기도 광주시 경안동 30-4번지 터미널빌딩 1층","indutype":"일반휴게음식 - 서양음식","category":"restaurant"},{"name":"육쌈냉면","tel":"031-768-6392","addr":"경기도 광주시 경안동 30-4번지 1층","indutype":"일반휴게음식 - 일반한식","category":"restaurant"}]},{"lat":"37.41125497","long":"127.2590286","imageIndex":4,"items":[{"name":"달","tel":"031-769-0972","addr":"경기도 광주시 경안동 19-8번지 2층","indutype":"일반휴게음식 - 주점","category":"restaurant"},{"name":"달봉감자","tel":"031-762-2290","addr":"경기도 광주시 경안동 19-8번지","indutype":"일반휴게음식 - 주점","category":"restaurant"},{"name":"인앤아웃","tel":"031-768-7799","addr":"경기도 광주시 경안동 19-8번지 정석빌딩 1층 나","indutype":"일반휴게음식 - 서양음식","category":"restaurant"},{"name":"토반전통가","tel":"031-766-5056","addr":"경기도 광주시 경안동 19-8번지","indutype":"일반휴게음식 - 서양음식","category":"restaurant"}]},{"lat":"37.41122872","long":"127.258667","imageIndex":4,"items":[{"name":"달밤","tel":"031-795-8689","addr":"경기도 광주시 경안동 60-1번지 신아빌딩","indutype":"일반휴게음식 - 주점","category":"restaurant"},{"name":"커피방","tel":"070-7757-1302","addr":"경기도 광주시 경안동 60-1번지 신아빌딩","indutype":"일반휴게음식 - 서양음식","category":"restaurant"}]},{"lat":"37.40986213","long":"127.257307","imageIndex":4,"items":[{"name":"닭터네","tel":"031-762-5592","addr":"경기도 광주시 경안동 35-6번지","indutype":"일반휴게음식 - 일반한식","category":"restaurant"}]},{"lat":"37.40983834","long":"127.2599726","imageIndex":4,"items":[{"name":"더지니어스","tel":"031-765-3179","addr":"경기도 광주시 경안동 22-2번지 3층","indutype":"일반휴게음식 - 서양음식","category":"restaurant"}]},{"lat":"37.41058149","long":"127.2579758","imageIndex":4,"items":[{"name":"더퐁당와플","tel":"","addr":"경기도 광주시 경안동 54-1번지 1층","indutype":"일반휴게음식 - 서양음식","category":"restaurant"}]},{"lat":"37.4073943","long":"127.2483418","imageIndex":4,"items":[{"name":"덕향","tel":"031-762-5589","addr":"경기도 광주시 경안동 201-1번지 1층","indutype":"일반휴게음식 - 중국식","category":"restaurant"}]},{"lat":"37.40983665","long":"127.256584","imageIndex":4,"items":[{"name":"덕향(퓨전)짬뽕집2호점","tel":"031-761-7607","addr":"경기도 광주시 경안동 36-3번지","indutype":"일반휴게음식 - 중국식","category":"restaurant"},{"name":"뜰안옹심이","tel":"031-761-8723","addr":"경기도 광주시 경안동 36-3번지","indutype":"일반휴게음식 - 일반한식","category":"restaurant"},{"name":"오가츠","tel":"031-769-1789","addr":"경기도 광주시 경안동 36-3번지 101호","indutype":"일반휴게음식 - 일식·회집","category":"restaurant"},{"name":"킹차이나","tel":"031-765-7630","addr":"경기도 광주시 경안동 36-3번지 1층","indutype":"일반휴게음식 - 중국식","category":"restaurant"}]},{"lat":"37.40883896","long":"127.2554511","imageIndex":4,"items":[{"name":"도시속바다회포차","tel":"031-768-2585","addr":"경기도 광주시 경안동 38-41번지 1층","indutype":"일반휴게음식 - 일반한식","category":"restaurant"}]},{"lat":"37.41094536","long":"127.2563618","imageIndex":4,"items":[{"name":"도시화","tel":"070-8808-4858","addr":"경기도 광주시 경안동 50-10번지","indutype":"일반휴게음식 - 서양음식","category":"restaurant"}]},{"lat":"37.40867381","long":"127.2568399","imageIndex":4,"items":[{"name":"돈&밥","tel":"031-769-7664","addr":"경기도 광주시 경안동 33-42번지","indutype":"일반휴게음식 - 일반한식","category":"restaurant"}]},{"lat":"37.41178407","long":"127.2517561","imageIndex":4,"items":[{"name":"돈키돈키","tel":"031-767-8482","addr":"경기도 광주시 경안동 154-3번지","indutype":"일반휴게음식 - 스넥","category":"restaurant"},{"name":"오징어마을","tel":"031-768-5553","addr":"경기도 광주시 경안동 154-3번지","indutype":"일반휴게음식 - 일반한식","category":"restaurant"}]},{"lat":"37.4145894","long":"127.2502291","imageIndex":4,"items":[{"name":"동선참치","tel":"031-766-3785","addr":"경기도 광주시 경안동 433-19번지","indutype":"일반휴게음식 - 일식·회집","category":"restaurant"},{"name":"불티꼼장어","tel":"031-761-3092","addr":"경기도 광주시 경안동 433-19번지","indutype":"일반휴게음식 - 일반한식","category":"restaurant"}]},{"lat":"37.41450163","long":"127.2491105","imageIndex":4,"items":[{"name":"두갸르송","tel":"031-766-2567","addr":"경기도 광주시 경안동 128-13번지","indutype":"일반휴게음식 - 서양음식","category":"restaurant"}]},{"lat":"37.40931064","long":"127.2581748","imageIndex":4,"items":[{"name":"두끼(광주경안점)","tel":"031-767-2771","addr":"경기도 광주시 경안동 31-13번지","indutype":"일반휴게음식 - 스넥","category":"restaurant"}]},{"lat":"37.41369281","long":"127.2524176","imageIndex":4,"items":[{"name":"두찜 광주 경안점","tel":"070-1111-1111","addr":"경기도 광주시 경안동 124-23번지 1층","indutype":"일반휴게음식 - 일반한식","category":"restaurant"}]},{"lat":"37.40964594","long":"127.2530593","imageIndex":4,"items":[{"name":"디스페이스(D-SPACE)","tel":"031-797-8325","addr":"경기도 광주시 경안동 47-34번지 1층","indutype":"일반휴게음식 - 서양음식","category":"restaurant"}]},{"lat":"37.41275148","long":"127.2501666","imageIndex":4,"items":[{"name":"뚱뚱이할머니족발보쌈","tel":"031-769-5441","addr":"경기도 광주시 경안동 134-11번지","indutype":"일반휴게음식 - 일반한식","category":"restaurant"}]},{"lat":"37.41294713","long":"127.2556456","imageIndex":4,"items":[{"name":"라이브축제","tel":"031-769-9588","addr":"경기도 광주시 경안동 80-9번지","indutype":"일반휴게음식 - 서양음식","category":"restaurant"},{"name":"우리집닭강정","tel":"031-763-4024","addr":"경기도 광주시 경안동 80-9번지","indutype":"일반휴게음식 - 스넥","category":"restaurant"},{"name":"유미네우렁쌈밥","tel":"031-767-3144","addr":"경기도 광주시 경안동 80-9번지","indutype":"일반휴게음식 - 일반한식","category":"restaurant"},{"name":"카페괜찮아","tel":"031-1111-1111","addr":"경기도 광주시 경안동 80-9번지","indutype":"일반휴게음식 - 서양음식","category":"restaurant"}]},{"lat":"37.41255598","long":"127.2615293","imageIndex":4,"items":[{"name":"램브로 양꼬치","tel":"070-8162-5678","addr":"경기도 광주시 경안동 421번지 1층","indutype":"일반휴게음식 - 일반한식","category":"restaurant"}]},{"lat":"37.41247897","long":"127.2554746","imageIndex":4,"items":[{"name":"로컬local","tel":"031-797-9943","addr":"경기도 광주시 경안동 81-6번지","indutype":"일반휴게음식 - 일반한식","category":"restaurant"},{"name":"옛가손칼국수","tel":"031-766-2250","addr":"경기도 광주시 경안동 81-6번지","indutype":"일반휴게음식 - 일반한식","category":"restaurant"}]},{"lat":"37.41303383","long":"127.2572273","imageIndex":4,"items":[{"name":"롯데리아경안제일점","tel":"031-761-8282","addr":"경기도 광주시 경안동 74-17번지","indutype":"일반휴게음식 - 서양음식","category":"restaurant"}]},{"lat":"37.41308865","long":"127.2610342","imageIndex":4,"items":[{"name":"루블린카페","tel":"02-2017-7729","addr":"경기도 광주시 경안동 417-1번지 1층","indutype":"일반휴게음식 - 서양음식","category":"restaurant"},{"name":"밥을드림","tel":"031-761-3512","addr":"경기도 광주시 경안동 417-1번지 1층","indutype":"일반휴게음식 - 일반한식","category":"restaurant"}]},{"lat":"37.41022323","long":"127.2569806","imageIndex":4,"items":[{"name":"리가쏠까내가쏠까","tel":"070-8150-4558","addr":"경기도 광주시 경안동 52-5번지","indutype":"일반휴게음식 - 주점","category":"restaurant"},{"name":"요거홀릭","tel":"031-765-7256","addr":"경기도 광주시 경안동 52-5번지","indutype":"일반휴게음식 - 스넥","category":"restaurant"}]},{"lat":"37.41006142","long":"127.2568107","imageIndex":4,"items":[{"name":"마리웨일마카롱(경기광주경안점)","tel":"031-798-7770","addr":"경기도 광주시 경안동 35-1번지 1층","indutype":"일반휴게음식 - 서양음식","category":"restaurant"},{"name":"씨엡립앙코르","tel":"031-000-0000","addr":"경기도 광주시 경안동 35-1번지","indutype":"일반휴게음식 - 일반한식","category":"restaurant"}]},{"lat":"37.41441577","long":"127.251392","imageIndex":4,"items":[{"name":"만랩커피 경기광주점","tel":"031-767-0326","addr":"경기도 광주시 경안동 440번지 1층","indutype":"일반휴게음식 - 서양음식","category":"restaurant"}]},{"lat":"37.41244541","long":"127.2543111","imageIndex":4,"items":[{"name":"맛때루","tel":"070-7793-3802","addr":"경기도 광주시 경안동 93-3번지 1층","indutype":"일반휴게음식 - 일반한식","category":"restaurant"},{"name":"인사동","tel":"031-797-3322","addr":"경기도 광주시 경안동 93-3번지","indutype":"일반휴게음식 - 주점","category":"restaurant"},{"name":"토마토도시락(경안점)","tel":"031-761-8211","addr":"경기도 광주시 경안동 93-3번지 103호","indutype":"일반휴게음식 - 일반한식","category":"restaurant"}]},{"lat":"37.41078347","long":"127.2562257","imageIndex":4,"items":[{"name":"맛있게즐겁게먹고가는분식","tel":"031-762-2723","addr":"경기도 광주시 경안동 50-8번지","indutype":"일반휴게음식 - 스넥","category":"restaurant"},{"name":"북문로떡볶이","tel":"031-699-8710","addr":"경기도 광주시 경안동 50-8번지","indutype":"일반휴게음식 - 일반한식","category":"restaurant"},{"name":"이삭토스트","tel":"031-766-2727","addr":"경기도 광주시 경안동 50-8번지 1층","indutype":"일반휴게음식 - 서양음식","category":"restaurant"}]},{"lat":"37.41339412","long":"127.2530604","imageIndex":4,"items":[{"name":"맛있는피자치킨","tel":"031-761-7482","addr":"경기도 광주시 경안동 91-9번지 대광빌딩 101호","indutype":"일반휴게음식 - 서양음식","category":"restaurant"},{"name":"해태포차","tel":"","addr":"경기도 광주시 경안동 91-9번지 대광빌딩 1층 2호","indutype":"일반휴게음식 - 주점","category":"restaurant"},{"name":"희수푸드","tel":"031-766-2533","addr":"경기도 광주시 경안동 91-9번지 대광빌딩 1층","indutype":"일반휴게음식 - 일반한식","category":"restaurant"}]},{"lat":"37.4096649","long":"127.2568432","imageIndex":4,"items":[{"name":"맛조은칼국수","tel":"031-766-6607","addr":"경기도 광주시 경안동 33-7번지","indutype":"일반휴게음식 - 일반한식","category":"restaurant"}]},{"lat":"37.4124172","long":"127.2548645","imageIndex":4,"items":[{"name":"먹자집","tel":"031-764-0533","addr":"경기도 광주시 경안동 83-6번지","indutype":"일반휴게음식 - 일반한식","category":"restaurant"},{"name":"명품수제돈까스","tel":"031-798-4886","addr":"경기도 광주시 경안동 83-6번지","indutype":"일반휴게음식 - 일반한식","category":"restaurant"},{"name":"찐빠닭발&포차","tel":"031-764-2499","addr":"경기도 광주시 경안동 83-6번지","indutype":"일반휴게음식 - 일반한식","category":"restaurant"}]},{"lat":"37.40972715","long":"127.2572274","imageIndex":4,"items":[{"name":"먹태와 짝태","tel":"031-766-3988","addr":"경기도 광주시 경안동 35-8번지 1층","indutype":"일반휴게음식 - 주점","category":"restaurant"},{"name":"인세인","tel":"070-8811-0177","addr":"경기도 광주시 경안동 35-8번지 2층","indutype":"일반휴게음식 - 주점","category":"restaurant"},{"name":"피자스쿨 광주경안점","tel":"031-766-1104","addr":"경기도 광주시 경안동 35-8번지","indutype":"일반휴게음식 - 서양음식","category":"restaurant"}]},{"lat":"37.41136614","long":"127.257617","imageIndex":4,"items":[{"name":"명인만두광주점","tel":"031-764-3985","addr":"경기도 광주시 경안동 71-3번지","indutype":"일반휴게음식 - 스넥","category":"restaurant"}]},{"lat":"37.41139402","long":"127.2572218","imageIndex":4,"items":[{"name":"모로미식당","tel":"031-763-1465","addr":"경기도 광주시 경안동 71-9번지 2층","indutype":"일반휴게음식 - 서양음식","category":"restaurant"}]},{"lat":"37.41244387","long":"127.255034","imageIndex":4,"items":[{"name":"못난이꽈배기","tel":"031-762-9688","addr":"경기도 광주시 경안동 82-3번지","indutype":"일반휴게음식 - 일반한식","category":"restaurant"}]},{"lat":"37.41030661","long":"127.2600871","imageIndex":4,"items":[{"name":"무한포차","tel":"031-798-7818","addr":"경기도 광주시 경안동 21-7번지 4층","indutype":"일반휴게음식 - 주점","category":"restaurant"}]},{"lat":"37.41372188","long":"127.2514462","imageIndex":4,"items":[{"name":"문화로120","tel":"031-761-2321","addr":"경기도 광주시 경안동 125-8번지 1층","indutype":"일반휴게음식 - 서양음식","category":"restaurant"}]},{"lat":"37.41239483","long":"127.2568976","imageIndex":4,"items":[{"name":"미스터보쌈&닭찜광주점","tel":"031-762-5379","addr":"경기도 광주시 경안동 73-20번지","indutype":"일반휴게음식 - 일반한식","category":"restaurant"},{"name":"요거프레소","tel":"","addr":"경기도 광주시 경안동 73-20번지 1층","indutype":"일반휴게음식 - 서양음식","category":"restaurant"}]},{"lat":"37.40972192","long":"127.2596446","imageIndex":4,"items":[{"name":"미스터피자 경기광주","tel":"031-797-9223","addr":"경기도 광주시 경안동 24-18번지","indutype":"일반휴게음식 - 서양음식","category":"restaurant"},{"name":"미카도","tel":"031-761-5581","addr":"경기도 광주시 경안동 24-18번지 대명빌딩","indutype":"일반휴게음식 - 일식·회집","category":"restaurant"}]},{"lat":"37.41044867","long":"127.256891","imageIndex":4,"items":[{"name":"밀크로지","tel":"","addr":"경기도 광주시 경안동 51-5번지 1층","indutype":"일반휴게음식 - 서양음식","category":"restaurant"},{"name":"추억의7080","tel":"031-761-0030","addr":"경기도 광주시 경안동 51-5번지","indutype":"일반휴게음식 - 주점","category":"restaurant"}]},{"lat":"37.4118946","long":"127.2590646","imageIndex":4,"items":[{"name":"밥아~고기랑놀자","tel":"031-766-0531","addr":"경기도 광주시 경안동 12-3번지 102호","indutype":"일반휴게음식 - 일반한식","category":"restaurant"},{"name":"스시순","tel":"031-766-1410","addr":"경기도 광주시 경안동 12-3번지 1층 103호","indutype":"일반휴게음식 - 일식·회집","category":"restaurant"}]},{"lat":"37.4138387","long":"127.2515934","imageIndex":4,"items":[{"name":"방이샤브샤브칼국수 광주점","tel":"031-763-5325","addr":"경기도 광주시 경안동 124-9번지 1층","indutype":"일반휴게음식 - 일반한식","category":"restaurant"}]},{"lat":"37.40805781","long":"127.2541722","imageIndex":4,"items":[{"name":"배달삼겹갈통삼 경안점","tel":"031-766-4158","addr":"경기도 광주시 경안동 38-168번지","indutype":"일반휴게음식 - 일반한식","category":"restaurant"},{"name":"카페머랭","tel":"031-000-0000","addr":"경기도 광주시 경안동 38-168번지","indutype":"일반휴게음식 - 서양음식","category":"restaurant"}]},{"lat":"37.40897747","long":"127.2580833","imageIndex":4,"items":[{"name":"버블","tel":"031-767-0866","addr":"경기도 광주시 경안동 32-9번지","indutype":"일반휴게음식 - 일반한식","category":"restaurant"}]},{"lat":"37.41247054","long":"127.2552035","imageIndex":4,"items":[{"name":"베가스푸드시스템","tel":"031-765-7008","addr":"경기도 광주시 경안동 82-11번지","indutype":"일반휴게음식 - 서양음식","category":"restaurant"}]},{"lat":"37.41311618","long":"127.2608083","imageIndex":4,"items":[{"name":"베요타","tel":"031-798-7037","addr":"경기도 광주시 경안동 417번지 1층","indutype":"일반휴게음식 - 일반한식","category":"restaurant"}]},{"lat":"37.41210925","long":"127.2556202","imageIndex":4,"items":[{"name":"베이커스마인드","tel":"","addr":"경기도 광주시 경안동 72-59번지","indutype":"일반휴게음식 - 서양음식","category":"restaurant"},{"name":"참치데이","tel":"031-763-3314","addr":"경기도 광주시 경안동 72-59번지 1층","indutype":"일반휴게음식 - 일식·회집","category":"restaurant"}]},{"lat":"37.40889273","long":"127.2555868","imageIndex":4,"items":[{"name":"보라포차파전","tel":"031-764-8458","addr":"경기도 광주시 경안동 38-26번지 1층","indutype":"일반휴게음식 - 일반한식","category":"restaurant"}]},{"lat":"37.41272762","long":"127.2571698","imageIndex":4,"items":[{"name":"복다방","tel":"031-762-6686","addr":"경기도 광주시 경안동 74-19번지 2층","indutype":"일반휴게음식 - 서양음식","category":"restaurant"},{"name":"불닭발동대문엽기떡볶이","tel":"031-798-8599","addr":"경기도 광주시 경안동 74-19번지 1층 103호","indutype":"일반휴게음식 - 스넥","category":"restaurant"}]},{"lat":"37.41028196","long":"127.2505312","imageIndex":4,"items":[{"name":"봄날","tel":"","addr":"경기도 광주시 경안동 157-8번지 계명빌딩 106호","indutype":"일반휴게음식 - 서양음식","category":"restaurant"}]},{"lat":"37.41019705","long":"127.2565852","imageIndex":4,"items":[{"name":"봉구스밥버거(경안점)","tel":"031-769-0902","addr":"경기도 광주시 경안동 49-10번지","indutype":"일반휴게음식 - 일반한식","category":"restaurant"},{"name":"왕십리야채곱창","tel":"031-797-9359","addr":"경기도 광주시 경안동 49-10번지","indutype":"일반휴게음식 - 일반한식","category":"restaurant"}]},{"lat":"37.41203122","long":"127.2583874","imageIndex":4,"items":[{"name":"부산갈매기","tel":"031-765-7775","addr":"경기도 광주시 경안동 65-6번지 1층","indutype":"일반휴게음식 - 일반한식","category":"restaurant"}]},{"lat":"37.41400509","long":"127.2495833","imageIndex":4,"items":[{"name":"부어치킨","tel":"031-797-9589","addr":"경기도 광주시 경안동 127번지 두진아파트 1층 3호","indutype":"일반휴게음식 - 스넥","category":"restaurant"}]},{"lat":"37.41350552","long":"127.251502","imageIndex":4,"items":[{"name":"북세통치킨호프","tel":"","addr":"경기도 광주시 경안동 125-10번지 1층","indutype":"일반휴게음식 - 주점","category":"restaurant"}]},{"lat":"37.40938727","long":"127.2560629","imageIndex":4,"items":[{"name":"브라운스토리","tel":"031-762-5032","addr":"경기도 광주시 경안동 36-17번지","indutype":"일반휴게음식 - 서양음식","category":"restaurant"}]},{"lat":"37.41283566","long":"127.2572041","imageIndex":4,"items":[{"name":"비비큐","tel":"031-765-1477","addr":"경기도 광주시 경안동 74-18번지","indutype":"일반휴게음식 - 스넥","category":"restaurant"}]},{"lat":"37.41219969","long":"127.251204","imageIndex":4,"items":[{"name":"비에이치씨(BHC) 경안점","tel":"031-764-9951","addr":"경기도 광주시 경안동 155번지","indutype":"일반휴게음식 - 스넥","category":"restaurant"}]},{"lat":"37.41033558","long":"127.2591949","imageIndex":4,"items":[{"name":"사랑해수산","tel":"031-763-8882","addr":"경기도 광주시 경안동 20-110번지 한신빌딩","indutype":"일반휴게음식 - 일식·회집","category":"restaurant"},{"name":"삼구포차경안점","tel":"070-8286-7494","addr":"경기도 광주시 경안동 20-110번지 한신빌딩 2층","indutype":"일반휴게음식 - 일반한식","category":"restaurant"},{"name":"하오츠양꼬치","tel":"031-769-8883","addr":"경기도 광주시 경안동 20-110번지 한신빌딩 1층","indutype":"일반휴게음식 - 중국식","category":"restaurant"}]},{"lat":"37.40989559","long":"127.2585044","imageIndex":4,"items":[{"name":"사이카츠","tel":"031-763-5877","addr":"경기도 광주시 경안동 57-5번지","indutype":"일반휴게음식 - 일반한식","category":"restaurant"}]},{"lat":"37.41433299","long":"127.2521938","imageIndex":4,"items":[{"name":"사조회참치","tel":"031-762-1147","addr":"경기도 광주시 경안동 97-23번지","indutype":"일반휴게음식 - 일식·회집","category":"restaurant"}]},{"lat":"37.40942154","long":"127.2568876","imageIndex":4,"items":[{"name":"삿뽀로의눈내리는날","tel":"031-767-8025","addr":"경기도 광주시 경안동 33-21번지 1층","indutype":"일반휴게음식 - 일식·회집","category":"restaurant"}]},{"lat":"37.4105031","long":"127.2567218","imageIndex":4,"items":[{"name":"샌드그립 경기광주경안점","tel":"031-1899-3272","addr":"경기도 광주시 경안동 51-4번지 1층","indutype":"일반휴게음식 - 서양음식","category":"restaurant"},{"name":"청춘 takoyaki","tel":"","addr":"경기도 광주시 경안동 51-4번지","indutype":"일반휴게음식 - 일반한식","category":"restaurant"}]},{"lat":"37.40985984","long":"127.2583687","imageIndex":4,"items":[{"name":"서울다방","tel":"031-761-8222","addr":"경기도 광주시 경안동 57-12번지","indutype":"일반휴게음식 - 서양음식","category":"restaurant"}]},{"lat":"37.40647845","long":"127.2511399","imageIndex":4,"items":[{"name":"서울호프","tel":"031-000-0000","addr":"경기도 광주시 경안동 189-14번지","indutype":"일반휴게음식 - 주점","category":"restaurant"}]},{"lat":"37.41358297","long":"127.2532305","imageIndex":4,"items":[{"name":"설맥","tel":"031-762-0728","addr":"경기도 광주시 경안동 122-22번지","indutype":"일반휴게음식 - 주점","category":"restaurant"}]},{"lat":"37.40972246","long":"127.2593961","imageIndex":4,"items":[{"name":"설빙경안점","tel":"070-0000-0000","addr":"경기도 광주시 경안동 24-20번지","indutype":"일반휴게음식 - 서양음식","category":"restaurant"}]},{"lat":"37.41339176","long":"127.2498976","imageIndex":4,"items":[{"name":"소담포차","tel":"031-732-7213","addr":"경기도 광주시 경안동 136-1번지 102호","indutype":"일반휴게음식 - 일반한식","category":"restaurant"},{"name":"해솔동태찜","tel":"031-768-3773","addr":"경기도 광주시 경안동 136-1번지","indutype":"일반휴게음식 - 일반한식","category":"restaurant"}]},{"lat":"37.41847231","long":"127.2416678","imageIndex":4,"items":[{"name":"소라네파전다됐네","tel":"031-765-7775","addr":"경기도 광주시 경안동 433-17번지 세현빌딩 1층","indutype":"일반휴게음식 - 일반한식","category":"restaurant"}]},{"lat":"37.41033983","long":"127.2572295","imageIndex":4,"items":[{"name":"소세지야 경기광주경안점","tel":"031-763-4679","addr":"경기도 광주시 경안동 52-6번지","indutype":"일반휴게음식 - 일반한식","category":"restaurant"},{"name":"영분식","tel":"031-761-5043","addr":"경기도 광주시 경안동 52-6번지","indutype":"일반휴게음식 - 스넥","category":"restaurant"}]},{"lat":"37.41258205","long":"127.2536112","imageIndex":4,"items":[{"name":"송가네돈촌","tel":"031-798-2466","addr":"경기도 광주시 경안동 92-16번지","indutype":"일반휴게음식 - 일반한식","category":"restaurant"}]},{"lat":"37.40883533","long":"127.2571454","imageIndex":4,"items":[{"name":"송엘림치킨","tel":"031-767-0143","addr":"경기도 광주시 경안동 33-15번지 1층","indutype":"일반휴게음식 - 스넥","category":"restaurant"},{"name":"쉼터","tel":"","addr":"경기도 광주시 경안동 33-15번지","indutype":"일반휴게음식 - 주점","category":"restaurant"},{"name":"유에스에이","tel":"031-798-0069","addr":"경기도 광주시 경안동 33-15번지","indutype":"일반휴게음식 - 주점","category":"restaurant"}]},{"lat":"37.41344849","long":"127.2571384","imageIndex":4,"items":[{"name":"수연다방","tel":"031-764-3363","addr":"경기도 광주시 경안동 76번지","indutype":"일반휴게음식 - 서양음식","category":"restaurant"}]},{"lat":"37.40953296","long":"127.259531","imageIndex":4,"items":[{"name":"스시 현","tel":"031-798-0401","addr":"경기도 광주시 경안동 20-21번지 삼일빌딩","indutype":"일반휴게음식 - 일식·회집","category":"restaurant"},{"name":"육전무","tel":"031-767-8295","addr":"경기도 광주시 경안동 20-21번지 2층","indutype":"일반휴게음식 - 일반한식","category":"restaurant"},{"name":"콩심 (전주콩나물국밥)","tel":"031-766-0809","addr":"경기도 광주시 경안동 20-21번지 삼일빌딩","indutype":"일반휴게음식 - 일반한식","category":"restaurant"}]},{"lat":"37.41241537","long":"127.2557229","imageIndex":4,"items":[{"name":"스시야","tel":"031-764-3236","addr":"경기도 광주시 경안동 73-5번지 1층 103호","indutype":"일반휴게음식 - 일식·회집","category":"restaurant"},{"name":"카페휴가","tel":"","addr":"경기도 광주시 경안동 73-5번지","indutype":"일반휴게음식 - 서양음식","category":"restaurant"}]},{"lat":"37.41169457","long":"127.2514734","imageIndex":4,"items":[{"name":"시골민물매운탕","tel":"031-767-3566","addr":"경기도 광주시 경안동 156-9번지 1층","indutype":"일반휴게음식 - 일반한식","category":"restaurant"}]},{"lat":"37.41066598","long":"127.2563948","imageIndex":4,"items":[{"name":"신불떡볶이","tel":"031-797-7079","addr":"경기도 광주시 경안동 50-13번지 1층","indutype":"일반휴게음식 - 스넥","category":"restaurant"}]},{"lat":"37.40997095","long":"127.2569798","imageIndex":4,"items":[{"name":"신사골감자탕경안점","tel":"031-766-2882","addr":"경기도 광주시 경안동 35-2번지 동양빌딩 101호","indutype":"일반휴게음식 - 일반한식","category":"restaurant"},{"name":"장수본가해장국","tel":"031-769-2016","addr":"경기도 광주시 경안동 35-2번지 동양빌딩","indutype":"일반휴게음식 - 일반한식","category":"restaurant"}]},{"lat":"37.41186682","long":"127.2552241","imageIndex":4,"items":[{"name":"써니벨라(Sunny bella)","tel":"031-766-5081","addr":"경기도 광주시 경안동 72-60번지","indutype":"일반휴게음식 - 서양음식","category":"restaurant"}]},{"lat":"37.41014446","long":"127.2473342","imageIndex":4,"items":[{"name":"씨즈카페","tel":"032-592-1320","addr":"경기도 광주시 경안동 219-1번지 서울장신대 벨엘관 1층","indutype":"일반휴게음식 - 서양음식","category":"restaurant"}]},{"lat":"37.4131675","long":"127.2537035","imageIndex":4,"items":[{"name":"아르떼","tel":"031-762-4545","addr":"경기도 광주시 경안동 95-32번지 1층","indutype":"일반휴게음식 - 서양음식","category":"restaurant"}]},{"lat":"37.40997721","long":"127.2582562","imageIndex":4,"items":[{"name":"아마스빈 광주경안점","tel":"031-797-0611","addr":"경기도 광주시 경안동 56-17번지 1층","indutype":"일반휴게음식 - 서양음식","category":"restaurant"}]},{"lat":"37.40681227","long":"127.2509264","imageIndex":4,"items":[{"name":"아침닭(경안점)","tel":"031-761-1830","addr":"경기도 광주시 경안동 189-69번지 1층","indutype":"일반휴게음식 - 일반한식","category":"restaurant"}]},{"lat":"37.41422027","long":"127.2500924","imageIndex":4,"items":[{"name":"알토랑만두","tel":"031-767-9967","addr":"경기도 광주시 경안동 434-3번지","indutype":"일반휴게음식 - 스넥","category":"restaurant"}]},{"lat":"37.41289555","long":"127.254482","imageIndex":4,"items":[{"name":"야식공장 광주점","tel":"031-762-1475","addr":"경기도 광주시 경안동 83-21번지 신원플러스타운 1층 101-5호","indutype":"일반휴게음식 - 일반한식","category":"restaurant"},{"name":"회랑고기랑","tel":"031-768-7234","addr":"경기도 광주시 경안동 83-21번지 1층","indutype":"일반휴게음식 - 일반한식","category":"restaurant"}]},{"lat":"37.4087271","long":"127.2486737","imageIndex":4,"items":[{"name":"야식매니아","tel":"031-764-0606","addr":"경기도 광주시 경안동 209-3번지 장신빌딩 1층","indutype":"일반휴게음식 - 일반한식","category":"restaurant"}]},{"lat":"37.41014468","long":"127.2599736","imageIndex":4,"items":[{"name":"야채별미닭갈비","tel":"031-765-0192","addr":"경기도 광주시 경안동 22번지","indutype":"일반휴게음식 - 일반한식","category":"restaurant"},{"name":"쥬씨","tel":"070-4117-1028","addr":"경기도 광주시 경안동 22번지 101호","indutype":"일반휴게음식 - 서양음식","category":"restaurant"}]},{"lat":"37.41361524","long":"127.255004","imageIndex":4,"items":[{"name":"어화생선구이&조림","tel":"","addr":"경기도 광주시 경안동 81-4번지 1층","indutype":"일반휴게음식 - 일반한식","category":"restaurant"},{"name":"옛추억","tel":"031-761-9294","addr":"경기도 광주시 경안동 81-4번지","indutype":"일반휴게음식 - 주점","category":"restaurant"}]},{"lat":"37.41216747","long":"127.2536663","imageIndex":4,"items":[{"name":"언니s포차","tel":"031-761-3536","addr":"경기도 광주시 경안동 87-1번지 성신빌딩 1층","indutype":"일반휴게음식 - 일반한식","category":"restaurant"}]},{"lat":"37.41366437","long":"127.2530839","imageIndex":4,"items":[{"name":"엄마손도시락","tel":"031-765-4789","addr":"경기도 광주시 경안동 122-3번지","indutype":"일반휴게음식 - 일반한식","category":"restaurant"}]},{"lat":"37.41022673","long":"127.2595334","imageIndex":4,"items":[{"name":"엄마식당","tel":"031-813-1452","addr":"경기도 광주시 경안동 23번지","indutype":"일반휴게음식 - 일반한식","category":"restaurant"},{"name":"탐앤탐스 경기광주점","tel":"031-767-5100","addr":"경기도 광주시 경안동 23번지 2층","indutype":"일반휴게음식 - 서양음식","category":"restaurant"}]},{"lat":"37.40947438","long":"127.2574525","imageIndex":4,"items":[{"name":"엉터리생고기 (경안점)","tel":"031-761-8874","addr":"경기도 광주시 경안동 34-1번지 2층","indutype":"일반휴게음식 - 일반한식","category":"restaurant"}]},{"lat":"37.41877903","long":"127.2414768","imageIndex":4,"items":[{"name":"에이씨보드카페","tel":"031-797-0711","addr":"경기도 광주시 경안동 433-16번지 성운빌딩 6층","indutype":"일반휴게음식 - 일반한식","category":"restaurant"},{"name":"청담맥주","tel":"031-797-8142","addr":"경기도 광주시 경안동 433-16번지 성운빌딩 2층","indutype":"일반휴게음식 - 주점","category":"restaurant"}]},{"lat":"37.41089569","long":"127.2585078","imageIndex":4,"items":[{"name":"역발닭발","tel":"031-764-0088","addr":"경기도 광주시 경안동 58-1번지 1층","indutype":"일반휴게음식 - 일반한식","category":"restaurant"}]},{"lat":"37.40983563","long":"127.2570584","imageIndex":4,"items":[{"name":"옛고향순대","tel":"031-761-2784","addr":"경기도 광주시 경안동 35-3번지","indutype":"일반휴게음식 - 일반한식","category":"restaurant"}]},{"lat":"37.41278446","long":"127.255871","imageIndex":4,"items":[{"name":"옛날통닭","tel":"031-111-1111","addr":"경기도 광주시 경안동 79-11번지 1층","indutype":"일반휴게음식 - 스넥","category":"restaurant"}]},{"lat":"37.41088734","long":"127.2582028","imageIndex":4,"items":[{"name":"오늘은맑음","tel":"031-764-0709","addr":"경기도 광주시 경안동 60-4번지 1층","indutype":"일반휴게음식 - 일반한식","category":"restaurant"},{"name":"파스키친(Pa'skitchen)","tel":"","addr":"경기도 광주시 경안동 60-4번지 1층","indutype":"일반휴게음식 - 서양음식","category":"restaurant"}]},{"lat":"37.41413715","long":"127.2510635","imageIndex":4,"items":[{"name":"오리와도야지","tel":"031-761-9644","addr":"경기도 광주시 경안동 437-6번지","indutype":"일반휴게음식 - 일반한식","category":"restaurant"}]},{"lat":"37.41347879","long":"127.2556135","imageIndex":4,"items":[{"name":"옹고집숯불갈비","tel":"031-769-8272","addr":"경기도 광주시 경안동 79-3번지","indutype":"일반휴게음식 - 일반한식","category":"restaurant"}]},{"lat":"37.41394685","long":"127.2515825","imageIndex":4,"items":[{"name":"왕십리곱창","tel":"031-766-6835","addr":"경기도 광주시 경안동 124-7번지","indutype":"일반휴게음식 - 일반한식","category":"restaurant"}]},{"lat":"37.4117495","long":"127.255314","imageIndex":4,"items":[{"name":"왕짱구<중식>","tel":"031-769-8879","addr":"경기도 광주시 경안동 72-61번지","indutype":"일반휴게음식 - 중국식","category":"restaurant"},{"name":"왕짱구분식","tel":"070-9144-8877","addr":"경기도 광주시 경안동 72-61번지 1층","indutype":"일반휴게음식 - 스넥","category":"restaurant"}]},{"lat":"37.40986303","long":"127.256889","imageIndex":4,"items":[{"name":"요호","tel":"031-8027-3933","addr":"경기도 광주시 경안동 33-63번지 1층","indutype":"일반휴게음식 - 서양음식","category":"restaurant"}]},{"lat":"37.41141661","long":"127.2592776","imageIndex":4,"items":[{"name":"욜로라이브(YOLOLIVE)","tel":"","addr":"경기도 광주시 경안동 18-1번지 2층","indutype":"일반휴게음식 - 주점","category":"restaurant"}]},{"lat":"37.40897084","long":"127.2569764","imageIndex":4,"items":[{"name":"우리곱창","tel":"031-763-5695","addr":"경기도 광주시 경안동 33-14번지","indutype":"일반휴게음식 - 일반한식","category":"restaurant"},{"name":"한우집","tel":"031-797-0092","addr":"경기도 광주시 경안동 33-14번지","indutype":"일반휴게음식 - 일반한식","category":"restaurant"}]},{"lat":"37.40972822","long":"127.2567305","imageIndex":4,"items":[{"name":"우리집","tel":"031-798-6234","addr":"경기도 광주시 경안동 36-49번지 1층","indutype":"일반휴게음식 - 일반한식","category":"restaurant"}]},{"lat":"37.41289267","long":"127.2600056","imageIndex":4,"items":[{"name":"우리집","tel":"031-798-6657","addr":"경기도 광주시 경안동 9-8번지","indutype":"일반휴게음식 - 일반한식","category":"restaurant"}]},{"lat":"37.41394231","long":"127.2537287","imageIndex":4,"items":[{"name":"운동장맛집","tel":"031-764-4542","addr":"경기도 광주시 경안동 97-22번지 201호","indutype":"일반휴게음식 - 일반한식","category":"restaurant"}]},{"lat":"37.40997156","long":"127.2566974","imageIndex":4,"items":[{"name":"원조궁중숯불갈비","tel":"031-769-3871","addr":"경기도 광주시 경안동 254-19번지","indutype":"일반휴게음식 - 일반한식","category":"restaurant"}]},{"lat":"37.41163817","long":"127.2609727","imageIndex":4,"items":[{"name":"월남쌈김상사 광주경안점","tel":"031-766-9249","addr":"경기도 광주시 경안동 14-24번지 2층","indutype":"일반휴게음식 - 일반한식","category":"restaurant"}]},{"lat":"37.40866837","long":"127.2551682","imageIndex":4,"items":[{"name":"유가네오리밥상","tel":"031-764-3323","addr":"경기도 광주시 경안동 38-44번지","indutype":"일반휴게음식 - 일반한식","category":"restaurant"},{"name":"진미가마솥통닭","tel":"031-767-3775","addr":"경기도 광주시 경안동 38-44번지","indutype":"일반휴게음식 - 스넥","category":"restaurant"}]},{"lat":"37.41441489","long":"127.25181","imageIndex":4,"items":[{"name":"유림까페","tel":"031-763-7770","addr":"경기도 광주시 경안동 123-7번지","indutype":"일반휴게음식 - 서양음식","category":"restaurant"},{"name":"텀벙","tel":"031-8028-0788","addr":"경기도 광주시 경안동 123-7번지","indutype":"일반휴게음식 - 일반한식","category":"restaurant"}]},{"lat":"37.41377663","long":"127.2511188","imageIndex":4,"items":[{"name":"육꾼매니저","tel":"070-8118-8892","addr":"경기도 광주시 경안동 125-6번지 은광빌딩","indutype":"일반휴게음식 - 일반한식","category":"restaurant"}]},{"lat":"37.41266526","long":"127.2609988","imageIndex":4,"items":[{"name":"이너프커피바","tel":"","addr":"경기도 광주시 경안동 419번지 Cube419 101호","indutype":"일반휴게음식 - 서양음식","category":"restaurant"}]},{"lat":"37.41003008","long":"127.2588098","imageIndex":4,"items":[{"name":"이슬포장마차","tel":"031-767-4362","addr":"경기도 광주시 경안동 57-10번지","indutype":"일반휴게음식 - 주점","category":"restaurant"}]},{"lat":"37.40994881","long":"127.2588886","imageIndex":4,"items":[{"name":"이슬포차","tel":"","addr":"경기도 광주시 경안동 24-7번지","indutype":"일반휴게음식 - 일반한식","category":"restaurant"}]},{"lat":"37.41450516","long":"127.2517312","imageIndex":4,"items":[{"name":"이야기하는작은공간","tel":"031-761-4127","addr":"경기도 광주시 경안동 123-6번지","indutype":"일반휴게음식 - 서양음식","category":"restaurant"}]},{"lat":"37.41136428","long":"127.2584755","imageIndex":4,"items":[{"name":"일차돌","tel":"031-761-1771","addr":"경기도 광주시 경안동 62-1번지","indutype":"일반휴게음식 - 일반한식","category":"restaurant"}]},{"lat":"37.4111996","long":"127.2554477","imageIndex":4,"items":[{"name":"잔치집","tel":"031-477-2158","addr":"경기도 광주시 경안동 48-5번지 1층","indutype":"일반휴게음식 - 일반한식","category":"restaurant"}]},{"lat":"37.40936573","long":"127.2577006","imageIndex":4,"items":[{"name":"장터소머리국밥","tel":"031-764-1333","addr":"경기도 광주시 경안동 33-27번지","indutype":"일반휴게음식 - 일반한식","category":"restaurant"}]},{"lat":"37.41056174","long":"127.2587777","imageIndex":4,"items":[{"name":"전주감자탕","tel":"031-767-5959","addr":"경기도 광주시 경안동 20-4번지 광창빌딩 1층","indutype":"일반휴게음식 - 일반한식","category":"restaurant"},{"name":"춘천토종닭갈비","tel":"031-765-0192","addr":"경기도 광주시 경안동 20-4번지","indutype":"일반휴게음식 - 일반한식","category":"restaurant"}]},{"lat":"37.41228193","long":"127.2591111","imageIndex":4,"items":[{"name":"정순식당","tel":"031-767-6447","addr":"경기도 광주시 경안동 11-45번지","indutype":"일반휴게음식 - 일반한식","category":"restaurant"}]},{"lat":"37.41216839","long":"127.2574503","imageIndex":4,"items":[{"name":"제이엠(JM)푸드","tel":"","addr":"경기도 광주시 경안동 68-3번지 KT광주지점 2층","indutype":"일반휴게음식 - 위탁급식업","category":"restaurant"}]},{"lat":"37.40906119","long":"127.2568638","imageIndex":4,"items":[{"name":"종로빈대떡","tel":"031-761-2911","addr":"경기도 광주시 경안동 33-40번지","indutype":"일반휴게음식 - 일반한식","category":"restaurant"}]},{"lat":"37.41347842","long":"127.255783","imageIndex":4,"items":[{"name":"주문진횟집","tel":"031-764-7117","addr":"경기도 광주시 경안동 77-13번지 1층","indutype":"일반휴게음식 - 일식·회집","category":"restaurant"}]},{"lat":"37.4121126","long":"127.2582521","imageIndex":4,"items":[{"name":"주희생선조림전문","tel":"031-761-2959","addr":"경기도 광주시 경안동 65-5번지 1층","indutype":"일반휴게음식 - 일반한식","category":"restaurant"}]},{"lat":"37.41089214","long":"127.2601456","imageIndex":4,"items":[{"name":"죽이야기 참조은병원점","tel":"031-768-6288","addr":"경기도 광주시 경안동 20-61번지 참조은병원 1동","indutype":"일반휴게음식 - 일반한식","category":"restaurant"},{"name":"티트리카페베이커리","tel":"031-769-0033","addr":"경기도 광주시 경안동 20-61번지 1층","indutype":"일반휴게음식 - 서양음식","category":"restaurant"}]},{"lat":"37.41272325","long":"127.255001","imageIndex":4,"items":[{"name":"준라이브","tel":"031-762-1554","addr":"경기도 광주시 경안동 82-27번지 지하1층","indutype":"일반휴게음식 - 일반한식","category":"restaurant"}]},{"lat":"37.41449977","long":"127.2500029","imageIndex":4,"items":[{"name":"쭈꾸미아저씨","tel":"031-762-6077","addr":"경기도 광주시 경안동 434번지","indutype":"일반휴게음식 - 일반한식","category":"restaurant"}]},{"lat":"37.41139107","long":"127.2585885","imageIndex":4,"items":[{"name":"쭈꾸미아저씨","tel":"031-763-6077","addr":"경기도 광주시 경안동 61-1번지","indutype":"일반휴게음식 - 일반한식","category":"restaurant"}]},{"lat":"37.41353338","long":"127.2553652","imageIndex":4,"items":[{"name":"철뚝집 경안직영점","tel":"031-767-2253","addr":"경기도 광주시 경안동 80-4번지 대일빌딩","indutype":"일반휴게음식 - 일반한식","category":"restaurant"}]},{"lat":"37.4123387","long":"127.262003","imageIndex":4,"items":[{"name":"청석","tel":"031-764-3131","addr":"경기도 광주시 경안동 418-11번지","indutype":"일반휴게음식 - 일반한식","category":"restaurant"}]},{"lat":"37.40888822","long":"127.2534746","imageIndex":4,"items":[{"name":"청석골","tel":"031-761-0732","addr":"경기도 광주시 경안동 167-30번지","indutype":"일반휴게음식 - 일반한식","category":"restaurant"}]},{"lat":"37.41169633","long":"127.2590866","imageIndex":4,"items":[{"name":"청춘연가","tel":"031-762-5750","addr":"경기도 광주시 경안동 17-4번지","indutype":"일반휴게음식 - 일반한식","category":"restaurant"},{"name":"포아찌쌀국수/(주)강산에프앤비","tel":"02-1111-1111","addr":"경기도 광주시 경안동 17-4번지","indutype":"일반휴게음식 - 일반한식","category":"restaurant"}]},{"lat":"37.41235964","long":"127.2565021","imageIndex":4,"items":[{"name":"청춘쭈꾸미닭발","tel":"","addr":"경기도 광주시 경안동 73-13번지 1층","indutype":"일반휴게음식 - 일반한식","category":"restaurant"},{"name":"한우부추곱창","tel":"031-762-1348","addr":"경기도 광주시 경안동 73-13번지 1층","indutype":"일반휴게음식 - 일반한식","category":"restaurant"}]},{"lat":"37.41222296","long":"127.2613701","imageIndex":4,"items":[{"name":"초코동이광주점","tel":"","addr":"경기도 광주시 경안동 423-1번지","indutype":"일반휴게음식 - 서양음식","category":"restaurant"}]},{"lat":"37.4130862","long":"127.2538049","imageIndex":4,"items":[{"name":"최씨네산더미불고기","tel":"031-797-0203","addr":"경기도 광주시 경안동 95-11번지 1층","indutype":"일반휴게음식 - 일반한식","category":"restaurant"}]},{"lat":"37.41275678","long":"127.2561759","imageIndex":4,"items":[{"name":"칠링 (CHILLING)","tel":"031-000-0000","addr":"경기도 광주시 경안동 74-9번지 2층","indutype":"일반휴게음식 - 서양음식","category":"restaurant"},{"name":"카메","tel":"","addr":"경기도 광주시 경안동 74-9번지","indutype":"일반휴게음식 - 주점","category":"restaurant"},{"name":"택이네조개전골","tel":"031-763-5550","addr":"경기도 광주시 경안동 74-9번지 1층","indutype":"일반휴게음식 - 일반한식","category":"restaurant"}]},{"lat":"37.40697834","long":"127.2490633","imageIndex":4,"items":[{"name":"카페드바","tel":"031-764-0410","addr":"경기도 광주시 경안동 193-18번지 1층","indutype":"일반휴게음식 - 서양음식","category":"restaurant"}]},{"lat":"37.41116959","long":"127.256837","imageIndex":4,"items":[{"name":"카페모모2017","tel":"031-797-7373","addr":"경기도 광주시 경안동 71-11번지 1층","indutype":"일반휴게음식 - 서양음식","category":"restaurant"}]},{"lat":"37.41072536","long":"127.2581119","imageIndex":4,"items":[{"name":"카페별처럼","tel":"031-769-5429","addr":"경기도 광주시 경안동 58-5번지","indutype":"일반휴게음식 - 서양음식","category":"restaurant"}]},{"lat":"37.40672721","long":"127.2485091","imageIndex":4,"items":[{"name":"카페오름","tel":"031-000-0000","addr":"경기도 광주시 경안동 197번지","indutype":"일반휴게음식 - 서양음식","category":"restaurant"}]},{"lat":"37.41200279","long":"127.2548405","imageIndex":4,"items":[{"name":"커피나무","tel":"031-762-8331","addr":"경기도 광주시 경안동 83-30번지 1층","indutype":"일반휴게음식 - 서양음식","category":"restaurant"}]},{"lat":"37.41192237","long":"127.2502542","imageIndex":4,"items":[{"name":"커피내리는마을","tel":"070-8777-5885","addr":"경기도 광주시 경안동 144번지","indutype":"일반휴게음식 - 서양음식","category":"restaurant"},{"name":"커피내리는마을","tel":"070-7760-7563","addr":"경기도 광주시 경안동 144번지","indutype":"일반휴게음식 - 서양음식","category":"restaurant"}]},{"lat":"37.41427962","long":"127.251866","imageIndex":4,"items":[{"name":"커피에기대","tel":"031-762-7339","addr":"경기도 광주시 경안동 123-19번지","indutype":"일반휴게음식 - 서양음식","category":"restaurant"}]},{"lat":"37.41464161","long":"127.2511104","imageIndex":4,"items":[{"name":"커피이야기","tel":"031-769-5555","addr":"경기도 광주시 경안동 433-11번지","indutype":"일반휴게음식 - 서양음식","category":"restaurant"}]},{"lat":"37.40852923","long":"127.2570314","imageIndex":4,"items":[{"name":"커피트리","tel":"031-769-8819","addr":"경기도 광주시 경안동 33-19번지 1층","indutype":"일반휴게음식 - 서양음식","category":"restaurant"}]},{"lat":"37.41008175","long":"127.2514794","imageIndex":4,"items":[{"name":"커피퍼니","tel":"031-768-5321","addr":"경기도 광주시 경안동 164-19번지","indutype":"일반휴게음식 - 서양음식","category":"restaurant"}]},{"lat":"37.40913933","long":"127.2582307","imageIndex":4,"items":[{"name":"컴포즈커피 광주경안점","tel":"031-766-6232","addr":"경기도 광주시 경안동 32-1번지","indutype":"일반휴게음식 - 서양음식","category":"restaurant"}]},{"lat":"37.41108546","long":"127.2582486","imageIndex":4,"items":[{"name":"큐브","tel":"02-0000-0000","addr":"경기도 광주시 경안동 60-3번지 1층","indutype":"일반휴게음식 - 서양음식","category":"restaurant"}]},{"lat":"37.40995001","long":"127.2583351","imageIndex":4,"items":[{"name":"큰맘할매순대국","tel":"031-761-3337","addr":"경기도 광주시 경안동 57-4번지 1층","indutype":"일반휴게음식 - 일반한식","category":"restaurant"}]},{"lat":"37.413034","long":"127.2613051","imageIndex":4,"items":[{"name":"큰집추어탕","tel":"031-766-7509","addr":"경기도 광주시 경안동 417-2번지 1층","indutype":"일반휴게음식 - 일반한식","category":"restaurant"}]},{"lat":"37.40822199","long":"127.2574483","imageIndex":4,"items":[{"name":"타이아시아레스토랑","tel":"031-768-7747","addr":"경기도 광주시 경안동 33-26번지","indutype":"일반휴게음식 - 서양음식","category":"restaurant"}]},{"lat":"37.40997865","long":"127.2575897","imageIndex":4,"items":[{"name":"파스타마마","tel":"031-111-1111","addr":"경기도 광주시 경안동 55-1번지","indutype":"일반휴게음식 - 서양음식","category":"restaurant"},{"name":"혼다라멘 광주경안점","tel":"031-766-4620","addr":"경기도 광주시 경안동 55-1번지 1동 1층","indutype":"일반휴게음식 - 일반한식","category":"restaurant"}]},{"lat":"37.40906249","long":"127.2562538","imageIndex":4,"items":[{"name":"포비엣","tel":"031-767-1760","addr":"경기도 광주시 경안동 36-35번지 1층","indutype":"일반휴게음식 - 일반한식","category":"restaurant"}]},{"lat":"37.41222376","long":"127.2568405","imageIndex":4,"items":[{"name":"프리카페","tel":"031-798-5092","addr":"경기도 광주시 경안동 73-55번지 2층","indutype":"일반휴게음식 - 일반한식","category":"restaurant"}]},{"lat":"37.41038837","long":"127.2597824","imageIndex":4,"items":[{"name":"하남돼지집","tel":"031-762-9092","addr":"경기도 광주시 경안동 23-3번지 1층","indutype":"일반휴게음식 - 일반한식","category":"restaurant"}]},{"lat":"37.41458968","long":"127.2500936","imageIndex":4,"items":[{"name":"하카세","tel":"031-763-2247","addr":"경기도 광주시 경안동 433-20번지","indutype":"일반휴게음식 - 주점","category":"restaurant"},{"name":"하카세55","tel":"031-763-2247","addr":"경기도 광주시 경안동 433-20번지 1동","indutype":"일반휴게음식 - 일반한식","category":"restaurant"}]},{"lat":"37.41408285","long":"127.2511763","imageIndex":4,"items":[{"name":"한고방삼겹살","tel":"031-767-3232","addr":"경기도 광주시 경안동 437-7번지","indutype":"일반휴게음식 - 일반한식","category":"restaurant"}]},{"lat":"37.41022068","long":"127.2581666","imageIndex":4,"items":[{"name":"한스델리(경안점)","tel":"031-762-8268","addr":"경기도 광주시 경안동 56-9번지","indutype":"일반휴게음식 - 서양음식","category":"restaurant"}]},{"lat":"37.41030951","long":"127.2587543","imageIndex":4,"items":[{"name":"한신포차 광주경안점","tel":"031-768-3199","addr":"경기도 광주시 경안동 24-14번지","indutype":"일반휴게음식 - 주점","category":"restaurant"}]},{"lat":"37.41417114","long":"127.2520351","imageIndex":4,"items":[{"name":"해그리고달","tel":"","addr":"경기도 광주시 경안동 123-9번지","indutype":"일반휴게음식 - 일반한식","category":"restaurant"}]},{"lat":"37.41364363","long":"127.2500905","imageIndex":4,"items":[{"name":"해적선","tel":"031-763-3342","addr":"경기도 광주시 경안동 136-21번지","indutype":"일반휴게음식 - 일식·회집","category":"restaurant"}]},{"lat":"37.40816566","long":"127.2500273","imageIndex":4,"items":[{"name":"행복한찜닭/행복한가족 주식회사","tel":"02-1800-6903","addr":"경기도 광주시 경안동 175-5번지 1층 101호","indutype":"일반휴게음식 - 일반한식","category":"restaurant"}]},{"lat":"37.41233297","long":"127.2563326","imageIndex":4,"items":[{"name":"호돌이식당","tel":"031-761-0357","addr":"경기도 광주시 경안동 73-16번지 태영빌딩 1층","indutype":"일반휴게음식 - 중국식","category":"restaurant"},{"name":"후라이드참잘하는집","tel":"031-763-3803","addr":"경기도 광주시 경안동 73-16번지 태영빌딩 1층 102호","indutype":"일반휴게음식 - 스넥","category":"restaurant"}]},{"lat":"37.41447557","long":"127.2486473","imageIndex":4,"items":[{"name":"홍대칼국수와족발경기광주점","tel":"031-767-6988","addr":"경기도 광주시 경안동 128-9번지 1층","indutype":"일반휴게음식 - 일반한식","category":"restaurant"}]},{"lat":"37.41105589","long":"127.2594232","imageIndex":4,"items":[{"name":"황금분식","tel":"031-718-5436","addr":"경기도 광주시 경안동 19-1번지 1층","indutype":"일반휴게음식 - 스넥","category":"restaurant"}]},{"lat":"37.41375611","long":"127.2523048","imageIndex":4,"items":[{"name":"황금성","tel":"031-767-2351","addr":"경기도 광주시 경안동 124-22번지","indutype":"일반휴게음식 - 중국식","category":"restaurant"}]},{"lat":"37.41377879","long":"127.2543607","imageIndex":4,"items":[{"name":"회 모리","tel":"031-797-0412","addr":"경기도 광주시 경안동 98-4번지","indutype":"일반휴게음식 - 일식·회집","category":"restaurant"}]},{"lat":"37.41074833","long":"127.2558077","imageIndex":4,"items":[{"name":"휴게소먹방","tel":"070-8260-3322","addr":"경기도 광주시 경안동 49-3번지","indutype":"일반휴게음식 - 스넥","category":"restaurant"}]},{"lat":"37.41378166","long":"127.2530052","imageIndex":4,"items":[{"name":"흥부찜닭&삼겹본능&공수간(광주경안점)","tel":"031-761-0776","addr":"경기도 광주시 경안동 122-16번지","indutype":"일반휴게음식 - 일반한식","category":"restaurant"}]}]