[{"lat":"37.234794092","long":"126.9754756","imageIndex":7,"items":[{"name":"그린마트","tel":"","addr":"경기도 수원시 권선구 오목천동 824-1번지 꿈에그린 단지내상가 109호","indutype":"유통업 영리 - 슈퍼마켓","category":"mart"},{"name":"뉴할인마트","tel":"031-000-0000","addr":"경기도 수원시 권선구 오목천동 824-1번지 꿈에그린단지내상가2단지호","indutype":"유통업 영리 - 슈퍼마켓","category":"mart"}]},{"lat":"37.241575125","long":"126.96239986","imageIndex":7,"items":[{"name":"뉴하나마트","tel":"031-296-0049","addr":"경기도 수원시 권선구 오목천동 444-26번지 상가 1층","indutype":"유통업 영리 - 슈퍼마켓","category":"mart"}]},{"lat":"37.245657735","long":"126.96522662","imageIndex":7,"items":[{"name":"더드림마트","tel":"031-292-3608","addr":"경기도 수원시 권선구 오목천동 314-48번지 대유빌딩 B01호","indutype":"유통업 영리 - 슈퍼마켓","category":"mart"}]},{"lat":"37.245764898","long":"126.96231872","imageIndex":7,"items":[{"name":"부흥유통","tel":"031-236-0970","addr":"경기도 수원시 권선구 오목천동 363번지 태산 상가 105호","indutype":"유통업 영리 - 슈퍼마켓","category":"mart"}]},{"lat":"37.244882372","long":"126.96376183","imageIndex":7,"items":[{"name":"아이스비어","tel":"031-291-5494","addr":"경기도 수원시 권선구 오목천동 500-1번지","indutype":"유통업 영리 - 슈퍼마켓","category":"mart"}]},{"lat":"37.244710962","long":"126.9631195","imageIndex":7,"items":[{"name":"장보고할인마트","tel":"031-292-4980","addr":"경기도 수원시 권선구 오목천동 372-9번지","indutype":"유통업 영리 - 슈퍼마켓","category":"mart"}]},{"lat":"37.24145996","long":"126.96864353","imageIndex":7,"items":[{"name":"정민할인마트","tel":"031-296-2708","addr":"경기도 수원시 권선구 오목천동 545-11번지","indutype":"유통업 영리 - 슈퍼마켓","category":"mart"}]},{"lat":"37.243432874","long":"126.96745925","imageIndex":7,"items":[{"name":"중부마트","tel":"031-294-1547","addr":"경기도 수원시 권선구 오목천동 527-36번지","indutype":"유통업 영리 - 슈퍼마켓","category":"mart"}]},{"lat":"37.243018685","long":"126.96842869","imageIndex":7,"items":[{"name":"코사마트오목천점","tel":"031-294-2023","addr":"경기도 수원시 권선구 오목천동 227-9번지","indutype":"유통업 영리 - 슈퍼마켓","category":"mart"}]}]