[{"lat":"37.685771203","long":"127.20572243","imageIndex":13,"items":[{"name":"BY메디칼","tel":"031-564-1171","addr":"경기도 남양주시 오남읍 오남리 591-24 나동3층","indutype":"보건위생 - 의료용품","category":"beauty"}]},{"lat":"37.682079112","long":"127.20983882","imageIndex":13,"items":[{"name":"I.헤어토크","tel":"031-529-6428","addr":"경기도 남양주시 오남읍 오남리 525번지","indutype":"보건위생 - 미용원","category":"beauty"},{"name":"썸네일#","tel":"031-523-8243","addr":"경기도 남양주시 오남읍 오남리 525번지 104호","indutype":"보건위생 - 피부미용실","category":"beauty"},{"name":"유진엔젤헤어","tel":"031-575-3631","addr":"경기도 남양주시 오남읍 오남리 525번지 1층 105호","indutype":"보건위생 - 미용원","category":"beauty"}]},{"lat":"37.689299349","long":"127.21294267","imageIndex":13,"items":[{"name":"L&K헤이샵","tel":"031-573-9958","addr":"경기도 남양주시 오남읍 오남리 201번지 (B동6호)","indutype":"보건위생 - 미용원","category":"beauty"},{"name":"멋진남자","tel":"031-575-5031","addr":"경기도 남양주시 오남읍 오남리 201번지 A동 1층 3호","indutype":"보건위생 - 미용원","category":"beauty"}]},{"lat":"37.688055723","long":"127.21310922","imageIndex":13,"items":[{"name":"Perfect Skin&Body","tel":"031-553-1127","addr":"경기도 남양주시 오남읍 오남리 235-1번지 상가 나동 2층 201호","indutype":"보건위생 - 피부미용실","category":"beauty"},{"name":"가세미용실","tel":"070-8225-9304","addr":"경기도 남양주시 오남읍 오남리 235-1번지 동남마트 106호","indutype":"보건위생 - 미용원","category":"beauty"}]},{"lat":"37.679611654","long":"127.20916314","imageIndex":13,"items":[{"name":"YOU HAIR (유헤어)","tel":"02-572-1056","addr":"경기도 남양주시 오남읍 오남리 496-1번지 106호","indutype":"보건위생 - 미용원","category":"beauty"},{"name":"네일공주","tel":"031-574-6042","addr":"경기도 남양주시 오남읍 오남리 496-1번지 강남상가 204호","indutype":"보건위생 - 피부미용실","category":"beauty"}]},{"lat":"37.679888565","long":"127.21052423","imageIndex":13,"items":[{"name":"가위나라","tel":"031-515-2255","addr":"경기도 남양주시 오남읍 오남리 408번지 1동 101호","indutype":"보건위생 - 미용원","category":"beauty"}]},{"lat":"37.694131488","long":"127.22122184","imageIndex":13,"items":[{"name":"경희스포츠클리닉센터","tel":"031-528-1544","addr":"경기도 남양주시 오남읍 오남리 30-5번지 1층","indutype":"보건위생 - 기타대인서비스","category":"beauty"},{"name":"플러스 시원해","tel":"031-529-8807","addr":"경기도 남양주시 오남읍 오남리 30-5번지","indutype":"보건위생 - 피부미용실","category":"beauty"}]},{"lat":"37.678548759","long":"127.20902417","imageIndex":13,"items":[{"name":"골드스파","tel":"031-572-7888","addr":"경기도 남양주시 오남읍 오남리 475-8번지 신명프라자 지하2층","indutype":"보건위생 - 사우나","category":"beauty"}]},{"lat":"37.680383993","long":"127.21058229","imageIndex":13,"items":[{"name":"공감헤어","tel":"031-575-6544","addr":"경기도 남양주시 오남읍 오남리 404번지 1층","indutype":"보건위생 - 미용원","category":"beauty"}]},{"lat":"37.686130771","long":"127.21135789","imageIndex":13,"items":[{"name":"구피샵 오남점","tel":"031-568-7080","addr":"경기도 남양주시 오남읍 오남리 264-5번지 2호","indutype":"보건위생 - 이용원","category":"beauty"}]},{"lat":"37.678465368","long":"127.21033889","imageIndex":13,"items":[{"name":"권욱헤어","tel":"031-528-6263","addr":"경기도 남양주시 오남읍 오남리 454-12번지 1층 102호","indutype":"보건위생 - 미용원","category":"beauty"},{"name":"남자만들기","tel":"","addr":"경기도 남양주시 오남읍 오남리 454-12번지 102호","indutype":"보건위생 - 미용원","category":"beauty"},{"name":"토토미용실","tel":"031-574-4543","addr":"경기도 남양주시 오남읍 오남리 454-12","indutype":"보건위생 - 미용원","category":"beauty"}]},{"lat":"37.681438175","long":"127.21055122","imageIndex":13,"items":[{"name":"김언니 싸롱","tel":"070-4045-2542","addr":"경기도 남양주시 오남읍 오남리 486-1번지 1층","indutype":"보건위생 - 미용원","category":"beauty"}]},{"lat":"37.695184868","long":"127.20653042","imageIndex":13,"items":[{"name":"까꼬뽀꼬","tel":"031-573-7055","addr":"경기도 남양주시 오남읍 오남리 741번지","indutype":"보건위생 - 미용원","category":"beauty"}]},{"lat":"37.689192161","long":"127.21242084","imageIndex":13,"items":[{"name":"나윤메디칼","tel":"031-515-1515","addr":"경기도 남양주시 오남읍 오남리 683-27번지 대웅프라자 1층 107호","indutype":"보건위생 - 의료용품","category":"beauty"},{"name":"란화장품","tel":"031-557-0612","addr":"경기도 남양주시 오남읍 오남리 683-27번지 대웅프라자 109호","indutype":"보건위생 - 화장품","category":"beauty"}]},{"lat":"37.679025733","long":"127.20933156","imageIndex":13,"items":[{"name":"나이스가이","tel":"","addr":"경기도 남양주시 오남읍 오남리 476-10번지 103호","indutype":"보건위생 - 미용원","category":"beauty"},{"name":"헤어끌림","tel":"","addr":"경기도 남양주시 오남읍 오남리 476-10번지 동영프라자 207호","indutype":"보건위생 - 미용원","category":"beauty"}]},{"lat":"37.689220377","long":"127.21175201","imageIndex":13,"items":[{"name":"내방","tel":"031-575-8301","addr":"경기도 남양주시 오남읍 오남리 683-7번지 진주상가 132호","indutype":"보건위생 - 화장품","category":"beauty"},{"name":"더사랑 뷰티샵","tel":"","addr":"경기도 남양주시 오남읍 오남리 683-7번지 진주상가 105-2호","indutype":"보건위생 - 피부미용실","category":"beauty"},{"name":"빛나는 네일","tel":"070-8805-8407","addr":"경기도 남양주시 오남읍 오남리 683-7번지 진주상가 1층 129호","indutype":"보건위생 - 피부미용실","category":"beauty"},{"name":"세나헤어","tel":"","addr":"경기도 남양주시 오남읍 오남리 683-7번지 진주상가 106호 우측","indutype":"보건위생 - 미용원","category":"beauty"},{"name":"써니네일","tel":"","addr":"경기도 남양주시 오남읍 오남리 683-7번지 진주상가 1층 117호","indutype":"보건위생 - 피부미용실","category":"beauty"},{"name":"오드리","tel":"031-527-1146","addr":"경기도 남양주시 오남읍 오남리 683-7번지 진주상가 2층 217호","indutype":"보건위생 - 화장품","category":"beauty"},{"name":"이신우헤어컬렉션(collection)","tel":"070-8118-0199","addr":"경기도 남양주시 오남읍 오남리 683-7번지 진주상가 1층 105호","indutype":"보건위생 - 미용원","category":"beauty"},{"name":"진주헤어미용실","tel":"031-572-6535","addr":"경기도 남양주시 오남읍 오남리 683-7번지","indutype":"보건위생 - 미용원","category":"beauty"},{"name":"헤어매니저","tel":"031-527-0360","addr":"경기도 남양주시 오남읍 오남리 683-7번지 진주상가 136호","indutype":"보건위생 - 미용원","category":"beauty"}]},{"lat":"37.694024664","long":"127.21052963","imageIndex":13,"items":[{"name":"다올헤어","tel":"031-111-1111","addr":"경기도 남양주시 오남읍 오남리 720-40번지 영동빌딩 102호","indutype":"보건위생 - 미용원","category":"beauty"}]},{"lat":"37.677577166","long":"127.20819398","imageIndex":13,"items":[{"name":"더스타일","tel":"031-527-0053","addr":"경기도 남양주시 오남읍 오남리 464 금호어울림상가 105","indutype":"보건위생 - 미용원","category":"beauty"}]},{"lat":"37.696553059","long":"127.20199874","imageIndex":13,"items":[{"name":"더퀸즈네일","tel":"031-527-5262","addr":"경기도 남양주시 오남읍 오남리 761번지 파크빌 101호","indutype":"보건위생 - 피부미용실","category":"beauty"}]},{"lat":"37.691161616","long":"127.21446718","imageIndex":13,"items":[{"name":"마임오남지사","tel":"031-528-8016","addr":"경기도 남양주시 오남읍 오남리 203-2번지","indutype":"보건위생 - 화장품","category":"beauty"}]},{"lat":"37.696548291","long":"127.19947022","imageIndex":13,"items":[{"name":"모아네일","tel":"","addr":"경기도 남양주시 오남읍 오남리 891번지 오남아이파크 상가동 202호","indutype":"보건위생 - 피부미용실","category":"beauty"},{"name":"별헤어","tel":"031-575-9821","addr":"경기도 남양주시 오남읍 오남리 891번지 현대아이파크 상가 201호","indutype":"보건위생 - 미용원","category":"beauty"},{"name":"플로린","tel":"031-575-9525","addr":"경기도 남양주시 오남읍 오남리 891번지 오남아이파크 상가 101호","indutype":"보건위생 - 미용원","category":"beauty"}]},{"lat":"37.686356992","long":"127.21080301","imageIndex":13,"items":[{"name":"미랜드미용재료","tel":"031-527-1213","addr":"경기도 남양주시 오남읍 오남리 261번지 104호","indutype":"보건위생 - 미용재료","category":"beauty"}]},{"lat":"37.678832802","long":"127.21145083","imageIndex":13,"items":[{"name":"미엘헤어","tel":"031-574-1388","addr":"경기도 남양주시 오남읍 오남리 415-1번지 위너스프라자 102호","indutype":"보건위생 - 미용원","category":"beauty"}]},{"lat":"37.690857177","long":"127.21341191","imageIndex":13,"items":[{"name":"블루클럽오남점","tel":"031-575-9600","addr":"경기도 남양주시 오남읍 오남리 205-19번지","indutype":"보건위생 - 미용원","category":"beauty"}]},{"lat":"37.68138587","long":"127.20955349","imageIndex":13,"items":[{"name":"생그린남양주오남지사","tel":"","addr":"경기도 남양주시 오남읍 오남리 490-15번지","indutype":"보건위생 - 화장품","category":"beauty"}]},{"lat":"37.678049027","long":"127.21141463","imageIndex":13,"items":[{"name":"수헤어","tel":"031-527-2147","addr":"경기도 남양주시 오남읍 오남리 435번지 204 신우아이딜상가2층204호~206호","indutype":"보건위생 - 미용원","category":"beauty"}]},{"lat":"37.678382963","long":"127.21108683","imageIndex":13,"items":[{"name":"쉼미용실","tel":"","addr":"경기도 남양주시 오남읍 오남리 414-3번지 1층","indutype":"보건위생 - 미용원","category":"beauty"}]},{"lat":"37.696300503","long":"127.20216814","imageIndex":13,"items":[{"name":"시선헤어","tel":"031-528-6263","addr":"경기도 남양주시 오남읍 오남리 784-26번지 102호","indutype":"보건위생 - 미용원","category":"beauty"}]},{"lat":"37.679136776","long":"127.21277798","imageIndex":13,"items":[{"name":"신도헤어샵","tel":"031-511-9343","addr":"경기도 남양주시 오남읍 오남리 425번지 신일해피트리 상가동 101호","indutype":"보건위생 - 미용원","category":"beauty"}]},{"lat":"37.683325853","long":"127.21300518","imageIndex":13,"items":[{"name":"아가페머리방","tel":"031-573-3990","addr":"경기도 남양주시 오남읍 오남리 315-1번지 유호 상가 104호","indutype":"보건위생 - 미용원","category":"beauty"}]},{"lat":"37.678664952","long":"127.20955727","imageIndex":13,"items":[{"name":"아뜰헤어살롱","tel":"031-513-9740","addr":"경기도 남양주시 오남읍 오남리 476-2번지 외1필지","indutype":"보건위생 - 미용원","category":"beauty"}]},{"lat":"37.692297269","long":"127.21422097","imageIndex":13,"items":[{"name":"아이아울렛안경","tel":"031-528-9280","addr":"경기도 남양주시 오남읍 오남리 216-3번지 103호","indutype":"보건위생 - 안경","category":"beauty"}]},{"lat":"37.679998372","long":"127.20956097","imageIndex":13,"items":[{"name":"안경마스터","tel":"031-527-1125","addr":"경기도 남양주시 오남읍 오남리 495-8번지","indutype":"보건위생 - 안경","category":"beauty"}]},{"lat":"37.679578026","long":"127.20778006","imageIndex":13,"items":[{"name":"안경본데이","tel":"031-575-9773","addr":"경기도 남양주시 오남읍 오남리 500번지","indutype":"보건위생 - 안경","category":"beauty"}]},{"lat":"37.693855722","long":"127.21433878","imageIndex":13,"items":[{"name":"안나헤어스킨","tel":"031-574-0267","addr":"경기도 남양주시 오남읍 오남리 131-4번지 2층","indutype":"보건위생 - 미용원","category":"beauty"}]},{"lat":"37.684076886","long":"127.2111821","imageIndex":13,"items":[{"name":"어울림안경","tel":"031-575-8003","addr":"경기도 남양주시 오남읍 오남리 318-2번지 오남상가 1동 101호","indutype":"보건위생 - 안경","category":"beauty"}]},{"lat":"37.696768709","long":"127.1969423","imageIndex":13,"items":[{"name":"에스라헤어","tel":"031-575-4511","addr":"경기도 남양주시 오남읍 오남리 883-1번지 1층","indutype":"보건위생 - 미용원","category":"beauty"}]},{"lat":"37.685331932","long":"127.20964379","imageIndex":13,"items":[{"name":"영스네일","tel":"031-574-2560","addr":"경기도 남양주시 오남읍 오남리 600번지","indutype":"보건위생 - 피부미용실","category":"beauty"}]},{"lat":"37.687131616","long":"127.21091855","imageIndex":13,"items":[{"name":"오남머리하는곳","tel":"031-575-7396","addr":"경기도 남양주시 오남읍 오남리 258번지 1층 101호","indutype":"보건위생 - 미용원","category":"beauty"}]},{"lat":"37.694442096","long":"127.21392093","imageIndex":13,"items":[{"name":"오남사우나(피부관리실)","tel":"031-000-0000","addr":"경기도 남양주시 오남읍 오남리 134-10번지 오남프라자 비01.02호","indutype":"보건위생 - 피부미용실","category":"beauty"},{"name":"이현지헤어","tel":"031-575-8653","addr":"경기도 남양주시 오남읍 오남리 134-10번지 오남프라자 1층 105호","indutype":"보건위생 - 미용원","category":"beauty"}]},{"lat":"37.683526506","long":"127.20647587","imageIndex":13,"items":[{"name":"우리종로의료기","tel":"031-573-0644","addr":"경기도 남양주시 오남읍 오남리 560 1층1호","indutype":"보건위생 - 의료용품","category":"beauty"}]},{"lat":"37.683495384","long":"127.20360763","imageIndex":13,"items":[{"name":"웰애드","tel":"031-529-9099","addr":"경기도 남양주시 오남읍 오남리 569-2번지 2층","indutype":"보건위생 - 화장품","category":"beauty"}]},{"lat":"37.678492994","long":"127.20999889","imageIndex":13,"items":[{"name":"이슈헤어샵","tel":"031-573-1359","addr":"경기도 남양주시 오남읍 오남리 454-10번지 청구행복프라자 1층","indutype":"보건위생 - 미용원","category":"beauty"}]},{"lat":"37.687832399","long":"127.21203155","imageIndex":13,"items":[{"name":"조희미용실","tel":"031-575-1331","addr":"경기도 남양주시 오남읍 오남리 246-5번지","indutype":"보건위생 - 미용원","category":"beauty"}]},{"lat":"37.692468999","long":"127.21391533","imageIndex":13,"items":[{"name":"쥬비니엘","tel":"","addr":"경기도 남양주시 오남읍 오남리 216번지 202호","indutype":"보건위생 - 피부미용실","category":"beauty"}]},{"lat":"37.682411151","long":"127.21058794","imageIndex":13,"items":[{"name":"지지헤어","tel":"070-4064-3494","addr":"경기도 남양주시 오남읍 오남리 345-1번지 가동 102호","indutype":"보건위생 - 미용원","category":"beauty"}]},{"lat":"37.682853459","long":"127.21011305","imageIndex":13,"items":[{"name":"토모헤어","tel":"031-527-7175","addr":"경기도 남양주시 오남읍 오남리 530-2번지 외1필지","indutype":"보건위생 - 미용원","category":"beauty"}]},{"lat":"37.696327915","long":"127.20194144","imageIndex":13,"items":[{"name":"티(t)= 헤어","tel":"070-8200-0090","addr":"경기도 남양주시 오남읍 오남리 784-25번지","indutype":"보건위생 - 미용원","category":"beauty"}]},{"lat":"37.685412879","long":"127.20972337","imageIndex":13,"items":[{"name":"펠리체 스킨앤바디","tel":"031-528-6263","addr":"경기도 남양주시 오남읍 오남리 600-1번지 102동 201호","indutype":"보건위생 - 피부미용실","category":"beauty"}]},{"lat":"37.679576863","long":"127.20844888","imageIndex":13,"items":[{"name":"허정원헤어아트","tel":"031-566-7950","addr":"경기도 남양주시 오남읍 오남리 499번지 금명빌딩 2층","indutype":"보건위생 - 미용원","category":"beauty"}]},{"lat":"37.678635632","long":"127.21086081","imageIndex":13,"items":[{"name":"헤어더유라","tel":"031-528-4560","addr":"경기도 남양주시 오남읍 오남리 414번지 101호","indutype":"보건위생 - 미용원","category":"beauty"}]},{"lat":"37.687355333","long":"127.2117808","imageIndex":13,"items":[{"name":"헤어루팡","tel":"031-574-8183","addr":"경기도 남양주시 오남읍 오남리 247","indutype":"보건위생 - 미용원","category":"beauty"}]},{"lat":"37.683105588","long":"127.2101931","imageIndex":13,"items":[{"name":"헤어뷰","tel":"031-529-3522","addr":"경기도 남양주시 오남읍 오남리 531번지 1층","indutype":"보건위생 - 미용원","category":"beauty"}]},{"lat":"37.679276869","long":"127.2099784","imageIndex":13,"items":[{"name":"헤어스캔들","tel":"031-574-5480","addr":"경기도 남양주시 오남읍 오남리 477-1번지 1층","indutype":"보건위생 - 미용원","category":"beauty"}]},{"lat":"37.689803198","long":"127.21332957","imageIndex":13,"items":[{"name":"헤어올미용실","tel":"031-527-0246","addr":"경기도 남양주시 오남읍 오남리 202-3번지 103호","indutype":"보건위생 - 미용원","category":"beauty"}]},{"lat":"37.679077002","long":"127.21091873","imageIndex":13,"items":[{"name":"헤어코코","tel":"031-528-7396","addr":"경기도 남양주시 오남읍 오남리 413-2번지 101호","indutype":"보건위생 - 미용원","category":"beauty"}]},{"lat":"37.693881856","long":"127.21483773","imageIndex":13,"items":[{"name":"힐스템","tel":"070-997-9970","addr":"경기도 남양주시 오남읍 오남리 130번지 201호","indutype":"보건위생 - 피부미용실","category":"beauty"}]}]