[{"lat":"37.735903199","long":"127.08373477","imageIndex":0,"items":[{"name":"(주)국민모터스","tel":"031-852-5556","addr":"경기도 의정부시 용현동 270-60번지","indutype":"자동차판매 - 이륜차판매","category":"car"}]},{"lat":"37.735069467","long":"127.07742634","imageIndex":0,"items":[{"name":"(주)대한모터스","tel":"031-852-5556","addr":"경기도 의정부시 용현동 402-8번지","indutype":"자동차판매 - 이륜차판매","category":"car"}]},{"lat":"37.731958974","long":"127.08081508","imageIndex":0,"items":[{"name":"(주)쓰리에이모터스","tel":"","addr":"경기도 의정부시 용현동 212-5번지","indutype":"자동차정비 유지 - 자동차정비","category":"car"}]},{"lat":"37.73615037","long":"127.07781314","imageIndex":0,"items":[{"name":"(주)주민모터스","tel":"031-852-5556","addr":"경기도 의정부시 용현동 393-16번지","indutype":"자동차판매 - 이륜차판매","category":"car"}]},{"lat":"37.730263344","long":"127.08353579","imageIndex":0,"items":[{"name":"OK모터스","tel":"031-847-5683","addr":"경기도 의정부시 용현동 190-2번지","indutype":"자동차정비 유지 - 자동차부품","category":"car"},{"name":"디엠텍","tel":"031-846-3692","addr":"경기도 의정부시 용현동 190-2번지 미래빌딩 103호","indutype":"자동차정비 유지 - 자동차부품","category":"car"}]},{"lat":"37.729350668","long":"127.08740296","imageIndex":0,"items":[{"name":"TIREPIA(타이어피아)","tel":"031-841-6165","addr":"경기도 의정부시 용현동 79-1번지","indutype":"자동차정비 유지 - 자동차시트·타이어","category":"car"}]},{"lat":"37.74190399","long":"127.08311729","imageIndex":0,"items":[{"name":"가디안","tel":"031-894-7630","addr":"경기도 의정부시 용현동 528-7번지","indutype":"자동차정비 유지 - 윤활유 전문 판매","category":"car"}]},{"lat":"37.736127172","long":"127.08556149","imageIndex":0,"items":[{"name":"가온누리","tel":"02-990-1753","addr":"경기도 의정부시 용현동 33-6번지 동남상가 A동 2층 202-56호","indutype":"자동차정비 유지 - 자동차부품","category":"car"}]},{"lat":"37.73529149","long":"127.08235007","imageIndex":0,"items":[{"name":"광나라","tel":"","addr":"경기도 의정부시 용현동 268-32번지","indutype":"자동차정비 유지 - 카인테리어","category":"car"}]},{"lat":"37.740180808","long":"127.08650766","imageIndex":0,"items":[{"name":"매직터치","tel":"031-852-7675","addr":"경기도 의정부시 용현동 550-4번지 ,1,2층","indutype":"자동차정비 유지 - 카인테리어","category":"car"},{"name":"오토오아시스 송산점","tel":"031-852-5114","addr":"경기도 의정부시 용현동 550-4번지 송산주유소내","indutype":"자동차정비 유지 - 자동차부품","category":"car"}]},{"lat":"37.750428066","long":"127.08157198","imageIndex":0,"items":[{"name":"모터랜드세차장","tel":"031-852-5599","addr":"경기도 의정부시 용현동 545-13번지","indutype":"자동차정비 유지 - 세차장","category":"car"},{"name":"좋은차만들기카센타","tel":"031-852-9870","addr":"경기도 의정부시 용현동 545-13번지","indutype":"자동차정비 유지 - 자동차정비","category":"car"}]},{"lat":"37.737738138","long":"127.08801378","imageIndex":0,"items":[{"name":"민락점기아오토큐","tel":"031-851-2290","addr":"경기도 의정부시 용현동 554-2번지","indutype":"자동차정비 유지 - 자동차정비","category":"car"}]},{"lat":"37.725434167","long":"127.08359861","imageIndex":0,"items":[{"name":"비비팩토리","tel":"031-841-8052","addr":"경기도 의정부시 용현동 162-1번지","indutype":"자동차정비 유지 - 자동차부품","category":"car"}]},{"lat":"37.7342393","long":"127.07943346","imageIndex":0,"items":[{"name":"세계자동차칼라광택","tel":"031-847-9543","addr":"경기도 의정부시 용현동 408-5번지","indutype":"자동차정비 유지 - 카인테리어","category":"car"}]},{"lat":"37.729658177","long":"127.0857358","imageIndex":0,"items":[{"name":"솔뫼타이어","tel":"031-841-8808","addr":"경기도 의정부시 용현동 83-3번지","indutype":"자동차정비 유지 - 자동차시트·타이어","category":"car"},{"name":"의정부자동차","tel":"031-111-1111","addr":"경기도 의정부시 용현동 83-3번지 ,1,2층","indutype":"자동차정비 유지 - 자동차부품","category":"car"}]},{"lat":"37.732793082","long":"127.08634053","imageIndex":0,"items":[{"name":"송산카서비스","tel":"031-848-4238","addr":"경기도 의정부시 용현동 42-4번지","indutype":"자동차정비 유지 - 자동차정비","category":"car"}]},{"lat":"37.73574084","long":"127.08400686","imageIndex":0,"items":[{"name":"수성카센타","tel":"031-851-5076","addr":"경기도 의정부시 용현동 256번지","indutype":"자동차정비 유지 - 자동차정비","category":"car"}]},{"lat":"37.742741131","long":"127.08420737","imageIndex":0,"items":[{"name":"스팀카워시","tel":"031-852-9002","addr":"경기도 의정부시 용현동 527-1번지 롯데마트의정부점지상 3층 스팀세차코너","indutype":"자동차정비 유지 - 세차장","category":"car"},{"name":"오토오아시스 롯데마트의정부점","tel":"02-2209-7228","addr":"경기도 의정부시 용현동 527-1번지 롯데마트의정부점지상3층경정비코너","indutype":"자동차정비 유지 - 자동차정비","category":"car"}]},{"lat":"37.739739789","long":"127.08587183","imageIndex":0,"items":[{"name":"스피드메이트 민락점","tel":"031-851-3840","addr":"경기도 의정부시 용현동 2-1번지","indutype":"자동차정비 유지 - 자동차정비","category":"car"}]},{"lat":"37.735822717","long":"127.0828498","imageIndex":0,"items":[{"name":"신일오토바이","tel":"031-847-3136","addr":"경기도 의정부시 용현동 270-28번지 1층 2호,3호","indutype":"자동차정비 유지 - 가타자동차서비스","category":"car"}]},{"lat":"37.745040843","long":"127.08084014","imageIndex":0,"items":[{"name":"오토앤아트","tel":"031-853-9532","addr":"경기도 의정부시 용현동 520-3번지","indutype":"자동차정비 유지 - 자동차부품","category":"car"}]},{"lat":"37.73529136","long":"127.08254293","imageIndex":0,"items":[{"name":"용현점현대자동차","tel":"031-851-5182","addr":"경기도 의정부시 용현동 270-46번지","indutype":"자동차정비 유지 - 자동차부품","category":"car"}]},{"lat":"37.73123609","long":"127.08395657","imageIndex":0,"items":[{"name":"용현카트라자","tel":"031-840-8222","addr":"경기도 의정부시 용현동 222-6","indutype":"자동차정비 유지 - 자동차정비","category":"car"}]},{"lat":"37.749960218","long":"127.08059567","imageIndex":0,"items":[{"name":"원우카정비","tel":"031-853-7273","addr":"경기도 의정부시 용현동 545-8번지","indutype":"자동차정비 유지 - 자동차정비","category":"car"}]},{"lat":"37.735874473","long":"127.08617382","imageIndex":0,"items":[{"name":"잉카 오토","tel":"","addr":"경기도 의정부시 용현동 12번지 정은파크빌 A동 301호","indutype":"자동차정비 유지 - 자동차정비","category":"car"}]},{"lat":"37.734347614","long":"127.07912727","imageIndex":0,"items":[{"name":"주식회사쉐보레용현대리점","tel":"031-851-7979","addr":"경기도 의정부시 용현동 407-9번지","indutype":"자동차판매 - 국산신차판매","category":"car"}]},{"lat":"37.736263636","long":"127.08365575","imageIndex":0,"items":[{"name":"참사랑세차장","tel":"031-000-0000","addr":"경기도 의정부시 용현동 271번지","indutype":"자동차정비 유지 - 세차장","category":"car"}]},{"lat":"37.735323776","long":"127.07412535","imageIndex":0,"items":[{"name":"타이어존","tel":"031-826-3057","addr":"경기도 의정부시 용현동 399-3번지","indutype":"자동차정비 유지 - 자동차시트·타이어","category":"car"}]},{"lat":"37.735435421","long":"127.08267922","imageIndex":0,"items":[{"name":"토탈카센타","tel":"031-851-2707","addr":"경기도 의정부시 용현동 270-22번지","indutype":"자동차정비 유지 - 자동차정비","category":"car"}]},{"lat":"37.74045701","long":"127.07770403","imageIndex":0,"items":[{"name":"파인자동차공업사","tel":"031-851-0071","addr":"경기도 의정부시 용현동 386-5번지","indutype":"자동차정비 유지 - 자동차정비","category":"car"}]},{"lat":"37.736209773","long":"127.08337207","imageIndex":0,"items":[{"name":"프로모터스","tel":"031-853-5412","addr":"경기도 의정부시 용현동 270-12번지 1층","indutype":"자동차판매 - 이륜차판매","category":"car"}]},{"lat":"37.73523346","long":"127.07448829","imageIndex":0,"items":[{"name":"프로미카월드 용현점","tel":"031-848-3435","addr":"경기도 의정부시 용현동 399-2번지 1층","indutype":"자동차정비 유지 - 자동차정비","category":"car"}]},{"lat":"37.735319157","long":"127.08139717","imageIndex":0,"items":[{"name":"한국타이어","tel":"031-852-8890","addr":"경기도 의정부시 용현동 268-27번지","indutype":"자동차정비 유지 - 자동차시트·타이어","category":"car"}]},{"lat":"37.732680246","long":"127.08004443","imageIndex":0,"items":[{"name":"현대공업사","tel":"031-844-5182","addr":"경기도 의정부시 용현동 416번지","indutype":"자동차정비 유지 - 자동차정비","category":"car"}]},{"lat":"37.732400367","long":"127.08092898","imageIndex":0,"items":[{"name":"현대카프라자","tel":"031-848-4238","addr":"경기도 의정부시 용현동 240-33번지","indutype":"자동차정비 유지 - 자동차정비","category":"car"}]}]