[{"lat":"37.752262348","long":"127.10920406","imageIndex":13,"items":[{"name":"넘버원글라스","tel":"031-851-0041","addr":"경기도 의정부시 낙양동 755번지 101호","indutype":"보건위생 - 안경","category":"beauty"}]},{"lat":"37.74903807","long":"127.09728553","imageIndex":13,"items":[{"name":"네일. 피여라","tel":"","addr":"경기도 의정부시 낙양동 707-1번지 핵심프라자 2층 202호","indutype":"보건위생 - 피부미용실","category":"beauty"},{"name":"핵심 미용재료","tel":"070-7435-3993","addr":"경기도 의정부시 낙양동 707-1번지 핵심프라자 205호","indutype":"보건위생 - 미용재료","category":"beauty"}]},{"lat":"37.750378921","long":"127.09922753","imageIndex":13,"items":[{"name":"더 뷰티샵","tel":"031-853-2443","addr":"경기도 의정부시 낙양동 709번지 금강펜테리움 상가동 1층 102호","indutype":"보건위생 - 피부미용실","category":"beauty"},{"name":"현정헤어","tel":"02-1111-1111","addr":"경기도 의정부시 낙양동 709번지 금강펜테리움 상가동 101호","indutype":"보건위생 - 미용원","category":"beauty"}]},{"lat":"37.748459294","long":"127.09995122","imageIndex":13,"items":[{"name":"디토헤어","tel":"031-853-5004","addr":"경기도 의정부시 낙양동 712번지 부용마을3단지 상가동 203호","indutype":"보건위생 - 미용원","category":"beauty"}]},{"lat":"37.756707756","long":"127.11492969","imageIndex":13,"items":[{"name":"맘스홈바디케어모유육아상담소","tel":"031-821-6305","addr":"경기도 의정부시 낙양동 746번지 라디언트캐슬 1206동 203호","indutype":"보건위생 - 기타대인서비스","category":"beauty"}]},{"lat":"37.758012757","long":"127.11637284","imageIndex":13,"items":[{"name":"샤플리 헤어(태후사랑)","tel":"031-852-2378","addr":"경기도 의정부시 낙양동 747번지 용암마을13단지 상가 2층 204호","indutype":"보건위생 - 미용원","category":"beauty"}]},{"lat":"37.752483315","long":"127.1038145","imageIndex":13,"items":[{"name":"스타일제이","tel":"031-852-7182","addr":"경기도 의정부시 낙양동 721-3번지 1층 108호","indutype":"보건위생 - 미용원","category":"beauty"}]},{"lat":"37.750212358","long":"127.10445818","imageIndex":13,"items":[{"name":"스타일제이(style J)","tel":"031-852-7182","addr":"경기도 의정부시 낙양동 763번지 반도유보라아이비파크상가 516동 1층 307,308","indutype":"보건위생 - 미용원","category":"beauty"},{"name":"올가스킨","tel":"031-000-0000","addr":"경기도 의정부시 낙양동 763번지 반도유보라아이비파크 상가 514동 1층 103호","indutype":"보건위생 - 화장품","category":"beauty"},{"name":"풍성한머리","tel":"031-928-4728","addr":"경기도 의정부시 낙양동 763번지 반도유보라아이비파크 상가 514동 1층 109호","indutype":"보건위생 - 미용원","category":"beauty"},{"name":"헤어벅스","tel":"031-928-0767","addr":"경기도 의정부시 낙양동 763번지 반도유보라아이비파크 515동 203호","indutype":"보건위생 - 미용원","category":"beauty"}]},{"lat":"37.753704148","long":"127.10889974","imageIndex":13,"items":[{"name":"아띠헤어","tel":"031-851-3100","addr":"경기도 의정부시 낙양동 758번지 민락노블랜드엔에이치에프 상가동 102호","indutype":"보건위생 - 미용원","category":"beauty"}]},{"lat":"37.751351759","long":"127.10989492","imageIndex":13,"items":[{"name":"용천당","tel":"031-877-0312","addr":"경기도 의정부시 낙양동 757번지 의정부민락푸르지오 708동 1302호","indutype":"보건위생 - 기타대인서비스","category":"beauty"},{"name":"티아라헤어","tel":"031-853-0868","addr":"경기도 의정부시 낙양동 757번지 의정부민락푸르지오 717동 1층 105호","indutype":"보건위생 - 미용원","category":"beauty"},{"name":"한올한올","tel":"","addr":"경기도 의정부시 낙양동 757번지 의정부민락푸르지오 706동 1004호","indutype":"보건위생 - 화장품","category":"beauty"}]},{"lat":"37.74920874","long":"127.09792116","imageIndex":13,"items":[{"name":"위더스헤어(with us hair)","tel":"031-853-6009","addr":"경기도 의정부시 낙양동 708번지 1층 104호","indutype":"보건위생 - 미용원","category":"beauty"}]},{"lat":"37.752316057","long":"127.10958993","imageIndex":13,"items":[{"name":"찬'S헤어","tel":"070-4131-6201","addr":"경기도 의정부시 낙양동 755-1번지 해동프라자 2층 204호","indutype":"보건위생 - 미용원","category":"beauty"}]},{"lat":"37.753683806","long":"127.11145285","imageIndex":13,"items":[{"name":"펌킨헤어","tel":"031-852-2242","addr":"경기도 의정부시 낙양동 754번지 양지마을8단지 상가동 103호","indutype":"보건위생 - 미용원","category":"beauty"}]},{"lat":"37.754320706","long":"127.1144268","imageIndex":13,"items":[{"name":"힐링펌미용실","tel":"031-853-4692","addr":"경기도 의정부시 낙양동 749번지 용암마을16단지 상가 203호","indutype":"보건위생 - 미용원","category":"beauty"}]}]