[{"lat":"37.22538062","long":"126.87985034","imageIndex":7,"items":[{"name":"금성양봉","tel":"031-8058-7979","addr":"경기도 화성시 비봉면 양노리 16","indutype":"음료식품 - 농·축·수산품","category":"food"}]},{"lat":"37.237573835","long":"126.87348581","imageIndex":7,"items":[{"name":"비봉고매점","tel":"02-1111-1111","addr":"경기도 화성시 비봉면 양노리 259-3번지","indutype":"음료식품 - 기타음료식품","category":"food"}]},{"lat":"37.228823305","long":"126.85671119","imageIndex":7,"items":[{"name":"비봉농원","tel":"031-357-7173","addr":"경기도 화성시 비봉면 양노리 602-1번지","indutype":"음료식품 - 농·축·수산품","category":"food"}]},{"lat":"37.23673542","long":"126.87307028","imageIndex":7,"items":[{"name":"비봉정육점","tel":"031-356-0034","addr":"경기도 화성시 비봉면 양노리 262번지","indutype":"음료식품 - 정육점","category":"food"}]},{"lat":"37.220459218","long":"126.85471055","imageIndex":7,"items":[{"name":"소담","tel":"","addr":"경기도 화성시 비봉면 양노리 669-3번지","indutype":"음료식품 - 기타음료식품","category":"food"}]},{"lat":"37.234299146","long":"126.86213227","imageIndex":7,"items":[{"name":"애경SUPER","tel":"031-212-5467","addr":"경기도 화성시 비봉면 양노리 489-1","indutype":"음료식품 - 농·축·수산품","category":"food"}]},{"lat":"37.221154445","long":"126.85585843","imageIndex":7,"items":[{"name":"주식회사 엠에스글로벌","tel":"031-416-8927","addr":"경기도 화성시 비봉면 양노리 673-46번지 201호","indutype":"음료식품 - 기타음료식품","category":"food"}]},{"lat":"37.235713956","long":"126.87009696","imageIndex":7,"items":[{"name":"주식회사 초이스빈","tel":"031-355-6047","addr":"경기도 화성시 비봉면 양노리 282번지 상민빌딩","indutype":"음료식품 - 기타음료식품","category":"food"}]},{"lat":"37.227932846","long":"126.86554705","imageIndex":7,"items":[{"name":"평생농장","tel":"070-7725-0406","addr":"경기도 화성시 비봉면 양노리 422","indutype":"음료식품 - 농·축·수산품","category":"food"}]},{"lat":"37.235208758","long":"126.86954566","imageIndex":7,"items":[{"name":"홍삼약초건강원","tel":"070-7420-1345","addr":"경기도 화성시 비봉면 양노리 284-1번지 102호","indutype":"건강식품 - 기타건강식품","category":"food"}]}]