[{"lat":"37.284550463","long":"127.4877128","imageIndex":13,"items":[{"name":"고운이 치과 기공소","tel":"031-1111-1111","addr":"경기도 이천시 부발읍 무촌리 170-4번지","indutype":"보건위생 - 의료용품","category":"beauty"}]},{"lat":"37.282802627","long":"127.48767904","imageIndex":13,"items":[{"name":"네일도나","tel":"031-632-9048","addr":"경기도 이천시 부발읍 무촌리 166-84번지 1층","indutype":"보건위생 - 피부미용실","category":"beauty"}]},{"lat":"37.285214148","long":"127.48846131","imageIndex":13,"items":[{"name":"도트헤어","tel":"031-635-1246","addr":"경기도 이천시 부발읍 무촌리 223-4번지 1층","indutype":"보건위생 - 미용원","category":"beauty"}]},{"lat":"37.285607531","long":"127.48920809","imageIndex":13,"items":[{"name":"라라","tel":"070-8260-3322","addr":"경기도 이천시 부발읍 무촌리 230-5번지 1층 5호","indutype":"보건위생 - 미용원","category":"beauty"}]},{"lat":"37.284352014","long":"127.48776791","imageIndex":13,"items":[{"name":"부발옥사우나","tel":"031-634-4137","addr":"경기도 이천시 부발읍 무촌리 164-2번지 부발프라자","indutype":"보건위생 - 사우나","category":"beauty"}]},{"lat":"37.283386703","long":"127.48806618","imageIndex":13,"items":[{"name":"뷰티플러스미용실","tel":"031-631-4179","addr":"경기도 이천시 부발읍 무촌리 166-71번지 1층","indutype":"보건위생 - 미용원","category":"beauty"},{"name":"브릴랑스킨","tel":"","addr":"경기도 이천시 부발읍 무촌리 166-71번지","indutype":"보건위생 - 피부미용실","category":"beauty"}]},{"lat":"37.284713473","long":"127.48751087","imageIndex":13,"items":[{"name":"신나라헤어샵","tel":"031-632-8703","addr":"경기도 이천시 부발읍 무촌리 170-1번지","indutype":"보건위생 - 미용원","category":"beauty"}]},{"lat":"37.282828271","long":"127.48801749","imageIndex":13,"items":[{"name":"오땡큐천연머리염색","tel":"031-633-6323","addr":"경기도 이천시 부발읍 무촌리 166-41번지 오땡큐천연머리염색","indutype":"보건위생 - 미용원","category":"beauty"}]},{"lat":"37.285382282","long":"127.48920664","imageIndex":13,"items":[{"name":"이천건강힐링 cafe","tel":"031-632-5507","addr":"경기도 이천시 부발읍 무촌리 225-17번지","indutype":"보건위생 - 의료용품","category":"beauty"},{"name":"이천건강힐링카페","tel":"031-632-5507","addr":"경기도 이천시 부발읍 무촌리 225-17번지 202호","indutype":"보건위생 - 의료용품","category":"beauty"}]},{"lat":"37.283548327","long":"127.48820253","imageIndex":13,"items":[{"name":"정원아동청소년발달센터","tel":"031-632-5558","addr":"경기도 이천시 부발읍 무촌리 166-88번지","indutype":"보건위생 - 기타대인서비스","category":"beauty"},{"name":"하루헤어","tel":"070-5022-4846","addr":"경기도 이천시 부발읍 무촌리 166-88번지 1층 3호","indutype":"보건위생 - 미용원","category":"beauty"}]},{"lat":"37.283664393","long":"127.48846263","imageIndex":13,"items":[{"name":"파타야","tel":"031-632-3398","addr":"경기도 이천시 부발읍 무촌리 166-90번지 3층","indutype":"보건위생 - 화장품","category":"beauty"},{"name":"헤어컷","tel":"031-631-1240","addr":"경기도 이천시 부발읍 무촌리 166-90번지 1층","indutype":"보건위생 - 미용원","category":"beauty"}]}]