[{"lat":"37.092568368","long":"127.06638806","imageIndex":17,"items":[{"name":"(주)예스투어 (평택지점)","tel":"031-000-0000","addr":"경기도 평택시 독곡동 14번지","indutype":"여행 - 관광여행","category":"other"}]},{"lat":"37.090070093","long":"127.07063757","imageIndex":17,"items":[{"name":"(주)한일정보통신서비스","tel":"031-1688-3601","addr":"경기도 평택시 독곡동 40-2번지","indutype":"사무통신 - 통신기기","category":"other"}]},{"lat":"37.083813969","long":"127.05869927","imageIndex":17,"items":[{"name":"007천사꽃배달","tel":"031-662-4536","addr":"경기도 평택시 독곡동 406-13번지","indutype":"소매업 - 꽃집","category":"other"},{"name":"007천사꽃배달","tel":"031-665-5595","addr":"경기도 평택시 독곡동 406-13번지","indutype":"문화.취미 - 화원","category":"other"}]},{"lat":"37.086346993","long":"127.07361472","imageIndex":17,"items":[{"name":"ABS","tel":"","addr":"경기도 평택시 독곡동 149-9번지","indutype":"건축자재 - 인테리어전문","category":"other"}]},{"lat":"37.080315747","long":"127.06303773","imageIndex":17,"items":[{"name":"ING헬스클럽","tel":"031-663-7406","addr":"경기도 평택시 독곡동 483번지","indutype":"회원제형태 - 레져업소","category":"other"}]},{"lat":"37.084064217","long":"127.06289448","imageIndex":17,"items":[{"name":"XP컴퓨터","tel":"031-611-4684","addr":"경기도 평택시 독곡동 473번지 한일상가제8 102호","indutype":"사무통신 - 컴퓨터","category":"other"}]},{"lat":"37.089761427","long":"127.07456269","imageIndex":17,"items":[{"name":"금성중기공업","tel":"031-668-8217","addr":"경기도 평택시 독곡동 64번지","indutype":"기타 - 기계공구","category":"other"}]},{"lat":"37.085374636","long":"127.07228668","imageIndex":17,"items":[{"name":"나(NA)용(YONG)","tel":"","addr":"경기도 평택시 독곡동 130번지 2층","indutype":"문화.취미 - 애완동물","category":"other"},{"name":"종합상사","tel":"031-666-9743","addr":"경기도 평택시 독곡동 130번지","indutype":"건축자재 - 페인트","category":"other"}]},{"lat":"37.083840515","long":"127.05972274","imageIndex":17,"items":[{"name":"나이스케어","tel":"070-8809-6799","addr":"경기도 평택시 독곡동 359-8번지 송림빌라 2층","indutype":"신변잡화 - 기타잡화","category":"other"}]},{"lat":"37.085633455","long":"127.06006149","imageIndex":17,"items":[{"name":"니무 (nimu)","tel":"031-111-1111","addr":"경기도 평택시 독곡동 361-2번지 락토맨션 나동 B02호","indutype":"신변잡화 - 액세서리","category":"other"}]},{"lat":"37.0811796","long":"127.06528767","imageIndex":17,"items":[{"name":"대림문구","tel":"031-667-9726","addr":"경기도 평택시 독곡동 491번지 대림상가 103호","indutype":"서적문구 - 문구용품","category":"other"}]},{"lat":"37.08411885","long":"127.0617586","imageIndex":17,"items":[{"name":"대림판넬","tel":"031-611-8485","addr":"경기도 평택시 독곡동 359-6번지","indutype":"건축자재 - 기타건축자재","category":"other"},{"name":"하나종합인테리어","tel":"031-666-3890","addr":"경기도 평택시 독곡동 359-6번지","indutype":"건축자재 - 인테리어전문","category":"other"}]},{"lat":"37.085507971","long":"127.05866677","imageIndex":17,"items":[{"name":"대신상사","tel":"031-611-7168","addr":"경기도 평택시 독곡동 398-11번지 101호","indutype":"전기제품 - 냉열기기","category":"other"},{"name":"태후사랑 독곡점","tel":"031-662-0608","addr":"경기도 평택시 독곡동 398-11번지 1층 1호","indutype":"소매업 - 화장품","category":"other"}]},{"lat":"37.084706105","long":"127.05850873","imageIndex":17,"items":[{"name":"대원종합상사","tel":"031-663-7792","addr":"경기도 평택시 독곡동 406-26번지","indutype":"건축자재 - 기타건축자재","category":"other"}]},{"lat":"37.091681329","long":"127.07347346","imageIndex":17,"items":[{"name":"대일이엔지","tel":"031-666-0599","addr":"경기도 평택시 독곡동 61-8번지","indutype":"건축자재 - 기타건축자재","category":"other"}]},{"lat":"37.083010988","long":"127.06086927","imageIndex":17,"items":[{"name":"더조은부동산","tel":"031-667-4924","addr":"경기도 평택시 독곡동 464번지 라이프상가 104호","indutype":"서비스업 - 부동산","category":"other"},{"name":"배화어린이집","tel":"031-664-9752","addr":"경기도 평택시 독곡동 464번지 라이프아파트","indutype":"서비스업 - 교육","category":"other"}]},{"lat":"37.080702637","long":"127.06414016","imageIndex":17,"items":[{"name":"데이지","tel":"031-667-6453","addr":"경기도 평택시 독곡동 476번지 102호","indutype":"의류 - 정장","category":"other"},{"name":"러블리베베","tel":"031-654-6220","addr":"경기도 평택시 독곡동 476번지 1층","indutype":"의류 - 아동의류","category":"other"},{"name":"시크릿뷰티","tel":"031-651-7594","addr":"경기도 평택시 독곡동 476번지","indutype":"회원제형태 - 기타4","category":"other"}]},{"lat":"37.086401204","long":"127.07336734","imageIndex":17,"items":[{"name":"동서플라워","tel":"031-611-0223","addr":"경기도 평택시 독곡동 149-22번지","indutype":"문화.취미 - 화원","category":"other"}]},{"lat":"37.085506426","long":"127.0618609","imageIndex":17,"items":[{"name":"동아전기조명","tel":"031-665-7589","addr":"경기도 평택시 독곡동 360-15번지","indutype":"전기제품 - 기타전기제품","category":"other"},{"name":"현대테크","tel":"031-667-7119","addr":"경기도 평택시 독곡동 360-15번지 7호","indutype":"전기제품 - 가전제품","category":"other"}]},{"lat":"37.087785311","long":"127.06342604","imageIndex":17,"items":[{"name":"리싸이클씨티(평택점)","tel":"031-662-8425","addr":"경기도 평택시 독곡동 378-1번지","indutype":"전기제품 - 가전제품","category":"other"}]},{"lat":"37.080540418","long":"127.06419626","imageIndex":17,"items":[{"name":"멜빵바지","tel":"031-667-1198","addr":"경기도 평택시 독곡동 488번지","indutype":"의류 - 정장","category":"other"},{"name":"미소탁구장","tel":"031-668-9113","addr":"경기도 평택시 독곡동 488번지 우남빌딩 지하","indutype":"서비스업 - 탁구장","category":"other"},{"name":"행복할인매장","tel":"","addr":"경기도 평택시 독곡동 488번지 우남빌딩 1층","indutype":"사무통신 - 통신기기","category":"other"}]},{"lat":"37.084012318","long":"127.05845199","imageIndex":17,"items":[{"name":"미광조명","tel":"031-611-5621","addr":"경기도 평택시 독곡동 406-71번지 외1필지","indutype":"건축자재 - 조명기구","category":"other"}]},{"lat":"37.082036114","long":"127.06430993","imageIndex":17,"items":[{"name":"미르광고","tel":"031-663-1217","addr":"경기도 평택시 독곡동 329번지","indutype":"용역 서비스 - 종합용역","category":"other"},{"name":"미르광고","tel":"031-668-8882","addr":"경기도 평택시 독곡동 329번지","indutype":"도소매업 - 인쇄","category":"other"}]},{"lat":"37.09181521","long":"127.07558818","imageIndex":17,"items":[{"name":"밝은욕실타일","tel":"031-666-0620","addr":"경기도 평택시 독곡동 183-1번지","indutype":"건축자재 - 건축용 요업제품","category":"other"}]},{"lat":"37.085291792","long":"127.05850916","imageIndex":17,"items":[{"name":"백조세탁소","tel":"031-666-4799","addr":"경기도 평택시 독곡동 398-18번지","indutype":"수리서비스 - 세탁소","category":"other"}]},{"lat":"37.08303656","long":"127.06378215","imageIndex":17,"items":[{"name":"블라블라","tel":"031-662-6020","addr":"경기도 평택시 독곡동 349-5번지","indutype":"의류 - 정장","category":"other"}]},{"lat":"37.087230587","long":"127.07267078","imageIndex":17,"items":[{"name":"산수유통","tel":"031-668-4771","addr":"경기도 평택시 독곡동 149-1번지","indutype":"주방용구 - 정수기","category":"other"}]},{"lat":"37.089924942","long":"127.07233582","imageIndex":17,"items":[{"name":"서정금속","tel":"031-666-8377","addr":"경기도 평택시 독곡동 170-5번지","indutype":"건축자재 - 목재·석재·철물","category":"other"}]},{"lat":"37.092423806","long":"127.06711905","imageIndex":17,"items":[{"name":"세븐일레븐 평택독곡점","tel":"031-662-0858","addr":"경기도 평택시 독곡동 16번지","indutype":"소매업 - 편의점","category":"other"},{"name":"세븐일레븐평택독곡점","tel":"031-1577-0711","addr":"경기도 평택시 독곡동 16번지","indutype":"유통업 영리 - 편 의 점","category":"other"},{"name":"주식회사씨엠비젼전기통신","tel":"031-665-6699","addr":"경기도 평택시 독곡동 16번지","indutype":"사무통신 - 통신기기","category":"other"}]},{"lat":"37.084625036","long":"127.05845244","imageIndex":17,"items":[{"name":"송탄오토바이","tel":"031-663-4989","addr":"경기도 평택시 독곡동 406-27번지","indutype":"수리서비스 - 레져용품수리","category":"other"}]},{"lat":"37.087290388","long":"127.06212097","imageIndex":17,"items":[{"name":"송탄일광석예원","tel":"031-668-2776","addr":"경기도 평택시 독곡동 390-10번지 외3필지","indutype":"건축자재 - 목재·석재·철물","category":"other"}]},{"lat":"37.088312458","long":"127.07163702","imageIndex":17,"items":[{"name":"송탄장례식장","tel":"031-611-4488","addr":"경기도 평택시 독곡동 155-1번지 지하1층","indutype":"용역 서비스 - 가례서비스업","category":"other"}]},{"lat":"37.088316581","long":"127.06411255","imageIndex":17,"items":[{"name":"송탄중앙병원 장례식장","tel":"031-611-7600","addr":"경기도 평택시 독곡동 379-2번지 송탄중앙병원","indutype":"용역 서비스 - 가례서비스업","category":"other"}]},{"lat":"37.084535167","long":"127.05794627","imageIndex":17,"items":[{"name":"송탄철망","tel":"031-666-2912","addr":"경기도 평택시 독곡동 401-5번지","indutype":"건축자재 - 기타건축자재","category":"other"}]},{"lat":"37.084507873","long":"127.05850859","imageIndex":17,"items":[{"name":"수호건재","tel":"031-663-1222","addr":"경기도 평택시 독곡동 406-23번지","indutype":"건축자재 - 기타건축자재","category":"other"}]},{"lat":"37.081819309","long":"127.06536692","imageIndex":17,"items":[{"name":"스눕독","tel":"031-668-3260","addr":"경기도 평택시 독곡동 308-9번지 1층","indutype":"문화.취미 - 애완동물","category":"other"},{"name":"크린토피아 독곡점","tel":"031-665-3637","addr":"경기도 평택시 독곡동 308-9번지 1층","indutype":"수리서비스 - 세탁소","category":"other"}]},{"lat":"37.085759975","long":"127.05928554","imageIndex":17,"items":[{"name":"스피드기획","tel":"031-611-6757","addr":"경기도 평택시 독곡동 398-62번지 대성빌라","indutype":"직물 - 카페트,커튼,천막,지물","category":"other"}]},{"lat":"37.086064969","long":"127.06208627","imageIndex":17,"items":[{"name":"시튼하우스","tel":"031-662-3345","addr":"경기도 평택시 독곡동 360-11,16,17","indutype":"회원제형태 - 레져업소","category":"other"}]},{"lat":"37.085625066","long":"127.05875683","imageIndex":17,"items":[{"name":"신신냉동플랜트","tel":"031-666-3979","addr":"경기도 평택시 독곡동 398-25번지","indutype":"용역 서비스 - 기타용역서비스","category":"other"}]},{"lat":"37.085201517","long":"127.05886899","imageIndex":17,"items":[{"name":"신영상사","tel":"031-8094-1659","addr":"경기도 평택시 독곡동 405-10번지 1층","indutype":"전기제품 - 기타전기제품","category":"other"}]},{"lat":"37.086813091","long":"127.06159198","imageIndex":17,"items":[{"name":"신천상산업","tel":"031-663-1171","addr":"경기도 평택시 독곡동 390-22번지","indutype":"건축자재 - 기타건축자재","category":"other"},{"name":"우진기업","tel":"031-666-1805","addr":"경기도 평택시 독곡동 390-22번지 1층","indutype":"전기제품 - 기타전기제품","category":"other"},{"name":"천상산업","tel":"031-668-9292","addr":"경기도 평택시 독곡동 390-22번지","indutype":"소매업 - 건축자재","category":"other"}]},{"lat":"37.084760352","long":"127.05811513","imageIndex":17,"items":[{"name":"신희성건재철물","tel":"031-611-0992","addr":"경기도 평택시 독곡동 406-63번지","indutype":"건축자재 - 목재·석재·철물","category":"other"},{"name":"화성철물건재비철금속","tel":"031-664-0977","addr":"경기도 평택시 독곡동 406-63번지","indutype":"기타 - 기계공구","category":"other"},{"name":"희성건설기계","tel":"031-668-0935","addr":"경기도 평택시 독곡동 406-63번지 102호","indutype":"기타 - 기계공구","category":"other"},{"name":"희성작업공구","tel":"031-611-0909","addr":"경기도 평택시 독곡동 406-63번지","indutype":"기타 - 기계공구","category":"other"}]},{"lat":"37.083812928","long":"127.06086988","imageIndex":17,"items":[{"name":"아이앤지공조","tel":"031-458-9876","addr":"경기도 평택시 독곡동 359-5번지 송원주택 바동 304호","indutype":"용역 서비스 - 기타용역서비스","category":"other"}]},{"lat":"37.080513502","long":"127.06397132","imageIndex":17,"items":[{"name":"아이엔지","tel":"031-611-0047","addr":"경기도 평택시 독곡동 487번지 한성빌딩 1층 1호","indutype":"소매업 - 문구","category":"other"},{"name":"아이엔지(I.N.G)","tel":"031-665-4944","addr":"경기도 평택시 독곡동 487번지 한성빌딩 1층 1호","indutype":"서적문구 - 문구용품","category":"other"},{"name":"해피텔레콤","tel":"031-664-3011","addr":"경기도 평택시 독곡동 487번지","indutype":"사무통신 - 통신기기","category":"other"}]},{"lat":"37.085064968","long":"127.07772988","imageIndex":17,"items":[{"name":"엔티알시스템","tel":"031-311-6521","addr":"경기도 평택시 독곡동 115-2번지","indutype":"사무통신 - 컴퓨터","category":"other"}]},{"lat":"37.089402703","long":"127.07169424","imageIndex":17,"items":[{"name":"영일엔진보링","tel":"031-664-3585","addr":"경기도 평택시 독곡동 159번지","indutype":"수리서비스 - 기타수리서비스","category":"other"}]},{"lat":"37.085345649","long":"127.05894783","imageIndex":17,"items":[{"name":"영진앵글","tel":"031-667-2979","addr":"경기도 평택시 독곡동 398-69번지","indutype":"기타 - 기계공구","category":"other"},{"name":"유원종합설비","tel":"031-668-9828","addr":"경기도 평택시 독곡동 398-69번지 1층","indutype":"건축자재 - 보일러·펌프·샷시","category":"other"}]},{"lat":"37.08842502","long":"127.06350528","imageIndex":17,"items":[{"name":"예랑","tel":"031-662-8012","addr":"경기도 평택시 독곡동 380-2번지 A동 103호","indutype":"신변잡화 - 기타잡화","category":"other"}]},{"lat":"37.08823291","long":"127.06891509","imageIndex":17,"items":[{"name":"우주골프","tel":"031-663-1872","addr":"경기도 평택시 독곡동 258번지 우주골프연습장내 1층","indutype":"레져용품 - 스포츠·레져용품","category":"other"}]},{"lat":"37.08537285","long":"127.05858795","imageIndex":17,"items":[{"name":"원봉워터피아관리센터","tel":"031-665-3916","addr":"경기도 평택시 독곡동 398-12번지","indutype":"주방용구 - 정수기","category":"other"}]},{"lat":"37.084758589","long":"127.06178159","imageIndex":17,"items":[{"name":"장원냉동주방","tel":"031-665-6367","addr":"경기도 평택시 독곡동 360-1번지","indutype":"주방용구 - 주방용구","category":"other"}]},{"lat":"37.085066411","long":"127.05875642","imageIndex":17,"items":[{"name":"제일볼트상사","tel":"031-667-4089","addr":"경기도 평택시 독곡동 405-14번지","indutype":"기타 - 기계공구","category":"other"}]},{"lat":"37.081369886","long":"127.06322975","imageIndex":17,"items":[{"name":"제일인테리어","tel":"031-665-2880","addr":"경기도 평택시 독곡동 475번지 동부상가 101호","indutype":"건축자재 - 인테리어전문","category":"other"}]},{"lat":"37.082847378","long":"127.06370327","imageIndex":17,"items":[{"name":"주식회사 엔시티한솔홈케어","tel":"031-254-0237","addr":"경기도 평택시 독곡동 349-2번지 3층","indutype":"용역 서비스 - 종합용역","category":"other"}]},{"lat":"37.086653945","long":"127.07261402","imageIndex":17,"items":[{"name":"주식회사 엠티이에스","tel":"031-655-1833","addr":"경기도 평택시 독곡동 149-3번지","indutype":"기타 - 기계공구","category":"other"}]},{"lat":"37.084009124","long":"127.06489635","imageIndex":17,"items":[{"name":"천일개발","tel":"031-668-5686","addr":"경기도 평택시 독곡동 305-11번지","indutype":"서비스업 - 건설, 지하수개발","category":"other"}]},{"lat":"37.084761395","long":"127.07317462","imageIndex":17,"items":[{"name":"친구하우스","tel":"031-664-8448","addr":"경기도 평택시 독곡동 130-48번지","indutype":"용역 서비스 - 종합용역","category":"other"}]},{"lat":"37.085985531","long":"127.05866712","imageIndex":17,"items":[{"name":"한국에어컨","tel":"031-665-4446","addr":"경기도 평택시 독곡동 395-11번지 2층","indutype":"전기제품 - 냉열기기","category":"other"}]},{"lat":"37.090952947","long":"127.07095329","imageIndex":17,"items":[{"name":"한국판넬","tel":"031-666-8404","addr":"경기도 평택시 독곡동 43번지","indutype":"건축자재 - 기타건축자재","category":"other"}]},{"lat":"37.086012404","long":"127.05900455","imageIndex":17,"items":[{"name":"한일펌프상사","tel":"031-662-3704","addr":"경기도 평택시 독곡동 398-39번지","indutype":"건축자재 - 보일러·펌프·샷시","category":"other"}]},{"lat":"37.085012559","long":"127.05830651","imageIndex":17,"items":[{"name":"희성상사","tel":"031-611-8999","addr":"경기도 평택시 독곡동 398-46번지 1층","indutype":"건축자재 - 기타건축자재","category":"other"}]},{"lat":"37.080459549","long":"127.0637576","imageIndex":7,"items":[{"name":"D.C프라자","tel":"031-666-7777","addr":"경기도 평택시 독곡동 486번지","indutype":"유통업 영리 - 슈퍼마켓","category":"mart"}]},{"lat":"37.085201517","long":"127.05886899","imageIndex":7,"items":[{"name":"미랜마트","tel":"031-616-2181","addr":"경기도 평택시 독곡동 405-10번지","indutype":"유통업 영리 - 슈퍼마켓","category":"mart"}]},{"lat":"37.080459549","long":"127.0637576","imageIndex":16,"items":[{"name":"the공감영수집중학원","tel":"031-664-8524","addr":"경기도 평택시 독곡동 486번지","indutype":"학원 - 보습학원","category":"study"},{"name":"누리직업전문학교","tel":"031-665-2823","addr":"경기도 평택시 독곡동 486번지 3층 일부","indutype":"학원 - 기능학원","category":"study"}]},{"lat":"37.080315747","long":"127.06303773","imageIndex":16,"items":[{"name":"꿈을 이루는 이루다 독서실","tel":"031-611-2992","addr":"경기도 평택시 독곡동 483번지 3층","indutype":"학원 - 독서실","category":"study"},{"name":"숙명한소리음악학원","tel":"031-667-1717","addr":"경기도 평택시 독곡동 483번지 2층","indutype":"학원 - 예·체능계학원","category":"study"},{"name":"최강플러스학원","tel":"031-611-9840","addr":"경기도 평택시 독곡동 483번지 5층","indutype":"학원 - 보습학원","category":"study"}]},{"lat":"37.085264944","long":"127.0581155","imageIndex":16,"items":[{"name":"늘사랑어린이집[아이행복]","tel":"031-662-0610","addr":"경기도 평택시 독곡동 406-46번지","indutype":"학원 - 유아원","category":"study"}]},{"lat":"37.080486976","long":"127.06298163","imageIndex":16,"items":[{"name":"동화나라어린이집[아이행복]","tel":"031-664-0228","addr":"경기도 평택시 독곡동 482번지","indutype":"학원 - 유아원","category":"study"}]},{"lat":"37.08842502","long":"127.06350528","imageIndex":16,"items":[{"name":"라인용접학원","tel":"031-667-7016","addr":"경기도 평택시 독곡동 380-2번지 B동 1층","indutype":"회원제형태 - 학원","category":"study"}]},{"lat":"37.082847378","long":"127.06370327","imageIndex":16,"items":[{"name":"러빙피아노 음악학원","tel":"031-611-6179","addr":"경기도 평택시 독곡동 349-2번지 2층","indutype":"학원 - 예·체능계학원","category":"study"},{"name":"소울음악학원","tel":"031-611-2001","addr":"경기도 평택시 독곡동 349-2번지","indutype":"학원 - 예·체능계학원","category":"study"},{"name":"예닮빅스맘어린이집[아이행복]","tel":"031-664-3433","addr":"경기도 평택시 독곡동 349-2번지 1층","indutype":"학원 - 유아원","category":"study"},{"name":"예닮키즈빅스맘어린이집[아이행복]","tel":"031-664-3344","addr":"경기도 평택시 독곡동 349-2번지","indutype":"학원 - 유아원","category":"study"},{"name":"와이(WHY)어학원","tel":"031-665-0582","addr":"경기도 평택시 독곡동 349-2번지 3층","indutype":"학원 - 외국어학원","category":"study"},{"name":"팸수학보습학원","tel":"031-666-2562","addr":"경기도 평택시 독곡동 349-2번지 3층","indutype":"학원 - 보습학원","category":"study"}]},{"lat":"37.080513502","long":"127.06397132","imageIndex":16,"items":[{"name":"바하음악학원","tel":"031-667-2765","addr":"경기도 평택시 독곡동 487번지 한성빌딩 2층","indutype":"학원 - 예·체능계학원","category":"study"},{"name":"용인대한국태권도장","tel":"031-667-4320","addr":"경기도 평택시 독곡동 487번지 한성빌딩 3층","indutype":"학원 - 예·체능계학원","category":"study"}]},{"lat":"37.080702637","long":"127.06414016","imageIndex":16,"items":[{"name":"복선생클래스학원","tel":"031-666-8855","addr":"경기도 평택시 독곡동 476번지 2층","indutype":"학원 - 보습학원","category":"study"},{"name":"송북정도관","tel":"031-668-1225","addr":"경기도 평택시 독곡동 476번지 4층","indutype":"학원 - 예·체능계학원","category":"study"}]},{"lat":"37.083010988","long":"127.06086927","imageIndex":16,"items":[{"name":"예성음악학원","tel":"031-665-9859","addr":"경기도 평택시 독곡동 464번지 라이프상가 3층","indutype":"학원 - 예·체능계학원","category":"study"}]},{"lat":"37.080540418","long":"127.06419626","imageIndex":16,"items":[{"name":"용인대백호태권도","tel":"031-667-0722","addr":"경기도 평택시 독곡동 488번지 우남빌딩 3층","indutype":"학원 - 예·체능계학원","category":"study"},{"name":"하늘교육송북퍼스트학원","tel":"031-611-9903","addr":"경기도 평택시 독곡동 488번지","indutype":"학원 - 보습학원","category":"study"}]},{"lat":"37.086008412","long":"127.0668887","imageIndex":16,"items":[{"name":"전원유치원[아이행복]","tel":"031-663-5202","addr":"경기도 평택시 독곡동 289-6번지","indutype":"학원 - 유치원","category":"study"}]},{"lat":"37.084981713","long":"127.0659431","imageIndex":16,"items":[{"name":"토리 어린이집[아이행복]","tel":"031-664-0090","addr":"경기도 평택시 독곡동 303-6번지","indutype":"학원 - 유아원","category":"study"}]},{"lat":"37.080621768","long":"127.06370149","imageIndex":16,"items":[{"name":"황소수학써니잉글리쉬학원","tel":"","addr":"경기도 평택시 독곡동 478번지 2층","indutype":"학원 - 보습학원","category":"study"}]},{"lat":"37.089396485","long":"127.06670034","imageIndex":4,"items":[{"name":"㈜제일장례식장","tel":"031-663-4200","addr":"경기도 평택시 독곡동 255-12번지","indutype":"음식점 - 매점","category":"restaurant"}]},{"lat":"37.085507971","long":"127.05866677","imageIndex":4,"items":[{"name":"가야성","tel":"031-666-2305","addr":"경기도 평택시 독곡동 398-11번지","indutype":"일반휴게음식 - 중국식","category":"restaurant"}]},{"lat":"37.082008251","long":"127.06589565","imageIndex":4,"items":[{"name":"강릉코다리","tel":"031-666-7376","addr":"경기도 평택시 독곡동 308-2번지 지하층 B04호","indutype":"일반휴게음식 - 일반한식","category":"restaurant"},{"name":"강릉코다리","tel":"031-611-5025","addr":"경기도 평택시 독곡동 308-2번지 지하층 B04호","indutype":"음식점 - 한식","category":"restaurant"},{"name":"개집(애견카페)","tel":"031-8504-0606","addr":"경기도 평택시 독곡동 308-2번지","indutype":"일반휴게음식 - 서양음식","category":"restaurant"},{"name":"밥go고기go","tel":"031-000-0000","addr":"경기도 평택시 독곡동 308-2번지 B동 102호","indutype":"일반휴게음식 - 일반한식","category":"restaurant"},{"name":"토리토리","tel":"","addr":"경기도 평택시 독곡동 308-2번지 지하","indutype":"일반휴게음식 - 주점","category":"restaurant"}]},{"lat":"37.08575875","long":"127.06180486","imageIndex":4,"items":[{"name":"고구려짬뽕10101 평택송탄점","tel":"031-666-8101","addr":"경기도 평택시 독곡동 360-23번지","indutype":"일반휴게음식 - 중국식","category":"restaurant"}]},{"lat":"37.080369702","long":"127.06325145","imageIndex":4,"items":[{"name":"그냥갈순없잖아","tel":"031-611-0206","addr":"경기도 평택시 독곡동 484번지","indutype":"일반휴게음식 - 일반한식","category":"restaurant"},{"name":"케이씨푸드","tel":"031-668-1179","addr":"경기도 평택시 독곡동 484번지 1층","indutype":"일반휴게음식 - 일반한식","category":"restaurant"},{"name":"탐나참치","tel":"031-663-9133","addr":"경기도 평택시 독곡동 484번지","indutype":"일반휴게음식 - 일식·회집","category":"restaurant"}]},{"lat":"37.086173247","long":"127.06178269","imageIndex":4,"items":[{"name":"그집쭈꾸미볶음송탄점","tel":"031-666-6252","addr":"경기도 평택시 독곡동 360-17번지 1층","indutype":"일반휴게음식 - 일반한식","category":"restaurant"}]},{"lat":"37.082876433","long":"127.0596208","imageIndex":4,"items":[{"name":"달인설렁탕","tel":"031-611-5453","addr":"경기도 평택시 독곡동 357-2번지 102호","indutype":"일반휴게음식 - 일반한식","category":"restaurant"},{"name":"조선평양냉면","tel":"031-664-5053","addr":"경기도 평택시 독곡동 357-2번지","indutype":"음식점 - 한식","category":"restaurant"},{"name":"조선평양냉면","tel":"031-668-5686","addr":"경기도 평택시 독곡동 357-2번지 101호","indutype":"일반휴게음식 - 일반한식","category":"restaurant"}]},{"lat":"37.080540418","long":"127.06419626","imageIndex":4,"items":[{"name":"던킨도너츠평택지산점","tel":"031-662-9959","addr":"경기도 평택시 독곡동 488번지 1층 던킨도너츠","indutype":"음식점 - 디저트","category":"restaurant"},{"name":"요우모리","tel":"031-665-0502","addr":"경기도 평택시 독곡동 488번지 우남빌딩 1층","indutype":"일반휴게음식 - 스넥","category":"restaurant"}]},{"lat":"37.087563699","long":"127.07314347","imageIndex":4,"items":[{"name":"또오리","tel":"031-666-9449","addr":"경기도 평택시 독곡동 151번지","indutype":"음식점 - 한식","category":"restaurant"},{"name":"또오리","tel":"031-665-5211","addr":"경기도 평택시 독곡동 151번지","indutype":"일반휴게음식 - 일반한식","category":"restaurant"},{"name":"또오리","tel":"031-666-5245","addr":"경기도 평택시 독곡동 151번지","indutype":"일반휴게음식 - 일반한식","category":"restaurant"}]},{"lat":"37.082314478","long":"127.06614333","imageIndex":4,"items":[{"name":"로웰","tel":"","addr":"경기도 평택시 독곡동 308-21번지 1층","indutype":"일반휴게음식 - 서양음식","category":"restaurant"}]},{"lat":"37.080513502","long":"127.06397132","imageIndex":4,"items":[{"name":"롤앤밥스","tel":"031-667-1278","addr":"경기도 평택시 독곡동 487번지 한성빌딩","indutype":"일반휴게음식 - 스넥","category":"restaurant"},{"name":"롤앤밥스","tel":"031-665-8880","addr":"경기도 평택시 독곡동 487번지","indutype":"음식점 - 한식","category":"restaurant"}]},{"lat":"37.08039663","long":"127.0634539","imageIndex":4,"items":[{"name":"마시고돈내고나가자","tel":"031-665-7895","addr":"경기도 평택시 독곡동 485번지 1층","indutype":"일반휴게음식 - 주점","category":"restaurant"},{"name":"봉구스밥버거 지산점","tel":"031-666-5998","addr":"경기도 평택시 독곡동 485번지","indutype":"일반휴게음식 - 스넥","category":"restaurant"},{"name":"피자마루","tel":"","addr":"경기도 평택시 독곡동 485번지","indutype":"음식점 - 피자","category":"restaurant"},{"name":"피자마루평택지산점","tel":"031-664-1082","addr":"경기도 평택시 독곡동 485번지","indutype":"일반휴게음식 - 서양음식","category":"restaurant"}]},{"lat":"37.081981776","long":"127.06483847","imageIndex":4,"items":[{"name":"맛닭꼬(평택독곡점)","tel":"031-662-5592","addr":"경기도 평택시 독곡동 308번지 지층 101호","indutype":"일반휴게음식 - 스넥","category":"restaurant"},{"name":"소호코지","tel":"031-665-8880","addr":"경기도 평택시 독곡동 308번지","indutype":"일반휴게음식 - 일반한식","category":"restaurant"},{"name":"소호코지","tel":"031-665-8815","addr":"경기도 평택시 독곡동 308번지 2층","indutype":"음식점 - 카페","category":"restaurant"},{"name":"양스소갈비 (YANG'S)","tel":"031-663-7292","addr":"경기도 평택시 독곡동 308번지 1동 지하","indutype":"일반휴게음식 - 일반한식","category":"restaurant"},{"name":"창민연탄불생고기묵은지김치찌개","tel":"031-665-7848","addr":"경기도 평택시 독곡동 308번지","indutype":"일반휴게음식 - 일반한식","category":"restaurant"}]},{"lat":"37.090070093","long":"127.07063757","imageIndex":4,"items":[{"name":"명가가마솥순대국","tel":"031-667-7588","addr":"경기도 평택시 독곡동 40-2번지 1동 1층","indutype":"일반휴게음식 - 일반한식","category":"restaurant"}]},{"lat":"37.081819309","long":"127.06536692","imageIndex":4,"items":[{"name":"반값소송탄점","tel":"031-663-5503","addr":"경기도 평택시 독곡동 308-9번지","indutype":"일반휴게음식 - 일반한식","category":"restaurant"},{"name":"별밤포차","tel":"031-662-3011","addr":"경기도 평택시 독곡동 308-9번지 지층","indutype":"일반휴게음식 - 일반한식","category":"restaurant"},{"name":"세계맥주","tel":"","addr":"경기도 평택시 독곡동 308-9번지 지하","indutype":"일반휴게음식 - 주점","category":"restaurant"},{"name":"토시래평택독곡점","tel":"031-666-7825","addr":"경기도 평택시 독곡동 308-9번지 지하층","indutype":"일반휴게음식 - 일반한식","category":"restaurant"},{"name":"토시래평택독곡점","tel":"031-664-1082","addr":"경기도 평택시 독곡동 308-9번지","indutype":"음식점 - 한식","category":"restaurant"}]},{"lat":"37.080459549","long":"127.0637576","imageIndex":4,"items":[{"name":"베스킨라빈스31","tel":"031-667-8800","addr":"경기도 평택시 독곡동 486번지","indutype":"음식점 - 디저트","category":"restaurant"}]},{"lat":"37.088010803","long":"127.06297632","imageIndex":4,"items":[{"name":"본가장수촌","tel":"","addr":"경기도 평택시 독곡동 381-2번지","indutype":"음식점 - 한식","category":"restaurant"},{"name":"장수촌","tel":"031-664-0373","addr":"경기도 평택시 독곡동 381-2번지","indutype":"일반휴게음식 - 일반한식","category":"restaurant"}]},{"lat":"37.08056786","long":"127.0633978","imageIndex":4,"items":[{"name":"빡빡이네김치돼지찜전골마차","tel":"031-664-0767","addr":"경기도 평택시 독곡동 480번지 1층","indutype":"일반휴게음식 - 일반한식","category":"restaurant"}]},{"lat":"37.087785311","long":"127.06342604","imageIndex":4,"items":[{"name":"사랑방카페청파","tel":"031-123-1234","addr":"경기도 평택시 독곡동 378-1번지 2층","indutype":"일반휴게음식 - 서양음식","category":"restaurant"}]},{"lat":"37.086203674","long":"127.07217497","imageIndex":4,"items":[{"name":"송림황토가든","tel":"031-662-8852","addr":"경기도 평택시 독곡동 144-1번지","indutype":"일반휴게음식 - 일반한식","category":"restaurant"}]},{"lat":"37.080702637","long":"127.06414016","imageIndex":4,"items":[{"name":"스토리78","tel":"031-664-2683","addr":"경기도 평택시 독곡동 476번지","indutype":"일반휴게음식 - 서양음식","category":"restaurant"}]},{"lat":"37.092423806","long":"127.06711905","imageIndex":4,"items":[{"name":"스토리92코지","tel":"031-611-9004","addr":"경기도 평택시 독곡동 16번지 1층","indutype":"일반휴게음식 - 일반한식","category":"restaurant"}]},{"lat":"37.086091786","long":"127.07833823","imageIndex":4,"items":[{"name":"오월","tel":"031-667-8864","addr":"경기도 평택시 독곡동 96번지","indutype":"일반휴게음식 - 일반한식","category":"restaurant"}]},{"lat":"37.08872869","long":"127.0685556","imageIndex":4,"items":[{"name":"우주그늘집","tel":"","addr":"경기도 평택시 독곡동 256번지 A동 1층","indutype":"일반휴게음식 - 일반한식","category":"restaurant"}]},{"lat":"37.090339736","long":"127.07180756","imageIndex":4,"items":[{"name":"일루커피","tel":"070-7543-2009","addr":"경기도 평택시 독곡동 54-6번지 1동 1,2층","indutype":"일반휴게음식 - 서양음식","category":"restaurant"}]},{"lat":"37.08687523","long":"127.07908132","imageIndex":4,"items":[{"name":"전가네","tel":"031-665-0029","addr":"경기도 평택시 독곡동 98번지","indutype":"일반휴게음식 - 일반한식","category":"restaurant"}]},{"lat":"37.080675716","long":"127.06392646","imageIndex":4,"items":[{"name":"정참치","tel":"031-611-2202","addr":"경기도 평택시 독곡동 477번지","indutype":"일반휴게음식 - 일반한식","category":"restaurant"}]},{"lat":"37.088316581","long":"127.06411255","imageIndex":4,"items":[{"name":"중앙식당","tel":"031-611-1199","addr":"경기도 평택시 독곡동 379-2번지 지하동2층","indutype":"일반휴게음식 - 일반한식","category":"restaurant"}]},{"lat":"37.085396927","long":"127.06456007","imageIndex":4,"items":[{"name":"카페봄","tel":"031-668-0908","addr":"경기도 평택시 독곡동 296-3번지 1동 1층","indutype":"일반휴게음식 - 서양음식","category":"restaurant"}]},{"lat":"37.086704283","long":"127.0629528","imageIndex":4,"items":[{"name":"통큰포크","tel":"031-663-9249","addr":"경기도 평택시 독곡동 386-1번지 1층","indutype":"일반휴게음식 - 일반한식","category":"restaurant"}]},{"lat":"37.089955964","long":"127.06514864","imageIndex":4,"items":[{"name":"항아리칼국수","tel":"031-6663-9489","addr":"경기도 평택시 독곡동 238-5번지","indutype":"일반휴게음식 - 일반한식","category":"restaurant"}]},{"lat":"37.08842502","long":"127.06350528","imageIndex":13,"items":[{"name":"강남","tel":"070-9660-6337","addr":"경기도 평택시 독곡동 380-2번지 A동 2층","indutype":"보건위생 - 피부미용실","category":"beauty"}]},{"lat":"37.080315747","long":"127.06303773","imageIndex":13,"items":[{"name":"네일모드","tel":"031-667-2261","addr":"경기도 평택시 독곡동 483번지","indutype":"보건위생 - 피부미용실","category":"beauty"}]},{"lat":"37.080540418","long":"127.06419626","imageIndex":13,"items":[{"name":"몽스네일","tel":"031-611-4106","addr":"경기도 평택시 독곡동 488번지 우남빌딩","indutype":"보건위생 - 화장품","category":"beauty"}]},{"lat":"37.082008251","long":"127.06589565","imageIndex":13,"items":[{"name":"미앤헤어","tel":"031-662-9136","addr":"경기도 평택시 독곡동 308-2번지 지하 101호","indutype":"보건위생 - 미용원","category":"beauty"}]},{"lat":"37.085787203","long":"127.05886942","imageIndex":13,"items":[{"name":"부림유통","tel":"031-611-2912","addr":"경기도 평택시 독곡동 398-30번지","indutype":"보건위생 - 화장품","category":"beauty"}]},{"lat":"37.089483372","long":"127.0724254","imageIndex":13,"items":[{"name":"송옥한증막","tel":"031-666-1566","addr":"경기도 평택시 독곡동 158번지","indutype":"보건위생 - 사우나","category":"beauty"}]},{"lat":"37.08039663","long":"127.0634539","imageIndex":13,"items":[{"name":"에스더미용실","tel":"070-8624-6066","addr":"경기도 평택시 독곡동 485번지","indutype":"서비스업 - 미용","category":"beauty"},{"name":"에스터","tel":"070-8286-3650","addr":"경기도 평택시 독곡동 485번지","indutype":"보건위생 - 미용원","category":"beauty"}]},{"lat":"37.083010988","long":"127.06086927","imageIndex":13,"items":[{"name":"오가닉슈가링","tel":"031-000-0000","addr":"경기도 평택시 독곡동 464번지 라이프상가 303호","indutype":"보건위생 - 화장품","category":"beauty"}]},{"lat":"37.084201264","long":"127.05903696","imageIndex":13,"items":[{"name":"정헤어샵","tel":"031-664-1854","addr":"경기도 평택시 독곡동 404-12번지","indutype":"보건위생 - 미용원","category":"beauty"}]},{"lat":"37.081819309","long":"127.06536692","imageIndex":13,"items":[{"name":"제이필헤어","tel":"031-666-2766","addr":"경기도 평택시 독곡동 308-9번지 지하층","indutype":"보건위생 - 미용원","category":"beauty"}]},{"lat":"37.089037623","long":"127.06373071","imageIndex":13,"items":[{"name":"청명치과기공소","tel":"031-668-4254","addr":"경기도 평택시 독곡동 380번지 2층","indutype":"보건위생 - 의료용품","category":"beauty"}]},{"lat":"37.085201517","long":"127.05886899","imageIndex":13,"items":[{"name":"헤어끌레오","tel":"031-664-5325","addr":"경기도 평택시 독곡동 405-10번지","indutype":"보건위생 - 미용원","category":"beauty"}]},{"lat":"37.089676613","long":"127.0651934","imageIndex":13,"items":[{"name":"홍인메디칼","tel":"033-812-2345","addr":"경기도 평택시 독곡동 239-1번지","indutype":"보건위생 - 의료용품","category":"beauty"}]},{"lat":"37.085506426","long":"127.0618609","imageIndex":0,"items":[{"name":"네비게이션AS센터","tel":"031-667-7119","addr":"경기도 평택시 독곡동 360-15번지","indutype":"자동차정비 유지 - 자동차부품","category":"car"},{"name":"송탄 밧데리 할인매장 구가네","tel":"","addr":"경기도 평택시 독곡동 360-15번지 1층 101호","indutype":"자동차정비 유지 - 자동차부품","category":"car"}]},{"lat":"37.084452229","long":"127.06178136","imageIndex":0,"items":[{"name":"넥센타이어(주)타이어테크 평택독곡점","tel":"031-664-5985","addr":"경기도 평택시 독곡동 360번지","indutype":"자동차정비 유지 - 자동차시트·타이어","category":"car"}]},{"lat":"37.089402703","long":"127.07169424","imageIndex":0,"items":[{"name":"두원상사","tel":"031-611-6321","addr":"경기도 평택시 독곡동 159번지","indutype":"자동차정비 유지 - 자동차부품","category":"car"},{"name":"영일디젤차량전문점","tel":"031-665-0141","addr":"경기도 평택시 독곡동 159번지","indutype":"자동차정비 유지 - 자동차정비","category":"car"}]},{"lat":"37.090153268","long":"127.06689218","imageIndex":0,"items":[{"name":"신성모터스","tel":"031-666-2388","addr":"경기도 평택시 독곡동 238-8번지","indutype":"자동차정비 유지 - 자동차정비","category":"car"}]},{"lat":"37.086264726","long":"127.0589485","imageIndex":0,"items":[{"name":"쌍용자동차 호룡서비스프라자","tel":"031-664-5581","addr":"경기도 평택시 독곡동 398-5번지","indutype":"자동차정비 유지 - 자동차정비","category":"car"}]},{"lat":"37.084895253","long":"127.05866632","imageIndex":0,"items":[{"name":"제일텐트칼라","tel":"031-8094-0312","addr":"경기도 평택시 독곡동 406-37번지","indutype":"자동차정비 유지 - 자동차정비","category":"car"}]},{"lat":"37.083958165","long":"127.05864314","imageIndex":0,"items":[{"name":"차사랑세차장","tel":"031-663-5048","addr":"경기도 평택시 독곡동 406-73번지","indutype":"자동차정비 유지 - 세차장","category":"car"}]},{"lat":"37.087262927","long":"127.06297573","imageIndex":0,"items":[{"name":"한길상사","tel":"031-668-5185","addr":"경기도 평택시 독곡동 384-6번지","indutype":"자동차정비 유지 - 윤활유 전문 판매","category":"car"}]},{"lat":"37.084147466","long":"127.05847458","imageIndex":9,"items":[{"name":"대원주유소","tel":"031-662-1109","addr":"경기도 평택시 독곡동 406-5번지","indutype":"소매업 - 주유소","category":"oil"}]},{"lat":"37.086173247","long":"127.06178269","imageIndex":7,"items":[{"name":"델리퀸 송탄점","tel":"031-611-6630","addr":"경기도 평택시 독곡동 360-17번지","indutype":"음료식품 - 정육점","category":"food"}]},{"lat":"37.089368793","long":"127.06791505","imageIndex":7,"items":[{"name":"디와이 인터내셔널","tel":"02-895-2800","addr":"경기도 평택시 독곡동 255-1번지","indutype":"음료식품 - 기타음료식품","category":"food"}]},{"lat":"37.089148892","long":"127.07425843","imageIndex":7,"items":[{"name":"마이비","tel":"031-663-2577","addr":"경기도 평택시 독곡동 64-4번지 폐기물재활용시설 다동","indutype":"음료식품 - 기타음료식품","category":"food"}]},{"lat":"37.080459549","long":"127.0637576","imageIndex":7,"items":[{"name":"배스킨라빈스 (독곡점)","tel":"031-666-3521","addr":"경기도 평택시 독곡동 486번지","indutype":"음료식품 - 제과점","category":"food"},{"name":"정육의신","tel":"","addr":"경기도 평택시 독곡동 486번지 DC프라자내정육코너","indutype":"음료식품 - 정육점","category":"food"},{"name":"정육의신","tel":"031-611-2234","addr":"경기도 평택시 독곡동 486번지 1층","indutype":"음료식품 - 정육점","category":"food"}]},{"lat":"37.080540418","long":"127.06419626","imageIndex":7,"items":[{"name":"송탄명품찹쌀꽈배기","tel":"","addr":"경기도 평택시 독곡동 488번지 우남빌딩 1층","indutype":"음료식품 - 제과점","category":"food"}]},{"lat":"37.088316581","long":"127.06411255","imageIndex":7,"items":[{"name":"송탄중앙매점","tel":"070-5117-0872","addr":"경기도 평택시 독곡동 379-2번지","indutype":"음료식품 - 기타음료식품","category":"food"}]},{"lat":"37.0811796","long":"127.06528767","imageIndex":7,"items":[{"name":"아이스크림할인점","tel":"031-664-7148","addr":"경기도 평택시 독곡동 491번지 대림상가 102호","indutype":"음료식품 - 기타음료식품","category":"food"}]},{"lat":"37.080675716","long":"127.06392646","imageIndex":7,"items":[{"name":"이리디센트","tel":"","addr":"경기도 평택시 독곡동 477번지 302호","indutype":"음료식품 - 기타음료식품","category":"food"}]},{"lat":"37.08964987","long":"127.06464225","imageIndex":7,"items":[{"name":"인호유통","tel":"","addr":"경기도 평택시 독곡동 239-3번지","indutype":"음료식품 - 기타음료식품","category":"food"}]},{"lat":"37.092423806","long":"127.06711905","imageIndex":7,"items":[{"name":"펨푸드","tel":"","addr":"경기도 평택시 독곡동 16번지","indutype":"음료식품 - 기타음료식품","category":"food"}]},{"lat":"37.086597983","long":"127.05922993","imageIndex":7,"items":[{"name":"하나수산","tel":"031-611-3637","addr":"경기도 평택시 독곡동 394-8번지","indutype":"음료식품 - 농·축·수산품","category":"food"}]},{"lat":"37.080513502","long":"127.06397132","imageIndex":13,"items":[{"name":"리즈 요가","tel":"031-611-1590","addr":"경기도 평택시 독곡동 487번지 한성빌딩 2층","indutype":"레저업소 - 헬스클럽","category":"leisure"}]},{"lat":"37.080540418","long":"127.06419626","imageIndex":13,"items":[{"name":"미소탁구장","tel":"031-662-1254","addr":"경기도 평택시 독곡동 488번지 우남빌딩 지하호","indutype":"레저업소 - 기타레져업소","category":"leisure"}]},{"lat":"37.08056786","long":"127.0633978","imageIndex":13,"items":[{"name":"비엠 (BM)스쿼시클럽","tel":"031-000-0000","addr":"경기도 평택시 독곡동 480번지 4층","indutype":"레저업소 - 헬스클럽","category":"leisure"}]},{"lat":"37.08039663","long":"127.0634539","imageIndex":13,"items":[{"name":"빅토리 당구클럽","tel":"070-7198-2966","addr":"경기도 평택시 독곡동 485번지 2층","indutype":"레저업소 - 당 구 장","category":"leisure"}]},{"lat":"37.083426302","long":"127.05914885","imageIndex":13,"items":[{"name":"오케이당구클럽","tel":"031-000-0000","addr":"경기도 평택시 독곡동 406-16번지 2층","indutype":"레저업소 - 당 구 장","category":"leisure"}]},{"lat":"37.08823291","long":"127.06891509","imageIndex":13,"items":[{"name":"우주골프주식회사","tel":"031-666-5566","addr":"경기도 평택시 독곡동 258번지","indutype":"레저업소 - 골프연습장","category":"leisure"}]},{"lat":"37.082876433","long":"127.0596208","imageIndex":13,"items":[{"name":"원 당구클럽","tel":"031-664-1219","addr":"경기도 평택시 독곡동 357-2번지 2층","indutype":"레저업소 - 당 구 장","category":"leisure"}]},{"lat":"37.080315747","long":"127.06303773","imageIndex":8,"items":[{"name":"모은종치과의원","tel":"031-611-2275","addr":"경기도 평택시 독곡동 483번지 서북빌딩 2층","indutype":"의원 - 치과의원","category":"medical"}]},{"lat":"37.089037623","long":"127.06373071","imageIndex":8,"items":[{"name":"미리내의원","tel":"031-611-1218","addr":"경기도 평택시 독곡동 380번지","indutype":"의원 - 의원","category":"medical"}]},{"lat":"37.088312458","long":"127.07163702","imageIndex":8,"items":[{"name":"서울요양병원","tel":"02-1644-9339","addr":"경기도 평택시 독곡동 155-1번지","indutype":"병원 - 병원","category":"medical"}]},{"lat":"37.087785311","long":"127.06342604","imageIndex":8,"items":[{"name":"예은약국","tel":"031-664-1046","addr":"경기도 평택시 독곡동 378-1번지 2층","indutype":"약국 - 약국","category":"medical"},{"name":"예은약국","tel":"031-666-1909","addr":"경기도 평택시 독곡동 378-1번지 2층","indutype":"소매업 - 약국","category":"medical"}]},{"lat":"37.080540418","long":"127.06419626","imageIndex":8,"items":[{"name":"유일약국","tel":"031-666-1909","addr":"경기도 평택시 독곡동 488번지","indutype":"약국 - 약국","category":"medical"},{"name":"유일약국","tel":"080-667-0909","addr":"경기도 평택시 독곡동 488번지","indutype":"소매업 - 약국","category":"medical"},{"name":"좋은샘가정의학과의원","tel":"031-668-9411","addr":"경기도 평택시 독곡동 488번지 우남빌딩 2층","indutype":"의원 - 의원","category":"medical"}]}]