[{"lat":"37.590510835","long":"127.38159555","imageIndex":5,"items":[{"name":"개편한세상","tel":"031-772-7686","addr":"경기도 양평군 서종면 수능리 285-10번지","indutype":"숙박업 - 여관/기타숙박업","category":"hotel"}]},{"lat":"37.590124547","long":"127.3812426","imageIndex":5,"items":[{"name":"구름도바람도쉬어가는펜션","tel":"","addr":"경기도 양평군 서종면 수능리 284번지","indutype":"숙박업 - 여관/기타숙박업","category":"hotel"}]},{"lat":"37.591237232","long":"127.38821159","imageIndex":5,"items":[{"name":"내친구의집 펜션","tel":"031-772-6799","addr":"경기도 양평군 서종면 수능리 159-3번지","indutype":"숙박업 - 여관/기타숙박업","category":"hotel"}]},{"lat":"37.591007363","long":"127.38962571","imageIndex":5,"items":[{"name":"둥지펜션","tel":"031-774-9178","addr":"경기도 양평군 서종면 수능리 175-9번지","indutype":"숙박업 - 여관/기타숙박업","category":"hotel"}]},{"lat":"37.590012854","long":"127.37954368","imageIndex":5,"items":[{"name":"메종드씨엘","tel":"031-775-6896","addr":"경기도 양평군 서종면 수능리 360-2번지","indutype":"숙박업 - 여관/기타숙박업","category":"hotel"}]},{"lat":"37.590761987","long":"127.37912853","imageIndex":5,"items":[{"name":"별봄펜션","tel":"031-771-7324","addr":"경기도 양평군 서종면 수능리 361-20번지","indutype":"숙박업 - 여관/기타숙박업","category":"hotel"}]},{"lat":"37.576984271","long":"127.39082106","imageIndex":5,"items":[{"name":"별장펜션","tel":"031-4643-7270","addr":"경기도 양평군 서종면 수능리 258-6번지","indutype":"숙박업 - 여관/기타숙박업","category":"hotel"}]},{"lat":"37.591677888","long":"127.38846295","imageIndex":5,"items":[{"name":"사이다펜션","tel":"031-000-0000","addr":"경기도 양평군 서종면 수능리 160-1번지","indutype":"숙박업 - 여관/기타숙박업","category":"hotel"}]},{"lat":"37.578011216","long":"127.38812078","imageIndex":5,"items":[{"name":"산내음펜션","tel":"031-775-6040","addr":"경기도 양평군 서종면 수능리 250-3","indutype":"숙박업 - 여관/기타숙박업","category":"hotel"}]},{"lat":"37.58379084","long":"127.39770582","imageIndex":5,"items":[{"name":"엘리스펜션","tel":"031-774-8754","addr":"경기도 양평군 서종면 수능리 25-3번지","indutype":"숙박업 - 여관/기타숙박업","category":"hotel"}]},{"lat":"37.592652268","long":"127.37968154","imageIndex":5,"items":[{"name":"징검다리민박","tel":"031-773-6280","addr":"경기도 양평군 서종면 수능리 297-10번지","indutype":"숙박업 - 여관/기타숙박업","category":"hotel"}]},{"lat":"37.584980754","long":"127.39481378","imageIndex":5,"items":[{"name":"태양펜션","tel":"031-775-9005","addr":"경기도 양평군 서종면 수능리 117번지","indutype":"숙박업 - 여관/기타숙박업","category":"hotel"}]},{"lat":"37.584123816","long":"127.39782079","imageIndex":5,"items":[{"name":"테라","tel":"031-771-9833","addr":"경기도 양평군 서종면 수능리 22번지","indutype":"숙박업 - 여관/기타숙박업","category":"hotel"}]},{"lat":"37.590174666","long":"127.37965772","imageIndex":5,"items":[{"name":"테이트펜션","tel":"031-775-3572","addr":"경기도 양평군 서종면 수능리 360-14번지","indutype":"숙박업 - 여관/기타숙박업","category":"hotel"}]},{"lat":"37.574373194","long":"127.3902868","imageIndex":5,"items":[{"name":"펜션ABC풀하우스","tel":"03-771-9694","addr":"경기도 양평군 서종면 수능리 261-1번지 12","indutype":"숙박업 - 여관/기타숙박업","category":"hotel"}]},{"lat":"37.585514535","long":"127.3941486","imageIndex":5,"items":[{"name":"하얀나무펜션","tel":"02-1111-1111","addr":"경기도 양평군 서종면 수능리 144-2번지","indutype":"숙박업 - 여관/기타숙박업","category":"hotel"}]},{"lat":"37.585402248","long":"127.39540471","imageIndex":7,"items":[{"name":"구판장","tel":"031-774-8204","addr":"경기도 양평군 서종면 수능리 137-1번지","indutype":"음료식품 - 기타음료식품","category":"food"}]},{"lat":"37.590929463","long":"127.38865158","imageIndex":7,"items":[{"name":"농업회사법인 파라리 (주)","tel":"031-774-2238","addr":"경기도 양평군 서종면 수능리 174-1","indutype":"회원제형태 - 건강식품","category":"food"}]},{"lat":"37.601593186","long":"127.37295481","imageIndex":7,"items":[{"name":"서울상회","tel":"031-773-6132","addr":"경기도 양평군 서종면 수능리 422-5번지","indutype":"음료식품 - 기타음료식품","category":"food"}]},{"lat":"37.599813752","long":"127.37151919","imageIndex":7,"items":[{"name":"수능리농장","tel":"031-774-2025","addr":"경기도 양평군 서종면 수능리 406-5","indutype":"음료식품 - 농·축·수산품","category":"food"}]},{"lat":"37.597147628","long":"127.38264829","imageIndex":7,"items":[{"name":"형제농장","tel":"031-773-9952","addr":"경기도 양평군 서종면 수능리 304-1번지","indutype":"음료식품 - 정육점","category":"food"}]},{"lat":"37.601369224","long":"127.37254603","imageIndex":17,"items":[{"name":"그린하루","tel":"","addr":"경기도 양평군 서종면 수능리 422-7번지","indutype":"신변잡화 - 기타잡화","category":"other"},{"name":"그린하루","tel":"031-771-8731","addr":"경기도 양평군 서종면 수능리 422-7번지","indutype":"신변잡화 - 기타잡화","category":"other"}]},{"lat":"37.591290373","long":"127.38012757","imageIndex":17,"items":[{"name":"미래산업","tel":"031-775-4155","addr":"경기도 양평군 서종면 수능리 295-7번지 2층","indutype":"용역 서비스 - 기타용역서비스","category":"other"}]},{"lat":"37.59559623","long":"127.38318392","imageIndex":17,"items":[{"name":"비즘","tel":"031-771-0469","addr":"경기도 양평군 서종면 수능리 301-1번지","indutype":"문화.취미 - 민예·공예품","category":"other"}]},{"lat":"37.597843185","long":"127.37643521","imageIndex":17,"items":[{"name":"세모지붕","tel":"031-772-7304","addr":"경기도 양평군 서종면 수능리 319-2번지","indutype":"문화.취미 - 민예·공예품","category":"other"}]},{"lat":"37.586619149","long":"127.38701031","imageIndex":17,"items":[{"name":"슬립랜드","tel":"031-850-3851","addr":"경기도 양평군 서종면 수능리 215-2번지","indutype":"직물 - 침구·수예점","category":"other"}]},{"lat":"37.602040857","long":"127.37385164","imageIndex":17,"items":[{"name":"씨유양평연소나기점","tel":"031-239-6697","addr":"경기도 양평군 서종면 수능리 418-1번지","indutype":"유통업 영리 - 편 의 점","category":"other"}]},{"lat":"37.596703715","long":"127.3834047","imageIndex":17,"items":[{"name":"아이티 ( IT ) 뮤직카타","tel":"","addr":"경기도 양평군 서종면 수능리 304-20번지 1동","indutype":"용역 서비스 - 종합용역","category":"other"}]},{"lat":"37.58234398","long":"127.39115454","imageIndex":17,"items":[{"name":"유로키친","tel":"070-4493-9545","addr":"경기도 양평군 서종면 수능리 80-5번지","indutype":"주방용구 - 주방용구","category":"other"}]},{"lat":"37.584929075","long":"127.38862061","imageIndex":17,"items":[{"name":"이레설비건설","tel":"031-771-5007","addr":"경기도 양평군 서종면 수능리 207-2번지","indutype":"용역 서비스 - 기타용역서비스","category":"other"}]},{"lat":"37.580789408","long":"127.38990116","imageIndex":17,"items":[{"name":"청뫼한지공예품","tel":"031-773-7537","addr":"경기도 양평군 서종면 수능리 252-3","indutype":"문화.취미 - 민예·공예품","category":"other"}]},{"lat":"37.58406847","long":"127.39820543","imageIndex":17,"items":[{"name":"테라PS","tel":"031-771-9833","addr":"경기도 양평군 서종면 수능리 23번지","indutype":"직물 - 침구·수예점","category":"other"}]},{"lat":"37.597147628","long":"127.38264829","imageIndex":4,"items":[{"name":"도토리창고","tel":"031-774-7080","addr":"경기도 양평군 서종면 수능리 304-1번지","indutype":"일반휴게음식 - 일반한식","category":"restaurant"}]},{"lat":"37.597649786","long":"127.37204072","imageIndex":4,"items":[{"name":"들꽃가든","tel":"031-771-6757","addr":"경기도 양평군 서종면 수능리 380-1번지","indutype":"일반휴게음식 - 일반한식","category":"restaurant"}]},{"lat":"37.594869026","long":"127.37956816","imageIndex":4,"items":[{"name":"레메디 (Remedy)","tel":"","addr":"경기도 양평군 서종면 수능리 337-3번지","indutype":"일반휴게음식 - 서양음식","category":"restaurant"}]},{"lat":"37.593848095","long":"127.37762679","imageIndex":4,"items":[{"name":"사단법인황순원기념사업회/소녀네가겟방","tel":"031-2975-8541","addr":"경기도 양평군 서종면 수능리 산74","indutype":"일반휴게음식 - 스넥","category":"restaurant"}]},{"lat":"37.590512795","long":"127.38098415","imageIndex":4,"items":[{"name":"송학가든","tel":"031-772-0810","addr":"경기도 양평군 서종면 수능리 283-4번지","indutype":"일반휴게음식 - 일반한식","category":"restaurant"}]},{"lat":"37.594538799","long":"127.38698308","imageIndex":4,"items":[{"name":"아이엠","tel":"02-6393-6388","addr":"경기도 양평군 서종면 수능리 303-64번지","indutype":"일반휴게음식 - 일반한식","category":"restaurant"}]},{"lat":"37.578286333","long":"127.38940142","imageIndex":4,"items":[{"name":"착한전주밥상","tel":"031-775-5771","addr":"경기도 양평군 서종면 수능리 256번지","indutype":"일반휴게음식 - 일반한식","category":"restaurant"}]},{"lat":"37.579349466","long":"127.38940692","imageIndex":4,"items":[{"name":"초컬릿","tel":"031-774-7708","addr":"경기도 양평군 서종면 수능리 250-10번지","indutype":"일반휴게음식 - 일반한식","category":"restaurant"}]},{"lat":"37.582765365","long":"127.38903966","imageIndex":7,"items":[{"name":"삼거리마트","tel":"031-773-6295","addr":"경기도 양평군 서종면 수능리 232-2번지","indutype":"유통업 영리 - 슈퍼마켓","category":"mart"}]},{"lat":"37.59639529","long":"127.3784322","imageIndex":16,"items":[{"name":"양평임실치즈마을","tel":"031-771-1505","addr":"경기도 양평군 서종면 수능리 300-31번지","indutype":"학원 - 기타 교육기관","category":"study"},{"name":"양평임실치즈마을","tel":"031-771-1505","addr":"경기도 양평군 서종면 수능리 300-31","indutype":"학원 - 기타 교육기관","category":"study"}]},{"lat":"37.595039239","long":"127.38268287","imageIndex":16,"items":[{"name":"양평치즈체험마을","tel":"031-772-7004","addr":"경기도 양평군 서종면 수능리 299번지","indutype":"학원 - 기타 교육기관","category":"study"}]}]