[{"lat":"37.008830494","long":"127.2770085","imageIndex":4,"items":[{"name":"계림촌","tel":"031-671-9936","addr":"경기도 안성시 봉남동 356번지","indutype":"일반휴게음식 - 일반한식","category":"restaurant"},{"name":"오늘또내일","tel":"031-677-6884","addr":"경기도 안성시 봉남동 356번지","indutype":"일반휴게음식 - 주점","category":"restaurant"},{"name":"전통손만두국","tel":"031-674-2928","addr":"경기도 안성시 봉남동 356번지","indutype":"일반휴게음식 - 일반한식","category":"restaurant"}]},{"lat":"37.005524906","long":"127.27643487","imageIndex":4,"items":[{"name":"막주골","tel":"031-677-9145","addr":"경기도 안성시 봉남동 13-5번지 하호 1층","indutype":"일반휴게음식 - 주점","category":"restaurant"},{"name":"완도산참전복구이","tel":"031-675-2783","addr":"경기도 안성시 봉남동 13-5번지","indutype":"일반휴게음식 - 일반한식","category":"restaurant"}]},{"lat":"37.006608502","long":"127.27542758","imageIndex":4,"items":[{"name":"메모리즈","tel":"031-677-3166","addr":"경기도 안성시 봉남동 18-1번지","indutype":"일반휴게음식 - 주점","category":"restaurant"}]},{"lat":"37.009552093","long":"127.27668525","imageIndex":4,"items":[{"name":"비밀정원","tel":"031-671-3168","addr":"경기도 안성시 봉남동 352번지 2층","indutype":"일반휴게음식 - 서양음식","category":"restaurant"},{"name":"비봉산 곱창전골","tel":"031-671-3168","addr":"경기도 안성시 봉남동 352번지 1층","indutype":"일반휴게음식 - 일반한식","category":"restaurant"}]},{"lat":"37.008662218","long":"127.27573827","imageIndex":4,"items":[{"name":"삼죽옻닭","tel":"031-675-8130","addr":"경기도 안성시 봉남동 338-6번지","indutype":"일반휴게음식 - 일반한식","category":"restaurant"}]},{"lat":"37.006416021","long":"127.27684253","imageIndex":4,"items":[{"name":"성신식당","tel":"031-673-3723","addr":"경기도 안성시 봉남동 5-1번지","indutype":"일반휴게음식 - 일반한식","category":"restaurant"}]},{"lat":"37.006163906","long":"127.27676298","imageIndex":4,"items":[{"name":"안성깍두기","tel":"031-671-5523","addr":"경기도 안성시 봉남동 6-2번지","indutype":"일반휴게음식 - 일반한식","category":"restaurant"}]},{"lat":"37.005472703","long":"127.27562576","imageIndex":4,"items":[{"name":"오로라쥬스","tel":"031-675-4715","addr":"경기도 안성시 봉남동 9-4번지 1층 코너","indutype":"일반휴게음식 - 서양음식","category":"restaurant"}]},{"lat":"37.007386398","long":"127.27412705","imageIndex":4,"items":[{"name":"채움도시락","tel":"031-673-7377","addr":"경기도 안성시 봉남동 322-3번지 1층","indutype":"일반휴게음식 - 일반한식","category":"restaurant"}]}]