[{"lat":"37.700833851","long":"127.51727336","imageIndex":0,"items":[{"name":"(주)포세이돈","tel":"031-585-7461","addr":"경기도 가평군 청평면 고성리 25-6번지","indutype":"자동차판매 - 이륜차판매","category":"car"}]},{"lat":"37.714473958","long":"127.50480159","imageIndex":7,"items":[{"name":"(주)현대그린푸드 청평연수원매점","tel":"","addr":"경기도 가평군 청평면 고성리 410-1번지 본관 1층","indutype":"음료식품 - 기타음료식품","category":"food"}]},{"lat":"37.709028127","long":"127.47750258","imageIndex":7,"items":[{"name":"라쿠나","tel":"031-585-7060","addr":"경기도 가평군 청평면 고성리 775-3번지","indutype":"음료식품 - 기타음료식품","category":"food"},{"name":"라쿠나","tel":"031-584-5709","addr":"경기도 가평군 청평면 고성리 775-3번지","indutype":"음료식품 - 기타음료식품","category":"food"}]},{"lat":"37.715029852","long":"127.49041324","imageIndex":7,"items":[{"name":"바오밥","tel":"031-584-8200","addr":"경기도 가평군 청평면 고성리 616-2번지","indutype":"음료식품 - 기타음료식품","category":"food"},{"name":"사막여우","tel":"031-584-8200","addr":"경기도 가평군 청평면 고성리 616-2번지","indutype":"음료식품 - 기타음료식품","category":"food"}]},{"lat":"37.715442215","long":"127.49091496","imageIndex":7,"items":[{"name":"본베이","tel":"031-111-1111","addr":"경기도 가평군 청평면 고성리 616번지","indutype":"음료식품 - 기타음료식품","category":"food"},{"name":"셰리스윗","tel":"","addr":"경기도 가평군 청평면 고성리 616번지 1층","indutype":"음료식품 - 기타음료식품","category":"food"},{"name":"올리브","tel":"031-585-8144","addr":"경기도 가평군 청평면 고성리 616번지 2층","indutype":"음료식품 - 기타음료식품","category":"food"}]},{"lat":"37.717196198","long":"127.5002266","imageIndex":7,"items":[{"name":"산모퉁이","tel":"031-585-6305","addr":"경기도 가평군 청평면 고성리 488-4번지","indutype":"음료식품 - 기타음료식품","category":"food"}]},{"lat":"37.714945202","long":"127.49127462","imageIndex":7,"items":[{"name":"수아유통","tel":"","addr":"경기도 가평군 청평면 고성리 615-2번지","indutype":"음료식품 - 기타음료식품","category":"food"},{"name":"오닭꼬치푸드","tel":"","addr":"경기도 가평군 청평면 고성리 615-2번지 1동 1층","indutype":"음료식품 - 기타음료식품","category":"food"},{"name":"제퍼커피 고성리점","tel":"","addr":"경기도 가평군 청평면 고성리 615-2번지","indutype":"음료식품 - 기타음료식품","category":"food"}]},{"lat":"37.711863083","long":"127.48930377","imageIndex":7,"items":[{"name":"알로하매점","tel":"031-585-6720","addr":"경기도 가평군 청평면 고성리 579-5번지","indutype":"음료식품 - 기타음료식품","category":"food"}]},{"lat":"37.700723893","long":"127.51146698","imageIndex":7,"items":[{"name":"어썸커피","tel":"031-584-2365","addr":"경기도 가평군 청평면 고성리 52번지 1층","indutype":"음료식품 - 기타음료식품","category":"food"}]},{"lat":"37.710189908","long":"127.48428031","imageIndex":7,"items":[{"name":"주식회사 캠프통","tel":"070-8857-1219","addr":"경기도 가평군 청평면 고성리 761-5번지 캠프통아일랜드","indutype":"음료식품 - 기타음료식품","category":"food"},{"name":"주식회사 캠프통","tel":"031-585-6000","addr":"경기도 가평군 청평면 고성리 761-5번지 캠프통아일랜드","indutype":"음료식품 - 기타음료식품","category":"food"}]},{"lat":"37.710578136","long":"127.48186727","imageIndex":7,"items":[{"name":"청평다감","tel":"031-585-4789","addr":"경기도 가평군 청평면 고성리 786-20번지","indutype":"음료식품 - 기타음료식품","category":"food"}]},{"lat":"37.700723893","long":"127.51146698","imageIndex":13,"items":[{"name":"CLUB FUN","tel":"031-584-2365","addr":"경기도 가평군 청평면 고성리 52번지","indutype":"레저업소 - 기타레져업소","category":"leisure"}]},{"lat":"37.71119649","long":"127.48927673","imageIndex":13,"items":[{"name":"래져프랜드","tel":"031-584-7759","addr":"경기도 가평군 청평면 고성리 577-1번지","indutype":"레저업소 - 기타레져업소","category":"leisure"}]},{"lat":"37.708083714","long":"127.51377397","imageIndex":13,"items":[{"name":"에이플러스(a+)","tel":"031-584-3121","addr":"경기도 가평군 청평면 고성리 161번지 청평스포랜드 503호","indutype":"레저업소 - 기타레져업소","category":"leisure"}]},{"lat":"37.702530409","long":"127.51663874","imageIndex":13,"items":[{"name":"주식회사 감성","tel":"031-585-5757","addr":"경기도 가평군 청평면 고성리 21번지","indutype":"레저업소 - 기타레져업소","category":"leisure"}]},{"lat":"37.707388428","long":"127.51413208","imageIndex":13,"items":[{"name":"주식회사가평스포랜드","tel":"031-584-3121","addr":"경기도 가평군 청평면 고성리 142","indutype":"레저업소 - 기타레져업소","category":"leisure"}]},{"lat":"37.727996402","long":"127.48777584","imageIndex":13,"items":[{"name":"청평마루승마클럽","tel":"031-584-6657","addr":"경기도 가평군 청평면 고성리 636-3번지","indutype":"레저업소 - 기타레져업소","category":"leisure"}]},{"lat":"37.712660013","long":"127.48831098","imageIndex":5,"items":[{"name":"강이흐르는마을","tel":"031-585-8903","addr":"경기도 가평군 청평면 고성리 578-25","indutype":"숙박업 - 여관/기타숙박업","category":"hotel"}]},{"lat":"37.71194053","long":"127.48800008","imageIndex":5,"items":[{"name":"구름발치","tel":"031-585-8133","addr":"경기도 가평군 청평면 고성리 578-23","indutype":"숙박업 - 여관/기타숙박업","category":"hotel"}]},{"lat":"37.70410653","long":"127.51261271","imageIndex":5,"items":[{"name":"대덕펜션","tel":"031-585-9435","addr":"경기도 가평군 청평면 고성리 105번지","indutype":"숙박업 - 여관/기타숙박업","category":"hotel"}]},{"lat":"37.705690752","long":"127.51502761","imageIndex":5,"items":[{"name":"도치빌펜션","tel":"031-585-8913","addr":"경기도 가평군 청평면 고성리 80번지","indutype":"숙박업 - 여관/기타숙박업","category":"hotel"}]},{"lat":"37.702300906","long":"127.51138704","imageIndex":5,"items":[{"name":"뜨라레","tel":"031-584-3233","addr":"경기도 가평군 청평면 고성리 98-2번지","indutype":"숙박업 - 여관/기타숙박업","category":"hotel"},{"name":"뜨라제","tel":"031-584-3235","addr":"경기도 가평군 청평면 고성리 98-2번지","indutype":"숙박업 - 여관/기타숙박업","category":"hotel"}]},{"lat":"37.71252422","long":"127.48846887","imageIndex":5,"items":[{"name":"레이크빌","tel":"031-585-8903","addr":"경기도 가평군 청평면 고성리 578-1번지","indutype":"숙박업 - 여관/기타숙박업","category":"hotel"}]},{"lat":"37.710942878","long":"127.4874152","imageIndex":5,"items":[{"name":"레이크테라스","tel":"070-8841-7069","addr":"경기도 가평군 청평면 고성리 764-5번지","indutype":"숙박업 - 여관/기타숙박업","category":"hotel"}]},{"lat":"37.716496041","long":"127.48661209","imageIndex":5,"items":[{"name":"로뎀펜션","tel":"031-585-9986","addr":"경기도 가평군 청평면 고성리 720-2번지","indutype":"숙박업 - 여관/기타숙박업","category":"hotel"}]},{"lat":"37.712999749","long":"127.48894829","imageIndex":5,"items":[{"name":"리더스펜션","tel":"031-585-7176","addr":"경기도 가평군 청평면 고성리 578-7","indutype":"숙박업 - 여관/기타숙박업","category":"hotel"}]},{"lat":"37.708495998","long":"127.51218916","imageIndex":5,"items":[{"name":"버디버디","tel":"031-584-0832","addr":"경기도 가평군 청평면 고성리 164-3번지","indutype":"숙박업 - 여관/기타숙박업","category":"hotel"}]},{"lat":"37.708386809","long":"127.5124379","imageIndex":5,"items":[{"name":"버디하우스","tel":"031-584-0832","addr":"경기도 가평군 청평면 고성리 164-2","indutype":"숙박업 - 여관/기타숙박업","category":"hotel"}]},{"lat":"37.701940049","long":"127.50730243","imageIndex":5,"items":[{"name":"브이10(V10)","tel":"070-7825-5575","addr":"경기도 가평군 청평면 고성리 321-2번지","indutype":"숙박업 - 여관/기타숙박업","category":"hotel"}]},{"lat":"37.703000425","long":"127.50794462","imageIndex":5,"items":[{"name":"브이10-1 (V10-1)","tel":"070-7825-5575","addr":"경기도 가평군 청평면 고성리 278-4번지","indutype":"숙박업 - 여관/기타숙박업","category":"hotel"}]},{"lat":"37.703558562","long":"127.50805047","imageIndex":5,"items":[{"name":"브이10-2 (V10-2)","tel":"02-1111-1111","addr":"경기도 가평군 청평면 고성리 278-3번지","indutype":"숙박업 - 여관/기타숙박업","category":"hotel"}]},{"lat":"37.719937909","long":"127.48655508","imageIndex":5,"items":[{"name":"상수리나무","tel":"031-584-1147","addr":"경기도 가평군 청평면 고성리 689번지 외9필지","indutype":"숙박업 - 여관/기타숙박업","category":"hotel"}]},{"lat":"37.713355205","long":"127.49014142","imageIndex":5,"items":[{"name":"샤갈스파펜션","tel":"","addr":"경기도 가평군 청평면 고성리 584번지","indutype":"숙박업 - 여관/기타숙박업","category":"hotel"}]},{"lat":"37.705057203","long":"127.51153061","imageIndex":5,"items":[{"name":"샤갈의마을","tel":"031-585-9111","addr":"경기도 가평군 청평면 고성리 115번지","indutype":"숙박업 - 여관/기타숙박업","category":"hotel"}]},{"lat":"37.714473958","long":"127.50480159","imageIndex":5,"items":[{"name":"에스티엑스팬오션주식회사","tel":"031-316-5104","addr":"경기도 가평군 청평면 고성리 410-1번지 한바다연수원","indutype":"숙박업 - 여관/기타숙박업","category":"hotel"}]},{"lat":"37.704557259","long":"127.51463426","imageIndex":5,"items":[{"name":"오이코스팬션","tel":"031-584-1485","addr":"경기도 가평군 청평면 고성리 89번지","indutype":"숙박업 - 여관/기타숙박업","category":"hotel"}]},{"lat":"37.703528235","long":"127.51508077","imageIndex":5,"items":[{"name":"오페라레이크사이드펜션","tel":"031-585-8936","addr":"경기도 가평군 청평면 고성리 66-4번지","indutype":"숙박업 - 여관/기타숙박업","category":"hotel"},{"name":"오페라연수원","tel":"031-585-8936","addr":"경기도 가평군 청평면 고성리 66-4번지","indutype":"숙박업 - 여관/기타숙박업","category":"hotel"},{"name":"오페라하우스","tel":"031-585-8936","addr":"경기도 가평군 청평면 고성리 66-4번지","indutype":"숙박업 - 여관/기타숙박업","category":"hotel"}]},{"lat":"37.701943819","long":"127.51686148","imageIndex":5,"items":[{"name":"올덴","tel":"031-585-5558","addr":"경기도 가평군 청평면 고성리 23번지","indutype":"숙박업 - 여관/기타숙박업","category":"hotel"}]},{"lat":"37.710857562","long":"127.48183504","imageIndex":5,"items":[{"name":"인터라켄스테이","tel":"031-585-4789","addr":"경기도 가평군 청평면 고성리 786-3번지","indutype":"숙박업 - 여관/기타숙박업","category":"hotel"}]},{"lat":"37.710578136","long":"127.48186727","imageIndex":5,"items":[{"name":"인터라켄펜션","tel":"031-585-4789","addr":"경기도 가평군 청평면 고성리 786-20번지 외2필지","indutype":"숙박업 - 여관/기타숙박업","category":"hotel"}]},{"lat":"37.717022808","long":"127.48558343","imageIndex":5,"items":[{"name":"제니펜션","tel":"031-585-1066","addr":"경기도 가평군 청평면 고성리 718-20번지","indutype":"숙박업 - 여관/기타숙박업","category":"hotel"}]},{"lat":"37.715029852","long":"127.49041324","imageIndex":5,"items":[{"name":"주식회사쁘띠프랑스","tel":"031-584-8200","addr":"경기도 가평군 청평면 고성리 616-2","indutype":"숙박업 - 여관/기타숙박업","category":"hotel"}]},{"lat":"37.714607346","long":"127.48580593","imageIndex":5,"items":[{"name":"청호","tel":"031-584-4292","addr":"경기도 가평군 청평면 고성리 727번지","indutype":"숙박업 - 여관/기타숙박업","category":"hotel"}]},{"lat":"37.715303599","long":"127.49175331","imageIndex":5,"items":[{"name":"첼로","tel":"031-5855-6010","addr":"경기도 가평군 청평면 고성리 615-1번지","indutype":"숙박업 - 여관/기타숙박업","category":"hotel"}]},{"lat":"37.703362814","long":"127.51375291","imageIndex":5,"items":[{"name":"클럽블루(CLUB BLUE)","tel":"031-584-5080","addr":"경기도 가평군 청평면 고성리 103-1번지","indutype":"숙박업 - 여관/기타숙박업","category":"hotel"}]},{"lat":"37.704774318","long":"127.51444298","imageIndex":5,"items":[{"name":"프레이즈스위트(praise suite)","tel":"070-7631-1300","addr":"경기도 가평군 청평면 고성리 83번지","indutype":"숙박업 - 여관/기타숙박업","category":"hotel"}]},{"lat":"37.714776085","long":"127.5036695","imageIndex":5,"items":[{"name":"힐링마인드","tel":"031-585-7320","addr":"경기도 가평군 청평면 고성리 414-3번지","indutype":"숙박업 - 여관/기타숙박업","category":"hotel"}]},{"lat":"37.703692778","long":"127.51036465","imageIndex":4,"items":[{"name":"고성리 느티나무","tel":"031-585-3944","addr":"경기도 가평군 청평면 고성리 298-2","indutype":"일반휴게음식 - 일반한식","category":"restaurant"}]},{"lat":"37.714528305","long":"127.4853064","imageIndex":4,"items":[{"name":"도선재","tel":"031-584-5755","addr":"경기도 가평군 청평면 고성리 728번지","indutype":"일반휴게음식 - 일반한식","category":"restaurant"}]},{"lat":"37.710857562","long":"127.48183504","imageIndex":4,"items":[{"name":"라고키친","tel":"031-585-9330","addr":"경기도 가평군 청평면 고성리 786-3번지","indutype":"일반휴게음식 - 서양음식","category":"restaurant"},{"name":"루체른다이닝","tel":"031-000-0000","addr":"경기도 가평군 청평면 고성리 786-3번지","indutype":"일반휴게음식 - 서양음식","category":"restaurant"}]},{"lat":"37.704472676","long":"127.51127714","imageIndex":4,"items":[{"name":"명가식당","tel":"031-584-2438","addr":"경기도 가평군 청평면 고성리 108번지","indutype":"일반휴게음식 - 일반한식","category":"restaurant"}]},{"lat":"37.715029852","long":"127.49041324","imageIndex":4,"items":[{"name":"삼주외식산업(주)비스트로","tel":"070-8675-5821","addr":"경기도 가평군 청평면 고성리 616-2","indutype":"일반휴게음식 - 위탁급식업","category":"restaurant"}]},{"lat":"37.708052562","long":"127.50211601","imageIndex":4,"items":[{"name":"성희네집","tel":"031-584-3695","addr":"경기도 가평군 청평면 고성리 369-1번지","indutype":"일반휴게음식 - 일반한식","category":"restaurant"}]},{"lat":"37.710189908","long":"127.48428031","imageIndex":4,"items":[{"name":"아우어마켓","tel":"","addr":"경기도 가평군 청평면 고성리 761-5번지 2층","indutype":"일반휴게음식 - 서양음식","category":"restaurant"}]},{"lat":"37.704557259","long":"127.51463426","imageIndex":4,"items":[{"name":"오이코스","tel":"031-584-1485","addr":"경기도 가평군 청평면 고성리 89번지","indutype":"일반휴게음식 - 일반한식","category":"restaurant"}]},{"lat":"37.702170533","long":"127.51652286","imageIndex":4,"items":[{"name":"올덴 쿡","tel":"","addr":"경기도 가평군 청평면 고성리 56-1번지","indutype":"일반휴게음식 - 일반한식","category":"restaurant"}]},{"lat":"37.714884229","long":"127.49294139","imageIndex":4,"items":[{"name":"주식회사 리치가든(Rich garden inc.)","tel":"031-585-2452","addr":"경기도 가평군 청평면 고성리 611-2번지 1층","indutype":"일반휴게음식 - 일반한식","category":"restaurant"}]},{"lat":"37.703441153","long":"127.51021552","imageIndex":4,"items":[{"name":"참나무","tel":"031-585-5191","addr":"경기도 가평군 청평면 고성리 298-4번지","indutype":"일반휴게음식 - 일반한식","category":"restaurant"}]},{"lat":"37.704474242","long":"127.51300078","imageIndex":4,"items":[{"name":"청고재","tel":"031-584-1025","addr":"경기도 가평군 청평면 고성리 117번지","indutype":"일반휴게음식 - 일반한식","category":"restaurant"}]},{"lat":"37.714888479","long":"127.50266088","imageIndex":4,"items":[{"name":"해달촌","tel":"031-584-2984","addr":"경기도 가평군 청평면 고성리 423번지","indutype":"일반휴게음식 - 일반한식","category":"restaurant"}]},{"lat":"37.715411615","long":"127.49825261","imageIndex":16,"items":[{"name":"고성리산양목장","tel":"031-585-7331","addr":"경기도 가평군 청평면 고성리 491-1번지","indutype":"학원 - 기타 교육기관","category":"study"}]},{"lat":"37.714833338","long":"127.50924979","imageIndex":16,"items":[{"name":"공간206","tel":"031-585-6215","addr":"경기도 가평군 청평면 고성리 207","indutype":"학원 - 기타 교육기관","category":"study"}]},{"lat":"37.715029852","long":"127.49041324","imageIndex":17,"items":[{"name":"고흐아트","tel":"031-584-8200","addr":"경기도 가평군 청평면 고성리 616-2번지","indutype":"문화.취미 - 화랑","category":"other"},{"name":"태성T&C","tel":"031-584-8200","addr":"경기도 가평군 청평면 고성리 616-2번지","indutype":"신변잡화 - 기념품점","category":"other"}]},{"lat":"37.709502119","long":"127.50658253","imageIndex":17,"items":[{"name":"김용일 웨이크보드 스쿨","tel":"","addr":"경기도 가평군 청평면 고성리 240-17번지","indutype":"레져용품 - 스포츠·레져용품","category":"other"}]},{"lat":"37.717611748","long":"127.48697094","imageIndex":17,"items":[{"name":"노랑다리미술관","tel":"031-585-8887","addr":"경기도 가평군 청평면 고성리 720-5번지 제1종근린생활시설 손일광","indutype":"문화.취미 - 티켓","category":"other"}]},{"lat":"37.721576534","long":"127.47572249","imageIndex":17,"items":[{"name":"대한불교법상종대덕사","tel":"031-585-7887","addr":"경기도 가평군 청평면 고성리 산 175","indutype":"기타 - 비영리/대상","category":"other"}]},{"lat":"37.710189908","long":"127.48428031","imageIndex":17,"items":[{"name":"미니스톱 캠프통아일랜드점","tel":"031-1577-9621","addr":"경기도 가평군 청평면 고성리 761-5번지","indutype":"유통업 영리 - 편 의 점","category":"other"}]},{"lat":"37.714945202","long":"127.49127462","imageIndex":17,"items":[{"name":"씨유가평쁘띠프랑스점","tel":"031-878-8205","addr":"경기도 가평군 청평면 고성리 615-2번지 외3","indutype":"유통업 영리 - 편 의 점","category":"other"}]},{"lat":"37.715442215","long":"127.49091496","imageIndex":17,"items":[{"name":"이마트24편의점 (쁘띠프랑스점)","tel":"031-1111-1111","addr":"경기도 가평군 청평면 고성리 616번지 1층","indutype":"유통업 영리 - 편 의 점","category":"other"}]},{"lat":"37.710023577","long":"127.50472621","imageIndex":17,"items":[{"name":"준코리아(Jun Korea)","tel":"","addr":"경기도 가평군 청평면 고성리 392번지","indutype":"의류 - 정장","category":"other"}]},{"lat":"37.703528235","long":"127.51508077","imageIndex":17,"items":[{"name":"콴(Quan)","tel":"","addr":"경기도 가평군 청평면 고성리 66-4번지","indutype":"레져용품 - 스포츠·레져용품","category":"other"}]}]