[{"lat":"37.050376281","long":"126.97412561","imageIndex":17,"items":[{"name":"GS25어연산단점","tel":"","addr":"경기도 평택시 청북읍 어연리 889-5번지","indutype":"유통업 영리 - 편 의 점","category":"other"}]},{"lat":"37.050565604","long":"126.97454149","imageIndex":17,"items":[{"name":"SKY스크린골프","tel":"031-682-2812","addr":"경기도 평택시 청북읍 어연리 889-6번지 4층","indutype":"회원제형태 - 레져업소","category":"other"}]},{"lat":"37.051873742","long":"126.98228671","imageIndex":17,"items":[{"name":"건국동물병원","tel":"031-683-1098","addr":"경기도 평택시 청북읍 어연리 108-1번지","indutype":"서비스업 - 수의","category":"other"},{"name":"제갈동물병원","tel":"","addr":"경기도 평택시 청북읍 어연리 108-1번지","indutype":"서비스업 - 수의","category":"other"}]},{"lat":"37.048988557","long":"126.97376641","imageIndex":17,"items":[{"name":"공단종합공구","tel":"031-683-0903","addr":"경기도 평택시 청북읍 어연리 738-2","indutype":"기타 - 기계공구","category":"other"},{"name":"일신종합상사","tel":"031-684-8809","addr":"경기도 평택시 청북읍 어연리 738-2번지 대흥빌딩 103호","indutype":"신변잡화 - 기타잡화","category":"other"}]},{"lat":"37.051178579","long":"126.97562048","imageIndex":17,"items":[{"name":"공단편의점","tel":"031-683-3378","addr":"경기도 평택시 청북읍 어연리 895-1","indutype":"유통업 영리 - 편 의 점","category":"other"},{"name":"미니스톱어연산단점","tel":"031-1577-9621","addr":"경기도 평택시 청북읍 어연리 895-1번지","indutype":"유통업 영리 - 편 의 점","category":"other"}]},{"lat":"37.04753754","long":"126.97254166","imageIndex":17,"items":[{"name":"대왕철물","tel":"031-683-3520","addr":"경기도 평택시 청북읍 어연리 732-9번지","indutype":"건축자재 - 기타건축자재","category":"other"},{"name":"중앙아크릴","tel":"031-682-8420","addr":"경기도 평택시 청북읍 어연리 732-9번지","indutype":"건축자재 - 기타건축자재","category":"other"}]},{"lat":"37.048321626","long":"126.97318211","imageIndex":17,"items":[{"name":"대현볼트","tel":"031-681-7684","addr":"경기도 평택시 청북읍 어연리 737-5번지","indutype":"기타 - 기계공구","category":"other"}]},{"lat":"37.039041029","long":"126.97462445","imageIndex":17,"items":[{"name":"부림제재소","tel":"031-682-4602","addr":"경기도 평택시 청북읍 어연리 653-10번지","indutype":"건축자재 - 목재·석재·철물","category":"other"}]},{"lat":"37.048177518","long":"126.97342947","imageIndex":17,"items":[{"name":"서준테크","tel":"031-681-5390","addr":"경기도 평택시 청북읍 어연리 737-1","indutype":"기타 - 기계공구","category":"other"}]},{"lat":"37.050790936","long":"126.97482245","imageIndex":17,"items":[{"name":"세븐일레븐평택어연산단점","tel":"","addr":"경기도 평택시 청북읍 어연리 889-12번지","indutype":"유통업 영리 - 편 의 점","category":"other"}]},{"lat":"37.04992639","long":"126.97690248","imageIndex":17,"items":[{"name":"세화정밀","tel":"031-681-1478","addr":"경기도 평택시 청북읍 어연리 232-3번지","indutype":"기타 - 기계공구","category":"other"},{"name":"태림중전기","tel":"031-683-5847","addr":"경기도 평택시 청북읍 어연리 232-3번지 106호","indutype":"수리서비스 - 기타수리서비스","category":"other"}]},{"lat":"37.051042198","long":"126.97074157","imageIndex":17,"items":[{"name":"아퓨어스 주식회사","tel":"031-683-0643","addr":"경기도 평택시 청북읍 어연리 884-1번지","indutype":"기타 - 기타 전문점","category":"other"}]},{"lat":"37.047816969","long":"126.97293499","imageIndex":17,"items":[{"name":"어산목재","tel":"031-684-1287","addr":"경기도 평택시 청북읍 어연리 732-8","indutype":"건축자재 - 목재·석재·철물","category":"other"}]},{"lat":"37.050737131","long":"126.97593541","imageIndex":17,"items":[{"name":"어연공단지게차","tel":"031-683-7008","addr":"경기도 평택시 청북읍 어연리 895-3번지","indutype":"기타 - 기계공구","category":"other"}]},{"lat":"37.051874003","long":"126.98384935","imageIndex":17,"items":[{"name":"어연꽃농원","tel":"031-683-0084","addr":"경기도 평택시 청북읍 어연리 321-2","indutype":"문화.취미 - 화원","category":"other"}]},{"lat":"37.049845608","long":"126.97837516","imageIndex":17,"items":[{"name":"어연세탁소","tel":"031-683-2738","addr":"경기도 평택시 청북읍 어연리 237-2번지","indutype":"수리서비스 - 세탁소","category":"other"}]},{"lat":"37.050206262","long":"126.97951046","imageIndex":17,"items":[{"name":"어연한일펌프","tel":"031-683-3816","addr":"경기도 평택시 청북읍 어연리 88-10번지","indutype":"건축자재 - 보일러·펌프·샷시","category":"other"}]},{"lat":"37.045928098","long":"126.99289991","imageIndex":17,"items":[{"name":"영신농장","tel":"031-683-6645","addr":"경기도 평택시 청북읍 어연리 462-15번지","indutype":"소매업 - 계란","category":"other"}]},{"lat":"37.049791774","long":"126.97951059","imageIndex":17,"items":[{"name":"은산종합상사","tel":"031-682-3722","addr":"경기도 평택시 청북읍 어연리 88-3번지","indutype":"기타 - 기계공구","category":"other"}]},{"lat":"37.048564941","long":"126.97329443","imageIndex":17,"items":[{"name":"청북알파문구","tel":"031-683-1140","addr":"경기도 평택시 청북읍 어연리 738-13번지","indutype":"소매업 - 문구","category":"other"}]},{"lat":"37.050511901","long":"126.97609287","imageIndex":17,"items":[{"name":"청북어린이집","tel":"031-683-4232","addr":"경기도 평택시 청북읍 어연리 895-6번지","indutype":"서비스업 - 교육","category":"other"}]},{"lat":"37.050818852","long":"126.97884701","imageIndex":17,"items":[{"name":"청북팜","tel":"","addr":"경기도 평택시 청북읍 어연리 176번지","indutype":"소매업 - 농산물","category":"other"}]},{"lat":"37.050485806","long":"126.98062331","imageIndex":17,"items":[{"name":"평택후방카메라","tel":"031-683-0967","addr":"경기도 평택시 청북읍 어연리 85-1번지 1층","indutype":"수리서비스 - 기타수리서비스","category":"other"}]}]