[{"lat":"37.617562604","long":"127.18109429","imageIndex":0,"items":[{"name":"남양주블랙박스","tel":"","addr":"경기도 남양주시 일패동 688-2번지","indutype":"자동차정비 유지 - 자동차부품","category":"car"}]},{"lat":"37.620531479","long":"127.18394445","imageIndex":0,"items":[{"name":"네비원","tel":"031-595-9725","addr":"경기도 남양주시 일패동 535-3번지 남양주폐차영업소 106호","indutype":"자동차정비 유지 - 자동차부품","category":"car"}]},{"lat":"37.625145255","long":"127.18922303","imageIndex":0,"items":[{"name":"다산 덴트","tel":"031-595-5960","addr":"경기도 남양주시 일패동 100-4번지 우리스테인레스(주) 1층 2호","indutype":"자동차정비 유지 - 카인테리어","category":"car"},{"name":"파비스케어","tel":"031-511-8070","addr":"경기도 남양주시 일패동 100-4번지","indutype":"자동차정비 유지 - 카인테리어","category":"car"}]},{"lat":"37.61575854","long":"127.18831616","imageIndex":0,"items":[{"name":"모빌원모터스","tel":"031-591-1773","addr":"경기도 남양주시 일패동 313-23번지","indutype":"자동차정비 유지 - 자동차부품","category":"car"}]},{"lat":"37.617006857","long":"127.19086771","imageIndex":0,"items":[{"name":"믿음세차장","tel":"031-592-9192","addr":"경기도 남양주시 일패동 215-4번지","indutype":"자동차정비 유지 - 세차장","category":"car"}]},{"lat":"37.630082769","long":"127.19472966","imageIndex":0,"items":[{"name":"삼호타이어판매(주)","tel":"031-551-4962","addr":"경기도 남양주시 일패동 13-16번지","indutype":"자동차정비 유지 - 자동차시트·타이어","category":"car"}]},{"lat":"37.623777778","long":"127.18795094","imageIndex":0,"items":[{"name":"소암윤활유","tel":"031-511-5104","addr":"경기도 남양주시 일패동 521-12번지","indutype":"자동차정비 유지 - 윤활유 전문 판매","category":"car"},{"name":"크로바우레아몰","tel":"031-595-6676","addr":"경기도 남양주시 일패동 521-12번지","indutype":"자동차정비 유지 - 자동차부품","category":"car"}]},{"lat":"37.623473325","long":"127.18674947","imageIndex":0,"items":[{"name":"스마트전자(남양주점)","tel":"031-595-1200","addr":"경기도 남양주시 일패동 529-1번지 홍성빌딩 1층 105,106호","indutype":"자동차정비 유지 - 자동차부품","category":"car"}]},{"lat":"37.621392067","long":"127.18675567","imageIndex":0,"items":[{"name":"스마트휠 일패점","tel":"031-592-7568","addr":"경기도 남양주시 일패동 512-1번지","indutype":"자동차정비 유지 - 자동차시트·타이어","category":"car"}]},{"lat":"37.621305199","long":"127.18467127","imageIndex":0,"items":[{"name":"시온 카인테리어","tel":"031-595-5215","addr":"경기도 남양주시 일패동 535-5번지 1층","indutype":"자동차정비 유지 - 자동차부품","category":"car"}]},{"lat":"37.627306128","long":"127.190146","imageIndex":0,"items":[{"name":"아우토스토리","tel":"031-699-2699","addr":"경기도 남양주시 일패동 69-25번지 1층","indutype":"자동차정비 유지 - 자동차부품","category":"car"}]},{"lat":"37.616726544","long":"127.19150129","imageIndex":0,"items":[{"name":"에스엠테크(SM Tech)","tel":"00-1688-1890","addr":"경기도 남양주시 일패동 302번지","indutype":"자동차정비 유지 - 자동차부품","category":"car"}]},{"lat":"37.617361434","long":"127.17703891","imageIndex":0,"items":[{"name":"윈라인시스템, 나오테크","tel":"031-564-0486","addr":"경기도 남양주시 일패동 722-3번지","indutype":"자동차정비 유지 - 자동차부품","category":"car"}]},{"lat":"37.6256182","long":"127.18050181","imageIndex":0,"items":[{"name":"인치업 팩토리","tel":"02-2647-2616","addr":"경기도 남양주시 일패동 661-1번지","indutype":"자동차정비 유지 - 자동차부품","category":"car"}]},{"lat":"37.622196863","long":"127.184866","imageIndex":0,"items":[{"name":"제이엠오토모빌","tel":"031-559-9978","addr":"경기도 남양주시 일패동 547-11번지","indutype":"자동차정비 유지 - 자동차정비","category":"car"}]},{"lat":"37.623779213","long":"127.18703341","imageIndex":0,"items":[{"name":"조은타이어","tel":"031-528-6957","addr":"경기도 남양주시 일패동 524번지","indutype":"자동차정비 유지 - 자동차시트·타이어","category":"car"}]},{"lat":"37.612222212","long":"127.17950726","imageIndex":0,"items":[{"name":"주식회사 대원파워텍","tel":"031-1111-1111","addr":"경기도 남양주시 일패동 416-10번지","indutype":"자동차정비 유지 - 자동차정비","category":"car"}]},{"lat":"37.628284027","long":"127.18119918","imageIndex":0,"items":[{"name":"주식회사 자운","tel":"031-594-3944","addr":"경기도 남양주시 일패동 651-2번지 나동","indutype":"자동차정비 유지 - 자동차부품","category":"car"}]},{"lat":"37.620027734","long":"127.18342219","imageIndex":0,"items":[{"name":"코스모자동차공업사","tel":"031-566-2222","addr":"경기도 남양주시 일패동 503-1번지","indutype":"자동차정비 유지 - 자동차시트·타이어","category":"car"}]},{"lat":"37.624862655","long":"127.1735335","imageIndex":0,"items":[{"name":"타이어런","tel":"","addr":"경기도 남양주시 일패동 855-3번지 1동","indutype":"자동차정비 유지 - 자동차부품","category":"car"}]},{"lat":"37.623193282","long":"127.18722453","imageIndex":0,"items":[{"name":"하나카센타","tel":"031-595-1676","addr":"경기도 남양주시 일패동 521-2번지","indutype":"자동차정비 유지 - 자동차정비","category":"car"}]}]