[{"lat":"37.727761796","long":"126.73132257","imageIndex":17,"items":[{"name":"(주)크린에이드 산내마을3단지점","tel":"031-943-9595","addr":"경기도 파주시 목동동 911번지 산내마을3단지","indutype":"수리서비스 - 세탁소","category":"other"},{"name":"국화네","tel":"031-000-0000","addr":"경기도 파주시 목동동 911번지 산내마을3단지","indutype":"신변잡화 - 액세서리","category":"other"},{"name":"대일정보통신","tel":"031-949-9490","addr":"경기도 파주시 목동동 911번지 산내마을3단지","indutype":"회원제형태 - 기타1","category":"other"},{"name":"두디클럽","tel":"070-7520-6020","addr":"경기도 파주시 목동동 911번지 산내마을3단지","indutype":"회원제형태 - 기타4","category":"other"},{"name":"씨유파주산내3단지점","tel":"02-1577-8007","addr":"경기도 파주시 목동동 911번지 산내마을3단지","indutype":"유통업 영리 - 편 의 점","category":"other"},{"name":"일등테크","tel":"","addr":"경기도 파주시 목동동 911번지 산내마을3단지","indutype":"기타 - 기계공구","category":"other"},{"name":"제이아이엠아이 패브릭 앤 쏘잉","tel":"070-8233-0732","addr":"경기도 파주시 목동동 911번지 산내마을3단지","indutype":"의류 - 정장","category":"other"},{"name":"청룡사","tel":"031-8071-3288","addr":"경기도 파주시 목동동 911번지 산내마을3단지","indutype":"기타 - 비영리/대상","category":"other"},{"name":"플라비","tel":"02-1234-1234","addr":"경기도 파주시 목동동 911번지 산내마을3단지","indutype":"레져용품 - 스포츠·레져용품","category":"other"}]},{"lat":"37.72961823","long":"126.73546754","imageIndex":17,"items":[{"name":"(주)한솔교육 파주지사","tel":"031-941-5155","addr":"경기도 파주시 목동동 935-3번지","indutype":"서적문구 - 일반서적","category":"other"},{"name":"(주)한솔교육파주지사","tel":"031-941-5155","addr":"경기도 파주시 목동동 935-3번지","indutype":"회원제형태 - 서적","category":"other"},{"name":"플스빌 파주문정점","tel":"031-946-7279","addr":"경기도 파주시 목동동 935-3번지","indutype":"서적문구 - 완구점","category":"other"}]},{"lat":"37.723039939","long":"126.73888263","imageIndex":17,"items":[{"name":"7#(세븐샵)","tel":"031-942-3070","addr":"경기도 파주시 목동동 1052-2번지","indutype":"의류 - 정장","category":"other"}]},{"lat":"37.731037271","long":"126.74976699","imageIndex":17,"items":[{"name":"Cool & hot 시스템에어컨","tel":"","addr":"경기도 파주시 목동동 640번지 휴먼시아해솔마을","indutype":"전기제품 - 냉열기기","category":"other"},{"name":"LG냉열시스템","tel":"031-941-1342","addr":"경기도 파주시 목동동 640번지 휴먼시아해솔마을","indutype":"용역 서비스 - 기타용역서비스","category":"other"},{"name":"버블홈케어","tel":"02-1661-7696","addr":"경기도 파주시 목동동 640번지 휴먼시아해솔마을","indutype":"용역 서비스 - 종합용역","category":"other"},{"name":"변기의신","tel":"070-8682-4881","addr":"경기도 파주시 목동동 640번지 휴먼시아해솔마을","indutype":"건축자재 - 건축용 요업제품","category":"other"},{"name":"스위트 슬라임","tel":"","addr":"경기도 파주시 목동동 640번지 휴먼시아해솔마을","indutype":"서적문구 - 완구점","category":"other"},{"name":"스타일리쉬","tel":"031-939-8990","addr":"경기도 파주시 목동동 640번지 휴먼시아해솔마을","indutype":"의류 - 내의판매","category":"other"},{"name":"씨유파주운정해솔점","tel":"02-1577-8007","addr":"경기도 파주시 목동동 640번지","indutype":"유통업 영리 - 편 의 점","category":"other"},{"name":"인생샵 블루홀","tel":"02-2668-9086","addr":"경기도 파주시 목동동 640번지 휴먼시아해솔마을","indutype":"신변잡화 - 기타잡화","category":"other"},{"name":"제스트","tel":"070-8285-4457","addr":"경기도 파주시 목동동 640번지 휴먼시아해솔마을","indutype":"건축자재 - 기타건축자재","category":"other"},{"name":"카피타운","tel":"","addr":"경기도 파주시 목동동 640번지 휴먼시아해솔마을","indutype":"사무통신 - 사무용 OA기기","category":"other"},{"name":"향기로운세탁","tel":"031-949-3431","addr":"경기도 파주시 목동동 640번지 휴먼시아해솔마을상가제1층105호","indutype":"수리서비스 - 세탁소","category":"other"}]},{"lat":"37.721827807","long":"126.74483035","imageIndex":17,"items":[{"name":"DK상사","tel":"031-784-6091","addr":"경기도 파주시 목동동 679번지 해솔마을5단지삼부르네상스아파트","indutype":"회원제형태 - 기타4","category":"other"}]},{"lat":"37.727596093","long":"126.73768675","imageIndex":17,"items":[{"name":"GS25산내빌리지점","tel":"","addr":"경기도 파주시 목동동 981번지","indutype":"유통업 영리 - 편 의 점","category":"other"}]},{"lat":"37.728366761","long":"126.73584637","imageIndex":17,"items":[{"name":"GS25산내신우점","tel":"","addr":"경기도 파주시 목동동 933-1번지","indutype":"유통업 영리 - 편 의 점","category":"other"},{"name":"망고나무","tel":"","addr":"경기도 파주시 목동동 933-1번지","indutype":"의류 - 정장","category":"other"},{"name":"망고나무빈티지","tel":"031-941-6139","addr":"경기도 파주시 목동동 933-1번지","indutype":"의류 - 정장","category":"other"},{"name":"망고나무빈티지","tel":"031-941-6139","addr":"경기도 파주시 목동동 933-1번지","indutype":"의류 - 정장","category":"other"},{"name":"수상한 잡화점","tel":"","addr":"경기도 파주시 목동동 933-1번지","indutype":"신변잡화 - 기타잡화","category":"other"}]},{"lat":"37.732789772","long":"126.73554689","imageIndex":17,"items":[{"name":"GS25산내파크드림점","tel":"","addr":"경기도 파주시 목동동 878번지","indutype":"유통업 영리 - 편 의 점","category":"other"}]},{"lat":"37.728593153","long":"126.73635602","imageIndex":17,"items":[{"name":"GS25산내현대점","tel":"","addr":"경기도 파주시 목동동 933번지","indutype":"유통업 영리 - 편 의 점","category":"other"},{"name":"모바일청춘","tel":"031-944-8335","addr":"경기도 파주시 목동동 933번지","indutype":"사무통신 - 통신기기","category":"other"},{"name":"블룸블룸비비","tel":"031-947-1643","addr":"경기도 파주시 목동동 933번지","indutype":"문화.취미 - 화원","category":"other"}]},{"lat":"37.728235001","long":"126.73337399","imageIndex":17,"items":[{"name":"GS25산내혜인점","tel":"","addr":"경기도 파주시 목동동 947-1번지","indutype":"유통업 영리 - 편 의 점","category":"other"}]},{"lat":"37.72226528","long":"126.74713136","imageIndex":17,"items":[{"name":"GS25운정가온점","tel":"","addr":"경기도 파주시 목동동 690번지 해솔마을6단지","indutype":"유통업 영리 - 편 의 점","category":"other"},{"name":"SM에어컨","tel":"","addr":"경기도 파주시 목동동 690번지 해솔마을6단지","indutype":"용역 서비스 - 기타용역서비스","category":"other"},{"name":"나린컴퍼니","tel":"070-8249-0741","addr":"경기도 파주시 목동동 690번지 해솔마을6단지","indutype":"신변잡화 - 가방","category":"other"},{"name":"로드스(ROADS)","tel":"031-948-1359","addr":"경기도 파주시 목동동 690번지 해솔마을6단지","indutype":"사무통신 - 통신기기","category":"other"},{"name":"마마운동화이불빨래방","tel":"031-949-8482","addr":"경기도 파주시 목동동 690번지 해솔마을6단지","indutype":"수리서비스 - 세탁소","category":"other"},{"name":"샘스바이크","tel":"031-953-1330","addr":"경기도 파주시 목동동 690번지 해솔마을6단지","indutype":"레져용품 - 스포츠·레져용품","category":"other"},{"name":"서울경기닥트연합","tel":"031-944-6230","addr":"경기도 파주시 목동동 690번지 해솔마을6단지","indutype":"회원제형태 - 기타4","category":"other"},{"name":"선샤인 베이비","tel":"","addr":"경기도 파주시 목동동 690번지 해솔마을6단지","indutype":"직물 - 침구·수예점","category":"other"},{"name":"신웅 정보통신","tel":"031-947-6254","addr":"경기도 파주시 목동동 690번지 해솔마을6단지","indutype":"사무통신 - 통신기기","category":"other"},{"name":"윤남매","tel":"","addr":"경기도 파주시 목동동 690번지 해솔마을6단지","indutype":"전기제품 - 냉열기기","category":"other"},{"name":"이마트24 운정해솔마을점","tel":"","addr":"경기도 파주시 목동동 690번지 해솔마을6단지","indutype":"유통업 영리 - 편 의 점","category":"other"}]},{"lat":"37.723482901","long":"126.73955027","imageIndex":17,"items":[{"name":"GS25운정라피아노점","tel":"","addr":"경기도 파주시 목동동 1054번지","indutype":"유통업 영리 - 편 의 점","category":"other"},{"name":"하임인테리어","tel":"","addr":"경기도 파주시 목동동 1054번지","indutype":"건축자재 - 인테리어전문","category":"other"}]},{"lat":"37.730319097","long":"126.73862992","imageIndex":17,"items":[{"name":"GS25운정산내중앙점","tel":"","addr":"경기도 파주시 목동동 114-62번지","indutype":"유통업 영리 - 편 의 점","category":"other"}]},{"lat":"37.731895343","long":"126.74659911","imageIndex":17,"items":[{"name":"GS25운정해솔로점","tel":"","addr":"경기도 파주시 목동동 739번지","indutype":"유통업 영리 - 편 의 점","category":"other"}]},{"lat":"37.73117504","long":"126.73465653","imageIndex":17,"items":[{"name":"GS25한라드림점","tel":"","addr":"경기도 파주시 목동동 922번지","indutype":"유통업 영리 - 편 의 점","category":"other"},{"name":"JJ기획","tel":"031-1111-1111","addr":"경기도 파주시 목동동 922번지 산내마을6단지한라비발디","indutype":"용역 서비스 - 종합용역","category":"other"},{"name":"새소망 세탁소","tel":"031-944-6646","addr":"경기도 파주시 목동동 922번지","indutype":"수리서비스 - 세탁소","category":"other"},{"name":"이마트24 파주한라비발디점","tel":"","addr":"경기도 파주시 목동동 922번지","indutype":"유통업 영리 - 편 의 점","category":"other"},{"name":"진이","tel":"031-942-7628","addr":"경기도 파주시 목동동 922번지 산내마을6단지한라비발디","indutype":"의류 - 아동의류","category":"other"}]},{"lat":"37.732981957","long":"126.73290302","imageIndex":17,"items":[{"name":"HC공조","tel":"031-911-5577","addr":"경기도 파주시 목동동 904번지 산내마을1단지","indutype":"전기제품 - 가전제품","category":"other"},{"name":"더빅디퍼 (the Big Dipper En.t)","tel":"","addr":"경기도 파주시 목동동 904번지 산내마을1단지","indutype":"용역 서비스 - 종합용역","category":"other"},{"name":"청소몬스터","tel":"031-1800-5823","addr":"경기도 파주시 목동동 904번지 산내마을1단지","indutype":"용역 서비스 - 종합용역","category":"other"},{"name":"크린토피아(산내마을 1단지점)","tel":"","addr":"경기도 파주시 목동동 904번지 산내마을1단지","indutype":"수리서비스 - 세탁소","category":"other"},{"name":"파주방송","tel":"","addr":"경기도 파주시 목동동 904번지 산내마을1단지","indutype":"용역 서비스 - 사무서비스","category":"other"}]},{"lat":"37.719596532","long":"126.7381009","imageIndex":17,"items":[{"name":"POTTERY HOUSE 연(YEON)","tel":"031-948-1427","addr":"경기도 파주시 목동동 1122-4번지","indutype":"문화.취미 - 문화취미기타","category":"other"}]},{"lat":"37.726955602","long":"126.73732606","imageIndex":17,"items":[{"name":"WASH N COFFEE/주식회사 워시와커피","tel":"070-5175-8900","addr":"경기도 파주시 목동동 975-2번지","indutype":"수리서비스 - 세탁소","category":"other"}]},{"lat":"37.727678587","long":"126.73432884","imageIndex":17,"items":[{"name":"yam","tel":"031-941-7248","addr":"경기도 파주시 목동동 939-4번지","indutype":"의류 - 정장","category":"other"},{"name":"사진관 운정","tel":"031-935-4077","addr":"경기도 파주시 목동동 939-4번지","indutype":"광학제품 - 사진관","category":"other"},{"name":"소유플레르","tel":"031-942-7759","addr":"경기도 파주시 목동동 939-4번지","indutype":"문화.취미 - 화원","category":"other"},{"name":"스타일노리터운정점","tel":"070-8824-5887","addr":"경기도 파주시 목동동 939-4번지","indutype":"의류 - 정장","category":"other"},{"name":"알레르망 운정점","tel":"031-971-9711","addr":"경기도 파주시 목동동 939-4번지","indutype":"직물 - 침구·수예점","category":"other"},{"name":"앤","tel":"","addr":"경기도 파주시 목동동 939-4번지","indutype":"의류 - 정장","category":"other"},{"name":"에이피 스튜디오","tel":"031-949-6707","addr":"경기도 파주시 목동동 939-4번지","indutype":"의류 - 정장","category":"other"},{"name":"위드엘(with El)","tel":"031-1111-1111","addr":"경기도 파주시 목동동 939-4번지","indutype":"의류 - 정장","category":"other"},{"name":"일라이","tel":"","addr":"경기도 파주시 목동동 939-4번지","indutype":"의류 - 정장","category":"other"},{"name":"파스텔(속옷만 하려다가 겉옷까지)","tel":"031-942-0837","addr":"경기도 파주시 목동동 939-4번지","indutype":"의류 - 내의판매","category":"other"}]},{"lat":"37.72026443","long":"126.73863161","imageIndex":17,"items":[{"name":"강아지 고양이분양 아담스펫 파주점","tel":"","addr":"경기도 파주시 목동동 1107-1번지","indutype":"문화.취미 - 애완동물","category":"other"}]},{"lat":"37.727704819","long":"126.73795861","imageIndex":17,"items":[{"name":"강아지별","tel":"031-977-6123","addr":"경기도 파주시 목동동 981-2번지","indutype":"문화.취미 - 애완동물","category":"other"},{"name":"버블버블강아지별","tel":"031-943-2322","addr":"경기도 파주시 목동동 981-2번지","indutype":"문화.취미 - 애완동물","category":"other"},{"name":"블링블링 강아지별","tel":"031-977-6123","addr":"경기도 파주시 목동동 981-2번지","indutype":"문화.취미 - 애완동물","category":"other"}]},{"lat":"37.729842437","long":"126.74718471","imageIndex":17,"items":[{"name":"개아저씨","tel":"","addr":"경기도 파주시 목동동 778-1번지","indutype":"문화.취미 - 애완동물","category":"other"}]},{"lat":"37.719039062","long":"126.73860194","imageIndex":17,"items":[{"name":"고양이로다","tel":"031-944-7886","addr":"경기도 파주시 목동동 1112-5번지","indutype":"문화.취미 - 애완동물","category":"other"}]},{"lat":"37.728979919","long":"126.73607104","imageIndex":17,"items":[{"name":"골든벨","tel":"031-942-8970","addr":"경기도 파주시 목동동 931-1번지","indutype":"신변잡화 - 귀금속","category":"other"},{"name":"봉봉투어(주)","tel":"031-938-5000","addr":"경기도 파주시 목동동 931-1번지","indutype":"여행 - 관광여행","category":"other"},{"name":"애지중지애견카페","tel":"031-944-2212","addr":"경기도 파주시 목동동 931-1번지","indutype":"문화.취미 - 애완동물","category":"other"},{"name":"카공","tel":"031-945-1510","addr":"경기도 파주시 목동동 931-1번지","indutype":"용역 서비스 - 사무서비스","category":"other"}]},{"lat":"37.731818316","long":"126.73624236","imageIndex":17,"items":[{"name":"공간하우스","tel":"031-947-7767","addr":"경기도 파주시 목동동 875-3번지","indutype":"건축자재 - 인테리어전문","category":"other"}]},{"lat":"37.718758826","long":"126.73818328","imageIndex":17,"items":[{"name":"공방호","tel":"","addr":"경기도 파주시 목동동 1131-3번지","indutype":"문화.취미 - 문화취미기타","category":"other"}]},{"lat":"37.731760694","long":"126.74682645","imageIndex":17,"items":[{"name":"광고생각","tel":"","addr":"경기도 파주시 목동동 752-7번지","indutype":"용역 서비스 - 종합용역","category":"other"}]},{"lat":"37.727535014","long":"126.73857175","imageIndex":17,"items":[{"name":"그레이트악기","tel":"031-917-6224","addr":"경기도 파주시 목동동 987-1번지","indutype":"레져용품 - 악기점","category":"other"}]},{"lat":"37.722895355","long":"126.73869032","imageIndex":17,"items":[{"name":"그루 (GRUE)","tel":"031-942-4252","addr":"경기도 파주시 목동동 1052-1번지","indutype":"의류 - 정장","category":"other"},{"name":"꽃집입니다","tel":"","addr":"경기도 파주시 목동동 1052-1번지","indutype":"문화.취미 - 화원","category":"other"},{"name":"바른청년들","tel":"","addr":"경기도 파주시 목동동 1052-1번지","indutype":"사무통신 - 통신기기","category":"other"},{"name":"오빠짐스튜디오","tel":"","addr":"경기도 파주시 목동동 1052-1번지","indutype":"광학제품 - 사진관","category":"other"}]},{"lat":"37.73073612","long":"126.74798704","imageIndex":17,"items":[{"name":"그루멍","tel":"070-4066-9160","addr":"경기도 파주시 목동동 760번지","indutype":"문화.취미 - 애완동물","category":"other"},{"name":"하이댕댕","tel":"031-8074-0728","addr":"경기도 파주시 목동동 760번지","indutype":"문화.취미 - 애완동물","category":"other"}]},{"lat":"37.727679038","long":"126.73851452","imageIndex":17,"items":[{"name":"근린","tel":"","addr":"경기도 파주시 목동동 987번지","indutype":"가구 - 일반가구","category":"other"}]},{"lat":"37.729868258","long":"126.74662878","imageIndex":17,"items":[{"name":"금쪽금쪽샵","tel":"031-944-9979","addr":"경기도 파주시 목동동 776-1번지","indutype":"문화.취미 - 애완동물","category":"other"}]},{"lat":"37.73065196","long":"126.74656936","imageIndex":17,"items":[{"name":"기름집 강아지","tel":"031-941-1799","addr":"경기도 파주시 목동동 766-2번지","indutype":"신변잡화 - 기타잡화","category":"other"}]},{"lat":"37.722122062","long":"126.73937361","imageIndex":17,"items":[{"name":"까까애견미용","tel":"","addr":"경기도 파주시 목동동 1067-9번지","indutype":"문화.취미 - 애완동물","category":"other"}]},{"lat":"37.722736598","long":"126.7442941","imageIndex":17,"items":[{"name":"꼬까","tel":"031-923-9295","addr":"경기도 파주시 목동동 679번지 해솔마을5단지삼부르네상스아파트","indutype":"의류 - 정장","category":"other"}]},{"lat":"37.730728937","long":"126.74468603","imageIndex":17,"items":[{"name":"나나신 스튜디오","tel":"","addr":"경기도 파주시 목동동 783번지","indutype":"직물 - 침구·수예점","category":"other"}]},{"lat":"37.727868716","long":"126.73473652","imageIndex":17,"items":[{"name":"냥이의 하룻밤","tel":"","addr":"경기도 파주시 목동동 939-3번지","indutype":"문화.취미 - 애완동물","category":"other"},{"name":"르하임스터디카페 파주산내점","tel":"031-8074-9933","addr":"경기도 파주시 목동동 939-3번지","indutype":"용역 서비스 - 사무서비스","category":"other"},{"name":"블링웨이(BLINGWAY)","tel":"031-945-8415","addr":"경기도 파주시 목동동 939-3번지","indutype":"의류 - 정장","category":"other"},{"name":"스카이뷰스크린골프","tel":"031-942-7137","addr":"경기도 파주시 목동동 939-3번지","indutype":"레져용품 - 골프용품 전문점","category":"other"},{"name":"토즈멤버십라운지 목동센터","tel":"031-945-1666","addr":"경기도 파주시 목동동 939-3번지","indutype":"용역 서비스 - 사무서비스","category":"other"},{"name":"파주전자담배 너구리굴 운정점","tel":"031-942-8914","addr":"경기도 파주시 목동동 939-3번지","indutype":"기타 - 기타 전문점","category":"other"}]},{"lat":"37.729011473","long":"126.73409716","imageIndex":17,"items":[{"name":"노블스위밍랩by키즈라이프","tel":"031-941-9969","addr":"경기도 파주시 목동동 937번지","indutype":"레져용품 - 스포츠·레져용품","category":"other"},{"name":"코드랩(CODELAB)","tel":"","addr":"경기도 파주시 목동동 937번지","indutype":"서적문구 - 과학기자재","category":"other"},{"name":"한국파주금거래소","tel":"031-947-2931","addr":"경기도 파주시 목동동 937번지","indutype":"신변잡화 - 귀금속","category":"other"}]},{"lat":"37.728065426","long":"126.73407789","imageIndex":17,"items":[{"name":"노엘45","tel":"031-949-3492","addr":"경기도 파주시 목동동 945번지","indutype":"의류 - 정장","category":"other"},{"name":"유엠에이(UMA)","tel":"","addr":"경기도 파주시 목동동 945번지","indutype":"레져용품 - 스포츠·레져용품","category":"other"},{"name":"제시","tel":"070-511-4253","addr":"경기도 파주시 목동동 945번지","indutype":"의류 - 정장","category":"other"}]},{"lat":"37.720316373","long":"126.73769002","imageIndex":17,"items":[{"name":"노트(note)","tel":"031-921-8121","addr":"경기도 파주시 목동동 1105-1번지","indutype":"의류 - 정장","category":"other"}]},{"lat":"37.728344263","long":"126.73785424","imageIndex":17,"items":[{"name":"뉴턴전자담배(파주운정점)","tel":"","addr":"경기도 파주시 목동동 964-4번지","indutype":"기타 - 기타 전문점","category":"other"},{"name":"라인앤닷(LINE&DOT)","tel":"031-945-6804","addr":"경기도 파주시 목동동 964-4번지","indutype":"가구 - 기타가구","category":"other"},{"name":"창아름","tel":"031-948-1379","addr":"경기도 파주시 목동동 964-4번지","indutype":"직물 - 카페트,커튼,천막,지물","category":"other"}]},{"lat":"37.730866502","long":"126.72976847","imageIndex":17,"items":[{"name":"다우에어컨","tel":"070-4667-6646","addr":"경기도 파주시 목동동 907번지 산내마을2단지센트럴리움","indutype":"용역 서비스 - 기타용역서비스","category":"other"},{"name":"백색ENG","tel":"","addr":"경기도 파주시 목동동 907번지 산내마을2단지센트럴리움","indutype":"전기제품 - 냉열기기","category":"other"},{"name":"이마트24 운정센트럴점","tel":"","addr":"경기도 파주시 목동동 907번지 산내마을2단지센트럴리움","indutype":"유통업 영리 - 편 의 점","category":"other"},{"name":"쿠로샵","tel":"","addr":"경기도 파주시 목동동 907번지 산내마을2단지센트럴리움","indutype":"문화.취미 - 화방·표구점","category":"other"}]},{"lat":"37.723902371","long":"126.73379803","imageIndex":17,"items":[{"name":"다율에어컨","tel":"","addr":"경기도 파주시 목동동 1149번지 힐스테이트운정","indutype":"용역 서비스 - 기타용역서비스","category":"other"},{"name":"더빛 북스","tel":"","addr":"경기도 파주시 목동동 1149번지 힐스테이트운정","indutype":"서적문구 - 일반서적","category":"other"},{"name":"마린엣보우(일산점)","tel":"031-261-9823","addr":"경기도 파주시 목동동 1149번지 힐스테이트운정","indutype":"의류 - 정장","category":"other"},{"name":"마인드제이","tel":"","addr":"경기도 파주시 목동동 1149번지 힐스테이트운정","indutype":"의류 - 정장","category":"other"},{"name":"세탁에반하다","tel":"031-939-1414","addr":"경기도 파주시 목동동 1149번지 힐스테이트운정","indutype":"수리서비스 - 세탁소","category":"other"},{"name":"와이지프로","tel":"070-512-4552","addr":"경기도 파주시 목동동 1149번지 힐스테이트운정","indutype":"사무통신 - 컴퓨터","category":"other"},{"name":"크린토피아 운정힐스테이트점","tel":"031-949-6659","addr":"경기도 파주시 목동동 1149번지 힐스테이트운정","indutype":"수리서비스 - 세탁소","category":"other"}]},{"lat":"37.727342192","long":"126.73696169","imageIndex":17,"items":[{"name":"다행의살림","tel":"031-111-1111","addr":"경기도 파주시 목동동 969번지","indutype":"가구 - 기타가구","category":"other"}]},{"lat":"37.724103948","long":"126.74333655","imageIndex":17,"items":[{"name":"대윤유통","tel":"031-111-1111","addr":"경기도 파주시 목동동 679번지 해솔마을5단지삼부르네상스아파트","indutype":"유통업 영리 - 기타유통업","category":"other"},{"name":"카이로스 쇼파천갈이","tel":"031-933-9040","addr":"경기도 파주시 목동동 679번지 해솔마을5단지삼부르네상스아파트","indutype":"회원제형태 - 기타4","category":"other"}]},{"lat":"37.73092328","long":"126.74704486","imageIndex":17,"items":[{"name":"대정INC","tel":"031-944-1040","addr":"경기도 파주시 목동동 745번지","indutype":"건축자재 - 페인트","category":"other"},{"name":"씨유파주가재울로점","tel":"031-957-1267","addr":"경기도 파주시 목동동 745번지","indutype":"유통업 영리 - 편 의 점","category":"other"}]},{"lat":"37.719175677","long":"126.74331972","imageIndex":17,"items":[{"name":"대한예수교장로회 주심교회","tel":"031-946-6761","addr":"경기도 파주시 목동동 1085번지","indutype":"기타 - 비영리/대상","category":"other"}]},{"lat":"37.730427807","long":"126.74706926","imageIndex":17,"items":[{"name":"더케이(The K)","tel":"031-943-7274","addr":"경기도 파주시 목동동 773번지","indutype":"건축자재 - 조명기구","category":"other"}]},{"lat":"37.732077393","long":"126.73927027","imageIndex":17,"items":[{"name":"도서출판 책숲놀이터","tel":"070-7624-6763","addr":"경기도 파주시 목동동 114-37번지 산내마을8단지","indutype":"서적문구 - 출판 및 인쇄물","category":"other"}]},{"lat":"37.724105743","long":"126.74415323","imageIndex":17,"items":[{"name":"도서출판(글벗)","tel":"031-957-1461","addr":"경기도 파주시 목동동 해솔마을5단지삼부르네상","indutype":"회원제형태 - 서적","category":"other"}]},{"lat":"37.728757939","long":"126.73354225","imageIndex":17,"items":[{"name":"도우디자인","tel":"","addr":"경기도 파주시 목동동 949번지","indutype":"서적문구 - 출판 및 인쇄물","category":"other"},{"name":"명도건축사사무소","tel":"031-957-1153","addr":"경기도 파주시 목동동 949번지","indutype":"용역 서비스 - 사무서비스","category":"other"},{"name":"모닝글로리","tel":"031-947-2111","addr":"경기도 파주시 목동동 949번지","indutype":"서적문구 - 문구용품","category":"other"},{"name":"핑크홀리","tel":"","addr":"경기도 파주시 목동동 949번지","indutype":"의류 - 기타의류","category":"other"}]},{"lat":"37.728448143","long":"126.74405872","imageIndex":17,"items":[{"name":"디자인나눔","tel":"070-7733-5699","addr":"경기도 파주시 목동동 647번지 해솔마을1단지두산위브","indutype":"용역 서비스 - 사무서비스","category":"other"}]},{"lat":"37.730067755","long":"126.74310021","imageIndex":17,"items":[{"name":"디자인상상나무","tel":"","addr":"경기도 파주시 목동동 815-2번지","indutype":"용역 서비스 - 사무서비스","category":"other"}]},{"lat":"37.723349741","long":"126.74451882","imageIndex":17,"items":[{"name":"라메르 블랑","tel":"070-7613-6309","addr":"경기도 파주시 목동동 679번지 해솔마을5단지삼부르네상스아파트","indutype":"회원제형태 - 기타4","category":"other"}]},{"lat":"37.721862104","long":"126.74403626","imageIndex":17,"items":[{"name":"라옴뮤직(Raom musiq)","tel":"031-8035-7195","addr":"경기도 파주시 목동동 679번지 해솔마을5단지삼부르네상스아파트","indutype":"용역 서비스 - 기타용역서비스","category":"other"},{"name":"럭키열쇠","tel":"070-7614-3579","addr":"경기도 파주시 목동동 679번지 해솔마을5단지삼부르네상스아파트","indutype":"건축자재 - 목재·석재·철물","category":"other"}]},{"lat":"37.728898474","long":"126.73591253","imageIndex":17,"items":[{"name":"레어템옴므","tel":"031-946-9897","addr":"경기도 파주시 목동동 931번지","indutype":"의류 - 정장","category":"other"}]},{"lat":"37.731784337","long":"126.74527225","imageIndex":17,"items":[{"name":"루리","tel":"","addr":"경기도 파주시 목동동 719번지","indutype":"신변잡화 - 기타잡화","category":"other"}]},{"lat":"37.727594841","long":"126.73713094","imageIndex":17,"items":[{"name":"루시아","tel":"070-4379-4160","addr":"경기도 파주시 목동동 971-3번지","indutype":"의류 - 정장","category":"other"}]},{"lat":"37.722508125","long":"126.73877109","imageIndex":17,"items":[{"name":"막스시오 파주","tel":"031-944-2986","addr":"경기도 파주시 목동동 1056-5번지","indutype":"의류 - 정장","category":"other"}]},{"lat":"37.731743763","long":"126.73914667","imageIndex":17,"items":[{"name":"메종라틀리에","tel":"070-2699-0807","addr":"경기도 파주시 목동동 114-37번지 산내마을8단지","indutype":"가구 - 기타가구","category":"other"}]},{"lat":"37.729258519","long":"126.73576377","imageIndex":17,"items":[{"name":"메종엉브리끄/주식회사 브릭","tel":"","addr":"경기도 파주시 목동동 929번지","indutype":"가구 - 기타가구","category":"other"}]},{"lat":"37.728429642","long":"126.74797226","imageIndex":17,"items":[{"name":"모모(Momo) 편집샵","tel":"","addr":"경기도 파주시 목동동 667번지 해솔마을4단지벽산우남연리지","indutype":"의류 - 기타의류","category":"other"},{"name":"아이티아이(iTi)","tel":"031-945-6403","addr":"경기도 파주시 목동동 667번지 해솔마을4단지벽산우남연리지","indutype":"사무통신 - 컴퓨터","category":"other"}]},{"lat":"37.731644126","long":"126.7389088","imageIndex":17,"items":[{"name":"목요일","tel":"","addr":"경기도 파주시 목동동 114-37번지 산내마을8단지","indutype":"건축자재 - 인테리어전문","category":"other"}]},{"lat":"37.725230362","long":"126.73937394","imageIndex":17,"items":[{"name":"미니스톱 운정산내점","tel":"031-1577-9621","addr":"경기도 파주시 목동동 101번지","indutype":"유통업 영리 - 편 의 점","category":"other"},{"name":"슈 프로덕션","tel":"","addr":"경기도 파주시 목동동 101번지 산내마을11단지현대아이파크아파트","indutype":"문화.취미 - 티켓","category":"other"},{"name":"한영교육","tel":"031-647-6006","addr":"경기도 파주시 목동동 101번지 산내마을11단지현대아이파크아파트","indutype":"서적문구 - 기타서적문구","category":"other"}]},{"lat":"37.720595908","long":"126.74593482","imageIndex":17,"items":[{"name":"바이블루밍","tel":"070-8869-9663","addr":"경기도 파주시 목동동 685-2번지","indutype":"의류 - 정장","category":"other"}]},{"lat":"37.719370045","long":"126.73754595","imageIndex":17,"items":[{"name":"벨르(Belle)","tel":"031-948-8007","addr":"경기도 파주시 목동동 1125번지","indutype":"의류 - 정장","category":"other"}]},{"lat":"37.723365419","long":"126.74345256","imageIndex":17,"items":[{"name":"보니솝","tel":"031-949-3230","addr":"경기도 파주시 목동동 679번지 해솔마을5단지삼부르네상스아파트","indutype":"회원제형태 - 기타4","category":"other"}]},{"lat":"37.732953946","long":"126.73643114","imageIndex":17,"items":[{"name":"봉쥬르다다","tel":"","addr":"경기도 파주시 목동동 893-1번지","indutype":"의류 - 정장","category":"other"}]},{"lat":"37.729843223","long":"126.7475477","imageIndex":17,"items":[{"name":"붐","tel":"031-000-0000","addr":"경기도 파주시 목동동 778-3번지","indutype":"의류 - 정장","category":"other"}]},{"lat":"37.73129367","long":"126.73931843","imageIndex":17,"items":[{"name":"블라레더","tel":"031-945-3293","addr":"경기도 파주시 목동동 114-37번지 산내마을8단지","indutype":"회원제형태 - 기타4","category":"other"}]},{"lat":"37.72672924","long":"126.73682777","imageIndex":17,"items":[{"name":"블룸앤트리스","tel":"031-111-1111","addr":"경기도 파주시 목동동 958-4번지","indutype":"문화.취미 - 화원","category":"other"}]},{"lat":"37.731291535","long":"126.74652178","imageIndex":17,"items":[{"name":"비비드","tel":"070-8862-0699","addr":"경기도 파주시 목동동 749-6번지","indutype":"의류 - 정장","category":"other"}]},{"lat":"37.726232058","long":"126.74417986","imageIndex":17,"items":[{"name":"비젼데코","tel":"","addr":"경기도 파주시 목동동 2-117번지 해솔마을2단지월드메르디앙","indutype":"직물 - 카페트,커튼,천막,지물","category":"other"},{"name":"사운드스푼","tel":"","addr":"경기도 파주시 목동동 2-117번지 해솔마을2단지월드메르디앙","indutype":"전기제품 - 가전제품","category":"other"}]},{"lat":"37.727234257","long":"126.73704148","imageIndex":17,"items":[{"name":"사라넘버나인","tel":"031-942-8064","addr":"경기도 파주시 목동동 969-1번지","indutype":"의류 - 정장","category":"other"}]},{"lat":"37.719146343","long":"126.73424623","imageIndex":17,"items":[{"name":"사이언스헤드","tel":"031-943-0319","addr":"경기도 파주시 목동동 1142번지 산내마을10단지운정센트럴푸르지오","indutype":"서적문구 - 과학기자재","category":"other"},{"name":"서연퀼트방","tel":"","addr":"경기도 파주시 목동동 1142번지 산내마을10단지운정센트럴푸르지오","indutype":"문화.취미 - 문화취미기타","category":"other"},{"name":"씨유운정푸르지오점","tel":"080-080-3663","addr":"경기도 파주시 목동동 1142번지 산내마을10단지운정센트럴푸르지오","indutype":"유통업 영리 - 편 의 점","category":"other"},{"name":"씨유운정푸르지오정문점","tel":"031-949-8221","addr":"경기도 파주시 목동동 1142번지 산내마을10단지운정센트럴푸르지오","indutype":"유통업 영리 - 편 의 점","category":"other"}]},{"lat":"37.719342148","long":"126.73716042","imageIndex":17,"items":[{"name":"산내동물병원","tel":"031-948-6669","addr":"경기도 파주시 목동동 1136-3번지","indutype":"문화.취미 - 애완동물","category":"other"},{"name":"쑥먹은 곰탱이","tel":"","addr":"경기도 파주시 목동동 1136-3번지","indutype":"용역 서비스 - 사무서비스","category":"other"}]},{"lat":"37.729176045","long":"126.73515151","imageIndex":17,"items":[{"name":"삶과꿈","tel":"031-8071-0005","addr":"경기도 파주시 목동동 935-1번지","indutype":"문화.취미 - 티켓","category":"other"}]},{"lat":"37.725206885","long":"126.74920834","imageIndex":17,"items":[{"name":"삼성AI","tel":"","addr":"경기도 파주시 목동동 2-110번지 해솔마을3단지운정현대아파트","indutype":"용역 서비스 - 기타용역서비스","category":"other"},{"name":"세아 인테리어","tel":"031-943-0475","addr":"경기도 파주시 목동동 2-110번지 해솔마을3단지운정현대아파트","indutype":"건축자재 - 인테리어전문","category":"other"},{"name":"앤디자인","tel":"070-4138-7001","addr":"경기도 파주시 목동동 2-110번지 해솔마을3단지운정현대아파트","indutype":"용역 서비스 - 사무서비스","category":"other"},{"name":"퍼니루시아","tel":"","addr":"경기도 파주시 목동동 2-110번지 해솔마을3단지운정현대아파트","indutype":"의류 - 아동의류","category":"other"},{"name":"현대세탁소","tel":"031-948-2555","addr":"경기도 파주시 목동동 2-110번지 해솔마을3단지운정현대아파트","indutype":"수리서비스 - 세탁소","category":"other"},{"name":"휘황 연","tel":"031-111-1111","addr":"경기도 파주시 목동동 2-110번지 해솔마을3단지운정현대아파트","indutype":"문화.취미 - 문화취미기타","category":"other"}]},{"lat":"37.722150534","long":"126.74002003","imageIndex":17,"items":[{"name":"소소아이플라워","tel":"031-111-1111","addr":"경기도 파주시 목동동 1067-4번지","indutype":"문화.취미 - 화원","category":"other"}]},{"lat":"37.723709252","long":"126.74004855","imageIndex":17,"items":[{"name":"손뜨개재미썸","tel":"","addr":"경기도 파주시 목동동 1054-2번지","indutype":"문화.취미 - 문화취미기타","category":"other"},{"name":"윤니도예공방","tel":"031-949-4778","addr":"경기도 파주시 목동동 1054-2번지","indutype":"문화.취미 - 문화취미기타","category":"other"},{"name":"코맥스프라자 파주운정점(등불조명)","tel":"031-947-7050","addr":"경기도 파주시 목동동 1054-2번지","indutype":"건축자재 - 조명기구","category":"other"}]},{"lat":"37.725972497","long":"126.74496343","imageIndex":17,"items":[{"name":"수","tel":"031-947-3035","addr":"경기도 파주시 목동동 2-117번지 교하1차월드메르디앙 107동 1402호","indutype":"회원제형태 - 기타1","category":"other"}]},{"lat":"37.728787838","long":"126.73480126","imageIndex":17,"items":[{"name":"스꾸스꾸","tel":"","addr":"경기도 파주시 목동동 937-3번지","indutype":"서적문구 - 문구용품","category":"other"},{"name":"오늘 사진관","tel":"031-949-9170","addr":"경기도 파주시 목동동 937-3번지","indutype":"광학제품 - 사진관","category":"other"},{"name":"폰플러스","tel":"031-947-7010","addr":"경기도 파주시 목동동 937-3번지","indutype":"사무통신 - 통신기기","category":"other"}]},{"lat":"37.719567385","long":"126.73715962","imageIndex":17,"items":[{"name":"스타텔레콤","tel":"031-944-5022","addr":"경기도 파주시 목동동 1136-4번지","indutype":"사무통신 - 통신기기","category":"other"},{"name":"커먼샵","tel":"031-000-0000","addr":"경기도 파주시 목동동 1136-4번지","indutype":"의류 - 정장","category":"other"}]},{"lat":"37.718982636","long":"126.73754733","imageIndex":17,"items":[{"name":"슬로우 그린","tel":"031-943-4013","addr":"경기도 파주시 목동동 1129-1번지","indutype":"문화.취미 - 화원","category":"other"}]},{"lat":"37.725689693","long":"126.74336505","imageIndex":17,"items":[{"name":"신고메고","tel":"","addr":"경기도 파주시 목동동 2-117번지 해솔마을2단지월드메르디앙","indutype":"회원제형태 - 기타4","category":"other"}]},{"lat":"37.732088302","long":"126.74012103","imageIndex":17,"items":[{"name":"신도OA솔루션","tel":"031-946-3120","addr":"경기도 파주시 목동동 114-37번지 산내마을8단지","indutype":"회원제형태 - 기타3","category":"other"}]},{"lat":"37.727533401","long":"126.73387564","imageIndex":17,"items":[{"name":"싸다통신","tel":"031-946-3311","addr":"경기도 파주시 목동동 941-1번지","indutype":"사무통신 - 통신기기","category":"other"},{"name":"케이에스모바일","tel":"031-946-3311","addr":"경기도 파주시 목동동 941-1번지","indutype":"사무통신 - 통신기기","category":"other"},{"name":"핸드폰바꾸실분","tel":"031-949-5453","addr":"경기도 파주시 목동동 941-1번지","indutype":"사무통신 - 통신기기","category":"other"}]},{"lat":"37.730680393","long":"126.74721586","imageIndex":17,"items":[{"name":"쏘피의 정원","tel":"031-8071-0922","addr":"경기도 파주시 목동동 764번지","indutype":"문화.취미 - 화원","category":"other"},{"name":"오뜨(oott)","tel":"031-000-0000","addr":"경기도 파주시 목동동 764번지","indutype":"의류 - 정장","category":"other"}]},{"lat":"37.731512353","long":"126.73640227","imageIndex":17,"items":[{"name":"씨유운정산내마을점","tel":"031-944-6203","addr":"경기도 파주시 목동동 872번지","indutype":"유통업 영리 - 편 의 점","category":"other"}]},{"lat":"37.722761076","long":"126.73907644","imageIndex":17,"items":[{"name":"씨유운정산내중학교점","tel":"031-941-1829","addr":"경기도 파주시 목동동 1056-2번지","indutype":"유통업 영리 - 편 의 점","category":"other"}]},{"lat":"37.728067956","long":"126.73518953","imageIndex":17,"items":[{"name":"씨유파주월드점","tel":"031-948-5472","addr":"경기도 파주시 목동동 939-2번지","indutype":"유통업 영리 - 편 의 점","category":"other"},{"name":"우리동네폰가게","tel":"031-946-5010","addr":"경기도 파주시 목동동 939-2번지","indutype":"사무통신 - 통신기기","category":"other"}]},{"lat":"37.729957394","long":"126.73804133","imageIndex":17,"items":[{"name":"아머텍 주식회사","tel":"02-2661-3322","addr":"경기도 파주시 목동동 862-2번지","indutype":"사무통신 - 통신기기","category":"other"}]},{"lat":"37.725185761","long":"126.74363904","imageIndex":17,"items":[{"name":"아이미래","tel":"031-949-6776","addr":"경기도 파주시 목동동 2-117번지","indutype":"서적문구 - 기타서적문구","category":"other"}]},{"lat":"37.727643413","long":"126.75104899","imageIndex":17,"items":[{"name":"아즈텐가","tel":"031-949-6466","addr":"경기도 파주시 목동동 667번지 해솔마을4단지벽산우남연리지","indutype":"문화.취미 - 민예·공예품","category":"other"}]},{"lat":"37.718786847","long":"126.73862551","imageIndex":17,"items":[{"name":"아쿠아워시 셀프빨래방","tel":"","addr":"경기도 파주시 목동동 1115번지","indutype":"수리서비스 - 세탁소","category":"other"}]},{"lat":"37.727839231","long":"126.73365901","imageIndex":17,"items":[{"name":"알파문구산내마을점","tel":"031-941-3818","addr":"경기도 파주시 목동동 941번지","indutype":"서적문구 - 문구용품","category":"other"},{"name":"이마트24 운정동광프라자점","tel":"","addr":"경기도 파주시 목동동 941번지","indutype":"유통업 영리 - 편 의 점","category":"other"},{"name":"이마트24 운정동광프라자점","tel":"","addr":"경기도 파주시 목동동 941번지","indutype":"유통업 영리 - 편 의 점","category":"other"}]},{"lat":"37.722626315","long":"126.74330768","imageIndex":17,"items":[{"name":"어반 인테리어","tel":"031-948-1387","addr":"경기도 파주시 목동동 679번지 해솔마을5단지삼부르네상스아파트","indutype":"건축자재 - 인테리어전문","category":"other"}]},{"lat":"37.729014132","long":"126.73526553","imageIndex":17,"items":[{"name":"옐로우폰가게","tel":"031-947-4118","addr":"경기도 파주시 목동동 935번지","indutype":"사무통신 - 통신기기","category":"other"},{"name":"제이텔레콤","tel":"070-4046-1235","addr":"경기도 파주시 목동동 935번지","indutype":"사무통신 - 통신기기","category":"other"},{"name":"코스모스 텔레콤","tel":"031-944-5553","addr":"경기도 파주시 목동동 935번지","indutype":"사무통신 - 통신기기","category":"other"},{"name":"황소 공인중개사사무소","tel":"031-949-7789","addr":"경기도 파주시 목동동 935번지","indutype":"용역 서비스 - 부동산 중개·임대","category":"other"}]},{"lat":"37.731705725","long":"126.74640691","imageIndex":17,"items":[{"name":"오늘The예뻐","tel":"031-947-7339","addr":"경기도 파주시 목동동 741-5번지","indutype":"의류 - 정장","category":"other"}]},{"lat":"37.73214857","long":"126.74704065","imageIndex":17,"items":[{"name":"우아오아","tel":"","addr":"경기도 파주시 목동동 739-3번지","indutype":"의류 - 아동의류","category":"other"}]},{"lat":"37.728868378","long":"126.74671163","imageIndex":17,"items":[{"name":"운정보건지소","tel":"031-940-5694","addr":"경기도 파주시 목동동 656번지","indutype":"기타의료기관 - 기타의료기관 및 기타","category":"other"}]},{"lat":"37.722923729","long":"126.73929137","imageIndex":17,"items":[{"name":"운정전기조명","tel":"031-947-0465","addr":"경기도 파주시 목동동 1056번지","indutype":"건축자재 - 조명기구","category":"other"}]},{"lat":"37.722618901","long":"126.73996166","imageIndex":17,"items":[{"name":"윤공방","tel":"","addr":"경기도 파주시 목동동 1074번지","indutype":"문화.취미 - 문화취미기타","category":"other"}]},{"lat":"37.726846159","long":"126.7367366","imageIndex":17,"items":[{"name":"이각스튜디오","tel":"031-946-7136","addr":"경기도 파주시 목동동 958-3번지","indutype":"광학제품 - 사진관","category":"other"}]},{"lat":"37.718758521","long":"126.73804718","imageIndex":17,"items":[{"name":"이른계절","tel":"","addr":"경기도 파주시 목동동 1131-2번지","indutype":"신변잡화 - 기타잡화","category":"other"}]},{"lat":"37.731176455","long":"126.74746371","imageIndex":17,"items":[{"name":"이리스","tel":"","addr":"경기도 파주시 목동동 754-7번지","indutype":"의류 - 정장","category":"other"}]},{"lat":"37.729842067","long":"126.74701455","imageIndex":17,"items":[{"name":"이마트24 운정이레점","tel":"","addr":"경기도 파주시 목동동 778번지","indutype":"유통업 영리 - 편 의 점","category":"other"},{"name":"이마트24 운정이레점","tel":"031-1111-1111","addr":"경기도 파주시 목동동 778번지","indutype":"유통업 영리 - 편 의 점","category":"other"}]},{"lat":"37.721869745","long":"126.73935182","imageIndex":17,"items":[{"name":"일월의 꽃","tel":"031-944-2391","addr":"경기도 파주시 목동동 1061-1번지","indutype":"문화.취미 - 화원","category":"other"}]},{"lat":"37.71984073","long":"126.73851969","imageIndex":17,"items":[{"name":"제나","tel":"","addr":"경기도 파주시 목동동 1103-3번지","indutype":"의류 - 정장","category":"other"},{"name":"프롬디어","tel":"","addr":"경기도 파주시 목동동 1103-3번지","indutype":"의류 - 정장","category":"other"}]},{"lat":"37.727978753","long":"126.74365199","imageIndex":17,"items":[{"name":"제일쓰리엠","tel":"031-947-6951","addr":"경기도 파주시 목동동 2-117번지 교하1차월드메르디앙 117동 1603호","indutype":"기타 - 기타 전문점","category":"other"}]},{"lat":"37.728265068","long":"126.75104688","imageIndex":17,"items":[{"name":"지선유통","tel":"031-954-4000","addr":"경기도 파주시 목동동 667번지 해솔마을4단지벽산우남연리지","indutype":"유통업 영리 - 기타유통업","category":"other"}]},{"lat":"37.727262053","long":"126.73738168","imageIndex":17,"items":[{"name":"캔유캔들","tel":"","addr":"경기도 파주시 목동동 973-2번지","indutype":"문화.취미 - 문화취미기타","category":"other"}]},{"lat":"37.718703776","long":"126.73774114","imageIndex":17,"items":[{"name":"코디","tel":"","addr":"경기도 파주시 목동동 1131번지","indutype":"의류 - 정장","category":"other"}]},{"lat":"37.719847548","long":"126.73754425","imageIndex":17,"items":[{"name":"크린토피아 운정푸르지오점","tel":"031-946-0930","addr":"경기도 파주시 목동동 1099-4번지","indutype":"수리서비스 - 세탁소","category":"other"}]},{"lat":"37.720456622","long":"126.74404115","imageIndex":17,"items":[{"name":"크린토피아 코인워시 운정해솔점","tel":"031-941-8330","addr":"경기도 파주시 목동동 684번지","indutype":"수리서비스 - 세탁소","category":"other"}]},{"lat":"37.728118001","long":"126.74968618","imageIndex":17,"items":[{"name":"크린토피아 파주벽산우남4단지점","tel":"031-925-1881","addr":"경기도 파주시 목동동 667번지 해솔마을4단지벽산우남연리지","indutype":"수리서비스 - 세탁소","category":"other"}]},{"lat":"37.719038426","long":"126.73831839","imageIndex":17,"items":[{"name":"키라(kira)","tel":"070-8822-5252","addr":"경기도 파주시 목동동 1127-4번지","indutype":"의류 - 정장","category":"other"}]},{"lat":"37.728958683","long":"126.73465318","imageIndex":17,"items":[{"name":"토이토핑슬라임","tel":"","addr":"경기도 파주시 목동동 937-2번지","indutype":"신변잡화 - 기타잡화","category":"other"}]},{"lat":"37.720207315","long":"126.73727075","imageIndex":17,"items":[{"name":"파주 전자담배 세븐베이퍼","tel":"","addr":"경기도 파주시 목동동 1096-1번지","indutype":"기타 - 기타 전문점","category":"other"}]},{"lat":"37.722122645","long":"126.73963449","imageIndex":17,"items":[{"name":"페브리오떼끄","tel":"031-111-1111","addr":"경기도 파주시 목동동 1067-1번지","indutype":"문화.취미 - 민예·공예품","category":"other"}]},{"lat":"37.728540882","long":"126.73318004","imageIndex":17,"items":[{"name":"펫데이","tel":"070-7543-8259","addr":"경기도 파주시 목동동 947번지","indutype":"문화.취미 - 애완동물","category":"other"}]},{"lat":"37.728235511","long":"126.73757104","imageIndex":17,"items":[{"name":"펫존(산내점)","tel":"031-946-9980","addr":"경기도 파주시 목동동 964-2번지","indutype":"문화.취미 - 애완동물","category":"other"}]},{"lat":"37.71845207","long":"126.73799156","imageIndex":17,"items":[{"name":"피앤아이","tel":"031-944-1701","addr":"경기도 파주시 목동동 1134번지","indutype":"사무통신 - 통신기기","category":"other"}]},{"lat":"37.725732187","long":"126.75048831","imageIndex":17,"items":[{"name":"하늘유리거울샤시실리콘공사","tel":"031-8070-6225","addr":"경기도 파주시 목동동 2-110번지","indutype":"회원제형태 - 기타4","category":"other"}]},{"lat":"37.72287061","long":"126.73971124","imageIndex":17,"items":[{"name":"하트마우스","tel":"031-8070-7274","addr":"경기도 파주시 목동동 1072-2번지","indutype":"의류 - 정장","category":"other"}]},{"lat":"37.722762749","long":"126.73982504","imageIndex":17,"items":[{"name":"현마켓","tel":"","addr":"경기도 파주시 목동동 1072-3번지","indutype":"문화.취미 - 애완동물","category":"other"}]}]