[{"lat":"37.295132776","long":"127.43295852","imageIndex":16,"items":[{"name":"JUN합기도마샬아츠종합무술체육관","tel":"031-637-1983","addr":"경기도 이천시 송정동 314-4번지 2층 201호 , 태인상가","indutype":"학원 - 예·체능계학원","category":"study"},{"name":"하늘사이미술교습소","tel":"031-635-6009","addr":"경기도 이천시 송정동 314-4번지 202호","indutype":"학원 - 예·체능계학원","category":"study"}]},{"lat":"37.294603561","long":"127.43230138","imageIndex":16,"items":[{"name":"난나어린이집","tel":"031-637-2636","addr":"경기도 이천시 송정동 314-9번지","indutype":"학원 - 유아원","category":"study"},{"name":"난나어린이집[아이행복]","tel":"031-637-2636","addr":"경기도 이천시 송정동 314-9번지","indutype":"학원 - 유아원","category":"study"},{"name":"자연유치원","tel":"031-637-2636","addr":"경기도 이천시 송정동 314-9번지","indutype":"학원 - 유치원","category":"study"},{"name":"자연유치원[아이행복]","tel":"031-637-2636","addr":"경기도 이천시 송정동 314-9번지","indutype":"학원 - 유치원","category":"study"},{"name":"자연음악교습소","tel":"031-633-8835","addr":"경기도 이천시 송정동 314-9번지","indutype":"학원 - 예·체능계학원","category":"study"}]},{"lat":"37.294298973","long":"127.43429583","imageIndex":16,"items":[{"name":"더수학교습소","tel":"070-8944-1124","addr":"경기도 이천시 송정동 375-37번지 102호","indutype":"학원 - 보습학원","category":"study"},{"name":"드림실용음악학원","tel":"031-632-1331","addr":"경기도 이천시 송정동 375-37번지 201호","indutype":"회원제형태 - 학원","category":"study"},{"name":"업고 (UP GO)영어교습소","tel":"02-1577-0000","addr":"경기도 이천시 송정동 375-37번지 102호","indutype":"학원 - 외국어학원","category":"study"},{"name":"이(e)해법수학송정교습소","tel":"031-635-6797","addr":"경기도 이천시 송정동 375-37번지","indutype":"회원제형태 - 학원","category":"study"},{"name":"클랑음악학원","tel":"031-635-2342","addr":"경기도 이천시 송정동 375-37번지 (202호동)","indutype":"학원 - 예·체능계학원","category":"study"}]},{"lat":"37.295882757","long":"127.43484623","imageIndex":16,"items":[{"name":"더스페셜 태권도장","tel":"031-634-6363","addr":"경기도 이천시 송정동 315-1번지 1동 301,302호","indutype":"학원 - 예·체능계학원","category":"study"},{"name":"이선미음악학원","tel":"031-631-1009","addr":"경기도 이천시 송정동 315-1번지 송정빌딩 2층 201호","indutype":"학원 - 예·체능계학원","category":"study"}]},{"lat":"37.294989108","long":"127.43282236","imageIndex":16,"items":[{"name":"라임음악학원","tel":"031-631-7866","addr":"경기도 이천시 송정동 314-6번지 PHC빌딩 2층 201호,202호","indutype":"학원 - 예·체능계학원","category":"study"},{"name":"말렌미술학원","tel":"031-633-1341","addr":"경기도 이천시 송정동 314-6번지 301호","indutype":"학원 - 예·체능계학원","category":"study"},{"name":"생각키움학원","tel":"031-631-7442","addr":"경기도 이천시 송정동 314-6번지 평산빌딩 304-2호","indutype":"학원 - 보습학원","category":"study"},{"name":"서일영어학원","tel":"031-635-2955","addr":"경기도 이천시 송정동 314-6번지 6층 602호","indutype":"학원 - 외국어학원","category":"study"},{"name":"에이.씨.엘.미술학원","tel":"031-635-0192","addr":"경기도 이천시 송정동 314-6번지 3층","indutype":"학원 - 예·체능계학원","category":"study"},{"name":"윤선생영어숲 이천송정학원","tel":"031-631-5303","addr":"경기도 이천시 송정동 314-6번지 3층","indutype":"학원 - 보습학원","category":"study"},{"name":"한국체대석사 라온태권도장","tel":"031-631-2827","addr":"경기도 이천시 송정동 314-6번지 4층","indutype":"학원 - 예·체능계학원","category":"study"}]},{"lat":"37.293744656","long":"127.44048416","imageIndex":16,"items":[{"name":"리틀킹어린이집[아이행복]","tel":"031-631-7881","addr":"경기도 이천시 송정동 106-38번지","indutype":"학원 - 유아원","category":"study"}]},{"lat":"37.294911858","long":"127.43424294","imageIndex":16,"items":[{"name":"몬스터디독서실","tel":"031-637-3729","addr":"경기도 이천시 송정동 375-54번지 4,5층","indutype":"학원 - 독서실","category":"study"},{"name":"삼서영어수학여우송정학원","tel":"031-635-7779","addr":"경기도 이천시 송정동 375-54번지 2층","indutype":"학원 - 보습학원","category":"study"},{"name":"이루미독서스쿨학원","tel":"031-637-3381","addr":"경기도 이천시 송정동 375-54번지 3층","indutype":"학원 - 보습학원","category":"study"}]},{"lat":"37.294960069","long":"127.43337482","imageIndex":16,"items":[{"name":"뮤엠영어송정달님교습소","tel":"031-633-8505","addr":"경기도 이천시 송정동 375-9번지 금정프라자 201호","indutype":"회원제형태 - 학원","category":"study"},{"name":"뿌리 깊은 수학교습소","tel":"031-636-5709","addr":"경기도 이천시 송정동 375-9번지 201호","indutype":"학원 - 보습학원","category":"study"},{"name":"샘이 깊은 영어","tel":"070-7796-3622","addr":"경기도 이천시 송정동 375-9번지 201호","indutype":"학원 - 보습학원","category":"study"},{"name":"서울음악학원","tel":"031-636-6131","addr":"경기도 이천시 송정동 375-9번지 202호","indutype":"학원 - 예·체능계학원","category":"study"}]},{"lat":"37.296911698","long":"127.43927318","imageIndex":16,"items":[{"name":"베스트 클래스 153음악 교습소","tel":"031-633-3053","addr":"경기도 이천시 송정동 344-5번지 2층 202호","indutype":"학원 - 예·체능계학원","category":"study"}]},{"lat":"37.295574142","long":"127.43299486","imageIndex":16,"items":[{"name":"베스트클래스153보습학원","tel":"031-633-3056","addr":"경기도 이천시 송정동 314-7번지 2층 201호","indutype":"학원 - 보습학원","category":"study"}]},{"lat":"37.297384868","long":"127.43801274","imageIndex":16,"items":[{"name":"베스티안어학원","tel":"031-638-1322","addr":"경기도 이천시 송정동 328번지 거장프라자 2층 201호 202호","indutype":"회원제형태 - 학원","category":"study"}]},{"lat":"37.298044489","long":"127.44720844","imageIndex":16,"items":[{"name":"산들어린이집","tel":"031-633-9723","addr":"경기도 이천시 송정동 52-3번지","indutype":"학원 - 유치원","category":"study"},{"name":"산들어린이집[아이행복]","tel":"031-633-9723","addr":"경기도 이천시 송정동 52-3번지","indutype":"학원 - 유아원","category":"study"}]},{"lat":"37.294710318","long":"127.4449107","imageIndex":16,"items":[{"name":"새롬어린이집[아이행복]","tel":"031-634-7070","addr":"경기도 이천시 송정동 102-17번지","indutype":"학원 - 유아원","category":"study"}]},{"lat":"37.29482258","long":"127.43401687","imageIndex":16,"items":[{"name":"송암태권도체육관","tel":"031-634-0330","addr":"경기도 이천시 송정동 375-40번지 대용빌딩 송암태권도체육관","indutype":"학원 - 예·체능계학원","category":"study"},{"name":"애플영어학원","tel":"031-635-1301","addr":"경기도 이천시 송정동 375-40번지 대용빌딩 103호","indutype":"학원 - 외국어학원","category":"study"}]},{"lat":"37.295465039","long":"127.43326491","imageIndex":16,"items":[{"name":"송정마스터클럽학원","tel":"031-631-8115","addr":"경기도 이천시 송정동 314번지 202호","indutype":"학원 - 보습학원","category":"study"},{"name":"스터디존독서실","tel":"031-631-1106","addr":"경기도 이천시 송정동 314번지 203호~205호","indutype":"학원 - 독서실","category":"study"}]},{"lat":"37.296269857","long":"127.43493866","imageIndex":16,"items":[{"name":"송정위슬런채움수학교습소","tel":"","addr":"경기도 이천시 송정동 315-5번지","indutype":"학원 - 보습학원","category":"study"}]},{"lat":"37.294878446","long":"127.43352096","imageIndex":16,"items":[{"name":"송정이엠(EM)보습학원","tel":"031-636-0113","addr":"경기도 이천시 송정동 375-39번지 2층","indutype":"학원 - 보습학원","category":"study"}]},{"lat":"37.29952322","long":"127.43227296","imageIndex":16,"items":[{"name":"아이뜰어린이집[아이행복]","tel":"031-637-0306","addr":"경기도 이천시 송정동 270-7번지 아이뜰어린이집","indutype":"학원 - 유아원","category":"study"}]},{"lat":"37.288410992","long":"127.44523471","imageIndex":16,"items":[{"name":"아이어린이집[아이행복]","tel":"031-633-1306","addr":"경기도 이천시 송정동 74-20번지","indutype":"학원 - 유아원","category":"study"}]},{"lat":"37.288657755","long":"127.44430016","imageIndex":16,"items":[{"name":"아이유치원[아이행복]","tel":"031-633-1306","addr":"경기도 이천시 송정동 78-4번지","indutype":"학원 - 유치원","category":"study"}]},{"lat":"37.297209984","long":"127.4390155","imageIndex":16,"items":[{"name":"안암교육주식회사","tel":"031-631-0984","addr":"경기도 이천시 송정동 343번지 송정치과 202호","indutype":"학원 - 보습학원","category":"study"}]},{"lat":"37.291830279","long":"127.44404804","imageIndex":16,"items":[{"name":"예광몬테소리어린이집[아이행복]","tel":"031-635-4171","addr":"경기도 이천시 송정동 87번지","indutype":"학원 - 유아원","category":"study"}]},{"lat":"37.295468462","long":"127.43479874","imageIndex":16,"items":[{"name":"예스송정영어학원","tel":"031-636-0910","addr":"경기도 이천시 송정동 374번지 ,2.3층","indutype":"학원 - 외국어학원","category":"study"}]},{"lat":"37.296770092","long":"127.43365581","imageIndex":16,"items":[{"name":"오네스또","tel":"031-1599-4779","addr":"경기도 이천시 송정동 446번지 송정동동양파라곤 105동 202호","indutype":"학원 - 예·체능계학원","category":"study"}]},{"lat":"37.296574714","long":"127.43534642","imageIndex":16,"items":[{"name":"위너수학교습소","tel":"031-635-1304","addr":"경기도 이천시 송정동 317-2번지 104호","indutype":"학원 - 보습학원","category":"study"}]},{"lat":"37.293437954","long":"127.43320826","imageIndex":16,"items":[{"name":"이천송정중학교","tel":"031-631-8300","addr":"경기도 이천시 송정동 375-31번지 송정중학교","indutype":"학원 - 초중고교육기관","category":"study"},{"name":"이천송정중학교_수업료","tel":"031-631-8300","addr":"경기도 이천시 송정동 375-31번지 송정중학교","indutype":"학원 - 초중고교육기관","category":"study"}]},{"lat":"37.294266669","long":"127.43326936","imageIndex":16,"items":[{"name":"이천송정초등학교","tel":"","addr":"경기도 이천시 송정동 375-23번지 송정초등학교","indutype":"학원 - 초중고교육기관","category":"study"},{"name":"이천송정초등학교병설유치원[아이행복]","tel":"031-631-8436","addr":"경기도 이천시 송정동 375-23번지 외2필지 송정초등학교","indutype":"학원 - 유치원","category":"study"}]},{"lat":"37.29649099","long":"127.44096248","imageIndex":16,"items":[{"name":"이천유치원[아이행복]","tel":"031-633-1565","addr":"경기도 이천시 송정동 107-82","indutype":"학원 - 유치원","category":"study"}]},{"lat":"37.298131369","long":"127.43837795","imageIndex":16,"items":[{"name":"케이엠(KM)발레아카데미","tel":"031-635-2750","addr":"경기도 이천시 송정동 332-4번지 201,202호","indutype":"학원 - 예·체능계학원","category":"study"}]},{"lat":"37.296188067","long":"127.43512992","imageIndex":16,"items":[{"name":"토킹스타송정어학원","tel":"031-638-9909","addr":"경기도 이천시 송정동 316번지 3층","indutype":"학원 - 외국어학원","category":"study"}]},{"lat":"37.295658289","long":"127.43463066","imageIndex":16,"items":[{"name":"혜담미술학원","tel":"031-634-5036","addr":"경기도 이천시 송정동 315번지 송정프라자","indutype":"회원제형태 - 학원","category":"study"}]}]