[{"lat":"37.014883299","long":"127.03181603","imageIndex":17,"items":[{"name":"(주)용연산업","tel":"031-665-4044","addr":"경기도 평택시 고덕면 방축리 618번지","indutype":"건축자재 - 기타건축자재","category":"other"}]},{"lat":"37.016438947","long":"127.04283987","imageIndex":17,"items":[{"name":"(주)테라그린","tel":"02-2671-3157","addr":"경기도 평택시 고덕면 방축리 528-2번지 (주)테라그린","indutype":"농업 - 비료,사료,종자","category":"other"}]},{"lat":"37.015243665","long":"127.03206337","imageIndex":17,"items":[{"name":"LH금속샤링","tel":"031-666-1567","addr":"경기도 평택시 고덕면 방축리 671-14번지","indutype":"건축자재 - 기타건축자재","category":"other"},{"name":"대성특수용접","tel":"031-684-7042","addr":"경기도 평택시 고덕면 방축리 671-14번지","indutype":"용역 서비스 - 기타용역서비스","category":"other"},{"name":"에어컨마트","tel":"031-663-5123","addr":"경기도 평택시 고덕면 방축리 671-14번지","indutype":"회원제형태 - 기타4","category":"other"}]},{"lat":"37.015459968","long":"127.03187243","imageIndex":17,"items":[{"name":"emart24 평택고덕대로점","tel":"","addr":"경기도 평택시 고덕면 방축리 670-9번지 1층","indutype":"유통업 영리 - 편 의 점","category":"other"},{"name":"유학온고기","tel":"031-667-6665","addr":"경기도 평택시 고덕면 방축리 670-9번지","indutype":"도소매업 - 정육","category":"other"},{"name":"이마트24 평택고덕대로점","tel":"","addr":"경기도 평택시 고덕면 방축리 670-9번지","indutype":"소매업 - 편의점","category":"other"}]},{"lat":"37.017215092","long":"127.0390085","imageIndex":17,"items":[{"name":"㈜간판스타","tel":"","addr":"경기도 평택시 고덕면 방축리 438-6번지","indutype":"제조업 - 인쇄","category":"other"}]},{"lat":"37.013544553","long":"127.04831044","imageIndex":17,"items":[{"name":"국제산업","tel":"031-1600-4309","addr":"경기도 평택시 고덕면 방축리 133-6번지","indutype":"기타 - 기계공구","category":"other"}]},{"lat":"37.014656692","long":"127.03687236","imageIndex":17,"items":[{"name":"네비원-오성점","tel":"031-666-3027","addr":"경기도 평택시 고덕면 방축리 628-1번지","indutype":"전기제품 - 가전제품","category":"other"},{"name":"도그스카이","tel":"031-611-2500","addr":"경기도 평택시 고덕면 방축리 628-1","indutype":"문화.취미 - 애완동물","category":"other"},{"name":"에스(S)타일","tel":"031-663-2064","addr":"경기도 평택시 고덕면 방축리 628-1번지","indutype":"건축자재 - 건축용 요업제품","category":"other"},{"name":"종합타이어","tel":"031-664-5770","addr":"경기도 평택시 고덕면 방축리 628-1번지","indutype":"소매업 - 타이어","category":"other"},{"name":"청명철물공구","tel":"031-664-3636","addr":"경기도 평택시 고덕면 방축리 628-1","indutype":"건축자재 - 목재·석재·철물","category":"other"},{"name":"청명철물공구","tel":"031-665-8240","addr":"경기도 평택시 고덕면 방축리 628-1번지","indutype":"소매업 - 철물, 공구","category":"other"},{"name":"태영인테리어장식","tel":"031-657-5593","addr":"경기도 평택시 고덕면 방축리 628-1번지","indutype":"직물 - 카페트,커튼,천막,지물","category":"other"}]},{"lat":"37.011600939","long":"127.04062384","imageIndex":17,"items":[{"name":"다윗광고기획","tel":"031-658-5007","addr":"경기도 평택시 고덕면 방축리 551-6 27","indutype":"용역 서비스 - 종합용역","category":"other"}]},{"lat":"37.019908548","long":"127.04134713","imageIndex":17,"items":[{"name":"대우두산","tel":"031-611-8381","addr":"경기도 평택시 고덕면 방축리 470-30번지","indutype":"기타 - 기계공구","category":"other"}]},{"lat":"37.022043969","long":"127.04167409","imageIndex":17,"items":[{"name":"동아엔진보링","tel":"031-654-9792","addr":"경기도 평택시 고덕면 방축리 401-2번지","indutype":"기타 - 기계공구","category":"other"}]},{"lat":"37.015880948","long":"127.04081698","imageIndex":17,"items":[{"name":"모모클린","tel":"","addr":"경기도 평택시 고덕면 방축리 502-6번지","indutype":"용역 서비스 - 종합용역","category":"other"}]},{"lat":"37.013044963","long":"127.0324558","imageIndex":17,"items":[{"name":"바이젬","tel":"031-651-5979","addr":"경기도 평택시 고덕면 방축리 682번지 1층","indutype":"신변잡화 - 귀금속","category":"other"}]},{"lat":"37.011801192","long":"127.05842186","imageIndex":17,"items":[{"name":"사인(SIGN)채널","tel":"031-618-6998","addr":"경기도 평택시 고덕면 방축리 57-16번지","indutype":"건축자재 - 인테리어전문","category":"other"}]},{"lat":"37.009627564","long":"127.04073522","imageIndex":17,"items":[{"name":"서경후렘","tel":"031-667-9910","addr":"경기도 평택시 고덕면 방축리 800","indutype":"용역 서비스 - 종합용역","category":"other"}]},{"lat":"37.014404224","long":"127.03745654","imageIndex":17,"items":[{"name":"서진낚시유통","tel":"031-662-0093","addr":"경기도 평택시 고덕면 방축리 556-2번지","indutype":"레져용품 - 스포츠·레져용품","category":"other"},{"name":"서진낚시유통","tel":"031-611-0137","addr":"경기도 평택시 고덕면 방축리 556-2번지","indutype":"소매업 - 낚시용품","category":"other"}]},{"lat":"37.015459152","long":"127.03504115","imageIndex":17,"items":[{"name":"소야공방","tel":"031-667-8010","addr":"경기도 평택시 고덕면 방축리 649-7번지 가평상가 C동 203호","indutype":"문화.취미 - 민예·공예품","category":"other"}]},{"lat":"37.017744009","long":"127.04703193","imageIndex":17,"items":[{"name":"아름다운김부자","tel":"031-611-4182","addr":"경기도 평택시 고덕면 방축리 235-2번지","indutype":"의류 - 내의판매","category":"other"}]},{"lat":"37.019014179","long":"127.04792039","imageIndex":17,"items":[{"name":"오륜스포츠 평택점","tel":"031-663-1985","addr":"경기도 평택시 고덕면 방축리 229-6번지 B동","indutype":"레져용품 - 스포츠·레져용품","category":"other"}]},{"lat":"37.017295738","long":"127.0404581","imageIndex":17,"items":[{"name":"장아짱아 영농법인","tel":"031-611-5554","addr":"경기도 평택시 고덕면 방축리 495-3번지","indutype":"소매업 - 농산물","category":"other"}]},{"lat":"37.021268504","long":"127.04331437","imageIndex":17,"items":[{"name":"제이엘도어산업주식회사","tel":"031-651-6556","addr":"경기도 평택시 고덕면 방축리 392-5번지","indutype":"건축자재 - 기타건축자재","category":"other"}]},{"lat":"37.011161787","long":"127.03223035","imageIndex":17,"items":[{"name":"케이에이치스포츠","tel":"031-000-0000","addr":"경기도 평택시 고덕면 방축리 604번지","indutype":"레져용품 - 스포츠·레져용품","category":"other"}]},{"lat":"37.01843652","long":"127.05042591","imageIndex":17,"items":[{"name":"태성산업","tel":"031-653-6556","addr":"경기도 평택시 고덕면 방축리 200-2번지","indutype":"건축자재 - 보일러·펌프·샷시","category":"other"},{"name":"태성산업","tel":"","addr":"경기도 평택시 고덕면 방축리 200-2번지","indutype":"소매업 - 배관자재","category":"other"}]},{"lat":"37.015099244","long":"127.03306337","imageIndex":17,"items":[{"name":"휴대폰 멀티샵","tel":"031-668-5010","addr":"경기도 평택시 고덕면 방축리 667-6번지","indutype":"사무통신 - 통신기기","category":"other"}]}]