[{"lat":"37.221555412","long":"127.4499367","imageIndex":17,"items":[{"name":"rangra ( 란그레 )","tel":"","addr":"경기도 이천시 단월동 512-4번지 빨간집","indutype":"신변잡화 - 액세서리","category":"other"}]},{"lat":"37.224921692","long":"127.4508805","imageIndex":17,"items":[{"name":"가온사무용가구","tel":"031-632-7789","addr":"경기도 이천시 단월동 356-5번지","indutype":"가구 - 기타가구","category":"other"}]},{"lat":"37.221943186","long":"127.44984885","imageIndex":17,"items":[{"name":"동양상사","tel":"031-633-5866","addr":"경기도 이천시 단월동 513번지","indutype":"기타 - 기계공구","category":"other"},{"name":"솜씨데코","tel":"031-637-9908","addr":"경기도 이천시 단월동 513번지 2층","indutype":"문화.취미 - 화원","category":"other"}]},{"lat":"37.225282862","long":"127.45067982","imageIndex":17,"items":[{"name":"신명전기","tel":"031-632-0204","addr":"경기도 이천시 단월동 356-3번지","indutype":"건축자재 - 조명기구","category":"other"}]},{"lat":"37.220859934","long":"127.45038327","imageIndex":17,"items":[{"name":"예연광고","tel":"031-638-1920","addr":"경기도 이천시 단월동 544-4번지","indutype":"용역 서비스 - 종합용역","category":"other"},{"name":"예연전기,설비","tel":"031-638-1900","addr":"경기도 이천시 단월동 544-4 2/","indutype":"건축자재 - 조명기구","category":"other"}]},{"lat":"37.224997646","long":"127.4498556","imageIndex":17,"items":[{"name":"우림산업","tel":"031-634-1627","addr":"경기도 이천시 단월동 332-1번지","indutype":"건축자재 - 목재·석재·철물","category":"other"}]},{"lat":"37.213558865","long":"127.45110622","imageIndex":17,"items":[{"name":"이마트24 이천단월점","tel":"031-111-1111","addr":"경기도 이천시 단월동 731번지","indutype":"유통업 영리 - 편 의 점","category":"other"},{"name":"이마트24 이천단월점","tel":"","addr":"경기도 이천시 단월동 731번지","indutype":"유통업 영리 - 편 의 점","category":"other"}]},{"lat":"37.227890391","long":"127.44973746","imageIndex":17,"items":[{"name":"이송창호","tel":"031-631-2261","addr":"경기도 이천시 단월동 207번지","indutype":"건축자재 - 기타건축자재","category":"other"}]},{"lat":"37.229640682","long":"127.44912804","imageIndex":17,"items":[{"name":"이천철물건재","tel":"031-631-6989","addr":"경기도 이천시 단월동 199번지","indutype":"기타 - 기계공구","category":"other"}]},{"lat":"37.222805644","long":"127.4505187","imageIndex":17,"items":[{"name":"주미전자","tel":"031-632-9425","addr":"경기도 이천시 단월동 522-9번지","indutype":"전기제품 - 냉열기기","category":"other"}]},{"lat":"37.218224866","long":"127.44907205","imageIndex":17,"items":[{"name":"태광농자재","tel":"031-633-8398","addr":"경기도 이천시 단월동 565-9번지","indutype":"농업 - 기타농업관련","category":"other"}]},{"lat":"37.220755597","long":"127.4493799","imageIndex":17,"items":[{"name":"하은","tel":"031-633-7527","addr":"경기도 이천시 단월동 502-2","indutype":"문화.취미 - 민예·공예품","category":"other"}]}]