[{"lat":"37.245909218","long":"127.04300575","imageIndex":13,"items":[{"name":"Ye''s 필라테스","tel":"","addr":"경기도 수원시 영통구 신동 939번지 래미안영통마크원1단지 103동 1601호","indutype":"레저업소 - 헬스클럽","category":"leisure"},{"name":"율리너K","tel":"","addr":"경기도 수원시 영통구 신동 939번지 래미안영통마크원1단지 105동 1102호","indutype":"레저업소 - 헬스클럽","category":"leisure"}]},{"lat":"37.247404426","long":"127.04447177","imageIndex":13,"items":[{"name":"궁 노래연습장","tel":"031-258-6027","addr":"경기도 수원시 영통구 신동 935-2번지","indutype":"레저업소 - 노 래 방","category":"leisure"}]},{"lat":"37.249048011","long":"127.05752471","imageIndex":13,"items":[{"name":"김성범유도멀티짐","tel":"031-202-8265","addr":"경기도 수원시 영통구 신동 340-15번지","indutype":"레저업소 - 헬스클럽","category":"leisure"}]},{"lat":"37.251876585","long":"127.05894697","imageIndex":13,"items":[{"name":"당구사랑","tel":"031-202-1888","addr":"경기도 수원시 영통구 신동 384-8번지 2층 전체","indutype":"레저업소 - 당 구 장","category":"leisure"}]},{"lat":"37.246737662","long":"127.0444714","imageIndex":13,"items":[{"name":"더뷰스튜디오","tel":"031-204-0002","addr":"경기도 수원시 영통구 신동 937-4번지 드림타워 305,306호","indutype":"레저업소 - 헬스클럽","category":"leisure"},{"name":"디아망 수원신동점","tel":"031-714-3313","addr":"경기도 수원시 영통구 신동 937-4번지 드림타워 2층","indutype":"레저업소 - 기타레져업소","category":"leisure"},{"name":"주식회사 에스디","tel":"031-207-6777","addr":"경기도 수원시 영통구 신동 937-4번지 드림타워 지하1층 비101호","indutype":"레저업소 - 수 영 장","category":"leisure"}]},{"lat":"37.2485757","long":"127.04466402","imageIndex":13,"items":[{"name":"리버팰리스 수상레져","tel":"031-4404-3188","addr":"경기도 수원시 영통구 신동 930-7번지 302호","indutype":"레저업소 - 기타레져업소","category":"leisure"}]},{"lat":"37.2464043","long":"127.04441486","imageIndex":13,"items":[{"name":"머슬코어","tel":"031-8009-0012","addr":"경기도 수원시 영통구 신동 938번지 301호","indutype":"레저업소 - 헬스클럽","category":"leisure"}]},{"lat":"37.246016963","long":"127.04411034","imageIndex":13,"items":[{"name":"스쿠버당구장","tel":"031-203-4532","addr":"경기도 수원시 영통구 신동 938-3번지 온누리빌딩 201호","indutype":"레저업소 - 당 구 장","category":"leisure"}]},{"lat":"37.247710469","long":"127.0453398","imageIndex":13,"items":[{"name":"스타덤 PC","tel":"070-9375-8348","addr":"경기도 수원시 영통구 신동 936-6번지 2층","indutype":"레저업소 - 기타레져업소","category":"leisure"}]},{"lat":"37.247548484","long":"127.04477616","imageIndex":13,"items":[{"name":"에이치골프","tel":"","addr":"경기도 수원시 영통구 신동 935번지 301호","indutype":"레저업소 - 골프연습장","category":"leisure"}]},{"lat":"37.247017346","long":"127.04342336","imageIndex":13,"items":[{"name":"엔젤노래연습장","tel":"031-206-0727","addr":"경기도 수원시 영통구 신동 933-10번지 301호","indutype":"레저업소 - 노 래 방","category":"leisure"},{"name":"히트짐","tel":"031-205-1277","addr":"경기도 수원시 영통구 신동 933-10번지 401호","indutype":"레저업소 - 헬스클럽","category":"leisure"}]},{"lat":"37.246323294","long":"127.04416686","imageIndex":13,"items":[{"name":"와이에스짐(YS GYM)","tel":"031-205-9224","addr":"경기도 수원시 영통구 신동 938-1번지","indutype":"레저업소 - 헬스클럽","category":"leisure"}]},{"lat":"37.247716659","long":"127.05258705","imageIndex":13,"items":[{"name":"커플노래연습장","tel":"031-206-1940","addr":"경기도 수원시 영통구 신동 398-21번지 지층","indutype":"레저업소 - 노 래 방","category":"leisure"}]},{"lat":"37.24973801","long":"127.04472102","imageIndex":13,"items":[{"name":"티업갤럭시티","tel":"031-225-5757","addr":"경기도 수원시 영통구 신동 534번지","indutype":"레저업소 - 골프연습장","category":"leisure"}]},{"lat":"37.246990487","long":"127.04291616","imageIndex":13,"items":[{"name":"품안 필라테스","tel":"","addr":"경기도 수원시 영통구 신동 933-13번지 201호","indutype":"레저업소 - 헬스클럽","category":"leisure"}]},{"lat":"37.247800685","long":"127.04502426","imageIndex":13,"items":[{"name":"허니노래연습장","tel":"031-272-9172","addr":"경기도 수원시 영통구 신동 932-4번지 3층","indutype":"레저업소 - 노 래 방","category":"leisure"}]}]