[{"lat":"37.698268449","long":"127.0546551","imageIndex":17,"items":[{"name":"(주)더드림(THE DREAM)","tel":"031-873-9777","addr":"경기도 의정부시 장암동 219-3번지","indutype":"레져용품 - 스포츠·레져용품","category":"other"}]},{"lat":"37.698215063","long":"127.05310164","imageIndex":17,"items":[{"name":"(주)명성엠에스","tel":"031-826-7431","addr":"경기도 의정부시 장암동 254-7번지","indutype":"건축자재 - 기타건축자재","category":"other"}]},{"lat":"37.708738719","long":"127.05209944","imageIndex":17,"items":[{"name":"(주)베이비플러스 의정부점","tel":"031-876-2800","addr":"경기도 의정부시 장암동 135-41번지","indutype":"의류 - 아동의류","category":"other"}]},{"lat":"37.706682299","long":"127.05717846","imageIndex":17,"items":[{"name":"(주)숯겹살집","tel":"031-1588-6797","addr":"경기도 의정부시 장암동 99-15번지 2층 103호","indutype":"용역 서비스 - 사무서비스","category":"other"}]},{"lat":"37.705745079","long":"127.05765406","imageIndex":17,"items":[{"name":"(주)피트","tel":"031-876-4417","addr":"경기도 의정부시 장암동 101번지","indutype":"용역 서비스 - 사무서비스","category":"other"}]},{"lat":"37.690826159","long":"127.05540956","imageIndex":17,"items":[{"name":"CARAUDIODC","tel":"031-836-2272","addr":"경기도 의정부시 장암동 380-3번지","indutype":"전기제품 - 기타전기제품","category":"other"}]},{"lat":"37.701737033","long":"127.05492966","imageIndex":17,"items":[{"name":"GS25의정장암IC점","tel":"","addr":"경기도 의정부시 장암동 175-3번지 라동","indutype":"유통업 영리 - 편 의 점","category":"other"}]},{"lat":"37.726293981","long":"127.06178673","imageIndex":17,"items":[{"name":"GS25장암주공점","tel":"","addr":"경기도 의정부시 장암동 17-33번지 장암주공7단지 상가동 101호","indutype":"유통업 영리 - 편 의 점","category":"other"},{"name":"가드락","tel":"031-837-1323","addr":"경기도 의정부시 장암동 17-33번지 장암주공7단지 상가동 1층 103호","indutype":"수리서비스 - 기타수리서비스","category":"other"},{"name":"디엔케이홈시큐리티","tel":"070-7559-1324","addr":"경기도 의정부시 장암동 17-33번지 장암주공7단지 상가 103호","indutype":"건축자재 - 목재·석재·철물","category":"other"}]},{"lat":"37.725311721","long":"127.06221699","imageIndex":17,"items":[{"name":"SH시스템","tel":"031-1566-5096","addr":"경기도 의정부시 장암동 14-126번지 삼환나우빌 101동 505호","indutype":"용역 서비스 - 기타용역서비스","category":"other"}]},{"lat":"37.724348228","long":"127.06115","imageIndex":17,"items":[{"name":"T.Q","tel":"031-851-7433","addr":"경기도 의정부시 장암동 14-27번지 우성 상가 지층 2호","indutype":"전기제품 - 기타전기제품","category":"other"},{"name":"스타공인중개사사무소","tel":"031-879-4901","addr":"경기도 의정부시 장암동 14-27번지 우성상가 107호","indutype":"용역 서비스 - 부동산 중개·임대","category":"other"},{"name":"아모르샵","tel":"","addr":"경기도 의정부시 장암동 14-27번지 제상가동 204-2호","indutype":"의류 - 내의판매","category":"other"}]},{"lat":"37.699494264","long":"127.05348803","imageIndex":17,"items":[{"name":"yes자재","tel":"070-8864-8553","addr":"경기도 의정부시 장암동 244-6번지","indutype":"신변잡화 - 기타잡화","category":"other"}]},{"lat":"37.701709054","long":"127.05703876","imageIndex":17,"items":[{"name":"가람화원","tel":"031-879-4168","addr":"경기도 의정부시 장암동 192-4번지","indutype":"문화.취미 - 화원","category":"other"},{"name":"갑산원","tel":"031-876-8988","addr":"경기도 의정부시 장암동 192-4번지","indutype":"문화.취미 - 화원","category":"other"},{"name":"다솔화원","tel":"031-871-0118","addr":"경기도 의정부시 장암동 192-4번지 장암화훼단지 193-1","indutype":"문화.취미 - 화원","category":"other"},{"name":"다육산방","tel":"031-837-4653","addr":"경기도 의정부시 장암동 192-4번지","indutype":"문화.취미 - 화원","category":"other"},{"name":"딸기네다육마당","tel":"031-878-0305","addr":"경기도 의정부시 장암동 192-4번지","indutype":"문화.취미 - 화원","category":"other"},{"name":"복성꽃농원","tel":"031-874-4988","addr":"경기도 의정부시 장암동 192-4번지","indutype":"문화.취미 - 화원","category":"other"},{"name":"상록수화원","tel":"031-873-1615","addr":"경기도 의정부시 장암동 192-4번지 외2필지","indutype":"문화.취미 - 화원","category":"other"},{"name":"야생초 이야기","tel":"031-839-6787","addr":"경기도 의정부시 장암동 192-4번지","indutype":"문화.취미 - 화원","category":"other"},{"name":"의정부조경","tel":"031-876-0707","addr":"경기도 의정부시 장암동 192-4번지","indutype":"문화.취미 - 화원","category":"other"},{"name":"작은풍경","tel":"031-876-2744","addr":"경기도 의정부시 장암동 192-4번지","indutype":"문화.취미 - 화원","category":"other"},{"name":"제주돌문화","tel":"031-826-6060","addr":"경기도 의정부시 장암동 192-4번지","indutype":"문화.취미 - 화원","category":"other"},{"name":"지산원","tel":"031-872-0809","addr":"경기도 의정부시 장암동 192-4번지","indutype":"문화.취미 - 화원","category":"other"},{"name":"진달래꽃화원","tel":"031-874-2190","addr":"경기도 의정부시 장암동 192-4번지","indutype":"문화.취미 - 화원","category":"other"},{"name":"케이가든","tel":"031-872-1737","addr":"경기도 의정부시 장암동 192-4번지 외2필지","indutype":"문화.취미 - 화원","category":"other"},{"name":"해성농원","tel":"031-876-3055","addr":"경기도 의정부시 장암동 192-4번지","indutype":"문화.취미 - 화원","category":"other"},{"name":"훈이네꽃집","tel":"031-1111-1111","addr":"경기도 의정부시 장암동 192-4번지 외2필지","indutype":"문화.취미 - 화원","category":"other"}]},{"lat":"37.726297871","long":"127.05340417","imageIndex":17,"items":[{"name":"고블린자전거","tel":"070-8677-5418","addr":"경기도 의정부시 장암동 20-14번지 발곡프라자115호 115호","indutype":"레져용품 - 스포츠·레져용품","category":"other"},{"name":"금룡","tel":"031-879-5115","addr":"경기도 의정부시 장암동 20-14번지 장암동,발곡프라자 414호","indutype":"회원제형태 - 기타4","category":"other"},{"name":"대흥금방","tel":"031-826-6677","addr":"경기도 의정부시 장암동 20-14번지 지하 B15호","indutype":"신변잡화 - 귀금속","category":"other"},{"name":"라인모바일(Line Mobile)","tel":"031-877-1011","addr":"경기도 의정부시 장암동 20-14번지 발곡프라자 지층 9호 비","indutype":"사무통신 - 통신기기","category":"other"},{"name":"멜라니 플레이스","tel":"","addr":"경기도 의정부시 장암동 20-14번지 발곡프라자 1층 124호","indutype":"의류 - 정장","category":"other"},{"name":"소소아이","tel":"070-7812-0333","addr":"경기도 의정부시 장암동 20-14번지 발곡프라자 122호","indutype":"신변잡화 - 시계","category":"other"},{"name":"어반도그(Urban Dog)","tel":"031-877-8323","addr":"경기도 의정부시 장암동 20-14번지 1층 113호","indutype":"문화.취미 - 애완동물","category":"other"},{"name":"이버이버","tel":"031-871-7731","addr":"경기도 의정부시 장암동 20-14번지 112호","indutype":"의류 - 정장","category":"other"},{"name":"조이게임","tel":"","addr":"경기도 의정부시 장암동 20-14번지 발곡프라자 지층 B-12-2호","indutype":"서적문구 - 완구점","category":"other"},{"name":"펫클럽(장암2호점)","tel":"031-855-1745","addr":"경기도 의정부시 장암동 20-14번지 발곡프라자 1층 108호","indutype":"문화.취미 - 애완동물","category":"other"},{"name":"폰쇼핑 장암점","tel":"031-877-2743","addr":"경기도 의정부시 장암동 20-14번지 외3필지발곡프라자 1층 107호","indutype":"사무통신 - 통신기기","category":"other"}]},{"lat":"37.699682885","long":"127.05482617","imageIndex":17,"items":[{"name":"골프사랑","tel":"031-872-7288","addr":"경기도 의정부시 장암동 214-21번지 1층","indutype":"레져용품 - 골프용품 전문점","category":"other"}]},{"lat":"37.699827371","long":"127.05406655","imageIndex":17,"items":[{"name":"굿쿼테이션서비스","tel":"031-572-6327","addr":"경기도 의정부시 장암동 160-9번지 마니와빌딩","indutype":"건축자재 - 기타건축자재","category":"other"},{"name":"세진과학","tel":"070-4530-1312","addr":"경기도 의정부시 장암동 160-9번지 마니와빌딩 2층 A09호","indutype":"서적문구 - 과학기자재","category":"other"},{"name":"아츠팩토리","tel":"02-3477-1995","addr":"경기도 의정부시 장암동 160-9번지 마니와빌딩","indutype":"용역 서비스 - 종합용역","category":"other"},{"name":"정다운오피스","tel":"031-879-5052","addr":"경기도 의정부시 장암동 160-9번지 마니와빌딩 2층 B5호","indutype":"사무통신 - 기타 사무용품","category":"other"},{"name":"주식회사 더캄","tel":"031-879-5052","addr":"경기도 의정부시 장암동 160-9번지 마니와빌딩 2층 216호","indutype":"의류 - 정장","category":"other"},{"name":"주식회사 비즈피스","tel":"031-879-5052","addr":"경기도 의정부시 장암동 160-9번지 2층","indutype":"용역 서비스 - 부동산 중개·임대","category":"other"}]},{"lat":"37.707987659","long":"127.05937944","imageIndex":17,"items":[{"name":"김미미 도예 공방","tel":"031-837-3072","addr":"경기도 의정부시 장암동 97-14번지","indutype":"문화.취미 - 문화취미기타","category":"other"}]},{"lat":"37.699241814","long":"127.0539074","imageIndex":17,"items":[{"name":"까스텔바작","tel":"","addr":"경기도 의정부시 장암동 243-1번지 나동 1층","indutype":"의류 - 스포츠의류","category":"other"}]},{"lat":"37.722519782","long":"127.06012774","imageIndex":17,"items":[{"name":"꽃다지","tel":"031-872-5780","addr":"경기도 의정부시 장암동 산13-5번지","indutype":"문화.취미 - 화원","category":"other"},{"name":"인터내셔널모스토피아","tel":"031-875-8757","addr":"경기도 의정부시 장암동 산13-5번지","indutype":"건축자재 - 인테리어전문","category":"other"},{"name":"중앙화원","tel":"031-846-1577","addr":"경기도 의정부시 장암동 산13-5번지","indutype":"문화.취미 - 화원","category":"other"}]},{"lat":"37.694880448","long":"127.05551446","imageIndex":17,"items":[{"name":"나들목화분","tel":"031-829-2121","addr":"경기도 의정부시 장암동 350-4,9,32","indutype":"문화.취미 - 화원","category":"other"}]},{"lat":"37.721961066","long":"127.06037684","imageIndex":17,"items":[{"name":"나라플라워","tel":"031-826-0038","addr":"경기도 의정부시 장암동 산15-11번지","indutype":"문화.취미 - 화원","category":"other"},{"name":"루시","tel":"070-4799-2800","addr":"경기도 의정부시 장암동 산15-11번지 1층","indutype":"신변잡화 - 기타잡화","category":"other"},{"name":"루시플라워","tel":"","addr":"경기도 의정부시 장암동 산15-11번지","indutype":"문화.취미 - 화원","category":"other"},{"name":"산야초","tel":"031-876-5952","addr":"경기도 의정부시 장암동 산15-11번지","indutype":"문화.취미 - 화원","category":"other"},{"name":"의정부화원","tel":"031-829-5667","addr":"경기도 의정부시 장암동 산15-11번지","indutype":"문화.취미 - 화원","category":"other"},{"name":"작은숲","tel":"031-837-8376","addr":"경기도 의정부시 장암동 산15-11번지 세송이플라워","indutype":"문화.취미 - 화원","category":"other"}]},{"lat":"37.706961581","long":"127.05721269","imageIndex":17,"items":[{"name":"농협또래오래 강북지사","tel":"02-3493-5999","addr":"경기도 의정부시 장암동 99-12번지","indutype":"용역 서비스 - 종합용역","category":"other"}]},{"lat":"37.690808625","long":"127.05430978","imageIndex":17,"items":[{"name":"다성유통","tel":"031-3392-3662","addr":"경기도 의정부시 장암동 412번지 수락리버시티2단지 204동 704호","indutype":"회원제형태 - 기타4","category":"other"}]},{"lat":"37.702546729","long":"127.05751563","imageIndex":17,"items":[{"name":"다스 다육갤러리","tel":"","addr":"경기도 의정부시 장암동 198번지","indutype":"문화.취미 - 화원","category":"other"}]},{"lat":"37.703628087","long":"127.05707418","imageIndex":17,"items":[{"name":"대명","tel":"","addr":"경기도 의정부시 장암동 126번지","indutype":"용역 서비스 - 종합용역","category":"other"}]},{"lat":"37.723351036","long":"127.05501283","imageIndex":17,"items":[{"name":"대우세탁소","tel":"031-878-9476","addr":"경기도 의정부시 장암동 37 대우프르지오상가 103호","indutype":"수리서비스 - 세탁소","category":"other"},{"name":"씨유장암대우점","tel":"080-080-3663","addr":"경기도 의정부시 장암동 37번지 장암1차푸르지오 상가동 105, 106호","indutype":"유통업 영리 - 편 의 점","category":"other"}]},{"lat":"37.726294615","long":"127.06050496","imageIndex":17,"items":[{"name":"더겐스포츠","tel":"031-572-4242","addr":"경기도 의정부시 장암동 17-32번지 장암주공7단지 707동 1102호","indutype":"레져용품 - 스포츠·레져용품","category":"other"}]},{"lat":"37.68974601","long":"127.05309593","imageIndex":17,"items":[{"name":"더오름교육","tel":"070-8941-4347","addr":"경기도 의정부시 장암동 413번지 수락리버시티1단지 상가 205호","indutype":"서적문구 - 일반서적","category":"other"}]},{"lat":"37.701493511","long":"127.05551913","imageIndex":17,"items":[{"name":"동심원잔디","tel":"031-876-0707","addr":"경기도 의정부시 장암동 180-1","indutype":"문화.취미 - 화원","category":"other"}]},{"lat":"37.725045349","long":"127.0538457","imageIndex":17,"items":[{"name":"동아수영장","tel":"031-836-4844","addr":"경기도 의정부시 장암동 20","indutype":"회원제형태 - 레져업소","category":"other"},{"name":"미스킨앤바디","tel":"031-671-2489","addr":"경기도 의정부시 장암동 20번지 장암동아아파트 상가동 201호","indutype":"회원제형태 - 기타4","category":"other"}]},{"lat":"37.707771736","long":"127.05873288","imageIndex":17,"items":[{"name":"두리목재","tel":"031-876-4400","addr":"경기도 의정부시 장암동 97-66번지","indutype":"건축자재 - 목재·석재·철물","category":"other"}]},{"lat":"37.696711279","long":"127.05112771","imageIndex":17,"items":[{"name":"두성가설재 주식회사","tel":"031-876-7749","addr":"경기도 의정부시 장암동 273-3번지","indutype":"건축자재 - 기타건축자재","category":"other"}]},{"lat":"37.701187541","long":"127.05471383","imageIndex":17,"items":[{"name":"들길따라서","tel":"031-875-2990","addr":"경기도 의정부시 장암동 177-1번지","indutype":"문화.취미 - 화원","category":"other"}]},{"lat":"37.689934818","long":"127.0540144","imageIndex":17,"items":[{"name":"롤뜨개&편집샵","tel":"02-952-3013","addr":"경기도 의정부시 장암동 412번지 수락리버시티2단지 상가 101호","indutype":"직물 - 침구·수예점","category":"other"},{"name":"예원시티공인중개사사무소","tel":"02-934-8924","addr":"경기도 의정부시 장암동 412수락리버시티2단지상가동102호","indutype":"용역 서비스 - 부동산 중개·임대","category":"other"}]},{"lat":"37.707321421","long":"127.05838099","imageIndex":17,"items":[{"name":"모네의정원","tel":"031-877-8930","addr":"경기도 의정부시 장암동 97-39번지","indutype":"문화.취미 - 화원","category":"other"}]},{"lat":"37.707546614","long":"127.05848322","imageIndex":17,"items":[{"name":"무아피씽","tel":"031-866-7777","addr":"경기도 의정부시 장암동 97-65번지","indutype":"레져용품 - 스포츠·레져용품","category":"other"},{"name":"진달래화원","tel":"031-873-1419","addr":"경기도 의정부시 장암동 97-65번지 외1필지","indutype":"문화.취미 - 화원","category":"other"}]},{"lat":"37.726270361","long":"127.05451578","imageIndex":17,"items":[{"name":"미니스톱의정부장암점","tel":"031-1577-9621","addr":"경기도 의정부시 장암동 20-9번지 골드프라자 지층 101호","indutype":"유통업 영리 - 편 의 점","category":"other"},{"name":"서비스119닷컴","tel":"031-871-2077","addr":"경기도 의정부시 장암동 20-9번지 골드프라자 110호","indutype":"사무통신 - 컴퓨터","category":"other"},{"name":"의정부사랑마루","tel":"031-826-1141","addr":"경기도 의정부시 장암동 20-9번지 골드프라자 4층","indutype":"기타의료기관 - 기타의료기관 및 기타","category":"other"},{"name":"인테리어 홈펀","tel":"031-840-8232","addr":"경기도 의정부시 장암동 20-9번지 장암골드프라자 1층 101호","indutype":"건축자재 - 인테리어전문","category":"other"}]},{"lat":"37.723658122","long":"127.05326627","imageIndex":17,"items":[{"name":"미플(스킨살롱)","tel":"031-826-2528","addr":"경기도 의정부시 장암동 38-10번지 롯데마트장암점","indutype":"회원제형태 - 기타4","category":"other"},{"name":"전국열쇠 롯데마트 장암점","tel":"031-872-1304","addr":"경기도 의정부시 장암동 38-10번지 2층 열쇠도장코너 롯데마트장암점","indutype":"건축자재 - 목재·석재·철물","category":"other"},{"name":"크린토피아","tel":"031-871-8977","addr":"경기도 의정부시 장암동 38-10번지","indutype":"수리서비스 - 세탁소","category":"other"}]},{"lat":"37.726014485","long":"127.06218352","imageIndex":17,"items":[{"name":"바다전기조명","tel":"02-975-6676","addr":"경기도 의정부시 장암동 17-32번지 장암주공7단지 702동 1704호","indutype":"회원제형태 - 기타2","category":"other"}]},{"lat":"37.707077888","long":"127.05895916","imageIndex":17,"items":[{"name":"베일리수","tel":"","addr":"경기도 의정부시 장암동 99-19번지","indutype":"광학제품 - 사진관","category":"other"}]},{"lat":"37.691934147","long":"127.05585251","imageIndex":17,"items":[{"name":"블룸(BLOOM)","tel":"031-851-8700","addr":"경기도 의정부시 장암동 380-42번지 2층","indutype":"신변잡화 - 기타잡화","category":"other"}]},{"lat":"37.70076618","long":"127.04971294","imageIndex":17,"items":[{"name":"산들야생화","tel":"031-876-7967","addr":"경기도 의정부시 장암동 299-1번지","indutype":"문화.취미 - 화원","category":"other"}]},{"lat":"37.724792272","long":"127.05568307","imageIndex":17,"items":[{"name":"산텔레콤","tel":"","addr":"경기도 의정부시 장암동 24-1번지 장암빌딩 1층","indutype":"사무통신 - 통신기기","category":"other"},{"name":"아동복쇼핑목무야무야","tel":"070-7814-8544","addr":"경기도 의정부시 장암동 24-1번지 지층","indutype":"의류 - 아동의류","category":"other"}]},{"lat":"37.695799702","long":"127.05490283","imageIndex":17,"items":[{"name":"상일가구","tel":"031-826-2808","addr":"경기도 의정부시 장암동 221-6번지","indutype":"가구 - 일반가구","category":"other"}]},{"lat":"37.696908297","long":"127.0539625","imageIndex":17,"items":[{"name":"샘소나이트장암점","tel":"031-852-0204","addr":"경기도 의정부시 장암동 348-10번지 1층","indutype":"레져용품 - 스포츠·레져용품","category":"other"}]},{"lat":"37.702376545","long":"127.05531565","imageIndex":17,"items":[{"name":"선희꽃화원","tel":"031-829-4055","addr":"경기도 의정부시 장암동 181-4번지 1층","indutype":"문화.취미 - 화원","category":"other"},{"name":"우리도재","tel":"02-974-8311","addr":"경기도 의정부시 장암동 181-4번지","indutype":"기타 - 기타 전문점","category":"other"},{"name":"플로라","tel":"031-871-7807","addr":"경기도 의정부시 장암동 181-4번지 2호집","indutype":"문화.취미 - 화원","category":"other"},{"name":"향원이네다육","tel":"","addr":"경기도 의정부시 장암동 181-4번지","indutype":"문화.취미 - 화원","category":"other"}]},{"lat":"37.722348572","long":"127.06018432","imageIndex":17,"items":[{"name":"세송이","tel":"031-872-7226","addr":"경기도 의정부시 장암동 산13-1","indutype":"문화.취미 - 화원","category":"other"},{"name":"예란꽃방","tel":"031-837-0155","addr":"경기도 의정부시 장암동 산13-1","indutype":"문화.취미 - 화원","category":"other"}]},{"lat":"37.699213551","long":"127.05668544","imageIndex":17,"items":[{"name":"송산편의점","tel":"031-877-4902","addr":"경기도 의정부시 장암동 209-17번지","indutype":"유통업 영리 - 편 의 점","category":"other"}]},{"lat":"37.698547517","long":"127.05517688","imageIndex":17,"items":[{"name":"신대동공사","tel":"031-829-2277","addr":"경기도 의정부시 장암동 212-24,219-3","indutype":"기타 - 기타 전문점","category":"other"}]},{"lat":"37.7237928","long":"127.05434392","imageIndex":17,"items":[{"name":"신한종합기획","tel":"02-908-1985","addr":"경기도 의정부시 장암동 37번지 의정부장암1차푸르지오 101동 905호","indutype":"용역 서비스 - 종합용역","category":"other"}]},{"lat":"37.699800293","long":"127.05417993","imageIndex":17,"items":[{"name":"씨유의정부장암역점","tel":"031-878-6392","addr":"경기도 의정부시 장암동 160-2번지","indutype":"유통업 영리 - 편 의 점","category":"other"}]},{"lat":"37.724014233","long":"127.06243147","imageIndex":17,"items":[{"name":"씨크릿가든","tel":"031-837-2007","addr":"경기도 의정부시 장암동 14-114번지","indutype":"문화.취미 - 화원","category":"other"}]},{"lat":"37.704493088","long":"127.05690471","imageIndex":17,"items":[{"name":"아이들세상","tel":"031-851-7790","addr":"경기도 의정부시 장암동 130-5번지 지층,1층","indutype":"서적문구 - 완구점","category":"other"}]},{"lat":"37.698574811","long":"127.05457594","imageIndex":17,"items":[{"name":"에스티코 의정부아이씨지점","tel":"031-879-6315","addr":"경기도 의정부시 장암동 214-12번지","indutype":"의류 - 스포츠의류","category":"other"}]},{"lat":"37.725206849","long":"127.05537711","imageIndex":17,"items":[{"name":"연인테리어","tel":"031-874-3040","addr":"경기도 의정부시 장암동 19-1번지","indutype":"직물 - 카페트,커튼,천막,지물","category":"other"},{"name":"장암보수","tel":"031-876-7774","addr":"경기도 의정부시 장암동 19-1번지","indutype":"전기제품 - 가전제품","category":"other"}]},{"lat":"37.698574222","long":"127.05590259","imageIndex":17,"items":[{"name":"우정상사","tel":"031-829-7840","addr":"경기도 의정부시 장암동 213번지","indutype":"별도관리 - 자체물품대금","category":"other"},{"name":"원앤컴퍼니","tel":"070-4680-3377","addr":"경기도 의정부시 장암동 213번지 1층","indutype":"레져용품 - 스포츠·레져용품","category":"other"}]},{"lat":"37.707375871","long":"127.05754185","imageIndex":17,"items":[{"name":"웰쿡프라임","tel":"","addr":"경기도 의정부시 장암동 90-11번지 1층","indutype":"주방용구 - 주방용구","category":"other"}]},{"lat":"37.724657052","long":"127.05585312","imageIndex":17,"items":[{"name":"유솔","tel":"031-875-6893","addr":"경기도 의정부시 장암동 31-3번지 외1필지","indutype":"신변잡화 - 기타잡화","category":"other"}]},{"lat":"37.724710976","long":"127.05614807","imageIndex":17,"items":[{"name":"은지애견","tel":"031-837-8979","addr":"경기도 의정부시 장암동 26-13번지","indutype":"문화.취미 - 애완동물","category":"other"}]},{"lat":"37.701015454","long":"127.0567321","imageIndex":17,"items":[{"name":"이포트","tel":"031-875-6235","addr":"경기도 의정부시 장암동 193-6","indutype":"문화.취미 - 민예·공예품","category":"other"}]},{"lat":"37.707439001","long":"127.05740582","imageIndex":17,"items":[{"name":"인피니티(INFINITI)","tel":"031-855-2228","addr":"경기도 의정부시 장암동 90-14","indutype":"건축자재 - 기타건축자재","category":"other"}]},{"lat":"37.700043139","long":"127.05512124","imageIndex":17,"items":[{"name":"일이삼사","tel":"070-4110-3261","addr":"경기도 의정부시 장암동 162-4번지","indutype":"유통업 영리 - 기타유통업","category":"other"}]},{"lat":"37.69477218","long":"127.05585453","imageIndex":17,"items":[{"name":"작은숲","tel":"070-4239-1633","addr":"경기도 의정부시 장암동 산186-6번지","indutype":"문화.취미 - 화원","category":"other"},{"name":"하눌타리","tel":"031-875-2081","addr":"경기도 의정부시 장암동 산186-6번지","indutype":"문화.취미 - 화원","category":"other"}]},{"lat":"37.726297533","long":"127.05418685","imageIndex":17,"items":[{"name":"장암동주민자치위원회","tel":"031-828-4155","addr":"경기도 의정부시 장암동 20-10 시세과","indutype":"문화.취미 - 문화취미기타","category":"other"}]},{"lat":"37.713351928","long":"127.05139934","imageIndex":17,"items":[{"name":"장암매점","tel":"031-872-7190","addr":"경기도 의정부시 장암동 78-2번지 스포츠센터 2층","indutype":"유통업 영리 - 편 의 점","category":"other"}]},{"lat":"37.724737071","long":"127.05817847","imageIndex":17,"items":[{"name":"장암종합사회복지관","tel":"031-874-8081","addr":"경기도 의정부시 장암동 5","indutype":"문화.취미 - 문화취미기타","category":"other"},{"name":"조은인테리어","tel":"031-878-0040","addr":"경기도 의정부시 장암동 5번지 장암1단지주공.장암2단지주공아파트 105호","indutype":"건축자재 - 인테리어전문","category":"other"}]},{"lat":"37.699213844","long":"127.05603912","imageIndex":17,"items":[{"name":"주식회사 파인에이디에스","tel":"031-878-9003","addr":"경기도 의정부시 장암동 209-1번지","indutype":"기타 - 기계공구","category":"other"}]},{"lat":"37.698962205","long":"127.05462157","imageIndex":17,"items":[{"name":"주식회사 폴제페토 경기북부지점","tel":"031-826-0023","addr":"경기도 의정부시 장암동 214-13번지","indutype":"레져용품 - 악기점","category":"other"}]},{"lat":"37.705573975","long":"127.05748383","imageIndex":17,"items":[{"name":"주식회사제일산업개발","tel":"031-837-8677","addr":"경기도 의정부시 장암동 117-1","indutype":"레져용품 - 스포츠·레져용품","category":"other"}]},{"lat":"37.725378032","long":"127.05537723","imageIndex":17,"items":[{"name":"코스모스 토탈 인테리어","tel":"031-873-0482","addr":"경기도 의정부시 장암동 18-5번지 지층","indutype":"건축자재 - 인테리어전문","category":"other"},{"name":"한일밧데리","tel":"031-875-0951","addr":"경기도 의정부시 장암동 18-5번지","indutype":"건축자재 - 조명기구","category":"other"}]},{"lat":"37.724851986","long":"127.06270437","imageIndex":17,"items":[{"name":"콘소프트 (CORNSOFT)","tel":"070-8899-2392","addr":"경기도 의정부시 장암동 14-126번지 삼환나우빌 102동 1101호","indutype":"용역 서비스 - 소프트웨어","category":"other"}]},{"lat":"37.725377834","long":"127.0558196","imageIndex":17,"items":[{"name":"크린토피아","tel":"031-836-2846","addr":"경기도 의정부시 장암동 17-15번지 대현빌딩 108호","indutype":"수리서비스 - 세탁소","category":"other"}]},{"lat":"37.696773128","long":"127.0540191","imageIndex":17,"items":[{"name":"탑골프","tel":"031-877-1819","addr":"경기도 의정부시 장암동 348-11번지 1층","indutype":"레져용품 - 골프용품 전문점","category":"other"}]},{"lat":"37.724044093","long":"127.05653325","imageIndex":17,"items":[{"name":"플랜트아트센터","tel":"","addr":"경기도 의정부시 장암동 37-4번지 의정부장암2차푸르지오 202동 801호","indutype":"문화.취미 - 민예·공예품","category":"other"}]},{"lat":"37.702295169","long":"127.05596194","imageIndex":17,"items":[{"name":"해동난농원","tel":"031-829-7660","addr":"경기도 의정부시 장암동 181-6번지","indutype":"문화.취미 - 화원","category":"other"}]},{"lat":"37.696241113","long":"127.0550392","imageIndex":17,"items":[{"name":"화성냉동","tel":"031-826-7801","addr":"경기도 의정부시 장암동 221-5번지","indutype":"전기제품 - 냉열기기","category":"other"}]},{"lat":"37.724873046","long":"127.05637505","imageIndex":17,"items":[{"name":"화이트 옷 수선집","tel":"031-1111-1111","addr":"경기도 의정부시 장암동 26-11번지","indutype":"수리서비스 - 세탁소","category":"other"}]}]