[{"lat":"37.005466816","long":"127.2781761","imageIndex":17,"items":[{"name":"(주)성보엔지니어링","tel":"031-677-0336","addr":"경기도 안성시 봉산동 68-1번지","indutype":"용역 서비스 - 사무서비스","category":"other"},{"name":"크리에이커뮤니케이션(CREA Communication)","tel":"070-7719-5743","addr":"경기도 안성시 봉산동 68-1번지 1층","indutype":"용역 서비스 - 종합용역","category":"other"}]},{"lat":"37.005994887","long":"127.27970599","imageIndex":17,"items":[{"name":"(주)안성건축사사무소","tel":"031-675-4513","addr":"경기도 안성시 봉산동 18-4번지","indutype":"용역 서비스 - 법률회계서비스(법인)","category":"other"},{"name":"법무사김세웅사무소","tel":"031-378-4955","addr":"경기도 안성시 봉산동 18-4번지 2층","indutype":"용역 서비스 - 법률회계서비스(개인)","category":"other"},{"name":"좋은환경건설(주)","tel":"031-674-0666","addr":"경기도 안성시 봉산동 18-4번지","indutype":"용역 서비스 - 기타용역서비스","category":"other"}]},{"lat":"37.004826726","long":"127.27831985","imageIndex":17,"items":[{"name":"(주)에덴광고건설","tel":"031-675-0010","addr":"경기도 안성시 봉산동 73-3번지","indutype":"건축자재 - 인테리어전문","category":"other"},{"name":"극단내혜홀","tel":"031-675-5969","addr":"경기도 안성시 봉산동 73-3번지","indutype":"문화.취미 - 티켓","category":"other"}]},{"lat":"37.00641131","long":"127.27887609","imageIndex":17,"items":[{"name":"(주)엠에이엔지니어링","tel":"031-675-1244","addr":"경기도 안성시 봉산동 20-6 20-7","indutype":"용역 서비스 - 종합용역","category":"other"}]},{"lat":"37.005689888","long":"127.27912066","imageIndex":17,"items":[{"name":"(주)이봉우건축사사무소","tel":"031-675-9700","addr":"경기도 안성시 봉산동 54-2번지","indutype":"용역 서비스 - 법률회계서비스(개인)","category":"other"},{"name":"법무사송찬규사무소","tel":"031-671-3000","addr":"경기도 안성시 봉산동 54-2번지","indutype":"용역 서비스 - 법률회계서비스(개인)","category":"other"},{"name":"봉산화훼유통센타","tel":"031-676-3147","addr":"경기도 안성시 봉산동 54-2번지","indutype":"문화.취미 - 화원","category":"other"},{"name":"정형규세무회계사무소","tel":"031-673-0007","addr":"경기도 안성시 봉산동 54-2번지","indutype":"용역 서비스 - 법률회계서비스(개인)","category":"other"},{"name":"제이제이이엔티(JJEnt)","tel":"031-671-5929","addr":"경기도 안성시 봉산동 54-2번지 외1필지","indutype":"여행 - 관광여행","category":"other"}]},{"lat":"37.005465199","long":"127.27887267","imageIndex":17,"items":[{"name":"(주)태광종합건축사사무소","tel":"031-673-7733","addr":"경기도 안성시 봉산동 66-1번지","indutype":"용역 서비스 - 법률회계서비스(법인)","category":"other"},{"name":"대성측량설계공사(주)","tel":"031-675-0401","addr":"경기도 안성시 봉산동 66-1번지","indutype":"용역 서비스 - 사무서비스","category":"other"}]},{"lat":"37.005776481","long":"127.28062648","imageIndex":17,"items":[{"name":"(합자)고려측량설계공사","tel":"031-674-1566","addr":"경기도 안성시 봉산동 5-2번지","indutype":"용역 서비스 - 사무서비스","category":"other"}]},{"lat":"37.005302486","long":"127.27909679","imageIndex":17,"items":[{"name":"GS25안성봉산메가점","tel":"031-5660-0190","addr":"경기도 안성시 봉산동 69번지","indutype":"유통업 영리 - 편 의 점","category":"other"}]},{"lat":"37.00491249","long":"127.28018517","imageIndex":17,"items":[{"name":"강남오인설비","tel":"031-673-4555","addr":"경기도 안성시 봉산동 11-1번지","indutype":"수리서비스 - 기타수리서비스","category":"other"}]},{"lat":"37.004078638","long":"127.27840703","imageIndex":17,"items":[{"name":"강변애견미용호텔","tel":"031-672-0761","addr":"경기도 안성시 봉산동 417-2번지","indutype":"문화.취미 - 애완동물","category":"other"}]},{"lat":"37.005242515","long":"127.2777596","imageIndex":17,"items":[{"name":"건축사사무소 우리","tel":"031-677-9526","addr":"경기도 안성시 봉산동 82-5번지","indutype":"용역 서비스 - 사무서비스","category":"other"}]},{"lat":"37.005861482","long":"127.27895275","imageIndex":17,"items":[{"name":"건축사사무소은성","tel":"031-676-8806","addr":"경기도 안성시 봉산동 54-6번지","indutype":"용역 서비스 - 사무서비스","category":"other"}]},{"lat":"37.005723258","long":"127.28026676","imageIndex":17,"items":[{"name":"고려사","tel":"031-674-7741","addr":"경기도 안성시 봉산동 7-3번지","indutype":"서적문구 - 출판 및 인쇄물","category":"other"}]},{"lat":"37.005138987","long":"127.27965795","imageIndex":17,"items":[{"name":"곰낚시점","tel":"031-675-3939","addr":"경기도 안성시 봉산동 60-4번지","indutype":"레져용품 - 스포츠·레져용품","category":"other"}]},{"lat":"37.005805403","long":"127.27981765","imageIndex":17,"items":[{"name":"광교세무법인경기남부","tel":"031-674-4701","addr":"경기도 안성시 봉산동 17번지광교세무법인","indutype":"용역 서비스 - 법률회계서비스(법인)","category":"other"}]},{"lat":"37.005611116","long":"127.27812045","imageIndex":17,"items":[{"name":"금성도매문구","tel":"031-675-2066","addr":"경기도 안성시 봉산동 67번지","indutype":"서적문구 - 문구용품","category":"other"},{"name":"동아건축사사무소","tel":"031-675-2639","addr":"경기도 안성시 봉산동 67번지","indutype":"용역 서비스 - 사무서비스","category":"other"},{"name":"법무사조광률사무소","tel":"031-677-9200","addr":"경기도 안성시 봉산동 67(중앙로길464)","indutype":"용역 서비스 - 법률회계서비스(개인)","category":"other"},{"name":"안성맞춤방짜유기","tel":"031-677-3276","addr":"경기도 안성시 봉산동 67번지","indutype":"용역 서비스 - 종합용역","category":"other"},{"name":"한빛컴퓨터","tel":"031-677-9110","addr":"경기도 안성시 봉산동 67번지","indutype":"사무통신 - 컴퓨터","category":"other"}]},{"lat":"37.006106359","long":"127.27826829","imageIndex":17,"items":[{"name":"금호전기","tel":"031-674-1414","addr":"경기도 안성시 봉산동 45-1번지","indutype":"건축자재 - 조명기구","category":"other"},{"name":"태림건축사무소","tel":"031-674-1722","addr":"경기도 안성시 봉산동 45-1번지","indutype":"용역 서비스 - 사무서비스","category":"other"}]},{"lat":"37.005165573","long":"127.27984904","imageIndex":17,"items":[{"name":"대신측량설계공사","tel":"031-674-4181","addr":"경기도 안성시 봉산동 59-1번지","indutype":"용역 서비스 - 사무서비스","category":"other"},{"name":"법무사박종식사무소","tel":"031-674-6501","addr":"경기도 안성시 봉산동 59-1번지","indutype":"용역 서비스 - 법률회계서비스(개인)","category":"other"},{"name":"성우건축사사무소","tel":"031-671-1001","addr":"경기도 안성시 봉산동 59-1번지 3층","indutype":"건축자재 - 인테리어전문","category":"other"},{"name":"전용근세무회계사무소","tel":"031-674-1590","addr":"경기도 안성시 봉산동 59-1번지","indutype":"용역 서비스 - 법률회계서비스(개인)","category":"other"}]},{"lat":"37.004611956","long":"127.27767868","imageIndex":17,"items":[{"name":"대한전기조명","tel":"031-675-9535","addr":"경기도 안성시 봉산동 390-6번지","indutype":"건축자재 - 조명기구","category":"other"}]},{"lat":"37.006437767","long":"127.27912336","imageIndex":17,"items":[{"name":"대한지적공사안성시지사","tel":"031-675-1361","addr":"경기도 안성시 봉산동 20-4번지","indutype":"기타 - 비영리/대상","category":"other"},{"name":"안성시대한지적공사","tel":"031-675-1361","addr":"경기도 안성시 봉산동 20-4, 혜산로129","indutype":"유통업 영리 - 인터넷 Mall","category":"other"}]},{"lat":"37.005749896","long":"127.28043539","imageIndex":17,"items":[{"name":"도쿠아띠(DOKUATTI)","tel":"031-8057-0008","addr":"경기도 안성시 봉산동 7-1번지","indutype":"신변잡화 - 기타잡화","category":"other"}]},{"lat":"37.00471912","long":"127.27809476","imageIndex":17,"items":[{"name":"디온종합인테리어","tel":"031-671-3804","addr":"경기도 안성시 봉산동 74-2번지","indutype":"직물 - 카페트,커튼,천막,지물","category":"other"}]},{"lat":"37.005853933","long":"127.27832356","imageIndex":17,"items":[{"name":"명지공인중개사사무소","tel":"031-674-7500","addr":"경기도 안성시 봉산동 55-4번지 1층","indutype":"용역 서비스 - 부동산 중개·임대","category":"other"}]},{"lat":"37.005744449","long":"127.27890739","imageIndex":17,"items":[{"name":"무지개광고기획","tel":"031-674-7770","addr":"경기도 안성시 봉산동 54-7번지 1층","indutype":"유통업 영리 - 기타유통업","category":"other"},{"name":"세무법인석성경기남부지점","tel":"031-671-8840","addr":"경기도 안성시 봉산동 54-7번지 2층","indutype":"용역 서비스 - 법률회계서비스(법인)","category":"other"}]},{"lat":"37.004576304","long":"127.27751003","imageIndex":17,"items":[{"name":"미래광고","tel":"031-675-2844","addr":"경기도 안성시 봉산동 390-5번지","indutype":"용역 서비스 - 종합용역","category":"other"}]},{"lat":"37.006748504","long":"127.27723696","imageIndex":17,"items":[{"name":"백주하 이벤트","tel":"031-656-4338","addr":"경기도 안성시 봉산동 26-4번지","indutype":"용역 서비스 - 사무서비스","category":"other"},{"name":"현대음향","tel":"031-676-0646","addr":"경기도 안성시 봉산동 26-4번지","indutype":"전기제품 - 가전제품","category":"other"}]},{"lat":"37.004359009","long":"127.27795865","imageIndex":17,"items":[{"name":"번영철물","tel":"031-674-9899","addr":"경기도 안성시 봉산동 390-4번지","indutype":"건축자재 - 기타건축자재","category":"other"}]},{"lat":"37.005556583","long":"127.27832248","imageIndex":17,"items":[{"name":"법무사김종섭사무소","tel":"031-672-8961","addr":"경기도 안성시 봉산동 67-4번지","indutype":"용역 서비스 - 법률회계서비스(개인)","category":"other"}]},{"lat":"37.006135785","long":"127.27723476","imageIndex":17,"items":[{"name":"법무사이태우사무소","tel":"031-677-9411","addr":"경기도 안성시 봉산동 50-1번지","indutype":"용역 서비스 - 법률회계서비스(개인)","category":"other"}]},{"lat":"37.00552028","long":"127.2784347","imageIndex":17,"items":[{"name":"봉산열쇠","tel":"031-676-1385","addr":"경기도 안성시 봉산동 67-5번지","indutype":"건축자재 - 목재·석재·철물","category":"other"},{"name":"세모기획","tel":"031-674-7248","addr":"경기도 안성시 봉산동 67-5번지","indutype":"기타 - 기계공구","category":"other"}]},{"lat":"37.005133294","long":"127.27823108","imageIndex":17,"items":[{"name":"불자봉사단","tel":"031-676-4022","addr":"경기도 안성시 봉산동 75-5번지","indutype":"기타 - 기타 전문점","category":"other"}]},{"lat":"37.006412667","long":"127.27829187","imageIndex":17,"items":[{"name":"삼원건축사사무소","tel":"031-676-1730","addr":"경기도 안성시 봉산동 24-5번지","indutype":"용역 서비스 - 사무서비스","category":"other"},{"name":"안평엔지니어링","tel":"031-676-2071","addr":"경기도 안성시 봉산동 24-5번지","indutype":"용역 서비스 - 사무서비스","category":"other"}]},{"lat":"37.006220152","long":"127.27970681","imageIndex":17,"items":[{"name":"삼일측량설계공사","tel":"031-671-1791","addr":"경기도 안성시 봉산동 19-3번지","indutype":"용역 서비스 - 사무서비스","category":"other"},{"name":"안성시산림조합","tel":"031-675-2120","addr":"경기도 안성시 봉산동 19-3번지","indutype":"기타 - 비영리/대상","category":"other"}]},{"lat":"37.004970243","long":"127.27860124","imageIndex":17,"items":[{"name":"새아름건축사사무소","tel":"031-672-0991","addr":"경기도 안성시 봉산동 71-3번지 1층","indutype":"용역 서비스 - 사무서비스","category":"other"},{"name":"아름건축사사무소","tel":"031-675-0992","addr":"경기도 안성시 봉산동 71-3번지","indutype":"용역 서비스 - 사무서비스","category":"other"},{"name":"아름측량설계공사","tel":"031-675-0992","addr":"경기도 안성시 봉산동 71-3번지","indutype":"용역 서비스 - 기타용역서비스","category":"other"}]},{"lat":"37.006438211","long":"127.27893237","imageIndex":17,"items":[{"name":"서림종합측량토목설계공사","tel":"031-674-0301","addr":"경기도 안성시 봉산동 20-5번지","indutype":"용역 서비스 - 사무서비스","category":"other"},{"name":"이상건축사사무소","tel":"031-676-4633","addr":"경기도 안성시 봉산동 20-5번지","indutype":"용역 서비스 - 사무서비스","category":"other"}]},{"lat":"37.005194672","long":"127.27896158","imageIndex":17,"items":[{"name":"서스기획사","tel":"031-673-8188","addr":"경기도 안성시 봉산동 70-2번지","indutype":"용역 서비스 - 종합용역","category":"other"}]},{"lat":"37.004744404","long":"127.2788476","imageIndex":17,"items":[{"name":"성지측량설계공사","tel":"031-674-3020","addr":"경기도 안성시 봉산동 63-2번지 1층 1칸","indutype":"용역 서비스 - 사무서비스","category":"other"}]},{"lat":"37.004162128","long":"127.27737372","imageIndex":17,"items":[{"name":"세명공구전기","tel":"031-675-4109","addr":"경기도 안성시 봉산동 395-6번지","indutype":"기타 - 기계공구","category":"other"}]},{"lat":"37.005190944","long":"127.27668085","imageIndex":17,"items":[{"name":"세븐일레븐안성봉산중앙점","tel":"031-1577-0711","addr":"경기도 안성시 봉산동 386-2번지","indutype":"유통업 영리 - 편 의 점","category":"other"}]},{"lat":"37.004412108","long":"127.27837453","imageIndex":17,"items":[{"name":"센트럴렌트카주식회사","tel":"041-532-7500","addr":"경기도 안성시 봉산동 65-7번지","indutype":"여행 - 렌터카","category":"other"}]},{"lat":"37.005829834","long":"127.28093002","imageIndex":17,"items":[{"name":"시간과공간","tel":"031-1577-5041","addr":"경기도 안성시 봉산동 5-5번지","indutype":"건축자재 - 인테리어전문","category":"other"}]},{"lat":"37.005665934","long":"127.27779483","imageIndex":17,"items":[{"name":"씨유안성봉산점","tel":"031-898-6569","addr":"경기도 안성시 봉산동 76-1번지 1층","indutype":"유통업 영리 - 편 의 점","category":"other"},{"name":"한우세무회계","tel":"031-674-4160","addr":"경기도 안성시 봉산동 76-1번지 2층","indutype":"용역 서비스 - 법률회계서비스(개인)","category":"other"}]},{"lat":"37.005469624","long":"127.27696272","imageIndex":17,"items":[{"name":"아름다운인테리어건설","tel":"031-673-1059","addr":"경기도 안성시 봉산동 79-4번지","indutype":"건축자재 - 페인트","category":"other"}]},{"lat":"37.004860967","long":"127.27909519","imageIndex":17,"items":[{"name":"아세아세무법인안성지사","tel":"031-673-6630","addr":"경기도 안성시 봉산동 62-4번지","indutype":"용역 서비스 - 법률회계서비스(법인)","category":"other"}]},{"lat":"37.004304555","long":"127.27812697","imageIndex":17,"items":[{"name":"안성뉴스24","tel":"031-671-2828","addr":"경기도 안성시 봉산동 65-6번지","indutype":"서적문구 - 정기간행물","category":"other"}]},{"lat":"37.005633677","long":"127.28004173","imageIndex":17,"items":[{"name":"안성법률사무소","tel":"031-671-4543","addr":"경기도 안성시 봉산동 16번지 염광빌딩 7층 101호","indutype":"용역 서비스 - 법률회계서비스(개인)","category":"other"}]},{"lat":"37.007742364","long":"127.27995951","imageIndex":17,"items":[{"name":"안성시","tel":"031-678-2512","addr":"경기도 안성시 봉산동 31-3번지","indutype":"문화.취미 - 티켓","category":"other"},{"name":"안성시","tel":"031-678-2196","addr":"경기도 안성시 봉산동 31-3번지","indutype":"용역 서비스 - 조세서비스","category":"other"},{"name":"안성시/안성맞춤천문과학관(입장권)","tel":"031-678-2974","addr":"경기도 안성시 봉산동 31-3번지 안성시청","indutype":"문화.취미 - 티켓","category":"other"},{"name":"안성시상수사업소","tel":"031-678-3135","addr":"경기도 안성시 봉산동 31-3번지","indutype":"용역 서비스 - 공공요금대행서비스/소","category":"other"},{"name":"안성시수도사업소","tel":"031-678-2446","addr":"경기도 안성시 봉산동 31-3번지","indutype":"용역 서비스 - 조세서비스","category":"other"},{"name":"안성시지방세인터넷","tel":"031-678-6804","addr":"경기도 안성시 봉산동 31-3번지","indutype":"-","category":"other"},{"name":"안성시청","tel":"031-678-2353","addr":"경기도 안성시 봉산동 31-3번지 세무과 세외수입","indutype":"용역 서비스 - 사무서비스","category":"other"},{"name":"안성시청","tel":"031-678-2825","addr":"경기도 안성시 봉산동 31-3번지 교통정체과","indutype":"용역 서비스 - 사무서비스","category":"other"}]},{"lat":"37.008664034","long":"127.27885053","imageIndex":17,"items":[{"name":"안성시(공무원연금매점)","tel":"031-678-6804","addr":"경기도 안성시 봉산동 31-5번지","indutype":"유통업 비영리 - 공무원 연금 매점","category":"other"}]},{"lat":"37.006131067","long":"127.27926831","imageIndex":17,"items":[{"name":"안평 법무사법인","tel":"031-675-9799","addr":"경기도 안성시 봉산동 56-1번지","indutype":"용역 서비스 - 법률회계서비스(법인)","category":"other"}]},{"lat":"37.005749712","long":"127.28051403","imageIndex":17,"items":[{"name":"에이스앵글엔퍼니쳐","tel":"031-677-0580","addr":"경기도 안성시 봉산동 5-1번지","indutype":"건축자재 - 목재·석재·철물","category":"other"}]},{"lat":"37.005854193","long":"127.27821121","imageIndex":17,"items":[{"name":"오렌지광고기획","tel":"031-675-1599","addr":"경기도 안성시 봉산동 55-3번지","indutype":"회원제형태 - 기타4","category":"other"}]},{"lat":"37.006882572","long":"127.27770932","imageIndex":17,"items":[{"name":"우주전산문구","tel":"031-673-6806","addr":"경기도 안성시 봉산동 23-3번지","indutype":"서적문구 - 문구용품","category":"other"}]},{"lat":"37.00663728","long":"127.27857356","imageIndex":17,"items":[{"name":"유건축사사무소","tel":"031-672-7272","addr":"경기도 안성시 봉산동 21-2번지","indutype":"용역 서비스 - 법률회계서비스(개인)","category":"other"},{"name":"하나측량설계공사","tel":"031-671-2666","addr":"경기도 안성시 봉산동 21-2번지","indutype":"용역 서비스 - 사무서비스","category":"other"}]},{"lat":"37.005103546","long":"127.27939941","imageIndex":17,"items":[{"name":"이병호법무사","tel":"031-676-0550","addr":"경기도 안성시 봉산동 60-1번지","indutype":"용역 서비스 - 법률회계서비스(개인)","category":"other"}]},{"lat":"37.006548477","long":"127.27801147","imageIndex":17,"items":[{"name":"이시현법무사사무소","tel":"031-672-5555","addr":"경기도 안성시 봉산동 24번지 1층","indutype":"용역 서비스 - 법률회계서비스(개인)","category":"other"},{"name":"주식회사 안평","tel":"031-676-2071","addr":"경기도 안성시 봉산동 24번지 3층","indutype":"건축자재 - 인테리어전문","category":"other"},{"name":"주식회사 와이에스투어","tel":"031-674-8080","addr":"경기도 안성시 봉산동 24번지 2층","indutype":"여행 - 관광여행","category":"other"}]},{"lat":"37.005022765","long":"127.2792643","imageIndex":17,"items":[{"name":"종합건축사사무소가람","tel":"031-675-1500","addr":"경기도 안성시 봉산동 61번지","indutype":"용역 서비스 - 사무서비스","category":"other"},{"name":"태이상사","tel":"031-672-0586","addr":"경기도 안성시 봉산동 61번지","indutype":"건축자재 - 페인트","category":"other"}]},{"lat":"37.00474396","long":"127.27903859","imageIndex":17,"items":[{"name":"주식회사 제이알글로벌","tel":"031-673-1129","addr":"경기도 안성시 봉산동 63-1번지","indutype":"가구 - 일반가구","category":"other"}]},{"lat":"37.006410343","long":"127.27929179","imageIndex":17,"items":[{"name":"중부측량엔지니어링","tel":"031-674-8242","addr":"경기도 안성시 봉산동 20-1번지 1층","indutype":"용역 서비스 - 사무서비스","category":"other"}]},{"lat":"37.006328331","long":"127.27968473","imageIndex":17,"items":[{"name":"창조건축사사무소","tel":"031-671-4401","addr":"경기도 안성시 봉산동 19-2번지","indutype":"용역 서비스 - 사무서비스","category":"other"}]},{"lat":"37.005666325","long":"127.2776263","imageIndex":17,"items":[{"name":"한복대여점&웨딩","tel":"031-677-0626","addr":"경기도 안성시 봉산동 76번지","indutype":"의류 - 맞춤복점","category":"other"}]}]