[{"lat":"36.990864503","long":"127.33636626","imageIndex":4,"items":[{"name":"강건너빼리","tel":"031-671-0007","addr":"경기도 안성시 금광면 금광리 417번지","indutype":"일반휴게음식 - 일반한식","category":"restaurant"}]},{"lat":"36.988915722","long":"127.32750642","imageIndex":4,"items":[{"name":"갤러리필레스토랑인","tel":"031-673-1250","addr":"경기도 안성시 금광면 금광리 354번지","indutype":"일반휴게음식 - 서양음식","category":"restaurant"}]},{"lat":"37.001249174","long":"127.32164952","imageIndex":4,"items":[{"name":"국보966옛날두부","tel":"031-671-0966","addr":"경기도 안성시 금광면 금광리 93-19번지","indutype":"일반휴게음식 - 일반한식","category":"restaurant"}]},{"lat":"36.988857225","long":"127.32912368","imageIndex":4,"items":[{"name":"금광낚시식당","tel":"031-677-7588","addr":"경기도 안성시 금광면 금광리 344-5번지","indutype":"일반휴게음식 - 일반한식","category":"restaurant"},{"name":"금광낚시터가든","tel":"031-677-7588","addr":"경기도 안성시 금광면 금광리 344-5번지 1층","indutype":"일반휴게음식 - 일반한식","category":"restaurant"}]},{"lat":"36.998106929","long":"127.32072645","imageIndex":4,"items":[{"name":"김삿갓","tel":"031-674-8582","addr":"경기도 안성시 금광면 금광리 536-106번지","indutype":"일반휴게음식 - 중국식","category":"restaurant"},{"name":"나눔이행복한두루사랑","tel":"031-675-8253","addr":"경기도 안성시 금광면 금광리 536-106번지","indutype":"일반휴게음식 - 일반한식","category":"restaurant"}]},{"lat":"36.995915947","long":"127.32789565","imageIndex":4,"items":[{"name":"레이크빈스","tel":"031-671-1888","addr":"경기도 안성시 금광면 금광리 288-1번지 2층 전체","indutype":"일반휴게음식 - 일반한식","category":"restaurant"},{"name":"스푼포유 (SPOON4U)","tel":"031-000-0000","addr":"경기도 안성시 금광면 금광리 288-1번지 1층","indutype":"일반휴게음식 - 서양음식","category":"restaurant"}]},{"lat":"36.988026098","long":"127.32661528","imageIndex":4,"items":[{"name":"목화촌","tel":"031-674-5900","addr":"경기도 안성시 금광면 금광리 364번지","indutype":"일반휴게음식 - 일반한식","category":"restaurant"}]},{"lat":"36.999861397","long":"127.3216999","imageIndex":4,"items":[{"name":"뽀뚜루까아저씨PLUS","tel":"031-677-1030","addr":"경기도 안성시 금광면 금광리 96번지","indutype":"일반휴게음식 - 일반한식","category":"restaurant"}]},{"lat":"36.997444059","long":"127.32262222","imageIndex":4,"items":[{"name":"사나래곱창","tel":"031-676-2494","addr":"경기도 안성시 금광면 금광리 144번지 1층","indutype":"일반휴게음식 - 일반한식","category":"restaurant"}]},{"lat":"36.999358283","long":"127.32114732","imageIndex":4,"items":[{"name":"산책길","tel":"031-676-9957","addr":"경기도 안성시 금광면 금광리 63-2번지","indutype":"일반휴게음식 - 일반한식","category":"restaurant"},{"name":"해신 삼계탕","tel":"031-672-0574","addr":"경기도 안성시 금광면 금광리 63-2번지 1층","indutype":"일반휴게음식 - 일반한식","category":"restaurant"}]},{"lat":"36.992279231","long":"127.32986844","imageIndex":4,"items":[{"name":"석이네가든","tel":"031-675-5989","addr":"경기도 안성시 금광면 금광리 산45-2번지","indutype":"일반휴게음식 - 일반한식","category":"restaurant"}]},{"lat":"36.994555261","long":"127.32792356","imageIndex":4,"items":[{"name":"세렌디피티북카페","tel":"031-677-8874","addr":"경기도 안성시 금광면 금광리 297-7번지","indutype":"일반휴게음식 - 서양음식","category":"restaurant"}]},{"lat":"37.000357224","long":"127.32494869","imageIndex":4,"items":[{"name":"영빈반점","tel":"031-676-5589","addr":"경기도 안성시 금광면 금광리 110-2","indutype":"일반휴게음식 - 중국식","category":"restaurant"}]},{"lat":"36.999526497","long":"127.32226021","imageIndex":4,"items":[{"name":"오복정","tel":"031-677-3389","addr":"경기도 안성시 금광면 금광리 99-2번지","indutype":"일반휴게음식 - 일반한식","category":"restaurant"}]},{"lat":"36.996303463","long":"127.32787483","imageIndex":4,"items":[{"name":"향기","tel":"031-677-7179","addr":"경기도 안성시 금광면 금광리 산61-9번지","indutype":"일반휴게음식 - 일반한식","category":"restaurant"}]},{"lat":"36.996780284","long":"127.32814647","imageIndex":4,"items":[{"name":"향천","tel":"031-674-7377","addr":"경기도 안성시 금광면 금광리 288-3번지","indutype":"일반휴게음식 - 일반한식","category":"restaurant"},{"name":"향천","tel":"031-674-7377","addr":"경기도 안성시 금광면 금광리 288-3번지","indutype":"일반휴게음식 - 일반한식","category":"restaurant"}]},{"lat":"36.999522893","long":"127.32359707","imageIndex":4,"items":[{"name":"홍원막국수안성점","tel":"031-677-7454","addr":"경기도 안성시 금광면 금광리 107-9번지","indutype":"일반휴게음식 - 일반한식","category":"restaurant"}]},{"lat":"36.999498649","long":"127.32256342","imageIndex":4,"items":[{"name":"홍익식당","tel":"031-671-0729","addr":"경기도 안성시 금광면 금광리 536-56번지 1층","indutype":"일반휴게음식 - 일반한식","category":"restaurant"}]},{"lat":"36.995915947","long":"127.32789565","imageIndex":17,"items":[{"name":"고려공인중개사무소","tel":"031-672-7232","addr":"경기도 안성시 금광면 금광리 288-1번지","indutype":"용역 서비스 - 부동산 중개·임대","category":"other"}]},{"lat":"36.999497587","long":"127.32628194","imageIndex":17,"items":[{"name":"세븐일레븐안성금광점","tel":"031-673-7224","addr":"경기도 안성시 금광면 금광리 115-4","indutype":"유통업 영리 - 편 의 점","category":"other"}]},{"lat":"37.000357224","long":"127.32494869","imageIndex":17,"items":[{"name":"신대광부동산컨설팅","tel":"031-672-0041","addr":"경기도 안성시 금광면 금광리 110-2번지","indutype":"용역 서비스 - 부동산 중개·임대","category":"other"}]},{"lat":"36.998829552","long":"127.31667395","imageIndex":17,"items":[{"name":"안성맞춤전통유기","tel":"031-676-8740","addr":"경기도 안성시 금광면 금광리 42-3번지","indutype":"주방용구 - 주방용식기","category":"other"}]},{"lat":"37.000442455","long":"127.32342118","imageIndex":17,"items":[{"name":"안성시 장애인 재활작업장","tel":"031-673-8153","addr":"경기도 안성시 금광면 금광리 102-4번지","indutype":"신변잡화 - 기타잡화","category":"other"}]},{"lat":"36.998746465","long":"127.31742629","imageIndex":17,"items":[{"name":"조왕씽크","tel":"031-671-4231","addr":"경기도 안성시 금광면 금광리 42-1번지","indutype":"주방용구 - 주방용구","category":"other"}]},{"lat":"36.984805835","long":"127.33439667","imageIndex":7,"items":[{"name":"근영마트","tel":"031-674-4193","addr":"경기도 안성시 금광면 금광리 491-3","indutype":"유통업 영리 - 슈퍼마켓","category":"mart"}]},{"lat":"36.984723327","long":"127.33490175","imageIndex":5,"items":[{"name":"금강쉼모텔","tel":"031-673-4192","addr":"경기도 안성시 금광면 금광리 492-1","indutype":"숙박업 - 여관/기타숙박업","category":"hotel"}]},{"lat":"37.000106634","long":"127.32431851","imageIndex":16,"items":[{"name":"금광초등학교","tel":"","addr":"경기도 안성시 금광면 금광리 107-1번지 금광초등학교","indutype":"학원 - 초중고교육기관","category":"study"},{"name":"금광초병설유치원[아이행복]","tel":"031-675-7487","addr":"경기도 안성시 금광면 금광리 107-1번지 금광초등학교","indutype":"학원 - 유치원","category":"study"}]},{"lat":"37.000357224","long":"127.32494869","imageIndex":16,"items":[{"name":"대영학원","tel":"031-671-3580","addr":"경기도 안성시 금광면 금광리 110-2","indutype":"학원 - 예·체능계학원","category":"study"}]},{"lat":"36.998829552","long":"127.31667395","imageIndex":16,"items":[{"name":"안성맞춤전통유기체험교실","tel":"031-676-8740","addr":"경기도 안성시 금광면 금광리 42-3번지","indutype":"학원 - 기타 교육기관","category":"study"}]},{"lat":"36.999358283","long":"127.32114732","imageIndex":7,"items":[{"name":"농업회사법인주식회사프레팜","tel":"031-672-7608","addr":"경기도 안성시 금광면 금광리 63-2번지 3층","indutype":"음료식품 - 정육점","category":"food"}]},{"lat":"36.998613507","long":"127.31659442","imageIndex":7,"items":[{"name":"라벤다","tel":"031-676-3533","addr":"경기도 안성시 금광면 금광리 43-1번지 1층 101호","indutype":"건강식품 - 기타건강식품","category":"food"}]},{"lat":"37.000694447","long":"127.32353458","imageIndex":7,"items":[{"name":"주식회사허브킹","tel":"031-671-2537","addr":"경기도 안성시 금광면 금광리 102-1번지 벤처타운 302호","indutype":"건강식품 - 홍삼제품","category":"food"}]},{"lat":"36.999498649","long":"127.32256342","imageIndex":7,"items":[{"name":"홍익정육점","tel":"031-671-0729","addr":"경기도 안성시 금광면 금광리 536-56번지","indutype":"음료식품 - 정육점","category":"food"}]},{"lat":"36.999526497","long":"127.32226021","imageIndex":13,"items":[{"name":"조이(JOY)스크린골프","tel":"032-0000-0000","addr":"경기도 안성시 금광면 금광리 99-2번지","indutype":"레저업소 - 스크린골프","category":"leisure"}]}]