[{"lat":"37.47663738","long":"127.3782165","imageIndex":4,"items":[{"name":"(주)파머스대디(Farmer's daddy)","tel":"031-768-7924","addr":"경기도 광주시 퇴촌면 영동리 246-2번지 1호동 1층","indutype":"일반휴게음식 - 서양음식","category":"restaurant"}]},{"lat":"37.47558222","long":"127.3813541","imageIndex":4,"items":[{"name":"돈가득","tel":"031-762-9898","addr":"경기도 광주시 퇴촌면 영동리 218-15번지 1층","indutype":"일반휴게음식 - 일반한식","category":"restaurant"}]},{"lat":"37.47777188","long":"127.3727391","imageIndex":4,"items":[{"name":"라타케리아","tel":"070-5475-4785","addr":"경기도 광주시 퇴촌면 영동리 332번지 1층","indutype":"일반휴게음식 - 서양음식","category":"restaurant"}]},{"lat":"37.47916206","long":"127.3601628","imageIndex":4,"items":[{"name":"메종디","tel":"031-767-0607","addr":"경기도 광주시 퇴촌면 영동리 593-2번지","indutype":"일반휴게음식 - 일반한식","category":"restaurant"}]},{"lat":"37.47605253","long":"127.3779649","imageIndex":4,"items":[{"name":"버섯집","tel":"031-769-2202","addr":"경기도 광주시 퇴촌면 영동리 242-1번지","indutype":"일반휴게음식 - 일반한식","category":"restaurant"}]},{"lat":"37.47791359","long":"127.3735199","imageIndex":4,"items":[{"name":"빛고을","tel":"031-767-7332","addr":"경기도 광주시 퇴촌면 영동리 331-1번지","indutype":"일반휴게음식 - 일반한식","category":"restaurant"}]},{"lat":"37.47727458","long":"127.3761621","imageIndex":4,"items":[{"name":"엘비스","tel":"031-763-6696","addr":"경기도 광주시 퇴촌면 영동리 340-2번지","indutype":"일반휴게음식 - 일반한식","category":"restaurant"}]},{"lat":"37.4747429","long":"127.3817907","imageIndex":4,"items":[{"name":"오카페갤러리","tel":"031-768-1225","addr":"경기도 광주시 퇴촌면 영동리 217-3번지","indutype":"일반휴게음식 - 일반한식","category":"restaurant"}]},{"lat":"37.47657574","long":"127.377764","imageIndex":4,"items":[{"name":"이시돌","tel":"031-761-0112","addr":"경기도 광주시 퇴촌면 영동리 243번지","indutype":"일반휴게음식 - 일반한식","category":"restaurant"}]},{"lat":"37.47677518","long":"127.3773806","imageIndex":4,"items":[{"name":"천수","tel":"031-797-7130","addr":"경기도 광주시 퇴촌면 영동리 344번지","indutype":"일반휴게음식 - 일반한식","category":"restaurant"},{"name":"천향","tel":"031-766-3345","addr":"경기도 광주시 퇴촌면 영동리 344번지","indutype":"일반휴게음식 - 일반한식","category":"restaurant"}]},{"lat":"37.47713868","long":"127.3848552","imageIndex":4,"items":[{"name":"천하제일","tel":"031-768-9230","addr":"경기도 광주시 퇴촌면 영동리 31번지","indutype":"일반휴게음식 - 일반한식","category":"restaurant"}]},{"lat":"37.47668702","long":"127.3852147","imageIndex":4,"items":[{"name":"춘천숯불닭갈비 2호점","tel":"","addr":"경기도 광주시 퇴촌면 영동리 26-4번지 1층","indutype":"일반휴게음식 - 일반한식","category":"restaurant"},{"name":"퇴촌메밀소바&막국수","tel":"031-797-9382","addr":"경기도 광주시 퇴촌면 영동리 26-4번지","indutype":"일반휴게음식 - 일반한식","category":"restaurant"}]},{"lat":"37.48088671","long":"127.3706855","imageIndex":4,"items":[{"name":"털보셀프바베큐","tel":"031-765-8395","addr":"경기도 광주시 퇴촌면 영동리 479번지 1층","indutype":"일반휴게음식 - 일반한식","category":"restaurant"}]},{"lat":"37.47852503","long":"127.3681301","imageIndex":4,"items":[{"name":"텍스타일카페","tel":"031-768-6182","addr":"경기도 광주시 퇴촌면 영동리 460번지 1층 도도갤러리","indutype":"일반휴게음식 - 서양음식","category":"restaurant"}]},{"lat":"37.47577277","long":"127.3837404","imageIndex":4,"items":[{"name":"퇴촌순두부","tel":"031-767-6041","addr":"경기도 광주시 퇴촌면 영동리 39-3번지","indutype":"일반휴게음식 - 일반한식","category":"restaurant"}]}]