[{"lat":"37.693080441","long":"127.33559674","imageIndex":17,"items":[{"name":"(유)마이펫코리아","tel":"02-460-9631","addr":"경기도 남양주시 수동면 송천리 297-24번지 1층","indutype":"문화.취미 - 애완동물","category":"other"}]},{"lat":"37.687801914","long":"127.32216125","imageIndex":17,"items":[{"name":"(주) 서지건설","tel":"031-511-3426","addr":"경기도 남양주시 수동면 송천리 464-5번지 1층","indutype":"건축자재 - 인테리어전문","category":"other"}]},{"lat":"37.681279584","long":"127.33176908","imageIndex":17,"items":[{"name":"(주)아이엠랜드","tel":"031-524-9317","addr":"경기도 남양주시 수동면 송천리 169-14번지","indutype":"전기제품 - 냉열기기","category":"other"}]},{"lat":"37.687354757","long":"127.32754447","imageIndex":17,"items":[{"name":"(주)풍년환경건설","tel":"031-559-0486","addr":"경기도 남양주시 수동면 송천리 448-6번지","indutype":"건축자재 - 기타건축자재","category":"other"}]},{"lat":"37.691857554","long":"127.331521","imageIndex":17,"items":[{"name":"ATALIASOFA","tel":"031-973-3460","addr":"경기도 남양주시 수동면 송천리 306-1","indutype":"가구 - 일반가구","category":"other"}]},{"lat":"37.680386631","long":"127.33212789","imageIndex":17,"items":[{"name":"BM싱크","tel":"031-511-8074","addr":"경기도 남양주시 수동면 송천리 169-26번지","indutype":"가구 - 일반가구","category":"other"}]},{"lat":"37.689553573","long":"127.32737266","imageIndex":17,"items":[{"name":"K1 TECH (케이원테크)","tel":"031-595-6631","addr":"경기도 남양주시 수동면 송천리 427-10번지 1층","indutype":"기타 - 기계공구","category":"other"}]},{"lat":"37.68663741","long":"127.33918447","imageIndex":17,"items":[{"name":"KOREX","tel":"031-593-7447","addr":"경기도 남양주시 수동면 송천리 135","indutype":"기타 - 기계공구","category":"other"}]},{"lat":"37.692805962","long":"127.3674892","imageIndex":17,"items":[{"name":"SJ하나버스리무진","tel":"031-594-8155","addr":"경기도 남양주시 수동면 송천리 5-22번지","indutype":"여행 - 관광여행","category":"other"}]},{"lat":"37.690438933","long":"127.32649218","imageIndex":17,"items":[{"name":"가인쇼파","tel":"031-559-4722","addr":"경기도 남양주시 수동면 송천리 422번지","indutype":"가구 - 일반가구","category":"other"},{"name":"수드레스룸","tel":"031-559-4752","addr":"경기도 남양주시 수동면 송천리 422번지","indutype":"가구 - 일반가구","category":"other"}]},{"lat":"37.687276857","long":"127.33926672","imageIndex":17,"items":[{"name":"건화분체","tel":"031-591-0093","addr":"경기도 남양주시 수동면 송천리 111-4번지","indutype":"용역 서비스 - 기타용역서비스","category":"other"}]},{"lat":"37.685244517","long":"127.33473415","imageIndex":17,"items":[{"name":"경기종합설비","tel":"031-594-9035","addr":"경기도 남양주시 수동면 송천리 242번지","indutype":"건축자재 - 보일러·펌프·샷시","category":"other"}]},{"lat":"37.691639802","long":"127.35393485","imageIndex":17,"items":[{"name":"고아웃위드독스","tel":"","addr":"경기도 남양주시 수동면 송천리 21-53번지 101호","indutype":"문화.취미 - 애완동물","category":"other"}]},{"lat":"37.68263609","long":"127.33318078","imageIndex":17,"items":[{"name":"귀뚜라미서비스(남양주동부)","tel":"","addr":"경기도 남양주시 수동면 송천리 189-1번지","indutype":"건축자재 - 보일러·펌프·샷시","category":"other"}]},{"lat":"37.668442016","long":"127.32482119","imageIndex":17,"items":[{"name":"나우산업","tel":"031-511-4976","addr":"경기도 남양주시 수동면 송천리 588-6번지","indutype":"기타 - 기계공구","category":"other"}]},{"lat":"37.694108724","long":"127.33196179","imageIndex":17,"items":[{"name":"넥슨디스플레이","tel":"070-7715-9641","addr":"경기도 남양주시 수동면 송천리 326번지","indutype":"전기제품 - 가전제품","category":"other"}]},{"lat":"37.680142147","long":"127.32932681","imageIndex":17,"items":[{"name":"뉴메이드","tel":"031-577-7203","addr":"경기도 남양주시 수동면 송천리 505-19","indutype":"가구 - 일반가구","category":"other"}]},{"lat":"37.693911128","long":"127.32521472","imageIndex":17,"items":[{"name":"늘봄","tel":"031-551-6677","addr":"경기도 남양주시 수동면 송천리 377-3번지","indutype":"건축자재 - 기타건축자재","category":"other"},{"name":"늘봄휀스","tel":"031-551-6677","addr":"경기도 남양주시 수동면 송천리 377-3번지 가동 101호","indutype":"건축자재 - 기타건축자재","category":"other"}]},{"lat":"37.688136247","long":"127.32179989","imageIndex":17,"items":[{"name":"대명상사","tel":"031-594-4207","addr":"경기도 남양주시 수동면 송천리 464-9번지","indutype":"건축자재 - 기타건축자재","category":"other"},{"name":"세븐일레븐수동송천리점","tel":"031-1577-0711","addr":"경기도 남양주시 수동면 송천리 464-9번지","indutype":"유통업 영리 - 편 의 점","category":"other"}]},{"lat":"37.685496528","long":"127.33482597","imageIndex":17,"items":[{"name":"대부금속","tel":"031-559-9597","addr":"경기도 남양주시 수동면 송천리 242-3번지","indutype":"가구 - 철제가구","category":"other"}]},{"lat":"37.693440877","long":"127.32254824","imageIndex":17,"items":[{"name":"동글이침구","tel":"070-4108-2577","addr":"경기도 남양주시 수동면 송천리 388-4","indutype":"직물 - 침구·수예점","category":"other"}]},{"lat":"37.682052407","long":"127.33248668","imageIndex":17,"items":[{"name":"동진테크","tel":"031-594-0346","addr":"경기도 남양주시 수동면 송천리 190-12번지","indutype":"전기제품 - 기타전기제품","category":"other"}]},{"lat":"37.688744159","long":"127.32354844","imageIndex":17,"items":[{"name":"두손샤시","tel":"031-594-1644","addr":"경기도 남양주시 수동면 송천리 397-25","indutype":"건축자재 - 보일러·펌프·샷시","category":"other"},{"name":"성진철물공구","tel":"031-595-0229","addr":"경기도 남양주시 수동면 송천리 397-25","indutype":"건축자재 - 목재·석재·철물","category":"other"},{"name":"주식회사 찬스","tel":"031-593-0227","addr":"경기도 남양주시 수동면 송천리 397-25번지","indutype":"건축자재 - 인테리어전문","category":"other"}]},{"lat":"37.687748943","long":"127.32507468","imageIndex":17,"items":[{"name":"또와","tel":"031-572-4901","addr":"경기도 남양주시 수동면 송천리 457-7번지","indutype":"의류 - 정장","category":"other"}]},{"lat":"37.681689112","long":"127.33029717","imageIndex":17,"items":[{"name":"라인에이치","tel":"031-592-4751","addr":"경기도 남양주시 수동면 송천리 180번지","indutype":"가구 - 일반가구","category":"other"}]},{"lat":"37.693632608","long":"127.32493006","imageIndex":17,"items":[{"name":"명화토탈서비스","tel":"","addr":"경기도 남양주시 수동면 송천리 376-2번지","indutype":"수리서비스 - 기타수리서비스","category":"other"}]},{"lat":"37.694715572","long":"127.32426579","imageIndex":17,"items":[{"name":"반딧불전기조명","tel":"031-591-9433","addr":"경기도 남양주시 수동면 송천리 376-7번지","indutype":"전기제품 - 기타전기제품","category":"other"}]},{"lat":"37.688222132","long":"127.32335346","imageIndex":17,"items":[{"name":"뱅코상사","tel":"031-593-5984","addr":"경기도 남양주시 수동면 송천리 397-8","indutype":"신변잡화 - 기타잡화","category":"other"}]},{"lat":"37.692889638","long":"127.3666506","imageIndex":17,"items":[{"name":"산그린캠프","tel":"031-595-6375","addr":"경기도 남양주시 수동면 송천리 5-1번지","indutype":"신변잡화 - 기타잡화","category":"other"}]},{"lat":"37.684969329","long":"127.33327048","imageIndex":17,"items":[{"name":"서진스텐","tel":"031-595-9431","addr":"경기도 남양주시 수동면 송천리 237번지 1동","indutype":"건축자재 - 기타건축자재","category":"other"}]},{"lat":"37.69268856","long":"127.32421169","imageIndex":17,"items":[{"name":"선푸드","tel":"031-511-2198","addr":"경기도 남양주시 수동면 송천리 405-9번지","indutype":"주방용구 - 주방용구","category":"other"}]},{"lat":"37.690356565","long":"127.33665031","imageIndex":17,"items":[{"name":"성진금속","tel":"031-594-3901","addr":"경기도 남양주시 수동면 송천리 91-2번지","indutype":"기타 - 기계공구","category":"other"}]},{"lat":"37.684307977","long":"127.33135165","imageIndex":17,"items":[{"name":"세븐일레븐남양주송천리점","tel":"","addr":"경기도 남양주시 수동면 송천리 221-4번지","indutype":"유통업 영리 - 편 의 점","category":"other"}]},{"lat":"37.688218023","long":"127.34096022","imageIndex":17,"items":[{"name":"세븐일레븐수동소래비점","tel":"031-1577-0711","addr":"경기도 남양주시 수동면 송천리 46-5번지","indutype":"유통업 영리 - 편 의 점","category":"other"}]},{"lat":"37.691857397","long":"127.3250471","imageIndex":17,"items":[{"name":"스터디 독 스쿨","tel":"070-4795-9111","addr":"경기도 남양주시 수동면 송천리 406-6번지","indutype":"문화.취미 - 애완동물","category":"other"}]},{"lat":"37.695882407","long":"127.32588088","imageIndex":17,"items":[{"name":"신사","tel":"","addr":"경기도 남양주시 수동면 송천리 375-3번지","indutype":"용역 서비스 - 종합용역","category":"other"}]},{"lat":"37.679306582","long":"127.32848429","imageIndex":17,"items":[{"name":"아이피슈가주식회사","tel":"02-2026-3432","addr":"경기도 남양주시 수동면 송천리 505-18","indutype":"건축자재 - 페인트","category":"other"}]},{"lat":"37.692301292","long":"127.37043458","imageIndex":17,"items":[{"name":"에이치에스바이오 (HS BIO)","tel":"","addr":"경기도 남양주시 수동면 송천리 2-8번지 대성다세대 3층 302호","indutype":"서적문구 - 과학기자재","category":"other"}]},{"lat":"37.690110925","long":"127.34065137","imageIndex":17,"items":[{"name":"예형스틸","tel":"031-595-7875","addr":"경기도 남양주시 수동면 송천리 96-6번지","indutype":"건축자재 - 기타건축자재","category":"other"}]},{"lat":"37.692327156","long":"127.33434621","imageIndex":17,"items":[{"name":"월드이엔지","tel":"031-593-1686","addr":"경기도 남양주시 수동면 송천리 297-18번지","indutype":"사무통신 - 통신기기","category":"other"}]},{"lat":"37.669470246","long":"127.32440626","imageIndex":17,"items":[{"name":"은나라유통","tel":"","addr":"경기도 남양주시 수동면 송천리 593-6번지","indutype":"유통업 영리 - 기타유통업","category":"other"}]},{"lat":"37.690163063","long":"127.32852041","imageIndex":17,"items":[{"name":"이리스 디자인","tel":"031-559-1708","addr":"경기도 남양주시 수동면 송천리 427-13번지 5동","indutype":"가구 - 일반가구","category":"other"},{"name":"주식회사 따숨","tel":"031-000-0000","addr":"경기도 남양주시 수동면 송천리 427-13번지 3동","indutype":"전기제품 - 기타전기제품","category":"other"}]},{"lat":"37.681804323","long":"127.3342087","imageIndex":17,"items":[{"name":"이안 디자인 소파","tel":"031-595-7482","addr":"경기도 남양주시 수동면 송천리 190-39번지","indutype":"가구 - 일반가구","category":"other"}]},{"lat":"37.689522762","long":"127.32874436","imageIndex":17,"items":[{"name":"인아산업","tel":"031-593-7060","addr":"경기도 남양주시 수동면 송천리 427번지","indutype":"건축자재 - 목재·석재·철물","category":"other"}]},{"lat":"37.680079708","long":"127.32909981","imageIndex":17,"items":[{"name":"제일기공","tel":"","addr":"경기도 남양주시 수동면 송천리 505-3번지","indutype":"건축자재 - 기타건축자재","category":"other"}]},{"lat":"37.670585757","long":"127.32502314","imageIndex":17,"items":[{"name":"종합가구","tel":"031-511-2958","addr":"경기도 남양주시 수동면 송천리 575-4 외2필지 205","indutype":"가구 - 기타가구","category":"other"}]},{"lat":"37.682249126","long":"127.33302036","imageIndex":17,"items":[{"name":"주식회사 대성이엔지","tel":"031-559-9685","addr":"경기도 남양주시 수동면 송천리 190-11번지","indutype":"기타 - 기계공구","category":"other"}]},{"lat":"37.686749198","long":"127.33470685","imageIndex":17,"items":[{"name":"주식회사 브리드","tel":"031-516-9641","addr":"경기도 남양주시 수동면 송천리 287-4번지","indutype":"전기제품 - 가전제품","category":"other"}]},{"lat":"37.692026399","long":"127.35420878","imageIndex":17,"items":[{"name":"주식회사 유원","tel":"02-488-8666","addr":"경기도 남양주시 수동면 송천리 21-35번지","indutype":"건축자재 - 부동산 분양","category":"other"}]},{"lat":"37.694995694","long":"127.3305144","imageIndex":17,"items":[{"name":"주식회사 이가플랜에프앤비","tel":"02-1111-1111","addr":"경기도 남양주시 수동면 송천리 343-4번지","indutype":"용역 서비스 - 사무서비스","category":"other"}]},{"lat":"37.695410753","long":"127.32373589","imageIndex":17,"items":[{"name":"주식회사 주피터피브이디","tel":"031-1111-1111","addr":"경기도 남양주시 수동면 송천리 376-3번지","indutype":"용역 서비스 - 기타용역서비스","category":"other"}]},{"lat":"37.6856612","long":"127.33071142","imageIndex":17,"items":[{"name":"주식회사 탁조","tel":"031-592-0522","addr":"경기도 남양주시 수동면 송천리 253-3번지 1동","indutype":"의류 - 아동의류","category":"other"}]},{"lat":"37.691940308","long":"127.32437853","imageIndex":17,"items":[{"name":"주식회사구들","tel":"031-595-7766","addr":"경기도 남양주시 수동면 송천리 403-14번지","indutype":"용역 서비스 - 기타용역서비스","category":"other"}]},{"lat":"37.693998093","long":"127.33924039","imageIndex":17,"items":[{"name":"케스미디어","tel":"031-559-1081","addr":"경기도 남양주시 수동면 송천리 74-1번지","indutype":"가구 - 철제가구","category":"other"}]},{"lat":"37.685161664","long":"127.32890667","imageIndex":17,"items":[{"name":"태멘기획","tel":"031-511-7292","addr":"경기도 남양주시 수동면 송천리 475-11","indutype":"용역 서비스 - 종합용역","category":"other"}]},{"lat":"37.677945895","long":"127.32856903","imageIndex":17,"items":[{"name":"트렌드","tel":"031-511-0678","addr":"경기도 남양주시 수동면 송천리 507","indutype":"가구 - 일반가구","category":"other"}]},{"lat":"37.687189414","long":"127.3414884","imageIndex":17,"items":[{"name":"프로테크","tel":"031-577-0964","addr":"경기도 남양주시 수동면 송천리 44-2","indutype":"전기제품 - 가전제품","category":"other"}]},{"lat":"37.692527438","long":"127.32382551","imageIndex":17,"items":[{"name":"하림전기","tel":"070-4922-1261","addr":"경기도 남양주시 수동면 송천리 384번지","indutype":"전기제품 - 기타전기제품","category":"other"}]},{"lat":"37.674863515","long":"127.32568774","imageIndex":17,"items":[{"name":"한국지도원","tel":"070-5306-0644","addr":"경기도 남양주시 수동면 송천리 535-22번지","indutype":"신변잡화 - 기타잡화","category":"other"}]},{"lat":"37.687084716","long":"127.33393742","imageIndex":17,"items":[{"name":"한양기계","tel":"031-559-5324","addr":"경기도 남양주시 수동면 송천리 286-3","indutype":"기타 - 기계공구","category":"other"}]},{"lat":"37.68618847","long":"127.33546392","imageIndex":17,"items":[{"name":"행복한송천꽃집","tel":"031-593-6667","addr":"경기도 남양주시 수동면 송천리 129-8번지","indutype":"문화.취미 - 화원","category":"other"}]},{"lat":"37.683669433","long":"127.34052013","imageIndex":17,"items":[{"name":"혜정암","tel":"","addr":"경기도 남양주시 수동면 송천리 147-9번지","indutype":"기타 - 비영리/대상","category":"other"}]},{"lat":"37.682387614","long":"127.32857711","imageIndex":17,"items":[{"name":"호두나무","tel":"031-559-7231","addr":"경기도 남양주시 수동면 송천리 479-6번지 공방호두나무","indutype":"문화.취미 - 문화취미기타","category":"other"}]},{"lat":"37.683946049","long":"127.33190555","imageIndex":17,"items":[{"name":"호원산업개발(주)","tel":"02-6435-3255","addr":"경기도 남양주시 수동면 송천리 231-3번지 2동","indutype":"기타 - 기계공구","category":"other"}]},{"lat":"37.689082455","long":"127.32832295","imageIndex":7,"items":[{"name":"(주)리원트","tel":"031-595-1401","addr":"경기도 남양주시 수동면 송천리 430-4번지","indutype":"음료식품 - 기타음료식품","category":"food"}]},{"lat":"37.694800903","long":"127.33252042","imageIndex":7,"items":[{"name":"K-1 Food","tel":"031-568-3577","addr":"경기도 남양주시 수동면 송천리 339-1번지","indutype":"음료식품 - 기타음료식품","category":"food"}]},{"lat":"37.691384763","long":"127.36964776","imageIndex":7,"items":[{"name":"그린마켓","tel":"031-000-0000","addr":"경기도 남양주시 수동면 송천리 1-3번지","indutype":"음료식품 - 기타음료식품","category":"food"}]},{"lat":"37.689192347","long":"127.34051115","imageIndex":7,"items":[{"name":"그린텍코리아","tel":"031-559-5185","addr":"경기도 남양주시 수동면 송천리 105번지","indutype":"음료식품 - 기타음료식품","category":"food"}]},{"lat":"37.677082045","long":"127.32817984","imageIndex":7,"items":[{"name":"기훈F&B","tel":"","addr":"경기도 남양주시 수동면 송천리 558-11번지 4동 2층","indutype":"음료식품 - 기타음료식품","category":"food"},{"name":"초계유천푸드","tel":"070-3414-2724","addr":"경기도 남양주시 수동면 송천리 558-11번지","indutype":"음료식품 - 기타음료식품","category":"food"}]},{"lat":"37.690161944","long":"127.35099145","imageIndex":7,"items":[{"name":"농업회사법인 주식회사 채운농원","tel":"031-595-9625","addr":"경기도 남양주시 수동면 송천리 24-31번지 외 16필지","indutype":"음료식품 - 농·축·수산품","category":"food"}]},{"lat":"37.691163837","long":"127.37115458","imageIndex":7,"items":[{"name":"대아캠프","tel":"031-511-9968","addr":"경기도 남양주시 수동면 송천리 2-24","indutype":"음료식품 - 기타음료식품","category":"food"}]},{"lat":"37.681049972","long":"127.33010164","imageIndex":7,"items":[{"name":"득이유통","tel":"031-591-7581","addr":"경기도 남양주시 수동면 송천리 171-3번지","indutype":"음료식품 - 농·축·수산품","category":"food"}]},{"lat":"37.693363263","long":"127.35906777","imageIndex":7,"items":[{"name":"목련","tel":"031-591-4698","addr":"경기도 남양주시 수동면 송천리 11-6번지","indutype":"음료식품 - 기타음료식품","category":"food"}]},{"lat":"37.693633468","long":"127.32790065","imageIndex":7,"items":[{"name":"미림농산","tel":"031-794-7725","addr":"경기도 남양주시 수동면 송천리 364-1번지","indutype":"음료식품 - 기타음료식품","category":"food"}]},{"lat":"37.691605159","long":"127.37120212","imageIndex":7,"items":[{"name":"수호천사","tel":"031-595-3975","addr":"경기도 남양주시 수동면 송천리 2-19번지","indutype":"음료식품 - 기타음료식품","category":"food"}]},{"lat":"37.69335746","long":"127.36098387","imageIndex":7,"items":[{"name":"아름다운세상","tel":"031-595-4429","addr":"경기도 남양주시 수동면 송천리 11-51번지 1층","indutype":"음료식품 - 기타음료식품","category":"food"}]},{"lat":"37.691749487","long":"127.37114614","imageIndex":7,"items":[{"name":"아이캔","tel":"031-511-6270","addr":"경기도 남양주시 수동면 송천리 2-11번지","indutype":"음료식품 - 기타음료식품","category":"food"}]},{"lat":"37.693359558","long":"127.36029226","imageIndex":7,"items":[{"name":"아인","tel":"031-594-6293","addr":"경기도 남양주시 수동면 송천리 11-3번지","indutype":"음료식품 - 기타음료식품","category":"food"}]},{"lat":"37.690528499","long":"127.32668531","imageIndex":7,"items":[{"name":"제일유통","tel":"031-592-3350","addr":"경기도 남양주시 수동면 송천리 421번지 5동","indutype":"음료식품 - 정육점","category":"food"}]},{"lat":"37.690966585","long":"127.37084749","imageIndex":7,"items":[{"name":"청호 캠프","tel":"031-511-6696","addr":"경기도 남양주시 수동면 송천리 3-16번지","indutype":"음료식품 - 기타음료식품","category":"food"}]},{"lat":"37.688744159","long":"127.32354844","imageIndex":7,"items":[{"name":"태백고냉지김치","tel":"031-511-1188","addr":"경기도 남양주시 수동면 송천리 397-25","indutype":"음료식품 - 기타음료식품","category":"food"}]},{"lat":"37.692555816","long":"127.36971021","imageIndex":7,"items":[{"name":"파랑새매점","tel":"031-595-8062","addr":"경기도 남양주시 수동면 송천리 2-7","indutype":"음료식품 - 기타음료식품","category":"food"}]},{"lat":"37.691663774","long":"127.36973983","imageIndex":7,"items":[{"name":"한아름매점","tel":"031-594-8940","addr":"경기도 남양주시 수동면 송천리 3-2번지","indutype":"음료식품 - 기타음료식품","category":"food"}]},{"lat":"37.693605353","long":"127.35945442","imageIndex":7,"items":[{"name":"현지캠프","tel":"031-593-9064","addr":"경기도 남양주시 수동면 송천리 11-32번지 현지캠프","indutype":"음료식품 - 기타음료식품","category":"food"}]},{"lat":"37.692721436","long":"127.36859991","imageIndex":7,"items":[{"name":"힐링캠프펜션","tel":"031-593-7604","addr":"경기도 남양주시 수동면 송천리 5-24번지","indutype":"음료식품 - 기타음료식품","category":"food"}]},{"lat":"37.673078636","long":"127.32604273","imageIndex":4,"items":[{"name":"강원막국수","tel":"031-594-6753","addr":"경기도 남양주시 수동면 송천리 569-1번지","indutype":"일반휴게음식 - 일반한식","category":"restaurant"}]},{"lat":"37.688136247","long":"127.32179989","imageIndex":4,"items":[{"name":"글라스베이커리 (glass bakery)","tel":"031-511-0108","addr":"경기도 남양주시 수동면 송천리 464-9번지 주건축물제 1동 1층 일부","indutype":"일반휴게음식 - 서양음식","category":"restaurant"},{"name":"금붕어","tel":"031-593-1095","addr":"경기도 남양주시 수동면 송천리 464-9번지","indutype":"일반휴게음식 - 일반한식","category":"restaurant"}]},{"lat":"37.677082045","long":"127.32817984","imageIndex":4,"items":[{"name":"냉면공장","tel":"031-511-0379","addr":"경기도 남양주시 수동면 송천리 558-11번지 주 4동 1층","indutype":"일반휴게음식 - 일반한식","category":"restaurant"},{"name":"커피공방","tel":"031-595-0379","addr":"경기도 남양주시 수동면 송천리 558-11번지 4동 2층","indutype":"일반휴게음식 - 서양음식","category":"restaurant"}]},{"lat":"37.691084592","long":"127.37056463","imageIndex":4,"items":[{"name":"논두렁밭두렁","tel":"031-593-5048","addr":"경기도 남양주시 수동면 송천리 3-1번지","indutype":"일반휴게음식 - 일반한식","category":"restaurant"}]},{"lat":"37.693160385","long":"127.35762687","imageIndex":4,"items":[{"name":"단풍나무집","tel":"031-593-6372","addr":"경기도 남양주시 수동면 송천리 13-10번지","indutype":"일반휴게음식 - 일반한식","category":"restaurant"}]},{"lat":"37.667580866","long":"127.32343471","imageIndex":4,"items":[{"name":"민현골프연습장스넥","tel":"031-594-0701","addr":"경기도 남양주시 수동면 송천리 597-2번지 2동 스넥코너","indutype":"일반휴게음식 - 스넥","category":"restaurant"}]},{"lat":"37.686806859","long":"127.33662306","imageIndex":4,"items":[{"name":"보양맛집","tel":"031-511-4717","addr":"경기도 남양주시 수동면 송천리 133번지 1층","indutype":"일반휴게음식 - 일반한식","category":"restaurant"}]},{"lat":"37.691271703","long":"127.37123448","imageIndex":4,"items":[{"name":"블루스카이","tel":"031-592-3833","addr":"경기도 남양주시 수동면 송천리 2-23","indutype":"일반휴게음식 - 일반한식","category":"restaurant"}]},{"lat":"37.683577892","long":"127.3314618","imageIndex":4,"items":[{"name":"솔래식당","tel":"031-559-6413","addr":"경기도 남양주시 수동면 송천리 231-2번지 나동","indutype":"일반휴게음식 - 일반한식","category":"restaurant"}]},{"lat":"37.688439037","long":"127.32310498","imageIndex":4,"items":[{"name":"송천리가마솥해장국","tel":"031-591-1808","addr":"경기도 남양주시 수동면 송천리 397-41번지","indutype":"일반휴게음식 - 일반한식","category":"restaurant"}]},{"lat":"37.691606957","long":"127.32437709","imageIndex":4,"items":[{"name":"열매식당","tel":"031-594-6698","addr":"경기도 남양주시 수동면 송천리 403-3번지","indutype":"일반휴게음식 - 일반한식","category":"restaurant"}]},{"lat":"37.682356758","long":"127.32996001","imageIndex":4,"items":[{"name":"우리집","tel":"031-593-0993","addr":"경기도 남양주시 수동면 송천리 208번지","indutype":"일반휴게음식 - 일반한식","category":"restaurant"}]},{"lat":"37.686133561","long":"127.32931905","imageIndex":4,"items":[{"name":"자연샘가든","tel":"031-595-1622","addr":"경기도 남양주시 수동면 송천리 262-1번지 자연샘가든","indutype":"일반휴게음식 - 일반한식","category":"restaurant"}]},{"lat":"37.690609421","long":"127.369814","imageIndex":4,"items":[{"name":"초원의집","tel":"031-593-5557","addr":"경기도 남양주시 수동면 송천리 3-4번지","indutype":"일반휴게음식 - 일반한식","category":"restaurant"}]},{"lat":"37.693632608","long":"127.32493006","imageIndex":4,"items":[{"name":"캘리포니아(전주맛집)","tel":"031-595-2271","addr":"경기도 남양주시 수동면 송천리 376-2번지","indutype":"일반휴게음식 - 일반한식","category":"restaurant"}]},{"lat":"37.694028197","long":"127.32851463","imageIndex":4,"items":[{"name":"평창송어회","tel":"031-591-8858","addr":"경기도 남양주시 수동면 송천리 364-6번지","indutype":"일반휴게음식 - 일반한식","category":"restaurant"}]},{"lat":"37.692113647","long":"127.36993479","imageIndex":4,"items":[{"name":"하나로캠프가든","tel":"031-593-7705","addr":"경기도 남양주시 수동면 송천리 5-4번지","indutype":"일반휴게음식 - 일반한식","category":"restaurant"}]},{"lat":"37.688218023","long":"127.34096022","imageIndex":4,"items":[{"name":"해뜰날","tel":"","addr":"경기도 남양주시 수동면 송천리 46-5번지 1층 일부","indutype":"일반휴게음식 - 일반한식","category":"restaurant"}]},{"lat":"37.692721436","long":"127.36859991","imageIndex":4,"items":[{"name":"힐링캠프펜션","tel":"031-559-8908","addr":"경기도 남양주시 수동면 송천리 5-24번지","indutype":"일반휴게음식 - 일반한식","category":"restaurant"}]},{"lat":"37.692637852","long":"127.36940449","imageIndex":5,"items":[{"name":"나이스","tel":"031-595-6244","addr":"경기도 남양주시 수동면 송천리 2-21번지","indutype":"숙박업 - 여관/기타숙박업","category":"hotel"}]},{"lat":"37.69335746","long":"127.36098387","imageIndex":5,"items":[{"name":"두껍아 두껍아","tel":"031-595-4429","addr":"경기도 남양주시 수동면 송천리 11-51","indutype":"숙박업 - 여관/기타숙박업","category":"hotel"}]},{"lat":"37.693299009","long":"127.32501933","imageIndex":5,"items":[{"name":"모텔테마","tel":"031-593-8998","addr":"경기도 남양주시 수동면 송천리 379-1번지","indutype":"숙박업 - 여관/기타숙박업","category":"hotel"}]},{"lat":"37.688078013","long":"127.34576658","imageIndex":5,"items":[{"name":"솔마루민박","tel":"031-511-7785","addr":"경기도 남양주시 수동면 송천리 59-2번지","indutype":"숙박업 - 여관/기타숙박업","category":"hotel"}]},{"lat":"37.691384763","long":"127.36964776","imageIndex":5,"items":[{"name":"에이펜션(A펜션)","tel":"031-000-0000","addr":"경기도 남양주시 수동면 송천리 1-3번지","indutype":"숙박업 - 여관/기타숙박업","category":"hotel"}]},{"lat":"37.690639127","long":"127.36895249","imageIndex":5,"items":[{"name":"펜션마루","tel":"","addr":"경기도 남양주시 수동면 송천리 3-5번지","indutype":"숙박업 - 여관/기타숙박업","category":"hotel"}]},{"lat":"37.692721436","long":"127.36859991","imageIndex":5,"items":[{"name":"힐링캠프펜션","tel":"070-8163-8908","addr":"경기도 남양주시 수동면 송천리 5-24번지","indutype":"숙박업 - 여관/기타숙박업","category":"hotel"}]},{"lat":"37.690161944","long":"127.35099145","imageIndex":16,"items":[{"name":"농업회사법인 주식회사 채운농원","tel":"031-595-9625","addr":"경기도 남양주시 수동면 송천리 24-31번지 외 16필지","indutype":"학원 - 기타 교육기관","category":"study"},{"name":"채운산장농원","tel":"031-595-9625","addr":"경기도 남양주시 수동면 송천리 24-31","indutype":"학원 - 기타 교육기관","category":"study"}]},{"lat":"37.687944192","long":"127.32285343","imageIndex":16,"items":[{"name":"동그라미어린이집[아이행복]","tel":"031-511-5951","addr":"경기도 남양주시 수동면 송천리 397-24","indutype":"학원 - 유아원","category":"study"}]},{"lat":"37.683693926","long":"127.33506734","imageIndex":16,"items":[{"name":"씨앗줄기협동조합","tel":"031-000-0000","addr":"경기도 남양주시 수동면 송천리 153-4번지 지층","indutype":"학원 - 기타 교육기관","category":"study"}]},{"lat":"37.690667105","long":"127.36864651","imageIndex":7,"items":[{"name":"마루","tel":"","addr":"경기도 남양주시 수동면 송천리 3-12번지","indutype":"유통업 영리 - 슈퍼마켓","category":"mart"}]},{"lat":"37.683300522","long":"127.33076905","imageIndex":7,"items":[{"name":"송라상회","tel":"031-594-1514","addr":"경기도 남양주시 수동면 송천리 218-27번지","indutype":"유통업 영리 - 슈퍼마켓","category":"mart"}]},{"lat":"37.674052285","long":"127.32582025","imageIndex":13,"items":[{"name":"송라불한증막","tel":"031-593-0505","addr":"경기도 남양주시 수동면 송천리 535-26번지","indutype":"보건위생 - 사우나","category":"beauty"}]},{"lat":"37.684609964","long":"127.33290611","imageIndex":0,"items":[{"name":"송천자동차공업사","tel":"031-571-2007","addr":"경기도 남양주시 수동면 송천리 235-3번지","indutype":"자동차정비 유지 - 자동차정비","category":"car"}]},{"lat":"37.688277328","long":"127.32293422","imageIndex":0,"items":[{"name":"천우모터스","tel":"031-559-5599","addr":"경기도 남양주시 수동면 송천리 397-39번지","indutype":"자동차정비 유지 - 자동차정비","category":"car"}]},{"lat":"37.691885262","long":"127.3247411","imageIndex":0,"items":[{"name":"하나모터스","tel":"031-591-2566","addr":"경기도 남양주시 수동면 송천리 403-1번지","indutype":"자동차정비 유지 - 자동차정비","category":"car"}]}]