[{"lat":"37.47274001","long":"126.80324119","imageIndex":16,"items":[{"name":"GnB(지엔비) 소사어학원","tel":"032-341-1130","addr":"경기도 부천시 소사본동 409-1번지 GNB어학원 303호 소사 캠퍼스","indutype":"학원 - 외국어학원","category":"study"},{"name":"J&J(제이앤제이)주니어랩영어보습학원","tel":"032-351-5105","addr":"경기도 부천시 소사본동 409-1번지 유성메트로 상가 503호","indutype":"학원 - 보습학원","category":"study"},{"name":"SS(에스에스) 청담음악학원","tel":"032-345-7788","addr":"경기도 부천시 소사본동 409-1번지 유성메트로 501호","indutype":"학원 - 예·체능계학원","category":"study"},{"name":"YTN(와이티앤)키즈보습학원","tel":"032-345-0460","addr":"경기도 부천시 소사본동 409-1번지 유성메트로빌딩 404호","indutype":"학원 - 보습학원","category":"study"},{"name":"뉴턴사이언스보습학원","tel":"032-345-2925","addr":"경기도 부천시 소사본동 409-1번지 603호","indutype":"학원 - 보습학원","category":"study"},{"name":"분석수학소사보습학원","tel":"032-715-8446","addr":"경기도 부천시 소사본동 409-1번지 유성메트로 3층 302호","indutype":"학원 - 보습학원","category":"study"},{"name":"소사SKY(스카이)보습학원","tel":"032-342-1259","addr":"경기도 부천시 소사본동 409-1번지 유성메트로 504호","indutype":"학원 - 보습학원","category":"study"},{"name":"소사해법수학보습학원","tel":"032-344-3090","addr":"경기도 부천시 소사본동 409-1번지 505호","indutype":"학원 - 보습학원","category":"study"},{"name":"연세대튼튼태권도","tel":"032-343-2110","addr":"경기도 부천시 소사본동 409-1번지 401호 ,402,405호","indutype":"학원 - 예·체능계학원","category":"study"},{"name":"오성독서실","tel":"032-347-0966","addr":"경기도 부천시 소사본동 409-1번지 유성메트로 604동 605호","indutype":"학원 - 독서실","category":"study"},{"name":"차수학정철어학보습학원","tel":"032-461-0582","addr":"경기도 부천시 소사본동 409-1번지 유성메트로 403호","indutype":"학원 - 보습학원","category":"study"},{"name":"폴리아수학보습학원","tel":"032-345-3412","addr":"경기도 부천시 소사본동 409-1번지 601호","indutype":"학원 - 보습학원","category":"study"}]},{"lat":"37.474708567","long":"126.80052276","imageIndex":16,"items":[{"name":"MTA태권도장","tel":"032-424-4347","addr":"경기도 부천시 소사본동 244-84번지 2층","indutype":"학원 - 예·체능계학원","category":"study"},{"name":"에이치엠에스 (HMS)에듀영어교습소","tel":"","addr":"경기도 부천시 소사본동 244-84번지 1층 1부","indutype":"학원 - 기타 교육기관","category":"study"},{"name":"전공음악학원","tel":"032-347-3696","addr":"경기도 부천시 소사본동 244-84번지 1층","indutype":"학원 - 예·체능계학원","category":"study"}]},{"lat":"37.473101494","long":"126.8038846","imageIndex":16,"items":[{"name":"W(더블유)미술학원","tel":"032-345-1005","addr":"경기도 부천시 소사본동 409-3번지 센트럴프라자 602호","indutype":"학원 - 예·체능계학원","category":"study"},{"name":"시매쓰소사보습학원","tel":"032-351-8798","addr":"경기도 부천시 소사본동 409-3번지 센트럴프라자 603호","indutype":"학원 - 보습학원","category":"study"},{"name":"윤선생영어교실부천소사교육센터","tel":"032-343-0505","addr":"경기도 부천시 소사본동 409-3번지 센트럴프라자 402호","indutype":"학원 - 보습학원","category":"study"},{"name":"윤선생영어랑부천양천센터","tel":"032-343-0505","addr":"경기도 부천시 소사본동 409-3번지 센트럴프라자 402호","indutype":"학원 - 학습지 교육","category":"study"},{"name":"윤선생영어숲소사어학원","tel":"032-343-0505","addr":"경기도 부천시 소사본동 409-3번지 센트럴프라자 402호","indutype":"학원 - 학습지 교육","category":"study"},{"name":"이지독서실","tel":"032-346-2255","addr":"경기도 부천시 소사본동 409-3번지 센트럴프라자 601호","indutype":"학원 - 독서실","category":"study"},{"name":"하이츠수학보습학원","tel":"032-345-1061","addr":"경기도 부천시 소사본동 409-3번지 센트럴프라자 403호","indutype":"학원 - 보습학원","category":"study"}]},{"lat":"37.472069366","long":"126.79573674","imageIndex":16,"items":[{"name":"경선음악학원","tel":"032-348-8852","addr":"경기도 부천시 소사본동 216-34번지","indutype":"학원 - 예·체능계학원","category":"study"},{"name":"뮤엠영어소사원더영어교습소","tel":"032-345-7905","addr":"경기도 부천시 소사본동 216-34번지 5층","indutype":"학원 - 외국어학원","category":"study"},{"name":"부천축구센타(베렌FC)","tel":"032-429-2686","addr":"경기도 부천시 소사본동 216-34번지 지하","indutype":"학원 - 예·체능계학원","category":"study"}]},{"lat":"37.472460894","long":"126.80335498","imageIndex":16,"items":[{"name":"경희대 석사 올림픽 태권도장","tel":"032-345-1888","addr":"경기도 부천시 소사본동 409-6번지 아크리아III 5층 504호","indutype":"학원 - 예·체능계학원","category":"study"},{"name":"뮤즈트리음악학원","tel":"032-343-0227","addr":"경기도 부천시 소사본동 409-6번지 아크리아III 203호","indutype":"회원제형태 - 학원","category":"study"},{"name":"아카데미라운지부천소사독서실","tel":"032-229-0909","addr":"경기도 부천시 소사본동 409-6번지 아크리아III 4층 401호 일부","indutype":"학원 - 독서실","category":"study"},{"name":"엔젤피아노음악학원","tel":"032-345-4664","addr":"경기도 부천시 소사본동 409-6번지 아크리아3 ,503호","indutype":"학원 - 예·체능계학원","category":"study"},{"name":"조나단영어보습학원","tel":"032-349-0584","addr":"경기도 부천시 소사본동 409-6번지 아크리아 501호","indutype":"학원 - 보습학원","category":"study"},{"name":"춤EVERYBODY (에브리바디)무용학원","tel":"","addr":"경기도 부천시 소사본동 409-6번지 아크리아III 3층 303호","indutype":"학원 - 예·체능계학원","category":"study"},{"name":"탑코딩에듀 컴퓨터 학원","tel":"032-343-7799","addr":"경기도 부천시 소사본동 409-6번지 아크리아III 304호","indutype":"학원 - 컴퓨터학원","category":"study"},{"name":"프랭클린영어보습학원","tel":"070-4108-0579","addr":"경기도 부천시 소사본동 409-6번지 아크리아 3호 302","indutype":"학원 - 보습학원","category":"study"},{"name":"필음악학원","tel":"032-349-9700","addr":"경기도 부천시 소사본동 409-6번지","indutype":"학원 - 예·체능계학원","category":"study"}]},{"lat":"37.473379844","long":"126.7980506","imageIndex":16,"items":[{"name":"경희대전진태권도창의스포츠클럽","tel":"032-344-4866","addr":"경기도 부천시 소사본동 194-18번지 2층","indutype":"학원 - 예·체능계학원","category":"study"}]},{"lat":"37.475682681","long":"126.80113061","imageIndex":16,"items":[{"name":"경희태권도체육관","tel":"032-348-0118","addr":"경기도 부천시 소사본동 244-66 동문밀리언상가동 416,417,418호","indutype":"학원 - 예·체능계학원","category":"study"},{"name":"고등이현수학보습학원","tel":"032-343-0056","addr":"경기도 부천시 소사본동 244-66번지 동문밀리언상가 211호~214호","indutype":"학원 - 보습학원","category":"study"},{"name":"뉴라임음악학원","tel":"032-351-8829","addr":"경기도 부천시 소사본동 244-66번지 204,205,206호","indutype":"학원 - 예·체능계학원","category":"study"},{"name":"동문밀리언삼성영어보습학원","tel":"032-343-7645","addr":"경기도 부천시 소사본동 244-66번지 동문밀리언상가 3층 310,311,312호","indutype":"학원 - 외국어학원","category":"study"},{"name":"마스터K태권도장","tel":"032-348-0118","addr":"경기도 부천시 소사본동 244-66번지 117~120호","indutype":"학원 - 예·체능계학원","category":"study"},{"name":"명품국어교습소","tel":"032-345-9505","addr":"경기도 부천시 소사본동 244-66번지 315호,316호","indutype":"학원 - 보습학원","category":"study"},{"name":"미술로생각하기부천미술학원","tel":"032-344-3620","addr":"경기도 부천시 소사본동 244-66번지 320~323호","indutype":"학원 - 예·체능계학원","category":"study"},{"name":"생각을키우는독서실","tel":"032-586-0801","addr":"경기도 부천시 소사본동 244-66번지 2층 220호-224호동문밀리언 상가","indutype":"학원 - 독서실","category":"study"},{"name":"셀파우등생동문보습학원","tel":"032-348-3146","addr":"경기도 부천시 소사본동 244-66번지 동문밀리언상가 217-218호","indutype":"학원 - 보습학원","category":"study"},{"name":"솔루니논술교습소","tel":"070-865-4326","addr":"경기도 부천시 소사본동 244-66번지 동문밀리언 상가동 2층 219호","indutype":"학원 - 보습학원","category":"study"},{"name":"에이블잉글리시","tel":"032-349-0525","addr":"경기도 부천시 소사본동 244-66번지 201-203호","indutype":"학원 - 보습학원","category":"study"},{"name":"예꼴아뜰리에미술교습소","tel":"032-346-0096","addr":"경기도 부천시 소사본동 244-66번지 동문밀리언상가 208호","indutype":"회원제형태 - 학원","category":"study"},{"name":"옌클래식실용음악원음악교습소","tel":"032-342-0105","addr":"경기도 부천시 소사본동 244-66번지 동문밀리언상가 207호","indutype":"학원 - 예·체능계학원","category":"study"},{"name":"이현수학보습학원","tel":"032-343-0345","addr":"경기도 부천시 소사본동 244-66번지 411,412호","indutype":"학원 - 보습학원","category":"study"},{"name":"전영미음악학원","tel":"032-341-4562","addr":"경기도 부천시 소사본동 244-66번지 동문빌리어 상가 416호","indutype":"학원 - 예·체능계학원","category":"study"},{"name":"최고해법수학교습소","tel":"032-342-1022","addr":"경기도 부천시 소사본동 244-66번지 동문밀리언상가 209호","indutype":"회원제형태 - 학원","category":"study"}]},{"lat":"37.467793478","long":"126.7979415","imageIndex":16,"items":[{"name":"김태균엘리트(ELITE)수학김성윤영어클리닉","tel":"032-345-9519","addr":"경기도 부천시 소사본동 400-2번지 402호","indutype":"학원 - 보습학원","category":"study"}]},{"lat":"37.46876942","long":"126.79960053","imageIndex":16,"items":[{"name":"꿈꾸는꼬미고래미술교습소","tel":"032-256-0065","addr":"경기도 부천시 소사본동 400-7번지 청구상가 1층 104호","indutype":"학원 - 예·체능계학원","category":"study"}]},{"lat":"37.478065399","long":"126.79313123","imageIndex":16,"items":[{"name":"대호룡체육관","tel":"032-348-2587","addr":"경기도 부천시 소사본동 143-20번지 3층","indutype":"학원 - 예·체능계학원","category":"study"},{"name":"인당신우어학보습학원","tel":"032-345-5878","addr":"경기도 부천시 소사본동 143-20번지 2층","indutype":"학원 - 보습학원","category":"study"}]},{"lat":"37.474959117","long":"126.79951594","imageIndex":16,"items":[{"name":"도깨비 MMA GYM","tel":"032-719-4933","addr":"경기도 부천시 소사본동 197-1번지 뉴코아상가 406,407호","indutype":"학원 - 예·체능계학원","category":"study"}]},{"lat":"37.471238307","long":"126.79451815","imageIndex":16,"items":[{"name":"돌체피아노교습소","tel":"032-348-9355","addr":"경기도 부천시 소사본동 233-1번지 1층 일부","indutype":"학원 - 예·체능계학원","category":"study"}]},{"lat":"37.481150342","long":"126.79513507","imageIndex":16,"items":[{"name":"디딤돌미술학원","tel":"032-663-0040","addr":"경기도 부천시 소사본동 70-17번지 2층","indutype":"학원 - 예·체능계학원","category":"study"},{"name":"주식회사 녹영디자인그룹","tel":"032-000-0000","addr":"경기도 부천시 소사본동 70-17번지 태한빌딩 205호","indutype":"학원 - 기능학원","category":"study"},{"name":"하버드요양보호사교육원","tel":"032-351-3004","addr":"경기도 부천시 소사본동 70-17번지 601호","indutype":"회원제형태 - 학원","category":"study"}]},{"lat":"37.48182303","long":"126.79340338","imageIndex":16,"items":[{"name":"레벨업 에듀(Level Up Edu)","tel":"032-346-8817","addr":"경기도 부천시 소사본동 70-2번지 소사새롬하이빌 301호","indutype":"학원 - 유학원","category":"study"}]},{"lat":"37.48037873","long":"126.79188113","imageIndex":16,"items":[{"name":"레지나학원","tel":"032-345-5152","addr":"경기도 부천시 소사본동 100번지 2층","indutype":"학원 - 예·체능계학원","category":"study"}]},{"lat":"37.472042258","long":"126.79061584","imageIndex":16,"items":[{"name":"명문스포츠","tel":"031-792-8544","addr":"경기도 부천시 소사본동 190-3번지 소라아파트","indutype":"학원 - 기타 교육기관","category":"study"}]},{"lat":"37.467902028","long":"126.79818989","imageIndex":16,"items":[{"name":"명품보습학원","tel":"","addr":"경기도 부천시 소사본동 400-3번지 2층 209-1호","indutype":"학원 - 보습학원","category":"study"},{"name":"소사미래독서실","tel":"032-347-0907","addr":"경기도 부천시 소사본동 400-3번지 동우프라자제401,402,403호","indutype":"학원 - 독서실","category":"study"},{"name":"애니샘 미술학원","tel":"032-346-5008","addr":"경기도 부천시 소사본동 400-3번지 동우프라자 301호","indutype":"학원 - 예·체능계학원","category":"study"},{"name":"영수마스터보습학원","tel":"032-347-7677","addr":"경기도 부천시 소사본동 400-3번지 304호","indutype":"학원 - 보습학원","category":"study"},{"name":"주식회사 짜맞춤","tel":"032-511-7945","addr":"경기도 부천시 소사본동 400-3번지 404호","indutype":"회원제형태 - 학원","category":"study"},{"name":"한우리독서토론논술보습학원","tel":"032-349-6116","addr":"경기도 부천시 소사본동 400-3번지 209호","indutype":"학원 - 보습학원","category":"study"}]},{"lat":"37.467873543","long":"126.8025985","imageIndex":16,"items":[{"name":"미니수학","tel":"070-4141-4416","addr":"경기도 부천시 소사본동 401-3번지 소사주공1단지아파트","indutype":"회원제형태 - 학원","category":"study"}]},{"lat":"37.477122565","long":"126.80013187","imageIndex":16,"items":[{"name":"바하음악학원","tel":"032-341-3323","addr":"경기도 부천시 소사본동 135번지 소사에스케이뷰201,202,203호 상가","indutype":"학원 - 예·체능계학원","category":"study"},{"name":"아이생각연구소","tel":"","addr":"경기도 부천시 소사본동 135번지 소사에스케이뷰아파트","indutype":"학원 - 기타 교육기관","category":"study"}]},{"lat":"37.469655539","long":"126.79621818","imageIndex":16,"items":[{"name":"박현보습학원","tel":"032-342-6313","addr":"경기도 부천시 소사본동 231-23 3,4층","indutype":"학원 - 보습학원","category":"study"}]},{"lat":"37.480349514","long":"126.79066018","imageIndex":16,"items":[{"name":"부천종합사회복지관","tel":"032-349-3100","addr":"경기도 부천시 소사본동 101-141번지","indutype":"학원 - 기타 교육기관","category":"study"}]},{"lat":"37.473761967","long":"126.80552205","imageIndex":16,"items":[{"name":"상상힐링 북앤아트","tel":"","addr":"경기도 부천시 소사본동 407-1번지 소사주공3단지아파트","indutype":"학원 - 기타 교육기관","category":"study"}]},{"lat":"37.472268425","long":"126.80143371","imageIndex":16,"items":[{"name":"새길입시학원","tel":"032-345-0033","addr":"경기도 부천시 소사본동 278-54번지 6층","indutype":"학원 - 보습학원","category":"study"}]},{"lat":"37.478984651","long":"126.79326433","imageIndex":16,"items":[{"name":"색채유아스쿨","tel":"032-349-1073","addr":"경기도 부천시 소사본동 77-32번지","indutype":"학원 - 유치원","category":"study"}]},{"lat":"37.473960635","long":"126.79526802","imageIndex":16,"items":[{"name":"셀파우등생교실직영보습학원","tel":"031-681-3809","addr":"경기도 부천시 소사본동 183-3번지 2층 일부","indutype":"학원 - 보습학원","category":"study"}]},{"lat":"37.476954058","long":"126.79138202","imageIndex":16,"items":[{"name":"셀파우등생소사교실","tel":"031-1661-6268","addr":"경기도 부천시 소사본동 148-57번지","indutype":"학원 - 기타 교육기관","category":"study"}]},{"lat":"37.468960684","long":"126.80079825","imageIndex":16,"items":[{"name":"소사써니해법영어교습소","tel":"032-343-8632","addr":"경기도 부천시 소사본동 400-9번지 402,403호","indutype":"회원제형태 - 학원","category":"study"},{"name":"신포니아음악학원","tel":"032-348-6488","addr":"경기도 부천시 소사본동 400-9번지 3층 301호,302호,303호","indutype":"학원 - 예·체능계학원","category":"study"},{"name":"아띠아트미술학원","tel":"032-351-3517","addr":"경기도 부천시 소사본동 400-9번지 신한은행소사지점 305호","indutype":"학원 - 예·체능계학원","category":"study"},{"name":"올림픽태권도장","tel":"032-351-5687","addr":"경기도 부천시 소사본동 400-9번지 신한은행소사지점 304호","indutype":"학원 - 예·체능계학원","category":"study"},{"name":"진성보습학원","tel":"032-341-0522","addr":"경기도 부천시 소사본동 400-9번지 401호, 404호","indutype":"학원 - 보습학원","category":"study"}]},{"lat":"37.474843289","long":"126.80027369","imageIndex":16,"items":[{"name":"소사왕수학학원","tel":"032-349-1164","addr":"경기도 부천시 소사본동 244-86번지 2층","indutype":"학원 - 기타 교육기관","category":"study"},{"name":"킹스어학원","tel":"032-346-0509","addr":"경기도 부천시 소사본동 244-86번지 301호","indutype":"회원제형태 - 학원","category":"study"}]},{"lat":"37.473183112","long":"126.7989103","imageIndex":16,"items":[{"name":"소사체육관(태권)","tel":"032-348-6123","addr":"경기도 부천시 소사본동 199-20번지 3층","indutype":"학원 - 예·체능계학원","category":"study"}]},{"lat":"37.465123536","long":"126.80144158","imageIndex":16,"items":[{"name":"스카이해법영어보습학원","tel":"","addr":"경기도 부천시 소사본동 401-7번지 108호 107호, 108호","indutype":"학원 - 외국어학원","category":"study"},{"name":"예찬음악학원","tel":"032-342-8111","addr":"경기도 부천시 소사본동 401-7 풍림상가2층201","indutype":"학원 - 예·체능계학원","category":"study"},{"name":"창의력해법수학보습학원","tel":"032-347-0100","addr":"경기도 부천시 소사본동 401-7풍림상가105호","indutype":"학원 - 기타 교육기관","category":"study"},{"name":"창의력해법수학보습학원","tel":"032-347-0100","addr":"경기도 부천시 소사본동 401-7풍림상가203호일부,204-1호,204-2호","indutype":"학원 - 보습학원","category":"study"}]},{"lat":"37.477794057","long":"126.79254411","imageIndex":16,"items":[{"name":"슬기피아노교습소","tel":"032-349-2513","addr":"경기도 부천시 소사본동 144-8번지 1층","indutype":"학원 - 예·체능계학원","category":"study"},{"name":"프라임영재보습학원","tel":"032-212-7909","addr":"경기도 부천시 소사본동 144-8번지 2층","indutype":"학원 - 보습학원","category":"study"}]},{"lat":"37.474321031","long":"126.79526702","imageIndex":16,"items":[{"name":"야석서예학문학원","tel":"032-348-2647","addr":"경기도 부천시 소사본동 181-32번지 2층","indutype":"학원 - 기타 교육기관","category":"study"}]},{"lat":"37.471122352","long":"126.79518543","imageIndex":16,"items":[{"name":"에이플러스공감보습학원","tel":"032-348-6141","addr":"경기도 부천시 소사본동 233-37번지 라온빌딩 3층","indutype":"학원 - 보습학원","category":"study"}]},{"lat":"37.473182252","long":"126.79841289","imageIndex":16,"items":[{"name":"예스(YES)영어교습소","tel":"032-343-2449","addr":"경기도 부천시 소사본동 199번지 2층","indutype":"회원제형태 - 학원","category":"study"}]},{"lat":"37.472957754","long":"126.80413368","imageIndex":16,"items":[{"name":"와이즈만보습학원","tel":"032-349-5597","addr":"경기도 부천시 소사본동 409-4번지 제일프라자 501동 503호","indutype":"학원 - 보습학원","category":"study"},{"name":"토즈스터디센터범박독서실","tel":"032-345-0915","addr":"경기도 부천시 소사본동 409-4번지 제일프라자 4층 401호","indutype":"학원 - 독서실","category":"study"}]},{"lat":"37.479155216","long":"126.79291338","imageIndex":16,"items":[{"name":"용인대황룡태권도장","tel":"032-346-7905","addr":"경기도 부천시 소사본동 115-16번지 3층","indutype":"학원 - 예·체능계학원","category":"study"}]},{"lat":"37.473960492","long":"126.80037781","imageIndex":16,"items":[{"name":"위너스유아체육","tel":"032-5204-9929","addr":"경기도 부천시 소사본동 277-12번지 한신아파트","indutype":"학원 - 기타 교육기관","category":"study"}]},{"lat":"37.472594764","long":"126.79735185","imageIndex":16,"items":[{"name":"으뜸합기도체육관","tel":"032-345-1116","addr":"경기도 부천시 소사본동 201-16번지 3층","indutype":"학원 - 예·체능계학원","category":"study"}]},{"lat":"37.473178773","long":"126.79641196","imageIndex":16,"items":[{"name":"정세리크레용 음악미술학원","tel":"032-347-4588","addr":"경기도 부천시 소사본동 202-30번지 3층","indutype":"학원 - 예·체능계학원","category":"study"},{"name":"정세리크레용 음악미술학원","tel":"032-347-4599","addr":"경기도 부천시 소사본동 202-30번지 1 ,2,3층","indutype":"학원 - 예·체능계학원","category":"study"}]},{"lat":"37.474879038","long":"126.80010402","imageIndex":16,"items":[{"name":"정진한솔보습학원","tel":"032-343-0003","addr":"경기도 부천시 소사본동 197-3번지 4층","indutype":"학원 - 보습학원","category":"study"}]},{"lat":"37.473211388","long":"126.79963372","imageIndex":16,"items":[{"name":"좋은컴퓨터학원","tel":"032-345-0055","addr":"경기도 부천시 소사본동 277-38번지 2층","indutype":"학원 - 컴퓨터학원","category":"study"}]},{"lat":"37.475601232","long":"126.79571569","imageIndex":16,"items":[{"name":"진학독서실","tel":"032-348-7273","addr":"경기도 부천시 소사본동 160-29번지 5층","indutype":"학원 - 독서실","category":"study"}]},{"lat":"37.47092873","long":"126.80307644","imageIndex":16,"items":[{"name":"팝 잉글리쉬","tel":"","addr":"경기도 부천시 소사본동 411-1번지 소사주공뜨란채4단지아파트","indutype":"학원 - 보습학원","category":"study"}]},{"lat":"37.474538102","long":"126.79574123","imageIndex":16,"items":[{"name":"하늘땅어학원","tel":"032-347-0620","addr":"경기도 부천시 소사본동 184-6번지 2층 201호","indutype":"회원제형태 - 학원","category":"study"}]},{"lat":"37.476343362","long":"126.79249165","imageIndex":16,"items":[{"name":"한양대 왕호 태권도장","tel":"032-349-0657","addr":"경기도 부천시 소사본동 149-37번지 3층","indutype":"학원 - 예·체능계학원","category":"study"}]},{"lat":"37.471213523","long":"126.79579562","imageIndex":16,"items":[{"name":"합기도 체육관","tel":"032-342-0119","addr":"경기도 부천시 소사본동 230번지 2층","indutype":"학원 - 예·체능계학원","category":"study"}]},{"lat":"37.473179877","long":"126.79704502","imageIndex":16,"items":[{"name":"허브음악교습소","tel":"032-345-2415","addr":"경기도 부천시 소사본동 201-1번지 1층","indutype":"학원 - 예·체능계학원","category":"study"}]}]