[{"lat":"37.4319414","long":"127.2085946","imageIndex":4,"items":[{"name":"Grazie (그라찌에)","tel":"031-762-8795","addr":"경기도 광주시 목현동 393-5번지 1층","indutype":"일반휴게음식 - 서양음식","category":"restaurant"},{"name":"그리니쉬커피(greenish coffee)","tel":"031-767-5290","addr":"경기도 광주시 목현동 393-5번지 가동 102호","indutype":"일반휴게음식 - 서양음식","category":"restaurant"},{"name":"모개미와베짱이호프","tel":"031-111-1111","addr":"경기도 광주시 목현동 393-5번지 1층","indutype":"일반휴게음식 - 일반한식","category":"restaurant"}]},{"lat":"37.43502607","long":"127.2169191","imageIndex":4,"items":[{"name":"감격시대","tel":"031-763-4225","addr":"경기도 광주시 목현동 267번지","indutype":"일반휴게음식 - 중국식","category":"restaurant"}]},{"lat":"37.43205684","long":"127.2095666","imageIndex":4,"items":[{"name":"강창구찹쌀진순대(광주목현점)","tel":"031-762-2280","addr":"경기도 광주시 목현동 365번지","indutype":"일반휴게음식 - 일반한식","category":"restaurant"},{"name":"안의종가집","tel":"031-765-0942","addr":"경기도 광주시 목현동 365번지","indutype":"일반휴게음식 - 일반한식","category":"restaurant"}]},{"lat":"37.43444177","long":"127.2161717","imageIndex":4,"items":[{"name":"고갈쭈","tel":"031-761-0077","addr":"경기도 광주시 목현동 262-1번지 1층","indutype":"일반휴게음식 - 일반한식","category":"restaurant"}]},{"lat":"37.43489156","long":"127.2310312","imageIndex":4,"items":[{"name":"광주골","tel":"031-763-5030","addr":"경기도 광주시 목현동 63-2번지","indutype":"일반휴게음식 - 일반한식","category":"restaurant"}]},{"lat":"37.4349672","long":"127.2291784","imageIndex":4,"items":[{"name":"광주황제닭갈비","tel":"031-767-1412","addr":"경기도 광주시 목현동 142번지","indutype":"일반휴게음식 - 일반한식","category":"restaurant"},{"name":"전설의치킨(목현점)","tel":"","addr":"경기도 광주시 목현동 142번지 A동 1층","indutype":"일반휴게음식 - 스넥","category":"restaurant"}]},{"lat":"37.43163429","long":"127.2090344","imageIndex":4,"items":[{"name":"금촌농장오리","tel":"031-761-6906","addr":"경기도 광주시 목현동 362번지 363호","indutype":"일반휴게음식 - 일반한식","category":"restaurant"}]},{"lat":"37.43474528","long":"127.2177318","imageIndex":4,"items":[{"name":"길식당","tel":"031-797-1289","addr":"경기도 광주시 목현동 269번지","indutype":"일반휴게음식 - 일반한식","category":"restaurant"}]},{"lat":"37.43485837","long":"127.2199468","imageIndex":4,"items":[{"name":"김동희동태탕","tel":"031-762-7628","addr":"경기도 광주시 목현동 271-73번지 102,103호","indutype":"일반휴게음식 - 일반한식","category":"restaurant"}]},{"lat":"37.42972637","long":"127.2368905","imageIndex":4,"items":[{"name":"김정수소머리국밥","tel":"031-769-4257","addr":"경기도 광주시 목현동 7번지","indutype":"일반휴게음식 - 일반한식","category":"restaurant"}]},{"lat":"37.43132978","long":"127.2079828","imageIndex":4,"items":[{"name":"깐치포차","tel":"031-769-7999","addr":"경기도 광주시 목현동 360-2번지 1층","indutype":"일반휴게음식 - 주점","category":"restaurant"}]},{"lat":"37.43363954","long":"127.211311","imageIndex":4,"items":[{"name":"너와집백합샤브","tel":"031-763-0116","addr":"경기도 광주시 목현동 421번지 1층","indutype":"일반휴게음식 - 일반한식","category":"restaurant"},{"name":"한우농장","tel":"031-767-0911","addr":"경기도 광주시 목현동 421번지","indutype":"일반휴게음식 - 일반한식","category":"restaurant"}]},{"lat":"37.42788745","long":"127.2232821","imageIndex":4,"items":[{"name":"대성가든","tel":"031-765-7558","addr":"경기도 광주시 목현동 232번지","indutype":"일반휴게음식 - 일반한식","category":"restaurant"}]},{"lat":"37.43408361","long":"127.2149278","imageIndex":4,"items":[{"name":"더찜닭","tel":"031-8028-0081","addr":"경기도 광주시 목현동 262-10번지 신우빌딩","indutype":"일반휴게음식 - 일반한식","category":"restaurant"},{"name":"목현각","tel":"031-767-1220","addr":"경기도 광주시 목현동 262-10번지 신우빌딩 1층","indutype":"일반휴게음식 - 중국식","category":"restaurant"},{"name":"카페마마","tel":"031-765-0073","addr":"경기도 광주시 목현동 262-10번지 신우빌딩 102호","indutype":"일반휴게음식 - 서양음식","category":"restaurant"}]},{"lat":"37.42991683","long":"127.2362584","imageIndex":4,"items":[{"name":"돌집","tel":"031-765-9292","addr":"경기도 광주시 목현동 18-1번지","indutype":"일반휴게음식 - 일반한식","category":"restaurant"},{"name":"춘향고을남원추어탕","tel":"031-761-2240","addr":"경기도 광주시 목현동 18-1번지","indutype":"일반휴게음식 - 일반한식","category":"restaurant"}]},{"lat":"37.43441912","long":"127.2137311","imageIndex":4,"items":[{"name":"동강민물매운탕","tel":"031-767-3676","addr":"경기도 광주시 목현동 259-2번지","indutype":"일반휴게음식 - 일반한식","category":"restaurant"}]},{"lat":"37.43185915","long":"127.209261","imageIndex":4,"items":[{"name":"동이상황버섯삼계탕","tel":"031-762-3118","addr":"경기도 광주시 목현동 364번지","indutype":"일반휴게음식 - 일반한식","category":"restaurant"}]},{"lat":"37.42877712","long":"127.2385032","imageIndex":4,"items":[{"name":"또래오래 목현점","tel":"031-768-4253","addr":"경기도 광주시 목현동 11-2번지 1층","indutype":"일반휴게음식 - 주점","category":"restaurant"}]},{"lat":"37.43483502","long":"127.2323078","imageIndex":4,"items":[{"name":"또바기순대국","tel":"031-766-0808","addr":"경기도 광주시 목현동 58-9번지 1층 101호","indutype":"일반휴게음식 - 일반한식","category":"restaurant"}]},{"lat":"37.43578092","long":"127.2277006","imageIndex":4,"items":[{"name":"라마르키친","tel":"070-8286-2643","addr":"경기도 광주시 목현동 118-2번지","indutype":"일반휴게음식 - 서양음식","category":"restaurant"}]},{"lat":"37.43221971","long":"127.2091716","imageIndex":4,"items":[{"name":"마루커피","tel":"031-111-1111","addr":"경기도 광주시 목현동 393-2번지","indutype":"일반휴게음식 - 서양음식","category":"restaurant"},{"name":"소문난솥뚜껑삼겹살","tel":"031-767-5378","addr":"경기도 광주시 목현동 393-2번지","indutype":"일반휴게음식 - 일반한식","category":"restaurant"}]},{"lat":"37.43569791","long":"127.228706","imageIndex":4,"items":[{"name":"메밀촌","tel":"031-798-5335","addr":"경기도 광주시 목현동 113번지","indutype":"일반휴게음식 - 일반한식","category":"restaurant"},{"name":"지안이네밥상","tel":"031-767-3095","addr":"경기도 광주시 목현동 113번지 1층","indutype":"일반휴게음식 - 일반한식","category":"restaurant"}]},{"lat":"37.43427579","long":"127.2326224","imageIndex":4,"items":[{"name":"명물옹심이메밀칼국수","tel":"031-763-7985","addr":"경기도 광주시 목현동 53-10번지","indutype":"일반휴게음식 - 일반한식","category":"restaurant"}]},{"lat":"37.43352318","long":"127.21087","imageIndex":4,"items":[{"name":"모개미가정식뷔페","tel":"031-762-3046","addr":"경기도 광주시 목현동 419-1번지 1층 3호 4호","indutype":"일반휴게음식 - 일반한식","category":"restaurant"},{"name":"히바치","tel":"031-787-0067","addr":"경기도 광주시 목현동 419-1번지 5,6호","indutype":"일반휴게음식 - 일반한식","category":"restaurant"}]},{"lat":"37.43363776","long":"127.2123166","imageIndex":4,"items":[{"name":"목현각","tel":"031-767-1221","addr":"경기도 광주시 목현동 427번지","indutype":"일반휴게음식 - 중국식","category":"restaurant"}]},{"lat":"37.43333246","long":"127.2117282","imageIndex":4,"items":[{"name":"목현호프","tel":"031-766-6828","addr":"경기도 광주시 목현동 421-2번지 2동 1층","indutype":"일반휴게음식 - 주점","category":"restaurant"},{"name":"유주희손만두국","tel":"031-768-8001","addr":"경기도 광주시 목현동 421-2번지","indutype":"일반휴게음식 - 일반한식","category":"restaurant"}]},{"lat":"37.43530077","long":"127.2194509","imageIndex":4,"items":[{"name":"몰리노커피","tel":"070-7579-4698","addr":"경기도 광주시 목현동 246-11번지 1층","indutype":"일반휴게음식 - 서양음식","category":"restaurant"},{"name":"이배재왕족발보쌈","tel":"031-798-0066","addr":"경기도 광주시 목현동 246-11번지 2층","indutype":"일반휴게음식 - 일반한식","category":"restaurant"},{"name":"이배재왕족발보쌈","tel":"031-765-9960","addr":"경기도 광주시 목현동 246-11번지 2층","indutype":"일반휴게음식 - 일반한식","category":"restaurant"}]},{"lat":"37.43527603","long":"127.2181966","imageIndex":4,"items":[{"name":"무교동낙지낙지","tel":"02-442-8427","addr":"경기도 광주시 목현동 246-7번지","indutype":"일반휴게음식 - 일반한식","category":"restaurant"},{"name":"예가낙지마을","tel":"031-797-8892","addr":"경기도 광주시 목현동 246-7번지","indutype":"일반휴게음식 - 일반한식","category":"restaurant"}]},{"lat":"37.43516394","long":"127.2299473","imageIndex":4,"items":[{"name":"무한리필소고기무쏘광주이배점","tel":"070-4649-1101","addr":"경기도 광주시 목현동 64-2번지 A동 1층","indutype":"일반휴게음식 - 일반한식","category":"restaurant"}]},{"lat":"37.43217055","long":"127.235644","imageIndex":4,"items":[{"name":"미엔 차이홍","tel":"031-761-1782","addr":"경기도 광주시 목현동 39-7번지 1층","indutype":"일반휴게음식 - 중국식","category":"restaurant"},{"name":"해성한식부페","tel":"031-797-7705","addr":"경기도 광주시 목현동 39-7번지","indutype":"일반휴게음식 - 일반한식","category":"restaurant"}]},{"lat":"37.43519558","long":"127.2178461","imageIndex":4,"items":[{"name":"밀토랑바지락칼국수","tel":"031-767-4363","addr":"경기도 광주시 목현동 246-8번지","indutype":"일반휴게음식 - 일반한식","category":"restaurant"}]},{"lat":"37.43547262","long":"127.2287279","imageIndex":4,"items":[{"name":"바지락부추칼국수","tel":"031-766-8005","addr":"경기도 광주시 목현동 111번지","indutype":"일반휴게음식 - 일반한식","category":"restaurant"}]},{"lat":"37.43289228","long":"127.2351717","imageIndex":4,"items":[{"name":"박가네보쌈막국수","tel":"031-765-3323","addr":"경기도 광주시 목현동 40-3번지 1층","indutype":"일반휴게음식 - 일반한식","category":"restaurant"}]},{"lat":"37.43436356","long":"127.2145671","imageIndex":4,"items":[{"name":"브로 닭발 떡볶이","tel":"031-766-8259","addr":"경기도 광주시 목현동 260-8번지 지하1층","indutype":"일반휴게음식 - 일반한식","category":"restaurant"}]},{"lat":"37.42736285","long":"127.2243652","imageIndex":4,"items":[{"name":"산하래","tel":"031-767-5377","addr":"경기도 광주시 목현동 202-1번지","indutype":"일반휴게음식 - 일반한식","category":"restaurant"}]},{"lat":"37.43525239","long":"127.2212586","imageIndex":4,"items":[{"name":"성진식당","tel":"031-762-1782","addr":"경기도 광주시 목현동 247번지","indutype":"일반휴게음식 - 일반한식","category":"restaurant"}]},{"lat":"37.43119655","long":"127.2068752","imageIndex":4,"items":[{"name":"소복국수","tel":"031-000-0000","addr":"경기도 광주시 목현동 731번지","indutype":"일반휴게음식 - 일반한식","category":"restaurant"}]},{"lat":"37.43266807","long":"127.2103931","imageIndex":4,"items":[{"name":"쉼터","tel":"031-765-8945","addr":"경기도 광주시 목현동 391번지","indutype":"일반휴게음식 - 일반한식","category":"restaurant"}]},{"lat":"37.43511427","long":"127.2228627","imageIndex":4,"items":[{"name":"스시해미","tel":"031-767-8098","addr":"경기도 광주시 목현동 243번지 101호","indutype":"일반휴게음식 - 일식·회집","category":"restaurant"},{"name":"우리밀칼제비집","tel":"031-761-4215","addr":"경기도 광주시 목현동 243번지 1층","indutype":"일반휴게음식 - 일반한식","category":"restaurant"}]},{"lat":"37.43113695","long":"127.2100612","imageIndex":4,"items":[{"name":"신토불이","tel":"031-797-5282","addr":"경기도 광주시 목현동 332번지","indutype":"일반휴게음식 - 일반한식","category":"restaurant"}]},{"lat":"37.4318885","long":"127.2079279","imageIndex":4,"items":[{"name":"엄마손칼국수","tel":"031-765-9200","addr":"경기도 광주시 목현동 706번지 해피하우스","indutype":"일반휴게음식 - 일반한식","category":"restaurant"}]},{"lat":"37.43477854","long":"127.2192573","imageIndex":4,"items":[{"name":"엔젤앤아이","tel":"031-766-1748","addr":"경기도 광주시 목현동 271-59번지","indutype":"일반휴게음식 - 일반한식","category":"restaurant"}]},{"lat":"37.43377637","long":"127.2154241","imageIndex":4,"items":[{"name":"오센쌈밥보리밥","tel":"031-768-6555","addr":"경기도 광주시 목현동 280-1번지","indutype":"일반휴게음식 - 일반한식","category":"restaurant"}]},{"lat":"37.43160962","long":"127.2076785","imageIndex":4,"items":[{"name":"옹골진 나주곰탕","tel":"031-762-8812","addr":"경기도 광주시 목현동 707번지","indutype":"일반휴게음식 - 일반한식","category":"restaurant"}]},{"lat":"37.43486422","long":"127.2264776","imageIndex":4,"items":[{"name":"완도집","tel":"031-761-4166","addr":"경기도 광주시 목현동 136-3번지","indutype":"일반휴게음식 - 일반한식","category":"restaurant"}]},{"lat":"37.43464241","long":"127.2246465","imageIndex":4,"items":[{"name":"왕사성","tel":"031-765-2609","addr":"경기도 광주시 목현동 240-4번지 1층","indutype":"일반휴게음식 - 일반한식","category":"restaurant"}]},{"lat":"37.43507803","long":"127.227755","imageIndex":4,"items":[{"name":"육대장","tel":"031-797-6678","addr":"경기도 광주시 목현동 139번지","indutype":"일반휴게음식 - 일반한식","category":"restaurant"}]},{"lat":"37.43183401","long":"127.2081763","imageIndex":4,"items":[{"name":"윤화돈까스","tel":"031-761-9588","addr":"경기도 광주시 목현동 396번지 1층","indutype":"일반휴게음식 - 서양음식","category":"restaurant"}]},{"lat":"37.43380355","long":"127.2345305","imageIndex":4,"items":[{"name":"이가네","tel":"031-798-0010","addr":"경기도 광주시 목현동 40-2번지 1층","indutype":"일반휴게음식 - 일반한식","category":"restaurant"}]},{"lat":"37.43530675","long":"127.2259253","imageIndex":4,"items":[{"name":"이디야 목현점","tel":"031-762-6242","addr":"경기도 광주시 목현동 133-6번지 로얄팰리스 101동 G동 1층","indutype":"일반휴게음식 - 서양음식","category":"restaurant"}]},{"lat":"37.43180664","long":"127.2083683","imageIndex":4,"items":[{"name":"이배재감자탕","tel":"031-761-4629","addr":"경기도 광주시 목현동 395번지","indutype":"일반휴게음식 - 일반한식","category":"restaurant"}]},{"lat":"37.43194691","long":"127.2105945","imageIndex":4,"items":[{"name":"이배재장어","tel":"031-765-3451","addr":"경기도 광주시 목현동 371번지","indutype":"일반휴게음식 - 일반한식","category":"restaurant"}]},{"lat":"37.43530254","long":"127.2184792","imageIndex":4,"items":[{"name":"이화수 목현점","tel":"031-797-0521","addr":"경기도 광주시 목현동 246-9번지 초암빌딩 1층","indutype":"일반휴게음식 - 일반한식","category":"restaurant"}]},{"lat":"37.43174664","long":"127.2358687","imageIndex":4,"items":[{"name":"임실치즈피자","tel":"031-762-1223","addr":"경기도 광주시 목현동 39-1번지","indutype":"일반휴게음식 - 서양음식","category":"restaurant"}]},{"lat":"37.43502876","long":"127.2252239","imageIndex":4,"items":[{"name":"전주가든","tel":"031-767-0605","addr":"경기도 광주시 목현동 134-6번지","indutype":"일반휴게음식 - 일반한식","category":"restaurant"}]},{"lat":"37.43335824","long":"127.2072878","imageIndex":4,"items":[{"name":"제이원전주콩나물","tel":"031-769-4047","addr":"경기도 광주시 목현동 697번지","indutype":"일반휴게음식 - 일반한식","category":"restaurant"}]},{"lat":"37.43438494","long":"127.2320917","imageIndex":4,"items":[{"name":"주식회사이배재제빵소","tel":"031-768-0202","addr":"경기도 광주시 목현동 53-2번지","indutype":"일반휴게음식 - 서양음식","category":"restaurant"}]},{"lat":"37.43133391","long":"127.2055876","imageIndex":4,"items":[{"name":"주식회사해와달","tel":"031-798-8838","addr":"경기도 광주시 목현동 726번지 1층","indutype":"일반휴게음식 - 일반한식","category":"restaurant"}]},{"lat":"37.43493917","long":"127.2249525","imageIndex":4,"items":[{"name":"주씨메이트(Juicy Mate)","tel":"031-765-7167","addr":"경기도 광주시 목현동 134-5번지","indutype":"일반휴게음식 - 서양음식","category":"restaurant"}]},{"lat":"37.42874754","long":"127.2397798","imageIndex":4,"items":[{"name":"주원정육식당","tel":"031-766-1570","addr":"경기도 광주시 목현동 1-4번지 1층","indutype":"일반휴게음식 - 일반한식","category":"restaurant"}]},{"lat":"37.42871989","long":"127.2400848","imageIndex":4,"items":[{"name":"참조은보신탕","tel":"031-766-8843","addr":"경기도 광주시 목현동 1-6번지","indutype":"일반휴게음식 - 일반한식","category":"restaurant"}]},{"lat":"37.43321798","long":"127.2102251","imageIndex":4,"items":[{"name":"천서리막국수","tel":"031-797-1042","addr":"경기도 광주시 목현동 417번지","indutype":"일반휴게음식 - 일반한식","category":"restaurant"}]},{"lat":"37.43291991","long":"127.2106424","imageIndex":4,"items":[{"name":"철원양평해장국","tel":"031-761-9678","addr":"경기도 광주시 목현동 418-7번지","indutype":"일반휴게음식 - 일반한식","category":"restaurant"}]},{"lat":"37.42924564","long":"127.2385047","imageIndex":4,"items":[{"name":"청계콩나물국밥","tel":"031-762-4074","addr":"경기도 광주시 목현동 3-2번지","indutype":"일반휴게음식 - 일반한식","category":"restaurant"}]},{"lat":"37.43541802","long":"127.2290102","imageIndex":4,"items":[{"name":"청담추어정","tel":"031-762-4770","addr":"경기도 광주시 목현동 108-2번지 ,1-2층","indutype":"일반휴게음식 - 일반한식","category":"restaurant"},{"name":"청주본가","tel":"031-762-4770","addr":"경기도 광주시 목현동 108-2번지 ,1-2층","indutype":"일반휴게음식 - 일반한식","category":"restaurant"}]},{"lat":"37.43880542","long":"127.2292012","imageIndex":4,"items":[{"name":"카페새오개길39","tel":"031-766-9707","addr":"경기도 광주시 목현동 91번지 1층","indutype":"일반휴게음식 - 서양음식","category":"restaurant"},{"name":"한옥마을","tel":"031-766-9677","addr":"경기도 광주시 목현동 91번지","indutype":"일반휴게음식 - 일반한식","category":"restaurant"}]},{"lat":"37.43236244","long":"127.2099855","imageIndex":4,"items":[{"name":"탕전문광주리","tel":"031-766-6321","addr":"경기도 광주시 목현동 392번지","indutype":"일반휴게음식 - 일반한식","category":"restaurant"}]},{"lat":"37.4349736","long":"127.2305343","imageIndex":4,"items":[{"name":"포카페","tel":"031-764-9821","addr":"경기도 광주시 목현동 63-3번지","indutype":"일반휴게음식 - 서양음식","category":"restaurant"}]},{"lat":"37.43313408","long":"127.211818","imageIndex":4,"items":[{"name":"풍천술장어","tel":"031-798-1265","addr":"경기도 광주시 목현동 385번지 1층","indutype":"일반휴게음식 - 일반한식","category":"restaurant"}]},{"lat":"37.43514205","long":"127.222456","imageIndex":4,"items":[{"name":"해담촌","tel":"031-761-9626","addr":"경기도 광주시 목현동 249-3번지 1층","indutype":"일반휴게음식 - 일반한식","category":"restaurant"}]},{"lat":"37.42986184","long":"127.2367328","imageIndex":4,"items":[{"name":"해물왕국","tel":"031-761-8977","addr":"경기도 광주시 목현동 6-5번지","indutype":"일반휴게음식 - 일반한식","category":"restaurant"}]},{"lat":"37.43480481","long":"127.2196754","imageIndex":4,"items":[{"name":"행복한 밥상","tel":"031-764-3792","addr":"경기도 광주시 목현동 271-63번지","indutype":"일반휴게음식 - 일반한식","category":"restaurant"}]},{"lat":"37.43324618","long":"127.214643","imageIndex":4,"items":[{"name":"형제가든","tel":"031-766-0055","addr":"경기도 광주시 목현동 283번지","indutype":"일반휴게음식 - 일반한식","category":"restaurant"}]},{"lat":"37.43247016","long":"127.2344812","imageIndex":4,"items":[{"name":"홍고집","tel":"031-762-6119","addr":"경기도 광주시 목현동 41번지","indutype":"일반휴게음식 - 일반한식","category":"restaurant"}]},{"lat":"37.43527312","long":"127.2197898","imageIndex":4,"items":[{"name":"홍두깨칼국수전문점","tel":"031-766-9907","addr":"경기도 광주시 목현동 246번지","indutype":"일반휴게음식 - 일반한식","category":"restaurant"}]},{"lat":"37.43135634","long":"127.2082541","imageIndex":4,"items":[{"name":"홍익화로구이","tel":"031-764-8388","addr":"경기도 광주시 목현동 360번지","indutype":"일반휴게음식 - 일반한식","category":"restaurant"}]},{"lat":"37.43513439","long":"127.2217328","imageIndex":4,"items":[{"name":"황금알","tel":"031-765-5758","addr":"경기도 광주시 목현동 247-3번지","indutype":"일반휴게음식 - 일반한식","category":"restaurant"}]},{"lat":"37.43530702","long":"127.2209537","imageIndex":4,"items":[{"name":"휘영청","tel":"031-762-0705","addr":"경기도 광주시 목현동 247-6번지","indutype":"일반휴게음식 - 일반한식","category":"restaurant"}]}]