[{"lat":"37.275391512","long":"127.09159458","imageIndex":7,"items":[{"name":"경남슈퍼","tel":"031-282-1312","addr":"경기도 용인시 기흥구 영덕동 1117번지 흥덕마을13단지경남아너스빌 105호","indutype":"유통업 영리 - 슈퍼마켓","category":"mart"},{"name":"고객마트","tel":"031-215-4554","addr":"경기도 용인시 기흥구 영덕동 1117번지 흥덕마을13단지경남아너스빌","indutype":"유통업 영리 - 슈퍼마켓","category":"mart"}]},{"lat":"37.274764093","long":"127.07327194","imageIndex":7,"items":[{"name":"농민마트 흥덕점","tel":"031-213-3305","addr":"경기도 용인시 기흥구 영덕동 986-10번지 104~107호","indutype":"유통업 영리 - 슈퍼마켓","category":"mart"}]},{"lat":"37.275126638","long":"127.06958533","imageIndex":7,"items":[{"name":"두배로행복마트","tel":"031-214-8245","addr":"경기도 용인시 기흥구 영덕동 980번지 휴먼시아흥덕마을제나상가동 101호","indutype":"유통업 영리 - 슈퍼마켓","category":"mart"},{"name":"주공마트","tel":"031-212-2150","addr":"경기도 용인시 기흥구 영덕동 980 휴먼시아나상가 102","indutype":"유통업 영리 - 슈퍼마켓","category":"mart"}]},{"lat":"37.270848663","long":"127.06610903","imageIndex":7,"items":[{"name":"와우","tel":"031-660-7179","addr":"경기도 용인시 기흥구 영덕동 1005번지 컴플렉스동 흥덕IT밸리 1층 비0119호","indutype":"유통업 영리 - 슈퍼마켓","category":"mart"}]},{"lat":"37.277068726","long":"127.07655522","imageIndex":7,"items":[{"name":"우리마트","tel":"031-211-0320","addr":"경기도 용인시 기흥구 영덕동 963번지 흥덕마을9단지이던하우스상가제비동106호","indutype":"유통업 영리 - 슈퍼마켓","category":"mart"}]},{"lat":"37.266298228","long":"127.09410924","imageIndex":7,"items":[{"name":"주식회사 길성주택","tel":"031-282-2211","addr":"경기도 용인시 기흥구 영덕동 20-8번지 지하1층,3층","indutype":"유통업 영리 - 슈퍼마켓","category":"mart"}]},{"lat":"37.275747061","long":"127.07182963","imageIndex":7,"items":[{"name":"주식회사 남문마트","tel":"031-216-6166","addr":"경기도 용인시 기흥구 영덕동 985-1번지 이씨티 비동 104,105,106호","indutype":"유통업 영리 - 슈퍼마켓","category":"mart"}]},{"lat":"37.273790633","long":"127.07385733","imageIndex":7,"items":[{"name":"쿱스토어경기동남부 흥덕점","tel":"031-1548-2429","addr":"경기도 용인시 기흥구 영덕동 989-9번지 1층","indutype":"유통업 영리 - 슈퍼마켓","category":"mart"}]},{"lat":"37.265514507","long":"127.09388282","imageIndex":7,"items":[{"name":"태영마트","tel":"031-275-4651","addr":"경기도 용인시 기흥구 영덕동 947번지 청현마을태영데시앙아파트 상가 101호","indutype":"유통업 영리 - 슈퍼마켓","category":"mart"}]},{"lat":"37.2772509","long":"127.07331936","imageIndex":7,"items":[{"name":"휴가가는날","tel":"031-211-1180","addr":"경기도 용인시 기흥구 영덕동 974-10번지 흥덕U프라자 111호","indutype":"유통업 영리 - 슈퍼마켓","category":"mart"}]},{"lat":"37.273097273","long":"127.07313509","imageIndex":7,"items":[{"name":"흥덕할인마트","tel":"031-213-4860","addr":"경기도 용인시 기흥구 영덕동 1000-2번지 101호","indutype":"유통업 영리 - 슈퍼마켓","category":"mart"}]}]