[{"lat":"37.588817095","long":"127.17180946","imageIndex":0,"items":[{"name":"BnM모터스","tel":"031-565-3004","addr":"경기도 남양주시 수석동 214-3번지 2층","indutype":"자동차정비 유지 - 카인테리어","category":"car"}]},{"lat":"37.589369413","long":"127.16989724","imageIndex":0,"items":[{"name":"마스터테크","tel":"031-556-9651","addr":"경기도 남양주시 수석동 349-3번지 102호","indutype":"자동차판매 - 이륜차판매","category":"car"},{"name":"에이치.엠(H.M)","tel":"031-556-1091","addr":"경기도 남양주시 수석동 349-3번지","indutype":"자동차판매 - 이륜차판매","category":"car"}]},{"lat":"37.596977277","long":"127.17978828","imageIndex":0,"items":[{"name":"성원특장","tel":"031-555-8181","addr":"경기도 남양주시 수석동 1080-1번지","indutype":"자동차정비 유지 - 자동차정비","category":"car"}]},{"lat":"37.586810514","long":"127.16998209","imageIndex":0,"items":[{"name":"스마트전자(토평점)","tel":"031-563-5585","addr":"경기도 남양주시 수석동 369번지 1층 층","indutype":"자동차정비 유지 - 자동차부품","category":"car"}]},{"lat":"37.586676593","long":"127.17539366","imageIndex":0,"items":[{"name":"승진디젤","tel":"031-569-9295","addr":"경기도 남양주시 수석동 133-2번지","indutype":"자동차정비 유지 - 자동차정비","category":"car"}]},{"lat":"37.588757022","long":"127.16970339","imageIndex":0,"items":[{"name":"에이피에스","tel":"070-7720-1912","addr":"경기도 남양주시 수석동 347번지 1층 창고","indutype":"자동차정비 유지 - 자동차정비","category":"car"}]},{"lat":"37.591310012","long":"127.17986545","imageIndex":0,"items":[{"name":"제이파킹(J-Parking)","tel":"","addr":"경기도 남양주시 수석동 110번지","indutype":"자동차정비 유지 - 주차장","category":"car"}]},{"lat":"37.590063757","long":"127.16947986","imageIndex":0,"items":[{"name":"청송차바닥","tel":"031-557-6679","addr":"경기도 남양주시 수석동 350-5","indutype":"자동차정비 유지 - 자동차정비","category":"car"}]},{"lat":"37.588593515","long":"127.17064277","imageIndex":0,"items":[{"name":"칭송카네비","tel":"031-556-6679","addr":"경기도 남양주시 수석동 211번지","indutype":"자동차정비 유지 - 자동차시트·타이어","category":"car"}]},{"lat":"37.589621526","long":"127.17001102","imageIndex":0,"items":[{"name":"태성서비스","tel":"031-554-6868","addr":"경기도 남양주시 수석동 349-7번지 101호","indutype":"자동차정비 유지 - 자동차부품","category":"car"}]}]