[{"lat":"37.804809165","long":"127.08195893","imageIndex":0,"items":[{"name":"고읍카공업사","tel":"031-858-8207","addr":"경기도 양주시 고읍동 58-1번지","indutype":"자동차정비 유지 - 자동차부품","category":"car"}]},{"lat":"37.801336175","long":"127.07467695","imageIndex":0,"items":[{"name":"귀복자동차","tel":"031-845-8118","addr":"경기도 양주시 고읍동 129-1번지","indutype":"자동차정비 유지 - 자동차정비","category":"car"},{"name":"피트 인(PIT-in)","tel":"","addr":"경기도 양주시 고읍동 129-1번지","indutype":"자동차정비 유지 - 자동차부품","category":"car"}]},{"lat":"37.800426755","long":"127.07379042","imageIndex":0,"items":[{"name":"모빌리언","tel":"031-846-7476","addr":"경기도 양주시 고읍동 435-18번지 지하1층","indutype":"자동차정비 유지 - 카인테리어","category":"car"}]},{"lat":"37.80148226","long":"127.07142967","imageIndex":0,"items":[{"name":"스팀파워 양주점(하나로 클럽)","tel":"031-841-4742","addr":"경기도 양주시 고읍동 산60번지 옥상주차장내 스팀 세차장","indutype":"자동차정비 유지 - 세차장","category":"car"}]},{"lat":"37.806619228","long":"127.0831986","imageIndex":0,"items":[{"name":"신성타이어","tel":"031-847-1791","addr":"경기도 양주시 고읍동 36-1번지","indutype":"자동차정비 유지 - 자동차시트·타이어","category":"car"}]},{"lat":"37.803669763","long":"127.07445211","imageIndex":0,"items":[{"name":"양주지프","tel":"031-846-6641","addr":"경기도 양주시 고읍동 421","indutype":"자동차정비 유지 - 자동차부품","category":"car"}]},{"lat":"37.802785063","long":"127.07731266","imageIndex":0,"items":[{"name":"주식회사 타이어코치 고읍","tel":"070-0000-0000","addr":"경기도 양주시 고읍동 118번지 1층","indutype":"자동차정비 유지 - 자동차시트·타이어","category":"car"}]},{"lat":"37.803812527","long":"127.07670053","imageIndex":0,"items":[{"name":"카트레이닝(Car training)","tel":"","addr":"경기도 양주시 고읍동 144-1번지 1층","indutype":"자동차정비 유지 - 세차장","category":"car"}]},{"lat":"37.803619281","long":"127.08290012","imageIndex":0,"items":[{"name":"티스테이션양주고읍점","tel":"031-848-8048","addr":"경기도 양주시 고읍동 69-1번지","indutype":"자동차정비 유지 - 자동차시트·타이어","category":"car"}]},{"lat":"37.80397849","long":"127.07037596","imageIndex":0,"items":[{"name":"한유상사","tel":"031-874-3097","addr":"경기도 양주시 고읍동 403번지 C동","indutype":"자동차정비 유지 - 자동차부품","category":"car"}]}]