[{"lat":"37.15453595","long":"127.17351775","imageIndex":4,"items":[{"name":"(주) 레드컴업 (생활맥주한숲시티점)","tel":"031-333-0344","addr":"경기도 용인시 처인구 남사면 완장리 954번지 e편한세상 용인 한숲시티 1층 109,110호(6블록)","indutype":"일반휴게음식 - 주점","category":"restaurant"},{"name":"백채김치찌개","tel":"031-323-0523","addr":"경기도 용인시 처인구 남사면 완장리 954번지 e편한세상용인한숲시티 106호","indutype":"일반휴게음식 - 일반한식","category":"restaurant"},{"name":"비비큐(b.b.q)용인남사점","tel":"031-335-8292","addr":"경기도 용인시 처인구 남사면 완장리 954번지 e편한세상용인한숲시티 상가동 1층 103호","indutype":"일반휴게음식 - 스넥","category":"restaurant"},{"name":"죽이야기(한숲시티점)","tel":"031-333-6288","addr":"경기도 용인시 처인구 남사면 완장리 954번지 e편한세상용인한숲시티 6단지 상가 1층 128호","indutype":"일반휴게음식 - 일반한식","category":"restaurant"},{"name":"청년다방 용인한숲점","tel":"070-7543-8542","addr":"경기도 용인시 처인구 남사면 완장리 954번지 e편한세상용인한숲시티 근린생활시설동 1층 122호","indutype":"일반휴게음식 - 스넥","category":"restaurant"},{"name":"투썸플레이스 용인한숲시티점","tel":"031-333-0219","addr":"경기도 용인시 처인구 남사면 완장리 954번지 e편한세상용인한숲시티 1층 123~126호","indutype":"일반휴게음식 - 서양음식","category":"restaurant"},{"name":"하남돼지집 용인한숲시티점","tel":"031-339-3292","addr":"경기도 용인시 처인구 남사면 완장리 954번지 e편한세상 용인 한숲시티 1층 112호,113호","indutype":"일반휴게음식 - 일반한식","category":"restaurant"},{"name":"하준 수제돈가스&초밥","tel":"031-323-1235","addr":"경기도 용인시 처인구 남사면 완장리 954번지 e편한세상용인한숲시티6단지 108호","indutype":"일반휴게음식 - 일반한식","category":"restaurant"},{"name":"혼다라멘","tel":"","addr":"경기도 용인시 처인구 남사면 완장리 954번지 e편한세상용인한숲시티 상가동 1층 111호","indutype":"일반휴게음식 - 일식·회집","category":"restaurant"}]},{"lat":"37.153196089","long":"127.17163484","imageIndex":4,"items":[{"name":"59쌀피자용인한숲시티점","tel":"031-333-5859","addr":"경기도 용인시 처인구 남사면 아곡리 698번지 213호","indutype":"일반휴게음식 - 서양음식","category":"restaurant"},{"name":"가마치통닭용인한숲시티점","tel":"031-323-3530","addr":"경기도 용인시 처인구 남사면 아곡리 698번지 2층 202호","indutype":"일반휴게음식 - 스넥","category":"restaurant"},{"name":"돈치킨","tel":"031-323-0705","addr":"경기도 용인시 처인구 남사면 아곡리 698번지 2층 210호","indutype":"일반휴게음식 - 스넥","category":"restaurant"},{"name":"명랑핫도그 한숲시티점","tel":"","addr":"경기도 용인시 처인구 남사면 아곡리 698번지 처인프라자 103-1호","indutype":"일반휴게음식 - 스넥","category":"restaurant"},{"name":"박경규항아리보쌈(남사점)","tel":"031-336-3533","addr":"경기도 용인시 처인구 남사면 아곡리 698번지 2층 203호, 204호","indutype":"일반휴게음식 - 일반한식","category":"restaurant"},{"name":"신풍닭발용인한숲점","tel":"","addr":"경기도 용인시 처인구 남사면 아곡리 698번지 104호","indutype":"일반휴게음식 - 일반한식","category":"restaurant"},{"name":"조마루감자탕한숲시티점","tel":"031-333-0217","addr":"경기도 용인시 처인구 남사면 아곡리 698번지 306호","indutype":"일반휴게음식 - 일반한식","category":"restaurant"},{"name":"커피베이 용인한숲시티점","tel":"031-333-8447","addr":"경기도 용인시 처인구 남사면 아곡리 698번지 2층 212호","indutype":"일반휴게음식 - 서양음식","category":"restaurant"},{"name":"태영생막창","tel":"031-338-7178","addr":"경기도 용인시 처인구 남사면 아곡리 698번지 2층 208호","indutype":"일반휴게음식 - 일반한식","category":"restaurant"},{"name":"펀비어킹남사신도시점","tel":"031-322-4649","addr":"경기도 용인시 처인구 남사면 아곡리 698번지 209호","indutype":"일반휴게음식 - 주점","category":"restaurant"}]},{"lat":"37.1527567","long":"127.1701367","imageIndex":4,"items":[{"name":"88켄터키치킨(용인점)","tel":"031-322-8882","addr":"경기도 용인시 처인구 남사면 아곡리 694번지 201호 한숲스퀘어옐로우","indutype":"일반휴게음식 - 스넥","category":"restaurant"},{"name":"강정구의피자생각","tel":"031-333-8123","addr":"경기도 용인시 처인구 남사면 아곡리 694번지 한숲스퀘어옐로우 1층 110호","indutype":"일반휴게음식 - 서양음식","category":"restaurant"},{"name":"놀이나라 키즈카페","tel":"031-333-0188","addr":"경기도 용인시 처인구 남사면 아곡리 694번지 514호 한숲스퀘어옐로우","indutype":"일반휴게음식 - 서양음식","category":"restaurant"},{"name":"닭장수후라이드한숲시티점","tel":"031-335-9889","addr":"경기도 용인시 처인구 남사면 아곡리 694번지 1층 143호(한숲스퀘어옐로우)","indutype":"일반휴게음식 - 스넥","category":"restaurant"},{"name":"대찬짬뽕","tel":"031-336-0707","addr":"경기도 용인시 처인구 남사면 아곡리 694번지 8동 216호","indutype":"일반휴게음식 - 중국식","category":"restaurant"},{"name":"더바스켓한숲시티점","tel":"031-333-7446","addr":"경기도 용인시 처인구 남사면 아곡리 694번지 1층 109호","indutype":"일반휴게음식 - 스넥","category":"restaurant"},{"name":"더조은정육식당","tel":"031-332-9242","addr":"경기도 용인시 처인구 남사면 아곡리 694번지 1층 144호(한숲스퀘어옐로우)","indutype":"일반휴게음식 - 일반한식","category":"restaurant"},{"name":"돈짱","tel":"031-335-3005","addr":"경기도 용인시 처인구 남사면 아곡리 694번지 1층 123호,123-1호,124호,124-1호","indutype":"일반휴게음식 - 일반한식","category":"restaurant"},{"name":"따숩(한숲점)","tel":"","addr":"경기도 용인시 처인구 남사면 아곡리 694번지 한숲스퀘어옐로우 A동 1층 111호","indutype":"일반휴게음식 - 서양음식","category":"restaurant"},{"name":"마시당","tel":"070-7543-3123","addr":"경기도 용인시 처인구 남사면 아곡리 694번지 205호","indutype":"일반휴게음식 - 일반한식","category":"restaurant"},{"name":"마약곱창남사점","tel":"031-333-0082","addr":"경기도 용인시 처인구 남사면 아곡리 694번지 1층 140호","indutype":"일반휴게음식 - 일반한식","category":"restaurant"},{"name":"맥주마시는 날","tel":"","addr":"경기도 용인시 처인구 남사면 아곡리 694번지 115호 한숲스퀘어 옐로우상가","indutype":"일반휴게음식 - 주점","category":"restaurant"},{"name":"메가엠지씨커피 용인한숲시티점","tel":"031-335-3742","addr":"경기도 용인시 처인구 남사면 아곡리 694번지 1층 136호 (한숲스퀘어옐로우)","indutype":"일반휴게음식 - 서양음식","category":"restaurant"},{"name":"모두의만족 남사점","tel":"031-322-6796","addr":"경기도 용인시 처인구 남사면 아곡리 694번지 1층 118호","indutype":"일반휴게음식 - 일반한식","category":"restaurant"},{"name":"바푸리포베트남쌀국수용인남사점","tel":"031-339-5889","addr":"경기도 용인시 처인구 남사면 아곡리 694번지 135호","indutype":"일반휴게음식 - 일반한식","category":"restaurant"},{"name":"본죽&비빔밥CAFE","tel":"031-322-8285","addr":"경기도 용인시 처인구 남사면 아곡리 694번지 1층 126호(한숲스퀘어멜로우)","indutype":"일반휴게음식 - 일반한식","category":"restaurant"},{"name":"봉닭발","tel":"031-321-7767","addr":"경기도 용인시 처인구 남사면 아곡리 694번지 121호","indutype":"일반휴게음식 - 일반한식","category":"restaurant"},{"name":"봉수아피자","tel":"031-332-9898","addr":"경기도 용인시 처인구 남사면 아곡리 694번지 1층 120호","indutype":"일반휴게음식 - 서양음식","category":"restaurant"},{"name":"비에이치씨 용인남사점","tel":"031-338-9288","addr":"경기도 용인시 처인구 남사면 아곡리 694번지 1층 117호","indutype":"일반휴게음식 - 스넥","category":"restaurant"},{"name":"양동떡볶이 한숲시티점","tel":"","addr":"경기도 용인시 처인구 남사면 아곡리 694번지 127호","indutype":"일반휴게음식 - 스넥","category":"restaurant"},{"name":"위너치킨","tel":"031-6586-8017","addr":"경기도 용인시 처인구 남사면 아곡리 694번지 128호","indutype":"일반휴게음식 - 스넥","category":"restaurant"},{"name":"육감만족용인한숲시티점","tel":"031-338-9211","addr":"경기도 용인시 처인구 남사면 아곡리 694번지 한숲스퀘어옐로우 142호","indutype":"일반휴게음식 - 일반한식","category":"restaurant"},{"name":"이모네바지락칼국수","tel":"031-2343-4649","addr":"경기도 용인시 처인구 남사면 아곡리 694번지 116호","indutype":"일반휴게음식 - 일반한식","category":"restaurant"},{"name":"투더문(ToTheMoon)","tel":"031-337-1073","addr":"경기도 용인시 처인구 남사면 아곡리 694번지 A동 1층 119호","indutype":"일반휴게음식 - 서양음식","category":"restaurant"},{"name":"풍성호한숲시티점","tel":"031-503-8018","addr":"경기도 용인시 처인구 남사면 아곡리 694번지 A동 112호","indutype":"일반휴게음식 - 서양음식","category":"restaurant"},{"name":"한숲생고기","tel":"031-333-7236","addr":"경기도 용인시 처인구 남사면 아곡리 694번지 213호","indutype":"일반휴게음식 - 일반한식","category":"restaurant"}]},{"lat":"37.114874391","long":"127.15152252","imageIndex":4,"items":[{"name":"간이역","tel":"031-333-9890","addr":"경기도 용인시 처인구 남사면 봉무리 444-12번지","indutype":"일반휴게음식 - 일반한식","category":"restaurant"}]},{"lat":"37.133808525","long":"127.15618496","imageIndex":4,"items":[{"name":"감골오리(남사점)","tel":"031-321-5225","addr":"경기도 용인시 처인구 남사면 봉무리 133번지 1층","indutype":"일반휴게음식 - 일반한식","category":"restaurant"}]},{"lat":"37.137005943","long":"127.13479653","imageIndex":4,"items":[{"name":"개성집 남사점","tel":"031-338-1600","addr":"경기도 용인시 처인구 남사면 통삼리 584번지","indutype":"일반휴게음식 - 일반한식","category":"restaurant"}]},{"lat":"37.156198348","long":"127.17038068","imageIndex":4,"items":[{"name":"고봉민김밥인(용인한숲시티점)","tel":"031-333-0949","addr":"경기도 용인시 처인구 남사면 아곡리 681번지 e편한세상용인한숲시티 지하1층 113호","indutype":"일반휴게음식 - 스넥","category":"restaurant"},{"name":"셀렉토커피용인한숲시티점","tel":"031-336-3115","addr":"경기도 용인시 처인구 남사면 아곡리 681번지 e편한세상용인한숲시티 지하1층 115호 스트리트몰","indutype":"일반휴게음식 - 서양음식","category":"restaurant"}]},{"lat":"37.138676885","long":"127.16760714","imageIndex":4,"items":[{"name":"고향손칼국수","tel":"031-334-8879","addr":"경기도 용인시 처인구 남사면 아곡리 538-3번지 가동 1층","indutype":"일반휴게음식 - 스넥","category":"restaurant"},{"name":"남곡실내포장마차","tel":"031-323-1999","addr":"경기도 용인시 처인구 남사면 아곡리 538-3번지","indutype":"일반휴게음식 - 일반한식","category":"restaurant"}]},{"lat":"37.121009877","long":"127.11044157","imageIndex":4,"items":[{"name":"나들목","tel":"031-322-5959","addr":"경기도 용인시 처인구 남사면 봉명리779-1","indutype":"일반휴게음식 - 일반한식","category":"restaurant"}]},{"lat":"37.139424752","long":"127.16760876","imageIndex":4,"items":[{"name":"남곡정육점","tel":"031-334-6729","addr":"경기도 용인시 처인구 남사면 아곡리 513-1번지","indutype":"일반휴게음식 - 일반한식","category":"restaurant"},{"name":"명가","tel":"031-323-5684","addr":"경기도 용인시 처인구 남사면 아곡리 513-1번지 1층 일부","indutype":"일반휴게음식 - 일반한식","category":"restaurant"}]},{"lat":"37.140010055","long":"127.16788015","imageIndex":4,"items":[{"name":"남곡한식부페","tel":"031-334-5870","addr":"경기도 용인시 처인구 남사면 아곡리 513-8번지","indutype":"일반휴게음식 - 일반한식","category":"restaurant"},{"name":"남사왕 돈까스","tel":"031-335-0780","addr":"경기도 용인시 처인구 남사면 아곡리 513-8번지","indutype":"일반휴게음식 - 서양음식","category":"restaurant"}]},{"lat":"37.145368897","long":"127.14160954","imageIndex":4,"items":[{"name":"남도생선구이","tel":"031-332-3242","addr":"경기도 용인시 처인구 남사면 북리 680-15번지 1층","indutype":"일반휴게음식 - 일반한식","category":"restaurant"}]},{"lat":"37.152474661","long":"127.17204974","imageIndex":4,"items":[{"name":"남사곱창","tel":"","addr":"경기도 용인시 처인구 남사면 아곡리 702번지 120호 121호","indutype":"일반휴게음식 - 일반한식","category":"restaurant"},{"name":"배부장찌개용인한숲시티점","tel":"031-335-3323","addr":"경기도 용인시 처인구 남사면 아곡리 702번지 한숲스퀘어 그린동 1층 115호","indutype":"일반휴게음식 - 일반한식","category":"restaurant"},{"name":"비어프렌즈(BeerFriends)","tel":"031-1111-1111","addr":"경기도 용인시 처인구 남사면 아곡리 702번지 1층 119호","indutype":"일반휴게음식 - 일반한식","category":"restaurant"},{"name":"심봉사 도로케","tel":"070-4007-1104","addr":"경기도 용인시 처인구 남사면 아곡리 702번지 1층 108호","indutype":"일반휴게음식 - 스넥","category":"restaurant"},{"name":"한숲회모리","tel":"031-338-6267","addr":"경기도 용인시 처인구 남사면 아곡리 702번지 117호~118호 일부","indutype":"일반휴게음식 - 일식·회집","category":"restaurant"}]},{"lat":"37.114509894","long":"127.15473965","imageIndex":4,"items":[{"name":"남사면옥","tel":"031-335-7989","addr":"경기도 용인시 처인구 남사면 봉무리 492-1번지 1층","indutype":"일반휴게음식 - 일반한식","category":"restaurant"}]},{"lat":"37.156228153","long":"127.17473735","imageIndex":4,"items":[{"name":"남사스포츠센터카페테리아","tel":"","addr":"경기도 용인시 처인구 남사면 완장리 952-4번지 1층 남사스포츠센터","indutype":"일반휴게음식 - 서양음식","category":"restaurant"}]},{"lat":"37.112588414","long":"127.14935787","imageIndex":4,"items":[{"name":"남사한우정육식당","tel":"031-338-6319","addr":"경기도 용인시 처인구 남사면 봉무리 661-27번지","indutype":"일반휴게음식 - 일반한식","category":"restaurant"}]},{"lat":"37.136834794","long":"127.13475122","imageIndex":4,"items":[{"name":"뉴프라자가든","tel":"031-334-0707","addr":"경기도 용인시 처인구 남사면 통삼리 584-2번지","indutype":"일반휴게음식 - 일반한식","category":"restaurant"}]},{"lat":"37.133974489","long":"127.16683167","imageIndex":4,"items":[{"name":"다루남사점","tel":"031-332-9988","addr":"경기도 용인시 처인구 남사면 창리 556-6번지 1층","indutype":"일반휴게음식 - 일반한식","category":"restaurant"}]},{"lat":"37.145618897","long":"127.13574572","imageIndex":4,"items":[{"name":"다원맛집","tel":"031-323-1246","addr":"경기도 용인시 처인구 남사면 북리 693-5번지 1층","indutype":"일반휴게음식 - 일반한식","category":"restaurant"}]},{"lat":"37.152836392","long":"127.17112748","imageIndex":4,"items":[{"name":"닭깡","tel":"031-332-8890","addr":"경기도 용인시 처인구 남사면 아곡리 701번지 106호","indutype":"일반휴게음식 - 일반한식","category":"restaurant"},{"name":"롯데리아용인남사점","tel":"031-321-0612","addr":"경기도 용인시 처인구 남사면 아곡리 701번지 아곡프라자 1층 104호","indutype":"일반휴게음식 - 서양음식","category":"restaurant"}]},{"lat":"37.145503672","long":"127.14193621","imageIndex":4,"items":[{"name":"대궐밥상","tel":"031-336-0660","addr":"경기도 용인시 처인구 남사면 북리 680-13번지","indutype":"일반휴게음식 - 일반한식","category":"restaurant"},{"name":"오돈이","tel":"031-339-0084","addr":"경기도 용인시 처인구 남사면 북리 680-13번지 다층 101호","indutype":"일반휴게음식 - 일반한식","category":"restaurant"},{"name":"처갓집양념통닭","tel":"031-332-0204","addr":"경기도 용인시 처인구 남사면 북리680-13","indutype":"일반휴게음식 - 일반한식","category":"restaurant"}]},{"lat":"37.163896728","long":"127.18038397","imageIndex":4,"items":[{"name":"대림후문함바식당/주식회사 예담푸드","tel":"031-337-3384","addr":"경기도 용인시 처인구 남사면 완장리 527-4번지 1층","indutype":"일반휴게음식 - 일반한식","category":"restaurant"}]},{"lat":"37.162889595","long":"127.17901936","imageIndex":4,"items":[{"name":"대부도바지락칼국수&막국수","tel":"031-000-0000","addr":"경기도 용인시 처인구 남사면 완장리 524-1번지 2동 101호,102호,103호","indutype":"일반휴게음식 - 일반한식","category":"restaurant"},{"name":"명륜진사갈비 (남사점)","tel":"031-335-9279","addr":"경기도 용인시 처인구 남사면 완장리 524-1번지","indutype":"일반휴게음식 - 일반한식","category":"restaurant"},{"name":"우리민족","tel":"031-333-1901","addr":"경기도 용인시 처인구 남사면 완장리 524-1번지 2동 104호","indutype":"일반휴게음식 - 일반한식","category":"restaurant"},{"name":"콩스","tel":"","addr":"경기도 용인시 처인구 남사면 완장리 524-1번지 드림상가 1동 1층105,106호","indutype":"일반휴게음식 - 일반한식","category":"restaurant"}]},{"lat":"37.133864006","long":"127.13232644","imageIndex":4,"items":[{"name":"더플레이스커피","tel":"031-322-4040","addr":"경기도 용인시 처인구 남사면 통삼리 771-3번지","indutype":"일반휴게음식 - 서양음식","category":"restaurant"}]},{"lat":"37.092624544","long":"127.1465187","imageIndex":4,"items":[{"name":"도두리밥상","tel":"","addr":"경기도 용인시 처인구 남사면 원암리 222-13번지 1동 106호","indutype":"일반휴게음식 - 일반한식","category":"restaurant"},{"name":"월출감자탕","tel":"031-334-8853","addr":"경기도 용인시 처인구 남사면 원암리 222-13","indutype":"일반휴게음식 - 일반한식","category":"restaurant"},{"name":"은산식당","tel":"031-335-3223","addr":"경기도 용인시 처인구 남사면 원암리 222-13번지 1동 102호","indutype":"일반휴게음식 - 일반한식","category":"restaurant"}]},{"lat":"37.148028203","long":"127.13257569","imageIndex":4,"items":[{"name":"돈가네돼지찌개","tel":"031-334-4751","addr":"경기도 용인시 처인구 남사면 통삼리 629-6번지 107호(107호~110호)","indutype":"일반휴게음식 - 일반한식","category":"restaurant"},{"name":"신동탄한식","tel":"031-338-2151","addr":"경기도 용인시 처인구 남사면 통삼리 629-6번지","indutype":"일반휴게음식 - 일반한식","category":"restaurant"}]},{"lat":"37.095007641","long":"127.14291248","imageIndex":4,"items":[{"name":"돈순","tel":"031-336-1378","addr":"경기도 용인시 처인구 남사면 원암리 208-4번지","indutype":"일반휴게음식 - 일반한식","category":"restaurant"},{"name":"함대","tel":"031-336-3589","addr":"경기도 용인시 처인구 남사면 원암리 208-4번지","indutype":"일반휴게음식 - 일반한식","category":"restaurant"}]},{"lat":"37.15850787","long":"127.17468623","imageIndex":4,"items":[{"name":"돈캠프 (DON CAMP)","tel":"031-339-0414","addr":"경기도 용인시 처인구 남사면 완장리 952번지 e편한세상용인한숲시티 근린생활시설동 2층 201,202호","indutype":"일반휴게음식 - 일반한식","category":"restaurant"},{"name":"빠세빠세","tel":"02-1111-1111","addr":"경기도 용인시 처인구 남사면 완장리 952번지 4단지근린생활시설 203동 204호","indutype":"일반휴게음식 - 주점","category":"restaurant"},{"name":"엠춘천 닭갈비","tel":"031-338-1183","addr":"경기도 용인시 처인구 남사면 완장리 952번지 e편한세상용인한숲시티 205,206호","indutype":"일반휴게음식 - 일반한식","category":"restaurant"}]},{"lat":"37.121199597","long":"127.10989048","imageIndex":4,"items":[{"name":"두드림찻집","tel":"031-322-7593","addr":"경기도 용인시 처인구 남사면 봉명리 783번지 1층","indutype":"일반휴게음식 - 서양음식","category":"restaurant"}]},{"lat":"37.148480378","long":"127.13105687","imageIndex":4,"items":[{"name":"두부고을","tel":"031-333-5767","addr":"경기도 용인시 처인구 남사면 통삼리 634-13번지 두부고을","indutype":"일반휴게음식 - 일반한식","category":"restaurant"}]},{"lat":"37.095367663","long":"127.1432506","imageIndex":4,"items":[{"name":"땡글이네 쌈밥","tel":"031-336-9244","addr":"경기도 용인시 처인구 남사면 원암리 216-19번지 211-1호","indutype":"일반휴게음식 - 일반한식","category":"restaurant"},{"name":"사계절밥상","tel":"031-338-1355","addr":"경기도 용인시 처인구 남사면 원암리 216-19번지","indutype":"일반휴게음식 - 일반한식","category":"restaurant"}]},{"lat":"37.115171836","long":"127.15144434","imageIndex":4,"items":[{"name":"떡봉이네송탄부대찌개","tel":"031-339-1190","addr":"경기도 용인시 처인구 남사면 봉무리 444-27번지","indutype":"일반휴게음식 - 일반한식","category":"restaurant"}]},{"lat":"37.114342913","long":"127.15140897","imageIndex":4,"items":[{"name":"러브레터","tel":"031-339-8255","addr":"경기도 용인시 처인구 남사면 봉무리 445-3","indutype":"일반휴게음식 - 서양음식","category":"restaurant"}]},{"lat":"37.139976501","long":"127.18466124","imageIndex":4,"items":[{"name":"맑은샘","tel":"031-334-1466","addr":"경기도 용인시 처인구 남사면 창리 377-8번지","indutype":"일반휴게음식 - 일반한식","category":"restaurant"}]},{"lat":"37.114119753","long":"127.14972086","imageIndex":4,"items":[{"name":"머거볼래","tel":"031-336-8315","addr":"경기도 용인시 처인구 남사면 봉무리 664-1번지","indutype":"일반휴게음식 - 스넥","category":"restaurant"}]},{"lat":"37.140311468","long":"127.16493198","imageIndex":4,"items":[{"name":"모두의식탁","tel":"031-000-0000","addr":"경기도 용인시 처인구 남사면 아곡리 439-28번지 1층","indutype":"일반휴게음식 - 일반한식","category":"restaurant"},{"name":"엄마손김밥","tel":"031-333-9380","addr":"경기도 용인시 처인구 남사면 아곡리 439-28번지","indutype":"일반휴게음식 - 스넥","category":"restaurant"}]},{"lat":"37.139587908","long":"127.16691131","imageIndex":4,"items":[{"name":"무봉리토종순대국(남사점)","tel":"031-332-5708","addr":"경기도 용인시 처인구 남사면 아곡리 441-11번지 남사골가든","indutype":"일반휴게음식 - 일반한식","category":"restaurant"},{"name":"소쿠리","tel":"031-323-0428","addr":"경기도 용인시 처인구 남사면 아곡리 441-11번지 나동 102호","indutype":"일반휴게음식 - 일반한식","category":"restaurant"}]},{"lat":"37.107592353","long":"127.17279364","imageIndex":4,"items":[{"name":"뭉치네","tel":"031-334-1999","addr":"경기도 용인시 처인구 남사면 방아리 879-1번지 1층","indutype":"일반휴게음식 - 일반한식","category":"restaurant"}]},{"lat":"37.152924828","long":"127.17229839","imageIndex":4,"items":[{"name":"미미향양꼬치","tel":"031-339-8688","addr":"경기도 용인시 처인구 남사면 아곡리 699번지 2층 205호","indutype":"일반휴게음식 - 일반한식","category":"restaurant"},{"name":"스뎅식당","tel":"031-334-8283","addr":"경기도 용인시 처인구 남사면 아곡리 699번지 201호","indutype":"일반휴게음식 - 일반한식","category":"restaurant"}]},{"lat":"37.11395702","long":"127.15015934","imageIndex":4,"items":[{"name":"부뚜막","tel":"031-336-5753","addr":"경기도 용인시 처인구 남사면 봉무리 440-9번지","indutype":"일반휴게음식 - 일반한식","category":"restaurant"}]},{"lat":"37.112345478","long":"127.14907613","imageIndex":4,"items":[{"name":"부산아구찜해물찜","tel":"031-322-9588","addr":"경기도 용인시 처인구 남사면 봉무리 670-14번지","indutype":"일반휴게음식 - 일반한식","category":"restaurant"},{"name":"용우반점","tel":"031-333-9224","addr":"경기도 용인시 처인구 남사면 봉무리 670-14번지","indutype":"일반휴게음식 - 중국식","category":"restaurant"}]},{"lat":"37.095314397","long":"127.1425756","imageIndex":4,"items":[{"name":"부성각","tel":"031-338-2276","addr":"경기도 용인시 처인구 남사면 원암리 208-3번지 시누이한식 가동","indutype":"일반휴게음식 - 중국식","category":"restaurant"},{"name":"엄마네분식2호점","tel":"","addr":"경기도 용인시 처인구 남사면 원암리 208-3번지","indutype":"일반휴게음식 - 스넥","category":"restaurant"},{"name":"짬뽕아울렛","tel":"031-338-2276","addr":"경기도 용인시 처인구 남사면 원암리 208-3번지 시누이한식 가동","indutype":"일반휴게음식 - 중국식","category":"restaurant"}]},{"lat":"37.165504878","long":"127.17749423","imageIndex":4,"items":[{"name":"부페식해남밥상","tel":"","addr":"경기도 용인시 처인구 남사면 완장리 491-1번지 1층","indutype":"일반휴게음식 - 일반한식","category":"restaurant"}]},{"lat":"37.145556914","long":"127.14263417","imageIndex":4,"items":[{"name":"북리중화요리","tel":"031-338-5492","addr":"경기도 용인시 처인구 남사면 북리 676-1번지","indutype":"일반휴게음식 - 중국식","category":"restaurant"}]},{"lat":"37.114477336","long":"127.15199429","imageIndex":4,"items":[{"name":"브림(Brim)","tel":"02-1111-1111","addr":"경기도 용인시 처인구 남사면 봉무리 449-9번지 1층","indutype":"일반휴게음식 - 서양음식","category":"restaurant"}]},{"lat":"37.145536243","long":"127.13713004","imageIndex":4,"items":[{"name":"삼거리식당","tel":"031-323-2233","addr":"경기도 용인시 처인구 남사면 북리 696-6번지 나동 1층 일부","indutype":"일반휴게음식 - 일반한식","category":"restaurant"}]},{"lat":"37.095124019","long":"127.14355385","imageIndex":4,"items":[{"name":"삼대째부대찌개","tel":"031-322-1162","addr":"경기도 용인시 처인구 남사면 원암리 216-1번지","indutype":"일반휴게음식 - 일반한식","category":"restaurant"}]},{"lat":"37.166973092","long":"127.17782412","imageIndex":4,"items":[{"name":"삼성각","tel":"031-338-8543","addr":"경기도 용인시 처인구 남사면 완장리 472번지","indutype":"일반휴게음식 - 중국식","category":"restaurant"}]},{"lat":"37.139535335","long":"127.16583072","imageIndex":4,"items":[{"name":"삼시세끼식당","tel":"031-333-5778","addr":"경기도 용인시 처인구 남사면 아곡리 439-23번지 나동 1층","indutype":"일반휴게음식 - 일반한식","category":"restaurant"}]},{"lat":"37.145034533","long":"127.14244186","imageIndex":4,"items":[{"name":"삼인식당","tel":"031-332-7400","addr":"경기도 용인시 처인구 남사면 북리 658-6번지","indutype":"일반휴게음식 - 중국식","category":"restaurant"}]},{"lat":"37.113983421","long":"127.15066569","imageIndex":4,"items":[{"name":"새나라치킨","tel":"031-334-9705","addr":"경기도 용인시 처인구 남사면 봉무리 441-22번지","indutype":"일반휴게음식 - 칵테일바","category":"restaurant"}]},{"lat":"37.164866165","long":"127.17679473","imageIndex":4,"items":[{"name":"서울감자탕","tel":"031-323-3329","addr":"경기도 용인시 처인구 남사면 완장리 480번지 1층","indutype":"일반휴게음식 - 일반한식","category":"restaurant"}]},{"lat":"37.114729983","long":"127.15171351","imageIndex":4,"items":[{"name":"서울곱창","tel":"031-332-6160","addr":"경기도 용인시 처인구 남사면 봉무리 444-11번지","indutype":"일반휴게음식 - 일반한식","category":"restaurant"}]},{"lat":"37.093121088","long":"127.14572102","imageIndex":4,"items":[{"name":"소나무웰빙한식뷔페","tel":"070-1111-1111","addr":"경기도 용인시 처인구 남사면 원암리 222-9번지 2동 1층","indutype":"일반휴게음식 - 일반한식","category":"restaurant"},{"name":"큰맘할매순대국","tel":"031-336-6126","addr":"경기도 용인시 처인구 남사면 원암리 222-9번지 2동 1층","indutype":"일반휴게음식 - 일반한식","category":"restaurant"}]},{"lat":"37.110089211","long":"127.15199694","imageIndex":4,"items":[{"name":"소풍","tel":"031-332-6277","addr":"경기도 용인시 처인구 남사면 전궁리 420-1번지","indutype":"일반휴게음식 - 일반한식","category":"restaurant"}]},{"lat":"37.144171051","long":"127.18746267","imageIndex":4,"items":[{"name":"송죽가든","tel":"031-321-4887","addr":"경기도 용인시 처인구 남사면 창리294-1","indutype":"일반휴게음식 - 일반한식","category":"restaurant"}]},{"lat":"37.108319181","long":"127.13236171","imageIndex":4,"items":[{"name":"수연식당","tel":"031-335-5873","addr":"경기도 용인시 처인구 남사면 봉명리 365-7,9","indutype":"일반휴게음식 - 일반한식","category":"restaurant"}]},{"lat":"37.145474675","long":"127.14360201","imageIndex":4,"items":[{"name":"시골밥집","tel":"031-334-4179","addr":"경기도 용인시 처인구 남사면 북리668-1","indutype":"일반휴게음식 - 일반한식","category":"restaurant"}]},{"lat":"37.094176292","long":"127.14491313","imageIndex":4,"items":[{"name":"시골집","tel":"031-336-0993","addr":"경기도 용인시 처인구 남사면 원암리 218-2번지","indutype":"일반휴게음식 - 일반한식","category":"restaurant"}]},{"lat":"37.101229446","long":"127.13902044","imageIndex":4,"items":[{"name":"신바람난찐빵집","tel":"031-335-2507","addr":"경기도 용인시 처인구 남사면 진목리 131-1번지 1층","indutype":"일반휴게음식 - 스넥","category":"restaurant"},{"name":"행복찬합도시락","tel":"031-321-0640","addr":"경기도 용인시 처인구 남사면 진목리 131-1번지","indutype":"일반휴게음식 - 일반한식","category":"restaurant"}]},{"lat":"37.134062813","long":"127.13179783","imageIndex":4,"items":[{"name":"신촌설렁탕","tel":"031-322-4040","addr":"경기도 용인시 처인구 남사면 통삼리 762-1번지 2동 1층","indutype":"일반휴게음식 - 일반한식","category":"restaurant"}]},{"lat":"37.148172788","long":"127.13219323","imageIndex":4,"items":[{"name":"아담시골닭","tel":"031-339-8188","addr":"경기도 용인시 처인구 남사면 통삼리 629-8번지 1층","indutype":"일반휴게음식 - 일반한식","category":"restaurant"},{"name":"유핀","tel":"031-333-1511","addr":"경기도 용인시 처인구 남사면 통삼리 629-8번지 1층","indutype":"일반휴게음식 - 일반한식","category":"restaurant"}]},{"lat":"37.173527218","long":"127.18148745","imageIndex":4,"items":[{"name":"아이엠에프앤비 (주)","tel":"031-321-9060","addr":"경기도 용인시 처인구 남사면 완장리 159-17번지","indutype":"일반휴게음식 - 일반한식","category":"restaurant"}]},{"lat":"37.146612635","long":"127.13341747","imageIndex":4,"items":[{"name":"양평해장국","tel":"031-334-5951","addr":"경기도 용인시 처인구 남사면 통삼리 620-1번지","indutype":"일반휴게음식 - 일반한식","category":"restaurant"}]},{"lat":"37.113650453","long":"127.15032751","imageIndex":4,"items":[{"name":"엄마네분식","tel":"","addr":"경기도 용인시 처인구 남사면 봉무리 441-10번지","indutype":"일반휴게음식 - 일반한식","category":"restaurant"}]},{"lat":"37.108534373","long":"127.1333296","imageIndex":4,"items":[{"name":"에그로커피(egro coffee)","tel":"031-321-2209","addr":"경기도 용인시 처인구 남사면 봉명리 72-1번지","indutype":"일반휴게음식 - 서양음식","category":"restaurant"}]},{"lat":"37.140225622","long":"127.15491484","imageIndex":4,"items":[{"name":"에그로코리아","tel":"070-8991-9979","addr":"경기도 용인시 처인구 남사면 북리 116-7번지","indutype":"일반휴게음식 - 서양음식","category":"restaurant"}]},{"lat":"37.139116673","long":"127.17516009","imageIndex":4,"items":[{"name":"영광굴비","tel":"031-332-6143","addr":"경기도 용인시 처인구 남사면 창리 672-1번지","indutype":"일반휴게음식 - 일반한식","category":"restaurant"}]},{"lat":"37.159114375","long":"127.17274","imageIndex":4,"items":[{"name":"오마뎅 한숲씨티점","tel":"031-336-5505","addr":"경기도 용인시 처인구 남사면 완장리 949번지 e편한세상용인한숲시티 근린생활시설동 1층 3-109호","indutype":"일반휴게음식 - 스넥","category":"restaurant"},{"name":"이디야 용인한숲시티점","tel":"031-337-0559","addr":"경기도 용인시 처인구 남사면 완장리 949번지 e편한세상용인한숲시티 3단지 근린생활시설 동지하1층 112호","indutype":"일반휴게음식 - 서양음식","category":"restaurant"},{"name":"카페가득한","tel":"","addr":"경기도 용인시 처인구 남사면 완장리 949번지 e편한세상용인한숲시티 상가동 101호","indutype":"일반휴게음식 - 서양음식","category":"restaurant"}]},{"lat":"37.145501357","long":"127.1361057","imageIndex":4,"items":[{"name":"외할머니집","tel":"031-338-1989","addr":"경기도 용인시 처인구 남사면 북리 693-1번지","indutype":"일반휴게음식 - 일반한식","category":"restaurant"}]},{"lat":"37.165478873","long":"127.17679613","imageIndex":4,"items":[{"name":"용갈비","tel":"031-333-5856","addr":"경기도 용인시 처인구 남사면 완장리 493-5번지","indutype":"일반휴게음식 - 일반한식","category":"restaurant"}]},{"lat":"37.103012596","long":"127.1398336","imageIndex":4,"items":[{"name":"용인토종순대국","tel":"031-333-8168","addr":"경기도 용인시 처인구 남사면 진목리92-12","indutype":"일반휴게음식 - 일반한식","category":"restaurant"}]},{"lat":"37.124260108","long":"127.13113981","imageIndex":4,"items":[{"name":"우리집가든","tel":"031-321-1884","addr":"경기도 용인시 처인구 남사면 통삼리 210번지 우리집가든 가동 1층","indutype":"일반휴게음식 - 일반한식","category":"restaurant"}]},{"lat":"37.091098534","long":"127.14915904","imageIndex":4,"items":[{"name":"원암한식부페","tel":"031-332-3974","addr":"경기도 용인시 처인구 남사면 원암리 415-4번지 창대공인중개사 가동","indutype":"일반휴게음식 - 일반한식","category":"restaurant"}]},{"lat":"37.109508814","long":"127.13213872","imageIndex":4,"items":[{"name":"월남식당","tel":"031-332-6984","addr":"경기도 용인시 처인구 남사면 봉명리368-5","indutype":"일반휴게음식 - 일반한식","category":"restaurant"}]},{"lat":"37.152536074","long":"127.17320933","imageIndex":4,"items":[{"name":"유진춘천닭갈비","tel":"031-333-8082","addr":"경기도 용인시 처인구 남사면 아곡리 700번지 109호 108호,109호","indutype":"일반휴게음식 - 일반한식","category":"restaurant"},{"name":"킹콩부대찌개 용인한숲시티점","tel":"031-322-0708","addr":"경기도 용인시 처인구 남사면 아곡리 700번지 투토빌딩 201호","indutype":"일반휴게음식 - 일반한식","category":"restaurant"}]},{"lat":"37.112677068","long":"127.15052814","imageIndex":4,"items":[{"name":"장수가든","tel":"031-322-8253","addr":"경기도 용인시 처인구 남사면 봉무리 658-10번지 1층","indutype":"일반휴게음식 - 일반한식","category":"restaurant"}]},{"lat":"37.141280528","long":"127.16788291","imageIndex":4,"items":[{"name":"장어명가풍천민물장어직판장","tel":"031-321-9295","addr":"경기도 용인시 처인구 남사면 아곡리 462-2번지 1층 일부","indutype":"일반휴게음식 - 일반한식","category":"restaurant"},{"name":"훈짬뽕","tel":"031-332-3665","addr":"경기도 용인시 처인구 남사면 아곡리 462-2번지 1층","indutype":"일반휴게음식 - 중국식","category":"restaurant"}]},{"lat":"37.140086083","long":"127.16502154","imageIndex":4,"items":[{"name":"장터국밥","tel":"031-333-8099","addr":"경기도 용인시 처인구 남사면 아곡리 439-24번지","indutype":"일반휴게음식 - 일반한식","category":"restaurant"}]},{"lat":"37.116091632","long":"127.12733429","imageIndex":4,"items":[{"name":"주식회사그림유통","tel":"031-332-2028","addr":"경기도 용인시 처인구 남사면 봉명리 208-2번지","indutype":"일반휴게음식 - 일반한식","category":"restaurant"}]},{"lat":"37.138175764","long":"127.17776905","imageIndex":4,"items":[{"name":"주주푸드주식회사","tel":"031-337-8742","addr":"경기도 용인시 처인구 남사면 창리 617-1번지","indutype":"일반휴게음식 - 스넥","category":"restaurant"}]},{"lat":"37.11464896","long":"127.15165709","imageIndex":4,"items":[{"name":"쭈노치킨","tel":"031-334-7070","addr":"경기도 용인시 처인구 남사면 봉무리 444-13번지","indutype":"일반휴게음식 - 스넥","category":"restaurant"}]},{"lat":"37.168472051","long":"127.16932688","imageIndex":4,"items":[{"name":"처인성토속음식","tel":"031-321-3813","addr":"경기도 용인시 처인구 남사면 완장리 361-3번지 1층","indutype":"일반휴게음식 - 일반한식","category":"restaurant"}]},{"lat":"37.12150523","long":"127.11068982","imageIndex":4,"items":[{"name":"청석골","tel":"031-339-6778","addr":"경기도 용인시 처인구 남사면 봉명리 649-3번지 청석골","indutype":"일반휴게음식 - 일반한식","category":"restaurant"}]},{"lat":"37.114540933","long":"127.15157812","imageIndex":4,"items":[{"name":"최가네","tel":"031-334-8322","addr":"경기도 용인시 처인구 남사면 봉무리 444-15번지 1층 일부","indutype":"일반휴게음식 - 일반한식","category":"restaurant"}]},{"lat":"37.145501104","long":"127.13633082","imageIndex":4,"items":[{"name":"카페.사계절","tel":"031-333-3306","addr":"경기도 용인시 처인구 남사면 북리 694-4번지","indutype":"일반휴게음식 - 서양음식","category":"restaurant"}]},{"lat":"37.115511443","long":"127.13064124","imageIndex":4,"items":[{"name":"카페델릭","tel":"","addr":"경기도 용인시 처인구 남사면 봉명리 253번지","indutype":"일반휴게음식 - 서양음식","category":"restaurant"}]},{"lat":"37.093229323","long":"127.14563124","imageIndex":4,"items":[{"name":"카페애비뉴","tel":"031-335-0105","addr":"경기도 용인시 처인구 남사면 원암리 222-9번지 일부 1동 1층","indutype":"일반휴게음식 - 서양음식","category":"restaurant"}]},{"lat":"37.145063029","long":"127.14119252","imageIndex":4,"items":[{"name":"커피콩(COFFEE콩)","tel":"02-1111-1111","addr":"경기도 용인시 처인구 남사면 북리 655-2번지 1층","indutype":"일반휴게음식 - 서양음식","category":"restaurant"}]},{"lat":"37.145530108","long":"127.14244277","imageIndex":4,"items":[{"name":"큰내","tel":"070-8117-1222","addr":"경기도 용인시 처인구 남사면 북리 676-7번지 1층","indutype":"일반휴게음식 - 일반한식","category":"restaurant"}]},{"lat":"37.136257886","long":"127.13496405","imageIndex":4,"items":[{"name":"퍼주리무한삼겹살북촌순두부","tel":"031-339-0032","addr":"경기도 용인시 처인구 남사면 통삼리 567-1번지 1층","indutype":"일반휴게음식 - 일반한식","category":"restaurant"}]},{"lat":"37.091261637","long":"127.148417","imageIndex":4,"items":[{"name":"표준바삭","tel":"031-335-4185","addr":"경기도 용인시 처인구 남사면 원암리 194-23번지 1층","indutype":"일반휴게음식 - 스넥","category":"restaurant"}]},{"lat":"37.108839562","long":"127.13438766","imageIndex":4,"items":[{"name":"하이린","tel":"031-333-7736","addr":"경기도 용인시 처인구 남사면 봉명리 73-10번지","indutype":"일반휴게음식 - 중국식","category":"restaurant"}]},{"lat":"37.109401579","long":"127.13938383","imageIndex":4,"items":[{"name":"한솔","tel":"031-323-3389","addr":"경기도 용인시 처인구 남사면 봉명리 48-5번지","indutype":"일반휴게음식 - 일반한식","category":"restaurant"}]},{"lat":"37.154195099","long":"127.16601977","imageIndex":4,"items":[{"name":"한숲아구찜해물","tel":"031-332-6556","addr":"경기도 용인시 처인구 남사면 아곡리 338-1번지 1층","indutype":"일반휴게음식 - 일반한식","category":"restaurant"}]},{"lat":"37.160806616","long":"127.17393714","imageIndex":4,"items":[{"name":"한숲어부가","tel":"","addr":"경기도 용인시 처인구 남사면 완장리 945번지 e편한세상용인한숲시티 101, 102호","indutype":"일반휴게음식 - 일식·회집","category":"restaurant"}]},{"lat":"37.138835939","long":"127.17612737","imageIndex":4,"items":[{"name":"행복분식","tel":"031-339-5300","addr":"경기도 용인시 처인구 남사면 창리 648번지","indutype":"일반휴게음식 - 스넥","category":"restaurant"}]},{"lat":"37.139062807","long":"127.17502491","imageIndex":4,"items":[{"name":"허가네족발찬합도시락","tel":"031-332-8233","addr":"경기도 용인시 처인구 남사면 창리673-1","indutype":"일반휴게음식 - 일반한식","category":"restaurant"}]},{"lat":"37.141232367","long":"127.15679646","imageIndex":4,"items":[{"name":"황금식당","tel":"031-333-9063","addr":"경기도 용인시 처인구 남사면 북리75-7","indutype":"일반휴게음식 - 일반한식","category":"restaurant"}]},{"lat":"37.142834073","long":"127.13626985","imageIndex":4,"items":[{"name":"횡성한우타운","tel":"031-338-9922","addr":"경기도 용인시 처인구 남사면 통삼리 607번지","indutype":"일반휴게음식 - 일반한식","category":"restaurant"}]},{"lat":"37.14036357","long":"127.18490978","imageIndex":4,"items":[{"name":"힐스템힐링카페","tel":"031-223-5214","addr":"경기도 용인시 처인구 남사면 창리 377-9번지","indutype":"일반휴게음식 - 서양음식","category":"restaurant"}]}]