[{"lat":"37.780923378","long":"126.84917183","imageIndex":13,"items":[{"name":"가족노래연습장","tel":"031-947-5815","addr":"경기도 파주시 광탄면 신산리 215-16번지","indutype":"레저업소 - 노 래 방","category":"leisure"}]},{"lat":"37.779310609","long":"126.84911841","imageIndex":13,"items":[{"name":"나이스당구장","tel":"070-8141-0776","addr":"경기도 파주시 광탄면 신산리 188-29번지","indutype":"레저업소 - 당 구 장","category":"leisure"},{"name":"싸이언노래연습장","tel":"031-957-9005","addr":"경기도 파주시 광탄면 신산리 188-29번지","indutype":"레저업소 - 노 래 방","category":"leisure"}]},{"lat":"37.782368986","long":"126.84544549","imageIndex":13,"items":[{"name":"더프렌즈당구장","tel":"","addr":"경기도 파주시 광탄면 신산리 575-14번지","indutype":"레저업소 - 당 구 장","category":"leisure"}]},{"lat":"37.779120505","long":"126.84842639","imageIndex":13,"items":[{"name":"오션당구장","tel":"031-949-4939","addr":"경기도 파주시 광탄면 신산리 184-10번지","indutype":"레저업소 - 당 구 장","category":"leisure"}]},{"lat":"37.781533953","long":"126.8475927","imageIndex":13,"items":[{"name":"찬찬찬노래연습장","tel":"031-947-1997","addr":"경기도 파주시 광탄면 신산리 226-8번지","indutype":"레저업소 - 노 래 방","category":"leisure"}]},{"lat":"37.780977139","long":"126.84894469","imageIndex":13,"items":[{"name":"탑노래연습장","tel":"070-7786-1408","addr":"경기도 파주시 광탄면 신산리 215-20번지","indutype":"레저업소 - 노 래 방","category":"leisure"}]},{"lat":"37.782505865","long":"126.84675064","imageIndex":13,"items":[{"name":"팡파르노래연습장","tel":"031-947-0694","addr":"경기도 파주시 광탄면 신산리 369-8번지","indutype":"레저업소 - 노 래 방","category":"leisure"}]},{"lat":"37.778949979","long":"126.84892619","imageIndex":13,"items":[{"name":"헐노래연습장","tel":"031-947-2233","addr":"경기도 파주시 광탄면 신산리 188-74번지","indutype":"레저업소 - 노 래 방","category":"leisure"}]}]