[{"lat":"36.966115763","long":"127.27876426","imageIndex":4,"items":[{"name":"구르메","tel":"031-673-3388","addr":"경기도 안성시 서운면 신능리 133-2번지","indutype":"일반휴게음식 - 일반한식","category":"restaurant"}]},{"lat":"36.973384929","long":"127.26798687","imageIndex":4,"items":[{"name":"단지식당","tel":"031-674-8873","addr":"경기도 안성시 서운면 신능리 223-5","indutype":"일반휴게음식 - 일반한식","category":"restaurant"},{"name":"단지식당","tel":"031-657-9288","addr":"경기도 안성시 서운면 신능리 223-5번지 1층","indutype":"일반휴게음식 - 일반한식","category":"restaurant"},{"name":"타임 호프","tel":"031-671-3959","addr":"경기도 안성시 서운면 신능리 223-5번지","indutype":"일반휴게음식 - 주점","category":"restaurant"}]},{"lat":"36.973724698","long":"127.27315405","imageIndex":4,"items":[{"name":"동궁염소탕","tel":"031-7722-2881","addr":"경기도 안성시 서운면 신능리 43-3번지","indutype":"일반휴게음식 - 일반한식","category":"restaurant"}]},{"lat":"36.973302579","long":"127.2685481","imageIndex":4,"items":[{"name":"수림본점","tel":"031-673-9071","addr":"경기도 안성시 서운면 신능리 223-7번지 1층","indutype":"일반휴게음식 - 일반한식","category":"restaurant"}]},{"lat":"36.976305829","long":"127.26734562","imageIndex":4,"items":[{"name":"에스에이치푸드(SH Food)","tel":"031-1800-6893","addr":"경기도 안성시 서운면 신능리 219-1번지","indutype":"일반휴게음식 - 위탁급식업","category":"restaurant"}]},{"lat":"36.973412763","long":"127.2676276","imageIndex":4,"items":[{"name":"온누리불고기백반","tel":"031-673-3313","addr":"경기도 안성시 서운면 신능리 223-1번지","indutype":"일반휴게음식 - 일반한식","category":"restaurant"}]},{"lat":"36.973196683","long":"127.26754824","imageIndex":4,"items":[{"name":"조아조아","tel":"031-653-5300","addr":"경기도 안성시 서운면 신능리 223-8번지","indutype":"일반휴게음식 - 일반한식","category":"restaurant"}]}]