[{"lat":"36.998911346","long":"127.26837878","imageIndex":17,"items":[{"name":"(주)시그너스잡","tel":"031-671-7282","addr":"경기도 안성시 도기동 40","indutype":"용역 서비스 - 종합용역","category":"other"},{"name":"J&H(제이앤에치)","tel":"031-671-1125","addr":"경기도 안성시 도기동 40","indutype":"기타 - 기계공구","category":"other"},{"name":"남광종합상사(주)","tel":"031-673-7709","addr":"경기도 안성시 도기동 40","indutype":"기타 - 기계공구","category":"other"}]},{"lat":"36.996945246","long":"127.27315756","imageIndex":17,"items":[{"name":"(주)진우","tel":"031-677-6830","addr":"경기도 안성시 도기동 250-1번지","indutype":"건축자재 - 기타건축자재","category":"other"}]},{"lat":"36.997304966","long":"127.26948535","imageIndex":17,"items":[{"name":"(주)한일전기","tel":"031-674-8807","addr":"경기도 안성시 도기동 92-3번지","indutype":"전기제품 - 기타전기제품","category":"other"},{"name":"주식회사한일전기상사","tel":"031-674-8807","addr":"경기도 안성시 도기동 92-3번지","indutype":"전기제품 - 기타전기제품","category":"other"}]},{"lat":"37.001664359","long":"127.26624255","imageIndex":17,"items":[{"name":"KIS정보통신","tel":"031-673-9756","addr":"경기도 안성시 도기동 1번지","indutype":"사무통신 - 통신기기","category":"other"},{"name":"무한상사","tel":"031-674-4057","addr":"경기도 안성시 도기동 1번지","indutype":"신변잡화 - 기타잡화","category":"other"},{"name":"정우디자인","tel":"031-676-6668","addr":"경기도 안성시 도기동 1번지","indutype":"건축자재 - 인테리어전문","category":"other"},{"name":"하나냉동공조","tel":"031-673-4477","addr":"경기도 안성시 도기동 1번지","indutype":"전기제품 - 냉열기기","category":"other"}]},{"lat":"36.996778224","long":"127.27131462","imageIndex":17,"items":[{"name":"가온산업","tel":"031-677-3376","addr":"경기도 안성시 도기동 229-2번지","indutype":"기타 - 기계공구","category":"other"}]},{"lat":"36.99879837","long":"127.25404365","imageIndex":17,"items":[{"name":"건자재114","tel":"031-111-1111","addr":"경기도 안성시 도기동 495-3번지 1층","indutype":"건축자재 - 기타건축자재","category":"other"}]},{"lat":"36.998250701","long":"127.26965716","imageIndex":17,"items":[{"name":"경기냉동부속상사","tel":"031-673-7484","addr":"경기도 안성시 도기동 52-3번지","indutype":"전기제품 - 냉열기기","category":"other"},{"name":"안성풍력","tel":"031-677-8565","addr":"경기도 안성시 도기동 52-3번지","indutype":"건축자재 - 보일러·펌프·샷시","category":"other"},{"name":"유로건설공구(안성점)","tel":"031-676-0663","addr":"경기도 안성시 도기동 52-3번지 1층","indutype":"기타 - 기계공구","category":"other"}]},{"lat":"37.000388833","long":"127.25612724","imageIndex":17,"items":[{"name":"경기도청/안성소방서예방과","tel":"031-678-4223","addr":"경기도 안성시 도기동 544-174번지 민원실","indutype":"용역 서비스 - 사무서비스","category":"other"}]},{"lat":"37.000804777","long":"127.26784611","imageIndex":17,"items":[{"name":"경성볼트상사","tel":"031-677-0107","addr":"경기도 안성시 도기동 18번지","indutype":"기타 - 기계공구","category":"other"},{"name":"수성ENG","tel":"031-674-5206","addr":"경기도 안성시 도기동 18번지","indutype":"기타 - 기계공구","category":"other"}]},{"lat":"37.003192213","long":"127.26395593","imageIndex":17,"items":[{"name":"경훈원목가구","tel":"031-671-5157","addr":"경기도 안성시 도기동 147-1번지 1층","indutype":"가구 - 일반가구","category":"other"},{"name":"국민소방안전(주)","tel":"031-671-1773","addr":"경기도 안성시 도기동 147-1","indutype":"용역 서비스 - 기타용역서비스","category":"other"},{"name":"와이엘메디텍","tel":"031-677-6488","addr":"경기도 안성시 도기동 147-1번지","indutype":"서적문구 - 과학기자재","category":"other"}]},{"lat":"37.001049491","long":"127.26720659","imageIndex":17,"items":[{"name":"국제상사","tel":"031-671-8376","addr":"경기도 안성시 도기동 2번지","indutype":"의류 - 기타의류","category":"other"},{"name":"수도전기","tel":"031-676-5494","addr":"경기도 안성시 도기동 2","indutype":"수리서비스 - 기타수리서비스","category":"other"},{"name":"하나유통","tel":"031-674-1070","addr":"경기도 안성시 도기동 2번지","indutype":"신변잡화 - 기타잡화","category":"other"}]},{"lat":"36.997361512","long":"127.26431795","imageIndex":17,"items":[{"name":"국제종합기계(주)안성대리점","tel":"031-673-2104","addr":"경기도 안성시 도기동 348-2번지","indutype":"농업 - 농기계","category":"other"}]},{"lat":"37.000552606","long":"127.26778906","imageIndex":17,"items":[{"name":"그린에어테크","tel":"031-676-3494","addr":"경기도 안성시 도기동 17-2","indutype":"사무통신 - 컴퓨터","category":"other"},{"name":"유림환경건재","tel":"031-674-0427","addr":"경기도 안성시 도기동 17-2번지","indutype":"건축자재 - 기타건축자재","category":"other"}]},{"lat":"37.001720041","long":"127.2655125","imageIndex":17,"items":[{"name":"꽃뜨레플라워","tel":"031-673-4343","addr":"경기도 안성시 도기동 1-4번지","indutype":"문화.취미 - 화원","category":"other"}]},{"lat":"36.998638787","long":"127.26937766","imageIndex":17,"items":[{"name":"대림목공소 인테리어","tel":"031-675-5344","addr":"경기도 안성시 도기동 42-7번지","indutype":"건축자재 - 인테리어전문","category":"other"}]},{"lat":"36.998384065","long":"127.27045524","imageIndex":17,"items":[{"name":"대성공업사","tel":"031-674-0789","addr":"경기도 안성시 도기동 222번지","indutype":"수리서비스 - 기타수리서비스","category":"other"}]},{"lat":"36.997611377","long":"127.26946395","imageIndex":17,"items":[{"name":"대신택배 안성도기","tel":"031-675-3548","addr":"경기도 안성시 도기동 73-5번지","indutype":"용역 서비스 - 보관및 창고업","category":"other"},{"name":"세진산업안전","tel":"031-671-9004","addr":"경기도 안성시 도기동 73-5번지","indutype":"기타 - 기계공구","category":"other"},{"name":"종합공구철물","tel":"031-675-0986","addr":"경기도 안성시 도기동 73-5","indutype":"건축자재 - 목재·석재·철물","category":"other"}]},{"lat":"37.004334182","long":"127.26503839","imageIndex":17,"items":[{"name":"대원보일러","tel":"031-675-1198","addr":"경기도 안성시 도기동 139-13번지","indutype":"회원제형태 - 기타4","category":"other"}]},{"lat":"36.99766352","long":"127.27031791","imageIndex":17,"items":[{"name":"대일주방","tel":"031-677-0248","addr":"경기도 안성시 도기동 214-5번지","indutype":"주방용구 - 주방용구","category":"other"},{"name":"수성운반기계","tel":"031-662-2676","addr":"경기도 안성시 도기동 214-5번지","indutype":"기타 - 기계공구","category":"other"}]},{"lat":"37.000383988","long":"127.27065323","imageIndex":17,"items":[{"name":"대한건재","tel":"031-674-3648","addr":"경기도 안성시 도기동 58-10번지","indutype":"건축자재 - 기타건축자재","category":"other"}]},{"lat":"36.999798476","long":"127.27057254","imageIndex":17,"items":[{"name":"대한사료안성대리점","tel":"031-672-7788","addr":"경기도 안성시 도기동 69-5번지","indutype":"농업 - 비료,사료,종자","category":"other"}]},{"lat":"36.993358421","long":"127.26942664","imageIndex":17,"items":[{"name":"동승건설공구","tel":"031-676-0949","addr":"경기도 안성시 도기동 207-5번지","indutype":"기타 - 기계공구","category":"other"}]},{"lat":"36.99782801","long":"127.2692962","imageIndex":17,"items":[{"name":"동진포장비니루상사","tel":"031-675-0655","addr":"경기도 안성시 도기동 73-6번지","indutype":"유통업 영리 - 기타유통업","category":"other"}]},{"lat":"37.000437164","long":"127.27104662","imageIndex":17,"items":[{"name":"드림업엔터테인먼트","tel":"031-674-0774","addr":"경기도 안성시 도기동 57-6번지","indutype":"용역 서비스 - 종합용역","category":"other"}]},{"lat":"37.003882833","long":"127.26540759","imageIndex":17,"items":[{"name":"라온공방","tel":"","addr":"경기도 안성시 도기동 140-2번지","indutype":"신변잡화 - 가방","category":"other"}]},{"lat":"36.997357084","long":"127.27035054","imageIndex":17,"items":[{"name":"롯데리사이클","tel":"031-673-1688","addr":"경기도 안성시 도기동 214-4번지","indutype":"가구 - 일반가구","category":"other"}]},{"lat":"37.000612611","long":"127.27314807","imageIndex":17,"items":[{"name":"모타플러스","tel":"031-674-4667","addr":"경기도 안성시 도기동 241번지","indutype":"수리서비스 - 기타수리서비스","category":"other"}]},{"lat":"36.997187449","long":"127.26965345","imageIndex":17,"items":[{"name":"미래투어(주)","tel":"031-676-7744","addr":"경기도 안성시 도기동 92번지","indutype":"여행 - 관광여행","category":"other"},{"name":"산업안전사","tel":"031-671-2777","addr":"경기도 안성시 도기동 92번지","indutype":"기타 - 기계공구","category":"other"},{"name":"삼삼종합광고기획","tel":"031-671-3309","addr":"경기도 안성시 도기동 92번지","indutype":"건축자재 - 인테리어전문","category":"other"},{"name":"서진공구상사","tel":"031-674-0934","addr":"경기도 안성시 도기동 92번지","indutype":"기타 - 기계공구","category":"other"}]},{"lat":"37.000854739","long":"127.26967749","imageIndex":17,"items":[{"name":"배드민턴매니아","tel":"031-675-0035","addr":"경기도 안성시 도기동 59-11번지","indutype":"레져용품 - 스포츠·레져용품","category":"other"},{"name":"삼성이앤비(E&B)","tel":"031-335-9204","addr":"경기도 안성시 도기동 59-11번지","indutype":"건축자재 - 보일러·펌프·샷시","category":"other"},{"name":"지에이시스템(G A SYSTEM)","tel":"","addr":"경기도 안성시 도기동 59-11번지","indutype":"용역 서비스 - 종합용역","category":"other"}]},{"lat":"37.000577054","long":"127.27293449","imageIndex":17,"items":[{"name":"백남공업사","tel":"031-675-6528","addr":"경기도 안성시 도기동 241-3번지","indutype":"수리서비스 - 기타수리서비스","category":"other"}]},{"lat":"36.995357085","long":"127.2661534","imageIndex":17,"items":[{"name":"베스트종합상사","tel":"031-677-7712","addr":"경기도 안성시 도기동 333-8번지","indutype":"신변잡화 - 기타잡화","category":"other"}]},{"lat":"36.998774199","long":"127.26926579","imageIndex":17,"items":[{"name":"비전산업","tel":"031-677-7189","addr":"경기도 안성시 도기동 42-6번지","indutype":"용역 서비스 - 기타용역서비스","category":"other"}]},{"lat":"36.99463474","long":"127.26682492","imageIndex":17,"items":[{"name":"비타간판","tel":"031-671-9595","addr":"경기도 안성시 도기동 255-1번지","indutype":"건축자재 - 인테리어전문","category":"other"}]},{"lat":"36.996998151","long":"127.26968649","imageIndex":17,"items":[{"name":"삼성재활용쎈타","tel":"031-677-4442","addr":"경기도 안성시 도기동 92-5번지","indutype":"전기제품 - 가전제품","category":"other"},{"name":"영림하우징","tel":"031-677-1472","addr":"경기도 안성시 도기동 92-5번지","indutype":"건축자재 - 건축용 요업제품","category":"other"}]},{"lat":"36.99833119","long":"127.26992706","imageIndex":17,"items":[{"name":"상보정밀","tel":"031-676-2764","addr":"경기도 안성시 도기동 52-1번지","indutype":"기타 - 기계공구","category":"other"}]},{"lat":"36.998743475","long":"127.27090587","imageIndex":17,"items":[{"name":"새생활알뜰매장","tel":"031-674-6419","addr":"경기도 안성시 도기동 220-1번지","indutype":"신변잡화 - 기타잡화","category":"other"}]},{"lat":"36.99808076","long":"127.26909487","imageIndex":17,"items":[{"name":"세기고압호스상사","tel":"031-674-7074","addr":"경기도 안성시 도기동 73-1","indutype":"건축자재 - 건축용 요업제품","category":"other"}]},{"lat":"36.997384509","long":"127.26204878","imageIndex":17,"items":[{"name":"세븐일레븐도기행복점","tel":"","addr":"경기도 안성시 도기동 437번지","indutype":"유통업 영리 - 편 의 점","category":"other"}]},{"lat":"37.001192408","long":"127.26776881","imageIndex":17,"items":[{"name":"세븐일레븐안성광명점","tel":"031-1577-0711","addr":"경기도 안성시 도기동 100-13번지 1층","indutype":"유통업 영리 - 편 의 점","category":"other"}]},{"lat":"37.000416066","long":"127.26840648","imageIndex":17,"items":[{"name":"신안농기계","tel":"031-673-2020","addr":"경기도 안성시 도기동 18-2번지","indutype":"농업 - 농기계","category":"other"}]},{"lat":"37.004188398","long":"127.26576816","imageIndex":17,"items":[{"name":"씨유안성인지로2호점","tel":"031-691-8040","addr":"경기도 안성시 도기동 139-4번지","indutype":"유통업 영리 - 편 의 점","category":"other"}]},{"lat":"37.003911031","long":"127.26487965","imageIndex":17,"items":[{"name":"안성 중앙로타리클럽","tel":"031-675-5636","addr":"경기도 안성시 도기동 140-14번지 3층","indutype":"기타 - 비영리/비대상","category":"other"}]},{"lat":"36.99777171","long":"127.27426141","imageIndex":17,"items":[{"name":"안성맞춤가구백화점","tel":"031-677-8510","addr":"경기도 안성시 도기동 337-6번지","indutype":"가구 - 일반가구","category":"other"}]},{"lat":"36.996969577","long":"127.27037165","imageIndex":17,"items":[{"name":"안성맞춤광고","tel":"031-676-0010","addr":"경기도 안성시 도기동 213-1번지","indutype":"의류 - 단체복","category":"other"}]},{"lat":"37.003660888","long":"127.26390136","imageIndex":17,"items":[{"name":"안성수족관","tel":"","addr":"경기도 안성시 도기동 145-5번지 1층 일부","indutype":"문화.취미 - 수족관","category":"other"}]},{"lat":"37.000106278","long":"127.26993327","imageIndex":17,"items":[{"name":"안성시보건소/보건행정팀","tel":"031-678-5717","addr":"경기도 안성시 도기동 67-21번지","indutype":"기타의료기관 - 기타의료기관 및 기타","category":"other"}]},{"lat":"37.004576773","long":"127.2653538","imageIndex":17,"items":[{"name":"안성종합사무기","tel":"031-677-6285","addr":"경기도 안성시 도기동 544-154번지","indutype":"사무통신 - 사무용 OA기기","category":"other"}]},{"lat":"37.003497287","long":"127.26454118","imageIndex":17,"items":[{"name":"안성중앙로타리클럽","tel":"031-675-2570","addr":"경기도 안성시 도기동 137","indutype":"기타 - 비영리/비대상","category":"other"}]},{"lat":"36.997889721","long":"127.26990305","imageIndex":17,"items":[{"name":"에이스판넬주식회사","tel":"031-671-0034","addr":"경기도 안성시 도기동 73번지","indutype":"건축자재 - 기타건축자재","category":"other"}]},{"lat":"37.001472789","long":"127.26729793","imageIndex":17,"items":[{"name":"우신가축약품","tel":"031-676-1996","addr":"경기도 안성시 도기동 100-7번지","indutype":"농업 - 비료,사료,종자","category":"other"}]},{"lat":"37.001331743","long":"127.26179255","imageIndex":17,"items":[{"name":"으뜸산업주식회사","tel":"031-602-7713","addr":"경기도 안성시 도기동 114-1번지","indutype":"건축자재 - 기타건축자재","category":"other"}]},{"lat":"37.000551552","long":"127.2682609","imageIndex":17,"items":[{"name":"진영유공압","tel":"031-674-8331","addr":"경기도 안성시 도기동 18-4번지","indutype":"기타 - 기계공구","category":"other"},{"name":"창성엔지니어링","tel":"031-676-7617","addr":"경기도 안성시 도기동 18-4번지","indutype":"건축자재 - 기타건축자재","category":"other"}]},{"lat":"36.992025203","long":"127.26926472","imageIndex":17,"items":[{"name":"태현에너텍","tel":"031-674-6111","addr":"경기도 안성시 도기동 210번지","indutype":"전기제품 - 냉열기기","category":"other"}]},{"lat":"37.000972937","long":"127.26920606","imageIndex":17,"items":[{"name":"풍림상사","tel":"031-673-8415","addr":"경기도 안성시 도기동 61-17번지","indutype":"기타 - 기계공구","category":"other"}]},{"lat":"37.004687602","long":"127.26412957","imageIndex":17,"items":[{"name":"하나로텍","tel":"070-4140-9518","addr":"경기도 안성시 도기동 544-216번지","indutype":"전기제품 - 기타전기제품","category":"other"}]},{"lat":"36.998999968","long":"127.2690419","imageIndex":17,"items":[{"name":"해성천막기업","tel":"031-676-9530","addr":"경기도 안성시 도기동 42번지","indutype":"직물 - 카페트,커튼,천막,지물","category":"other"}]},{"lat":"36.998469022","long":"127.26873673","imageIndex":17,"items":[{"name":"현대배관","tel":"031-673-0866","addr":"경기도 안성시 도기동 40-4번지","indutype":"건축자재 - 기타건축자재","category":"other"},{"name":"현대배관","tel":"031-673-0866","addr":"경기도 안성시 도기동 40-4번지","indutype":"건축자재 - 건축용 요업제품","category":"other"}]},{"lat":"37.004415823","long":"127.2647915","imageIndex":17,"items":[{"name":"현대장갑","tel":"031-675-8527","addr":"경기도 안성시 도기동 139-21번지","indutype":"의류 - 기타의류","category":"other"}]},{"lat":"37.001805913","long":"127.26334452","imageIndex":17,"items":[{"name":"호산나화원","tel":"031-675-2515","addr":"경기도 안성시 도기동 109-6번지","indutype":"문화.취미 - 화원","category":"other"}]}]