[{"lat":"37.63519327","long":"127.21463694","imageIndex":0,"items":[{"name":"K. S상사","tel":"031-591-6212","addr":"경기도 남양주시 금곡동 185-21","indutype":"자동차정비 유지 - 자동차부품","category":"car"}]},{"lat":"37.633671201","long":"127.20922869","imageIndex":0,"items":[{"name":"Solar Gard/더카(The Car)","tel":"031-592-1177","addr":"경기도 남양주시 금곡동 426-5번지","indutype":"자동차정비 유지 - 카인테리어","category":"car"},{"name":"랜덤카오디오","tel":"031-592-1177","addr":"경기도 남양주시 금곡동 426-5번지","indutype":"자동차정비 유지 - 자동차부품","category":"car"},{"name":"소울광택","tel":"031-592-1177","addr":"경기도 남양주시 금곡동 426-5번지","indutype":"자동차정비 유지 - 카인테리어","category":"car"}]},{"lat":"37.630672356","long":"127.20319361","imageIndex":0,"items":[{"name":"가자자동차매매상사","tel":"031-595-6000","addr":"경기도 남양주시 금곡동 677-9번지","indutype":"자동차판매 - 중고자동차판매","category":"car"}]},{"lat":"37.626478732","long":"127.20028241","imageIndex":0,"items":[{"name":"금곡자동차공업사","tel":"031-595-9990","addr":"경기도 남양주시 금곡동 615-3번지 외2필지","indutype":"자동차정비 유지 - 자동차정비","category":"car"}]},{"lat":"37.632417588","long":"127.20475034","imageIndex":0,"items":[{"name":"금곡점기아오토큐","tel":"031-592-0034","addr":"경기도 남양주시 금곡동 433-23번지","indutype":"자동차정비 유지 - 자동차정비","category":"car"}]},{"lat":"37.627054745","long":"127.20064643","imageIndex":0,"items":[{"name":"금성카센타","tel":"031-595-7797","addr":"경기도 남양주시 금곡동 622-3번지","indutype":"자동차정비 유지 - 자동차정비","category":"car"}]},{"lat":"37.633284275","long":"127.20372175","imageIndex":0,"items":[{"name":"금영자동차유리","tel":"031-592-2877","addr":"경기도 남양주시 금곡동 682-10번지","indutype":"자동차정비 유지 - 자동차부품","category":"car"}]},{"lat":"37.635667885","long":"127.21624705","imageIndex":0,"items":[{"name":"남양주시청/교통관리과","tel":"031-590-4431","addr":"경기도 남양주시 금곡동 185-10번지","indutype":"자동차정비 유지 - 견인서비스","category":"car"}]},{"lat":"37.624362022","long":"127.21044899","imageIndex":0,"items":[{"name":"도현상사","tel":"","addr":"경기도 남양주시 금곡동 128-3번지","indutype":"자동차정비 유지 - 자동차부품","category":"car"}]},{"lat":"37.636610604","long":"127.20794526","imageIndex":0,"items":[{"name":"동부삼성부품","tel":"031-559-9791","addr":"경기도 남양주시 금곡동 404-20 동부삼성부품(한건대)","indutype":"자동차정비 유지 - 자동차부품","category":"car"}]},{"lat":"37.633387869","long":"127.20636168","imageIndex":0,"items":[{"name":"동현카케어","tel":"031-111-1111","addr":"경기도 남양주시 금곡동 428-5번지 1층 외1필지 102호","indutype":"자동차정비 유지 - 카인테리어","category":"car"},{"name":"타이어월드 금곡점","tel":"031-511-4567","addr":"경기도 남양주시 금곡동 428-5번지 외1필지","indutype":"자동차정비 유지 - 자동차시트·타이어","category":"car"}]},{"lat":"37.635643896","long":"127.21455892","imageIndex":0,"items":[{"name":"마스타금곡점","tel":"031-595-3560","addr":"경기도 남양주시 금곡동 185-20번지","indutype":"자동차정비 유지 - 자동차정비","category":"car"},{"name":"장연24시셀프세차타운(올댓카니발남양주지","tel":"031-511-9926","addr":"경기도 남양주시 금곡동 185-20번지","indutype":"자동차정비 유지 - 세차장","category":"car"}]},{"lat":"37.637280573","long":"127.21627432","imageIndex":0,"items":[{"name":"명품","tel":"031-593-1156","addr":"경기도 남양주시 금곡동 203-47번지 대림빌라 202호","indutype":"자동차정비 유지 - 카인테리어","category":"car"}]},{"lat":"37.632808505","long":"127.20794614","imageIndex":0,"items":[{"name":"모터라인카서비스","tel":"031-595-9546","addr":"경기도 남양주시 금곡동 434-18번지","indutype":"자동차정비 유지 - 자동차정비","category":"car"},{"name":"미금카센타","tel":"031-591-4344","addr":"경기도 남양주시 금곡동 434-18번지","indutype":"자동차정비 유지 - 자동차정비","category":"car"}]},{"lat":"37.633609162","long":"127.20863941","imageIndex":0,"items":[{"name":"미금세차장","tel":"031-592-1177","addr":"경기도 남양주시 금곡동 428-3번지","indutype":"자동차정비 유지 - 세차장","category":"car"},{"name":"미금자동차공업사","tel":"031-592-1178","addr":"경기도 남양주시 금곡동 428-3번지","indutype":"자동차정비 유지 - 자동차정비","category":"car"},{"name":"미금플러스","tel":"031-592-1177","addr":"경기도 남양주시 금곡동 428-3번지","indutype":"자동차정비 유지 - 자동차시트·타이어","category":"car"}]},{"lat":"37.633309703","long":"127.20986211","imageIndex":0,"items":[{"name":"보쉬카서비스남양주점","tel":"031-592-9590","addr":"경기도 남양주시 금곡동 156-11","indutype":"자동차정비 유지 - 자동차정비","category":"car"}]},{"lat":"37.63436201","long":"127.20041655","imageIndex":0,"items":[{"name":"비원정비기기","tel":"070-7755-0012","addr":"경기도 남양주시 금곡동 697-36번지 해담채빌 105동 401호","indutype":"자동차정비 유지 - 자동차부품","category":"car"}]},{"lat":"37.634970158","long":"127.21344674","imageIndex":0,"items":[{"name":"서진모터스","tel":"02-496-4424","addr":"경기도 남양주시 금곡동 158-8번지","indutype":"자동차정비 유지 - 자동차정비","category":"car"}]},{"lat":"37.625055391","long":"127.20016537","imageIndex":0,"items":[{"name":"스피드메이트금강점","tel":"031-595-6775","addr":"경기도 남양주시 금곡동 659-2번지","indutype":"자동차정비 유지 - 자동차정비","category":"car"}]},{"lat":"37.634367156","long":"127.21308251","imageIndex":0,"items":[{"name":"와이에스모터스(YS MOTORS)","tel":"031-514-7600","addr":"경기도 남양주시 금곡동 154-27번지 동한빌딩 1층","indutype":"자동차정비 유지 - 자동차부품","category":"car"}]},{"lat":"37.634226861","long":"127.20572953","imageIndex":0,"items":[{"name":"우진상사","tel":"031-511-8230","addr":"경기도 남양주시 금곡동 404-202번지 백림원룸 지하층 1호","indutype":"자동차정비 유지 - 자동차부품","category":"car"}]},{"lat":"37.630528854","long":"127.20280805","imageIndex":0,"items":[{"name":"월드카닥터하우스","tel":"031-591-5911","addr":"경기도 남양주시 금곡동 677-5번지","indutype":"자동차정비 유지 - 자동차정비","category":"car"}]},{"lat":"37.625062159","long":"127.20150205","imageIndex":0,"items":[{"name":"일단정지카센타","tel":"031-511-6954","addr":"경기도 남양주시 금곡동 656-3번지","indutype":"자동차정비 유지 - 자동차정비","category":"car"}]},{"lat":"37.633166049","long":"127.20436718","imageIndex":0,"items":[{"name":"자동차와좋은사람들","tel":"031-574-4568","addr":"경기도 남양주시 금곡동 432-15번지 풍납금성칡냉면 1층 1호","indutype":"자동차정비 유지 - 자동차정비","category":"car"}]},{"lat":"37.634201183","long":"127.21013648","imageIndex":0,"items":[{"name":"태인컴퍼니","tel":"","addr":"경기도 남양주시 금곡동 423-5번지 5층 A592","indutype":"자동차정비 유지 - 자동차부품","category":"car"}]},{"lat":"37.624695101","long":"127.2106085","imageIndex":0,"items":[{"name":"포이스","tel":"031-556-0898","addr":"경기도 남양주시 금곡동 130번지","indutype":"자동차정비 유지 - 자동차부품","category":"car"}]},{"lat":"37.627368371","long":"127.20166678","imageIndex":0,"items":[{"name":"현대오토서비스","tel":"031-591-5911","addr":"경기도 남양주시 금곡동 653번지","indutype":"자동차정비 유지 - 자동차정비","category":"car"}]},{"lat":"37.636781295","long":"127.20822896","imageIndex":0,"items":[{"name":"형제카오디오","tel":"031-591-2414","addr":"경기도 남양주시 금곡동 404-15번지 1층","indutype":"자동차정비 유지 - 자동차시트·타이어","category":"car"}]},{"lat":"37.632170546","long":"127.20694745","imageIndex":0,"items":[{"name":"홍유릉 주차장","tel":"","addr":"경기도 남양주시 금곡동 437-3번지","indutype":"자동차정비 유지 - 주차장","category":"car"}]}]