[{"lat":"38.074310015","long":"127.30873353","imageIndex":13,"items":[{"name":"(주)동우/몽베르CC","tel":"031-531-3841","addr":"경기도 포천시 영북면 산정리 558-1번지","indutype":"레저업소 - 골프경기장","category":"leisure"}]},{"lat":"38.065448592","long":"127.31428031","imageIndex":13,"items":[{"name":"Sing-ing Room 노래연습장","tel":"031-540-9713","addr":"경기도 포천시 영북면 산정리 454-4번지","indutype":"레저업소 - 노 래 방","category":"leisure"}]},{"lat":"38.068141545","long":"127.32459339","imageIndex":13,"items":[{"name":"명성오락장","tel":"031-000-0000","addr":"경기도 포천시 영북면 산정리 188번지","indutype":"레저업소 - 기타레져업소","category":"leisure"},{"name":"어쭈구리 오락장","tel":"031-532-1187","addr":"경기도 포천시 영북면 산정리 188번지 상동주차장","indutype":"레저업소 - 기타레져업소","category":"leisure"}]},{"lat":"38.065955737","long":"127.31667547","imageIndex":13,"items":[{"name":"산울림노래연습장","tel":"031-533-5725","addr":"경기도 포천시 영북면 산정리 451-4","indutype":"레저업소 - 노 래 방","category":"leisure"}]},{"lat":"38.063560638","long":"127.32616863","imageIndex":13,"items":[{"name":"산정리저트","tel":"031-531-4372","addr":"경기도 포천시 영북면 산정리 80번지","indutype":"레저업소 - 기타레져업소","category":"leisure"}]},{"lat":"38.049954138","long":"127.32392136","imageIndex":13,"items":[{"name":"아버지 숲","tel":"070-7551-3209","addr":"경기도 포천시 영북면 산정리 154","indutype":"레저업소 - 기타레져업소","category":"leisure"}]},{"lat":"38.089368202","long":"127.32075376","imageIndex":13,"items":[{"name":"주식회사명산글레저","tel":"031-535-2250","addr":"경기도 포천시 영북면 산정리 353번지","indutype":"레저업소 - 기타레져업소","category":"leisure"}]},{"lat":"38.068421912","long":"127.32419577","imageIndex":13,"items":[{"name":"호수랜드","tel":"031-535-2144","addr":"경기도 포천시 영북면 산정리 75번지","indutype":"레저업소 - 기타레져업소","category":"leisure"}]},{"lat":"38.050346002","long":"127.3447037","imageIndex":17,"items":[{"name":"(주)산정농산식품","tel":"031-531-2597","addr":"경기도 포천시 영북면 산정리 801-5번지","indutype":"유통업 영리 - 기타유통업","category":"other"}]},{"lat":"38.066725928","long":"127.32503162","imageIndex":17,"items":[{"name":"GS25산정호수","tel":"-","addr":"경기도 포천시 영북면 산정리 186-5번지 다동 1층","indutype":"편의점 - 편의점","category":"other"},{"name":"GS25산정호수점","tel":"02-2006-2485","addr":"경기도 포천시 영북면 산정리 186-5 제다동1층","indutype":"유통업 영리 - 편 의 점","category":"other"}]},{"lat":"38.067479726","long":"127.31272772","imageIndex":17,"items":[{"name":"GS25산정호수하동","tel":"-","addr":"경기도 포천시 영북면 산정리 508-4번지 제가동호","indutype":"편의점 - 편의점","category":"other"}]},{"lat":"38.06761567","long":"127.31242062","imageIndex":17,"items":[{"name":"GS25산정호수하동점","tel":"","addr":"경기도 포천시 영북면 산정리 508번지 가동","indutype":"유통업 영리 - 편 의 점","category":"other"}]},{"lat":"38.065448592","long":"127.31428031","imageIndex":17,"items":[{"name":"GS25한화리조트산정호수점","tel":"","addr":"경기도 포천시 영북면 산정리 454-4번지 지하1층","indutype":"유통업 영리 - 편 의 점","category":"other"}]},{"lat":"38.074648682","long":"127.32031395","imageIndex":17,"items":[{"name":"가비가배","tel":"070-4112-3460","addr":"경기도 포천시 영북면 산정리 430번지","indutype":"유통업 영리 - 편 의 점","category":"other"}]},{"lat":"38.066981226","long":"127.31386517","imageIndex":17,"items":[{"name":"궁예","tel":"031-531-9988","addr":"경기도 포천시 영북면 산정리 446-2번지","indutype":"회원제형태 - 기타1","category":"other"}]},{"lat":"38.068005569","long":"127.32490048","imageIndex":17,"items":[{"name":"그린슈퍼","tel":"533-3234","addr":"경기도 포천시 영북면 산정리 75-9번지","indutype":"도소매 - 잡화","category":"other"}]},{"lat":"38.062006698","long":"127.31444804","imageIndex":17,"items":[{"name":"꼬꼬지","tel":"031-534-2420","addr":"경기도 포천시 영북면 산정리 456-11번지","indutype":"문화.취미 - 민예·공예품","category":"other"}]},{"lat":"38.068533036","long":"127.32309087","imageIndex":17,"items":[{"name":"남매쉼터","tel":"531-8456","addr":"경기도 포천시 영북면 산정리 191-1번지","indutype":"소매업 - 잡화","category":"other"},{"name":"산호휴게매점","tel":"532-1102","addr":"경기도 포천시 영북면 산정리 191-1번지","indutype":"소매업 - 잡화","category":"other"}]},{"lat":"38.075785766","long":"127.32291735","imageIndex":17,"items":[{"name":"농업회사법인(주)에스디컴퍼니","tel":"031-532-5153","addr":"경기도 포천시 영북면 산정리 280-2번지","indutype":"문화.취미 - 화원","category":"other"},{"name":"농업회사법인㈜에스디컴퍼니","tel":"","addr":"경기도 포천시 영북면 산정리 280-2번지","indutype":"서비스 - 꽃,생화","category":"other"}]},{"lat":"38.081588978","long":"127.31906741","imageIndex":17,"items":[{"name":"뉴프라임","tel":"031-826-9418","addr":"경기도 포천시 영북면 산정리 424-20번지","indutype":"유통업 영리 - 편 의 점","category":"other"}]},{"lat":"38.067259062","long":"127.32772329","imageIndex":17,"items":[{"name":"마지막휴게소","tel":"031-532-6972","addr":"경기도 포천시 영북면 산정리 196-31번지","indutype":"신변잡화 - 기타잡화","category":"other"}]},{"lat":"38.066177348","long":"127.31464805","imageIndex":17,"items":[{"name":"부현","tel":"","addr":"경기도 포천시 영북면 산정리 453-4번지","indutype":"소매업 - 잡화","category":"other"},{"name":"부현","tel":"","addr":"경기도 포천시 영북면 산정리 453-4번지","indutype":"문화.취미 - 문화취미기타","category":"other"}]},{"lat":"38.079061288","long":"127.32098267","imageIndex":17,"items":[{"name":"산정레저","tel":"031-534-9967","addr":"경기도 포천시 영북면 산정리 323번지","indutype":"레져용품 - 스포츠·레져용품","category":"other"}]},{"lat":"38.07609033","long":"127.3235569","imageIndex":17,"items":[{"name":"산정리조트","tel":"070-4112-3460","addr":"경기도 포천시 영북면 산정리 277번지","indutype":"유통업 영리 - 편 의 점","category":"other"}]},{"lat":"38.068614358","long":"127.30948473","imageIndex":17,"items":[{"name":"산정호수노인요양센터","tel":"031-534-2883","addr":"경기도 포천시 영북면 산정리 507-4번지","indutype":"기타의료기관 - 기타의료기관 및 기타","category":"other"}]},{"lat":"38.065955737","long":"127.31667547","imageIndex":17,"items":[{"name":"산정호수마을회","tel":"532-6135","addr":"경기도 포천시 영북면 산정리 451-4번지","indutype":"소매업 - 잡화","category":"other"},{"name":"이마트24 산정호수점","tel":"031-888-9999","addr":"경기도 포천시 영북면 산정리 451-4번지 1층","indutype":"유통업 영리 - 편 의 점","category":"other"},{"name":"이마트24산정호수점","tel":"533-5725","addr":"경기도 포천시 영북면 산정리 451-4번지","indutype":"편의점 - 잡화","category":"other"}]},{"lat":"38.067674385","long":"127.32739466","imageIndex":17,"items":[{"name":"선정호수 케이블카점","tel":"031-533-6770","addr":"경기도 포천시 영북면 산정리 196-29번지","indutype":"신변잡화 - 기타잡화","category":"other"}]},{"lat":"38.049893307","long":"127.3061141","imageIndex":17,"items":[{"name":"세븐일레븐평강식물원점","tel":"031-1577-0711","addr":"경기도 포천시 영북면 산정리 728번지 1층","indutype":"유통업 영리 - 편 의 점","category":"other"}]},{"lat":"38.053649988","long":"127.34550521","imageIndex":17,"items":[{"name":"쉼","tel":"031-531-0755","addr":"경기도 포천시 영북면 산정리 98-51번지","indutype":"유통업 영리 - 편 의 점","category":"other"}]},{"lat":"38.067202489","long":"127.31195166","imageIndex":17,"items":[{"name":"옹기 종기 모여서","tel":"031-533-4678","addr":"경기도 포천시 영북면 산정리 505-5","indutype":"주방용구 - 주방용식기","category":"other"}]},{"lat":"38.067143899","long":"127.31367213","imageIndex":17,"items":[{"name":"옹기의만남","tel":"031-533-4678","addr":"경기도 포천시 영북면 산정리 509번지","indutype":"주방용구 - 주방용구","category":"other"}]},{"lat":"38.068421912","long":"127.32419577","imageIndex":17,"items":[{"name":"자연산산야초","tel":"531-8456","addr":"경기도 포천시 영북면 산정리 75번지","indutype":"소매업 - 농산물","category":"other"}]},{"lat":"38.077200319","long":"127.32286653","imageIndex":17,"items":[{"name":"제2672부대/산정오코하임","tel":"031-531-9359","addr":"경기도 포천시 영북면 산정리 305-1번지","indutype":"유통업 비영리 - 구내매점(국가기관","category":"other"}]},{"lat":"38.068233099","long":"127.3240582","imageIndex":17,"items":[{"name":"태흥당","tel":"","addr":"경기도 포천시 영북면 산정리 193-10번지","indutype":"문화.취미 - 민예·공예품","category":"other"}]},{"lat":"38.068367765","long":"127.32422972","imageIndex":17,"items":[{"name":"하우스매점","tel":"-","addr":"경기도 포천시 영북면 산정리 75-14번지","indutype":"소매업 - 잡화","category":"other"}]},{"lat":"38.07487046","long":"127.30098611","imageIndex":17,"items":[{"name":"허브밸리","tel":"031-532-0730","addr":"경기도 포천시 영북면 산정리 573-3번지","indutype":"레져용품 - 스포츠·레져용품","category":"other"}]},{"lat":"38.068421912","long":"127.32419577","imageIndex":7,"items":[{"name":"CORNER샵","tel":"02-2293-4765","addr":"경기도 포천시 영북면 산정리 75번지","indutype":"음료식품 - 기타음료식품","category":"food"},{"name":"자연산 산야초","tel":"031-531-8456","addr":"경기도 포천시 영북면 산정리 75번지","indutype":"음료식품 - 농·축·수산품","category":"food"}]},{"lat":"38.068953416","long":"127.32089332","imageIndex":7,"items":[{"name":"건강나라 장수마을","tel":"031-532-3878","addr":"경기도 포천시 영북면 산정리 191-2번지","indutype":"음료식품 - 농·축·수산품","category":"food"}]},{"lat":"38.049893307","long":"127.3061141","imageIndex":7,"items":[{"name":"농업회사법인 주식회사 여울","tel":"031-532-1779","addr":"경기도 포천시 영북면 산정리 728번지 1,2층","indutype":"음료식품 - 농·축·수산품","category":"food"}]},{"lat":"38.049484517","long":"127.30742259","imageIndex":7,"items":[{"name":"누리된장","tel":"031-531-7265","addr":"경기도 포천시 영북면 산정리 723-11번지","indutype":"음료식품 - 기타음료식품","category":"food"}]},{"lat":"38.054978596","long":"127.32156204","imageIndex":7,"items":[{"name":"대덕농산물판매소","tel":"031-534-9376","addr":"경기도 포천시 영북면 산정리 산121-1번지","indutype":"음료식품 - 농·축·수산품","category":"food"},{"name":"신선 농산물","tel":"031-534-9376","addr":"경기도 포천시 영북면 산정리 산121-1번지","indutype":"음료식품 - 농·축·수산품","category":"food"}]},{"lat":"38.064733317","long":"127.3156219","imageIndex":7,"items":[{"name":"두메산골","tel":"031-534-2129","addr":"경기도 포천시 영북면 산정리 452-21번지","indutype":"음료식품 - 기타음료식품","category":"food"}]},{"lat":"38.080279031","long":"127.32041807","imageIndex":7,"items":[{"name":"몰디브","tel":"031-533-3608","addr":"경기도 포천시 영북면 산정리 325-1번지 1층","indutype":"음료식품 - 기타음료식품","category":"food"}]},{"lat":"38.068533036","long":"127.32309087","imageIndex":7,"items":[{"name":"산정 농특산물 백화점","tel":"031-536-0268","addr":"경기도 포천시 영북면 산정리 191-1번지","indutype":"음료식품 - 농·축·수산품","category":"food"},{"name":"산정호수마을회","tel":"031-532-6122","addr":"경기도 포천시 영북면 산정리 191-1번지","indutype":"음료식품 - 기타음료식품","category":"food"},{"name":"산정호수마을회","tel":"031-111-1111","addr":"경기도 포천시 영북면 산정리 191-1","indutype":"음료식품 - 기타음료식품","category":"food"},{"name":"중앙휴게실","tel":"031-534-9645","addr":"경기도 포천시 영북면 산정리 191-1번지","indutype":"음료식품 - 기타음료식품","category":"food"}]},{"lat":"38.068233099","long":"127.3240582","imageIndex":7,"items":[{"name":"산정상회","tel":"031-532-5101","addr":"경기도 포천시 영북면 산정리 193-10번지","indutype":"음료식품 - 기타음료식품","category":"food"}]},{"lat":"38.080314543","long":"127.32061198","imageIndex":7,"items":[{"name":"새로운 꿈","tel":"070-7862-1697","addr":"경기도 포천시 영북면 산정리 325-4번지","indutype":"음료식품 - 기타음료식품","category":"food"}]},{"lat":"38.075841246","long":"127.32239333","imageIndex":7,"items":[{"name":"외가댁","tel":"031-533-9632","addr":"경기도 포천시 영북면 산정리 304번지","indutype":"음료식품 - 농·축·수산품","category":"food"}]},{"lat":"38.068141545","long":"127.32459339","imageIndex":7,"items":[{"name":"일상탈출편의점","tel":"031-533-3793","addr":"경기도 포천시 영북면 산정리 188번지 2층","indutype":"음료식품 - 기타음료식품","category":"food"}]},{"lat":"38.069365243","long":"127.3082799","imageIndex":7,"items":[{"name":"포천농민영농조합법인","tel":"031-534-0602","addr":"경기도 포천시 영북면 산정리 517-34","indutype":"음료식품 - 정육점","category":"food"}]},{"lat":"38.068367765","long":"127.32422972","imageIndex":7,"items":[{"name":"하우스매점","tel":"031-533-7269","addr":"경기도 포천시 영북면 산정리 75-14번지","indutype":"음료식품 - 기타음료식품","category":"food"}]},{"lat":"38.074648682","long":"127.32031395","imageIndex":4,"items":[{"name":"가비가배","tel":"535-3460","addr":"경기도 포천시 영북면 산정리 430번지","indutype":"음식 - 커피 등","category":"restaurant"}]},{"lat":"38.063427901","long":"127.31528589","imageIndex":4,"items":[{"name":"강원식당","tel":"031-532-6425","addr":"경기도 포천시 영북면 산정리 산 21","indutype":"일반휴게음식 - 일반한식","category":"restaurant"}]},{"lat":"38.057761113","long":"127.32533414","imageIndex":4,"items":[{"name":"거목","tel":"070-4036-7753","addr":"경기도 포천시 영북면 산정리 171번지","indutype":"일반휴게음식 - 일반한식","category":"restaurant"}]},{"lat":"38.066981226","long":"127.31386517","imageIndex":4,"items":[{"name":"궁예가든","tel":"031-531-1500","addr":"경기도 포천시 영북면 산정리 446-2","indutype":"음식 - 한식","category":"restaurant"}]},{"lat":"38.068533036","long":"127.32309087","imageIndex":4,"items":[{"name":"금산가든","tel":"532-2091","addr":"경기도 포천시 영북면 산정리 191-1번지","indutype":"음식 - 한식","category":"restaurant"},{"name":"내마음에 산","tel":"031-535-7948","addr":"경기도 포천시 영북면 산정리 191-1번지","indutype":"일반휴게음식 - 일반한식","category":"restaurant"},{"name":"내마음에산","tel":"535-7948","addr":"경기도 포천시 영북면 산정리 191-1번지","indutype":"음식 - 한식","category":"restaurant"},{"name":"산정식당","tel":"-","addr":"경기도 포천시 영북면 산정리 191-1번지","indutype":"음식 - 한식","category":"restaurant"},{"name":"산정식당","tel":"031-536-0268","addr":"경기도 포천시 영북면 산정리 191-1번지","indutype":"일반휴게음식 - 일반한식","category":"restaurant"},{"name":"산호식당","tel":"031-531-8787","addr":"경기도 포천시 영북면 산정리 191-1번지","indutype":"일반휴게음식 - 일반한식","category":"restaurant"},{"name":"산호식당","tel":"531-8787","addr":"경기도 포천시 영북면 산정리 191-1번지","indutype":"음식 - 한식","category":"restaurant"},{"name":"서울식당","tel":"532-6131","addr":"경기도 포천시 영북면 산정리 191-1번지","indutype":"음식 - 한식","category":"restaurant"},{"name":"우리집","tel":"531-5776","addr":"경기도 포천시 영북면 산정리 191-1번지","indutype":"음식 - 한식","category":"restaurant"},{"name":"유정식당","tel":"031-532-6121","addr":"경기도 포천시 영북면 산정리 191-1번지","indutype":"일반휴게음식 - 일반한식","category":"restaurant"},{"name":"이모네식당","tel":"534-6173","addr":"경기도 포천시 영북면 산정리 191-1번지","indutype":"음식 - 한식","category":"restaurant"},{"name":"중앙식당","tel":"532-6120","addr":"경기도 포천시 영북면 산정리 191-1번지","indutype":"음식 - 한식","category":"restaurant"},{"name":"해룡식당","tel":"031-532-6110","addr":"경기도 포천시 영북면 산정리 191-1번지","indutype":"일반휴게음식 - 일반한식","category":"restaurant"},{"name":"해룡식당","tel":"532-6110","addr":"경기도 포천시 영북면 산정리 191-1번지","indutype":"음식 - 한식","category":"restaurant"}]},{"lat":"38.067394647","long":"127.32428244","imageIndex":4,"items":[{"name":"금수강산","tel":"031-531-4653","addr":"경기도 포천시 영북면 산정리 186-6번지","indutype":"일반휴게음식 - 일반한식","category":"restaurant"},{"name":"금수강산","tel":"532-7710","addr":"경기도 포천시 영북면 산정리 186-6번지","indutype":"음식 - 한식","category":"restaurant"},{"name":"수반","tel":"031-531-4654","addr":"경기도 포천시 영북면 산정리 186-6번지","indutype":"일반휴게음식 - 일반한식","category":"restaurant"},{"name":"수반","tel":"531-4654","addr":"경기도 포천시 영북면 산정리 186-6번지","indutype":"음식 - 한식","category":"restaurant"}]},{"lat":"38.068732727","long":"127.32583812","imageIndex":4,"items":[{"name":"낭만주막","tel":"031-532-6243","addr":"경기도 포천시 영북면 산정리 196-34번지 외1필지","indutype":"일반휴게음식 - 일반한식","category":"restaurant"}]},{"lat":"38.075727963","long":"127.32097963","imageIndex":4,"items":[{"name":"농업회사법인(주)에스디컴퍼니/야영식당","tel":"031-532-5153","addr":"경기도 포천시 영북면 산정리 294-1번지","indutype":"일반휴게음식 - 일반한식","category":"restaurant"},{"name":"농업회사법인㈜에스디컴퍼니","tel":"","addr":"경기도 포천시 영북면 산정리 294-1번지","indutype":"음식 - 한식","category":"restaurant"},{"name":"산안식당","tel":"031-533-9407","addr":"경기도 포천시 영북면 산정리 294-1번지","indutype":"일반휴게음식 - 일반한식","category":"restaurant"}]},{"lat":"38.075785766","long":"127.32291735","imageIndex":4,"items":[{"name":"농업회사법인㈜에스디컴퍼니","tel":"532-5153","addr":"경기도 포천시 영북면 산정리 280-2번지","indutype":"음식 - 한식","category":"restaurant"}]},{"lat":"38.065254658","long":"127.32275752","imageIndex":4,"items":[{"name":"뉴욕핫도그앤커피","tel":"534-0779","addr":"경기도 포천시 영북면 산정리 산23-1번지","indutype":"음식 - 커피 등","category":"restaurant"}]},{"lat":"38.068141545","long":"127.32459339","imageIndex":4,"items":[{"name":"능이꿩만두국","tel":"531-9913","addr":"경기도 포천시 영북면 산정리 188번지","indutype":"음식 - 한식","category":"restaurant"},{"name":"능이꿩만두국","tel":"031-531-9913","addr":"경기도 포천시 영북면 산정리 188번지","indutype":"일반휴게음식 - 일반한식","category":"restaurant"},{"name":"디디치킨 산정호수점","tel":"031-531-9919","addr":"경기도 포천시 영북면 산정리 188번지 1층","indutype":"일반휴게음식 - 스넥","category":"restaurant"}]},{"lat":"38.068010385","long":"127.32642751","imageIndex":4,"items":[{"name":"다리목","tel":"533-2750","addr":"경기도 포천시 영북면 산정리 196-15번지","indutype":"음식 - 한식","category":"restaurant"}]},{"lat":"38.085640611","long":"127.35478453","imageIndex":4,"items":[{"name":"대우식당","tel":"031-532-6148","addr":"경기도 포천시 영북면 산정리 1번지","indutype":"일반휴게음식 - 일반한식","category":"restaurant"}]},{"lat":"38.05664413","long":"127.32528366","imageIndex":4,"items":[{"name":"도토리전문점","tel":"031-536-4360","addr":"경기도 포천시 영북면 산정리 135번지 다동 1층","indutype":"일반휴게음식 - 일반한식","category":"restaurant"}]},{"lat":"38.064733317","long":"127.3156219","imageIndex":4,"items":[{"name":"두메산골식당","tel":"031-534-2129","addr":"경기도 포천시 영북면 산정리 452-21번지","indutype":"일반휴게음식 - 일반한식","category":"restaurant"},{"name":"두메산골식당","tel":"534-2129","addr":"경기도 포천시 영북면 산정리 452-21번지","indutype":"음식 - 한식","category":"restaurant"}]},{"lat":"38.081531883","long":"127.32019553","imageIndex":4,"items":[{"name":"둥근달","tel":"031-533-2941","addr":"경기도 포천시 영북면 산정리 344-2 344-1","indutype":"일반휴게음식 - 일반한식","category":"restaurant"}]},{"lat":"38.068201952","long":"127.32556229","imageIndex":4,"items":[{"name":"등산로가든","tel":"031-532-6235","addr":"경기도 포천시 영북면 산정리 196-22번지","indutype":"일반휴게음식 - 일반한식","category":"restaurant"},{"name":"등산로가든","tel":"532-6235","addr":"경기도 포천시 영북면 산정리 196-22번지","indutype":"음식 - 한식","category":"restaurant"}]},{"lat":"38.067812945","long":"127.31953231","imageIndex":4,"items":[{"name":"레스카페","tel":"031-533-1939","addr":"경기도 포천시 영북면 산정리 191-7번지","indutype":"일반휴게음식 - 일반한식","category":"restaurant"}]},{"lat":"38.086172479","long":"127.31983944","imageIndex":4,"items":[{"name":"맑은물펜션식당","tel":"031-531-0801","addr":"경기도 포천시 영북면 산정리 413번지","indutype":"일반휴게음식 - 일반한식","category":"restaurant"}]},{"lat":"38.067397894","long":"127.31301227","imageIndex":4,"items":[{"name":"명가쌍영해장국","tel":"031-535-1599","addr":"경기도 포천시 영북면 산정리 508-5번지 1층","indutype":"일반휴게음식 - 일반한식","category":"restaurant"},{"name":"명가쌍영해장국","tel":"535-1599","addr":"경기도 포천시 영북면 산정리 508-5번지","indutype":"음식 - 한식","category":"restaurant"}]},{"lat":"38.071090471","long":"127.30303346","imageIndex":4,"items":[{"name":"명문가든","tel":"031-531-6040","addr":"경기도 포천시 영북면 산정리 532-1번지","indutype":"일반휴게음식 - 일반한식","category":"restaurant"},{"name":"명문가든","tel":"531-6040","addr":"경기도 포천시 영북면 산정리 532-1번지","indutype":"음식 - 한식","category":"restaurant"}]},{"lat":"38.076892607","long":"127.32006152","imageIndex":4,"items":[{"name":"명성가든","tel":"031-532-6298","addr":"경기도 포천시 영북면 산정리 287-3번지","indutype":"일반휴게음식 - 일반한식","category":"restaurant"}]},{"lat":"38.062006698","long":"127.31444804","imageIndex":4,"items":[{"name":"미당","tel":"031-534-2420","addr":"경기도 포천시 영북면 산정리 456-11번지 10동","indutype":"일반휴게음식 - 일반한식","category":"restaurant"},{"name":"씨마","tel":"031-534-2420","addr":"경기도 포천시 영북면 산정리 456-11번지 1동","indutype":"일반휴게음식 - 서양음식","category":"restaurant"},{"name":"우둠지닭오리능이백숙","tel":"031-535-1355","addr":"경기도 포천시 영북면 산정리 456-11번지 8동 1층","indutype":"일반휴게음식 - 일반한식","category":"restaurant"}]},{"lat":"38.066703846","long":"127.31314608","imageIndex":4,"items":[{"name":"바비분","tel":"532-4966","addr":"경기도 포천시 영북면 산정리 504-5번지","indutype":"음식 - 한식","category":"restaurant"},{"name":"바비분식당","tel":"031-532-4966","addr":"경기도 포천시 영북면 산정리 504-5번지","indutype":"일반휴게음식 - 일반한식","category":"restaurant"}]},{"lat":"38.072202659","long":"127.32530635","imageIndex":4,"items":[{"name":"바위식당","tel":"031-531-6942","addr":"경기도 포천시 영북면 산정리 213-2","indutype":"음식 - 한식","category":"restaurant"},{"name":"바위식당","tel":"031-531-6942","addr":"경기도 포천시 영북면 산정리 213-2번지","indutype":"일반휴게음식 - 일반한식","category":"restaurant"}]},{"lat":"38.066703335","long":"127.3133398","imageIndex":4,"items":[{"name":"백송가든","tel":"534-5772","addr":"경기도 포천시 영북면 산정리 504-3번지","indutype":"음식 - 한식","category":"restaurant"},{"name":"백송가든","tel":"031-534-5772","addr":"경기도 포천시 영북면 산정리 504-3번지","indutype":"일반휴게음식 - 일반한식","category":"restaurant"}]},{"lat":"38.069365243","long":"127.3082799","imageIndex":4,"items":[{"name":"벚골도토리전문점","tel":"031-531-1810","addr":"경기도 포천시 영북면 산정리 517-34번지 1층","indutype":"일반휴게음식 - 일반한식","category":"restaurant"}]},{"lat":"38.071697754","long":"127.32545229","imageIndex":4,"items":[{"name":"베네치아","tel":"031-531-8196","addr":"경기도 포천시 영북면 산정리 203번지","indutype":"일반휴게음식 - 일반한식","category":"restaurant"}]},{"lat":"38.071978343","long":"127.32497488","imageIndex":4,"items":[{"name":"베네치아","tel":"-","addr":"경기도 포천시 영북면 산정리 208-4번지","indutype":"음식 - 한식","category":"restaurant"}]},{"lat":"38.067508942","long":"127.31189597","imageIndex":4,"items":[{"name":"블루스카이","tel":"031-534-5007","addr":"경기도 포천시 영북면 산정리 506-7번지","indutype":"일반휴게음식 - 일반한식","category":"restaurant"},{"name":"산정루","tel":"533-7671","addr":"경기도 포천시 영북면 산정리 506-7번지","indutype":"음식 - 중식","category":"restaurant"},{"name":"산정루","tel":"031-533-7671","addr":"경기도 포천시 영북면 산정리 506-7, 506-8","indutype":"일반휴게음식 - 중국식","category":"restaurant"}]},{"lat":"38.068037819","long":"127.32627949","imageIndex":4,"items":[{"name":"비룡식당","tel":"031-531-5071","addr":"경기도 포천시 영북면 산정리 196-16","indutype":"일반휴게음식 - 일반한식","category":"restaurant"}]},{"lat":"38.0687008","long":"127.30742246","imageIndex":4,"items":[{"name":"뺑드포레","tel":"031-534-4809","addr":"경기도 포천시 영북면 산정리 517-10번지","indutype":"일반휴게음식 - 서양음식","category":"restaurant"},{"name":"솔향기바람소리","tel":"534-4809","addr":"경기도 포천시 영북면 산정리 517-10번지","indutype":"음식 - 한식","category":"restaurant"}]},{"lat":"38.066785016","long":"127.3264791","imageIndex":4,"items":[{"name":"산내들","tel":"534-4861","addr":"경기도 포천시 영북면 산정리 77번지","indutype":"음식 - 한식","category":"restaurant"}]},{"lat":"38.070257506","long":"127.30464829","imageIndex":4,"items":[{"name":"산비탈","tel":"031-534-3992","addr":"경기도 포천시 영북면 산정리 528-5,528-17,528-3","indutype":"일반휴게음식 - 일반한식","category":"restaurant"}]},{"lat":"38.070338031","long":"127.30486514","imageIndex":4,"items":[{"name":"산비탈","tel":"534-3992","addr":"경기도 포천시 영북면 산정리 528-3번지","indutype":"음식 - 한식","category":"restaurant"}]},{"lat":"38.068531134","long":"127.30684057","imageIndex":4,"items":[{"name":"산수야식당","tel":"031-532-6155","addr":"경기도 포천시 영북면 산정리 517-9번지","indutype":"일반휴게음식 - 일반한식","category":"restaurant"},{"name":"산수야식당","tel":"532-6155","addr":"경기도 포천시 영북면 산정리 517-9번지","indutype":"음식 - 한식","category":"restaurant"}]},{"lat":"38.065955737","long":"127.31667547","imageIndex":4,"items":[{"name":"산울림","tel":"031-533-5725","addr":"경기도 포천시 영북면 산정리 451-4번지","indutype":"일반휴게음식 - 일반한식","category":"restaurant"},{"name":"산울림","tel":"533-5725","addr":"경기도 포천시 영북면 산정리 451-4번지","indutype":"음식 - 한식","category":"restaurant"}]},{"lat":"38.068342812","long":"127.32014996","imageIndex":4,"items":[{"name":"산정호수거기","tel":"031-533-3001","addr":"경기도 포천시 영북면 산정리 산 23-8","indutype":"일반휴게음식 - 서양음식","category":"restaurant"}]},{"lat":"38.073340809","long":"127.32420589","imageIndex":4,"items":[{"name":"산정호수파크텔","tel":"031-531-6844","addr":"경기도 포천시 영북면 산정리 263번지","indutype":"일반휴게음식 - 일반한식","category":"restaurant"}]},{"lat":"38.066229813","long":"127.32525735","imageIndex":4,"items":[{"name":"산정호수한식뷔페","tel":"031-534-2058","addr":"경기도 포천시 영북면 산정리 186-11번지","indutype":"음식 - 한식","category":"restaurant"},{"name":"산정호수한식뷔페","tel":"031-534-2202","addr":"경기도 포천시 영북면 산정리 186-11번지","indutype":"일반휴게음식 - 일반한식","category":"restaurant"},{"name":"호수와소나무카페","tel":"031-531-8834","addr":"경기도 포천시 영북면 산정리 186-11번지","indutype":"일반휴게음식 - 서양음식","category":"restaurant"}]},{"lat":"38.065784203","long":"127.31681148","imageIndex":4,"items":[{"name":"산청골","tel":"534-3253","addr":"경기도 포천시 영북면 산정리 451-15번지","indutype":"음식 - 한식","category":"restaurant"},{"name":"폭포식당","tel":"031-532-9515","addr":"경기도 포천시 영북면 산정리 451-15번지","indutype":"일반휴게음식 - 일반한식","category":"restaurant"}]},{"lat":"38.068065128","long":"127.32617705","imageIndex":4,"items":[{"name":"새마음식당","tel":"031-533-7776","addr":"경기도 포천시 영북면 산정리 196-17번지","indutype":"일반휴게음식 - 일반한식","category":"restaurant"}]},{"lat":"38.068677278","long":"127.30606627","imageIndex":4,"items":[{"name":"소담","tel":"031-531-1811","addr":"경기도 포천시 영북면 산정리 518-9번지","indutype":"일반휴게음식 - 일반한식","category":"restaurant"},{"name":"소담","tel":"","addr":"경기도 포천시 영북면 산정리 518-9번지","indutype":"음식 - 한식","category":"restaurant"}]},{"lat":"38.067590891","long":"127.31156584","imageIndex":4,"items":[{"name":"솟대","tel":"031-533-5596","addr":"경기도 포천시 영북면 산정리 506-9","indutype":"일반휴게음식 - 일반한식","category":"restaurant"},{"name":"솟대","tel":"533-5596","addr":"경기도 포천시 영북면 산정리 506-9번지","indutype":"음식 - 한식","category":"restaurant"}]},{"lat":"38.069255832","long":"127.30878086","imageIndex":4,"items":[{"name":"술빚는 전가네주막","tel":"031-532-9708","addr":"경기도 포천시 영북면 산정리 517-28번지","indutype":"음식 - 호프","category":"restaurant"},{"name":"술빚는전가네주막","tel":"031-532-9708","addr":"경기도 포천시 영북면 산정리 517-28번지","indutype":"일반휴게음식 - 일반한식","category":"restaurant"}]},{"lat":"38.068147211","long":"127.32581275","imageIndex":4,"items":[{"name":"옛고을","tel":"031-532-6238","addr":"경기도 포천시 영북면 산정리 196-20번지","indutype":"일반휴게음식 - 일반한식","category":"restaurant"}]},{"lat":"38.076586658","long":"127.32325135","imageIndex":4,"items":[{"name":"옹기종기","tel":"","addr":"경기도 포천시 영북면 산정리 305-5번지","indutype":"일반휴게음식 - 일반한식","category":"restaurant"}]},{"lat":"38.069367225","long":"127.32442782","imageIndex":4,"items":[{"name":"왕진식당","tel":"031-532-6125","addr":"경기도 포천시 영북면 산정리 193-3번지 1층","indutype":"일반휴게음식 - 일반한식","category":"restaurant"}]},{"lat":"38.0612306","long":"127.31494611","imageIndex":4,"items":[{"name":"우둠지","tel":"031-534-2420","addr":"경기도 포천시 영북면 산정리 461-7번지","indutype":"일반휴게음식 - 일반한식","category":"restaurant"},{"name":"우둠지숯불고기","tel":"031-532-2420","addr":"경기도 포천시 영북면 산정리 461-7번지","indutype":"일반휴게음식 - 일반한식","category":"restaurant"}]},{"lat":"38.056619889","long":"127.32095389","imageIndex":4,"items":[{"name":"우물목정수식당","tel":"533-7014","addr":"경기도 포천시 영북면 산정리 178-3번지","indutype":"음식 - 한식","category":"restaurant"}]},{"lat":"38.049394085","long":"127.34674997","imageIndex":4,"items":[{"name":"장발장","tel":"031-533-3345","addr":"경기도 포천시 영북면 산정리 801-112번지","indutype":"일반휴게음식 - 일반한식","category":"restaurant"}]},{"lat":"38.067120689","long":"127.31222481","imageIndex":4,"items":[{"name":"전통된장집","tel":"031-534-5034","addr":"경기도 포천시 영북면 산정리 505-8번지","indutype":"일반휴게음식 - 일반한식","category":"restaurant"}]},{"lat":"38.067479726","long":"127.31272772","imageIndex":4,"items":[{"name":"주마등","tel":"531-9987","addr":"경기도 포천시 영북면 산정리 508-4번지","indutype":"음식 - 한식","category":"restaurant"},{"name":"주마등","tel":"031-531-9987","addr":"경기도 포천시 영북면 산정리 508-4번지","indutype":"일반휴게음식 - 일반한식","category":"restaurant"},{"name":"주마등","tel":"531-9987","addr":"경기도 포천시 영북면 산정리 508-4번지","indutype":"음식 - 한식","category":"restaurant"}]},{"lat":"38.067842213","long":"127.31192016","imageIndex":4,"items":[{"name":"코바코","tel":"031-533-9993","addr":"경기도 포천시 영북면 산정리 508-7번지","indutype":"일반휴게음식 - 일반한식","category":"restaurant"}]},{"lat":"38.049893307","long":"127.3061141","imageIndex":4,"items":[{"name":"평강","tel":"031-531-7750","addr":"경기도 포천시 영북면 산정리 728번지","indutype":"일반휴게음식 - 일반한식","category":"restaurant"}]},{"lat":"38.057508988","long":"127.32528745","imageIndex":4,"items":[{"name":"하늘별리","tel":"031-532-3757","addr":"경기도 포천시 영북면 산정리 171-4번지","indutype":"일반휴게음식 - 서양음식","category":"restaurant"}]},{"lat":"38.065586888","long":"127.31648018","imageIndex":4,"items":[{"name":"한국식당","tel":"533-9757","addr":"경기도 포천시 영북면 산정리 451-8번지","indutype":"음식 - 한식","category":"restaurant"},{"name":"한국식당","tel":"031-533-9757","addr":"경기도 포천시 영북면 산정리 451-8번지","indutype":"일반휴게음식 - 일반한식","category":"restaurant"}]},{"lat":"38.069315713","long":"127.32017695","imageIndex":4,"items":[{"name":"한림각","tel":"031-532-6028","addr":"경기도 포천시 영북면 산정리 192-2번지","indutype":"일반휴게음식 - 일반한식","category":"restaurant"}]},{"lat":"38.068614358","long":"127.30948473","imageIndex":4,"items":[{"name":"해피","tel":"031-534-2883","addr":"경기도 포천시 영북면 산정리 507-4번지 지하1층","indutype":"일반휴게음식 - 위탁급식업","category":"restaurant"},{"name":"해피","tel":"031-534-2883","addr":"경기도 포천시 영북면 산정리 507-4번지 지하1층","indutype":"일반휴게음식 - 위탁급식업","category":"restaurant"}]},{"lat":"38.056977617","long":"127.32522815","imageIndex":4,"items":[{"name":"행복레스토랑","tel":"031-536-3912","addr":"경기도 포천시 영북면 산정리 171-6번지 가동 1층","indutype":"일반휴게음식 - 일반한식","category":"restaurant"},{"name":"행복레스토랑","tel":"536-3912","addr":"경기도 포천시 영북면 산정리 171-6번지","indutype":"음식 - 한식","category":"restaurant"}]},{"lat":"38.065587557","long":"127.31622948","imageIndex":4,"items":[{"name":"호수가든","tel":"031-532-6250","addr":"경기도 포천시 영북면 산정리 451-6번지","indutype":"일반휴게음식 - 일반한식","category":"restaurant"}]},{"lat":"38.051393146","long":"127.3079204","imageIndex":5,"items":[{"name":"굿모닝펜션","tel":"031-534-7313","addr":"경기도 포천시 영북면 산정리 716","indutype":"숙박업 - 여관/기타숙박업","category":"hotel"}]},{"lat":"38.049702442","long":"127.30676271","imageIndex":5,"items":[{"name":"꽃피는 언덕","tel":"031-532-1295","addr":"경기도 포천시 영북면 산정리 723-3번지","indutype":"숙박업 - 여관/기타숙박업","category":"hotel"}]},{"lat":"38.080279031","long":"127.32041807","imageIndex":5,"items":[{"name":"뉴드림","tel":"031-536-3608","addr":"경기도 포천시 영북면 산정리 325-1번지","indutype":"숙박업 - 여관/기타숙박업","category":"hotel"},{"name":"뉴드림","tel":"","addr":"경기도 포천시 영북면 산정리 325-1번지","indutype":"숙박업 - 민박","category":"hotel"}]},{"lat":"38.051150111","long":"127.30783964","imageIndex":5,"items":[{"name":"마마하우스","tel":"031-534-9776","addr":"경기도 포천시 영북면 산정리 716-2번지","indutype":"숙박업 - 여관/기타숙박업","category":"hotel"}]},{"lat":"38.09011871","long":"127.31973109","imageIndex":5,"items":[{"name":"명성산글램핑","tel":"031-533-4066","addr":"경기도 포천시 영북면 산정리 390-4번지","indutype":"숙박업 - 여관/기타숙박업","category":"hotel"}]},{"lat":"38.049179716","long":"127.3068403","imageIndex":5,"items":[{"name":"민박","tel":"031-534-3736","addr":"경기도 포천시 영북면 산정리 723-10","indutype":"숙박업 - 여관/기타숙박업","category":"hotel"}]},{"lat":"38.079224805","long":"127.3204819","imageIndex":5,"items":[{"name":"별빛하늘펜션","tel":"031-533-2604","addr":"경기도 포천시 영북면 산정리 322-4번지","indutype":"숙박업 - 여관/기타숙박업","category":"hotel"}]},{"lat":"38.049061952","long":"127.30709045","imageIndex":5,"items":[{"name":"산들바람펜션","tel":"031-533-7421","addr":"경기도 포천시 영북면 산정리 723-18번지","indutype":"숙박업 - 여관/기타숙박업","category":"hotel"}]},{"lat":"38.074784163","long":"127.32350561","imageIndex":5,"items":[{"name":"산정파인트리","tel":"031-532-8020","addr":"경기도 포천시 영북면 산정리 269-1","indutype":"숙박업 - 여관/기타숙박업","category":"hotel"}]},{"lat":"38.068533224","long":"127.30603149","imageIndex":5,"items":[{"name":"산정호수가는길","tel":"031-531-0021","addr":"경기도 포천시 영북면 산정리 518-7번지","indutype":"숙박업 - 여관/기타숙박업","category":"hotel"}]},{"lat":"38.067205678","long":"127.32420185","imageIndex":5,"items":[{"name":"산정호수황토팬션","tel":"031-532-8896","addr":"경기도 포천시 영북면 산정리 186-8번지","indutype":"숙박업 - 여관/기타숙박업","category":"hotel"}]},{"lat":"38.049647534","long":"127.30709287","imageIndex":5,"items":[{"name":"샘골펜션","tel":"031-532-1109","addr":"경기도 포천시 영북면 산정리 723-6번지","indutype":"숙박업 - 여관/기타숙박업","category":"hotel"}]},{"lat":"38.068199666","long":"127.32639416","imageIndex":5,"items":[{"name":"숲속의 하얀집","tel":"031-533-2784","addr":"경기도 포천시 영북면 산정리 196-13번지","indutype":"숙박업 - 여관/기타숙박업","category":"hotel"}]},{"lat":"38.084056188","long":"127.31953395","imageIndex":5,"items":[{"name":"숲속의 행복마을 펜션","tel":"031-532-6567","addr":"경기도 포천시 영북면 산정리 416번지","indutype":"숙박업 - 여관/기타숙박업","category":"hotel"}]},{"lat":"38.05234511","long":"127.29851355","imageIndex":5,"items":[{"name":"숲속의예쁜펜션","tel":"031-533-0472","addr":"경기도 포천시 영북면 산정리 633-2번지 가동호","indutype":"숙박업 - 여관/기타숙박업","category":"hotel"}]},{"lat":"38.065254658","long":"127.32275752","imageIndex":5,"items":[{"name":"신정장여관","tel":"031-532-6106","addr":"경기도 포천시 영북면 산정리 산23-1번지","indutype":"숙박업 - 여관/기타숙박업","category":"hotel"}]},{"lat":"38.054678424","long":"127.32262034","imageIndex":5,"items":[{"name":"아버지의 숲 산정캠프","tel":"","addr":"경기도 포천시 영북면 산정리 161-3번지","indutype":"숙박업 - 여관/기타숙박업","category":"hotel"}]},{"lat":"38.081093059","long":"127.31922484","imageIndex":5,"items":[{"name":"억새꽃펜션","tel":"031-533-2490","addr":"경기도 포천시 영북면 산정리 425-4","indutype":"숙박업 - 여관/기타숙박업","category":"hotel"}]},{"lat":"38.0612306","long":"127.31494611","imageIndex":5,"items":[{"name":"에르모사","tel":"031-534-2420","addr":"경기도 포천시 영북면 산정리 461-7번지 외2필지","indutype":"숙박업 - 여관/기타숙박업","category":"hotel"}]},{"lat":"38.05375753","long":"127.3456994","imageIndex":5,"items":[{"name":"여우쉼터","tel":"031-531-0755","addr":"경기도 포천시 영북면 산정리 98-19번지","indutype":"숙박업 - 여관/기타숙박업","category":"hotel"}]},{"lat":"38.079369194","long":"127.32039134","imageIndex":5,"items":[{"name":"여행스케치펜션","tel":"031-534-2174","addr":"경기도 포천시 영북면 산정리 322-3번지","indutype":"숙박업 - 여관/기타숙박업","category":"hotel"}]},{"lat":"38.04859407","long":"127.3137532","imageIndex":5,"items":[{"name":"우물동산 관광농원","tel":"070-4129-0400","addr":"경기도 포천시 영북면 산정리 777-3번지","indutype":"숙박업 - 여관/기타숙박업","category":"hotel"}]},{"lat":"38.049150241","long":"127.30778577","imageIndex":5,"items":[{"name":"자연민박","tel":"031-533-2339","addr":"경기도 포천시 영북면 산정리 723-13번지","indutype":"숙박업 - 여관/기타숙박업","category":"hotel"}]},{"lat":"38.048926375","long":"127.30726078","imageIndex":5,"items":[{"name":"잔디펜션","tel":"031-531-2389","addr":"경기도 포천시 영북면 산정리 723-19번지","indutype":"숙박업 - 여관/기타숙박업","category":"hotel"}]},{"lat":"38.048037736","long":"127.34845251","imageIndex":5,"items":[{"name":"파인힐 펜션","tel":"031-533-8792","addr":"경기도 포천시 영북면 산정리 801-23번지","indutype":"숙박업 - 여관/기타숙박업","category":"hotel"}]},{"lat":"38.067982008","long":"127.3269174","imageIndex":5,"items":[{"name":"펜션풀하우스","tel":"031-533-2673","addr":"경기도 포천시 영북면 산정리 196-26","indutype":"숙박업 - 여관/기타숙박업","category":"hotel"}]},{"lat":"38.089508729","long":"127.32208804","imageIndex":5,"items":[{"name":"하늘색정원","tel":"031-535-4038","addr":"경기도 포천시 영북면 산정리 361-2","indutype":"숙박업 - 여관/기타숙박업","category":"hotel"}]},{"lat":"38.092283634","long":"127.31870309","imageIndex":5,"items":[{"name":"하이엔드빌리지","tel":"031-533-1515","addr":"경기도 포천시 영북면 산정리 398번지","indutype":"숙박업 - 여관/기타숙박업","category":"hotel"},{"name":"하이엔드빌리지","tel":"031-533-1515","addr":"경기도 포천시 영북면 산정리 398번지","indutype":"숙박업 - 여관/기타숙박업","category":"hotel"}]},{"lat":"38.066725928","long":"127.32503162","imageIndex":5,"items":[{"name":"호수와소나무 스파펜션","tel":"031-534-2202","addr":"경기도 포천시 영북면 산정리 186-5","indutype":"숙박업 - 여관/기타숙박업","category":"hotel"}]},{"lat":"38.068421912","long":"127.32419577","imageIndex":7,"items":[{"name":"그린슈퍼","tel":"031-533-3234","addr":"경기도 포천시 영북면 산정리 75번지","indutype":"유통업 영리 - 슈퍼마켓","category":"mart"}]},{"lat":"38.070394958","long":"127.32417021","imageIndex":7,"items":[{"name":"다람쥐편의점","tel":"031-531-3131","addr":"경기도 포천시 영북면 산정리 201-1번지","indutype":"유통업 영리 - 슈퍼마켓","category":"mart"}]},{"lat":"38.068533036","long":"127.32309087","imageIndex":7,"items":[{"name":"대성슈퍼","tel":"031-1111-1111","addr":"경기도 포천시 영북면 산정리 191-1번지","indutype":"유통업 영리 - 슈퍼마켓","category":"mart"}]},{"lat":"38.076703327","long":"127.32009489","imageIndex":7,"items":[{"name":"명성마트","tel":"031-534-4818","addr":"경기도 포천시 영북면 산정리 287-8번지","indutype":"유통업 영리 - 슈퍼마켓","category":"mart"}]},{"lat":"38.068141545","long":"127.32459339","imageIndex":7,"items":[{"name":"명성상회","tel":"031-533-7325","addr":"경기도 포천시 영북면 산정리 188번지","indutype":"유통업 영리 - 슈퍼마켓","category":"mart"},{"name":"명성슈퍼","tel":"031-532-1187","addr":"경기도 포천시 영북면 산정리 188번지","indutype":"유통업 영리 - 슈퍼마켓","category":"mart"},{"name":"아현슈퍼","tel":"031-532-6749","addr":"경기도 포천시 영북면 산정리 188번지","indutype":"유통업 영리 - 슈퍼마켓","category":"mart"}]},{"lat":"38.068201952","long":"127.32556229","imageIndex":7,"items":[{"name":"온리원(ONLY ONE)","tel":"031-532-7235","addr":"경기도 포천시 영북면 산정리 196-22","indutype":"유통업 영리 - 슈퍼마켓","category":"mart"}]},{"lat":"38.094473037","long":"127.31862131","imageIndex":13,"items":[{"name":"더 케이 진","tel":"031-532-5485","addr":"경기도 포천시 영북면 산정리 388-1번지","indutype":"보건위생 - 화장품","category":"beauty"}]},{"lat":"38.062006698","long":"127.31444804","imageIndex":13,"items":[{"name":"우둠지찜질방","tel":"031-533-2420","addr":"경기도 포천시 영북면 산정리 456-11번지","indutype":"보건위생 - 사우나","category":"beauty"}]},{"lat":"38.068533036","long":"127.32309087","imageIndex":8,"items":[{"name":"부부 산약초","tel":"031-535-8002","addr":"경기도 포천시 영북면 산정리 191-1번지 1층","indutype":"약국 - 한약방","category":"medical"}]},{"lat":"38.062006698","long":"127.31444804","imageIndex":16,"items":[{"name":"우둠지아트빌리지","tel":"031-532-2420","addr":"경기도 포천시 영북면 산정리 456-11번지","indutype":"학원 - 기타 교육기관","category":"study"}]}]