[{"lat":"37.580149603","long":"127.22128482","imageIndex":7,"items":[{"name":"굴다리방아간","tel":"031-577-6746","addr":"경기도 남양주시 와부읍 도곡리 969-9","indutype":"음료식품 - 기타음료식품","category":"food"}]},{"lat":"37.577010051","long":"127.22828299","imageIndex":7,"items":[{"name":"그리너리플레이스","tel":"031-510-5219","addr":"경기도 남양주시 와부읍 도곡리 604번지","indutype":"음료식품 - 기타음료식품","category":"food"}]},{"lat":"37.581091325","long":"127.2376125","imageIndex":7,"items":[{"name":"농업회사법인 주식회사 이룸테크","tel":"031-521-6261","addr":"경기도 남양주시 와부읍 도곡리 산72-14번지 1층","indutype":"음료식품 - 농·축·수산품","category":"food"}]},{"lat":"37.576619269","long":"127.22530456","imageIndex":7,"items":[{"name":"농업회사법인(주)고려축산","tel":"031-521-6515","addr":"경기도 남양주시 와부읍 도곡리 1090-1번지","indutype":"음료식품 - 정육점","category":"food"}]},{"lat":"37.579094703","long":"127.21677609","imageIndex":7,"items":[{"name":"덕소고등학교매점","tel":"031-577-6284","addr":"경기도 남양주시 와부읍 도곡리 986번지 덕소고등학교","indutype":"음료식품 - 기타음료식품","category":"food"}]},{"lat":"37.581541225","long":"127.22391538","imageIndex":7,"items":[{"name":"도심건강원","tel":"031-527-5485","addr":"경기도 남양주시 와부읍 도곡리 918-11번지 1층","indutype":"건강식품 - 기타건강식품","category":"food"}]},{"lat":"37.580096789","long":"127.21566951","imageIndex":7,"items":[{"name":"두산떡방","tel":"031-521-1211","addr":"경기도 남양주시 와부읍 도곡리 985번지 두산사악 112호","indutype":"음료식품 - 제과점","category":"food"},{"name":"두산한우마을정육점","tel":"031-521-6272","addr":"경기도 남양주시 와부읍 도곡리 985번지 두산위브 상가 219호","indutype":"음료식품 - 정육점","category":"food"}]},{"lat":"37.578259149","long":"127.22525283","imageIndex":7,"items":[{"name":"떡향기","tel":"031-521-0633","addr":"경기도 남양주시 와부읍 도곡리 1060-2번지","indutype":"음료식품 - 제과점","category":"food"}]},{"lat":"37.57878267","long":"127.21494125","imageIndex":7,"items":[{"name":"뚜레쥬르 덕소두산","tel":"031-521-0445","addr":"경기도 남양주시 와부읍 도곡리 두산상가 114동 115호","indutype":"음료식품 - 제과점","category":"food"}]},{"lat":"37.577898034","long":"127.22563666","imageIndex":7,"items":[{"name":"뚜레쥬르남양주도심","tel":"031-521-1919","addr":"경기도 남양주시 와부읍 도곡리 1058-3번지 동성프라자 1015호 1015호~1016호","indutype":"음료식품 - 제과점","category":"food"}]},{"lat":"37.576842567","long":"127.22633538","imageIndex":7,"items":[{"name":"로또도곡점","tel":"031-576-9040","addr":"경기도 남양주시 와부읍 도곡리 1067-5번지 1층 4호","indutype":"음료식품 - 기타음료식품","category":"food"}]},{"lat":"37.578956699","long":"127.2232285","imageIndex":7,"items":[{"name":"롤링큐브","tel":"031-0000-0000","addr":"경기도 남양주시 와부읍 도곡리 1038-3번지 도심빌딩 1층","indutype":"음료식품 - 제과점","category":"food"}]},{"lat":"37.585060214","long":"127.23067348","imageIndex":7,"items":[{"name":"무지개 농장","tel":"031-577-1572","addr":"경기도 남양주시 와부읍 도곡리 895","indutype":"음료식품 - 농·축·수산품","category":"food"}]},{"lat":"37.578784371","long":"127.22383931","imageIndex":7,"items":[{"name":"베니코리아","tel":"031-576-7410","addr":"경기도 남양주시 와부읍 도곡리 1040-5번지","indutype":"음료식품 - 기타음료식품","category":"food"}]},{"lat":"37.580873492","long":"127.24727995","imageIndex":7,"items":[{"name":"새재골정육점","tel":"031-577-6171","addr":"경기도 남양주시 와부읍 도곡리 11-3","indutype":"음료식품 - 정육점","category":"food"}]},{"lat":"37.576121261","long":"127.22180511","imageIndex":7,"items":[{"name":"시너지","tel":"070-4184-5114","addr":"경기도 남양주시 와부읍 도곡리 1117번지 건영덕소리버파크 108동 1103호","indutype":"건강식품 - 기타건강식품","category":"food"}]},{"lat":"37.577424791","long":"127.2373859","imageIndex":7,"items":[{"name":"어룡농산","tel":"","addr":"경기도 남양주시 와부읍 도곡리 679-5번지","indutype":"음료식품 - 농·축·수산품","category":"food"}]},{"lat":"37.57939454","long":"127.22033167","imageIndex":7,"items":[{"name":"오마이찬","tel":"031-521-9413","addr":"경기도 남양주시 와부읍 도곡리 997-10번지 상가동 1층 110호","indutype":"음료식품 - 기타음료식품","category":"food"},{"name":"청석골","tel":"031-576-5844","addr":"경기도 남양주시 와부읍 도곡리 997-10번지 외3필지","indutype":"음료식품 - 기타음료식품","category":"food"},{"name":"파리바게뜨덕소도심점","tel":"031-521-0449","addr":"경기도 남양주시 와부읍 도곡리 997-10번지 1층","indutype":"음료식품 - 제과점","category":"food"}]},{"lat":"37.578703855","long":"127.22353341","imageIndex":7,"items":[{"name":"와우카페","tel":"031-1544-4315","addr":"경기도 남양주시 와부읍 도곡리 1042-1 우진빌라 201 10/2","indutype":"음료식품 - 기타음료식품","category":"food"}]},{"lat":"37.579143641","long":"127.21958377","imageIndex":7,"items":[{"name":"은혜상회","tel":"031-568-3381","addr":"경기도 남양주시 와부읍 도곡리 997-13번지 재령빌딩 1층 5호","indutype":"음료식품 - 기타음료식품","category":"food"}]},{"lat":"37.570289636","long":"127.23708055","imageIndex":7,"items":[{"name":"자연산농원","tel":"031-577-1295","addr":"경기도 남양주시 와부읍 도곡리 346","indutype":"음료식품 - 농·축·수산품","category":"food"}]},{"lat":"37.589593758","long":"127.23446895","imageIndex":7,"items":[{"name":"조씨네","tel":"031-866-0058","addr":"경기도 남양주시 와부읍 도곡리 819-2번지","indutype":"음료식품 - 농·축·수산품","category":"food"}]},{"lat":"37.578967248","long":"127.22240212","imageIndex":7,"items":[{"name":"주식회사 예스코리아","tel":"031-577-5512","addr":"경기도 남양주시 와부읍 도곡리 1025-1번지 남양주시범공단 B동 지하 101호","indutype":"음료식품 - 기타음료식품","category":"food"}]},{"lat":"37.580282965","long":"127.22224749","imageIndex":7,"items":[{"name":"청솔유통","tel":"031-111-1111","addr":"경기도 남양주시 와부읍 도곡리 1027-11번지","indutype":"음료식품 - 농·축·수산품","category":"food"}]},{"lat":"37.580008015","long":"127.21989194","imageIndex":7,"items":[{"name":"축산명가 고기백화점","tel":"","addr":"경기도 남양주시 와부읍 도곡리 972-9번지","indutype":"음료식품 - 정육점","category":"food"}]},{"lat":"37.578867024","long":"127.22300182","imageIndex":7,"items":[{"name":"카페블랑","tel":"031-576-1470","addr":"경기도 남양주시 와부읍 도곡리 1042-11번지 2층","indutype":"음료식품 - 기타음료식품","category":"food"}]},{"lat":"37.562260416","long":"127.23325251","imageIndex":7,"items":[{"name":"팔당휴게소","tel":"031-576-3598","addr":"경기도 남양주시 와부읍 도곡리 478-4번지 1층","indutype":"음료식품 - 기타음료식품","category":"food"}]},{"lat":"37.57839674","long":"127.22395137","imageIndex":7,"items":[{"name":"푸드미가","tel":"070-4233-8707","addr":"경기도 남양주시 와부읍 도곡리 1043-1","indutype":"음료식품 - 기타음료식품","category":"food"}]},{"lat":"37.589234744","long":"127.22911241","imageIndex":7,"items":[{"name":"하늘해농장","tel":"0505-333-9002","addr":"경기도 남양주시 와부읍 도곡리 846-2","indutype":"음료식품 - 농·축·수산품","category":"food"}]}]