[{"lat":"37.687099952","long":"126.86553243","imageIndex":13,"items":[{"name":"CKT(씨케이티)","tel":"031-962-8997","addr":"경기도 고양시 덕양구 관산동 188-1번지","indutype":"보건위생 - 피부미용실","category":"beauty"},{"name":"더시오헤어살롱","tel":"","addr":"경기도 고양시 덕양구 관산동 188-1번지","indutype":"보건위생 - 미용원","category":"beauty"},{"name":"아트안경관산점","tel":"031-963-2530","addr":"경기도 고양시 덕양구 관산동 188-1번지","indutype":"보건위생 - 안경","category":"beauty"}]},{"lat":"37.689153337","long":"126.86483705","imageIndex":13,"items":[{"name":"J&J 네일","tel":"031-969-1274","addr":"경기도 고양시 덕양구 관산동 112-24번지","indutype":"보건위생 - 피부미용실","category":"beauty"}]},{"lat":"37.687710332","long":"126.86359263","imageIndex":13,"items":[{"name":"w2rm한방","tel":"","addr":"경기도 고양시 덕양구 관산동 235-3번지","indutype":"보건위생 - 화장품","category":"beauty"},{"name":"정미용실","tel":"031-963-7423","addr":"경기도 고양시 덕양구 관산동 235-3번지","indutype":"보건위생 - 미용원","category":"beauty"}]},{"lat":"37.688271492","long":"126.86577969","imageIndex":13,"items":[{"name":"가디안그린","tel":"02-2678-7789","addr":"경기도 고양시 덕양구 관산동 179-6번지","indutype":"보건위생 - 피부미용실","category":"beauty"},{"name":"시저스","tel":"","addr":"경기도 고양시 덕양구 관산동 179-6번지","indutype":"보건위생 - 미용원","category":"beauty"}]},{"lat":"37.687846849","long":"126.86476012","imageIndex":13,"items":[{"name":"글라스스토리","tel":"031-962-3331","addr":"경기도 고양시 덕양구 관산동 227-11번지","indutype":"보건위생 - 안경","category":"beauty"}]},{"lat":"37.687270685","long":"126.86514665","imageIndex":13,"items":[{"name":"누리미용재료","tel":"070-8259-0062","addr":"경기도 고양시 덕양구 관산동 188-2번지","indutype":"보건위생 - 미용재료","category":"beauty"},{"name":"디엔코스(D&N Cos)","tel":"031-991-0033","addr":"경기도 고양시 덕양구 관산동 188-2번지","indutype":"보건위생 - 미용재료","category":"beauty"}]},{"lat":"37.709685363","long":"126.85662242","imageIndex":13,"items":[{"name":"눈꽃향기미용실","tel":"031-962-6240","addr":"경기도 고양시 덕양구 관산동 685-108번지","indutype":"보건위생 - 미용원","category":"beauty"},{"name":"티트리","tel":"070-5022-4846","addr":"경기도 고양시 덕양구 관산동 685-108번지","indutype":"보건위생 - 미용원","category":"beauty"}]},{"lat":"37.709321944","long":"126.85419626","imageIndex":13,"items":[{"name":"눈애꽃","tel":"","addr":"경기도 고양시 덕양구 관산동 672-66번지","indutype":"보건위생 - 피부미용실","category":"beauty"},{"name":"쑤살롱","tel":"031-963-1623","addr":"경기도 고양시 덕양구 관산동 672-66번지","indutype":"보건위생 - 미용원","category":"beauty"}]},{"lat":"37.687991229","long":"126.86495258","imageIndex":13,"items":[{"name":"다온 머리방","tel":"031-963-0959","addr":"경기도 고양시 덕양구 관산동 182-3번지","indutype":"보건위생 - 미용원","category":"beauty"},{"name":"한진화장품","tel":"031-964-5222","addr":"경기도 고양시 덕양구 관산동 182-3번지","indutype":"보건위생 - 화장품","category":"beauty"},{"name":"협신","tel":"031-963-9702","addr":"경기도 고양시 덕양구 관산동 182-3번지","indutype":"보건위생 - 이용원","category":"beauty"}]},{"lat":"37.689432608","long":"126.86481386","imageIndex":13,"items":[{"name":"더존헤어","tel":"031-2678-7789","addr":"경기도 고양시 덕양구 관산동 114번지","indutype":"보건위생 - 미용원","category":"beauty"}]},{"lat":"37.692234637","long":"126.86484268","imageIndex":13,"items":[{"name":"디아망네일","tel":"","addr":"경기도 고양시 덕양구 관산동 996번지","indutype":"보건위생 - 피부미용실","category":"beauty"},{"name":"빅토리아헤어","tel":"031-969-7215","addr":"경기도 고양시 덕양구 관산동 996번지","indutype":"보건위생 - 미용원","category":"beauty"}]},{"lat":"37.689657689","long":"126.86467739","imageIndex":13,"items":[{"name":"레일라","tel":"031-962-0240","addr":"경기도 고양시 덕양구 관산동 338-43번지","indutype":"보건위생 - 화장품","category":"beauty"}]},{"lat":"37.709071073","long":"126.85530813","imageIndex":13,"items":[{"name":"로데미용실","tel":"031-969-9991","addr":"경기도 고양시 덕양구 관산동 672-4번지","indutype":"보건위생 - 미용원","category":"beauty"}]},{"lat":"37.689457338","long":"126.86286377","imageIndex":13,"items":[{"name":"루 뷰티","tel":"031-877-5844","addr":"경기도 고양시 덕양구 관산동 338-15번지 동우빌라","indutype":"보건위생 - 화장품","category":"beauty"}]},{"lat":"37.6889644","long":"126.86506415","imageIndex":13,"items":[{"name":"리치헤어","tel":"031-964-8686","addr":"경기도 고양시 덕양구 관산동 112-41번지","indutype":"보건위생 - 미용원","category":"beauty"},{"name":"미인","tel":"070-4319-2084","addr":"경기도 고양시 덕양구 관산동 112-41번지","indutype":"보건위생 - 화장품","category":"beauty"},{"name":"이진선헤어샵#","tel":"031-964-8686","addr":"경기도 고양시 덕양구 관산동 112-41번지","indutype":"보건위생 - 미용원","category":"beauty"}]},{"lat":"37.687767243","long":"126.86603003","imageIndex":13,"items":[{"name":"매니아안경","tel":"031-963-9959","addr":"경기도 고양시 덕양구 관산동 1015번지 더퍼스트프라임","indutype":"보건위생 - 안경","category":"beauty"},{"name":"매니아안경","tel":"031-963-9959","addr":"경기도 고양시 덕양구 관산동 1015번지 더퍼스트프라임","indutype":"보건위생 - 안경","category":"beauty"},{"name":"살롱드에스에이 (Salon de SA)","tel":"070-4046-6843","addr":"경기도 고양시 덕양구 관산동 1015번지 더퍼스트프라임","indutype":"보건위생 - 미용원","category":"beauty"},{"name":"아이공감발달상담센터","tel":"","addr":"경기도 고양시 덕양구 관산동 1015번지 더퍼스트프라임","indutype":"보건위생 - 기타대인서비스","category":"beauty"},{"name":"준헤어","tel":"031-964-2949","addr":"경기도 고양시 덕양구 관산동 1015번지 더퍼스트프라임","indutype":"보건위생 - 미용원","category":"beauty"},{"name":"차이피부앤네일","tel":"031-969-4003","addr":"경기도 고양시 덕양구 관산동 1015번지 더퍼스트프라임","indutype":"보건위생 - 피부미용실","category":"beauty"}]},{"lat":"37.69040558","long":"126.86475537","imageIndex":13,"items":[{"name":"모모헤어","tel":"031-964-8381","addr":"경기도 고양시 덕양구 관산동 338-1번지","indutype":"보건위생 - 미용원","category":"beauty"},{"name":"유앤아이","tel":"031-963-2346","addr":"경기도 고양시 덕양구 관산동 338-1번지","indutype":"보건위생 - 피부미용실","category":"beauty"}]},{"lat":"37.68896355","long":"126.86433856","imageIndex":13,"items":[{"name":"바인헤어","tel":"031-969-7771","addr":"경기도 고양시 덕양구 관산동 230-2번지","indutype":"보건위생 - 미용원","category":"beauty"}]},{"lat":"37.687296771","long":"126.86434166","imageIndex":13,"items":[{"name":"벽제화장품","tel":"031-964-2159","addr":"경기도 고양시 덕양구 관산동 226-1번지","indutype":"보건위생 - 화장품","category":"beauty"}]},{"lat":"37.688630061","long":"126.86422581","imageIndex":13,"items":[{"name":"비엔비헤어","tel":"031-968-8925","addr":"경기도 고양시 덕양구 관산동 231-4번지","indutype":"보건위생 - 미용원","category":"beauty"},{"name":"사랑채의료기","tel":"031-962-9922","addr":"경기도 고양시 덕양구 관산동 231-4번지","indutype":"보건위생 - 의료용품","category":"beauty"}]},{"lat":"37.688210416","long":"126.86750307","imageIndex":13,"items":[{"name":"선영미용실","tel":"031-962-8782","addr":"경기도 고양시 덕양구 관산동","indutype":"보건위생 - 미용원","category":"beauty"}]},{"lat":"37.688326679","long":"126.86675459","imageIndex":13,"items":[{"name":"성호미용실","tel":"031-967-2965","addr":"경기도 고양시 덕양구 관산동 180-32번지","indutype":"보건위생 - 미용원","category":"beauty"}]},{"lat":"37.705044056","long":"126.86292517","imageIndex":13,"items":[{"name":"세빌리아미용실","tel":"031-970-1435","addr":"경기도 고양시 덕양구 관산동 533-2번지","indutype":"보건위생 - 미용원","category":"beauty"}]},{"lat":"37.687793216","long":"126.86512301","imageIndex":13,"items":[{"name":"수정미용실","tel":"031-962-8673","addr":"경기도 고양시 덕양구 관산동 910-1번지","indutype":"보건위생 - 미용원","category":"beauty"}]},{"lat":"37.690901983","long":"126.86550274","imageIndex":13,"items":[{"name":"알레프헤어","tel":"031-964-6477","addr":"경기도 고양시 덕양구 관산동 1009번지","indutype":"보건위생 - 미용원","category":"beauty"},{"name":"예쁜손톱","tel":"","addr":"경기도 고양시 덕양구 관산동 1009번지","indutype":"보건위생 - 피부미용실","category":"beauty"}]},{"lat":"37.689937928","long":"126.86548184","imageIndex":13,"items":[{"name":"에이스","tel":"031-963-0036","addr":"경기도 고양시 덕양구 관산동 112-22번지","indutype":"보건위생 - 미용재료","category":"beauty"}]},{"lat":"37.704983915","long":"126.85789038","imageIndex":13,"items":[{"name":"영미용실","tel":"031-962-9986","addr":"경기도 고양시 덕양구 관산동 687-56번지","indutype":"보건위생 - 미용원","category":"beauty"}]},{"lat":"37.70887178","long":"126.85444665","imageIndex":13,"items":[{"name":"오땡큐","tel":"031-962-2198","addr":"경기도 고양시 덕양구 관산동 672-47번지","indutype":"보건위생 - 미용원","category":"beauty"}]},{"lat":"37.686656755","long":"126.86405942","imageIndex":13,"items":[{"name":"유진미용실","tel":"031-966-5385","addr":"경기도 고양시 덕양구 관산동 222-2번지","indutype":"보건위생 - 미용원","category":"beauty"}]},{"lat":"37.687378601","long":"126.86497639","imageIndex":13,"items":[{"name":"은방울 머리방","tel":"031-964-9097","addr":"경기도 고양시 덕양구 관산동 188-22번지","indutype":"보건위생 - 미용원","category":"beauty"}]},{"lat":"37.688936947","long":"126.86470141","imageIndex":13,"items":[{"name":"이쁘지오","tel":"031-962-2631","addr":"경기도 고양시 덕양구 관산동 910-68번지","indutype":"보건위생 - 화장품","category":"beauty"}]},{"lat":"37.686937064","long":"126.86492052","imageIndex":13,"items":[{"name":"이소영미용실","tel":"031-969-0223","addr":"경기도 고양시 덕양구 관산동 196-5번지","indutype":"보건위생 - 미용원","category":"beauty"}]},{"lat":"37.715751932","long":"126.85915099","imageIndex":13,"items":[{"name":"이지힐통상","tel":"","addr":"경기도 고양시 덕양구 관산동 655-12번지 청솔빌","indutype":"보건위생 - 의료용품","category":"beauty"}]},{"lat":"37.688351348","long":"126.86472517","imageIndex":13,"items":[{"name":"이화머리여행","tel":"031-962-2402","addr":"경기도 고양시 덕양구 관산동 228-2번지","indutype":"보건위생 - 미용원","category":"beauty"}]},{"lat":"37.688568757","long":"126.86573379","imageIndex":13,"items":[{"name":"잔머리앤손장난","tel":"031-962-7337","addr":"경기도 고양시 덕양구 관산동 181-50번지","indutype":"보건위생 - 미용원","category":"beauty"}]},{"lat":"37.688099437","long":"126.86503174","imageIndex":13,"items":[{"name":"제이,벨헤어","tel":"070-5197-3476","addr":"경기도 고양시 덕양구 관산동 181-12번지","indutype":"보건위생 - 미용원","category":"beauty"}]},{"lat":"37.710099621","long":"126.85647418","imageIndex":13,"items":[{"name":"지니미용실","tel":"070-8161-6802","addr":"경기도 고양시 덕양구 관산동 671-4번지","indutype":"보건위생 - 미용원","category":"beauty"}]},{"lat":"37.688017966","long":"126.86470311","imageIndex":13,"items":[{"name":"청수목욕탕","tel":"031-964-8877","addr":"경기도 고양시 덕양구 관산동 227-4번지","indutype":"보건위생 - 사우나","category":"beauty"}]},{"lat":"37.68801734","long":"126.86417026","imageIndex":13,"items":[{"name":"커트클럽","tel":"031-969-5253","addr":"경기도 고양시 덕양구 관산동 231-14번지","indutype":"보건위생 - 미용원","category":"beauty"}]},{"lat":"37.687881179","long":"126.86330888","imageIndex":13,"items":[{"name":"통일로목욕탕","tel":"031-964-8833","addr":"경기도 고양시 덕양구 관산동","indutype":"보건위생 - 사우나","category":"beauty"}]},{"lat":"37.686938174","long":"126.86587284","imageIndex":13,"items":[{"name":"패리김미용실","tel":"031-962-7827","addr":"경기도 고양시 덕양구 관산동 188-11번지","indutype":"보건위생 - 미용원","category":"beauty"}]},{"lat":"37.70532685","long":"126.85835465","imageIndex":13,"items":[{"name":"해원의료기 서대문지점","tel":"02-358-0417","addr":"경기도 고양시 덕양구 관산동 540-88번지 리더스빌","indutype":"보건위생 - 의료용품","category":"beauty"}]},{"lat":"37.688152524","long":"126.86420402","imageIndex":13,"items":[{"name":"헤어노블레스","tel":"031-964-3722","addr":"경기도 고양시 덕양구 관산동 231-1번지","indutype":"보건위생 - 미용원","category":"beauty"}]},{"lat":"37.68849212","long":"126.86186789","imageIndex":13,"items":[{"name":"헤어샬롱","tel":"031-964-7843","addr":"경기도 고양시 덕양구 관산동 238-10번지","indutype":"보건위생 - 미용원","category":"beauty"}]},{"lat":"37.705624722","long":"126.85880767","imageIndex":13,"items":[{"name":"헤어죤미용실","tel":"031-962-6684","addr":"경기도 고양시 덕양구 관산동 541-19번지","indutype":"보건위생 - 미용원","category":"beauty"}]}]