[{"lat":"37.206301265","long":"127.06099724","imageIndex":4,"items":[{"name":"(주)피자알볼로 동탄","tel":"031-613-8933","addr":"경기도 화성시 반송동 54-1번지 101호","indutype":"일반휴게음식 - 서양음식","category":"restaurant"},{"name":"땡큐 꼬마김밥","tel":"070-7864-6628","addr":"경기도 화성시 반송동 54-1번지","indutype":"일반휴게음식 - 일반한식","category":"restaurant"}]},{"lat":"37.201024381","long":"127.07182921","imageIndex":4,"items":[{"name":"19홀","tel":"031-8003-1041","addr":"경기도 화성시 반송동 104-3번지 동탄미래도프라자 205호 206호","indutype":"일반휴게음식 - 일반한식","category":"restaurant"},{"name":"19홀","tel":"031-8003-1041","addr":"경기도 화성시 반송동 104-3번지 동탄미래도프라자 205,206호","indutype":"일반휴게음식 - 주점","category":"restaurant"},{"name":"경성양꼬치","tel":"031-8015-5816","addr":"경기도 화성시 반송동 104-3번지 111,112호","indutype":"일반휴게음식 - 일반한식","category":"restaurant"},{"name":"다이아 (DIA)","tel":"02-1111-1111","addr":"경기도 화성시 반송동 104-3번지 동탄미래도프라자 3층 301호","indutype":"일반휴게음식 - 칵테일바","category":"restaurant"},{"name":"닭코치비어선수","tel":"062-000-0000","addr":"경기도 화성시 반송동 104-3번지 동탄미래도프라자 113호","indutype":"일반휴게음식 - 일반한식","category":"restaurant"},{"name":"미스터 스시조","tel":"031-8015-5211","addr":"경기도 화성시 반송동 104-3번지 동탄미래도프라자 1층 109호, 110호","indutype":"일반휴게음식 - 일식·회집","category":"restaurant"},{"name":"병천순대","tel":"031-8003-0307","addr":"경기도 화성시 반송동 104-3번지 동탄미래도프라자 109호","indutype":"일반휴게음식 - 일반한식","category":"restaurant"},{"name":"브롱스","tel":"031-8015-5432","addr":"경기도 화성시 반송동 104-3번지 동탄미래도프라자 2층 202호","indutype":"일반휴게음식 - 일반한식","category":"restaurant"},{"name":"소부곱창","tel":"031-613-4986","addr":"경기도 화성시 반송동 104-3번지 동탄미래도프라자 107호","indutype":"일반휴게음식 - 일반한식","category":"restaurant"},{"name":"아마스빈 동탄남광장점","tel":"031-8003-1171","addr":"경기도 화성시 반송동 104-3번지 미래도프라자 1층 104호","indutype":"일반휴게음식 - 서양음식","category":"restaurant"},{"name":"오블리비아테","tel":"031-613-2486","addr":"경기도 화성시 반송동 104-3번지 동탄미래프라자 113호","indutype":"일반휴게음식 - 서양음식","category":"restaurant"},{"name":"우애인 동탄점","tel":"031-8003-1251","addr":"경기도 화성시 반송동 104-3번지 동탄미래도프라자 201호","indutype":"일반휴게음식 - 일반한식","category":"restaurant"},{"name":"월드스타","tel":"031-8003-4990","addr":"경기도 화성시 반송동 104-3번지 동탄미래도프라자 306호","indutype":"일반휴게음식 - 일반한식","category":"restaurant"},{"name":"황소가 한우곱창","tel":"031-8003-8252","addr":"경기도 화성시 반송동 104-3번지 동탄미래도프라자 108호","indutype":"일반휴게음식 - 일반한식","category":"restaurant"}]},{"lat":"37.205690944","long":"127.07321901","imageIndex":4,"items":[{"name":"25센치 꼬치앤오뎅바","tel":"031-000-0000","addr":"경기도 화성시 반송동 88-9번지","indutype":"일반휴게음식 - 일반한식","category":"restaurant"},{"name":"2도비어 동탄점","tel":"070-2232-4646","addr":"경기도 화성시 반송동 88-9번지 삼성파크뷰 110호","indutype":"일반휴게음식 - 주점","category":"restaurant"},{"name":"갑바 (Bar)","tel":"070-8186-4473","addr":"경기도 화성시 반송동 88-9번지 삼성파크뷰 303호","indutype":"일반휴게음식 - 일반한식","category":"restaurant"},{"name":"더맛쪽갈비","tel":"031-613-3066","addr":"경기도 화성시 반송동 88-9번지 삼성파크뷰 107호","indutype":"일반휴게음식 - 일반한식","category":"restaurant"},{"name":"무한제대로 미친생고기","tel":"031-8015-3391","addr":"경기도 화성시 반송동 88-9번지 삼성파크뷰 201호","indutype":"일반휴게음식 - 일반한식","category":"restaurant"},{"name":"바다포차","tel":"070-4254-0160","addr":"경기도 화성시 반송동 88-9번지 삼성파크뷰 102호","indutype":"일반휴게음식 - 주점","category":"restaurant"},{"name":"브롱스 동탄북광장","tel":"031-8014-1204","addr":"경기도 화성시 반송동 88-9번지 삼성파크뷰 304호","indutype":"일반휴게음식 - 일반한식","category":"restaurant"},{"name":"요곱봐라","tel":"031-206-2908","addr":"경기도 화성시 반송동 88-9번지 삼성파크뷰 106호","indutype":"일반휴게음식 - 일반한식","category":"restaurant"},{"name":"우마미","tel":"031-8003-0883","addr":"경기도 화성시 반송동 88-9번지 삼성파크뷰 202호","indutype":"일반휴게음식 - 일반한식","category":"restaurant"},{"name":"을지로생골뱅이","tel":"031-8015-2345","addr":"경기도 화성시 반송동 88-9번지 삼성파크뷰 103호","indutype":"일반휴게음식 - 일반한식","category":"restaurant"},{"name":"키와마루아지","tel":"031-8003-2757","addr":"경기도 화성시 반송동 88-9번지 삼성파크뷰 1층 101호","indutype":"일반휴게음식 - 스넥","category":"restaurant"},{"name":"포차어게인","tel":"031-8003-7276","addr":"경기도 화성시 반송동 88-9번지 삼성파크뷰 302호","indutype":"일반휴게음식 - 일반한식","category":"restaurant"},{"name":"풍류","tel":"031-8003-6659","addr":"경기도 화성시 반송동 88-9번지 삼성파크뷰 203,204호","indutype":"일반휴게음식 - 일반한식","category":"restaurant"},{"name":"황소곱창구이","tel":"031-8015-1560","addr":"경기도 화성시 반송동 88-9번지 삼성파크뷰 109호","indutype":"일반휴게음식 - 일반한식","category":"restaurant"}]},{"lat":"37.193833236","long":"127.07327559","imageIndex":4,"items":[{"name":"2시치킨포차","tel":"031-613-3978","addr":"경기도 화성시 반송동 220-4번지 모닝타운 117,,118호","indutype":"일반휴게음식 - 주점","category":"restaurant"},{"name":"등대수산","tel":"031-613-5343","addr":"경기도 화성시 반송동 220-4번지 모닝타운 112호","indutype":"일반휴게음식 - 일식·회집","category":"restaurant"},{"name":"카페플라타너스동탄점","tel":"031-8015-5944","addr":"경기도 화성시 반송동 220-4번지 모닝타운 103호 104","indutype":"일반휴게음식 - 서양음식","category":"restaurant"},{"name":"커피에반하다","tel":"031-8003-0289","addr":"경기도 화성시 반송동 220-4번지 모닝타운 111호","indutype":"일반휴게음식 - 서양음식","category":"restaurant"}]},{"lat":"37.209273802","long":"127.06277943","imageIndex":4,"items":[{"name":"60계치킨 동탄1신도시점","tel":"031-8003-6013","addr":"경기도 화성시 반송동 40번지 패밀리타운 1층 102호","indutype":"일반휴게음식 - 스넥","category":"restaurant"},{"name":"뉴럽커피(NEW LOVE COFFEE)","tel":"02-1111-1111","addr":"경기도 화성시 반송동 40번지 패밀리타운 116호","indutype":"일반휴게음식 - 서양음식","category":"restaurant"},{"name":"닥치고 곱창","tel":"031-613-8175","addr":"경기도 화성시 반송동 40번지 패밀리타운 105호","indutype":"일반휴게음식 - 일반한식","category":"restaurant"},{"name":"대박샤브샤브","tel":"","addr":"경기도 화성시 반송동 40번지 패밀리타운 146호","indutype":"일반휴게음식 - 일반한식","category":"restaurant"},{"name":"동탄불닭발","tel":"050-7127-5012","addr":"경기도 화성시 반송동 40번지 패밀리타운 115호","indutype":"일반휴게음식 - 일반한식","category":"restaurant"},{"name":"뚝배기보리밥","tel":"031-613-6368","addr":"경기도 화성시 반송동 40패밀리타운145호 ~146호","indutype":"일반휴게음식 - 일반한식","category":"restaurant"},{"name":"명가수복","tel":"031-613-7727","addr":"경기도 화성시 반송동 40번지 패밀리타운 111호","indutype":"일반휴게음식 - 일반한식","category":"restaurant"},{"name":"불닭 떡볶이","tel":"031-8003-4488","addr":"경기도 화성시 반송동 40번지 패밀리타운 106호","indutype":"일반휴게음식 - 일반한식","category":"restaurant"},{"name":"빨강떡볶이","tel":"031-613-5880","addr":"경기도 화성시 반송동 40번지 패밀리타운 101호","indutype":"일반휴게음식 - 일반한식","category":"restaurant"},{"name":"서셰프 명태찜","tel":"031-8015-2508","addr":"경기도 화성시 반송동 40번지 패밀리타운 103호","indutype":"일반휴게음식 - 일반한식","category":"restaurant"},{"name":"선미알탕","tel":"031-613-5070","addr":"경기도 화성시 반송동 40번지 패밀리타운 1층 135호","indutype":"일반휴게음식 - 일반한식","category":"restaurant"},{"name":"업텐브로피자 동탄병점점","tel":"031-613-3561","addr":"경기도 화성시 반송동 40번지 패밀리타운 114호","indutype":"일반휴게음식 - 서양음식","category":"restaurant"},{"name":"엉클괌 Uncle Guam","tel":"031-613-4328","addr":"경기도 화성시 반송동 40번지 패밀리타운 1층 121호","indutype":"일반휴게음식 - 서양음식","category":"restaurant"},{"name":"직화밥상","tel":"031-8003-7485","addr":"경기도 화성시 반송동 40번지 패밀리타운 118호","indutype":"일반휴게음식 - 일반한식","category":"restaurant"},{"name":"차또르동탄점","tel":"031-8015-5067","addr":"경기도 화성시 반송동 40번지 패밀리타운 108호","indutype":"일반휴게음식 - 일반한식","category":"restaurant"},{"name":"천향마라탕 동탄점","tel":"","addr":"경기도 화성시 반송동 40번지 패밀리타운 1층 138호","indutype":"일반휴게음식 - 중국식","category":"restaurant"},{"name":"포텐 (PHO.TEN)","tel":"031-8003-5653","addr":"경기도 화성시 반송동 40번지 122,123,124호","indutype":"일반휴게음식 - 서양음식","category":"restaurant"},{"name":"피자파는집화성병점점","tel":"031-8003-2308","addr":"경기도 화성시 반송동 40번지 패밀리타운 119호","indutype":"일반휴게음식 - 서양음식","category":"restaurant"}]},{"lat":"37.207299228","long":"127.06530123","imageIndex":4,"items":[{"name":"7번가피자동탄점","tel":"031-8003-2778","addr":"경기도 화성시 반송동 42-7번지 동탄P&P메디칼프라자 101호","indutype":"일반휴게음식 - 서양음식","category":"restaurant"},{"name":"크래프트G","tel":"031-8003-3376","addr":"경기도 화성시 반송동 42-7번지 동탄P&P메디칼프라자 105호 104호,105호","indutype":"일반휴게음식 - 서양음식","category":"restaurant"}]},{"lat":"37.197664478","long":"127.07013662","imageIndex":4,"items":[{"name":"BBQ동탄 솔빛나루점","tel":"031-613-9282","addr":"경기도 화성시 반송동 140번지 동탄솔빛마을서해그랑블 106호","indutype":"일반휴게음식 - 스넥","category":"restaurant"}]},{"lat":"37.21013686","long":"127.0664977","imageIndex":4,"items":[{"name":"BBQ동탄시범단지점","tel":"031-613-9233","addr":"경기도 화성시 반송동 16-1번지 101호 102호","indutype":"일반휴게음식 - 스넥","category":"restaurant"}]},{"lat":"37.191442384","long":"127.07830776","imageIndex":4,"items":[{"name":"BHC동탄반송점","tel":"031-8015-5592","addr":"경기도 화성시 반송동 212번지 동탄나루마을월드메르디앙반도유보라 상가동 1층 104호","indutype":"일반휴게음식 - 스넥","category":"restaurant"}]},{"lat":"37.194828268","long":"127.06639475","imageIndex":4,"items":[{"name":"BTJ COFFEE","tel":"031-0000-0000","addr":"경기도 화성시 반송동 145-1번지 1층","indutype":"일반휴게음식 - 서양음식","category":"restaurant"}]},{"lat":"37.205439026","long":"127.07258796","imageIndex":4,"items":[{"name":"CUBE BAR","tel":"031-8003-5813","addr":"경기도 화성시 반송동 91-2번지 로하스애비뉴 303호","indutype":"일반휴게음식 - 서양음식","category":"restaurant"},{"name":"고객만족","tel":"031-8003-6322","addr":"경기도 화성시 반송동 91-2번지 로하스애비뉴 103호","indutype":"일반휴게음식 - 일반한식","category":"restaurant"},{"name":"끝돈북광장점","tel":"031-8015-9191","addr":"경기도 화성시 반송동 91-2번지 로하스에비뉴 201호","indutype":"일반휴게음식 - 일반한식","category":"restaurant"},{"name":"뚱보집","tel":"031-613-8583","addr":"경기도 화성시 반송동 91-2번지 로하스애비뉴 1층 101호","indutype":"일반휴게음식 - 일반한식","category":"restaurant"},{"name":"매우리(동탄점)","tel":"031-8015-5953","addr":"경기도 화성시 반송동 91-2번지 로하스애비뉴 104호","indutype":"일반휴게음식 - 일반한식","category":"restaurant"},{"name":"볏짚마을동탄점(구짚터동탄점)","tel":"031-8003-8472","addr":"경기도 화성시 반송동 91-2로하스에비뉴빌딩106~108호","indutype":"일반휴게음식 - 일반한식","category":"restaurant"},{"name":"육쌈냉면","tel":"031-613-6392","addr":"경기도 화성시 반송동 91-2번지 로하스애비뉴 105호","indutype":"일반휴게음식 - 일반한식","category":"restaurant"},{"name":"이츠모","tel":"031-613-2549","addr":"경기도 화성시 반송동 91-2번지 로하스애비뉴 102호","indutype":"일반휴게음식 - 일반한식","category":"restaurant"},{"name":"차돌풍 동탄북광장점","tel":"","addr":"경기도 화성시 반송동 91-2번지 로하스에비뉴 109호,110호","indutype":"일반휴게음식 - 일반한식","category":"restaurant"},{"name":"타노시이","tel":"070-5121-6771","addr":"경기도 화성시 반송동 91-2번지 로하스애비뉴 2층 204, 206호","indutype":"일반휴게음식 - 일반한식","category":"restaurant"}]},{"lat":"37.197858769","long":"127.07674851","imageIndex":4,"items":[{"name":"Cafe DoNo (카페도노)","tel":"031-8003-1314","addr":"경기도 화성시 반송동 115-4번지 1층","indutype":"일반휴게음식 - 서양음식","category":"restaurant"}]},{"lat":"37.199888731","long":"127.0724139","imageIndex":4,"items":[{"name":"JBD종로빈대떡동탄점","tel":"031-613-2253","addr":"경기도 화성시 반송동 107-3번지 에이스타운 107호","indutype":"일반휴게음식 - 일반한식","category":"restaurant"},{"name":"기호네곱창","tel":"031-613-9959","addr":"경기도 화성시 반송동 107-3번지 에이스타운 1층 125호","indutype":"일반휴게음식 - 일반한식","category":"restaurant"},{"name":"나루참치","tel":"031-8003-7733","addr":"경기도 화성시 반송동 107-3번지 에이스타운 1층 132호","indutype":"일반휴게음식 - 일식·회집","category":"restaurant"},{"name":"놀부빈대떡","tel":"031-8015-0033","addr":"경기도 화성시 반송동 107-3번지 에이스타운 118호","indutype":"일반휴게음식 - 일반한식","category":"restaurant"},{"name":"동대문불닭발엽기떡볶이","tel":"031-613-8508","addr":"경기도 화성시 반송동 107-3번지 에이스타운 1층 101호","indutype":"일반휴게음식 - 일반한식","category":"restaurant"},{"name":"동탄수제맥주","tel":"031-273-0580","addr":"경기도 화성시 반송동 107-3번지 에이스타운 131호","indutype":"일반휴게음식 - 일반한식","category":"restaurant"},{"name":"디저트39 동탄반송점","tel":"031-613-3292","addr":"경기도 화성시 반송동 107-3번지 에이스타운 135호","indutype":"일반휴게음식 - 서양음식","category":"restaurant"},{"name":"똥꼬","tel":"031-613-1618","addr":"경기도 화성시 반송동 107-3번지 130-1,130-2호","indutype":"일반휴게음식 - 일반한식","category":"restaurant"},{"name":"랑만주가","tel":"031-254-0061","addr":"경기도 화성시 반송동 107-3번지 에이스타운 114호","indutype":"일반휴게음식 - 일반한식","category":"restaurant"},{"name":"모던포차골목","tel":"070-9162-1205","addr":"경기도 화성시 반송동 107-3번지 에이스타운 111호","indutype":"일반휴게음식 - 일반한식","category":"restaurant"},{"name":"물고기","tel":"","addr":"경기도 화성시 반송동 107-3번지 에이스타운 1층 127호","indutype":"일반휴게음식 - 일식·회집","category":"restaurant"},{"name":"생활맥주 남광장점","tel":"031-613-1807","addr":"경기도 화성시 반송동 107-3번지 1층 108,109호","indutype":"일반휴게음식 - 주점","category":"restaurant"},{"name":"신라","tel":"031-613-9822","addr":"경기도 화성시 반송동 107-3번지 에이스타운 103호 ,104호,105호","indutype":"일반휴게음식 - 일반한식","category":"restaurant"},{"name":"예감쪽갈비","tel":"031-8003-9287","addr":"경기도 화성시 반송동 107-3번지 에이스타운 122,123호","indutype":"일반휴게음식 - 일반한식","category":"restaurant"},{"name":"와다이","tel":"031-613-2007","addr":"경기도 화성시 반송동 107-3번지 에이스타운 102호","indutype":"일반휴게음식 - 일반한식","category":"restaurant"},{"name":"육백","tel":"031-831-3914","addr":"경기도 화성시 반송동 107-3번지 에이스타운 121호","indutype":"일반휴게음식 - 일반한식","category":"restaurant"},{"name":"족발먹고보자","tel":"","addr":"경기도 화성시 반송동 107-3번지 에이스타운 1층 112호,113호","indutype":"일반휴게음식 - 일반한식","category":"restaurant"},{"name":"쨍하고 회뜰날","tel":"070-8845-0776","addr":"경기도 화성시 반송동 107-3번지 에이스타운 106호","indutype":"일반휴게음식 - 일반한식","category":"restaurant"},{"name":"채돈이","tel":"031-613-9001","addr":"경기도 화성시 반송동 107-3번지 에이스타운 124호","indutype":"일반휴게음식 - 일반한식","category":"restaurant"},{"name":"파리부숑","tel":"031-613-6317","addr":"경기도 화성시 반송동 107-3번지 117-2호","indutype":"일반휴게음식 - 서양음식","category":"restaurant"},{"name":"하노이포","tel":"","addr":"경기도 화성시 반송동 107-3번지 에이스타운 1층 115호","indutype":"일반휴게음식 - 일반한식","category":"restaurant"},{"name":"회치고닭치고포차","tel":"031-8003-0016","addr":"경기도 화성시 반송동 107-3번지 에이스타운 128-1호, 128-2","indutype":"일반휴게음식 - 일반한식","category":"restaurant"},{"name":"흥부네","tel":"031-8003-8781","addr":"경기도 화성시 반송동 107-3번지 에이스타운 117-1호","indutype":"일반휴게음식 - 일반한식","category":"restaurant"},{"name":"히또비또","tel":"052-275-3114","addr":"경기도 화성시 반송동 107-3번지 에이스타운 1층 126호","indutype":"일반휴게음식 - 일반한식","category":"restaurant"}]},{"lat":"37.202717566","long":"127.0731374","imageIndex":4,"items":[{"name":"Lepetitplahir(르쁘띠플레지르)/주식회사","tel":"031-8015-4292","addr":"경기도 화성시 반송동 92-5번지 PARK VIEW HYBRID 지하층 B03호","indutype":"일반휴게음식 - 서양음식","category":"restaurant"},{"name":"굿커피(Good coffee)","tel":"","addr":"경기도 화성시 반송동 92-5번지 1층 일부호","indutype":"일반휴게음식 - 서양음식","category":"restaurant"},{"name":"일식당","tel":"031-372-0852","addr":"경기도 화성시 반송동 92-5번지 202호","indutype":"일반휴게음식 - 일반한식","category":"restaurant"}]},{"lat":"37.198272987","long":"127.07716567","imageIndex":4,"items":[{"name":"Little Nozzac(리틀노작)","tel":"031-8003-6009","addr":"경기도 화성시 반송동 114-10번지 1층","indutype":"일반휴게음식 - 서양음식","category":"restaurant"}]},{"lat":"37.202826182","long":"127.07230395","imageIndex":4,"items":[{"name":"THE HEAL ING더힐링","tel":"031-613-4616","addr":"경기도 화성시 반송동 93-6번지 센트럴S타운 지1층 B06호","indutype":"일반휴게음식 - 서양음식","category":"restaurant"},{"name":"더발렌","tel":"","addr":"경기도 화성시 반송동 93-6번지 B1층02호","indutype":"일반휴게음식 - 서양음식","category":"restaurant"},{"name":"돈사돈","tel":"","addr":"경기도 화성시 반송동 93-6번지 센트럴S타운 1층 115호","indutype":"일반휴게음식 - 일반한식","category":"restaurant"},{"name":"땡큐꼬마김밥","tel":"031-8015-5570","addr":"경기도 화성시 반송동 93-6번지 센트럴S타운 114호","indutype":"일반휴게음식 - 일반한식","category":"restaurant"},{"name":"명가포차","tel":"031-613-7188","addr":"경기도 화성시 반송동 93-6번지 센트럴S타운 112호","indutype":"일반휴게음식 - 일반한식","category":"restaurant"},{"name":"모모(Momo)","tel":"031-613-8692","addr":"경기도 화성시 반송동 93-6번지 센트럴S타운 B01호","indutype":"일반휴게음식 - 서양음식","category":"restaurant"},{"name":"세야스시","tel":"031-8015-2216","addr":"경기도 화성시 반송동 93-6번지 센트럴S타운 1층 111호","indutype":"일반휴게음식 - 일식·회집","category":"restaurant"},{"name":"시오도메동탄점","tel":"031-613-7932","addr":"경기도 화성시 반송동 93-6번지 센트럴S타운 지1층 B07호","indutype":"일반휴게음식 - 일반한식","category":"restaurant"},{"name":"신동탄장두루치기","tel":"031-8003-6135","addr":"경기도 화성시 반송동 93-6번지 센트럴S타운 103호","indutype":"일반휴게음식 - 일반한식","category":"restaurant"},{"name":"싸와디카","tel":"031-613-9068","addr":"경기도 화성시 반송동 93-6번지 지1층 B08호","indutype":"일반휴게음식 - 서양음식","category":"restaurant"},{"name":"초대받은날아구찜","tel":"031-8003-6546","addr":"경기도 화성시 반송동 93-6번지 지하1층B09-B11호","indutype":"일반휴게음식 - 일반한식","category":"restaurant"},{"name":"퀸스비어","tel":"031-8003-7104","addr":"경기도 화성시 반송동 93-6번지 센트럴타운 110호","indutype":"일반휴게음식 - 일반한식","category":"restaurant"}]},{"lat":"37.204970127","long":"127.07319582","imageIndex":4,"items":[{"name":"THE K(더케이)","tel":"031-8003-8004","addr":"경기도 화성시 반송동 91-7번지 월드프라자 402,403호","indutype":"일반휴게음식 - 주점","category":"restaurant"},{"name":"노랑통닭(동탄점)","tel":"031-613-2505","addr":"경기도 화성시 반송동 91-7번지 월드프라자 108동 109호","indutype":"일반휴게음식 - 스넥","category":"restaurant"},{"name":"놀부부대찌개","tel":"02-776-2492","addr":"경기도 화성시 반송동 91-7번지 월드프라자 203호","indutype":"일반휴게음식 - 일반한식","category":"restaurant"},{"name":"돌깨마을맷돌순두부","tel":"031-8003-3224","addr":"경기도 화성시 반송동 91-7번지 월드프라자 101,102호","indutype":"일반휴게음식 - 일반한식","category":"restaurant"},{"name":"설","tel":"031-8003-7734","addr":"경기도 화성시 반송동 91-7번지 월드프라자 2층 202호","indutype":"일반휴게음식 - 일반한식","category":"restaurant"},{"name":"우보","tel":"031-663-0447","addr":"경기도 화성시 반송동 91-7번지 월드프라자 3층 304 일부호","indutype":"일반휴게음식 - 일반한식","category":"restaurant"}]},{"lat":"37.20519532","long":"127.07330867","imageIndex":4,"items":[{"name":"The오뎅바","tel":"031-613-7956","addr":"경기도 화성시 반송동 91-6번지 101호","indutype":"일반휴게음식 - 일반한식","category":"restaurant"},{"name":"몬순이자카야 동탄점","tel":"031-557-2183","addr":"경기도 화성시 반송동 91-6번지 1층 103호","indutype":"일반휴게음식 - 주점","category":"restaurant"},{"name":"우이동멸치국수","tel":"031-8015-1121","addr":"경기도 화성시 반송동 91-6번지 106호","indutype":"일반휴게음식 - 일반한식","category":"restaurant"},{"name":"장어마을","tel":"031-613-5199","addr":"경기도 화성시 반송동 91-6번지 108호","indutype":"일반휴게음식 - 일반한식","category":"restaurant"},{"name":"전봇대","tel":"031-8003-1921","addr":"경기도 화성시 반송동 91-6번지 102호","indutype":"일반휴게음식 - 일반한식","category":"restaurant"},{"name":"트라이 앵글","tel":"031-8003-4045","addr":"경기도 화성시 반송동 91-6번지 401호","indutype":"일반휴게음식 - 일반한식","category":"restaurant"},{"name":"포텐바(bar)","tel":"031-111-1111","addr":"경기도 화성시 반송동 91-6번지 그린프라자 303,304호","indutype":"일반휴게음식 - 일반한식","category":"restaurant"}]},{"lat":"37.206078021","long":"127.07383894","imageIndex":4,"items":[{"name":"WOODSTOCK","tel":"","addr":"경기도 화성시 반송동 88-6번지 세림프라자 101호","indutype":"일반휴게음식 - 주점","category":"restaurant"},{"name":"그리누리정육식당","tel":"031-8015-1321","addr":"경기도 화성시 반송동 88-6번지 세림프라자 204호","indutype":"일반휴게음식 - 일반한식","category":"restaurant"},{"name":"꼬막집","tel":"031-613-1524","addr":"경기도 화성시 반송동 88-6번지 세림프라자 1층 111호 꼬막집","indutype":"일반휴게음식 - 일반한식","category":"restaurant"},{"name":"남매네참숯마을","tel":"031-613-5089","addr":"경기도 화성시 반송동 88-6 세림프라자112호,113호","indutype":"일반휴게음식 - 일반한식","category":"restaurant"},{"name":"달빛화로","tel":"031-8003-1818","addr":"경기도 화성시 반송동 88-6번지 세림프라자 109호","indutype":"일반휴게음식 - 일반한식","category":"restaurant"},{"name":"명불허전원조골뱅이","tel":"031-8003-9771","addr":"경기도 화성시 반송동 88-6번지 102, 103호","indutype":"일반휴게음식 - 일반한식","category":"restaurant"},{"name":"미스에이","tel":"031-8003-7890","addr":"경기도 화성시 반송동 88-6번지 세림프라자 501호 일부호","indutype":"일반휴게음식 - 일반한식","category":"restaurant"},{"name":"방자전","tel":"031-613-2752","addr":"경기도 화성시 반송동 88-6번지 세림프라자 104호","indutype":"일반휴게음식 - 일반한식","category":"restaurant"},{"name":"엘리팝","tel":"031-613-4408","addr":"경기도 화성시 반송동 88-6번지 세림프라자 202호","indutype":"일반휴게음식 - 일반한식","category":"restaurant"},{"name":"원할머니보쌈","tel":"031-8003-5383","addr":"경기도 화성시 반송동 88-6번지 세림프라자 203호","indutype":"일반휴게음식 - 일반한식","category":"restaurant"},{"name":"유쾌한세꼬시북광장점","tel":"031-8003-9984","addr":"경기도 화성시 반송동 88-6번지 세림프라자 1층 108호","indutype":"일반휴게음식 - 일반한식","category":"restaurant"},{"name":"풍천장어동탄본점","tel":"031-613-4050","addr":"경기도 화성시 반송동 88-6번지 세림프라자 106,107호","indutype":"일반휴게음식 - 일반한식","category":"restaurant"}]},{"lat":"37.208415861","long":"127.06653005","imageIndex":4,"items":[{"name":"iLBLU","tel":"031-613-0003","addr":"경기도 화성시 반송동 22-4스카이뷰101호~102호","indutype":"일반휴게음식 - 일반한식","category":"restaurant"}]},{"lat":"37.20896677","long":"127.06410849","imageIndex":4,"items":[{"name":"the스시","tel":"031-613-0373","addr":"경기도 화성시 반송동 32-10번지 1층","indutype":"일반휴게음식 - 일식·회집","category":"restaurant"},{"name":"할매낙지","tel":"","addr":"경기도 화성시 반송동 32-10번지 1층","indutype":"일반휴게음식 - 일반한식","category":"restaurant"}]},{"lat":"37.207303553","long":"127.07363731","imageIndex":4,"items":[{"name":"가마로강정","tel":"02-1688-7292","addr":"경기도 화성시 반송동 86-4번지 위너스타 107호","indutype":"일반휴게음식 - 스넥","category":"restaurant"},{"name":"고기의즐거움","tel":"031-8015-5575","addr":"경기도 화성시 반송동 86-4번지 위너스타 120호","indutype":"일반휴게음식 - 일반한식","category":"restaurant"},{"name":"고기의즐거움 나이트","tel":"031-8015-5575","addr":"경기도 화성시 반송동 86-4번지","indutype":"일반휴게음식 - 일반한식","category":"restaurant"},{"name":"김밥나라(동탄3호점)","tel":"031-613-4403","addr":"경기도 화성시 반송동 86-4번지 위너스타 114호","indutype":"일반휴게음식 - 일반한식","category":"restaurant"},{"name":"띠아모 커피","tel":"031-8003-8028","addr":"경기도 화성시 반송동 86-4번지 위너스타 123호","indutype":"일반휴게음식 - 서양음식","category":"restaurant"},{"name":"띵호짬뽕","tel":"031-603-5404","addr":"경기도 화성시 반송동 86-4번지 위너스타 203호","indutype":"일반휴게음식 - 중국식","category":"restaurant"},{"name":"레바아이카페","tel":"031-613-8778","addr":"경기도 화성시 반송동 86-4번지 위너스타 205호","indutype":"일반휴게음식 - 일반한식","category":"restaurant"},{"name":"맘스터치","tel":"031-613-0662","addr":"경기도 화성시 반송동 86-4번지 위너스타 103호","indutype":"일반휴게음식 - 일반한식","category":"restaurant"},{"name":"배두둑김밥","tel":"031-8015-0802","addr":"경기도 화성시 반송동 86-4번지 위너스타 109호","indutype":"일반휴게음식 - 스넥","category":"restaurant"},{"name":"수촌마을 동탄점","tel":"031-8015-0745","addr":"경기도 화성시 반송동 86-4번지 위너스타 1층 119호","indutype":"일반휴게음식 - 일식·회집","category":"restaurant"},{"name":"영심이","tel":"031-613-9892","addr":"경기도 화성시 반송동 86-4번지 위너스타 103호","indutype":"일반휴게음식 - 일반한식","category":"restaurant"},{"name":"위너스타","tel":"031-8015-1255","addr":"경기도 화성시 반송동 86-4번지 위너스타","indutype":"일반휴게음식 - 일반한식","category":"restaurant"}]},{"lat":"37.206853081","long":"127.07355804","imageIndex":4,"items":[{"name":"가장맛있는족발","tel":"031-8015-4450","addr":"경기도 화성시 반송동 87-1번지 가희프라자 107,204호","indutype":"일반휴게음식 - 일반한식","category":"restaurant"},{"name":"동탄가황소곱창","tel":"031-613-4216","addr":"경기도 화성시 반송동 87-1번지 가희프라자 108호","indutype":"일반휴게음식 - 일반한식","category":"restaurant"},{"name":"발리","tel":"031-297-3401","addr":"경기도 화성시 반송동 87-1번지 가희프라자 403,404,405호","indutype":"일반휴게음식 - 일반한식","category":"restaurant"},{"name":"부뚜막","tel":"031-613-8592","addr":"경기도 화성시 반송동 87-1번지 가희프라자 204호","indutype":"일반휴게음식 - 일반한식","category":"restaurant"},{"name":"월남국수 동탄광장점","tel":"031-803-3603","addr":"경기도 화성시 반송동 87-1번지 가희프라자 1층 106호","indutype":"일반휴게음식 - 서양음식","category":"restaurant"},{"name":"커피마마","tel":"031-000-0000","addr":"경기도 화성시 반송동 87-1번지 가희프라자 104호","indutype":"일반휴게음식 - 서양음식","category":"restaurant"},{"name":"한가네숯불닭갈비","tel":"031-613-9224","addr":"경기도 화성시 반송동 87-1번지 가희프라자 109,110호","indutype":"일반휴게음식 - 일반한식","category":"restaurant"}]},{"lat":"37.204556352","long":"127.07200139","imageIndex":4,"items":[{"name":"가제트술집","tel":"070-8824-8737","addr":"경기도 화성시 반송동 93-1번지 풍성 위버폴리스 상가동 108호","indutype":"일반휴게음식 - 일반한식","category":"restaurant"},{"name":"빅팬스테이크","tel":"031-8015-8986","addr":"경기도 화성시 반송동 93-1번지 풍성위버폴리스 111호","indutype":"일반휴게음식 - 서양음식","category":"restaurant"},{"name":"샐러드연구소 (A meal a day)","tel":"031-000-0000","addr":"경기도 화성시 반송동 93-1번지 풍성위버폴리스 1층 127호","indutype":"일반휴게음식 - 서양음식","category":"restaurant"},{"name":"설빙동탄반송점","tel":"031-8003-3717","addr":"경기도 화성시 반송동 93-1번지 풍성위버폴리스 201~202호","indutype":"일반휴게음식 - 일반한식","category":"restaurant"},{"name":"참맛집","tel":"031-8003-2005","addr":"경기도 화성시 반송동 93-1번지 풍성위버폴리스 109호","indutype":"일반휴게음식 - 일반한식","category":"restaurant"},{"name":"카페클락 (동탄점)","tel":"031-667-4022","addr":"경기도 화성시 반송동 93-1번지 풍성위버폴리스 1층 108-1호","indutype":"일반휴게음식 - 서양음식","category":"restaurant"},{"name":"호이스앤포카츠 동탄직영점","tel":"031-613-9004","addr":"경기도 화성시 반송동 93-1번지 풍성 위버폴리스 113호 114호","indutype":"일반휴게음식 - 일반한식","category":"restaurant"}]},{"lat":"37.19308534","long":"127.07333121","imageIndex":4,"items":[{"name":"가츠맘스토리3","tel":"","addr":"경기도 화성시 반송동 217-6번지 거택프라자 1층 110호","indutype":"일반휴게음식 - 일반한식","category":"restaurant"},{"name":"교촌치킨동탄2호점","tel":"031-8015-1992","addr":"경기도 화성시 반송동 217-6번지 거택프라자 1층 102호","indutype":"일반휴게음식 - 스넥","category":"restaurant"},{"name":"미스사이공 베트남쌀국수","tel":"031-8015-4203","addr":"경기도 화성시 반송동 217-6번지 거택프라자 108호","indutype":"일반휴게음식 - 일반한식","category":"restaurant"},{"name":"서브웨이동탄나루점","tel":"031-8003-1138","addr":"경기도 화성시 반송동 217-6번지 거택프라자 106호","indutype":"일반휴게음식 - 서양음식","category":"restaurant"},{"name":"오도씨","tel":"031-8015-0301","addr":"경기도 화성시 반송동 217-6번지 거택프라자 1층 114호","indutype":"일반휴게음식 - 일식·회집","category":"restaurant"},{"name":"초사골불타는쭈꾸미낙지","tel":"031-8015-2384","addr":"경기도 화성시 반송동 217-6,7번지거택프라자 114","indutype":"일반휴게음식 - 일반한식","category":"restaurant"},{"name":"컴포즈커피솔빛나루점","tel":"031-8003-3488","addr":"경기도 화성시 반송동 217-6번지 거택프라자 1층 101호","indutype":"일반휴게음식 - 서양음식","category":"restaurant"}]},{"lat":"37.209137604","long":"127.06480707","imageIndex":4,"items":[{"name":"감동고기 동탄점","tel":"031-8003-9238","addr":"경기도 화성시 반송동 31-6번지 1층","indutype":"일반휴게음식 - 일반한식","category":"restaurant"}]},{"lat":"37.202742054","long":"127.0612198","imageIndex":4,"items":[{"name":"감성낙곱새","tel":"031-8003-0287","addr":"경기도 화성시 반송동 64-9번지 102호","indutype":"일반휴게음식 - 일반한식","category":"restaurant"}]},{"lat":"37.201051182","long":"127.07222347","imageIndex":4,"items":[{"name":"감성주점 청춘","tel":"","addr":"경기도 화성시 반송동 104-5번지 광장타워 301호 302호","indutype":"일반휴게음식 - 일반한식","category":"restaurant"},{"name":"도드람","tel":"031-613-5185","addr":"경기도 화성시 반송동 104-5번지 광장타워 201호,202호,203호","indutype":"일반휴게음식 - 일반한식","category":"restaurant"},{"name":"마약먹태","tel":"031-8003-9279","addr":"경기도 화성시 반송동 104-5번지 광장타워 1층 106호","indutype":"일반휴게음식 - 일반한식","category":"restaurant"},{"name":"미스터오징어 남광장점","tel":"031-8003-7283","addr":"경기도 화성시 반송동 104-5번지 광장타워 108호 ,109,110호","indutype":"일반휴게음식 - 일식·회집","category":"restaurant"},{"name":"신마포갈매기(동탄남광장점)","tel":"031-8015-5292","addr":"경기도 화성시 반송동 104-5번지 101호,102호","indutype":"일반휴게음식 - 일반한식","category":"restaurant"},{"name":"오사카부루스","tel":"","addr":"경기도 화성시 반송동 104-5번지 광장타워 2층 204호","indutype":"일반휴게음식 - 일반한식","category":"restaurant"},{"name":"육회지존","tel":"031-613-2137","addr":"경기도 화성시 반송동 104-5번지 광장타워 105호","indutype":"일반휴게음식 - 일반한식","category":"restaurant"},{"name":"참치인","tel":"031-613-1068","addr":"경기도 화성시 반송동 104-5번지 광장타워 204호","indutype":"일반휴게음식 - 일식·회집","category":"restaurant"},{"name":"크라운","tel":"031-8003-2599","addr":"경기도 화성시 반송동 104-5번지 광장타워 3층 303호,304호","indutype":"일반휴게음식 - 주점","category":"restaurant"},{"name":"한산","tel":"031-8003-1360","addr":"경기도 화성시 반송동 104-5번지 광장타워 404-1호","indutype":"일반휴게음식 - 주점","category":"restaurant"},{"name":"호치킨","tel":"031-8015-5728","addr":"경기도 화성시 반송동 104-5번지 광장타워 103호,104호","indutype":"일반휴게음식 - 스넥","category":"restaurant"},{"name":"황소돈대박","tel":"031-611-5043","addr":"경기도 화성시 반송동 104-5번지 광장타워 1층 107호","indutype":"일반휴게음식 - 일반한식","category":"restaurant"}]},{"lat":"37.204927563","long":"127.06887016","imageIndex":4,"items":[{"name":"강남교자/주식회사 푸드빌리지","tel":"031-8015-5010","addr":"경기도 화성시 반송동 96번지 에이블럭 401-씨-2호","indutype":"일반휴게음식 - 일반한식","category":"restaurant"},{"name":"더카페","tel":"070-8623-3029","addr":"경기도 화성시 반송동 96번지 98메타폴리스A블럭1층R06호","indutype":"일반휴게음식 - 서양음식","category":"restaurant"},{"name":"망향비빔국수","tel":"031-613-5667","addr":"경기도 화성시 반송동 96번지 메타폴리스 상가동 102호","indutype":"일반휴게음식 - 일반한식","category":"restaurant"},{"name":"미스&미스터포테이토","tel":"031-613-5938","addr":"경기도 화성시 반송동 96,98(A블럭3층R13,R14호)","indutype":"일반휴게음식 - 일반한식","category":"restaurant"},{"name":"봉추찜닭","tel":"031-613-6981","addr":"경기도 화성시 반송동 96번지 메타폴리스 상가동 4층 일부호","indutype":"일반휴게음식 - 일반한식","category":"restaurant"},{"name":"빌리엔젤","tel":"031-8015-4800","addr":"경기도 화성시 반송동 96번지 메타폴리스 상가동 201호","indutype":"일반휴게음식 - 서양음식","category":"restaurant"},{"name":"빨라쪼델프레도","tel":"031-0000-0000","addr":"경기도 화성시 반송동 96번지 메타폴리스 싱가 A동 301-4호","indutype":"일반휴게음식 - 서양음식","category":"restaurant"},{"name":"아비꼬 동탄센터포인트점","tel":"","addr":"경기도 화성시 반송동 96번지 메타폴리스 A블럭 401 일부호","indutype":"일반휴게음식 - 일식·회집","category":"restaurant"},{"name":"애슐리W동탄메타폴리스점","tel":"031-371-6960","addr":"경기도 화성시 반송동 96번지 메타폴리스 A블럭 지하1층 S32호","indutype":"일반휴게음식 - 일반한식","category":"restaurant"},{"name":"카페베네 엔터식스동탄점","tel":"031-613-3587","addr":"경기도 화성시 반송동 96번지 메타폴리스 상가동B블럭","indutype":"일반휴게음식 - 서양음식","category":"restaurant"},{"name":"히노아지","tel":"031-8003-2841","addr":"경기도 화성시 반송동 96번지 메타폴리스 상가동 4층 일부호","indutype":"일반휴게음식 - 일반한식","category":"restaurant"}]},{"lat":"37.199997132","long":"127.07194091","imageIndex":4,"items":[{"name":"강남대패 남광장점","tel":"031-8003-4434","addr":"경기도 화성시 반송동 107-2번지 113호,114호,워터밸리","indutype":"일반휴게음식 - 일반한식","category":"restaurant"},{"name":"구들짱황소곱창","tel":"031-8003-7785","addr":"경기도 화성시 반송동 107-2번지 워터밸리 1층 111호","indutype":"일반휴게음식 - 일반한식","category":"restaurant"},{"name":"김가네토종순대국","tel":"031-8015-0105","addr":"경기도 화성시 반송동 107-2번지 워터밸리 1층 105호","indutype":"일반휴게음식 - 일반한식","category":"restaurant"},{"name":"뉴욕야시장","tel":"031-8003-6388","addr":"경기도 화성시 반송동 107-2번지 워터밸리 118호, 119호","indutype":"일반휴게음식 - 서양음식","category":"restaurant"},{"name":"동탄in포차","tel":"","addr":"경기도 화성시 반송동 107-2번지 워터밸리 109호","indutype":"일반휴게음식 - 일반한식","category":"restaurant"},{"name":"동탄조개구이무한리필","tel":"070-4649-1101","addr":"경기도 화성시 반송동 107-2번지 2층 204,205호","indutype":"일반휴게음식 - 일반한식","category":"restaurant"},{"name":"두손치킨","tel":"02-1577-0000","addr":"경기도 화성시 반송동 107-2번지 워터밸리 8층 801 일부호","indutype":"일반휴게음식 - 스넥","category":"restaurant"},{"name":"따래야끼니꾸","tel":"031-613-1136","addr":"경기도 화성시 반송동 107-2번지 워터밸리 1층 104호","indutype":"일반휴게음식 - 일반한식","category":"restaurant"},{"name":"띠아모 커피","tel":"031-613-8007","addr":"경기도 화성시 반송동 107-2번지 116, 117호","indutype":"일반휴게음식 - 서양음식","category":"restaurant"},{"name":"마미밥상","tel":"","addr":"경기도 화성시 반송동 107-2번지 위터벨리 1층 115호","indutype":"일반휴게음식 - 스넥","category":"restaurant"},{"name":"마포잡부구이","tel":"031-222-5573","addr":"경기도 화성시 반송동 107-2번지 워터밸리 112호","indutype":"일반휴게음식 - 일반한식","category":"restaurant"},{"name":"바른치킨 동탄남광장점&불탄","tel":"031-613-1346","addr":"경기도 화성시 반송동 107-2번지 111호 110호,111호","indutype":"일반휴게음식 - 스넥","category":"restaurant"},{"name":"역전할머니맥주 반송점","tel":"","addr":"경기도 화성시 반송동 107-2번지","indutype":"일반휴게음식 - 주점","category":"restaurant"},{"name":"연경양고기","tel":"031-8015-5526","addr":"경기도 화성시 반송동 107-2번지 워터밸리 2층 203호","indutype":"일반휴게음식 - 일반한식","category":"restaurant"},{"name":"연경양꼬치","tel":"031-8015-5519","addr":"경기도 화성시 반송동 107-2번지 워터밸리 1층 106호","indutype":"일반휴게음식 - 중국식","category":"restaurant"},{"name":"유쾌한회세꼬시","tel":"031-111-1111","addr":"경기도 화성시 반송동 107-2번지 워터밸리 103호","indutype":"일반휴게음식 - 일반한식","category":"restaurant"},{"name":"함사돼지","tel":"031-8003-4575","addr":"경기도 화성시 반송동 107-2번지 워터밸리 120호","indutype":"일반휴게음식 - 일반한식","category":"restaurant"}]},{"lat":"37.2005554","long":"127.07258347","imageIndex":4,"items":[{"name":"강릉교동짬뽕","tel":"031-613-8977","addr":"경기도 화성시 반송동 104-8번지 씨티21 203호","indutype":"일반휴게음식 - 중국식","category":"restaurant"},{"name":"동탄소고기","tel":"031-613-9445","addr":"경기도 화성시 반송동 104-8번지 씨티21 2층 201,202호","indutype":"일반휴게음식 - 일반한식","category":"restaurant"},{"name":"두배갈비(동탄점)","tel":"031-8003-2912","addr":"경기도 화성시 반송동 104-8번지 101,102호","indutype":"일반휴게음식 - 일반한식","category":"restaurant"},{"name":"매일삶아맛있는동탄족발","tel":"031-111-1111","addr":"경기도 화성시 반송동 104-8번지 씨티21 108호","indutype":"일반휴게음식 - 일반한식","category":"restaurant"},{"name":"이디야동탄남광장점","tel":"031-8003-0977","addr":"경기도 화성시 반송동 104-8번지 씨티21 1층 103호,104호","indutype":"일반휴게음식 - 서양음식","category":"restaurant"}]},{"lat":"37.192917724","long":"127.06702387","imageIndex":4,"items":[{"name":"강정수순대국","tel":"031-8015-4488","addr":"경기도 화성시 반송동 154-3번지 1층 일부호","indutype":"일반휴게음식 - 일반한식","category":"restaurant"}]},{"lat":"37.207632534","long":"127.06544795","imageIndex":4,"items":[{"name":"개성집","tel":"031-613-5567","addr":"경기도 화성시 반송동 27번지 동탄타워 131,132호","indutype":"일반휴게음식 - 일반한식","category":"restaurant"},{"name":"김밥마리","tel":"070-8822-9822","addr":"경기도 화성시 반송동 27번지 동탄타워 135호","indutype":"일반휴게음식 - 스넥","category":"restaurant"},{"name":"맛있는미소.된장만드는집","tel":"031-613-1337","addr":"경기도 화성시 반송동 27번지 동탄타워 1층 129호","indutype":"일반휴게음식 - 일반한식","category":"restaurant"},{"name":"비어비어","tel":"031-8015-0313","addr":"경기도 화성시 반송동 27번지 112,113호","indutype":"일반휴게음식 - 일반한식","category":"restaurant"},{"name":"청담에는 닭발","tel":"031-613-8935","addr":"경기도 화성시 반송동 27번지 동탄타워 128호","indutype":"일반휴게음식 - 일반한식","category":"restaurant"},{"name":"풀리","tel":"031-314-1004","addr":"경기도 화성시 반송동 27번지 동탄타워 114호","indutype":"일반휴게음식 - 일반한식","category":"restaurant"},{"name":"하이루","tel":"031-8003-4006","addr":"경기도 화성시 반송동 27번지 동탄타워 124호","indutype":"일반휴게음식 - 일반한식","category":"restaurant"},{"name":"행복을주는푸드","tel":"031-613-1705","addr":"경기도 화성시 반송동 27번지 동탄타워 1층 138호","indutype":"일반휴게음식 - 일반한식","category":"restaurant"},{"name":"화사랑 화로구이","tel":"031-613-4454","addr":"경기도 화성시 반송동 27번지 동탄타워 (101-107호)","indutype":"일반휴게음식 - 일반한식","category":"restaurant"},{"name":"화사랑화로구이","tel":"031-613-4454","addr":"경기도 화성시 반송동 27번지 동탄타워 101호~107호","indutype":"일반휴게음식 - 일반한식","category":"restaurant"}]},{"lat":"37.195693545","long":"127.08100391","imageIndex":4,"items":[{"name":"갤러리카페포라","tel":"031-8003-2239","addr":"경기도 화성시 반송동 125-6번지 1층","indutype":"일반휴게음식 - 서양음식","category":"restaurant"}]},{"lat":"37.202132415","long":"127.07224699","imageIndex":4,"items":[{"name":"거미","tel":"070-4117-9381","addr":"경기도 화성시 반송동 93-8번지 서해더블루 1층 111호","indutype":"일반휴게음식 - 일식·회집","category":"restaurant"},{"name":"바르바커피","tel":"031-613-7310","addr":"경기도 화성시 반송동 93-8번지 서해더블루 1층 104호","indutype":"일반휴게음식 - 서양음식","category":"restaurant"},{"name":"본도시락","tel":"031-8003-4298","addr":"경기도 화성시 반송동 93-8번지 서해더블루 110호","indutype":"일반휴게음식 - 일반한식","category":"restaurant"},{"name":"플라잉볼 익스프레스 동탄점","tel":"031-8003-3777","addr":"경기도 화성시 반송동 93-8번지 서해더블루 113호","indutype":"일반휴게음식 - 일반한식","category":"restaurant"}]},{"lat":"37.203582449","long":"127.0733297","imageIndex":4,"items":[{"name":"게랑회랑","tel":"031-8015-1566","addr":"경기도 화성시 반송동 92-3번지 센트럴시티오피스텔 108호,109호,110호,113호,114호","indutype":"일반휴게음식 - 일반한식","category":"restaurant"}]},{"lat":"37.208219531","long":"127.06289125","imageIndex":4,"items":[{"name":"경성함바그","tel":"031-613-5433","addr":"경기도 화성시 반송동 43-6번지 골드프라자 110호","indutype":"일반휴게음식 - 일반한식","category":"restaurant"},{"name":"듬박이","tel":"031-8015-1741","addr":"경기도 화성시 반송동 43-6번지 골드프라자 203,204호","indutype":"일반휴게음식 - 일반한식","category":"restaurant"},{"name":"마약떡볶이","tel":"031-8003-1199","addr":"경기도 화성시 반송동 43-6번지 골드프라자 1층 104호","indutype":"일반휴게음식 - 스넥","category":"restaurant"},{"name":"명인만두 동탄센트럴파크점","tel":"031-0000-0000","addr":"경기도 화성시 반송동 43-6번지 골드프라자 107호","indutype":"일반휴게음식 - 스넥","category":"restaurant"},{"name":"비에이치씨치킨(BHC치킨)","tel":"031-8003-3668","addr":"경기도 화성시 반송동 43-6번지 골드프라자 205호","indutype":"일반휴게음식 - 일반한식","category":"restaurant"},{"name":"쉐르빌","tel":"031-8003-8184","addr":"경기도 화성시 반송동 43-6번지 골드프라자 401호","indutype":"일반휴게음식 - 일반한식","category":"restaurant"},{"name":"아이리쉬포테토","tel":"031-503-5610","addr":"경기도 화성시 반송동 43-6번지 골드프라자 104호","indutype":"일반휴게음식 - 스넥","category":"restaurant"},{"name":"카페 루앤비","tel":"","addr":"경기도 화성시 반송동 43-6번지 골드프라자 109호","indutype":"일반휴게음식 - 서양음식","category":"restaurant"}]},{"lat":"37.209498224","long":"127.06441308","imageIndex":4,"items":[{"name":"계림원동탄반송점","tel":"031-8015-3821","addr":"경기도 화성시 반송동 31-1번지 1층","indutype":"일반휴게음식 - 일반한식","category":"restaurant"}]},{"lat":"37.201078048","long":"127.0725051","imageIndex":4,"items":[{"name":"고기 원칙","tel":"02-836-1050","addr":"경기도 화성시 반송동 104-6번지 프라임빌딩 1층 101,102호","indutype":"일반휴게음식 - 일반한식","category":"restaurant"},{"name":"교대이층집 동탄점","tel":"031-8003-9255","addr":"경기도 화성시 반송동 104-6번지 프라임빌딩 2층 202호","indutype":"일반휴게음식 - 일반한식","category":"restaurant"},{"name":"담소사골순대반송점","tel":"031-8003-1823","addr":"경기도 화성시 반송동 104-6번지 프라임빌딩 109동 110호","indutype":"일반휴게음식 - 일반한식","category":"restaurant"},{"name":"라무진","tel":"031-8003-4883","addr":"경기도 화성시 반송동 104-6번지 프라임빌딩 1층 103호","indutype":"일반휴게음식 - 일식·회집","category":"restaurant"},{"name":"롱타임노씨 동탄점","tel":"031-8015-8080","addr":"경기도 화성시 반송동 104-6번지 프라임빌딩 2층 201호","indutype":"일반휴게음식 - 일반한식","category":"restaurant"},{"name":"베가스","tel":"031-8003-2181","addr":"경기도 화성시 반송동 104-6번지 프라임빌딩 302호","indutype":"일반휴게음식 - 서양음식","category":"restaurant"},{"name":"블랙","tel":"031-8015-5003","addr":"경기도 화성시 반송동 104-6번지 프라임빌딩 3층 301호","indutype":"일반휴게음식 - 주점","category":"restaurant"},{"name":"제이비에스디엘에이북창동순두부","tel":"","addr":"경기도 화성시 반송동 104-6번지 프라임빌딩 105호,106호","indutype":"일반휴게음식 - 일반한식","category":"restaurant"}]},{"lat":"37.19960962","long":"127.0720532","imageIndex":4,"items":[{"name":"고기맛에 집중하다","tel":"031-8003-5335","addr":"경기도 화성시 반송동 107-7번지 아시아프라자 1층 109호","indutype":"일반휴게음식 - 일반한식","category":"restaurant"},{"name":"신냉면천하","tel":"031-243-2050","addr":"경기도 화성시 반송동 107-7번지 아시아프라자 112호","indutype":"일반휴게음식 - 일반한식","category":"restaurant"},{"name":"이빠이","tel":"031-8003-5665","addr":"경기도 화성시 반송동 107-7번지 아시아프라자 113,114호","indutype":"일반휴게음식 - 일반한식","category":"restaurant"},{"name":"이삭토스트(동탄남광장점)","tel":"031-8003-2454","addr":"경기도 화성시 반송동 107-7번지 아시아프라자 102호","indutype":"일반휴게음식 - 서양음식","category":"restaurant"},{"name":"투부네국수촌","tel":"070-4809-8050","addr":"경기도 화성시 반송동 107-7번지 아시아프라자 108호","indutype":"일반휴게음식 - 스넥","category":"restaurant"},{"name":"함사새우","tel":"031-8050-4574","addr":"경기도 화성시 반송동 107-7번지 아시아프라자 115,116호","indutype":"일반휴게음식 - 일반한식","category":"restaurant"},{"name":"해피(Happy)양(  )꼬치","tel":"031-8003-9588","addr":"경기도 화성시 반송동 107-7번지 아시아프라자 1층 111호","indutype":"일반휴게음식 - 일반한식","category":"restaurant"}]},{"lat":"37.20024862","long":"127.07330408","imageIndex":4,"items":[{"name":"고기의즐거움(남광장점)","tel":"031-8015-5579","addr":"경기도 화성시 반송동 106-6번지 113,114호","indutype":"일반휴게음식 - 일반한식","category":"restaurant"},{"name":"고래난다","tel":"031-613-4319","addr":"경기도 화성시 반송동 106-6번지 109,110,111호","indutype":"일반휴게음식 - 일식·회집","category":"restaurant"},{"name":"도깨비교자만두","tel":"031-613-5076","addr":"경기도 화성시 반송동 106-6번지 동탄동일하이빌오피스텔 108호","indutype":"일반휴게음식 - 스넥","category":"restaurant"},{"name":"마이베어(mybear)","tel":"031-8003-0889","addr":"경기도 화성시 반송동 106-6번지 2층 201호~204호","indutype":"일반휴게음식 - 서양음식","category":"restaurant"},{"name":"숨비소리","tel":"031-613-3335","addr":"경기도 화성시 반송동 106-6번지 동탄동일하이빌오피스텔 206-1.206-2.207호","indutype":"일반휴게음식 - 일반한식","category":"restaurant"}]},{"lat":"37.195918738","long":"127.08110551","imageIndex":4,"items":[{"name":"고기집입니다","tel":"031-2938-2945","addr":"경기도 화성시 반송동 124-13번지 1층","indutype":"일반휴게음식 - 일반한식","category":"restaurant"}]},{"lat":"37.193581125","long":"127.07297126","imageIndex":4,"items":[{"name":"고마워디저트","tel":"","addr":"경기도 화성시 반송동 220-5번지 인창프라자 112호","indutype":"일반휴게음식 - 서양음식","category":"restaurant"},{"name":"고봉민김밥인","tel":"031-8015-8016","addr":"경기도 화성시 반송동 220-5인창프라자103","indutype":"일반휴게음식 - 일반한식","category":"restaurant"},{"name":"뚝탁","tel":"031-613-0885","addr":"경기도 화성시 반송동 220-5인창프라자109호~110호","indutype":"일반휴게음식 - 일반한식","category":"restaurant"},{"name":"엄마분식","tel":"031-613-9088","addr":"경기도 화성시 반송동 220-5번지 인창프라자 111호","indutype":"일반휴게음식 - 스넥","category":"restaurant"},{"name":"치킨마루","tel":"031-613-3034","addr":"경기도 화성시 반송동 220-5번지 인창프라자 106호","indutype":"일반휴게음식 - 일반한식","category":"restaurant"}]},{"lat":"37.201438649","long":"127.07219003","imageIndex":4,"items":[{"name":"고베화로","tel":"031-8015-3939","addr":"경기도 화성시 반송동 103-8번지 타래프라자 104,105,106호","indutype":"일반휴게음식 - 일반한식","category":"restaurant"},{"name":"누렁소 곱창","tel":"031-8015-0771","addr":"경기도 화성시 반송동 103-8번지 타래프라자 101호","indutype":"일반휴게음식 - 일반한식","category":"restaurant"},{"name":"편대장영화식당동탄점","tel":"031-8003-2310","addr":"경기도 화성시 반송동 103-8번지 타래프라자 2층","indutype":"일반휴게음식 - 일반한식","category":"restaurant"}]},{"lat":"37.199528801","long":"127.07158004","imageIndex":4,"items":[{"name":"고봉민김밥인(화성남광장점)","tel":"031-613-3667","addr":"경기도 화성시 반송동 107-8번지 제일프라자 108호","indutype":"일반휴게음식 - 일반한식","category":"restaurant"},{"name":"국수나무동탄중앙점","tel":"031-613-2155","addr":"경기도 화성시 반송동 107-8번지 제일프라자 101호","indutype":"일반휴게음식 - 일반한식","category":"restaurant"},{"name":"부영보리밥","tel":"031-613-1219","addr":"경기도 화성시 반송동 107-8번지 제일프라자 116호","indutype":"일반휴게음식 - 일반한식","category":"restaurant"},{"name":"빌룬드","tel":"070-8881-5257","addr":"경기도 화성시 반송동 107-8번지 제일프라자 207호","indutype":"일반휴게음식 - 서양음식","category":"restaurant"},{"name":"커피에반하다","tel":"031-0000-0000","addr":"경기도 화성시 반송동 107-8번지 제일프라자 114호","indutype":"일반휴게음식 - 서양음식","category":"restaurant"}]},{"lat":"37.20602482","long":"127.07238573","imageIndex":4,"items":[{"name":"고봉민김밥인(화성북광장점)","tel":"031-613-0110","addr":"경기도 화성시 반송동 88-13번지 아이프라자 112호","indutype":"일반휴게음식 - 일반한식","category":"restaurant"},{"name":"본죽&비빔밥 동탄점","tel":"031-613-6288","addr":"경기도 화성시 반송동 88-13번지 아이프라자 114호","indutype":"일반휴게음식 - 일반한식","category":"restaurant"}]},{"lat":"37.202799584","long":"127.07156048","imageIndex":4,"items":[{"name":"고양이부엌","tel":"031-8003-2235","addr":"경기도 화성시 반송동 93-10번지 동탄지웰에스테이트 B05호","indutype":"일반휴게음식 - 일반한식","category":"restaurant"},{"name":"돈앤차","tel":"031-613-0771","addr":"경기도 화성시 반송동 93-10번지 동탄지웰에스테이트 지하층 B20호","indutype":"일반휴게음식 - 서양음식","category":"restaurant"},{"name":"미스사이공 동탄점","tel":"031-205-9354","addr":"경기도 화성시 반송동 93-10번지 동탄지웰에스테이트 지하1층 B13호","indutype":"일반휴게음식 - 일반한식","category":"restaurant"},{"name":"북경반점","tel":"031-831-3990","addr":"경기도 화성시 반송동 93-10번지 B27, B28호","indutype":"일반휴게음식 - 중국식","category":"restaurant"},{"name":"쁘띠렌 동탄점","tel":"031-8003-7040","addr":"경기도 화성시 반송동 93-10번지 동탄지웰에스테이트 B06호","indutype":"일반휴게음식 - 서양음식","category":"restaurant"},{"name":"사르텐","tel":"031-8015-0556","addr":"경기도 화성시 반송동 93-10번지 동탄지웰에스테이트 203호-204호","indutype":"일반휴게음식 - 서양음식","category":"restaurant"},{"name":"스시","tel":"031-613-0580","addr":"경기도 화성시 반송동 93-10번지 동탄지웰에스테이트 지하 B28호","indutype":"일반휴게음식 - 일식·회집","category":"restaurant"},{"name":"신주쿠카레 동탄점","tel":"031-000-0000","addr":"경기도 화성시 반송동 93-10번지 동탄지웰에스테이트 지하층 B12호","indutype":"일반휴게음식 - 일식·회집","category":"restaurant"},{"name":"자담치킨 동탄반송점","tel":"031-613-9280","addr":"경기도 화성시 반송동 93-10번지 동탄지웰에스테이트 지하1층 B24호","indutype":"일반휴게음식 - 스넥","category":"restaurant"},{"name":"초대받은날","tel":"031-8003-6514","addr":"경기도 화성시 반송동 93-10번지 B17,18,19호","indutype":"일반휴게음식 - 일반한식","category":"restaurant"}]},{"lat":"37.205303611","long":"127.07302715","imageIndex":4,"items":[{"name":"고요남 동탄점","tel":"031-8003-5889","addr":"경기도 화성시 반송동 91-5번지 2층 206,208호","indutype":"일반휴게음식 - 일반한식","category":"restaurant"},{"name":"배부장찌개","tel":"031-613-9577","addr":"경기도 화성시 반송동 91-5번지 1층 109호","indutype":"일반휴게음식 - 일반한식","category":"restaurant"},{"name":"카페드씨엘(cafe de ciel)","tel":"031-8003-8140","addr":"경기도 화성시 반송동 91-5번지 110,111호","indutype":"일반휴게음식 - 서양음식","category":"restaurant"}]},{"lat":"37.204915669","long":"127.07386038","imageIndex":4,"items":[{"name":"고집","tel":"031-613-5992","addr":"경기도 화성시 반송동 90-9번지 동탄플래티넘 제1층 122,123호","indutype":"일반휴게음식 - 일반한식","category":"restaurant"},{"name":"그램그램동탄","tel":"031-613-0144","addr":"경기도 화성시 반송동 90-9번지 쌍용플래티넘 2층 206호","indutype":"일반휴게음식 - 서양음식","category":"restaurant"},{"name":"대동집 동탄점","tel":"031-8015-2491","addr":"경기도 화성시 반송동 90-9번지 동탄플래티넘 113-1,114호","indutype":"일반휴게음식 - 일반한식","category":"restaurant"},{"name":"보영만두 동탄점","tel":"031-8015-2412","addr":"경기도 화성시 반송동 90-9번지 동탄플래티넘 1층 116,117호","indutype":"일반휴게음식 - 일반한식","category":"restaurant"},{"name":"조하누","tel":"031-8003-0198","addr":"경기도 화성시 반송동 90-9번지 동탄플래티넘","indutype":"일반휴게음식 - 일반한식","category":"restaurant"},{"name":"청춘포차","tel":"","addr":"경기도 화성시 반송동 90-9번지 동탄플래티넘 108, 109호","indutype":"일반휴게음식 - 일반한식","category":"restaurant"},{"name":"텍사스 보드카페","tel":"","addr":"경기도 화성시 반송동 90-9번지 동탄플래티넘 203호","indutype":"일반휴게음식 - 서양음식","category":"restaurant"},{"name":"투썸플레이스 화성동탄점","tel":"031-8015-5224","addr":"경기도 화성시 반송동 90-9번지 동탄플래티넘 112,113-2,204호","indutype":"일반휴게음식 - 서양음식","category":"restaurant"}]},{"lat":"37.199272568","long":"127.06219708","imageIndex":4,"items":[{"name":"곤드레밥집","tel":"031-8003-2777","addr":"경기도 화성시 반송동 76-3번지","indutype":"일반휴게음식 - 일반한식","category":"restaurant"}]},{"lat":"37.208830663","long":"127.06592207","imageIndex":4,"items":[{"name":"골목포차","tel":"031-613-9171","addr":"경기도 화성시 반송동 24-3번지","indutype":"일반휴게음식 - 주점","category":"restaurant"},{"name":"굽네치킨 동탄1동점","tel":"031-613-9222","addr":"경기도 화성시 반송동 24-3번지 1층","indutype":"일반휴게음식 - 스넥","category":"restaurant"}]},{"lat":"37.205582652","long":"127.07350053","imageIndex":4,"items":[{"name":"곱창고","tel":"031-613-1145","addr":"경기도 화성시 반송동 88-8번지 수성프라자 104호","indutype":"일반휴게음식 - 일반한식","category":"restaurant"},{"name":"깡우동 동탄점","tel":"031-8015-1500","addr":"경기도 화성시 반송동 88-8번지 수성프라자 1층 112호","indutype":"일반휴게음식 - 일반한식","category":"restaurant"},{"name":"동탄LP음악카페 비틀즈","tel":"031-8015-0221","addr":"경기도 화성시 반송동 88-8번지 수성프라자 204호","indutype":"일반휴게음식 - 서양음식","category":"restaurant"},{"name":"미스터 스시조","tel":"031-8015-2511","addr":"경기도 화성시 반송동 88-8번지 수성프라자 107호","indutype":"일반휴게음식 - 일식·회집","category":"restaurant"},{"name":"백호참치","tel":"031-8003-2254","addr":"경기도 화성시 반송동 88-8번지 수성프라자 2층 202호","indutype":"일반휴게음식 - 일식·회집","category":"restaurant"},{"name":"빠지니","tel":"070-8834-6477","addr":"경기도 화성시 반송동 88-8번지 수성프라자 501-1호","indutype":"일반휴게음식 - 일반한식","category":"restaurant"},{"name":"와봐양꼬치구이","tel":"031-8003-9088","addr":"경기도 화성시 반송동 88-8번지 수성프라자 110호","indutype":"일반휴게음식 - 중국식","category":"restaurant"},{"name":"철뚝집(동탄북광장점)","tel":"031-8003-2240","addr":"경기도 화성시 반송동 88-8번지 수성프라자 105호","indutype":"일반휴게음식 - 일반한식","category":"restaurant"},{"name":"청국","tel":"031-8015-3845","addr":"경기도 화성시 반송동 88-8번지 수성프라자 111호","indutype":"일반휴게음식 - 일반한식","category":"restaurant"},{"name":"피케이. 텐(PK.10)","tel":"031-8015-0508","addr":"경기도 화성시 반송동 88-8번지 수성프라자 2층 203호","indutype":"일반휴게음식 - 일반한식","category":"restaurant"},{"name":"한성집 동탄북광장점","tel":"031-613-9838","addr":"경기도 화성시 반송동 88-8번지 수성프라자 1층 101호","indutype":"일반휴게음식 - 일반한식","category":"restaurant"},{"name":"호우양꼬치","tel":"070-4157-9292","addr":"경기도 화성시 반송동 88-8번지 수성프라자 113호","indutype":"일반휴게음식 - 일반한식","category":"restaurant"},{"name":"황소갈비","tel":"031-613-9236","addr":"경기도 화성시 반송동 88-8번지 수성프라자 108호","indutype":"일반휴게음식 - 일반한식","category":"restaurant"}]},{"lat":"37.196055748","long":"127.07824477","imageIndex":4,"items":[{"name":"공원갈매기","tel":"031-8003-9842","addr":"경기도 화성시 반송동 128-25번지 1층 101호","indutype":"일반휴게음식 - 일반한식","category":"restaurant"},{"name":"마룬트리","tel":"","addr":"경기도 화성시 반송동 128-25번지 1층 102호 일부","indutype":"일반휴게음식 - 일반한식","category":"restaurant"}]},{"lat":"37.19338303","long":"127.07274582","imageIndex":4,"items":[{"name":"공차 솔빛나루점","tel":"031-8015-3400","addr":"경기도 화성시 반송동 220-7번지 능동프라자 105호","indutype":"일반휴게음식 - 서양음식","category":"restaurant"},{"name":"바보스","tel":"031-8003-7725","addr":"경기도 화성시 반송동 220-7번지 101,102호","indutype":"일반휴게음식 - 일반한식","category":"restaurant"}]},{"lat":"37.204465813","long":"127.07274477","imageIndex":4,"items":[{"name":"공차동탄점","tel":"031-8015-2013","addr":"경기도 화성시 반송동 93-2번지 동탄SR GOLD PLAZA 109호","indutype":"일반휴게음식 - 서양음식","category":"restaurant"},{"name":"디구스(Digus)","tel":"031-890-8511","addr":"경기도 화성시 반송동 93-2번지 씨네스타 705호","indutype":"일반휴게음식 - 스넥","category":"restaurant"},{"name":"먹골국수랑","tel":"031-8015-1192","addr":"경기도 화성시 반송동 93-2번지 동탄SR GOLD PLAZA 112호","indutype":"일반휴게음식 - 일반한식","category":"restaurant"},{"name":"무사사케","tel":"031-8015-3494","addr":"경기도 화성시 반송동 93-2번지 동탄SR GOLD PLAZA 120호","indutype":"일반휴게음식 - 주점","category":"restaurant"},{"name":"썬더볼드동탄점","tel":"031-8003-6686","addr":"경기도 화성시 반송동 93-2번지 1층 108호 109호","indutype":"일반휴게음식 - 서양음식","category":"restaurant"},{"name":"이바돔 감자탕 동탄점","tel":"031-8003-4472","addr":"경기도 화성시 반송동 93-2번지 2층 205호, 206호","indutype":"일반휴게음식 - 일반한식","category":"restaurant"},{"name":"조선화로집 동탄점","tel":"031-613-0451","addr":"경기도 화성시 반송동 93-2번지 동탄SRGOLDPLAZA 202,203,204호","indutype":"일반휴게음식 - 일반한식","category":"restaurant"},{"name":"커피보노(Coffee Bono)","tel":"031-8003-2675","addr":"경기도 화성시 반송동 93-2번지 동탄SR골드프라자 702호","indutype":"일반휴게음식 - 서양음식","category":"restaurant"},{"name":"타요키즈카페 동탄점","tel":"031-8003-8595","addr":"경기도 화성시 반송동 93-2번지 201호,208호,209호,210호","indutype":"일반휴게음식 - 서양음식","category":"restaurant"},{"name":"탐앤탐스 동탄스타점","tel":"031-613-9920","addr":"경기도 화성시 반송동 93-2번지 103,104호","indutype":"일반휴게음식 - 서양음식","category":"restaurant"},{"name":"파스쿠치 화성동탄점","tel":"031-8015-3497","addr":"경기도 화성시 반송동 93-2번지 동탄SRGOLDPLAZA 118,119호","indutype":"일반휴게음식 - 서양음식","category":"restaurant"}]},{"lat":"37.209380296","long":"127.06592253","imageIndex":4,"items":[{"name":"구팔한우(화성동탄점)","tel":"031-613-9863","addr":"경기도 화성시 반송동 23-1번지","indutype":"일반휴게음식 - 일반한식","category":"restaurant"}]},{"lat":"37.208382289","long":"127.0617536","imageIndex":4,"items":[{"name":"국시국수","tel":"031-8050-7894","addr":"경기도 화성시 반송동 45-2번지 1층 일부호","indutype":"일반휴게음식 - 일반한식","category":"restaurant"},{"name":"마리에뜨","tel":"031-8003-9211","addr":"경기도 화성시 반송동 45-2번지 101호","indutype":"일반휴게음식 - 서양음식","category":"restaurant"}]},{"lat":"37.201555226","long":"127.07313633","imageIndex":4,"items":[{"name":"군반장동탄점","tel":"031-8003-9262","addr":"경기도 화성시 반송동 106-1번지 동탄파라곤2 116호","indutype":"일반휴게음식 - 주점","category":"restaurant"},{"name":"동탄남광장점 빽다방","tel":"031-613-1148","addr":"경기도 화성시 반송동 106-1번지 동탄파라곤II 117호","indutype":"일반휴게음식 - 서양음식","category":"restaurant"},{"name":"에스엔","tel":"","addr":"경기도 화성시 반송동 106-1번지 동탄파라곤II 207호","indutype":"일반휴게음식 - 칵테일바","category":"restaurant"},{"name":"카페뜰","tel":"031-8015-4529","addr":"경기도 화성시 반송동 106-1번지 동탄파라곤II 1층 107,108호","indutype":"일반휴게음식 - 서양음식","category":"restaurant"},{"name":"할리스커피(동탄파라곤점)","tel":"031-613-1495","addr":"경기도 화성시 반송동 106-1 동양파라곤2차주상복합내상가105호,205호,206호","indutype":"일반휴게음식 - 서양음식","category":"restaurant"},{"name":"해주","tel":"031-8050-7619","addr":"경기도 화성시 반송동 106-1번지 동탄파라곤II 1층 115호","indutype":"일반휴게음식 - 일식·회집","category":"restaurant"}]},{"lat":"37.209776251","long":"127.06685788","imageIndex":4,"items":[{"name":"군포해물탕","tel":"031-8003-1376","addr":"경기도 화성시 반송동 16-10번지 1층","indutype":"일반휴게음식 - 일반한식","category":"restaurant"}]},{"lat":"37.21010309","long":"127.06211543","imageIndex":4,"items":[{"name":"궁중설렁탕","tel":"031-8015-0929","addr":"경기도 화성시 반송동 38-6번지 1층","indutype":"일반휴게음식 - 일반한식","category":"restaurant"},{"name":"동타안","tel":"02-1111-1111","addr":"경기도 화성시 반송동 38-6번지","indutype":"일반휴게음식 - 일반한식","category":"restaurant"}]},{"lat":"37.209553609","long":"127.06181084","imageIndex":4,"items":[{"name":"귀빈","tel":"","addr":"경기도 화성시 반송동 38-11번지 102호","indutype":"일반휴게음식 - 중국식","category":"restaurant"}]},{"lat":"37.208299129","long":"127.06577519","imageIndex":4,"items":[{"name":"그놈의은밀한떡볶이(동탄점)","tel":"031-613-9759","addr":"경기도 화성시 반송동 25-9번지 1층 일부호","indutype":"일반휴게음식 - 스넥","category":"restaurant"}]},{"lat":"37.207273974","long":"127.06183159","imageIndex":4,"items":[{"name":"그라찌아커피앤브런치","tel":"031-8015-9173","addr":"경기도 화성시 반송동 49-12번지 1층","indutype":"일반휴게음식 - 스넥","category":"restaurant"}]},{"lat":"37.210660603","long":"127.06433516","imageIndex":4,"items":[{"name":"그래그래피자떡볶이 동탄점","tel":"","addr":"경기도 화성시 반송동 5-4번지 1층 일부호","indutype":"일반휴게음식 - 서양음식","category":"restaurant"},{"name":"프레쉬 밀 위드 샌드위치","tel":"","addr":"경기도 화성시 반송동 5-4번지 1층 101호","indutype":"일반휴게음식 - 일반한식","category":"restaurant"}]},{"lat":"37.19819151","long":"127.07777382","imageIndex":4,"items":[{"name":"그릴킹(동탄반송점)","tel":"070-7539-1567","addr":"경기도 화성시 반송동 113-3번지 1층","indutype":"일반휴게음식 - 스넥","category":"restaurant"}]},{"lat":"37.208444423","long":"127.0636124","imageIndex":4,"items":[{"name":"금도니껍데기","tel":"031-8003-6691","addr":"경기도 화성시 반송동 42-1번지 동탄삼성프라자 1동 101호","indutype":"일반휴게음식 - 일반한식","category":"restaurant"},{"name":"미스터피자동탄점","tel":"031-8003-2178","addr":"경기도 화성시 반송동 42-1번지 동탄삼성프라자 204동 203호","indutype":"일반휴게음식 - 서양음식","category":"restaurant"},{"name":"블랙홀","tel":"070-4032-1414","addr":"경기도 화성시 반송동 42-1번지 동탄삼성프라자 202호","indutype":"일반휴게음식 - 일반한식","category":"restaurant"},{"name":"조쿤스시","tel":"031-8003-0610","addr":"경기도 화성시 반송동 42-1번지 동탄삼성프라자 1층 103호","indutype":"일반휴게음식 - 일식·회집","category":"restaurant"},{"name":"폼프리츠동탄센트럴파크점","tel":"070-7776-6262","addr":"경기도 화성시 반송동 42-1번지 동탄삼성프라자 106호","indutype":"일반휴게음식 - 일반한식","category":"restaurant"},{"name":"푸라닭화성동탄1동점","tel":"031-8003-9206","addr":"경기도 화성시 반송동 42-1번지 동탄삼성프라자 1층 102호","indutype":"일반휴게음식 - 스넥","category":"restaurant"}]},{"lat":"37.197804199","long":"127.07755943","imageIndex":4,"items":[{"name":"길림성","tel":"031-613-0208","addr":"경기도 화성시 반송동 113-9번지 101호","indutype":"일반휴게음식 - 중국식","category":"restaurant"}]},{"lat":"37.206499081","long":"127.06183099","imageIndex":4,"items":[{"name":"까르보네","tel":"031-8015-5015","addr":"경기도 화성시 반송동 52-9번지 101호","indutype":"일반휴게음식 - 서양음식","category":"restaurant"}]},{"lat":"37.208742019","long":"127.06311697","imageIndex":4,"items":[{"name":"까망김밥","tel":"031-000-0000","addr":"경기도 화성시 반송동 41-6번지 반송프라자 102호","indutype":"일반휴게음식 - 스넥","category":"restaurant"},{"name":"동탄센트럴파크점 피자헛","tel":"031-891-5588","addr":"경기도 화성시 반송동 41-6번지 반송프라자 203호, 204호","indutype":"일반휴게음식 - 서양음식","category":"restaurant"}]},{"lat":"37.21027304","long":"127.06456016","imageIndex":4,"items":[{"name":"까페마노","tel":"031-613-1916","addr":"경기도 화성시 반송동 6-6번지 1층","indutype":"일반휴게음식 - 서양음식","category":"restaurant"}]},{"lat":"37.204078446","long":"127.07260923","imageIndex":4,"items":[{"name":"깐부치킨","tel":"031-8003-2253","addr":"경기도 화성시 반송동 93-3번지 외2필지 동탄파라곤 123동 124호","indutype":"일반휴게음식 - 주점","category":"restaurant"},{"name":"달드랑","tel":"","addr":"경기도 화성시 반송동 93-3번지 동탄파라곤 1층 137호","indutype":"일반휴게음식 - 서양음식","category":"restaurant"},{"name":"라본테이블&카페","tel":"031-613-0047","addr":"경기도 화성시 반송동 93-3번지 동탄파라곤 201호 202호","indutype":"일반휴게음식 - 서양음식","category":"restaurant"},{"name":"바르바커피동탄파라곤점","tel":"031-613-7319","addr":"경기도 화성시 반송동 93-3번지 동탄파라곤 141호","indutype":"일반휴게음식 - 서양음식","category":"restaurant"},{"name":"서가앤쿡동탄 주식회사","tel":"031-8015-4468","addr":"경기도 화성시 반송동 93-3번지 동탄파라곤 102동 115호","indutype":"일반휴게음식 - 일반한식","category":"restaurant"},{"name":"수담참치","tel":"031-613-2215","addr":"경기도 화성시 반송동 93-3번지 동탄파라곤 120호 121호","indutype":"일반휴게음식 - 일식·회집","category":"restaurant"},{"name":"스시파파","tel":"070-8810-1926","addr":"경기도 화성시 반송동 93-3번지 동탄파라곤 112호","indutype":"일반휴게음식 - 일식·회집","category":"restaurant"},{"name":"에스엔에이슬라임(S&A SLIME)","tel":"031-8003-0313","addr":"경기도 화성시 반송동 93-3번지 동탄파라곤 지층 B31호","indutype":"일반휴게음식 - 서양음식","category":"restaurant"},{"name":"워터스토리","tel":"031-8015-4014","addr":"경기도 화성시 반송동 93-3번지 148호 147호,148호","indutype":"일반휴게음식 - 일반한식","category":"restaurant"},{"name":"제이케이 드림푸드","tel":"031-8003-3773","addr":"경기도 화성시 반송동 93-3번지 동탄파라곤 지층 B23호","indutype":"일반휴게음식 - 일반한식","category":"restaurant"},{"name":"조에 젤라떼리아(JOE Gelateria)","tel":"070-7614-3579","addr":"경기도 화성시 반송동 93-3번지 동탄파라곤","indutype":"일반휴게음식 - 서양음식","category":"restaurant"},{"name":"카페그루비","tel":"031-613-9853","addr":"경기도 화성시 반송동 93-3번지 지하1층 B08호","indutype":"일반휴게음식 - 서양음식","category":"restaurant"},{"name":"카페로와 Cafe Lowa/(주)웰빙클럽 동탄지점","tel":"02-1688-6998","addr":"경기도 화성시 반송동 93-3번지 동탄파라곤 1층 122호","indutype":"일반휴게음식 - 서양음식","category":"restaurant"},{"name":"코코살롱","tel":"031-0000-0000","addr":"경기도 화성시 반송동 93-3번지 동탄파라곤 지차 1층 B38 일부호","indutype":"일반휴게음식 - 서양음식","category":"restaurant"},{"name":"포박","tel":"031-613-7759","addr":"경기도 화성시 반송동 93-3번지 외 2필지 동탄파라곤 111호","indutype":"일반휴게음식 - 일반한식","category":"restaurant"},{"name":"한가족/주식회사 한가족","tel":"031-8003-1313","addr":"경기도 화성시 반송동 93-3번지 동탄파라곤 1층 149-150호","indutype":"일반휴게음식 - 일반한식","category":"restaurant"}]},{"lat":"37.200528534","long":"127.07230184","imageIndex":4,"items":[{"name":"꼼보포차","tel":"031-8003-9015","addr":"경기도 화성시 반송동 104-9번지 에스엠프라자 104호","indutype":"일반휴게음식 - 일반한식","category":"restaurant"},{"name":"맥주콜","tel":"031-8015-5956","addr":"경기도 화성시 반송동 104-9번지 SM프라자 201호","indutype":"일반휴게음식 - 주점","category":"restaurant"},{"name":"메이드","tel":"","addr":"경기도 화성시 반송동 104-9번지 SM프라자 SM타운 6층","indutype":"일반휴게음식 - 일반한식","category":"restaurant"},{"name":"문어상회","tel":"","addr":"경기도 화성시 반송동 104-9번지 SM프라자 107호","indutype":"일반휴게음식 - 일반한식","category":"restaurant"},{"name":"백채김치찌개","tel":"031-8003-7498","addr":"경기도 화성시 반송동 104-9번지 SM프라자","indutype":"일반휴게음식 - 일반한식","category":"restaurant"},{"name":"씨에스아이(CSI)","tel":"031-926-6979","addr":"경기도 화성시 반송동 104-9번지 SM프라자 3층 301호","indutype":"일반휴게음식 - 일반한식","category":"restaurant"},{"name":"오땅비어","tel":"031-8003-5878","addr":"경기도 화성시 반송동 104-9번지 SM프라자 102호","indutype":"일반휴게음식 - 주점","category":"restaurant"},{"name":"주식회사디에스엔터테인먼트","tel":"031-613-7560","addr":"경기도 화성시 반송동 104-9번지 SM프라자 601호 602호 603호","indutype":"일반휴게음식 - 주점","category":"restaurant"},{"name":"청담생골뱅이","tel":"031-613-9593","addr":"경기도 화성시 반송동 104-9번지 SM프라자 103호","indutype":"일반휴게음식 - 일반한식","category":"restaurant"},{"name":"청춘야시장","tel":"","addr":"경기도 화성시 반송동 104-9번지 SM프라자202호,203호","indutype":"일반휴게음식 - 일반한식","category":"restaurant"},{"name":"타코하찌","tel":"070-8860-9234","addr":"경기도 화성시 반송동 104-9번지 SM프라자 1층 105-2호","indutype":"일반휴게음식 - 일식·회집","category":"restaurant"},{"name":"푸드명가","tel":"031-376-0257","addr":"경기도 화성시 반송동 104-9번지 SM프라자 105호 일부호","indutype":"일반휴게음식 - 일반한식","category":"restaurant"}]},{"lat":"37.206357692","long":"127.07325343","imageIndex":4,"items":[{"name":"꼼주 동탄직영점","tel":"031-8015-1971","addr":"경기도 화성시 반송동 88-3번지 중앙프라자 108,110호","indutype":"일반휴게음식 - 일반한식","category":"restaurant"},{"name":"마산아구해물.탕","tel":"031-613-8088","addr":"경기도 화성시 반송동 88-3번지 중앙프라자 204호","indutype":"일반휴게음식 - 일반한식","category":"restaurant"},{"name":"맥주상점 beer shop","tel":"031-8003-9194","addr":"경기도 화성시 반송동 88-3번지 중앙프라자 3층 202호","indutype":"일반휴게음식 - 주점","category":"restaurant"},{"name":"문어집","tel":"070-7715-6240","addr":"경기도 화성시 반송동 88-3번지 중앙프라자 104호","indutype":"일반휴게음식 - 일반한식","category":"restaurant"},{"name":"알(R).클래식","tel":"070-7957-9644","addr":"경기도 화성시 반송동 88-3번지 중앙프라자 401,402,403호","indutype":"일반휴게음식 - 일반한식","category":"restaurant"},{"name":"양드림","tel":"031-8003-1928","addr":"경기도 화성시 반송동 88-3번지 중앙프라자 1층 107호","indutype":"일반휴게음식 - 일반한식","category":"restaurant"},{"name":"오바(O-BAR)","tel":"","addr":"경기도 화성시 반송동 88-3번지 중앙프라자 3층 301호","indutype":"일반휴게음식 - 서양음식","category":"restaurant"},{"name":"와다이","tel":"031-8003-2089","addr":"경기도 화성시 반송동 88-3번지 중앙프라자 105호","indutype":"일반휴게음식 - 일반한식","category":"restaurant"},{"name":"육횟집","tel":"031-8043-4444","addr":"경기도 화성시 반송동 88-3번지 중앙프라자 1층 103호","indutype":"일반휴게음식 - 일반한식","category":"restaurant"},{"name":"지니Zini","tel":"031-613-1026","addr":"경기도 화성시 반송동 88-3번지 중앙프라자 301호","indutype":"일반휴게음식 - 일반한식","category":"restaurant"},{"name":"춘천집 닭갈비.막국수","tel":"031-8003-5420","addr":"경기도 화성시 반송동 88-3번지 중앙프라자 1동 1층 101.102호","indutype":"일반휴게음식 - 일반한식","category":"restaurant"},{"name":"크래프트한스 동탄북광장점","tel":"","addr":"경기도 화성시 반송동 88-3번지 중앙프라자 1층 106호","indutype":"일반휴게음식 - 주점","category":"restaurant"}]},{"lat":"37.20646595","long":"127.07302823","imageIndex":4,"items":[{"name":"꽃보다소","tel":"031-613-5335","addr":"경기도 화성시 반송동 88-2 필프라자205호~206호","indutype":"일반휴게음식 - 일반한식","category":"restaurant"},{"name":"메양수육본점","tel":"031-613-4974","addr":"경기도 화성시 반송동 88-2번지 필프라자 105호","indutype":"일반휴게음식 - 일반한식","category":"restaurant"},{"name":"백채김치찌개","tel":"031-613-6024","addr":"경기도 화성시 반송동 88-2번지 필프라자 106호","indutype":"일반휴게음식 - 일반한식","category":"restaurant"},{"name":"체르니","tel":"031-613-1906","addr":"경기도 화성시 반송동 88-2번지 필프라자 107호","indutype":"일반휴게음식 - 일반한식","category":"restaurant"},{"name":"캣츠(Cat's)","tel":"031-613-9444","addr":"경기도 화성시 반송동 88-2번지 필프라자 303호","indutype":"일반휴게음식 - 일반한식","category":"restaurant"},{"name":"투뿔하우스","tel":"031-613-4004","addr":"경기도 화성시 반송동 88-2번지 필프라자 2층 201호","indutype":"일반휴게음식 - 일반한식","category":"restaurant"},{"name":"호이차","tel":"031-000-0000","addr":"경기도 화성시 반송동 88-2번지 필프라자 1층 104호","indutype":"일반휴게음식 - 서양음식","category":"restaurant"}]},{"lat":"37.203273937","long":"127.06066825","imageIndex":4,"items":[{"name":"꽃카페","tel":"031-8043-0866","addr":"경기도 화성시 반송동 62-6번지 1층 일부호","indutype":"일반휴게음식 - 서양음식","category":"restaurant"},{"name":"이집떡볶이","tel":"031-8815-5775","addr":"경기도 화성시 반송동 62-6번지 101호","indutype":"일반휴게음식 - 일반한식","category":"restaurant"}]},{"lat":"37.209191156","long":"127.06577593","imageIndex":4,"items":[{"name":"꽈미","tel":"031-8003-5373","addr":"경기도 화성시 반송동 23-13번지","indutype":"일반휴게음식 - 일반한식","category":"restaurant"},{"name":"네네치킨","tel":"031-613-4492","addr":"경기도 화성시 반송동 23-13번지 102호","indutype":"일반휴게음식 - 일반한식","category":"restaurant"},{"name":"락비어","tel":"070-4234-6092","addr":"경기도 화성시 반송동 23-13번지 102호","indutype":"일반휴게음식 - 일반한식","category":"restaurant"}]},{"lat":"37.210776054","long":"127.06750086","imageIndex":4,"items":[{"name":"끼니","tel":"031-613-5474","addr":"경기도 화성시 반송동 13-4번지 1층","indutype":"일반휴게음식 - 일반한식","category":"restaurant"}]},{"lat":"37.194138772","long":"127.0746387","imageIndex":4,"items":[{"name":"나루곱창","tel":"031-613-9206","addr":"경기도 화성시 반송동 218-2 가희프라자 111~112호","indutype":"일반휴게음식 - 일반한식","category":"restaurant"},{"name":"돈짜장","tel":"031-8003-9388","addr":"경기도 화성시 반송동 218-2번지 가희프라자2 1층 113호","indutype":"일반휴게음식 - 중국식","category":"restaurant"},{"name":"배가족발 동탄점","tel":"031-613-1942","addr":"경기도 화성시 반송동 218-2 가희프라자111,112호","indutype":"일반휴게음식 - 일반한식","category":"restaurant"},{"name":"이삭토스트동탄나루마을점","tel":"031-613-0145","addr":"경기도 화성시 반송동 218-2번지 가희프라자 103호","indutype":"일반휴게음식 - 일반한식","category":"restaurant"}]},{"lat":"37.200608955","long":"127.07343958","imageIndex":4,"items":[{"name":"나무","tel":"031-000-0000","addr":"경기도 화성시 반송동 106-5번지 유정프라자 108,109호","indutype":"일반휴게음식 - 주점","category":"restaurant"},{"name":"동대문곱창","tel":"031-8003-7544","addr":"경기도 화성시 반송동 106-5번지 유정프라자 1층 111호","indutype":"일반휴게음식 - 일반한식","category":"restaurant"},{"name":"한가족고기식당","tel":"031-8003-2102","addr":"경기도 화성시 반송동 106-5,유정프라자112호,113호","indutype":"일반휴게음식 - 일반한식","category":"restaurant"}]},{"lat":"37.201411861","long":"127.07177324","imageIndex":4,"items":[{"name":"나무","tel":"","addr":"경기도 화성시 반송동 103-9번지 5층","indutype":"일반휴게음식 - 일반한식","category":"restaurant"},{"name":"놀러와","tel":"031-8003-7718","addr":"경기도 화성시 반송동 103-9번지","indutype":"일반휴게음식 - 주점","category":"restaurant"},{"name":"와라와라동탄남광장점","tel":"031-111-1111","addr":"경기도 화성시 반송동 103-9번지 1층 102호","indutype":"일반휴게음식 - 일반한식","category":"restaurant"},{"name":"촌놈집 동탄","tel":"031-613-5701","addr":"경기도 화성시 반송동 103-9번지 1층 일부호","indutype":"일반휴게음식 - 일반한식","category":"restaurant"}]},{"lat":"37.197111166","long":"127.07633103","imageIndex":4,"items":[{"name":"나쿠펜다 (Nakupenda)","tel":"031-613-2649","addr":"경기도 화성시 반송동 118-5번지 1층 상가","indutype":"일반휴게음식 - 서양음식","category":"restaurant"}]},{"lat":"37.200969418","long":"127.07336107","imageIndex":4,"items":[{"name":"남대문황금족발","tel":"031-8015-1104","addr":"경기도 화성시 반송동 106-3번지 돌모루프라자 107호","indutype":"일반휴게음식 - 일반한식","category":"restaurant"},{"name":"뉴전주","tel":"031-8003-5354","addr":"경기도 화성시 반송동 106-3번지 돌모루프라자 108호","indutype":"일반휴게음식 - 일반한식","category":"restaurant"},{"name":"참치더춘자","tel":"","addr":"경기도 화성시 반송동 106-3번지 돌모루프라자 109,110호","indutype":"일반휴게음식 - 일반한식","category":"restaurant"}]},{"lat":"37.197994477","long":"127.07585882","imageIndex":4,"items":[{"name":"남도미향","tel":"031-8015-2240","addr":"경기도 화성시 반송동 116-10번지","indutype":"일반휴게음식 - 일반한식","category":"restaurant"}]},{"lat":"37.197110491","long":"127.07741233","imageIndex":4,"items":[{"name":"남도연 (동탄점)","tel":"031-8050-9872","addr":"경기도 화성시 반송동 121-3번지 1층","indutype":"일반휴게음식 - 일반한식","category":"restaurant"}]},{"lat":"37.206688198","long":"127.06203391","imageIndex":4,"items":[{"name":"내가찜한닭 (동탄점)","tel":"031-8015-3888","addr":"경기도 화성시 반송동 50-12번지","indutype":"일반휴게음식 - 일반한식","category":"restaurant"}]},{"lat":"37.192723805","long":"127.07518924","imageIndex":4,"items":[{"name":"네네치킨 동탄2호점","tel":"031-613-4417","addr":"경기도 화성시 반송동 215번지 나루마을신도브래뉴 상가 105호","indutype":"일반휴게음식 - 스넥","category":"restaurant"}]},{"lat":"37.208103146","long":"127.0613929","imageIndex":4,"items":[{"name":"네모네식당","tel":"070-1111-1111","addr":"경기도 화성시 반송동 45-10번지 1층","indutype":"일반휴게음식 - 일반한식","category":"restaurant"}]},{"lat":"37.20932684","long":"127.06477343","imageIndex":4,"items":[{"name":"노군수제맥주 동탄점","tel":"070-8253-1515","addr":"경기도 화성시 반송동 31-4번지","indutype":"일반휴게음식 - 주점","category":"restaurant"}]},{"lat":"37.209741446","long":"127.06452593","imageIndex":4,"items":[{"name":"노난갈비","tel":"031-8003-9214","addr":"경기도 화성시 반송동 30-11번지","indutype":"일반휴게음식 - 일반한식","category":"restaurant"}]},{"lat":"37.201024538","long":"127.07155887","imageIndex":4,"items":[{"name":"노블레스","tel":"031-8015-2030","addr":"경기도 화성시 반송동 104-2번지 한솔프라자 405호","indutype":"일반휴게음식 - 서양음식","category":"restaurant"},{"name":"더벤티 동탄남광장점","tel":"031-613-6635","addr":"경기도 화성시 반송동 104-2번지 한솔프라자 1층 107호 의일부호","indutype":"일반휴게음식 - 서양음식","category":"restaurant"},{"name":"속초붉은대게","tel":"031-613-5835","addr":"경기도 화성시 반송동 104-2번지 한솔프라자 101,102호","indutype":"일반휴게음식 - 일반한식","category":"restaurant"},{"name":"숯 닭 무","tel":"031-355-4492","addr":"경기도 화성시 반송동 104-2번지 한솔프라자 203,204호","indutype":"일반휴게음식 - 일반한식","category":"restaurant"},{"name":"오카나간몽","tel":"031-8015-3141","addr":"경기도 화성시 반송동 104-2번지 한솔프라자 901,902","indutype":"일반휴게음식 - 주점","category":"restaurant"},{"name":"카페루나","tel":"031-613-4456","addr":"경기도 화성시 반송동 104-2번지 한솔프라자 603,604,605호","indutype":"일반휴게음식 - 일반한식","category":"restaurant"},{"name":"컴포즈커피 동탄남광장점","tel":"031-000-0000","addr":"경기도 화성시 반송동 104-2번지 한솔프라자 1층 103호","indutype":"일반휴게음식 - 서양음식","category":"restaurant"}]},{"lat":"37.196216222","long":"127.08089182","imageIndex":4,"items":[{"name":"노작골","tel":"031-613-9595","addr":"경기도 화성시 반송동 124-10번지","indutype":"일반휴게음식 - 일반한식","category":"restaurant"}]},{"lat":"37.197327016","long":"127.07697326","imageIndex":4,"items":[{"name":"노작골부대찌개","tel":"070-8866-9487","addr":"경기도 화성시 반송동 120-8번지 상가 1층","indutype":"일반휴게음식 - 일반한식","category":"restaurant"}]},{"lat":"37.195856154","long":"127.08036207","imageIndex":4,"items":[{"name":"노작한우","tel":"031-8003-6464","addr":"경기도 화성시 반송동 125-1번지 1층 상가전체","indutype":"일반휴게음식 - 일반한식","category":"restaurant"}]},{"lat":"37.211082425","long":"127.06746733","imageIndex":4,"items":[{"name":"놀부마을 (한식부페)","tel":"031-8015-1437","addr":"경기도 화성시 반송동 7-17번지 1층","indutype":"일반휴게음식 - 일반한식","category":"restaurant"}]},{"lat":"37.209166029","long":"127.0620809","imageIndex":4,"items":[{"name":"누름돌 생고기 김치찌개","tel":"031-613-5383","addr":"경기도 화성시 반송동 41-2번지 1층 106,107,108호","indutype":"일반휴게음식 - 일반한식","category":"restaurant"}]},{"lat":"37.199942594","long":"127.07275186","imageIndex":4,"items":[{"name":"누리땡초","tel":"031-613-3376","addr":"경기도 화성시 반송동 107-5번지 동진프라자 101동 103호","indutype":"일반휴게음식 - 일반한식","category":"restaurant"},{"name":"오와스시","tel":"031-8015-5588","addr":"경기도 화성시 반송동 107-5번지 동진프라자 104,105호","indutype":"일반휴게음식 - 일식·회집","category":"restaurant"}]},{"lat":"37.207605899","long":"127.06469317","imageIndex":4,"items":[{"name":"눈솜","tel":"070-7765-2806","addr":"경기도 화성시 반송동 42-5번지 하나로오피스텔 1층 104호","indutype":"일반휴게음식 - 일반한식","category":"restaurant"},{"name":"스시나무","tel":"031-8003-1021","addr":"경기도 화성시 반송동 42-5번지 하나로오피스텔105호106동 105호","indutype":"일반휴게음식 - 일식·회집","category":"restaurant"},{"name":"써드플로어","tel":"031-1111-1111","addr":"경기도 화성시 반송동 42-5번지 하나로오피스텔 301동 305호","indutype":"일반휴게음식 - 일반한식","category":"restaurant"},{"name":"이디야 동탄센트럴파크점","tel":"031-8003-2303","addr":"경기도 화성시 반송동 42-5번지 102,103호","indutype":"일반휴게음식 - 서양음식","category":"restaurant"},{"name":"타코비동탄점","tel":"","addr":"경기도 화성시 반송동 42-5번지 하나로오피스텔 1층 107호","indutype":"일반휴게음식 - 일반한식","category":"restaurant"},{"name":"홀리데이 (센트럴파크점)","tel":"070-7664-3296","addr":"경기도 화성시 반송동 42-5번지 2층 203호 ,204,205호","indutype":"일반휴게음식 - 일반한식","category":"restaurant"}]},{"lat":"37.206492505","long":"127.07382806","imageIndex":4,"items":[{"name":"뉴욕야시장 동탄북광장점","tel":"031-613-2757","addr":"경기도 화성시 반송동 87-6번지 1층 101,102호","indutype":"일반휴게음식 - 일반한식","category":"restaurant"},{"name":"마약먹태","tel":"031-613-9255","addr":"경기도 화성시 반송동 87-6번지 1층 105호","indutype":"일반휴게음식 - 주점","category":"restaurant"},{"name":"만화카페 스윗툰 동탄본점","tel":"031-8003-3825","addr":"경기도 화성시 반송동 87-6번지","indutype":"일반휴게음식 - 서양음식","category":"restaurant"},{"name":"한신포차 동탄북광장점","tel":"031-8003-9939","addr":"경기도 화성시 반송동 87-6번지 골드프라자 201호,202호","indutype":"일반휴게음식 - 주점","category":"restaurant"}]},{"lat":"37.210082719","long":"127.0666441","imageIndex":4,"items":[{"name":"뉴욕핫도그앤커피동탄점","tel":"070-4150-9197","addr":"경기도 화성시 반송동 동탄택지지구 16-2 동탄시네스타 706","indutype":"일반휴게음식 - 서양음식","category":"restaurant"}]},{"lat":"37.196190832","long":"127.07835754","imageIndex":4,"items":[{"name":"늘봄","tel":"031-613-9561","addr":"경기도 화성시 반송동 128-1번지","indutype":"일반휴게음식 - 일반한식","category":"restaurant"}]},{"lat":"37.202756099","long":"127.06880068","imageIndex":4,"items":[{"name":"닐니리맘보동탄메타점","tel":"031-8015-4664","addr":"경기도 화성시 반송동 98번지 METAPOLIS C동B1층CB02호","indutype":"일반휴게음식 - 일반한식","category":"restaurant"},{"name":"더돈까스","tel":"031-8015-1013","addr":"경기도 화성시 반송동 98번지 지하4층 X Y11호 8","indutype":"일반휴게음식 - 일식·회집","category":"restaurant"},{"name":"떼루와 동탄 메타폴리스점","tel":"031-613-6446","addr":"경기도 화성시 반송동 98번지 1층 일부호 메타폴리스 상가","indutype":"일반휴게음식 - 서양음식","category":"restaurant"}]},{"lat":"37.1980484","long":"127.07608414","imageIndex":4,"items":[{"name":"달보드레","tel":"031-386-0540","addr":"경기도 화성시 반송동 116-5번지 1층","indutype":"일반휴게음식 - 서양음식","category":"restaurant"},{"name":"달보드레","tel":"031-386-0540","addr":"경기도 화성시 반송동 116-5번지 1층","indutype":"일반휴게음식 - 서양음식","category":"restaurant"}]},{"lat":"37.207022106","long":"127.06097526","imageIndex":4,"items":[{"name":"달팽이 그림책카페","tel":"070-4567-4444","addr":"경기도 화성시 반송동 50-19번지 102호","indutype":"일반휴게음식 - 서양음식","category":"restaurant"}]},{"lat":"37.206970531","long":"127.0730287","imageIndex":4,"items":[{"name":"닭광정 동탄북광장점","tel":"","addr":"경기도 화성시 반송동 86-1번지 아인슈타인프라자 1층 104호","indutype":"일반휴게음식 - 일반한식","category":"restaurant"},{"name":"모노치즈","tel":"031-8015-1571","addr":"경기도 화성시 반송동 86-1번지 아인슈타인프라자 108호","indutype":"일반휴게음식 - 서양음식","category":"restaurant"},{"name":"총각네옛날통닭","tel":"031-000-0000","addr":"경기도 화성시 반송동 86-1번지 아인슈타인프라자 1층 102호","indutype":"일반휴게음식 - 스넥","category":"restaurant"},{"name":"카페루나","tel":"031-8015-4494","addr":"경기도 화성시 반송동 86-1번지 아인슈타인프라자 104호","indutype":"일반휴게음식 - 서양음식","category":"restaurant"},{"name":"킹스꼬마김밥","tel":"031-8003-7888","addr":"경기도 화성시 반송동 86-1번지 아인슈타인프라자 103호","indutype":"일반휴게음식 - 일반한식","category":"restaurant"}]},{"lat":"37.208497578","long":"127.06535854","imageIndex":4,"items":[{"name":"닭이봉춘천닭갈비","tel":"031-8003-1822","addr":"경기도 화성시 반송동 25-12번지","indutype":"일반휴게음식 - 일반한식","category":"restaurant"}]},{"lat":"37.197831823","long":"127.07661332","imageIndex":4,"items":[{"name":"당가원","tel":"031-628-9696","addr":"경기도 화성시 반송동 115-5번지 1층","indutype":"일반휴게음식 - 중국식","category":"restaurant"}]},{"lat":"37.197137202","long":"127.07791921","imageIndex":4,"items":[{"name":"대성농장생오리","tel":"031-8003-5296","addr":"경기도 화성시 반송동 122-1번지 1층","indutype":"일반휴게음식 - 일반한식","category":"restaurant"}]},{"lat":"37.193274424","long":"127.07355665","imageIndex":4,"items":[{"name":"대왕만두통닭","tel":"031-613-7474","addr":"경기도 화성시 반송동 217-5번지 금탑프라자 106호","indutype":"일반휴게음식 - 스넥","category":"restaurant"},{"name":"야끼","tel":"031-8003-7274","addr":"경기도 화성시 반송동 217-5번지 금탑프라자 106호","indutype":"일반휴게음식 - 일식·회집","category":"restaurant"},{"name":"쥬시 솔빛나루점","tel":"031-000-0000","addr":"경기도 화성시 반송동 217-5번지 금탑프라자 101호","indutype":"일반휴게음식 - 서양음식","category":"restaurant"}]},{"lat":"37.19477102","long":"127.07208257","imageIndex":4,"items":[{"name":"더매직테이블","tel":"031-613-0817","addr":"경기도 화성시 반송동 135번지 솔빛마을쌍용예가 상가동 1층 101호","indutype":"일반휴게음식 - 일반한식","category":"restaurant"}]},{"lat":"37.199915183","long":"127.07339388","imageIndex":4,"items":[{"name":"더바스켓동탄점","tel":"031-8003-2147","addr":"경기도 화성시 반송동 106-7번지 서해더블루 108호","indutype":"일반휴게음식 - 일반한식","category":"restaurant"},{"name":"윤수네마카롱","tel":"070-7543-8110","addr":"경기도 화성시 반송동 106-7번지 서해더블루 1층 113호","indutype":"일반휴게음식 - 서양음식","category":"restaurant"}]},{"lat":"37.206717993","long":"127.07344526","imageIndex":4,"items":[{"name":"더진국 동탄북광장점","tel":"031-8003-5903","addr":"경기도 화성시 반송동 87-7번지 네오프라자 101,102호","indutype":"일반휴게음식 - 일반한식","category":"restaurant"},{"name":"레드빠(RED BAR)","tel":"031-8003-7654","addr":"경기도 화성시 반송동 87-7번지 네오프라자 3층 303호","indutype":"일반휴게음식 - 주점","category":"restaurant"},{"name":"미친닭발","tel":"031-8003-5564","addr":"경기도 화성시 반송동 87-7번지 네오프라자 109호","indutype":"일반휴게음식 - 일반한식","category":"restaurant"},{"name":"별밤","tel":"031-223-5214","addr":"경기도 화성시 반송동 87-7번지 네오프라자 402,403호","indutype":"일반휴게음식 - 주점","category":"restaurant"},{"name":"블랙스완","tel":"","addr":"경기도 화성시 반송동 87-7번지 네오프라자 2층 203호","indutype":"일반휴게음식 - 서양음식","category":"restaurant"},{"name":"생활맥주 북광장점","tel":"031-8003-2542","addr":"경기도 화성시 반송동 87-7번지 네오프라자 1층 106호","indutype":"일반휴게음식 - 주점","category":"restaurant"},{"name":"설램","tel":"","addr":"경기도 화성시 반송동 87-7번지 네오프라자 110,111호","indutype":"일반휴게음식 - 서양음식","category":"restaurant"},{"name":"승열옥","tel":"031-8003-1830","addr":"경기도 화성시 반송동 87-7번지 네오프라자 201호","indutype":"일반휴게음식 - 일반한식","category":"restaurant"},{"name":"오늘도 고기","tel":"031-8003-3449","addr":"경기도 화성시 반송동 87-7번지 네오프라자 107호","indutype":"일반휴게음식 - 일반한식","category":"restaurant"},{"name":"정돈","tel":"031-8003-1160","addr":"경기도 화성시 반송동 87-7번지 네오프라자 105호","indutype":"일반휴게음식 - 일반한식","category":"restaurant"},{"name":"커피에 반하다","tel":"031-8015-5810","addr":"경기도 화성시 반송동 87-7번지 네오프라자 104호","indutype":"일반휴게음식 - 서양음식","category":"restaurant"},{"name":"해주","tel":"031-613-1538","addr":"경기도 화성시 반송동 87-7번지 네오프라자 204호 205호","indutype":"일반휴게음식 - 일반한식","category":"restaurant"}]},{"lat":"37.192223918","long":"127.06703454","imageIndex":4,"items":[{"name":"더화덕동탄반송점","tel":"031-613-9284","addr":"경기도 화성시 반송동 155-6번지 1층 일부호","indutype":"일반휴게음식 - 서양음식","category":"restaurant"}]},{"lat":"37.207166448","long":"127.0606149","imageIndex":4,"items":[{"name":"덕꾼바베큐","tel":"031-8003-5279","addr":"경기도 화성시 반송동 51-1번지 101호","indutype":"일반휴게음식 - 일반한식","category":"restaurant"},{"name":"홍루이젠 동탄센트럴파크점","tel":"","addr":"경기도 화성시 반송동 51-1번지 1층 102호","indutype":"일반휴게음식 - 서양음식","category":"restaurant"}]},{"lat":"37.209110889","long":"127.06419872","imageIndex":4,"items":[{"name":"덕유산황우곱창","tel":"031-8003-9202","addr":"경기도 화성시 반송동 32-1번지 1층","indutype":"일반휴게음식 - 일반한식","category":"restaurant"}]},{"lat":"37.19724559","long":"127.07750257","imageIndex":4,"items":[{"name":"도토리마을","tel":"031-613-7730","addr":"경기도 화성시 반송동 121-2번지","indutype":"일반휴게음식 - 일반한식","category":"restaurant"}]},{"lat":"37.192661998","long":"127.07308304","imageIndex":4,"items":[{"name":"돈우가","tel":"031-613-2732","addr":"경기도 화성시 반송동 216-2번지 샹그릴라 204호","indutype":"일반휴게음식 - 일반한식","category":"restaurant"},{"name":"오징어쉐프","tel":"031-8003-2568","addr":"경기도 화성시 반송동 216-2번지 103,104호","indutype":"일반휴게음식 - 일반한식","category":"restaurant"},{"name":"옳밀","tel":"031-613-7111","addr":"경기도 화성시 반송동 216-2번지 샹그릴라 102호","indutype":"일반휴게음식 - 일반한식","category":"restaurant"},{"name":"월선네","tel":"031-8015-2375","addr":"경기도 화성시 반송동 216-2번지 샹그릴라 101호","indutype":"일반휴게음식 - 일반한식","category":"restaurant"}]},{"lat":"37.199943344","long":"127.07146778","imageIndex":4,"items":[{"name":"동네커피","tel":"","addr":"경기도 화성시 반송동 107-1번지 쎈타프라자 1층 115호","indutype":"일반휴게음식 - 서양음식","category":"restaurant"},{"name":"라라향 마라탕","tel":"02-1111-1111","addr":"경기도 화성시 반송동 107-1번지 쎈타프라자 1층 102호","indutype":"일반휴게음식 - 중국식","category":"restaurant"},{"name":"미소야","tel":"031-613-5399","addr":"경기도 화성시 반송동 107-1번지 센터프라자 108호","indutype":"일반휴게음식 - 스넥","category":"restaurant"},{"name":"신전떡볶이","tel":"031-8003-8834","addr":"경기도 화성시 반송동 107-1번지 쎈타프라자 103호","indutype":"일반휴게음식 - 스넥","category":"restaurant"},{"name":"오늘손칼국수앤찜 동탄점","tel":"031-613-0907","addr":"경기도 화성시 반송동 107-1번지 쎈타프라자 117,118,119호","indutype":"일반휴게음식 - 일반한식","category":"restaurant"},{"name":"참 맛있는 닭강정","tel":"031-613-6305","addr":"경기도 화성시 반송동 107-1번지 센터프라자 114호","indutype":"일반휴게음식 - 스넥","category":"restaurant"},{"name":"한우가좋다","tel":"031-613-5325","addr":"경기도 화성시 반송동 107-1 센타프라자202호~203호","indutype":"일반휴게음식 - 일반한식","category":"restaurant"}]},{"lat":"37.20210486","long":"127.07313684","imageIndex":4,"items":[{"name":"동원참치(동탄점)","tel":"031-8003-7337","addr":"경기도 화성시 반송동 92-7번지 스타프라자 302,303호","indutype":"일반휴게음식 - 일식·회집","category":"restaurant"},{"name":"모박사부대찌개","tel":"031-8003-0081","addr":"경기도 화성시 반송동 92-7번지 스타프라자 205동 206호","indutype":"일반휴게음식 - 일반한식","category":"restaurant"},{"name":"이화화로","tel":"031-613-9724","addr":"경기도 화성시 반송동 92-7번지 스타프라자 2층 201호","indutype":"일반휴게음식 - 일반한식","category":"restaurant"},{"name":"전주명가콩나물국밥","tel":"031-8015-3894","addr":"경기도 화성시 반송동 92-7번지 스타프라자 105호,106호","indutype":"일반휴게음식 - 일반한식","category":"restaurant"},{"name":"커피충전소","tel":"031-8003-1211","addr":"경기도 화성시 반송동 92-7번지 스타프라자 1층 104-1호","indutype":"일반휴게음식 - 서양음식","category":"restaurant"}]},{"lat":"37.210138362","long":"127.06363629","imageIndex":4,"items":[{"name":"동진교자 칼국수","tel":"031-8015-1315","addr":"경기도 화성시 반송동 36-10번지 1층","indutype":"일반휴게음식 - 일반한식","category":"restaurant"}]},{"lat":"37.193661608","long":"127.07399626","imageIndex":4,"items":[{"name":"동탄본죽 솔빛나루점","tel":"031-8003-5989","addr":"경기도 화성시 반송동 217-3번지 동유프라자 104호","indutype":"일반휴게음식 - 일반한식","category":"restaurant"},{"name":"제주올레국수","tel":"031-613-2755","addr":"경기도 화성시 반송동 217-3번지 동유프라자 105호","indutype":"일반휴게음식 - 일반한식","category":"restaurant"},{"name":"홍천화로구이","tel":"031-8003-3398","addr":"경기도 화성시 반송동 217-3번지 동우프라자 106호,107호","indutype":"일반휴게음식 - 일반한식","category":"restaurant"}]},{"lat":"37.205159724","long":"127.07255391","imageIndex":4,"items":[{"name":"동탄불쭈꾸미","tel":"031-8003-0784","addr":"경기도 화성시 반송동 91-9번지 금정프라자 1층 107호","indutype":"일반휴게음식 - 일반한식","category":"restaurant"},{"name":"어서오뎅","tel":"031-613-4805","addr":"경기도 화성시 반송동 91-9번지 금정프라자 1층 103호","indutype":"일반휴게음식 - 스넥","category":"restaurant"},{"name":"전술","tel":"031-613-0041","addr":"경기도 화성시 반송동 91-9번지 금정프라자 105호,106호","indutype":"일반휴게음식 - 일반한식","category":"restaurant"},{"name":"훠라라마라탕","tel":"","addr":"경기도 화성시 반송동 91-9번지 금정프라자 102호","indutype":"일반휴게음식 - 중국식","category":"restaurant"}]},{"lat":"37.21021765","long":"127.06706103","imageIndex":4,"items":[{"name":"동탄오리","tel":"031-613-5266","addr":"경기도 화성시 반송동 15-11번지 1층 전부호","indutype":"일반휴게음식 - 일반한식","category":"restaurant"}]},{"lat":"37.208553709","long":"127.06130313","imageIndex":4,"items":[{"name":"동탄즉석떡볶이","tel":"031-8003-5059","addr":"경기도 화성시 반송동 44-1번지 1층 103호","indutype":"일반휴게음식 - 스넥","category":"restaurant"},{"name":"시실로와","tel":"031-613-5428","addr":"경기도 화성시 반송동 44-1번지 1층 일부 (101,102)호","indutype":"일반휴게음식 - 서양음식","category":"restaurant"}]},{"lat":"37.208938565","long":"127.06633898","imageIndex":4,"items":[{"name":"돼지꿈꾸는날","tel":"031-613-3392","addr":"경기도 화성시 반송동 23-9번지","indutype":"일반휴게음식 - 일반한식","category":"restaurant"}]},{"lat":"37.20591653","long":"127.07266725","imageIndex":4,"items":[{"name":"돼지우리불났네","tel":"031-613-3137","addr":"경기도 화성시 반송동 88-12번지 리더스프라자 102호","indutype":"일반휴게음식 - 일반한식","category":"restaurant"},{"name":"두잎만두","tel":"031-613-7040","addr":"경기도 화성시 반송동 88-12번지 리더스프라자 109호 108","indutype":"일반휴게음식 - 일반한식","category":"restaurant"},{"name":"빨봉분식","tel":"031-613-7045","addr":"경기도 화성시 반송동 88-12번지 리더스프라자 2층 204호","indutype":"일반휴게음식 - 스넥","category":"restaurant"},{"name":"빽다방동탄북광장점","tel":"031-8003-0844","addr":"경기도 화성시 반송동 88-12번지 리더스프라자 106호","indutype":"일반휴게음식 - 서양음식","category":"restaurant"},{"name":"손큰국밥","tel":"031-8003-8862","addr":"경기도 화성시 반송동 88-12번지 리더스프라자 1층 104호","indutype":"일반휴게음식 - 일반한식","category":"restaurant"},{"name":"일품양평해장국","tel":"031-8015-1843","addr":"경기도 화성시 반송동 88-12번지 리더스프라자 103호","indutype":"일반휴게음식 - 일반한식","category":"restaurant"},{"name":"제이제이","tel":"031-613-9662","addr":"경기도 화성시 반송동 88-12번지 리더스프라자 304호","indutype":"일반휴게음식 - 주점","category":"restaurant"},{"name":"카페아마떼 동탄북광장점","tel":"031-613-1176","addr":"경기도 화성시 반송동 88-12번지 리더스프라자 101호","indutype":"일반휴게음식 - 서양음식","category":"restaurant"},{"name":"컴포즈커피","tel":"031-613-7192","addr":"경기도 화성시 반송동 88-12번지 리더스프라자 1층 109호","indutype":"일반휴게음식 - 서양음식","category":"restaurant"}]},{"lat":"37.193859702","long":"127.07422171","imageIndex":4,"items":[{"name":"두끼 동탄점","tel":"031-8015-2220","addr":"경기도 화성시 반송동 217-1번지 리첸프라자 202, 203호","indutype":"일반휴게음식 - 일반한식","category":"restaurant"},{"name":"떡볶이창고","tel":"031-1111-1111","addr":"경기도 화성시 반송동 217-1번지 리첸프라자 115,116호","indutype":"일반휴게음식 - 스넥","category":"restaurant"},{"name":"메가커피 나루마을점","tel":"","addr":"경기도 화성시 반송동 217-1번지 리첸프라자 108호","indutype":"일반휴게음식 - 서양음식","category":"restaurant"},{"name":"명동춘천닭갈비","tel":"031-613-0291","addr":"경기도 화성시 반송동 217-1번지 리첸프라자 202호","indutype":"일반휴게음식 - 일반한식","category":"restaurant"},{"name":"미소야동탄점","tel":"031-613-8868","addr":"경기도 화성시 반송동 217-1번지 외1필지 리첸프라자 104호","indutype":"일반휴게음식 - 일반한식","category":"restaurant"},{"name":"이지육해공","tel":"031-613-1937","addr":"경기도 화성시 반송동 217-1번지 리첸프라자 207호","indutype":"일반휴게음식 - 일반한식","category":"restaurant"},{"name":"청년다방 동탄나루점","tel":"031-8015-3360","addr":"경기도 화성시 반송동 217-1번지 리첸프라자 1층 102호","indutype":"일반휴게음식 - 일반한식","category":"restaurant"},{"name":"초밥상회 솔빛나루점","tel":"031-8003-6544","addr":"경기도 화성시 반송동 217-1번지 리첸프라자 110호 일부","indutype":"일반휴게음식 - 일반한식","category":"restaurant"},{"name":"치어스(솔빛나루점)","tel":"031-8003-8830","addr":"경기도 화성시 반송동 217-1번지 리첸프라자 204동 204호","indutype":"일반휴게음식 - 주점","category":"restaurant"},{"name":"태정곱창","tel":"","addr":"경기도 화성시 반송동 217-1번지 리첸프라자 1층 117호","indutype":"일반휴게음식 - 일반한식","category":"restaurant"}]},{"lat":"37.209994546","long":"127.06294898","imageIndex":4,"items":[{"name":"두레밥상","tel":"031-613-8373","addr":"경기도 화성시 반송동 37-11번지 103호","indutype":"일반휴게음식 - 일반한식","category":"restaurant"}]},{"lat":"37.20827239","long":"127.06522317","imageIndex":4,"items":[{"name":"두리맛감자탕","tel":"031-8015-3397","addr":"경기도 화성시 반송동 26-1번지 1층","indutype":"일반휴게음식 - 일반한식","category":"restaurant"},{"name":"두리맛감자탕","tel":"031-8015-3397","addr":"경기도 화성시 반송동 26-1번지","indutype":"일반휴게음식 - 일반한식","category":"restaurant"}]},{"lat":"37.210271233","long":"127.06793978","imageIndex":4,"items":[{"name":"드립앤드랍","tel":"","addr":"경기도 화성시 반송동 14-3번지 101호","indutype":"일반휴게음식 - 서양음식","category":"restaurant"}]},{"lat":"37.194945942","long":"127.08060893","imageIndex":4,"items":[{"name":"드시계","tel":"031-8003-3340","addr":"경기도 화성시 반송동 131-26번지 102호","indutype":"일반휴게음식 - 일반한식","category":"restaurant"}]},{"lat":"37.211272623","long":"127.06564247","imageIndex":4,"items":[{"name":"들마루","tel":"031-8003-7941","addr":"경기도 화성시 반송동 7-6번지","indutype":"일반휴게음식 - 일반한식","category":"restaurant"}]},{"lat":"37.208020663","long":"127.06414152","imageIndex":4,"items":[{"name":"등촌샤브칼국수","tel":"031-613-3930","addr":"경기도 화성시 반송동 42-3번지 하나프라자 303동 304호","indutype":"일반휴게음식 - 일반한식","category":"restaurant"},{"name":"메콩타이 동탄센트럴파크점","tel":"031-613-0493","addr":"경기도 화성시 반송동 42-3번지 하나로프라자 203동 203호 204호","indutype":"일반휴게음식 - 서양음식","category":"restaurant"},{"name":"버즈커피동탄센트럴파크점","tel":"031-8003-6546","addr":"경기도 화성시 반송동 42-3하나로프라자203호~204호","indutype":"일반휴게음식 - 스넥","category":"restaurant"},{"name":"보드람치킨","tel":"031-613-8034","addr":"경기도 화성시 반송동 42-3번지 하나로프라자 106,107호","indutype":"일반휴게음식 - 주점","category":"restaurant"},{"name":"어라운드히어(Around here)","tel":"","addr":"경기도 화성시 반송동 42-3번지 하나로프라자 109,110호","indutype":"일반휴게음식 - 서양음식","category":"restaurant"},{"name":"치어스 반송점","tel":"031-613-9131","addr":"경기도 화성시 반송동 42-3번지 하나로프라자 202호","indutype":"일반휴게음식 - 주점","category":"restaurant"}]},{"lat":"37.194499487","long":"127.07414347","imageIndex":4,"items":[{"name":"등촌샤브칼국수솔빛나루점","tel":"031-8003-9966","addr":"경기도 화성시 반송동 219-3정림프라자301~302","indutype":"일반휴게음식 - 일반한식","category":"restaurant"},{"name":"백남옥달인손만두","tel":"031-613-3800","addr":"경기도 화성시 반송동 219-3번지 정림프라자 1층 101-1호","indutype":"일반휴게음식 - 스넥","category":"restaurant"},{"name":"피자스쿨(동탄반송점)","tel":"031-8003-0005","addr":"경기도 화성시 반송동 219-3번지 정림프라자 101호","indutype":"일반휴게음식 - 서양음식","category":"restaurant"}]},{"lat":"37.205826293","long":"127.07289246","imageIndex":4,"items":[{"name":"디엔티","tel":"031-613-8989","addr":"경기도 화성시 반송동 88-11번지 씨티플러스 5층 501호","indutype":"일반휴게음식 - 일반한식","category":"restaurant"},{"name":"메가커피동탄북광장점","tel":"031-613-3799","addr":"경기도 화성시 반송동 88-11번지 씨티플러스 1층 101호","indutype":"일반휴게음식 - 서양음식","category":"restaurant"},{"name":"미참치","tel":"031-613-0369","addr":"경기도 화성시 반송동 88-11번지 씨티플러스 301호","indutype":"일반휴게음식 - 일식·회집","category":"restaurant"},{"name":"삼겹싸롱동탄북광장점","tel":"031-8015-3947","addr":"경기도 화성시 반송동 88-11번지 씨티플러스 203호","indutype":"일반휴게음식 - 일반한식","category":"restaurant"},{"name":"수","tel":"031-8015-4411","addr":"경기도 화성시 반송동 88-11번지 씨티플러스 402호","indutype":"일반휴게음식 - 주점","category":"restaurant"},{"name":"쓰리 라운지","tel":"031-616-6001","addr":"경기도 화성시 반송동 88-11번지 씨티플러스 602호","indutype":"일반휴게음식 - 주점","category":"restaurant"},{"name":"영풍치킨","tel":"031-613-5074","addr":"경기도 화성시 반송동 88-11번지 씨티플러스 107~109호","indutype":"일반휴게음식 - 스넥","category":"restaurant"},{"name":"예쁠연","tel":"031-613-9180","addr":"경기도 화성시 반송동 88-11번지 씨티플러스 401호","indutype":"일반휴게음식 - 일반한식","category":"restaurant"},{"name":"오르(ohr)","tel":"031-613-1117","addr":"경기도 화성시 반송동 88-11번지 씨티플러스 201호","indutype":"일반휴게음식 - 일반한식","category":"restaurant"},{"name":"청춘술집 소주and맥주","tel":"","addr":"경기도 화성시 반송동 88-11번지 씨티플러스 302호","indutype":"일반휴게음식 - 일반한식","category":"restaurant"},{"name":"퀸즈블랙 동탄북광장점","tel":"031-8003-0753","addr":"경기도 화성시 반송동 88-11번지 씨티플러스 103호","indutype":"일반휴게음식 - 서양음식","category":"restaurant"},{"name":"퀸즈블랙 동탄점","tel":"","addr":"경기도 화성시 반송동 88-11번지 씨티플러스 103호","indutype":"일반휴게음식 - 서양음식","category":"restaurant"},{"name":"탕화쿵푸","tel":"031-111-1111","addr":"경기도 화성시 반송동 88-11번지 씨티플러스 202호","indutype":"일반휴게음식 - 중국식","category":"restaurant"},{"name":"포차천국 동탄북광장점","tel":"031-8003-1903","addr":"경기도 화성시 반송동 88-11번지 씨티플러스 2층 204호","indutype":"일반휴게음식 - 일반한식","category":"restaurant"},{"name":"홍대막창","tel":"031-613-8567","addr":"경기도 화성시 반송동 88-11번지","indutype":"일반휴게음식 - 일반한식","category":"restaurant"}]},{"lat":"37.208328338","long":"127.06152826","imageIndex":4,"items":[{"name":"딜라잇풀","tel":"02-1234-1234","addr":"경기도 화성시 반송동 45-12번지 103호","indutype":"일반휴게음식 - 일반한식","category":"restaurant"}]},{"lat":"37.205051387","long":"127.07291427","imageIndex":4,"items":[{"name":"따르시오","tel":"031-1111-1111","addr":"경기도 화성시 반송동 91-8번지 삼현빌딩 105호","indutype":"일반휴게음식 - 일반한식","category":"restaurant"},{"name":"숙달돼지 화성동탄점","tel":"031-000-0000","addr":"경기도 화성시 반송동 91-8번지 삼현빌딩 106호 ,107,108호","indutype":"일반휴게음식 - 일반한식","category":"restaurant"},{"name":"원일참치","tel":"031-8003-3782","addr":"경기도 화성시 반송동 91-8번지 102호 101호, 102호","indutype":"일반휴게음식 - 일반한식","category":"restaurant"},{"name":"제주흑돈","tel":"031-8015-1558","addr":"경기도 화성시 반송동 91-8번지 삼현빌딩 103호","indutype":"일반휴게음식 - 일반한식","category":"restaurant"}]},{"lat":"37.207159669","long":"127.07316405","imageIndex":4,"items":[{"name":"떡볶이스타동탄점","tel":"031-613-3007","addr":"경기도 화성시 반송동 86-2번지 화성동탄센터타워 1층 107호","indutype":"일반휴게음식 - 스넥","category":"restaurant"},{"name":"속초역 1호차","tel":"02-1577-0000","addr":"경기도 화성시 반송동 86-2번지 화성동탄센터타워 1층 108호","indutype":"일반휴게음식 - 일반한식","category":"restaurant"},{"name":"전설의 왕만두","tel":"031-8003-3990","addr":"경기도 화성시 반송동 86-2번지 화성동탄센터타워 1층 102호","indutype":"일반휴게음식 - 스넥","category":"restaurant"},{"name":"커피베이 동탄북광장점","tel":"031-8003-0314","addr":"경기도 화성시 반송동 86-2번지 화성동탄센터타워 106호","indutype":"일반휴게음식 - 서양음식","category":"restaurant"}]},{"lat":"37.202249983","long":"127.07150366","imageIndex":4,"items":[{"name":"또봉이통닭 동탄하이페이온점","tel":"031-613-9970","addr":"경기도 화성시 반송동 93-9번지 동탄하이페리온 118호","indutype":"일반휴게음식 - 일반한식","category":"restaurant"},{"name":"매드테이블동탄하이페리온점","tel":"031-613-6975","addr":"경기도 화성시 반송동 93-9번지 동탄하이페리온 109,110호","indutype":"일반휴게음식 - 서양음식","category":"restaurant"},{"name":"써브웨이 동탄하이페리온점","tel":"031-8003-8878","addr":"경기도 화성시 반송동 93-9번지 동탄현대하이페리온 106호","indutype":"일반휴게음식 - 서양음식","category":"restaurant"},{"name":"오떡 (동탄점)","tel":"031-8015-2258","addr":"경기도 화성시 반송동 93-9번지 동탄현대하이페리온 1층 106일부호","indutype":"일반휴게음식 - 일반한식","category":"restaurant"}]},{"lat":"37.207940516","long":"127.06228272","imageIndex":4,"items":[{"name":"또와유참숯불생선구이","tel":"031-8003-9231","addr":"경기도 화성시 반송동 47-11번지 1층","indutype":"일반휴게음식 - 일반한식","category":"restaurant"}]},{"lat":"37.202492811","long":"127.07228111","imageIndex":4,"items":[{"name":"뚝배기","tel":"031-8015-2292","addr":"경기도 화성시 반송동 93-7번지 801호","indutype":"일반휴게음식 - 일반한식","category":"restaurant"},{"name":"장수손두부","tel":"031-8003-8383","addr":"경기도 화성시 반송동 93-7번지 트라이엄프동탄 지하1층 B04호 B04-1호","indutype":"일반휴게음식 - 일반한식","category":"restaurant"},{"name":"커피스미스 동탄트라이엄프점","tel":"031-8015-3961","addr":"경기도 화성시 반송동 93-7번지 트라이엄프동탄 101-1,102-1,103호","indutype":"일반휴게음식 - 서양음식","category":"restaurant"},{"name":"커피스미스 동탄트라이엄프점","tel":"031-000-0000","addr":"경기도 화성시 반송동 93-7번지 101-1호, 102-1호 , 103호","indutype":"일반휴게음식 - 서양음식","category":"restaurant"},{"name":"해운대미스터스시","tel":"031-613-8188","addr":"경기도 화성시 반송동 93-7번지 B804","indutype":"일반휴게음식 - 일식·회집","category":"restaurant"}]},{"lat":"37.200465672","long":"127.07194134","imageIndex":4,"items":[{"name":"뚱보집","tel":"031-8015-0777","addr":"경기도 화성시 반송동 104-11번지 월드프라자 105호","indutype":"일반휴게음식 - 일반한식","category":"restaurant"},{"name":"메가MGC커피동탄남광장점","tel":"070-1111-1111","addr":"경기도 화성시 반송동 104-11번지 월드프라자 1층 109호","indutype":"일반휴게음식 - 서양음식","category":"restaurant"},{"name":"백전","tel":"031-613-6543","addr":"경기도 화성시 반송동 104-11번지 월드프라자 106호","indutype":"일반휴게음식 - 일반한식","category":"restaurant"},{"name":"엘리팝 동탄남광장점","tel":"031-222-2222","addr":"경기도 화성시 반송동 104-11번지 월드프라자 103,104호","indutype":"일반휴게음식 - 일반한식","category":"restaurant"},{"name":"치킨투고룸호프","tel":"031-376-8522","addr":"경기도 화성시 반송동 104-11월드프라자203,204,205호 해신","indutype":"일반휴게음식 - 일식·회집","category":"restaurant"},{"name":"코키펍동탄점","tel":"031-8003-3353","addr":"경기도 화성시 반송동 104-11번지 월드프라자 2층","indutype":"일반휴게음식 - 서양음식","category":"restaurant"},{"name":"큐브","tel":"","addr":"경기도 화성시 반송동 104-11번지 월드프라자 501,502,503,504호","indutype":"일반휴게음식 - 주점","category":"restaurant"},{"name":"포항아지매","tel":"031-8003-7330","addr":"경기도 화성시 반송동 104-11 월드프라자 101호,102호","indutype":"일반휴게음식 - 일반한식","category":"restaurant"}]},{"lat":"37.208245007","long":"127.06588779","imageIndex":4,"items":[{"name":"뜨거운감자탕","tel":"031-236-4782","addr":"경기도 화성시 반송동 25-8번지 1층 일부호","indutype":"일반휴게음식 - 일반한식","category":"restaurant"}]},{"lat":"37.195162133","long":"127.08069926","imageIndex":4,"items":[{"name":"뜰방","tel":"031-8003-0321","addr":"경기도 화성시 반송동 127-6번지","indutype":"일반휴게음식 - 일반한식","category":"restaurant"},{"name":"수연낙지","tel":"031-374-8066","addr":"경기도 화성시 반송동 127-6번지 1층","indutype":"일반휴게음식 - 일반한식","category":"restaurant"}]},{"lat":"37.210164775","long":"127.06483044","imageIndex":4,"items":[{"name":"뜰안에매운등갈비찜","tel":"031-8003-1067","addr":"경기도 화성시 반송동 11-10번지","indutype":"일반휴게음식 - 일반한식","category":"restaurant"}]},{"lat":"37.20311175","long":"127.06066813","imageIndex":4,"items":[{"name":"라?드쇼콜라","tel":"031-613-0822","addr":"경기도 화성시 반송동 62-7번지 1층 2호","indutype":"일반휴게음식 - 일반한식","category":"restaurant"}]},{"lat":"37.208048613","long":"127.06233913","imageIndex":4,"items":[{"name":"라빠레트","tel":"031-8003-6434","addr":"경기도 화성시 반송동 47-12번지 1층","indutype":"일반휴게음식 - 일반한식","category":"restaurant"}]},{"lat":"37.20768878","long":"127.06116728","imageIndex":4,"items":[{"name":"라플뤼","tel":"070-4206-8585","addr":"경기도 화성시 반송동 49-1번지","indutype":"일반휴게음식 - 서양음식","category":"restaurant"}]},{"lat":"37.197750001","long":"127.07777339","imageIndex":4,"items":[{"name":"라피올라","tel":"031-8015-5177","addr":"경기도 화성시 반송동 113-6번지 정형빌딩 1층","indutype":"일반휴게음식 - 서양음식","category":"restaurant"}]},{"lat":"37.206384225","long":"127.07408705","imageIndex":4,"items":[{"name":"랑만꼬치","tel":"031-800-3598","addr":"경기도 화성시 반송동 87-5번지 1층 I-PALACE 104,105호","indutype":"일반휴게음식 - 일식·회집","category":"restaurant"}]},{"lat":"37.198687359","long":"127.07733503","imageIndex":4,"items":[{"name":"로이(ROI)","tel":"","addr":"경기도 화성시 반송동 111-4번지 전체 1층 101호","indutype":"일반휴게음식 - 일반한식","category":"restaurant"}]},{"lat":"37.199717288","long":"127.0728305","imageIndex":4,"items":[{"name":"롯데리아 화성동탄점","tel":"031-8003-4545","addr":"경기도 화성시 반송동 107-6번지 거산프라자 1층 101 ,102호","indutype":"일반휴게음식 - 서양음식","category":"restaurant"},{"name":"몽몽","tel":"031-613-5755","addr":"경기도 화성시 반송동 107-6번지 거산프라자 201,202호","indutype":"일반휴게음식 - 일반한식","category":"restaurant"},{"name":"전곱 동탄점","tel":"031-000-0000","addr":"경기도 화성시 반송동 107-6번지 거산프라자 1층 104호","indutype":"일반휴게음식 - 일반한식","category":"restaurant"},{"name":"진도리닭도리탕","tel":"031-8015-5670","addr":"경기도 화성시 반송동 107-6번지 1층 106호 107호","indutype":"일반휴게음식 - 일반한식","category":"restaurant"},{"name":"차이킹","tel":"031-613-4347","addr":"경기도 화성시 반송동 107-6번지 거산프라자 108호","indutype":"일반휴게음식 - 중국식","category":"restaurant"}]},{"lat":"37.208913376","long":"127.06280168","imageIndex":4,"items":[{"name":"롯데리아화성센트럴파크점","tel":"031-8015-4077","addr":"경기도 화성시 반송동 41-5번지 강남프라자 1층 105-107호","indutype":"일반휴게음식 - 서양음식","category":"restaurant"}]},{"lat":"37.206940852","long":"127.06130188","imageIndex":4,"items":[{"name":"르블랑(Le Blanc)","tel":"031-613-0915","addr":"경기도 화성시 반송동 50-17번지","indutype":"일반휴게음식 - 서양음식","category":"restaurant"}]},{"lat":"37.2112723","long":"127.06625081","imageIndex":4,"items":[{"name":"마약보쌈족발 동탄점","tel":"031-8003-5257","addr":"경기도 화성시 반송동 7-10번지 1층","indutype":"일반휴게음식 - 일반한식","category":"restaurant"},{"name":"이나카야","tel":"031-8003-5253","addr":"경기도 화성시 반송동 7-10번지 1층 101호","indutype":"일반휴게음식 - 일식·회집","category":"restaurant"}]},{"lat":"37.207688016","long":"127.06269932","imageIndex":4,"items":[{"name":"마이도","tel":"031-8015-5630","addr":"경기도 화성시 반송동 48-3번지 101,102호","indutype":"일반휴게음식 - 일식·회집","category":"restaurant"}]},{"lat":"37.201859791","long":"127.05966466","imageIndex":4,"items":[{"name":"만선회포차","tel":"031-613-0775","addr":"경기도 화성시 반송동 61-10번지 정메디프라자 103호","indutype":"일반휴게음식 - 일반한식","category":"restaurant"}]},{"lat":"37.209634217","long":"127.06277972","imageIndex":4,"items":[{"name":"맑은샘송어","tel":"031-613-7491","addr":"경기도 화성시 반송동 39-11번지 101호","indutype":"일반휴게음식 - 일반한식","category":"restaurant"},{"name":"샵푸드플레이스","tel":"031-8043-8244","addr":"경기도 화성시 반송동 39-11번지 1층 일부호","indutype":"일반휴게음식 - 일반한식","category":"restaurant"}]},{"lat":"37.194220415","long":"127.07372647","imageIndex":4,"items":[{"name":"맘스터치 동탄나루점","tel":"031-613-3832","addr":"경기도 화성시 반송동 220-1번지 훼미리빌딩 109,110호","indutype":"일반휴게음식 - 서양음식","category":"restaurant"},{"name":"토마토도시락동탄나루마을점","tel":"031-8003-8447","addr":"경기도 화성시 반송동 220-1번지 훼미리빌딩 106호","indutype":"일반휴게음식 - 일반한식","category":"restaurant"}]},{"lat":"37.2061863","long":"127.07357995","imageIndex":4,"items":[{"name":"맥주세일","tel":"031-8003-3339","addr":"경기도 화성시 반송동 88-5번지 성진빌딩 2층","indutype":"일반휴게음식 - 일반한식","category":"restaurant"},{"name":"부산왕꼼장어","tel":"031-8003-0022","addr":"경기도 화성시 반송동 88-5번지 성진빌딩 102호","indutype":"일반휴게음식 - 일반한식","category":"restaurant"},{"name":"심s조개전골,칼국수","tel":"031-613-7283","addr":"경기도 화성시 반송동 88-5번지 성진빌딩 1층","indutype":"일반휴게음식 - 일반한식","category":"restaurant"},{"name":"용범이네 인계동껍데기 동탄북광장점","tel":"031-8003-0756","addr":"경기도 화성시 반송동 88-5번지 성진빌딩 103호","indutype":"일반휴게음식 - 일반한식","category":"restaurant"},{"name":"장강","tel":"031-8003-5466","addr":"경기도 화성시 반송동 88-5번지 성진빌딩 201호","indutype":"일반휴게음식 - 중국식","category":"restaurant"}]},{"lat":"37.195910378","long":"127.08011433","imageIndex":4,"items":[{"name":"맨글로브커피","tel":"","addr":"경기도 화성시 반송동 123-13번지","indutype":"일반휴게음식 - 서양음식","category":"restaurant"}]},{"lat":"37.206580297","long":"127.06158323","imageIndex":4,"items":[{"name":"먹쉬돈나(동탄점)","tel":"031-613-3998","addr":"경기도 화성시 반송동 52-7번지 1층","indutype":"일반휴게음식 - 일반한식","category":"restaurant"}]},{"lat":"37.194972788","long":"127.08089054","imageIndex":4,"items":[{"name":"메르시","tel":"","addr":"경기도 화성시 반송동 126-3번지 반석빌딩 1층 일부 103호","indutype":"일반휴게음식 - 서양음식","category":"restaurant"}]},{"lat":"37.206528323","long":"127.07419983","imageIndex":4,"items":[{"name":"메양꼬치본점","tel":"031-8015-0205","addr":"경기도 화성시 반송동 87-4번지 지성프라자 101,102호","indutype":"일반휴게음식 - 일반한식","category":"restaurant"},{"name":"엠아이앤유(MINU)","tel":"031-111-1111","addr":"경기도 화성시 반송동 87-4번지 지성프라자 1층 105호","indutype":"일반휴게음식 - 서양음식","category":"restaurant"}]},{"lat":"37.207327839","long":"127.06222591","imageIndex":4,"items":[{"name":"메이크슈어(MAKE SURE)","tel":"031-000-0000","addr":"경기도 화성시 반송동 49-9번지 1층 103호","indutype":"일반휴게음식 - 서양음식","category":"restaurant"}]},{"lat":"37.195829934","long":"127.07911182","imageIndex":4,"items":[{"name":"멕시카나치킨","tel":"031-8003-9295","addr":"경기도 화성시 반송동 128-7번지 102호","indutype":"일반휴게음식 - 서양음식","category":"restaurant"}]},{"lat":"37.200194918","long":"127.07269577","imageIndex":4,"items":[{"name":"멸치국수","tel":"031-8003-7251","addr":"경기도 화성시 반송동 107-4번지 연세프라자 107호","indutype":"일반휴게음식 - 일반한식","category":"restaurant"},{"name":"양양","tel":"031-8015-3090","addr":"경기도 화성시 반송동 107-4번지 연세프라자 1층 101호","indutype":"일반휴게음식 - 일반한식","category":"restaurant"},{"name":"엄선장횟집","tel":"031-8003-1011","addr":"경기도 화성시 반송동 107-4번지 연세프라자 104호","indutype":"일반휴게음식 - 일식·회집","category":"restaurant"},{"name":"전봇대","tel":"","addr":"경기도 화성시 반송동 107-4번지 연세프라자 1층 102호","indutype":"일반휴게음식 - 일반한식","category":"restaurant"},{"name":"전봇대","tel":"","addr":"경기도 화성시 반송동 107-4번지 연세프라자 102호","indutype":"일반휴게음식 - 주점","category":"restaurant"},{"name":"풍천민물장어","tel":"031-8015-0124","addr":"경기도 화성시 반송동 107-4번지 연세프라자 201호,202호","indutype":"일반휴게음식 - 일반한식","category":"restaurant"},{"name":"한우궁","tel":"031-613-2621","addr":"경기도 화성시 반송동 107-4번지 연세프라자 203호","indutype":"일반휴게음식 - 일반한식","category":"restaurant"},{"name":"히카리마구로","tel":"031-245-9297","addr":"경기도 화성시 반송동 107-4번지 연세프라자 105호,106호","indutype":"일반휴게음식 - 일식·회집","category":"restaurant"}]},{"lat":"37.196243946","long":"127.07983309","imageIndex":4,"items":[{"name":"명가칼국수","tel":"031-613-8136","addr":"경기도 화성시 반송동 124-2번지","indutype":"일반휴게음식 - 일반한식","category":"restaurant"}]},{"lat":"37.197750799","long":"127.07650061","imageIndex":4,"items":[{"name":"명동닭한마리","tel":"031-613-7228","addr":"경기도 화성시 반송동 115-6번지 1층","indutype":"일반휴게음식 - 일반한식","category":"restaurant"}]},{"lat":"37.210940567","long":"127.06308492","imageIndex":4,"items":[{"name":"모퉁이 정육식당","tel":"031-111-1111","addr":"경기도 화성시 반송동 4-14번지","indutype":"일반휴게음식 - 일반한식","category":"restaurant"}]},{"lat":"37.202409197","long":"127.06013817","imageIndex":4,"items":[{"name":"목공방 나무동화 라헬의부엌동탄점","tel":"031-8003-8992","addr":"경기도 화성시 반송동 66-1번지 그린주차빌딩 제1층 제104호","indutype":"일반휴게음식 - 일반한식","category":"restaurant"},{"name":"순살매니아","tel":"031-8015-5298","addr":"경기도 화성시 반송동 66-1번지 그린주차빌딩 108호","indutype":"일반휴게음식 - 스넥","category":"restaurant"},{"name":"시골손두부","tel":"031-613-8808","addr":"경기도 화성시 반송동 66-1번지 그린프라자 111호","indutype":"일반휴게음식 - 일반한식","category":"restaurant"},{"name":"엄마손밥상","tel":"031-8015-0648","addr":"경기도 화성시 반송동 66-1번지 그린주차빌딩 1층 112호","indutype":"일반휴게음식 - 일반한식","category":"restaurant"},{"name":"호식이두마리치킨 동탄2호점","tel":"031-8003-3188","addr":"경기도 화성시 반송동 66-1번지 그린주차빌딩 1층 102호","indutype":"일반휴게음식 - 일반한식","category":"restaurant"}]},{"lat":"37.196388953","long":"127.07852669","imageIndex":4,"items":[{"name":"목포뻘낙지","tel":"031-8003-7107","addr":"경기도 화성시 반송동 123-25번지","indutype":"일반휴게음식 - 일반한식","category":"restaurant"}]},{"lat":"37.206583231","long":"127.07278051","imageIndex":4,"items":[{"name":"못난이 꽈배기 북광장점","tel":"031-613-8589","addr":"경기도 화성시 반송동 88-1번지 동탄제일프라자 108호","indutype":"일반휴게음식 - 일반한식","category":"restaurant"},{"name":"봉구스밥버거","tel":"031-613-3261","addr":"경기도 화성시 반송동 88-1번지 동탄제일프라자 111-1호","indutype":"일반휴게음식 - 일반한식","category":"restaurant"},{"name":"한솥도시락","tel":"031-613-3670","addr":"경기도 화성시 반송동 88-1번지 동탄제일프라자 109호","indutype":"일반휴게음식 - 일반한식","category":"restaurant"}]},{"lat":"37.201221722","long":"127.07333877","imageIndex":4,"items":[{"name":"몽로주점","tel":"070-8947-4490","addr":"경기도 화성시 반송동 106-2번지 JO프라자 1층 101호","indutype":"일반휴게음식 - 주점","category":"restaurant"}]},{"lat":"37.201412037","long":"127.07146911","imageIndex":4,"items":[{"name":"무쏘 동탄 남광장점","tel":"031-8015-3392","addr":"경기도 화성시 반송동 103-10번지 원영빌딩 1층 102호","indutype":"일반휴게음식 - 일반한식","category":"restaurant"},{"name":"에머이 동탄점","tel":"031-8003-8861","addr":"경기도 화성시 반송동 103-10번지 원영빌딩 1층 104호","indutype":"일반휴게음식 - 일반한식","category":"restaurant"},{"name":"커피베이","tel":"031-8003-6605","addr":"경기도 화성시 반송동 103-10번지 원영빌딩 101호","indutype":"일반휴게음식 - 서양음식","category":"restaurant"}]},{"lat":"37.19554949","long":"127.08083481","imageIndex":4,"items":[{"name":"무적돈까스포차","tel":"031-8015-2470","addr":"경기도 화성시 반송동 125-10번지 1층","indutype":"일반휴게음식 - 주점","category":"restaurant"}]},{"lat":"37.210163514","long":"127.06719617","imageIndex":4,"items":[{"name":"무한상회","tel":"031-8003-9589","addr":"경기도 화성시 반송동 15-10번지","indutype":"일반휴게음식 - 일반한식","category":"restaurant"}]},{"lat":"37.205302851","long":"127.07430006","imageIndex":4,"items":[{"name":"묵찌빠(Mook JJi bar)","tel":"031-213-4567","addr":"경기도 화성시 반송동 90-7번지 304호","indutype":"일반휴게음식 - 칵테일바","category":"restaurant"},{"name":"민속 백암왕순대","tel":"031-8015-2939","addr":"경기도 화성시 반송동 90-7번지 1층 104호","indutype":"일반휴게음식 - 일반한식","category":"restaurant"}]},{"lat":"37.206942787","long":"127.07422275","imageIndex":4,"items":[{"name":"문어스토리해천동탄점","tel":"031-8003-6655","addr":"경기도 화성시 반송동 86-7번지 1층 107,108호","indutype":"일반휴게음식 - 일반한식","category":"restaurant"},{"name":"북촌손만두","tel":"031-8003-2858","addr":"경기도 화성시 반송동 86-7번지 오피스타워 104호","indutype":"일반휴게음식 - 일반한식","category":"restaurant"},{"name":"양푼이등갈비","tel":"","addr":"경기도 화성시 반송동 86-7번지 오피스타워 1층 112,113호","indutype":"일반휴게음식 - 일반한식","category":"restaurant"},{"name":"친구네수산","tel":"031-8005-7980","addr":"경기도 화성시 반송동 86-7 오피스타워107호~108호","indutype":"일반휴게음식 - 일반한식","category":"restaurant"}]},{"lat":"37.206158598","long":"127.07469514","imageIndex":4,"items":[{"name":"문어의청춘","tel":"031-613-4555","addr":"경기도 화성시 반송동 90-2번지 서해더블루 101,102호","indutype":"일반휴게음식 - 일반한식","category":"restaurant"},{"name":"소쿠리참치","tel":"","addr":"경기도 화성시 반송동 90-2번지 서해더블루 104,105호","indutype":"일반휴게음식 - 일반한식","category":"restaurant"}]},{"lat":"37.209553055","long":"127.06291484","imageIndex":4,"items":[{"name":"미쳐버린파닭","tel":"031-221-8896","addr":"경기도 화성시 반송동 39-10번지 103호","indutype":"일반휴게음식 - 일반한식","category":"restaurant"},{"name":"하루세끼","tel":"031-8015-5225","addr":"경기도 화성시 반송동 39-10번지 1층 일부호","indutype":"일반휴게음식 - 일반한식","category":"restaurant"}]},{"lat":"37.195441698","long":"127.08032786","imageIndex":4,"items":[{"name":"믿음감자탕","tel":"","addr":"경기도 화성시 반송동 127-2번지 1층","indutype":"일반휴게음식 - 일반한식","category":"restaurant"},{"name":"엉클생선조림.구이","tel":"031-8003-6768","addr":"경기도 화성시 반송동 127-2번지","indutype":"일반휴게음식 - 일반한식","category":"restaurant"}]},{"lat":"37.206940421","long":"127.06216928","imageIndex":4,"items":[{"name":"바나나테이블 동탄점","tel":"070-4007-3763","addr":"경기도 화성시 반송동 50-9번지","indutype":"일반휴게음식 - 서양음식","category":"restaurant"}]},{"lat":"37.193472518","long":"127.07378209","imageIndex":4,"items":[{"name":"바르다 김선생 동탄나루","tel":"031-613-1179","addr":"경기도 화성시 반송동 217-4번지 108호,109호","indutype":"일반휴게음식 - 일반한식","category":"restaurant"},{"name":"수내닭꼬치솔빛나루점","tel":"031-613-4320","addr":"경기도 화성시 반송동 217-4번지 엔타워 1층 112호 일부","indutype":"일반휴게음식 - 일반한식","category":"restaurant"},{"name":"씨에프바베큐치킨","tel":"031-8003-9924","addr":"경기도 화성시 반송동 217-4번지 엔타워 111호","indutype":"일반휴게음식 - 스넥","category":"restaurant"},{"name":"옛날통닭 반송점","tel":"","addr":"경기도 화성시 반송동 217-4번지 엔타워 1층 102호","indutype":"일반휴게음식 - 스넥","category":"restaurant"},{"name":"오마뎅 동탄나루점","tel":"031-8003-2755","addr":"경기도 화성시 반송동 217-4번지 엔타워 1층 105호","indutype":"일반휴게음식 - 일반한식","category":"restaurant"}]},{"lat":"37.193112877","long":"127.07247526","imageIndex":4,"items":[{"name":"바삭통통 닭강정","tel":"031-613-5058","addr":"경기도 화성시 반송동 221-2번지 서건프라자 1층 105호","indutype":"일반휴게음식 - 스넥","category":"restaurant"},{"name":"빽다방 동탄솔빛나루점","tel":"031-8003-0402","addr":"경기도 화성시 반송동 221-2번지 서건프라자 109호","indutype":"일반휴게음식 - 서양음식","category":"restaurant"}]},{"lat":"37.208776529","long":"127.06605721","imageIndex":4,"items":[{"name":"바오커피","tel":"031-8015-0904","addr":"경기도 화성시 반송동 24-4번지 1층","indutype":"일반휴게음식 - 서양음식","category":"restaurant"}]},{"lat":"37.209993371","long":"127.06522459","imageIndex":4,"items":[{"name":"박경규항아리보쌈","tel":"031-8003-1013","addr":"경기도 화성시 반송동 11-7번지","indutype":"일반휴게음식 - 일반한식","category":"restaurant"}]},{"lat":"37.198056454","long":"127.077616","imageIndex":4,"items":[{"name":"박장대소불고기","tel":"031-8015-1015","addr":"경기도 화성시 반송동 113-11번지 1층 전부","indutype":"일반휴게음식 - 일반한식","category":"restaurant"}]},{"lat":"37.211048622","long":"127.06322019","imageIndex":4,"items":[{"name":"밥","tel":"031-613-2216","addr":"경기도 화성시 반송동 4-1번지 101호","indutype":"일반휴게음식 - 일반한식","category":"restaurant"}]},{"lat":"37.207499261","long":"127.06177544","imageIndex":4,"items":[{"name":"배달돼지 병점동탄점","tel":"031-613-3379","addr":"경기도 화성시 반송동 49-6번지 1층 일부호","indutype":"일반휴게음식 - 일반한식","category":"restaurant"},{"name":"벤또와","tel":"031-613-4422","addr":"경기도 화성시 반송동 49-6번지 1층 일부호","indutype":"일반휴게음식 - 일식·회집","category":"restaurant"}]},{"lat":"37.20163689","long":"127.07216769","imageIndex":4,"items":[{"name":"배부장찌개 동탄남광장점","tel":"031-613-4802","addr":"경기도 화성시 반송동 103-5번지 거성프라자 1층 106호","indutype":"일반휴게음식 - 일반한식","category":"restaurant"},{"name":"소레나 (SORENA)","tel":"070-7720-2750","addr":"경기도 화성시 반송동 103-5번지 거성프라자","indutype":"일반휴게음식 - 일반한식","category":"restaurant"}]},{"lat":"37.211272209","long":"127.06641979","imageIndex":4,"items":[{"name":"백청우칼국수","tel":"031-613-3999","addr":"경기도 화성시 반송동 7-11번지","indutype":"일반휴게음식 - 일반한식","category":"restaurant"}]},{"lat":"37.209939598","long":"127.06467254","imageIndex":4,"items":[{"name":"뱃살한점","tel":"031-8015-0987","addr":"경기도 화성시 반송동 30-1번지 1층","indutype":"일반휴게음식 - 일반한식","category":"restaurant"}]},{"lat":"37.207049341","long":"127.06055848","imageIndex":4,"items":[{"name":"버거트리","tel":"031-613-1988","addr":"경기도 화성시 반송동 51-2번지 1층","indutype":"일반휴게음식 - 서양음식","category":"restaurant"}]},{"lat":"37.193775383","long":"127.07939133","imageIndex":4,"items":[{"name":"범벅치킨동탄점","tel":"031-8003-4092","addr":"경기도 화성시 반송동 224번지 상가동 지1층 B106호","indutype":"일반휴게음식 - 스넥","category":"restaurant"},{"name":"빨간모자피자동탄점","tel":"031-613-7050","addr":"경기도 화성시 반송동 224번지 상가동 지하 B108호","indutype":"일반휴게음식 - 서양음식","category":"restaurant"},{"name":"살롱 드 므네","tel":"031-613-4302","addr":"경기도 화성시 반송동 224번지 동탄나루마을월드메르디앙반도유보라 B105호","indutype":"일반휴게음식 - 일반한식","category":"restaurant"}]},{"lat":"37.200438798","long":"127.07167098","imageIndex":4,"items":[{"name":"범산목장","tel":"031-613-8882","addr":"경기도 화성시 반송동 104-12번지 동탄프라자 1층 108호","indutype":"일반휴게음식 - 서양음식","category":"restaurant"},{"name":"정성한줄","tel":"031-613-8245","addr":"경기도 화성시 반송동 104-12번지 동탄프라자 102호","indutype":"일반휴게음식 - 스넥","category":"restaurant"},{"name":"할리스커피 동탄점","tel":"031-8003-9039","addr":"경기도 화성시 반송동 104-12번지 동탄프라자 103,104,105,201호","indutype":"일반휴게음식 - 서양음식","category":"restaurant"}]},{"lat":"37.207833056","long":"127.06094209","imageIndex":4,"items":[{"name":"베이비기네스","tel":"070-7644-7773","addr":"경기도 화성시 반송동 44-7번지 1층","indutype":"일반휴게음식 - 일반한식","category":"restaurant"}]},{"lat":"37.209497208","long":"127.06633944","imageIndex":4,"items":[{"name":"베이징양꼬치","tel":"031-613-0198","addr":"경기도 화성시 반송동 17-12번지","indutype":"일반휴게음식 - 일반한식","category":"restaurant"}]},{"lat":"37.207443553","long":"127.06499719","imageIndex":4,"items":[{"name":"벨르롱","tel":"","addr":"경기도 화성시 반송동 42-6번지 센트럴프라자 1층 107호","indutype":"일반휴게음식 - 서양음식","category":"restaurant"},{"name":"북경오리구이","tel":"031-8003-5292","addr":"경기도 화성시 반송동 42-6번지 센트럴프라자 201호~203호","indutype":"일반휴게음식 - 일반한식","category":"restaurant"},{"name":"신진미통닭 동탄점","tel":"031-8015-5545","addr":"경기도 화성시 반송동 42-6번지 1층 101호, 102호","indutype":"일반휴게음식 - 스넥","category":"restaurant"},{"name":"옛날장터치킨","tel":"031-8003-1134","addr":"경기도 화성시 반송동 42-6번지 센트럴프라자 1층 105호","indutype":"일반휴게음식 - 일반한식","category":"restaurant"},{"name":"인생역전","tel":"031-613-9295","addr":"경기도 화성시 반송동 42-6번지 108,109호","indutype":"일반휴게음식 - 일반한식","category":"restaurant"},{"name":"하루와규","tel":"031-613-5202","addr":"경기도 화성시 반송동 42-6번지 2층 204,205호","indutype":"일반휴게음식 - 일반한식","category":"restaurant"}]},{"lat":"37.195972905","long":"127.08094788","imageIndex":4,"items":[{"name":"별법동태탕왕해물찜","tel":"031-8015-0500","addr":"경기도 화성시 반송동 124-12번지","indutype":"일반휴게음식 - 일반한식","category":"restaurant"}]},{"lat":"37.201637485","long":"127.07114265","imageIndex":4,"items":[{"name":"보드게임카페 지니어스","tel":"031-613-4537","addr":"경기도 화성시 반송동 103-1번지 동탄 스카이뷰 빌딩 6층 602호 일부, 603호 일부","indutype":"일반휴게음식 - 일반한식","category":"restaurant"},{"name":"양키캔들 동탄점","tel":"031-613-3551","addr":"경기도 화성시 반송동 103-1번지 동탄스카이뷰빌딩 106호","indutype":"일반휴게음식 - 서양음식","category":"restaurant"}]},{"lat":"37.209272718","long":"127.06488604","imageIndex":4,"items":[{"name":"복이네복칼국수","tel":"031-613-5053","addr":"경기도 화성시 반송동 31-5번지","indutype":"일반휴게음식 - 일반한식","category":"restaurant"}]},{"lat":"37.188716685","long":"127.07095083","imageIndex":4,"items":[{"name":"볼륨커피 동탄하우스점","tel":"070-8614-5908","addr":"경기도 화성시 반송동 163-2번지 1층 102호","indutype":"일반휴게음식 - 서양음식","category":"restaurant"}]},{"lat":"37.210579264","long":"127.06480825","imageIndex":4,"items":[{"name":"봉구네술도둑밥도둑","tel":"031-8003-7450","addr":"경기도 화성시 반송동 6-3번지 101-1호","indutype":"일반휴게음식 - 일반한식","category":"restaurant"},{"name":"호식이두마리치킨","tel":"031-8003-5344","addr":"경기도 화성시 반송동 6-3번지 101호","indutype":"일반휴게음식 - 스넥","category":"restaurant"}]},{"lat":"37.208075519","long":"127.06258698","imageIndex":4,"items":[{"name":"봉추찜닭","tel":"031-8003-5675","addr":"경기도 화성시 반송동 47-2번지 1층","indutype":"일반휴게음식 - 일반한식","category":"restaurant"}]},{"lat":"37.209190856","long":"127.06633919","imageIndex":4,"items":[{"name":"부어치킨","tel":"031-8003-8780","addr":"경기도 화성시 반송동 23-4번지 102호","indutype":"일반휴게음식 - 스넥","category":"restaurant"},{"name":"황소곱창","tel":"031-223-5214","addr":"경기도 화성시 반송동 23-4번지 1층 일부호","indutype":"일반휴게음식 - 일반한식","category":"restaurant"}]},{"lat":"37.207857591","long":"127.06583114","imageIndex":4,"items":[{"name":"불위에서노는닭 동탄점","tel":"070-4768-4780","addr":"경기도 화성시 반송동 26-7번지 1층 103호","indutype":"일반휴게음식 - 일반한식","category":"restaurant"}]},{"lat":"37.198165521","long":"127.07610678","imageIndex":4,"items":[{"name":"블랙웨이브","tel":"031-8015-3881","addr":"경기도 화성시 반송동 116-4번지 1층","indutype":"일반휴게음식 - 서양음식","category":"restaurant"}]},{"lat":"37.207444793","long":"127.06258648","imageIndex":4,"items":[{"name":"비와별 닭갈비 동탄직영점","tel":"031-8015-0822","addr":"경기도 화성시 반송동 48-5번지 1층","indutype":"일반휴게음식 - 일반한식","category":"restaurant"}]},{"lat":"37.206472284","long":"127.06135785","imageIndex":4,"items":[{"name":"빈스톡","tel":"031-613-5424","addr":"경기도 화성시 반송동 52-13번지","indutype":"일반휴게음식 - 스넥","category":"restaurant"}]},{"lat":"37.198471923","long":"127.07602823","imageIndex":4,"items":[{"name":"빨강게장","tel":"070-4223-7878","addr":"경기도 화성시 반송동 116-1번지","indutype":"일반휴게음식 - 일반한식","category":"restaurant"}]},{"lat":"37.20655321","long":"127.06169586","imageIndex":4,"items":[{"name":"빨강머리앤","tel":"031-8050-3000","addr":"경기도 화성시 반송동 52-8번지 1층","indutype":"일반휴게음식 - 서양음식","category":"restaurant"}]},{"lat":"37.208661571","long":"127.06183267","imageIndex":4,"items":[{"name":"빽다방동탄은행사거리점","tel":"031-613-8293","addr":"경기도 화성시 반송동 43-2번지 105호","indutype":"일반휴게음식 - 서양음식","category":"restaurant"}]},{"lat":"37.209163436","long":"127.06706014","imageIndex":4,"items":[{"name":"뽕뜨락피자 동탄점","tel":"031-8003-5739","addr":"경기도 화성시 반송동 18-6번지 1층 103호","indutype":"일반휴게음식 - 서양음식","category":"restaurant"}]},{"lat":"37.206327923","long":"127.061752","imageIndex":4,"items":[{"name":"뽕짝","tel":"031-3163-0242","addr":"경기도 화성시 반송동 52-10번지 101호","indutype":"일반휴게음식 - 중국식","category":"restaurant"}]},{"lat":"37.208769858","long":"127.06150607","imageIndex":4,"items":[{"name":"사골식당","tel":"031-613-6669","addr":"경기도 화성시 반송동 43-1번지 토마토프라자 110호","indutype":"일반휴게음식 - 일반한식","category":"restaurant"},{"name":"얌샘김밥동탄능동점","tel":"031-8003-3373","addr":"경기도 화성시 반송동 43-1번지 토마토프라자 1층 103호","indutype":"일반휴게음식 - 스넥","category":"restaurant"},{"name":"총각네옛날통닭","tel":"","addr":"경기도 화성시 반송동 43-1번지 토마토프라자 106호","indutype":"일반휴게음식 - 스넥","category":"restaurant"}]},{"lat":"37.196632884","long":"127.07750196","imageIndex":4,"items":[{"name":"사이렌커피브루어리(siren coffee brewery)","tel":"031-0000-0000","addr":"경기도 화성시 반송동 130-1번지 1층 일부호","indutype":"일반휴게음식 - 서양음식","category":"restaurant"}]},{"lat":"37.207913219","long":"127.06281215","imageIndex":4,"items":[{"name":"사주카페","tel":"031-8015-3827","addr":"경기도 화성시 반송동 48-1번지 1층 일부","indutype":"일반휴게음식 - 스넥","category":"restaurant"}]},{"lat":"37.209939249","long":"127.0653372","imageIndex":4,"items":[{"name":"산골가마솥","tel":"031-613-3088","addr":"경기도 화성시 반송동 11-6번지 1층 전체","indutype":"일반휴게음식 - 일반한식","category":"restaurant"}]},{"lat":"37.196000971","long":"127.07935979","imageIndex":4,"items":[{"name":"삼정장어","tel":"031-254-8652","addr":"경기도 화성시 반송동 123-19번지 1층 전부호","indutype":"일반휴게음식 - 일반한식","category":"restaurant"}]},{"lat":"37.211020069","long":"127.06613794","imageIndex":4,"items":[{"name":"삼포로가는길","tel":"031-373-0500","addr":"경기도 화성시 반송동 9-1번지 1층 전체","indutype":"일반휴게음식 - 일반한식","category":"restaurant"}]},{"lat":"37.20207604","long":"127.05966483","imageIndex":4,"items":[{"name":"상개분식","tel":"","addr":"경기도 화성시 반송동 61-8번지 지송프라자 1층 103호","indutype":"일반휴게음식 - 일반한식","category":"restaurant"}]},{"lat":"37.197605849","long":"127.07775072","imageIndex":4,"items":[{"name":"샤브이야기","tel":"031-8015-5988","addr":"경기도 화성시 반송동 113-7번지 1층","indutype":"일반휴게음식 - 일반한식","category":"restaurant"}]},{"lat":"37.208885384","long":"127.06467168","imageIndex":4,"items":[{"name":"서울깍두기","tel":"031-8015-2525","addr":"경기도 화성시 반송동 32-5번지 1층","indutype":"일반휴게음식 - 일반한식","category":"restaurant"}]},{"lat":"37.208605655","long":"127.06544875","imageIndex":4,"items":[{"name":"서정식불쭈꾸보쌈","tel":"031-8003-6629","addr":"경기도 화성시 반송동 25-1번지 1층","indutype":"일반휴게음식 - 일반한식","category":"restaurant"}]},{"lat":"37.188779099","long":"127.07208837","imageIndex":4,"items":[{"name":"서현실비","tel":"031-613-2789","addr":"경기도 화성시 반송동 190-2번지 1층 109-112호","indutype":"일반휴게음식 - 일반한식","category":"restaurant"},{"name":"야들리애치킨","tel":"031-000-0000","addr":"경기도 화성시 반송동 190-2번지 102,103호","indutype":"일반휴게음식 - 스넥","category":"restaurant"},{"name":"투썸플레이스 동탄타운 하우스점","tel":"031-8003-2780","addr":"경기도 화성시 반송동 190-2번지 105,106","indutype":"일반휴게음식 - 서양음식","category":"restaurant"}]},{"lat":"37.210552694","long":"127.06391825","imageIndex":4,"items":[{"name":"석기시대","tel":"070-8185-5569","addr":"경기도 화성시 반송동 4-8번지 1층","indutype":"일반휴게음식 - 일반한식","category":"restaurant"}]},{"lat":"37.209055851","long":"127.06605744","imageIndex":4,"items":[{"name":"석기정부대찌개","tel":"031-613-7881","addr":"경기도 화성시 반송동 23-11번지 1층","indutype":"일반휴게음식 - 일반한식","category":"restaurant"}]},{"lat":"37.207075801","long":"127.06171879","imageIndex":4,"items":[{"name":"선 식당","tel":"","addr":"경기도 화성시 반송동 50-6번지 101호","indutype":"일반휴게음식 - 일식·회집","category":"restaurant"}]},{"lat":"37.194751717","long":"127.07424507","imageIndex":4,"items":[{"name":"선비꼬마김밥 동탄1호점","tel":"031-613-1080","addr":"경기도 화성시 반송동 219-1번지 성우프라자 107호","indutype":"일반휴게음식 - 일반한식","category":"restaurant"},{"name":"피자마루","tel":"031-8003-1082","addr":"경기도 화성시 반송동 219-1번지 성우프라자 106호","indutype":"일반휴게음식 - 서양음식","category":"restaurant"}]},{"lat":"37.209325818","long":"127.06669979","imageIndex":4,"items":[{"name":"섬","tel":"031-613-1632","addr":"경기도 화성시 반송동 17-9번지 1층","indutype":"일반휴게음식 - 일반한식","category":"restaurant"}]},{"lat":"37.210687347","long":"127.06488719","imageIndex":4,"items":[{"name":"세상만족","tel":"031-8003-5535","addr":"경기도 화성시 반송동 6-2번지 1층 일부호","indutype":"일반휴게음식 - 일반한식","category":"restaurant"}]},{"lat":"37.207715313","long":"127.06216989","imageIndex":4,"items":[{"name":"센트레","tel":"031-613-1853","addr":"경기도 화성시 반송동 47-9번지 101호","indutype":"일반휴게음식 - 일반한식","category":"restaurant"}]},{"lat":"37.197832324","long":"127.07580234","imageIndex":4,"items":[{"name":"소나무뜨락","tel":"031-8003-8837","addr":"경기도 화성시 반송동 116-9번지","indutype":"일반휴게음식 - 일반한식","category":"restaurant"}]},{"lat":"37.208497387","long":"127.06571902","imageIndex":4,"items":[{"name":"소문난거북성","tel":"031-372-8346","addr":"경기도 화성시 반송동 25-3번지","indutype":"일반휴게음식 - 일반한식","category":"restaurant"}]},{"lat":"37.210443627","long":"127.06572064","imageIndex":4,"items":[{"name":"소문난장충동왕족발보쌈","tel":"031-8015-2330","addr":"경기도 화성시 반송동 10-5번지 1층 일부","indutype":"일반휴게음식 - 일반한식","category":"restaurant"},{"name":"순수치킨 동탄1호점","tel":"","addr":"경기도 화성시 반송동 10-5번지 1층 103,104호","indutype":"일반휴게음식 - 스넥","category":"restaurant"}]},{"lat":"37.196747854","long":"127.06569802","imageIndex":4,"items":[{"name":"솔라자르","tel":"031-1111-1111","addr":"경기도 화성시 반송동 142-5번지 1층 101호","indutype":"일반휴게음식 - 서양음식","category":"restaurant"}]},{"lat":"37.197273472","long":"127.07613971","imageIndex":4,"items":[{"name":"송담추어탕 동탄점","tel":"031-8015-2400","addr":"경기도 화성시 반송동 118-3번지","indutype":"일반휴게음식 - 일반한식","category":"restaurant"}]},{"lat":"37.198056355","long":"127.07777369","imageIndex":4,"items":[{"name":"수엠부동탄점","tel":"031-8015-2494","addr":"경기도 화성시 반송동 113-4번지","indutype":"일반휴게음식 - 서양음식","category":"restaurant"}]},{"lat":"37.211192361","long":"127.06405396","imageIndex":4,"items":[{"name":"수옥감자탕고목정한식","tel":"031-221-2064","addr":"경기도 화성시 반송동 3-5번지","indutype":"일반휴게음식 - 일반한식","category":"restaurant"}]},{"lat":"37.210246625","long":"127.063366","imageIndex":4,"items":[{"name":"수원본갈비","tel":"031-8015-0985","addr":"경기도 화성시 반송동 36-12번지","indutype":"일반휴게음식 - 일반한식","category":"restaurant"}]},{"lat":"37.209388969","long":"127.06655339","imageIndex":4,"items":[{"name":"수원신닭발","tel":"031-8003-4445","addr":"경기도 화성시 반송동 17-10번지 1층","indutype":"일반휴게음식 - 일반한식","category":"restaurant"}]},{"lat":"37.203915745","long":"127.07347645","imageIndex":4,"items":[{"name":"수저로떠먹는황금초밥","tel":"031-613-5545","addr":"경기도 화성시 반송동 92-2번지 마젤란오피스텔 117,119,120,121,122호","indutype":"일반휴게음식 - 일식·회집","category":"restaurant"}]},{"lat":"37.201637133","long":"127.07175091","imageIndex":4,"items":[{"name":"수타우동 노도고시","tel":"031-613-8881","addr":"경기도 화성시 반송동 103-3번지 디앤씨빌딩 1층 105호","indutype":"일반휴게음식 - 일식·회집","category":"restaurant"},{"name":"아타미","tel":"031-8015-3420","addr":"경기도 화성시 반송동 103-3번지 디앤씨빌딩 106호 107호","indutype":"일반휴게음식 - 일반한식","category":"restaurant"},{"name":"트윈스키친(Twins Kitchen)","tel":"031-8003-4685","addr":"경기도 화성시 반송동 103-3번지 디앤씨빌딩 102호","indutype":"일반휴게음식 - 일반한식","category":"restaurant"}]},{"lat":"37.198192857","long":"127.07561121","imageIndex":4,"items":[{"name":"숯겹살집 동탄점","tel":"031-613-1120","addr":"경기도 화성시 반송동 117-4번지 1층","indutype":"일반휴게음식 - 일반한식","category":"restaurant"}]},{"lat":"37.198417756","long":"127.07619714","imageIndex":4,"items":[{"name":"쉐진","tel":"031-613-9079","addr":"경기도 화성시 반송동 116-2번지 1층","indutype":"일반휴게음식 - 서양음식","category":"restaurant"}]},{"lat":"37.194026361","long":"127.06636029","imageIndex":4,"items":[{"name":"쉐프삼촌(동탄점)","tel":"000-000-0000","addr":"경기도 화성시 반송동 147-3번지 1층","indutype":"일반휴게음식 - 일반한식","category":"restaurant"}]},{"lat":"37.197192309","long":"127.07625227","imageIndex":4,"items":[{"name":"쉼표치킨","tel":"031-613-3090","addr":"경기도 화성시 반송동 118-4번지 1층","indutype":"일반휴게음식 - 스넥","category":"restaurant"}]},{"lat":"37.20783242","long":"127.06222631","imageIndex":4,"items":[{"name":"스시퐁","tel":"031-613-9157","addr":"경기도 화성시 반송동 47-10번지 1층 일부호","indutype":"일반휴게음식 - 일식·회집","category":"restaurant"},{"name":"우와한상","tel":"031-613-0628","addr":"경기도 화성시 반송동 47-10번지 101호","indutype":"일반휴게음식 - 일반한식","category":"restaurant"}]},{"lat":"37.206968275","long":"127.06050209","imageIndex":4,"items":[{"name":"스위트핑거","tel":"031-613-9439","addr":"경기도 화성시 반송동 51-3번지 1층","indutype":"일반휴게음식 - 일반한식","category":"restaurant"}]},{"lat":"37.208524136","long":"127.06624851","imageIndex":4,"items":[{"name":"스위트하트케이크샵","tel":"","addr":"경기도 화성시 반송동 24-7번지 1층","indutype":"일반휴게음식 - 서양음식","category":"restaurant"}]},{"lat":"37.206832588","long":"127.06158342","imageIndex":4,"items":[{"name":"스쿨푸드 동탄점","tel":"031-8003-7586","addr":"경기도 화성시 반송동 50-15번지 1층","indutype":"일반휴게음식 - 스넥","category":"restaurant"}]},{"lat":"37.20774222","long":"127.06241774","imageIndex":4,"items":[{"name":"스피릴츠 커피로스터스","tel":"070-4143-7100","addr":"경기도 화성시 반송동 47-5번지 1층 일부호","indutype":"일반휴게음식 - 서양음식","category":"restaurant"}]},{"lat":"37.202715282","long":"127.06069036","imageIndex":4,"items":[{"name":"시에떼커피공부방","tel":"070-0000-0000","addr":"경기도 화성시 반송동 65-7번지 1층 일부호","indutype":"일반휴게음식 - 일반한식","category":"restaurant"}]},{"lat":"37.208741725","long":"127.06369149","imageIndex":4,"items":[{"name":"신가네곱창전","tel":"031-613-9245","addr":"경기도 화성시 반송동 34-11번지","indutype":"일반휴게음식 - 일반한식","category":"restaurant"},{"name":"이찌고","tel":"031-613-0419","addr":"경기도 화성시 반송동 34-11번지 101호,102호","indutype":"일반휴게음식 - 서양음식","category":"restaurant"}]},{"lat":"37.209605471","long":"127.06608043","imageIndex":4,"items":[{"name":"신마포갈매기","tel":"070-4234-6092","addr":"경기도 화성시 반송동 17-14번지 (101,102,103호)","indutype":"일반휴게음식 - 일반한식","category":"restaurant"},{"name":"오산조은참치(동탄점)","tel":"031-8003-7779","addr":"경기도 화성시 반송동 17-14번지 1층","indutype":"일반휴게음식 - 일식·회집","category":"restaurant"}]},{"lat":"37.206409139","long":"127.06150424","imageIndex":4,"items":[{"name":"신복관","tel":"031-613-6674","addr":"경기도 화성시 반송동 52-12번지 1층 전부호","indutype":"일반휴게음식 - 일반한식","category":"restaurant"}]},{"lat":"37.195496244","long":"127.07958454","imageIndex":4,"items":[{"name":"신선한에프앤디(F&D)","tel":"070-7758-3344","addr":"경기도 화성시 반송동 128-16번지 1층 101호","indutype":"일반휴게음식 - 일반한식","category":"restaurant"}]},{"lat":"37.208526208","long":"127.06224938","imageIndex":4,"items":[{"name":"써브웨이 동탄센트럴파크점","tel":"","addr":"경기도 화성시 반송동 43-4번지 청윤 1동 101,102호","indutype":"일반휴게음식 - 서양음식","category":"restaurant"}]},{"lat":"37.197579222","long":"127.07710867","imageIndex":4,"items":[{"name":"아그집쭈꾸미(동탄점)","tel":"031-8003-8500","addr":"경기도 화성시 반송동 120-1번지","indutype":"일반휴게음식 - 일반한식","category":"restaurant"}]},{"lat":"37.207940892","long":"127.06152796","imageIndex":4,"items":[{"name":"아기숟가락 (동탄점)","tel":"031-8003-2610","addr":"경기도 화성시 반송동 45-6번지 103호","indutype":"일반휴게음식 - 일반한식","category":"restaurant"}]},{"lat":"37.192779233","long":"127.0729142","imageIndex":4,"items":[{"name":"아마스빈 동탄나루마을점","tel":"031-8003-6880","addr":"경기도 화성시 반송동 216-1번지 신성프라자 106호","indutype":"일반휴게음식 - 서양음식","category":"restaurant"}]},{"lat":"37.19641579","long":"127.07883083","imageIndex":4,"items":[{"name":"아이야(AIYA)","tel":"070-8968-8860","addr":"경기도 화성시 반송동 123-2번지 1층","indutype":"일반휴게음식 - 서양음식","category":"restaurant"},{"name":"플레이어스","tel":"070-8968-8860","addr":"경기도 화성시 반송동 123-2번지 1층","indutype":"일반휴게음식 - 서양음식","category":"restaurant"}]},{"lat":"37.207382249","long":"127.06152752","imageIndex":4,"items":[{"name":"아이킨예(I KIN YE)","tel":"031-376-5678","addr":"경기도 화성시 반송동 49-14번지 101호","indutype":"일반휴게음식 - 서양음식","category":"restaurant"}]},{"lat":"37.193221101","long":"127.07230642","imageIndex":4,"items":[{"name":"아저씨네곱창","tel":"031-8003-9242","addr":"경기도 화성시 반송동 221-1번지 1층 일부","indutype":"일반휴게음식 - 일반한식","category":"restaurant"},{"name":"어바웃샤브치킨","tel":"031-8003-4220","addr":"경기도 화성시 반송동 221-1번지 2층","indutype":"일반휴게음식 - 일반한식","category":"restaurant"}]},{"lat":"37.20752637","long":"127.06161776","imageIndex":4,"items":[{"name":"안개꽃 151","tel":"070-4789-2381","addr":"경기도 화성시 반송동 49-5번지","indutype":"일반휴게음식 - 일반한식","category":"restaurant"}]},{"lat":"37.208912649","long":"127.06422109","imageIndex":4,"items":[{"name":"양육점","tel":"031-8043-5377","addr":"경기도 화성시 반송동 32-9번지 1층","indutype":"일반휴게음식 - 일반한식","category":"restaurant"}]},{"lat":"37.206526876","long":"127.06027646","imageIndex":4,"items":[{"name":"양천하","tel":"070-8734-9326","addr":"경기도 화성시 반송동 51-7 102호~103호","indutype":"일반휴게음식 - 일반한식","category":"restaurant"}]},{"lat":"37.198804493","long":"127.07733514","imageIndex":4,"items":[{"name":"어컴커피앤티컴퍼니","tel":"070-3240-6380","addr":"경기도 화성시 반송동 111-3번지 101호","indutype":"일반휴게음식 - 서양음식","category":"restaurant"}]},{"lat":"37.209605218","long":"127.06655358","imageIndex":4,"items":[{"name":"에서","tel":"031-613-4736","addr":"경기도 화성시 반송동 17-4번지","indutype":"일반휴게음식 - 서양음식","category":"restaurant"}]},{"lat":"37.195884673","long":"127.07805313","imageIndex":4,"items":[{"name":"엔젤스가든","tel":"031-613-1731","addr":"경기도 화성시 반송동 131-6번지","indutype":"일반휴게음식 - 일반한식","category":"restaurant"}]},{"lat":"37.203138427","long":"127.06138907","imageIndex":4,"items":[{"name":"여기","tel":"","addr":"경기도 화성시 반송동 63-4번지 1층","indutype":"일반휴게음식 - 서양음식","category":"restaurant"}]},{"lat":"37.205131701","long":"127.07422105","imageIndex":4,"items":[{"name":"역대짬뽕 동탄점","tel":"031-8003-7433","addr":"경기도 화성시 반송동 90-8번지 삼성프라자 1층 101호 ,103,105호","indutype":"일반휴게음식 - 중국식","category":"restaurant"}]},{"lat":"37.209444104","long":"127.06452569","imageIndex":4,"items":[{"name":"연저보쌈풍납동냉면","tel":"050-8512-4600","addr":"경기도 화성시 반송동 31-2번지 1층","indutype":"일반휴게음식 - 일반한식","category":"restaurant"}]},{"lat":"37.208218256","long":"127.06535831","imageIndex":4,"items":[{"name":"연카페","tel":"070-7743-0148","addr":"경기도 화성시 반송동 26-2번지","indutype":"일반휴게음식 - 서양음식","category":"restaurant"}]},{"lat":"37.208417003","long":"127.06436714","imageIndex":4,"items":[{"name":"연평도생해물탕.찜","tel":"031-613-8122","addr":"경기도 화성시 반송동 33-5번지","indutype":"일반휴게음식 - 일반한식","category":"restaurant"}]},{"lat":"37.209777211","long":"127.06505543","imageIndex":4,"items":[{"name":"열무밭애","tel":"02-613-2785","addr":"경기도 화성시 반송동 30-4번지","indutype":"일반휴게음식 - 일반한식","category":"restaurant"}]},{"lat":"37.21005507","long":"127.06778188","imageIndex":4,"items":[{"name":"영구스피자","tel":"031-613-0945","addr":"경기도 화성시 반송동 14-5번지 1층 일부호","indutype":"일반휴게음식 - 서양음식","category":"restaurant"},{"name":"옛날통닭","tel":"031-613-7132","addr":"경기도 화성시 반송동 14-5번지 101호","indutype":"일반휴게음식 - 스넥","category":"restaurant"},{"name":"케이크 인 러브","tel":"031-8043-7418","addr":"경기도 화성시 반송동 14-5번지 1층 일부호","indutype":"일반휴게음식 - 서양음식","category":"restaurant"}]},{"lat":"37.208804396","long":"127.06446884","imageIndex":4,"items":[{"name":"영번지 굴따러가세","tel":"031-8003-8628","addr":"경기도 화성시 반송동 32-7번지 1층 상가","indutype":"일반휴게음식 - 일식·회집","category":"restaurant"}]},{"lat":"37.198362708","long":"127.07777399","imageIndex":4,"items":[{"name":"영스키친","tel":"031-8003-6513","addr":"경기도 화성시 반송동 113-2번지","indutype":"일반휴게음식 - 서양음식","category":"restaurant"}]},{"lat":"37.207102899","long":"127.06158363","imageIndex":4,"items":[{"name":"오 이탈리안","tel":"","addr":"경기도 화성시 반송동 50-5번지","indutype":"일반휴게음식 - 서양음식","category":"restaurant"}]},{"lat":"37.195666899","long":"127.08041819","imageIndex":4,"items":[{"name":"오봉족발 동탄반송점","tel":"031-613-8820","addr":"경기도 화성시 반송동 125-13번지 1층","indutype":"일반휴게음식 - 일반한식","category":"restaurant"}]},{"lat":"37.211435583","long":"127.06416681","imageIndex":4,"items":[{"name":"올댄뉴","tel":"031-8043-1865","addr":"경기도 화성시 반송동 2-4번지 1층","indutype":"일반휴게음식 - 일반한식","category":"restaurant"}]},{"lat":"37.210442535","long":"127.06774842","imageIndex":4,"items":[{"name":"와바동탄점","tel":"031-8003-1134","addr":"경기도 화성시 반송동 13-8번지 시티플러스 302호","indutype":"일반휴게음식 - 주점","category":"restaurant"}]},{"lat":"37.201688594","long":"127.05966454","imageIndex":4,"items":[{"name":"요거프레소 반송점","tel":"031-8003-1093","addr":"경기도 화성시 반송동 61-11번지 덕천메디칼프라자 104호 105호","indutype":"일반휴게음식 - 서양음식","category":"restaurant"}]},{"lat":"37.208830842","long":"127.06558412","imageIndex":4,"items":[{"name":"용가마순대","tel":"031-613-9398","addr":"경기도 화성시 반송동 24-12번지","indutype":"일반휴게음식 - 일반한식","category":"restaurant"}]},{"lat":"37.197913605","long":"127.07549831","imageIndex":4,"items":[{"name":"우리동네곰다방","tel":"031-613-2778","addr":"경기도 화성시 반송동 117-6번지 1층","indutype":"일반휴게음식 - 서양음식","category":"restaurant"}]},{"lat":"37.209136721","long":"127.06647433","imageIndex":4,"items":[{"name":"우리동네치킨","tel":"031-8003-0792","addr":"경기도 화성시 반송동 23-5번지 101호","indutype":"일반휴게음식 - 스넥","category":"restaurant"},{"name":"치킨플러스 동탄반송점","tel":"031-8015-5006","addr":"경기도 화성시 반송동 23-5번지","indutype":"일반휴게음식 - 일반한식","category":"restaurant"}]},{"lat":"37.203274074","long":"127.06038664","imageIndex":4,"items":[{"name":"우리집냉장고","tel":"","addr":"경기도 화성시 반송동 62-4번지 1층","indutype":"일반휴게음식 - 일반한식","category":"restaurant"}]},{"lat":"37.196216827","long":"127.07996822","imageIndex":4,"items":[{"name":"운암명가부대찌개","tel":"031-613-3777","addr":"경기도 화성시 반송동 124-3번지 1층 101호","indutype":"일반휴게음식 - 일반한식","category":"restaurant"}]},{"lat":"37.208380294","long":"127.06564007","imageIndex":4,"items":[{"name":"울진막회","tel":"031-8015-5759","addr":"경기도 화성시 반송동 25-10번지","indutype":"일반휴게음식 - 일반한식","category":"restaurant"}]},{"lat":"37.195775784","long":"127.07924693","imageIndex":4,"items":[{"name":"원조동탄숯불불고기","tel":"031-8379-0076","addr":"경기도 화성시 반송동 128-8번지 102,103호","indutype":"일반휴게음식 - 일반한식","category":"restaurant"}]},{"lat":"37.197057048","long":"127.07642109","imageIndex":4,"items":[{"name":"원조포항물회","tel":"031-613-3288","addr":"경기도 화성시 반송동 118-6번지 1층","indutype":"일반휴게음식 - 일식·회집","category":"restaurant"}]},{"lat":"37.207219601","long":"127.06245112","imageIndex":4,"items":[{"name":"월천삼계탕","tel":"031-613-0715","addr":"경기도 화성시 반송동 48-7번지 1층","indutype":"일반휴게음식 - 일반한식","category":"restaurant"}]},{"lat":"37.195910707","long":"127.07960749","imageIndex":4,"items":[{"name":"유(  )김치전골","tel":"031-8003-6818","addr":"경기도 화성시 반송동 123-17번지 1층 상가","indutype":"일반휴게음식 - 일반한식","category":"restaurant"}]},{"lat":"37.208274192","long":"127.06169719","imageIndex":4,"items":[{"name":"유니커피(YUNI COFFEE)","tel":"031-613-3192","addr":"경기도 화성시 반송동 45-3번지 101호","indutype":"일반휴게음식 - 서양음식","category":"restaurant"}]},{"lat":"37.209937997","long":"127.06766913","imageIndex":4,"items":[{"name":"유로코피자 동탄점","tel":"","addr":"경기도 화성시 반송동 14-6번지 1층 104호","indutype":"일반휴게음식 - 서양음식","category":"restaurant"}]},{"lat":"37.203247244","long":"127.05996984","imageIndex":4,"items":[{"name":"유얼커피","tel":"050-5306-1472","addr":"경기도 화성시 반송동 62-1번지 102호","indutype":"일반휴게음식 - 서양음식","category":"restaurant"}]},{"lat":"37.208776721","long":"127.06569673","imageIndex":4,"items":[{"name":"유진참치","tel":"031-8003-0494","addr":"경기도 화성시 반송동 24-11번지 1층","indutype":"일반휴게음식 - 일반한식","category":"restaurant"}]},{"lat":"37.209137016","long":"127.06592233","imageIndex":4,"items":[{"name":"유쾌한 회세꼬시","tel":"","addr":"경기도 화성시 반송동 23-12번지 1층","indutype":"일반휴게음식 - 일반한식","category":"restaurant"}]},{"lat":"37.196911836","long":"127.07808794","imageIndex":4,"items":[{"name":"유한회사동탄장진우식당","tel":"031-000-0000","addr":"경기도 화성시 반송동 122-3번지 1층","indutype":"일반휴게음식 - 일반한식","category":"restaurant"}]},{"lat":"37.210966827","long":"127.06458325","imageIndex":4,"items":[{"name":"육대장동탄점","tel":"031-8003-6649","addr":"경기도 화성시 반송동 5-1번지","indutype":"일반휴게음식 - 일반한식","category":"restaurant"}]},{"lat":"37.206663634","long":"127.07394087","imageIndex":4,"items":[{"name":"육회공작소","tel":"031-8003-9698","addr":"경기도 화성시 반송동 87-3번지 로드프라자 106,107호","indutype":"일반휴게음식 - 일반한식","category":"restaurant"},{"name":"족가3","tel":"031-8003-7387","addr":"경기도 화성시 반송동 87-3번지 로드프라자 104호~105호","indutype":"일반휴게음식 - 일반한식","category":"restaurant"},{"name":"참치왕양승호/주식회사참치왕김기정","tel":"031-613-1885","addr":"경기도 화성시 반송동 87-3번지 로드프라자 202,203호","indutype":"일반휴게음식 - 일식·회집","category":"restaurant"},{"name":"채돈이북광장점/주식회사채돈이패밀리","tel":"031-000-0000","addr":"경기도 화성시 반송동 87-3번지 로드프라자 1층 101호~103호","indutype":"일반휴게음식 - 일반한식","category":"restaurant"}]},{"lat":"37.199136566","long":"127.06386401","imageIndex":4,"items":[{"name":"윤가네토종순대국","tel":"031-8015-5679","addr":"경기도 화성시 반송동 77-3번지","indutype":"일반휴게음식 - 일반한식","category":"restaurant"}]},{"lat":"37.209579719","long":"127.06363584","imageIndex":4,"items":[{"name":"응급실 국물 떡볶이(동탄반송점)","tel":"031-8003-9110","addr":"경기도 화성시 반송동 35-5번지 1층 일부호","indutype":"일반휴게음식 - 스넥","category":"restaurant"}]},{"lat":"37.205637486","long":"127.07219387","imageIndex":4,"items":[{"name":"이삭토스트 동탄북광장점","tel":"031-613-7769","addr":"경기도 화성시 반송동 91-1번지 아인슈타인타워 102호","indutype":"일반휴게음식 - 서양음식","category":"restaurant"}]},{"lat":"37.209244996","long":"127.06619279","imageIndex":4,"items":[{"name":"이서방왕족발보쌈","tel":"031-613-8885","addr":"경기도 화성시 반송동 23-3번지","indutype":"일반휴게음식 - 일반한식","category":"restaurant"}]},{"lat":"37.207328103","long":"127.06169646","imageIndex":4,"items":[{"name":"인생돈가스","tel":"070-9573-8624","addr":"경기도 화성시 반송동 49-13번지 1층","indutype":"일반휴게음식 - 서양음식","category":"restaurant"}]},{"lat":"37.196749741","long":"127.07794135","imageIndex":4,"items":[{"name":"일송쌈밥","tel":"031-376-7310","addr":"경기도 화성시 반송동 122-10번지 1층","indutype":"일반휴게음식 - 일반한식","category":"restaurant"}]},{"lat":"37.208082598","long":"127.06630447","imageIndex":4,"items":[{"name":"임실N치즈피자 동탄점","tel":"031-613-5777","addr":"경기도 화성시 반송동 22-7번지 103호","indutype":"일반휴게음식 - 서양음식","category":"restaurant"}]},{"lat":"37.210444442","long":"127.06416601","imageIndex":4,"items":[{"name":"자작나무2호점","tel":"031-8003-8339","addr":"경기도 화성시 반송동 5-6번지 1층","indutype":"일반휴게음식 - 일반한식","category":"restaurant"}]},{"lat":"37.197444787","long":"127.0759484","imageIndex":4,"items":[{"name":"장수촌","tel":"031-613-7895","addr":"경기도 화성시 반송동 118-1번지 101호","indutype":"일반휴게음식 - 일반한식","category":"restaurant"}]},{"lat":"37.209524932","long":"127.06503269","imageIndex":4,"items":[{"name":"장인족발608","tel":"031-8015-5257","addr":"경기도 화성시 반송동 30-7번지 1층 전체","indutype":"일반휴게음식 - 일반한식","category":"restaurant"}]},{"lat":"37.198721657","long":"127.06469719","imageIndex":4,"items":[{"name":"전주콩나물국밥시루향기","tel":"031-8003-0331","addr":"경기도 화성시 반송동 77-6번지 1층","indutype":"일반휴게음식 - 일반한식","category":"restaurant"}]},{"lat":"37.208965968","long":"127.06564056","imageIndex":4,"items":[{"name":"전통춘천닭갈비","tel":"031-613-5883","addr":"경기도 화성시 반송동 24-1번지 1층","indutype":"일반휴게음식 - 일반한식","category":"restaurant"}]},{"lat":"37.211138892","long":"127.06289356","imageIndex":4,"items":[{"name":"정성푸드","tel":"031-8015-2014","addr":"경기도 화성시 반송동 1-8번지 1층","indutype":"일반휴게음식 - 일반한식","category":"restaurant"}]},{"lat":"37.19630747","long":"127.07913483","imageIndex":4,"items":[{"name":"제이제이로스터스(JJ ROASTERS)마이캠프","tel":"","addr":"경기도 화성시 반송동 123-5번지 1층 101호","indutype":"일반휴게음식 - 서양음식","category":"restaurant"}]},{"lat":"37.210381124","long":"127.0646391","imageIndex":4,"items":[{"name":"제주흑다돈","tel":"031-613-0367","addr":"경기도 화성시 반송동 6-5번지 102,103호","indutype":"일반휴게음식 - 일반한식","category":"restaurant"}]},{"lat":"37.210660138","long":"127.06522514","imageIndex":4,"items":[{"name":"주문진","tel":"031-613-1218","addr":"경기도 화성시 반송동 10-1번지 1층","indutype":"일반휴게음식 - 일반한식","category":"restaurant"}]},{"lat":"37.201714703","long":"127.06155693","imageIndex":4,"items":[{"name":"주블리","tel":"","addr":"경기도 화성시 반송동 71-5번지 1층 102호","indutype":"일반휴게음식 - 일반한식","category":"restaurant"}]},{"lat":"37.196497028","long":"127.07860564","imageIndex":4,"items":[{"name":"주식회사 두드","tel":"031-238-6002","addr":"경기도 화성시 반송동 123-1번지 1층","indutype":"일반휴게음식 - 서양음식","category":"restaurant"}]},{"lat":"37.208551521","long":"127.06558389","imageIndex":4,"items":[{"name":"지브레드카페(G BREAD CAFE)","tel":"031-378-0074","addr":"경기도 화성시 반송동 25-2번지 1층","indutype":"일반휴게음식 - 서양음식","category":"restaurant"}]},{"lat":"37.207076223","long":"127.06086265","imageIndex":4,"items":[{"name":"지음","tel":"031-8003-5210","addr":"경기도 화성시 반송동 50-20번지 10동 1층 14호","indutype":"일반휴게음식 - 서양음식","category":"restaurant"}]},{"lat":"37.20938861","long":"127.06721805","imageIndex":4,"items":[{"name":"지코바양념치킨","tel":"031-613-9218","addr":"경기도 화성시 반송동 18-4번지 102호","indutype":"일반휴게음식 - 스넥","category":"restaurant"}]},{"lat":"37.203111629","long":"127.06091594","imageIndex":4,"items":[{"name":"지하오","tel":"031-8015-3660","addr":"경기도 화성시 반송동 63-7번지 1층","indutype":"일반휴게음식 - 중국식","category":"restaurant"}]},{"lat":"37.210083356","long":"127.06544997","imageIndex":4,"items":[{"name":"진대구뽈찜","tel":"031-613-3251","addr":"경기도 화성시 반송동 11-5번지","indutype":"일반휴게음식 - 일반한식","category":"restaurant"}]},{"lat":"37.197354614","long":"127.07606095","imageIndex":4,"items":[{"name":"진미면막국수","tel":"031-8015-5244","addr":"경기도 화성시 반송동 118-2번지","indutype":"일반휴게음식 - 일반한식","category":"restaurant"}]},{"lat":"37.195882585","long":"127.08127442","imageIndex":4,"items":[{"name":"진성아구찜","tel":"031-613-9143","addr":"경기도 화성시 반송동 124-14번지 1층","indutype":"일반휴게음식 - 일반한식","category":"restaurant"}]},{"lat":"37.196189686","long":"127.08013714","imageIndex":4,"items":[{"name":"짬뽕클라스","tel":"031-613-8287","addr":"경기도 화성시 반송동 124-4번지 1층","indutype":"일반휴게음식 - 중국식","category":"restaurant"}]},{"lat":"37.201966927","long":"127.0616923","imageIndex":4,"items":[{"name":"찜미락","tel":"031-8003-5577","addr":"경기도 화성시 반송동 68-7번지 103호","indutype":"일반휴게음식 - 일반한식","category":"restaurant"}]},{"lat":"37.208019807","long":"127.06577495","imageIndex":4,"items":[{"name":"착한짬뽕","tel":"031-8003-6355","addr":"경기도 화성시 반송동 26-5번지","indutype":"일반휴게음식 - 중국식","category":"restaurant"}]},{"lat":"37.210911975","long":"127.06608152","imageIndex":4,"items":[{"name":"채돈이","tel":"031-613-9001","addr":"경기도 화성시 반송동 9-2번지 1층 1층 전체","indutype":"일반휴게음식 - 일반한식","category":"restaurant"}]},{"lat":"37.210659054","long":"127.06725292","imageIndex":4,"items":[{"name":"처갓집동탄점","tel":"031-613-9924","addr":"경기도 화성시 반송동 13-12번지 1층","indutype":"일반휴게음식 - 스넥","category":"restaurant"}]},{"lat":"37.210047504","long":"127.06508945","imageIndex":4,"items":[{"name":"천년대운 옛날동태탕","tel":"031-8015-1161","addr":"경기도 화성시 반송동 11-8번지","indutype":"일반휴게음식 - 일반한식","category":"restaurant"}]},{"lat":"37.210659787","long":"127.0658898","imageIndex":4,"items":[{"name":"천년명가교동짬뽕","tel":"031-613-9006","addr":"경기도 화성시 반송동 9-4번지 1층","indutype":"일반휴게음식 - 중국식","category":"restaurant"}]},{"lat":"37.210191617","long":"127.06519095","imageIndex":4,"items":[{"name":"천년초다온삼계탕","tel":"031-000-0000","addr":"경기도 화성시 반송동 11-3번지 다온빌 1동 101호","indutype":"일반휴게음식 - 일반한식","category":"restaurant"}]},{"lat":"37.210110654","long":"127.06494305","imageIndex":4,"items":[{"name":"천향부 (반송동점)","tel":"031-613-6088","addr":"경기도 화성시 반송동 11-9번지 1층","indutype":"일반휴게음식 - 중국식","category":"restaurant"}]},{"lat":"37.206886717","long":"127.06144829","imageIndex":4,"items":[{"name":"청년다방","tel":"031-613-0789","addr":"경기도 화성시 반송동 50-16번지","indutype":"일반휴게음식 - 일반한식","category":"restaurant"}]},{"lat":"37.210299871","long":"127.0649432","imageIndex":4,"items":[{"name":"청년피자동탄병점점","tel":"070-4922-1261","addr":"경기도 화성시 반송동 11-1번지 1층 일부호","indutype":"일반휴게음식 - 서양음식","category":"restaurant"}]},{"lat":"37.197497987","long":"127.07733386","imageIndex":4,"items":[{"name":"청도해물탕","tel":"031-377-9965","addr":"경기도 화성시 반송동 120-2번지","indutype":"일반휴게음식 - 일반한식","category":"restaurant"}]},{"lat":"37.207436406","long":"127.06133606","imageIndex":4,"items":[{"name":"청실홍실","tel":"031-1899-3272","addr":"경기도 화성시 반송동 49-15번지 101호","indutype":"일반휴게음식 - 일반한식","category":"restaurant"}]},{"lat":"37.209777889","long":"127.06374865","imageIndex":4,"items":[{"name":"청주오믈렛","tel":"031-8015-5055","addr":"경기도 화성시 반송동 35-3번지 1층 일부호","indutype":"일반휴게음식 - 서양음식","category":"restaurant"}]},{"lat":"37.208443438","long":"127.06550494","imageIndex":4,"items":[{"name":"촌닭","tel":"031-613-3871","addr":"경기도 화성시 반송동 25-11번지","indutype":"일반휴게음식 - 일반한식","category":"restaurant"}]},{"lat":"37.200384931","long":"127.07133301","imageIndex":4,"items":[{"name":"총각네 옛날통닭","tel":"031-0000-0000","addr":"경기도 화성시 반송동 104-13번지 드림프라자 1층 102호","indutype":"일반휴게음식 - 스넥","category":"restaurant"}]},{"lat":"37.208164117","long":"127.06550471","imageIndex":4,"items":[{"name":"총각족발","tel":"031-613-0859","addr":"경기도 화성시 반송동 26-3번지 1층","indutype":"일반휴게음식 - 일반한식","category":"restaurant"}]},{"lat":"37.195522385","long":"127.08094742","imageIndex":4,"items":[{"name":"최서방부대찌개","tel":"031-8003-6922","addr":"경기도 화성시 반송동 125-9번지","indutype":"일반휴게음식 - 일반한식","category":"restaurant"}]},{"lat":"37.207965859","long":"127.06556087","imageIndex":4,"items":[{"name":"춘천명동닭갈비","tel":"031-613-4984","addr":"경기도 화성시 반송동 26-9번지 1층","indutype":"일반휴게음식 - 일반한식","category":"restaurant"}]},{"lat":"37.195720651","long":"127.08089131","imageIndex":4,"items":[{"name":"치킨매니아 동탄솔빛나루점","tel":"031-803-9282","addr":"경기도 화성시 반송동 125-5번지 1층","indutype":"일반휴게음식 - 스넥","category":"restaurant"}]},{"lat":"37.195442559","long":"127.0789988","imageIndex":4,"items":[{"name":"치킨플러스 동탄2동점","tel":"031-8003-8487","addr":"경기도 화성시 반송동 131-14번지 1층","indutype":"일반휴게음식 - 스넥","category":"restaurant"}]},{"lat":"37.209714079","long":"127.06516803","imageIndex":4,"items":[{"name":"카스톡스","tel":"031-613-3282","addr":"경기도 화성시 반송동 30-5번지","indutype":"일반휴게음식 - 주점","category":"restaurant"}]},{"lat":"37.210553303","long":"127.06272412","imageIndex":4,"items":[{"name":"카페갤러리","tel":"031-613-9083","addr":"경기도 화성시 반송동 36-17번지","indutype":"일반휴게음식 - 서양음식","category":"restaurant"}]},{"lat":"37.211272462","long":"127.06594664","imageIndex":4,"items":[{"name":"카페루멘","tel":"031-8003-9392","addr":"경기도 화성시 반송동 7-8번지 101호","indutype":"일반휴게음식 - 서양음식","category":"restaurant"}]},{"lat":"37.196108951","long":"127.07958516","imageIndex":4,"items":[{"name":"카페마노","tel":"031-8003-6615","addr":"경기도 화성시 반송동 123-9번지 1층","indutype":"일반휴게음식 - 서양음식","category":"restaurant"}]},{"lat":"37.206494576","long":"127.07027963","imageIndex":4,"items":[{"name":"카페마마스","tel":"070-1111-1111","addr":"경기도 화성시 반송동 85번지 동탄시범한빛마을동탄아이파크 지하1층 113호 일부","indutype":"일반휴게음식 - 서양음식","category":"restaurant"},{"name":"피자마루","tel":"031-613-5258","addr":"경기도 화성시 반송동 85번지 동탄시범한빛마을동탄아이파크 상가동 109호","indutype":"일반휴게음식 - 서양음식","category":"restaurant"}]},{"lat":"37.206769432","long":"127.06175235","imageIndex":4,"items":[{"name":"카페부부스","tel":"","addr":"경기도 화성시 반송동 50-14번지 1층","indutype":"일반휴게음식 - 서양음식","category":"restaurant"}]},{"lat":"37.196307106","long":"127.07969799","imageIndex":4,"items":[{"name":"카페블루힐(Blue hill)","tel":"031-8003-8397","addr":"경기도 화성시 반송동 124-1번지 1층","indutype":"일반휴게음식 - 서양음식","category":"restaurant"}]},{"lat":"37.197660779","long":"127.07636536","imageIndex":4,"items":[{"name":"카페사월","tel":"070-1478-1236","addr":"경기도 화성시 반송동 115-7번지 1층","indutype":"일반휴게음식 - 서양음식","category":"restaurant"}]},{"lat":"37.210776323","long":"127.06700518","imageIndex":4,"items":[{"name":"카페솜","tel":"","addr":"경기도 화성시 반송동 13-14번지 1층","indutype":"일반휴게음식 - 서양음식","category":"restaurant"}]},{"lat":"37.196244607","long":"127.07880813","imageIndex":4,"items":[{"name":"카페아미","tel":"031-252-3474","addr":"경기도 화성시 반송동 123-23번지 1층 전부호","indutype":"일반휴게음식 - 서양음식","category":"restaurant"}]},{"lat":"37.197056166","long":"127.07782902","imageIndex":4,"items":[{"name":"카페에벤","tel":"031-613-3781","addr":"경기도 화성시 반송동 122-13번지 1층","indutype":"일반휴게음식 - 서양음식","category":"restaurant"}]},{"lat":"37.207192728","long":"127.06213568","imageIndex":4,"items":[{"name":"카페파이 동탄센트럴파크점","tel":"031-8003-0079","addr":"경기도 화성시 반송동 49-10번지 1층","indutype":"일반휴게음식 - 서양음식","category":"restaurant"}]},{"lat":"37.207886952","long":"127.06128008","imageIndex":4,"items":[{"name":"카페호이안(Caphe hoian)","tel":"070-7576-3338","addr":"경기도 화성시 반송동 45-8번지 1층 일부호","indutype":"일반휴게음식 - 서양음식","category":"restaurant"}]},{"lat":"37.19518984","long":"127.07966307","imageIndex":4,"items":[{"name":"커피 앤 스토리","tel":"","addr":"경기도 화성시 반송동 131-19번지 1층 101호","indutype":"일반휴게음식 - 서양음식","category":"restaurant"}]},{"lat":"37.206886291","long":"127.06230442","imageIndex":4,"items":[{"name":"커피그린빈센트럴파크점","tel":"031-8015-0202","addr":"경기도 화성시 반송동 50-10번지 101호","indutype":"일반휴게음식 - 서양음식","category":"restaurant"}]},{"lat":"37.211048845","long":"127.06278083","imageIndex":4,"items":[{"name":"커피농부","tel":"031-8015-1995","addr":"경기도 화성시 반송동 1-9번지 1층","indutype":"일반휴게음식 - 서양음식","category":"restaurant"}]},{"lat":"37.20749975","long":"127.06078412","imageIndex":4,"items":[{"name":"커피리서치","tel":"031-239-0369","addr":"경기도 화성시 반송동 44-10번지 102호","indutype":"일반휴게음식 - 서양음식","category":"restaurant"}]},{"lat":"37.205327966","long":"127.06135696","imageIndex":4,"items":[{"name":"커피바운스","tel":"031-613-9412","addr":"경기도 화성시 반송동 58-5번지 102호","indutype":"일반휴게음식 - 서양음식","category":"restaurant"}]},{"lat":"37.205472116","long":"127.06139087","imageIndex":4,"items":[{"name":"커피아일랜드 로스터스 앤 카카오","tel":"031-8050-9080","addr":"경기도 화성시 반송동 58-3번지 1층","indutype":"일반휴게음식 - 서양음식","category":"restaurant"}]},{"lat":"37.205445001","long":"127.06155982","imageIndex":4,"items":[{"name":"커피컴퍼니(Coffee Company)","tel":"031-8015-9116","addr":"경기도 화성시 반송동 58-4번지","indutype":"일반휴게음식 - 서양음식","category":"restaurant"}]},{"lat":"37.209992755","long":"127.06638492","imageIndex":4,"items":[{"name":"케이디요식","tel":"070-4649-1101","addr":"경기도 화성시 반송동 16-14번지 1층","indutype":"일반휴게음식 - 일반한식","category":"restaurant"}]},{"lat":"37.206860177","long":"127.06044569","imageIndex":4,"items":[{"name":"쿠라티오","tel":"070-5309-5294","addr":"경기도 화성시 반송동 51-4번지 1층","indutype":"일반휴게음식 - 서양음식","category":"restaurant"}]},{"lat":"37.21077688","long":"127.06596875","imageIndex":4,"items":[{"name":"크래프트G","tel":"050-5306-1472","addr":"경기도 화성시 반송동 9-3번지 1층","indutype":"일반휴게음식 - 일반한식","category":"restaurant"}]},{"lat":"37.209831344","long":"127.06492029","imageIndex":4,"items":[{"name":"큰맘할매순대국동탄점","tel":"070-8827-7333","addr":"경기도 화성시 반송동 30-3번지 1층","indutype":"일반휴게음식 - 일반한식","category":"restaurant"}]},{"lat":"37.20919214","long":"127.06389463","imageIndex":4,"items":[{"name":"클릭카페","tel":"031-731-9709","addr":"경기도 화성시 반송동 34-7번지 1층 102호","indutype":"일반휴게음식 - 서양음식","category":"restaurant"}]},{"lat":"37.203273638","long":"127.06127653","imageIndex":4,"items":[{"name":"키친유(KITCHEN유)","tel":"031-8003-7879","addr":"경기도 화성시 반송동 63-3번지 1층 일부호","indutype":"일반휴게음식 - 서양음식","category":"restaurant"}]},{"lat":"37.207715949","long":"127.06088567","imageIndex":4,"items":[{"name":"킨지동탄점","tel":"070-4146-6167","addr":"경기도 화성시 반송동 44-8번지","indutype":"일반휴게음식 - 일식·회집","category":"restaurant"}]},{"lat":"37.206102731","long":"127.06161665","imageIndex":4,"items":[{"name":"킴스 치킨 랩","tel":"031-8015-9190","addr":"경기도 화성시 반송동 54-6번지","indutype":"일반휴게음식 - 일반한식","category":"restaurant"}]},{"lat":"37.197723922","long":"127.07625278","imageIndex":4,"items":[{"name":"타샤의정원","tel":"031-8003-8677","addr":"경기도 화성시 반송동 115-9번지","indutype":"일반휴게음식 - 서양음식","category":"restaurant"}]},{"lat":"37.20163731","long":"127.07144678","imageIndex":4,"items":[{"name":"탕화쿵푸마라탕 70호점","tel":"031-747-8874","addr":"경기도 화성시 반송동 103-2번지 천년프라자 1층 104호","indutype":"일반휴게음식 - 중국식","category":"restaurant"}]},{"lat":"37.195496694","long":"127.07888622","imageIndex":4,"items":[{"name":"태성칡냉면","tel":"031-8003-7737","addr":"경기도 화성시 반송동 131-13번지 1층 일부호","indutype":"일반휴게음식 - 일반한식","category":"restaurant"}]},{"lat":"37.209551349","long":"127.06619304","imageIndex":4,"items":[{"name":"택이네","tel":"031-613-6626","addr":"경기도 화성시 반송동 17-13번지","indutype":"일반휴게음식 - 일반한식","category":"restaurant"}]},{"lat":"37.202715413","long":"127.06042001","imageIndex":4,"items":[{"name":"터틀바이브랩앤카페","tel":"070-4063-3050","addr":"경기도 화성시 반송동 65-9번지 1층","indutype":"일반휴게음식 - 서양음식","category":"restaurant"}]},{"lat":"37.207995049","long":"127.06133649","imageIndex":4,"items":[{"name":"텃밭","tel":"031-378-0786","addr":"경기도 화성시 반송동 45-9번지","indutype":"일반휴게음식 - 일반한식","category":"restaurant"}]},{"lat":"37.191250764","long":"127.06709003","imageIndex":4,"items":[{"name":"테라스156/연대부라더 유한회사","tel":"031-8003-9826","addr":"경기도 화성시 반송동 156-10번지 1층","indutype":"일반휴게음식 - 서양음식","category":"restaurant"}]},{"lat":"37.203138577","long":"127.06108493","imageIndex":4,"items":[{"name":"테트리스찜닭동탄점","tel":"031-8003-0155","addr":"경기도 화성시 반송동 63-6번지 1층 101호","indutype":"일반휴게음식 - 일반한식","category":"restaurant"}]},{"lat":"37.194327854","long":"127.07486414","imageIndex":4,"items":[{"name":"투썸플레이스 화성동탄나루점","tel":"031-613-0115","addr":"경기도 화성시 반송동 218-1번지 계림빌딩 107호 ,108호,110호","indutype":"일반휴게음식 - 서양음식","category":"restaurant"}]},{"lat":"37.208632037","long":"127.06666541","imageIndex":4,"items":[{"name":"티롤커피","tel":"031-613-8113","addr":"경기도 화성시 반송동 22-2번지 103,104호","indutype":"일반휴게음식 - 서양음식","category":"restaurant"}]},{"lat":"37.209191725","long":"127.06469446","imageIndex":4,"items":[{"name":"티바두마리치킨","tel":"031-8015-5252","addr":"경기도 화성시 반송동 31-7번지 1층","indutype":"일반휴게음식 - 스넥","category":"restaurant"}]},{"lat":"37.20932748","long":"127.06353425","imageIndex":4,"items":[{"name":"파이맘","tel":"031-8015-5009","addr":"경기도 화성시 반송동 35-7번지 1층","indutype":"일반휴게음식 - 일반한식","category":"restaurant"}]},{"lat":"37.198048726","long":"127.07555475","imageIndex":4,"items":[{"name":"팬케익팬트리 동탄점","tel":"031-8003-6193","addr":"경기도 화성시 반송동 117-5번지 1층","indutype":"일반휴게음식 - 서양음식","category":"restaurant"}]},{"lat":"37.210658461","long":"127.06833441","imageIndex":4,"items":[{"name":"퍼주마","tel":"031-8003-1877","addr":"경기도 화성시 반송동 7-24번지","indutype":"일반휴게음식 - 일반한식","category":"restaurant"}]},{"lat":"37.195694829","long":"127.07903284","imageIndex":4,"items":[{"name":"페리카나 동탄반송점","tel":"031-8003-2333","addr":"경기도 화성시 반송동 128-20번지 1층 일부호","indutype":"일반휴게음식 - 스넥","category":"restaurant"}]},{"lat":"37.206967537","long":"127.06200033","imageIndex":4,"items":[{"name":"포레스트","tel":"031-8003-6616","addr":"경기도 화성시 반송동 50-8번지","indutype":"일반휴게음식 - 서양음식","category":"restaurant"}]},{"lat":"37.201412213","long":"127.07116498","imageIndex":4,"items":[{"name":"포샤인동탄지점","tel":"031-8015-5563","addr":"경기도 화성시 반송동 103-11번지 엔터프라임빌딩 1동 107호","indutype":"일반휴게음식 - 일반한식","category":"restaurant"}]},{"lat":"37.196136345","long":"127.07902202","imageIndex":4,"items":[{"name":"포소원","tel":"031-8015-1332","addr":"경기도 화성시 반송동 123-21번지","indutype":"일반휴게음식 - 서양음식","category":"restaurant"}]},{"lat":"37.202859797","long":"127.05996955","imageIndex":4,"items":[{"name":"포제이(FOUR J)","tel":"031-8003-4011","addr":"경기도 화성시 반송동 65-1번지 1층","indutype":"일반휴게음식 - 일반한식","category":"restaurant"}]},{"lat":"37.20168823","long":"127.06041923","imageIndex":4,"items":[{"name":"포지타노","tel":"031-8015-2969","addr":"경기도 화성시 반송동 70-4번지","indutype":"일반휴게음식 - 서양음식","category":"restaurant"}]},{"lat":"37.206715642","long":"127.06120033","imageIndex":4,"items":[{"name":"프레스비","tel":"031-373-0860","addr":"경기도 화성시 반송동 52-4번지 103호","indutype":"일반휴게음식 - 서양음식","category":"restaurant"}]},{"lat":"37.206382052","long":"127.06161687","imageIndex":4,"items":[{"name":"플랫폼9와4분의3","tel":"031-8025-7178","addr":"경기도 화성시 반송동 52-11번지 1층","indutype":"일반휴게음식 - 서양음식","category":"restaurant"}]},{"lat":"37.210966109","long":"127.06594638","imageIndex":4,"items":[{"name":"피자브라더스 동탄점","tel":"","addr":"경기도 화성시 반송동 9-7번지 101호","indutype":"일반휴게음식 - 서양음식","category":"restaurant"}]},{"lat":"37.209688365","long":"127.06261078","imageIndex":4,"items":[{"name":"피자샵","tel":"031-8003-7796","addr":"경기도 화성시 반송동 39-12번지 1층 101호","indutype":"일반휴게음식 - 서양음식","category":"restaurant"}]},{"lat":"37.208436435","long":"127.06158466","imageIndex":4,"items":[{"name":"피자헤븐 화성동탄점","tel":"031-613-7205","addr":"경기도 화성시 반송동 45-1번지 1층 101호","indutype":"일반휴게음식 - 일반한식","category":"restaurant"}]},{"lat":"37.196053909","long":"127.08108312","imageIndex":4,"items":[{"name":"하이드하우스스시정(HIDE HOUSE 스시   )","tel":"031-8050-8190","addr":"경기도 화성시 반송동 124-11번지 1층 전부","indutype":"일반휴게음식 - 일식·회집","category":"restaurant"}]},{"lat":"37.208992706","long":"127.06619257","imageIndex":4,"items":[{"name":"한소바","tel":"031-613-7446","addr":"경기도 화성시 반송동 23-10번지 1층전체","indutype":"일반휴게음식 - 일반한식","category":"restaurant"}]},{"lat":"37.209442837","long":"127.06691393","imageIndex":4,"items":[{"name":"한아름식당","tel":"031-376-5206","addr":"경기도 화성시 반송동 17-7번지","indutype":"일반휴게음식 - 일반한식","category":"restaurant"}]},{"lat":"37.198993435","long":"127.07777462","imageIndex":4,"items":[{"name":"해리스동탄","tel":"031-613-7715","addr":"경기도 화성시 반송동 112-2번지","indutype":"일반휴게음식 - 서양음식","category":"restaurant"}]},{"lat":"37.196162566","long":"127.08027228","imageIndex":4,"items":[{"name":"해머금","tel":"031-223-5214","addr":"경기도 화성시 반송동 124-5번지","indutype":"일반휴게음식 - 일반한식","category":"restaurant"}]},{"lat":"37.208714538","long":"127.06399563","imageIndex":4,"items":[{"name":"해물천하 조개구이 (동탄점)","tel":"031-613-9293","addr":"경기도 화성시 반송동 33-1번지 1층","indutype":"일반휴게음식 - 일반한식","category":"restaurant"}]},{"lat":"37.209661695","long":"127.06188978","imageIndex":4,"items":[{"name":"해신일식","tel":"031-613-7750","addr":"경기도 화성시 반송동 38-10번지","indutype":"일반휴게음식 - 일식·회집","category":"restaurant"}]},{"lat":"37.210607172","long":"127.06310718","imageIndex":4,"items":[{"name":"해야돈까스","tel":"031-613-6607","addr":"경기도 화성시 반송동 36-3번지","indutype":"일반휴게음식 - 일반한식","category":"restaurant"}]},{"lat":"37.208076265","long":"127.06108872","imageIndex":4,"items":[{"name":"행복한접시","tel":"031-8015-2913","addr":"경기도 화성시 반송동 44-5번지","indutype":"일반휴게음식 - 서양음식","category":"restaurant"}]},{"lat":"37.195973853","long":"127.07949492","imageIndex":4,"items":[{"name":"허브트리HerbTree","tel":"031-613-6930","addr":"경기도 화성시 반송동 123-18번지 101호","indutype":"일반휴게음식 - 서양음식","category":"restaurant"}]},{"lat":"37.207381986","long":"127.06205698","imageIndex":4,"items":[{"name":"호무라텐동","tel":"031-373-5840","addr":"경기도 화성시 반송동 49-8번지 1층 일부호","indutype":"일반휴게음식 - 일식·회집","category":"restaurant"}]},{"lat":"37.208409571","long":"127.06124669","imageIndex":4,"items":[{"name":"호박 넝쿨","tel":"031-8015-8088","addr":"경기도 화성시 반송동 44-2번지 1층","indutype":"일반휴게음식 - 일반한식","category":"restaurant"}]},{"lat":"37.210883919","long":"127.0679741","imageIndex":4,"items":[{"name":"홍가네쭈삼마을","tel":"031-613-5236","addr":"경기도 화성시 반송동 7-21번지","indutype":"일반휴게음식 - 일반한식","category":"restaurant"}]},{"lat":"37.188553615","long":"127.07247108","imageIndex":4,"items":[{"name":"홍박사생고기","tel":"031-8015-0120","addr":"경기도 화성시 반송동 190-4번지 4층","indutype":"일반휴게음식 - 일반한식","category":"restaurant"}]},{"lat":"37.199993829","long":"127.07739263","imageIndex":4,"items":[{"name":"화성시니어클럽 노노카페 (동탄복합문화센","tel":"031-8059-4348","addr":"경기도 화성시 반송동 108번지 1층","indutype":"일반휴게음식 - 서양음식","category":"restaurant"}]},{"lat":"37.203939263","long":"127.06355247","imageIndex":4,"items":[{"name":"화성시니어클럽 노노카페 (동탄센트럴파크","tel":"031-8059-4349","addr":"경기도 화성시 반송동 59번지","indutype":"일반휴게음식 - 서양음식","category":"restaurant"},{"name":"화성시니어클럽 노노카페 동탄센트럴파크점","tel":"031-8059-4348","addr":"경기도 화성시 반송동 59번지 1층","indutype":"일반휴게음식 - 서양음식","category":"restaurant"}]},{"lat":"37.196861352","long":"127.07221964","imageIndex":4,"items":[{"name":"화성시니어클럽 노노카페 동탄2동주민센터","tel":"031-8059-4349","addr":"경기도 화성시 반송동 137번지 1층","indutype":"일반휴게음식 - 서양음식","category":"restaurant"}]},{"lat":"37.208019998","long":"127.06541447","imageIndex":4,"items":[{"name":"화요일더치커피","tel":"070-4129-6579","addr":"경기도 화성시 반송동 26-10번지","indutype":"일반휴게음식 - 서양음식","category":"restaurant"}]},{"lat":"37.2086604","long":"127.06414203","imageIndex":4,"items":[{"name":"황소부추곱창 동탄2호점","tel":"","addr":"경기도 화성시 반송동 33-2번지 1층","indutype":"일반휴게음식 - 일반한식","category":"restaurant"}]},{"lat":"37.194973084","long":"127.08044001","imageIndex":4,"items":[{"name":"황제오리","tel":"031-372-5288","addr":"경기도 화성시 반송동 131-25번지","indutype":"일반휴게음식 - 서양음식","category":"restaurant"},{"name":"황제오리","tel":"031-372-5288","addr":"경기도 화성시 반송동 131-25번지","indutype":"일반휴게음식 - 일반한식","category":"restaurant"}]},{"lat":"37.209805652","long":"127.06230671","imageIndex":4,"items":[{"name":"휴초밥","tel":"031-8003-1323","addr":"경기도 화성시 반송동 39-14번지 1층 일부호","indutype":"일반휴게음식 - 일식·회집","category":"restaurant"}]},{"lat":"37.208750276","long":"127.06458145","imageIndex":4,"items":[{"name":"흥부골화로구이","tel":"031-613-0204","addr":"경기도 화성시 반송동 32-6번지 1층","indutype":"일반휴게음식 - 일반한식","category":"restaurant"}]},{"lat":"37.208083142","long":"127.06527934","imageIndex":4,"items":[{"name":"희미한 옛사랑의 그림자","tel":"031-613-7731","addr":"경기도 화성시 반송동 26-11번지 1층","indutype":"일반휴게음식 - 일반한식","category":"restaurant"}]}]