[{"lat":"37.779312775","long":"126.85078704","imageIndex":4,"items":[{"name":"고기신 재황","tel":"","addr":"경기도 파주시 광탄면 신산리 153-5번지","indutype":"일반휴게음식 - 일반한식","category":"restaurant"}]},{"lat":"37.782730182","long":"126.84605772","imageIndex":4,"items":[{"name":"고기창고(DH)푸드","tel":"031-942-1992","addr":"경기도 파주시 광탄면 신산리 358-8번지","indutype":"일반휴게음식 - 일반한식","category":"restaurant"}]},{"lat":"37.779120505","long":"126.84842639","imageIndex":4,"items":[{"name":"공간연출클럽","tel":"0131-947-3691","addr":"경기도 파주시 광탄면 신산리 184-10번지","indutype":"일반휴게음식 - 주점","category":"restaurant"},{"name":"손맛식당","tel":"031-947-7559","addr":"경기도 파주시 광탄면 신산리 184-10번지","indutype":"일반휴게음식 - 일반한식","category":"restaurant"}]},{"lat":"37.778482064","long":"126.84936985","imageIndex":4,"items":[{"name":"광탄돼지부속","tel":"031-944-5665","addr":"경기도 파주시 광탄면 신산리 188-56번지","indutype":"일반휴게음식 - 일반한식","category":"restaurant"},{"name":"두꺼비","tel":"031-948-2188","addr":"경기도 파주시 광탄면 신산리 188-56번지","indutype":"일반휴게음식 - 일반한식","category":"restaurant"},{"name":"쩡화네","tel":"031-943-4743","addr":"경기도 파주시 광탄면 신산리 188-56번지","indutype":"일반휴게음식 - 일반한식","category":"restaurant"},{"name":"칼국수","tel":"031-947-5030","addr":"경기도 파주시 광탄면 신산리 188-56","indutype":"일반휴게음식 - 일반한식","category":"restaurant"},{"name":"한성족발,보쌈","tel":"031-942-4004","addr":"경기도 파주시 광탄면 신산리 188-56번지","indutype":"일반휴게음식 - 일반한식","category":"restaurant"},{"name":"홍화불닭","tel":"031-943-5583","addr":"경기도 파주시 광탄면 신산리 188-56번지","indutype":"일반휴게음식 - 일반한식","category":"restaurant"}]},{"lat":"37.781204147","long":"126.8503064","imageIndex":4,"items":[{"name":"광탄부대찌개","tel":"031-944-7208","addr":"경기도 파주시 광탄면 신산리 218-5번지","indutype":"일반휴게음식 - 일반한식","category":"restaurant"}]},{"lat":"37.780977139","long":"126.84894469","imageIndex":4,"items":[{"name":"광탄커피","tel":"02-1234-1234","addr":"경기도 파주시 광탄면 신산리 215-20번지","indutype":"일반휴게음식 - 서양음식","category":"restaurant"},{"name":"추서방네민속주점","tel":"031-947-3990","addr":"경기도 파주시 광탄면 신산리 215-20번지","indutype":"일반휴게음식 - 주점","category":"restaurant"}]},{"lat":"37.778231741","long":"126.85086871","imageIndex":4,"items":[{"name":"광탄한식뷔페","tel":"031-945-2355","addr":"경기도 파주시 광탄면 신산리 153-11번지","indutype":"일반휴게음식 - 일반한식","category":"restaurant"}]},{"lat":"37.781146949","long":"126.8479","imageIndex":4,"items":[{"name":"구구치킨","tel":"031-947-0541","addr":"경기도 파주시 광탄면 신산리 224-7","indutype":"일반휴게음식 - 일반한식","category":"restaurant"}]},{"lat":"37.780474204","long":"126.85017168","imageIndex":4,"items":[{"name":"국일식당","tel":"031-947-7139","addr":"경기도 파주시 광탄면 신산리 214-11번지","indutype":"일반휴게음식 - 일반한식","category":"restaurant"}]},{"lat":"37.781614814","long":"126.84742226","imageIndex":4,"items":[{"name":"굽네치킨(광탄점)","tel":"031-947-5292","addr":"경기도 파주시 광탄면 신산리 226-6번지","indutype":"일반휴게음식 - 스넥","category":"restaurant"}]},{"lat":"37.779337889","long":"126.84931133","imageIndex":4,"items":[{"name":"긴초밥","tel":"031-948-5852","addr":"경기도 파주시 광탄면 신산리 188-108번지","indutype":"일반휴게음식 - 일반한식","category":"restaurant"},{"name":"우리사철탕","tel":"031-947-8910","addr":"경기도 파주시 광탄면 신산리 188-108번지","indutype":"일반휴게음식 - 일반한식","category":"restaurant"}]},{"lat":"37.781398437","long":"126.8473092","imageIndex":4,"items":[{"name":"길커피숍","tel":"031-946-5996","addr":"경기도 파주시 광탄면 신산리 371-24번지","indutype":"일반휴게음식 - 서양음식","category":"restaurant"}]},{"lat":"37.782368986","long":"126.84544549","imageIndex":4,"items":[{"name":"까페:디(Cafe:D)","tel":"","addr":"경기도 파주시 광탄면 신산리 575-14번지 201호","indutype":"일반휴게음식 - 서양음식","category":"restaurant"},{"name":"참이맛감자탕","tel":"031-941-0320","addr":"경기도 파주시 광탄면 신산리 575-14번지 우신빌딩 1층 3호","indutype":"일반휴게음식 - 일반한식","category":"restaurant"}]},{"lat":"37.78455928","long":"126.8531148","imageIndex":4,"items":[{"name":"꽃마리","tel":"031-947-2068","addr":"경기도 파주시 광탄면 신산리 23-5번지","indutype":"일반휴게음식 - 일반한식","category":"restaurant"}]},{"lat":"37.78239739","long":"126.84647843","imageIndex":4,"items":[{"name":"낭만퓨전포차","tel":"031-942-0216","addr":"경기도 파주시 광탄면 신산리 358-16번지","indutype":"일반휴게음식 - 일반한식","category":"restaurant"}]},{"lat":"37.779141199","long":"126.85048091","imageIndex":4,"items":[{"name":"다미포차","tel":"031-947-0776","addr":"경기도 파주시 광탄면 신산리 154-11번지","indutype":"일반휴게음식 - 일반한식","category":"restaurant"}]},{"lat":"37.782703275","long":"126.84614859","imageIndex":4,"items":[{"name":"닭깡","tel":"031-943-3012","addr":"경기도 파주시 광탄면 신산리 358-9번지","indutype":"일반휴게음식 - 일반한식","category":"restaurant"},{"name":"커피에반하다(광탄점)","tel":"","addr":"경기도 파주시 광탄면 신산리 358-9번지","indutype":"일반휴게음식 - 서양음식","category":"restaurant"}]},{"lat":"37.782505865","long":"126.84675064","imageIndex":4,"items":[{"name":"더 테라스","tel":"031-941-1557","addr":"경기도 파주시 광탄면 신산리 369-8번지","indutype":"일반휴게음식 - 주점","category":"restaurant"}]},{"lat":"37.781758785","long":"126.84728574","imageIndex":4,"items":[{"name":"더기발한치킨","tel":"031-948-7199","addr":"경기도 파주시 광탄면 신산리 227-6번지","indutype":"일반휴게음식 - 스넥","category":"restaurant"}]},{"lat":"37.783947973","long":"126.85417176","imageIndex":4,"items":[{"name":"두꺼비한식부페","tel":"031-941-6664","addr":"경기도 파주시 광탄면 신산리 26번지","indutype":"일반휴게음식 - 일반한식","category":"restaurant"}]},{"lat":"37.781533953","long":"126.8475927","imageIndex":4,"items":[{"name":"드라마","tel":"031-946-2635","addr":"경기도 파주시 광탄면 신산리 226-8","indutype":"일반휴게음식 - 주점","category":"restaurant"},{"name":"은하수","tel":"031-949-1102","addr":"경기도 파주시 광탄면 신산리 226-8번지","indutype":"일반휴게음식 - 일반한식","category":"restaurant"}]},{"lat":"37.781146396","long":"126.84748","imageIndex":4,"items":[{"name":"레드썬","tel":"031-948-1979","addr":"경기도 파주시 광탄면 신산리 224-4번지","indutype":"일반휴게음식 - 일반한식","category":"restaurant"}]},{"lat":"37.781893807","long":"126.84719464","imageIndex":4,"items":[{"name":"롯데리아 광탄점","tel":"02-1600-5801","addr":"경기도 파주시 광탄면 신산리 370-6번지","indutype":"일반휴게음식 - 서양음식","category":"restaurant"}]},{"lat":"37.782091835","long":"126.84705801","imageIndex":4,"items":[{"name":"마루김밥","tel":"031-942-5919","addr":"경기도 파주시 광탄면 신산리 370-4번지","indutype":"일반휴게음식 - 일반한식","category":"restaurant"}]},{"lat":"37.782065002","long":"126.84720563","imageIndex":4,"items":[{"name":"명품뼈해장국","tel":"031-949-3599","addr":"경기도 파주시 광탄면 신산리 227-86번지","indutype":"일반휴게음식 - 일반한식","category":"restaurant"},{"name":"서울왕족발","tel":"031-947-8852","addr":"경기도 파주시 광탄면 신산리 227-86번지","indutype":"일반휴게음식 - 일반한식","category":"restaurant"}]},{"lat":"37.7811403","long":"126.8497049","imageIndex":4,"items":[{"name":"밥먹고합시다","tel":"031-949-1462","addr":"경기도 파주시 광탄면 신산리 217-16번지","indutype":"일반휴게음식 - 일반한식","category":"restaurant"}]},{"lat":"37.783198614","long":"126.84601132","imageIndex":4,"items":[{"name":"베트남쌀국수","tel":"070-7799-3440","addr":"경기도 파주시 광탄면 신산리 358-33번지","indutype":"일반휴게음식 - 서양음식","category":"restaurant"}]},{"lat":"37.78953202","long":"126.84581629","imageIndex":4,"items":[{"name":"부뚜막김치찌게","tel":"031-944-0014","addr":"경기도 파주시 광탄면 신산리 345번지","indutype":"일반휴게음식 - 일반한식","category":"restaurant"},{"name":"새술막","tel":"031-947-3303","addr":"경기도 파주시 광탄면 신산리 345번지","indutype":"일반휴게음식 - 일반한식","category":"restaurant"}]},{"lat":"37.782307401","long":"126.84655808","imageIndex":4,"items":[{"name":"비비큐","tel":"031-947-4102","addr":"경기도 파주시 광탄면 신산리 358-17번지","indutype":"일반휴게음식 - 일반한식","category":"restaurant"}]},{"lat":"37.781700871","long":"126.84439121","imageIndex":4,"items":[{"name":"비케이 타이푸드","tel":"031-000-0000","addr":"경기도 파주시 광탄면 신산리 577-3번지","indutype":"일반휴게음식 - 일반한식","category":"restaurant"},{"name":"푼푼히 두루치기","tel":"031-944-1118","addr":"경기도 파주시 광탄면 신산리 577-3번지","indutype":"일반휴게음식 - 일반한식","category":"restaurant"}]},{"lat":"37.780894565","long":"126.84780972","imageIndex":4,"items":[{"name":"사랑방","tel":"031-943-9924","addr":"경기도 파주시 광탄면 신산리 187-3번지","indutype":"일반휴게음식 - 중국식","category":"restaurant"}]},{"lat":"37.775257881","long":"126.85030727","imageIndex":4,"items":[{"name":"삼시세끼","tel":"031-946-1177","addr":"경기도 파주시 광탄면 신산리 160-10번지","indutype":"일반휴게음식 - 일반한식","category":"restaurant"}]},{"lat":"37.78086852","long":"126.84855897","imageIndex":4,"items":[{"name":"소소한 분식","tel":"","addr":"경기도 파주시 광탄면 신산리 188-5번지","indutype":"일반휴게음식 - 일반한식","category":"restaurant"}]},{"lat":"37.781696452","long":"126.8478421","imageIndex":4,"items":[{"name":"소와냉면","tel":"031-948-4377","addr":"경기도 파주시 광탄면 신산리 227-54번지","indutype":"일반휴게음식 - 일반한식","category":"restaurant"}]},{"lat":"37.782172229","long":"126.84653566","imageIndex":4,"items":[{"name":"솔카페","tel":"031-947-0034","addr":"경기도 파주시 광탄면 신산리 371-2번지","indutype":"일반휴게음식 - 주점","category":"restaurant"}]},{"lat":"37.781173829","long":"126.84778643","imageIndex":4,"items":[{"name":"스마일명품찹쌀꽈배기","tel":"031-944-4393","addr":"경기도 파주시 광탄면 신산리 224-6번지","indutype":"일반휴게음식 - 스넥","category":"restaurant"}]},{"lat":"37.781704278","long":"126.84694531","imageIndex":4,"items":[{"name":"쌈빠강정","tel":"031-941-9282","addr":"경기도 파주시 광탄면 신산리 371-13번지","indutype":"일반휴게음식 - 일반한식","category":"restaurant"}]},{"lat":"37.781642276","long":"126.8477514","imageIndex":4,"items":[{"name":"아시안레스토랑","tel":"031-942-9128","addr":"경기도 파주시 광탄면 신산리 227-16번지","indutype":"일반휴게음식 - 일반한식","category":"restaurant"}]},{"lat":"37.778112808","long":"126.84947278","imageIndex":4,"items":[{"name":"얌얌분식","tel":"031-943-1323","addr":"경기도 파주시 광탄면 신산리 164번지 삼성베스트타운","indutype":"일반휴게음식 - 일반한식","category":"restaurant"}]},{"lat":"37.779085562","long":"126.85633822","imageIndex":4,"items":[{"name":"엄탕","tel":"031-947-8765","addr":"경기도 파주시 광탄면 신산리 36-7번지","indutype":"일반휴게음식 - 일반한식","category":"restaurant"}]},{"lat":"37.792063613","long":"126.83914663","imageIndex":4,"items":[{"name":"에코앤그린","tel":"070-8885-1174","addr":"경기도 파주시 광탄면 신산리 447-11번지","indutype":"일반휴게음식 - 서양음식","category":"restaurant"},{"name":"육서방한우곰탕 파주점","tel":"031-945-2188","addr":"경기도 파주시 광탄면 신산리 447-11번지","indutype":"일반휴게음식 - 일반한식","category":"restaurant"}]},{"lat":"37.780453071","long":"126.84778794","imageIndex":4,"items":[{"name":"오산리돼지부속","tel":"031-949-8899","addr":"경기도 파주시 광탄면 신산리 188-33번지","indutype":"일반휴게음식 - 일반한식","category":"restaurant"}]},{"lat":"37.781695794","long":"126.84734263","imageIndex":4,"items":[{"name":"올레호프","tel":"070-8957-1885","addr":"경기도 파주시 광탄면 신산리 227-88번지","indutype":"일반휴게음식 - 일반한식","category":"restaurant"}]},{"lat":"37.780231741","long":"126.85078515","imageIndex":4,"items":[{"name":"와우피치(광탄점)","tel":"031-949-4745","addr":"경기도 파주시 광탄면 신산리 201-4번지","indutype":"일반휴게음식 - 일반한식","category":"restaurant"}]},{"lat":"37.778753894","long":"126.85056116","imageIndex":4,"items":[{"name":"왕노가리","tel":"031-947-5580","addr":"경기도 파주시 광탄면 신산리 154-29번지","indutype":"일반휴게음식 - 주점","category":"restaurant"}]},{"lat":"37.781227556","long":"126.84753658","imageIndex":4,"items":[{"name":"우신이네정육식당","tel":"031-944-9287","addr":"경기도 파주시 광탄면 신산리 224-3번지","indutype":"일반휴게음식 - 일반한식","category":"restaurant"}]},{"lat":"37.780923378","long":"126.84917183","imageIndex":4,"items":[{"name":"이삭토스트광탄점","tel":"031-957-7674","addr":"경기도 파주시 광탄면 신산리 215-16번지","indutype":"일반휴게음식 - 일반한식","category":"restaurant"}]},{"lat":"37.780814642","long":"126.84869529","imageIndex":4,"items":[{"name":"이야기술술","tel":"031-944-9287","addr":"경기도 파주시 광탄면 신산리 188-22번지","indutype":"일반휴게음식 - 주점","category":"restaurant"},{"name":"짱카페","tel":"031-947-1162","addr":"경기도 파주시 광탄면 신산리 188-22번지","indutype":"일반휴게음식 - 서양음식","category":"restaurant"}]},{"lat":"37.778751369","long":"126.84862012","imageIndex":4,"items":[{"name":"일등닭갈비","tel":"031-941-3381","addr":"경기도 파주시 광탄면 신산리 168-14번지","indutype":"일반휴게음식 - 일반한식","category":"restaurant"}]},{"lat":"37.7811201","long":"126.84803627","imageIndex":4,"items":[{"name":"작은거인숯불갈비","tel":"031-947-9277","addr":"경기도 파주시 광탄면 신산리 224-8번지","indutype":"일반휴게음식 - 일반한식","category":"restaurant"}]},{"lat":"37.778509624","long":"126.84977844","imageIndex":4,"items":[{"name":"장충동왕족발보쌈  광탄점","tel":"031-947-3200","addr":"경기도 파주시 광탄면 신산리 166-1번지","indutype":"일반휴게음식 - 일반한식","category":"restaurant"}]},{"lat":"37.782037298","long":"126.84669487","imageIndex":4,"items":[{"name":"전통의옛날통닭 광탄점","tel":"031-947-6250","addr":"경기도 파주시 광탄면 신산리 371-5번지","indutype":"일반휴게음식 - 일반한식","category":"restaurant"}]},{"lat":"37.78008712","long":"126.85042221","imageIndex":4,"items":[{"name":"점프샷1348","tel":"031-948-1348","addr":"경기도 파주시 광탄면 신산리 190-3번지","indutype":"일반휴게음식 - 일반한식","category":"restaurant"}]},{"lat":"37.781839796","long":"126.84722881","imageIndex":4,"items":[{"name":"정차이나","tel":"031-943-1206","addr":"경기도 파주시 광탄면 신산리 227-69번지","indutype":"일반휴게음식 - 중국식","category":"restaurant"}]},{"lat":"37.778562749","long":"126.84906321","imageIndex":4,"items":[{"name":"진안식당","tel":"031-949-2070","addr":"경기도 파주시 광탄면 신산리 188-80번지","indutype":"일반휴게음식 - 일반한식","category":"restaurant"}]},{"lat":"37.782865958","long":"126.8465342","imageIndex":4,"items":[{"name":"청민속주막","tel":"031-942-6644","addr":"경기도 파주시 광탄면 신산리 369-4번지","indutype":"일반휴게음식 - 일반한식","category":"restaurant"},{"name":"페리카나치킨","tel":"031-947-3171","addr":"경기도 파주시 광탄면 신산리 369-4번지","indutype":"일반휴게음식 - 서양음식","category":"restaurant"}]},{"lat":"37.778536984","long":"126.85714523","imageIndex":4,"items":[{"name":"청학정","tel":"031-942-7646","addr":"경기도 파주시 광탄면 신산리 95-3번지","indutype":"일반휴게음식 - 일반한식","category":"restaurant"}]},{"lat":"37.778176244","long":"126.84975642","imageIndex":4,"items":[{"name":"치킨매니아 광탄점","tel":"031-957-9242","addr":"경기도 파주시 광탄면 신산리 166-7번지","indutype":"일반휴게음식 - 서양음식","category":"restaurant"}]},{"lat":"37.778256027","long":"126.84875736","imageIndex":4,"items":[{"name":"친구횟집","tel":"031-8070-4748","addr":"경기도 파주시 광탄면 신산리 168-13번지","indutype":"일반휴게음식 - 일식·회집","category":"restaurant"}]},{"lat":"37.77969726","long":"126.8485387","imageIndex":4,"items":[{"name":"카페34","tel":"031-947-4344","addr":"경기도 파주시 광탄면 신산리 184-11번지","indutype":"일반휴게음식 - 서양음식","category":"restaurant"}]},{"lat":"37.776808303","long":"126.85091703","imageIndex":4,"items":[{"name":"카페블레스(Cafe Bless)","tel":"031-948-3222","addr":"경기도 파주시 광탄면 신산리 35-28번지","indutype":"일반휴게음식 - 서양음식","category":"restaurant"}]},{"lat":"37.779229124","long":"126.8488121","imageIndex":4,"items":[{"name":"큰손해물탕","tel":"","addr":"경기도 파주시 광탄면 신산리 183-6번지","indutype":"일반휴게음식 - 일반한식","category":"restaurant"}]},{"lat":"37.782784948","long":"126.84659113","imageIndex":4,"items":[{"name":"태국식당/뉴촉디주식회사","tel":"031-0000-0000","addr":"경기도 파주시 광탄면 신산리 369-5번지","indutype":"일반휴게음식 - 서양음식","category":"restaurant"}]},{"lat":"37.779310609","long":"126.84911841","imageIndex":4,"items":[{"name":"통영다찌","tel":"031-948-7773","addr":"경기도 파주시 광탄면 신산리 188-29","indutype":"일반휴게음식 - 일식·회집","category":"restaurant"}]},{"lat":"37.781479342","long":"126.84717281","imageIndex":4,"items":[{"name":"티나","tel":"031-946-5379","addr":"경기도 파주시 광탄면 신산리 371-20번지","indutype":"일반휴게음식 - 스넥","category":"restaurant"}]},{"lat":"37.780392288","long":"126.85661943","imageIndex":4,"items":[{"name":"파주더시크릿","tel":"031-945-9494","addr":"경기도 파주시 광탄면 신산리 48-1번지","indutype":"일반휴게음식 - 일반한식","category":"restaurant"}]},{"lat":"37.783477574","long":"126.84576099","imageIndex":4,"items":[{"name":"파주민물매운탕","tel":"031-947-0123","addr":"경기도 파주시 광탄면 신산리 358-19번지","indutype":"일반휴게음식 - 일반한식","category":"restaurant"}]},{"lat":"37.781057213","long":"126.84817262","imageIndex":4,"items":[{"name":"퍼시픽푸드","tel":"","addr":"경기도 파주시 광탄면 신산리 223-3번지","indutype":"일반휴게음식 - 스넥","category":"restaurant"},{"name":"폰까페(cafe)","tel":"031-947-3810","addr":"경기도 파주시 광탄면 신산리 223-3번지 1층","indutype":"일반휴게음식 - 일반한식","category":"restaurant"}]},{"lat":"37.782757135","long":"126.8460009","imageIndex":4,"items":[{"name":"풍년닭갈비,막국수","tel":"031-947-0410","addr":"경기도 파주시 광탄면 신산리 358-6번지","indutype":"일반휴게음식 - 일반한식","category":"restaurant"}]},{"lat":"37.78322408","long":"126.84484203","imageIndex":4,"items":[{"name":"피자투어 광탄하나로마트점","tel":"031-944-7733","addr":"경기도 파주시 광탄면 신산리 366-1번지","indutype":"일반휴게음식 - 일반한식","category":"restaurant"}]},{"lat":"37.782226767","long":"126.8468988","imageIndex":4,"items":[{"name":"하모니","tel":"","addr":"경기도 파주시 광탄면 신산리 370-1번지","indutype":"일반휴게음식 - 일반한식","category":"restaurant"}]},{"lat":"37.791694225","long":"126.83914744","imageIndex":4,"items":[{"name":"해빛신산점한끼","tel":"031-948-2195","addr":"경기도 파주시 광탄면 신산리 447-12번지","indutype":"일반휴게음식 - 일반한식","category":"restaurant"}]},{"lat":"37.790063714","long":"126.84591734","imageIndex":4,"items":[{"name":"행복손만두","tel":"031-947-2066","addr":"경기도 파주시 광탄면 신산리 337-3번지","indutype":"일반휴게음식 - 일반한식","category":"restaurant"}]},{"lat":"37.778728235","long":"126.85881347","imageIndex":4,"items":[{"name":"허니비카페","tel":"031-123-4567","addr":"경기도 파주시 광탄면 신산리 89-6번지","indutype":"일반휴게음식 - 서양음식","category":"restaurant"},{"name":"힐스크린골프,찜사랑","tel":"031-947-4830","addr":"경기도 파주시 광탄면 신산리 89-6번지","indutype":"일반휴게음식 - 일반한식","category":"restaurant"}]},{"lat":"37.779752694","long":"126.84959425","imageIndex":4,"items":[{"name":"호식이두마리치킨광탄점","tel":"031-941-4269","addr":"경기도 파주시 광탄면 신산리 683번지 동신라메르아파트","indutype":"일반휴게음식 - 스넥","category":"restaurant"}]},{"lat":"37.78075107","long":"126.84830948","imageIndex":4,"items":[{"name":"훗닭훗닭장작구이","tel":"031-947-9608","addr":"경기도 파주시 광탄면 신산리 188-39번지","indutype":"일반휴게음식 - 일반한식","category":"restaurant"}]}]