[{"lat":"37.462349564","long":"126.81298949","imageIndex":4,"items":[{"name":"(주)금수레한정식","tel":"","addr":"경기도 부천시 옥길동 777-2번지 옥길중앙타워 201호","indutype":"일반휴게음식 - 일반한식","category":"restaurant"}]},{"lat":"37.469289609","long":"126.8202066","imageIndex":4,"items":[{"name":"24시전주명가콩나물국밥오길점","tel":"032-341-3888","addr":"경기도 부천시 옥길동 713-9번지","indutype":"일반휴게음식 - 일반한식","category":"restaurant"}]},{"lat":"37.466483703","long":"126.82360455","imageIndex":4,"items":[{"name":"59쌀피자 옥길지구점","tel":"032-345-5938","addr":"경기도 부천시 옥길동 744-2번지 이에스타워 102호","indutype":"일반휴게음식 - 서양음식","category":"restaurant"},{"name":"깜꼬치킨(옥길점)","tel":"032-345-5992","addr":"경기도 부천시 옥길동 744-2번지 이에스타워 1층 104호","indutype":"일반휴게음식 - 스넥","category":"restaurant"},{"name":"옥길한식뷔페","tel":"070-7614-3579","addr":"경기도 부천시 옥길동 744-2번지 202호,203호","indutype":"일반휴게음식 - 일반한식","category":"restaurant"}]},{"lat":"37.468931579","long":"126.82174483","imageIndex":4,"items":[{"name":"가장맛있는족발범박점","tel":"032-349-5849","addr":"경기도 부천시 옥길동 729-2번지 1층 일부","indutype":"일반휴게음식 - 일반한식","category":"restaurant"}]},{"lat":"37.469237188","long":"126.82126932","imageIndex":4,"items":[{"name":"갈막듀록","tel":"032-351-9277","addr":"경기도 부천시 옥길동 730-2번지 1층","indutype":"일반휴게음식 - 일반한식","category":"restaurant"}]},{"lat":"37.46370941","long":"126.81257914","imageIndex":4,"items":[{"name":"감동치킨","tel":"02-1234-1234","addr":"경기도 부천시 옥길동 776-1번지 부천옥길자이 지하2층 비209호","indutype":"일반휴게음식 - 주점","category":"restaurant"},{"name":"굽네치킨 옥길점","tel":"032-343-9294","addr":"경기도 부천시 옥길동 776-1번지 부천옥길자이 지하2층 비207호","indutype":"일반휴게음식 - 스넥","category":"restaurant"},{"name":"맘스터치","tel":"031-344-6257","addr":"경기도 부천시 옥길동 776-1번지 부천옥길자이 112호","indutype":"일반휴게음식 - 서양음식","category":"restaurant"},{"name":"메가엠지씨커피 부천옥길중앙점","tel":"070-1111-1111","addr":"경기도 부천시 옥길동 776-1번지 부천옥길자이 지하2층 215호","indutype":"일반휴게음식 - 서양음식","category":"restaurant"},{"name":"바르다김선생 (옥길점)","tel":"032-345-4009","addr":"경기도 부천시 옥길동 776-1번지 부천옥길자이 지하2층 218호","indutype":"일반휴게음식 - 스넥","category":"restaurant"},{"name":"아기숟가락 옥길점","tel":"032-342-2610","addr":"경기도 부천시 옥길동 776-1번지 부천옥길자이 상가동 1층 109호","indutype":"일반휴게음식 - 스넥","category":"restaurant"},{"name":"옹기꽃게장","tel":"032-343-6023","addr":"경기도 부천시 옥길동 776-1번지 부천옥길자이 지하2층 B219호","indutype":"일반휴게음식 - 일반한식","category":"restaurant"},{"name":"카페28","tel":"032-342-2028","addr":"경기도 부천시 옥길동 776-1번지 부천옥길자이 지하2층 216호","indutype":"일반휴게음식 - 서양음식","category":"restaurant"}]},{"lat":"37.466934114","long":"126.82354695","imageIndex":4,"items":[{"name":"감성엔펍","tel":"","addr":"경기도 부천시 옥길동 744-1번지 부천옥길대우센트럴프라자 2층 204호","indutype":"일반휴게음식 - 주점","category":"restaurant"},{"name":"대박식당","tel":"032-349-2907","addr":"경기도 부천시 옥길동 744-1번지 대우센트럴프라자 207호","indutype":"일반휴게음식 - 일반한식","category":"restaurant"},{"name":"롤김밥","tel":"032-343-5359","addr":"경기도 부천시 옥길동 744-1번지 부천옥길대우센트럴프라자 1층 105호","indutype":"일반휴게음식 - 일반한식","category":"restaurant"},{"name":"마산아구찜","tel":"02-6104-4018","addr":"경기도 부천시 옥길동 744-1번지 부천옥길센트럴프라자 205호","indutype":"일반휴게음식 - 일반한식","category":"restaurant"},{"name":"맛닭꼬 옥길점","tel":"032-364-0092","addr":"경기도 부천시 옥길동 744-1번지 114,115호","indutype":"일반휴게음식 - 스넥","category":"restaurant"},{"name":"샌드위치가맛있는옥길동커피","tel":"032-344-5326","addr":"경기도 부천시 옥길동 744-1번지 부천옥길대우센트럴프라자 1층 104호","indutype":"일반휴게음식 - 서양음식","category":"restaurant"},{"name":"소브로(소Bro)","tel":"032-349-4556","addr":"경기도 부천시 옥길동 744-1번지 부천옥길대우센트럴프라자 2층 201호","indutype":"일반휴게음식 - 일반한식","category":"restaurant"},{"name":"신의주찹쌀순대","tel":"032-343-3538","addr":"경기도 부천시 옥길동 744-1번지 부천옥길대우센트럴프라자 1층 116호","indutype":"일반휴게음식 - 일반한식","category":"restaurant"},{"name":"옥길명태","tel":"032-342-5525","addr":"경기도 부천시 옥길동 744-1번지 부천옥길대우센트럴프라자 1층 112호","indutype":"일반휴게음식 - 일반한식","category":"restaurant"},{"name":"올리앤부천옥길점","tel":"032-345-4742","addr":"경기도 부천시 옥길동 744-1번지 부천옥길대우센트럴프라자 2층 202호","indutype":"일반휴게음식 - 일반한식","category":"restaurant"},{"name":"유가네닭갈비옥길점","tel":"032-343-8788","addr":"경기도 부천시 옥길동 744-1번지 부천옥길대우센트럴프라자 206호","indutype":"일반휴게음식 - 일반한식","category":"restaurant"},{"name":"육감만족 옥길점","tel":"032-345-9212","addr":"경기도 부천시 옥길동 744-1번지 부천옥길대우센트럴프라자 106,107호","indutype":"일반휴게음식 - 일반한식","category":"restaurant"},{"name":"큰손할매순대국","tel":"032-342-0703","addr":"경기도 부천시 옥길동 744-1번지 부천옥길대우센트럴프라자 1층 108호","indutype":"일반휴게음식 - 일반한식","category":"restaurant"}]},{"lat":"37.467436673","long":"126.8222345","imageIndex":4,"items":[{"name":"감탄떡볶이부천옥길점","tel":"032-346-0834","addr":"경기도 부천시 옥길동 726-3번지 제일프라자 1층","indutype":"일반휴게음식 - 일반한식","category":"restaurant"},{"name":"고봉민김밥인부천옥길점","tel":"032-342-4755","addr":"경기도 부천시 옥길동 726-3번지 제일프라자 103호","indutype":"일반휴게음식 - 스넥","category":"restaurant"},{"name":"꼼지락","tel":"032-346-4656","addr":"경기도 부천시 옥길동 726-3번지 제일프라자 1층 102호","indutype":"일반휴게음식 - 스넥","category":"restaurant"},{"name":"비비큐 올리브치킨 부천옥길점","tel":"032-349-9282","addr":"경기도 부천시 옥길동 726-3번지 제일프라자 1층 107호","indutype":"일반휴게음식 - 스넥","category":"restaurant"},{"name":"스시웨이 옥길점","tel":"032-322-3774","addr":"경기도 부천시 옥길동 726-3번지 제일프라자 201호","indutype":"일반휴게음식 - 일식·회집","category":"restaurant"},{"name":"오마뎅부천옥길점","tel":"032-345-5786","addr":"경기도 부천시 옥길동 726-3번지 제일프라자 1층 104호","indutype":"일반휴게음식 - 일반한식","category":"restaurant"},{"name":"킹콩부대찌개 옥길점","tel":"032-342-3999","addr":"경기도 부천시 옥길동 726-3번지 제일프라자 202호","indutype":"일반휴게음식 - 일반한식","category":"restaurant"}]},{"lat":"37.468820376","long":"126.81974428","imageIndex":4,"items":[{"name":"강가네남원추어탕","tel":"032-343-6918","addr":"경기도 부천시 옥길동 713-4번지","indutype":"일반휴게음식 - 일반한식","category":"restaurant"}]},{"lat":"37.467958748","long":"126.82190543","imageIndex":4,"items":[{"name":"걸작떡볶이부천옥길점","tel":"032-345-2821","addr":"경기도 부천시 옥길동 724-1번지 1층","indutype":"일반휴게음식 - 일반한식","category":"restaurant"},{"name":"돼지공방","tel":"031-343-0123","addr":"경기도 부천시 옥길동 724-1번지 1층","indutype":"일반휴게음식 - 일반한식","category":"restaurant"}]},{"lat":"37.468902828","long":"126.82062579","imageIndex":4,"items":[{"name":"계림원(옥길하스모나점)","tel":"032-346-0113","addr":"경기도 부천시 옥길동 714-3번지 1층","indutype":"일반휴게음식 - 일반한식","category":"restaurant"}]},{"lat":"37.468569635","long":"126.82073964","imageIndex":4,"items":[{"name":"고기원칙","tel":"","addr":"경기도 부천시 옥길동 715-6번지 옥길주차타워 1층 111,112호","indutype":"일반휴게음식 - 일반한식","category":"restaurant"},{"name":"국수나무옥길점","tel":"032-345-5744","addr":"경기도 부천시 옥길동 715-6번지 옥길주차타워 1층 110호","indutype":"일반휴게음식 - 일반한식","category":"restaurant"},{"name":"미각","tel":"02-1522-2332","addr":"경기도 부천시 옥길동 715-6번지 옥길주차타워 1층 104,105호","indutype":"일반휴게음식 - 중국식","category":"restaurant"},{"name":"선미네","tel":"","addr":"경기도 부천시 옥길동 715-6번지 옥길주차타워 1층 116호","indutype":"일반휴게음식 - 일반한식","category":"restaurant"},{"name":"오븐마루(옥길점)","tel":"032-343-9293","addr":"경기도 부천시 옥길동 715-6번지 107호","indutype":"일반휴게음식 - 스넥","category":"restaurant"},{"name":"천하보쌈","tel":"031-341-3392","addr":"경기도 부천시 옥길동 715-6번지 1층","indutype":"일반휴게음식 - 일반한식","category":"restaurant"}]},{"lat":"37.467598316","long":"126.82188369","imageIndex":4,"items":[{"name":"고릴라불닭발","tel":"032-345-3787","addr":"경기도 부천시 옥길동 724-4번지","indutype":"일반휴게음식 - 일반한식","category":"restaurant"},{"name":"홍짜장 옥길점","tel":"032-347-0011","addr":"경기도 부천시 옥길동 724-4번지 1층 일부","indutype":"일반휴게음식 - 중국식","category":"restaurant"}]},{"lat":"37.468761566","long":"126.82251392","imageIndex":4,"items":[{"name":"고향가든","tel":"","addr":"경기도 부천시 옥길동 732-2번지 1층","indutype":"일반휴게음식 - 일반한식","category":"restaurant"}]},{"lat":"37.469710619","long":"126.81862299","imageIndex":4,"items":[{"name":"공간","tel":"02-1111-1111","addr":"경기도 부천시 옥길동 702-1번지 1층","indutype":"일반휴게음식 - 서양음식","category":"restaurant"}]},{"lat":"37.467295351","long":"126.82409998","imageIndex":4,"items":[{"name":"구백냥곱창","tel":"070-1111-1111","addr":"경기도 부천시 옥길동 745-7번지 지음프라자 1층 114호","indutype":"일반휴게음식 - 일반한식","category":"restaurant"}]},{"lat":"37.461904221","long":"126.81060568","imageIndex":4,"items":[{"name":"그녀의커피 카페드엘르(Cafe d elle)","tel":"032-345-7700","addr":"경기도 부천시 옥길동 780-1번지 옥길호반베르디움 1층 107호","indutype":"일반휴게음식 - 서양음식","category":"restaurant"},{"name":"컵끼리 (CUPKIRI)","tel":"070-0000-0000","addr":"경기도 부천시 옥길동 780-1번지 옥길호반베르디움 118동 104호","indutype":"일반휴게음식 - 서양음식","category":"restaurant"}]},{"lat":"37.468959145","long":"126.82209519","imageIndex":4,"items":[{"name":"낙원식당","tel":"032-432-6641","addr":"경기도 부천시 옥길동 731-7번지 1층","indutype":"일반휴게음식 - 일반한식","category":"restaurant"}]},{"lat":"37.467184188","long":"126.82209947","imageIndex":4,"items":[{"name":"낭만치맥 부천옥길점","tel":"032-344-8220","addr":"경기도 부천시 옥길동 726-4번지 상림프라자 1층 107호","indutype":"일반휴게음식 - 주점","category":"restaurant"},{"name":"메가엠지씨커피 부천옥길지구점","tel":"070-1111-1111","addr":"경기도 부천시 옥길동 726-4번지 상림프라자 106호","indutype":"일반휴게음식 - 서양음식","category":"restaurant"},{"name":"일미리금계찜닭","tel":"032-345-9258","addr":"경기도 부천시 옥길동 726-4번지 상림프라자 2층 203호","indutype":"일반휴게음식 - 일반한식","category":"restaurant"},{"name":"청년다방부천옥길점","tel":"032-341-1700","addr":"경기도 부천시 옥길동 726-4번지 상림프라자 102호","indutype":"일반휴게음식 - 스넥","category":"restaurant"},{"name":"초원샤브샤브","tel":"","addr":"경기도 부천시 옥길동 726-4번지 상림프라자 2층 201호","indutype":"일반휴게음식 - 중국식","category":"restaurant"}]},{"lat":"37.467769661","long":"126.82198502","imageIndex":4,"items":[{"name":"놀부부대찌개 보쌈 (옥길점)","tel":"032-341-7038","addr":"경기도 부천시 옥길동 724-3번지 1층","indutype":"일반휴게음식 - 일반한식","category":"restaurant"}]},{"lat":"37.474871676","long":"126.82340364","imageIndex":4,"items":[{"name":"능성갈비","tel":"02-2687-4213","addr":"경기도 부천시 옥길동 507-2번지 1층","indutype":"일반휴게음식 - 일반한식","category":"restaurant"}]},{"lat":"37.469684382","long":"126.81913174","imageIndex":4,"items":[{"name":"달달한동네커피","tel":"","addr":"경기도 부천시 옥길동 705-1번지 옥길골드타워 1층 105호","indutype":"일반휴게음식 - 서양음식","category":"restaurant"},{"name":"독도왕새우튀김","tel":"032-344-8283","addr":"경기도 부천시 옥길동 705-1번지 옥길골드타워 103호","indutype":"일반휴게음식 - 일반한식","category":"restaurant"},{"name":"마포주먹고기","tel":"032-347-0999","addr":"경기도 부천시 옥길동 705-1번지 112호","indutype":"일반휴게음식 - 일반한식","category":"restaurant"},{"name":"바사칸동네치킨옥길신도시점","tel":"032-0000-0000","addr":"경기도 부천시 옥길동 705-1번지 옥길골드타워 1층 111호","indutype":"일반휴게음식 - 스넥","category":"restaurant"},{"name":"우주소돌곱창","tel":"02-6013-6991","addr":"경기도 부천시 옥길동 705-1번지 1층 102호","indutype":"일반휴게음식 - 일반한식","category":"restaurant"},{"name":"원할머니보쌈부천옥길점","tel":"032-349-5379","addr":"경기도 부천시 옥길동 705-1번지 옥길골드타워 106호","indutype":"일반휴게음식 - 일반한식","category":"restaurant"}]},{"lat":"37.467931839","long":"126.82198463","imageIndex":4,"items":[{"name":"대박족발","tel":"070-0000-0000","addr":"경기도 부천시 옥길동 724-2번지 101호","indutype":"일반휴게음식 - 일반한식","category":"restaurant"}]},{"lat":"37.462574285","long":"126.81266113","imageIndex":4,"items":[{"name":"대정숯불갈비","tel":"032-1111-1111","addr":"경기도 부천시 옥길동 777-1번지","indutype":"일반휴게음식 - 일반한식","category":"restaurant"},{"name":"바우네 나주곰탕(옥길이마트점)","tel":"032-345-8807","addr":"경기도 부천시 옥길동 777-1번지 1동 1층 119호","indutype":"일반휴게음식 - 일반한식","category":"restaurant"},{"name":"복슬강아지","tel":"031-8920-3956","addr":"경기도 부천시 옥길동 777-1번지 옥길헤리움타운 2층 203호","indutype":"일반휴게음식 - 서양음식","category":"restaurant"},{"name":"수내닭꼬치(부천옥길점)","tel":"070-7614-3579","addr":"경기도 부천시 옥길동 777-1번지 1동 106호","indutype":"일반휴게음식 - 주점","category":"restaurant"},{"name":"신의한소","tel":"","addr":"경기도 부천시 옥길동 777-1번지 옥길헤리움타운 102호","indutype":"일반휴게음식 - 일반한식","category":"restaurant"},{"name":"얌샘김밥(부천옥길점)","tel":"031-344-2360","addr":"경기도 부천시 옥길동 777-1번지 1동 1층 114호","indutype":"일반휴게음식 - 스넥","category":"restaurant"},{"name":"와우(WOW)화덕피자","tel":"032-346-4673","addr":"경기도 부천시 옥길동 777-1번지 옥길헤리움타운 1층 118호","indutype":"일반휴게음식 - 서양음식","category":"restaurant"},{"name":"이디야커피부천옥길헤리움점","tel":"032-345-5255","addr":"경기도 부천시 옥길동 777-1번지 111호","indutype":"일반휴게음식 - 서양음식","category":"restaurant"}]},{"lat":"37.46673514","long":"126.82305006","imageIndex":4,"items":[{"name":"데이즈오프","tel":"","addr":"경기도 부천시 옥길동 744-5번지 2층 라피에스타 202호","indutype":"일반휴게음식 - 주점","category":"restaurant"}]},{"lat":"37.471708007","long":"126.81682066","imageIndex":4,"items":[{"name":"도미노피자부천옥길점","tel":"02-6406-3085","addr":"경기도 부천시 옥길동 784-4번지 예품빌딩","indutype":"일반휴게음식 - 서양음식","category":"restaurant"}]},{"lat":"37.468963745","long":"126.81923524","imageIndex":4,"items":[{"name":"디저트39 부천옥길점","tel":"032-344-1323","addr":"경기도 부천시 옥길동 710-2번지","indutype":"일반휴게음식 - 서양음식","category":"restaurant"}]},{"lat":"37.468904376","long":"126.82163185","imageIndex":4,"items":[{"name":"라헬의부엌 옥길점","tel":"","addr":"경기도 부천시 옥길동 729-1번지 1층","indutype":"일반휴게음식 - 서양음식","category":"restaurant"}]},{"lat":"37.467183079","long":"126.82137602","imageIndex":4,"items":[{"name":"리틀멜로우 (Little Mellow)","tel":"","addr":"경기도 부천시 옥길동 725번지 114호 일부","indutype":"일반휴게음식 - 서양음식","category":"restaurant"},{"name":"미스사이공 옥길점","tel":"032-345-0420","addr":"경기도 부천시 옥길동 725번지 킹타워 103호","indutype":"일반휴게음식 - 스넥","category":"restaurant"},{"name":"옛날통닭","tel":"","addr":"경기도 부천시 옥길동 725번지 1층 102호","indutype":"일반휴게음식 - 스넥","category":"restaurant"},{"name":"죽이야기 부천옥길점","tel":"032-345-6233","addr":"경기도 부천시 옥길동 725번지 1층 104호","indutype":"일반휴게음식 - 일반한식","category":"restaurant"},{"name":"코바코 부천옥길점","tel":"032-349-7890","addr":"경기도 부천시 옥길동 725번지 106호","indutype":"일반휴게음식 - 일반한식","category":"restaurant"},{"name":"태영생막창","tel":"032-343-6333","addr":"경기도 부천시 옥길동 725번지 1층 117,118호","indutype":"일반휴게음식 - 일반한식","category":"restaurant"},{"name":"포램비","tel":"032-349-1002","addr":"경기도 부천시 옥길동 725번지 109,110호","indutype":"일반휴게음식 - 일반한식","category":"restaurant"},{"name":"혹등고래","tel":"","addr":"경기도 부천시 옥길동 725번지 1층 101호","indutype":"일반휴게음식 - 일식·회집","category":"restaurant"}]},{"lat":"37.461853971","long":"126.81865357","imageIndex":4,"items":[{"name":"미갈루(Migaloo)","tel":"031-000-0000","addr":"경기도 부천시 옥길동 754-3번지 1층","indutype":"일반휴게음식 - 서양음식","category":"restaurant"}]},{"lat":"37.468435338","long":"126.82129387","imageIndex":4,"items":[{"name":"바른고기","tel":"032-344-5000","addr":"경기도 부천시 옥길동 722-2번지","indutype":"일반휴게음식 - 일반한식","category":"restaurant"}]},{"lat":"37.468630465","long":"126.81929258","imageIndex":4,"items":[{"name":"뱅아라비카","tel":"032-345-5505","addr":"경기도 부천시 옥길동 713-1번지 101호","indutype":"일반휴게음식 - 서양음식","category":"restaurant"}]},{"lat":"37.469072391","long":"126.8195741","imageIndex":4,"items":[{"name":"보꼬네","tel":"032-351-1113","addr":"경기도 부천시 옥길동 710-4번지 1층","indutype":"일반휴게음식 - 서양음식","category":"restaurant"}]},{"lat":"37.461764611","long":"126.81912852","imageIndex":4,"items":[{"name":"보드람치킨 옥길지구점","tel":"032-347-7694","addr":"경기도 부천시 옥길동 753-5번지 1층 102호","indutype":"일반휴게음식 - 스넥","category":"restaurant"}]},{"lat":"37.468956713","long":"126.82051262","imageIndex":4,"items":[{"name":"본가곱창","tel":"02-1577-0000","addr":"경기도 부천시 옥길동 714-2번지","indutype":"일반휴게음식 - 일반한식","category":"restaurant"}]},{"lat":"37.467680287","long":"126.82246","imageIndex":4,"items":[{"name":"본죽 옥길점","tel":"032-344-6288","addr":"경기도 부천시 옥길동 726-2번지 씨티프라자 104호","indutype":"일반휴게음식 - 일반한식","category":"restaurant"},{"name":"비에치씨 (bhc)옥길지구점","tel":"032-349-9292","addr":"경기도 부천시 옥길동 726-2번지","indutype":"일반휴게음식 - 일반한식","category":"restaurant"},{"name":"송탄금이네부대찌개","tel":"031-341-3588","addr":"경기도 부천시 옥길동 726-2번지 씨티프라자 201호","indutype":"일반휴게음식 - 일반한식","category":"restaurant"}]},{"lat":"37.469100244","long":"126.82010532","imageIndex":4,"items":[{"name":"비&전","tel":"032-346-9204","addr":"경기도 부천시 옥길동 713-7번지 1층 일부","indutype":"일반휴게음식 - 일반한식","category":"restaurant"},{"name":"이리로","tel":"032-344-3104","addr":"경기도 부천시 옥길동 713-7번지 1층 101호","indutype":"일반휴게음식 - 주점","category":"restaurant"}]},{"lat":"37.469289102","long":"126.81987878","imageIndex":4,"items":[{"name":"비엔나커피하우스","tel":"070-7862-1697","addr":"경기도 부천시 옥길동 710-6번지 1층","indutype":"일반휴게음식 - 서양음식","category":"restaurant"}]},{"lat":"37.466293721","long":"126.82309634","imageIndex":4,"items":[{"name":"삼겹의 지존","tel":"","addr":"경기도 부천시 옥길동 744-3번지 외1필지 2층 201호","indutype":"일반휴게음식 - 일반한식","category":"restaurant"},{"name":"투썸플레이스 부천옥길점","tel":"032-346-3222","addr":"경기도 부천시 옥길동 744-3번지 1층 104,105,106,107호","indutype":"일반휴게음식 - 서양음식","category":"restaurant"},{"name":"피자마루 옥길지구점","tel":"032-345-7362","addr":"경기도 부천시 옥길동 744-3번지 1층 108호","indutype":"일반휴게음식 - 서양음식","category":"restaurant"},{"name":"홍콩반점0410 부천옥길점","tel":"032-341-3241","addr":"경기도 부천시 옥길동 744-3번지 O&S골드타워 1층 101호,102,103호","indutype":"일반휴게음식 - 중국식","category":"restaurant"}]},{"lat":"37.469460501","long":"126.82001401","imageIndex":4,"items":[{"name":"샌드리아 옥길지수점","tel":"03-111-1111","addr":"경기도 부천시 옥길동 710-8번지","indutype":"일반휴게음식 - 스넥","category":"restaurant"}]},{"lat":"37.466958593","long":"126.82187393","imageIndex":4,"items":[{"name":"셀렉토커피부천옥길점","tel":"032-341-1580","addr":"경기도 부천시 옥길동 726-5번지 드림탑프라자 101,102호","indutype":"일반휴게음식 - 서양음식","category":"restaurant"}]},{"lat":"37.467878678","long":"126.82257256","imageIndex":4,"items":[{"name":"스시노백쉐프부천옥길점","tel":"032-345-5802","addr":"경기도 부천시 옥길동 726-1번지 센타프라자 2층 202호","indutype":"일반휴게음식 - 일식·회집","category":"restaurant"},{"name":"신전떡볶이(옥길점)","tel":"032-341-1172","addr":"경기도 부천시 옥길동 726-1번지 센타프라자 106호","indutype":"일반휴게음식 - 스넥","category":"restaurant"},{"name":"옥길동갈매기","tel":"032-344-2275","addr":"경기도 부천시 옥길동 726-1번지 센타프라자 106호","indutype":"일반휴게음식 - 일반한식","category":"restaurant"}]},{"lat":"37.46217847","long":"126.8187432","imageIndex":4,"items":[{"name":"스시젠","tel":"032-345-1854","addr":"경기도 부천시 옥길동 753-1번지 원창에스엠주택 1층 102호","indutype":"일반휴게음식 - 일식·회집","category":"restaurant"}]},{"lat":"37.474431577","long":"126.82432039","imageIndex":4,"items":[{"name":"시골집","tel":"02-2686-7707","addr":"경기도 부천시 옥길동 501-6번지 1층","indutype":"일반휴게음식 - 일반한식","category":"restaurant"}]},{"lat":"37.462215159","long":"126.82505023","imageIndex":4,"items":[{"name":"신참떡볶이 부천옥길점","tel":"032-341-7778","addr":"경기도 부천시 옥길동 748-1번지 엘에이치옥길센트럴힐 상가동 1층 102호","indutype":"일반휴게음식 - 스넥","category":"restaurant"}]},{"lat":"37.461881617","long":"126.81904911","imageIndex":4,"items":[{"name":"쓰리스완","tel":"032-347-1117","addr":"경기도 부천시 옥길동 753-4번지 1층","indutype":"일반휴게음식 - 서양음식","category":"restaurant"}]},{"lat":"37.462069729","long":"126.81266241","imageIndex":4,"items":[{"name":"아버커피 아너시티점","tel":"","addr":"경기도 부천시 옥길동 777-4번지 서영아너시티 1차 1층 113호","indutype":"일반휴게음식 - 서양음식","category":"restaurant"},{"name":"오마뎅 아너시티점","tel":"032-345-7003","addr":"경기도 부천시 옥길동 777-4번지 서영아너시티 1층 104호","indutype":"일반휴게음식 - 서양음식","category":"restaurant"},{"name":"옥길산더미뼈해장국","tel":"02-111-1111","addr":"경기도 부천시 옥길동 777-4번지 서영아너시티 2층 211호","indutype":"일반휴게음식 - 일반한식","category":"restaurant"}]},{"lat":"37.468408482","long":"126.82140697","imageIndex":4,"items":[{"name":"영양사가차려주는밥상","tel":"032-343-6002","addr":"경기도 부천시 옥길동 722-3번지","indutype":"일반휴게음식 - 일반한식","category":"restaurant"}]},{"lat":"37.46754417","long":"126.8218273","imageIndex":4,"items":[{"name":"옛추억을안주삼아","tel":"070-8881-5555","addr":"경기도 부천시 옥길동 724-5번지 1층","indutype":"일반휴게음식 - 일반한식","category":"restaurant"}]},{"lat":"37.469018208","long":"126.8194951","imageIndex":4,"items":[{"name":"오하요카레","tel":"","addr":"경기도 부천시 옥길동 710-3번지 1층 102호","indutype":"일반휴게음식 - 일식·회집","category":"restaurant"}]},{"lat":"37.469991369","long":"126.81954925","imageIndex":4,"items":[{"name":"옥길 어시장","tel":"032-343-1188","addr":"경기도 부천시 옥길동 704-1번지","indutype":"일반휴게음식 - 일식·회집","category":"restaurant"}]},{"lat":"37.469460326","long":"126.81990097","imageIndex":4,"items":[{"name":"옥길동 마카롱","tel":"","addr":"경기도 부천시 옥길동 710-7번지 1층","indutype":"일반휴게음식 - 서양음식","category":"restaurant"}]},{"lat":"37.474710508","long":"126.82407101","imageIndex":4,"items":[{"name":"옥길장터식당","tel":"02-2619-3598","addr":"경기도 부천시 옥길동 506-1번지 1층","indutype":"일반휴게음식 - 일반한식","category":"restaurant"}]},{"lat":"37.468824549","long":"126.82245725","imageIndex":4,"items":[{"name":"옥길황소곱창","tel":"032-341-5033","addr":"경기도 부천시 옥길동 732-1번지 1층","indutype":"일반휴게음식 - 일반한식","category":"restaurant"}]},{"lat":"37.472820298","long":"126.82531903","imageIndex":4,"items":[{"name":"옥련가든","tel":"02-2688-1789","addr":"경기도 부천시 옥길동 490-2번지","indutype":"일반휴게음식 - 일반한식","category":"restaurant"}]},{"lat":"37.468769867","long":"126.82205043","imageIndex":4,"items":[{"name":"원일씨숯불닭갈비","tel":"032-349-8293","addr":"경기도 부천시 옥길동 729-4번지 1층 일부호","indutype":"일반휴게음식 - 일반한식","category":"restaurant"}]},{"lat":"37.468318591","long":"126.82154284","imageIndex":4,"items":[{"name":"이디야 커피(부천옥길점)","tel":"032-341-6704","addr":"경기도 부천시 옥길동 722-4번지 1층","indutype":"일반휴게음식 - 서양음식","category":"restaurant"}]},{"lat":"37.461656667","long":"126.81924181","imageIndex":4,"items":[{"name":"이바돔감자탕(부천옥길점)","tel":"032-351-0005","addr":"경기도 부천시 옥길동 753-6번지 101호","indutype":"일반휴게음식 - 일반한식","category":"restaurant"}]},{"lat":"37.468794883","long":"126.8207391","imageIndex":4,"items":[{"name":"정재영족발보쌈","tel":"032-345-1214","addr":"경기도 부천시 옥길동 714-4번지 일부동","indutype":"일반휴게음식 - 일반한식","category":"restaurant"}]},{"lat":"37.469739301","long":"126.81968551","imageIndex":4,"items":[{"name":"제주흑돈애","tel":"","addr":"경기도 부천시 옥길동 704-3번지 1층","indutype":"일반휴게음식 - 일반한식","category":"restaurant"}]},{"lat":"37.469156272","long":"126.82138256","imageIndex":4,"items":[{"name":"참나무골한우곱창","tel":"032-347-3007","addr":"경기도 부천시 옥길동 730-3번지 1층","indutype":"일반휴게음식 - 일반한식","category":"restaurant"}]},{"lat":"37.462929396","long":"126.82074202","imageIndex":4,"items":[{"name":"참맛치킨꿀맛닭강정","tel":"","addr":"경기도 부천시 옥길동 751-1번지 엘에이치옥길브리즈힐 G동 1층 103호","indutype":"일반휴게음식 - 스넥","category":"restaurant"}]},{"lat":"37.471653971","long":"126.82865662","imageIndex":4,"items":[{"name":"천지가든","tel":"02-2686-3066","addr":"경기도 부천시 옥길동 466-3번지","indutype":"일반휴게음식 - 일반한식","category":"restaurant"}]},{"lat":"37.468374518","long":"126.82276354","imageIndex":4,"items":[{"name":"청기와뼈다귀해장국","tel":"032-347-1005","addr":"경기도 부천시 옥길동 727-2번지 2층","indutype":"일반휴게음식 - 일반한식","category":"restaurant"}]},{"lat":"37.469018892","long":"126.81993596","imageIndex":4,"items":[{"name":"치뽁","tel":"032-342-2021","addr":"경기도 부천시 옥길동 713-6번지 1층 101호","indutype":"일반휴게음식 - 일식·회집","category":"restaurant"}]},{"lat":"37.467435964","long":"126.82177105","imageIndex":4,"items":[{"name":"치킨매니아 옥길점","tel":"032-237-8292","addr":"경기도 부천시 옥길동 724-6번지 101호","indutype":"일반휴게음식 - 스넥","category":"restaurant"}]},{"lat":"37.461458009","long":"126.81895972","imageIndex":4,"items":[{"name":"카페 슈어","tel":"","addr":"경기도 부천시 옥길동 754-7번지 브리즈타워 1층 107호","indutype":"일반휴게음식 - 서양음식","category":"restaurant"}]},{"lat":"37.461961967","long":"126.81857418","imageIndex":4,"items":[{"name":"카페동네옥길점","tel":"032-342-6232","addr":"경기도 부천시 옥길동 754-2번지","indutype":"일반휴게음식 - 서양음식","category":"restaurant"}]},{"lat":"37.468819551","long":"126.81921298","imageIndex":4,"items":[{"name":"카페띠아모 (옥길점)","tel":"032-343-1537","addr":"경기도 부천시 옥길동 710-1번지","indutype":"일반휴게음식 - 서양음식","category":"restaurant"}]},{"lat":"37.468928652","long":"126.81984575","imageIndex":4,"items":[{"name":"카페파인","tel":"02-2060-4413","addr":"경기도 부천시 옥길동 713-5번지 1층","indutype":"일반휴게음식 - 서양음식","category":"restaurant"}]},{"lat":"37.461656105","long":"126.81888011","imageIndex":4,"items":[{"name":"커피베이","tel":"032-347-0010","addr":"경기도 부천시 옥길동 754-5번지 마이바움 옥길 1층","indutype":"일반휴게음식 - 서양음식","category":"restaurant"}]},{"lat":"37.468489224","long":"126.8211807","imageIndex":4,"items":[{"name":"커피에반하다 (옥길점)","tel":"032-348-8282","addr":"경기도 부천시 옥길동 722-1번지 1층 일부호","indutype":"일반휴게음식 - 서양음식","category":"restaurant"}]},{"lat":"37.467877399","long":"126.82173607","imageIndex":4,"items":[{"name":"퀸즈브라운 부천옥길점","tel":"070-5121-6771","addr":"경기도 부천시 옥길동 724-10번지","indutype":"일반휴게음식 - 일반한식","category":"restaurant"}]},{"lat":"37.468572443","long":"126.82257089","imageIndex":4,"items":[{"name":"키키자케시","tel":"032-2614-4512","addr":"경기도 부천시 옥길동 728-2번지 1층 일부","indutype":"일반휴게음식 - 일식·회집","category":"restaurant"}]},{"lat":"37.467435583","long":"126.82152236","imageIndex":4,"items":[{"name":"토프레소옥길점","tel":"031-347-1315","addr":"경기도 부천시 옥길동 724-7번지 1층","indutype":"일반휴게음식 - 서양음식","category":"restaurant"}]},{"lat":"37.469261722","long":"126.81965277","imageIndex":4,"items":[{"name":"통큰할매순대국감자탕","tel":"032-345-0777","addr":"경기도 부천시 옥길동 710-5번지 1층","indutype":"일반휴게음식 - 일반한식","category":"restaurant"}]},{"lat":"37.469100715","long":"126.82041053","imageIndex":4,"items":[{"name":"팔당냉면","tel":"032-349-8259","addr":"경기도 부천시 옥길동 714-1번지","indutype":"일반휴게음식 - 일반한식","category":"restaurant"}]},{"lat":"37.464097288","long":"126.81854633","imageIndex":4,"items":[{"name":"프랭크서울핫도그","tel":"032-343-1236","addr":"경기도 부천시 옥길동 771-1번지 엘에이치센트리뷰 1층 111호","indutype":"일반휴게음식 - 서양음식","category":"restaurant"}]},{"lat":"37.46173603","long":"126.81813392","imageIndex":4,"items":[{"name":"피자엠 부천옥길점","tel":"02-6403-7561","addr":"경기도 부천시 옥길동 756-1번지 1층 101호","indutype":"일반휴게음식 - 서양음식","category":"restaurant"}]},{"lat":"37.461241471","long":"126.8187681","imageIndex":4,"items":[{"name":"핸드","tel":"031-111-1111","addr":"경기도 부천시 옥길동 756-6번지 1층","indutype":"일반휴게음식 - 서양음식","category":"restaurant"}]},{"lat":"37.464957462","long":"126.82723662","imageIndex":4,"items":[{"name":"홍루이젠","tel":"","addr":"경기도 부천시 옥길동 739-1번지 제이드카운티2단지 1층 108호","indutype":"일반휴게음식 - 스넥","category":"restaurant"}]},{"lat":"37.469820268","long":"126.81960618","imageIndex":4,"items":[{"name":"황소갈비","tel":"","addr":"경기도 부천시 옥길동 704-2번지 1층","indutype":"일반휴게음식 - 일반한식","category":"restaurant"}]}]