[{"lat":"37.291320021","long":"127.14798944","imageIndex":13,"items":[{"name":"(주)스위머스","tel":"031-338-5297","addr":"경기도 용인시 기흥구 청덕동 556번지","indutype":"레저업소 - 수 영 장","category":"leisure"},{"name":"써브마린","tel":"031-1644-5297","addr":"경기도 용인시 기흥구 청덕동 556번지 E동 지하2층 G-E202,203,204","indutype":"레저업소 - 수 영 장","category":"leisure"},{"name":"써브마린","tel":"031-1644-5297","addr":"경기도 용인시 기흥구 청덕동 556번지 용인테크노밸리 E동 지하2층 G-E202,203,204호","indutype":"레저업소 - 수 영 장","category":"leisure"},{"name":"주식회사 스위머스","tel":"00-1644-5297","addr":"경기도 용인시 기흥구 청덕동 556번지 용인테크노밸리 지2층 E202호","indutype":"레저업소 - 수 영 장","category":"leisure"}]},{"lat":"37.302207219","long":"127.16654192","imageIndex":13,"items":[{"name":"골프AJ","tel":"070-7420-7774","addr":"경기도 용인시 기흥구 청덕동 80-2번지","indutype":"레저업소 - 골프연습장","category":"leisure"},{"name":"지엠에이 주식회사","tel":"070-7836-5678","addr":"경기도 용인시 기흥구 청덕동 80-2번지 3층 실외골프연습장","indutype":"레저업소 - 골프연습장","category":"leisure"}]},{"lat":"37.296288558","long":"127.15210425","imageIndex":13,"items":[{"name":"당구장씨드","tel":"031-703-0424","addr":"경기도 용인시 기흥구 청덕동 502-1번지","indutype":"레저업소 - 당 구 장","category":"leisure"},{"name":"멜론PC방","tel":"031-896-4413","addr":"경기도 용인시 기흥구 청덕동 502-1번지 일월프라자 402호","indutype":"레저업소 - 기타레져업소","category":"leisure"},{"name":"아이디스튜디오(ID studio)","tel":"031-217-8008","addr":"경기도 용인시 기흥구 청덕동 502-1번지 일월프라자 501,502호","indutype":"레저업소 - 헬스클럽","category":"leisure"},{"name":"자성당구장","tel":"031-274-0693","addr":"경기도 용인시 기흥구 청덕동 502-1번지 401호","indutype":"레저업소 - 당 구 장","category":"leisure"},{"name":"창덕럭셔리노래연습장","tel":"031-275-0752","addr":"경기도 용인시 기흥구 청덕동 502-1번지 일월프라자 3층 301호","indutype":"레저업소 - 노 래 방","category":"leisure"}]},{"lat":"37.294712012","long":"127.15190941","imageIndex":13,"items":[{"name":"슬림바디 필라테스","tel":"031-282-9733","addr":"경기도 용인시 기흥구 청덕동 502-8번지 청덕프라자 5층 502호","indutype":"레저업소 - 헬스클럽","category":"leisure"}]},{"lat":"37.294928087","long":"127.15204517","imageIndex":13,"items":[{"name":"어썸 피티(AWESOME PT)","tel":"031-283-0215","addr":"경기도 용인시 기흥구 청덕동 502-7번지 우성프라자 202호","indutype":"레저업소 - 헬스클럽","category":"leisure"}]},{"lat":"37.295130034","long":"127.15618462","imageIndex":13,"items":[{"name":"제이존(Trampoline)","tel":"031-284-3927","addr":"경기도 용인시 기흥구 청덕동 298-17번지 2층","indutype":"레저업소 - 기타레져업소","category":"leisure"}]},{"lat":"37.296027305","long":"127.1520699","imageIndex":13,"items":[{"name":"한체대석사복싱클럽","tel":"031-282-7988","addr":"경기도 용인시 기흥구 청덕동 502-2번지 구성프라자 201호","indutype":"레저업소 - 헬스클럽","category":"leisure"}]},{"lat":"37.294514071","long":"127.15168346","imageIndex":13,"items":[{"name":"휘트니스모두","tel":"031-282-6788","addr":"경기도 용인시 기흥구 청덕동 502-9번지 한양프라자 4층","indutype":"레저업소 - 헬스클럽","category":"leisure"}]}]