[{"lat":"37.01726249","long":"126.91824593","imageIndex":17,"items":[{"name":"(주)호진컴퍼니","tel":"031-681-3478","addr":"경기도 평택시 청북읍 옥길리 1166-7번지 화진빌딩 202호","indutype":"레져용품 - 스포츠·레져용품","category":"other"}]},{"lat":"37.01759578","long":"126.91809948","imageIndex":17,"items":[{"name":"CU평택청북토담점","tel":"","addr":"경기도 평택시 청북읍 옥길리 1163-2번지","indutype":"소매업 - 편의점","category":"other"},{"name":"씨유평택청북토담","tel":"080-080-3663","addr":"경기도 평택시 청북읍 옥길리 1163-2번지 112,113호","indutype":"유통업 영리 - 편 의 점","category":"other"},{"name":"카카오골프 청북점","tel":"031-683-5155","addr":"경기도 평택시 청북읍 옥길리 1163-2번지 403,404호","indutype":"레져용품 - 골프용품 전문점","category":"other"}]},{"lat":"37.023184956","long":"126.92176801","imageIndex":17,"items":[{"name":"GS25청북수자인점","tel":"","addr":"경기도 평택시 청북읍 옥길리 1150번지 101호(한양수자인 단지내상가)","indutype":"유통업 영리 - 편 의 점","category":"other"}]},{"lat":"37.015851671","long":"126.91130324","imageIndex":17,"items":[{"name":"KG태권짐","tel":"031-684-5385","addr":"경기도 평택시 청북읍 옥길리 1123-2번지 5층","indutype":"서비스업 - 교육","category":"other"},{"name":"청옥인테리어","tel":"031-683-9880","addr":"경기도 평택시 청북읍 옥길리 1123-2번지 1층","indutype":"건축자재 - 인테리어전문","category":"other"},{"name":"한우물프렌즈","tel":"031-686-5696","addr":"경기도 평택시 청북읍 옥길리 1123-2번지","indutype":"소매업 - 정육","category":"other"}]},{"lat":"37.017567646","long":"126.91657129","imageIndex":17,"items":[{"name":"OK통신","tel":"031-683-6993","addr":"경기도 평택시 청북읍 옥길리 1161-5번지 B동101~104호","indutype":"사무통신 - 통신기기","category":"other"},{"name":"골드플러스","tel":"070-2699-0807","addr":"경기도 평택시 청북읍 옥길리 1161-5번지 로데오프라자 120호","indutype":"신변잡화 - 귀금속","category":"other"},{"name":"보니타제이","tel":"070-4806-6789","addr":"경기도 평택시 청북읍 옥길리 1161-5번지 로데오프라자 113호,114호","indutype":"의류 - 정장","category":"other"},{"name":"이미지","tel":"031-681-0885","addr":"경기도 평택시 청북읍 옥길리 1161-5번지 로데오프라자 119호","indutype":"소매업 - 의류","category":"other"},{"name":"이미지","tel":"031-682-4981","addr":"경기도 평택시 청북읍 옥길리 1161-5번지 로데오프라자 119호","indutype":"의류 - 정장","category":"other"}]},{"lat":"37.018242739","long":"126.91560415","imageIndex":17,"items":[{"name":"감성아이 청북점","tel":"070-4806-6789","addr":"경기도 평택시 청북읍 옥길리 1158-2번지 KD트리플렉스타워 1층","indutype":"의류 - 아동의류","category":"other"},{"name":"티나","tel":"031-682-6943","addr":"경기도 평택시 청북읍 옥길리 1158-2번지 KD트리플렉스타워 102호","indutype":"의류 - 정장","category":"other"}]},{"lat":"37.016937129","long":"126.91688664","imageIndex":17,"items":[{"name":"경아씨","tel":"031-682-9255","addr":"경기도 평택시 청북읍 옥길리 1165-6번지","indutype":"의류 - 정장","category":"other"}]},{"lat":"37.016819647","long":"126.91641482","imageIndex":17,"items":[{"name":"고백(go-100)청북점","tel":"070-8966-6789","addr":"경기도 평택시 청북읍 옥길리 1165-3번지 103호","indutype":"의류 - 정장","category":"other"}]},{"lat":"37.01793646","long":"126.91571687","imageIndex":17,"items":[{"name":"골드스크린골프존","tel":"031-681-1238","addr":"경기도 평택시 청북읍 옥길리 1158-1번지 704호 골드테라스 (골드테라스)","indutype":"회원제형태 - 레져업소","category":"other"},{"name":"명품","tel":"031-682-5849","addr":"경기도 평택시 청북읍 옥길리 1158-1번지 골드테라스 108호","indutype":"도소매업 - 야채","category":"other"},{"name":"밸런스요가","tel":"031-682-9559","addr":"경기도 평택시 청북읍 옥길리 1158-1번지 401호 골드테라스 (골드테라스)","indutype":"회원제형태 - 레져업소","category":"other"},{"name":"블럭나무","tel":"","addr":"경기도 평택시 청북읍 옥길리 1158-1번지 5층 503호(골드테라스)","indutype":"서적문구 - 완구점","category":"other"},{"name":"블럭나무","tel":"053-257-7412","addr":"경기도 평택시 청북읍 옥길리 1158-1번지","indutype":"서적문구 - 완구점","category":"other"},{"name":"스튜디오 봄","tel":"031-681-0310","addr":"경기도 평택시 청북읍 옥길리 1158-1번지 402 (골드테라스)","indutype":"광학제품 - 사진관","category":"other"},{"name":"에이치엠 청북SK대리점","tel":"031-684-3011","addr":"경기도 평택시 청북읍 옥길리 1158-1번지 110호 골드테라스","indutype":"사무통신 - 통신기기","category":"other"},{"name":"이안휴대폰","tel":"031-816-9960","addr":"경기도 평택시 청북읍 옥길리 1158-1번지 1층 109호 (골드테라스)","indutype":"사무통신 - 통신기기","category":"other"}]},{"lat":"37.018630098","long":"126.91546886","imageIndex":17,"items":[{"name":"글라스스토리","tel":"031-681-3392","addr":"경기도 평택시 청북읍 옥길리 1158-3번지 에이스프라자 108호","indutype":"소매업 - 안경","category":"other"},{"name":"우수천막기업","tel":"035-358-3628","addr":"경기도 평택시 청북읍 옥길리 1158-3번지 에이스프라자 112호","indutype":"직물 - 카페트,커튼,천막,지물","category":"other"},{"name":"크린토피아 코인워시 평택청북지구점","tel":"031-681-0770","addr":"경기도 평택시 청북읍 옥길리 1158-3번지 에이스 플라자(ACE PLAZA) 112호","indutype":"수리서비스 - 세탁소","category":"other"}]},{"lat":"37.017125722","long":"126.91602119","imageIndex":17,"items":[{"name":"김민수떡집","tel":"031-684-3588","addr":"경기도 평택시 청북읍 옥길리 1162-2번지 103호","indutype":"제조업 - 떡","category":"other"},{"name":"승호청과","tel":"031-651-6790","addr":"경기도 평택시 청북읍 옥길리 1162-2번지 107호","indutype":"도소매업 - 청과","category":"other"},{"name":"파스텔","tel":"031-111-1111","addr":"경기도 평택시 청북읍 옥길리 1162-2번지 한남빌딩 1층 101호","indutype":"의류 - 아동의류","category":"other"},{"name":"휴대폰가게","tel":"031-682-9891","addr":"경기도 평택시 청북읍 옥길리 1162-2번지 105호","indutype":"사무통신 - 통신기기","category":"other"},{"name":"휴대폰가게","tel":"031-686-5117","addr":"경기도 평택시 청북읍 옥길리 1162-2번지 105호","indutype":"소매업 - 전자기기","category":"other"}]},{"lat":"37.017404971","long":"126.9159085","imageIndex":17,"items":[{"name":"김포헤르메스","tel":"","addr":"경기도 평택시 청북읍 옥길리 1162-1번지 한남프라자 502호","indutype":"건축자재 - 부동산 분양","category":"other"}]},{"lat":"37.018207305","long":"126.91643573","imageIndex":17,"items":[{"name":"꼴불견(  )","tel":"031-681-9566","addr":"경기도 평택시 청북읍 옥길리 1159-2번지 골든테라스2, 101호","indutype":"문화.취미 - 애완동물","category":"other"},{"name":"세븐일레븐평택청북신도시점","tel":"031-1577-0711","addr":"경기도 평택시 청북읍 옥길리 1159-2번지 골든테라스2(116호)","indutype":"유통업 영리 - 편 의 점","category":"other"},{"name":"이쁘개","tel":"","addr":"경기도 평택시 청북읍 옥길리 1159-2번지","indutype":"서비스업 - 애견샵","category":"other"},{"name":"청북기름집","tel":"031-684-4488","addr":"경기도 평택시 청북읍 옥길리 1159-2번지 1층 106호(골드테라스2)","indutype":"제조업 - 기름","category":"other"}]},{"lat":"37.023683229","long":"126.91299075","imageIndex":17,"items":[{"name":"다송건재철물","tel":"031-683-6443","addr":"경기도 평택시 청북읍 옥길리 1063-1번지 민창빌딩 102호","indutype":"기타 - 기계공구","category":"other"}]},{"lat":"37.016069994","long":"126.91402226","imageIndex":17,"items":[{"name":"란 스캔들","tel":"031-616-5998","addr":"경기도 평택시 청북읍 옥길리 1110번지 부영사랑으로1차 106동 3층 302호","indutype":"회원제형태 - 기타4","category":"other"},{"name":"요술핸디아트","tel":"031-8029-4677","addr":"경기도 평택시 청북읍 옥길리 1110번지 부영사랑으로 상가동 2층 202호","indutype":"문화.취미 - 문화취미기타","category":"other"},{"name":"월드세탁소","tel":"031-681-9854","addr":"경기도 평택시 청북읍 옥길리 1110번지 부영사랑으로 상가동 106호","indutype":"수리서비스 - 세탁소","category":"other"},{"name":"진 하수구수도 종합설비","tel":"","addr":"경기도 평택시 청북읍 옥길리 1110번지 부영사랑으로1차 113동 902호","indutype":"용역 서비스 - 기타용역서비스","category":"other"},{"name":"청북시스템","tel":"031-8094-0519","addr":"경기도 평택시 청북읍 옥길리 1110번지 부영상가 109호","indutype":"사무통신 - 컴퓨터","category":"other"}]},{"lat":"37.023240982","long":"126.92468976","imageIndex":17,"items":[{"name":"맘스에코코팅","tel":"031-0000-0000","addr":"경기도 평택시 청북읍 옥길리 1153번지 유승한내들퍼스트뷰 104동 703호","indutype":"건축자재 - 인테리어전문","category":"other"},{"name":"에어컨마트","tel":"","addr":"경기도 평택시 청북읍 옥길리 1153번지 유승한내들퍼스트뷰 104동 103호","indutype":"용역 서비스 - 기타용역서비스","category":"other"},{"name":"정리.수납컨설턴트","tel":"","addr":"경기도 평택시 청북읍 옥길리 1153번지 유승한내들퍼스트뷰 104동 802호","indutype":"용역 서비스 - 종합용역","category":"other"}]},{"lat":"37.020682152","long":"126.91229757","imageIndex":17,"items":[{"name":"미니스톱청북부영점","tel":"031-1577-9621","addr":"경기도 평택시 청북읍 옥길리 1097번지 사랑으로부영5차 101호","indutype":"유통업 영리 - 편 의 점","category":"other"},{"name":"블루그리다","tel":"070-7550-4091","addr":"경기도 평택시 청북읍 옥길리 1097번지 사랑으로부영5차 502동 902호","indutype":"서적문구 - 출판 및 인쇄물","category":"other"},{"name":"샤오팡중국어 화성.평택지사","tel":"031-8043-8282","addr":"경기도 평택시 청북읍 옥길리 1097번지 사랑으로부영5차 502동 1702호","indutype":"회원제형태 - 서적","category":"other"}]},{"lat":"37.018490499","long":"126.90963699","imageIndex":17,"items":[{"name":"미소미용","tel":"","addr":"경기도 평택시 청북읍 옥길리 1094번지 유승한내들 102동 1201호","indutype":"신변잡화 - 액세서리","category":"other"},{"name":"크린토피아(평택청북청옥초교점)","tel":"031-682-8988","addr":"경기도 평택시 청북읍 옥길리 1094번지 유승한내들 상가동 102호","indutype":"수리서비스 - 세탁소","category":"other"},{"name":"태양상사","tel":"070-8785-7131","addr":"경기도 평택시 청북읍 옥길리 1094번지 유승한내들 101동 104호","indutype":"수리서비스 - 가정용품수리","category":"other"}]},{"lat":"37.024184397","long":"126.92068811","imageIndex":17,"items":[{"name":"베시(BESSIE)","tel":"031-684-2773","addr":"경기도 평택시 청북읍 옥길리 246-6번지 2동 베시상점","indutype":"신변잡화 - 기타잡화","category":"other"},{"name":"크린토피아 평택청북한양수자인점","tel":"031-684-0235","addr":"경기도 평택시 청북읍 옥길리 246-6번지 101호","indutype":"수리서비스 - 세탁소","category":"other"}]},{"lat":"37.022325543","long":"126.91693675","imageIndex":17,"items":[{"name":"세븐일레븐평택이지더원점","tel":"031-1577-0711","addr":"경기도 평택시 청북읍 옥길리 1137번지 평택청북이지더원 상가 601동 107호","indutype":"유통업 영리 - 편 의 점","category":"other"},{"name":"조선수산","tel":"031-8054-0771","addr":"경기도 평택시 청북읍 옥길리 1137번지 평택청북이지더원아파트 106동 701호","indutype":"도소매업 - 수산물","category":"other"}]},{"lat":"37.017655415","long":"126.91341362","imageIndex":17,"items":[{"name":"세븐일레븐평택청북부영점","tel":"031-1577-0711","addr":"경기도 평택시 청북읍 옥길리 1104번지 부영사랑으로 상가동 1층 101호","indutype":"유통업 영리 - 편 의 점","category":"other"}]},{"lat":"37.018819825","long":"126.91615411","imageIndex":17,"items":[{"name":"슈즈크린","tel":"031-686-9994","addr":"경기도 평택시 청북읍 옥길리 1158-5번지 골드라인 116호","indutype":"수리서비스 - 세탁소","category":"other"},{"name":"슈즈크린수선","tel":"031-686-9994","addr":"경기도 평택시 청북읍 옥길리 1158-5번지 골드라인 116호","indutype":"수리서비스 - 세탁소","category":"other"},{"name":"청북애견미용실","tel":"031-683-8764","addr":"경기도 평택시 청북읍 옥길리 1158-5번지 골드라인 105호","indutype":"문화.취미 - 애완동물","category":"other"}]},{"lat":"37.018153061","long":"126.91618857","imageIndex":17,"items":[{"name":"슈즈크린 2호점","tel":"031-686-9994","addr":"경기도 평택시 청북읍 옥길리 1159-1번지 101호","indutype":"수리서비스 - 세탁소","category":"other"},{"name":"아이엠루","tel":"031-683-1127","addr":"경기도 평택시 청북읍 옥길리 1159-1번지 골든타임 112호","indutype":"의류 - 아동의류","category":"other"}]},{"lat":"37.01790207","long":"126.91799801","imageIndex":17,"items":[{"name":"아담 당구재료","tel":"031-657-0740","addr":"경기도 평택시 청북읍 옥길리 1163-1번지 403호(골드테라스3)","indutype":"레져용품 - 스포츠·레져용품","category":"other"}]},{"lat":"37.016603424","long":"126.91646002","imageIndex":17,"items":[{"name":"아이씨엔경기도","tel":"","addr":"경기도 평택시 청북읍 옥길리 1168-1번지 2층 201호","indutype":"문화.취미 - 티켓","category":"other"}]},{"lat":"37.020289696","long":"126.90597143","imageIndex":17,"items":[{"name":"아트쿡쿡 (ART cook cook)","tel":"031-616-9125","addr":"경기도 평택시 청북읍 옥길리 1071번지 평택브라운스톤 상가동 2층 203호","indutype":"문화.취미 - 문화취미기타","category":"other"}]},{"lat":"37.023345003","long":"126.9186887","imageIndex":17,"items":[{"name":"올푸레쉬","tel":"031-682-4898","addr":"경기도 평택시 청북읍 옥길리 1144번지 풍림아이원아파트 102호","indutype":"소매업 - 과일","category":"other"}]},{"lat":"37.017270499","long":"126.91685255","imageIndex":17,"items":[{"name":"위드미평택청북점","tel":"02-6916-1500","addr":"경기도 평택시 청북읍 옥길리 1162-5번지","indutype":"유통업 영리 - 편 의 점","category":"other"}]},{"lat":"37.023322888","long":"126.91310356","imageIndex":17,"items":[{"name":"장난감할인마트","tel":"031-686-7803","addr":"경기도 평택시 청북읍 옥길리 1063-3번지 1층","indutype":"서적문구 - 완구점","category":"other"}]},{"lat":"37.018960816","long":"126.91190632","imageIndex":17,"items":[{"name":"참여와나눔의교육공동체청옥초사회적협동조","tel":"031-684-2703","addr":"경기도 평택시 청북읍 옥길리 1103번지 청옥초등학교","indutype":"서적문구 - 문구용품","category":"other"}]},{"lat":"37.018406547","long":"126.91782889","imageIndex":17,"items":[{"name":"청북SG스크린골프","tel":"031-682-1700","addr":"경기도 평택시 청북읍 옥길리 1158-8번지","indutype":"레져용품 - 골프용품 전문점","category":"other"}]},{"lat":"37.023738858","long":"126.91508092","imageIndex":17,"items":[{"name":"청북문구","tel":"031-682-3693","addr":"경기도 평택시 청북읍 옥길리 1134-4번지 201층","indutype":"서적문구 - 문구용품","category":"other"}]},{"lat":"37.019819198","long":"126.91505172","imageIndex":17,"items":[{"name":"한가람문구몰 주식회사","tel":"031-681-4745","addr":"경기도 평택시 청북읍 옥길리 1157-2번지 112호","indutype":"도소매업 - 문구","category":"other"}]},{"lat":"37.024039836","long":"126.92012637","imageIndex":17,"items":[{"name":"햇님정육코너","tel":"031-683-1570","addr":"경기도 평택시 청북읍 옥길리 245-4번지","indutype":"소매업 - 정육","category":"other"}]}]