[{"lat":"37.908933742","long":"126.73201121","imageIndex":7,"items":[{"name":"DMZ 1km 사과농원","tel":"031-954-8765","addr":"경기도 파주시 군내면 백연리 603-9번지","indutype":"음료식품 - 농·축·수산품","category":"food"}]},{"lat":"37.909100374","long":"126.7300434","imageIndex":7,"items":[{"name":"장단삼백농장","tel":"031-952-9568","addr":"경기도 파주시 군내면 백연리 600-2","indutype":"음료식품 - 미곡상","category":"food"}]},{"lat":"37.905707216","long":"126.73148862","imageIndex":7,"items":[{"name":"카츄사매점","tel":"031-000-0000","addr":"경기도 파주시 군내면 백연리 480-122번지","indutype":"음료식품 - 기타음료식품","category":"food"}]},{"lat":"37.906155813","long":"126.73067966","imageIndex":7,"items":[{"name":"통일촌구판장","tel":"031-952-3477","addr":"경기도 파주시 군내면 백연리 480-1번지","indutype":"음료식품 - 기타음료식품","category":"food"},{"name":"파주통일정보화마을","tel":"070-7797-8250","addr":"경기도 파주시 군내면 백연리 480-1번지","indutype":"음료식품 - 농·축·수산품","category":"food"}]},{"lat":"37.912489283","long":"126.72678998","imageIndex":7,"items":[{"name":"파주민통선 나비농원","tel":"031-952-6666","addr":"경기도 파주시 군내면 백연리 1073","indutype":"음료식품 - 농·축·수산품","category":"food"}]},{"lat":"37.905707216","long":"126.73148862","imageIndex":16,"items":[{"name":"군내초등학교병설유치원[아이행복]","tel":"031-952-4391","addr":"경기도 파주시 군내면 백연리 480-122번지","indutype":"학원 - 유치원","category":"study"}]},{"lat":"37.906155813","long":"126.73067966","imageIndex":4,"items":[{"name":"디엠지(DMZ)카페","tel":"070-7797-8250","addr":"경기도 파주시 군내면 백연리 480-1번지","indutype":"일반휴게음식 - 서양음식","category":"restaurant"},{"name":"통일촌부녀회식당","tel":"031-952-9558","addr":"경기도 파주시 군내면 백연리 480-1번지","indutype":"일반휴게음식 - 일반한식","category":"restaurant"}]},{"lat":"37.908766766","long":"126.73384256","imageIndex":4,"items":[{"name":"정가든","tel":"031-954-1337","addr":"경기도 파주시 군내면 백연리 1500번지","indutype":"일반휴게음식 - 일반한식","category":"restaurant"}]},{"lat":"37.910513563","long":"126.73340409","imageIndex":4,"items":[{"name":"통일촌장단콩마을","tel":"031-954-3442","addr":"경기도 파주시 군내면 백연리 1475번지","indutype":"일반휴게음식 - 일반한식","category":"restaurant"}]},{"lat":"37.910513563","long":"126.73340409","imageIndex":17,"items":[{"name":"파주장단통일촌콩영농조합법인","tel":"031-953-7600","addr":"경기도 파주시 군내면 백연리 1475번지","indutype":"유통업 영리 - 기타유통업","category":"other"}]}]