[{"lat":"37.778897778","long":"126.95779515","imageIndex":5,"items":[{"name":"(주)영림","tel":"031-871-6266","addr":"경기도 양주시 백석읍 기산리 218-1 외3필지","indutype":"숙박업 - 여관/기타숙박업","category":"hotel"}]},{"lat":"37.768618501","long":"126.93947182","imageIndex":5,"items":[{"name":"대궐캠핑장","tel":"031-871-1888","addr":"경기도 양주시 백석읍 기산리 364-2번지","indutype":"숙박업 - 여관/기타숙박업","category":"hotel"}]},{"lat":"37.779005892","long":"126.95779508","imageIndex":5,"items":[{"name":"라온무인텔","tel":"031-871-6266","addr":"경기도 양주시 백석읍 기산리 216-1번지","indutype":"숙박업 - 여관/기타숙박업","category":"hotel"}]},{"lat":"37.779285125","long":"126.95763599","imageIndex":5,"items":[{"name":"리베라호텔","tel":"031-876-7555","addr":"경기도 양주시 백석읍 기산리 217-6번지","indutype":"숙박업 - 여관/기타숙박업","category":"hotel"}]},{"lat":"37.778392355","long":"126.93680732","imageIndex":5,"items":[{"name":"몽블랑","tel":"031-871-5267","addr":"경기도 양주시 백석읍 기산리 418번지","indutype":"숙박업 - 여관/기타숙박업","category":"hotel"}]},{"lat":"37.776589651","long":"126.93539007","imageIndex":5,"items":[{"name":"본설계","tel":"","addr":"경기도 양주시 백석읍 기산리 393-2번지 1층","indutype":"숙박업 - 여관/기타숙박업","category":"hotel"}]},{"lat":"37.776924688","long":"126.95777364","imageIndex":5,"items":[{"name":"수경당","tel":"031-871-3320","addr":"경기도 양주시 백석읍 기산리 182-8번지","indutype":"숙박업 - 여관/기타숙박업","category":"hotel"}]},{"lat":"37.777343384","long":"126.9467176","imageIndex":5,"items":[{"name":"수모텔","tel":"070-4147-0551","addr":"경기도 양주시 백석읍 기산리 272-2","indutype":"숙박업 - 여관/기타숙박업","category":"hotel"}]},{"lat":"37.774817037","long":"126.95929589","imageIndex":5,"items":[{"name":"시그널호텔","tel":"","addr":"경기도 양주시 백석읍 기산리 125번지","indutype":"숙박업 - 여관/기타숙박업","category":"hotel"}]},{"lat":"37.777816999","long":"126.95874928","imageIndex":5,"items":[{"name":"씨저스크라스호텔(C.C)","tel":"031-871-1401","addr":"경기도 양주시 백석읍 기산리 203-2번지","indutype":"숙박업 - 여관/기타숙박업","category":"hotel"}]},{"lat":"37.780089395","long":"126.94289012","imageIndex":5,"items":[{"name":"양주해찬솔 민박","tel":"","addr":"경기도 양주시 백석읍 기산리 306번지","indutype":"숙박업 - 여관/기타숙박업","category":"hotel"}]},{"lat":"37.776176062","long":"126.93688875","imageIndex":5,"items":[{"name":"연가","tel":"031-871-0063","addr":"경기도 양주시 백석읍 기산리 400-2","indutype":"숙박업 - 여관/기타숙박업","category":"hotel"}]},{"lat":"37.77967246","long":"126.95744279","imageIndex":5,"items":[{"name":"와이호텔","tel":"031-876-2997","addr":"경기도 양주시 백석읍 기산리 219-1번지","indutype":"숙박업 - 여관/기타숙박업","category":"hotel"}]},{"lat":"37.777118302","long":"126.94704694","imageIndex":5,"items":[{"name":"윙호텔","tel":"031-871-9206","addr":"경기도 양주시 백석읍 기산리 271번지 (271,271-3)","indutype":"숙박업 - 여관/기타숙박업","category":"hotel"}]},{"lat":"37.77067243","long":"126.93902742","imageIndex":5,"items":[{"name":"캠프리카캠핑장","tel":"","addr":"경기도 양주시 백석읍 기산리 362번지","indutype":"숙박업 - 여관/기타숙박업","category":"hotel"}]},{"lat":"37.775114745","long":"126.94019271","imageIndex":5,"items":[{"name":"코리아(KOREA)","tel":"031-876-2588","addr":"경기도 양주시 백석읍 기산리 347번지","indutype":"숙박업 - 여관/기타숙박업","category":"hotel"}]},{"lat":"37.779843499","long":"126.95707944","imageIndex":5,"items":[{"name":"팰리스모텔","tel":"031-876-7333","addr":"경기도 양주시 백석읍 기산리 220-5번지 팰리스","indutype":"숙박업 - 여관/기타숙박업","category":"hotel"},{"name":"팰리스호텔","tel":"031-876-7333","addr":"경기도 양주시 백석읍 기산리 220-5번지","indutype":"숙박업 - 여관/기타숙박업","category":"hotel"}]},{"lat":"37.782315176","long":"126.94375105","imageIndex":5,"items":[{"name":"행복한휴식1박2일","tel":"031-876-1818","addr":"경기도 양주시 백석읍 기산리 296-3","indutype":"숙박업 - 여관/기타숙박업","category":"hotel"}]},{"lat":"37.77628394","long":"126.93646867","imageIndex":5,"items":[{"name":"힐하우스 호텔","tel":"031-871-9636","addr":"경기도 양주시 백석읍 기산리 400번지","indutype":"숙박업 - 여관/기타숙박업","category":"hotel"}]}]