[{"lat":"37.2985200879","long":"127.6306662519","imageIndex":7,"items":[{"name":"가남정육점","tel":"031-884-2437","addr":"경기도 여주시 하동 125-24번지","indutype":"음료식품 - 정육점","category":"food"}]},{"lat":"37.297797701","long":"127.62755872","imageIndex":7,"items":[{"name":"가루영웅베이커리 여주점","tel":"","addr":"경기도 여주시 하동 366-2번지","indutype":"음료식품 - 제과점","category":"food"}]},{"lat":"37.299047631","long":"127.62288849","imageIndex":7,"items":[{"name":"강원정육점","tel":"031-884-4122","addr":"경기도 여주시 하동 297-1번지","indutype":"음료식품 - 정육점","category":"food"}]},{"lat":"37.2980212822","long":"127.6295793885","imageIndex":7,"items":[{"name":"건국우유여주보급소","tel":"031-884-9025","addr":"경기도 여주시 하동 136-8번지","indutype":"음료식품 - 기타음료식품","category":"food"}]},{"lat":"37.300636175","long":"127.62750324","imageIndex":7,"items":[{"name":"고려휴게실매점","tel":"031-885-2241","addr":"경기도 여주시 하동 122-2번지 하리2지구","indutype":"음료식품 - 기타음료식품","category":"food"}]},{"lat":"37.298609886","long":"127.63072339","imageIndex":7,"items":[{"name":"고향떡집","tel":"031-886-6379","addr":"경기도 여주시 하동 125-23번지","indutype":"음료식품 - 제과점","category":"food"},{"name":"두부나라","tel":"031-886-6379","addr":"경기도 여주시 하동 125-23번지","indutype":"음료식품 - 기타음료식품","category":"food"}]},{"lat":"37.298490984","long":"127.63275251","imageIndex":7,"items":[{"name":"남양유업여주가정대리점","tel":"031-884-3103","addr":"경기도 여주시 하동 190-3번지","indutype":"음료식품 - 기타음료식품","category":"food"},{"name":"서울우유여주가정대리점","tel":"031-884-3103","addr":"경기도 여주시 하동 190-3번지","indutype":"음료식품 - 기타음료식품","category":"food"}]},{"lat":"37.299356973","long":"127.63086494","imageIndex":7,"items":[{"name":"대림수산유통","tel":"031-881-3308","addr":"경기도 여주시 하동 124-12번지","indutype":"음료식품 - 기타음료식품","category":"food"}]},{"lat":"37.298497639","long":"127.63150067","imageIndex":7,"items":[{"name":"대성정육점","tel":"031-885-4887","addr":"경기도 여주시 하동 180-1번지","indutype":"음료식품 - 정육점","category":"food"}]},{"lat":"37.298075082","long":"127.63132797","imageIndex":7,"items":[{"name":"대성청과","tel":"031-883-6451","addr":"경기도 여주시 하동 322-5번지","indutype":"음료식품 - 농·축·수산품","category":"food"}]},{"lat":"37.297858684","long":"127.63305175","imageIndex":7,"items":[{"name":"대성축산","tel":"031-886-8325","addr":"경기도 여주시 하동 252-6번지","indutype":"음료식품 - 정육점","category":"food"}]},{"lat":"37.300046245","long":"127.62489301","imageIndex":7,"items":[{"name":"대왕한우축산물판매장","tel":"031-886-8695","addr":"경기도 여주시 하동 420-7번지","indutype":"음료식품 - 정육점","category":"food"}]},{"lat":"37.298221525","long":"127.62919759","imageIndex":7,"items":[{"name":"대일떡집","tel":"031-882-1769","addr":"경기도 여주시 하동 133-16번지 101호","indutype":"음료식품 - 제과점","category":"food"}]},{"lat":"37.29822205","long":"127.63079912","imageIndex":7,"items":[{"name":"대일방앗간","tel":"031-884-2272","addr":"경기도 여주시 하동 324-13번지","indutype":"음료식품 - 기타음료식품","category":"food"}]},{"lat":"37.297470054","long":"127.63158234","imageIndex":7,"items":[{"name":"더본푸드","tel":"031-886-7692","addr":"경기도 여주시 하동 320-13번지","indutype":"음료식품 - 기타음료식품","category":"food"}]},{"lat":"37.297968842","long":"127.63266921","imageIndex":7,"items":[{"name":"두부만드는사람들","tel":"031-882-6693","addr":"경기도 여주시 하동 249-15번지","indutype":"음료식품 - 기타음료식품","category":"food"}]},{"lat":"37.299024055","long":"127.63416676","imageIndex":7,"items":[{"name":"만우정육점","tel":"031-882-9631","addr":"경기도 여주시 하동 210-4번지","indutype":"음료식품 - 정육점","category":"food"}]},{"lat":"37.299077993","long":"127.63418977","imageIndex":7,"items":[{"name":"만우정육점","tel":"031-882-9631","addr":"경기도 여주시 하동 210-4번지","indutype":"음료식품 - 정육점","category":"food"}]},{"lat":"37.30118775","long":"127.62542123","imageIndex":7,"items":[{"name":"미래매점","tel":"031-880-7700","addr":"경기도 여주시 하동 435-3번지 1층 8호","indutype":"음료식품 - 기타음료식품","category":"food"}]},{"lat":"37.297908593","long":"127.63213863","imageIndex":7,"items":[{"name":"민속복떡집","tel":"032-886-1287","addr":"경기도 여주시 하동 317-3번지","indutype":"음료식품 - 제과점","category":"food"}]},{"lat":"37.2991921643","long":"127.6313598251","imageIndex":7,"items":[{"name":"백두산건강원","tel":"031-886-5771","addr":"경기도 여주시 하동 186-14번지","indutype":"건강식품 - 기타건강식품","category":"food"},{"name":"장수건강원","tel":"031-883-1150","addr":"경기도 여주시 하동 186-14번지","indutype":"건강식품 - 기타건강식품","category":"food"}]},{"lat":"37.298158204","long":"127.6309452","imageIndex":7,"items":[{"name":"백세약초","tel":"031-886-0977","addr":"경기도 여주시 하동 182-7번지","indutype":"건강식품 - 기타건강식품","category":"food"},{"name":"여주학동건강원","tel":"031-886-0977","addr":"경기도 여주시 하동 182-7번지","indutype":"건강식품 - 기타건강식품","category":"food"},{"name":"현대유통정육마트","tel":"031-886-7719","addr":"경기도 여주시 하동 182-7번지","indutype":"음료식품 - 정육점","category":"food"}]},{"lat":"37.297469466","long":"127.63338685","imageIndex":7,"items":[{"name":"브레드칸","tel":"031-886-9349","addr":"경기도 여주시 하동 258-1번지","indutype":"음료식품 - 제과점","category":"food"},{"name":"종필정육점","tel":"031-885-2522","addr":"경기도 여주시 하동 258-1번지","indutype":"음료식품 - 정육점","category":"food"}]},{"lat":"37.29729738","long":"127.63355459","imageIndex":7,"items":[{"name":"뻥튀기공작소","tel":"","addr":"경기도 여주시 하동 262번지 1층","indutype":"음료식품 - 기타음료식품","category":"food"},{"name":"젓갈나라건어물세상","tel":"031-633-7859","addr":"경기도 여주시 하동 262번지","indutype":"음료식품 - 농·축·수산품","category":"food"}]},{"lat":"37.2969098030","long":"127.6301904658","imageIndex":7,"items":[{"name":"삼성유통정육점","tel":"031-884-5632","addr":"경기도 여주시 하동 402번지","indutype":"음료식품 - 정육점","category":"food"}]},{"lat":"37.298663824","long":"127.6307464","imageIndex":7,"items":[{"name":"삼한정육점식당","tel":"031-885-6687","addr":"경기도 여주시 하동 125-22번지","indutype":"음료식품 - 정육점","category":"food"}]},{"lat":"37.299743687","long":"127.62930044","imageIndex":7,"items":[{"name":"세계유통","tel":"031-886-2809","addr":"경기도 여주시 하동 127-12번지","indutype":"음료식품 - 정육점","category":"food"},{"name":"여주하림유통","tel":"031-886-6688","addr":"경기도 여주시 하동 127-12번지","indutype":"음료식품 - 정육점","category":"food"}]},{"lat":"37.299352567","long":"127.62999646","imageIndex":7,"items":[{"name":"세광닭집","tel":"031-881-2444","addr":"경기도 여주시 하동 124-2번지","indutype":"음료식품 - 정육점","category":"food"}]},{"lat":"37.29891372","long":"127.62949657","imageIndex":7,"items":[{"name":"세종떡방아타운","tel":"031-881-3430","addr":"경기도 여주시 하동 126-19번지","indutype":"음료식품 - 기타음료식품","category":"food"}]},{"lat":"37.298830279","long":"127.63163878","imageIndex":7,"items":[{"name":"속초젓갈,손만두","tel":"031-885-8860","addr":"경기도 여주시 하동 180-1번지 A동 1층 나78호","indutype":"음료식품 - 기타음료식품","category":"food"},{"name":"여주농산","tel":"031-883-6642","addr":"경기도 여주시 하동 180-1번지 하리시장 68호","indutype":"음료식품 - 농·축·수산품","category":"food"}]},{"lat":"37.298055445","long":"127.63163233","imageIndex":7,"items":[{"name":"수은축산","tel":"031-886-5415","addr":"경기도 여주시 하동 183-5번지","indutype":"음료식품 - 정육점","category":"food"}]},{"lat":"37.29776901","long":"127.6295773","imageIndex":7,"items":[{"name":"여주녹즙지사","tel":"031-881-0062","addr":"경기도 여주시 하동 137-3번지","indutype":"건강식품 - 기타건강식품","category":"food"}]},{"lat":"37.29880429","long":"127.62974378","imageIndex":7,"items":[{"name":"여주떡방앗간","tel":"031-885-2938","addr":"경기도 여주시 하동 125-6번지","indutype":"음료식품 - 제과점","category":"food"}]},{"lat":"37.298380346","long":"127.63322528","imageIndex":7,"items":[{"name":"여주축협G한우연구회","tel":"031-884-8682","addr":"경기도 여주시 하동 247-4번지 2층","indutype":"음료식품 - 정육점","category":"food"}]},{"lat":"37.299192164","long":"127.63135983","imageIndex":7,"items":[{"name":"여주한우마을","tel":"031-885-2006","addr":"경기도 여주시 하동 186-14번지 1층","indutype":"음료식품 - 정육점","category":"food"},{"name":"현금상회","tel":"031-884-4851","addr":"경기도 여주시 하동 186-14번지","indutype":"음료식품 - 농·축·수산품","category":"food"}]},{"lat":"37.298325447","long":"127.63338272","imageIndex":7,"items":[{"name":"여흥건강원","tel":"031-884-4826","addr":"경기도 여주시 하동 247-2번지","indutype":"건강식품 - 기타건강식품","category":"food"}]},{"lat":"37.29954916","long":"127.62346782","imageIndex":7,"items":[{"name":"이은숙꽃차연구소꽃뜨리에","tel":"031-884-1751","addr":"경기도 여주시 하동 423-11번지","indutype":"음료식품 - 기타음료식품","category":"food"}]},{"lat":"37.2973876488","long":"127.6318297753","imageIndex":7,"items":[{"name":"일흥방앗간","tel":"031-885-3571","addr":"경기도 여주시 하동 314-7번지","indutype":"음료식품 - 기타음료식품","category":"food"}]},{"lat":"37.297826042","long":"127.63071688","imageIndex":7,"items":[{"name":"장보기","tel":"031-885-8800","addr":"경기도 여주시 하동 325-9번지 1층","indutype":"음료식품 - 기타음료식품","category":"food"}]},{"lat":"37.29927684","long":"127.62727771","imageIndex":7,"items":[{"name":"제이앤에스미트","tel":"031-881-3089","addr":"경기도 여주시 하동 131-3번지","indutype":"음료식품 - 정육점","category":"food"}]},{"lat":"37.300304999","long":"127.62194013","imageIndex":7,"items":[{"name":"주원산오리 로이씨앤디(로이C&D)","tel":"031-000-0000","addr":"경기도 여주시 하동 429-14번지","indutype":"음료식품 - 정육점","category":"food"}]},{"lat":"37.298407803","long":"127.62975177","imageIndex":7,"items":[{"name":"채움건강원","tel":"031-884-7093","addr":"경기도 여주시 하동 135번지","indutype":"건강식품 - 기타건강식품","category":"food"}]},{"lat":"37.299025855","long":"127.63213666","imageIndex":7,"items":[{"name":"철제건강원","tel":"031-883-1109","addr":"경기도 여주시 하동 187-2번지","indutype":"건강식품 - 기타건강식품","category":"food"}]},{"lat":"37.300439746","long":"127.62716326","imageIndex":7,"items":[{"name":"청천유통","tel":"031-882-8022","addr":"경기도 여주시 하동 129-14번지","indutype":"음료식품 - 농·축·수산품","category":"food"}]},{"lat":"37.297576401","long":"127.63021856","imageIndex":7,"items":[{"name":"태능오리유통","tel":"031-884-5251","addr":"경기도 여주시 하동 137-10번지","indutype":"음료식품 - 정육점","category":"food"}]},{"lat":"37.299524947","long":"127.62977232","imageIndex":7,"items":[{"name":"한사랑2","tel":"","addr":"경기도 여주시 하동 127-19번지 1층","indutype":"건강식품 - 기타건강식품","category":"food"}]},{"lat":"37.296993273","long":"127.63313476","imageIndex":7,"items":[{"name":"흥농영농조합법인","tel":"031-883-5957","addr":"경기도 여주시 하동 291-1번지","indutype":"음료식품 - 농·축·수산품","category":"food"}]}]