[{"lat":"38.01397564","long":"126.9083217","imageIndex":7,"items":[{"name":"개성인삼열매영농조합법인","tel":"031-835-7798","addr":"경기도 연천군 백학면 두일리 1398","indutype":"건강식품 - 인삼제품","category":"food"}]},{"lat":"38.03369864","long":"126.9232177","imageIndex":7,"items":[{"name":"광동건강원","tel":"031-835-6336","addr":"경기도 연천군 백학면 두일리 30-13번지","indutype":"건강식품 - 기타건강식품","category":"food"}]},{"lat":"38.03656341","long":"126.9230438","imageIndex":7,"items":[{"name":"비무장지대 토종꿀","tel":"031-835-5631","addr":"경기도 연천군 백학면 두일리 산 49","indutype":"건강식품 - 기타건강식품","category":"food"}]},{"lat":"38.03244877","long":"126.913993","imageIndex":7,"items":[{"name":"새말매실농원","tel":"031-572-7885","addr":"경기도 연천군 백학면 두일리 528-12","indutype":"음료식품 - 농·축·수산품","category":"food"}]},{"lat":"38.03252968","long":"126.9137651","imageIndex":4,"items":[{"name":"고향식당","tel":"031-835-5963","addr":"경기도 연천군 백학면 두일리 528-6번지","indutype":"일반휴게음식 - 일반한식","category":"restaurant"}]},{"lat":"38.03234032","long":"126.913549","imageIndex":4,"items":[{"name":"백학동네식당","tel":"031-000-0000","addr":"경기도 연천군 백학면 두일리 528-29번지","indutype":"일반휴게음식 - 일반한식","category":"restaurant"},{"name":"아침해/디엠지레클리스협동조합","tel":"031-835-5007","addr":"경기도 연천군 백학면 두일리 528-29번지","indutype":"일반휴게음식 - 서양음식","category":"restaurant"}]},{"lat":"38.0296408","long":"126.9178803","imageIndex":4,"items":[{"name":"백학면 새마을 부녀회","tel":"031-835-5066","addr":"경기도 연천군 백학면 두일리 370번지","indutype":"일반휴게음식 - 일반한식","category":"restaurant"}]},{"lat":"38.03244877","long":"126.913993","imageIndex":4,"items":[{"name":"백학식당","tel":"031-835-6264","addr":"경기도 연천군 백학면 두일리 528-12","indutype":"일반휴게음식 - 일반한식","category":"restaurant"}]},{"lat":"38.03408663","long":"126.9241058","imageIndex":4,"items":[{"name":"백학식당","tel":"031-835-5954","addr":"경기도 연천군 백학면 두일리 34-2번지","indutype":"일반휴게음식 - 일반한식","category":"restaurant"}]},{"lat":"38.03172751","long":"126.9132991","imageIndex":4,"items":[{"name":"백학춘천닭갈비","tel":"031-835-5167","addr":"경기도 연천군 백학면 두일리 530-1","indutype":"일반휴게음식 - 일반한식","category":"restaurant"}]},{"lat":"38.03036839","long":"126.9149637","imageIndex":4,"items":[{"name":"비에이치씨(BHC)","tel":"031-835-8484","addr":"경기도 연천군 백학면 두일리 1158번지 1층","indutype":"일반휴게음식 - 스넥","category":"restaurant"}]},{"lat":"38.03191748","long":"126.914324","imageIndex":4,"items":[{"name":"선비골","tel":"","addr":"경기도 연천군 백학면 두일리 528-17번지","indutype":"일반휴게음식 - 일반한식","category":"restaurant"}]},{"lat":"38.03214246","long":"126.9139934","imageIndex":4,"items":[{"name":"송영이커피숍","tel":"031-835-1477","addr":"경기도 연천군 백학면 두일리 528-9번지","indutype":"일반휴게음식 - 서양음식","category":"restaurant"}]},{"lat":"38.03183591","long":"126.9136863","imageIndex":4,"items":[{"name":"우리식당","tel":"","addr":"경기도 연천군 백학면 두일리 529-7번지","indutype":"일반휴게음식 - 일반한식","category":"restaurant"}]},{"lat":"38.03431097","long":"126.9227956","imageIndex":4,"items":[{"name":"유정식당","tel":"031-835-5173","addr":"경기도 연천군 백학면 두일리 33-1번지","indutype":"일반휴게음식 - 일반한식","category":"restaurant"}]},{"lat":"38.03111615","long":"126.9149628","imageIndex":4,"items":[{"name":"종점식당","tel":"031-835-5056","addr":"경기도 연천군 백학면 두일리 521-8번지","indutype":"일반휴게음식 - 일반한식","category":"restaurant"}]},{"lat":"38.03206099","long":"126.9134924","imageIndex":4,"items":[{"name":"페리카나","tel":"031-835-8669","addr":"경기도 연천군 백학면 두일리 967-10번지","indutype":"일반휴게음식 - 스넥","category":"restaurant"}]},{"lat":"38.03422146","long":"126.9236614","imageIndex":4,"items":[{"name":"황해금천식당","tel":"031-835-7066","addr":"경기도 연천군 백학면 두일리 33-14번지","indutype":"일반휴게음식 - 일반한식","category":"restaurant"}]},{"lat":"38.03083678","long":"126.9148492","imageIndex":17,"items":[{"name":"광성설비","tel":"031-835-2314","addr":"경기도 연천군 백학면 두일리 494-1번지","indutype":"수리서비스 - 기타수리서비스","category":"other"},{"name":"백학플라우","tel":"031-835-5103","addr":"경기도 연천군 백학면 두일리 494-1번지","indutype":"농업 - 농기계","category":"other"},{"name":"백학흥농종묘사","tel":"031-835-0345","addr":"경기도 연천군 백학면 두일리 494-1번지","indutype":"농업 - 비료,사료,종자","category":"other"},{"name":"이마트24 연천백학점","tel":"","addr":"경기도 연천군 백학면 두일리 494-1번지","indutype":"유통업 영리 - 편 의 점","category":"other"},{"name":"이마트24 연천백학점","tel":"031-111-1111","addr":"경기도 연천군 백학면 두일리 494-1번지 1층","indutype":"유통업 영리 - 편 의 점","category":"other"}]},{"lat":"38.02725192","long":"126.9158786","imageIndex":17,"items":[{"name":"다모아인력개발","tel":"031-833-3567","addr":"경기도 연천군 백학면 두일리 378-2번지","indutype":"용역 서비스 - 사무서비스","category":"other"}]},{"lat":"38.03039375","long":"126.9127654","imageIndex":17,"items":[{"name":"백학광고인쇄","tel":"031-835-1482","addr":"경기도 연천군 백학면 두일리 509-6번지","indutype":"건축자재 - 인테리어전문","category":"other"}]},{"lat":"38.03164685","long":"126.9138573","imageIndex":17,"items":[{"name":"백학농기계","tel":"031-835-2059","addr":"경기도 연천군 백학면 두일리 529-8번지","indutype":"농업 - 농기계","category":"other"}]},{"lat":"38.03247343","long":"126.9232646","imageIndex":17,"items":[{"name":"신중사","tel":"031-835-5932","addr":"경기도 연천군 백학면 두일리 9-6번지 신중사","indutype":"기타 - 기타 전문점","category":"other"}]},{"lat":"38.01042568","long":"126.9078822","imageIndex":17,"items":[{"name":"에어월드","tel":"070-8842-3358","addr":"경기도 연천군 백학면 두일리 700-11번지","indutype":"전기제품 - 냉열기기","category":"other"}]},{"lat":"38.03211073","long":"126.9198821","imageIndex":17,"items":[{"name":"일주건축설비","tel":"031-958-7303","addr":"경기도 연천군 백학면 두일리 342-3 2/2","indutype":"용역 서비스 - 기타용역서비스","category":"other"}]},{"lat":"38.03200703","long":"126.9136063","imageIndex":8,"items":[{"name":"백학종점약국","tel":"031-835-8935","addr":"경기도 연천군 백학면 두일리 529-5번지","indutype":"약국 - 약국","category":"medical"}]},{"lat":"38.02689147","long":"126.9157651","imageIndex":9,"items":[{"name":"백학주유소","tel":"031-835-2378","addr":"경기도 연천군 백학면 두일리 379-2번지 백학주유소","indutype":"연료판매점 - 현대정유(오일뱅크)","category":"oil"}]},{"lat":"38.03252968","long":"126.9137651","imageIndex":13,"items":[{"name":"쌍쌍노래연습장","tel":"031-835-4005","addr":"경기도 연천군 백학면 두일리 528-6번지","indutype":"레저업소 - 노 래 방","category":"leisure"}]},{"lat":"38.03247541","long":"126.9134918","imageIndex":7,"items":[{"name":"종점할인마트","tel":"031-835-5070","addr":"경기도 연천군 백학면 두일리 528-28번지","indutype":"유통업 영리 - 슈퍼마켓","category":"mart"}]},{"lat":"38.03072836","long":"126.9144393","imageIndex":0,"items":[{"name":"한도카센타","tel":"031-835-1083","addr":"경기도 연천군 백학면 두일리 493-5번지","indutype":"자동차정비 유지 - 자동차정비","category":"car"}]}]