[{"lat":"37.16913785","long":"126.89874462","imageIndex":4,"items":[{"name":"가본한식부페","tel":"031-353-5374","addr":"경기도 화성시 팔탄면 구장리 91번지","indutype":"일반휴게음식 - 일반한식","category":"restaurant"}]},{"lat":"37.167666267","long":"126.89551528","imageIndex":4,"items":[{"name":"간지","tel":"070-8947-4490","addr":"경기도 화성시 팔탄면 구장리 23-4번지 2층","indutype":"일반휴게음식 - 일반한식","category":"restaurant"}]},{"lat":"37.168027739","long":"126.89668572","imageIndex":4,"items":[{"name":"광릉숯불고기","tel":"031-353-3257","addr":"경기도 화성시 팔탄면 구장리 28-3번지 28-3번지,29-8번지","indutype":"일반휴게음식 - 일반한식","category":"restaurant"},{"name":"디오커피","tel":"031-352-5160","addr":"경기도 화성시 팔탄면 구장리 28-3번지","indutype":"일반휴게음식 - 서양음식","category":"restaurant"}]},{"lat":"37.163584695","long":"126.89568993","imageIndex":4,"items":[{"name":"구장한식부페","tel":"031-354-0858","addr":"경기도 화성시 팔탄면 구장리 125-5번지","indutype":"일반휴게음식 - 일반한식","category":"restaurant"},{"name":"알천한식마을","tel":"031-354-0858","addr":"경기도 화성시 팔탄면 구장리 125-5번지","indutype":"일반휴게음식 - 일반한식","category":"restaurant"}]},{"lat":"37.168133619","long":"126.89420856","imageIndex":4,"items":[{"name":"김밥나라","tel":"031-354-7429","addr":"경기도 화성시 팔탄면 구장리 21-4","indutype":"일반휴게음식 - 스넥","category":"restaurant"}]},{"lat":"37.167719633","long":"126.89474959","imageIndex":4,"items":[{"name":"까페 CAFE102","tel":"070-8947-4490","addr":"경기도 화성시 팔탄면 구장리 21번지 가동 102호","indutype":"일반휴게음식 - 서양음식","category":"restaurant"},{"name":"망향비빔국수","tel":"031-366-3738","addr":"경기도 화성시 팔탄면 구장리 21번지 가동 1층","indutype":"일반휴게음식 - 일반한식","category":"restaurant"}]},{"lat":"37.166918054","long":"126.89513353","imageIndex":4,"items":[{"name":"남원추어탕","tel":"031-352-5749","addr":"경기도 화성시 팔탄면 구장리 113-9번지","indutype":"일반휴게음식 - 일반한식","category":"restaurant"}]},{"lat":"37.168993455","long":"126.89848585","imageIndex":4,"items":[{"name":"논뚜렁 미꾸라지 매운탕","tel":"031-354-5292","addr":"경기도 화성시 팔탄면 구장리 91-2번지","indutype":"일반휴게음식 - 일반한식","category":"restaurant"}]},{"lat":"37.165800734","long":"126.90551574","imageIndex":4,"items":[{"name":"다감","tel":"031-354-9282","addr":"경기도 화성시 팔탄면 구장리 701번지","indutype":"일반휴게음식 - 일반한식","category":"restaurant"}]},{"lat":"37.158362082","long":"126.89956996","imageIndex":4,"items":[{"name":"달구지","tel":"031-354-9267","addr":"경기도 화성시 팔탄면 구장리 514번지","indutype":"일반휴게음식 - 일반한식","category":"restaurant"}]},{"lat":"37.170418686","long":"126.90029667","imageIndex":4,"items":[{"name":"대가한식부페","tel":"031-366-0636","addr":"경기도 화성시 팔탄면 구장리 67번지","indutype":"일반휴게음식 - 일반한식","category":"restaurant"},{"name":"웰빙한식부페","tel":"031-366-0636","addr":"경기도 화성시 팔탄면 구장리 67번지","indutype":"일반휴게음식 - 일반한식","category":"restaurant"}]},{"lat":"37.16158247","long":"126.90385494","imageIndex":4,"items":[{"name":"덕이네분식","tel":"031-354-5043","addr":"경기도 화성시 팔탄면 구장리 555-1번지","indutype":"일반휴게음식 - 스넥","category":"restaurant"},{"name":"옥천왕족발","tel":"031-359-8365","addr":"경기도 화성시 팔탄면 구장리 555-1번지","indutype":"일반휴게음식 - 일반한식","category":"restaurant"}]},{"lat":"37.161888891","long":"126.90393335","imageIndex":4,"items":[{"name":"돈이랑해물이랑","tel":"031-235-3994","addr":"경기도 화성시 팔탄면 구장리 564-3번지 1층","indutype":"일반휴게음식 - 일반한식","category":"restaurant"},{"name":"복돼지생삽겹살","tel":"031-352-6940","addr":"경기도 화성시 팔탄면 구장리 564-3번지 문영빌딩","indutype":"일반휴게음식 - 일반한식","category":"restaurant"},{"name":"오니오니","tel":"031-8059-0401","addr":"경기도 화성시 팔탄면 구장리 564-3번지","indutype":"일반휴게음식 - 일반한식","category":"restaurant"}]},{"lat":"37.16655087","long":"126.90831825","imageIndex":4,"items":[{"name":"동촌","tel":"031-352-3575","addr":"경기도 화성시 팔탄면 구장리 711-1번지","indutype":"일반휴게음식 - 일반한식","category":"restaurant"}]},{"lat":"37.167638529","long":"126.89473844","imageIndex":4,"items":[{"name":"동태매운탕전문점","tel":"031-111-1111","addr":"경기도 화성시 팔탄면 구장리 21번지 2층 202호","indutype":"일반휴게음식 - 일반한식","category":"restaurant"},{"name":"양평해장국","tel":"031-353-5303","addr":"경기도 화성시 팔탄면 구장리 21번지","indutype":"일반휴게음식 - 일반한식","category":"restaurant"}]},{"lat":"37.171330474","long":"126.89221102","imageIndex":4,"items":[{"name":"디씨티 커피 (DCT COFFEE)","tel":"031-111-1111","addr":"경기도 화성시 팔탄면 구장리 3-1번지 로비층 1호","indutype":"일반휴게음식 - 서양음식","category":"restaurant"},{"name":"서촌숯불직화구이","tel":"031-354-4000","addr":"경기도 화성시 팔탄면 구장리 3-1번지 로비층 6호","indutype":"일반휴게음식 - 일반한식","category":"restaurant"},{"name":"한방전주콩나물국밥/주식회사 드림즈컴트루","tel":"031-366-2206","addr":"경기도 화성시 팔탄면 구장리 3-1번지 로비층 1호,2호,3호,9호 (DCT-MALL)","indutype":"일반휴게음식 - 일반한식","category":"restaurant"}]},{"lat":"37.16935884","long":"126.89399287","imageIndex":4,"items":[{"name":"류가네고기부페","tel":"031-8059-9991","addr":"경기도 화성시 팔탄면 구장리 38-31번지 2층","indutype":"일반휴게음식 - 일반한식","category":"restaurant"}]},{"lat":"37.161384494","long":"126.90415917","imageIndex":4,"items":[{"name":"마루한식","tel":"031-8059-7799","addr":"경기도 화성시 팔탄면 구장리 564-2번지","indutype":"일반휴게음식 - 일반한식","category":"restaurant"}]},{"lat":"37.17061029","long":"126.89291016","imageIndex":4,"items":[{"name":"맛깔한식부페","tel":"031-352-3477","addr":"경기도 화성시 팔탄면 구장리 4번지 C동 1층","indutype":"일반휴게음식 - 일반한식","category":"restaurant"}]},{"lat":"37.162387381","long":"126.896885","imageIndex":4,"items":[{"name":"명품한식부페","tel":"031-366-5113","addr":"경기도 화성시 팔탄면 구장리 143번지","indutype":"일반휴게음식 - 일반한식","category":"restaurant"}]},{"lat":"37.161085546","long":"126.91349254","imageIndex":4,"items":[{"name":"목포식당","tel":"031-366-0275","addr":"경기도 화성시 팔탄면 구장리 917-9번지","indutype":"일반휴게음식 - 일반한식","category":"restaurant"},{"name":"화성명가","tel":"031-353-7867","addr":"경기도 화성시 팔탄면 구장리 917-9번지","indutype":"일반휴게음식 - 일반한식","category":"restaurant"}]},{"lat":"37.16819037","long":"126.89718089","imageIndex":4,"items":[{"name":"밀알왕순대 ( 팔탄점)","tel":"031-352-0484","addr":"경기도 화성시 팔탄면 구장리 28-1번지 2동 4,5호","indutype":"일반휴게음식 - 일반한식","category":"restaurant"},{"name":"심봤다 두루치기","tel":"031-366-5778","addr":"경기도 화성시 팔탄면 구장리 28-1번지","indutype":"일반휴게음식 - 일반한식","category":"restaurant"}]},{"lat":"37.16760258","long":"126.89483982","imageIndex":4,"items":[{"name":"베이크스토리 화성팔탄점","tel":"031-353-1202","addr":"경기도 화성시 팔탄면 구장리 21번지 나동 2층","indutype":"일반휴게음식 - 서양음식","category":"restaurant"},{"name":"육수당 화성팔탄점","tel":"031-3535-1412","addr":"경기도 화성시 팔탄면 구장리 21번지 나동 1층","indutype":"일반휴게음식 - 일반한식","category":"restaurant"}]},{"lat":"37.161222765","long":"126.90471103","imageIndex":4,"items":[{"name":"부가네의정부부대찌개","tel":"070-0000-0000","addr":"경기도 화성시 팔탄면 구장리 556-4번지","indutype":"일반휴게음식 - 일반한식","category":"restaurant"}]},{"lat":"37.165918397","long":"126.89568663","imageIndex":4,"items":[{"name":"부안낙지마당","tel":"031-8059-0608","addr":"경기도 화성시 팔탄면 구장리 113-11번지 2층 202호","indutype":"일반휴게음식 - 일반한식","category":"restaurant"},{"name":"의정부부대찌개","tel":"031-352-2505","addr":"경기도 화성시 팔탄면 구장리 113-11번지","indutype":"일반휴게음식 - 일반한식","category":"restaurant"},{"name":"탄불이한우국밥","tel":"031-354-3021","addr":"경기도 화성시 팔탄면 구장리 113-11번지 1층","indutype":"일반휴게음식 - 일반한식","category":"restaurant"}]},{"lat":"37.161022702","long":"126.91379658","imageIndex":4,"items":[{"name":"산모롱이","tel":"031-354-5022","addr":"경기도 화성시 팔탄면 구장리 917-11번지","indutype":"일반휴게음식 - 일반한식","category":"restaurant"}]},{"lat":"37.155024717","long":"126.89563447","imageIndex":4,"items":[{"name":"서해정","tel":"031-366-2664","addr":"경기도 화성시 팔탄면 구장리 208-1번지 1층","indutype":"일반휴게음식 - 일반한식","category":"restaurant"}]},{"lat":"37.168910316","long":"126.89618908","imageIndex":4,"items":[{"name":"소하한식부페","tel":"031-353-8706","addr":"경기도 화성시 팔탄면 구장리 32-1번지","indutype":"일반휴게음식 - 일반한식","category":"restaurant"}]},{"lat":"37.161384193","long":"126.90379891","imageIndex":4,"items":[{"name":"술이있어서카.이야기가있어서톡","tel":"031-354-7371","addr":"경기도 화성시 팔탄면 구장리 555-4","indutype":"일반휴게음식 - 스넥","category":"restaurant"}]},{"lat":"37.167306155","long":"126.89585356","imageIndex":4,"items":[{"name":"신촌설렁탕","tel":"031-366-0760","addr":"경기도 화성시 팔탄면 구장리 23-6번지","indutype":"일반휴게음식 - 일반한식","category":"restaurant"}]},{"lat":"37.160975054","long":"126.91040795","imageIndex":4,"items":[{"name":"어구이","tel":"031-352-2760","addr":"경기도 화성시 팔탄면 구장리 888번지 1층","indutype":"일반휴게음식 - 일반한식","category":"restaurant"}]},{"lat":"37.161584008","long":"126.90571254","imageIndex":4,"items":[{"name":"어울마당","tel":"031-352-1340","addr":"경기도 화성시 팔탄면 구장리 785번지","indutype":"일반휴게음식 - 일반한식","category":"restaurant"}]},{"lat":"37.166611792","long":"126.8952353","imageIndex":4,"items":[{"name":"연평도아구,꽃게","tel":"031-366-2528","addr":"경기도 화성시 팔탄면 구장리 113-15","indutype":"일반휴게음식 - 일반한식","category":"restaurant"}]},{"lat":"37.167305092","long":"126.89468262","imageIndex":4,"items":[{"name":"옛날김치돼지찌개","tel":"031-354-0183","addr":"경기도 화성시 팔탄면 구장리 113-6번지 1층","indutype":"일반휴게음식 - 일반한식","category":"restaurant"}]},{"lat":"37.149532097","long":"126.89987464","imageIndex":4,"items":[{"name":"옛날서서갈비","tel":"031-352-9332","addr":"경기도 화성시 팔탄면 구장리 1014-8번지 1층","indutype":"일반휴게음식 - 일반한식","category":"restaurant"}]},{"lat":"37.158805352","long":"126.90160701","imageIndex":4,"items":[{"name":"우미1등한우식당","tel":"031-8059-2901","addr":"경기도 화성시 팔탄면 구장리 521-3번지 1층","indutype":"일반휴게음식 - 일반한식","category":"restaurant"}]},{"lat":"37.161556179","long":"126.90474437","imageIndex":4,"items":[{"name":"원풍낙지","tel":"031-354-2555","addr":"경기도 화성시 팔탄면 구장리 556-1번지","indutype":"일반휴게음식 - 일반한식","category":"restaurant"}]},{"lat":"37.165744525","long":"126.89277085","imageIndex":4,"items":[{"name":"위니드푸드","tel":"031-354-7275","addr":"경기도 화성시 팔탄면 구장리 127-2번지 3동 1층","indutype":"일반휴게음식 - 일반한식","category":"restaurant"}]},{"lat":"37.161662672","long":"126.9140998","imageIndex":4,"items":[{"name":"인정가마솥옻닭","tel":"031-353-4593","addr":"경기도 화성시 팔탄면 구장리 917-14번지","indutype":"일반휴게음식 - 일반한식","category":"restaurant"}]},{"lat":"37.161024236","long":"126.90435103","imageIndex":4,"items":[{"name":"자금성","tel":"031-353-5782","addr":"경기도 화성시 팔탄면 구장리 556-2번지","indutype":"일반휴게음식 - 중국식","category":"restaurant"}]},{"lat":"37.158558997","long":"126.89807241","imageIndex":4,"items":[{"name":"전라도부페","tel":"031-8059-6116","addr":"경기도 화성시 팔탄면 구장리 179-1번지","indutype":"일반휴게음식 - 일반한식","category":"restaurant"}]},{"lat":"37.16746817","long":"126.89566193","imageIndex":4,"items":[{"name":"전주콩나물국밥","tel":"031-354-9971","addr":"경기도 화성시 팔탄면 구장리 23-8번지","indutype":"일반휴게음식 - 일반한식","category":"restaurant"},{"name":"추오정남원추어탕","tel":"031-353-7925","addr":"경기도 화성시 팔탄면 구장리 23-8번지","indutype":"일반휴게음식 - 일반한식","category":"restaurant"}]},{"lat":"37.160474045","long":"126.90368752","imageIndex":4,"items":[{"name":"정원식당","tel":"031-352-6400","addr":"경기도 화성시 팔탄면 구장리 527-33번지","indutype":"일반휴게음식 - 일반한식","category":"restaurant"}]},{"lat":"37.159915228","long":"126.90348561","imageIndex":4,"items":[{"name":"족보있는송가네","tel":"031-354-0558","addr":"경기도 화성시 팔탄면 구장리 526-8번지","indutype":"일반휴게음식 - 일반한식","category":"restaurant"}]},{"lat":"37.164054533","long":"126.89713036","imageIndex":4,"items":[{"name":"좋은날","tel":"031-883-3401","addr":"경기도 화성시 팔탄면 구장리 146-4번지","indutype":"일반휴게음식 - 서양음식","category":"restaurant"}]},{"lat":"37.168105236","long":"126.89274491","imageIndex":4,"items":[{"name":"진수성찬","tel":"031-353-2761","addr":"경기도 화성시 팔탄면 구장리 127-84번지 F동 2층 201호,202호,203호","indutype":"일반휴게음식 - 일반한식","category":"restaurant"}]},{"lat":"37.172474694","long":"126.9021968","imageIndex":4,"items":[{"name":"차이홍","tel":"031-354-2624","addr":"경기도 화성시 팔탄면 구장리 75-29번지 A동 8호","indutype":"일반휴게음식 - 중국식","category":"restaurant"}]},{"lat":"37.160717346","long":"126.90370972","imageIndex":4,"items":[{"name":"처갓집양념치킨팔탄점","tel":"031-352-6787","addr":"경기도 화성시 팔탄면 구장리 527-30번지 1층","indutype":"일반휴게음식 - 스넥","category":"restaurant"}]},{"lat":"37.160940111","long":"126.91182651","imageIndex":4,"items":[{"name":"케이투에이치","tel":"031-354-6676","addr":"경기도 화성시 팔탄면 구장리 893번지 (1층 일부 (104호) 2층 일부 (202호))","indutype":"일반휴게음식 - 서양음식","category":"restaurant"}]},{"lat":"37.169805351","long":"126.8995769","imageIndex":4,"items":[{"name":"코코왕돈가스","tel":"","addr":"경기도 화성시 팔탄면 구장리 86번지 1층 5호","indutype":"일반휴게음식 - 서양음식","category":"restaurant"}]},{"lat":"37.163446293","long":"126.90226507","imageIndex":4,"items":[{"name":"팔탄가든","tel":"031-354-5780","addr":"경기도 화성시 팔탄면 구장리 607-5번지","indutype":"일반휴게음식 - 일반한식","category":"restaurant"}]},{"lat":"37.170140688","long":"126.89177364","imageIndex":4,"items":[{"name":"팔탄반점","tel":"031-354-5282","addr":"경기도 화성시 팔탄면 구장리 3-22번지 1층","indutype":"일반휴게음식 - 중국식","category":"restaurant"}]},{"lat":"37.149081457","long":"126.89974017","imageIndex":4,"items":[{"name":"풍년순대국족발","tel":"031-8059-0898","addr":"경기도 화성시 팔탄면 구장리 1015-24번지","indutype":"일반휴게음식 - 일반한식","category":"restaurant"}]},{"lat":"37.155336328","long":"126.91276758","imageIndex":4,"items":[{"name":"한샘한식뷔페","tel":"031-352-6512","addr":"경기도 화성시 팔탄면 구장리 957번지","indutype":"일반휴게음식 - 일반한식","category":"restaurant"}]},{"lat":"37.155915484","long":"126.91609907","imageIndex":4,"items":[{"name":"행복한밥상","tel":"031-352-7136","addr":"경기도 화성시 팔탄면 구장리 949-18번지","indutype":"일반휴게음식 - 위탁급식업","category":"restaurant"}]},{"lat":"37.161970705","long":"126.90480013","imageIndex":4,"items":[{"name":"화성시니어클럽 노노카페 (팔탄면사무소점)","tel":"031-8059-4349","addr":"경기도 화성시 팔탄면 구장리 563번지","indutype":"일반휴게음식 - 서양음식","category":"restaurant"}]},{"lat":"37.16114044","long":"126.90323632","imageIndex":4,"items":[{"name":"화성지역자활센터토리빈","tel":"031-8047-0333","addr":"경기도 화성시 팔탄면 구장리 530-1번지 다동 1층","indutype":"일반휴게음식 - 서양음식","category":"restaurant"}]}]