[{"lat":"37.248374182","long":"126.98313503","imageIndex":16,"items":[{"name":"Good Study공부방","tel":"031-292-6535","addr":"경기도 수원시 권선구 고색동 290-99번지 환희빌라 B동 203호","indutype":"회원제형태 - 학원","category":"study"}]},{"lat":"37.247688483","long":"126.97825487","imageIndex":16,"items":[{"name":"경희대꿈태권도장","tel":"031-292-3045","addr":"경기도 수원시 권선구 고색동 915번지 우림필유 상가동 301,302호","indutype":"학원 - 예·체능계학원","category":"study"},{"name":"다울피아노교습소","tel":"031-298-6002","addr":"경기도 수원시 권선구 고색동 915번지 우림필유 상가동 203호","indutype":"학원 - 예·체능계학원","category":"study"},{"name":"대한체육관","tel":"031-292-3045","addr":"경기도 수원시 권선구 고색동 915번지 우림필유","indutype":"학원 - 예·체능계학원","category":"study"},{"name":"삼공삼공영어수원고색센터영어교습소","tel":"031-227-0507","addr":"경기도 수원시 권선구 고색동 915번지 우림필유 상가동 204호","indutype":"학원 - 외국어학원","category":"study"},{"name":"수학의달인고색점 수학교습소","tel":"031-302-6543","addr":"경기도 수원시 권선구 고색동 915번지 우림필유 105호","indutype":"학원 - 보습학원","category":"study"},{"name":"아트팜미술교습소","tel":"031-297-3217","addr":"경기도 수원시 권선구 고색동 915번지 우림필유 상가동 103호","indutype":"학원 - 예·체능계학원","category":"study"},{"name":"아트팜미술교습소","tel":"031-297-3217","addr":"경기도 수원시 권선구 고색동 915번지 우림필유단지내상가 103호","indutype":"학원 - 예·체능계학원","category":"study"}]},{"lat":"37.253654102","long":"126.98240098","imageIndex":16,"items":[{"name":"고색고등학교","tel":"031-8012-6804","addr":"경기도 수원시 권선구 고색동 888-158번지 고색고등학교","indutype":"학원 - 초중고교육기관","category":"study"},{"name":"고색고등학교_수업료","tel":"031-8012-6804","addr":"경기도 수원시 권선구 고색동 888-158번지 고색고등학교","indutype":"학원 - 초중고교육기관","category":"study"}]},{"lat":"37.251014136","long":"126.98272856","imageIndex":16,"items":[{"name":"고색정보컴퓨터학원","tel":"031-295-5544","addr":"경기도 수원시 권선구 고색동 49-20번지 신한빌딩 5층","indutype":"회원제형태 - 학원","category":"study"},{"name":"서수원아이티학원","tel":"031-295-5544","addr":"경기도 수원시 권선구 고색동 49-20번지","indutype":"회원제형태 - 학원","category":"study"}]},{"lat":"37.253401604","long":"126.98122877","imageIndex":16,"items":[{"name":"고색중학교","tel":"031-295-9474","addr":"경기도 수원시 권선구 고색동 888-92번지 고색중학교","indutype":"학원 - 초중고교육기관","category":"study"}]},{"lat":"37.251292742","long":"126.97889617","imageIndex":16,"items":[{"name":"고색초등학교","tel":"031-293-5435","addr":"경기도 수원시 권선구 고색동 887-59번지 고색초등학교","indutype":"학원 - 초중고교육기관","category":"study"}]},{"lat":"37.249707536","long":"126.98212026","imageIndex":16,"items":[{"name":"고색평강어린이집","tel":"031-292-3847","addr":"경기도 수원시 권선구 고색동 53-6번지","indutype":"학원 - 유아원","category":"study"},{"name":"고색평강어린이집[아이행복]","tel":"031-294-0691","addr":"경기도 수원시 권선구 고색동 53-6번지","indutype":"학원 - 유아원","category":"study"},{"name":"고색평강어린이집[아이행복]","tel":"031-292-3847","addr":"경기도 수원시 권선구 고색동 53-6번지","indutype":"학원 - 유아원","category":"study"}]},{"lat":"37.248771367","long":"126.98815058","imageIndex":16,"items":[{"name":"고현초등학교","tel":"031-291-4296","addr":"경기도 수원시 권선구 고색동 280번지 고현초등학교","indutype":"학원 - 초중고교육기관","category":"study"}]},{"lat":"37.252041623","long":"126.98464447","imageIndex":16,"items":[{"name":"공부가잘되는독서실","tel":"031-228-6865","addr":"경기도 수원시 권선구 고색동 38-4,2,3층","indutype":"학원 - 기타 교육기관","category":"study"}]},{"lat":"37.251401508","long":"126.98231141","imageIndex":16,"items":[{"name":"늘품상담사회적협동조합 고색지점","tel":"031-292-1595","addr":"경기도 수원시 권선구 고색동 890-149번지 2층 203호","indutype":"학원 - 기타 교육기관","category":"study"}]},{"lat":"37.251851754","long":"126.98081217","imageIndex":16,"items":[{"name":"다사랑유치원[아이행복]","tel":"031-295-0307","addr":"경기도 수원시 권선구 고색동 890-25","indutype":"학원 - 유치원","category":"study"}]},{"lat":"37.250130163","long":"126.97770178","imageIndex":16,"items":[{"name":"멜로디음악학원","tel":"031-297-6197","addr":"경기도 수원시 권선구 고색동 390-2번지 희원프라자 304호","indutype":"학원 - 예·체능계학원","category":"study"},{"name":"월드용접기술학원","tel":"031-294-8466","addr":"경기도 수원시 권선구 고색동 390-2번지 3층 306호","indutype":"학원 - 기능학원","category":"study"},{"name":"청담클루빌러닝영수전문학원","tel":"031-293-9222","addr":"경기도 수원시 권선구 고색동 390-2번지 3층 389-5호 외2필지 301,304호","indutype":"회원제형태 - 학원","category":"study"}]},{"lat":"37.252266612","long":"126.98297621","imageIndex":16,"items":[{"name":"뮤직컴스토리","tel":"070-8806-7865","addr":"경기도 수원시 권선구 고색동 890-200번지 2층","indutype":"학원 - 기타 교육기관","category":"study"}]},{"lat":"37.248185519","long":"126.9867869","imageIndex":16,"items":[{"name":"새한별어린이집[아이행복]","tel":"031-291-1578","addr":"경기도 수원시 권선구 고색동 282-56번지","indutype":"학원 - 유아원","category":"study"}]},{"lat":"37.247825001","long":"126.98603182","imageIndex":16,"items":[{"name":"새한별음악보습학원","tel":"031-295-1578","addr":"경기도 수원시 권선구 고색동 306-1 거산상가202호~206호 202","indutype":"학원 - 예·체능계학원","category":"study"}]},{"lat":"37.240208908","long":"126.97381697","imageIndex":16,"items":[{"name":"시립고색뉴지엄어린이집[아이행복]","tel":"031-227-2049","addr":"경기도 수원시 권선구 고색동 979번지","indutype":"학원 - 유아원","category":"study"}]},{"lat":"37.249824021","long":"126.97870502","imageIndex":16,"items":[{"name":"심검도","tel":"031-295-7601","addr":"경기도 수원시 권선구 고색동 388-11번지","indutype":"학원 - 예·체능계학원","category":"study"}]},{"lat":"37.247518282","long":"126.9836199","imageIndex":16,"items":[{"name":"아이노리교육","tel":"070-7774-4631","addr":"경기도 수원시 권선구 고색동 290-76번지","indutype":"학원 - 기타 교육기관","category":"study"}]},{"lat":"37.255014747","long":"126.98291912","imageIndex":16,"items":[{"name":"안젤로어린이집[아이행복]","tel":"031-293-5252","addr":"경기도 수원시 권선구 고색동 888-76번지","indutype":"학원 - 유아원","category":"study"},{"name":"안젤로어린이집[아이행복]","tel":"031-293-5252","addr":"경기도 수원시 권선구 고색동 888-76번지","indutype":"학원 - 유아원","category":"study"}]},{"lat":"37.249905169","long":"126.97897551","imageIndex":16,"items":[{"name":"애드온고색학원","tel":"031-292-0594","addr":"경기도 수원시 권선구 고색동 380-1번지 3층","indutype":"학원 - 보습학원","category":"study"}]},{"lat":"37.24957164","long":"126.97825425","imageIndex":16,"items":[{"name":"양지아인스학원","tel":"031-278-3545","addr":"경기도 수원시 권선구 고색동 390-12번지","indutype":"학원 - 보습학원","category":"study"}]},{"lat":"37.247607488","long":"126.97872827","imageIndex":16,"items":[{"name":"우림필유어린이집[아이행복]","tel":"031-8013-7244","addr":"경기도 수원시 권선구 고색동 915번지 우림필유 102동 102호","indutype":"학원 - 유아원","category":"study"},{"name":"우림필유어린이집[아이행복]","tel":"031-8013-7244","addr":"경기도 수원시 권선구 고색동 915번지 우림필유 102동 102호","indutype":"학원 - 유아원","category":"study"}]},{"lat":"37.246959309","long":"126.98167018","imageIndex":16,"items":[{"name":"주영음악학원","tel":"031-293-2012","addr":"경기도 수원시 권선구 고색동 74-78번지 1층","indutype":"학원 - 예·체능계학원","category":"study"}]},{"lat":"37.248437414","long":"126.9841156","imageIndex":16,"items":[{"name":"천재메릭스수학교습소","tel":"031-291-2297","addr":"경기도 수원시 권선구 고색동 291번지 대원아파트 107호","indutype":"학원 - 보습학원","category":"study"}]},{"lat":"37.249571507","long":"126.97762306","imageIndex":16,"items":[{"name":"청림학원","tel":"031-291-2405","addr":"경기도 수원시 권선구 고색동 408-23번지 3층5층","indutype":"학원 - 기타 교육기관","category":"study"}]},{"lat":"37.247292559","long":"126.98094875","imageIndex":16,"items":[{"name":"크로바어린이집[아이행복]","tel":"031-295-0066","addr":"경기도 수원시 권선구 고색동 74-99번지","indutype":"학원 - 유아원","category":"study"}]},{"lat":"37.251771123","long":"126.98344974","imageIndex":16,"items":[{"name":"톤드바디댄스스포츠","tel":"031-244-3563","addr":"경기도 수원시 권선구 고색동 40-1번지 남영빌딩 202호","indutype":"학원 - 예·체능계학원","category":"study"}]},{"lat":"37.251013759","long":"126.9806208","imageIndex":16,"items":[{"name":"한우리고색독서논술학원","tel":"031-295-5579","addr":"경기도 수원시 권선구 고색동 384-1번지 2층","indutype":"학원 - 기타 교육기관","category":"study"}]},{"lat":"37.247103051","long":"126.97942723","imageIndex":16,"items":[{"name":"해야학교","tel":"031-295-1199","addr":"경기도 수원시 권선구 고색동 373-20번지 대우프라자 302호","indutype":"학원 - 기타 교육기관","category":"study"}]},{"lat":"37.252401842","long":"126.98342704","imageIndex":16,"items":[{"name":"햇님음악학원","tel":"031-291-5345","addr":"경기도 수원시 권선구 고색동 890-292번지","indutype":"학원 - 예·체능계학원","category":"study"}]},{"lat":"37.249319128","long":"126.97720611","imageIndex":16,"items":[{"name":"행복한어린이집[아이행복]","tel":"031-293-9149","addr":"경기도 수원시 권선구 고색동 407-19번지","indutype":"학원 - 유아원","category":"study"}]}]