[{"lat":"37.3915025546","long":"127.0130339023","imageIndex":17,"items":[{"name":"(주) 그린필드","tel":"031-426-2611","addr":"경기도 의왕시 학의동 160-3번지","indutype":"문화.취미 - 화원","category":"other"}]},{"lat":"37.3870601640","long":"127.0170306069","imageIndex":17,"items":[{"name":"(주)앨앤씨바이오텍","tel":"031-421-4580","addr":"경기도 의왕시 학의동 75번지","indutype":"회원제형태 - 기타4","category":"other"}]},{"lat":"37.3885558453","long":"127.0169970116","imageIndex":17,"items":[{"name":"(주)케이에스디성대환경시험연구원","tel":"031-1577-4446","addr":"경기도 의왕시 학의동 92번지 1층","indutype":"용역 서비스 - 사무서비스","category":"other"}]},{"lat":"37.3850246351","long":"126.9982750245","imageIndex":17,"items":[{"name":"Bliss Bloom","tel":"031-426-0001","addr":"경기도 의왕시 학의동 246-11","indutype":"문화.취미 - 화원","category":"other"},{"name":"기향란원","tel":"031-426-5489","addr":"경기도 의왕시 학의동 246-11","indutype":"문화.취미 - 화원","category":"other"}]},{"lat":"37.3740859820","long":"127.0133363833","imageIndex":17,"items":[{"name":"GS25의왕바라산점","tel":"","addr":"경기도 의왕시 학의동 818-13번지 골드클래스 상가 B104,B105호","indutype":"유통업 영리 - 편 의 점","category":"other"}]},{"lat":"37.3705544647","long":"127.0043044198","imageIndex":17,"items":[{"name":"GS25의왕백운밸리점","tel":"","addr":"경기도 의왕시 학의동 687-2번지 효성해링턴플레이스1단지 상가동 104, 105호","indutype":"유통업 영리 - 편 의 점","category":"other"},{"name":"백운통신","tel":"031-421-8877","addr":"경기도 의왕시 학의동 687-2번지 효성해링턴플레이스1단지 상가동 09호","indutype":"사무통신 - 통신기기","category":"other"}]},{"lat":"37.3913045828","long":"127.0094993379","imageIndex":17,"items":[{"name":"골드배스","tel":"031-425-8970","addr":"경기도 의왕시 학의동 207번지 1층","indutype":"레져용품 - 스포츠·레져용품","category":"other"}]},{"lat":"37.3843939403","long":"126.9986138057","imageIndex":17,"items":[{"name":"금강농원","tel":"031-422-6429","addr":"경기도 의왕시 학의동 340-68","indutype":"문화.취미 - 화원","category":"other"}]},{"lat":"37.3837271272","long":"126.9970895158","imageIndex":17,"items":[{"name":"금강산분재원","tel":"031-426-3856","addr":"경기도 의왕시 학의동 253 (학의로 616)","indutype":"문화.취미 - 화원","category":"other"},{"name":"동원분재원","tel":"031-426-3858","addr":"경기도 의왕시 학의동 253번지","indutype":"문화.취미 - 화원","category":"other"},{"name":"수목원","tel":"031-426-2991","addr":"경기도 의왕시 학의동 253","indutype":"문화.취미 - 화원","category":"other"},{"name":"영광분재","tel":"031-426-8484","addr":"경기도 의왕시 학의동 253번지 청계분재 2호","indutype":"문화.취미 - 화원","category":"other"},{"name":"풀빛세상","tel":"031-426-2669","addr":"경기도 의왕시 학의동 253번지 청계분재촌 13호","indutype":"문화.취미 - 화원","category":"other"},{"name":"효림분재조경","tel":"031-424-1350","addr":"경기도 의왕시 학의동 253","indutype":"건축자재 - 인테리어전문","category":"other"}]},{"lat":"37.3845831389","long":"126.9982524687","imageIndex":17,"items":[{"name":"금강화훼유통","tel":"031-422-6429","addr":"경기도 의왕시 학의동 340-22","indutype":"문화.취미 - 화원","category":"other"}]},{"lat":"37.3828351903","long":"126.9985913118","imageIndex":17,"items":[{"name":"꽃동네화훼총판","tel":"031-421-8701","addr":"경기도 의왕시 학의동 259-3","indutype":"문화.취미 - 화원","category":"other"},{"name":"백운호수난원","tel":"031-424-4475","addr":"경기도 의왕시 학의동 259-3","indutype":"문화.취미 - 화원","category":"other"}]},{"lat":"37.3700588053","long":"127.0080072904","imageIndex":17,"items":[{"name":"남대문꽃집","tel":"02-814-2242","addr":"경기도 의왕시 학의동 738","indutype":"문화.취미 - 화원","category":"other"}]},{"lat":"37.3845560986","long":"126.9980040587","imageIndex":17,"items":[{"name":"다육하우스","tel":"031-465-4611","addr":"경기도 의왕시 학의동 340-10","indutype":"문화.취미 - 화원","category":"other"}]},{"lat":"37.3869429341","long":"127.0178323026","imageIndex":17,"items":[{"name":"더 크로팅 카페 65","tel":"02-2233-1007","addr":"경기도 의왕시 학의동 65번지","indutype":"의류 - 내의판매","category":"other"}]},{"lat":"37.3838082781","long":"126.9984783430","imageIndex":17,"items":[{"name":"로뎀플라워","tel":"031-426-8941","addr":"경기도 의왕시 학의동 256","indutype":"문화.취미 - 화원","category":"other"}]},{"lat":"37.3836640966","long":"127.0078049712","imageIndex":17,"items":[{"name":"마더스가든(Mother'sGarden)","tel":"031-426-2626","addr":"경기도 의왕시 학의동 392-1번지","indutype":"문화.취미 - 화원","category":"other"},{"name":"마더스허브가든","tel":"031-426-2626","addr":"경기도 의왕시 학의동 392-1번지 허브와토마토 가동 1층","indutype":"신변잡화 - 기타잡화","category":"other"}]},{"lat":"37.3829974501","long":"127.0031642415","imageIndex":17,"items":[{"name":"미림상회","tel":"031-426-3047","addr":"경기도 의왕시 학의동 산76-11","indutype":"유통업 영리 - 기타유통업","category":"other"}]},{"lat":"37.3911154377","long":"127.0081668152","imageIndex":17,"items":[{"name":"뿌리깊은나무조경","tel":"031-425-1024","addr":"경기도 의왕시 학의동 198번지","indutype":"문화.취미 - 화원","category":"other"}]},{"lat":"37.3916379222","long":"127.0100865773","imageIndex":17,"items":[{"name":"숨쉬는호구","tel":"070-4063-0640","addr":"경기도 의왕시 학의동 188번지","indutype":"레져용품 - 스포츠·레져용품","category":"other"}]},{"lat":"37.3705002384","long":"127.0093055938","imageIndex":17,"items":[{"name":"씨유의왕백운5단지점","tel":"02-1577-8007","addr":"경기도 의왕시 학의동 743-5번지 효성해링턴블레이스 C4블럭 단지내상가 1층 01호","indutype":"유통업 영리 - 편 의 점","category":"other"}]},{"lat":"37.3840245165","long":"126.9983654167","imageIndex":17,"items":[{"name":"여주꽃화분","tel":"031-426-6244","addr":"경기도 의왕시 학의동 965-2","indutype":"문화.취미 - 화원","category":"other"}]},{"lat":"37.3865556447","long":"127.0166353012","imageIndex":17,"items":[{"name":"여주생활도자기","tel":"031-423-4588","addr":"경기도 의왕시 학의동 77-1","indutype":"문화.취미 - 민예·공예품","category":"other"}]},{"lat":"37.3850244913","long":"126.9954521468","imageIndex":17,"items":[{"name":"예원플라워","tel":"031-441-8888","addr":"경기도 의왕시 학의동 251-8","indutype":"문화.취미 - 화원","category":"other"},{"name":"티지오플라워","tel":"031-447-1004","addr":"경기도 의왕시 학의동 251-8번지","indutype":"문화.취미 - 화원","category":"other"}]},{"lat":"37.3737800558","long":"127.0060882728","imageIndex":17,"items":[{"name":"우성다육직판장","tel":"031-457-0795","addr":"경기도 의왕시 학의동 591-2","indutype":"문화.취미 - 화원","category":"other"}]},{"lat":"37.3895297695","long":"127.0042821918","imageIndex":17,"items":[{"name":"청해꽃분재","tel":"031-425-5527","addr":"경기도 의왕시 학의동 240번지","indutype":"문화.취미 - 화원","category":"other"}]},{"lat":"37.3836641254","long":"126.9987267602","imageIndex":17,"items":[{"name":"플라워갤러리","tel":"031-424-3005","addr":"경기도 의왕시 학의동 340-16","indutype":"문화.취미 - 화원","category":"other"}]},{"lat":"37.3900518829","long":"127.0135531511","imageIndex":17,"items":[{"name":"하나스크린골프","tel":"031-422-6556","addr":"경기도 의왕시 학의동 158-6번지","indutype":"회원제형태 - 레져업소","category":"other"}]},{"lat":"37.3891955626","long":"127.0169971315","imageIndex":17,"items":[{"name":"하이픈프로젝트","tel":"031-000-0000","addr":"경기도 의왕시 학의동 104-4번지","indutype":"주방용구 - 주방용식기","category":"other"}]},{"lat":"37.3851417580","long":"126.9980604783","imageIndex":17,"items":[{"name":"한일농원","tel":"031-426-0001","addr":"경기도 의왕시 학의동 246-22","indutype":"문화.취미 - 화원","category":"other"}]},{"lat":"37.3747802228","long":"127.0030851818","imageIndex":4,"items":[{"name":"(주)삼자현","tel":"031-426-6900","addr":"경기도 의왕시 학의동 634-2번지 301호","indutype":"일반휴게음식 - 일반한식","category":"restaurant"}]},{"lat":"37.3757262796","long":"127.0016739196","imageIndex":4,"items":[{"name":"(주)엔데오에프앤비 명장시대 백운호수점","tel":"031-1111-1111","addr":"경기도 의왕시 학의동 623-2번지","indutype":"일반휴게음식 - 서양음식","category":"restaurant"}]},{"lat":"37.3845289064","long":"127.0107746755","imageIndex":4,"items":[{"name":"가나안덕","tel":"031-422-5292","addr":"경기도 의왕시 학의동 434번지","indutype":"일반휴게음식 - 일반한식","category":"restaurant"}]},{"lat":"37.3752217156","long":"127.0037851655","imageIndex":4,"items":[{"name":"그린플래그커피","tel":"031-426-4411","addr":"경기도 의왕시 학의동 604-2번지","indutype":"일반휴게음식 - 일반한식","category":"restaurant"}]},{"lat":"37.3791410697","long":"126.9993931574","imageIndex":4,"items":[{"name":"기와","tel":"031-423-4811","addr":"경기도 의왕시 학의동 284번지 1층","indutype":"일반휴게음식 - 서양음식","category":"restaurant"}]},{"lat":"37.3801141858","long":"127.0003076650","imageIndex":4,"items":[{"name":"까페흙과나무","tel":"031-422-0087","addr":"경기도 의왕시 학의동 272-1번지 지하1층,지상1층","indutype":"일반휴게음식 - 서양음식","category":"restaurant"}]},{"lat":"37.3804205267","long":"127.0001721646","imageIndex":4,"items":[{"name":"낙지이야기","tel":"031-426-2999","addr":"경기도 의왕시 학의동 273-18번지 2층","indutype":"일반휴게음식 - 일반한식","category":"restaurant"},{"name":"코다리명가(백운호수점)","tel":"031-426-2472","addr":"경기도 의왕시 학의동 273-18번지 2층","indutype":"일반휴게음식 - 일반한식","category":"restaurant"}]},{"lat":"37.3843667670","long":"127.0101084652","imageIndex":4,"items":[{"name":"남현골","tel":"031-426-3131","addr":"경기도 의왕시 학의동 427-2번지","indutype":"일반휴게음식 - 일반한식","category":"restaurant"}]},{"lat":"37.3636166276","long":"127.0059975351","imageIndex":4,"items":[{"name":"넬라 포레스타","tel":"031-503-8018","addr":"경기도 의왕시 학의동 874-1번지","indutype":"일반휴게음식 - 서양음식","category":"restaurant"}]},{"lat":"37.3821412675","long":"127.0101421252","imageIndex":4,"items":[{"name":"대들보농원","tel":"031-421-5292","addr":"경기도 의왕시 학의동 378-5번지 , 1,2층","indutype":"일반휴게음식 - 일반한식","category":"restaurant"},{"name":"대들보농원","tel":"031-421-5292","addr":"경기도 의왕시 학의동 378-5번지","indutype":"일반휴게음식 - 일반한식","category":"restaurant"}]},{"lat":"37.3839704526","long":"127.0075001247","imageIndex":4,"items":[{"name":"동해메밀향앤제이","tel":"031-424-1991","addr":"경기도 의왕시 학의동 409번지","indutype":"일반휴게음식 - 일반한식","category":"restaurant"}]},{"lat":"37.3740593878","long":"127.0053318636","imageIndex":4,"items":[{"name":"똘래랑스","tel":"031-426-3322","addr":"경기도 의왕시 학의동 595-1번지","indutype":"일반휴게음식 - 서양음식","category":"restaurant"}]},{"lat":"37.3841145164","long":"127.0095551637","imageIndex":4,"items":[{"name":"라리 백운호수점","tel":"031-425-5200","addr":"경기도 의왕시 학의동 386-1번지","indutype":"일반휴게음식 - 서양음식","category":"restaurant"}]},{"lat":"37.3693104751","long":"127.0148033114","imageIndex":4,"items":[{"name":"로rrroh","tel":"031-422-2550","addr":"경기도 의왕시 학의동 855번지","indutype":"일반휴게음식 - 서양음식","category":"restaurant"}]},{"lat":"37.3798078200","long":"126.9994495801","imageIndex":4,"items":[{"name":"마포왕갈비","tel":"031-424-8858","addr":"경기도 의왕시 학의동 268번지 지층,1층","indutype":"일반휴게음식 - 일반한식","category":"restaurant"}]},{"lat":"37.3808350104","long":"127.0011431656","imageIndex":4,"items":[{"name":"모우","tel":"070-7684-6876","addr":"경기도 의왕시 학의동 산82-6번지","indutype":"일반휴게음식 - 일반한식","category":"restaurant"},{"name":"차연(    )","tel":"031-426-0250","addr":"경기도 의왕시 학의동 산82-6번지","indutype":"일반휴게음식 - 일반한식","category":"restaurant"},{"name":"청류관","tel":"031-426-1289","addr":"경기도 의왕시 학의동 산82-6번지","indutype":"일반휴게음식 - 일반한식","category":"restaurant"},{"name":"커페막시 백운호수점","tel":"031-426-0250","addr":"경기도 의왕시 학의동 산82-6번지 1층","indutype":"일반휴게음식 - 서양음식","category":"restaurant"}]},{"lat":"37.3829974501","long":"127.0031642415","imageIndex":4,"items":[{"name":"미림식당","tel":"031-426-3047","addr":"경기도 의왕시 학의동 산 76-11","indutype":"일반휴게음식 - 일반한식","category":"restaurant"}]},{"lat":"37.3869429341","long":"127.0178323026","imageIndex":4,"items":[{"name":"배꼽","tel":"031-425-3456","addr":"경기도 의왕시 학의동 65번지 외1필지","indutype":"일반휴게음식 - 일반한식","category":"restaurant"}]},{"lat":"37.3841956402","long":"127.0089454360","imageIndex":4,"items":[{"name":"백운게장","tel":"031-466-5353","addr":"경기도 의왕시 학의동 388번지","indutype":"일반휴게음식 - 일반한식","category":"restaurant"}]},{"lat":"37.3850874403","long":"127.0120619674","imageIndex":4,"items":[{"name":"백운재","tel":"031-422-6909","addr":"경기도 의왕시 학의동 438-3번지","indutype":"일반휴게음식 - 일반한식","category":"restaurant"}]},{"lat":"37.3841414844","long":"127.0105826815","imageIndex":4,"items":[{"name":"백운호수 장수촌","tel":"031-426-0426","addr":"경기도 의왕시 학의동 387번지","indutype":"일반휴게음식 - 일반한식","category":"restaurant"}]},{"lat":"37.3835019674","long":"127.0063032200","imageIndex":4,"items":[{"name":"범바위","tel":"031-426-1177","addr":"경기도 의왕시 학의동 406-6번지","indutype":"일반휴게음식 - 일반한식","category":"restaurant"}]},{"lat":"37.3913045828","long":"127.0094993379","imageIndex":4,"items":[{"name":"브라우니70 백운호수점","tel":"031-426-7011","addr":"경기도 의왕시 학의동 207번지 2층","indutype":"일반휴게음식 - 일반한식","category":"restaurant"}]},{"lat":"37.3846642150","long":"127.0078953681","imageIndex":4,"items":[{"name":"선비묵집","tel":"031-424-0460","addr":"경기도 의왕시 학의동 415번지","indutype":"일반휴게음식 - 일반한식","category":"restaurant"}]},{"lat":"37.3663376991","long":"127.0056138311","imageIndex":4,"items":[{"name":"선일목장","tel":"031-423-2798","addr":"경기도 의왕시 학의동 890-30번지","indutype":"일반휴게음식 - 일반한식","category":"restaurant"}]},{"lat":"37.3756992540","long":"127.0022835861","imageIndex":4,"items":[{"name":"송이향","tel":"031-426-9181","addr":"경기도 의왕시 학의동 630-2번지","indutype":"일반휴게음식 - 일반한식","category":"restaurant"},{"name":"주식회사송이향","tel":"031-426-9181","addr":"경기도 의왕시 학의동 630-2번지","indutype":"일반휴게음식 - 일반한식","category":"restaurant"}]},{"lat":"37.3753388505","long":"127.0027239014","imageIndex":4,"items":[{"name":"시래골","tel":"031-426-3697","addr":"경기도 의왕시 학의동 630-8번지 407호","indutype":"일반휴게음식 - 일반한식","category":"restaurant"}]},{"lat":"37.3862223488","long":"127.0159464472","imageIndex":4,"items":[{"name":"씨엔에스 공방","tel":"031-426-3108","addr":"경기도 의왕시 학의동 463번지 2층","indutype":"일반휴게음식 - 일반한식","category":"restaurant"}]},{"lat":"37.3835289903","long":"127.0065516295","imageIndex":4,"items":[{"name":"아리조나","tel":"031-426-3300","addr":"경기도 의왕시 학의동 406-3번지","indutype":"일반휴게음식 - 서양음식","category":"restaurant"}]},{"lat":"37.3849703919","long":"127.0109215113","imageIndex":4,"items":[{"name":"예원","tel":"031-424-8882","addr":"경기도 의왕시 학의동 433번지 1층","indutype":"일반휴게음식 - 일반한식","category":"restaurant"}]},{"lat":"37.3843938722","long":"127.0087534978","imageIndex":4,"items":[{"name":"옛골보리밥","tel":"031-000-0000","addr":"경기도 의왕시 학의동 418-2번지 1층","indutype":"일반휴게음식 - 일반한식","category":"restaurant"}]},{"lat":"37.3740859820","long":"127.0133363833","imageIndex":4,"items":[{"name":"요거프레소(백운밸리점)","tel":"031-425-2226","addr":"경기도 의왕시 학의동 818-13번지 의왕백운골드클래스아파트 114동 지하1층 102, 103호","indutype":"일반휴게음식 - 서양음식","category":"restaurant"}]},{"lat":"37.3705002384","long":"127.0093055938","imageIndex":4,"items":[{"name":"이디야 의왕백운밸리점","tel":"031-1111-1111","addr":"경기도 의왕시 학의동 743-5번지 효성해링턴플레이스5단지 상가동 1층 07,08호","indutype":"일반휴게음식 - 서양음식","category":"restaurant"}]},{"lat":"37.3849974895","long":"127.0098601125","imageIndex":4,"items":[{"name":"이우철삼계탕","tel":"031-424-8890","addr":"경기도 의왕시 학의동 429번지 1층","indutype":"일반휴게음식 - 일반한식","category":"restaurant"}]},{"lat":"37.3740323798","long":"127.0036948325","imageIndex":4,"items":[{"name":"이종환의쉘부르","tel":"031-426-1720","addr":"경기도 의왕시 학의동 633-1 ,638-2","indutype":"일반휴게음식 - 서양음식","category":"restaurant"}]},{"lat":"37.3754469720","long":"127.0028029316","imageIndex":4,"items":[{"name":"일마레","tel":"031-424-0098","addr":"경기도 의왕시 학의동 629-2번지","indutype":"일반휴게음식 - 서양음식","category":"restaurant"}]},{"lat":"37.3801141688","long":"126.9996189277","imageIndex":4,"items":[{"name":"장어의 전설","tel":"031-421-8838","addr":"경기도 의왕시 학의동 267번지","indutype":"일반휴게음식 - 일반한식","category":"restaurant"}]},{"lat":"37.3853305852","long":"127.0135863572","imageIndex":4,"items":[{"name":"전복명가","tel":"031-425-0021","addr":"경기도 의왕시 학의동 456-4번지 1층 2층","indutype":"일반휴게음식 - 일반한식","category":"restaurant"}]},{"lat":"37.3739512811","long":"127.0044512517","imageIndex":4,"items":[{"name":"전복촌","tel":"031-424-1337","addr":"경기도 의왕시 학의동 594-3번지","indutype":"일반휴게음식 - 일반한식","category":"restaurant"}]},{"lat":"37.3676982560","long":"127.0039769877","imageIndex":4,"items":[{"name":"제일푸드","tel":"","addr":"경기도 의왕시 학의동 896번지","indutype":"일반휴게음식 - 일반한식","category":"restaurant"}]},{"lat":"37.3738882076","long":"127.0046431777","imageIndex":4,"items":[{"name":"주식회사청운누룽지백숙","tel":"031-426-0300","addr":"경기도 의왕시 학의동 593-1번지","indutype":"일반휴게음식 - 일반한식","category":"restaurant"}]},{"lat":"37.3840605720","long":"127.0070033101","imageIndex":4,"items":[{"name":"청계누룽지백숙2호점","tel":"031-421-5250","addr":"경기도 의왕시 학의동 407-1번지","indutype":"일반휴게음식 - 일반한식","category":"restaurant"}]},{"lat":"37.3843938122","long":"127.0098600567","imageIndex":4,"items":[{"name":"최진희의사랑의미로2","tel":"031-426-8070","addr":"경기도 의왕시 학의동 427-1","indutype":"일반휴게음식 - 일반한식","category":"restaurant"}]},{"lat":"37.3843307494","long":"127.0097245539","imageIndex":4,"items":[{"name":"최진희의사랑의미로퓨전한식1","tel":"031-426-8070","addr":"경기도 의왕시 학의동 427-5번지 2층","indutype":"일반휴게음식 - 일반한식","category":"restaurant"}]},{"lat":"37.3710590248","long":"127.0048124531","imageIndex":4,"items":[{"name":"카페coffee#","tel":"","addr":"경기도 의왕시 학의동 704-1번지 효성해링턴플레이스2단지 상가동 1층 1호","indutype":"일반휴게음식 - 서양음식","category":"restaurant"},{"name":"클로버","tel":"","addr":"경기도 의왕시 학의동 704-1번지 효성헤링턴플레이스2단지 1층 114호","indutype":"일반휴게음식 - 서양음식","category":"restaurant"}]},{"lat":"37.3900518263","long":"127.0141629334","imageIndex":4,"items":[{"name":"카페아란","tel":"031-426-3671","addr":"경기도 의왕시 학의동 157번지 엘레시아 학현 1층 101호","indutype":"일반휴게음식 - 서양음식","category":"restaurant"}]},{"lat":"37.3841416081","long":"127.0083582799","imageIndex":4,"items":[{"name":"토리노 390","tel":"031-423-3990","addr":"경기도 의왕시 학의동 390번지","indutype":"일반휴게음식 - 일반한식","category":"restaurant"}]},{"lat":"37.3847812782","long":"127.0093068103","imageIndex":4,"items":[{"name":"피카소","tel":"031-426-0098","addr":"경기도 의왕시 학의동 425번지 1층","indutype":"일반휴게음식 - 서양음식","category":"restaurant"}]},{"lat":"37.3882494134","long":"127.0177196419","imageIndex":4,"items":[{"name":"하오츠","tel":"070-5214-0920","addr":"경기도 의왕시 학의동 96번지 1층","indutype":"일반휴게음식 - 중국식","category":"restaurant"}]},{"lat":"37.3870601640","long":"127.0170306069","imageIndex":4,"items":[{"name":"학현정","tel":"031-426-3737","addr":"경기도 의왕시 학의동 75번지 지하1층","indutype":"일반휴게음식 - 일반한식","category":"restaurant"}]},{"lat":"37.3835560756","long":"127.0035255649","imageIndex":4,"items":[{"name":"홍다방","tel":"031-426-5522","addr":"경기도 의왕시 학의동 347-1번지","indutype":"일반휴게음식 - 서양음식","category":"restaurant"}]},{"lat":"37.3796726759","long":"126.9997205632","imageIndex":4,"items":[{"name":"황토장어2","tel":"031-425-0346","addr":"경기도 의왕시 학의동 270-3번지 2층 3층","indutype":"일반휴게음식 - 일반한식","category":"restaurant"}]},{"lat":"37.3915025546","long":"127.0130339023","imageIndex":7,"items":[{"name":"광동상사(성남)","tel":"050-5307-3888","addr":"경기도 의왕시 학의동 160-3번지","indutype":"음료식품 - 기타음료식품","category":"food"}]},{"lat":"37.3821412675","long":"127.0101421252","imageIndex":7,"items":[{"name":"대들보정육점","tel":"031-421-5292","addr":"경기도 의왕시 학의동 378-5번지 2층","indutype":"음료식품 - 정육점","category":"food"}]},{"lat":"37.3798078200","long":"126.9994495801","imageIndex":7,"items":[{"name":"마포왕갈비","tel":"031-424-8858","addr":"경기도 의왕시 학의동 268번지 지층1층","indutype":"음료식품 - 정육점","category":"food"},{"name":"백운호수 정육식당","tel":"031-424-8858","addr":"경기도 의왕시 학의동 268번지","indutype":"음료식품 - 정육점","category":"food"},{"name":"장어전복직판장","tel":"031-424-8858","addr":"경기도 의왕시 학의동 268번지","indutype":"음료식품 - 농·축·수산품","category":"food"}]},{"lat":"37.3663376991","long":"127.0056138311","imageIndex":7,"items":[{"name":"선일목장","tel":"031-423-2798","addr":"경기도 의왕시 학의동 890-30번지","indutype":"음료식품 - 정육점","category":"food"}]},{"lat":"37.3710590248","long":"127.0048124531","imageIndex":7,"items":[{"name":"올바른정육점","tel":"031-425-6329","addr":"경기도 의왕시 학의동 704-1번지 효성해링턴플레이스2단지 110호","indutype":"음료식품 - 정육점","category":"food"}]},{"lat":"37.3893306594","long":"127.0174488431","imageIndex":7,"items":[{"name":"청계산우리벌꿀영농조합","tel":"031-426-6049","addr":"경기도 의왕시 학의동 104-1번지","indutype":"건강식품 - 기타건강식품","category":"food"}]},{"lat":"37.3836640966","long":"127.0078049712","imageIndex":7,"items":[{"name":"청계유리온실","tel":"031-426-2626","addr":"경기도 의왕시 학의동 392-1번지","indutype":"음료식품 - 농·축·수산품","category":"food"}]},{"lat":"37.3705544647","long":"127.0043044198","imageIndex":7,"items":[{"name":"파리바게트 백운밸리점","tel":"031-426-8899","addr":"경기도 의왕시 학의동 687-2번지 B블럭 1단지 단지내상가 1층 1,2호","indutype":"음료식품 - 제과점","category":"food"}]},{"lat":"37.3907547027","long":"127.0131918948","imageIndex":13,"items":[{"name":"나무와사람들","tel":"031-426-7187","addr":"경기도 의왕시 학의동 162-8번지","indutype":"보건위생 - 기타대인서비스","category":"beauty"}]},{"lat":"37.3705544647","long":"127.0043044198","imageIndex":13,"items":[{"name":"나이스가이 백운밸리점","tel":"","addr":"경기도 의왕시 학의동 687-2번지 효성해링턴플레이스1단지 B블럭 상가 1층 06호","indutype":"보건위생 - 미용원","category":"beauty"},{"name":"우리동네안경백운밸리점","tel":"031-424-9009","addr":"경기도 의왕시 학의동 687-2번지 효성해링턴플레이스1단지 1층 14호","indutype":"보건위생 - 안경","category":"beauty"}]},{"lat":"37.3705002384","long":"127.0093055938","imageIndex":13,"items":[{"name":"미진헤어","tel":"031-452-1796","addr":"경기도 의왕시 학의동 743-5번지 효성해링턴플레이스5단지 1층 3호","indutype":"보건위생 - 미용원","category":"beauty"}]},{"lat":"37.3705544647","long":"127.0043044198","imageIndex":16,"items":[{"name":"백운 용인대 슈퍼키즈 태권도","tel":"","addr":"경기도 의왕시 학의동 687-2번지 효성해링턴플레이스1단지 26,27,28호","indutype":"학원 - 예·체능계학원","category":"study"},{"name":"에프쇼팽음악학원","tel":"031-423-2221","addr":"경기도 의왕시 학의동 687-2번지 의왕백운해링턴플레이스1단지 상가21-23호","indutype":"학원 - 예·체능계학원","category":"study"},{"name":"원탑(ONE TOP ENGLISH)","tel":"","addr":"경기도 의왕시 학의동 687-2번지 효성해링턴플레이스1단지 103동 102호","indutype":"학원 - 기타 교육기관","category":"study"},{"name":"자연어린이집[아이행복]","tel":"031-422-1005","addr":"경기도 의왕시 학의동 687-2번지 효성해링턴플레이스1단지 105동 101호","indutype":"학원 - 유아원","category":"study"},{"name":"튼튼영어마스터클럽영어교습소","tel":"031-8091-0570","addr":"경기도 의왕시 학의동 687-2번지 효성해링턴플레이스1단지 상가동 19호","indutype":"학원 - 외국어학원","category":"study"}]},{"lat":"37.3746989560","long":"127.0093398213","imageIndex":16,"items":[{"name":"백운솔빛어린이집[아이행복]","tel":"031-462-9906","addr":"경기도 의왕시 학의동 560번지 백운지구 C!블럭 관리동1층","indutype":"학원 - 유아원","category":"study"},{"name":"백운푸르내어린이집[아이행복]","tel":"031-426-7600","addr":"경기도 의왕시 학의동 560번지 백운지구 C4블록 관리동 1층","indutype":"학원 - 유아원","category":"study"}]},{"lat":"37.3705544063","long":"127.0068671005","imageIndex":16,"items":[{"name":"백운호수초등학교","tel":"031-340-0402","addr":"경기도 의왕시 학의동 산100-1번지","indutype":"학원 - 초중고교육기관","category":"study"}]},{"lat":"37.3710590248","long":"127.0048124531","imageIndex":16,"items":[{"name":"숲속나라어린이집[아이행복]","tel":"031-346-0908","addr":"경기도 의왕시 학의동 704-1번지 효성해링턴플레이스2단지 204동 104호","indutype":"학원 - 유아원","category":"study"}]},{"lat":"37.3705544647","long":"127.0043044198","imageIndex":8,"items":[{"name":"백운온누리약국","tel":"031-344-0091","addr":"경기도 의왕시 학의동 687-2번지 의왕백운해링턴플레이스1단지 2층 225호","indutype":"약국 - 약국","category":"medical"}]},{"lat":"37.3710590248","long":"127.0048124531","imageIndex":7,"items":[{"name":"주식회사 효성유통","tel":"031-424-8949","addr":"경기도 의왕시 학의동 704-1번지 효성해링턴플레이스 2단지 상가동 03~07호","indutype":"유통업 영리 - 슈퍼마켓","category":"mart"}]},{"lat":"37.3841956302","long":"127.0091373896","imageIndex":7,"items":[{"name":"학현슈퍼","tel":"031-452-0306","addr":"경기도 의왕시 학의동 386-12번지 1층","indutype":"유통업 영리 - 슈퍼마켓","category":"mart"}]},{"lat":"37.3746989560","long":"127.0093398213","imageIndex":7,"items":[{"name":"효성마트","tel":"031-424-8949","addr":"경기도 의왕시 학의동 560번지 의왕백운밸리 효성해링턴플레이스 c1블럭 상가 06,07호","indutype":"유통업 영리 - 슈퍼마켓","category":"mart"}]}]