[{"lat":"37.296986232","long":"127.00675044","imageIndex":8,"items":[{"name":"기분좋은 365의원","tel":"031-546-1654","addr":"경기도 수원시 장안구 송죽동 517번지 수원아너스빌위즈 별동상가동 3층 301호,302호","indutype":"의원 - 의원","category":"medical"},{"name":"보스턴에스치과의원","tel":"031-000-0000","addr":"경기도 수원시 장안구 송죽동 517번지 수원 아너스빌 위즈 상가동 3층 304호, 305호","indutype":"의원 - 치과의원","category":"medical"},{"name":"아너스약국","tel":"031-244-2007","addr":"경기도 수원시 장안구 송죽동 517번지 수원아너스빌위즈 상가 1층 104호","indutype":"약국 - 약국","category":"medical"}]},{"lat":"37.303707923","long":"127.0044498","imageIndex":8,"items":[{"name":"김영신의원","tel":"031-298-7582","addr":"경기도 수원시 장안구 송죽동 495-3번지 2층","indutype":"의원 - 의원","category":"medical"}]},{"lat":"37.298626111","long":"127.00627682","imageIndex":8,"items":[{"name":"다선의원","tel":"031-485-0600","addr":"경기도 수원시 장안구 송죽동 379-1번지 송죽빌딩 2층","indutype":"의원 - 의원","category":"medical"},{"name":"메디팜청화약국","tel":"031-246-4161","addr":"경기도 수원시 장안구 송죽동 379-1번지","indutype":"약국 - 약국","category":"medical"}]},{"lat":"37.302653607","long":"126.99736645","imageIndex":8,"items":[{"name":"동신한의원","tel":"031-268-5175","addr":"경기도 수원시 장안구 송죽동 277-52번지","indutype":"의원 - 한의원","category":"medical"}]},{"lat":"37.295535509","long":"127.0085887","imageIndex":8,"items":[{"name":"동진약국","tel":"031-255-1261","addr":"경기도 수원시 장안구 송죽동 389-40번지","indutype":"약국 - 약국","category":"medical"}]},{"lat":"37.306483083","long":"127.0034798","imageIndex":8,"items":[{"name":"맑은맘한의원","tel":"031-241-7975","addr":"경기도 수원시 장안구 송죽동 196-3번지","indutype":"의원 - 한의원","category":"medical"},{"name":"서울미래의원","tel":"031-241-0125","addr":"경기도 수원시 장안구 송죽동 196-3번지 2층 202호","indutype":"의원 - 의원","category":"medical"}]},{"lat":"37.307510241","long":"127.00441604","imageIndex":8,"items":[{"name":"명진마취통증의학과의원","tel":"","addr":"경기도 수원시 장안구 송죽동 73번지 현광프라자 301호","indutype":"의원 - 의원","category":"medical"}]},{"lat":"37.305762259","long":"127.00420169","imageIndex":8,"items":[{"name":"비타민약국","tel":"031-253-5288","addr":"경기도 수원시 장안구 송죽동 200-8번지 가동 1층","indutype":"약국 - 약국","category":"medical"},{"name":"선내과의원","tel":"031-242-8275","addr":"경기도 수원시 장안구 송죽동 200-8번지 1층","indutype":"의원 - 의원","category":"medical"}]},{"lat":"37.303536716","long":"127.00522807","imageIndex":8,"items":[{"name":"서울치과","tel":"031-252-2834","addr":"경기도 수원시 장안구 송죽동 495-6번지 전국화물자동차 3동 3호","indutype":"의원 - 치과의원","category":"medical"}]},{"lat":"37.307456189","long":"127.00289325","imageIndex":8,"items":[{"name":"석문한의원","tel":"031-251-1075","addr":"경기도 수원시 장안구 송죽동 136-5번지 1층","indutype":"의원 - 한의원","category":"medical"}]},{"lat":"37.304428743","long":"127.00144948","imageIndex":8,"items":[{"name":"수성약국","tel":"031-252-0888","addr":"경기도 수원시 장안구 송죽동 447번지 갤럭시웨딩홀 1층 103호","indutype":"약국 - 약국","category":"medical"},{"name":"연세수요양병원","tel":"031-906-2600","addr":"경기도 수원시 장안구 송죽동 447번지","indutype":"병원 - 병원","category":"medical"}]},{"lat":"37.299148688","long":"127.00680694","imageIndex":8,"items":[{"name":"수원치과의원","tel":"031-242-6569","addr":"경기도 수원시 장안구 송죽동 503-16번지 월드타워 403호","indutype":"의원 - 치과의원","category":"medical"}]},{"lat":"37.3068705","long":"127.00047937","imageIndex":8,"items":[{"name":"심종걸내과의원","tel":"031-257-1670","addr":"경기도 수원시 장안구 송죽동 481-9번지","indutype":"의원 - 의원","category":"medical"},{"name":"홍치과의원","tel":"031-241-2875","addr":"경기도 수원시 장안구 송죽동 481-9번지 2층","indutype":"의원 - 치과의원","category":"medical"}]},{"lat":"37.301121855","long":"127.00866808","imageIndex":8,"items":[{"name":"아이러브 동물병원","tel":"031-241-7551","addr":"경기도 수원시 장안구 송죽동 506-3번지 4층","indutype":"기타의료기관 - 동물병원","category":"medical"}]},{"lat":"37.303734947","long":"127.00488969","imageIndex":8,"items":[{"name":"연세밝은아이치과의원","tel":"031-245-2897","addr":"경기도 수원시 장안구 송죽동 495-13번지 명성빌딩 5층 2호","indutype":"의원 - 치과의원","category":"medical"}]},{"lat":"37.303509699","long":"127.00431444","imageIndex":8,"items":[{"name":"자영약국","tel":"031-246-5194","addr":"경기도 수원시 장안구 송죽동 496번지","indutype":"약국 - 약국","category":"medical"}]},{"lat":"37.306816441","long":"127.00064857","imageIndex":8,"items":[{"name":"장안녹십자약국","tel":"031-242-5466","addr":"경기도 수원시 장안구 송죽동 481-8번지","indutype":"약국 - 약국","category":"medical"}]},{"lat":"37.301626443","long":"127.00834102","imageIndex":8,"items":[{"name":"정강한의원","tel":"031-242-7330","addr":"경기도 수원시 장안구 송죽동 499-6번지 성원빌딩 2층","indutype":"의원 - 한의원","category":"medical"},{"name":"최홍석치과","tel":"031-241-2252","addr":"경기도 수원시 장안구 송죽동 499-6번지 2층","indutype":"의원 - 치과의원","category":"medical"}]},{"lat":"37.296706975","long":"127.00363762","imageIndex":8,"items":[{"name":"청담골드의원","tel":"031-243-7005","addr":"경기도 수원시 장안구 송죽동 392-20번지 2층 201~207호","indutype":"의원 - 의원","category":"medical"}]},{"lat":"37.303014103","long":"127.00606272","imageIndex":8,"items":[{"name":"케이씨제이(KCJ)약품","tel":"031-296-1037","addr":"경기도 수원시 장안구 송죽동 498번지","indutype":"약국 - 제약회사","category":"medical"}]},{"lat":"37.301842714","long":"127.00777708","imageIndex":8,"items":[{"name":"파라곤약국","tel":"031-8001-1383","addr":"경기도 수원시 장안구 송죽동 499-3번지 102동 102호 101","indutype":"약국 - 약국","category":"medical"},{"name":"효령한의원","tel":"031-257-7576","addr":"경기도 수원시 장안구 송죽동 499-3번지 동양파라곤 207호","indutype":"의원 - 한의원","category":"medical"}]},{"lat":"37.304428749","long":"127.00367153","imageIndex":8,"items":[{"name":"하늘빛가정의학과의원","tel":"031-251-5333","addr":"경기도 수원시 장안구 송죽동 452번지 201호","indutype":"의원 - 의원","category":"medical"}]}]