[{"lat":"37.611980202","long":"127.13756754","imageIndex":7,"items":[{"name":"다봄마트","tel":"031-552-8288","addr":"경기도 구리시 인창동 450-3번지 1층","indutype":"유통업 영리 - 슈퍼마켓","category":"mart"}]},{"lat":"37.606952841","long":"127.12934787","imageIndex":7,"items":[{"name":"동산마트","tel":"","addr":"경기도 구리시 인창동 648-66번지 1층","indutype":"유통업 영리 - 슈퍼마켓","category":"mart"}]},{"lat":"37.601592136","long":"127.1374016","imageIndex":7,"items":[{"name":"믿음슈퍼","tel":"031-562-7085","addr":"경기도 구리시 인창동 291-4번지","indutype":"유통업 영리 - 슈퍼마켓","category":"mart"}]},{"lat":"37.610418477","long":"127.14020356","imageIndex":7,"items":[{"name":"새생활공판장","tel":"031-567-2055","addr":"경기도 구리시 인창동 663-2번지 분산 상가동 101호","indutype":"유통업 영리 - 슈퍼마켓","category":"mart"}]},{"lat":"37.609229857","long":"127.13161679","imageIndex":7,"items":[{"name":"아름슈퍼","tel":"031-551-9668","addr":"경기도 구리시 인창동 651-27원일한아름상가103","indutype":"유통업 영리 - 슈퍼마켓","category":"mart"}]},{"lat":"37.608894781","long":"127.1331791","imageIndex":7,"items":[{"name":"얼음과자 인창점","tel":"070-8477-2979","addr":"경기도 구리시 인창동 487-24번지 태성빌딩 1층 102호","indutype":"유통업 영리 - 슈퍼마켓","category":"mart"}]},{"lat":"37.611420039","long":"127.1389256","imageIndex":7,"items":[{"name":"원일마트","tel":"031-565-8695","addr":"경기도 구리시 인창동 696-1번지 101호","indutype":"유통업 영리 - 슈퍼마켓","category":"mart"}]},{"lat":"37.609198641","long":"127.13539939","imageIndex":7,"items":[{"name":"진로식자재마트","tel":"031-567-8365","addr":"경기도 구리시 인창동 495-6번지","indutype":"유통업 영리 - 슈퍼마켓","category":"mart"}]},{"lat":"37.609084086","long":"127.13308883","imageIndex":7,"items":[{"name":"케이에스(KS)마트","tel":"031-558-6989","addr":"경기도 구리시 인창동 487-23번지 1층","indutype":"유통업 영리 - 슈퍼마켓","category":"mart"}]},{"lat":"37.604425716","long":"127.14129103","imageIndex":7,"items":[{"name":"훼미리슈퍼","tel":"031-551-3047","addr":"경기도 구리시 인창동 672-4번지 세신훼미리타운 102호","indutype":"유통업 영리 - 슈퍼마켓","category":"mart"},{"name":"훼밀리수퍼","tel":"031-556-4784","addr":"경기도 구리시 인창동 672-4번지 세신훼밀리타운 102호","indutype":"유통업 영리 - 슈퍼마켓","category":"mart"}]}]