[{"lat":"37.45902032","long":"126.8770159","imageIndex":7,"items":[{"name":"(주)미스밋(Miss meat)","tel":"02-568-2092","addr":"경기도 광명시 하안동 305-3번지 경일빌딩 6층 603호","indutype":"음료식품 - 기타음료식품","category":"food"}]},{"lat":"37.45946508","long":"126.8717368","imageIndex":7,"items":[{"name":"(주)비외식산업","tel":"02-989-8039","addr":"경기도 광명시 하안동 596-13번지 지층","indutype":"음료식품 - 기타음료식품","category":"food"}]},{"lat":"37.45990187","long":"126.8756807","imageIndex":7,"items":[{"name":"(주)자이언츠라이프","tel":"02-898-5535","addr":"경기도 광명시 하안동 302-5번지 녹원토피아 302호","indutype":"건강식품 - 기타건강식품","category":"food"}]},{"lat":"37.46427495","long":"126.8787252","imageIndex":7,"items":[{"name":"강정이야기","tel":"","addr":"경기도 광명시 하안동 30번지 하안10단지고층주공아파트","indutype":"음료식품 - 기타음료식품","category":"food"}]},{"lat":"37.46234836","long":"126.8802091","imageIndex":7,"items":[{"name":"강희만현미스낵","tel":"02-899-8687","addr":"경기도 광명시 하안동 53-1번지 골든힐 상가 222호","indutype":"음료식품 - 기타음료식품","category":"food"},{"name":"더통통 광명점","tel":"","addr":"경기도 광명시 하안동 53-1번지 골든힐쇼핑센타 지하 13호","indutype":"음료식품 - 농·축·수산품","category":"food"},{"name":"시운유통(F&B)","tel":"02-804-2212","addr":"경기도 광명시 하안동 53-1번지 골든힐쇼핑센타 지하 10호","indutype":"음료식품 - 기타음료식품","category":"food"},{"name":"점핑엔드쉐이킹","tel":"02-899-4101","addr":"경기도 광명시 하안동 53-1번지 605-1호","indutype":"건강식품 - 기타건강식품","category":"food"},{"name":"초본나라1호점","tel":"","addr":"경기도 광명시 하안동 53-1번지 골든힐쇼핑센타 1층 118호","indutype":"건강식품 - 기타건강식품","category":"food"},{"name":"하안선식","tel":"02-805-1136","addr":"경기도 광명시 하안동 53-1번지 골든힐빌딩 1층 103호","indutype":"음료식품 - 기타음료식품","category":"food"}]},{"lat":"37.45854322","long":"126.8774236","imageIndex":7,"items":[{"name":"경기광명지역자활센터","tel":"02-2612-0453","addr":"경기도 광명시 하안동 305-6번지 석산빌딩501일부,502호,503호","indutype":"음료식품 - 농·축·수산품","category":"food"},{"name":"경기광명지역자활센터","tel":"02-2612-0453","addr":"경기도 광명시 하안동 305-6번지 석산빌딩501일부,502호,503호","indutype":"음료식품 - 미곡상","category":"food"}]},{"lat":"37.46223859","long":"126.8786269","imageIndex":7,"items":[{"name":"고향농산","tel":"070-2548-3687","addr":"경기도 광명시 하안동 34-9번지 원촌빌딩 노점","indutype":"음료식품 - 농·축·수산품","category":"food"},{"name":"달복이 생선가게","tel":"070-4174-1203","addr":"경기도 광명시 하안동 34-9번지 원촌빌딩","indutype":"음료식품 - 농·축·수산품","category":"food"},{"name":"봉순이네생선가게","tel":"070-3658-0047","addr":"경기도 광명시 하안동 34-9번지 원촌빌딩 711-5","indutype":"음료식품 - 농·축·수산품","category":"food"}]},{"lat":"37.46277056","long":"126.8789877","imageIndex":7,"items":[{"name":"고향수산","tel":"070-1111-1111","addr":"경기도 광명시 하안동 711-5(노점)","indutype":"음료식품 - 농·축·수산품","category":"food"},{"name":"고향청과","tel":"","addr":"경기도 광명시 하안동 711-5 노점","indutype":"음료식품 - 농·축·수산품","category":"food"},{"name":"금돼지네","tel":"070-8186-4473","addr":"경기도 광명시 하안동 711-5 노점","indutype":"음료식품 - 기타음료식품","category":"food"},{"name":"대한축산","tel":"02-852-7132","addr":"경기도 광명시 하안동 711-5 노점","indutype":"음료식품 - 농·축·수산품","category":"food"},{"name":"만물이네","tel":"070-4334-8820","addr":"경기도 광명시 하안동 711-5","indutype":"음료식품 - 농·축·수산품","category":"food"},{"name":"봉자네종합식품","tel":"070-4334-7094","addr":"경기도 광명시 하안동 711-5","indutype":"음료식품 - 기타음료식품","category":"food"},{"name":"좋은야채싼집","tel":"02-806-8556","addr":"경기도 광명시 하안동 711-5","indutype":"음료식품 - 농·축·수산품","category":"food"}]},{"lat":"37.46154482","long":"126.878628","imageIndex":7,"items":[{"name":"국민과일","tel":"02-892-3751","addr":"경기도 광명시 하안동 36번지 103호","indutype":"음료식품 - 농·축·수산품","category":"food"},{"name":"엄마소반","tel":"02-899-8822","addr":"경기도 광명시 하안동 36번지 골드프라자 1층 106호","indutype":"음료식품 - 기타음료식품","category":"food"},{"name":"치보베이커리","tel":"02-803-3392","addr":"경기도 광명시 하안동 36번지 1층 102호","indutype":"음료식품 - 제과점","category":"food"}]},{"lat":"37.45882745","long":"126.8821476","imageIndex":7,"items":[{"name":"굿샵 광명하안점","tel":"02-898-2933","addr":"경기도 광명시 하안동 260-2번지 8단지종합상가 130호","indutype":"음료식품 - 기타음료식품","category":"food"},{"name":"돈치킨","tel":"02-804-2395","addr":"경기도 광명시 하안동 260-2번지 주공8단지 상가 128호","indutype":"음료식품 - 제과점","category":"food"},{"name":"하안떡집","tel":"02-891-2445","addr":"경기도 광명시 하안동 260-2번지 8단지종합상가 1층 127호","indutype":"음료식품 - 제과점","category":"food"}]},{"lat":"37.4676014","long":"126.8641151","imageIndex":7,"items":[{"name":"규민상사","tel":"","addr":"경기도 광명시 하안동 707-9번지 하안현대아파트","indutype":"회원제형태 - 건강식품","category":"food"}]},{"lat":"37.46318486","long":"126.8788401","imageIndex":7,"items":[{"name":"그린축산","tel":"02-891-9595","addr":"경기도 광명시 하안동 34-1번지 근영빌딩 105호","indutype":"음료식품 - 정육점","category":"food"}]},{"lat":"37.46471604","long":"126.8783515","imageIndex":7,"items":[{"name":"기흥유통","tel":"02-894-5660","addr":"경기도 광명시 하안동 30번지 하안10단지고층주공아파트","indutype":"음료식품 - 기타음료식품","category":"food"}]},{"lat":"37.46148617","long":"126.8829007","imageIndex":7,"items":[{"name":"꿈꾸는 분홍","tel":"","addr":"경기도 광명시 하안동 110-5번지 하안12단지주공 상가 2층 7호","indutype":"음료식품 - 기타음료식품","category":"food"}]},{"lat":"37.4620129","long":"126.878209","imageIndex":7,"items":[{"name":"나이지움방","tel":"02-808-7001","addr":"경기도 광명시 하안동 34-11번지 삼호빌딩 506호","indutype":"건강식품 - 기타건강식품","category":"food"},{"name":"옛날복떡집","tel":"02-000-0000","addr":"경기도 광명시 하안동 34-11번지 삼호빌딩 104호","indutype":"음료식품 - 기타음료식품","category":"food"}]},{"lat":"37.46065687","long":"126.873984","imageIndex":7,"items":[{"name":"낙원떡방아간","tel":"02-897-6250","addr":"경기도 광명시 하안동 599-2번지","indutype":"음료식품 - 제과점","category":"food"}]},{"lat":"37.46465525","long":"126.864211","imageIndex":7,"items":[{"name":"노을","tel":"02-899-1116","addr":"경기도 광명시 하안동 702-2번지 101 5단지일반상가","indutype":"음료식품 - 정육점","category":"food"}]},{"lat":"37.45912563","long":"126.8829835","imageIndex":7,"items":[{"name":"농심가체인점","tel":"02-894-8875","addr":"경기도 광명시 하안동 200-2번지 정산빌딩 105호","indutype":"음료식품 - 기타음료식품","category":"food"},{"name":"장독대","tel":"02-893-8777","addr":"경기도 광명시 하안동 200-2번지 정산빌딩 103호","indutype":"음료식품 - 기타음료식품","category":"food"},{"name":"파리바게뜨 하안금당점","tel":"02-899-5531","addr":"경기도 광명시 하안동 200-2번지 정산빌딩 104호","indutype":"음료식품 - 제과점","category":"food"}]},{"lat":"37.45935071","long":"126.8828136","imageIndex":7,"items":[{"name":"농심한우","tel":"02-899-1539","addr":"경기도 광명시 하안동 200-1번지 경향빌딩 106호","indutype":"음료식품 - 정육점","category":"food"}]},{"lat":"37.46007119","long":"126.8739624","imageIndex":7,"items":[{"name":"다인종합유통","tel":"","addr":"경기도 광명시 하안동 604-10번지 103호","indutype":"음료식품 - 기타음료식품","category":"food"}]},{"lat":"37.46190841","long":"126.8817019","imageIndex":7,"items":[{"name":"달달브레드","tel":"02-898-3345","addr":"경기도 광명시 하안동 62-5번지 신광빌딩 101호","indutype":"음료식품 - 제과점","category":"food"},{"name":"오레시피광명하안","tel":"02-898-0735","addr":"경기도 광명시 하안동 62-5번지 신광빌딩 102호","indutype":"음료식품 - 기타음료식품","category":"food"},{"name":"하나미트","tel":"02-899-8281","addr":"경기도 광명시 하안동 62-5번지 신광빌딩 1층 2호","indutype":"음료식품 - 정육점","category":"food"}]},{"lat":"37.46027047","long":"126.8749341","imageIndex":7,"items":[{"name":"대길유통","tel":"02-897-8633","addr":"경기도 광명시 하안동 606-13번지 B01호","indutype":"음료식품 - 기타음료식품","category":"food"}]},{"lat":"37.45988067","long":"126.8727647","imageIndex":7,"items":[{"name":"대명정육점","tel":"032-664-9289","addr":"경기도 광명시 하안동 601-1번지","indutype":"음료식품 - 정육점","category":"food"}]},{"lat":"37.46914219","long":"126.872093","imageIndex":7,"items":[{"name":"대양","tel":"03-111-1111","addr":"경기도 광명시 하안동 863번지 광명두산위브트레지움","indutype":"음료식품 - 농·축·수산품","category":"food"}]},{"lat":"37.45932067","long":"126.871511","imageIndex":7,"items":[{"name":"더그린푸드","tel":"02-899-8877","addr":"경기도 광명시 하안동 585-5번지 1층2,3호","indutype":"음료식품 - 기타음료식품","category":"food"}]},{"lat":"37.46154641","long":"126.8801539","imageIndex":7,"items":[{"name":"던킨도너츠 광명하안점","tel":"02-864-0770","addr":"경기도 광명시 하안동 51번지 태홍빌딩 1층","indutype":"음료식품 - 제과점","category":"food"},{"name":"미담떡방","tel":"02-899-3570","addr":"경기도 광명시 하안동 51번지 태홍빌딩 B동 102호","indutype":"음료식품 - 제과점","category":"food"},{"name":"황토농장","tel":"02-899-2330","addr":"경기도 광명시 하안동 51번지 석현빌딩 B동 1층","indutype":"음료식품 - 정육점","category":"food"}]},{"lat":"37.4622947","long":"126.8805935","imageIndex":7,"items":[{"name":"도로시 락","tel":"02-6398-5020","addr":"경기도 광명시 하안동 54번지 청진빌딩 301호","indutype":"음료식품 - 기타음료식품","category":"food"},{"name":"파리바게뜨","tel":"02-894-1700","addr":"경기도 광명시 하안동 54번지","indutype":"음료식품 - 제과점","category":"food"}]},{"lat":"37.46610233","long":"126.8771736","imageIndex":7,"items":[{"name":"두농방앗간","tel":"02-892-5816","addr":"경기도 광명시 하안동 13-2번지 하안9단지 상가 1층 109호","indutype":"음료식품 - 제과점","category":"food"},{"name":"위드아이스(광명점)","tel":"","addr":"경기도 광명시 하안동 13-2번지 하안9단지 상가 1층 102호","indutype":"음료식품 - 기타음료식품","category":"food"},{"name":"창우축산","tel":"02-892-5524","addr":"경기도 광명시 하안동 13-2번지","indutype":"음료식품 - 정육점","category":"food"}]},{"lat":"37.46113114","long":"126.8793747","imageIndex":7,"items":[{"name":"뚜레쥬르 광명아울렛","tel":"02-000-0000","addr":"경기도 광명시 하안동 38번지 뉴코아아울렛 지하1층 내","indutype":"음료식품 - 제과점","category":"food"}]},{"lat":"37.46237596","long":"126.8807629","imageIndex":7,"items":[{"name":"뚜레쥬르광명하안점","tel":"02-898-8525","addr":"경기도 광명시 하안동 54-1번지 한진빌딩 1층","indutype":"음료식품 - 제과점","category":"food"}]},{"lat":"37.46063048","long":"126.8745718","imageIndex":7,"items":[{"name":"맘뜰","tel":"02-4633-3234","addr":"경기도 광명시 하안동 605-5번지 101호","indutype":"음료식품 - 기타음료식품","category":"food"},{"name":"엄마사업단밥상(주)","tel":"02-6671-9731","addr":"경기도 광명시 하안동 605-5번지 상가 1층","indutype":"음료식품 - 제과점","category":"food"}]},{"lat":"37.45937525","long":"126.8719856","imageIndex":7,"items":[{"name":"맘톨의놀이터","tel":"02-891-5636","addr":"경기도 광명시 하안동 602-1번지 101호","indutype":"음료식품 - 제과점","category":"food"}]},{"lat":"37.45257719","long":"126.860289","imageIndex":7,"items":[{"name":"매화","tel":"02-898-7334","addr":"경기도 광명시 하안동 889-2번지 3층","indutype":"음료식품 - 기타음료식품","category":"food"}]},{"lat":"37.46313229","long":"126.8802644","imageIndex":7,"items":[{"name":"몸 마카롱","tel":"02-0000-0000","addr":"경기도 광명시 하안동 33-6번지 삼전빌딩 404호","indutype":"음료식품 - 제과점","category":"food"},{"name":"이 두부야","tel":"02-898-2556","addr":"경기도 광명시 하안동 33-6번지 삼전빌딩 1층 5호","indutype":"음료식품 - 기타음료식품","category":"food"}]},{"lat":"37.45808046","long":"126.8829739","imageIndex":7,"items":[{"name":"미르유통","tel":"","addr":"경기도 광명시 하안동 260번지 하안8단지주공아파트","indutype":"음료식품 - 농·축·수산품","category":"food"}]},{"lat":"37.46429705","long":"126.8741247","imageIndex":7,"items":[{"name":"민속떡집","tel":"031-802-1081","addr":"경기도 광명시 하안동 682-1번지 127 (1단지상가)","indutype":"음료식품 - 제과점","category":"food"},{"name":"소풍찬방2호점","tel":"02-898-4740","addr":"경기도 광명시 하안동 682-1번지 하안주공1단지 상가 109동 110호","indutype":"음료식품 - 기타음료식품","category":"food"},{"name":"올리브과자점","tel":"02-809-7756","addr":"경기도 광명시 하안동 682-1번지 1단지상가","indutype":"음료식품 - 제과점","category":"food"},{"name":"천리건강원","tel":"02-807-2226","addr":"경기도 광명시 하안동 682-1번지 하안주공1단지종합상가 102호","indutype":"건강식품 - 기타건강식품","category":"food"},{"name":"하오건강랜드","tel":"","addr":"경기도 광명시 하안동 682-1번지 지하1층 매점","indutype":"음료식품 - 기타음료식품","category":"food"}]},{"lat":"37.46548996","long":"126.8774572","imageIndex":7,"items":[{"name":"바로점핑다이어트","tel":"","addr":"경기도 광명시 하안동 30-1번지 중앙상가 302호","indutype":"건강식품 - 기타건강식품","category":"food"},{"name":"주재근베이커리하안점","tel":"02-894-4919","addr":"경기도 광명시 하안동 30-1번지 주공10단지 상가 103호","indutype":"음료식품 - 제과점","category":"food"}]},{"lat":"37.46460952","long":"126.8636346","imageIndex":7,"items":[{"name":"바른농산","tel":"","addr":"경기도 광명시 하안동 702번지 하안5단지고층주공아파트","indutype":"음료식품 - 기타음료식품","category":"food"}]},{"lat":"37.4630149","long":"126.8800159","imageIndex":7,"items":[{"name":"베스킨라빈스광명하안점","tel":"02-803-0310","addr":"경기도 광명시 하안동 33-5번지","indutype":"음료식품 - 제과점","category":"food"}]},{"lat":"37.45193216","long":"126.8633755","imageIndex":7,"items":[{"name":"베스트매점","tel":"02-899-7790","addr":"경기도 광명시 하안동 884-4번지 3층","indutype":"음료식품 - 기타음료식품","category":"food"}]},{"lat":"37.45995973","long":"126.8709335","imageIndex":7,"items":[{"name":"보미유통","tel":"070-4842-5812","addr":"경기도 광명시 하안동 578-6번지 501호","indutype":"음료식품 - 기타음료식품","category":"food"}]},{"lat":"37.45710065","long":"126.8852359","imageIndex":7,"items":[{"name":"복지매점","tel":"02-899-4501","addr":"경기도 광명시 하안동 201번지 광명시범공단 1층 2호","indutype":"음료식품 - 기타음료식품","category":"food"},{"name":"부부야채과일","tel":"02-897-8218","addr":"경기도 광명시 하안동 201 경향상가101","indutype":"음료식품 - 농·축·수산품","category":"food"}]},{"lat":"37.46174342","long":"126.8789894","imageIndex":7,"items":[{"name":"봄시루","tel":"02-2625-4156","addr":"경기도 광명시 하안동 36-1번지 제일빌딩 406호","indutype":"음료식품 - 제과점","category":"food"},{"name":"생그린광명지사","tel":"02-897-1441","addr":"경기도 광명시 하안동 36-1번지 제일빌딩 306호","indutype":"회원제형태 - 건강식품","category":"food"}]},{"lat":"37.45982651","long":"126.8726743","imageIndex":7,"items":[{"name":"부자떡방아","tel":"02-897-1319","addr":"경기도 광명시 하안동 601번지","indutype":"음료식품 - 제과점","category":"food"}]},{"lat":"37.46001606","long":"126.8729792","imageIndex":7,"items":[{"name":"블랙","tel":"","addr":"경기도 광명시 하안동 601-3번지 401호","indutype":"음료식품 - 기타음료식품","category":"food"},{"name":"청춘","tel":"","addr":"경기도 광명시 하안동 601-3번지 401호","indutype":"음료식품 - 기타음료식품","category":"food"}]},{"lat":"37.46246422","long":"126.8789882","imageIndex":7,"items":[{"name":"블럭제빵소 광명하안점","tel":"02-898-0159","addr":"경기도 광명시 하안동 34-7번지 우덕빌딩 1층 103호","indutype":"음료식품 - 제과점","category":"food"},{"name":"정담은고기","tel":"02-898-5709","addr":"경기도 광명시 하안동 34-7번지 우덕빌딩 101호","indutype":"음료식품 - 정육점","category":"food"},{"name":"종로복떡집","tel":"02-808-4478","addr":"경기도 광명시 하안동 34-7번지 우덕빌딩 105호","indutype":"음료식품 - 제과점","category":"food"}]},{"lat":"37.46101473","long":"126.8800644","imageIndex":7,"items":[{"name":"사랑채","tel":"02-899-7890","addr":"경기도 광명시 하안동 52-5번지 제1층 제에프호","indutype":"음료식품 - 제과점","category":"food"}]},{"lat":"37.46754414","long":"126.8773747","imageIndex":7,"items":[{"name":"산들수광명하안점","tel":"02-896-4988","addr":"경기도 광명시 하안동 13번지 주공9단지 상가 110호","indutype":"음료식품 - 농·축·수산품","category":"food"}]},{"lat":"37.45921307","long":"126.8719859","imageIndex":7,"items":[{"name":"서울우유하안동고객센터","tel":"02-897-3940","addr":"경기도 광명시 하안동 602-13번지","indutype":"음료식품 - 기타음료식품","category":"food"}]},{"lat":"37.46104448","long":"126.8741529","imageIndex":7,"items":[{"name":"소망건강원","tel":"02-897-0715","addr":"경기도 광명시 하안동 598-10번지 1층 지상 1층","indutype":"건강식품 - 기타건강식품","category":"food"}]},{"lat":"37.4620685","long":"126.8796783","imageIndex":7,"items":[{"name":"솔직푸드","tel":"02-6406-9300","addr":"경기도 광명시 하안동 36-4번지 성보프라자 605호","indutype":"음료식품 - 기타음료식품","category":"food"},{"name":"허생떡방광명본점","tel":"02-892-3939","addr":"경기도 광명시 하안동 36-4번지 104호","indutype":"음료식품 - 제과점","category":"food"}]},{"lat":"37.45285248","long":"126.8644814","imageIndex":7,"items":[{"name":"신농축산","tel":"02-899-1077","addr":"경기도 광명시 하안동 882-2번지","indutype":"음료식품 - 정육점","category":"food"}]},{"lat":"37.46146517","long":"126.8800071","imageIndex":7,"items":[{"name":"싱싱야채","tel":"031-3654-6362","addr":"경기도 광명시 하안동 715-2번지 노점","indutype":"음료식품 - 농·축·수산품","category":"food"},{"name":"정인 젓갈","tel":"","addr":"경기도 광명시 하안동 715-2번지 노점","indutype":"음료식품 - 농·축·수산품","category":"food"}]},{"lat":"37.46107203","long":"126.8746276","imageIndex":7,"items":[{"name":"아로마뜨베이커리","tel":"02-897-4155","addr":"경기도 광명시 하안동 599-8번지 1층","indutype":"음료식품 - 제과점","category":"food"}]},{"lat":"37.45704659","long":"126.8606535","imageIndex":7,"items":[{"name":"안골농원","tel":"02-898-2491","addr":"경기도 광명시 하안동 468-1번지","indutype":"음료식품 - 농·축·수산품","category":"food"}]},{"lat":"37.46257452","long":"126.8810904","imageIndex":7,"items":[{"name":"에이스축산","tel":"02-897-7226","addr":"경기도 광명시 하안동 54-3번지 부림코아빌딩 1층 104호","indutype":"음료식품 - 정육점","category":"food"}]},{"lat":"37.46668638","long":"126.8756805","imageIndex":7,"items":[{"name":"열두달 케이크","tel":"","addr":"경기도 광명시 하안동 681-4번지 한마음단지 상가 107호","indutype":"음료식품 - 기타음료식품","category":"food"}]},{"lat":"37.46479026","long":"126.8803973","imageIndex":7,"items":[{"name":"영수축수산","tel":"02-805-8080","addr":"경기도 광명시 하안동 30-5번지 하안주공10단지 종합상가 홈마트 수산코너","indutype":"음료식품 - 농·축·수산품","category":"food"}]},{"lat":"37.46512676","long":"126.8667873","imageIndex":7,"items":[{"name":"영신정육점","tel":"02-898-0936","addr":"경기도 광명시 하안동 702-1번지 주공5단지 상가 105호","indutype":"음료식품 - 정육점","category":"food"}]},{"lat":"37.46334687","long":"126.8786816","imageIndex":7,"items":[{"name":"예쁜짓하는도라짓","tel":"","addr":"경기도 광명시 하안동 34번지 한일빌딩 3층 303호","indutype":"음료식품 - 기타음료식품","category":"food"}]},{"lat":"37.45871365","long":"126.8767113","imageIndex":7,"items":[{"name":"오성리테일 시스템","tel":"","addr":"경기도 광명시 하안동 305-1번지 프라임모터스빌딩 2층 233,234호","indutype":"음료식품 - 기타음료식품","category":"food"}]},{"lat":"37.46099081","long":"126.8745147","imageIndex":7,"items":[{"name":"우리농수산물","tel":"02-899-4626","addr":"경기도 광명시 하안동 599-7번지 1층","indutype":"음료식품 - 농·축·수산품","category":"food"}]},{"lat":"37.46068348","long":"126.8735997","imageIndex":7,"items":[{"name":"우리반찬","tel":"02-897-0702","addr":"경기도 광명시 하안동 598-15번지 1층 104호","indutype":"음료식품 - 기타음료식품","category":"food"}]},{"lat":"37.4611799","long":"126.8744013","imageIndex":7,"items":[{"name":"우리참한우축산","tel":"02-897-0333","addr":"경기도 광명시 하안동 598-8번지 101호","indutype":"음료식품 - 정육점","category":"food"}]},{"lat":"37.46081886","long":"126.8738142","imageIndex":7,"items":[{"name":"위드아이스","tel":"","addr":"경기도 광명시 하안동 598-13번지 102호","indutype":"음료식품 - 기타음료식품","category":"food"}]},{"lat":"37.46079812","long":"126.879703","imageIndex":7,"items":[{"name":"위드아이스(광명하안점)","tel":"","addr":"경기도 광명시 하안동 52-2번지 대하빌딩 1층 107호","indutype":"음료식품 - 기타음료식품","category":"food"}]},{"lat":"37.46187737","long":"126.8778476","imageIndex":7,"items":[{"name":"이가축산","tel":"031-0000-0000","addr":"경기도 광명시 하안동 651-1번지 송화빌딩 107호","indutype":"음료식품 - 정육점","category":"food"},{"name":"장독대하안점","tel":"02-898-5988","addr":"경기도 광명시 하안동 651-1번지 송화빌딩 1층 105호","indutype":"음료식품 - 기타음료식품","category":"food"}]},{"lat":"37.45629704","long":"126.8835193","imageIndex":7,"items":[{"name":"이동크리스탈생수","tel":"02-892-2830","addr":"경기도 광명시 하안동 260번지 하안8단지주공아파트","indutype":"음료식품 - 기타음료식품","category":"food"}]},{"lat":"37.4611295","long":"126.8778149","imageIndex":7,"items":[{"name":"이슬로건강원","tel":"02-891-4996","addr":"경기도 광명시 하안동 296-3번지","indutype":"건강식품 - 기타건강식품","category":"food"}]},{"lat":"37.46304082","long":"126.8789533","imageIndex":7,"items":[{"name":"잔치떡집","tel":"02-891-2340","addr":"경기도 광명시 하안동 34-2번지 상업지구목화빌딩 106호","indutype":"음료식품 - 제과점","category":"food"},{"name":"파리바게뜨","tel":"02-899-7180","addr":"경기도 광명시 하안동 34-2번지","indutype":"음료식품 - 제과점","category":"food"}]},{"lat":"37.45951966","long":"126.8722114","imageIndex":7,"items":[{"name":"장수복건강원","tel":"02-899-5427","addr":"경기도 광명시 하안동 602-3번지 1층","indutype":"건강식품 - 기타건강식품","category":"food"}]},{"lat":"37.46234687","long":"126.8787849","imageIndex":7,"items":[{"name":"정관장하안사거리점","tel":"02-891-2304","addr":"경기도 광명시 하안동 34-8번지 101호","indutype":"건강식품 - 홍삼제품","category":"food"}]},{"lat":"37.46071198","long":"126.874956","imageIndex":7,"items":[{"name":"주식회사광명농산물유통","tel":"02-6339-5989","addr":"경기도 광명시 하안동 605-10번지","indutype":"음료식품 - 미곡상","category":"food"}]},{"lat":"37.46918404","long":"126.8774511","imageIndex":7,"items":[{"name":"진성고등학교 구내매점","tel":"02-803-2490","addr":"경기도 광명시 하안동 23-1번지 진성고등학교 1층","indutype":"음료식품 - 기타음료식품","category":"food"},{"name":"진성고등학교매점","tel":"02-754-2523","addr":"경기도 광명시 하안동 23-1번지 진성고등학교","indutype":"음료식품 - 기타음료식품","category":"food"}]},{"lat":"37.45912839","long":"126.8857301","imageIndex":7,"items":[{"name":"채소나라","tel":"02-894-3626","addr":"경기도 광명시 하안동 200-3번지 주공13단지 라상가 104호","indutype":"음료식품 - 농·축·수산품","category":"food"},{"name":"하안정육점","tel":"02-806-8862","addr":"경기도 광명시 하안동 200-3번지 107호","indutype":"음료식품 - 정육점","category":"food"}]},{"lat":"37.4515716","long":"126.8632406","imageIndex":7,"items":[{"name":"캔들스토리","tel":"02-896-0886","addr":"경기도 광명시 하안동 886-4번지","indutype":"음료식품 - 기타음료식품","category":"food"}]},{"lat":"37.45956588","long":"126.8817621","imageIndex":7,"items":[{"name":"툴사","tel":"","addr":"경기도 광명시 하안동 295번지 하안7단지고층주공아파트","indutype":"건강식품 - 기타건강식품","category":"food"}]},{"lat":"37.46854203","long":"126.8672107","imageIndex":7,"items":[{"name":"파리바게트광명대림점","tel":"02-899-6304","addr":"경기도 광명시 하안동 864번지 이편한세상센트레빌아파트 1층 110호","indutype":"음료식품 - 제과점","category":"food"}]},{"lat":"37.45932251","long":"126.8731838","imageIndex":7,"items":[{"name":"파스퇴르 새금천광명대리점","tel":"070-8658-4860","addr":"경기도 광명시 하안동 607번지 상가 102호","indutype":"음료식품 - 기타음료식품","category":"food"}]},{"lat":"37.4609352","long":"126.8730906","imageIndex":7,"items":[{"name":"풍년과일","tel":"","addr":"경기도 광명시 하안동 583-9번지","indutype":"음료식품 - 농·축·수산품","category":"food"}]},{"lat":"37.45829118","long":"126.8776501","imageIndex":7,"items":[{"name":"하나푸드","tel":"02-6954-2555","addr":"경기도 광명시 하안동 322번지 제니스빌딩 502호","indutype":"음료식품 - 기타음료식품","category":"food"}]},{"lat":"37.46129688","long":"126.8742655","imageIndex":7,"items":[{"name":"하안흑염소","tel":"031-897-2630","addr":"경기도 광명시 하안동 598-7번지","indutype":"건강식품 - 기타건강식품","category":"food"}]},{"lat":"37.45512642","long":"126.8597869","imageIndex":7,"items":[{"name":"한국유통","tel":"02-6340-5359","addr":"경기도 광명시 하안동 475-1번지","indutype":"음료식품 - 기타음료식품","category":"food"}]},{"lat":"37.4514371","long":"126.8637946","imageIndex":7,"items":[{"name":"한우가정육점","tel":"02-2066-1122","addr":"경기도 광명시 하안동 885번지 1층","indutype":"음료식품 - 정육점","category":"food"}]},{"lat":"37.45993649","long":"126.8743695","imageIndex":7,"items":[{"name":"한우농장","tel":"02-896-2888","addr":"경기도 광명시 하안동 606-18번지 101호","indutype":"음료식품 - 정육점","category":"food"}]},{"lat":"37.46035001","long":"126.8735098","imageIndex":7,"items":[{"name":"한우마을축산","tel":"02-898-8851","addr":"경기도 광명시 하안동 601-8번지","indutype":"음료식품 - 정육점","category":"food"}]},{"lat":"37.45754406","long":"126.8783182","imageIndex":7,"items":[{"name":"한우천국 하안점","tel":"02-989-1579","addr":"경기도 광명시 하안동 322-5번지","indutype":"음료식품 - 정육점","category":"food"}]},{"lat":"37.4614661","long":"126.8809001","imageIndex":7,"items":[{"name":"행복축산","tel":"031-898-6678","addr":"경기도 광명시 하안동 62번지 금성빌딩 1층 103호","indutype":"음료식품 - 정육점","category":"food"}]},{"lat":"37.46480078","long":"126.8733665","imageIndex":7,"items":[{"name":"호건상회","tel":"","addr":"경기도 광명시 하안동 682번지 하안1단지고층주공아파트","indutype":"음료식품 - 농·축·수산품","category":"food"}]}]