[{"lat":"37.284324897","long":"127.3981094","imageIndex":4,"items":[{"name":"나무대장간","tel":"031-632-5045","addr":"경기도 이천시 마장면 장암리 397-1번지 1동 101호","indutype":"일반휴게음식 - 서양음식","category":"restaurant"}]},{"lat":"37.280217292","long":"127.39779476","imageIndex":4,"items":[{"name":"늘행복한식당","tel":"031-631-2564","addr":"경기도 이천시 마장면 장암리 370-1번지 지하1층","indutype":"일반휴게음식 - 일반한식","category":"restaurant"}]},{"lat":"37.272158499","long":"127.40157474","imageIndex":4,"items":[{"name":"도예촌짬뽕마을","tel":"031-635-4680","addr":"경기도 이천시 마장면 장암리 148번지","indutype":"일반휴게음식 - 중국식","category":"restaurant"}]},{"lat":"37.283802427","long":"127.39807284","imageIndex":4,"items":[{"name":"또또한식부페(서이천)","tel":"031-638-3566","addr":"경기도 이천시 마장면 장암리 397-3번지","indutype":"일반휴게음식 - 일반한식","category":"restaurant"}]},{"lat":"37.280716277","long":"127.39946619","imageIndex":4,"items":[{"name":"박승광해물손칼국수 (이천점)","tel":"031-637-1123","addr":"경기도 이천시 마장면 장암리 329번지","indutype":"일반휴게음식 - 일반한식","category":"restaurant"}]},{"lat":"37.284351568","long":"127.40090609","imageIndex":4,"items":[{"name":"솔잎식당 정양산업지점","tel":"031-634-7172","addr":"경기도 이천시 마장면 장암리 405-4번지","indutype":"일반휴게음식 - 위탁급식업","category":"restaurant"}]},{"lat":"37.284133199","long":"127.39885264","imageIndex":4,"items":[{"name":"양지숯불갈매기살","tel":"031-638-3292","addr":"경기도 이천시 마장면 장암리 400","indutype":"일반휴게음식 - 일반한식","category":"restaurant"}]},{"lat":"37.276913769","long":"127.39952517","imageIndex":4,"items":[{"name":"양평뚝배기해장국","tel":"031-635-6260","addr":"경기도 이천시 마장면 장암리 312번지","indutype":"일반휴게음식 - 일반한식","category":"restaurant"}]},{"lat":"37.28385581","long":"127.3982761","imageIndex":4,"items":[{"name":"우리","tel":"031-635-7897","addr":"경기도 이천시 마장면 장암리 397-2번지","indutype":"일반휴게음식 - 일반한식","category":"restaurant"}]},{"lat":"37.279245937","long":"127.39996588","imageIndex":4,"items":[{"name":"주식회사 이태리면나포리가든","tel":"031-633-0655","addr":"경기도 이천시 마장면 장암리 325번지 4동 1층","indutype":"일반휴게음식 - 서양음식","category":"restaurant"}]},{"lat":"37.277906157","long":"127.40183056","imageIndex":4,"items":[{"name":"진미쌀밥","tel":"031-635-1036","addr":"경기도 이천시 마장면 장암리 16-1번지","indutype":"일반휴게음식 - 일반한식","category":"restaurant"}]},{"lat":"37.283301436","long":"127.39699898","imageIndex":4,"items":[{"name":"카페(CAFE)이채","tel":"031-637-0576","addr":"경기도 이천시 마장면 장암리 389-7번지","indutype":"일반휴게음식 - 서양음식","category":"restaurant"},{"name":"카페이채","tel":"031-000-0000","addr":"경기도 이천시 마장면 장암리 389-7번지","indutype":"일반휴게음식 - 서양음식","category":"restaurant"}]},{"lat":"37.27249282","long":"127.40129464","imageIndex":4,"items":[{"name":"커피이야기","tel":"031-635-5922","addr":"경기도 이천시 마장면 장암리 139번지","indutype":"일반휴게음식 - 서양음식","category":"restaurant"}]}]