[{"lat":"37.815892159","long":"126.96184975","imageIndex":17,"items":[{"name":"(주)골드웨이여행사","tel":"032-611-7788","addr":"경기도 양주시 백석읍 연곡리 55-11번지 B동 2층","indutype":"여행 - 관광여행","category":"other"}]},{"lat":"37.807784186","long":"126.96340995","imageIndex":17,"items":[{"name":"(주)신우M&B","tel":"070-8277-3084","addr":"경기도 양주시 백석읍 연곡리 12-23번지","indutype":"서적문구 - 일반서적","category":"other"}]},{"lat":"37.80800826","long":"126.96008264","imageIndex":17,"items":[{"name":"(주)에이치앤씨파트너스","tel":"031-855-7724","addr":"경기도 양주시 백석읍 연곡리 180-3번지","indutype":"농업 - 비료,사료,종자","category":"other"}]},{"lat":"37.806424051","long":"126.96429639","imageIndex":17,"items":[{"name":"남광섬유","tel":"031-878-9900","addr":"경기도 양주시 백석읍 연곡리 11-15번지 (외 17)","indutype":"직물 - 옷감·직물","category":"other"}]},{"lat":"37.812450952","long":"126.96302135","imageIndex":17,"items":[{"name":"사단법인 한국교육공예 저작권협회","tel":"031-868-8087","addr":"경기도 양주시 백석읍 연곡리 40-9번지","indutype":"문화.취미 - 민예·공예품","category":"other"}]},{"lat":"37.806306839","long":"126.96402392","imageIndex":17,"items":[{"name":"삼화추출포장공업사","tel":"031-879-6566","addr":"경기도 양주시 백석읍 연곡리 11-2번지","indutype":"기타 - 기타 전문점","category":"other"}]},{"lat":"37.806974102","long":"126.96577231","imageIndex":17,"items":[{"name":"상상팩토리","tel":"","addr":"경기도 양주시 백석읍 연곡리 10-17번지","indutype":"서적문구 - 완구점","category":"other"}]},{"lat":"37.806559293","long":"126.96460292","imageIndex":17,"items":[{"name":"신우전기조명","tel":"031-877-0840","addr":"경기도 양주시 백석읍 연곡리 11-10번지 1층","indutype":"건축자재 - 조명기구","category":"other"}]},{"lat":"37.811944443","long":"126.95754793","imageIndex":17,"items":[{"name":"실크로드 인터내셔널","tel":"031-8438-8182","addr":"경기도 양주시 백석읍 연곡리 125-18번지","indutype":"서적문구 - 기타서적문구","category":"other"}]},{"lat":"37.807361545","long":"126.96588567","imageIndex":17,"items":[{"name":"애드인","tel":"031-879-5700","addr":"경기도 양주시 백석읍 연곡리 10-8번지 가동 2층","indutype":"건축자재 - 인테리어전문","category":"other"}]},{"lat":"37.811585742","long":"126.96213604","imageIndex":17,"items":[{"name":"의현","tel":"02-6408-8177","addr":"경기도 양주시 백석읍 연곡리 30-1번지","indutype":"서적문구 - 출판 및 인쇄물","category":"other"}]},{"lat":"37.812674015","long":"126.95704781","imageIndex":17,"items":[{"name":"코나종합상사","tel":"031-829-3037","addr":"경기도 양주시 백석읍 연곡리 132-3번지","indutype":"기타 - 기계공구","category":"other"}]},{"lat":"37.808729832","long":"126.96238743","imageIndex":17,"items":[{"name":"푸드팩 프라자 인쇄","tel":"031-838-2144","addr":"경기도 양주시 백석읍 연곡리 16-5번지","indutype":"유통업 영리 - 기타유통업","category":"other"}]},{"lat":"37.82005954","long":"126.95165981","imageIndex":0,"items":[{"name":"(주)에스에이치로지스","tel":"031-629-7293","addr":"경기도 양주시 백석읍 연곡리 267-7번지 1층","indutype":"자동차판매 - 기타운송","category":"car"}]},{"lat":"37.80683895","long":"126.96573831","imageIndex":0,"items":[{"name":"대한민국No.1카센터","tel":"031-877-8855","addr":"경기도 양주시 백석읍 연곡리 10-1번지","indutype":"자동차정비 유지 - 자동차정비","category":"car"}]},{"lat":"37.808475005","long":"126.95551739","imageIndex":0,"items":[{"name":"킴스자동차정비전문점","tel":"031-829-7778","addr":"경기도 양주시 백석읍 연곡리 187-3번지","indutype":"자동차정비 유지 - 자동차정비","category":"car"}]},{"lat":"37.823278033","long":"126.95680273","imageIndex":7,"items":[{"name":"SMILE MART","tel":"031-855-0635","addr":"경기도 양주시 백석읍 연곡리 327-1번지 나동","indutype":"유통업 영리 - 슈퍼마켓","category":"mart"}]},{"lat":"37.823278033","long":"126.95680273","imageIndex":4,"items":[{"name":"기쁨의 밥상","tel":"","addr":"경기도 양주시 백석읍 연곡리 327-1번지","indutype":"일반휴게음식 - 일반한식","category":"restaurant"}]},{"lat":"37.81880696","long":"126.95104738","imageIndex":4,"items":[{"name":"둥글레","tel":"031-877-9945","addr":"경기도 양주시 백석읍 연곡리 242-4번지","indutype":"일반휴게음식 - 일반한식","category":"restaurant"}]},{"lat":"37.817977946","long":"126.9507186","imageIndex":4,"items":[{"name":"석천가든","tel":"031-826-0787","addr":"경기도 양주시 백석읍 연곡리 242-15번지 1,2층","indutype":"일반휴게음식 - 일반한식","category":"restaurant"}]},{"lat":"37.819749413","long":"126.94355084","imageIndex":4,"items":[{"name":"진미간장게장","tel":"031-855-8730","addr":"경기도 양주시 백석읍 연곡리 340-3번지","indutype":"일반휴게음식 - 일반한식","category":"restaurant"}]},{"lat":"37.814971415","long":"126.95702367","imageIndex":7,"items":[{"name":"맛깔향농원","tel":"","addr":"경기도 양주시 백석읍 연곡리 136-1번지","indutype":"음료식품 - 농·축·수산품","category":"food"}]},{"lat":"37.823278033","long":"126.95680273","imageIndex":7,"items":[{"name":"주식회사 팬타이","tel":"","addr":"경기도 양주시 백석읍 연곡리 327-1번지","indutype":"음료식품 - 기타음료식품","category":"food"}]},{"lat":"37.818723366","long":"126.94563003","imageIndex":7,"items":[{"name":"참조은","tel":"031-878-0670","addr":"경기도 양주시 백석읍 연곡리 340-4번지","indutype":"음료식품 - 기타음료식품","category":"food"}]},{"lat":"37.811585742","long":"126.96213604","imageIndex":16,"items":[{"name":"엘리트배관용접학원","tel":"031-826-2503","addr":"경기도 양주시 백석읍 연곡리 30-1번지 1층","indutype":"회원제형태 - 학원","category":"study"}]},{"lat":"37.817251658","long":"126.95927095","imageIndex":13,"items":[{"name":"주식회사 기연환경","tel":"031-879-5311","addr":"경기도 양주시 백석읍 연곡리 70-1번지","indutype":"레저업소 - 기타레져업소","category":"leisure"}]},{"lat":"37.818338519","long":"126.95116128","imageIndex":9,"items":[{"name":"태광주유소","tel":"031-879-5181","addr":"경기도 양주시 백석읍 연곡리 242-5번지","indutype":"연료판매점 - SK주유소","category":"oil"}]}]