[{"lat":"37.43066916","long":"127.3057794","imageIndex":7,"items":[{"name":"강명기토마토농장","tel":"070-4219-0063","addr":"경기도 광주시 초월읍 서하리 140-5번지","indutype":"음료식품 - 농·축·수산품","category":"food"}]},{"lat":"37.43967001","long":"127.2987195","imageIndex":7,"items":[{"name":"김씨네 팜테리아","tel":"","addr":"경기도 광주시 초월읍 서하리 574번지","indutype":"음료식품 - 농·축·수산품","category":"food"}]},{"lat":"37.43244944","long":"127.3072215","imageIndex":7,"items":[{"name":"대용농장","tel":"031-0000-0000","addr":"경기도 광주시 초월읍 서하리 162번지","indutype":"음료식품 - 농·축·수산품","category":"food"}]},{"lat":"37.43086262","long":"127.3076331","imageIndex":7,"items":[{"name":"또대박수산","tel":"031-765-8892","addr":"경기도 광주시 초월읍 서하리 1018번지","indutype":"음료식품 - 농·축·수산품","category":"food"},{"name":"파트너","tel":"031-765-8892","addr":"경기도 광주시 초월읍 서하리 1018번지 1층","indutype":"음료식품 - 농·축·수산품","category":"food"}]},{"lat":"37.43583492","long":"127.3081052","imageIndex":7,"items":[{"name":"서하리 영농조합법인","tel":"031-797-1133","addr":"경기도 광주시 초월읍 서하리 243-2","indutype":"음료식품 - 농·축·수산품","category":"food"}]},{"lat":"37.43086355","long":"127.3072716","imageIndex":7,"items":[{"name":"서하리마을회구판장","tel":"031-762-2051","addr":"경기도 광주시 초월읍 서하리 127번지","indutype":"음료식품 - 기타음료식품","category":"food"}]},{"lat":"37.43275298","long":"127.3083074","imageIndex":7,"items":[{"name":"이일용농장","tel":"031-767-1503","addr":"경기도 광주시 초월읍 서하리 166-2번지","indutype":"음료식품 - 농·축·수산품","category":"food"}]},{"lat":"37.43958515","long":"127.3037814","imageIndex":7,"items":[{"name":"자연농원","tel":"031-764-1018","addr":"경기도 광주시 초월읍 서하리 670","indutype":"음료식품 - 농·축·수산품","category":"food"}]},{"lat":"37.43671983","long":"127.3002785","imageIndex":7,"items":[{"name":"초심농장","tel":"031-769-1018","addr":"경기도 광주시 초월읍 서하리 213-1번지 1층","indutype":"음료식품 - 농·축·수산품","category":"food"}]},{"lat":"37.43177584","long":"127.3063827","imageIndex":7,"items":[{"name":"해공로 농원","tel":"031-765-1562","addr":"경기도 광주시 초월읍 서하리 157-2번지","indutype":"음료식품 - 농·축·수산품","category":"food"}]},{"lat":"37.43158542","long":"127.3068564","imageIndex":17,"items":[{"name":"기운유통","tel":"031-768-7771","addr":"경기도 광주시 초월읍 서하리 159-2번지 지하","indutype":"의류 - 정장","category":"other"}]},{"lat":"37.43858357","long":"127.3008056","imageIndex":17,"items":[{"name":"다육식물놀이터","tel":"031-767-5605","addr":"경기도 광주시 초월읍 서하리 201-4번지","indutype":"문화.취미 - 화원","category":"other"},{"name":"여유","tel":"02-0000-0000","addr":"경기도 광주시 초월읍 서하리 201-4","indutype":"의류 - 정장","category":"other"}]},{"lat":"37.4319465","long":"127.310078","imageIndex":17,"items":[{"name":"서하원예","tel":"031-765-9705","addr":"경기도 광주시 초월읍 서하리 956번지 외1필지","indutype":"문화.취미 - 화원","category":"other"},{"name":"서하원예육종연구소","tel":"031-765-9705","addr":"경기도 광주시 초월읍 서하리 956 외1필지","indutype":"문화.취미 - 문화취미기타","category":"other"}]},{"lat":"37.43086262","long":"127.3076331","imageIndex":17,"items":[{"name":"세븐일레븐경기광주서하점","tel":"","addr":"경기도 광주시 초월읍 서하리 1018번지","indutype":"유통업 영리 - 편 의 점","category":"other"}]}]