[{"lat":"37.655768004","long":"126.7748179","imageIndex":17,"items":[{"name":"(주)뮤추얼텍","tel":"031-902-0373","addr":"경기도 고양시 일산동구 중앙로","indutype":"용역 서비스 - 소프트웨어","category":"other"}]},{"lat":"37.652603204","long":"126.77826114","imageIndex":17,"items":[{"name":"GT스포츠","tel":"031-969-1175","addr":"경기도 고양시 일산동구 중앙로","indutype":"레져용품 - 골프용품 전문점","category":"other"}]},{"lat":"37.64710438","long":"126.78148439","imageIndex":17,"items":[{"name":"SM건축인테리어","tel":"070-8863-1404","addr":"경기도 고양시 일산동구 중앙로","indutype":"건축자재 - 인테리어전문","category":"other"},{"name":"리홈쿠첸일산서비스","tel":"031-908-9388","addr":"경기도 고양시 일산동구 중앙로","indutype":"수리서비스 - 기타수리서비스","category":"other"}]},{"lat":"37.643575286","long":"126.78781729","imageIndex":17,"items":[{"name":"나들가게편의점","tel":"031-904-9335","addr":"경기도 고양시 일산동구 중앙로","indutype":"유통업 영리 - 편 의 점","category":"other"},{"name":"아리수","tel":"031-904-4394","addr":"경기도 고양시 일산동구 중앙로","indutype":"회원제형태 - 기타4","category":"other"},{"name":"주식회사뉴디아아이엔씨","tel":"1599-2035-0000","addr":"경기도 고양시 일산동구 중앙로","indutype":"건축자재 - 기타건축자재","category":"other"},{"name":"칼라브레제(Calabrese)","tel":"031-901-3358","addr":"경기도 고양시 일산동구 중앙로","indutype":"의류 - 정장","category":"other"}]},{"lat":"37.664548538","long":"126.76824017","imageIndex":17,"items":[{"name":"동우실업","tel":"031-917-4124","addr":"경기도 고양시 일산동구 중앙로","indutype":"기타 - 기계공구","category":"other"}]},{"lat":"37.661542341","long":"126.76976828","imageIndex":17,"items":[{"name":"동일세무회계","tel":"031-902-9301","addr":"경기도 고양시 일산동구 중앙로","indutype":"용역 서비스 - 법률회계서비스(개인)","category":"other"},{"name":"세연세무회계","tel":"031-812-8520","addr":"경기도 고양시 일산동구 중앙로","indutype":"용역 서비스 - 법률회계서비스(개인)","category":"other"},{"name":"최백용세무회계사무소","tel":"031-926-3501","addr":"경기도 고양시 일산동구 중앙로","indutype":"용역 서비스 - 법률회계서비스(개인)","category":"other"}]},{"lat":"37.651657409","long":"126.77837731","imageIndex":17,"items":[{"name":"리바디요가&필라테스","tel":"031-907-7740","addr":"경기도 고양시 일산동구 중앙로","indutype":"회원제형태 - 레져업소","category":"other"}]},{"lat":"37.65632859","long":"126.77584744","imageIndex":17,"items":[{"name":"베스텍","tel":"031-967-8885","addr":"경기도 고양시 일산동구 중앙로","indutype":"전기제품 - 기타전기제품","category":"other"}]},{"lat":"37.64960667","long":"126.78020784","imageIndex":17,"items":[{"name":"스카이3텔레콤","tel":"031-904-7743","addr":"경기도 고양시 일산동구 중앙로","indutype":"사무통신 - 통신기기","category":"other"}]},{"lat":"37.648830106","long":"126.77929232","imageIndex":17,"items":[{"name":"실과바늘","tel":"070-4242-1483","addr":"경기도 고양시 일산동구 중앙로","indutype":"의류 - 내의판매","category":"other"}]},{"lat":"37.6649082","long":"126.76787636","imageIndex":17,"items":[{"name":"아트나우","tel":"031-904-3134","addr":"경기도 고양시 일산동구 중앙로","indutype":"회원제형태 - 서적","category":"other"}]},{"lat":"37.661025917","long":"126.76831925","imageIndex":17,"items":[{"name":"째즈","tel":"031-908-3315","addr":"경기도 고양시 일산동구 중앙로","indutype":"신변잡화 - 신발","category":"other"}]},{"lat":"37.643024539","long":"126.78718437","imageIndex":17,"items":[{"name":"타투","tel":"031-908-3585","addr":"경기도 고양시 일산동구 중앙로","indutype":"의류 - 정장","category":"other"}]},{"lat":"37.640948618","long":"126.79011354","imageIndex":17,"items":[{"name":"페파민트","tel":"031-901-8177","addr":"경기도 고양시 일산동구 중앙로","indutype":"의류 - 정장","category":"other"}]},{"lat":"37.656407007","long":"126.77446464","imageIndex":17,"items":[{"name":"한별정보통신","tel":"031-1544-1249","addr":"경기도 고양시 일산동구 중앙로","indutype":"사무통신 - 통신기기","category":"other"},{"name":"현대세탁","tel":"031-817-1470","addr":"경기도 고양시 일산동구 중앙로","indutype":"수리서비스 - 세탁소","category":"other"}]},{"lat":"37.65132241","long":"126.77751711","imageIndex":17,"items":[{"name":"호수광고인쇄","tel":"031-908-7746","addr":"경기도 고양시 일산동구 중앙로","indutype":"용역 서비스 - 사무서비스","category":"other"}]}]