[{"lat":"37.317337188","long":"126.84726668","imageIndex":13,"items":[{"name":"(주)네일죤롯데마트안산점","tel":"070-7012-9358","addr":"경기도 안산시 상록구 성포동 590롯데마트안산점지상2층","indutype":"보건위생 - 미용재료","category":"beauty"},{"name":"네일죤","tel":"031-405-8315","addr":"경기도 안산시 상록구 성포동 590번지 롯데마트안산점 2층","indutype":"보건위생 - 피부미용실","category":"beauty"}]},{"lat":"37.317115521","long":"126.85001978","imageIndex":13,"items":[{"name":"(주)네일죤홈플러스안산점","tel":"031-413-4744","addr":"경기도 안산시 상록구 성포동 586번지 홈플러스안사점 1층","indutype":"보건위생 - 미용재료","category":"beauty"}]},{"lat":"37.326806655","long":"126.84707791","imageIndex":13,"items":[{"name":"(주)태화유업고려스파랜드지점","tel":"031-480-5001","addr":"경기도 안산시 상록구 성포동 593-17번지 성포타운 401,501호","indutype":"보건위생 - 사우나","category":"beauty"},{"name":"고려스파랜드","tel":"031-480-5001","addr":"경기도 안산시 상록구 성포동 593-17번지 성포타운 5층","indutype":"보건위생 - 사우나","category":"beauty"},{"name":"고려스파랜드뷰티쓰리","tel":"031-480-5001","addr":"경기도 안산시 상록구 성포동 593-17번지 성포타운 501호","indutype":"보건위생 - 기타대인서비스","category":"beauty"},{"name":"고려스파랜드뷰티원","tel":"031-480-5001","addr":"경기도 안산시 상록구 성포동 593-17번지 성포타운 501호","indutype":"보건위생 - 기타대인서비스","category":"beauty"},{"name":"고려스파랜드뷰티투","tel":"031-480-5001","addr":"경기도 안산시 상록구 성포동 593-17번지 성포타운 501호","indutype":"보건위생 - 기타대인서비스","category":"beauty"},{"name":"고려스파랜드피부샵","tel":"031-480-5001","addr":"경기도 안산시 상록구 성포동 593-17번지 4층 일부 401호","indutype":"보건위생 - 피부미용실","category":"beauty"},{"name":"우텍헬스케어","tel":"031-405-7564","addr":"경기도 안산시 상록구 성포동 593-16 성포타운 310","indutype":"보건위생 - 의료용품","category":"beauty"},{"name":"행복한실버복지센터","tel":"031-486-1478","addr":"경기도 안산시 상록구 성포동 593-16,17 성포타운 309","indutype":"보건위생 - 의료용품","category":"beauty"}]},{"lat":"37.321729593","long":"126.84382789","imageIndex":13,"items":[{"name":"국제안경","tel":"031-482-9988","addr":"경기도 안산시 상록구 성포동 583번지 스타프라자 1층 10호","indutype":"보건위생 - 안경","category":"beauty"},{"name":"헤어마트","tel":"031-480-3760","addr":"경기도 안산시 상록구 성포동 583 스타프라자1층64호,65호","indutype":"보건위생 - 미용재료","category":"beauty"},{"name":"화장품잡화","tel":"031-402-5004","addr":"경기도 안산시 상록구 성포동 583번지 예술인아파트 스타프라자 상가동 1층 19호","indutype":"보건위생 - 화장품","category":"beauty"},{"name":"화장하는사람들","tel":"031-486-4448","addr":"경기도 안산시 상록구 성포동 583/1층33호","indutype":"보건위생 - 화장품","category":"beauty"}]},{"lat":"37.325612124","long":"126.84318788","imageIndex":13,"items":[{"name":"권지연헤어샵","tel":"031-403-3115","addr":"경기도 안산시 상록구 성포동 592선경A상가224","indutype":"보건위생 - 미용원","category":"beauty"},{"name":"무지개에스테틱","tel":"070-4254-0160","addr":"경기도 안산시 상록구 성포동 592번지 선경상가 A동 201,202호","indutype":"보건위생 - 피부미용실","category":"beauty"},{"name":"미스킨앤바디샵","tel":"031-401-1507","addr":"경기도 안산시 상록구 성포동 592번지 지하1층 16호 선경상가","indutype":"보건위생 - 피부미용실","category":"beauty"},{"name":"헤나킹","tel":"031-483-6488","addr":"경기도 안산시 상록구 성포동 592번지 선경상가비동 108호 107호,108호","indutype":"보건위생 - 미용재료","category":"beauty"}]},{"lat":"37.32662146","long":"126.84333242","imageIndex":13,"items":[{"name":"마샬미용실","tel":"031-403-6806","addr":"경기도 안산시 상록구 성포동 592 선경상가 A-224","indutype":"보건위생 - 미용원","category":"beauty"}]},{"lat":"37.320783661","long":"126.84393142","imageIndex":13,"items":[{"name":"블루클럽(성포점)","tel":"031-402-3011","addr":"경기도 안산시 상록구 성포동 583-5번지 예술프라자 1층 109호","indutype":"보건위생 - 미용원","category":"beauty"},{"name":"샵 (#)다온","tel":"031-411-9047","addr":"경기도 안산시 상록구 성포동 583-5번지 예술프라자 205호","indutype":"보건위생 - 피부미용실","category":"beauty"},{"name":"안경박사성포점","tel":"031-401-7779","addr":"경기도 안산시 상록구 성포동 583-5번지 예술프라자 1층 104호","indutype":"보건위생 - 안경","category":"beauty"},{"name":"예술스파랜드(주)","tel":"031-485-7937","addr":"경기도 안산시 상록구 성포동 583-5번지 예술프라자 지하1층","indutype":"보건위생 - 사우나","category":"beauty"},{"name":"예술피부사랑","tel":"031-484-2229","addr":"경기도 안산시 상록구 성포동 583-5번지 예술프라자 2층 208호","indutype":"보건위생 - 피부미용실","category":"beauty"},{"name":"예술피부사랑","tel":"031-484-2229","addr":"경기도 안산시 상록구 성포동 583-5번지 예술프라자 208호","indutype":"보건위생 - 화장품","category":"beauty"},{"name":"큐티폭스","tel":"031-486-2551","addr":"경기도 안산시 상록구 성포동 583-5번지 예술프라자 206호","indutype":"보건위생 - 미용원","category":"beauty"},{"name":"헤어살롱엔","tel":"031-486-1123","addr":"경기도 안산시 상록구 성포동 583-5번지 예술프라자 1층 111호","indutype":"보건위생 - 미용원","category":"beauty"}]},{"lat":"37.320064041","long":"126.8448242","imageIndex":13,"items":[{"name":"비손네일 (pishon nail)","tel":"031-505-7007","addr":"경기도 안산시 상록구 성포동 588-2번지 111호,116호","indutype":"보건위생 - 피부미용실","category":"beauty"},{"name":"헤어사이언스 멋","tel":"031-410-6900","addr":"경기도 안산시 상록구 성포동 588-2번지 주공4단지아파트 종합상가 108호","indutype":"보건위생 - 미용원","category":"beauty"}]},{"lat":"37.323091248","long":"126.8446599","imageIndex":13,"items":[{"name":"선우뷰티","tel":"031-401-5003","addr":"경기도 안산시 상록구 성포동 583-4번지 사이버스튜디오 209호","indutype":"보건위생 - 피부미용실","category":"beauty"}]},{"lat":"37.3192836823","long":"126.8474883008","imageIndex":13,"items":[{"name":"세이프존","tel":"031-480-6474","addr":"경기도 안산시 상록구 성포동 747번지","indutype":"도매 및 소매업 - 미용재료판매,미용","category":"beauty"}]},{"lat":"37.319283682","long":"126.8474883","imageIndex":13,"items":[{"name":"세이프존","tel":"031-480-6474","addr":"경기도 안산시 상록구 성포동 747번지 안산파크푸르지오 상가동 212호","indutype":"보건위생 - 미용재료","category":"beauty"},{"name":"콩스 네일","tel":"","addr":"경기도 안산시 상록구 성포동 747번지 안산파크푸르지오 307호","indutype":"보건위생 - 피부미용실","category":"beauty"},{"name":"파크헤어","tel":"031-483-3060","addr":"경기도 안산시 상록구 성포동 747번지 안산파크푸르지오 상가동 211호","indutype":"보건위생 - 미용원","category":"beauty"}]},{"lat":"37.320171348","long":"126.84421475","imageIndex":13,"items":[{"name":"쉐마아동가족센터","tel":"070-7523-9834","addr":"경기도 안산시 상록구 성포동 588-1번지 2층","indutype":"보건위생 - 기타대인서비스","category":"beauty"}]},{"lat":"37.324529652","long":"126.84904576","imageIndex":13,"items":[{"name":"엘가헤어","tel":"031-480-0998","addr":"경기도 안산시 상록구 성포동 591-3번지 정수빌딩 105호","indutype":"보건위생 - 미용원","category":"beauty"}]},{"lat":"37.326615126","long":"126.84532948","imageIndex":13,"items":[{"name":"예당약쑥좌훈원","tel":"031-403-9022","addr":"경기도 안산시 상록구 성포동 593-6번지 성포프라자 202호","indutype":"보건위생 - 의료용품","category":"beauty"},{"name":"헤어크레이션(성포점)","tel":"031-405-8779","addr":"경기도 안산시 상록구 성포동 593-6번지 성포프라자 205호","indutype":"보건위생 - 미용원","category":"beauty"}]},{"lat":"37.320507101","long":"126.84599658","imageIndex":13,"items":[{"name":"이앤끼","tel":"031-401-7751","addr":"경기도 안산시 상록구 성포동 584-2번지 복합상가 1층 105호","indutype":"보건위생 - 미용원","category":"beauty"}]},{"lat":"37.324641449","long":"126.84499513","imageIndex":13,"items":[{"name":"태후사랑","tel":"031-403-5038","addr":"경기도 안산시 상록구 성포동 592-2번지 안산현대1차아파트 212호","indutype":"보건위생 - 화장품","category":"beauty"}]},{"lat":"37.326838736","long":"126.84409919","imageIndex":13,"items":[{"name":"포톤테라피","tel":"031-481-8278","addr":"경기도 안산시 상록구 성포동 593-11번지 경동프라자 302호","indutype":"보건위생 - 피부미용실","category":"beauty"}]},{"lat":"37.325391836","long":"126.8469116","imageIndex":13,"items":[{"name":"한수진미용실","tel":"031-401-9115","addr":"경기도 안산시 상록구 성포동 591주공종합상가206-1호","indutype":"보건위생 - 미용원","category":"beauty"}]},{"lat":"37.326667997","long":"126.84443803","imageIndex":13,"items":[{"name":"행복한 안경","tel":"031-480-0207","addr":"경기도 안산시 상록구 성포동 593-10번지 선경프라자 101호","indutype":"보건위생 - 안경","category":"beauty"},{"name":"헤어즈미용실","tel":"031-480-0160","addr":"경기도 안산시 상록구 성포동 593-10번지 선경프라자 202호","indutype":"보건위생 - 미용원","category":"beauty"}]}]