[{"lat":"37.107768748","long":"127.49196127","imageIndex":17,"items":[{"name":"(주)에이스쿨러","tel":"031-8057-2166","addr":"경기도 안성시 일죽면 능국리 598-2번지 전층","indutype":"전기제품 - 냉열기기","category":"other"}]},{"lat":"37.103903293","long":"127.48976526","imageIndex":17,"items":[{"name":"대윤종합상사","tel":"031-671-4581","addr":"경기도 안성시 일죽면 능국리 298-2번지","indutype":"의류 - 기타의류","category":"other"}]},{"lat":"37.105845058","long":"127.48645899","imageIndex":17,"items":[{"name":"렉스피아튜닝","tel":"031-214-1913","addr":"경기도 안성시 일죽면 능국리 480-2번지","indutype":"레져용품 - 스포츠·레져용품","category":"other"}]},{"lat":"37.104821147","long":"127.48565375","imageIndex":17,"items":[{"name":"세븐일레븐안성호국대로점","tel":"031-1577-0711","addr":"경기도 안성시 일죽면 능국리 442-1번지","indutype":"유통업 영리 - 편 의 점","category":"other"}]},{"lat":"37.108431899","long":"127.49501434","imageIndex":17,"items":[{"name":"세인유나이티드","tel":"02-448-7188","addr":"경기도 안성시 일죽면 능국리 137-2번지","indutype":"건축자재 - 목재·석재·철물","category":"other"}]},{"lat":"37.105320204","long":"127.48921184","imageIndex":17,"items":[{"name":"예담도예","tel":"070-8637-5355","addr":"경기도 안성시 일죽면 능국리 399-4번지","indutype":"주방용구 - 주방용식기","category":"other"}]},{"lat":"37.113871776","long":"127.48684755","imageIndex":17,"items":[{"name":"천일낚시","tel":"","addr":"경기도 안성시 일죽면 능국리 736-3번지","indutype":"레져용품 - 스포츠·레져용품","category":"other"}]},{"lat":"37.113212245","long":"127.48284928","imageIndex":17,"items":[{"name":"효성모터","tel":"031-643-2707","addr":"경기도 안성시 일죽면 능국리 707-3번지","indutype":"건축자재 - 보일러·펌프·샷시","category":"other"}]},{"lat":"37.103902441","long":"127.49216141","imageIndex":5,"items":[{"name":"골든파크여관","tel":"031-674-1300","addr":"경기도 안성시 일죽면 능국리 367-3번지","indutype":"숙박업 - 여관/기타숙박업","category":"hotel"}]},{"lat":"37.103793479","long":"127.48577098","imageIndex":4,"items":[{"name":"교동짬뽕","tel":"031-672-5256","addr":"경기도 안성시 일죽면 능국리 345-9번지 1층","indutype":"일반휴게음식 - 중국식","category":"restaurant"}]},{"lat":"37.106433884","long":"127.48568649","imageIndex":4,"items":[{"name":"안일해장국","tel":"031-672-8324","addr":"경기도 안성시 일죽면 능국리 462번지","indutype":"일반휴게음식 - 일반한식","category":"restaurant"}]},{"lat":"37.105375528","long":"127.4844873","imageIndex":4,"items":[{"name":"오다가다가마솥설렁탕","tel":"031-674-5360","addr":"경기도 안성시 일죽면 능국리 454-4번지","indutype":"일반휴게음식 - 일반한식","category":"restaurant"}]},{"lat":"37.106650588","long":"127.48557536","imageIndex":4,"items":[{"name":"차돌한식부페","tel":"031-674-8288","addr":"경기도 안성시 일죽면 능국리 461-1번지","indutype":"일반휴게음식 - 일반한식","category":"restaurant"}]},{"lat":"37.102714291","long":"127.49404366","imageIndex":7,"items":[{"name":"대화농산물","tel":"031-673-5760","addr":"경기도 안성시 일죽면 능국리 217-1번지","indutype":"음료식품 - 농·축·수산품","category":"food"},{"name":"영농조합법인 나물천지","tel":"031-674-4320","addr":"경기도 안성시 일죽면 능국리 217-1번지","indutype":"음료식품 - 농·축·수산품","category":"food"}]},{"lat":"37.105102707","long":"127.4851043","imageIndex":7,"items":[{"name":"삼거리슈퍼","tel":"031-673-0097","addr":"경기도 안성시 일죽면 능국리 448-2번지","indutype":"유통업 영리 - 슈퍼마켓","category":"mart"}]},{"lat":"37.103907365","long":"127.48435426","imageIndex":9,"items":[{"name":"삼팔주유소","tel":"031-674-5050","addr":"경기도 안성시 일죽면 능국리 348-3번지","indutype":"연료판매점 - SK주유소","category":"oil"}]},{"lat":"37.107849395","long":"127.48988052","imageIndex":13,"items":[{"name":"성광","tel":"031-674-3326","addr":"경기도 안성시 일죽면 능국리 570-3번지","indutype":"보건위생 - 의료용품","category":"beauty"}]}]