[{"lat":"37.703913894","long":"127.16028835","imageIndex":13,"items":[{"name":"김인영미용실","tel":"031-572-2292","addr":"경기도 남양주시 진접읍 내각리 714-3번지 봉화아트빌라 1층","indutype":"보건위생 - 미용원","category":"beauty"}]},{"lat":"37.704573447","long":"127.16556275","imageIndex":13,"items":[{"name":"까르마헤어","tel":"031-529-3336","addr":"경기도 남양주시 진접읍 내각리 322-4번지 104호","indutype":"보건위생 - 미용원","category":"beauty"}]},{"lat":"37.70749428","long":"127.16431037","imageIndex":13,"items":[{"name":"노랑머리","tel":"031-573-9161","addr":"경기도 남양주시 진접읍 내각리 188-9번지 104호","indutype":"보건위생 - 미용원","category":"beauty"}]},{"lat":"37.703604519","long":"127.16255563","imageIndex":13,"items":[{"name":"다우 에프 앤 에프","tel":"","addr":"경기도 남양주시 진접읍 내각리 730-3번지 305호","indutype":"보건위생 - 안경","category":"beauty"}]},{"lat":"37.710410208","long":"127.16661885","imageIndex":13,"items":[{"name":"두영메디앤씨","tel":"031-575-3883","addr":"경기도 남양주시 진접읍 내각리 118-7번지","indutype":"보건위생 - 의료용품","category":"beauty"}]},{"lat":"37.70535405","long":"127.16788914","imageIndex":13,"items":[{"name":"란 헤어샵","tel":"031-574-0128","addr":"경기도 남양주시 진접읍 내각리 253-2번지 102호","indutype":"보건위생 - 미용원","category":"beauty"}]},{"lat":"37.704799452","long":"127.16500759","imageIndex":13,"items":[{"name":"문화예술심리상담연구센터(통합예술심리교","tel":"031-572-3872","addr":"경기도 남양주시 진접읍 내각리 745번지 경기도 남양주시 진진읍 내각2로 8-8,2층","indutype":"보건위생 - 기타대인서비스","category":"beauty"}]},{"lat":"37.705183992","long":"127.16708363","imageIndex":13,"items":[{"name":"법범사","tel":"031-527-1589","addr":"경기도 남양주시 진접읍 내각리 284-3번지","indutype":"보건위생 - 기타대인서비스","category":"beauty"}]},{"lat":"37.703856403","long":"127.16283966","imageIndex":13,"items":[{"name":"붕붕대리운전","tel":"031-574-0434","addr":"경기도 남양주시 진접읍 내각리 731-2 8/","indutype":"보건위생 - 기타대인서비스","category":"beauty"}]},{"lat":"37.705133118","long":"127.16478152","imageIndex":13,"items":[{"name":"소민헤어","tel":"031-513-9858","addr":"경기도 남양주시 진접읍 내각리 754번지 풍양빌딩 1층 107호","indutype":"보건위생 - 미용원","category":"beauty"}]},{"lat":"37.704546965","long":"127.1651658","imageIndex":13,"items":[{"name":"수지헤어샵","tel":"031-571-2764","addr":"경기도 남양주시 진접읍 내각리 318-10번지 1층 102호","indutype":"보건위생 - 미용원","category":"beauty"},{"name":"신궁전","tel":"031-528-0803","addr":"경기도 남양주시 진접읍 내각리 318-10번지","indutype":"보건위생 - 이용원","category":"beauty"}]},{"lat":"37.705601849","long":"127.16461244","imageIndex":13,"items":[{"name":"숨터미용실","tel":"031-000-0000","addr":"경기도 남양주시 진접읍 내각리 756-12번지 102호","indutype":"보건위생 - 미용원","category":"beauty"}]},{"lat":"37.706146496","long":"127.1681744","imageIndex":13,"items":[{"name":"아리따운","tel":"031-529-3115","addr":"경기도 남양주시 진접읍 내각리 237-2번지 천보숲속타운 101동 401호","indutype":"보건위생 - 화장품","category":"beauty"}]},{"lat":"37.705021076","long":"127.16761625","imageIndex":13,"items":[{"name":"엘라헤어","tel":"031-573-8004","addr":"경기도 남양주시 진접읍 내각리 277-5번지 일부 101호","indutype":"보건위생 - 미용원","category":"beauty"}]},{"lat":"37.704188168","long":"127.16400837","imageIndex":13,"items":[{"name":"영헤어","tel":"031-572-2969","addr":"경기도 남양주시 진접읍 내각리 740-1번지","indutype":"보건위생 - 미용원","category":"beauty"},{"name":"헤라헤어","tel":"031-573-6565","addr":"경기도 남양주시 진접읍 내각리 740-1번지 1층 우측 3호","indutype":"보건위생 - 미용원","category":"beauty"}]},{"lat":"37.707044124","long":"127.17053515","imageIndex":13,"items":[{"name":"이노션","tel":"031-515-7951","addr":"경기도 남양주시 진접읍 내각리 263-8번지","indutype":"보건위생 - 화장품","category":"beauty"}]},{"lat":"37.703802653","long":"127.16261275","imageIndex":13,"items":[{"name":"정메디칼","tel":"070-7802-3316","addr":"경기도 남양주시 진접읍 내각리 730-2번지","indutype":"보건위생 - 의료용품","category":"beauty"}]},{"lat":"37.706439475","long":"127.16480704","imageIndex":13,"items":[{"name":"정미선헤어","tel":"031-527-3395","addr":"경기도 남양주시 진접읍 내각리 188-35","indutype":"보건위생 - 미용원","category":"beauty"}]},{"lat":"37.703357606","long":"127.17164947","imageIndex":13,"items":[{"name":"좋은성명연구원 타로","tel":"031-528-1369","addr":"경기도 남양주시 진접읍 내각리 372-3번지 동명빌라 101동 201호","indutype":"보건위생 - 기타대인서비스","category":"beauty"}]},{"lat":"37.702018893","long":"127.16250687","imageIndex":13,"items":[{"name":"주식회사 천혜인코스메틱","tel":"031-527-3349","addr":"경기도 남양주시 진접읍 내각리 671-7번지 창고","indutype":"보건위생 - 화장품","category":"beauty"}]},{"lat":"37.704544312","long":"127.16708222","imageIndex":13,"items":[{"name":"헤어뉴스","tel":"070-8154-5670","addr":"경기도 남양주시 진접읍 내각리 273번지 1층 3호","indutype":"보건위생 - 미용원","category":"beauty"}]}]