[{"lat":"37.404782385","long":"127.47173683","imageIndex":16,"items":[{"name":"농업회사법인팜스퀘어(주)","tel":"02-3272-2202","addr":"경기도 여주시 금사면 상호리 88번지","indutype":"학원 - 기타 교육기관","category":"study"}]},{"lat":"37.408566236","long":"127.47634615","imageIndex":17,"items":[{"name":"다맷","tel":"031-886-0156","addr":"경기도 여주시 금사면 상호리 139-5번지","indutype":"문화.취미 - 화원","category":"other"}]},{"lat":"37.404644614","long":"127.48582003","imageIndex":17,"items":[{"name":"상호마을","tel":"031-885-9021","addr":"경기도 여주시 금사면 상호리 59-1번지","indutype":"기타 - 기타 전문점","category":"other"}]},{"lat":"37.408092015","long":"127.47325967","imageIndex":4,"items":[{"name":"범실가든","tel":"031-886-9098","addr":"경기도 여주시 금사면 상호리 164번지","indutype":"일반휴게음식 - 일반한식","category":"restaurant"}]},{"lat":"37.403865935","long":"127.49548289","imageIndex":4,"items":[{"name":"산골명가","tel":"031-885-7502","addr":"경기도 여주시 금사면 상호리 12-2번지","indutype":"일반휴게음식 - 일반한식","category":"restaurant"}]},{"lat":"37.408365017","long":"127.47484266","imageIndex":4,"items":[{"name":"산촌식당","tel":"031-886-9763","addr":"경기도 여주시 금사면 상호리 131-10번지","indutype":"일반휴게음식 - 일반한식","category":"restaurant"}]},{"lat":"37.4044555429","long":"127.4879873232","imageIndex":4,"items":[{"name":"쌈밥이랑바베큐랑","tel":"031-885-7586","addr":"경기도 여주시 금사면 상호리 39-1번지","indutype":"일반휴게음식 - 일반한식","category":"restaurant"}]},{"lat":"37.408092015","long":"127.47325967","imageIndex":7,"items":[{"name":"범실농원","tel":"031-886-9098","addr":"경기도 여주시 금사면 상호리 164번지","indutype":"음료식품 - 농·축·수산품","category":"food"}]},{"lat":"37.405003807","long":"127.47042806","imageIndex":7,"items":[{"name":"표고.목이버섯부부농장","tel":"031-886-3757","addr":"경기도 여주시 금사면 상호리 90-13번지","indutype":"음료식품 - 농·축·수산품","category":"food"}]},{"lat":"37.403588419","long":"127.49070363","imageIndex":5,"items":[{"name":"산촌농원","tel":"031-886-9763","addr":"경기도 여주시 금사면 상호리 143번지","indutype":"숙박업 - 여관/기타숙박업","category":"hotel"}]},{"lat":"37.408645311","long":"127.47459593","imageIndex":13,"items":[{"name":"여주팜스테이마을","tel":"031-886-5552","addr":"경기도 여주시 금사면 상호리 153-2번지","indutype":"레저업소 - 기타레져업소","category":"leisure"}]}]