[{"lat":"37.40427984","long":"127.2718127","imageIndex":17,"items":[{"name":"(JJ)에어컨","tel":"","addr":"경기도 광주시 쌍령동 256-16번지 태성타운 104동 401호","indutype":"수리서비스 - 가정용품수리","category":"other"},{"name":"체리제이","tel":"070-0000-0000","addr":"경기도 광주시 쌍령동 256-16번지 태성타운 104동 103호","indutype":"의류 - 정장","category":"other"}]},{"lat":"37.41355952","long":"127.2681182","imageIndex":17,"items":[{"name":"(재단법인)대유문화재단 (영은미술관)","tel":"031-761-0137","addr":"경기도 광주시 쌍령동 7-13번지","indutype":"문화.취미 - 티켓","category":"other"}]},{"lat":"37.40256083","long":"127.2709707","imageIndex":17,"items":[{"name":"(주) 아이엠케이코리아","tel":"031-761-1767","addr":"경기도 광주시 쌍령동 252-4번지","indutype":"서적문구 - 문구용품","category":"other"}]},{"lat":"37.39986497","long":"127.2717856","imageIndex":17,"items":[{"name":"(주)새안에프앤비","tel":"070-7436-3972","addr":"경기도 광주시 쌍령동 158-9번지 1동","indutype":"의류 - 정장","category":"other"}]},{"lat":"37.39814228","long":"127.2803512","imageIndex":17,"items":[{"name":"(주)즐거운컴퍼니","tel":"070-7649-2258","addr":"경기도 광주시 쌍령동 360-1번지 쌍령2차현대모닝사이드","indutype":"회원제형태 - 기타4","category":"other"}]},{"lat":"37.40436696","long":"127.2691475","imageIndex":17,"items":[{"name":"GS25광주쌍령점","tel":"","addr":"경기도 광주시 쌍령동 108-2번지 105호, 106호","indutype":"유통업 영리 - 상품권전문판매","category":"other"},{"name":"GS25광주쌍령점","tel":"","addr":"경기도 광주시 쌍령동 108-2번지 105호, 106호","indutype":"유통업 영리 - 편 의 점","category":"other"},{"name":"펫클럽(퍼스트도그)","tel":"070-4693-3448","addr":"경기도 광주시 쌍령동 108-2번지","indutype":"문화.취미 - 애완동물","category":"other"}]},{"lat":"37.3977844","long":"127.275392","imageIndex":17,"items":[{"name":"GS25쌍령로제비앙점","tel":"","addr":"경기도 광주시 쌍령동 502번지 로제비앙 208동 1층 101호","indutype":"유통업 영리 - 편 의 점","category":"other"},{"name":"워시프렌즈 셀프빨래방 광주 쌍령동점","tel":"","addr":"경기도 광주시 쌍령동 502번지 101동 B01-4호","indutype":"수리서비스 - 세탁소","category":"other"},{"name":"화사한","tel":"031-797-0711","addr":"경기도 광주시 쌍령동 502번지 대광로제비앙단지내상가 지하1층 103호","indutype":"문화.취미 - 화원","category":"other"}]},{"lat":"37.40164009","long":"127.2717242","imageIndex":17,"items":[{"name":"GS25쌍령이레타워점","tel":"","addr":"경기도 광주시 쌍령동 238-1번지 1층 104호","indutype":"유통업 영리 - 편 의 점","category":"other"}]},{"lat":"37.3965637","long":"127.2693909","imageIndex":17,"items":[{"name":"GS25쌍령푸르지오점","tel":"","addr":"경기도 광주시 쌍령동 503번지 광주센트럴푸르지오상가 101~102호","indutype":"유통업 영리 - 편 의 점","category":"other"},{"name":"다니채니","tel":"02-0000-0000","addr":"경기도 광주시 쌍령동 503번지 제134(상가)동 제지2층 제113호","indutype":"의류 - 정장","category":"other"},{"name":"대환하우징","tel":"","addr":"경기도 광주시 쌍령동 503번지 광주센트럴푸르지오","indutype":"건축자재 - 인테리어전문","category":"other"},{"name":"씨유쌍령푸르지오점","tel":"080-080-3663","addr":"경기도 광주시 쌍령동 503번지 센트럴푸르지오 상가동 110,111,112호","indutype":"유통업 영리 - 편 의 점","category":"other"},{"name":"유진모트렌드","tel":"031-111-1111","addr":"경기도 광주시 쌍령동 503번지 광주센트럴푸르지오 푸르지오단지 211호 상가","indutype":"의류 - 정장","category":"other"},{"name":"키스토리","tel":"031-708-4441","addr":"경기도 광주시 쌍령동 503번지 광주센트럴푸르지오 110동 1804호","indutype":"건축자재 - 목재·석재·철물","category":"other"},{"name":"푸르지오 세탁소","tel":"031-769-1970","addr":"경기도 광주시 쌍령동 503번지 광주센트럴푸르지오 상가동 2층 212호","indutype":"수리서비스 - 세탁소","category":"other"}]},{"lat":"37.40545203","long":"127.2674233","imageIndex":17,"items":[{"name":"강남하우징산업","tel":"031-767-7902","addr":"경기도 광주시 쌍령동 104-34번지","indutype":"건축자재 - 보일러·펌프·샷시","category":"other"},{"name":"쌍령등산복","tel":"031-765-6896","addr":"경기도 광주시 쌍령동 104-34번지","indutype":"의류 - 스포츠의류","category":"other"}]},{"lat":"37.40075572","long":"127.2723309","imageIndex":17,"items":[{"name":"경기열쇠","tel":"031-798-1304","addr":"경기도 광주시 쌍령동 191-8번지","indutype":"기타 - 기계공구","category":"other"},{"name":"청계천전기","tel":"031-798-4277","addr":"경기도 광주시 쌍령동 191-8번지","indutype":"건축자재 - 보일러·펌프·샷시","category":"other"},{"name":"카스전자저울광주점/원격지","tel":"031-767-7760","addr":"경기도 광주시 쌍령동 191-8번지","indutype":"기타 - 기타 전문점","category":"other"}]},{"lat":"37.39717047","long":"127.2720018","imageIndex":17,"items":[{"name":"골핑","tel":"02-1111-1111","addr":"경기도 광주시 쌍령동 429번지","indutype":"레져용품 - 골프용품 전문점","category":"other"}]},{"lat":"37.39743732","long":"127.2774236","imageIndex":17,"items":[{"name":"곰팡이매니져","tel":"031-1661-8765","addr":"경기도 광주시 쌍령동 349번지 쌍령2차동성아파트","indutype":"용역 서비스 - 종합용역","category":"other"},{"name":"글라스솔루션","tel":"","addr":"경기도 광주시 쌍령동 349번지 쌍령2차동성아파트","indutype":"용역 서비스 - 기타용역서비스","category":"other"}]},{"lat":"37.40364473","long":"127.2697774","imageIndex":17,"items":[{"name":"광주철물","tel":"031-767-8668","addr":"경기도 광주시 쌍령동 111-3번지","indutype":"건축자재 - 목재·석재·철물","category":"other"},{"name":"한국물류장비","tel":"031-763-6030","addr":"경기도 광주시 쌍령동 111-3번지","indutype":"기타 - 기계공구","category":"other"}]},{"lat":"37.41069949","long":"127.2658039","imageIndex":17,"items":[{"name":"그레이스","tel":"031-763-6086","addr":"경기도 광주시 쌍령동 18번지 302호","indutype":"레져용품 - 골프용품 전문점","category":"other"}]},{"lat":"37.4122552","long":"127.2671648","imageIndex":17,"items":[{"name":"극단파발극회","tel":"031-766-7585","addr":"경기도 광주시 쌍령동 15-8번지 1층","indutype":"문화.취미 - 티켓","category":"other"},{"name":"청석에듀씨어터","tel":"031-766-7585","addr":"경기도 광주시 쌍령동 15-8번지 청석씨어터 201호","indutype":"문화.취미 - 티켓","category":"other"}]},{"lat":"37.39928408","long":"127.273647","imageIndex":17,"items":[{"name":"끌레오","tel":"031-761-4493","addr":"경기도 광주시 쌍령동 168-2번지","indutype":"가구 - 기타가구","category":"other"},{"name":"끌레오디자인가구","tel":"031-761-4493","addr":"경기도 광주시 쌍령동 168-2번지 지하1층","indutype":"가구 - 일반가구","category":"other"},{"name":"모란애견백화점","tel":"031-765-1133","addr":"경기도 광주시 쌍령동 168-2번지","indutype":"문화.취미 - 애완동물","category":"other"}]},{"lat":"37.39728569","long":"127.2767567","imageIndex":17,"items":[{"name":"나무자전거","tel":"031-764-7894","addr":"경기도 광주시 쌍령동 368-12번지 (동성현대상가)뉴CMA파크타운106호","indutype":"문화.취미 - 문화취미기타","category":"other"},{"name":"동산원공인중개사사무소","tel":"031-763-7121","addr":"경기도 광주시 쌍령동 368-12 104","indutype":"용역 서비스 - 부동산 중개·임대","category":"other"},{"name":"크린토피아쌍령점","tel":"031-769-9907","addr":"경기도 광주시 쌍령동 368-12번지 CMA상가 B-108호","indutype":"수리서비스 - 세탁소","category":"other"}]},{"lat":"37.39992044","long":"127.2711646","imageIndex":17,"items":[{"name":"노엘하우징","tel":"","addr":"경기도 광주시 쌍령동 148-7번지 기보빌라","indutype":"건축자재 - 기타건축자재","category":"other"}]},{"lat":"37.40238843","long":"127.271501","imageIndex":17,"items":[{"name":"다올종합상사","tel":"","addr":"경기도 광주시 쌍령동 248-6번지 쌍령브리스빌 303호","indutype":"유통업 영리 - 기타유통업","category":"other"}]},{"lat":"37.39868676","long":"127.278693","imageIndex":17,"items":[{"name":"다인","tel":"031-794-1117","addr":"경기도 광주시 쌍령동 353-9번지 쌍령현대아파트","indutype":"신변잡화 - 기타잡화","category":"other"}]},{"lat":"37.39797847","long":"127.2771884","imageIndex":17,"items":[{"name":"대유위니아서비스","tel":"031-266-9588","addr":"경기도 광주시 쌍령동 337번지 동성1차아파트","indutype":"수리서비스 - 가정용품수리","category":"other"}]},{"lat":"37.39567484","long":"127.2759152","imageIndex":17,"items":[{"name":"더힐링센터","tel":"070-2713-3712","addr":"경기도 광주시 쌍령동 409-16번지 3층","indutype":"의류 - 내의판매","category":"other"},{"name":"데일리라이프","tel":"070-7529-8843","addr":"경기도 광주시 쌍령동 409-16번지","indutype":"문화.취미 - 화원","category":"other"},{"name":"채림","tel":"070-3487-6587","addr":"경기도 광주시 쌍령동 409-16번지 3층","indutype":"의류 - 내의판매","category":"other"}]},{"lat":"37.40298327","long":"127.271424","imageIndex":17,"items":[{"name":"라인업필라테스","tel":"031-768-2399","addr":"경기도 광주시 쌍령동 501번지 광주쌍령서희스타힐스 103동 402호","indutype":"회원제형태 - 레져업소","category":"other"}]},{"lat":"37.39722309","long":"127.2765532","imageIndex":17,"items":[{"name":"로얄공인중개사사무소","tel":"031-767-5544","addr":"경기도 광주시 쌍령동 368-9번지 외2필지1층101호","indutype":"용역 서비스 - 부동산 중개·임대","category":"other"}]},{"lat":"37.39897704","long":"127.2739508","imageIndex":17,"items":[{"name":"모마홈즈","tel":"031-765-3688","addr":"경기도 광주시 쌍령동 419-2번지 1~2층","indutype":"가구 - 일반가구","category":"other"}]},{"lat":"37.40205573","long":"127.2751477","imageIndex":17,"items":[{"name":"문팬시","tel":"","addr":"경기도 광주시 쌍령동 219번지 쌍령낙원타운하우스 6동 201호","indutype":"서적문구 - 문구용품","category":"other"}]},{"lat":"37.39869946","long":"127.2731931","imageIndex":17,"items":[{"name":"미래타일","tel":"031-763-6627","addr":"경기도 광주시 쌍령동 168번지 1층","indutype":"건축자재 - 건축용 요업제품","category":"other"}]},{"lat":"37.39703477","long":"127.2761686","imageIndex":17,"items":[{"name":"미즈컴퍼니","tel":"031-766-0917","addr":"경기도 광주시 쌍령동 353-34번지 제일빌딩 110호","indutype":"사무통신 - 통신기기","category":"other"}]},{"lat":"37.40856108","long":"127.2671631","imageIndex":17,"items":[{"name":"민성공조에어컨","tel":"070-8448-7013","addr":"경기도 광주시 쌍령동 52-1번지 청석파크빌 2동 302호","indutype":"용역 서비스 - 기타용역서비스","category":"other"}]},{"lat":"37.40483203","long":"127.2706739","imageIndex":17,"items":[{"name":"믿음","tel":"","addr":"경기도 광주시 쌍령동 262-1번지 삼성그린빌","indutype":"용역 서비스 - 기타용역서비스","category":"other"}]},{"lat":"37.40789051","long":"127.264834","imageIndex":17,"items":[{"name":"블라인드 컬렉션","tel":"031-766-9100","addr":"경기도 광주시 쌍령동 47번지","indutype":"직물 - 카페트,커튼,천막,지물","category":"other"}]},{"lat":"37.4065084","long":"127.2664443","imageIndex":17,"items":[{"name":"삼일유통","tel":"031-797-0332","addr":"경기도 광주시 쌍령동 60-12번지 미래센스빌","indutype":"신변잡화 - 기타잡화","category":"other"}]},{"lat":"37.39833611","long":"127.2744793","imageIndex":17,"items":[{"name":"상일리베가구광주점","tel":"031-769-3353","addr":"경기도 광주시 쌍령동 416-4번지","indutype":"가구 - 일반가구","category":"other"}]},{"lat":"37.40114372","long":"127.2720838","imageIndex":17,"items":[{"name":"성신전기온돌필름난방","tel":"02-797-7721","addr":"경기도 광주시 쌍령동 191-5번지","indutype":"건축자재 - 기타건축자재","category":"other"}]},{"lat":"37.39914204","long":"127.2727204","imageIndex":17,"items":[{"name":"세븐일레븐 경기광주쌍령점","tel":"02-2127-5857","addr":"경기도 광주시 쌍령동 163-1번지","indutype":"유통업 영리 - 편 의 점","category":"other"},{"name":"중앙휀스","tel":"031-769-1138","addr":"경기도 광주시 쌍령동 163-1번지","indutype":"용역 서비스 - 기타용역서비스","category":"other"}]},{"lat":"37.40516691","long":"127.2700087","imageIndex":17,"items":[{"name":"세븐일레븐경기광주쌍령본점","tel":"","addr":"경기도 광주시 쌍령동 265-1번지 이스트빌","indutype":"유통업 영리 - 편 의 점","category":"other"}]},{"lat":"37.39724245","long":"127.2798509","imageIndex":17,"items":[{"name":"센트럴사운드(CENTRAL Sound)","tel":"","addr":"경기도 광주시 쌍령동 360-1번지 쌍령2차현대모닝사이드","indutype":"회원제형태 - 기타4","category":"other"}]},{"lat":"37.40108827","long":"127.2766124","imageIndex":17,"items":[{"name":"슬인유통","tel":"070-4159-6643","addr":"경기도 광주시 쌍령동 310-4번지 태성슈퍼빌 101동 202호","indutype":"유통업 영리 - 기타유통업","category":"other"}]},{"lat":"37.39764343","long":"127.2740024","imageIndex":17,"items":[{"name":"신일콘테이너","tel":"031-766-6012","addr":"경기도 광주시 쌍령동 411-1,2,424-1","indutype":"기타 - 기타 전문점","category":"other"}]},{"lat":"37.40111466","long":"127.2729759","imageIndex":17,"items":[{"name":"쌍령 세탁소","tel":"031-765-9937","addr":"경기도 광주시 쌍령동 192-1번지 선경빌라","indutype":"수리서비스 - 세탁소","category":"other"}]},{"lat":"37.40561484","long":"127.2671415","imageIndex":17,"items":[{"name":"씨유광주쌍령대로점","tel":"031-762-7376","addr":"경기도 광주시 쌍령동 104-11번지 1층","indutype":"유통업 영리 - 편 의 점","category":"other"}]},{"lat":"37.40863804","long":"127.2649721","imageIndex":17,"items":[{"name":"엉클베드","tel":"031-762-5370","addr":"경기도 광주시 쌍령동 48-6번지","indutype":"가구 - 일반가구","category":"other"}]},{"lat":"37.3997511","long":"127.2743037","imageIndex":17,"items":[{"name":"엘씨엘","tel":"070-7718-4011","addr":"경기도 광주시 쌍령동 174-3번지 동일빌라 301호","indutype":"신변잡화 - 가방","category":"other"}]},{"lat":"37.39817279","long":"127.2749756","imageIndex":17,"items":[{"name":"영동","tel":"031-768-5070","addr":"경기도 광주시 쌍령동 413-30,413-33","indutype":"회원제형태 - 레져업소","category":"other"}]},{"lat":"37.39939468","long":"127.2725632","imageIndex":17,"items":[{"name":"오케이낚시점","tel":"031-761-7315","addr":"경기도 광주시 쌍령동 161-5번지","indutype":"레져용품 - 스포츠·레져용품","category":"other"},{"name":"제이케이(JK)골프","tel":"031-763-7076","addr":"경기도 광주시 쌍령동 161-5번지","indutype":"레져용품 - 골프용품 전문점","category":"other"}]},{"lat":"37.40414122","long":"127.2693613","imageIndex":17,"items":[{"name":"와이드테크","tel":"031-763-9994","addr":"경기도 광주시 쌍령동 109번지 쌍령하이츠","indutype":"수리서비스 - 기타수리서비스","category":"other"}]},{"lat":"37.40644923","long":"127.2687257","imageIndex":17,"items":[{"name":"용인에어컨","tel":"031-798-3948","addr":"경기도 광주시 쌍령동 73-3번지 302호","indutype":"용역 서비스 - 기타용역서비스","category":"other"}]},{"lat":"37.40450287","long":"127.2688091","imageIndex":17,"items":[{"name":"워시앤조이 셀프빨래방 광주쌍령점","tel":"","addr":"경기도 광주시 쌍령동 107-4번지 106호 105호, 106호","indutype":"수리서비스 - 세탁소","category":"other"},{"name":"정방산업","tel":"02-1800-4618","addr":"경기도 광주시 쌍령동 107-4번지 2층 202호","indutype":"용역 서비스 - 기타용역서비스","category":"other"}]},{"lat":"37.40228321","long":"127.2702243","imageIndex":17,"items":[{"name":"이마트24 광주쌍령점","tel":"","addr":"경기도 광주시 쌍령동 155-5번지","indutype":"유통업 영리 - 편 의 점","category":"other"}]},{"lat":"37.40466897","long":"127.2670591","imageIndex":17,"items":[{"name":"이브자리 코디센(광주쌍령점)","tel":"031-798-5283","addr":"경기도 광주시 쌍령동 99-3번지","indutype":"직물 - 침구·수예점","category":"other"}]},{"lat":"37.4026112","long":"127.2686105","imageIndex":17,"items":[{"name":"인성콘크리트","tel":"031-765-9422","addr":"경기도 광주시 쌍령동 120-4","indutype":"건축자재 - 기타건축자재","category":"other"}]},{"lat":"37.39780992","long":"127.2799208","imageIndex":17,"items":[{"name":"정인","tel":"02-424-6582","addr":"경기도 광주시 쌍령동 360-1번지 쌍령2차현대모닝사이드 201-303 19/","indutype":"기타 - 기타 전문점","category":"other"},{"name":"필스킨","tel":"031-797-3126","addr":"경기도 광주시 쌍령동 360-1번지 현대모닝사이드2차 상가 201호","indutype":"회원제형태 - 기타4","category":"other"}]},{"lat":"37.40209159","long":"127.2712853","imageIndex":17,"items":[{"name":"제이플러스이앤지","tel":"031-766-9041","addr":"경기도 광주시 쌍령동 248번지","indutype":"전기제품 - 냉열기기","category":"other"}]},{"lat":"37.40388813","long":"127.2697218","imageIndex":17,"items":[{"name":"조은용접","tel":"031-764-2267","addr":"경기도 광주시 쌍령동 109번지 쌍령하이츠 109동 401호","indutype":"수리서비스 - 기타수리서비스","category":"other"}]},{"lat":"37.40087075","long":"127.2771651","imageIndex":17,"items":[{"name":"주식회사 엠아이디","tel":"031-721-4146","addr":"경기도 광주시 쌍령동 310-10번지 태성슈퍼빌","indutype":"건축자재 - 인테리어전문","category":"other"}]},{"lat":"37.40614469","long":"127.2679227","imageIndex":17,"items":[{"name":"청목원20","tel":"031-321-9165","addr":"경기도 광주시 쌍령동 60-72번지","indutype":"회원제형태 - 기타4","category":"other"}]},{"lat":"37.40334367","long":"127.2714253","imageIndex":17,"items":[{"name":"칼의부활","tel":"070-4327-1609","addr":"경기도 광주시 쌍령동 501번지 광주 쌍령 서희스타힐스 102동 1003호","indutype":"수리서비스 - 기타수리서비스","category":"other"}]},{"lat":"37.39822211","long":"127.2731123","imageIndex":17,"items":[{"name":"칼의부활","tel":"031-1599-8826","addr":"경기도 광주시 쌍령동 422-2번지","indutype":"수리서비스 - 기타수리서비스","category":"other"}]},{"lat":"37.40236523","long":"127.273771","imageIndex":17,"items":[{"name":"칼의부활(종로)","tel":"031-797-8826","addr":"경기도 광주시 쌍령동 219번지 낙원타운하우스 25동 101호","indutype":"수리서비스 - 기타수리서비스","category":"other"}]},{"lat":"37.39975767","long":"127.2714238","imageIndex":17,"items":[{"name":"크린토피아 광주센트럴푸르지오점","tel":"031-769-8329","addr":"경기도 광주시 쌍령동 148-1번지 3층 304호","indutype":"수리서비스 - 세탁소","category":"other"}]},{"lat":"37.40305625","long":"127.271029","imageIndex":17,"items":[{"name":"킴밀라노","tel":"02-000-0000","addr":"경기도 광주시 쌍령동 501번지 광주 쌍령 서희스타힐스 101동 1302호","indutype":"의류 - 정장","category":"other"}]},{"lat":"37.40350243","long":"127.2689524","imageIndex":17,"items":[{"name":"태성중기","tel":"031-769-4500","addr":"경기도 광주시 쌍령동 113-6번지","indutype":"기타 - 기계공구","category":"other"}]},{"lat":"37.40436579","long":"127.269667","imageIndex":17,"items":[{"name":"토탈석재인테리어디자인","tel":"070-7565-5474","addr":"경기도 광주시 쌍령동 109-9번지 쌍령하이츠 102동 401호","indutype":"회원제형태 - 기타4","category":"other"}]},{"lat":"37.39753043","long":"127.2721951","imageIndex":17,"items":[{"name":"퍼스트클래스","tel":"02-3494-2072","addr":"경기도 광주시 쌍령동 429-1번지 1층","indutype":"여행 - 관광여행","category":"other"}]},{"lat":"37.4002221","long":"127.2732212","imageIndex":17,"items":[{"name":"푸른세탁소","tel":"031-765-0544","addr":"경기도 광주시 쌍령동 187-3번지 1층","indutype":"수리서비스 - 세탁소","category":"other"}]},{"lat":"37.39961112","long":"127.2724736","imageIndex":17,"items":[{"name":"한복나라","tel":"031-766-5894","addr":"경기도 광주시 쌍령동 161-1번지 163-3호","indutype":"의류 - 맞춤복점","category":"other"}]},{"lat":"37.39844736","long":"127.2731131","imageIndex":17,"items":[{"name":"한빛 미디어테크(Hanvit MediaTech)","tel":"","addr":"경기도 광주시 쌍령동 421번지","indutype":"사무통신 - 통신기기","category":"other"}]},{"lat":"37.39897939","long":"127.2729231","imageIndex":17,"items":[{"name":"한양기계","tel":"02-462-4269","addr":"경기도 광주시 쌍령동 165번지","indutype":"기타 - 기계공구","category":"other"}]},{"lat":"37.39675591","long":"127.2759756","imageIndex":17,"items":[{"name":"행복한인테리어","tel":"031-766-4662","addr":"경기도 광주시 쌍령동 371-2번지 글로벌하우스","indutype":"건축자재 - 인테리어전문","category":"other"}]},{"lat":"37.39933567","long":"127.2786163","imageIndex":17,"items":[{"name":"현대세탁","tel":"031-763-8621","addr":"경기도 광주시 쌍령동 353-9번지 현대1차상가1층 104호","indutype":"수리서비스 - 세탁소","category":"other"}]},{"lat":"37.39773882","long":"127.2795027","imageIndex":17,"items":[{"name":"현성정보통신","tel":"031-769-7627","addr":"경기도 광주시 쌍령동 360-1번지 쌍령2차현대모닝사이드","indutype":"사무통신 - 통신기기","category":"other"}]},{"lat":"37.40680806","long":"127.265395","imageIndex":17,"items":[{"name":"호산애견농장","tel":"031-795-7011","addr":"경기도 광주시 쌍령동 54-1번지","indutype":"문화.취미 - 애완동물","category":"other"}]},{"lat":"37.40620125","long":"127.2668047","imageIndex":17,"items":[{"name":"홍척척보일러에어컨","tel":"031-766-7111","addr":"경기도 광주시 쌍령동 60-50번지 1층","indutype":"용역 서비스 - 기타용역서비스","category":"other"}]},{"lat":"37.4002845","long":"127.2774227","imageIndex":17,"items":[{"name":"효민Q","tel":"031-000-0000","addr":"경기도 광주시 쌍령동 334번지 선경파크타운 K동 101호","indutype":"문화.취미 - 골동품점","category":"other"}]},{"lat":"37.40428036","long":"127.2675886","imageIndex":17,"items":[{"name":"후계자꽃화원","tel":"031-765-2561","addr":"경기도 광주시 쌍령동 99-13 외2필지","indutype":"문화.취미 - 화원","category":"other"}]},{"lat":"37.39722309","long":"127.2765532","imageIndex":13,"items":[{"name":"(뉴욕)탑스네일","tel":"070-4120-7095","addr":"경기도 광주시 쌍령동 368-9번지 106호 외2필지","indutype":"보건위생 - 피부미용실","category":"beauty"}]},{"lat":"37.3965637","long":"127.2693909","imageIndex":13,"items":[{"name":"Vom(봄) hair","tel":"031-8028-4480","addr":"경기도 광주시 쌍령동 503번지 광주센트럴푸르지오 단지내 205호","indutype":"보건위생 - 미용원","category":"beauty"},{"name":"이수림 헤어드레서","tel":"031-769-7697","addr":"경기도 광주시 쌍령동 503번지 상가동 지1층 201호","indutype":"보건위생 - 미용원","category":"beauty"}]},{"lat":"37.40450287","long":"127.2688091","imageIndex":13,"items":[{"name":"굿모닝","tel":"031-769-2827","addr":"경기도 광주시 쌍령동 107-4번지","indutype":"보건위생 - 미용원","category":"beauty"}]},{"lat":"37.39675591","long":"127.2759756","imageIndex":13,"items":[{"name":"남대문마트안경콘택트","tel":"031-769-2955","addr":"경기도 광주시 쌍령동 371-2번지","indutype":"보건위생 - 안경","category":"beauty"}]},{"lat":"37.39933567","long":"127.2786163","imageIndex":13,"items":[{"name":"르꼬미용실","tel":"031-764-4568","addr":"경기도 광주시 쌍령동 353-9현대상가2층202","indutype":"보건위생 - 미용원","category":"beauty"}]},{"lat":"37.39728569","long":"127.2767567","imageIndex":13,"items":[{"name":"미라클뷰티(Miracle beauty)","tel":"","addr":"경기도 광주시 쌍령동 368-12번지 202호","indutype":"보건위생 - 피부미용실","category":"beauty"},{"name":"헤어쇼","tel":"031-761-6995","addr":"경기도 광주시 쌍령동 368-12번지 1층","indutype":"보건위생 - 미용원","category":"beauty"}]},{"lat":"37.40116967","long":"127.2725582","imageIndex":13,"items":[{"name":"미헤어샵","tel":"055-835-2219","addr":"경기도 광주시 쌍령동 191-7번지 1층 102호","indutype":"보건위생 - 미용원","category":"beauty"}]},{"lat":"37.40589514","long":"127.266702","imageIndex":13,"items":[{"name":"쁘띠헤어샵","tel":"031-766-5093","addr":"경기도 광주시 쌍령동 60-14번지","indutype":"보건위생 - 미용원","category":"beauty"}]},{"lat":"37.3977844","long":"127.275392","imageIndex":13,"items":[{"name":"살롱제이헤어","tel":"031-797-1175","addr":"경기도 광주시 쌍령동 502번지 대광로제비앙 상가동 1층 103호","indutype":"보건위생 - 미용원","category":"beauty"},{"name":"잘보이는안경","tel":"031-766-8776","addr":"경기도 광주시 쌍령동 502번지 대광로제비앙 지하1층 102호","indutype":"보건위생 - 안경","category":"beauty"}]},{"lat":"37.40239646","long":"127.2679433","imageIndex":13,"items":[{"name":"새광주참숯가마 주식회사","tel":"031-769-3352","addr":"경기도 광주시 쌍령동 141번지","indutype":"보건위생 - 사우나","category":"beauty"},{"name":"수정쑥뜸방","tel":"","addr":"경기도 광주시 쌍령동 141번지","indutype":"보건위생 - 피부미용실","category":"beauty"}]},{"lat":"37.40452766","long":"127.2698031","imageIndex":13,"items":[{"name":"엘리스헤어","tel":"031-767-8783","addr":"경기도 광주시 쌍령동 108-5번지 쌍령하이츠 B02호","indutype":"보건위생 - 미용원","category":"beauty"}]},{"lat":"37.39775609","long":"127.2759453","imageIndex":13,"items":[{"name":"유진의료기","tel":"031-769-1075","addr":"경기도 광주시 쌍령동 347-15번지","indutype":"보건위생 - 의료용품","category":"beauty"}]},{"lat":"37.40114372","long":"127.2720838","imageIndex":13,"items":[{"name":"이안뷰티","tel":"031-767-5175","addr":"경기도 광주시 쌍령동 191-5번지 2층","indutype":"보건위생 - 피부미용실","category":"beauty"}]},{"lat":"37.40628486","long":"127.2656755","imageIndex":13,"items":[{"name":"제이폭스","tel":"031-768-4877","addr":"경기도 광주시 쌍령동 58-11번지 1층","indutype":"보건위생 - 미용원","category":"beauty"}]},{"lat":"37.40164009","long":"127.2717242","imageIndex":13,"items":[{"name":"초이스스킨(Choi's Skin)","tel":"","addr":"경기도 광주시 쌍령동 238-1번지 이레타워 3층 301호","indutype":"보건위생 - 피부미용실","category":"beauty"}]},{"lat":"37.40414122","long":"127.2693613","imageIndex":13,"items":[{"name":"헤어까사","tel":"031-763-9973","addr":"경기도 광주시 쌍령동 109번지 상가 B101호","indutype":"보건위생 - 미용원","category":"beauty"}]},{"lat":"37.39758483","long":"127.2759786","imageIndex":13,"items":[{"name":"헤어바이(HAIR by)현","tel":"031-766-3448","addr":"경기도 광주시 쌍령동 347-1번지 104호","indutype":"보건위생 - 미용원","category":"beauty"}]},{"lat":"37.39703477","long":"127.2761686","imageIndex":13,"items":[{"name":"화보","tel":"031-763-0910","addr":"경기도 광주시 쌍령동 353-34번지 외3필지","indutype":"보건위생 - 미용원","category":"beauty"}]},{"lat":"37.40367256","long":"127.2733917","imageIndex":0,"items":[{"name":"(주)1급부국자동차정비","tel":"031-766-0097","addr":"경기도 광주시 쌍령동 289-1번지","indutype":"자동차정비 유지 - 자동차정비","category":"car"},{"name":"부국1급자동차공업사","tel":"031-66-0097","addr":"경기도 광주시 쌍령동 289-1번지","indutype":"자동차정비 유지 - 자동차정비","category":"car"}]},{"lat":"37.40259031","long":"127.2698866","imageIndex":0,"items":[{"name":"3M광택점","tel":"031-761-7170","addr":"경기도 광주시 쌍령동 155-17번지","indutype":"자동차정비 유지 - 카인테리어","category":"car"},{"name":"세븐모터스","tel":"031-797-8402","addr":"경기도 광주시 쌍령동 155-17번지","indutype":"자동차정비 유지 - 세차장","category":"car"},{"name":"코리아모터스","tel":"031-768-0959","addr":"경기도 광주시 쌍령동 155-17번지","indutype":"자동차정비 유지 - 자동차시트·타이어","category":"car"}]},{"lat":"37.39869946","long":"127.2731931","imageIndex":0,"items":[{"name":"K타이어","tel":"031-763-1626","addr":"경기도 광주시 쌍령동 168번지","indutype":"자동차정비 유지 - 자동차시트·타이어","category":"car"}]},{"lat":"37.40450287","long":"127.2688091","imageIndex":0,"items":[{"name":"SJ카멀티샵","tel":"031-767-0728","addr":"경기도 광주시 쌍령동 107-4번지","indutype":"자동차정비 유지 - 카인테리어","category":"car"}]},{"lat":"37.40203016","long":"127.2705623","imageIndex":0,"items":[{"name":"광주 현대 모터스","tel":"031-765-2617","addr":"경기도 광주시 쌍령동 155-13번지","indutype":"자동차정비 유지 - 자동차부품","category":"car"}]},{"lat":"37.40511486","long":"127.2691163","imageIndex":0,"items":[{"name":"광주차바닥용품","tel":"031-766-2798","addr":"경기도 광주시 쌍령동 105번지","indutype":"자동차정비 유지 - 카인테리어","category":"car"}]},{"lat":"37.40178039","long":"127.2734188","imageIndex":0,"items":[{"name":"미래카에어컨/냉동","tel":"031-766-2119","addr":"경기도 광주시 쌍령동 232-2번지 쌍령골든빌","indutype":"자동차정비 유지 - 자동차부품","category":"car"}]},{"lat":"37.40628486","long":"127.2656755","imageIndex":0,"items":[{"name":"봉구전자","tel":"031-764-4886","addr":"경기도 광주시 쌍령동 58-11번지 101호","indutype":"자동차정비 유지 - 자동차부품","category":"car"}]},{"lat":"37.39797847","long":"127.2771884","imageIndex":0,"items":[{"name":"삼성전기","tel":"031-768-1680","addr":"경기도 광주시 쌍령동 337번지 동성1차아파트","indutype":"자동차정비 유지 - 자동차정비","category":"car"}]},{"lat":"37.39772693","long":"127.2729525","imageIndex":0,"items":[{"name":"새한오토","tel":"031-765-9364","addr":"경기도 광주시 쌍령동 426-5번지","indutype":"자동차정비 유지 - 자동차정비","category":"car"}]},{"lat":"37.40350243","long":"127.2689524","imageIndex":0,"items":[{"name":"세광타이어","tel":"031-768-5611","addr":"경기도 광주시 쌍령동 113-6번지","indutype":"자동차정비 유지 - 자동차시트·타이어","category":"car"}]},{"lat":"37.4050006","long":"127.2678396","imageIndex":0,"items":[{"name":"쎄덴","tel":"031-798-1798","addr":"경기도 광주시 쌍령동 102-9번지","indutype":"자동차정비 유지 - 카인테리어","category":"car"}]},{"lat":"37.4006406","long":"127.2714495","imageIndex":0,"items":[{"name":"이화카에어콘","tel":"031-797-5055","addr":"경기도 광주시 쌍령동 158-7번지","indutype":"자동차정비 유지 - 자동차정비","category":"car"}]},{"lat":"37.39547782","long":"127.275395","imageIndex":0,"items":[{"name":"전국택시복지정비센터","tel":"031-768-7999","addr":"경기도 광주시 쌍령동 409-21번지","indutype":"자동차정비 유지 - 자동차정비","category":"car"}]},{"lat":"37.39753043","long":"127.2721951","imageIndex":0,"items":[{"name":"주식회사 마이버스","tel":"","addr":"경기도 광주시 쌍령동 429-1번지","indutype":"자동차판매 - 중고자동차판매","category":"car"}]},{"lat":"37.40311675","long":"127.2681718","imageIndex":0,"items":[{"name":"주식회사대산현대모터스","tel":"031-798-9345","addr":"경기도 광주시 쌍령동 121-1번지","indutype":"자동차정비 유지 - 자동차정비","category":"car"}]},{"lat":"37.39844722","long":"127.2770885","imageIndex":0,"items":[{"name":"카비스","tel":"031-798-2909","addr":"경기도 광주시 쌍령동 337번지","indutype":"자동차정비 유지 - 자동차부품","category":"car"}]},{"lat":"37.39961112","long":"127.2724736","imageIndex":0,"items":[{"name":"타이어테크(쌍령점)","tel":"070-4148-2638","addr":"경기도 광주시 쌍령동 161-1번지","indutype":"자동차정비 유지 - 자동차시트·타이어","category":"car"},{"name":"타이어테크공업사","tel":"070-4419-3889","addr":"경기도 광주시 쌍령동 161-1번지","indutype":"자동차정비 유지 - 자동차시트·타이어","category":"car"}]},{"lat":"37.41069949","long":"127.2658039","imageIndex":4,"items":[{"name":"3900칼국수","tel":"031-769-6889","addr":"경기도 광주시 쌍령동 18번지 101호","indutype":"일반휴게음식 - 일반한식","category":"restaurant"},{"name":"라온","tel":"031-797-2787","addr":"경기도 광주시 쌍령동 18번지 4층","indutype":"일반휴게음식 - 서양음식","category":"restaurant"}]},{"lat":"37.39728569","long":"127.2767567","imageIndex":4,"items":[{"name":"BBQ올떡볶이광주쌍령점","tel":"031-762-1422","addr":"경기도 광주시 쌍령동 368-12번지 102호","indutype":"일반휴게음식 - 스넥","category":"restaurant"},{"name":"달빛부엌","tel":"031-762-2117","addr":"경기도 광주시 쌍령동 368-12번지 201호","indutype":"일반휴게음식 - 주점","category":"restaurant"},{"name":"이삭토스트","tel":"031-763-7223","addr":"경기도 광주시 쌍령동 368-12번지","indutype":"일반휴게음식 - 스넥","category":"restaurant"}]},{"lat":"37.4122552","long":"127.2671648","imageIndex":4,"items":[{"name":"Cafe-theatre","tel":"031-798-7583","addr":"경기도 광주시 쌍령동 15-8번지","indutype":"일반휴게음식 - 서양음식","category":"restaurant"}]},{"lat":"37.39722309","long":"127.2765532","imageIndex":4,"items":[{"name":"DAWN(새벽)","tel":"","addr":"경기도 광주시 쌍령동 368-9번지 102호","indutype":"일반휴게음식 - 서양음식","category":"restaurant"},{"name":"진수석찬","tel":"031-767-1737","addr":"경기도 광주시 쌍령동 368-9번지","indutype":"일반휴게음식 - 일반한식","category":"restaurant"}]},{"lat":"37.40075572","long":"127.2723309","imageIndex":4,"items":[{"name":"DD치킨(광주1호점)","tel":"031-798-5520","addr":"경기도 광주시 쌍령동 191-8번지","indutype":"일반휴게음식 - 스넥","category":"restaurant"}]},{"lat":"37.39675591","long":"127.2759756","imageIndex":4,"items":[{"name":"거진항맛집코다리네","tel":"031-765-5020","addr":"경기도 광주시 쌍령동 371-2번지 제일빌딩","indutype":"일반휴게음식 - 일반한식","category":"restaurant"}]},{"lat":"37.40034023","long":"127.2727811","imageIndex":4,"items":[{"name":"고향손칼국수","tel":"031-764-4235","addr":"경기도 광주시 쌍령동 187-4번지","indutype":"일반휴게음식 - 일반한식","category":"restaurant"}]},{"lat":"37.40863804","long":"127.2649721","imageIndex":4,"items":[{"name":"굿커피 베데스다","tel":"031-761-9777","addr":"경기도 광주시 쌍령동 48-6번지","indutype":"일반휴게음식 - 서양음식","category":"restaurant"}]},{"lat":"37.39717047","long":"127.2720018","imageIndex":4,"items":[{"name":"그린마루","tel":"031-765-6384","addr":"경기도 광주시 쌍령동 429번지","indutype":"일반휴게음식 - 서양음식","category":"restaurant"}]},{"lat":"37.3977844","long":"127.275392","imageIndex":4,"items":[{"name":"길상훠궈&양꼬치","tel":"031-765-2299","addr":"경기도 광주시 쌍령동 502번지 대광로제비앙 지하1층 B07호,B08호","indutype":"일반휴게음식 - 중국식","category":"restaurant"},{"name":"맛짱수제왕만두","tel":"02-1111-1111","addr":"경기도 광주시 쌍령동 502번지 208동 제지1층 제비04호","indutype":"일반휴게음식 - 일반한식","category":"restaurant"},{"name":"문스트럭(moonstruck)","tel":"","addr":"경기도 광주시 쌍령동 502번지 대광로제비앙 208동 1층 101호","indutype":"일반휴게음식 - 서양음식","category":"restaurant"},{"name":"본죽","tel":"031-765-6288","addr":"경기도 광주시 쌍령동 502번지 대광로제비앙 208동 지1층 B06호","indutype":"일반휴게음식 - 일반한식","category":"restaurant"},{"name":"킹스타피자초월쌍령점","tel":"031-765-9927","addr":"경기도 광주시 쌍령동 502번지 208동 지1층 B01호","indutype":"일반휴게음식 - 서양음식","category":"restaurant"}]},{"lat":"37.39758483","long":"127.2759786","imageIndex":4,"items":[{"name":"김밥달인","tel":"031-765-5390","addr":"경기도 광주시 쌍령동 347-1번지","indutype":"일반휴게음식 - 스넥","category":"restaurant"},{"name":"참새방앗간","tel":"031-765-3353","addr":"경기도 광주시 쌍령동 347-1번지 1층 101호","indutype":"일반휴게음식 - 일반한식","category":"restaurant"},{"name":"커피준(Coffee Jun)","tel":"070-4062-2440","addr":"경기도 광주시 쌍령동 347-1번지 106호","indutype":"일반휴게음식 - 서양음식","category":"restaurant"}]},{"lat":"37.40450287","long":"127.2688091","imageIndex":4,"items":[{"name":"닭발바닥 앤 떡볶이","tel":"031-762-0611","addr":"경기도 광주시 쌍령동 107-4번지 1층 104호","indutype":"일반휴게음식 - 일반한식","category":"restaurant"},{"name":"두메골","tel":"031-768-8824","addr":"경기도 광주시 쌍령동 107-4번지","indutype":"일반휴게음식 - 일반한식","category":"restaurant"}]},{"lat":"37.39567484","long":"127.2759152","imageIndex":4,"items":[{"name":"데일리라이프","tel":"","addr":"경기도 광주시 쌍령동 409-16번지","indutype":"일반휴게음식 - 서양음식","category":"restaurant"}]},{"lat":"37.40789051","long":"127.264834","imageIndex":4,"items":[{"name":"돈가네돼지찌개","tel":"031-762-0666","addr":"경기도 광주시 쌍령동 47번지","indutype":"일반휴게음식 - 일반한식","category":"restaurant"}]},{"lat":"37.40011758","long":"127.2716397","imageIndex":4,"items":[{"name":"떡볶이가족","tel":"031-1111-1111","addr":"경기도 광주시 쌍령동 158-3번지 1층","indutype":"일반휴게음식 - 스넥","category":"restaurant"},{"name":"이주원통닭","tel":"070-4312-2627","addr":"경기도 광주시 쌍령동 158-3번지 1층","indutype":"일반휴게음식 - 스넥","category":"restaurant"}]},{"lat":"37.39939468","long":"127.2725632","imageIndex":4,"items":[{"name":"만원초밥의행복","tel":"031-764-6326","addr":"경기도 광주시 쌍령동 161-5번지","indutype":"일반휴게음식 - 일식·회집","category":"restaurant"}]},{"lat":"37.40611158","long":"127.2666124","imageIndex":4,"items":[{"name":"맛고을먹거리","tel":"031-761-7274","addr":"경기도 광주시 쌍령동 60-48번지","indutype":"일반휴게음식 - 일반한식","category":"restaurant"}]},{"lat":"37.40014163","long":"127.2729498","imageIndex":4,"items":[{"name":"명보성","tel":"031-768-4700","addr":"경기도 광주시 쌍령동 188번지 1층","indutype":"일반휴게음식 - 중국식","category":"restaurant"},{"name":"진한순대국","tel":"031-768-0650","addr":"경기도 광주시 쌍령동 188번지","indutype":"일반휴게음식 - 일반한식","category":"restaurant"}]},{"lat":"37.40058338","long":"127.2728385","imageIndex":4,"items":[{"name":"명품","tel":"031-763-5502","addr":"경기도 광주시 쌍령동 192-14번지","indutype":"일반휴게음식 - 중국식","category":"restaurant"}]},{"lat":"37.40491759","long":"127.2726733","imageIndex":4,"items":[{"name":"미스터콜드","tel":"070-7749-7004","addr":"경기도 광주시 쌍령동 256-46번지 태성타운 402동 지1층 B02호","indutype":"일반휴게음식 - 일반한식","category":"restaurant"}]},{"lat":"37.39780992","long":"127.2799208","imageIndex":4,"items":[{"name":"미존떡볶이","tel":"031-764-4373","addr":"경기도 광주시 쌍령동 360-1번지 현대2차아파트 109호","indutype":"일반휴게음식 - 스넥","category":"restaurant"}]},{"lat":"37.3965637","long":"127.2693909","imageIndex":4,"items":[{"name":"바빈스커피","tel":"","addr":"경기도 광주시 쌍령동 503번지 광주센트럴푸르지오 G동 2층 109호","indutype":"일반휴게음식 - 서양음식","category":"restaurant"},{"name":"팜투분식","tel":"","addr":"경기도 광주시 쌍령동 503번지 광주센트럴푸르지오","indutype":"일반휴게음식 - 스넥","category":"restaurant"},{"name":"프리미엄옛날통닭","tel":"031-768-9291","addr":"경기도 광주시 쌍령동 503번지 광주센트럴푸르지오 상가동 107호","indutype":"일반휴게음식 - 일반한식","category":"restaurant"}]},{"lat":"37.40256083","long":"127.2709707","imageIndex":4,"items":[{"name":"복돈이","tel":"031-764-5436","addr":"경기도 광주시 쌍령동 252-4번지 1층","indutype":"일반휴게음식 - 일반한식","category":"restaurant"}]},{"lat":"37.39975767","long":"127.2714238","imageIndex":4,"items":[{"name":"비어사케","tel":"031-000-0000","addr":"경기도 광주시 쌍령동 148-1번지 303호","indutype":"일반휴게음식 - 스넥","category":"restaurant"}]},{"lat":"37.40628486","long":"127.2656755","imageIndex":4,"items":[{"name":"비카페(B CAFE)","tel":"031-768-1013","addr":"경기도 광주시 쌍령동 58-11번지 4층","indutype":"일반휴게음식 - 서양음식","category":"restaurant"}]},{"lat":"37.39755826","long":"127.2757752","imageIndex":4,"items":[{"name":"뽕뜨락피자(쌍령점)","tel":"031-765-5992","addr":"경기도 광주시 쌍령동 347-2번지 1층","indutype":"일반휴게음식 - 서양음식","category":"restaurant"}]},{"lat":"37.40350243","long":"127.2689524","imageIndex":4,"items":[{"name":"새광주기사식당","tel":"031-763-3315","addr":"경기도 광주시 쌍령동 113-6번지","indutype":"일반휴게음식 - 일반한식","category":"restaurant"}]},{"lat":"37.40239646","long":"127.2679433","imageIndex":4,"items":[{"name":"새광주참숯가마식당","tel":"031-769-3354","addr":"경기도 광주시 쌍령동 141번지 1층 식당코너","indutype":"일반휴게음식 - 일반한식","category":"restaurant"}]},{"lat":"37.39703477","long":"127.2761686","imageIndex":4,"items":[{"name":"송엘림두마리치킨","tel":"","addr":"경기도 광주시 쌍령동 353-34번지 제일빌딩 1호동 2층","indutype":"일반휴게음식 - 스넥","category":"restaurant"},{"name":"요거프레소(쌍령동점)","tel":"031-764-7073","addr":"경기도 광주시 쌍령동 353-34번지 제일빌딩 1층 104호","indutype":"일반휴게음식 - 서양음식","category":"restaurant"},{"name":"이름없는","tel":"031-761-9962","addr":"경기도 광주시 쌍령동 353-34번지 제일빌딩 1층","indutype":"일반휴게음식 - 일반한식","category":"restaurant"},{"name":"하정이네","tel":"031-768-2845","addr":"경기도 광주시 쌍령동 353-34번지 제일빌딩 2층","indutype":"일반휴게음식 - 일반한식","category":"restaurant"},{"name":"훌랄라참숯바베큐치킨","tel":"031-768-6899","addr":"경기도 광주시 쌍령동 353-34번지 1층","indutype":"일반휴게음식 - 스넥","category":"restaurant"}]},{"lat":"37.40072818","long":"127.2725566","imageIndex":4,"items":[{"name":"쌍령동칼국수","tel":"031-797-7713","addr":"경기도 광주시 쌍령동 191-27번지 태성빌라 102호","indutype":"일반휴게음식 - 일반한식","category":"restaurant"},{"name":"파란별2커피","tel":"031-766-5535","addr":"경기도 광주시 쌍령동 191-27번지 태성빌라","indutype":"일반휴게음식 - 서양음식","category":"restaurant"}]},{"lat":"37.39914204","long":"127.2727204","imageIndex":4,"items":[{"name":"아겐족발","tel":"","addr":"경기도 광주시 쌍령동 163-1번지 1층","indutype":"일반휴게음식 - 일반한식","category":"restaurant"}]},{"lat":"37.40023072","long":"127.2733906","imageIndex":4,"items":[{"name":"어소반","tel":"031-798-5435","addr":"경기도 광주시 쌍령동 187-2번지 1층","indutype":"일반휴게음식 - 일반한식","category":"restaurant"}]},{"lat":"37.40142277","long":"127.2721977","imageIndex":4,"items":[{"name":"엄마의부엌","tel":"031-792-2975","addr":"경기도 광주시 쌍령동 238-2번지","indutype":"일반휴게음식 - 일반한식","category":"restaurant"},{"name":"피자와치킨의러브레터","tel":"031-797-9924","addr":"경기도 광주시 쌍령동 238-2번지 1층","indutype":"일반휴게음식 - 서양음식","category":"restaurant"}]},{"lat":"37.39828117","long":"127.274863","imageIndex":4,"items":[{"name":"역전국밥","tel":"031-763-1974","addr":"경기도 광주시 쌍령동 413-29번지 1층","indutype":"일반휴게음식 - 일반한식","category":"restaurant"}]},{"lat":"37.40889326","long":"127.2676951","imageIndex":4,"items":[{"name":"예체르","tel":"070-4452-4744","addr":"경기도 광주시 쌍령동 52-59번지 2층","indutype":"일반휴게음식 - 서양음식","category":"restaurant"}]},{"lat":"37.40083643","long":"127.2725006","imageIndex":4,"items":[{"name":"일삼오정육식당","tel":"031-765-1343","addr":"경기도 광주시 쌍령동 191-25번지 쌍령빌라","indutype":"일반휴게음식 - 일반한식","category":"restaurant"}]},{"lat":"37.40114372","long":"127.2720838","imageIndex":4,"items":[{"name":"정(  ) 족발","tel":"031-768-6879","addr":"경기도 광주시 쌍령동 191-5번지","indutype":"일반휴게음식 - 일반한식","category":"restaurant"},{"name":"한추어탕","tel":"031-768-6009","addr":"경기도 광주시 쌍령동 191-5번지","indutype":"일반휴게음식 - 일반한식","category":"restaurant"}]},{"lat":"37.40209159","long":"127.2712853","imageIndex":4,"items":[{"name":"진도야족발","tel":"031-761-7465","addr":"경기도 광주시 쌍령동 248번지 1층","indutype":"일반휴게음식 - 일반한식","category":"restaurant"},{"name":"토방골메밀막국수","tel":"031-763-4490","addr":"경기도 광주시 쌍령동 248번지 1층","indutype":"일반휴게음식 - 일반한식","category":"restaurant"},{"name":"펀비어킹 쌍령점","tel":"031-767-8933","addr":"경기도 광주시 쌍령동 248번지","indutype":"일반휴게음식 - 주점","category":"restaurant"}]},{"lat":"37.39775609","long":"127.2759453","imageIndex":4,"items":[{"name":"창꼬","tel":"070-4219-0063","addr":"경기도 광주시 쌍령동 347-15번지 1층","indutype":"일반휴게음식 - 주점","category":"restaurant"}]},{"lat":"37.40994406","long":"127.2651687","imageIndex":4,"items":[{"name":"청석정","tel":"","addr":"경기도 광주시 쌍령동 48-45번지","indutype":"일반휴게음식 - 일반한식","category":"restaurant"},{"name":"총각수산 광주본점","tel":"031-769-1888","addr":"경기도 광주시 쌍령동 48-45번지","indutype":"일반휴게음식 - 일식·회집","category":"restaurant"}]},{"lat":"37.3988351","long":"127.272979","imageIndex":4,"items":[{"name":"최아기자 곤드레오리국밥/(주)우리집건강","tel":"031-797-1190","addr":"경기도 광주시 쌍령동 167번지","indutype":"일반휴게음식 - 일반한식","category":"restaurant"}]},{"lat":"37.40133349","long":"127.271836","imageIndex":4,"items":[{"name":"커피별","tel":"031-765-9877","addr":"경기도 광주시 쌍령동 191-36번지","indutype":"일반휴게음식 - 서양음식","category":"restaurant"}]},{"lat":"37.39897704","long":"127.2739508","imageIndex":4,"items":[{"name":"코네코","tel":"031-765-1308","addr":"경기도 광주시 쌍령동 419-2번지 1층","indutype":"일반휴게음식 - 일식·회집","category":"restaurant"}]},{"lat":"37.39822211","long":"127.2731123","imageIndex":4,"items":[{"name":"통삼겹바베큐","tel":"031-798-2558","addr":"경기도 광주시 쌍령동 422-2번지 1층","indutype":"일반휴게음식 - 일반한식","category":"restaurant"},{"name":"통삼겹바베큐","tel":"031-798-2558","addr":"경기도 광주시 쌍령동 422-2번지","indutype":"일반휴게음식 - 일반한식","category":"restaurant"}]},{"lat":"37.39833611","long":"127.2744793","imageIndex":4,"items":[{"name":"플레이트416","tel":"031-765-0454","addr":"경기도 광주시 쌍령동 416-4번지","indutype":"일반휴게음식 - 서양음식","category":"restaurant"}]},{"lat":"37.39775609","long":"127.2759453","imageIndex":13,"items":[{"name":"NS스피닝","tel":"031-765-4855","addr":"경기도 광주시 쌍령동 347-15번지 4층","indutype":"레저업소 - 헬스클럽","category":"leisure"},{"name":"나이스노래방","tel":"031-798-0009","addr":"경기도 광주시 쌍령동 347-15번지 외2필지","indutype":"레저업소 - 노 래 방","category":"leisure"}]},{"lat":"37.40214465","long":"127.271726","imageIndex":13,"items":[{"name":"런앤런 짐 에듀케이션","tel":"031-768-1989","addr":"경기도 광주시 쌍령동 247번지","indutype":"레저업소 - 기타레져업소","category":"leisure"}]},{"lat":"37.3977844","long":"127.275392","imageIndex":13,"items":[{"name":"레인보우 슬라임","tel":"","addr":"경기도 광주시 쌍령동 502번지 대광로제비앙 단지내 상가동 지상 1층 102호","indutype":"레저업소 - 기타레져업소","category":"leisure"}]},{"lat":"37.40994406","long":"127.2651687","imageIndex":13,"items":[{"name":"바하 노래연습장","tel":"031-769-7711","addr":"경기도 광주시 쌍령동 48-45번지 3층","indutype":"레저업소 - 노 래 방","category":"leisure"}]},{"lat":"37.4008389","long":"127.2714164","imageIndex":13,"items":[{"name":"버디골프존","tel":"031-769-4455","addr":"경기도 광주시 쌍령동 158-1번지","indutype":"레저업소 - 스크린골프","category":"leisure"}]},{"lat":"37.40256083","long":"127.2709707","imageIndex":13,"items":[{"name":"복당구장","tel":"031-794-3637","addr":"경기도 광주시 쌍령동 252-4번지 2층","indutype":"레저업소 - 당 구 장","category":"leisure"}]},{"lat":"37.40436696","long":"127.2691475","imageIndex":13,"items":[{"name":"비바체당구장","tel":"070-7626-1414","addr":"경기도 광주시 쌍령동 108-2번지 늘봄빌딩 201호","indutype":"레저업소 - 당 구 장","category":"leisure"}]},{"lat":"37.4031723","long":"127.2715038","imageIndex":13,"items":[{"name":"상상PC","tel":"","addr":"경기도 광주시 쌍령동 501번지 1층 상가동","indutype":"레저업소 - 기타레져업소","category":"leisure"}]},{"lat":"37.39791999","long":"127.2752005","imageIndex":13,"items":[{"name":"스타볼링장","tel":"031-763-8005","addr":"경기도 광주시 쌍령동 413-1","indutype":"레저업소 - 볼 링 장","category":"leisure"}]},{"lat":"37.39833611","long":"127.2744793","imageIndex":13,"items":[{"name":"아이공간","tel":"070-8835-7676","addr":"경기도 광주시 쌍령동 416-4번지","indutype":"레저업소 - 기타레져업소","category":"leisure"}]},{"lat":"37.39755826","long":"127.2757752","imageIndex":13,"items":[{"name":"한스PC","tel":"070-2633-2148","addr":"경기도 광주시 쌍령동 347-2번지","indutype":"레저업소 - 기타레져업소","category":"leisure"},{"name":"한큐당구장","tel":"031-761-3878","addr":"경기도 광주시 쌍령동 347-2번지 3층","indutype":"레저업소 - 당 구 장","category":"leisure"}]},{"lat":"37.39722309","long":"127.2765532","imageIndex":8,"items":[{"name":"e-편한치과의원","tel":"031-768-2757","addr":"경기도 광주시 쌍령동 368-9번지 CMA상가 202호","indutype":"의원 - 치과의원","category":"medical"},{"name":"푸른가정의원","tel":"031-769-2814","addr":"경기도 광주시 쌍령동 368-9번지 CMA상가 2층 201호","indutype":"의원 - 의원","category":"medical"},{"name":"하나약국","tel":"031-765-0199","addr":"경기도 광주시 쌍령동 368-9번지","indutype":"약국 - 약국","category":"medical"}]},{"lat":"37.40164009","long":"127.2717242","imageIndex":8,"items":[{"name":"늘품약국","tel":"031-763-8102","addr":"경기도 광주시 쌍령동 238-1번지 이레타워 101호","indutype":"약국 - 약국","category":"medical"},{"name":"바른플란트치과의원","tel":"031-797-7522","addr":"경기도 광주시 쌍령동 238-1번지 3층 302호","indutype":"의원 - 치과의원","category":"medical"}]},{"lat":"37.39758483","long":"127.2759786","imageIndex":8,"items":[{"name":"사랑나무한의원","tel":"031-766-9760","addr":"경기도 광주시 쌍령동 347-1번지 2층","indutype":"의원 - 한의원","category":"medical"}]},{"lat":"37.40994406","long":"127.2651687","imageIndex":8,"items":[{"name":"서울훼밀리의원","tel":"031-947-6025","addr":"경기도 광주시 쌍령동 48-45번지 교하일번가 401호","indutype":"의원 - 의원","category":"medical"}]},{"lat":"37.39703477","long":"127.2761686","imageIndex":8,"items":[{"name":"세보한의원","tel":"031-798-4175","addr":"경기도 광주시 쌍령동 353-34번지 제일빌딩 2층","indutype":"의원 - 한의원","category":"medical"}]},{"lat":"37.3965637","long":"127.2693909","imageIndex":16,"items":[{"name":"강남젭스홈스쿨","tel":"","addr":"경기도 광주시 쌍령동 503번지 광주센트럴푸르지오","indutype":"학원 - 기타 교육기관","category":"study"},{"name":"경희   아이탑 태권도장","tel":"031-767-0307","addr":"경기도 광주시 쌍령동 503번지 광주센트럴푸르지오","indutype":"학원 - 예·체능계학원","category":"study"},{"name":"뮤엠보스턴영어학원","tel":"031-765-2887","addr":"경기도 광주시 쌍령동 503번지 광주센트럴푸르지오 209,210호","indutype":"학원 - 외국어학원","category":"study"},{"name":"뮤직하임음악학원","tel":"031-764-0366","addr":"경기도 광주시 쌍령동 503번지 광주센트럴푸르지오 202,203호","indutype":"학원 - 예·체능계학원","category":"study"},{"name":"색채아트미술교습소","tel":"031-766-1366","addr":"경기도 광주시 쌍령동 503번지 광주센트럴푸르지오 상가 204호","indutype":"학원 - 예·체능계학원","category":"study"},{"name":"이선영 교실","tel":"","addr":"경기도 광주시 쌍령동 503번지 광주센트럴푸르지오","indutype":"학원 - 기타 교육기관","category":"study"},{"name":"푸르지오 피아노","tel":"","addr":"경기도 광주시 쌍령동 503번지 광주센트럴푸르지오","indutype":"학원 - 기타 교육기관","category":"study"}]},{"lat":"37.39741638","long":"127.2786771","imageIndex":16,"items":[{"name":"개인과외교습소","tel":"031-769-9235","addr":"경기도 광주시 쌍령동 349번지 쌍령2차동성아파트","indutype":"학원 - 예·체능계학원","category":"study"}]},{"lat":"37.39975767","long":"127.2714238","imageIndex":16,"items":[{"name":"꿈꾸는 멜로디 음악학원","tel":"031-764-0046","addr":"경기도 광주시 쌍령동 148-1번지 포도나무빌딩 401호","indutype":"학원 - 예·체능계학원","category":"study"},{"name":"내가하는미술학원","tel":"031-761-8675","addr":"경기도 광주시 쌍령동 148-1번지 4층","indutype":"학원 - 예·체능계학원","category":"study"},{"name":"솔로몬학원","tel":"031-766-9902","addr":"경기도 광주시 쌍령동 148-1번지 4층 402호","indutype":"학원 - 보습학원","category":"study"}]},{"lat":"37.39675591","long":"127.2759756","imageIndex":16,"items":[{"name":"더원 합기도","tel":"031-765-1612","addr":"경기도 광주시 쌍령동 371-2번지 제일빌딩 2층","indutype":"학원 - 예·체능계학원","category":"study"},{"name":"흥나는범쌤학원","tel":"031-797-5252","addr":"경기도 광주시 쌍령동 371-2번지 외5필지","indutype":"회원제형태 - 학원","category":"study"}]},{"lat":"37.39817279","long":"127.2749756","imageIndex":16,"items":[{"name":"삼성영어 쌍령일학원","tel":"031-764-3405","addr":"경기도 광주시 쌍령동 413-30번지 외1필지","indutype":"회원제형태 - 학원","category":"study"}]},{"lat":"37.40236329","long":"127.274618","imageIndex":16,"items":[{"name":"세종영재교육회","tel":"031-761-4181","addr":"경기도 광주시 쌍령동 222 9/","indutype":"회원제형태 - 학원","category":"study"}]},{"lat":"37.39728569","long":"127.2767567","imageIndex":16,"items":[{"name":"소리숲음악학원","tel":"031-768-9449","addr":"경기도 광주시 쌍령동 368-12번지 301호","indutype":"학원 - 예·체능계학원","category":"study"},{"name":"어린화가미술교습소","tel":"031-768-5533","addr":"경기도 광주시 쌍령동 368-12번지 204호","indutype":"학원 - 예·체능계학원","category":"study"}]},{"lat":"37.39758483","long":"127.2759786","imageIndex":16,"items":[{"name":"숙명애플음악학원","tel":"070-8755-5617","addr":"경기도 광주시 쌍령동 347-1번지 3층","indutype":"학원 - 예·체능계학원","category":"study"}]},{"lat":"37.40700195","long":"127.2713367","imageIndex":16,"items":[{"name":"숲소리 교육","tel":"031-761-2214","addr":"경기도 광주시 쌍령동 78-18번지 2층","indutype":"학원 - 기타 교육기관","category":"study"}]},{"lat":"37.39780992","long":"127.2799208","imageIndex":16,"items":[{"name":"시원수학교습소","tel":"031-8832-0927","addr":"경기도 광주시 쌍령동 360-1번지 현대2차모닝사이드 상가 107호","indutype":"회원제형태 - 학원","category":"study"},{"name":"토마스잉글리시","tel":"","addr":"경기도 광주시 쌍령동 360-1번지 쌍령2차현대모닝사이드 상가동 2층 209,210호","indutype":"학원 - 외국어학원","category":"study"},{"name":"호산나피아노","tel":"031-769-5947","addr":"경기도 광주시 쌍령동 360-1 모닝사이드상가2층 207","indutype":"학원 - 예·체능계학원","category":"study"}]},{"lat":"37.39755826","long":"127.2757752","imageIndex":16,"items":[{"name":"쌍령독서실","tel":"070-4110-4110","addr":"경기도 광주시 쌍령동 347-2번지 4층","indutype":"학원 - 독서실","category":"study"}]},{"lat":"37.39797847","long":"127.2771884","imageIndex":16,"items":[{"name":"아이플레이","tel":"","addr":"경기도 광주시 쌍령동 337번지 동성1차아파트","indutype":"학원 - 기타 교육기관","category":"study"}]},{"lat":"37.40283173","long":"127.2746536","imageIndex":16,"items":[{"name":"예그리나 미술교습소","tel":"031-797-8027","addr":"경기도 광주시 쌍령동 219번지 쌍령낙원타운하우스 (27동B01호)","indutype":"학원 - 예·체능계학원","category":"study"}]},{"lat":"37.39722309","long":"127.2765532","imageIndex":16,"items":[{"name":"와이에스(YS)수학논술학원","tel":"031-761-5950","addr":"경기도 광주시 쌍령동 368-9번지 301호","indutype":"학원 - 보습학원","category":"study"},{"name":"와이에스(YS)수학논술학원","tel":"031-765-6729","addr":"경기도 광주시 쌍령동 368-9번지 301호","indutype":"학원 - 보습학원","category":"study"}]},{"lat":"37.39956789","long":"127.2794868","imageIndex":16,"items":[{"name":"이화미술","tel":"","addr":"경기도 광주시 쌍령동 353-9번지 쌍령현대아파트","indutype":"학원 - 기타 교육기관","category":"study"}]},{"lat":"37.4122552","long":"127.2671648","imageIndex":16,"items":[{"name":"청석연기학원","tel":"031-798-7585","addr":"경기도 광주시 쌍령동 15-8번지 청석씨어터 102호","indutype":"회원제형태 - 학원","category":"study"}]},{"lat":"37.39703477","long":"127.2761686","imageIndex":16,"items":[{"name":"태성태권도","tel":"031-767-1311","addr":"경기도 광주시 쌍령동 353-34번지 제일빌딩 2층","indutype":"학원 - 예·체능계학원","category":"study"}]},{"lat":"37.39780992","long":"127.2799208","imageIndex":7,"items":[{"name":"구루메케이크&베이킹스튜디오","tel":"070-7765-1948","addr":"경기도 광주시 쌍령동 360-1번지 현대2차모닝사이드 상가 208호","indutype":"음료식품 - 제과점","category":"food"}]},{"lat":"37.40628486","long":"127.2656755","imageIndex":7,"items":[{"name":"달콤농장","tel":"031-767-5279","addr":"경기도 광주시 쌍령동 58-11번지 A동 103호","indutype":"음료식품 - 농·축·수산품","category":"food"}]},{"lat":"37.40536095","long":"127.2678634","imageIndex":7,"items":[{"name":"대게집","tel":"070-4251-8282","addr":"경기도 광주시 쌍령동 104-19번지 404호","indutype":"음료식품 - 농·축·수산품","category":"food"}]},{"lat":"37.39722309","long":"127.2765532","imageIndex":7,"items":[{"name":"떡고을","tel":"031-764-0598","addr":"경기도 광주시 쌍령동 368-9번지 CMA상가 107호","indutype":"음료식품 - 제과점","category":"food"},{"name":"정직한정육점","tel":"031-769-3412","addr":"경기도 광주시 쌍령동 368-9번지 103호","indutype":"음료식품 - 정육점","category":"food"},{"name":"황후스킨케어.허브다이어트","tel":"031-766-0301","addr":"경기도 광주시 쌍령동 368-9번지 외2필지 302호","indutype":"회원제형태 - 건강식품","category":"food"}]},{"lat":"37.39975767","long":"127.2714238","imageIndex":7,"items":[{"name":"반찬을부탁해","tel":"031-766-1544","addr":"경기도 광주시 쌍령동 148-1번지 2층","indutype":"음료식품 - 기타음료식품","category":"food"}]},{"lat":"37.40589023","long":"127.2728688","imageIndex":7,"items":[{"name":"서가유통","tel":"031-761-6736","addr":"경기도 광주시 쌍령동 259-20번지 쌍령하이츠2차 801동 102호","indutype":"음료식품 - 기타음료식품","category":"food"}]},{"lat":"37.40239646","long":"127.2679433","imageIndex":7,"items":[{"name":"시너지골통","tel":"070-4244-1118","addr":"경기도 광주시 쌍령동 141번지 광주참숯가마내","indutype":"회원제형태 - 건강식품","category":"food"}]},{"lat":"37.39758292","long":"127.2806653","imageIndex":7,"items":[{"name":"싱싱야채","tel":"031-763-8077","addr":"경기도 광주시 쌍령동 360-1번지 쌍령2차현대모닝사이드","indutype":"음료식품 - 농·축·수산품","category":"food"}]},{"lat":"37.4033785","long":"127.2719563","imageIndex":7,"items":[{"name":"영복야채","tel":"02-1111-1111","addr":"경기도 광주시 쌍령동 501번지 광주 쌍령 서희스타힐스 105동 1402호","indutype":"음료식품 - 농·축·수산품","category":"food"}]},{"lat":"37.39822991","long":"127.2736432","imageIndex":7,"items":[{"name":"주식회사 탑푸드농업회사법인","tel":"031-767-0830","addr":"경기도 광주시 쌍령동 417번지","indutype":"음료식품 - 농·축·수산품","category":"food"},{"name":"탑정육","tel":"031-767-0830","addr":"경기도 광주시 쌍령동 417번지","indutype":"음료식품 - 정육점","category":"food"}]},{"lat":"37.40994406","long":"127.2651687","imageIndex":7,"items":[{"name":"주식회사 테라트리","tel":"031-1577-0236","addr":"경기도 광주시 쌍령동 48-45번지 교하일번가빌딩 6층 607호","indutype":"건강식품 - 기타건강식품","category":"food"},{"name":"총각수산","tel":"031-769-1888","addr":"경기도 광주시 쌍령동 48-45번지 2층","indutype":"음료식품 - 농·축·수산품","category":"food"}]},{"lat":"37.3965637","long":"127.2693909","imageIndex":7,"items":[{"name":"촉촉식빵","tel":"031-768-7090","addr":"경기도 광주시 쌍령동 503번지 광주센트럴푸르지오","indutype":"음료식품 - 제과점","category":"food"}]},{"lat":"37.40331317","long":"127.2729499","imageIndex":7,"items":[{"name":"코피코피","tel":"031-000-0000","addr":"경기도 광주시 쌍령동 285번지","indutype":"음료식품 - 기타음료식품","category":"food"}]},{"lat":"37.40608769","long":"127.2652005","imageIndex":7,"items":[{"name":"토민수산","tel":"031-765-0385","addr":"경기도 광주시 쌍령동 493","indutype":"음료식품 - 농·축·수산품","category":"food"}]},{"lat":"37.39755826","long":"127.2757752","imageIndex":7,"items":[{"name":"파리바게뜨","tel":"031-768-7872","addr":"경기도 광주시 쌍령동 347-2번지 1층","indutype":"음료식품 - 제과점","category":"food"}]},{"lat":"37.40264215","long":"127.2708694","imageIndex":5,"items":[{"name":"도도모텔","tel":"031-765-1768","addr":"경기도 광주시 쌍령동 252-2번지","indutype":"숙박업 - 여관/기타숙박업","category":"hotel"}]},{"lat":"37.40125387","long":"127.271192","imageIndex":5,"items":[{"name":"모텔로즈","tel":"031-763-3843","addr":"경기도 광주시 쌍령동 155-18번지","indutype":"숙박업 - 여관/기타숙박업","category":"hotel"}]},{"lat":"37.40342091","long":"127.2691441","imageIndex":9,"items":[{"name":"새광주주유소","tel":"031-761-6853","addr":"경기도 광주시 쌍령동 113-9번지","indutype":"연료판매점 - 주유소","category":"oil"}]},{"lat":"37.40414389","long":"127.2681754","imageIndex":9,"items":[{"name":"새광주충전소","tel":"031-764-1052","addr":"경기도 광주시 쌍령동 113-1번지","indutype":"연료판매점 - SK가스충전소","category":"oil"}]},{"lat":"37.40205573","long":"127.2751477","imageIndex":7,"items":[{"name":"으뜸마트","tel":"031-768-6671","addr":"경기도 광주시 쌍령동 219번지 쌍령낙원타운하우스","indutype":"유통업 영리 - 슈퍼마켓","category":"mart"}]},{"lat":"37.39986497","long":"127.2717856","imageIndex":7,"items":[{"name":"주식회사 파머스마켓","tel":"031-761-5097","addr":"경기도 광주시 쌍령동 158-9번지 1층","indutype":"유통업 영리 - 슈퍼마켓","category":"mart"}]},{"lat":"37.4003609","long":"127.2716179","imageIndex":7,"items":[{"name":"주식회사브라더스","tel":"031-767-4982","addr":"경기도 광주시 쌍령동 158-4번지","indutype":"유통업 영리 - 슈퍼마켓","category":"mart"}]},{"lat":"37.40638945","long":"127.2672571","imageIndex":7,"items":[{"name":"코사마트(용현점)","tel":"031-761-4218","addr":"경기도 광주시 쌍령동 60-53번지","indutype":"유통업 영리 - 슈퍼마켓","category":"mart"}]},{"lat":"37.40142277","long":"127.2721977","imageIndex":7,"items":[{"name":"필구마트","tel":"031-761-0898","addr":"경기도 광주시 쌍령동 238-2번지","indutype":"유통업 영리 - 슈퍼마켓","category":"mart"}]},{"lat":"37.40611158","long":"127.2666124","imageIndex":7,"items":[{"name":"하나로마트","tel":"031-762-2259","addr":"경기도 광주시 쌍령동 60-48번지","indutype":"유통업 영리 - 슈퍼마켓","category":"mart"}]}]