[{"lat":"37.718037549","long":"126.84975552","imageIndex":13,"items":[{"name":"금이네헤어스토리","tel":"031-962-2722","addr":"경기도 고양시 덕양구 내유동 444-26번지","indutype":"보건위생 - 미용원","category":"beauty"}]},{"lat":"37.726344103","long":"126.84276241","imageIndex":13,"items":[{"name":"김귀자헤어","tel":"031-964-5743","addr":"경기도 고양시 덕양구 내유동 672-2번지","indutype":"보건위생 - 미용원","category":"beauty"},{"name":"힐스템 생활건강(덕양내유지점)","tel":"031-962-9843","addr":"경기도 고양시 덕양구 내유동 672-2번지","indutype":"보건위생 - 기타대인서비스","category":"beauty"}]},{"lat":"37.727008368","long":"126.84767259","imageIndex":13,"items":[{"name":"꽃단장","tel":"070-4001-8266","addr":"경기도 고양시 덕양구 내유동 653-53번지","indutype":"보건위생 - 피부미용실","category":"beauty"}]},{"lat":"37.723708696","long":"126.84603478","imageIndex":13,"items":[{"name":"꽃보살","tel":"02-384-7085","addr":"경기도 고양시 덕양구 내유동 579-2번지","indutype":"보건위생 - 기타대인서비스","category":"beauty"}]},{"lat":"37.710095016","long":"126.85281116","imageIndex":13,"items":[{"name":"네이처헤어살롱","tel":"031-966-8903","addr":"경기도 고양시 덕양구 내유동 294-32번지","indutype":"보건위생 - 미용원","category":"beauty"}]},{"lat":"37.719042886","long":"126.8538706","imageIndex":13,"items":[{"name":"도도헤어샵","tel":"","addr":"경기도 고양시 덕양구 내유동 273번지","indutype":"보건위생 - 미용원","category":"beauty"}]},{"lat":"37.726148694","long":"126.84483861","imageIndex":13,"items":[{"name":"두리헤어클리닉","tel":"031-962-3209","addr":"경기도 고양시 덕양구 내유동 674-9번지","indutype":"보건위생 - 미용원","category":"beauty"}]},{"lat":"37.718210096","long":"126.85080996","imageIndex":13,"items":[{"name":"리꼬헤어","tel":"","addr":"경기도 고양시 덕양구 내유동","indutype":"보건위생 - 미용원","category":"beauty"}]},{"lat":"37.717375729","long":"126.85356771","imageIndex":13,"items":[{"name":"무령당","tel":"070-9152-3626","addr":"경기도 고양시 덕양구 내유동 275-16번지 스카이파크빌","indutype":"보건위생 - 기타대인서비스","category":"beauty"}]},{"lat":"37.710708832","long":"126.85372852","imageIndex":13,"items":[{"name":"민정","tel":"031-973-4937","addr":"경기도 고양시 덕양구 내유동 294-23번지 청담힐타운10단지","indutype":"보건위생 - 화장품","category":"beauty"}]},{"lat":"37.718760643","long":"126.85155741","imageIndex":13,"items":[{"name":"빠숑네일","tel":"070-4042-9428","addr":"경기도 고양시 덕양구 내유동 442-2번지","indutype":"보건위생 - 피부미용실","category":"beauty"}]},{"lat":"37.726347541","long":"126.8453146","imageIndex":13,"items":[{"name":"아이디미용실","tel":"031-964-7480","addr":"경기도 고양시 덕양구 내유동 663-7번지","indutype":"보건위생 - 미용원","category":"beauty"}]},{"lat":"37.724043058","long":"126.86875364","imageIndex":13,"items":[{"name":"어썸타운스킨케어","tel":"02-703-7117","addr":"경기도 고양시 덕양구 내유동 15번지","indutype":"보건위생 - 피부미용실","category":"beauty"}]},{"lat":"37.726791226","long":"126.84698111","imageIndex":13,"items":[{"name":"에뜨와르헤어샵","tel":"031-965-8877","addr":"경기도 고양시 덕양구 내유동 649-3번지","indutype":"보건위생 - 미용원","category":"beauty"}]},{"lat":"37.725869732","long":"126.84508875","imageIndex":13,"items":[{"name":"연인화장품","tel":"031-964-9447","addr":"경기도 고양시 덕양구 내유동 646-48번지","indutype":"보건위생 - 화장품","category":"beauty"}]},{"lat":"37.725598746","long":"126.84456755","imageIndex":13,"items":[{"name":"오아시스153내유점","tel":"031-968-2044","addr":"경기도 고양시 덕양구 내유동 646-49번지","indutype":"보건위생 - 안경","category":"beauty"}]},{"lat":"37.725208406","long":"126.84240188","imageIndex":13,"items":[{"name":"용신암","tel":"031-962-5865","addr":"경기도 고양시 덕양구 내유동 307-9번지","indutype":"보건위생 - 기타대인서비스","category":"beauty"}]},{"lat":"37.731708463","long":"126.84548475","imageIndex":13,"items":[{"name":"우리체어메디칼","tel":"070-4247-1807","addr":"경기도 고양시 덕양구 내유동 741번지","indutype":"보건위생 - 의료용품","category":"beauty"}]},{"lat":"37.726483124","long":"126.84564327","imageIndex":13,"items":[{"name":"정헤어샵","tel":"031-963-3553","addr":"경기도 고양시 덕양구 내유동 660-1번지","indutype":"보건위생 - 미용원","category":"beauty"}]},{"lat":"37.726013368","long":"126.84470278","imageIndex":13,"items":[{"name":"제이앤헤어","tel":"031-964-0842","addr":"경기도 고양시 덕양구 내유동 675-5번지","indutype":"보건위생 - 미용원","category":"beauty"}]},{"lat":"37.725707332","long":"126.84491895","imageIndex":13,"items":[{"name":"헤어72","tel":"031-984-1463","addr":"경기도 고양시 덕양구 내유동 646-2번지","indutype":"보건위생 - 미용원","category":"beauty"}]}]