[{"lat":"37.442875833","long":"126.80024691","imageIndex":4,"items":[{"name":"BHC 은행점","tel":"031-404-5060","addr":"경기도 시흥시 은행동 539-1번지","indutype":"음식점업 - 치킨","category":"restaurant"}]},{"lat":"37.444910648","long":"126.79940519","imageIndex":4,"items":[{"name":"T.M.B 숯불바베큐","tel":"031-318-1320","addr":"경기도 시흥시 은행동 528-5번지","indutype":"음식점업 - 치킨","category":"restaurant"},{"name":"통근아구찜","tel":"031-311-5958","addr":"경기도 시흥시 은행동 528-5번지","indutype":"음식점업 - 아구찜외","category":"restaurant"}]},{"lat":"37.441782476","long":"126.80369637","imageIndex":4,"items":[{"name":"㈜ 참맛푸드 참맛닭강정 은계점","tel":"031-312-3010","addr":"경기도 시흥시 은행동 621번지 시흥은계우미린더퍼스트 상가동 1층 105호","indutype":"음식점업 - 치킨 전문점","category":"restaurant"}]},{"lat":"37.444376424","long":"126.79788108","imageIndex":4,"items":[{"name":"가마로 강정","tel":"031-311-7292","addr":"경기도 시흥시 은행동 535번지 다이아몬드빌딩 103호","indutype":"음식점업 - 치킨","category":"restaurant"},{"name":"아루루","tel":"070-8885-1680","addr":"경기도 시흥시 은행동 535번지","indutype":"음식점업 - 애견카페","category":"restaurant"},{"name":"일구팔오화덕피자(1985)","tel":"031-404-8215","addr":"경기도 시흥시 은행동 535번지","indutype":"음식점업 - 피자","category":"restaurant"}]},{"lat":"37.439158222","long":"126.79707044","imageIndex":4,"items":[{"name":"갈비엔조이","tel":"031-313-2282","addr":"경기도 시흥시 은행동 547-4번지 경동프라자 110호","indutype":"음식점업 - 한식","category":"restaurant"},{"name":"김밥천국","tel":"031-314-7929","addr":"경기도 시흥시 은행동 547-4번지 경동프라자 107호","indutype":"음식점업 - 기타음식","category":"restaurant"},{"name":"카페데일리","tel":"070-4103-3993","addr":"경기도 시흥시 은행동 547-4번지 경동프라자 1층 11-3호","indutype":"음식점업 - 카페","category":"restaurant"}]},{"lat":"37.435913656","long":"126.80174587","imageIndex":4,"items":[{"name":"감동식탁","tel":"","addr":"경기도 시흥시 은행동 644번지 시흥은계호반써밋플레이스 1층 185호","indutype":"음식점업 - 한식","category":"restaurant"},{"name":"대만샌드위치 티앙웨이 은계호반점","tel":"031-318-9336","addr":"경기도 시흥시 은행동 644번지 시흥은계호반써밋플레이스 상가 160호","indutype":"음식점업 - 주스,커피,샌드위치","category":"restaurant"},{"name":"더달달은계점","tel":"031-503-8990","addr":"경기도 시흥시 은행동 644번지 시흥은계호반써밋플레이스 168호","indutype":"소매업 - 음식료점","category":"restaurant"},{"name":"신촌서서가","tel":"","addr":"경기도 시흥시 은행동 644번지 시흥은계호반써밋플레이스 1층 167호","indutype":"음식점업 - 고기류","category":"restaurant"}]},{"lat":"37.44460499","long":"126.79980153","imageIndex":4,"items":[{"name":"개포수타돈까스","tel":"031-313-0303","addr":"경기도 시흥시 은행동 529-3번지 1층","indutype":"음식점업 - 음식","category":"restaurant"}]},{"lat":"37.434796668","long":"126.79666432","imageIndex":4,"items":[{"name":"건강한밥상","tel":"","addr":"경기도 시흥시 은행동 248-82번지","indutype":"음식점업 - 한식","category":"restaurant"}]},{"lat":"37.436537796","long":"126.8031905","imageIndex":4,"items":[{"name":"고구려통닭","tel":"031-311-8292","addr":"경기도 시흥시 은행동 645-5번지 은계디스퀘어 117호","indutype":"음식점업 - 치킨호프","category":"restaurant"},{"name":"달빛맥주시흥은계점","tel":"031-317-2229","addr":"경기도 시흥시 은행동 645-5번지 은계 디스퀘어 1층 110호","indutype":"음식점업 - 맥주","category":"restaurant"}]},{"lat":"37.431073234","long":"126.79535263","imageIndex":4,"items":[{"name":"고기나라","tel":"031-312-8032","addr":"경기도 시흥시 은행동 289-76번지","indutype":"음식점업 - 한식","category":"restaurant"}]},{"lat":"37.437204878","long":"126.80339212","imageIndex":4,"items":[{"name":"고기원칙 시흥은계점","tel":"","addr":"경기도 시흥시 은행동 646-9번지 은계 유테라스 110~11호","indutype":"음식점업 - 한식","category":"restaurant"},{"name":"돈통마늘보쌈 시흥은계점","tel":"031-316-5382","addr":"경기도 시흥시 은행동 646-9번지 은계 유테라스 206호","indutype":"음식점업 - 한식","category":"restaurant"}]},{"lat":"37.434374197","long":"126.80248442","imageIndex":4,"items":[{"name":"구워더존치킨은계점","tel":"070-7543-9254","addr":"경기도 시흥시 은행동 661번지 시흥은계한양수자인더클래스 2동 1층 101호","indutype":"음식점업 - 음식","category":"restaurant"}]},{"lat":"37.436530063","long":"126.80394757","imageIndex":4,"items":[{"name":"국수나무 시흥은계점","tel":"","addr":"경기도 시흥시 은행동 646-12번지 시티파크 1층 111호","indutype":"음식점업 - 분식","category":"restaurant"},{"name":"연안식당(시흥은계점)","tel":"031-364-8353","addr":"경기도 시흥시 은행동 646-12번지 씨티파크 101~2호","indutype":"음식점업 - 한식","category":"restaurant"}]},{"lat":"37.43742808","long":"126.80218249","imageIndex":4,"items":[{"name":"김밥천국 시흥은계점","tel":"031-313-9098","addr":"경기도 시흥시 은행동 646-5번지 은계프라자 1층 102호","indutype":"음식점업 - 기타음식","category":"restaurant"},{"name":"내고향왕만두 은계점","tel":"","addr":"경기도 시흥시 은행동 646-5번지 은계프라자 107호","indutype":"음식점업 - 만두,찐빵","category":"restaurant"},{"name":"두원집","tel":"031-312-1988","addr":"경기도 시흥시 은행동 646-5번지 은계프라자 1층 111,112,113호","indutype":"음식점업 - 한식","category":"restaurant"},{"name":"카페글렌(은계점)","tel":"031-313-7864","addr":"경기도 시흥시 은행동 646-5번지 은계프라자 1층 108호","indutype":"음식점업 - 커피전문점","category":"restaurant"}]},{"lat":"37.431106786","long":"126.79394023","imageIndex":4,"items":[{"name":"김밥풍경","tel":"031-315-1755","addr":"경기도 시흥시 은행동 289-11번지 삼성홈타운 상가동 104호","indutype":"음식점업 - 음식","category":"restaurant"}]},{"lat":"37.44468421","long":"126.79871647","imageIndex":4,"items":[{"name":"김프로부대찌개","tel":"031-507-4007","addr":"경기도 시흥시 은행동 531-4번지 2층 202호","indutype":"음식점업 - 음식점","category":"restaurant"},{"name":"더오리지널피자컴퍼니","tel":"031-315-8500","addr":"경기도 시흥시 은행동 531-4번지 102호","indutype":"음식점업 - 기타음식점","category":"restaurant"},{"name":"초램양고기","tel":"031-315-5295","addr":"경기도 시흥시 은행동 531-4번지 1층 103호","indutype":"음식점업 - 일반음식점","category":"restaurant"}]},{"lat":"37.439800408","long":"126.79335108","imageIndex":4,"items":[{"name":"남원추어탕","tel":"031-314-7889","addr":"경기도 시흥시 은행동 557-5번지 1층","indutype":"음식점업 - 한식","category":"restaurant"}]},{"lat":"37.444710517","long":"126.79829829","imageIndex":4,"items":[{"name":"니뽕내뽕","tel":"031-313-2848","addr":"경기도 시흥시 은행동 532-1번지 에머랄드빌딩 203호","indutype":"음식점업 - 퓨전음식","category":"restaurant"},{"name":"달콤한닭강정","tel":"031-311-1249","addr":"경기도 시흥시 은행동 532-1번지 에머랄드빌딩 102호","indutype":"음식점업 - 닭강정","category":"restaurant"},{"name":"더벤티","tel":"","addr":"경기도 시흥시 은행동 532-1번지 에머랄드빌딩 1층 103호 일부","indutype":"음식점업 - 커피","category":"restaurant"},{"name":"용우동","tel":"031-404-0096","addr":"경기도 시흥시 은행동 532-1번지","indutype":"음식점업 - 분식","category":"restaurant"}]},{"lat":"37.443298875","long":"126.79999717","imageIndex":4,"items":[{"name":"대가","tel":"","addr":"경기도 시흥시 은행동 540-10번지 1층","indutype":"음식점업 - 한식","category":"restaurant"}]},{"lat":"37.443406936","long":"126.79996297","imageIndex":4,"items":[{"name":"독수리오형제족발","tel":"031-311-3151","addr":"경기도 시흥시 은행동 540-11번지 1층","indutype":"음식점업 - 한식","category":"restaurant"}]},{"lat":"37.431465845","long":"126.79318224","imageIndex":4,"items":[{"name":"돼야지","tel":"031-313-0099","addr":"경기도 시흥시 은행동 324-1번지","indutype":"음식점업 - 한식","category":"restaurant"},{"name":"투마이커피","tel":"","addr":"경기도 시흥시 은행동 324-1번지","indutype":"음식점업 - 카페","category":"restaurant"}]},{"lat":"37.443097245","long":"126.79802017","imageIndex":4,"items":[{"name":"둘리분식","tel":"031-315-5364","addr":"경기도 시흥시 은행동 538-1번지","indutype":"음식점업 - 분식","category":"restaurant"}]},{"lat":"37.431657073","long":"126.79432285","imageIndex":4,"items":[{"name":"드루와호프","tel":"031-315-9999","addr":"경기도 시흥시 은행동 289-5번지","indutype":"음식점업 - 호프","category":"restaurant"},{"name":"아오이참치","tel":"031-318-3228","addr":"경기도 시흥시 은행동 289-5번지","indutype":"음식점업 - 일식","category":"restaurant"},{"name":"야타이","tel":"031-311-2238","addr":"경기도 시흥시 은행동 289-5번지","indutype":"음식점업 - 기타음식점","category":"restaurant"},{"name":"진짬뽕","tel":"031-312-0855","addr":"경기도 시흥시 은행동 289-5번지","indutype":"음식점업 - 중식","category":"restaurant"}]},{"lat":"37.433544064","long":"126.79654347","imageIndex":4,"items":[{"name":"딱한잔만","tel":"","addr":"경기도 시흥시 은행동 250-23번지","indutype":"음식점업 - 호프","category":"restaurant"}]},{"lat":"37.437821883","long":"126.79543569","imageIndex":4,"items":[{"name":"또래오래 신천은행점","tel":"031-311-9702","addr":"경기도 시흥시 은행동 105-4번지","indutype":"음식점업 - 기타음식","category":"restaurant"}]},{"lat":"37.444658622","long":"126.79955278","imageIndex":4,"items":[{"name":"또봉이통닭","tel":"031-314-1253","addr":"경기도 시흥시 은행동 529-6번지 반도프라자 1층","indutype":"음식점업 - 음식점","category":"restaurant"}]},{"lat":"37.439629479","long":"126.79349845","imageIndex":4,"items":[{"name":"루시드몽커피앤디저트","tel":"031-317-4448","addr":"경기도 시흥시 은행동 557-2번지 1층 일부호","indutype":"음식점업 - 카페","category":"restaurant"}]},{"lat":"37.44424239","long":"126.79852557","imageIndex":4,"items":[{"name":"맛깔참죽","tel":"031-435-6288","addr":"경기도 시흥시 은행동 533번지","indutype":"음식점업 - 한식","category":"restaurant"},{"name":"부산어묵","tel":"031-311-5512","addr":"경기도 시흥시 은행동 533번지 행림빌딩 109호","indutype":"음식점업 - 어묵","category":"restaurant"},{"name":"하늘자전거은행점","tel":"031-313-8286","addr":"경기도 시흥시 은행동 533번지 행림빌딩 103호","indutype":"음식점업 - 음식","category":"restaurant"}]},{"lat":"37.43124486","long":"126.79560072","imageIndex":4,"items":[{"name":"먹고또먹고","tel":"","addr":"경기도 시흥시 은행동 293-11번지 1층","indutype":"음식점업 - 음식","category":"restaurant"}]},{"lat":"37.436571172","long":"126.80161982","imageIndex":4,"items":[{"name":"명량시대쌀핫도그시흥은계점","tel":"031-318-3694","addr":"경기도 시흥시 은행동 646번지 태산W타워 116호","indutype":"음식점업 - 핫도그","category":"restaurant"},{"name":"생고기제작소","tel":"","addr":"경기도 시흥시 은행동 646번지 1층 103,104호","indutype":"음식점업 - 한식","category":"restaurant"},{"name":"소래갈비","tel":"031-314-2829","addr":"경기도 시흥시 은행동 646번지 태산W타워 2층 201~4호","indutype":"음식점업 - 한식","category":"restaurant"},{"name":"일공베이커리카페","tel":"031-312-5130","addr":"경기도 시흥시 은행동 646번지 태산W타워 1층 108호","indutype":"음식점업 - 카페","category":"restaurant"},{"name":"훈고집","tel":"070-4790-1200","addr":"경기도 시흥시 은행동 646번지 태산W타워 1층 117호","indutype":"음식점업 - 한식","category":"restaurant"}]},{"lat":"37.438133965","long":"126.79358171","imageIndex":4,"items":[{"name":"모랫골마을 협동조합","tel":"","addr":"경기도 시흥시 은행동 109-50번지","indutype":"음식점업 - 휴게음식점","category":"restaurant"}]},{"lat":"37.439772897","long":"126.79307996","imageIndex":4,"items":[{"name":"바나나래빗","tel":"031-520-8256","addr":"경기도 시흥시 은행동 556-1번지 1층","indutype":"음식점업 - 커피,와인","category":"restaurant"}]},{"lat":"37.444243151","long":"126.79896628","imageIndex":4,"items":[{"name":"배명훈베이커리","tel":"031-314-5336","addr":"경기도 시흥시 은행동 530-4번지","indutype":"음식점업 - 제과점","category":"restaurant"},{"name":"우리동네국수집 은행점","tel":"031-313-2734","addr":"경기도 시흥시 은행동 530-4번지 104호","indutype":"음식점업 - 음식점","category":"restaurant"}]},{"lat":"37.442407063","long":"126.80010127","imageIndex":4,"items":[{"name":"베이커리 하루","tel":"031-312-7897","addr":"경기도 시흥시 은행동 539-4번지","indutype":"음식점업 - 제과","category":"restaurant"},{"name":"얌샘","tel":"031-311-5067","addr":"경기도 시흥시 은행동 539-4번지 은행프라자 107호","indutype":"음식점업 - 분식","category":"restaurant"}]},{"lat":"37.444855165","long":"126.7985804","imageIndex":4,"items":[{"name":"본죽시흥은행점","tel":"031-311-6288","addr":"경기도 시흥시 은행동 531-5번지 대양빌딩 103호","indutype":"음식점업 - 음식점","category":"restaurant"}]},{"lat":"37.444738699","long":"126.79896494","imageIndex":4,"items":[{"name":"불불이족발 시흥은행점","tel":"031-311-9253","addr":"경기도 시흥시 은행동 531-3번지 호정빌딩 105호","indutype":"음식점업 - 한식","category":"restaurant"},{"name":"소보롱","tel":"031-311-0403","addr":"경기도 시흥시 은행동 531-3번지 호정빌딩 103호","indutype":"음식점업 - 커피","category":"restaurant"}]},{"lat":"37.444433548","long":"126.79965509","imageIndex":4,"items":[{"name":"비비큐시흥은행점","tel":"031-315-0023","addr":"경기도 시흥시 은행동 529-5번지 세움교회 104호","indutype":"음식점업 - 치킨","category":"restaurant"}]},{"lat":"37.430579249","long":"126.79624656","imageIndex":4,"items":[{"name":"비앤전","tel":"","addr":"경기도 시흥시 은행동 289-33번지 은행마을녹원아파트 상가동 105호","indutype":"음식점업 - 음식","category":"restaurant"}]},{"lat":"37.431466446","long":"126.79352119","imageIndex":4,"items":[{"name":"뼈장수감자탕","tel":"031-316-9393","addr":"경기도 시흥시 은행동 289-52번지 신성프라자19차 2층 202호","indutype":"음식점업 - 한식","category":"restaurant"}]},{"lat":"37.439765268","long":"126.79385966","imageIndex":4,"items":[{"name":"섭이랑문어랑","tel":"031-312-7989","addr":"경기도 시흥시 은행동 558-2번지","indutype":"음식점업 - 한식","category":"restaurant"}]},{"lat":"37.44227172","long":"126.79998864","imageIndex":4,"items":[{"name":"속초코다리냉면&에코빈","tel":"031-435-3936","addr":"경기도 시흥시 은행동 539-5번지 세종빌딩 1층","indutype":"음식점업 - 커피,냉면","category":"restaurant"}]},{"lat":"37.444351174","long":"126.79890949","imageIndex":4,"items":[{"name":"수림","tel":"031-404-0622","addr":"경기도 시흥시 은행동 530-5번지","indutype":"음식점업 - 한식","category":"restaurant"}]},{"lat":"37.44520784","long":"126.79932528","imageIndex":4,"items":[{"name":"신라숯불갈비","tel":"031-317-2410","addr":"경기도 시흥시 은행동 528-1번지 삼은넥스타운 104호","indutype":"음식점업 - 음식","category":"restaurant"}]},{"lat":"37.436850443","long":"126.80159647","imageIndex":4,"items":[{"name":"신의주찹쌀순대은계점","tel":"031-311-9885","addr":"경기도 시흥시 은행동 646-1번지 은계푸리마타워 1층 105호","indutype":"음식점업 - 한식","category":"restaurant"},{"name":"펀비어킹","tel":"031-317-7978","addr":"경기도 시흥시 은행동 646-1번지 은계푸리마타워 110호","indutype":"음식점업 - 호프","category":"restaurant"}]},{"lat":"37.441798398","long":"126.79721011","imageIndex":4,"items":[{"name":"어느 행복한 날","tel":"","addr":"경기도 시흥시 은행동 549-1번지 대우3차@ 상가동 1층 1105호","indutype":"음식점업 - 디저트카페","category":"restaurant"},{"name":"페리카나 은행택지점","tel":"031-312-2444","addr":"경기도 시흥시 은행동 549-1번지 대우아파트 1202호","indutype":"음식점업 - 기타음식점","category":"restaurant"}]},{"lat":"37.431935265","long":"126.79368936","imageIndex":4,"items":[{"name":"영구스피자","tel":"031-315-0005","addr":"경기도 시흥시 은행동 288-1번지","indutype":"음식점업 - 피자전문점","category":"restaurant"},{"name":"이가네칼국수만두","tel":"031-404-9800","addr":"경기도 시흥시 은행동 288-1번지 스페이스타워 104호","indutype":"음식점업 - 한식","category":"restaurant"}]},{"lat":"37.436563717","long":"126.80253508","imageIndex":4,"items":[{"name":"옛날통닭","tel":"031-312-5757","addr":"경기도 시흥시 은행동 645-2번지 샤르망프라자 1층 106호","indutype":"음식점업 - 음식","category":"restaurant"},{"name":"잇,입디저트카페 (IT,EAT)","tel":"","addr":"경기도 시흥시 은행동 645-2번지 샤르망프라자 4층 403호","indutype":"음식점업 - 디저트 등","category":"restaurant"}]},{"lat":"37.437338594","long":"126.80254431","imageIndex":4,"items":[{"name":"오리만끽북경오리","tel":"031-435-5295","addr":"경기도 시흥시 은행동 646-6번지 아리테타워 210호","indutype":"음식점업 - 일반음식점","category":"restaurant"}]},{"lat":"37.444160479","long":"126.79805118","imageIndex":4,"items":[{"name":"오븐마루","tel":"031-312-5544","addr":"경기도 시흥시 은행동 534-1번지 한벌프라자 105, 106호","indutype":"음식점업 - 일반음식","category":"restaurant"}]},{"lat":"37.426325726","long":"126.79579504","imageIndex":4,"items":[{"name":"웰빙부페","tel":"031-313-3124","addr":"경기도 시흥시 은행동 358번지","indutype":"음식점업 - 한식","category":"restaurant"}]},{"lat":"37.444432692","long":"126.79915787","imageIndex":4,"items":[{"name":"은행포차","tel":"031-311-1809","addr":"경기도 시흥시 은행동 530-2번지 드림빌딩 1층 101호","indutype":"음식점업 - 실내포차","category":"restaurant"}]},{"lat":"37.444992029","long":"126.79957448","imageIndex":4,"items":[{"name":"장수도토리묵밥","tel":"031-313-8271","addr":"경기도 시흥시 은행동 528-4번지","indutype":"음식점업 - 한식","category":"restaurant"}]},{"lat":"37.440160666","long":"126.79327098","imageIndex":4,"items":[{"name":"전설갈비 은행점","tel":"031-313-2606","addr":"경기도 시흥시 은행동 554-1번지 1층","indutype":"음식점업 - 한식","category":"restaurant"}]},{"lat":"37.43812711","long":"126.79480207","imageIndex":4,"items":[{"name":"주병천순대국","tel":"031-314-9633","addr":"경기도 시흥시 은행동 109-30번지","indutype":"음식점업 - 한식","category":"restaurant"}]},{"lat":"37.444043624","long":"126.7982097","imageIndex":4,"items":[{"name":"짬뽕타임","tel":"031-317-6753","addr":"경기도 시흥시 은행동 534-2번지","indutype":"음식점업 - 중식","category":"restaurant"}]},{"lat":"37.429543082","long":"126.79623811","imageIndex":4,"items":[{"name":"찬우물가든","tel":"031-314-5254","addr":"경기도 시흥시 은행동 289-6번지","indutype":"음식점업 - 한식","category":"restaurant"}]},{"lat":"37.439989076","long":"126.79304546","imageIndex":4,"items":[{"name":"천하장사냉면굴전문","tel":"031-315-0004","addr":"경기도 시흥시 은행동 555-2번지 1층","indutype":"음식점업 - 한식","category":"restaurant"}]},{"lat":"37.440161447","long":"126.79371166","imageIndex":4,"items":[{"name":"카페스라임","tel":"","addr":"경기도 시흥시 은행동 553-1번지 1층 101호","indutype":"음식점업 - 카페","category":"restaurant"}]},{"lat":"37.43157672","long":"126.79474112","imageIndex":4,"items":[{"name":"커피유(Coffee U)","tel":"","addr":"경기도 시흥시 은행동 289-45번지 외 필지동 1층 101호","indutype":"음식점업 - 커피 전문점","category":"restaurant"}]},{"lat":"37.431186796","long":"126.7933299","imageIndex":4,"items":[{"name":"태풍","tel":"031-311-3537","addr":"경기도 시흥시 은행동 323-1번지 1층","indutype":"음식점업 - 중식","category":"restaurant"}]},{"lat":"37.434350237","long":"126.79385212","imageIndex":4,"items":[{"name":"한가네맛집","tel":"031-312-8952","addr":"경기도 시흥시 은행동 249번지 1층","indutype":"음식점업 - 한식","category":"restaurant"}]},{"lat":"37.431271692","long":"126.79548766","imageIndex":4,"items":[{"name":"할매순대국","tel":"031-314-5208","addr":"경기도 시흥시 은행동 293-10번지 1층","indutype":"음식점업 - 한식","category":"restaurant"}]},{"lat":"37.444015634","long":"126.79765606","imageIndex":4,"items":[{"name":"홍탁삼합","tel":"","addr":"경기도 시흥시 은행동 537-1번지","indutype":"음식점업 - 한식","category":"restaurant"}]}]