[{"lat":"37.653719698","long":"126.83784172","imageIndex":16,"items":[{"name":"(주)고양잉글러쉬무무","tel":"031-962-9905","addr":"경기도 고양시 덕양구 성사동 720-2번지","indutype":"학원 - 외국어학원","category":"study"},{"name":"느낌표별관학원","tel":"031-969-9891","addr":"경기도 고양시 덕양구 성사동 720-2번지","indutype":"학원 - 보습학원","category":"study"},{"name":"미래탑고등학원","tel":"031-965-5770","addr":"경기도 고양시 덕양구 성사동 720-2번지","indutype":"학원 - 보습학원","category":"study"},{"name":"주홍미술학원","tel":"031-965-6826","addr":"경기도 고양시 덕양구 성사동 720-2번지","indutype":"학원 - 예·체능계학원","category":"study"},{"name":"합기도검무관","tel":"031-962-6416","addr":"경기도 고양시 덕양구 성사동 720-2번지","indutype":"학원 - 예·체능계학원","category":"study"}]},{"lat":"37.66096595","long":"126.83961632","imageIndex":16,"items":[{"name":"(주)현앤수","tel":"031-965-8111","addr":"경기도 고양시 덕양구 성사동 869번지 대림e편한세상아파트","indutype":"학원 - 보습학원","category":"study"},{"name":"엠(M)4더메타학원","tel":"070-4217-9009","addr":"경기도 고양시 덕양구 성사동 869번지 대림e편한세상아파트","indutype":"학원 - 보습학원","category":"study"},{"name":"연세뮤즈음악교습소","tel":"031-965-7879","addr":"경기도 고양시 덕양구 성사동 869번지 대림e편한세상아파트","indutype":"학원 - 예·체능계학원","category":"study"},{"name":"원당자연어린이집[아이행복]","tel":"031-969-6852","addr":"경기도 고양시 덕양구 성사동 869번지 대림e편한세상아파트","indutype":"학원 - 유아원","category":"study"},{"name":"파랑새 미술교습소","tel":"031-965-7879","addr":"경기도 고양시 덕양구 성사동 869번지 대림e편한세상아파트","indutype":"학원 - 예·체능계학원","category":"study"}]},{"lat":"37.659634521","long":"126.84106985","imageIndex":16,"items":[{"name":"Enc 영어중국어학원","tel":"031-968-2522","addr":"경기도 고양시 덕양구 성사동 524-1번지","indutype":"학원 - 외국어학원","category":"study"},{"name":"리틀삼성태권도","tel":"031-967-5505","addr":"경기도 고양시 덕양구 성사동 524-1번지","indutype":"학원 - 예·체능계학원","category":"study"},{"name":"봄날미술교습소","tel":"031-908-3003","addr":"경기도 고양시 덕양구 성사동 524-1번지","indutype":"학원 - 예·체능계학원","category":"study"},{"name":"이지수학 학원","tel":"031-968-7031","addr":"경기도 고양시 덕양구 성사동 524-1번지","indutype":"학원 - 보습학원","category":"study"}]},{"lat":"37.661813327","long":"126.83995446","imageIndex":16,"items":[{"name":"OnTrack English Consulting","tel":"031-818-8795","addr":"경기도 고양시 덕양구 성사동 869번지 대림e편한세상아파트","indutype":"회원제형태 - 학원","category":"study"}]},{"lat":"37.658101493","long":"126.84006456","imageIndex":16,"items":[{"name":"경호키즈","tel":"070-8682-5022","addr":"경기도 고양시 덕양구 성사동 498-3번지","indutype":"학원 - 예·체능계학원","category":"study"},{"name":"성사탑클래스","tel":"031-967-5815","addr":"경기도 고양시 덕양구 성사동 498-3번지","indutype":"학원 - 기타 교육기관","category":"study"},{"name":"예은사랑어린이집[아이행복]","tel":"031-966-0901","addr":"경기도 고양시 덕양구 성사동 498-3번지","indutype":"학원 - 유아원","category":"study"}]},{"lat":"37.651550348","long":"126.83289455","imageIndex":16,"items":[{"name":"고양시립원당어린이집[아이행복]","tel":"031-965-8270","addr":"경기도 고양시 덕양구 성사동 736-2번지","indutype":"학원 - 유아원","category":"study"},{"name":"고양시원당종합사회복지관","tel":"031-966-4007","addr":"경기도 고양시 덕양구 성사동 736-2번지","indutype":"학원 - 기타 교육기관","category":"study"},{"name":"고양시원당종합사회복지관","tel":"031-966-4007","addr":"경기도 고양시 덕양구 성사동 736-2번지","indutype":"학원 - 기타 교육기관","category":"study"},{"name":"원당어린이집[아이행복]","tel":"031-965-8270","addr":"경기도 고양시 덕양구 성사동 736-2번지","indutype":"학원 - 유아원","category":"study"}]},{"lat":"37.658768519","long":"126.84028976","imageIndex":16,"items":[{"name":"국가대표정도태권도","tel":"031-964-0458","addr":"경기도 고양시 덕양구 성사동 519-23번지","indutype":"학원 - 예·체능계학원","category":"study"},{"name":"링구아포럼이브릿지어학원","tel":"031-968-0576","addr":"경기도 고양시 덕양구 성사동","indutype":"학원 - 외국어학원","category":"study"}]},{"lat":"37.65496128","long":"126.83659242","imageIndex":16,"items":[{"name":"국제간호학원","tel":"031-964-9997","addr":"경기도 고양시 덕양구 성사동 703번지","indutype":"학원 - 기능학원","category":"study"}]},{"lat":"37.655135147","long":"126.83850719","imageIndex":16,"items":[{"name":"국제미용학원","tel":"031-966-6653","addr":"경기도 고양시 덕양구 성사동 705-1번지","indutype":"학원 - 기타 교육기관","category":"study"}]},{"lat":"37.653467189","long":"126.83767229","imageIndex":16,"items":[{"name":"김상아음악학원","tel":"031-967-8188","addr":"경기도 고양시 덕양구 성사동 722-3번지","indutype":"학원 - 예·체능계학원","category":"study"},{"name":"더쉬운수학교습소","tel":"031-000-0000","addr":"경기도 고양시 덕양구 성사동 722-3번지","indutype":"학원 - 보습학원","category":"study"}]},{"lat":"37.657269042","long":"126.83750521","imageIndex":16,"items":[{"name":"김선생수학학원","tel":"031-963-3720","addr":"경기도 고양시 덕양구 성사동 510-5번지","indutype":"회원제형태 - 학원","category":"study"},{"name":"라임독서실","tel":"031-968-0904","addr":"경기도 고양시 덕양구 성사동 510-5번지","indutype":"학원 - 독서실","category":"study"}]},{"lat":"37.659375407","long":"126.84265702","imageIndex":16,"items":[{"name":"꿈꾸는이레피아노교습소","tel":"031-966-1511","addr":"경기도 고양시 덕양구 성사동 860번지 래미안휴레스트아파트","indutype":"학원 - 예·체능계학원","category":"study"},{"name":"비상잉글리쉬아이영어교습소","tel":"070-7752-5652","addr":"경기도 고양시 덕양구 성사동 860번지 래미안휴레스트아파트","indutype":"학원 - 외국어학원","category":"study"},{"name":"성사최강수학교습소","tel":"031-966-7976","addr":"경기도 고양시 덕양구 성사동 860번지","indutype":"학원 - 보습학원","category":"study"},{"name":"시립성사어린이집[아이행복]","tel":"031-968-1339","addr":"경기도 고양시 덕양구 성사동 860번지 래미안휴레스트아파트","indutype":"학원 - 유아원","category":"study"},{"name":"신연세수학교습소","tel":"031-967-9008","addr":"경기도 고양시 덕양구 성사동 860번지 래미안휴레스트아파트","indutype":"회원제형태 - 학원","category":"study"},{"name":"신연세수학교습소","tel":"031-967-9008","addr":"경기도 고양시 덕양구 성사동","indutype":"회원제형태 - 학원","category":"study"},{"name":"엘리트태권도","tel":"031-966-3558","addr":"경기도 고양시 덕양구 성사동 860번지 래미안휴레스트아파트","indutype":"학원 - 예·체능계학원","category":"study"},{"name":"이화음악교습소","tel":"031-966-1227","addr":"경기도 고양시 덕양구 성사동 860번지 래미안휴레스트아파트","indutype":"학원 - 예·체능계학원","category":"study"},{"name":"해법영어래미안영어교습소","tel":"031-966-2305","addr":"경기도 고양시 덕양구 성사동","indutype":"회원제형태 - 학원","category":"study"}]},{"lat":"37.651872924","long":"126.83799312","imageIndex":16,"items":[{"name":"꿈하은 어린이집[아이행복]","tel":"031-962-0038","addr":"경기도 고양시 덕양구 성사동 724번지 어울림마을3단지아파트","indutype":"학원 - 유아원","category":"study"}]},{"lat":"37.658647128","long":"126.8437692","imageIndex":16,"items":[{"name":"네오어린이집[아이행복]","tel":"031-966-5633","addr":"경기도 고양시 덕양구 성사동 860번지 래미안휴레스트아파트","indutype":"학원 - 유아원","category":"study"}]},{"lat":"37.659154775","long":"126.83945029","imageIndex":16,"items":[{"name":"뉴바롬미술학원","tel":"031-962-2030","addr":"경기도 고양시 덕양구 성사동 519-7번지","indutype":"학원 - 예·체능계학원","category":"study"},{"name":"팔레트미술학원","tel":"031-966-0767","addr":"경기도 고양시 덕양구 성사동 519-7번지","indutype":"학원 - 예·체능계학원","category":"study"}]},{"lat":"37.654544282","long":"126.83479153","imageIndex":16,"items":[{"name":"라온누리 어린이집[아이행복]","tel":"031-818-6789","addr":"경기도 고양시 덕양구 성사동 727번지 어울림마을7단지아파트","indutype":"학원 - 유아원","category":"study"}]},{"lat":"37.655211464","long":"126.83511867","imageIndex":16,"items":[{"name":"루프댄스","tel":"070-7198-7260","addr":"경기도 고양시 덕양구 성사동 699-11번지","indutype":"학원 - 예·체능계학원","category":"study"},{"name":"월드컴퓨터학원","tel":"031-963-8038","addr":"경기도 고양시 덕양구 성사동 699-11번지","indutype":"학원 - 컴퓨터학원","category":"study"}]},{"lat":"37.62608374","long":"126.84881157","imageIndex":16,"items":[{"name":"리빙스터유치원","tel":"031-964-5309","addr":"경기도 고양시 덕양구 성사동 108-3번지","indutype":"학원 - 유치원","category":"study"},{"name":"리빙스턴유치원[아이행복]","tel":"031-964-5309","addr":"경기도 고양시 덕양구 성사동","indutype":"학원 - 유치원","category":"study"}]},{"lat":"37.660796081","long":"126.84056867","imageIndex":16,"items":[{"name":"링구아포럼이프릿지어학원","tel":"031-968-0576","addr":"경기도 고양시 덕양구 성사동 714번지","indutype":"학원 - 외국어학원","category":"study"},{"name":"원당 점핑짐 태권도장","tel":"070-8132-7345","addr":"경기도 고양시 덕양구 성사동 714번지","indutype":"학원 - 예·체능계학원","category":"study"},{"name":"이소영홍대미술교습소","tel":"031-967-3530","addr":"경기도 고양시 덕양구 성사동 714번지","indutype":"학원 - 예·체능계학원","category":"study"},{"name":"조이음악학원","tel":"031-969-7595","addr":"경기도 고양시 덕양구 성사동 714번지","indutype":"학원 - 예·체능계학원","category":"study"}]},{"lat":"37.651687736","long":"126.83445802","imageIndex":16,"items":[{"name":"멘토수학학원","tel":"031-963-3007","addr":"경기도 고양시 덕양구 성사동 731번지","indutype":"학원 - 보습학원","category":"study"},{"name":"성라태권도","tel":"031-966-0264","addr":"경기도 고양시 덕양구 성사동","indutype":"학원 - 예·체능계학원","category":"study"},{"name":"어울림유치원","tel":"031-964-1007","addr":"경기도 고양시 덕양구 성사동","indutype":"학원 - 유치원","category":"study"},{"name":"어울림유치원[아이행복]","tel":"031-964-1007","addr":"경기도 고양시 덕양구 성사동","indutype":"학원 - 유치원","category":"study"},{"name":"오름수학","tel":"02-1566-6913","addr":"경기도 고양시 덕양구 성사동 731번지 어울림마을6단지아파트","indutype":"학원 - 보습학원","category":"study"}]},{"lat":"37.658578581","long":"126.83975754","imageIndex":16,"items":[{"name":"명문음악학원","tel":"031-968-8767","addr":"경기도 고양시 덕양구 성사동 519-33번지","indutype":"학원 - 예·체능계학원","category":"study"},{"name":"유니크수학학원","tel":"031-968-3332","addr":"경기도 고양시 덕양구 성사동 519-33번지","indutype":"학원 - 보습학원","category":"study"}]},{"lat":"37.656246378","long":"126.84070323","imageIndex":16,"items":[{"name":"뮤직아이음악연구소","tel":"031-966-6574","addr":"경기도 고양시 덕양구 성사동 492-4번지","indutype":"학원 - 예·체능계학원","category":"study"}]},{"lat":"37.659796275","long":"126.84076351","imageIndex":16,"items":[{"name":"미소단과학원","tel":"031-963-2288","addr":"경기도 고양시 덕양구 성사동 524번지","indutype":"학원 - 보습학원","category":"study"}]},{"lat":"37.663909141","long":"126.85087548","imageIndex":16,"items":[{"name":"미소학원","tel":"031-965-0553","addr":"경기도 고양시 덕양구 성사동 598-1번지","indutype":"학원 - 외국어학원","category":"study"}]},{"lat":"37.660317318","long":"126.83966307","imageIndex":16,"items":[{"name":"민수학","tel":"031-819-0182","addr":"경기도 고양시 덕양구 성사동 869번지 대림e편한세상아파트","indutype":"학원 - 기타 교육기관","category":"study"}]},{"lat":"37.652377797","long":"126.83822997","imageIndex":16,"items":[{"name":"바롬미술교습소","tel":"031-962-2022","addr":"경기도 고양시 덕양구 성사동","indutype":"학원 - 예·체능계학원","category":"study"},{"name":"원당수정피아노교습소","tel":"031-967-8933","addr":"경기도 고양시 덕양구 성사동 723번지","indutype":"학원 - 예·체능계학원","category":"study"}]},{"lat":"37.658686399","long":"126.83954198","imageIndex":16,"items":[{"name":"바른셈보습학원","tel":"031-968-5211","addr":"경기도 고양시 덕양구 성사동 519-18번지","indutype":"학원 - 보습학원","category":"study"}]},{"lat":"37.652599837","long":"126.83595177","imageIndex":16,"items":[{"name":"바움유치원[아이행복]","tel":"031-966-3069","addr":"경기도 고양시 덕양구 성사동","indutype":"학원 - 유치원","category":"study"},{"name":"예성유치원","tel":"031-965-8550","addr":"경기도 고양시 덕양구 성사동 725-1번지","indutype":"학원 - 유치원","category":"study"}]},{"lat":"37.658795126","long":"126.83998372","imageIndex":16,"items":[{"name":"베스틴영어학원","tel":"031-966-9755","addr":"경기도 고양시 덕양구 성사동 519-27번지","indutype":"학원 - 보습학원","category":"study"}]},{"lat":"37.653382939","long":"126.83542874","imageIndex":16,"items":[{"name":"비키 어린이집[아이행복]","tel":"031-967-3532","addr":"경기도 고양시 덕양구 성사동 726번지 어울림마을8단지아파트","indutype":"학원 - 유아원","category":"study"}]},{"lat":"37.658794656","long":"126.83964374","imageIndex":16,"items":[{"name":"샘잉글리쉬영어학원","tel":"","addr":"경기도 고양시 덕양구 성사동 519-11번지","indutype":"회원제형태 - 학원","category":"study"}]},{"lat":"37.65235325","long":"126.83361796","imageIndex":16,"items":[{"name":"성라초등학교","tel":"031-966-4208","addr":"경기도 고양시 덕양구 성사동 732번지","indutype":"학원 - 초중고교육기관","category":"study"}]},{"lat":"37.662717231","long":"126.8420945","imageIndex":16,"items":[{"name":"성사고등학교","tel":"031-960-9105","addr":"경기도 고양시 덕양구 성사동 624-3번지","indutype":"학원 - 초중고교육기관","category":"study"},{"name":"성사고등학교_수업료","tel":"031-960-9105","addr":"경기도 고양시 덕양구 성사동 624-3번지","indutype":"학원 - 초중고교육기관","category":"study"}]},{"lat":"37.65558027","long":"126.84114664","imageIndex":16,"items":[{"name":"성사영아 어린이집[아이행복]","tel":"031-967-9636","addr":"경기도 고양시 덕양구 성사동 407-20번지 허스연립","indutype":"학원 - 유아원","category":"study"}]},{"lat":"37.658686854","long":"126.83987063","imageIndex":16,"items":[{"name":"성사와이비엠잉글루학원","tel":"","addr":"경기도 고양시 덕양구 성사동 519-28번지","indutype":"학원 - 보습학원","category":"study"},{"name":"수앤수학원","tel":"031-811-3512","addr":"경기도 고양시 덕양구 성사동 519-28번지","indutype":"학원 - 보습학원","category":"study"},{"name":"최강수학전문학원","tel":"031-966-7976","addr":"경기도 고양시 덕양구 성사동 519-28번지","indutype":"학원 - 보습학원","category":"study"}]},{"lat":"37.657521242","long":"126.84400959","imageIndex":16,"items":[{"name":"성사유치원[아이행복]","tel":"031-966-2762","addr":"경기도 고양시 덕양구 성사동 716번지","indutype":"학원 - 유치원","category":"study"},{"name":"성사초등학교","tel":"031-964-2217","addr":"경기도 고양시 덕양구 성사동 716번지","indutype":"학원 - 초중고교육기관","category":"study"}]},{"lat":"37.66352023","long":"126.84293145","imageIndex":16,"items":[{"name":"성사중학교","tel":"031-967-2536","addr":"경기도 고양시 덕양구 성사동 549-4번지","indutype":"학원 - 초중고교육기관","category":"study"}]},{"lat":"37.651635531","long":"126.83576129","imageIndex":16,"items":[{"name":"송수학교습소","tel":"031-968-2090","addr":"경기도 고양시 덕양구 성사동","indutype":"회원제형태 - 학원","category":"study"},{"name":"스터디아이원격학원","tel":"031-1522-0646","addr":"경기도 고양시 덕양구 성사동 730번지","indutype":"학원 - 보습학원","category":"study"}]},{"lat":"37.66162907","long":"126.85039279","imageIndex":16,"items":[{"name":"숲체험상아어린이집[아이행복]","tel":"031-962-3370","addr":"경기도 고양시 덕양구 성사동 570-1번지","indutype":"학원 - 유아원","category":"study"}]},{"lat":"37.653241805","long":"126.83757081","imageIndex":16,"items":[{"name":"신원당 경호 태권도장","tel":"031-963-7692","addr":"경기도 고양시 덕양구 성사동 722-4번지","indutype":"학원 - 예·체능계학원","category":"study"},{"name":"아이비어울림독서실","tel":"031-968-7123","addr":"경기도 고양시 덕양구 성사동 722-4번지","indutype":"학원 - 독서실","category":"study"},{"name":"예성꿈열매음악미술학원","tel":"031-964-2393","addr":"경기도 고양시 덕양구 성사동 722-4번지","indutype":"학원 - 예·체능계학원","category":"study"}]},{"lat":"37.661230809","long":"126.84222237","imageIndex":16,"items":[{"name":"앰디매쓰","tel":"","addr":"경기도 고양시 덕양구 성사동 860번지 래미안휴레스트아파트","indutype":"학원 - 기타 교육기관","category":"study"}]},{"lat":"37.654521176","long":"126.83756797","imageIndex":16,"items":[{"name":"어울무용학원","tel":"031-965-3073","addr":"경기도 고양시 덕양구 성사동 703-8번지","indutype":"학원 - 예·체능계학원","category":"study"},{"name":"원당이보영토킹클럽어학학원","tel":"031-965-0101","addr":"경기도 고양시 덕양구 성사동 703-8번지","indutype":"회원제형태 - 학원","category":"study"},{"name":"진영학원","tel":"031-966-5511","addr":"경기도 고양시 덕양구 성사동 703-8번지","indutype":"회원제형태 - 학원","category":"study"}]},{"lat":"37.65313426","long":"126.837979","imageIndex":16,"items":[{"name":"에듀스카이학원","tel":"031-968-2305","addr":"경기도 고양시 덕양구 성사동 722-6번지","indutype":"학원 - 보습학원","category":"study"},{"name":"주식회사 춘송(스터디뱅크프리미엄독서실)","tel":"031-967-0979","addr":"경기도 고양시 덕양구 성사동 722-6번지","indutype":"학원 - 독서실","category":"study"}]},{"lat":"37.65543884","long":"126.83662535","imageIndex":16,"items":[{"name":"에이스창업기술학원","tel":"031-902-1803","addr":"경기도 고양시 덕양구 성사동 701-4번지","indutype":"학원 - 기능학원","category":"study"}]},{"lat":"37.658496804","long":"126.83925907","imageIndex":16,"items":[{"name":"엘파워종합학원","tel":"031-967-0571","addr":"경기도 고양시 덕양구 성사동 500-23번지","indutype":"학원 - 보습학원","category":"study"}]},{"lat":"37.657635773","long":"126.84209413","imageIndex":16,"items":[{"name":"연꽃유치원[아이행복]","tel":"031-965-4365","addr":"경기도 고양시 덕양구 성사동","indutype":"학원 - 유치원","category":"study"}]},{"lat":"37.653386499","long":"126.83795577","imageIndex":16,"items":[{"name":"연세리더스학원","tel":"031-967-6655","addr":"경기도 고양시 덕양구 성사동 722-2번지","indutype":"학원 - 기타 교육기관","category":"study"}]},{"lat":"37.659080492","long":"126.84443692","imageIndex":16,"items":[{"name":"예쁜아이어린이집[아이행복]","tel":"","addr":"경기도 고양시 덕양구 성사동 860번지 래미안휴레스트아파트","indutype":"학원 - 유아원","category":"study"}]},{"lat":"37.654993615","long":"126.84039999","imageIndex":16,"items":[{"name":"예원정미술","tel":"031-965-7074","addr":"경기도 고양시 덕양구 성사동 407-14번지","indutype":"학원 - 예·체능계학원","category":"study"},{"name":"파란연필보습학원","tel":"031-966-7237","addr":"경기도 고양시 덕양구 성사동 407-14번지","indutype":"학원 - 보습학원","category":"study"}]},{"lat":"37.657716288","long":"126.84167464","imageIndex":16,"items":[{"name":"예진음악학원","tel":"031-965-7002","addr":"경기도 고양시 덕양구 성사동 494-30번지","indutype":"회원제형태 - 학원","category":"study"}]},{"lat":"37.653182804","long":"126.83408069","imageIndex":16,"items":[{"name":"올맥 공부방","tel":"031-966-3659","addr":"경기도 고양시 덕양구 성사동 727번지 어울림마을7단지아파트","indutype":"학원 - 기타 교육기관","category":"study"}]},{"lat":"37.646497192","long":"126.86114283","imageIndex":16,"items":[{"name":"월드드론교육원","tel":"","addr":"경기도 고양시 덕양구 성사동 1-2번지","indutype":"학원 - 기능학원","category":"study"}]},{"lat":"37.653572576","long":"126.83573428","imageIndex":16,"items":[{"name":"일산온뮤직실용음악학원","tel":"031-970-2854","addr":"경기도 고양시 덕양구 성사동 726번지","indutype":"학원 - 예·체능계학원","category":"study"}]},{"lat":"37.658325966","long":"126.83950877","imageIndex":16,"items":[{"name":"잉글리쉬그마매쓰영수단과학원","tel":"070-8654-7724","addr":"경기도 고양시 덕양구 성사동 499번지","indutype":"학원 - 보습학원","category":"study"}]},{"lat":"37.657823767","long":"126.84120977","imageIndex":16,"items":[{"name":"잉글리쉬무무성사제2학원","tel":"031-965-9905","addr":"경기도 고양시 덕양구 성사동 494-2번지","indutype":"학원 - 보습학원","category":"study"}]},{"lat":"37.648803476","long":"126.83364868","imageIndex":16,"items":[{"name":"재단법인고양문화재단","tel":"031-960-9650","addr":"경기도 고양시 덕양구 성사동 826번지","indutype":"학원 - 기타 교육기관","category":"study"}]},{"lat":"37.651383726","long":"126.83609047","imageIndex":16,"items":[{"name":"지오젠수학교습소","tel":"031-966-8255","addr":"경기도 고양시 덕양구 성사동 730번지 어울림마을5단지아파트","indutype":"회원제형태 - 학원","category":"study"}]},{"lat":"37.654437376","long":"126.84212369","imageIndex":16,"items":[{"name":"코코몬테소리어린이집[아이행복]","tel":"031-967-6097","addr":"경기도 고양시 덕양구 성사동 408-20번지","indutype":"학원 - 유아원","category":"study"}]},{"lat":"37.65846779","long":"126.84440422","imageIndex":16,"items":[{"name":"토마토키즈어린이집[아이행복]","tel":"031-111-1111","addr":"경기도 고양시 덕양구 성사동 860번지 래미안휴레스트아파트","indutype":"학원 - 유아원","category":"study"}]},{"lat":"37.651933555","long":"126.83625922","imageIndex":16,"items":[{"name":"파랑새어린이집[아이행복]","tel":"031-812-0036","addr":"경기도 고양시 덕양구 성사동 730번지 어울림마을5단지아파트","indutype":"학원 - 유아원","category":"study"}]},{"lat":"37.651702783","long":"126.83874139","imageIndex":16,"items":[{"name":"한우리 독서논술","tel":"031-969-5334","addr":"경기도 고양시 덕양구 성사동 724번지 어울림마을3단지아파트","indutype":"학원 - 기타 교육기관","category":"study"}]},{"lat":"37.654189717","long":"126.83892856","imageIndex":16,"items":[{"name":"해피매직","tel":"070-8692-4806","addr":"경기도 고양시 덕양구 성사동 704-10번지","indutype":"학원 - 기타 교육기관","category":"study"}]}]