[{"lat":"37.319764976","long":"127.11513528","imageIndex":16,"items":[{"name":"(사)밝은청소년 경기지부","tel":"02-1644-5255","addr":"경기도 용인시 기흥구 보정동 1266-2번지 우영프라자 604호","indutype":"학원 - 기타 교육기관","category":"study"},{"name":"MJ잉글리쉬학원","tel":"031-8025-3700","addr":"경기도 용인시 기흥구 보정동 1266-2번지 우영프라자 603호","indutype":"학원 - 보습학원","category":"study"},{"name":"김현영어전문학원","tel":"031-889-9476","addr":"경기도 용인시 기흥구 보정동 1266-2번지 우영프라자 503호","indutype":"학원 - 보습학원","category":"study"},{"name":"로뎀레지던스","tel":"031-897-2191","addr":"경기도 용인시 기흥구 보정동 1266-2번지 우영프라자 3층 303호","indutype":"학원 - 독서실","category":"study"},{"name":"바라뮤지컬학원","tel":"031-889-8882","addr":"경기도 용인시 기흥구 보정동 1266-2번지 우영프라자 701호","indutype":"학원 - 예·체능계학원","category":"study"},{"name":"소마사고력학원","tel":"031-261-0409","addr":"경기도 용인시 기흥구 보정동 1266-2번지 우영프라자 603-1호","indutype":"학원 - 보습학원","category":"study"},{"name":"수톡학원","tel":"031-897-3566","addr":"경기도 용인시 기흥구 보정동 1266-2번지 우영프라자 5층 502호","indutype":"학원 - 보습학원","category":"study"},{"name":"아카데미라운지 보정독서실","tel":"031-272-0666","addr":"경기도 용인시 기흥구 보정동 1266-2번지 우영프라자 6층 602호","indutype":"학원 - 독서실","category":"study"},{"name":"올리브입시영어학원","tel":"031-889-1768","addr":"경기도 용인시 기흥구 보정동 1266-2번지 우영프라자 301호","indutype":"학원 - 외국어학원","category":"study"},{"name":"주식회사플레이웰코리아","tel":"031-276-2600","addr":"경기도 용인시 기흥구 보정동 1266-2번지 우영프라자 601호","indutype":"회원제형태 - 학원","category":"study"},{"name":"크리몬어학원","tel":"031-898-1006","addr":"경기도 용인시 기흥구 보정동 1266-2번지 우영프라자 604호","indutype":"학원 - 보습학원","category":"study"},{"name":"표현영어 학원","tel":"031-265-0557","addr":"경기도 용인시 기흥구 보정동 1266-2번지 우영프라자 504호","indutype":"학원 - 보습학원","category":"study"},{"name":"한솔브레인학원","tel":"031-261-5771","addr":"경기도 용인시 기흥구 보정동 1266-2번지 우영프라자 505호","indutype":"학원 - 보습학원","category":"study"},{"name":"혜윰수학학원","tel":"031-264-0821","addr":"경기도 용인시 기흥구 보정동 1266-2번지 우영프라자 5층 503호","indutype":"학원 - 보습학원","category":"study"}]},{"lat":"37.320677511","long":"127.11246283","imageIndex":16,"items":[{"name":"(주)희원국어교육","tel":"031-262-8454","addr":"경기도 용인시 기흥구 보정동 1207-2번지 이데아프라자 303호","indutype":"학원 - 보습학원","category":"study"},{"name":"과수원학원","tel":"031-889-5210","addr":"경기도 용인시 기흥구 보정동 1207-2번지 이데아프라자 4층 402호","indutype":"학원 - 보습학원","category":"study"},{"name":"미래인학원","tel":"031-266-1286","addr":"경기도 용인시 기흥구 보정동 1207-2번지 이데아프라자 501호 502호","indutype":"학원 - 보습학원","category":"study"},{"name":"수학나무학원","tel":"031-896-3500","addr":"경기도 용인시 기흥구 보정동 1207-2번지 이데아프라자 401호","indutype":"학원 - 보습학원","category":"study"},{"name":"테스어학원","tel":"031-261-2207","addr":"경기도 용인시 기흥구 보정동 1207-2번지 이데아프라자 802호","indutype":"학원 - 외국어학원","category":"study"}]},{"lat":"37.310845881","long":"127.0928545","imageIndex":16,"items":[{"name":"<수학의달인> 만현마을학원","tel":"031-264-2504","addr":"경기도 용인시 기흥구 보정동 429번지 외2필지 제이티타워 303호","indutype":"학원 - 보습학원","category":"study"},{"name":"스텔라음악학원","tel":"","addr":"경기도 용인시 기흥구 보정동 429번지 201호","indutype":"학원 - 예·체능계학원","category":"study"},{"name":"청담클루빌어학원","tel":"031-261-3500","addr":"경기도 용인시 기흥구 보정동 429번지 제이티타워 202~203호","indutype":"학원 - 외국어학원","category":"study"}]},{"lat":"37.320179947","long":"127.11460565","imageIndex":16,"items":[{"name":"STI수학학원","tel":"031-897-3565","addr":"경기도 용인시 기흥구 보정동 1265-3번지 훼미리프라자 401호","indutype":"학원 - 보습학원","category":"study"},{"name":"강앤쇼우 (KANG N SHAW)영어학원","tel":"070-4103-2966","addr":"경기도 용인시 기흥구 보정동 1265-3번지 훼미리프라자 401호","indutype":"학원 - 외국어학원","category":"study"},{"name":"더공감영어학원","tel":"031-897-8881","addr":"경기도 용인시 기흥구 보정동 1265-3번지 훼미리프라자 4층 401호","indutype":"학원 - 외국어학원","category":"study"},{"name":"더쎈과학전문학원","tel":"031-262-1888","addr":"경기도 용인시 기흥구 보정동 1265-3번지 훼미리프라자 502호","indutype":"학원 - 보습학원","category":"study"},{"name":"사회탐구학원","tel":"","addr":"경기도 용인시 기흥구 보정동 1265-3번지 훼미리프라자 4층 402호","indutype":"학원 - 보습학원","category":"study"},{"name":"수학혁명학원","tel":"031-897-3995","addr":"경기도 용인시 기흥구 보정동 1265-3번지 훼미리프라자 402호","indutype":"학원 - 보습학원","category":"study"},{"name":"아담리즈수학죽전센타학원","tel":"031-897-7983","addr":"경기도 용인시 기흥구 보정동 1265-3번지 훼미리프라자 404호","indutype":"회원제형태 - 학원","category":"study"},{"name":"오비케이앤비발레아카데미무용학원","tel":"031-896-4707","addr":"경기도 용인시 기흥구 보정동 1265-3 901호~902호","indutype":"학원 - 예·체능계학원","category":"study"},{"name":"온더데스크보정센터독서실","tel":"031-226-3223","addr":"경기도 용인시 기흥구 보정동 1265-3번지 훼미리프라자 701호","indutype":"학원 - 독서실","category":"study"},{"name":"죽전와이즈리더영어독서전문학원","tel":"031-264-0573","addr":"경기도 용인시 기흥구 보정동 1265-3번지 훼미리프라자 604호","indutype":"회원제형태 - 학원","category":"study"},{"name":"지우국어논술전문학원","tel":"031-265-9579","addr":"경기도 용인시 기흥구 보정동 1265-3번지 훼미리프라자 503호","indutype":"학원 - 보습학원","category":"study"},{"name":"큰수학전문학원","tel":"031-265-0990","addr":"경기도 용인시 기흥구 보정동 1265-3번지 훼미리프라자 501호","indutype":"학원 - 보습학원","category":"study"},{"name":"해밀턴에듀학원","tel":"070-4148-6491","addr":"경기도 용인시 기흥구 보정동 1265-3번지 훼미리프라자 504호","indutype":"회원제형태 - 학원","category":"study"},{"name":"홍익에이치아트미술학원","tel":"031-111-1111","addr":"경기도 용인시 기흥구 보정동 1265-3번지 훼미리프라자 603호","indutype":"학원 - 예·체능계학원","category":"study"}]},{"lat":"37.31939559","long":"127.11510088","imageIndex":16,"items":[{"name":"감성수학+지인초등독서학원","tel":"031-889-1230","addr":"경기도 용인시 기흥구 보정동 1266-3번지 현대프라자 505호","indutype":"학원 - 보습학원","category":"study"},{"name":"더블첵보습학원","tel":"031-272-2717","addr":"경기도 용인시 기흥구 보정동 1266-3번지 현대프라자 806호","indutype":"학원 - 보습학원","category":"study"},{"name":"리즈음악학원","tel":"031-261-5766","addr":"경기도 용인시 기흥구 보정동 1266-3번지 현대프라자 6층 601호","indutype":"학원 - 예·체능계학원","category":"study"},{"name":"모모드로잉 미술학원","tel":"","addr":"경기도 용인시 기흥구 보정동 1266-3번지 현대프라자 602호","indutype":"학원 - 예·체능계학원","category":"study"},{"name":"세반검도관","tel":"031-898-0868","addr":"경기도 용인시 기흥구 보정동 1806-2 현대프라자605호~606호","indutype":"학원 - 예·체능계학원","category":"study"},{"name":"수학의봄학원","tel":"031-889-8381","addr":"경기도 용인시 기흥구 보정동 1266-3번지 현대프라자 501호","indutype":"학원 - 보습학원","category":"study"},{"name":"스터디플래닛보정센터독서실","tel":"031-548-1809","addr":"경기도 용인시 기흥구 보정동 1266-3번지 현대프라자 802,803,804호","indutype":"학원 - 독서실","category":"study"},{"name":"쎈학원","tel":"031-897-6066","addr":"경기도 용인시 기흥구 보정동 1266-3번지 현대프라자 4층 406호","indutype":"학원 - 보습학원","category":"study"},{"name":"씨케이에이학원","tel":"031-276-9150","addr":"경기도 용인시 기흥구 보정동 1266-3번지 현대프라자 503호","indutype":"학원 - 보습학원","category":"study"},{"name":"영무용아카데미학원","tel":"031-896-0949","addr":"경기도 용인시 기흥구 보정동 1806-2현대프라자705-706","indutype":"학원 - 예·체능계학원","category":"study"},{"name":"영어명문이엘아이어학원","tel":"031-898-0599","addr":"경기도 용인시 기흥구 보정동 1266-3번지 현대프라자 701호","indutype":"회원제형태 - 학원","category":"study"},{"name":"주식회사 문화놀이터동화","tel":"070-8876-4450","addr":"경기도 용인시 기흥구 보정동 1266-3번지 현대프라자 502호","indutype":"학원 - 예·체능계학원","category":"study"},{"name":"죽전가우스학원","tel":"031-263-3880","addr":"경기도 용인시 기흥구 보정동 1266-3번지 현대프라자 603호","indutype":"회원제형태 - 학원","category":"study"},{"name":"파머스어학원","tel":"031-261-1755","addr":"경기도 용인시 기흥구 보정동 1266-3번지 현대프라자 401호 , 402호","indutype":"회원제형태 - 학원","category":"study"},{"name":"풍경국악학원","tel":"031-889-4450","addr":"경기도 용인시 기흥구 보정동 1266-3번지 현대프라자 502호","indutype":"학원 - 예·체능계학원","category":"study"},{"name":"합기도죽전정도관","tel":"031-889-7988","addr":"경기도 용인시 기흥구 보정동 1266-3번지 현대프라자 302호303호","indutype":"학원 - 예·체능계학원","category":"study"}]},{"lat":"37.319756787","long":"127.11426657","imageIndex":16,"items":[{"name":"감성실용음악학원","tel":"031-261-5550","addr":"경기도 용인시 기흥구 보정동 1266-1번지 리베로3 212호","indutype":"학원 - 예·체능계학원","category":"study"},{"name":"대한바이블신학","tel":"031-261-0191","addr":"경기도 용인시 기흥구 보정동 1266-1번지 리베로3 221호","indutype":"학원 - 기타 교육기관","category":"study"}]},{"lat":"37.319958251","long":"127.11076952","imageIndex":16,"items":[{"name":"경원대신성태권도","tel":"031-889-3450","addr":"경기도 용인시 기흥구 보정동 1263번지 죽전누리에뜰아파트 413호","indutype":"학원 - 예·체능계학원","category":"study"},{"name":"아이원리빙텔","tel":"031-898-1115","addr":"경기도 용인시 기흥구 보정동 1263 죽전누리에뜰313호~315호","indutype":"학원 - 독서실","category":"study"},{"name":"엠티씨(MTC)수학","tel":"031-000-0000","addr":"경기도 용인시 기흥구 보정동 1263번지 죽전누리에뜰아파트 421호","indutype":"학원 - 보습학원","category":"study"},{"name":"용인직업전문학교","tel":"031-896-8558","addr":"경기도 용인시 기흥구 보정동 1263번지 죽전누리에뜰 208호","indutype":"학원 - 기능학원","category":"study"},{"name":"지니아이보습학원","tel":"031-889-7985","addr":"경기도 용인시 기흥구 보정동 1263번지 누리에뜰 408호","indutype":"학원 - 보습학원","category":"study"}]},{"lat":"37.303012045","long":"127.09790955","imageIndex":16,"items":[{"name":"경희대석사태권도","tel":"031-897-5587","addr":"경기도 용인시 기흥구 보정동 905번지","indutype":"학원 - 예·체능계학원","category":"study"}]},{"lat":"37.319396792","long":"127.11382606","imageIndex":16,"items":[{"name":"고양이미술창작소미술교습소","tel":"031-897-0089","addr":"경기도 용인시 기흥구 보정동 1266-6번지 현대휴먼프라자 704호","indutype":"학원 - 예·체능계학원","category":"study"},{"name":"아트스토리미술학원","tel":"031-897-6075","addr":"경기도 용인시 기흥구 보정동 1266-6번지 현대휴먼프라자 504호","indutype":"학원 - 예·체능계학원","category":"study"},{"name":"에이원어학원","tel":"031-111-1111","addr":"경기도 용인시 기흥구 보정동 1266-6번지 현대휴먼프라자 301호","indutype":"학원 - 외국어학원","category":"study"},{"name":"엘유씨와이(LUCY)어학원","tel":"031-272-0599","addr":"경기도 용인시 기흥구 보정동 1266-6번지 현대휴먼프라자 702호","indutype":"학원 - 외국어학원","category":"study"},{"name":"용호태권도","tel":"031-896-3377","addr":"경기도 용인시 기흥구 보정동 1266-6번지 현대휴먼프라자 502호","indutype":"학원 - 예·체능계학원","category":"study"},{"name":"위드미학원","tel":"031-896-0552","addr":"경기도 용인시 기흥구 보정동 1266-6번지 현대휴먼프라자 3층 303호","indutype":"학원 - 보습학원","category":"study"},{"name":"이좋은영어수학학원","tel":"031-889-7650","addr":"경기도 용인시 기흥구 보정동 1266-6번지 현대휴먼프라자 204호","indutype":"학원 - 보습학원","category":"study"},{"name":"주식회사 영어명문이엘아이어학원","tel":"031-898-0599","addr":"경기도 용인시 기흥구 보정동 1266-6번지 현대휴먼프라자 201호","indutype":"학원 - 보습학원","category":"study"},{"name":"즐거운중앙음악전문학원","tel":"031-897-2867","addr":"경기도 용인시 기흥구 보정동 1806-5현대휴먼프라자503","indutype":"학원 - 예·체능계학원","category":"study"}]},{"lat":"37.320677124","long":"127.11288026","imageIndex":16,"items":[{"name":"공내아뇌 학원","tel":"031-261-9398","addr":"경기도 용인시 기흥구 보정동 1207-3번지 에스제이타워 7층 705호","indutype":"학원 - 보습학원","category":"study"},{"name":"더블유영어수학전문학원","tel":"031-897-4144","addr":"경기도 용인시 기흥구 보정동 1207-3번지 에스제이타워","indutype":"회원제형태 - 학원","category":"study"},{"name":"매스포유수학학원","tel":"031-715-8706","addr":"경기도 용인시 기흥구 보정동 1207-3번지 에스제이타워 302호","indutype":"학원 - 보습학원","category":"study"},{"name":"미시건영어교습소","tel":"031-898-0504","addr":"경기도 용인시 기흥구 보정동 1207-3번지 에스제이타워 601호","indutype":"학원 - 외국어학원","category":"study"},{"name":"보정유투엠수학학원","tel":"031-889-3990","addr":"경기도 용인시 기흥구 보정동 1207-3번지 에스제이타워 605호","indutype":"학원 - 보습학원","category":"study"},{"name":"북경중국어교습소","tel":"031-264-6111","addr":"경기도 용인시 기흥구 보정동 1207-3번지 에스제이타워 301호 일부","indutype":"회원제형태 - 학원","category":"study"},{"name":"서원학원","tel":"031-712-8787","addr":"경기도 용인시 기흥구 보정동 1207-3번지 에스제이타워 5동 505층","indutype":"학원 - 보습학원","category":"study"},{"name":"수학영토학원","tel":"031-266-3503","addr":"경기도 용인시 기흥구 보정동 1207-3번지 에스제이타워 602호","indutype":"학원 - 보습학원","category":"study"},{"name":"아트앤하트보정동카페거리미술교습소","tel":"","addr":"경기도 용인시 기흥구 보정동 1207-3번지 에스제이타워 306 1호","indutype":"학원 - 예·체능계학원","category":"study"},{"name":"영렘브란트죽전미술학원","tel":"031-266-3663","addr":"경기도 용인시 기흥구 보정동 1207-3번지 에스제이타워 603호","indutype":"학원 - 예·체능계학원","category":"study"},{"name":"올댓디베이트국어교습소","tel":"","addr":"경기도 용인시 기흥구 보정동 1207-3번지 에스제이타워 6층 601호","indutype":"학원 - 보습학원","category":"study"},{"name":"와이비엠잉글루보정어학원","tel":"031-898-0551","addr":"경기도 용인시 기흥구 보정동 1207-3번지 에스제이타워 5층 501호","indutype":"회원제형태 - 학원","category":"study"},{"name":"입시엔영어학원","tel":"031-263-1979","addr":"경기도 용인시 기흥구 보정동 1207-3번지 에스제이타워 502호","indutype":"학원 - 보습학원","category":"study"},{"name":"죽전라온수학학원","tel":"031-889-9998","addr":"경기도 용인시 기흥구 보정동 1207-3번지 외1필지 에스제이타워 404호","indutype":"학원 - 보습학원","category":"study"},{"name":"최고영수학원","tel":"031-889-8687","addr":"경기도 용인시 기흥구 보정동 1207-3번지 에스제이타워 5층 504호","indutype":"학원 - 보습학원","category":"study"},{"name":"최양선영국어논술전문학원","tel":"031-889-6366","addr":"경기도 용인시 기흥구 보정동 1207-3번지 에스제이타워 704호","indutype":"학원 - 보습학원","category":"study"},{"name":"포인트 어학원","tel":"031-889-6660","addr":"경기도 용인시 기흥구 보정동 1207-3번지 에스제이타워 504호","indutype":"학원 - 외국어학원","category":"study"},{"name":"플랜A수학학원","tel":"031-898-0616","addr":"경기도 용인시 기흥구 보정동 1207-3번지 에스제이타워 501호","indutype":"학원 - 보습학원","category":"study"}]},{"lat":"37.320180679","long":"127.11382721","imageIndex":16,"items":[{"name":"그림아이미술학원","tel":"031-898-2990","addr":"경기도 용인시 기흥구 보정동 1265-1번지 타워시티 701호","indutype":"학원 - 예·체능계학원","category":"study"},{"name":"메타철학교육논술학원","tel":"031-276-3211","addr":"경기도 용인시 기흥구 보정동 1265-1번지 타워시티 704호","indutype":"학원 - 보습학원","category":"study"},{"name":"블루엠수학보습학원","tel":"031-897-8872","addr":"경기도 용인시 기흥구 보정동 1265-1번지 타워시티 602호","indutype":"학원 - 보습학원","category":"study"},{"name":"수경학원","tel":"070-8820-2342","addr":"경기도 용인시 기흥구 보정동 1265-1번지 타워시티 502호","indutype":"학원 - 보습학원","category":"study"},{"name":"아르키움영어학원","tel":"031-889-5557","addr":"경기도 용인시 기흥구 보정동 1265-1번지 타워시티 801동 802호","indutype":"학원 - 외국어학원","category":"study"},{"name":"죽전시매쓰학원","tel":"031-889-5251","addr":"경기도 용인시 기흥구 보정동 1265-1, 타워씨티프라자 803호~804호","indutype":"학원 - 보습학원","category":"study"},{"name":"하늘교육보정학원","tel":"070-4220-2244","addr":"경기도 용인시 기흥구 보정동 1265-1번지 타워시티프라자 702호 703호","indutype":"회원제형태 - 학원","category":"study"}]},{"lat":"37.320676239","long":"127.11382794","imageIndex":16,"items":[{"name":"김호국어2관학원","tel":"031-889-7799","addr":"경기도 용인시 기흥구 보정동 1208-1번지 웰빙타운 504호","indutype":"학원 - 보습학원","category":"study"},{"name":"더쎈수학학원","tel":"031-898-2456","addr":"경기도 용인시 기흥구 보정동 1804-1웰빙타운804","indutype":"학원 - 기타 교육기관","category":"study"},{"name":"메이중국어어학원","tel":"031-898-3367","addr":"경기도 용인시 기흥구 보정동 1208-1번지 성진웰빙타운 701호","indutype":"회원제형태 - 학원","category":"study"},{"name":"에듀플렉스 죽전학원","tel":"031-889-7880","addr":"경기도 용인시 기흥구 보정동 1208-1번지 보정동,성진웰빙타운 403동 403호","indutype":"학원 - 보습학원","category":"study"},{"name":"영어내신클리닉학원","tel":"031-889-3900","addr":"경기도 용인시 기흥구 보정동 1208-1번지 성진웰빙타운 502호","indutype":"회원제형태 - 학원","category":"study"},{"name":"와이비엠시사닷컴죽전이씨써어학원","tel":"031-747-0509","addr":"경기도 용인시 기흥구 보정동 1208-1번지 성진웰빙타운 6층","indutype":"회원제형태 - 학원","category":"study"},{"name":"용인바둑학원","tel":"031-262-7050","addr":"경기도 용인시 기흥구 보정동 1208-1번지 성진웰빙타운 704호","indutype":"학원 - 기타 교육기관","category":"study"},{"name":"이룸영어학원","tel":"031-889-9777","addr":"경기도 용인시 기흥구 보정동 1208-1번지 웰빙타운 304호","indutype":"학원 - 보습학원","category":"study"},{"name":"이병용입시영어학원","tel":"031-896-0900","addr":"경기도 용인시 기흥구 보정동 1208-1번지 성진웰빙타운 501호","indutype":"회원제형태 - 학원","category":"study"},{"name":"이엠비상학원","tel":"031-263-0950","addr":"경기도 용인시 기흥구 보정동 1208-1번지 성진웰빙타운 701호","indutype":"학원 - 보습학원","category":"study"},{"name":"이챕터스학원","tel":"031-889-3638","addr":"경기도 용인시 기흥구 보정동 1208-1번지 성진웰빙타운 703호","indutype":"학원 - 보습학원","category":"study"},{"name":"죽전점프홀릭","tel":"031-889-8001","addr":"경기도 용인시 기흥구 보정동 1208-1번지 웰빙타운 401호","indutype":"학원 - 예·체능계학원","category":"study"},{"name":"초이스영어국어논술학원","tel":"031-889-8004","addr":"경기도 용인시 기흥구 보정동 1208-1번지 성진웰빙타운 503호","indutype":"학원 - 보습학원","category":"study"},{"name":"헬렌음악학원","tel":"031-889-2337","addr":"경기도 용인시 기흥구 보정동 1208-1번지 웰빙타운 4층 402호","indutype":"학원 - 예·체능계학원","category":"study"}]},{"lat":"37.319403482","long":"127.11627419","imageIndex":16,"items":[{"name":"꽃메보정어학원","tel":"02-6340-5385","addr":"경기도 용인시 기흥구 보정동 1254-3번지 에듀타워 201호","indutype":"학원 - 보습학원","category":"study"},{"name":"보정어학원","tel":"031-898-0106","addr":"경기도 용인시 기흥구 보정동 1254-3번지 에듀타워빌딩 301호","indutype":"학원 - 외국어학원","category":"study"},{"name":"죽전보정어학원","tel":"031-898-0106","addr":"경기도 용인시 기흥구 보정동 1254-3번지 에듀타운빌딩 401동 402호","indutype":"학원 - 보습학원","category":"study"}]},{"lat":"37.319673304","long":"127.09619313","imageIndex":16,"items":[{"name":"늘봄미술학원","tel":"031-897-4245","addr":"경기도 용인시 기흥구 보정동 1323-1번지 샤르망 301호","indutype":"학원 - 예·체능계학원","category":"study"},{"name":"보정경희대태권도","tel":"031-896-5484","addr":"경기도 용인시 기흥구 보정동 1323-1번지 샤르망 401호","indutype":"학원 - 예·체능계학원","category":"study"},{"name":"피아노숲음악학원","tel":"031-896-4242","addr":"경기도 용인시 기흥구 보정동 1323-1번지 샤르망 302호","indutype":"학원 - 예·체능계학원","category":"study"}]},{"lat":"37.306792666","long":"127.11257804","imageIndex":16,"items":[{"name":"닥터몬테소리미술학원","tel":"031-898-1094","addr":"경기도 용인시 기흥구 보정동 1328-8번지 1층","indutype":"학원 - 예·체능계학원","category":"study"}]},{"lat":"37.319396007","long":"127.1146609","imageIndex":16,"items":[{"name":"닥터수밀크잉글리쉬 (Dr. Su's Milk Englis","tel":"031-889-5010","addr":"경기도 용인시 기흥구 보정동 1266-4번지 로얄프라자 702호","indutype":"학원 - 외국어학원","category":"study"},{"name":"쁘띠아트미술학원","tel":"031-210-6845","addr":"경기도 용인시 기흥구 보정동 1266-4번지 로얄프라자 401호","indutype":"학원 - 예·체능계학원","category":"study"},{"name":"아이앰피아노학원","tel":"031-0000-0000","addr":"경기도 용인시 기흥구 보정동 1266-4번지 로얄프라자 605호 604호, 605호","indutype":"학원 - 예·체능계학원","category":"study"},{"name":"정성하이클래스초중등수학학원","tel":"031-889-3990","addr":"경기도 용인시 기흥구 보정동 1266-4번지 로얄프라자 402동 405호","indutype":"학원 - 보습학원","category":"study"}]},{"lat":"37.320180319","long":"127.11421079","imageIndex":16,"items":[{"name":"단국실용음악학원","tel":"031-896-2054","addr":"경기도 용인시 기흥구 보정동 1265-2번지 센타프라자 801호 , 중일부","indutype":"회원제형태 - 학원","category":"study"},{"name":"더팩토리미술학원","tel":"031-897-0092","addr":"경기도 용인시 기흥구 보정동 1805-2센타프라자602,603호","indutype":"학원 - 예·체능계학원","category":"study"},{"name":"베베궁어학원","tel":"031-889-5331","addr":"경기도 용인시 기흥구 보정동 1265-2번지 센타프라자 701호","indutype":"회원제형태 - 학원","category":"study"},{"name":"서정임무용학원","tel":"031-898-3637","addr":"경기도 용인시 기흥구 보정동 1805-2센터프라자801","indutype":"학원 - 예·체능계학원","category":"study"},{"name":"에프엑스수학전문학원","tel":"031-897-0022","addr":"경기도 용인시 기흥구 보정동 1265-2번지 센타프라자 503호","indutype":"학원 - 보습학원","category":"study"},{"name":"이(E)-수학학원","tel":"031-276-1116","addr":"경기도 용인시 기흥구 보정동 1265-2번지 센타프라자 503,504호","indutype":"학원 - 보습학원","category":"study"},{"name":"이화모차르테움음악학원","tel":"031-211-0156","addr":"경기도 용인시 기흥구 보정동 1265-2번지 센타프라자 604호","indutype":"학원 - 예·체능계학원","category":"study"},{"name":"정풀수학교습소","tel":"031-889-1567","addr":"경기도 용인시 기흥구 보정동 1265-2번지 센타프라자 402호 일부","indutype":"학원 - 보습학원","category":"study"},{"name":"제이클라리넷교습소","tel":"070-4251-6808","addr":"경기도 용인시 기흥구 보정동 1265-2번지 센타프라자 402호","indutype":"학원 - 예·체능계학원","category":"study"},{"name":"줄탁영어학원","tel":"031-898-3999","addr":"경기도 용인시 기흥구 보정동 1265-2번지 센터프라자 404호","indutype":"학원 - 보습학원","category":"study"},{"name":"지엘독서실","tel":"031-889-7275","addr":"경기도 용인시 기흥구 보정동 1265-2번지 센타프라자 501,502호","indutype":"학원 - 독서실","category":"study"},{"name":"플래뮤미술학원","tel":"031-897-5006","addr":"경기도 용인시 기흥구 보정동 1265-2번지 센타프라자 603호","indutype":"학원 - 예·체능계학원","category":"study"}]},{"lat":"37.320706916","long":"127.09938718","imageIndex":16,"items":[{"name":"라니키즈 스포츠","tel":"031-897-1235","addr":"경기도 용인시 기흥구 보정동 266-4번지 롯데마트 5층","indutype":"학원 - 예·체능계학원","category":"study"}]},{"lat":"37.305182698","long":"127.09891616","imageIndex":16,"items":[{"name":"라이징썬키즈 스포츠","tel":"031-266-8889","addr":"경기도 용인시 기흥구 보정동 883-1번지 평성빌딩 2층","indutype":"학원 - 예·체능계학원","category":"study"},{"name":"바스타즈댄스학원","tel":"031-8897-2459","addr":"경기도 용인시 기흥구 보정동 883-1번지 평성빌딩","indutype":"학원 - 예·체능계학원","category":"study"}]},{"lat":"37.307623695","long":"127.1103007","imageIndex":16,"items":[{"name":"로제타스톤영어보정학원","tel":"031-262-2020","addr":"경기도 용인시 기흥구 보정동 1323-3번지 보정프라자 302호","indutype":"학원 - 외국어학원","category":"study"},{"name":"벅스피아노스튜디오음악교습소","tel":"031-272-1211","addr":"경기도 용인시 기흥구 보정동 1323-3번지 보정프라자 104호","indutype":"학원 - 예·체능계학원","category":"study"},{"name":"탄무용학원","tel":"031-889-4230","addr":"경기도 용인시 기흥구 보정동 1323-3번지 보정프라자 2층","indutype":"학원 - 예·체능계학원","category":"study"},{"name":"헤움학원","tel":"031-898-2090","addr":"경기도 용인시 기흥구 보정동 1323-3번지 보정프라자 301호","indutype":"학원 - 보습학원","category":"study"}]},{"lat":"37.307649479","long":"127.11166561","imageIndex":16,"items":[{"name":"르쁘띠아뜰리에미술교습소","tel":"031-889-9836","addr":"경기도 용인시 기흥구 보정동 1326-5번지","indutype":"학원 - 예·체능계학원","category":"study"}]},{"lat":"37.32025569","long":"127.11065713","imageIndex":16,"items":[{"name":"리브로아르츠 분당판교지사","tel":"","addr":"경기도 용인시 기흥구 보정동 1263번지 죽전누리에뜰 102동 1203호","indutype":"학원 - 학습지 교육","category":"study"}]},{"lat":"37.320675091","long":"127.11504638","imageIndex":16,"items":[{"name":"마이코딩트리학원","tel":"031-898-3313","addr":"경기도 용인시 기흥구 보정동 1208-4번지 엘림프라자 602,603호","indutype":"학원 - 컴퓨터학원","category":"study"},{"name":"벨라피아노음악학원","tel":"070-4112-8975","addr":"경기도 용인시 기흥구 보정동 1208-4번지 엘림프라자 3층 301호","indutype":"학원 - 예·체능계학원","category":"study"},{"name":"벨라피아노음악학원","tel":"","addr":"경기도 용인시 기흥구 보정동 1208-4번지 엘림프라자 301호","indutype":"학원 - 예·체능계학원","category":"study"},{"name":"사쓰만사우스바이올린학원","tel":"031-897-7704","addr":"경기도 용인시 기흥구 보정동 1208-4번지 호암빌딩 305호","indutype":"학원 - 예·체능계학원","category":"study"},{"name":"예지보습학원","tel":"031-898-3835","addr":"경기도 용인시 기흥구 보정동 1208-4번지 엘림프라자 605호","indutype":"학원 - 외국어학원","category":"study"},{"name":"용인대최고태권도장","tel":"031-889-5124","addr":"경기도 용인시 기흥구 보정동 1208-4번지 엘림프라자","indutype":"학원 - 예·체능계학원","category":"study"},{"name":"죽전플레잉음악학원","tel":"031-898-4008","addr":"경기도 용인시 기흥구 보정동 1208-4번지 엘림프라자 601호","indutype":"학원 - 예·체능계학원","category":"study"},{"name":"토즈스터디센터보정독서실","tel":"031-897-3335","addr":"경기도 용인시 기흥구 보정동 1208-4번지 엘림프라자 701호","indutype":"학원 - 독서실","category":"study"}]},{"lat":"37.320675507","long":"127.11460638","imageIndex":16,"items":[{"name":"맥파이어학원","tel":"031-896-5003","addr":"경기도 용인시 기흥구 보정동 1208-3번지 야후빌딩8층(801-804호)","indutype":"학원 - 보습학원","category":"study"},{"name":"박찬영어전문학원","tel":"031-896-5004","addr":"경기도 용인시 기흥구 보정동 1804-3야후빌딩6층601","indutype":"학원 - 기타 교육기관","category":"study"},{"name":"스카이브릿지 영어학원","tel":"031-897-7761","addr":"경기도 용인시 기흥구 보정동 1208-3번지 야후빌딩 501호","indutype":"학원 - 외국어학원","category":"study"},{"name":"에이플러스수학학원","tel":"031-889-3050","addr":"경기도 용인시 기흥구 보정동 1208-3번지 야후빌딩 703호","indutype":"학원 - 보습학원","category":"study"},{"name":"용인글로벌평생교육원","tel":"031-898-0004","addr":"경기도 용인시 기흥구 보정동 1208-3번지 야후빌딩 702호","indutype":"학원 - 기타 교육기관","category":"study"},{"name":"일프로학원","tel":"031-272-7088","addr":"경기도 용인시 기흥구 보정동 1208-3번지 야후빌딩 4층 401,402호","indutype":"학원 - 보습학원","category":"study"},{"name":"죽전하늘소리음악학원","tel":"031-893-2866","addr":"경기도 용인시 기흥구 보정동 1208-3번지 야후빌딩 701호","indutype":"학원 - 예·체능계학원","category":"study"},{"name":"죽전하늘소리음악학원","tel":"031-893-2866","addr":"경기도 용인시 기흥구 보정동 1208-3번지 야후빌딩 701호","indutype":"학원 - 예·체능계학원","category":"study"},{"name":"창논술학원","tel":"031-898-0939","addr":"경기도 용인시 기흥구 보정동 1208-3번지 야후빌딩 702호","indutype":"학원 - 보습학원","category":"study"},{"name":"화성수학학원","tel":"070-7911-5095","addr":"경기도 용인시 기흥구 보정동 1208-3 야후빌딩50호","indutype":"학원 - 보습학원","category":"study"}]},{"lat":"37.30782192","long":"127.11030098","imageIndex":16,"items":[{"name":"뮤엠보정영어교습소","tel":"","addr":"경기도 용인시 기흥구 보정동 1323-2번지 웰빙프라자 1층 102호","indutype":"학원 - 외국어학원","category":"study"},{"name":"용인대 아이사랑 태권도장","tel":"031-000-0000","addr":"경기도 용인시 기흥구 보정동 1323-2번지 2층, 4층","indutype":"학원 - 예·체능계학원","category":"study"},{"name":"푸르넷마스터영어교습소","tel":"031-0000-0000","addr":"경기도 용인시 기흥구 보정동 1323-2번지 웰빙프라자 201호","indutype":"학원 - 외국어학원","category":"study"}]},{"lat":"37.320148376","long":"127.10976571","imageIndex":16,"items":[{"name":"베스트드론아카데미(주)","tel":"031-897-4789","addr":"경기도 용인시 기흥구 보정동 1261-4번지 장은메디칼프라자 6층 601호","indutype":"학원 - 기능학원","category":"study"},{"name":"사단법인 한국청소년지원협회","tel":"070-4065-9757","addr":"경기도 용인시 기흥구 보정동 1261-4번지 정은프라자 702-4호","indutype":"학원 - 기타 교육기관","category":"study"}]},{"lat":"37.320677897","long":"127.1120454","imageIndex":16,"items":[{"name":"보정씨앤씨미술학원","tel":"02-3126-4732","addr":"경기도 용인시 기흥구 보정동 1207-1번지 포레스트프라자 403동 404호","indutype":"학원 - 예·체능계학원","category":"study"},{"name":"중앙LNC학원","tel":"031-276-0082","addr":"경기도 용인시 기흥구 보정동 1207-1번지 603,604호","indutype":"학원 - 보습학원","category":"study"}]},{"lat":"37.309904598","long":"127.09824535","imageIndex":16,"items":[{"name":"보정자연외국어학원","tel":"031-261-0132","addr":"경기도 용인시 기흥구 보정동 465-1외2필지2~4층","indutype":"회원제형태 - 학원","category":"study"}]},{"lat":"37.313930068","long":"127.11115574","imageIndex":16,"items":[{"name":"보정파워점핑클럽","tel":"031-8013-2075","addr":"경기도 용인시 기흥구 보정동 1277번지 2층 204-1호","indutype":"학원 - 예·체능계학원","category":"study"},{"name":"오르다독서실","tel":"031-263-0906","addr":"경기도 용인시 기흥구 보정동 1277번지 지젤스포츠클럽 201호","indutype":"학원 - 독서실","category":"study"},{"name":"최고수학학원","tel":"031-889-8687","addr":"경기도 용인시 기흥구 보정동 1277번지 2층 202호 지젤스포츠클럽","indutype":"학원 - 보습학원","category":"study"}]},{"lat":"37.311146973","long":"127.10998986","imageIndex":16,"items":[{"name":"신나는피아노학원","tel":"031-889-7789","addr":"경기도 용인시 기흥구 보정동 1282번지 신촌마을포스홈타운1단지 상가동 301호","indutype":"학원 - 예·체능계학원","category":"study"},{"name":"엠투수학교습소","tel":"031-000-0000","addr":"경기도 용인시 기흥구 보정동 1282번지 신촌마을포스홈타운1단지 상가동 203호","indutype":"학원 - 보습학원","category":"study"},{"name":"유니아트미술교습소","tel":"","addr":"경기도 용인시 기흥구 보정동 1282번지 신촌마을포스홈타운1단지 상가동 302,303호","indutype":"학원 - 예·체능계학원","category":"study"},{"name":"제이앤비수학영어전문학원","tel":"031-898-3405","addr":"경기도 용인시 기흥구 보정동 1282번지 신촌마을포스홈타운1단지 상가 304호","indutype":"학원 - 보습학원","category":"study"}]},{"lat":"37.316952493","long":"127.11649614","imageIndex":16,"items":[{"name":"아베르피아노교습소","tel":"031-897-6232","addr":"경기도 용인시 기흥구 보정동 1258번지 죽현마을엘지자이제 상가동 201호","indutype":"학원 - 예·체능계학원","category":"study"}]},{"lat":"37.319707617","long":"127.10894152","imageIndex":16,"items":[{"name":"아이엠 (IM) 학원","tel":"","addr":"경기도 용인시 기흥구 보정동 1261-1번지 휴먼타워 403호","indutype":"학원 - 보습학원","category":"study"},{"name":"오름컴퓨터아트학원","tel":"031-889-3351","addr":"경기도 용인시 기흥구 보정동 1261-1번지 휴먼타워 403호","indutype":"회원제형태 - 학원","category":"study"}]},{"lat":"37.308375257","long":"127.10612816","imageIndex":16,"items":[{"name":"연세S.E음악학원","tel":"02-0000-0000","addr":"경기도 용인시 기흥구 보정동 1291번지 죽전자이2차 109호","indutype":"학원 - 예·체능계학원","category":"study"}]},{"lat":"37.304598138","long":"127.1082097","imageIndex":16,"items":[{"name":"영어에빠지다","tel":"","addr":"경기도 용인시 기흥구 보정동 1177번지 연원마을삼성명가타운아파트","indutype":"학원 - 기타 교육기관","category":"study"}]},{"lat":"37.310679521","long":"127.09818992","imageIndex":16,"items":[{"name":"위펠풋볼클럽","tel":"","addr":"경기도 용인시 기흥구 보정동 461번지","indutype":"학원 - 예·체능계학원","category":"study"}]},{"lat":"37.318481235","long":"127.11004539","imageIndex":16,"items":[{"name":"이룸교육","tel":"","addr":"경기도 용인시 기흥구 보정동 1271번지 상가동 비102호 비103호","indutype":"학원 - 예·체능계학원","category":"study"},{"name":"이화아트","tel":"031-285-7006","addr":"경기도 용인시 기흥구 보정동 1271번지 죽현마을동원로얄듀크상가동비 101-1호","indutype":"학원 - 기타 교육기관","category":"study"}]},{"lat":"37.318724826","long":"127.10969601","imageIndex":16,"items":[{"name":"이지쿠킹","tel":"031-897-2506","addr":"경기도 용인시 기흥구 보정동 1271번지 죽현마을동원로얄듀크 310동 605호","indutype":"학원 - 기능학원","category":"study"}]},{"lat":"37.320675879","long":"127.11421152","imageIndex":16,"items":[{"name":"주식회사 김호국어학원","tel":"031-889-7743","addr":"경기도 용인시 기흥구 보정동 1208-2번지 씨티프라자 502호","indutype":"학원 - 보습학원","category":"study"}]},{"lat":"37.314209115","long":"127.10113869","imageIndex":16,"items":[{"name":"주식회사 아이디","tel":"031-212-2162","addr":"경기도 용인시 기흥구 보정동 392-1번지","indutype":"학원 - 예·체능계학원","category":"study"}]},{"lat":"37.3193964","long":"127.11424348","imageIndex":16,"items":[{"name":"주식회사 유앤아이 아카데미","tel":"02-3446-8788","addr":"경기도 용인시 기흥구 보정동 1266-5번지 로얄캠퍼빌 509호","indutype":"학원 - 외국어학원","category":"study"},{"name":"해법중국어 죽전보정교실","tel":"031-000-0000","addr":"경기도 용인시 기흥구 보정동 1266-5번지 로얄캠퍼빌 104호","indutype":"학원 - 기타 교육기관","category":"study"}]},{"lat":"37.320679117","long":"127.11071414","imageIndex":16,"items":[{"name":"주식회사표창원범죄과학연구소","tel":"031-284-4505","addr":"경기도 용인시 기흥구 보정동 1197-2번지 풍산프라자8층801호내에이치77","indutype":"회원제형태 - 학원","category":"study"}]},{"lat":"37.320678705","long":"127.11116542","imageIndex":16,"items":[{"name":"죽전아이티씨통역학원","tel":"031-898-1698","addr":"경기도 용인시 기흥구 보정동 1197-3번지 죽전엘림프라자 801호~802호","indutype":"학원 - 외국어학원","category":"study"}]},{"lat":"37.320148772","long":"127.10932573","imageIndex":16,"items":[{"name":"지(z) DANCE STUDIO","tel":"","addr":"경기도 용인시 기흥구 보정동 1261-3번지 한솔프라자 8층 806호","indutype":"학원 - 예·체능계학원","category":"study"}]},{"lat":"37.311045766","long":"127.11227965","imageIndex":16,"items":[{"name":"창의과학교실","tel":"","addr":"경기도 용인시 기흥구 보정동 1162번지 행원마을동아솔레시티아파트","indutype":"학원 - 기타 교육기관","category":"study"}]},{"lat":"37.307622303","long":"127.11182349","imageIndex":16,"items":[{"name":"킹스턴아트미술교습소","tel":"031-889-5521","addr":"경기도 용인시 기흥구 보정동 1326-6번지 2동 101호","indutype":"학원 - 예·체능계학원","category":"study"}]},{"lat":"37.308038164","long":"127.11030129","imageIndex":16,"items":[{"name":"피아노숲음악학원","tel":"031-896-4242","addr":"경기도 용인시 기흥구 보정동 1323-1번지 현대프라자 302호","indutype":"학원 - 예·체능계학원","category":"study"}]},{"lat":"37.320680597","long":"127.10907827","imageIndex":16,"items":[{"name":"한국커피바리스타학원","tel":"031-287-5330","addr":"경기도 용인시 기흥구 보정동 1195-1번지 메트로프라자 604호","indutype":"회원제형태 - 학원","category":"study"}]}]