[{"lat":"37.485429898","long":"126.81102028","imageIndex":13,"items":[{"name":"1001안경","tel":"032-665-1001","addr":"경기도 부천시 역곡동 80-3번지 1층","indutype":"보건위생 - 안경","category":"beauty"}]},{"lat":"37.486014917","long":"126.81063436","imageIndex":13,"items":[{"name":"HS메디칼","tel":"02-2640-1881","addr":"경기도 부천시 역곡동 77-2번지 휴캐슬 1002호","indutype":"보건위생 - 의료용품","category":"beauty"}]},{"lat":"37.48512207","long":"126.81010524","imageIndex":13,"items":[{"name":"HS헤어","tel":"","addr":"경기도 부천시 역곡동 79-4번지 3층","indutype":"보건위생 - 미용원","category":"beauty"}]},{"lat":"37.487369951","long":"126.81282442","imageIndex":13,"items":[{"name":"J.S 헤어공간","tel":"032-342-5422","addr":"경기도 부천시 역곡동 110-1번지 102호","indutype":"보건위생 - 미용원","category":"beauty"}]},{"lat":"37.485711329","long":"126.8068248","imageIndex":13,"items":[{"name":"J헤어코코","tel":"032-349-0661","addr":"경기도 부천시 역곡동 36-25번지 수정빌라 101호","indutype":"보건위생 - 미용원","category":"beauty"}]},{"lat":"37.484931809","long":"126.80946125","imageIndex":13,"items":[{"name":"S.P성피부관리실","tel":"032-343-1195","addr":"경기도 부천시 역곡동 79-1번지","indutype":"보건위생 - 화장품","category":"beauty"}]},{"lat":"37.48860039","long":"126.81040159","imageIndex":13,"items":[{"name":"가위세계","tel":"031-111-1111","addr":"경기도 부천시 역곡동 86-8번지 중앙연립","indutype":"보건위생 - 미용재료","category":"beauty"}]},{"lat":"37.486262895","long":"126.81355085","imageIndex":13,"items":[{"name":"건강스파랜드불한증막사우나","tel":"032-345-6038","addr":"경기도 부천시 역곡동 112-1번지5,6,7층","indutype":"보건위생 - 사우나","category":"beauty"},{"name":"조이심리상담센터","tel":"032-347-8702","addr":"경기도 부천시 역곡동 112-1번지 역곡미래타운 404호","indutype":"보건위생 - 기타대인서비스","category":"beauty"},{"name":"천조광열건강센터","tel":"032-351-3331","addr":"경기도 부천시 역곡동 112-1번지 역곡미래타운 103호","indutype":"보건위생 - 의료용품","category":"beauty"},{"name":"퓨어덴탈","tel":"032-341-0424","addr":"경기도 부천시 역곡동 112-1번지 미래타운 404동 406호 호내","indutype":"보건위생 - 의료용품","category":"beauty"}]},{"lat":"37.485735518","long":"126.81057854","imageIndex":13,"items":[{"name":"고려수지침부천","tel":"032-613-8201","addr":"경기도 부천시 역곡동 77-10번지 BNG2000빌딩 7층 703-2호","indutype":"보건위생 - 의료용품","category":"beauty"},{"name":"꾸미는 여자","tel":"032-341-4901","addr":"경기도 부천시 역곡동 77-10번지 BNG2000빌딩 7층 706호","indutype":"보건위생 - 화장품","category":"beauty"},{"name":"마터피아부천지사","tel":"","addr":"경기도 부천시 역곡동 77-10번지 703-1호","indutype":"보건위생 - 기타대인서비스","category":"beauty"},{"name":"바른자세교정센터","tel":"02-6340-5385","addr":"경기도 부천시 역곡동 77-10번지 BNG2000빌딩 5층 505호","indutype":"보건위생 - 기타대인서비스","category":"beauty"},{"name":"에스더뷰티","tel":"032-347-1535","addr":"경기도 부천시 역곡동 77-10번지 BNG2000빌딩 305,307-나호","indutype":"보건위생 - 피부미용실","category":"beauty"}]},{"lat":"37.487205747","long":"126.81156977","imageIndex":13,"items":[{"name":"골목헤어","tel":"032-345-3707","addr":"경기도 부천시 역곡동 84-17번지 상원탑스빌 1층 101호","indutype":"보건위생 - 미용원","category":"beauty"}]},{"lat":"37.490072666","long":"126.81265927","imageIndex":13,"items":[{"name":"공주헤어샵","tel":"032-322-5160","addr":"경기도 부천시 역곡동 203-12번지 대창스페이스빌 지하1층 B02호","indutype":"보건위생 - 미용원","category":"beauty"}]},{"lat":"37.484549314","long":"126.80698613","imageIndex":13,"items":[{"name":"광명선녀동자","tel":"032-347-9997","addr":"경기도 부천시 역곡동 45-56번지 하이트맨션 7동 202호","indutype":"보건위생 - 기타대인서비스","category":"beauty"}]},{"lat":"37.489317923","long":"126.80840969","imageIndex":13,"items":[{"name":"굿가드","tel":"032-343-4986","addr":"경기도 부천시 역곡동 66-11번지 2층 202호","indutype":"보건위생 - 화장품","category":"beauty"}]},{"lat":"37.485819209","long":"126.81218387","imageIndex":13,"items":[{"name":"그레이스리 헤어","tel":"032-342-8887","addr":"경기도 부천시 역곡동 81-8번지 2층 일부","indutype":"보건위생 - 미용원","category":"beauty"}]},{"lat":"37.486177903","long":"126.81113143","imageIndex":13,"items":[{"name":"극락","tel":"032-347-3818","addr":"경기도 부천시 역곡동 77-5번지 지하층 2호","indutype":"보건위생 - 피부미용실","category":"beauty"},{"name":"퓨어에스테틱","tel":"070-4242-8641","addr":"경기도 부천시 역곡동 77-5번지 2층 201호","indutype":"보건위생 - 피부미용실","category":"beauty"}]},{"lat":"37.485545388","long":"126.8100137","imageIndex":13,"items":[{"name":"글라스스토리 (카톨릭대점)","tel":"070-5136-1001","addr":"경기도 부천시 역곡동 78-7번지 1층","indutype":"보건위생 - 안경","category":"beauty"},{"name":"블루클럽역곡점","tel":"032-347-0770","addr":"경기도 부천시 역곡동 78-7번지","indutype":"보건위생 - 미용원","category":"beauty"}]},{"lat":"37.489428291","long":"126.81537463","imageIndex":13,"items":[{"name":"글로리아미용실","tel":"032-203-9198","addr":"경기도 부천시 역곡동 214-2번지 1층","indutype":"보건위생 - 미용원","category":"beauty"}]},{"lat":"37.484986238","long":"126.80968724","imageIndex":13,"items":[{"name":"김신헤어","tel":"","addr":"경기도 부천시 역곡동 79-2번지 1층 일부","indutype":"보건위생 - 미용원","category":"beauty"}]},{"lat":"37.489072203","long":"126.81243566","imageIndex":13,"items":[{"name":"김옥헤어","tel":"032-345-2136","addr":"경기도 부천시 역곡동 106-8번지 공존펠리체","indutype":"보건위생 - 미용원","category":"beauty"},{"name":"퀸에스테틱","tel":"032-468-7916","addr":"경기도 부천시 역곡동 106-8번지 공존펠리체 1층 102호","indutype":"보건위생 - 피부미용실","category":"beauty"}]},{"lat":"37.488321255","long":"126.81612366","imageIndex":13,"items":[{"name":"김윤희헤어","tel":"032-343-6767","addr":"경기도 부천시 역곡동 220-7번지 1층","indutype":"보건위생 - 미용원","category":"beauty"}]},{"lat":"37.489459012","long":"126.81771514","imageIndex":13,"items":[{"name":"까까머리미용실","tel":"032-342-3384","addr":"경기도 부천시 역곡동 227-5번지 1층","indutype":"보건위생 - 미용원","category":"beauty"}]},{"lat":"37.4855453","long":"126.80451869","imageIndex":13,"items":[{"name":"까꼬뽀꼬","tel":"032-342-4072","addr":"경기도 부천시 역곡동 28-3번지","indutype":"보건위생 - 미용원","category":"beauty"}]},{"lat":"37.483072443","long":"126.80207177","imageIndex":13,"items":[{"name":"까망헤어","tel":"070-8939-7935","addr":"경기도 부천시 역곡동 25-10번지 은성하이츠빌 102호","indutype":"보건위생 - 미용원","category":"beauty"}]},{"lat":"37.486122162","long":"126.80465284","imageIndex":13,"items":[{"name":"꾸밈","tel":"032-345-2153","addr":"경기도 부천시 역곡동 29-19번지","indutype":"보건위생 - 화장품","category":"beauty"}]},{"lat":"37.489153729","long":"126.81270683","imageIndex":13,"items":[{"name":"끌레르에스테틱","tel":"032-345-8472","addr":"경기도 부천시 역곡동 106-4번지 장미연립 105호","indutype":"보건위생 - 피부미용실","category":"beauty"}]},{"lat":"37.485789835","long":"126.81073669","imageIndex":13,"items":[{"name":"나래아동발달센터","tel":"032-346-8886","addr":"경기도 부천시 역곡동 77-9번지 남광빌딩 5층","indutype":"보건위생 - 기타대인서비스","category":"beauty"}]},{"lat":"37.489788737","long":"126.80981056","imageIndex":13,"items":[{"name":"나스타염색","tel":"032-349-6777","addr":"경기도 부천시 역곡동 99-6번지 위브빌 위브빌 나동 101호","indutype":"보건위생 - 미용원","category":"beauty"}]},{"lat":"37.483818086","long":"126.80079216","imageIndex":13,"items":[{"name":"나실패밀리","tel":"","addr":"경기도 부천시 역곡동 21-4번지 부일빌딩 3층","indutype":"보건위생 - 화장품","category":"beauty"}]},{"lat":"37.486593165","long":"126.81162787","imageIndex":13,"items":[{"name":"나애속눈썹","tel":"032-341-0337","addr":"경기도 부천시 역곡동 83-24번지","indutype":"보건위생 - 기타대인서비스","category":"beauty"}]},{"lat":"37.489655346","long":"126.81651609","imageIndex":13,"items":[{"name":"남자이야기","tel":"031-222-2222","addr":"경기도 부천시 역곡동 225-24번지 다소망빌 201호 일부","indutype":"보건위생 - 미용원","category":"beauty"}]},{"lat":"37.485538604","long":"126.81138181","imageIndex":13,"items":[{"name":"네이처컬렉션 역곡북부역점","tel":"032-349-2221","addr":"경기도 부천시 역곡동 80-5번지 덕지빌딩 1층 103호","indutype":"보건위생 - 화장품","category":"beauty"},{"name":"네일예쁘다","tel":"031-000-0000","addr":"경기도 부천시 역곡동 80-5번지 덕지빌딩 1001호내108호","indutype":"보건위생 - 피부미용실","category":"beauty"},{"name":"누가의료기역곡점","tel":"032-343-7575","addr":"경기도 부천시 역곡동 80-5번지 701호 702호","indutype":"보건위생 - 의료용품","category":"beauty"},{"name":"리안예향","tel":"032-342-3455","addr":"경기도 부천시 역곡동 80-5번지 역곡덕지빌딩 301호","indutype":"보건위생 - 화장품","category":"beauty"},{"name":"연세보청기","tel":"032-345-3603","addr":"경기도 부천시 역곡동 80-5번지 덕지빌딩 401호","indutype":"보건위생 - 의료용품","category":"beauty"},{"name":"오렌즈 부천역곡점","tel":"032-348-2016","addr":"경기도 부천시 역곡동 80-5번지 덕지빌딩 1층 104호","indutype":"보건위생 - 안경","category":"beauty"},{"name":"와이케이(YK)안경","tel":"032-342-0336","addr":"경기도 부천시 역곡동 80-5번지 덕지빌딩 502호","indutype":"보건위생 - 안경","category":"beauty"},{"name":"으뜸플러스 역곡점","tel":"","addr":"경기도 부천시 역곡동 80-5번지 덕지빌딩 3층 302호","indutype":"보건위생 - 안경","category":"beauty"},{"name":"토니모리/주식회사 색칠하기","tel":"032-341-9907","addr":"경기도 부천시 역곡동 80-5번지 덕지빌딩 105호","indutype":"보건위생 - 화장품","category":"beauty"}]},{"lat":"37.488100207","long":"126.80757613","imageIndex":13,"items":[{"name":"네일,바라봄","tel":"","addr":"경기도 부천시 역곡동 70번지 1층","indutype":"보건위생 - 피부미용실","category":"beauty"}]},{"lat":"37.487377703","long":"126.81204422","imageIndex":13,"items":[{"name":"누가의료기 분당 야탑점","tel":"032-343-9033","addr":"경기도 부천시 역곡동 84-8번지 2층","indutype":"보건위생 - 의료용품","category":"beauty"},{"name":"지윤미용실","tel":"032-343-1619","addr":"경기도 부천시 역곡동 84-8번지 삼성빌딩 407호","indutype":"보건위생 - 미용원","category":"beauty"}]},{"lat":"37.486402967","long":"126.81101779","imageIndex":13,"items":[{"name":"다본다 안경","tel":"032-351-1001","addr":"경기도 부천시 역곡동 76-6번지 3층","indutype":"보건위생 - 안경","category":"beauty"}]},{"lat":"37.488347615","long":"126.81009695","imageIndex":13,"items":[{"name":"닥터웰의료기백화점","tel":"032-677-7111","addr":"경기도 부천시 역곡동 73-7번지 1층","indutype":"보건위생 - 의료용품","category":"beauty"}]},{"lat":"37.48492861","long":"126.80751654","imageIndex":13,"items":[{"name":"담네일(DAMNAIL)","tel":"070-2699-0807","addr":"경기도 부천시 역곡동 50-12번지 바우팰리스 1층 101호","indutype":"보건위생 - 피부미용실","category":"beauty"}]},{"lat":"37.487709678","long":"126.81118405","imageIndex":13,"items":[{"name":"더네일","tel":"032-341-1256","addr":"경기도 부천시 역곡동 85-4번지 C동 1층","indutype":"보건위생 - 피부미용실","category":"beauty"},{"name":"미체담","tel":"","addr":"경기도 부천시 역곡동 85-4번지 다동 1층 일부","indutype":"보건위생 - 화장품","category":"beauty"},{"name":"보경헤어","tel":"032-341-3438","addr":"경기도 부천시 역곡동 85-4번지 씨동 1호 일부","indutype":"보건위생 - 미용원","category":"beauty"}]},{"lat":"37.487952909","long":"126.81116082","imageIndex":13,"items":[{"name":"더미인","tel":"032-345-5079","addr":"경기도 부천시 역곡동 85-9번지 2층 203호","indutype":"보건위생 - 피부미용실","category":"beauty"},{"name":"조은 피부앤바디","tel":"","addr":"경기도 부천시 역곡동 85-9번지 1층 3호","indutype":"보건위생 - 피부미용실","category":"beauty"},{"name":"한국메디칼","tel":"032-345-1280","addr":"경기도 부천시 역곡동 85-9번지 2층 3호","indutype":"보건위생 - 의료용품","category":"beauty"}]},{"lat":"37.485176351","long":"126.81024078","imageIndex":13,"items":[{"name":"더뷰티스킨","tel":"","addr":"경기도 부천시 역곡동 79-5번지 3층","indutype":"보건위생 - 피부미용실","category":"beauty"}]},{"lat":"37.484703493","long":"126.80759627","imageIndex":13,"items":[{"name":"더브로맨스","tel":"032-342-5005","addr":"경기도 부천시 역곡동 50-11번지","indutype":"보건위생 - 미용원","category":"beauty"}]},{"lat":"37.489566762","long":"126.81182382","imageIndex":13,"items":[{"name":"더비욘드스타일제이","tel":"070-8734-1228","addr":"경기도 부천시 역곡동 107번지 J팰리스 1층 101호","indutype":"보건위생 - 미용원","category":"beauty"}]},{"lat":"37.486152082","long":"126.81187774","imageIndex":13,"items":[{"name":"도쿄미용실","tel":"032-341-6686","addr":"경기도 부천시 역곡동 82-9번지","indutype":"보건위생 - 미용원","category":"beauty"}]},{"lat":"37.486486398","long":"126.81246484","imageIndex":13,"items":[{"name":"두손안마지압원","tel":"032-346-8875","addr":"경기도 부천시 역곡동 82-5번지 준프라자 208호","indutype":"보건위생 - 기타대인서비스","category":"beauty"},{"name":"러브온미역곡점","tel":"031-864-9007","addr":"경기도 부천시 역곡동 82-5번지 준프라자 4층 403호","indutype":"보건위생 - 피부미용실","category":"beauty"},{"name":"샐리 피부미용관리","tel":"032-343-7100","addr":"경기도 부천시 역곡동 82-5번지 2층 203호","indutype":"보건위생 - 피부미용실","category":"beauty"},{"name":"클럽밸런스5역곡점","tel":"032-341-7400","addr":"경기도 부천시 역곡동 82-5번지 준프라자 2층 201호","indutype":"보건위생 - 의료용품","category":"beauty"}]},{"lat":"37.485458131","long":"126.80627144","imageIndex":13,"items":[{"name":"디자이너바이로라","tel":"032-000-0000","addr":"경기도 부천시 역곡동 36-19번지 1층","indutype":"보건위생 - 미용원","category":"beauty"}]},{"lat":"37.489511217","long":"126.81090808","imageIndex":13,"items":[{"name":"라붐헤어","tel":"032-341-3294","addr":"경기도 부천시 역곡동 98-8번지 명성홈타운 102호","indutype":"보건위생 - 미용원","category":"beauty"}]},{"lat":"37.489066168","long":"126.81429005","imageIndex":13,"items":[{"name":"란쓰뷰티","tel":"","addr":"경기도 부천시 역곡동 201-4번지 1층","indutype":"보건위생 - 피부미용실","category":"beauty"},{"name":"쉬크헤어","tel":"032-346-5329","addr":"경기도 부천시 역곡동 201-4번지","indutype":"보건위생 - 미용원","category":"beauty"}]},{"lat":"37.488457775","long":"126.81135175","imageIndex":13,"items":[{"name":"럭키가이","tel":"","addr":"경기도 부천시 역곡동 97-6번지 에이빌하우스 114호","indutype":"보건위생 - 이용원","category":"beauty"},{"name":"이나헤어샵","tel":"032-341-2211","addr":"경기도 부천시 역곡동 97-6번지 에이빌하우스 1층 111호","indutype":"보건위생 - 미용원","category":"beauty"},{"name":"임준헤어","tel":"032-343-7638","addr":"경기도 부천시 역곡동 97-6번지 에이빌하우스 111호","indutype":"보건위생 - 미용원","category":"beauty"}]},{"lat":"37.485737718","long":"126.81193533","imageIndex":13,"items":[{"name":"렌즈미역곡","tel":"032-349-8399","addr":"경기도 부천시 역곡동 81번지 1층 105호","indutype":"보건위생 - 안경","category":"beauty"},{"name":"미샤","tel":"032-349-9490","addr":"경기도 부천시 역곡동 81번지 1층","indutype":"보건위생 - 화장품","category":"beauty"}]},{"lat":"37.485539537","long":"126.81195845","imageIndex":13,"items":[{"name":"로이드밤","tel":"032-342-3122","addr":"경기도 부천시 역곡동 81-7번지 2층","indutype":"보건위생 - 미용원","category":"beauty"}]},{"lat":"37.485900663","long":"126.81240979","imageIndex":13,"items":[{"name":"루체","tel":"032-342-0282","addr":"경기도 부천시 역곡동 81-9번지 102호","indutype":"보건위생 - 화장품","category":"beauty"},{"name":"아우라뷰티","tel":"070-8829-3106","addr":"경기도 부천시 역곡동 81-9번지 1층 5호","indutype":"보건위생 - 화장품","category":"beauty"},{"name":"아우라헤어","tel":"032-344-3106","addr":"경기도 부천시 역곡동 81-9번지 1층 5호","indutype":"보건위생 - 미용원","category":"beauty"}]},{"lat":"37.48970297","long":"126.81815552","imageIndex":13,"items":[{"name":"리즈미용실","tel":"032-347-1232","addr":"경기도 부천시 역곡동 243-23번지 17동","indutype":"보건위생 - 미용원","category":"beauty"}]},{"lat":"37.488178963","long":"126.81165775","imageIndex":13,"items":[{"name":"마리아제미용실","tel":"032-341-9821","addr":"경기도 부천시 역곡동 85-7번지 칠성상가내마리아제","indutype":"보건위생 - 미용원","category":"beauty"}]},{"lat":"37.486568651","long":"126.81318827","imageIndex":13,"items":[{"name":"마임부천북부지사","tel":"032-348-2676","addr":"경기도 부천시 역곡동 111-9번지 ,9,13로하스타워 401호","indutype":"보건위생 - 화장품","category":"beauty"},{"name":"아동발달연구소마음","tel":"032-347-2510","addr":"경기도 부천시 역곡동 111-9번지 로하스타워 803호","indutype":"보건위생 - 기타대인서비스","category":"beauty"},{"name":"아엠뷰티","tel":"032-346-0999","addr":"경기도 부천시 역곡동 111-9번지 로하스타워 2층 203호","indutype":"보건위생 - 미용원","category":"beauty"}]},{"lat":"37.484207406","long":"126.80726968","imageIndex":13,"items":[{"name":"명품의료기","tel":"032-612-8887","addr":"경기도 부천시 역곡동 48-5번지 지층","indutype":"보건위생 - 의료용품","category":"beauty"}]},{"lat":"37.488845292","long":"126.81140729","imageIndex":13,"items":[{"name":"모델헤어샵","tel":"032-341-5340","addr":"경기도 부천시 역곡동 97-18번지","indutype":"보건위생 - 미용원","category":"beauty"}]},{"lat":"37.48559594","long":"126.80787662","imageIndex":13,"items":[{"name":"묘니컴퍼니","tel":"02-6292-2623","addr":"경기도 부천시 역곡동 408번지 역곡e-편한세상5차아파트","indutype":"보건위생 - 화장품","category":"beauty"}]},{"lat":"37.487181724","long":"126.81343547","imageIndex":13,"items":[{"name":"미(  )랑헤어","tel":"032-341-3339","addr":"경기도 부천시 역곡동 110-17번지 신승스카이빌 101호","indutype":"보건위생 - 미용원","category":"beauty"}]},{"lat":"37.48445746","long":"126.80059823","imageIndex":13,"items":[{"name":"미가래헤어","tel":"032-351-3671","addr":"경기도 부천시 역곡동 21-8번지 1층","indutype":"보건위생 - 미용원","category":"beauty"},{"name":"에코수협동조합","tel":"032-221-0909","addr":"경기도 부천시 역곡동 21-8번지","indutype":"보건위생 - 화장품","category":"beauty"}]},{"lat":"37.488289919","long":"126.80788092","imageIndex":13,"items":[{"name":"미나헤어","tel":"032-349-5760","addr":"경기도 부천시 역곡동 70-2번지 1층","indutype":"보건위생 - 미용원","category":"beauty"}]},{"lat":"37.489542063","long":"126.8132712","imageIndex":13,"items":[{"name":"미미헤어","tel":"032-342-4555","addr":"경기도 부천시 역곡동 202번지 우림루미아트 상가 101호","indutype":"보건위생 - 미용원","category":"beauty"}]},{"lat":"37.486259762","long":"126.81160611","imageIndex":13,"items":[{"name":"미소마사지","tel":"032-341-5401","addr":"경기도 부천시 역곡동 82-1번지 3층","indutype":"보건위생 - 피부미용실","category":"beauty"}]},{"lat":"37.491513301","long":"126.81206763","imageIndex":13,"items":[{"name":"미플샵","tel":"032-655-5342","addr":"경기도 부천시 역곡동 411동부센트레빌상가102","indutype":"보건위생 - 미용원","category":"beauty"}]},{"lat":"37.488294293","long":"126.81054937","imageIndex":13,"items":[{"name":"바스코헤어","tel":"032-245-1447","addr":"경기도 부천시 역곡동 86-5번지 1층","indutype":"보건위생 - 미용원","category":"beauty"}]},{"lat":"37.486873769","long":"126.81242994","imageIndex":13,"items":[{"name":"박경헤어월드","tel":"032-342-7633","addr":"경기도 부천시 역곡동 83-7번지","indutype":"보건위생 - 미용원","category":"beauty"},{"name":"설화화장품","tel":"032-342-7715","addr":"경기도 부천시 역곡동 83-7번지","indutype":"보건위생 - 화장품","category":"beauty"}]},{"lat":"37.487953989","long":"126.81182793","imageIndex":13,"items":[{"name":"별화장품","tel":"032-343-8941","addr":"경기도 부천시 역곡동 85-6번지","indutype":"보건위생 - 화장품","category":"beauty"}]},{"lat":"37.486181352","long":"126.81326839","imageIndex":13,"items":[{"name":"봉헤어","tel":"032-345-0562","addr":"경기도 부천시 역곡동 112번지 1층 3호","indutype":"보건위생 - 미용원","category":"beauty"}]},{"lat":"37.485014001","long":"126.80468969","imageIndex":13,"items":[{"name":"뷰티갤러리","tel":"070-8861-3009","addr":"경기도 부천시 역곡동 28-6번지 우리그린빌 101호","indutype":"보건위생 - 화장품","category":"beauty"}]},{"lat":"37.485484177","long":"126.81115582","imageIndex":13,"items":[{"name":"뷰티인미","tel":"031-111-1111","addr":"경기도 부천시 역곡동 80-4번지 백강빌딩 707호","indutype":"보건위생 - 피부미용실","category":"beauty"},{"name":"비비드뷰티샵","tel":"032-000-0000","addr":"경기도 부천시 역곡동 80-4번지 백강빌딩 506호","indutype":"보건위생 - 피부미용실","category":"beauty"},{"name":"아리따움 역곡역북부점","tel":"032-344-3996","addr":"경기도 부천시 역곡동 80-4번지 백강빌딩 1층 일부","indutype":"보건위생 - 화장품","category":"beauty"},{"name":"왕족","tel":"032-665-3660","addr":"경기도 부천시 역곡동 80-4번지 백강빌딩","indutype":"보건위생 - 화장품","category":"beauty"}]},{"lat":"37.485874561","long":"126.8129865","imageIndex":13,"items":[{"name":"사단법인소리샘(분사무소)","tel":"032-346-8880","addr":"경기도 부천시 역곡동 81-12번지 오복빌딩 3층","indutype":"보건위생 - 기타대인서비스","category":"beauty"},{"name":"온누리헬스케어","tel":"032-661-2201","addr":"경기도 부천시 역곡동 81-12번지 오복빌딩 5층","indutype":"보건위생 - 의료용품","category":"beauty"}]},{"lat":"37.490819813","long":"126.812239","imageIndex":13,"items":[{"name":"살롱라디언트 (Salon Radiant)","tel":"032-1899-3272","addr":"경기도 부천시 역곡동 203-2번지 1층 일부","indutype":"보건위생 - 미용원","category":"beauty"}]},{"lat":"37.488177293","long":"126.81062882","imageIndex":13,"items":[{"name":"샤인피부미용","tel":"032-348-5111","addr":"경기도 부천시 역곡동 86-4번지 301호","indutype":"보건위생 - 화장품","category":"beauty"}]},{"lat":"37.486931933","long":"126.80941087","imageIndex":13,"items":[{"name":"샤인헤어","tel":"070-7543-2888","addr":"경기도 부천시 역곡동 74-2번지 역곡역이편한세상 206동 111호","indutype":"보건위생 - 미용원","category":"beauty"},{"name":"홀릭","tel":"032-342-3982","addr":"경기도 부천시 역곡동 74-2번지 역곡역이편한세상 206동 103호","indutype":"보건위생 - 화장품","category":"beauty"}]},{"lat":"37.485295029","long":"126.80571784","imageIndex":13,"items":[{"name":"설이헤어라인","tel":"032-341-3862","addr":"경기도 부천시 역곡동 36-15번지 1층","indutype":"보건위생 - 미용원","category":"beauty"}]},{"lat":"37.489403906","long":"126.81140587","imageIndex":13,"items":[{"name":"센스헤어","tel":"032-349-7775","addr":"경기도 부천시 역곡동 107-13번지","indutype":"보건위생 - 미용원","category":"beauty"}]},{"lat":"37.483489921","long":"126.80385705","imageIndex":13,"items":[{"name":"셀레브헤어","tel":"","addr":"경기도 부천시 역곡동 27-14번지 102호","indutype":"보건위생 - 미용원","category":"beauty"},{"name":"우노메디칼","tel":"032-341-7985","addr":"경기도 부천시 역곡동 27-14번지 우송빌딩 1층","indutype":"보건위생 - 의료용품","category":"beauty"}]},{"lat":"37.488679483","long":"126.80918022","imageIndex":13,"items":[{"name":"송림메딕스","tel":"032-345-7672","addr":"경기도 부천시 역곡동 72-4번지 202호","indutype":"보건위생 - 의료용품","category":"beauty"},{"name":"언어인지센터 연","tel":"032-346-3996","addr":"경기도 부천시 역곡동 72-4번지 2층 201호","indutype":"보건위생 - 기타대인서비스","category":"beauty"}]},{"lat":"37.484649022","long":"126.80734767","imageIndex":13,"items":[{"name":"수려각","tel":"032-0000-0000","addr":"경기도 부천시 역곡동 45-14번지 102호","indutype":"보건위생 - 미용원","category":"beauty"}]},{"lat":"37.486902208","long":"126.80777146","imageIndex":13,"items":[{"name":"수아헤어","tel":"032-345-5730","addr":"경기도 부천시 역곡동 53-2번지","indutype":"보건위생 - 미용원","category":"beauty"}]},{"lat":"37.490459782","long":"126.81246606","imageIndex":13,"items":[{"name":"수양헤어","tel":"032-345-5022","addr":"경기도 부천시 역곡동 203-6번지","indutype":"보건위생 - 미용원","category":"beauty"}]},{"lat":"37.48598228","long":"126.81273748","imageIndex":13,"items":[{"name":"스타일스토리","tel":"032-675-1492","addr":"경기도 부천시 역곡동 81-1번지 일부 2층","indutype":"보건위생 - 미용원","category":"beauty"},{"name":"젤라","tel":"032-344-5651","addr":"경기도 부천시 역곡동 81-1번지","indutype":"보건위생 - 이용원","category":"beauty"}]},{"lat":"37.486487162","long":"126.81293972","imageIndex":13,"items":[{"name":"시몬","tel":"032-343-0201","addr":"경기도 부천시 역곡동 111-10번지 3층","indutype":"보건위생 - 미용재료","category":"beauty"}]},{"lat":"37.488982777","long":"126.81285425","imageIndex":13,"items":[{"name":"신데렐라헤어","tel":"032-343-9013","addr":"경기도 부천시 역곡동 106-5번지","indutype":"보건위생 - 미용원","category":"beauty"}]},{"lat":"37.486929482","long":"126.81345872","imageIndex":13,"items":[{"name":"아이비헬스","tel":"032-710-3465","addr":"경기도 부천시 역곡동 111-2번지 청도포그니에 101동 106호","indutype":"보건위생 - 의료용품","category":"beauty"}]},{"lat":"37.484850313","long":"126.80921272","imageIndex":13,"items":[{"name":"아이케어안경원","tel":"032-347-1004","addr":"경기도 부천시 역곡동 79번지 역곡 S프러스 근린생활 빌딩 102호","indutype":"보건위생 - 안경","category":"beauty"},{"name":"팜스","tel":"032-341-2235","addr":"경기도 부천시 역곡동 79번지 역곡 S프러스 근린생활 빌딩 301호","indutype":"보건위생 - 화장품","category":"beauty"}]},{"lat":"37.48665023","long":"126.81349334","imageIndex":13,"items":[{"name":"아이패밀리(역곡점)","tel":"032-341-1005","addr":"경기도 부천시 역곡동 111-11번지","indutype":"보건위생 - 안경","category":"beauty"}]},{"lat":"37.488041057","long":"126.80996205","imageIndex":13,"items":[{"name":"아잉","tel":"","addr":"경기도 부천시 역곡동 73-10번지 1층 일부","indutype":"보건위생 - 피부미용실","category":"beauty"},{"name":"아트헤어","tel":"032-341-4875","addr":"경기도 부천시 역곡동 73-10번지 1층 일부","indutype":"보건위생 - 미용원","category":"beauty"}]},{"lat":"37.489679823","long":"126.80932463","imageIndex":13,"items":[{"name":"양언니네일","tel":"032-347-5667","addr":"경기도 부천시 역곡동 66-16번지 101호","indutype":"보건위생 - 화장품","category":"beauty"}]},{"lat":"37.485961886","long":"126.81126767","imageIndex":13,"items":[{"name":"에뛰드하우스역곡점","tel":"032-346-8834","addr":"경기도 부천시 역곡동 77-6번지 스카이빌딩 102호","indutype":"보건위생 - 화장품","category":"beauty"},{"name":"주식회사 비티씨코리아","tel":"032-000-0000","addr":"경기도 부천시 역곡동 77-6번지 스카이빌딩 802호","indutype":"보건위생 - 화장품","category":"beauty"}]},{"lat":"37.48975946","long":"126.81399432","imageIndex":13,"items":[{"name":"에이치헤어디자인","tel":"032-341-6118","addr":"경기도 부천시 역곡동 202-1번지 대림e편한세상1차아파트 상가동 102호","indutype":"보건위생 - 미용원","category":"beauty"}]},{"lat":"37.490542196","long":"126.8189902","imageIndex":13,"items":[{"name":"엘아이엠에이치케이헤어포인트(Lim H.K)","tel":"032-210-9080","addr":"경기도 부천시 역곡동 246-6번지 1층","indutype":"보건위생 - 미용원","category":"beauty"}]},{"lat":"37.486288125","long":"126.81243142","imageIndex":13,"items":[{"name":"엘유코리아(L.U KOREA)","tel":"032-348-2018","addr":"경기도 부천시 역곡동 82-7번지 2층","indutype":"보건위생 - 미용재료","category":"beauty"}]},{"lat":"37.489098027","long":"126.81168933","imageIndex":13,"items":[{"name":"열손가락헤어","tel":"032-7417-7545","addr":"경기도 부천시 역곡동 107-11번지 공존펠리채 103호","indutype":"보건위생 - 미용원","category":"beauty"}]},{"lat":"37.484592841","long":"126.80607019","imageIndex":13,"items":[{"name":"예진헤어샵","tel":"032-345-1396","addr":"경기도 부천시 역곡동 45-8번지","indutype":"보건위생 - 미용원","category":"beauty"}]},{"lat":"37.4909819","long":"126.81218205","imageIndex":13,"items":[{"name":"오땡큐","tel":"032-341-8283","addr":"경기도 부천시 역곡동 203번지","indutype":"보건위생 - 화장품","category":"beauty"}]},{"lat":"37.486767152","long":"126.80782835","imageIndex":13,"items":[{"name":"오샤레","tel":"032-347-5880","addr":"경기도 부천시 역곡동 53-3번지 1층","indutype":"보건위생 - 이용원","category":"beauty"}]},{"lat":"37.485427724","long":"126.80968611","imageIndex":13,"items":[{"name":"용일사","tel":"032-344-1717","addr":"경기도 부천시 역곡동 78-9번지","indutype":"보건위생 - 미용재료","category":"beauty"}]},{"lat":"37.486043689","long":"126.81170842","imageIndex":13,"items":[{"name":"이가자헤어비스역곡역점","tel":"032-345-8322","addr":"경기도 부천시 역곡동 82-10번지 오킴스타워3층,301~302호","indutype":"보건위생 - 미용원","category":"beauty"}]},{"lat":"37.488154575","long":"126.81329733","imageIndex":13,"items":[{"name":"이레헤어","tel":"032-667-1035","addr":"경기도 부천시 역곡동 109-5번지 대원빌딩 1층 102호","indutype":"보건위생 - 미용원","category":"beauty"}]},{"lat":"37.487565116","long":"126.81093567","imageIndex":13,"items":[{"name":"이봄헤어","tel":"032-221-0207","addr":"경기도 부천시 역곡동 85-3번지 1층","indutype":"보건위생 - 미용원","category":"beauty"},{"name":"태후사랑 역곡점","tel":"032-341-9747","addr":"경기도 부천시 역곡동 85-3번지 3호","indutype":"보건위생 - 화장품","category":"beauty"}]},{"lat":"37.483677755","long":"126.8030425","imageIndex":13,"items":[{"name":"자르세헤어","tel":"032-345-7698","addr":"경기도 부천시 역곡동 23-1번지 한도상가 1층 6호","indutype":"보건위생 - 미용원","category":"beauty"}]},{"lat":"37.487932439","long":"126.80965704","imageIndex":13,"items":[{"name":"자예심리상담연구소","tel":"032-343-0580","addr":"경기도 부천시 역곡동 73-12번지 아너스빌 2층 201호","indutype":"보건위생 - 기타대인서비스","category":"beauty"}]},{"lat":"37.487009073","long":"126.80701363","imageIndex":13,"items":[{"name":"정윤정헤어샵","tel":"032-343-9117","addr":"경기도 부천시 역곡동 62-37 1층","indutype":"보건위생 - 미용원","category":"beauty"}]},{"lat":"37.487237212","long":"126.81432857","imageIndex":13,"items":[{"name":"정헤어앤스킨","tel":"032-345-1243","addr":"경기도 부천시 역곡동 114-3번지 청암아파트","indutype":"보건위생 - 미용원","category":"beauty"}]},{"lat":"37.488540965","long":"126.81265185","imageIndex":13,"items":[{"name":"정현헤어","tel":"032-345-2141","addr":"경기도 부천시 역곡동 108-10번지 1층","indutype":"보건위생 - 미용원","category":"beauty"}]},{"lat":"37.487317307","long":"126.81370649","imageIndex":13,"items":[{"name":"정화약손테라피","tel":"032-341-0788","addr":"경기도 부천시 역곡동 110-8번지 1층 일부","indutype":"보건위생 - 미용원","category":"beauty"}]},{"lat":"37.484350364","long":"126.8065457","imageIndex":13,"items":[{"name":"좋은느낌헤어샵","tel":"032-328-4639","addr":"경기도 부천시 역곡동 45-36번지 1층 102호","indutype":"보건위생 - 미용원","category":"beauty"}]},{"lat":"37.491341957","long":"126.81763134","imageIndex":13,"items":[{"name":"주식회사 홍이화","tel":"070-4184-8543","addr":"경기도 부천시 역곡동 24-3번지 2층","indutype":"보건위생 - 미용재료","category":"beauty"}]},{"lat":"37.486647499","long":"126.81179733","imageIndex":13,"items":[{"name":"천왕","tel":"","addr":"경기도 부천시 역곡동 83-23번지","indutype":"보건위생 - 화장품","category":"beauty"}]},{"lat":"37.490373862","long":"126.80949245","imageIndex":13,"items":[{"name":"초이핸드","tel":"032-342-6783","addr":"경기도 부천시 역곡동 100-8번지 세종빌딩 101호","indutype":"보건위생 - 화장품","category":"beauty"}]},{"lat":"37.486044882","long":"126.806937","imageIndex":13,"items":[{"name":"컷트3","tel":"070-4327-1609","addr":"경기도 부천시 역곡동 52-8번지 역곡RAUM2차 101호","indutype":"보건위생 - 미용원","category":"beauty"}]},{"lat":"37.488623217","long":"126.81337529","imageIndex":13,"items":[{"name":"큐사랑 역곡점","tel":"032-348-7329","addr":"경기도 부천시 역곡동 201-23번지 1층","indutype":"보건위생 - 미용재료","category":"beauty"},{"name":"클린스킨케어","tel":"032-347-9971","addr":"경기도 부천시 역곡동 201-23 1층","indutype":"보건위생 - 화장품","category":"beauty"}]},{"lat":"37.488100153","long":"126.81307132","imageIndex":13,"items":[{"name":"큐티헤어네일","tel":"032-345-3689","addr":"경기도 부천시 역곡동 109-4번지 삼경에버그린 101호","indutype":"보건위생 - 미용원","category":"beauty"}]},{"lat":"37.488620759","long":"126.81184884","imageIndex":13,"items":[{"name":"타임플러스","tel":"070-7358-0904","addr":"경기도 부천시 역곡동 107-8번지 1층","indutype":"보건위생 - 미용원","category":"beauty"}]},{"lat":"37.488121586","long":"126.81520829","imageIndex":13,"items":[{"name":"토마토헤어샵","tel":"032-351-1257","addr":"경기도 부천시 역곡동 114-8번지 명성홈타운 101호 일부","indutype":"보건위생 - 미용원","category":"beauty"}]},{"lat":"37.489565497","long":"126.81104362","imageIndex":13,"items":[{"name":"톡톡헤어","tel":"032-342-5252","addr":"경기도 부천시 역곡동 98-17번지 명설빌라 102호","indutype":"보건위생 - 미용원","category":"beauty"}]},{"lat":"37.48853791","long":"126.81076358","imageIndex":13,"items":[{"name":"티나헤어","tel":"032-344-8571","addr":"경기도 부천시 역곡동 86-2번지 보은포레스트아파트 1층 101호","indutype":"보건위생 - 미용원","category":"beauty"}]},{"lat":"37.487566911","long":"126.81204374","imageIndex":13,"items":[{"name":"피부짱 화장품","tel":"032-345-0978","addr":"경기도 부천시 역곡동 84-6번지","indutype":"보건위생 - 화장품","category":"beauty"}]},{"lat":"37.487064889","long":"126.80807632","imageIndex":13,"items":[{"name":"하루헤어","tel":"032-344-6600","addr":"경기도 부천시 역곡동 74번지 우리팰리스 101호","indutype":"보건위생 - 미용원","category":"beauty"}]},{"lat":"37.483428332","long":"126.79943646","imageIndex":13,"items":[{"name":"하이헤어샵","tel":"032-349-1465","addr":"경기도 부천시 역곡동 19번지 금강맨션 1동 103호","indutype":"보건위생 - 미용원","category":"beauty"}]},{"lat":"37.486703164","long":"126.81279219","imageIndex":13,"items":[{"name":"한빛나노메디칼역곡지점","tel":"032-346-7599","addr":"경기도 부천시 역곡동 111번지 덕평빌딩 4층","indutype":"보건위생 - 의료용품","category":"beauty"}]},{"lat":"37.489791057","long":"126.81123527","imageIndex":13,"items":[{"name":"해바라기미용실","tel":"032-344-5262","addr":"경기도 부천시 역곡동 103-20번지","indutype":"보건위생 - 미용원","category":"beauty"}]},{"lat":"37.487539229","long":"126.80615292","imageIndex":13,"items":[{"name":"햇빛나눔","tel":"","addr":"경기도 부천시 역곡동 63-10번지","indutype":"보건위생 - 의료용품","category":"beauty"}]},{"lat":"37.486014706","long":"126.80504886","imageIndex":13,"items":[{"name":"행복나눔안경(가톨릭대점)","tel":"032-221-5335","addr":"경기도 부천시 역곡동 34번지 거남빌딩 1층","indutype":"보건위생 - 안경","category":"beauty"}]},{"lat":"37.483072116","long":"126.80187957","imageIndex":13,"items":[{"name":"헝클머리","tel":"032-341-7917","addr":"경기도 부천시 역곡동 25번지103호","indutype":"보건위생 - 미용원","category":"beauty"}]},{"lat":"37.487599073","long":"126.8096579","imageIndex":13,"items":[{"name":"헤어라인","tel":"070-7761-0331","addr":"경기도 부천시 역곡동 74-111번지 양지타운 1층층 101호","indutype":"보건위생 - 미용원","category":"beauty"}]},{"lat":"37.483925411","long":"126.80032831","imageIndex":13,"items":[{"name":"헤어락","tel":"032-675-9073","addr":"경기도 부천시 역곡동 18-11번지","indutype":"보건위생 - 미용원","category":"beauty"}]},{"lat":"37.487541938","long":"126.81332149","imageIndex":13,"items":[{"name":"헤어블룸","tel":"032-344-5780","addr":"경기도 부천시 역곡동 110-5번지 거성타운 가동 1층 102호","indutype":"보건위생 - 미용원","category":"beauty"}]},{"lat":"37.485426408","long":"126.80888334","imageIndex":13,"items":[{"name":"헤어스페이스","tel":"032-341-0288","addr":"경기도 부천시 역곡동 78번지 금강빌딩 1층","indutype":"보건위생 - 미용원","category":"beauty"}]},{"lat":"37.488903104","long":"126.81373641","imageIndex":13,"items":[{"name":"헤어카라","tel":"032-345-6264","addr":"경기도 부천시 역곡동 201-2번지 쌍둥이빌딩 1층","indutype":"보건위생 - 미용원","category":"beauty"}]},{"lat":"37.488370541","long":"126.81312717","imageIndex":13,"items":[{"name":"헤어클럽K","tel":"032-349-8788","addr":"경기도 부천시 역곡동 108-7번지 가동 1층","indutype":"보건위생 - 미용원","category":"beauty"}]},{"lat":"37.48445379","long":"126.80374143","imageIndex":13,"items":[{"name":"화인","tel":"02-3486-5883","addr":"경기도 부천시 역곡동 27-81번지 3층","indutype":"보건위생 - 화장품","category":"beauty"}]},{"lat":"37.485349396","long":"126.8113823","imageIndex":13,"items":[{"name":"황실 체형관리","tel":"032-348-8804","addr":"경기도 부천시 역곡동 80-7번지 신암빌딩","indutype":"보건위생 - 피부미용실","category":"beauty"}]}]