[{"lat":"37.712019411","long":"127.18730825","imageIndex":13,"items":[{"name":"4M필라테스","tel":"031-575-5411","addr":"경기도 남양주시 진접읍 금곡리 1082-2번지 3층 301호","indutype":"레저업소 - 헬스클럽","category":"leisure"},{"name":"진접스쿼시클럽","tel":"031-572-8872","addr":"경기도 남양주시 진접읍 금곡리 1082-2번지 라온 상가 5동 전층","indutype":"레저업소 - 헬스클럽","category":"leisure"},{"name":"툰","tel":"070-8780-2150","addr":"경기도 남양주시 진접읍 금곡리 1082-2번지 4층 401호","indutype":"레저업소 - 기타레져업소","category":"leisure"}]},{"lat":"37.721103025","long":"127.20269959","imageIndex":13,"items":[{"name":"M핫요가","tel":"031-529-0278","addr":"경기도 남양주시 진접읍 금곡리 1021번지 6층602,603,604,605호","indutype":"레저업소 - 헬스클럽","category":"leisure"}]},{"lat":"37.733987321","long":"127.21271717","imageIndex":13,"items":[{"name":"경복당구장","tel":"031-574-7609","addr":"경기도 남양주시 진접읍 금곡리 375번지","indutype":"레저업소 - 당 구 장","category":"leisure"}]},{"lat":"37.719742993","long":"127.19705892","imageIndex":13,"items":[{"name":"구영당구클럽","tel":"031-529-7956","addr":"경기도 남양주시 진접읍 금곡리 974-2 제일프라자6층 601,602호","indutype":"레저업소 - 당 구 장","category":"leisure"},{"name":"트램블린키즈카페","tel":"031-575-7188","addr":"경기도 남양주시 진접읍 금곡리 974-2번지 제일프라자 602호 601호, 602호","indutype":"레저업소 - 기타레져업소","category":"leisure"}]},{"lat":"37.719995428","long":"127.20235635","imageIndex":13,"items":[{"name":"더 원 필라테스","tel":"031-527-0966","addr":"경기도 남양주시 진접읍 금곡리 1042번지 엠타워 4층 401호","indutype":"레저업소 - 헬스클럽","category":"leisure"},{"name":"엠당구클럽","tel":"031-0000-0000","addr":"경기도 남양주시 진접읍 금곡리 1042번지 603호~605호","indutype":"레저업소 - 당 구 장","category":"leisure"},{"name":"휘트니스 풀바디","tel":"","addr":"경기도 남양주시 진접읍 금곡리 1042번지 엠타워 8층 802-809호","indutype":"레저업소 - 헬스클럽","category":"leisure"}]},{"lat":"37.711921457","long":"127.18657084","imageIndex":13,"items":[{"name":"도전노래연습장","tel":"031-575-6252","addr":"경기도 남양주시 진접읍 금곡리 1081-2번지","indutype":"레저업소 - 노 래 방","category":"leisure"},{"name":"스타당구장","tel":"031-573-4545","addr":"경기도 남양주시 진접읍 금곡리 1081-2번지 래일스타 801호","indutype":"레저업소 - 당 구 장","category":"leisure"},{"name":"진접골프존","tel":"031-574-0752","addr":"경기도 남양주시 진접읍 금곡리 1081-2번지 6층 603-605호","indutype":"레저업소 - 스크린골프","category":"leisure"},{"name":"짱노래연습장","tel":"031-572-9296","addr":"경기도 남양주시 진접읍 금곡리 1081-2번지 래일스타 201호","indutype":"레저업소 - 노 래 방","category":"leisure"},{"name":"홈짐","tel":"","addr":"경기도 남양주시 진접읍 금곡리 1081-2번지 401호 래일스타","indutype":"레저업소 - 헬스클럽","category":"leisure"}]},{"lat":"37.715128026","long":"127.19830577","imageIndex":13,"items":[{"name":"리아더요가","tel":"031-572-9622","addr":"경기도 남양주시 진접읍 금곡리 1095번지 호평프라자 604호","indutype":"레저업소 - 헬스클럽","category":"leisure"},{"name":"마음의 GYM 2호점","tel":"031-527-2775","addr":"경기도 남양주시 진접읍 금곡리 1095번지 호평프라자 7층","indutype":"레저업소 - 헬스클럽","category":"leisure"},{"name":"이정훈해동검도","tel":"031-575-3335","addr":"경기도 남양주시 진접읍 금곡리 1095번지 호평프라자 203호","indutype":"레저업소 - 기타레져업소","category":"leisure"}]},{"lat":"37.711433044","long":"127.18778311","imageIndex":13,"items":[{"name":"리첸당구클럽","tel":"031-574-0418","addr":"경기도 남양주시 진접읍 금곡리 1083-4번지 리첸타워 403호 404호","indutype":"레저업소 - 당 구 장","category":"leisure"},{"name":"샹떼PC금곡리점","tel":"031-000-0000","addr":"경기도 남양주시 진접읍 금곡리 1083-4번지 리첸타워 401호, 402호","indutype":"레저업소 - 기타레져업소","category":"leisure"},{"name":"엔젤노래연습장","tel":"070-7799-2775","addr":"경기도 남양주시 진접읍 금곡리 1083-4번지 리첸타워 301동 303호","indutype":"레저업소 - 노 래 방","category":"leisure"},{"name":"제이락볼링앤펍","tel":"","addr":"경기도 남양주시 진접읍 금곡리 1083-4번지 리첸타워 7층 701호","indutype":"레저업소 - 볼 링 장","category":"leisure"}]},{"lat":"37.711714466","long":"127.1864229","imageIndex":13,"items":[{"name":"마음의GYM","tel":"031-568-6400","addr":"경기도 남양주시 진접읍 금곡리 1081-3번지 센타프라자 903호 ,904,1001,1002,1003,1004,1005호","indutype":"레저업소 - 헬스클럽","category":"leisure"},{"name":"케이에스테크","tel":"031-573-7277","addr":"경기도 남양주시 진접읍 금곡리 1081-3번지 601동 604호","indutype":"레저업소 - 기타레져업소","category":"leisure"}]},{"lat":"37.714488066","long":"127.19847421","imageIndex":13,"items":[{"name":"미술재미","tel":"031-574-0916","addr":"경기도 남양주시 진접읍 금곡리 1096번지 으뜸빌딩 202호","indutype":"레저업소 - 기타레져업소","category":"leisure"},{"name":"에스비에스(SBS)노래연습장","tel":"070-7717-9196","addr":"경기도 남양주시 진접읍 금곡리 1096번지 으뜸빌딩 3층","indutype":"레저업소 - 노 래 방","category":"leisure"},{"name":"와우PC","tel":"070-5249-8563","addr":"경기도 남양주시 진접읍 금곡리 1096번지 으뜸빌딩 402호","indutype":"레저업소 - 기타레져업소","category":"leisure"},{"name":"제이당구장","tel":"031-575-3949","addr":"경기도 남양주시 진접읍 금곡리 1096번지 703,704호","indutype":"레저업소 - 당 구 장","category":"leisure"},{"name":"커브스 진접클럽","tel":"031-528-3010","addr":"경기도 남양주시 진접읍 금곡리 1096번지 으뜸빌딩 404~405호","indutype":"레저업소 - 헬스클럽","category":"leisure"},{"name":"해피 앤 방방","tel":"031-528-0536","addr":"경기도 남양주시 진접읍 금곡리 1096번지 으뜸빌딩 2층 204호","indutype":"레저업소 - 기타레져업소","category":"leisure"}]},{"lat":"37.72116028","long":"127.19536127","imageIndex":13,"items":[{"name":"바디메이크짐(BMG기구필라테스)","tel":"031-514-0880","addr":"경기도 남양주시 진접읍 금곡리 973번지 진접프라자 203호","indutype":"레저업소 - 헬스클럽","category":"leisure"},{"name":"비엠지(BMG)","tel":"031-514-0880","addr":"경기도 남양주시 진접읍 금곡리 973번지 진접프라자 204호","indutype":"레저업소 - 헬스클럽","category":"leisure"},{"name":"와우 피씨 이-스포츠(WOW PC E-SPORTS)","tel":"070-4005-0418","addr":"경기도 남양주시 진접읍 금곡리 973번지 진접프라자 5층 501-503호","indutype":"레저업소 - 기타레져업소","category":"leisure"},{"name":"프로핏","tel":"031-000-0000","addr":"경기도 남양주시 진접읍 금곡리 973번지 진접프라자 303호","indutype":"레저업소 - 헬스클럽","category":"leisure"}]},{"lat":"37.708440173","long":"127.22044731","imageIndex":13,"items":[{"name":"부강파크","tel":"031-000-0000","addr":"경기도 남양주시 진접읍 금곡리 60번지 나동","indutype":"레저업소 - 기타레져업소","category":"leisure"}]},{"lat":"37.711551817","long":"127.1867287","imageIndex":13,"items":[{"name":"아이비스PC방","tel":"031-592-4317","addr":"경기도 남양주시 진접읍 금곡리 1081-4번지 폴리프라자 4층 1","indutype":"레저업소 - 기타레져업소","category":"leisure"},{"name":"잼잼(jamjam)","tel":"","addr":"경기도 남양주시 진접읍 금곡리 1081-4번지 폴리프라자 504호, 505호","indutype":"레저업소 - 헬스클럽","category":"leisure"}]},{"lat":"37.711407186","long":"127.18703455","imageIndex":13,"items":[{"name":"인디고PC진접점","tel":"","addr":"경기도 남양주시 진접읍 금곡리 1081-5번지 3층 303~307호","indutype":"레저업소 - 기타레져업소","category":"leisure"}]},{"lat":"37.715020831","long":"127.19774976","imageIndex":13,"items":[{"name":"점프노리 진접점","tel":"031-529-1561","addr":"경기도 남양주시 진접읍 금곡리 1094번지 701호","indutype":"레저업소 - 기타레져업소","category":"leisure"}]},{"lat":"37.719605127","long":"127.20405662","imageIndex":13,"items":[{"name":"제로피트(ZERO FIT)","tel":"031-000-1234","addr":"경기도 남양주시 진접읍 금곡리 1057-2번지 남준빌 1층 101호","indutype":"레저업소 - 헬스클럽","category":"leisure"}]},{"lat":"37.720959774","long":"127.20216612","imageIndex":13,"items":[{"name":"주식회사 야베스코리아","tel":"070-8842-4400","addr":"경기도 남양주시 진접읍 금곡리 1022번지 301호","indutype":"레저업소 - 기타레져업소","category":"leisure"}]},{"lat":"37.720491086","long":"127.20227829","imageIndex":13,"items":[{"name":"탑노래연습장","tel":"031-527-5835","addr":"경기도 남양주시 진접읍 금곡리 1021-3번지 삼성프라자 601호","indutype":"레저업소 - 노 래 방","category":"leisure"}]},{"lat":"37.719715267","long":"127.202866","imageIndex":13,"items":[{"name":"헌터피씨 진접점(HUNTER PC)","tel":"031-571-8173","addr":"경기도 남양주시 진접읍 금곡리 1042-2번지 3층 301,302,303호","indutype":"레저업소 - 기타레져업소","category":"leisure"}]},{"lat":"37.721015757","long":"127.19558774","imageIndex":13,"items":[{"name":"헬스의 달인 윤짐","tel":"031-529-6336","addr":"경기도 남양주시 진접읍 금곡리 973-1번지 신세계프라자 5층 501 ,502,503호","indutype":"레저업소 - 헬스클럽","category":"leisure"},{"name":"헬스의 달인 윤짐","tel":"031-529-6336","addr":"경기도 남양주시 진접읍 금곡리 973-1번지 신세계프라자 505호","indutype":"레저업소 - 헬스클럽","category":"leisure"},{"name":"황제노래연습장","tel":"031-528-3775","addr":"경기도 남양주시 진접읍 금곡리 973-1번지 신세계프라자 204호","indutype":"레저업소 - 노 래 방","category":"leisure"}]},{"lat":"37.72156632","long":"127.19498802","imageIndex":13,"items":[{"name":"힐링노래연습장","tel":"031-527-5407","addr":"경기도 남양주시 진접읍 금곡리 972-2번지 반도프라자202~203-2호","indutype":"레저업소 - 노 래 방","category":"leisure"}]}]