[{"lat":"37.3497020087","long":"126.9763142048","imageIndex":16,"items":[{"name":"EM영수학원","tel":"031-453-2052","addr":"경기도 의왕시 고천동 299-23번지 3층","indutype":"학원 - 보습학원","category":"study"}]},{"lat":"37.3488100203","long":"126.9763935218","imageIndex":16,"items":[{"name":"건용합기도장","tel":"031-453-2898","addr":"경기도 의왕시 고천동 299-27번지","indutype":"학원 - 예·체능계학원","category":"study"}]},{"lat":"37.3472552944","long":"126.9595330043","imageIndex":16,"items":[{"name":"경기외국어고등학교","tel":"031-361-0668","addr":"경기도 의왕시 고천동 438-1번지","indutype":"학원 - 초중고교육기관","category":"study"},{"name":"학교법인 봉암학원","tel":"031-361-0500","addr":"경기도 의왕시 고천동 438-1번지 경기외국어고등학교","indutype":"학원 - 초중고교육기관","category":"study"}]},{"lat":"37.3484763835","long":"126.9752537495","imageIndex":16,"items":[{"name":"고천초등학교","tel":"031-457-1984","addr":"경기도 의왕시 고천동 296-1번지 고천초등학교","indutype":"학원 - 초중고교육기관","category":"study"},{"name":"고천초등학교병설유치원[아이행복]","tel":"031-458-6648","addr":"경기도 의왕시 고천동 296-1번지 고천초등학교","indutype":"학원 - 유치원","category":"study"}]},{"lat":"37.3490352058","long":"126.9760887175","imageIndex":16,"items":[{"name":"맥학습심리상담센터 의왕지점","tel":"031-349-3499","addr":"경기도 의왕시 고천동 299-33번지","indutype":"학원 - 기타 교육기관","category":"study"}]},{"lat":"37.3491424834","long":"126.9725899774","imageIndex":16,"items":[{"name":"메인 체육센타","tel":"031-842-1282","addr":"경기도 의왕시 고천동 290-2번지 대영골든밸리 7층 705호","indutype":"학원 - 기타 교육기관","category":"study"},{"name":"의왕요리학원","tel":"031-420-6969","addr":"경기도 의왕시 고천동 290-2번지 대영골든밸리 202호","indutype":"회원제형태 - 학원","category":"study"}]},{"lat":"37.3488096425","long":"126.9747570396","imageIndex":16,"items":[{"name":"멘토학원","tel":"070-8782-0414","addr":"경기도 의왕시 고천동 295-51번지 202,206호","indutype":"학원 - 보습학원","category":"study"},{"name":"이태리피아노교습소","tel":"031-456-8797","addr":"경기도 의왕시 고천동 295-51번지 의왕종합쇼핑센터 202호","indutype":"학원 - 예·체능계학원","category":"study"}]},{"lat":"37.3447265061","long":"126.9689239726","imageIndex":16,"items":[{"name":"백운하늘샘어린이집[아이행복]","tel":"031-426-9575","addr":"경기도 의왕시 고천동 171번지 의왕시청 560 백운지구 B블럭 1층","indutype":"학원 - 유아원","category":"study"},{"name":"의왕시 청계종합사회복지관","tel":"031-345-2182","addr":"경기도 의왕시 고천동 171번지 의왕시청","indutype":"학원 - 기타 교육기관","category":"study"},{"name":"의왕시인재육성재단/청소년수련관","tel":"031-477-1881","addr":"경기도 의왕시 고천동 171번지 의왕시청 3층","indutype":"학원 - 기타 교육기관","category":"study"},{"name":"의왕시청","tel":"031-345-2291","addr":"경기도 의왕시 고천동 171번지","indutype":"회원제형태 - 학원","category":"study"}]},{"lat":"37.3481698805","long":"126.9745879884","imageIndex":16,"items":[{"name":"예린음악학원","tel":"031-453-5225","addr":"경기도 의왕시 고천동 280-2번지","indutype":"학원 - 예·체능계학원","category":"study"}]},{"lat":"37.3485584035","long":"126.9795649897","imageIndex":16,"items":[{"name":"우성고등학교","tel":"031-361-9100","addr":"경기도 의왕시 고천동 496번지 우성고등학교","indutype":"학원 - 초중고교육기관","category":"study"}]},{"lat":"37.3485301727","long":"126.9741138394","imageIndex":16,"items":[{"name":"의왕간호학원","tel":"031-347-1555","addr":"경기도 의왕시 고천동 294-3번지 보왕빌딩 3층 2호","indutype":"학원 - 기능학원","category":"study"},{"name":"의왕요양보호사교육원","tel":"031-347-1555","addr":"경기도 의왕시 고천동 294-3번지 3층","indutype":"학원 - 기능학원","category":"study"}]},{"lat":"37.3474218702","long":"126.9738998306","imageIndex":16,"items":[{"name":"초심독서실","tel":"031-342-1137","addr":"경기도 의왕시 고천동 283-7번지 태영빌딩 6층","indutype":"학원 - 독서실","category":"study"}]}]