[{"lat":"37.726130387","long":"127.19175569","imageIndex":13,"items":[{"name":"119장현 골프존","tel":"031-528-0793","addr":"경기도 남양주시 진접읍 장현리 68-5번지 삼흥빌딩 4층","indutype":"레저업소 - 스크린골프","category":"leisure"}]},{"lat":"37.715686162","long":"127.18155586","imageIndex":13,"items":[{"name":"MS노래연습장","tel":"070-7548-7785","addr":"경기도 남양주시 진접읍 장현리 698-3번지 3층","indutype":"레저업소 - 노 래 방","category":"leisure"},{"name":"세븐 당구장","tel":"031-111-1111","addr":"경기도 남양주시 진접읍 장현리 698-3번지 2층","indutype":"레저업소 - 당 구 장","category":"leisure"}]},{"lat":"37.715573216","long":"127.17877693","imageIndex":13,"items":[{"name":"굿당구장","tel":"","addr":"경기도 남양주시 진접읍 장현리 607-2번지 장현빌딩 2층","indutype":"레저업소 - 당 구 장","category":"leisure"},{"name":"신도권투체육관","tel":"031-571-1132","addr":"경기도 남양주시 진접읍 장현리 607-2번지 장현빌딩 5층","indutype":"레저업소 - 헬스클럽","category":"leisure"}]},{"lat":"37.726910467","long":"127.18844545","imageIndex":13,"items":[{"name":"남양주시청/진접체육문화센터","tel":"031-560-1281","addr":"경기도 남양주시 진접읍 장현리 산25-39번지 진접체육문화센터","indutype":"레저업소 - 기타레져업소","category":"leisure"}]},{"lat":"37.718908071","long":"127.18386602","imageIndex":13,"items":[{"name":"드림당구장","tel":"031-528-2866","addr":"경기도 남양주시 진접읍 장현리 350-2번지","indutype":"레저업소 - 당 구 장","category":"leisure"}]},{"lat":"37.720571633","long":"127.18594569","imageIndex":13,"items":[{"name":"리뉴얼바디","tel":"031-1111-1111","addr":"경기도 남양주시 진접읍 장현리 367-4번지 2층","indutype":"레저업소 - 헬스클럽","category":"leisure"}]},{"lat":"37.716633503","long":"127.18067349","imageIndex":13,"items":[{"name":"만화카페올레","tel":"031-514-7604","addr":"경기도 남양주시 진접읍 장현리 643-29번지 제일빌딩 4층","indutype":"레저업소 - 기타레져업소","category":"leisure"},{"name":"스카이노래방","tel":"031-574-8686","addr":"경기도 남양주시 진접읍 장현리 643-29번지 제일빌딩 지층","indutype":"레저업소 - 노 래 방","category":"leisure"},{"name":"징기스칸PC방","tel":"070-9753-2747","addr":"경기도 남양주시 진접읍 장현리 643-29번지 제일빌딩 지층","indutype":"레저업소 - 기타레져업소","category":"leisure"}]},{"lat":"37.713661968","long":"127.17958898","imageIndex":13,"items":[{"name":"뮤직 코인","tel":"031-529-5150","addr":"경기도 남양주시 진접읍 장현리 695-1번지 3층","indutype":"레저업소 - 노 래 방","category":"leisure"},{"name":"뮤직샵노래연습장","tel":"","addr":"경기도 남양주시 진접읍 장현리 695-1번지 4층","indutype":"레저업소 - 노 래 방","category":"leisure"}]},{"lat":"37.715321404","long":"127.17847011","imageIndex":13,"items":[{"name":"블랙당구클럽","tel":"031-527-0388","addr":"경기도 남양주시 진접읍 장현리 602-4번지 지하1층","indutype":"레저업소 - 당 구 장","category":"leisure"},{"name":"준스피닝","tel":"031-528-8808","addr":"경기도 남양주시 진접읍 장현리 602-4번지 2층","indutype":"레저업소 - 헬스클럽","category":"leisure"}]},{"lat":"37.726515481","long":"127.19319724","imageIndex":13,"items":[{"name":"산호 당구장","tel":"031-111-1111","addr":"경기도 남양주시 진접읍 장현리 51-30번지 3층","indutype":"레저업소 - 당 구 장","category":"leisure"}]},{"lat":"37.717102683","long":"127.18022094","imageIndex":13,"items":[{"name":"오렌지노래연습장","tel":"031-572-1413","addr":"경기도 남양주시 진접읍 장현리 632-9번지 2층","indutype":"레저업소 - 노 래 방","category":"leisure"}]},{"lat":"37.720824323","long":"127.1856741","imageIndex":13,"items":[{"name":"와노래연습장","tel":"","addr":"경기도 남양주시 진접읍 장현리 367-14번지","indutype":"레저업소 - 노 래 방","category":"leisure"}]},{"lat":"37.717633238","long":"127.18089137","imageIndex":13,"items":[{"name":"장현굿샷골프연습장","tel":"031-528-0754","addr":"경기도 남양주시 진접읍 장현리 634-4번지 (장현프라자, 2층 203-205호)","indutype":"레저업소 - 골프연습장","category":"leisure"},{"name":"장현큐당구클럽","tel":"031-529-3804","addr":"경기도 남양주시 진접읍 장현리 634-4번지 장현프라자 201호","indutype":"레저업소 - 당 구 장","category":"leisure"},{"name":"장현큐당구클럽","tel":"031-529-3804","addr":"경기도 남양주시 진접읍 장현리 634-4번지 장현프라자 201동 202호","indutype":"레저업소 - 당 구 장","category":"leisure"}]},{"lat":"37.728017055","long":"127.1776947","imageIndex":13,"items":[{"name":"장현그린골프크럽","tel":"031-573-0101","addr":"경기도 남양주시 진접읍 장현리 444-5번지","indutype":"레저업소 - 골프연습장","category":"leisure"}]},{"lat":"37.724294","long":"127.19077554","imageIndex":13,"items":[{"name":"장현노래연습장","tel":"031-572-9078","addr":"경기도 남양주시 진접읍 장현리 227-8번지","indutype":"레저업소 - 노 래 방","category":"leisure"}]},{"lat":"37.716464043","long":"127.17952758","imageIndex":13,"items":[{"name":"점핑.찜질까페","tel":"","addr":"경기도 남양주시 진접읍 장현리 630번지 외1필지 2층","indutype":"레저업소 - 헬스클럽","category":"leisure"}]},{"lat":"37.717911574","long":"127.18152718","imageIndex":13,"items":[{"name":"제이유(JU)빌리어드클럽","tel":"","addr":"경기도 남양주시 진접읍 장현리 636-2번지 3층","indutype":"레저업소 - 당 구 장","category":"leisure"}]},{"lat":"37.719466419","long":"127.18402617","imageIndex":13,"items":[{"name":"초원 노래연습장","tel":"031-571-3533","addr":"경기도 남양주시 진접읍 장현리 351-19번지 2층","indutype":"레저업소 - 노 래 방","category":"leisure"}]},{"lat":"37.715020878","long":"127.18061293","imageIndex":13,"items":[{"name":"칸노래연습장","tel":"031-527-9499","addr":"경기도 남양주시 진접읍 장현리 697-1번지 지하1층","indutype":"레저업소 - 노 래 방","category":"leisure"},{"name":"프리즐 PC방","tel":"031-527-1119","addr":"경기도 남양주시 진접읍 장현리 697-1번지 3층","indutype":"레저업소 - 기타레져업소","category":"leisure"}]},{"lat":"37.716265611","long":"127.17967455","imageIndex":13,"items":[{"name":"코러스노래연습장","tel":"031-572-5253","addr":"경기도 남양주시 진접읍 장현리 647-1번지 2층","indutype":"레저업소 - 노 래 방","category":"leisure"}]},{"lat":"37.717799129","long":"127.18436236","imageIndex":13,"items":[{"name":"키즈웨일즈","tel":"031-571-0770","addr":"경기도 남양주시 진접읍 장현리 288번지","indutype":"레저업소 - 수 영 장","category":"leisure"}]},{"lat":"37.721381681","long":"127.18646943","imageIndex":13,"items":[{"name":"플러스노래연습장","tel":"031-574-6323","addr":"경기도 남양주시 진접읍 장현리 365-4번지 2층","indutype":"레저업소 - 노 래 방","category":"leisure"}]},{"lat":"37.715796127","long":"127.18033124","imageIndex":13,"items":[{"name":"현대당구클럽","tel":"","addr":"경기도 남양주시 진접읍 장현리 661-2번지 2층","indutype":"레저업소 - 당 구 장","category":"leisure"}]},{"lat":"37.726380923","long":"127.19283392","imageIndex":13,"items":[{"name":"힘쎈수달PC방","tel":"070-4146-4875","addr":"경기도 남양주시 진접읍 장현리 59-3번지 외 2필지 2층","indutype":"레저업소 - 기타레져업소","category":"leisure"}]}]