[{"lat":"37.226774061","long":"126.97212068","imageIndex":8,"items":[{"name":"감초한의원","tel":"031-225-4357","addr":"경기도 화성시 기안동 336번지 2층","indutype":"의원 - 한의원","category":"medical"}]},{"lat":"37.222656991","long":"126.97478143","imageIndex":8,"items":[{"name":"굿모닝약국","tel":"031-221-7275","addr":"경기도 화성시 기안동 371-2번지 보보스프라자 203호","indutype":"약국 - 약국","category":"medical"},{"name":"수이비인후과","tel":"031-221-8580","addr":"경기도 화성시 기안동 371-2번지 외4필지 보보스프라자상가 2층 204호","indutype":"의원 - 의원","category":"medical"}]},{"lat":"37.219469782","long":"126.98848302","imageIndex":8,"items":[{"name":"신미주가정의학과의원","tel":"031-223-1355","addr":"경기도 화성시 기안동 897번지 풍성신미주타운 B02호","indutype":"의원 - 의원","category":"medical"},{"name":"우리약국","tel":"031-898-7997","addr":"경기도 화성시 기안동 897번지 풍성신미주타운 B105호","indutype":"약국 - 약국","category":"medical"}]},{"lat":"37.224188275","long":"126.97284285","imageIndex":8,"items":[{"name":"연세화이트치과의원","tel":"031-224-8422","addr":"경기도 화성시 기안동 356-9번지","indutype":"의원 - 치과의원","category":"medical"}]},{"lat":"37.224684059","long":"126.97369899","imageIndex":8,"items":[{"name":"윤내과의원","tel":"031-222-2180","addr":"경기도 화성시 기안동 354-5번지","indutype":"의원 - 의원","category":"medical"}]},{"lat":"37.224992516","long":"126.98408761","imageIndex":8,"items":[{"name":"형재약국","tel":"031-224-6212","addr":"경기도 화성시 기안동 223-1번지","indutype":"약국 - 약국","category":"medical"}]}]