[{"lat":"37.039520214","long":"127.08553078","imageIndex":16,"items":[{"name":"C.S태권도장","tel":"031-611-9385","addr":"경기도 평택시 가재동 138-6번지 3층","indutype":"학원 - 예·체능계학원","category":"study"},{"name":"나래음악학원","tel":"031-667-7204","addr":"경기도 평택시 가재동 138-6번지 외3필지 2층","indutype":"학원 - 예·체능계학원","category":"study"},{"name":"위즈덤 학원","tel":"031-663-7204","addr":"경기도 평택시 가재동 138-6번지","indutype":"회원제형태 - 학원","category":"study"},{"name":"이보영의토킹클럽가재어학원","tel":"031-664-2510","addr":"경기도 평택시 가재동 138-6번지 202,203호","indutype":"학원 - 외국어학원","category":"study"}]},{"lat":"37.042321524","long":"127.08695013","imageIndex":16,"items":[{"name":"송탄초등학교","tel":"031-665-9093","addr":"경기도 평택시 가재동 200-3번지 송탄초등학교 1층","indutype":"학원 - 초중고교육기관","category":"study"},{"name":"송탄초등학교병설유치원[아이행복]","tel":"031-664-9096","addr":"경기도 평택시 가재동 200-3번지 송탄초등학교","indutype":"학원 - 유치원","category":"study"}]},{"lat":"37.040214971","long":"127.08417146","imageIndex":16,"items":[{"name":"필아트미술학원","tel":"031-662-1216","addr":"경기도 평택시 가재동 639번지 우림필유 상가 202호","indutype":"학원 - 예·체능계학원","category":"study"}]},{"lat":"37.038655963","long":"127.08441708","imageIndex":16,"items":[{"name":"해찬솔어린이집[아이행복]","tel":"031-666-7015","addr":"경기도 평택시 가재동 142-1번지","indutype":"학원 - 유아원","category":"study"}]}]