[{"lat":"37.326370589","long":"126.85846308","imageIndex":7,"items":[{"name":"(주)한샘할인마트부곡점","tel":"031-501-0270","addr":"경기도 안산시 상록구 부곡동 685-11번지 안산제2종합시장 1045호","indutype":"유통업 영리 - 슈퍼마켓","category":"mart"},{"name":"아울렛마트","tel":"031-416-1500","addr":"경기도 안산시 상록구 부곡동 685-11번지 안산제2종합시장 1045호","indutype":"유통업 영리 - 슈퍼마켓","category":"mart"}]},{"lat":"37.327030494","long":"126.8602445","imageIndex":7,"items":[{"name":"LK슈퍼마켓","tel":"031-419-6080","addr":"경기도 안산시 상록구 부곡동 619-6번지","indutype":"유통업 영리 - 슈퍼마켓","category":"mart"}]},{"lat":"37.3225338048","long":"126.8597453010","imageIndex":7,"items":[{"name":"농수산물슈퍼","tel":"031-409-0187","addr":"경기도 안산시 상록구 부곡동 600-10번지","indutype":"도매 및 소매업 - 슈퍼마켓","category":"mart"}]},{"lat":"37.322533805","long":"126.8597453","imageIndex":7,"items":[{"name":"농수산물슈퍼","tel":"031-409-0187","addr":"경기도 안산시 상록구 부곡동 600-10번지 1층상가","indutype":"유통업 영리 - 슈퍼마켓","category":"mart"}]},{"lat":"37.334696232","long":"126.86624436","imageIndex":7,"items":[{"name":"농심가마트","tel":"031-416-8691","addr":"경기도 안산시 상록구 부곡동 639번지 103호","indutype":"유통업 영리 - 슈퍼마켓","category":"mart"},{"name":"농심가마트","tel":"031-416-8691","addr":"경기도 안산시 상록구 부곡동 639번지 103호","indutype":"유통업 영리 - 슈퍼마켓","category":"mart"}]},{"lat":"37.3346962318","long":"126.8662443588","imageIndex":7,"items":[{"name":"농심가마트","tel":"031-416-8691","addr":"경기도 안산시 상록구 부곡동 639번지","indutype":"도매 및 소매업 - 슈퍼,담배","category":"mart"}]},{"lat":"37.332142772","long":"126.86317985","imageIndex":7,"items":[{"name":"돼지복권슈퍼","tel":"031-417-4737","addr":"경기도 안산시 상록구 부곡동 538-4번지 서광빌딩 102호","indutype":"유통업 영리 - 슈퍼마켓","category":"mart"}]},{"lat":"37.3321427719","long":"126.8631798488","imageIndex":7,"items":[{"name":"돼지복권슈퍼","tel":"","addr":"경기도 안산시 상록구 부곡동 538-4번지","indutype":"도매 및 소매업 - 슈퍼마켓","category":"mart"}]},{"lat":"37.333560411","long":"126.85821235","imageIndex":7,"items":[{"name":"럭키슈퍼렛","tel":"031-403-5979","addr":"경기도 안산시 상록구 부곡동 735번지","indutype":"유통업 영리 - 슈퍼마켓","category":"mart"}]},{"lat":"37.3331734755","long":"126.8662132656","imageIndex":7,"items":[{"name":"럭키슈퍼렛","tel":"031-403-5979","addr":"경기도 안산시 상록구 부곡동 640-6번지","indutype":"도매 및 소매업 - 슈퍼마켓,담배","category":"mart"}]},{"lat":"37.333173475","long":"126.86621327","imageIndex":7,"items":[{"name":"럭키슈퍼렛","tel":"031-416-4478","addr":"경기도 안산시 상록구 부곡동 640-6번지","indutype":"유통업 영리 - 슈퍼마켓","category":"mart"}]},{"lat":"37.3337589102","long":"126.8584376497","imageIndex":7,"items":[{"name":"럭키슈퍼마켓","tel":"031-403-5979","addr":"경기도 안산시 상록구 부곡동 730-12번지","indutype":"도매 및 소매업 - 슈퍼","category":"mart"}]},{"lat":"37.333063188","long":"126.86435165","imageIndex":7,"items":[{"name":"럭키할인마트","tel":"031-406-0610","addr":"경기도 안산시 상록구 부곡동 533-4번지","indutype":"유통업 영리 - 슈퍼마켓","category":"mart"},{"name":"럭키할인마트","tel":"031-406-0610","addr":"경기도 안산시 상록구 부곡동 533-4번지 지하","indutype":"유통업 영리 - 슈퍼마켓","category":"mart"}]},{"lat":"37.334920544","long":"126.85788251","imageIndex":7,"items":[{"name":"모닝마트","tel":"031-498-4507","addr":"경기도 안산시 상록구 부곡동 728번지","indutype":"유통업 영리 - 슈퍼마켓","category":"mart"},{"name":"우성마트","tel":"031-487-4944","addr":"경기도 안산시 상록구 부곡동 728번지 지층,1층","indutype":"유통업 영리 - 슈퍼마켓","category":"mart"}]},{"lat":"37.335279304","long":"126.86402034","imageIndex":7,"items":[{"name":"미니플러스","tel":"031-411-3617","addr":"경기도 안산시 상록구 부곡동 657-18번지","indutype":"유통업 영리 - 슈퍼마켓","category":"mart"}]},{"lat":"37.334417668","long":"126.8592714","imageIndex":7,"items":[{"name":"복영슈퍼","tel":"031-414-7022","addr":"경기도 안산시 상록구 부곡동 729-1번지 1층","indutype":"유통업 영리 - 슈퍼마켓","category":"mart"}]},{"lat":"37.332341978","long":"126.86401447","imageIndex":7,"items":[{"name":"부곡진로할인마트","tel":"031-438-2545","addr":"경기도 안산시 상록구 부곡동 539-1번지 1층","indutype":"유통업 영리 - 슈퍼마켓","category":"mart"},{"name":"부곡진로할인마트","tel":"031-438-2545","addr":"경기도 안산시 상록구 부곡동 539-1번지 1층","indutype":"유통업 영리 - 슈퍼마켓","category":"mart"}]},{"lat":"37.329753432","long":"126.86179644","imageIndex":7,"items":[{"name":"부곡하나로마트","tel":"031-406-8884","addr":"경기도 안산시 상록구 부곡동 624-7번지 현진프라자","indutype":"유통업 영리 - 슈퍼마켓","category":"mart"}]},{"lat":"37.3297534316","long":"126.8617964362","imageIndex":7,"items":[{"name":"부곡하나로마트","tel":"031-406-8884","addr":"경기도 안산시 상록구 부곡동 624-7번지","indutype":"도매 및 소매업 - 슈퍼마켓,담배소매","category":"mart"}]},{"lat":"37.335417461","long":"126.86660414","imageIndex":7,"items":[{"name":"부곡홈마트","tel":"031-416-0045","addr":"경기도 안산시 상록구 부곡동 636-13번지 1층","indutype":"유통업 영리 - 슈퍼마켓","category":"mart"}]},{"lat":"37.3354174610","long":"126.8666041428","imageIndex":7,"items":[{"name":"부곡홈마트","tel":"031-416-0045","addr":"경기도 안산시 상록구 부곡동 636-13번지","indutype":"도매 및 소매업 - 슈퍼,담배","category":"mart"}]},{"lat":"37.323399218","long":"126.86010469","imageIndex":7,"items":[{"name":"새농심원마트","tel":"031-416-5380","addr":"경기도 안산시 상록구 부곡동 602-11번지","indutype":"유통업 영리 - 슈퍼마켓","category":"mart"}]},{"lat":"37.3313359355","long":"126.8666792163","imageIndex":7,"items":[{"name":"소소디자인","tel":"","addr":"경기도 안산시 상록구 부곡동 545-7번지","indutype":"도매 및 소매업 - 광고대행,슈퍼마켓","category":"mart"}]},{"lat":"37.336119847","long":"126.85865881","imageIndex":7,"items":[{"name":"시낭할인마트","tel":"031-495-4302","addr":"경기도 안산시 상록구 부곡동 724번지","indutype":"유통업 영리 - 슈퍼마켓","category":"mart"}]},{"lat":"37.3361198466","long":"126.8586588125","imageIndex":7,"items":[{"name":"시낭할인마트","tel":"031-495-4302","addr":"경기도 안산시 상록구 부곡동 724번지","indutype":"도매 및 소매업 - 슈퍼","category":"mart"}]},{"lat":"37.334561392","long":"126.85891004","imageIndex":7,"items":[{"name":"왕발이할인마트","tel":"031-405-9197","addr":"경기도 안산시 상록구 부곡동 728-7번지 1층 101호","indutype":"유통업 영리 - 슈퍼마켓","category":"mart"}]},{"lat":"37.3345613919","long":"126.8589100389","imageIndex":7,"items":[{"name":"왕발이할인마트","tel":"031-405-9137","addr":"경기도 안산시 상록구 부곡동 728-7번지","indutype":"도매 및 소매업 - 슈퍼마켓","category":"mart"}]},{"lat":"37.3349205442","long":"126.8578825096","imageIndex":7,"items":[{"name":"우성마트","tel":"031-482-5490","addr":"경기도 안산시 상록구 부곡동 728번지","indutype":"도매 및 소매업 - 슈퍼마켓","category":"mart"}]},{"lat":"37.327697206","long":"126.86020939","imageIndex":7,"items":[{"name":"원미슈퍼","tel":"031-416-0393","addr":"경기도 안산시 상록구 부곡동 684-1번지","indutype":"유통업 영리 - 슈퍼마켓","category":"mart"}]},{"lat":"37.332392884","long":"126.86135144","imageIndex":7,"items":[{"name":"이삭365마트","tel":"031-406-7081","addr":"경기도 안산시 상록구 부곡동 667-10번지 1층 101호","indutype":"유통업 영리 - 슈퍼마켓","category":"mart"}]},{"lat":"37.336703359","long":"126.86440139","imageIndex":7,"items":[{"name":"제일마트","tel":"031-409-8892","addr":"경기도 안산시 상록구 부곡동 652-9번지 1층 101호","indutype":"유통업 영리 - 슈퍼마켓","category":"mart"},{"name":"제일마트","tel":"031-318-4252","addr":"경기도 안산시 상록구 부곡동 652-9번지","indutype":"유통업 영리 - 슈퍼마켓","category":"mart"}]},{"lat":"37.322198604","long":"126.85824542","imageIndex":7,"items":[{"name":"종합슈퍼","tel":"","addr":"경기도 안산시 상록구 부곡동 697번지 103호","indutype":"유통업 영리 - 슈퍼마켓","category":"mart"}]},{"lat":"37.332861844","long":"126.86171164","imageIndex":7,"items":[{"name":"행복편의점","tel":"070-7840-0898","addr":"경기도 안산시 상록구 부곡동 667-14번지 1층 103호","indutype":"유통업 영리 - 슈퍼마켓","category":"mart"}]},{"lat":"37.333755697","long":"126.86326713","imageIndex":7,"items":[{"name":"희망슈퍼","tel":"031-501-3089","addr":"경기도 안산시 상록구 부곡동 661-10번지","indutype":"유통업 영리 - 슈퍼마켓","category":"mart"}]},{"lat":"37.3337556974","long":"126.8632671326","imageIndex":7,"items":[{"name":"희망슈퍼","tel":"031-501-3089","addr":"경기도 안산시 상록구 부곡동 661-10번지","indutype":"도매 및 소매업 - 슈퍼마켓","category":"mart"}]}]