[{"lat":"37.35673338","long":"127.2469803","imageIndex":4,"items":[{"name":"꼴통포차","tel":"031-761-7185","addr":"경기도 광주시 오포읍 매산리 224-9번지 1층","indutype":"일반휴게음식 - 주점","category":"restaurant"},{"name":"밥마루","tel":"031-763-9288","addr":"경기도 광주시 오포읍 매산리 224-9번지 1층 105호 106호 107호","indutype":"일반휴게음식 - 일반한식","category":"restaurant"}]},{"lat":"37.361622","long":"127.2444789","imageIndex":4,"items":[{"name":"남원명품추어탕","tel":"031-767-5486","addr":"경기도 광주시 오포읍 매산리 600-22번지 1층","indutype":"일반휴게음식 - 일반한식","category":"restaurant"}]},{"lat":"37.36439717","long":"127.244454","imageIndex":4,"items":[{"name":"뇌조리갈쌈국수","tel":"031-761-8624","addr":"경기도 광주시 오포읍 매산리 611-9번지","indutype":"일반휴게음식 - 일반한식","category":"restaurant"}]},{"lat":"37.35670026","long":"127.245558","imageIndex":4,"items":[{"name":"다모아","tel":"031-765-9289","addr":"경기도 광주시 오포읍 매산리 746-10번지","indutype":"일반휴게음식 - 일반한식","category":"restaurant"},{"name":"용문각","tel":"031-766-2305","addr":"경기도 광주시 오포읍 매산리 746-10번지 1층","indutype":"일반휴게음식 - 중국식","category":"restaurant"}]},{"lat":"37.35076157","long":"127.2588681","imageIndex":4,"items":[{"name":"다문식당","tel":"031-767-3887","addr":"경기도 광주시 오포읍 매산리 192-7번지","indutype":"일반휴게음식 - 일반한식","category":"restaurant"}]},{"lat":"37.35289756","long":"127.2585932","imageIndex":4,"items":[{"name":"다산홈푸드 광주점","tel":"031-764-4675","addr":"경기도 광주시 오포읍 매산리 65번지","indutype":"일반휴게음식 - 일반한식","category":"restaurant"}]},{"lat":"37.35823408","long":"127.2445358","imageIndex":4,"items":[{"name":"돈가돈삼겹살전문점","tel":"031-768-7892","addr":"경기도 광주시 오포읍 매산리 712번지 1층","indutype":"일반휴게음식 - 일반한식","category":"restaurant"},{"name":"춘천생닭갈비","tel":"031-768-7892","addr":"경기도 광주시 오포읍 매산리 712번지","indutype":"일반휴게음식 - 일반한식","category":"restaurant"}]},{"lat":"37.36214346","long":"127.2450337","imageIndex":4,"items":[{"name":"동호기사식당","tel":"031-766-0299","addr":"경기도 광주시 오포읍 매산리 590-5번지","indutype":"일반휴게음식 - 일반한식","category":"restaurant"}]},{"lat":"37.35673389","long":"127.246732","imageIndex":4,"items":[{"name":"떴다감자탕","tel":"031-765-0667","addr":"경기도 광주시 오포읍 매산리 224-16번지","indutype":"일반휴게음식 - 일반한식","category":"restaurant"},{"name":"백화옥꼬치","tel":"031-766-9919","addr":"경기도 광주시 오포읍 매산리 224-16번지 1층","indutype":"일반휴게음식 - 중국식","category":"restaurant"},{"name":"백화옥냉면","tel":"031-766-9919","addr":"경기도 광주시 오포읍 매산리 224-16번지","indutype":"일반휴게음식 - 일반한식","category":"restaurant"},{"name":"여우커피앤호프","tel":"031-768-2772","addr":"경기도 광주시 오포읍 매산리 224-16번지","indutype":"일반휴게음식 - 서양음식","category":"restaurant"},{"name":"좋은친구들","tel":"031-766-7638","addr":"경기도 광주시 오포읍 매산리 224-16번지","indutype":"일반휴게음식 - 일반한식","category":"restaurant"}]},{"lat":"37.36539588","long":"127.2451458","imageIndex":4,"items":[{"name":"또레오레(양벌점)","tel":"031-766-3117","addr":"경기도 광주시 오포읍 매산리 614-26번지","indutype":"일반휴게음식 - 스넥","category":"restaurant"}]},{"lat":"37.36192834","long":"127.2444799","imageIndex":4,"items":[{"name":"또봉이통닭","tel":"031-761-7712","addr":"경기도 광주시 오포읍 매산리 600-19번지","indutype":"일반휴게음식 - 스넥","category":"restaurant"}]},{"lat":"37.36753089","long":"127.2408967","imageIndex":4,"items":[{"name":"뚝방집","tel":"031-765-7883","addr":"경기도 광주시 오포읍 매산리 629-15번지","indutype":"일반휴게음식 - 일반한식","category":"restaurant"}]},{"lat":"37.35651036","long":"127.245896","imageIndex":4,"items":[{"name":"러브레터","tel":"031-768-6852","addr":"경기도 광주시 오포읍 매산리 746-8번지","indutype":"일반휴게음식 - 일반한식","category":"restaurant"}]},{"lat":"37.36503689","long":"127.244456","imageIndex":4,"items":[{"name":"마이스터 심슨부대찌개 매산점","tel":"031-766-8880","addr":"경기도 광주시 오포읍 매산리 615-1번지","indutype":"일반휴게음식 - 일반한식","category":"restaurant"}]},{"lat":"37.35697747","long":"127.246586","imageIndex":4,"items":[{"name":"막끌리네!막걸리랑국수","tel":"031-765-8829","addr":"경기도 광주시 오포읍 매산리 226-17","indutype":"일반휴게음식 - 일반한식","category":"restaurant"}]},{"lat":"37.35728506","long":"127.2459775","imageIndex":4,"items":[{"name":"만복당","tel":"031-766-0087","addr":"경기도 광주시 오포읍 매산리 744-4번지","indutype":"일반휴게음식 - 중국식","category":"restaurant"}]},{"lat":"37.34850895","long":"127.2630363","imageIndex":4,"items":[{"name":"맛뜨락","tel":"031-768-1131","addr":"경기도 광주시 오포읍 매산리 134-3번지","indutype":"일반휴게음식 - 일반한식","category":"restaurant"},{"name":"맛뜨락 한식부페","tel":"031-768-1131","addr":"경기도 광주시 오포읍 매산리 134-3번지","indutype":"일반휴게음식 - 일반한식","category":"restaurant"}]},{"lat":"37.36223258","long":"127.2455081","imageIndex":4,"items":[{"name":"매봉골흑염소","tel":"031-768-0288","addr":"경기도 광주시 오포읍 매산리 587-6번지","indutype":"일반휴게음식 - 일반한식","category":"restaurant"}]},{"lat":"37.35642388","long":"127.2485031","imageIndex":4,"items":[{"name":"매산식당","tel":"031-765-8999","addr":"경기도 광주시 오포읍 매산리 234-6번지 1층","indutype":"일반휴게음식 - 일반한식","category":"restaurant"}]},{"lat":"37.35256146","long":"127.2556688","imageIndex":4,"items":[{"name":"매짜리토박이","tel":"031-761-0530","addr":"경기도 광주시 오포읍 매산리 200-2번지","indutype":"일반휴게음식 - 일반한식","category":"restaurant"}]},{"lat":"37.36456043","long":"127.2439239","imageIndex":4,"items":[{"name":"명품 손 칼국수","tel":"031-765-7892","addr":"경기도 광주시 오포읍 매산리 636-8번지 1층","indutype":"일반휴게음식 - 일반한식","category":"restaurant"}]},{"lat":"37.36247625","long":"127.245317","imageIndex":4,"items":[{"name":"미스터 짱닭치킨 매산점","tel":"031-761-9279","addr":"경기도 광주시 오포읍 매산리 587-1번지","indutype":"일반휴게음식 - 스넥","category":"restaurant"},{"name":"배가만족","tel":"031-762-7733","addr":"경기도 광주시 오포읍 매산리 587-1번지","indutype":"일반휴게음식 - 일반한식","category":"restaurant"}]},{"lat":"37.36726154","long":"127.2448695","imageIndex":4,"items":[{"name":"북경","tel":"031-766-2032","addr":"경기도 광주시 오포읍 매산리 620-1번지","indutype":"일반휴게음식 - 중국식","category":"restaurant"}]},{"lat":"37.3675667","long":"127.2454462","imageIndex":4,"items":[{"name":"산마루사철탕","tel":"031-766-8668","addr":"경기도 광주시 오포읍 매산리 623-7번지","indutype":"일반휴게음식 - 일반한식","category":"restaurant"}]},{"lat":"37.36628857","long":"127.24481","imageIndex":4,"items":[{"name":"삼거리두루치기","tel":"031-768-1999","addr":"경기도 광주시 오포읍 매산리 619-8번지 1층","indutype":"일반휴게음식 - 일반한식","category":"restaurant"}]},{"lat":"37.36770299","long":"127.2448935","imageIndex":4,"items":[{"name":"소도둑 광주 오포점","tel":"031-766-8088","addr":"경기도 광주시 오포읍 매산리 622-6번지 1층","indutype":"일반휴게음식 - 일반한식","category":"restaurant"}]},{"lat":"37.35622956","long":"127.2466175","imageIndex":4,"items":[{"name":"수누리감자탕","tel":"031-765-3336","addr":"경기도 광주시 오포읍 매산리 224-4번지","indutype":"일반휴게음식 - 일반한식","category":"restaurant"},{"name":"자성화맛집 코다리네","tel":"031-768-8867","addr":"경기도 광주시 오포읍 매산리 224-4번지 1층","indutype":"일반휴게음식 - 일반한식","category":"restaurant"}]},{"lat":"37.36134075","long":"127.2454262","imageIndex":4,"items":[{"name":"순이네부대찌개","tel":"031-766-1552","addr":"경기도 광주시 오포읍 매산리 595번지","indutype":"일반휴게음식 - 일반한식","category":"restaurant"}]},{"lat":"37.36489388","long":"127.2438911","imageIndex":4,"items":[{"name":"아미포차","tel":"031-797-2740","addr":"경기도 광주시 오포읍 매산리 635-8번지 1층","indutype":"일반휴게음식 - 일반한식","category":"restaurant"}]},{"lat":"37.35656903","long":"127.2480295","imageIndex":4,"items":[{"name":"아침닭옛날통닭","tel":"031-765-1177","addr":"경기도 광주시 오포읍 매산리 234-1번지 1층","indutype":"일반휴게음식 - 스넥","category":"restaurant"}]},{"lat":"37.36342362","long":"127.2446766","imageIndex":4,"items":[{"name":"알천샤브샤브칼국수","tel":"031-761-1553","addr":"경기도 광주시 오포읍 매산리 608-8번지","indutype":"일반휴게음식 - 일반한식","category":"restaurant"}]},{"lat":"37.35153663","long":"127.2587804","imageIndex":4,"items":[{"name":"여울목","tel":"031-762-1223","addr":"경기도 광주시 오포읍 매산리 99-2번지","indutype":"일반휴게음식 - 일반한식","category":"restaurant"}]},{"lat":"37.35698412","long":"127.2477261","imageIndex":4,"items":[{"name":"오부자식당","tel":"031-768-4554","addr":"경기도 광주시 오포읍 매산리 226-28번지 1층","indutype":"일반휴게음식 - 일반한식","category":"restaurant"}]},{"lat":"37.35662372","long":"127.2477249","imageIndex":4,"items":[{"name":"우리가보자감자탕&순대국","tel":"031-766-4772","addr":"경기도 광주시 오포읍 매산리 234-8번지 1층","indutype":"일반휴게음식 - 일반한식","category":"restaurant"},{"name":"하늘이네맛있는짬뽕","tel":"031-766-3983","addr":"경기도 광주시 오포읍 매산리 234-8번지","indutype":"일반휴게음식 - 중국식","category":"restaurant"}]},{"lat":"37.36226195","long":"127.2443681","imageIndex":4,"items":[{"name":"잡숴봐추어탕생선국수삼계탕","tel":"031-766-5574","addr":"경기도 광주시 오포읍 매산리 600-39번지 1층","indutype":"일반휴게음식 - 일반한식","category":"restaurant"}]},{"lat":"37.35733787","long":"127.2465872","imageIndex":4,"items":[{"name":"참맛식당","tel":"031-765-6959","addr":"경기도 광주시 오포읍 매산리 226-7번지","indutype":"일반휴게음식 - 일반한식","category":"restaurant"}]},{"lat":"37.35817724","long":"127.2458901","imageIndex":4,"items":[{"name":"청호가든","tel":"031-766-2040","addr":"경기도 광주시 오포읍 매산리 743-5번지","indutype":"일반휴게음식 - 일반한식","category":"restaurant"}]},{"lat":"37.35109002","long":"127.2569731","imageIndex":4,"items":[{"name":"캠핑7","tel":"031-766-2800","addr":"경기도 광주시 오포읍 매산리 192-2번지","indutype":"일반휴게음식 - 일반한식","category":"restaurant"}]},{"lat":"37.36175715","long":"127.2444794","imageIndex":4,"items":[{"name":"파인트리","tel":"031-4791-9842","addr":"경기도 광주시 오포읍 매산리 600-20번지 102호","indutype":"일반휴게음식 - 일반한식","category":"restaurant"}]},{"lat":"37.35712139","long":"127.2466994","imageIndex":4,"items":[{"name":"펀비어킹 매산2리점","tel":"03-100-0000","addr":"경기도 광주시 오포읍 매산리 226-22번지 1층","indutype":"일반휴게음식 - 주점","category":"restaurant"}]},{"lat":"37.35126126","long":"127.2569511","imageIndex":4,"items":[{"name":"푸른마을가든","tel":"031-766-9696","addr":"경기도 광주시 오포읍 매산리 192-5번지","indutype":"일반휴게음식 - 일반한식","category":"restaurant"}]},{"lat":"37.35578807","long":"127.2466161","imageIndex":4,"items":[{"name":"풍년옥","tel":"031-764-1179","addr":"경기도 광주시 오포읍 매산리 223-8번지 태룡빌딩 1층","indutype":"일반휴게음식 - 일반한식","category":"restaurant"}]},{"lat":"37.36059393","long":"127.2449271","imageIndex":4,"items":[{"name":"한계령","tel":"031-768-6640","addr":"경기도 광주시 오포읍 매산리 715-10번지","indutype":"일반휴게음식 - 일반한식","category":"restaurant"}]},{"lat":"37.36262076","long":"127.2451481","imageIndex":4,"items":[{"name":"할매순대국(매산점)","tel":"031-769-1353","addr":"경기도 광주시 오포읍 매산리 587-4번지","indutype":"일반휴게음식 - 일반한식","category":"restaurant"}]},{"lat":"37.3531461","long":"127.2561448","imageIndex":4,"items":[{"name":"행복한식뷔페","tel":"031-765-2654","addr":"경기도 광주시 오포읍 매산리 72-3번지 1층","indutype":"일반휴게음식 - 일반한식","category":"restaurant"}]},{"lat":"37.36572971","long":"127.2449211","imageIndex":4,"items":[{"name":"홍이네양푼이김치찌개","tel":"031-768-5055","addr":"경기도 광주시 오포읍 매산리 614-18번지 1층","indutype":"일반휴게음식 - 일반한식","category":"restaurant"},{"name":"후암동 숯불닭갈비","tel":"031-764-4892","addr":"경기도 광주시 오포읍 매산리 614-18번지 지하1층 102호","indutype":"일반휴게음식 - 일반한식","category":"restaurant"}]}]