[{"lat":"37.794452779","long":"127.32026946","imageIndex":4,"items":[{"name":"기와집","tel":"031-584-1515","addr":"경기도 가평군 상면 상동리 137-2번지","indutype":"일반휴게음식 - 일반한식","category":"restaurant"}]},{"lat":"37.762267357","long":"127.36231448","imageIndex":4,"items":[{"name":"대통령","tel":"031-585-2081","addr":"경기도 가평군 상면 상동리 236-1","indutype":"일반휴게음식 - 일반한식","category":"restaurant"}]},{"lat":"37.792981315","long":"127.32135307","imageIndex":4,"items":[{"name":"베네티","tel":"031-000-0000","addr":"경기도 가평군 상면 상동리 110-1번지 1층","indutype":"일반휴게음식 - 일반한식","category":"restaurant"},{"name":"씨원베네티","tel":"031-000-0000","addr":"경기도 가평군 상면 상동리 110-1번지","indutype":"일반휴게음식 - 일반한식","category":"restaurant"}]},{"lat":"37.79373157","long":"127.32376321","imageIndex":4,"items":[{"name":"비룡산가든","tel":"031-585-1718","addr":"경기도 가평군 상면 상동리 115-11","indutype":"일반휴게음식 - 일반한식","category":"restaurant"},{"name":"비룡산가든","tel":"031-585-1718","addr":"경기도 가평군 상면 상동리 115-11번지","indutype":"일반휴게음식 - 일반한식","category":"restaurant"}]},{"lat":"37.794705804","long":"127.3199867","imageIndex":4,"items":[{"name":"서리원가든","tel":"031-585-7082","addr":"경기도 가평군 상면 상동리 137번지","indutype":"일반휴게음식 - 일반한식","category":"restaurant"}]},{"lat":"37.793426303","long":"127.32337588","imageIndex":4,"items":[{"name":"성불당점까페","tel":"031-000-0000","addr":"경기도 가평군 상면 상동리 115-13번지","indutype":"일반휴게음식 - 일반한식","category":"restaurant"}]},{"lat":"37.786183839","long":"127.32295862","imageIndex":4,"items":[{"name":"세이버","tel":"031-585-7300","addr":"경기도 가평군 상면 상동리 30","indutype":"일반휴게음식 - 일반한식","category":"restaurant"}]},{"lat":"37.783481356","long":"127.29507827","imageIndex":4,"items":[{"name":"솔뫼","tel":"031-584-8518","addr":"경기도 가평군 상면 상동리 345-2번지 솔뫼","indutype":"일반휴게음식 - 일반한식","category":"restaurant"}]},{"lat":"37.788455487","long":"127.3054287","imageIndex":4,"items":[{"name":"참마당","tel":"031-585-8594","addr":"경기도 가평군 상면 상동리 225번지","indutype":"일반휴게음식 - 일반한식","category":"restaurant"}]},{"lat":"37.782760492","long":"127.29146559","imageIndex":4,"items":[{"name":"청수","tel":"","addr":"경기도 가평군 상면 상동리 338-1번지","indutype":"일반휴게음식 - 일반한식","category":"restaurant"}]},{"lat":"37.793237168","long":"127.32335235","imageIndex":4,"items":[{"name":"카페피아노","tel":"031-585-2272","addr":"경기도 가평군 상면 상동리 115-29번지 외1필지","indutype":"일반휴게음식 - 일반한식","category":"restaurant"}]},{"lat":"37.797785661","long":"127.30332084","imageIndex":4,"items":[{"name":"캐스트카페테리아/삼성웰스토리(주)가평베","tel":"031-589-8052","addr":"경기도 가평군 상면 상동리 산52번지","indutype":"일반휴게음식 - 일반한식","category":"restaurant"}]},{"lat":"37.792926369","long":"127.32168208","imageIndex":4,"items":[{"name":"한식가빈","tel":"031-585-2888","addr":"경기도 가평군 상면 상동리 111-4번지","indutype":"일반휴게음식 - 일반한식","category":"restaurant"},{"name":"한식가빈","tel":"031-585-2888","addr":"경기도 가평군 상면 상동리 111-4번지","indutype":"일반휴게음식 - 일반한식","category":"restaurant"}]}]