[{"lat":"37.799625303","long":"127.47575402","imageIndex":7,"items":[{"name":"농업회사법인 조흥미가식품/농업회사법인","tel":"031-1899-3818","addr":"경기도 가평군 가평읍 상색리 452번지","indutype":"음료식품 - 기타음료식품","category":"food"},{"name":"미가푸드","tel":"031-582-9696","addr":"경기도 가평군 가평읍 상색리 452번지","indutype":"음료식품 - 기타음료식품","category":"food"},{"name":"미가푸드","tel":"031-582-9696","addr":"경기도 가평군 가평읍 상색리 452번지 2층","indutype":"음료식품 - 기타음료식품","category":"food"}]},{"lat":"37.798818581","long":"127.48363998","imageIndex":7,"items":[{"name":"농업회사법인참사람들주식회사","tel":"031-000-0000","addr":"경기도 가평군 가평읍 상색리 32-4번지","indutype":"음료식품 - 농·축·수산품","category":"food"}]},{"lat":"37.794873458","long":"127.47672284","imageIndex":7,"items":[{"name":"사단법인 가평잣협회","tel":"031-581-0877","addr":"경기도 가평군 가평읍 상색리 413-1번지 가평군산림조합 2층 201호","indutype":"음료식품 - 농·축·수산품","category":"food"}]},{"lat":"37.796234386","long":"127.47883197","imageIndex":7,"items":[{"name":"우리농산물","tel":"031-000-0000","addr":"경기도 가평군 가평읍 상색리 314-1번지","indutype":"음료식품 - 농·축·수산품","category":"food"}]},{"lat":"37.804125341","long":"127.48358354","imageIndex":7,"items":[{"name":"원식품","tel":"031-581-9187","addr":"경기도 가평군 가평읍 상색리 182번지","indutype":"음료식품 - 기타음료식품","category":"food"}]},{"lat":"37.802767007","long":"127.48527794","imageIndex":7,"items":[{"name":"주식회사 산과들 농업회사법인","tel":"031-582-9300","addr":"경기도 가평군 가평읍 상색리 98-1번지","indutype":"음료식품 - 정육점","category":"food"}]}]