[{"lat":"37.006804435","long":"127.27642822","imageIndex":0,"items":[{"name":"(사)경기도 시각장애인연합회 안성시지회","tel":"031-672-3555","addr":"경기도 안성시 봉남동 4번지","indutype":"자동차정비 유지 - 주차장","category":"car"}]},{"lat":"37.005778418","long":"127.27590773","imageIndex":17,"items":[{"name":"(주)누리여행사","tel":"031-677-3030","addr":"경기도 안성시 봉남동 8-1","indutype":"여행 - 관광여행","category":"other"}]},{"lat":"37.006163906","long":"127.27676298","imageIndex":17,"items":[{"name":"(주)미디어안성","tel":"031-671-2347","addr":"경기도 안성시 봉남동 6-2번지","indutype":"서적문구 - 출판 및 인쇄물","category":"other"},{"name":"원스튜디오","tel":"031-675-3308","addr":"경기도 안성시 봉남동 6-2번지","indutype":"광학제품 - 사진관","category":"other"}]},{"lat":"37.006437094","long":"127.27551685","imageIndex":17,"items":[{"name":"(주)신세계관광항공여행사","tel":"031-677-5115","addr":"경기도 안성시 봉남동 18-3번지","indutype":"여행 - 관광여행","category":"other"},{"name":"주식회사 리빙갤러리","tel":"031-674-7480","addr":"경기도 안성시 봉남동 18-3번지 1층","indutype":"주방용구 - 주방용구","category":"other"},{"name":"중앙인쇄소","tel":"031-675-8766","addr":"경기도 안성시 봉남동 18-3번지","indutype":"서적문구 - 출판 및 인쇄물","category":"other"}]},{"lat":"37.006664266","long":"127.27468625","imageIndex":17,"items":[{"name":"(주)제일광고","tel":"031-677-0101","addr":"경기도 안성시 봉남동 326-1번지","indutype":"용역 서비스 - 종합용역","category":"other"}]},{"lat":"37.006527897","long":"127.27521382","imageIndex":17,"items":[{"name":"고병열세무회계사무소","tel":"031-676-7979","addr":"경기도 안성시 봉남동 18-7번지","indutype":"용역 서비스 - 법률회계서비스(개인)","category":"other"}]},{"lat":"37.007441487","long":"127.27367783","imageIndex":17,"items":[{"name":"대성장식","tel":"031-671-0477","addr":"경기도 안성시 봉남동 321-16번지","indutype":"건축자재 - 인테리어전문","category":"other"},{"name":"씨유봉남점","tel":"031-675-7945","addr":"경기도 안성시 봉남동 321-16번지","indutype":"유통업 영리 - 편 의 점","category":"other"}]},{"lat":"37.006519736","long":"127.27484303","imageIndex":17,"items":[{"name":"동방건재사","tel":"031-673-4558","addr":"경기도 안성시 봉남동 327-2번지","indutype":"건축자재 - 목재·석재·철물","category":"other"}]},{"lat":"37.005940298","long":"127.27604313","imageIndex":17,"items":[{"name":"동원함석","tel":"031-675-8682","addr":"경기도 안성시 봉남동 8-6번지 봉남연립","indutype":"전기제품 - 기타전기제품","category":"other"},{"name":"한솔낚시프라자","tel":"031-676-1471","addr":"경기도 안성시 봉남동 8-6번지 봉남연립","indutype":"레져용품 - 스포츠·레져용품","category":"other"}]},{"lat":"37.007331512","long":"127.27448639","imageIndex":17,"items":[{"name":"미래홈장식","tel":"031-673-3350","addr":"경기도 안성시 봉남동 323-4번지","indutype":"직물 - 카페트,커튼,천막,지물","category":"other"}]},{"lat":"37.007133793","long":"127.27426098","imageIndex":17,"items":[{"name":"세린로타리클럽","tel":"031-676-7800","addr":"경기도 안성시 봉남동 324-6번지","indutype":"기타 - 비영리/비대상","category":"other"}]},{"lat":"37.008830494","long":"127.2770085","imageIndex":17,"items":[{"name":"세븐일레븐봉남점","tel":"031-1577-0711","addr":"경기도 안성시 봉남동 356번지","indutype":"유통업 영리 - 편 의 점","category":"other"}]},{"lat":"37.005911921","long":"127.27662726","imageIndex":17,"items":[{"name":"안성마춤유기공방","tel":"031-675-2590","addr":"경기도 안성시 봉남동 7-2번지","indutype":"기타 - 기계공구","category":"other"}]},{"lat":"37.007195092","long":"127.27503644","imageIndex":17,"items":[{"name":"안성신도상사","tel":"031-673-4895","addr":"경기도 안성시 봉남동 329-6번지","indutype":"사무통신 - 사무용 OA기기","category":"other"},{"name":"연우측량설계사무소","tel":"031-672-7644","addr":"경기도 안성시 봉남동 329-6번지","indutype":"용역 서비스 - 사무서비스","category":"other"}]},{"lat":"37.006049252","long":"127.27568399","imageIndex":17,"items":[{"name":"유한세탁소","tel":"031-675-7824","addr":"경기도 안성시 봉남동 8-2","indutype":"수리서비스 - 세탁소","category":"other"}]},{"lat":"37.007386398","long":"127.27412705","imageIndex":17,"items":[{"name":"천지인스포츠","tel":"031-8052-2277","addr":"경기도 안성시 봉남동 322-3번지","indutype":"레져용품 - 스포츠·레져용품","category":"other"}]},{"lat":"37.007134101","long":"127.27412616","imageIndex":17,"items":[{"name":"케이썬(K-SUN)","tel":"031-672-0204","addr":"경기도 안성시 봉남동 321-1번지","indutype":"신변잡화 - 기타잡화","category":"other"},{"name":"한울디자인","tel":"031-676-3320","addr":"경기도 안성시 봉남동 321-1번지","indutype":"유통업 영리 - 기타유통업","category":"other"}]},{"lat":"37.008830494","long":"127.2770085","imageIndex":4,"items":[{"name":"계림촌","tel":"031-671-9936","addr":"경기도 안성시 봉남동 356번지","indutype":"일반휴게음식 - 일반한식","category":"restaurant"},{"name":"오늘또내일","tel":"031-677-6884","addr":"경기도 안성시 봉남동 356번지","indutype":"일반휴게음식 - 주점","category":"restaurant"},{"name":"전통손만두국","tel":"031-674-2928","addr":"경기도 안성시 봉남동 356번지","indutype":"일반휴게음식 - 일반한식","category":"restaurant"}]},{"lat":"37.005524906","long":"127.27643487","imageIndex":4,"items":[{"name":"막주골","tel":"031-677-9145","addr":"경기도 안성시 봉남동 13-5번지 하호 1층","indutype":"일반휴게음식 - 주점","category":"restaurant"},{"name":"완도산참전복구이","tel":"031-675-2783","addr":"경기도 안성시 봉남동 13-5번지","indutype":"일반휴게음식 - 일반한식","category":"restaurant"}]},{"lat":"37.006608502","long":"127.27542758","imageIndex":4,"items":[{"name":"메모리즈","tel":"031-677-3166","addr":"경기도 안성시 봉남동 18-1번지","indutype":"일반휴게음식 - 주점","category":"restaurant"}]},{"lat":"37.009552093","long":"127.27668525","imageIndex":4,"items":[{"name":"비밀정원","tel":"031-671-3168","addr":"경기도 안성시 봉남동 352번지 2층","indutype":"일반휴게음식 - 서양음식","category":"restaurant"},{"name":"비봉산 곱창전골","tel":"031-671-3168","addr":"경기도 안성시 봉남동 352번지 1층","indutype":"일반휴게음식 - 일반한식","category":"restaurant"}]},{"lat":"37.008662218","long":"127.27573827","imageIndex":4,"items":[{"name":"삼죽옻닭","tel":"031-675-8130","addr":"경기도 안성시 봉남동 338-6번지","indutype":"일반휴게음식 - 일반한식","category":"restaurant"}]},{"lat":"37.006416021","long":"127.27684253","imageIndex":4,"items":[{"name":"성신식당","tel":"031-673-3723","addr":"경기도 안성시 봉남동 5-1번지","indutype":"일반휴게음식 - 일반한식","category":"restaurant"}]},{"lat":"37.006163906","long":"127.27676298","imageIndex":4,"items":[{"name":"안성깍두기","tel":"031-671-5523","addr":"경기도 안성시 봉남동 6-2번지","indutype":"일반휴게음식 - 일반한식","category":"restaurant"}]},{"lat":"37.005472703","long":"127.27562576","imageIndex":4,"items":[{"name":"오로라쥬스","tel":"031-675-4715","addr":"경기도 안성시 봉남동 9-4번지 1층 코너","indutype":"일반휴게음식 - 서양음식","category":"restaurant"}]},{"lat":"37.007386398","long":"127.27412705","imageIndex":4,"items":[{"name":"채움도시락","tel":"031-673-7377","addr":"경기도 안성시 봉남동 322-3번지 1층","indutype":"일반휴게음식 - 일반한식","category":"restaurant"}]},{"lat":"37.006608502","long":"127.27542758","imageIndex":13,"items":[{"name":"나래뷰티헤어","tel":"031-674-7031","addr":"경기도 안성시 봉남동 18-1번지 2층 우측호","indutype":"보건위생 - 미용원","category":"beauty"}]},{"lat":"37.007134101","long":"127.27412616","imageIndex":13,"items":[{"name":"안성 지멘스 보청기","tel":"031-676-8305","addr":"경기도 안성시 봉남동 321-1번지 2층","indutype":"보건위생 - 의료용품","category":"beauty"},{"name":"주식회사도화담","tel":"031-676-8306","addr":"경기도 안성시 봉남동 321-1번지 2층 201호","indutype":"보건위생 - 의료용품","category":"beauty"}]},{"lat":"37.007386398","long":"127.27412705","imageIndex":13,"items":[{"name":"연헤어","tel":"031-672-6993","addr":"경기도 안성시 봉남동 322-3번지","indutype":"보건위생 - 미용원","category":"beauty"}]},{"lat":"37.007963973","long":"127.27373586","imageIndex":7,"items":[{"name":"동신방앗간","tel":"031-675-0439","addr":"경기도 안성시 봉남동 35번지 동신떡방아간","indutype":"음료식품 - 제과점","category":"food"}]},{"lat":"37.007249465","long":"127.27490181","imageIndex":7,"items":[{"name":"해밀","tel":"031-671-7369","addr":"경기도 안성시 봉남동 334-8번지 1층","indutype":"건강식품 - 기타건강식품","category":"food"}]},{"lat":"37.007160182","long":"127.27454196","imageIndex":16,"items":[{"name":"안성검도관","tel":"031-672-6760","addr":"경기도 안성시 봉남동 324-3번지","indutype":"학원 - 예·체능계학원","category":"study"}]},{"lat":"37.007885705","long":"127.27643209","imageIndex":16,"items":[{"name":"안성여자중학교","tel":"031-677-6032","addr":"경기도 안성시 봉남동 360번지 안성여자중학교","indutype":"학원 - 초중고교육기관","category":"study"}]},{"lat":"37.006582939","long":"127.27478708","imageIndex":8,"items":[{"name":"이성준동물병원","tel":"031-673-5858","addr":"경기도 안성시 봉남동 326-2번지","indutype":"기타의료기관 - 동물병원","category":"medical"}]}]