[{"lat":"37.731433098","long":"127.30940514","imageIndex":17,"items":[{"name":"(주)눈출판그룹","tel":"02-3394-4745","addr":"경기도 남양주시 수동면 외방리 474-69번지","indutype":"회원제형태 - 서적","category":"other"}]},{"lat":"37.738990204","long":"127.30665676","imageIndex":17,"items":[{"name":"(주)행복한날","tel":"031-571-4583","addr":"경기도 남양주시 수동면 외방리 424-11번지","indutype":"신변잡화 - 기타잡화","category":"other"}]},{"lat":"37.739911512","long":"127.30923588","imageIndex":17,"items":[{"name":"라인산업","tel":"031-511-2082","addr":"경기도 남양주시 수동면 외방리 209","indutype":"가구 - 일반가구","category":"other"}]},{"lat":"37.731908344","long":"127.30679799","imageIndex":17,"items":[{"name":"렌탈P","tel":"031-1111-1111","addr":"경기도 남양주시 수동면 외방리 459-11번지","indutype":"레져용품 - 스포츠·레져용품","category":"other"}]},{"lat":"37.721576785","long":"127.30935318","imageIndex":17,"items":[{"name":"메디포즈몰","tel":"","addr":"경기도 남양주시 수동면 외방리 547-19번지","indutype":"문화.취미 - 애완동물","category":"other"}]},{"lat":"37.729323959","long":"127.29918726","imageIndex":17,"items":[{"name":"사회복지법인하나금융공익재단하나케어센터","tel":"031-591-9090","addr":"경기도 남양주시 수동면 외방리 589-6","indutype":"기타의료기관 - 기타의료기관 및 기타","category":"other"}]},{"lat":"37.73901916","long":"127.30590811","imageIndex":17,"items":[{"name":"상생","tel":"031-000-0000","addr":"경기도 남양주시 수동면 외방리 423-2번지 301호","indutype":"직물 - 침구·수예점","category":"other"}]},{"lat":"37.727659403","long":"127.30188033","imageIndex":17,"items":[{"name":"세븐일레븐남양주비룡로점","tel":"031-1577-0711","addr":"경기도 남양주시 수동면 외방리 573-11번지 1층","indutype":"유통업 영리 - 편 의 점","category":"other"}]},{"lat":"37.722269864","long":"127.30960557","imageIndex":17,"items":[{"name":"세븐일레븐수동외방리점","tel":"031-1577-0711","addr":"경기도 남양주시 수동면 외방리 543-8번지","indutype":"유통업 영리 - 편 의 점","category":"other"}]},{"lat":"37.746323882","long":"127.30668673","imageIndex":17,"items":[{"name":"은행나무연수원","tel":"031-553-8200","addr":"경기도 남양주시 수동면 외방리 362-2번지","indutype":"용역 서비스 - 사무서비스","category":"other"}]},{"lat":"37.738742934","long":"127.30821001","imageIndex":17,"items":[{"name":"체형연구소","tel":"070-8816-7774","addr":"경기도 남양주시 수동면 외방리 445-3번지","indutype":"회원제형태 - 기타4","category":"other"}]},{"lat":"37.749157216","long":"127.30849107","imageIndex":17,"items":[{"name":"코듀스 (CODUS)","tel":"","addr":"경기도 남양주시 수동면 외방리 260-4번지","indutype":"의류 - 정장","category":"other"}]}]