[{"lat":"37.701401598","long":"126.69193536","imageIndex":13,"items":[{"name":"(주)지아이지그린인터내셔널","tel":"043-218-2803","addr":"경기도 파주시 산남동 304-1번지 산남에버프라자 101호","indutype":"보건위생 - 미용재료","category":"beauty"}]},{"lat":"37.70101404","long":"126.69188028","imageIndex":13,"items":[{"name":"S&D메디칼","tel":"031-947-4472","addr":"경기도 파주시 산남동 305-16번지","indutype":"보건위생 - 의료용품","category":"beauty"}]},{"lat":"37.699706393","long":"126.69483389","imageIndex":13,"items":[{"name":"루디아헤어","tel":"02-389-4488","addr":"경기도 파주시 산남동 121-2번지","indutype":"보건위생 - 미용원","category":"beauty"}]},{"lat":"37.696707435","long":"126.70229574","imageIndex":13,"items":[{"name":"마네끼네꼬","tel":"031-944-9135","addr":"경기도 파주시 산남동 52-2번지","indutype":"보건위생 - 미용재료","category":"beauty"}]},{"lat":"37.699147508","long":"126.69472281","imageIndex":13,"items":[{"name":"미소","tel":"031-943-8131","addr":"경기도 파주시 산남동 244-2번지","indutype":"보건위생 - 미용재료","category":"beauty"},{"name":"세나박헤어샵","tel":"070-4134-2092","addr":"경기도 파주시 산남동 244-2번지","indutype":"보건위생 - 미용원","category":"beauty"},{"name":"주식회사 은혜무역","tel":"031-957-3344","addr":"경기도 파주시 산남동 244-2번지","indutype":"보건위생 - 미용재료","category":"beauty"}]},{"lat":"37.707179955","long":"126.68974525","imageIndex":13,"items":[{"name":"엔자임하우스","tel":"031-941-2128","addr":"경기도 파주시 산남동 368-2번지","indutype":"보건위생 - 피부미용실","category":"beauty"}]},{"lat":"37.699794617","long":"126.71183074","imageIndex":13,"items":[{"name":"제이아이커뮤니케이션","tel":"031-943-3132","addr":"경기도 파주시 산남동 20-2번지","indutype":"보건위생 - 기타대인서비스","category":"beauty"}]},{"lat":"37.700652538","long":"126.69488667","imageIndex":13,"items":[{"name":"한스메디칼","tel":"031-942-3030","addr":"경기도 파주시 산남동 120-9번지","indutype":"보건위생 - 안경","category":"beauty"}]}]