[{"lat":"36.983100656","long":"126.92826889","imageIndex":13,"items":[{"name":"DS당구클럽","tel":"02-111-1111","addr":"경기도 평택시 안중읍 현화리 854-2번지 덕진빌딩 2층","indutype":"레저업소 - 당 구 장","category":"leisure"}]},{"lat":"36.985044664","long":"126.92468395","imageIndex":13,"items":[{"name":"JS핫요가","tel":"031-682-1317","addr":"경기도 평택시 안중읍 현화리 70번지 주광빌딩 205호","indutype":"레저업소 - 헬스클럽","category":"leisure"}]},{"lat":"36.979302616","long":"126.92138783","imageIndex":13,"items":[{"name":"STARDOM PC","tel":"","addr":"경기도 평택시 안중읍 현화리 834-1번지 3층","indutype":"레저업소 - 기타레져업소","category":"leisure"},{"name":"원포인트당구장","tel":"031-682-0688","addr":"경기도 평택시 안중읍 현화리 834-1번지 6층 601호","indutype":"레저업소 - 당 구 장","category":"leisure"},{"name":"주노노래방","tel":"031-684-0288","addr":"경기도 평택시 안중읍 현화리 834-1번지 4층","indutype":"레저업소 - 노 래 방","category":"leisure"},{"name":"주노노래연습장","tel":"031-684-0288","addr":"경기도 평택시 안중읍 현화리 834-1번지 4층","indutype":"레저업소 - 노 래 방","category":"leisure"},{"name":"팝필드코인노래연습장","tel":"","addr":"경기도 평택시 안중읍 현화리 834-1번지 2층 202호","indutype":"레저업소 - 노 래 방","category":"leisure"}]},{"lat":"36.98440667","long":"126.92741398","imageIndex":13,"items":[{"name":"가빈노래연습장","tel":"031-681-8012","addr":"경기도 평택시 안중읍 현화리 26번지","indutype":"레저업소 - 노 래 방","category":"leisure"}]},{"lat":"36.978492856","long":"126.92316321","imageIndex":13,"items":[{"name":"경희탁구클럽","tel":"031-682-0308","addr":"경기도 평택시 안중읍 현화리 837-2번지 5층","indutype":"레저업소 - 기타레져업소","category":"leisure"}]},{"lat":"36.978574171","long":"126.92348883","imageIndex":13,"items":[{"name":"고릴라휘트니스","tel":"031-684-3331","addr":"경기도 평택시 안중읍 현화리 837-13번지 601,602호","indutype":"레저업소 - 헬스클럽","category":"leisure"},{"name":"케이팝스타 코인 노래연습장","tel":"031-000-0000","addr":"경기도 평택시 안중읍 현화리 837-13번지 우성프라자 201호","indutype":"레저업소 - 노 래 방","category":"leisure"}]},{"lat":"36.982380319","long":"126.91580237","imageIndex":13,"items":[{"name":"구슬당구장","tel":"031-683-3539","addr":"경기도 평택시 안중읍 현화리 497-8번지 2층","indutype":"레저업소 - 당 구 장","category":"leisure"},{"name":"맨투맨휘트니스","tel":"031-681-3119","addr":"경기도 평택시 안중읍 현화리 497-8번지 지하1층","indutype":"레저업소 - 헬스클럽","category":"leisure"},{"name":"카르마요가","tel":"041-5557-4063","addr":"경기도 평택시 안중읍 현화리 497-8번지","indutype":"레저업소 - 헬스클럽","category":"leisure"}]},{"lat":"36.982767344","long":"126.928404","imageIndex":13,"items":[{"name":"글로버PC","tel":"070-3166-9555","addr":"경기도 평택시 안중읍 현화리 854-4번지 1층 101호","indutype":"레저업소 - 기타레져업소","category":"leisure"},{"name":"스카이 노래연습장","tel":"031-681-1456","addr":"경기도 평택시 안중읍 현화리 854-4번지 2층","indutype":"레저업소 - 노 래 방","category":"leisure"},{"name":"안중탁구클럽","tel":"031-683-0092","addr":"경기도 평택시 안중읍 현화리 854-4번지 4층","indutype":"레저업소 - 기타레져업소","category":"leisure"}]},{"lat":"36.982938618","long":"126.92851615","imageIndex":13,"items":[{"name":"노리터 PC카페","tel":"070-3546-1620","addr":"경기도 평택시 안중읍 현화리 854-3번지 2층","indutype":"레저업소 - 기타레져업소","category":"leisure"}]},{"lat":"36.984746498","long":"126.92345996","imageIndex":13,"items":[{"name":"대한인디안요가협회","tel":"031-686-5968","addr":"경기도 평택시 안중읍 현화리 249번지 4층 402호","indutype":"레저업소 - 헬스클럽","category":"leisure"}]},{"lat":"36.977969954","long":"126.92274821","imageIndex":13,"items":[{"name":"더캠프 PC방","tel":"","addr":"경기도 평택시 안중읍 현화리 837-6번지 이우프라자 501호","indutype":"레저업소 - 기타레져업소","category":"leisure"},{"name":"더캠프PC방","tel":"","addr":"경기도 평택시 안중읍 현화리 837-6번지 이우프라자 5층 501호","indutype":"레저업소 - 기타레져업소","category":"leisure"},{"name":"오렌지당구클럽","tel":"031-686-8192","addr":"경기도 평택시 안중읍 현화리 837-6번지 이우프라자 4층 401호","indutype":"레저업소 - 당 구 장","category":"leisure"}]},{"lat":"36.978608272","long":"126.92063608","imageIndex":13,"items":[{"name":"라온 스크린 골프","tel":"031-683-3303","addr":"경기도 평택시 안중읍 현화리 833-2번지 세연프라자 203호","indutype":"레저업소 - 스크린골프","category":"leisure"},{"name":"로또당구장","tel":"070-4120-7540","addr":"경기도 평택시 안중읍 현화리 833-2번지 세연프라자 601호","indutype":"레저업소 - 당 구 장","category":"leisure"},{"name":"비바당구클럽","tel":"031-681-3949","addr":"경기도 평택시 안중읍 현화리 833-2번지 세연프라자 303호","indutype":"레저업소 - 당 구 장","category":"leisure"},{"name":"비바당구클럽","tel":"031-681-3949","addr":"경기도 평택시 안중읍 현화리 833-2번지 세연빌딩 303호","indutype":"레저업소 - 당 구 장","category":"leisure"}]},{"lat":"36.983244672","long":"126.92802165","imageIndex":13,"items":[{"name":"락휴노래연습장","tel":"031-683-1141","addr":"경기도 평택시 안중읍 현화리 854-1번지 대건빌딩 5층","indutype":"레저업소 - 노 래 방","category":"leisure"},{"name":"머슬짐","tel":"031-683-7330","addr":"경기도 평택시 안중읍 현화리 854-1번지 대건빌딩 4층","indutype":"레저업소 - 헬스클럽","category":"leisure"}]},{"lat":"36.978880181","long":"126.92296065","imageIndex":13,"items":[{"name":"로시당구클럽","tel":"031-683-4411","addr":"경기도 평택시 안중읍 현화리 836-4번지 6층","indutype":"레저업소 - 당 구 장","category":"leisure"}]},{"lat":"36.991406733","long":"126.91269176","imageIndex":13,"items":[{"name":"로얄볼링센터","tel":"031-682-4345","addr":"경기도 평택시 안중읍 현화리 658-2번지 G동 2층","indutype":"레저업소 - 볼 링 장","category":"leisure"}]},{"lat":"36.979303069","long":"126.92205047","imageIndex":13,"items":[{"name":"루키당구장","tel":"031-684-0182","addr":"경기도 평택시 안중읍 현화리 835-12번지 안중빌딩 4층","indutype":"레저업소 - 당 구 장","category":"leisure"},{"name":"첼시노래연습장","tel":"00-000-0000","addr":"경기도 평택시 안중읍 현화리 835-12번지 3층","indutype":"레저업소 - 노 래 방","category":"leisure"}]},{"lat":"36.984963129","long":"126.92402134","imageIndex":13,"items":[{"name":"미스터잉어","tel":"031-682-5559","addr":"경기도 평택시 안중읍 현화리 250번지","indutype":"레저업소 - 기타레져업소","category":"leisure"}]},{"lat":"36.978330565","long":"126.92301738","imageIndex":13,"items":[{"name":"별밤지기노래연습장","tel":"031-683-6682","addr":"경기도 평택시 안중읍 현화리 837-3번지 3층","indutype":"레저업소 - 노 래 방","category":"leisure"},{"name":"쇼타임PC방","tel":"070-4702-9378","addr":"경기도 평택시 안중읍 현화리 837-3번지 4층 401호","indutype":"레저업소 - 기타레져업소","category":"leisure"},{"name":"챔피언당구클럽","tel":"031-684-2147","addr":"경기도 평택시 안중읍 현화리 837-3번지 5층","indutype":"레저업소 - 당 구 장","category":"leisure"}]},{"lat":"36.984829207","long":"126.92590847","imageIndex":13,"items":[{"name":"보니따 필라테스 평택 안중점","tel":"031-684-1927","addr":"경기도 평택시 안중읍 현화리 47번지 상가동 302호","indutype":"레저업소 - 헬스클럽","category":"leisure"}]},{"lat":"36.978886497","long":"126.91905218","imageIndex":13,"items":[{"name":"안중노블스크린골프","tel":"031-684-0754","addr":"경기도 평택시 안중읍 현화리 831번지 3층 303호","indutype":"레저업소 - 스크린골프","category":"leisure"},{"name":"에이원","tel":"031-682-9522","addr":"경기도 평택시 안중읍 현화리 831번지 2층 전부 201호전부,201-1 일부호","indutype":"레저업소 - 헬스클럽","category":"leisure"},{"name":"에이원필라테스","tel":"031-682-5374","addr":"경기도 평택시 안중읍 현화리 831번지 붐붐프라자 201-1호","indutype":"레저업소 - 헬스클럽","category":"leisure"},{"name":"유후점핑클럽","tel":"031-681-5277","addr":"경기도 평택시 안중읍 현화리 831번지 붕붕프라자 3층 307호","indutype":"레저업소 - 기타레져업소","category":"leisure"}]},{"lat":"36.979024209","long":"126.9227471","imageIndex":13,"items":[{"name":"안중당구장","tel":"070-8162-1449","addr":"경기도 평택시 안중읍 현화리 836-3번지 6층","indutype":"레저업소 - 당 구 장","category":"leisure"},{"name":"평택복싱2체육관","tel":"031-654-2393","addr":"경기도 평택시 안중읍 현화리 836-3번지 401호","indutype":"레저업소 - 헬스클럽","category":"leisure"}]},{"lat":"36.982523266","long":"126.92715751","imageIndex":13,"items":[{"name":"안중바른자세교정운동원","tel":"031-684-5820","addr":"경기도 평택시 안중읍 현화리 858-2번지 1층 상가 1층","indutype":"레저업소 - 헬스클럽","category":"leisure"}]},{"lat":"36.978852907","long":"126.92260128","imageIndex":13,"items":[{"name":"제우스PC","tel":"070-9713-9587","addr":"경기도 평택시 안중읍 현화리 836-6번지 MK빌딩 301호, 302호","indutype":"레저업소 - 기타레져업소","category":"leisure"}]},{"lat":"36.976240205","long":"126.92321049","imageIndex":13,"items":[{"name":"제이골프스크린","tel":"031-683-9960","addr":"경기도 평택시 안중읍 현화리 172-8번지","indutype":"레저업소 - 스크린골프","category":"leisure"}]},{"lat":"36.978691205","long":"126.92333147","imageIndex":13,"items":[{"name":"지오 (G.O)휘트니스댄스","tel":"","addr":"경기도 평택시 안중읍 현화리 837-1번지 6층","indutype":"레저업소 - 헬스클럽","category":"leisure"}]},{"lat":"36.982550931","long":"126.92815711","imageIndex":13,"items":[{"name":"짱노래연습장","tel":"031-683-8355","addr":"경기도 평택시 안중읍 현화리 855-1번지 지하층","indutype":"레저업소 - 노 래 방","category":"leisure"}]},{"lat":"36.978573163","long":"126.92199509","imageIndex":13,"items":[{"name":"친노래연습장","tel":"031-681-4636","addr":"경기도 평택시 안중읍 현화리 835-5번지","indutype":"레저업소 - 노 래 방","category":"leisure"}]},{"lat":"36.982829951","long":"126.92766264","imageIndex":13,"items":[{"name":"테크노SF노래연습장","tel":"031-683-4079","addr":"경기도 평택시 안중읍 현화리 856-4번지 1동","indutype":"레저업소 - 노 래 방","category":"leisure"}]},{"lat":"36.979104373","long":"126.92137681","imageIndex":13,"items":[{"name":"허니노래연습장","tel":"070-8221-6478","addr":"경기도 평택시 안중읍 현화리 834-2번지 3층 301호","indutype":"레저업소 - 노 래 방","category":"leisure"}]},{"lat":"36.986020646","long":"126.91579822","imageIndex":13,"items":[{"name":"현화노래연습장","tel":"031-686-7729","addr":"경기도 평택시 안중읍 현화리 540-6","indutype":"레저업소 - 노 래 방","category":"leisure"}]}]