[{"lat":"37.399108075","long":"126.93864383","imageIndex":8,"items":[{"name":"OK치과의원","tel":"031-465-2274","addr":"경기도 안양시 동안구 비산동 459-52번지","indutype":"의원 - 치과의원","category":"medical"},{"name":"거북이한의원","tel":"031-442-5677","addr":"경기도 안양시 동안구 비산동 459-52번지","indutype":"의원 - 한의원","category":"medical"}]},{"lat":"37.402249521","long":"126.95070324","imageIndex":8,"items":[{"name":"가연치과의원","tel":"031-384-7522","addr":"경기도 안양시 동안구 비산동 1034-15번지","indutype":"의원 - 치과의원","category":"medical"}]},{"lat":"37.397554696","long":"126.9322531","imageIndex":8,"items":[{"name":"강내과의원","tel":"031-445-7585","addr":"경기도 안양시 동안구 비산동 558-1번지","indutype":"의원 - 의원","category":"medical"}]},{"lat":"37.404772642","long":"126.9337259","imageIndex":8,"items":[{"name":"강천식소아과","tel":"031-444-5565","addr":"경기도 안양시 동안구 비산동 514번지","indutype":"의원 - 의원","category":"medical"},{"name":"태양한의원","tel":"031-468-8435","addr":"경기도 안양시 동안구 비산동 514번지","indutype":"의원 - 한의원","category":"medical"}]},{"lat":"37.398916257","long":"126.93401362","imageIndex":8,"items":[{"name":"경희닥터스한의원","tel":"031-447-9909","addr":"경기도 안양시 동안구 비산동 554-1번지","indutype":"의원 - 한의원","category":"medical"},{"name":"꼬마이치과의원","tel":"031-464-4475","addr":"경기도 안양시 동안구 비산동 554-1번지","indutype":"의원 - 치과의원","category":"medical"},{"name":"서울마취통증의학과의원","tel":"031-441-1975","addr":"경기도 안양시 동안구 비산동 554-1번지","indutype":"의원 - 의원","category":"medical"},{"name":"서울신경외과의원","tel":"031-449-9119","addr":"경기도 안양시 동안구 비산동 554-1번지","indutype":"의원 - 의원","category":"medical"},{"name":"신중호비뇨기과의원","tel":"031-443-0333","addr":"경기도 안양시 동안구 비산동 554-1번지","indutype":"의원 - 의원","category":"medical"},{"name":"참약국","tel":"031-468-1662","addr":"경기도 안양시 동안구 비산동 554-1번지","indutype":"약국 - 약국","category":"medical"}]},{"lat":"37.397195887","long":"126.93497513","imageIndex":8,"items":[{"name":"경희예스한의원","tel":"031-689-3949","addr":"경기도 안양시 동안구 비산동 570-8번지 대명맨션","indutype":"의원 - 한의원","category":"medical"}]},{"lat":"37.394722606","long":"126.94331157","imageIndex":8,"items":[{"name":"관악정성약국","tel":"031-383-1862","addr":"경기도 안양시 동안구 비산동 1102번지","indutype":"약국 - 약국","category":"medical"}]},{"lat":"37.391248056","long":"126.9503721","imageIndex":8,"items":[{"name":"굿모닝약국","tel":"031-476-1723","addr":"경기도 안양시 동안구 비산동 1108-1번지","indutype":"약국 - 약국","category":"medical"},{"name":"굿모닝약국","tel":"031-476-1723","addr":"경기도 안양시 동안구 비산동 1108-1번지","indutype":"약국 - 약국","category":"medical"},{"name":"끌림365의원","tel":"031-382-3321","addr":"경기도 안양시 동안구 비산동 1108-1번지","indutype":"의원 - 의원","category":"medical"},{"name":"동안정신과의원","tel":"031-383-3593","addr":"경기도 안양시 동안구 비산동 1108-1번지","indutype":"의원 - 의원","category":"medical"},{"name":"백약국","tel":"031-388-1902","addr":"경기도 안양시 동안구 비산동 1108-1번지","indutype":"약국 - 약국","category":"medical"},{"name":"벨치과","tel":"031-82-2875","addr":"경기도 안양시 동안구 비산동 1108-1번지","indutype":"의원 - 치과의원","category":"medical"},{"name":"생기한의원","tel":"031-388-7533","addr":"경기도 안양시 동안구 비산동 1108-1번지","indutype":"의원 - 한의원","category":"medical"},{"name":"성현내과의원","tel":"031-387-6992","addr":"경기도 안양시 동안구 비산동 1108-1번지","indutype":"의원 - 의원","category":"medical"},{"name":"아미비뇨기과의원","tel":"031-381-5188","addr":"경기도 안양시 동안구 비산동 1108-1번지","indutype":"의원 - 의원","category":"medical"},{"name":"아이스크림의원","tel":"031-384-1230","addr":"경기도 안양시 동안구 비산동 1108-1번지","indutype":"의원 - 의원","category":"medical"},{"name":"우리좋은치과","tel":"031-383-5552","addr":"경기도 안양시 동안구 비산동 1108-1번지","indutype":"의원 - 치과의원","category":"medical"},{"name":"조용철한의원","tel":"031-381-2224","addr":"경기도 안양시 동안구 비산동 1108-1번지","indutype":"의원 - 한의원","category":"medical"},{"name":"키즈앤맘 한의원","tel":"031-382-1075","addr":"경기도 안양시 동안구 비산동 1108-1번지","indutype":"의원 - 한의원","category":"medical"},{"name":"평촌서울안과","tel":"031-387-7582","addr":"경기도 안양시 동안구 비산동 1108-1번지","indutype":"의원 - 의원","category":"medical"},{"name":"해율한의원","tel":"031-381-3388","addr":"경기도 안양시 동안구 비산동 1108-1번지","indutype":"의원 - 한의원","category":"medical"}]},{"lat":"37.398248955","long":"126.95050273","imageIndex":8,"items":[{"name":"금정약국","tel":"031-383-1446","addr":"경기도 안양시 동안구 비산동 1101-6번지","indutype":"약국 - 약국","category":"medical"}]},{"lat":"37.406556192","long":"126.95037271","imageIndex":8,"items":[{"name":"김평수한의원","tel":"031-348-0009","addr":"경기도 안양시 동안구 비산동 1029-10번지","indutype":"의원 - 한의원","category":"medical"}]},{"lat":"37.391085698","long":"126.94997697","imageIndex":8,"items":[{"name":"나비아이한의원","tel":"031-296-1075","addr":"경기도 안양시 동안구 비산동 1108번지","indutype":"의원 - 한의원","category":"medical"},{"name":"선이고운치과","tel":"031-388-0707","addr":"경기도 안양시 동안구 비산동 1108번지","indutype":"의원 - 치과의원","category":"medical"},{"name":"한음한방신경정신과 한의원","tel":"031-689-4775","addr":"경기도 안양시 동안구 비산동 1108번지","indutype":"의원 - 한의원","category":"medical"}]},{"lat":"37.401772958","long":"126.95295108","imageIndex":8,"items":[{"name":"뉴키즈맘약국","tel":"031-383-9961","addr":"경기도 안양시 동안구 비산동 1059번지","indutype":"약국 - 약국","category":"medical"}]},{"lat":"37.39169011","long":"126.95164784","imageIndex":8,"items":[{"name":"더우리들신경외과의원","tel":"031-440-9006","addr":"경기도 안양시 동안구 비산동 1112-1번지","indutype":"의원 - 의원","category":"medical"},{"name":"발머스한의원","tel":"031-385-7011","addr":"경기도 안양시 동안구 비산동 1112-1번지","indutype":"의원 - 한의원","category":"medical"},{"name":"서정룡성형외과","tel":"031-386-0515","addr":"경기도 안양시 동안구 비산동 1112-1번지","indutype":"의원 - 의원","category":"medical"},{"name":"예소담한의원","tel":"031-440-9374","addr":"경기도 안양시 동안구 비산동 1112-1번지","indutype":"의원 - 한의원","category":"medical"},{"name":"위강한의원","tel":"031-383-0975","addr":"경기도 안양시 동안구 비산동 1112-1번지","indutype":"의원 - 한의원","category":"medical"},{"name":"제일동물병원","tel":"031-388-1845","addr":"경기도 안양시 동안구 비산동 1112-1번지","indutype":"기타의료기관 - 동물병원","category":"medical"},{"name":"타워치과","tel":"031-386-0075","addr":"경기도 안양시 동안구 비산동 1112-1번지","indutype":"의원 - 치과의원","category":"medical"},{"name":"해오름약국","tel":"031-440-9969","addr":"경기도 안양시 동안구 비산동 1112-1번지","indutype":"약국 - 약국","category":"medical"},{"name":"휴한의원","tel":"031-388-1076","addr":"경기도 안양시 동안구 비산동 1112-1번지","indutype":"의원 - 한의원","category":"medical"}]},{"lat":"37.396446217","long":"126.94890035","imageIndex":8,"items":[{"name":"도움온누리약국","tel":"031-388-5750","addr":"경기도 안양시 동안구 비산동 1101-2번지","indutype":"약국 - 약국","category":"medical"},{"name":"서울소아과의원","tel":"031-381-5275","addr":"경기도 안양시 동안구 비산동 1101-2번지","indutype":"의원 - 의원","category":"medical"}]},{"lat":"37.399079207","long":"126.93534612","imageIndex":8,"items":[{"name":"동인성모정형외과의원","tel":"031-469-9877","addr":"경기도 안양시 동안구 비산동 550-1번지","indutype":"의원 - 의원","category":"medical"},{"name":"상쾌한이비인후과","tel":"031-441-7300","addr":"경기도 안양시 동안구 비산동 550-1번지","indutype":"의원 - 의원","category":"medical"},{"name":"세계로약국","tel":"031-466-8448","addr":"경기도 안양시 동안구 비산동 550-1번지","indutype":"약국 - 약국","category":"medical"},{"name":"안양어린이치과의원","tel":"031-449-2879","addr":"경기도 안양시 동안구 비산동 550-1번지","indutype":"의원 - 치과의원","category":"medical"},{"name":"연세이택안과의원","tel":"031-466-1183","addr":"경기도 안양시 동안구 비산동 550-1번지","indutype":"의원 - 의원","category":"medical"},{"name":"유사랑한의원","tel":"031-360-8262","addr":"경기도 안양시 동안구 비산동 550-1번지","indutype":"의원 - 한의원","category":"medical"},{"name":"이브미의원","tel":"031-443-8467","addr":"경기도 안양시 동안구 비산동 550-1번지","indutype":"의원 - 의원","category":"medical"},{"name":"정다운5층약국","tel":"031-443-5556","addr":"경기도 안양시 동안구 비산동 550-1번지","indutype":"약국 - 약국","category":"medical"}]},{"lat":"37.398333865","long":"126.93986419","imageIndex":8,"items":[{"name":"롯데온누리약국","tel":"031-388-3531","addr":"경기도 안양시 동안구 비산동 408번지 비산롯데캐슬","indutype":"약국 - 약국","category":"medical"},{"name":"좋은이웃한의원","tel":"031-386-0009","addr":"경기도 안양시 동안구 비산동 408번지 비산롯데캐슬","indutype":"의원 - 한의원","category":"medical"},{"name":"한울소아과의원","tel":"031-386-1021","addr":"경기도 안양시 동안구 비산동 408번지 비산롯데캐슬","indutype":"의원 - 의원","category":"medical"}]},{"lat":"37.400667319","long":"126.9395686","imageIndex":8,"items":[{"name":"맑은성모 이비인후과","tel":"031-468-8275","addr":"경기도 안양시 동안구 비산동 425번지","indutype":"의원 - 의원","category":"medical"},{"name":"안양부부치과의원","tel":"031-384-2877","addr":"경기도 안양시 동안구 비산동 425번지","indutype":"의원 - 치과의원","category":"medical"}]},{"lat":"37.390725081","long":"126.94950295","imageIndex":8,"items":[{"name":"미래솔한의원","tel":"031-386-2004","addr":"경기도 안양시 동안구 비산동 1107-1번지","indutype":"의원 - 한의원","category":"medical"},{"name":"범계약국","tel":"031-388-5575","addr":"경기도 안양시 동안구 비산동 1107-1번지","indutype":"약국 - 약국","category":"medical"},{"name":"지평한의원","tel":"031-389-0900","addr":"경기도 안양시 동안구 비산동 1107-1번지","indutype":"의원 - 한의원","category":"medical"},{"name":"햇살정신과","tel":"031-440-8575","addr":"경기도 안양시 동안구 비산동 1107-1번지","indutype":"의원 - 의원","category":"medical"}]},{"lat":"37.398808004","long":"126.93378785","imageIndex":8,"items":[{"name":"백화점약국","tel":"031-469-7578","addr":"경기도 안양시 동안구 비산동 554-2번지","indutype":"약국 - 약국","category":"medical"},{"name":"제이앤씨피부과","tel":"031-468-7577","addr":"경기도 안양시 동안구 비산동 554-2번지","indutype":"의원 - 의원","category":"medical"}]},{"lat":"37.39252908","long":"126.95408648","imageIndex":8,"items":[{"name":"범계굿모닝치과의원","tel":"031-464-7528","addr":"경기도 안양시 동안구 비산동 1115번지","indutype":"의원 - 치과의원","category":"medical"}]},{"lat":"37.403581207","long":"126.94676061","imageIndex":8,"items":[{"name":"비산정치과의원","tel":"031-386-0428","addr":"경기도 안양시 동안구 비산동 355-1번지","indutype":"의원 - 치과의원","category":"medical"}]},{"lat":"37.399363386","long":"126.94448244","imageIndex":8,"items":[{"name":"비산치과","tel":"031-383-8275","addr":"경기도 안양시 동안구 비산동 379-3번지 동양월드타워","indutype":"의원 - 치과의원","category":"medical"}]},{"lat":"37.403799762","long":"126.95186548","imageIndex":8,"items":[{"name":"비채원한약국","tel":"031-386-7977","addr":"경기도 안양시 동안구 비산동 1049-15번지","indutype":"약국 - 약국","category":"medical"}]},{"lat":"37.400553698","long":"126.94650311","imageIndex":8,"items":[{"name":"새관악약국","tel":"031-388-7746","addr":"경기도 안양시 동안구 비산동 360-8번지","indutype":"약국 - 약국","category":"medical"}]},{"lat":"37.40216821","long":"126.95020636","imageIndex":8,"items":[{"name":"서울연세치과의원","tel":"031-385-2275","addr":"경기도 안양시 동안구 비산동 1033-2번지","indutype":"의원 - 치과의원","category":"medical"}]},{"lat":"37.400716184","long":"126.94714674","imageIndex":8,"items":[{"name":"선우한의원","tel":"031-0385-6359","addr":"경기도 안양시 동안구 비산동 363-13번지","indutype":"의원 - 한의원","category":"medical"},{"name":"하은동물병원","tel":"031-384-3690","addr":"경기도 안양시 동안구 비산동 363-13번지","indutype":"기타의료기관 - 동물병원","category":"medical"}]},{"lat":"37.399051918","long":"126.9348944","imageIndex":8,"items":[{"name":"세광한약방","tel":"031-449-9909","addr":"경기도 안양시 동안구 비산동 550-7번지","indutype":"약국 - 한약방","category":"medical"},{"name":"이엔이치과","tel":"031-469-2897","addr":"경기도 안양시 동안구 비산동 550-7번지","indutype":"의원 - 치과의원","category":"medical"}]},{"lat":"37.39288388","long":"126.94200307","imageIndex":8,"items":[{"name":"쇼독동물병원","tel":"031-465-0907","addr":"경기도 안양시 동안구 비산동 580-14번지","indutype":"기타의료기관 - 동물병원","category":"medical"}]},{"lat":"37.404411583","long":"126.94989984","imageIndex":8,"items":[{"name":"심태현치과의원","tel":"031-387-9944","addr":"경기도 안양시 동안구 비산동 1031-10번지","indutype":"의원 - 치과의원","category":"medical"}]},{"lat":"37.391527697","long":"126.9511172","imageIndex":8,"items":[{"name":"연세김선용치과의원","tel":"031-385-2876","addr":"경기도 안양시 동안구 비산동","indutype":"의원 - 치과의원","category":"medical"}]},{"lat":"37.399107928","long":"126.93837278","imageIndex":8,"items":[{"name":"연세소아과의원","tel":"031-444-0377","addr":"경기도 안양시 동안구 비산동 459-28번지","indutype":"의원 - 의원","category":"medical"},{"name":"이화약국","tel":"031-444-3485","addr":"경기도 안양시 동안구 비산동 459-28번지","indutype":"약국 - 약국","category":"medical"}]},{"lat":"37.399083011","long":"126.94237075","imageIndex":8,"items":[{"name":"열린윤치과의원","tel":"031-387-2835","addr":"경기도 안양시 동안구 비산동 405-23번지","indutype":"의원 - 치과의원","category":"medical"},{"name":"한마음약국","tel":"031-383-2308","addr":"경기도 안양시 동안구 비산동 405-23번지","indutype":"약국 - 약국","category":"medical"},{"name":"한양본내과","tel":"031-387-8875","addr":"경기도 안양시 동안구 비산동 405-23번지","indutype":"의원 - 의원","category":"medical"}]},{"lat":"37.40574521","long":"126.95020385","imageIndex":8,"items":[{"name":"영우팜주식회사","tel":"031-386-9393","addr":"경기도 안양시 동안구 비산동 1030번지","indutype":"약국 - 제약회사","category":"medical"}]},{"lat":"37.398050992","long":"126.93350621","imageIndex":8,"items":[{"name":"우리동물병원","tel":"","addr":"경기도 안양시 동안구 비산동 571번지","indutype":"기타의료기관 - 동물병원","category":"medical"},{"name":"천일한의원","tel":"031-468-1001","addr":"경기도 안양시 동안구 비산동 571번지","indutype":"의원 - 한의원","category":"medical"}]},{"lat":"37.399830906","long":"126.94248308","imageIndex":8,"items":[{"name":"이룸동물병원","tel":"031-381-0166","addr":"경기도 안양시 동안구 비산동 1165번지","indutype":"기타의료기관 - 동물병원","category":"medical"}]},{"lat":"37.391552459","long":"126.94617108","imageIndex":8,"items":[{"name":"이선재치과의원","tel":"031-381-2875","addr":"경기도 안양시 동안구 비산동 1104번지","indutype":"의원 - 치과의원","category":"medical"}]},{"lat":"37.403744409","long":"126.94895159","imageIndex":8,"items":[{"name":"이풍호동물병원","tel":"031-388-1155","addr":"경기도 안양시 동안구 비산동 1026-14번지","indutype":"기타의료기관 - 동물병원","category":"medical"}]},{"lat":"37.402274062","long":"126.94533853","imageIndex":8,"items":[{"name":"정원온누리약국","tel":"031-386-9946","addr":"경기도 안양시 동안구 비산동 354-10번지 뉴타운아파트","indutype":"약국 - 약국","category":"medical"},{"name":"한솔한의원","tel":"031-388-2330","addr":"경기도 안양시 동안구 비산동 354-10번지 뉴타운아파트","indutype":"의원 - 한의원","category":"medical"}]},{"lat":"37.405078389","long":"126.9500349","imageIndex":8,"items":[{"name":"조문수치과","tel":"031-388-3755","addr":"경기도 안양시 동안구 비산동 1030-5번지","indutype":"의원 - 치과의원","category":"medical"}]},{"lat":"37.399137757","long":"126.94372594","imageIndex":8,"items":[{"name":"좋은누리의료소비자생활협동조합","tel":"031-388-0085","addr":"경기도 안양시 동안구 비산동 424-165번지","indutype":"의원 - 의원","category":"medical"}]},{"lat":"37.395661249","long":"126.94656324","imageIndex":8,"items":[{"name":"하이치과의원","tel":"031-385-2804","addr":"경기도 안양시 동안구 비산동 1102-7번지","indutype":"의원 - 치과의원","category":"medical"}]},{"lat":"37.400355492","long":"126.94653714","imageIndex":8,"items":[{"name":"한성치과의원","tel":"031-387-2875","addr":"경기도 안양시 동안구 비산동 360-17번지","indutype":"의원 - 치과의원","category":"medical"}]},{"lat":"37.397580845","long":"126.94751045","imageIndex":8,"items":[{"name":"현치과의원","tel":"031-388-9836","addr":"경기도 안양시 동안구 비산동 1101번지","indutype":"의원 - 치과의원","category":"medical"}]}]