[{"lat":"37.148673688","long":"127.08603211","imageIndex":7,"items":[{"name":"남도수산","tel":"031-378-8978","addr":"경기도 오산시 부산동 611번지 1층","indutype":"음료식품 - 농·축·수산품","category":"food"}]},{"lat":"37.149363176","long":"127.09197623","imageIndex":7,"items":[{"name":"뚜레쥬르 오산시티자이점","tel":"031-374-7498","addr":"경기도 오산시 부산동 801번지 시티자이2단지 105호,106호","indutype":"음료식품 - 제과점","category":"food"}]},{"lat":"37.150805807","long":"127.09069467","imageIndex":7,"items":[{"name":"빈스파파","tel":"031-377-9004","addr":"경기도 오산시 부산동 690번지 115호","indutype":"음료식품 - 기타음료식품","category":"food"},{"name":"쿡(Cook)1015오산시티자이점","tel":"031-375-1015","addr":"경기도 오산시 부산동 690번지 109호","indutype":"음료식품 - 기타음료식품","category":"food"},{"name":"파리바게뜨오산시티자이점","tel":"031-376-8243","addr":"경기도 오산시 부산동 690번지 116,117호","indutype":"음료식품 - 제과점","category":"food"}]},{"lat":"37.155723658","long":"127.08044494","imageIndex":7,"items":[{"name":"운천고 매점","tel":"031-371-9805","addr":"경기도 오산시 부산동 778-5번지 운천고등학교","indutype":"음료식품 - 기타음료식품","category":"food"}]},{"lat":"37.157031143","long":"127.07894902","imageIndex":7,"items":[{"name":"음메꿀꿀","tel":"031-373-5480","addr":"경기도 오산시 부산동 778-8번지 씨월드프라자 106호","indutype":"음료식품 - 정육점","category":"food"}]},{"lat":"37.154283736","long":"127.07771925","imageIndex":7,"items":[{"name":"파리바게뜨오산주공점","tel":"031-373-1017","addr":"경기도 오산시 부산동 779-6번지","indutype":"음료식품 - 제과점","category":"food"}]}]