[{"lat":"37.636853229","long":"126.83761845","imageIndex":0,"items":[{"name":"AK MOTORS","tel":"031-977-0023","addr":"경기도 고양시 덕양구 화정동 118-15번지","indutype":"자동차정비 유지 - 자동차정비","category":"car"}]},{"lat":"37.638074544","long":"126.83478333","imageIndex":0,"items":[{"name":"DS모터스","tel":"031-967-5935","addr":"경기도 고양시 덕양구 화정동 906-4번지","indutype":"자동차정비 유지 - 자동차정비","category":"car"}]},{"lat":"37.643102762","long":"126.8291181","imageIndex":0,"items":[{"name":"GD모터스","tel":"031-978-5189","addr":"경기도 고양시 덕양구 화정동 691-5번지","indutype":"자동차정비 유지 - 자동차정비","category":"car"}]},{"lat":"37.638635146","long":"126.82993292","imageIndex":0,"items":[{"name":"MOBIL1카클리닉","tel":"031-967-3037","addr":"경기도 고양시 덕양구 화정동 928-17번지","indutype":"자동차정비 유지 - 자동차정비","category":"car"}]},{"lat":"37.628645998","long":"126.83173461","imageIndex":0,"items":[{"name":"SKY TRANSPORTATION","tel":"031-971-9870","addr":"경기도 고양시 덕양구 화정동 1004번지 옥빛마을14단지아파트","indutype":"자동차정비 유지 - 견인서비스","category":"car"}]},{"lat":"37.629383094","long":"126.8305661","imageIndex":0,"items":[{"name":"고양어린이박물관","tel":"031-960-9734","addr":"경기도 고양시 덕양구 화정동 1003번지","indutype":"자동차정비 유지 - 주차장","category":"car"}]},{"lat":"37.641246068","long":"126.82864656","imageIndex":0,"items":[{"name":"국보타이어","tel":"031-968-0989","addr":"경기도 고양시 덕양구 화정동 674-33번지","indutype":"자동차정비 유지 - 자동차시트·타이어","category":"car"}]},{"lat":"37.633101635","long":"126.82888083","imageIndex":0,"items":[{"name":"뉴월드","tel":"","addr":"경기도 고양시 덕양구 화정동 953번지 별빛마을7단지아파트","indutype":"자동차정비 유지 - 카인테리어","category":"car"}]},{"lat":"37.638605814","long":"126.82836948","imageIndex":0,"items":[{"name":"대우자동차바로정비코너","tel":"031-968-8222","addr":"경기도 고양시 덕양구 화정동 932-2번지","indutype":"자동차정비 유지 - 자동차정비","category":"car"}]},{"lat":"37.635971219","long":"126.83195572","imageIndex":0,"items":[{"name":"대운","tel":"031-908-9400","addr":"경기도 고양시 덕양구 화정동 968-2번지","indutype":"자동차정비 유지 - 주차장","category":"car"}]},{"lat":"37.63868966","long":"126.8365154","imageIndex":0,"items":[{"name":"덕양오토바이","tel":"031-965-0440","addr":"경기도 고양시 덕양구 화정동 880-6번지","indutype":"자동차판매 - 이륜차판매","category":"car"}]},{"lat":"37.633523132","long":"126.83372865","imageIndex":0,"items":[{"name":"동양트레벨2 오피스텔운영위원회","tel":"031-973-6660","addr":"경기도 고양시 덕양구 화정동 975-3번지","indutype":"자동차정비 유지 - 주차장","category":"car"},{"name":"지테크","tel":"031-978-1243","addr":"경기도 고양시 덕양구 화정동 975-3번지","indutype":"자동차정비 유지 - 자동차부품","category":"car"}]},{"lat":"37.638914933","long":"126.83653755","imageIndex":0,"items":[{"name":"만도플라자덕양2점","tel":"031-966-5627","addr":"경기도 고양시 덕양구 화정동 881-7번지","indutype":"자동차정비 유지 - 자동차정비","category":"car"}]},{"lat":"37.638830298","long":"126.84045785","imageIndex":0,"items":[{"name":"미스오토","tel":"031-916-2646","addr":"경기도 고양시 덕양구 화정동 128-11번지","indutype":"자동차정비 유지 - 카인테리어","category":"car"}]},{"lat":"37.633218357","long":"126.83481692","imageIndex":0,"items":[{"name":"배터리창고","tel":"031-967-9599","addr":"경기도 고양시 덕양구 화정동 988번지 옥빛마을12단지아파트","indutype":"자동차정비 유지 - 자동차부품","category":"car"},{"name":"애니 덕양","tel":"031-913-2929","addr":"경기도 고양시 덕양구 화정동 988번지","indutype":"자동차정비 유지 - 견인서비스","category":"car"}]},{"lat":"37.64394186","long":"126.82993195","imageIndex":0,"items":[{"name":"사운드마틴","tel":"031-966-1153","addr":"경기도 고양시 덕양구 화정동 803-10번지","indutype":"자동차정비 유지 - 카인테리어","category":"car"}]},{"lat":"37.638714957","long":"126.83529172","imageIndex":0,"items":[{"name":"성진카랜드","tel":"031-963-5757","addr":"경기도 고양시 덕양구 화정동 879-1번지","indutype":"자동차정비 유지 - 자동차정비","category":"car"}]},{"lat":"37.638605614","long":"126.83443091","imageIndex":0,"items":[{"name":"세덴","tel":"031-963-7212","addr":"경기도 고양시 덕양구 화정동 900-7번지","indutype":"자동차정비 유지 - 카인테리어","category":"car"}]},{"lat":"37.632888607","long":"126.8310678","imageIndex":0,"items":[{"name":"세차하는사람들","tel":"031-938-4890","addr":"경기도 고양시 덕양구 화정동 982번지","indutype":"자동차정비 유지 - 세차장","category":"car"}]},{"lat":"37.636051501","long":"126.8314004","imageIndex":0,"items":[{"name":"스마일렉카","tel":"","addr":"경기도 고양시 덕양구 화정동 968번지","indutype":"자동차정비 유지 - 견인서비스","category":"car"}]},{"lat":"37.63969179","long":"126.83165262","imageIndex":0,"items":[{"name":"스마일카크리닉","tel":"031-967-8139","addr":"경기도 고양시 덕양구 화정동 916-8번지","indutype":"자동차정비 유지 - 자동차시트·타이어","category":"car"}]},{"lat":"37.627499936","long":"126.83047982","imageIndex":0,"items":[{"name":"스피드메이트 덕양화정점","tel":"031-970-8002","addr":"경기도 고양시 덕양구 화정동 1146-1번지","indutype":"자동차정비 유지 - 자동차정비","category":"car"},{"name":"스피드메이트덕양화정점","tel":"031-970-8002","addr":"경기도 고양시 덕양구 화정동 1146-1번지","indutype":"자동차정비 유지 - 자동차정비","category":"car"}]},{"lat":"37.647793286","long":"126.83288045","imageIndex":0,"items":[{"name":"에스비운수","tel":"031-966-1059","addr":"경기도 고양시 덕양구 화정동 858번지 달빛마을1단지아파트","indutype":"자동차정비 유지 - 견인서비스","category":"car"}]},{"lat":"37.638581256","long":"126.8363117","imageIndex":0,"items":[{"name":"에이스스피드","tel":"","addr":"경기도 고양시 덕양구 화정동 880-8번지","indutype":"자동차정비 유지 - 견인서비스","category":"car"}]},{"lat":"37.642791653","long":"126.8383531","imageIndex":0,"items":[{"name":"엑트온","tel":"031-2061-3391","addr":"경기도 고양시 덕양구 화정동 870번지 은빛마을5단지아파트","indutype":"자동차정비 유지 - 자동차부품","category":"car"}]},{"lat":"37.633574791","long":"126.83206317","imageIndex":0,"items":[{"name":"영프라자빌딩관리단","tel":"031-978-2584","addr":"경기도 고양시 덕양구 화정동 972번지","indutype":"자동차정비 유지 - 주차장","category":"car"}]},{"lat":"37.627443517","long":"126.82887136","imageIndex":0,"items":[{"name":"예일프라자번영회","tel":"031-1111-1111","addr":"경기도 고양시 덕양구 화정동 1148-1번지","indutype":"자동차정비 유지 - 주차장","category":"car"}]},{"lat":"37.637857649","long":"126.8343193","imageIndex":0,"items":[{"name":"오토오아시스스타점","tel":"031-967-5590","addr":"경기도 고양시 덕양구 화정동 907번지","indutype":"자동차정비 유지 - 자동차정비","category":"car"}]},{"lat":"37.638885706","long":"126.83498543","imageIndex":0,"items":[{"name":"오토카센타","tel":"031-967-6035","addr":"경기도 고양시 덕양구 화정동 899-9번지","indutype":"자동차정비 유지 - 카인테리어","category":"car"}]},{"lat":"37.63396446","long":"126.83362569","imageIndex":0,"items":[{"name":"우리기업주식회사","tel":"031-796-2131","addr":"경기도 고양시 덕양구 화정동 974번지","indutype":"자동차정비 유지 - 주차장","category":"car"}]},{"lat":"37.645629636","long":"126.83830152","imageIndex":0,"items":[{"name":"웰컴","tel":"031-967-2326","addr":"경기도 고양시 덕양구 화정동 851번지 달빛마을2단지아파트","indutype":"자동차정비 유지 - 자동차부품","category":"car"}]},{"lat":"37.63782449","long":"126.83634738","imageIndex":0,"items":[{"name":"이레모터스","tel":"031-966-5300","addr":"경기도 고양시 덕양구 화정동 877-10번지","indutype":"자동차정비 유지 - 자동차정비","category":"car"}]},{"lat":"37.64218463","long":"126.83595242","imageIndex":0,"items":[{"name":"일산글라스텍","tel":"031-814-8320","addr":"경기도 고양시 덕양구 화정동 870번지 은빛마을5단지아파트","indutype":"자동차정비 유지 - 카인테리어","category":"car"}]},{"lat":"37.635297129","long":"126.83309019","imageIndex":0,"items":[{"name":"주식회사 사이프러스","tel":"031-812-1388","addr":"경기도 고양시 덕양구 화정동 966-3번지","indutype":"자동차정비 유지 - 주차장","category":"car"}]},{"lat":"37.638356174","long":"126.8364255","imageIndex":0,"items":[{"name":"차지킴이","tel":"031-969-2196","addr":"경기도 고양시 덕양구 화정동 878-6번지","indutype":"자동차정비 유지 - 자동차정비","category":"car"}]},{"lat":"37.639498992","long":"126.83542592","imageIndex":0,"items":[{"name":"카젠(화정점)","tel":"031-967-5734","addr":"경기도 고양시 덕양구 화정동 884-3번지","indutype":"자동차정비 유지 - 자동차부품","category":"car"}]},{"lat":"37.633555241","long":"126.83100962","imageIndex":0,"items":[{"name":"케이맥스빌딩관리 주식회사","tel":"031-930-5600","addr":"경기도 고양시 덕양구 화정동 970-2번지","indutype":"자동차정비 유지 - 주차장","category":"car"}]},{"lat":"37.638608515","long":"126.8302049","imageIndex":0,"items":[{"name":"태양상사","tel":"031-965-5050","addr":"경기도 고양시 덕양구 화정동 928-15번지","indutype":"자동차정비 유지 - 자동차부품","category":"car"}]},{"lat":"37.64010968","long":"126.83404229","imageIndex":0,"items":[{"name":"태일정공","tel":"031-968-9367","addr":"경기도 고양시 덕양구 화정동 886-2번지","indutype":"자동차정비 유지 - 자동차부품","category":"car"}]},{"lat":"37.639075425","long":"126.83534756","imageIndex":0,"items":[{"name":"프로카월드","tel":"031-968-5225","addr":"경기도 고양시 덕양구 화정동 884-6번지","indutype":"자동차정비 유지 - 자동차정비","category":"car"}]},{"lat":"37.63799104","long":"126.83309539","imageIndex":0,"items":[{"name":"하나시스템","tel":"031-967-1045","addr":"경기도 고양시 덕양구 화정동 909-3번지","indutype":"자동차정비 유지 - 주차장","category":"car"},{"name":"하나시스템","tel":"031-967-1045","addr":"경기도 고양시 덕양구 화정동 909-3번지","indutype":"자동차정비 유지 - 주차장","category":"car"}]},{"lat":"37.634883253","long":"126.83348766","imageIndex":0,"items":[{"name":"한화오벨리스크관리단","tel":"031-969-5717","addr":"경기도 고양시 덕양구 화정동 965번지","indutype":"자동차정비 유지 - 주차장","category":"car"}]},{"lat":"37.630746747","long":"126.83276069","imageIndex":0,"items":[{"name":"현대자동차화정점","tel":"031-978-5151","addr":"경기도 고양시 덕양구 화정동 986-5번지","indutype":"자동차정비 유지 - 자동차정비","category":"car"}]}]