[{"lat":"37.30895188","long":"127.00414534","imageIndex":13,"items":[{"name":"(주)조은","tel":"031-255-6400","addr":"경기도 수원시 장안구 송죽동 59번지","indutype":"보건위생 - 의료용품","category":"beauty"}]},{"lat":"37.301734574","long":"127.00817184","imageIndex":13,"items":[{"name":"345헤어살롱","tel":"031-241-0900","addr":"경기도 수원시 장안구 송죽동 499-5번지 2층","indutype":"보건위생 - 미용원","category":"beauty"}]},{"lat":"37.305924449","long":"127.00245334","imageIndex":13,"items":[{"name":"3H 지압침대","tel":"031-258-3033","addr":"경기도 수원시 장안구 송죽동 216-1번지 3층 302호","indutype":"보건위생 - 의료용품","category":"beauty"}]},{"lat":"37.302788867","long":"127.00517165","imageIndex":13,"items":[{"name":"SK안경콘택트","tel":"031-247-8371","addr":"경기도 수원시 장안구 송죽동 496-24번지 삼풍프라자빌라트 1층 9호","indutype":"보건위생 - 안경","category":"beauty"},{"name":"더율헤어","tel":"031-253-3578","addr":"경기도 수원시 장안구 송죽동 496-24번지 삼풍프라자빌라트 1층 7호","indutype":"보건위생 - 미용원","category":"beauty"},{"name":"야 헤어","tel":"031-253-2164","addr":"경기도 수원시 장안구 송죽동 496-24삼풍프라자1층7","indutype":"보건위생 - 미용원","category":"beauty"}]},{"lat":"37.304014201","long":"126.99852813","imageIndex":13,"items":[{"name":"가람헤어샵","tel":"","addr":"경기도 수원시 장안구 송죽동 272-42번지 1층","indutype":"보건위생 - 미용원","category":"beauty"}]},{"lat":"37.308068874","long":"127.00131405","imageIndex":13,"items":[{"name":"가위손헤어","tel":"03-241-2160","addr":"경기도 수원시 장안구 송죽동 476-5번지","indutype":"보건위생 - 미용원","category":"beauty"}]},{"lat":"37.29612131","long":"127.00347972","imageIndex":13,"items":[{"name":"국제안경","tel":"031-244-7346","addr":"경기도 수원시 장안구 송죽동 398-4번지","indutype":"보건위생 - 안경","category":"beauty"}]},{"lat":"37.296121311","long":"127.00331054","imageIndex":13,"items":[{"name":"그녀의속눈썹","tel":"031-255-8333","addr":"경기도 수원시 장안구 송죽동 398-5번지","indutype":"보건위생 - 피부미용실","category":"beauty"},{"name":"임마누엘헤어","tel":"031-258-7902","addr":"경기도 수원시 장안구 송죽동 398-5번지","indutype":"보건위생 - 미용원","category":"beauty"}]},{"lat":"37.301842714","long":"127.00777708","imageIndex":13,"items":[{"name":"그리다네일","tel":"","addr":"경기도 수원시 장안구 송죽동 499-3번지 동양파라곤 206호","indutype":"보건위생 - 피부미용실","category":"beauty"},{"name":"단발머리","tel":"031-243-3325","addr":"경기도 수원시 장안구 송죽동 499-3번지 동양파라곤 109호","indutype":"보건위생 - 미용원","category":"beauty"},{"name":"에뛰드하우스 장안구청점","tel":"031-258-8867","addr":"경기도 수원시 장안구 송죽동 499-3번지 동양파라곤 1층 111호","indutype":"보건위생 - 화장품","category":"beauty"},{"name":"오렌즈 북수원점","tel":"031-241-1112","addr":"경기도 수원시 장안구 송죽동 499-3번지 동양파라곤 108호","indutype":"보건위생 - 안경","category":"beauty"}]},{"lat":"37.298626147","long":"127.00461887","imageIndex":13,"items":[{"name":"금발헤어샵","tel":"031-255-9520","addr":"경기도 수원시 장안구 송죽동 378-32번지","indutype":"보건위생 - 미용원","category":"beauty"}]},{"lat":"37.303014145","long":"127.00294965","imageIndex":13,"items":[{"name":"금불 테라피","tel":"031-111-1111","addr":"경기도 수원시 장안구 송죽동 456-17번지 월곡빌라 102호","indutype":"보건위생 - 화장품","category":"beauty"}]},{"lat":"37.302014003","long":"127.00408883","imageIndex":13,"items":[{"name":"꽃을든남자","tel":"031-251-8867","addr":"경기도 수원시 장안구 송죽동 458-3 삼우 APT 지하1층","indutype":"보건위생 - 화장품","category":"beauty"}]},{"lat":"37.30476213","long":"127.0026451","imageIndex":13,"items":[{"name":"나봄뷰티스타일링샵","tel":"031-252-0107","addr":"경기도 수원시 장안구 송죽동 451-17번지 지층","indutype":"보건위생 - 미용원","category":"beauty"}]},{"lat":"37.296013114","long":"127.00708874","imageIndex":13,"items":[{"name":"네일비#","tel":"031-248-7757","addr":"경기도 수원시 장안구 송죽동 514번지 수원로얄팰리스 상가동 112호","indutype":"보건위생 - 피부미용실","category":"beauty"},{"name":"달보레(DALBORE)","tel":"070-8884-9070","addr":"경기도 수원시 장안구 송죽동 514번지 수원로얄팰리스 상가 118호","indutype":"보건위생 - 화장품","category":"beauty"},{"name":"달보레(DALBORE)","tel":"070-8884-9070","addr":"경기도 수원시 장안구 송죽동 514번지 수원로얄팰리스 상가동 1층 118호","indutype":"보건위생 - 화장품","category":"beauty"},{"name":"루디아엠 (Ludia M)","tel":"","addr":"경기도 수원시 장안구 송죽동 514번지 수원로얄팰리스 상가동 108-1호","indutype":"보건위생 - 미용원","category":"beauty"},{"name":"스마트덴탈","tel":"031-935-0618","addr":"경기도 수원시 장안구 송죽동 514번지 수원로얄팰리스 상가 124호","indutype":"보건위생 - 의료용품","category":"beauty"},{"name":"헤어갤러리","tel":"070-8868-4365","addr":"경기도 수원시 장안구 송죽동 514번지 수원로얄팰리스 130호","indutype":"보건위생 - 미용원","category":"beauty"}]},{"lat":"37.302041021","long":"127.00497988","imageIndex":13,"items":[{"name":"뉴뷰티몽니스#","tel":"031-253-0991","addr":"경기도 수원시 장안구 송죽동 460-12번지 1층","indutype":"보건위생 - 화장품","category":"beauty"},{"name":"루비헤어","tel":"031-245-0555","addr":"경기도 수원시 장안구 송죽동 460-12번지","indutype":"보건위생 - 미용원","category":"beauty"}]},{"lat":"37.303320363","long":"126.99733256","imageIndex":13,"items":[{"name":"닛시헤어필","tel":"031-257-1411","addr":"경기도 수원시 장안구 송죽동 489번지","indutype":"보건위생 - 미용원","category":"beauty"}]},{"lat":"37.302040977","long":"127.0067507","imageIndex":13,"items":[{"name":"다시보다헤어살롱","tel":"070-7756-5788","addr":"경기도 수원시 장안구 송죽동 497-15번지 1층","indutype":"보건위생 - 미용원","category":"beauty"}]},{"lat":"37.307348048","long":"127.00078391","imageIndex":13,"items":[{"name":"로망헤어","tel":"031-252-1123","addr":"경기도 수원시 장안구 송죽동 479-4번지","indutype":"보건위생 - 미용원","category":"beauty"}]},{"lat":"37.302401326","long":"126.99750182","imageIndex":13,"items":[{"name":"마스카라","tel":"031-246-1127","addr":"경기도 수원시 장안구 송죽동 277-57번지 옥토성결교회 102호","indutype":"보건위생 - 화장품","category":"beauty"},{"name":"머리빨","tel":"031-252-2004","addr":"경기도 수원시 장안구 송죽동 277-57번지 옥토성결교회 1층 102호","indutype":"보건위생 - 미용원","category":"beauty"}]},{"lat":"37.306843493","long":"127.00245334","imageIndex":13,"items":[{"name":"마임 영화지사","tel":"031-241-2248","addr":"경기도 수원시 장안구 송죽동 147번지 옥산빌딩 4층","indutype":"보건위생 - 화장품","category":"beauty"}]},{"lat":"37.301428225","long":"127.00819438","imageIndex":13,"items":[{"name":"머리가예쁘다","tel":"070-4227-8002","addr":"경기도 수원시 장안구 송죽동 499-7번지 1층","indutype":"보건위생 - 미용원","category":"beauty"}]},{"lat":"37.298626111","long":"127.00627682","imageIndex":13,"items":[{"name":"명품화장품","tel":"","addr":"경기도 수원시 장안구 송죽동 379-1번지 송죽빌딩 지하1층","indutype":"보건위생 - 화장품","category":"beauty"}]},{"lat":"37.305789297","long":"127.00275789","imageIndex":13,"items":[{"name":"명품효소원","tel":"031-111-1111","addr":"경기도 수원시 장안구 송죽동 214-1번지 5,6층","indutype":"보건위생 - 피부미용실","category":"beauty"}]},{"lat":"37.303095233","long":"127.0038971","imageIndex":13,"items":[{"name":"미니민살롱","tel":"031-308-0148","addr":"경기도 수원시 장안구 송죽동 459번지 1층","indutype":"보건위생 - 피부미용실","category":"beauty"},{"name":"이가가머리하는집","tel":"031-258-1158","addr":"경기도 수원시 장안구 송죽동 459번지","indutype":"보건위생 - 미용원","category":"beauty"}]},{"lat":"37.306176734","long":"127.00367155","imageIndex":13,"items":[{"name":"미스터헤어","tel":"031-254-2514","addr":"경기도 수원시 장안구 송죽동 197번지 이현빌딩 103호","indutype":"보건위생 - 미용원","category":"beauty"}]},{"lat":"37.30681646","long":"127.00375051","imageIndex":13,"items":[{"name":"미헤어","tel":"031-256-8873","addr":"경기도 수원시 장안구 송죽동 195번지 광교프라자 105호","indutype":"보건위생 - 미용원","category":"beauty"}]},{"lat":"37.301374134","long":"127.00881472","imageIndex":13,"items":[{"name":"바오헤어(VAOHAIR)","tel":"031-207-2101","addr":"경기도 수원시 장안구 송죽동 506-1번지 2층","indutype":"보건위생 - 미용원","category":"beauty"}]},{"lat":"37.298094524","long":"127.00558881","imageIndex":13,"items":[{"name":"박선영헤어클럽","tel":"031-256-7591","addr":"경기도 수원시 장안구 송죽동 379-5번지","indutype":"보건위생 - 미용원","category":"beauty"}]},{"lat":"37.302122073","long":"127.00661535","imageIndex":13,"items":[{"name":"베리스코스메틱체인2호점","tel":"031-227-9765","addr":"경기도 수원시 장안구 송죽동 497-14번지 1층","indutype":"보건위생 - 화장품","category":"beauty"}]},{"lat":"37.301455234","long":"127.00864554","imageIndex":13,"items":[{"name":"비비드탠 브라운태닝 화이트태닝","tel":"031-244-1804","addr":"경기도 수원시 장안구 송죽동 506번지 B동 3층","indutype":"보건위생 - 피부미용실","category":"beauty"},{"name":"새솔언어,심리치료센터","tel":"031-241-7073","addr":"경기도 수원시 장안구 송죽동 506번지 3층","indutype":"보건위생 - 기타대인서비스","category":"beauty"}]},{"lat":"37.296319535","long":"127.00225039","imageIndex":13,"items":[{"name":"빛의헤어","tel":"031-243-7734","addr":"경기도 수원시 장안구 송죽동 402-10번지","indutype":"보건위생 - 미용원","category":"beauty"}]},{"lat":"37.303014135","long":"127.00444978","imageIndex":13,"items":[{"name":"쁘띠래쉬","tel":"070-8770-3162","addr":"경기도 수원시 장안구 송죽동 496-13번지","indutype":"보건위생 - 화장품","category":"beauty"}]},{"lat":"37.299094672","long":"127.00505875","imageIndex":13,"items":[{"name":"샤인덴탈","tel":"070-8841-2875","addr":"경기도 수원시 장안구 송죽동 377-18번지 1층","indutype":"보건위생 - 의료용품","category":"beauty"}]},{"lat":"37.303041157","long":"127.00497991","imageIndex":13,"items":[{"name":"성일사우나","tel":"031-246-6489","addr":"경기도 수원시 장안구 송죽동 496-23번지","indutype":"보건위생 - 사우나","category":"beauty"}]},{"lat":"37.304897267","long":"127.00091933","imageIndex":13,"items":[{"name":"세광메디텍","tel":"031-243-5390","addr":"경기도 수원시 장안구 송죽동 444-1번지 민석빌딩 2층","indutype":"보건위생 - 의료용품","category":"beauty"}]},{"lat":"37.305230645","long":"127.00089677","imageIndex":13,"items":[{"name":"세림헤어뷰","tel":"031-000-0000","addr":"경기도 수원시 장안구 송죽동 445-7번지 102호","indutype":"보건위생 - 미용원","category":"beauty"}]},{"lat":"37.305176576","long":"127.00044558","imageIndex":13,"items":[{"name":"소녀싸롱","tel":"","addr":"경기도 수원시 장안구 송죽동 442-1번지 드림하우스 1층","indutype":"보건위생 - 피부미용실","category":"beauty"}]},{"lat":"37.307789554","long":"127.00469804","imageIndex":13,"items":[{"name":"손드림","tel":"031-256-2650","addr":"경기도 수원시 장안구 송죽동 67-4 외1필지제가동나동호","indutype":"보건위생 - 화장품","category":"beauty"}]},{"lat":"37.296535756","long":"127.00541958","imageIndex":13,"items":[{"name":"송죽힐링사우나","tel":"031-243-1617","addr":"경기도 수원시 장안구 송죽동 395-1번지 송죽프라자 지하1층","indutype":"보건위생 - 사우나","category":"beauty"},{"name":"컬러인뷰티","tel":"031-254-9010","addr":"경기도 수원시 장안구 송죽동 395-1번지 송죽프라자 204호","indutype":"보건위생 - 화장품","category":"beauty"}]},{"lat":"37.306816441","long":"127.00064857","imageIndex":13,"items":[{"name":"수덕목욕탕","tel":"031-246-4229","addr":"경기도 수원시 장안구 송죽동 481-8번지","indutype":"보건위생 - 사우나","category":"beauty"}]},{"lat":"37.300428112","long":"127.00764165","imageIndex":13,"items":[{"name":"스타일헤어","tel":"031-242-7725","addr":"경기도 수원시 장안구 송죽동 505-6번지 101호","indutype":"보건위생 - 미용원","category":"beauty"}]},{"lat":"37.301040783","long":"127.00822819","imageIndex":13,"items":[{"name":"신신의료기","tel":"031-252-5778","addr":"경기도 수원시 장안구 송죽동 506-11번지 3층 신신의료기","indutype":"보건위생 - 의료용품","category":"beauty"}]},{"lat":"37.308149967","long":"127.00137045","imageIndex":13,"items":[{"name":"실이네일","tel":"070-2282-8179","addr":"경기도 수원시 장안구 송죽동 476-4번지 1층","indutype":"보건위생 - 피부미용실","category":"beauty"}]},{"lat":"37.306068603","long":"127.00447241","imageIndex":13,"items":[{"name":"실크시티헤어","tel":"031-246-8329","addr":"경기도 수원시 장안구 송죽동 77-1번지 2층","indutype":"보건위생 - 미용원","category":"beauty"}]},{"lat":"37.307537278","long":"127.00200214","imageIndex":13,"items":[{"name":"심호영헤어클릭","tel":"031-241-0637","addr":"경기도 수원시 장안구 송죽동 151-2번지","indutype":"보건위생 - 미용원","category":"beauty"}]},{"lat":"37.300707434","long":"127.00752888","imageIndex":13,"items":[{"name":"쏘네일","tel":"","addr":"경기도 수원시 장안구 송죽동 501-13번지 옥경빌딩 1층 2호","indutype":"보건위생 - 피부미용실","category":"beauty"}]},{"lat":"37.303536716","long":"127.00522807","imageIndex":13,"items":[{"name":"아모레카운셀러","tel":"031-269-2177","addr":"경기도 수원시 장안구 송죽동 495-6번지 화물공제조합빌딩 3층","indutype":"보건위생 - 화장품","category":"beauty"},{"name":"아모레카운셀러","tel":"031-269-2177","addr":"경기도 수원시 장안구 송죽동 495-6번지 화물공제조합빌딩 3층","indutype":"보건위생 - 화장품","category":"beauty"}]},{"lat":"37.303734947","long":"127.00488969","imageIndex":13,"items":[{"name":"아이큰숲아동발달센터","tel":"070-7420-7102","addr":"경기도 수원시 장안구 송죽동 495-13번지 명성 5층 503호","indutype":"보건위생 - 기타대인서비스","category":"beauty"},{"name":"토리헤어","tel":"031-253-7178","addr":"경기도 수원시 장안구 송죽동 495-13번지 명성 2층","indutype":"보건위생 - 미용원","category":"beauty"}]},{"lat":"37.298680211","long":"127.00441586","imageIndex":13,"items":[{"name":"엔 엠씨","tel":"031-223-5214","addr":"경기도 수원시 장안구 송죽동 369번지","indutype":"보건위생 - 화장품","category":"beauty"}]},{"lat":"37.297292628","long":"127.00483313","imageIndex":13,"items":[{"name":"여우머리","tel":"031-256-7006","addr":"경기도 수원시 장안구 송죽동 385-20번지","indutype":"보건위생 - 미용원","category":"beauty"}]},{"lat":"37.307014682","long":"127.00405507","imageIndex":13,"items":[{"name":"여우별 네일","tel":"031-257-3010","addr":"경기도 수원시 장안구 송죽동 85-2번지 1층","indutype":"보건위생 - 피부미용실","category":"beauty"}]},{"lat":"37.306014539","long":"127.00111106","imageIndex":13,"items":[{"name":"영광핫트","tel":"031-257-4766","addr":"경기도 수원시 장안구 송죽동 440-5번지","indutype":"보건위생 - 이용원","category":"beauty"}]},{"lat":"37.304122403","long":"127.00333315","imageIndex":13,"items":[{"name":"영미용실","tel":"031-254-3557","addr":"경기도 수원시 장안구 송죽동 453-7번지","indutype":"보건위생 - 미용원","category":"beauty"}]},{"lat":"37.297932368","long":"127.00369402","imageIndex":13,"items":[{"name":"예쁘제미용실","tel":"031-298-9757","addr":"경기도 수원시 장안구 송죽동 374-4번지","indutype":"보건위생 - 미용원","category":"beauty"}]},{"lat":"37.30229325","long":"127.00714548","imageIndex":13,"items":[{"name":"예쁜안경원(북수원점)","tel":"031-257-6162","addr":"경기도 수원시 장안구 송죽동 498-11번지","indutype":"보건위생 - 안경","category":"beauty"}]},{"lat":"37.301896805","long":"127.00697627","imageIndex":13,"items":[{"name":"예인헤어","tel":"031-245-2678","addr":"경기도 수원시 장안구 송죽동 500번지","indutype":"보건위생 - 미용원","category":"beauty"},{"name":"하베스","tel":"031-252-3242","addr":"경기도 수원시 장안구 송죽동 500번지","indutype":"보건위생 - 미용원","category":"beauty"}]},{"lat":"37.301347152","long":"127.00775449","imageIndex":13,"items":[{"name":"오디네일","tel":"","addr":"경기도 수원시 장안구 송죽동 500-17번지 101호","indutype":"보건위생 - 피부미용실","category":"beauty"}]},{"lat":"37.303509665","long":"126.9997012","imageIndex":13,"items":[{"name":"오렌지미용실","tel":"031-252-4460","addr":"경기도 수원시 장안구 송죽동 256-12번지","indutype":"보건위생 - 미용원","category":"beauty"}]},{"lat":"37.302869847","long":"126.99725364","imageIndex":13,"items":[{"name":"오즈안경","tel":"031-248-5777","addr":"경기도 수원시 장안구 송죽동 277-50번지","indutype":"보건위생 - 안경","category":"beauty"}]},{"lat":"37.307041696","long":"127.00059216","imageIndex":13,"items":[{"name":"올맨클럽","tel":"","addr":"경기도 수원시 장안구 송죽동 481번지 신일빌딩","indutype":"보건위생 - 미용원","category":"beauty"}]},{"lat":"37.304041301","long":"127.00447236","imageIndex":13,"items":[{"name":"와이케이덴탈(YK Dental)","tel":"031-248-2820","addr":"경기도 수원시 장안구 송죽동 495번지 3층","indutype":"보건위생 - 의료용품","category":"beauty"},{"name":"타마시헤어 북수원2호점","tel":"031-251-3684","addr":"경기도 수원시 장안구 송죽동 495번지 봉주빌딩 2층","indutype":"보건위생 - 미용원","category":"beauty"}]},{"lat":"37.303347401","long":"126.99750175","imageIndex":13,"items":[{"name":"우정메디칼","tel":"031-241-9755","addr":"경기도 수원시 장안구 송죽동 277-39번지 1층","indutype":"보건위생 - 의료용품","category":"beauty"}]},{"lat":"37.297932344","long":"127.00541963","imageIndex":13,"items":[{"name":"윤이나헤어아트","tel":"031-258-4111","addr":"경기도 수원시 장안구 송죽동 385-1번지","indutype":"보건위생 - 미용원","category":"beauty"}]},{"lat":"37.29629241","long":"127.00767522","imageIndex":13,"items":[{"name":"일신케어","tel":"031-247-9337","addr":"경기도 수원시 장안구 송죽동 389-8번지 302 3층","indutype":"보건위생 - 의료용품","category":"beauty"}]},{"lat":"37.303428606","long":"127.00444979","imageIndex":13,"items":[{"name":"정연미용제품","tel":"070-4503-8075","addr":"경기도 수원시 장안구 송죽동 496-7번지 1층","indutype":"보건위생 - 미용재료","category":"beauty"},{"name":"정연헤어","tel":"070-4503-8075","addr":"경기도 수원시 장안구 송죽동 496-7번지","indutype":"보건위생 - 미용원","category":"beauty"}]},{"lat":"37.296238443","long":"127.00214889","imageIndex":13,"items":[{"name":"짱헤어","tel":"031-254-7588","addr":"경기도 수원시 장안구 송죽동 402-7번지 1층","indutype":"보건위생 - 미용원","category":"beauty"}]},{"lat":"37.301257018","long":"127.00845378","imageIndex":13,"items":[{"name":"천기권의료기 수원지점","tel":"031-248-7597","addr":"경기도 수원시 장안구 송죽동 506-14번지 2층","indutype":"보건위생 - 의료용품","category":"beauty"}]},{"lat":"37.301040886","long":"127.00492346","imageIndex":13,"items":[{"name":"최선영 열정미장원","tel":"031-255-0703","addr":"경기도 수원시 장안구 송죽동 462","indutype":"보건위생 - 미용원","category":"beauty"}]},{"lat":"37.30295107","long":"127.00378431","imageIndex":13,"items":[{"name":"코코스킨케어","tel":"031-258-7737","addr":"경기도 수원시 장안구 송죽동 459-1번지 202호","indutype":"보건위생 - 화장품","category":"beauty"}]},{"lat":"37.307203896","long":"127.00408892","imageIndex":13,"items":[{"name":"크라우드헤어크리닉","tel":"031-258-0942","addr":"경기도 수원시 장안구 송죽동 85-1번지 수천빌딩","indutype":"보건위생 - 미용원","category":"beauty"}]},{"lat":"37.296986287","long":"127.00425793","imageIndex":13,"items":[{"name":"태후사랑송죽점","tel":"","addr":"경기도 수원시 장안구 송죽동 391-11번지","indutype":"보건위생 - 미용원","category":"beauty"}]},{"lat":"37.296121294","long":"127.00492333","imageIndex":13,"items":[{"name":"티에스 메디칼","tel":"031-448-7880","addr":"경기도 수원시 장안구 송죽동 395-11번지 4층 406호","indutype":"보건위생 - 화장품","category":"beauty"}]},{"lat":"37.301175931","long":"127.00836355","imageIndex":13,"items":[{"name":"피부이야기","tel":"031-241-7444","addr":"경기도 수원시 장안구 송죽동 506-13번지","indutype":"보건위생 - 화장품","category":"beauty"}]},{"lat":"37.304735014","long":"126.99839273","imageIndex":13,"items":[{"name":"한헤어갤러리","tel":"031-246-2999","addr":"경기도 수원시 장안구 송죽동 443번지","indutype":"보건위생 - 미용원","category":"beauty"}]},{"lat":"37.303455632","long":"127.00475433","imageIndex":13,"items":[{"name":"현주헤어아트","tel":"031-241-8303","addr":"경기도 수원시 장안구 송죽동 495-15번지 태우빌라 1층 102호","indutype":"보건위생 - 미용원","category":"beauty"}]},{"lat":"37.301959887","long":"127.00667174","imageIndex":13,"items":[{"name":"현화미용실","tel":"031-247-1132","addr":"경기도 수원시 장안구 송죽동 497-16번지","indutype":"보건위생 - 미용원","category":"beauty"}]}]