[{"lat":"37.502840186","long":"126.77243396","imageIndex":13,"items":[{"name":"(주)메디플렉스","tel":"031-000-0000","addr":"경기도 부천시 중동 1141번지 코스모폴리탄 624호","indutype":"보건위생 - 의료용품","category":"beauty"},{"name":"딜라이트보청기","tel":"032-227-7297","addr":"경기도 부천시 중동 1141번지","indutype":"보건위생 - 의료용품","category":"beauty"},{"name":"블루밍문","tel":"032-651-4141","addr":"경기도 부천시 중동 1141번지 코스모폴리탄 111호 일부","indutype":"보건위생 - 피부미용실","category":"beauty"},{"name":"아름다운","tel":"02-1566-5947","addr":"경기도 부천시 중동 1141번지 코스모폴리탄 609호","indutype":"보건위생 - 화장품","category":"beauty"},{"name":"아모레카운셀터","tel":"032-321-9014","addr":"경기도 부천시 중동 1141번지 무광빌딩 601호","indutype":"보건위생 - 화장품","category":"beauty"},{"name":"윤메디칼","tel":"070-4633-3838","addr":"경기도 부천시 중동 1141번지 307-2호","indutype":"보건위생 - 의료용품","category":"beauty"},{"name":"제네스케어","tel":"032-325-9935","addr":"경기도 부천시 중동 1141번지 코스모폴리탄 624호","indutype":"보건위생 - 의료용품","category":"beauty"},{"name":"조이","tel":"032-361-4751","addr":"경기도 부천시 중동 1141번지 코스모폴리탄 1909호","indutype":"보건위생 - 의료용품","category":"beauty"}]},{"lat":"37.496369274","long":"126.77616294","imageIndex":13,"items":[{"name":"(주)에이치엠메디칼","tel":"032-238-3535","addr":"경기도 부천시 중동 1123번지 금호프라자 504호","indutype":"보건위생 - 의료용품","category":"beauty"},{"name":"로뎀나무헤어","tel":"032-322-2530","addr":"경기도 부천시 중동 1123번지 금호프라자 116호","indutype":"보건위생 - 미용원","category":"beauty"},{"name":"우리불한증막사우나","tel":"032-323-2422","addr":"경기도 부천시 중동 1123번지 금호프라자8.9 10층","indutype":"보건위생 - 사우나","category":"beauty"},{"name":"우리불한증막사우나내피부샵","tel":"032-323-2422","addr":"경기도 부천시 중동 1123번지 금호프라자 10층일부","indutype":"보건위생 - 피부미용실","category":"beauty"},{"name":"우리피부","tel":"032-323-2422","addr":"경기도 부천시 중동 1123번지 금호프라자 10층","indutype":"보건위생 - 피부미용실","category":"beauty"}]},{"lat":"37.501541353","long":"126.77171417","imageIndex":13,"items":[{"name":"(주)제이아이씨스킨코리아","tel":"02-511-5967","addr":"경기도 부천시 중동 1146-4번지 무광프라자 303호","indutype":"보건위생 - 화장품","category":"beauty"}]},{"lat":"37.496569763","long":"126.7773497","imageIndex":13,"items":[{"name":"(주)천명","tel":"032-322-5553","addr":"경기도 부천시 중동 1125번지 다복빌딩 702호","indutype":"보건위생 - 화장품","category":"beauty"},{"name":"메디앤샵","tel":"0505-974-7575","addr":"경기도 부천시 중동 1125번지 다복빌딩 606호","indutype":"보건위생 - 의료용품","category":"beauty"},{"name":"신세계","tel":"032-326-8813","addr":"경기도 부천시 중동 1125번지 다복빌딩 204호","indutype":"보건위생 - 미용재료","category":"beauty"}]},{"lat":"37.502786833","long":"126.77279601","imageIndex":13,"items":[{"name":"(주)태평양(아모레카운셀러)","tel":"032-321-9014","addr":"경기도 부천시 중동 1141-1번지 무광빌딩 6층 601호","indutype":"보건위생 - 화장품","category":"beauty"},{"name":"(주)태평양부천영업소장복임","tel":"032-321-9014","addr":"경기도 부천시 중동 1141-1번지 무광빌딩 6층 601호","indutype":"보건위생 - 화장품","category":"beauty"},{"name":"(주)태평양부천특영업소정성희","tel":"032-321-9013","addr":"경기도 부천시 중동 1141-1번지 무광빌딩 601호","indutype":"보건위생 - 화장품","category":"beauty"},{"name":"고감헤어","tel":"032-244-5353","addr":"경기도 부천시 중동 1141-1번지 무광오피스빌딩 205호 일부","indutype":"보건위생 - 미용원","category":"beauty"},{"name":"국가대표안마센터","tel":"032-327-8575","addr":"경기도 부천시 중동 1141-1번지 무광오피스텔 404호","indutype":"보건위생 - 안마시술소","category":"beauty"},{"name":"글로벌 로직스","tel":"032-322-3771","addr":"경기도 부천시 중동 1141-1번지 무광오피스텔 701호내711호","indutype":"보건위생 - 기타대인서비스","category":"beauty"},{"name":"넌유네일","tel":"031-000-0000","addr":"경기도 부천시 중동 1141-1번지 무광오피스텔 204호","indutype":"보건위생 - 피부미용실","category":"beauty"},{"name":"네일플로우","tel":"","addr":"경기도 부천시 중동 1141-1번지 무광오피스빌딩 103호","indutype":"보건위생 - 피부미용실","category":"beauty"},{"name":"루체스코","tel":"032-715-7523","addr":"경기도 부천시 중동 1141-1번지 무광오피스텔 606호","indutype":"보건위생 - 피부미용실","category":"beauty"},{"name":"마라나타","tel":"032-256-7575","addr":"경기도 부천시 중동 1141-1번지 701호 , 712호 무광오피스빌딩 내","indutype":"보건위생 - 화장품","category":"beauty"},{"name":"머리염색전문점헤박부천점","tel":"032-672-8446","addr":"경기도 부천시 중동 1141-1번지 무광오피스빌딩 107호","indutype":"보건위생 - 미용원","category":"beauty"},{"name":"부천미술심리발달센터","tel":"032-226-4740","addr":"경기도 부천시 중동 1141-1번지 무광오피스텔 4층 402호","indutype":"보건위생 - 기타대인서비스","category":"beauty"},{"name":"아모레","tel":"032-321-9013","addr":"경기도 부천시 중동 1141-1번지 무광빌딩 6층 601호","indutype":"보건위생 - 화장품","category":"beauty"},{"name":"아모레","tel":"032-321-9013","addr":"경기도 부천시 중동 1141-1번지 무광오피스 601호","indutype":"보건위생 - 화장품","category":"beauty"},{"name":"아모레","tel":"032-321-9013","addr":"경기도 부천시 중동 1141-1번지 무광 6층 601호","indutype":"보건위생 - 화장품","category":"beauty"},{"name":"아모레","tel":"032-321-9013","addr":"경기도 부천시 중동 1141-1번지 무광 601호","indutype":"보건위생 - 화장품","category":"beauty"},{"name":"아모레 카운셀러","tel":"032-321-0000","addr":"경기도 부천시 중동 1141-1번지 무광오피스빌딩 6층 601호","indutype":"보건위생 - 화장품","category":"beauty"},{"name":"아모레 카운셀러","tel":"032-321-9013","addr":"경기도 부천시 중동 1141-1번지 무광오피스빌딩 601호","indutype":"보건위생 - 화장품","category":"beauty"},{"name":"아모레 카운셀러","tel":"032-321-9013","addr":"경기도 부천시 중동 1141-1번지 무광오피스빌딩 601호","indutype":"보건위생 - 화장품","category":"beauty"},{"name":"아모레(태평양카운셀러)","tel":"032-321-9014","addr":"경기도 부천시 중동 1141-1번지 무광빌딩 6층 601호","indutype":"보건위생 - 화장품","category":"beauty"},{"name":"아모레카운셀러","tel":"032-321-9013","addr":"경기도 부천시 중동 1141-1번지 무광빌딩 601호","indutype":"보건위생 - 화장품","category":"beauty"},{"name":"아모레카운셀러","tel":"032-321-9013","addr":"경기도 부천시 중동 1141-1번지 무광오피스빌딩 601호","indutype":"보건위생 - 화장품","category":"beauty"},{"name":"아모레카운셀러","tel":"032-321-9013","addr":"경기도 부천시 중동 1141-1번지 무광오피스빌딩 601호","indutype":"보건위생 - 화장품","category":"beauty"},{"name":"아모레카운셀러","tel":"032-321-9013","addr":"경기도 부천시 중동 1141-1번지 무광오피스빌딩 601호","indutype":"보건위생 - 화장품","category":"beauty"},{"name":"아모레카운셀러","tel":"032-321-9013","addr":"경기도 부천시 중동 1141-1번지 무광오피스텔 601호","indutype":"보건위생 - 화장품","category":"beauty"},{"name":"아모레카운셀러","tel":"032-321-9013","addr":"경기도 부천시 중동 1141-1번지 무광오피스빌딩 601호","indutype":"보건위생 - 화장품","category":"beauty"},{"name":"아모레카운셀러","tel":"032-321-9013","addr":"경기도 부천시 중동 1141-1번지 무광오피스빌딩 6층 601호","indutype":"보건위생 - 화장품","category":"beauty"},{"name":"아모레카운셀러","tel":"032-321-9013","addr":"경기도 부천시 중동 1141-1번지 무광오피스텔 601호","indutype":"보건위생 - 화장품","category":"beauty"},{"name":"아모레카운셀러","tel":"032-321-9013","addr":"경기도 부천시 중동 1141-1번지 무광오피스 601호","indutype":"보건위생 - 화장품","category":"beauty"},{"name":"아모레카운셀러","tel":"032-321-9013","addr":"경기도 부천시 중동 1141-1번지 무광오피스 601호","indutype":"보건위생 - 화장품","category":"beauty"},{"name":"아모레카운셀러","tel":"032-321-9013","addr":"경기도 부천시 중동 1141-1번지 무광오피스빌딩 601호","indutype":"보건위생 - 화장품","category":"beauty"},{"name":"아모레카운셀러","tel":"032-321-9013","addr":"경기도 부천시 중동 1141-1번지 무광오피스텔 601호","indutype":"보건위생 - 화장품","category":"beauty"},{"name":"아모레카운셀러","tel":"032-321-9013","addr":"경기도 부천시 중동 1141-1번지 무광오피스 601호","indutype":"보건위생 - 화장품","category":"beauty"},{"name":"아모레카운셀러","tel":"032-321-9013","addr":"경기도 부천시 중동 1141-1번지 무광 601호","indutype":"보건위생 - 화장품","category":"beauty"},{"name":"아모레카운셀러","tel":"032-321-9013","addr":"경기도 부천시 중동 1141-1번지 무광오피스빌딩 601호","indutype":"보건위생 - 화장품","category":"beauty"},{"name":"아모레카운셀러","tel":"032-321-9014","addr":"경기도 부천시 중동 1141-1번지 무광오피스빌딩 601호","indutype":"보건위생 - 화장품","category":"beauty"},{"name":"아모레카운셀러","tel":"032-321-9013","addr":"경기도 부천시 중동 1141-1번지 무광오피스빌딩 601호","indutype":"보건위생 - 화장품","category":"beauty"},{"name":"아모레카운셀러","tel":"032-321-9013","addr":"경기도 부천시 중동 1141-1번지 무광빌딩 601호","indutype":"보건위생 - 화장품","category":"beauty"},{"name":"아모레카운셀러","tel":"032-321-9013","addr":"경기도 부천시 중동 1141-1번지 무광오피스 601호","indutype":"보건위생 - 화장품","category":"beauty"},{"name":"아모레카운셀러","tel":"032-321-9013","addr":"경기도 부천시 중동 1141-1번지 무광빌딩 601호","indutype":"보건위생 - 화장품","category":"beauty"},{"name":"아모레카운셀러","tel":"032-321-9013","addr":"경기도 부천시 중동 1141-1번지 무광오피스빌딩 601호","indutype":"보건위생 - 화장품","category":"beauty"},{"name":"아모레카운셀러","tel":"032-321-9013","addr":"경기도 부천시 중동 1141-1번지 무광오피스빌딩 601호","indutype":"보건위생 - 화장품","category":"beauty"},{"name":"아모레카운셀러","tel":"032-321-9013","addr":"경기도 부천시 중동 1141-1번지 무광오피스빌딩 601호","indutype":"보건위생 - 화장품","category":"beauty"},{"name":"아모레카운셀러","tel":"032-321-9013","addr":"경기도 부천시 중동 1141-1번지 무광오피스빌딩 601호","indutype":"보건위생 - 화장품","category":"beauty"},{"name":"아모레카운셀러","tel":"032-321-9013","addr":"경기도 부천시 중동 1141-1번지 무광오피스빌딩 601호","indutype":"보건위생 - 화장품","category":"beauty"},{"name":"아모레카운셀러","tel":"032-321-9013","addr":"경기도 부천시 중동 1141-1번지 무광오피스빌딩 601호","indutype":"보건위생 - 화장품","category":"beauty"},{"name":"아모레카운셀러","tel":"032-321-9013","addr":"경기도 부천시 중동 1141-1번지 무광빌딩 601호","indutype":"보건위생 - 화장품","category":"beauty"},{"name":"아모레카운셀러","tel":"032-321-9013","addr":"경기도 부천시 중동 1141-1번지 무광오피스빌딩 601호","indutype":"보건위생 - 화장품","category":"beauty"},{"name":"아모레카운셀러","tel":"032-321-9013","addr":"경기도 부천시 중동 1141-1번지 무광오피스텔 601호","indutype":"보건위생 - 화장품","category":"beauty"},{"name":"아모레카운셀러","tel":"032-321-9013","addr":"경기도 부천시 중동 1141-1번지 무광오피스빌딩 601호","indutype":"보건위생 - 화장품","category":"beauty"},{"name":"아모레카운셀러","tel":"032-321-9013","addr":"경기도 부천시 중동 1141-1번지 무광빌딩 601호","indutype":"보건위생 - 화장품","category":"beauty"},{"name":"아모레카운셀러","tel":"032-321-9013","addr":"경기도 부천시 중동 1141-1번지 무광오피스빌딩 601호","indutype":"보건위생 - 화장품","category":"beauty"},{"name":"아모레카운셀러","tel":"032-321-9014","addr":"경기도 부천시 중동 1141-1번지 무광빌딩 601호","indutype":"보건위생 - 화장품","category":"beauty"},{"name":"아모레카운셀러","tel":"032-321-9013","addr":"경기도 부천시 중동 1141-1번지 무광오피스빌딩 601호","indutype":"보건위생 - 화장품","category":"beauty"},{"name":"아모레카운셀러","tel":"032-321-9013","addr":"경기도 부천시 중동 1141-1번지 무광오피스빌딩 601호","indutype":"보건위생 - 화장품","category":"beauty"},{"name":"아모레카운셀러","tel":"032-321-9014","addr":"경기도 부천시 중동 1141-1번지 무광빌딩 6층 601호","indutype":"보건위생 - 화장품","category":"beauty"},{"name":"아모레카운셀러","tel":"032-321-9014","addr":"경기도 부천시 중동 1141-1번지 무광빌딩 601호","indutype":"보건위생 - 화장품","category":"beauty"},{"name":"아모레카운셀러","tel":"032-321-9013","addr":"경기도 부천시 중동 1141-1번지 무광빌딩 601호","indutype":"보건위생 - 화장품","category":"beauty"},{"name":"아모레카운셀러","tel":"032-321-9013","addr":"경기도 부천시 중동 1141-1번지 무광빌딩 601호","indutype":"보건위생 - 화장품","category":"beauty"},{"name":"아모레카운셀러","tel":"032-321-9013","addr":"경기도 부천시 중동 1141-1번지 무광빌딩 601호","indutype":"보건위생 - 화장품","category":"beauty"},{"name":"아모레카운셀러","tel":"032-321-9013","addr":"경기도 부천시 중동 1141-1번지 무광빌딩 601호","indutype":"보건위생 - 화장품","category":"beauty"},{"name":"아모레카운셀러","tel":"032-321-9013","addr":"경기도 부천시 중동 1141-1번지 무광빌딩 601호","indutype":"보건위생 - 화장품","category":"beauty"},{"name":"아모레카운셀러","tel":"032-321-9013","addr":"경기도 부천시 중동 1141-1번지 무광오피스빌딩 601호","indutype":"보건위생 - 화장품","category":"beauty"},{"name":"아모레카운셀러","tel":"032-321-9013","addr":"경기도 부천시 중동 1141-1번지 무광오피스빌딩 601호","indutype":"보건위생 - 화장품","category":"beauty"},{"name":"아모레카운셀러","tel":"032-321-9013","addr":"경기도 부천시 중동 1141-1번지 무광오피스빌딩 601호","indutype":"보건위생 - 화장품","category":"beauty"},{"name":"아모레카운셀러","tel":"032-321-9013","addr":"경기도 부천시 중동 1141-1번지 무광오피스빌딩 601호","indutype":"보건위생 - 화장품","category":"beauty"},{"name":"아모레카운셀러","tel":"032-321-9013","addr":"경기도 부천시 중동 1141-1번지 무광오피스텔 601호","indutype":"보건위생 - 화장품","category":"beauty"},{"name":"아모레카운셀러","tel":"032-321-9013","addr":"경기도 부천시 중동 1141-1번지 무광오피스빌딩 601호","indutype":"보건위생 - 화장품","category":"beauty"},{"name":"아모레카운셀러","tel":"032-321-9013","addr":"경기도 부천시 중동 1141-1번지 무광빌딩 601호","indutype":"보건위생 - 화장품","category":"beauty"},{"name":"아모레카운셀러","tel":"032-321-9013","addr":"경기도 부천시 중동 1141-1번지 무광오피스빌딩 601호","indutype":"보건위생 - 화장품","category":"beauty"},{"name":"아모레카운셀러","tel":"032-321-9013","addr":"경기도 부천시 중동 1141-1번지 무광오피스빌딩 601호","indutype":"보건위생 - 화장품","category":"beauty"},{"name":"아모레카운셀러","tel":"032-321-9013","addr":"경기도 부천시 중동 1141-1번지 무광오피스텔 601호","indutype":"보건위생 - 화장품","category":"beauty"},{"name":"아모레카운셀러","tel":"032-321-9013","addr":"경기도 부천시 중동 1141-1번지 무광빌딩 601호","indutype":"보건위생 - 화장품","category":"beauty"},{"name":"아모레카운셀러","tel":"032-321-9013","addr":"경기도 부천시 중동 1141-1번지 무광오피스텔 601호","indutype":"보건위생 - 화장품","category":"beauty"},{"name":"아모레카운셀러","tel":"032-321-9013","addr":"경기도 부천시 중동 1141-1번지 무광오피스빌딩 601호","indutype":"보건위생 - 화장품","category":"beauty"},{"name":"아모레카운셀러","tel":"032-321-9013","addr":"경기도 부천시 중동 1141-1번지 무광 601호","indutype":"보건위생 - 화장품","category":"beauty"},{"name":"아모레카운셀러","tel":"032-321-9013","addr":"경기도 부천시 중동 1141-1번지 무광오피스빌딩 601호","indutype":"보건위생 - 화장품","category":"beauty"},{"name":"아모레카운셀러","tel":"032-321-9013","addr":"경기도 부천시 중동 1141-1번지 무광오피스텔 601호","indutype":"보건위생 - 화장품","category":"beauty"},{"name":"아모레카운셀러","tel":"032-321-9013","addr":"경기도 부천시 중동 1141-1번지 무광오피스빌딩 601호","indutype":"보건위생 - 화장품","category":"beauty"},{"name":"아모레카운셀러","tel":"032-321-9013","addr":"경기도 부천시 중동 1141-1번지 무광오피스빌딩 601호","indutype":"보건위생 - 화장품","category":"beauty"},{"name":"아모레카운셀러","tel":"032-321-9013","addr":"경기도 부천시 중동 1141-1번지 무광 601호","indutype":"보건위생 - 화장품","category":"beauty"},{"name":"아모레카운셀러","tel":"032-321-9013","addr":"경기도 부천시 중동 1141-1번지 무광빌딩 601호","indutype":"보건위생 - 화장품","category":"beauty"},{"name":"아모레카운셀터","tel":"032-321-9013","addr":"경기도 부천시 중동 1141-1번지 무광빌딩 601호","indutype":"보건위생 - 화장품","category":"beauty"},{"name":"아모레카운셀터","tel":"032-321-9013","addr":"경기도 부천시 중동 1141-1번지 무광빌딩 601호","indutype":"보건위생 - 화장품","category":"beauty"},{"name":"아모레카운셀터","tel":"032-321-9014","addr":"경기도 부천시 중동 1무광빌딩601","indutype":"보건위생 - 화장품","category":"beauty"},{"name":"아모레퍼시픽 부천중앙특약점","tel":"032-321-9013","addr":"경기도 부천시 중동 1141-1번지 무광빌딩 6층 601호","indutype":"보건위생 - 화장품","category":"beauty"},{"name":"아이유아동청소년발달센터","tel":"032-324-4504","addr":"경기도 부천시 중동 1141-1번지 무광오피스 503호","indutype":"보건위생 - 기타대인서비스","category":"beauty"},{"name":"와이길다테크닉바이티나스타일","tel":"070-5121-6771","addr":"경기도 부천시 중동 1141-1번지 무광오피스텔 203호 일부","indutype":"보건위생 - 미용원","category":"beauty"},{"name":"터치엔수","tel":"","addr":"경기도 부천시 중동 1141-1번지 무광오피스텔 7층701호 내 701호","indutype":"보건위생 - 미용재료","category":"beauty"}]},{"lat":"37.50295665","long":"126.76304694","imageIndex":13,"items":[{"name":"(주)태평양경인영업소이희숙","tel":"032-325-5194","addr":"경기도 부천시 중동 1159번지 이원빌딩 7층","indutype":"보건위생 - 화장품","category":"beauty"},{"name":"(주)태평양경인영업소정매화","tel":"032-325-5194","addr":"경기도 부천시 중동 1159번지","indutype":"보건위생 - 화장품","category":"beauty"},{"name":"(주)태평양중동(특)영업소이경숙","tel":"032-325-5194","addr":"경기도 부천시 중동 1159번지","indutype":"보건위생 - 화장품","category":"beauty"},{"name":"(주)태평양중동영업소임지순","tel":"032-325-5194","addr":"경기도 부천시 중동 1159번지 이원빌딩 7층","indutype":"보건위생 - 화장품","category":"beauty"},{"name":"(주)태평양중동영업소최은자","tel":"032-325-5194","addr":"경기도 부천시 중동 1159번지 이원빌딩 7층","indutype":"보건위생 - 화장품","category":"beauty"},{"name":"건스헤어","tel":"032-327-2022","addr":"경기도 부천시 중동 1159번지 이원빌딩 2층","indutype":"보건위생 - 미용원","category":"beauty"},{"name":"아모레","tel":"032-652-3570","addr":"경기도 부천시 중동 1159번지","indutype":"보건위생 - 화장품","category":"beauty"},{"name":"아모레","tel":"032-325-5194","addr":"경기도 부천시 중동 1159번지202호","indutype":"보건위생 - 화장품","category":"beauty"},{"name":"아모레카운셀러","tel":"032-325-5194","addr":"경기도 부천시 중동 1159번지 이원빌딩 7층","indutype":"보건위생 - 화장품","category":"beauty"},{"name":"아모레카운셀러","tel":"032-325-5194","addr":"경기도 부천시 중동 1159번지 이원빌딩 7층","indutype":"보건위생 - 화장품","category":"beauty"},{"name":"아모레카운셀러","tel":"032-325-5194","addr":"경기도 부천시 중동 1159번지 이원빌딩 7층","indutype":"보건위생 - 화장품","category":"beauty"},{"name":"아모레카운셀러","tel":"032-325-5194","addr":"경기도 부천시 중동 1159번지","indutype":"보건위생 - 화장품","category":"beauty"},{"name":"아모레카운셀러","tel":"032-663-9511","addr":"경기도 부천시 중동 1159번지","indutype":"보건위생 - 화장품","category":"beauty"},{"name":"아모레카운셀러","tel":"032-325-5194","addr":"경기도 부천시 중동 1159번지 이원빌딩 7층","indutype":"보건위생 - 화장품","category":"beauty"},{"name":"아모레카운셀러","tel":"032-325-5194","addr":"경기도 부천시 중동 1159번지 이원빌딩 7층 아모레","indutype":"보건위생 - 화장품","category":"beauty"},{"name":"아모레카운셀러","tel":"032-325-5194","addr":"경기도 부천시 중동 1159번지 이원빌딩 7층","indutype":"보건위생 - 화장품","category":"beauty"},{"name":"아모레카운셀러","tel":"032-325-5194","addr":"경기도 부천시 중동 1159번지 이원빌딩 7층","indutype":"보건위생 - 화장품","category":"beauty"},{"name":"아모레카운셀러외판","tel":"","addr":"경기도 부천시 중동 1159번지 이원빌딩 7층","indutype":"보건위생 - 화장품","category":"beauty"},{"name":"아모레카운셀러외판","tel":"032-325-5194","addr":"경기도 부천시 중동 1159번지 이원빌딩 7층","indutype":"보건위생 - 화장품","category":"beauty"},{"name":"아모레카운셀러외판","tel":"032-325-5194","addr":"경기도 부천시 중동 1159번지 이원빌딩 7층 아모레퍼시픽중동특약점","indutype":"보건위생 - 화장품","category":"beauty"},{"name":"아모레카운셀러외판","tel":"032-325-5194","addr":"경기도 부천시 중동 1159번지 7층","indutype":"보건위생 - 화장품","category":"beauty"},{"name":"아모레카운셀러외판","tel":"032-325-5194","addr":"경기도 부천시 중동 1159번지 이원빌딩 7층","indutype":"보건위생 - 화장품","category":"beauty"},{"name":"아모레카운셀러외판","tel":"032-325-5194","addr":"경기도 부천시 중동 1159번지 이원빌딩 7층","indutype":"보건위생 - 화장품","category":"beauty"},{"name":"아모레카운셀터","tel":"032-325-5194","addr":"경기도 부천시 중동 1159번지 이원빌딩 7층","indutype":"보건위생 - 화장품","category":"beauty"},{"name":"아모레카운셀터","tel":"032-325-5194","addr":"경기도 부천시 중동 1159번지 이원빌딩 7층","indutype":"보건위생 - 화장품","category":"beauty"},{"name":"아모레카운셀터","tel":"032-325-5194","addr":"경기도 부천시 중동 1159번지 이원빌딩 7층 아모레퍼시픽","indutype":"보건위생 - 화장품","category":"beauty"},{"name":"아모레카운셀터","tel":"032-325-5194","addr":"경기도 부천시 중동 1159번지 이원빌딩 7층","indutype":"보건위생 - 화장품","category":"beauty"},{"name":"아모레카운셀터","tel":"032-325-5194","addr":"경기도 부천시 중동 1159번지","indutype":"보건위생 - 화장품","category":"beauty"},{"name":"아모레카운셀터","tel":"032-325-5195","addr":"경기도 부천시 중동 1159번지 이원빌딩 2층 202호","indutype":"보건위생 - 화장품","category":"beauty"},{"name":"아모레카운셀터","tel":"032-325-5194","addr":"경기도 부천시 중동 1159번지 이원빌딩 7층","indutype":"보건위생 - 화장품","category":"beauty"},{"name":"아모레카운셀터","tel":"032-325-5194","addr":"경기도 부천시 중동 1159번지 이원빌딩 2층 202호","indutype":"보건위생 - 화장품","category":"beauty"},{"name":"아모레카운셀터","tel":"032-325-5194","addr":"경기도 부천시 중동 1159번지202호","indutype":"보건위생 - 화장품","category":"beauty"}]},{"lat":"37.503228936","long":"126.77779335","imageIndex":13,"items":[{"name":"(주)한국아동발달부천","tel":"032-212-8882","addr":"경기도 부천시 중동 1079-2번지 블래스랜드 202호","indutype":"보건위생 - 기타대인서비스","category":"beauty"},{"name":"매니쉬(Manish)","tel":"032-223-4857","addr":"경기도 부천시 중동 1079-2번지 블래스랜드 2층 201호","indutype":"보건위생 - 미용원","category":"beauty"},{"name":"연세초록이 운동발달센터","tel":"032-328-4512","addr":"경기도 부천시 중동 1079-2번지 블래스랜드 1011호","indutype":"보건위생 - 기타대인서비스","category":"beauty"}]},{"lat":"37.494790059","long":"126.76127509","imageIndex":13,"items":[{"name":"1001안경원(원미점)","tel":"032-665-5425","addr":"경기도 부천시 중동 730-7번지","indutype":"보건위생 - 안경","category":"beauty"}]},{"lat":"37.500958667","long":"126.77791326","imageIndex":13,"items":[{"name":"120헤어 (Hair)","tel":"032-651-0120","addr":"경기도 부천시 중동 1107번지 위브더스테이트 상가 2동 103호","indutype":"보건위생 - 미용원","category":"beauty"},{"name":"더누왓(THE NUAT)","tel":"032-611-0111","addr":"경기도 부천시 중동 1107번지 위브더스테이트 상가 2동 209호","indutype":"보건위생 - 화장품","category":"beauty"},{"name":"리본","tel":"02-1688-9772","addr":"경기도 부천시 중동 1107번지 위브더스테이트 상가 2동 207호","indutype":"보건위생 - 피부미용실","category":"beauty"},{"name":"리본(Re Born)","tel":"02-0000-0000","addr":"경기도 부천시 중동 1107번지 위브더스테이트 상가 2동 207호","indutype":"보건위생 - 화장품","category":"beauty"},{"name":"무드엘네일(mood:L nail)","tel":"070-7687-5047","addr":"경기도 부천시 중동 1107번지 위브더스테이트 2동 105호","indutype":"보건위생 - 피부미용실","category":"beauty"},{"name":"베베왁싱","tel":"032-661-1198","addr":"경기도 부천시 중동 1107번지 위브더스테이트 2동 126호","indutype":"보건위생 - 피부미용실","category":"beauty"},{"name":"웨딩네일샵디자인바이쏘","tel":"032-663-5583","addr":"경기도 부천시 중동 1107번지 위브더스테이트 2동 상가 2층 203호","indutype":"보건위생 - 피부미용실","category":"beauty"},{"name":"최성화헤어","tel":"032-621-7641","addr":"경기도 부천시 중동 1107번지 위브더스테이트 상가 2동 208호","indutype":"보건위생 - 미용원","category":"beauty"}]},{"lat":"37.501011384","long":"126.75907242","imageIndex":13,"items":[{"name":"15일동안","tel":"032-000-0000","addr":"경기도 부천시 중동 1170번지 삼보상가 2층 206-2호, 206-3호","indutype":"보건위생 - 화장품","category":"beauty"},{"name":"내꼬네일(Nail)","tel":"032-322-0892","addr":"경기도 부천시 중동 1170번지 포도마을삼보상가 206호","indutype":"보건위생 - 피부미용실","category":"beauty"},{"name":"주미헤어","tel":"070-7333-0013","addr":"경기도 부천시 중동 1170번지 삼보상가 지층 4호","indutype":"보건위생 - 미용원","category":"beauty"},{"name":"크리스탈스킨케어","tel":"070-8652-8552","addr":"경기도 부천시 중동 1170번지 133,134호","indutype":"보건위생 - 피부미용실","category":"beauty"},{"name":"힐링헤나샵","tel":"","addr":"경기도 부천시 중동 1170번지 포도마을삼보상가b16,b17","indutype":"보건위생 - 화장품","category":"beauty"}]},{"lat":"37.503425101","long":"126.77671838","imageIndex":13,"items":[{"name":"21C안경,콘택트2호점","tel":"032-215-1155","addr":"경기도 부천시 중동 1062-4번지 로얄프라자 106호","indutype":"보건위생 - 안경","category":"beauty"},{"name":"마음의샘 심리상담센터","tel":"032-324-7800","addr":"경기도 부천시 중동 1062-4번지 로얄프라자 508호","indutype":"보건위생 - 기타대인서비스","category":"beauty"},{"name":"마인드원심리상담센터","tel":"032-324-5998","addr":"경기도 부천시 중동 1062-4번지 로얄프라자 402호","indutype":"보건위생 - 기타대인서비스","category":"beauty"},{"name":"수의료기","tel":"032-325-7819","addr":"경기도 부천시 중동 1062-4번지 로얄프라자 307호","indutype":"보건위생 - 의료용품","category":"beauty"},{"name":"안테나헤어샵","tel":"032-321-4919","addr":"경기도 부천시 중동 1062-4번지 로얄프라자 205호","indutype":"보건위생 - 미용원","category":"beauty"},{"name":"엠엔케이코스메틱","tel":"032-545-2005","addr":"경기도 부천시 중동 1062-4번지 로얄프라자 2층","indutype":"보건위생 - 화장품","category":"beauty"},{"name":"조성아심리상담센터","tel":"031-325-4479","addr":"경기도 부천시 중동 1062-4번지 로얄프라자 305호","indutype":"보건위생 - 기타대인서비스","category":"beauty"},{"name":"헤어미려한","tel":"032-322-5657","addr":"경기도 부천시 중동 1062-4번지 로얄프라자 115호","indutype":"보건위생 - 미용원","category":"beauty"}]},{"lat":"37.495036036","long":"126.76707532","imageIndex":13,"items":[{"name":"21C안경콘택트프라자","tel":"032-654-8046","addr":"경기도 부천시 중동 716-2번지","indutype":"보건위생 - 안경","category":"beauty"},{"name":"이십일시(21C)옵틱","tel":"032-612-9431","addr":"경기도 부천시 중동 716-2번지 21세기빌딩 2층","indutype":"보건위생 - 안경","category":"beauty"}]},{"lat":"37.496062272","long":"126.76216434","imageIndex":13,"items":[{"name":"24시해수탕","tel":"032-665-9199","addr":"경기도 부천시 중동 682번지 지층","indutype":"보건위생 - 사우나","category":"beauty"}]},{"lat":"37.503565146","long":"126.76099801","imageIndex":13,"items":[{"name":"345헤어살롱 더신사","tel":"032-323-3345","addr":"경기도 부천시 중동 1166-6번지 2층 201호","indutype":"보건위생 - 미용원","category":"beauty"}]},{"lat":"37.490455763","long":"126.76546146","imageIndex":13,"items":[{"name":"4  (사월)","tel":"","addr":"경기도 부천시 중동 1288번지 팰리스카운티 아이파크 상가동 124호","indutype":"보건위생 - 미용원","category":"beauty"},{"name":"로딩헤어","tel":"032-613-6458","addr":"경기도 부천시 중동 1288번지 팰리스카운티아이파크 상가 119호","indutype":"보건위생 - 미용원","category":"beauty"},{"name":"바이올가스킨","tel":"070-8719-1457","addr":"경기도 부천시 중동 1288번지 팰리스카운티대림정문상가동 104호","indutype":"보건위생 - 화장품","category":"beauty"},{"name":"밝은눈안경콘텍트","tel":"032-661-0025","addr":"경기도 부천시 중동 1288번지 팰리스카운티푸르지오 상가동 1층 117,118호","indutype":"보건위생 - 안경","category":"beauty"},{"name":"수테라피","tel":"032-612-5496","addr":"경기도 부천시 중동 1288번지 푸르지오 상가동 130호","indutype":"보건위생 - 피부미용실","category":"beauty"},{"name":"아젤리아헤어샵","tel":"070-7309-3452","addr":"경기도 부천시 중동 1288번지 팰리스카운티푸르지오 상가 208호","indutype":"보건위생 - 미용원","category":"beauty"},{"name":"올가스킨","tel":"","addr":"경기도 부천시 중동 1288번지 팰리스카운티 대림정문상가 104호","indutype":"보건위생 - 화장품","category":"beauty"},{"name":"쥬시벨헤어","tel":"032-655-6977","addr":"경기도 부천시 중동 1288번지 팰리스카운티상가 103호 쥬시벨","indutype":"보건위생 - 미용원","category":"beauty"},{"name":"팰리스골드네일","tel":"","addr":"경기도 부천시 중동 1288번지 팰리스카운티 중앙 상가동 109호","indutype":"보건위생 - 피부미용실","category":"beauty"}]},{"lat":"37.500259001","long":"126.77021405","imageIndex":13,"items":[{"name":"911대리운전","tel":"032-665-8987","addr":"경기도 부천시 중동 1178번지 미리내마을은하수타운","indutype":"보건위생 - 기타대인서비스","category":"beauty"}]},{"lat":"37.486766341","long":"126.77235896","imageIndex":13,"items":[{"name":"C&P컷이랑펌이랑","tel":"070-8935-6660","addr":"경기도 부천시 중동 794-5번지","indutype":"보건위생 - 미용원","category":"beauty"}]},{"lat":"37.503291487","long":"126.77752174","imageIndex":13,"items":[{"name":"ENC아동청소년가족상담센터","tel":"032-329-7371","addr":"경기도 부천시 중동 1079-1번지 뉴월드타운 401호","indutype":"보건위생 - 기타대인서비스","category":"beauty"}]},{"lat":"37.501117624","long":"126.77157977","imageIndex":13,"items":[{"name":"H&N심리상담학습센터","tel":"032-866-0000","addr":"경기도 부천시 중동 1145-2번지 네이버씨티 503호","indutype":"보건위생 - 기타대인서비스","category":"beauty"},{"name":"네이버안마원","tel":"032-321-9717","addr":"경기도 부천시 중동 1145-2번지 네이버시티빌딩 202호","indutype":"보건위생 - 안마시술소","category":"beauty"},{"name":"네츄럴샤인","tel":"02-1577-7551","addr":"경기도 부천시 중동 1145-2번지 네이버시티빌딩 4층 409호","indutype":"보건위생 - 화장품","category":"beauty"},{"name":"보그헤어 중동롯데점","tel":"032-326-9978","addr":"경기도 부천시 중동 1145-2번지 네이버시티빌딩 2층 204호","indutype":"보건위생 - 미용원","category":"beauty"},{"name":"손지희코스메틱","tel":"032-326-4434","addr":"경기도 부천시 중동 1145-2번지 네이버씨티 301호","indutype":"보건위생 - 화장품","category":"beauty"},{"name":"안경매니져","tel":"032-321-3090","addr":"경기도 부천시 중동 1145-2번지 네이버시티빌딩 1층 105호","indutype":"보건위생 - 안경","category":"beauty"},{"name":"예스","tel":"032-621-8807","addr":"경기도 부천시 중동 1145-2번지 네이버시티빌딩 208호","indutype":"보건위생 - 피부미용실","category":"beauty"},{"name":"오렌지헤어","tel":"032-322-9955","addr":"경기도 부천시 중동 1145-2번지 네이버시티 1층 112호","indutype":"보건위생 - 미용원","category":"beauty"},{"name":"온니네일(Only Nail)","tel":"032-323-3679","addr":"경기도 부천시 중동 1145-2번지 네이버시티 113호","indutype":"보건위생 - 피부미용실","category":"beauty"},{"name":"좋은맘심리상담센터","tel":"032-710-7255","addr":"경기도 부천시 중동 1145-2번지 네이버시티빌딩 4층 405-2호","indutype":"보건위생 - 기타대인서비스","category":"beauty"},{"name":"티엔비코스메틱 주식회사 (TNB Cosmetic Co","tel":"070-7755-7711","addr":"경기도 부천시 중동 1145-2번지 네이버시티빌딩 309호","indutype":"보건위생 - 미용재료","category":"beauty"}]},{"lat":"37.494318466","long":"126.76419405","imageIndex":13,"items":[{"name":"HS코스메틱","tel":"032-614-7373","addr":"경기도 부천시 중동 734-13번지 1층","indutype":"보건위생 - 화장품","category":"beauty"}]},{"lat":"37.501317616","long":"126.77715448","imageIndex":13,"items":[{"name":"INKOFA김지현코스메틱","tel":"032-325-6629","addr":"경기도 부천시 중동 1106외4필지위브더스테이트103-1005","indutype":"보건위생 - 화장품","category":"beauty"},{"name":"글라스박스","tel":"032-621-7172","addr":"경기도 부천시 중동 1106번지 위브더스데이트제1상가 1동 101호","indutype":"보건위생 - 안경","category":"beauty"},{"name":"길을찾다","tel":"032-663-4111","addr":"경기도 부천시 중동 1106번지 위브더스테이트 상가 2동 215호","indutype":"보건위생 - 기타대인서비스","category":"beauty"},{"name":"내몸에슈가(왁싱&속눈썹)","tel":"02-0000-0000","addr":"경기도 부천시 중동 1106번지 위브더스테이트 130-1호","indutype":"보건위생 - 피부미용실","category":"beauty"},{"name":"네일데이","tel":"032-620-5557","addr":"경기도 부천시 중동 1106번지 위브더스테이트 상가 1동 220호","indutype":"보건위생 - 피부미용실","category":"beauty"},{"name":"미즈맨헤어","tel":"032-611-7300","addr":"경기도 부천시 중동 1106번지 위브더스테이트 상가 1동 228호","indutype":"보건위생 - 미용원","category":"beauty"},{"name":"바오멀티살롱","tel":"032-612-4397","addr":"경기도 부천시 중동 1106번지 위브더스테이트223호224동 223호","indutype":"보건위생 - 미용원","category":"beauty"},{"name":"백지연왁싱&속눈썹","tel":"070-8812-8631","addr":"경기도 부천시 중동 1106번지 위브더스테이트 상가 1동 219호","indutype":"보건위생 - 피부미용실","category":"beauty"},{"name":"아우라뷰티헤어살롱","tel":"032-620-3699","addr":"경기도 부천시 중동 1106번지 위브더스테이트 1동 116호 상가","indutype":"보건위생 - 미용원","category":"beauty"},{"name":"이미호 아이래쉬","tel":"032-651-3931","addr":"경기도 부천시 중동 1106번지 위브더스테이트 상가 5동 120호","indutype":"보건위생 - 화장품","category":"beauty"},{"name":"제이엔미corporation","tel":"070-4042-9629","addr":"경기도 부천시 중동 1106번지","indutype":"보건위생 - 미용재료","category":"beauty"},{"name":"호샵(HO#)","tel":"032-621-8253","addr":"경기도 부천시 중동 1106번지 위브더스테이트 222호","indutype":"보건위생 - 미용원","category":"beauty"}]},{"lat":"37.504339059","long":"126.7694889","imageIndex":13,"items":[{"name":"INKOREA김지현코스메틱","tel":"032-321-6629","addr":"경기도 부천시 중동 1056번지 제일프라자 303호","indutype":"보건위생 - 화장품","category":"beauty"},{"name":"LJ헤어클래식","tel":"032-325-4224","addr":"경기도 부천시 중동 1056번지 제일프라자 104호","indutype":"보건위생 - 미용원","category":"beauty"},{"name":"에스바디워크(부천중동점)","tel":"032-322-9609","addr":"경기도 부천시 중동 1056번지 제일프라자 603호","indutype":"보건위생 - 기타대인서비스","category":"beauty"},{"name":"이허건강마실","tel":"","addr":"경기도 부천시 중동 1056번지 제일프라자 205호","indutype":"보건위생 - 의료용품","category":"beauty"},{"name":"주식회사프로노이아(Pronoia CorporationLt","tel":"032-323-3554","addr":"경기도 부천시 중동 1056번지 제일프라자 303호","indutype":"보건위생 - 화장품","category":"beauty"},{"name":"중동에듀플렉스","tel":"032-329-7909","addr":"경기도 부천시 중동 1056번지 제일프라자 403호","indutype":"보건위생 - 기타대인서비스","category":"beauty"},{"name":"행복한심리상담센터","tel":"070-4922-1261","addr":"경기도 부천시 중동 1056번지 제일프라자 4층 402호","indutype":"보건위생 - 기타대인서비스","category":"beauty"}]},{"lat":"37.501206148","long":"126.77077656","imageIndex":13,"items":[{"name":"MOON(문)","tel":"070-4318-3611","addr":"경기도 부천시 중동 1145번지 메트로팰리스2차 A동 104호","indutype":"보건위생 - 화장품","category":"beauty"},{"name":"네일해뜸","tel":"032-321-4014","addr":"경기도 부천시 중동 1145번지 매트로펠리스II-A 1층 104호","indutype":"보건위생 - 피부미용실","category":"beauty"},{"name":"방지거미용실","tel":"032-323-3323","addr":"경기도 부천시 중동 1145번지 메트로팰리스2차 109호","indutype":"보건위생 - 미용원","category":"beauty"},{"name":"수앤수뷰티끄","tel":"032-322-0313","addr":"경기도 부천시 중동 1145번지 메트로팰리스2차-A 3층 307호","indutype":"보건위생 - 피부미용실","category":"beauty"},{"name":"쏠샵","tel":"031-000-0000","addr":"경기도 부천시 중동 1145번지 매트로펠리스II A동 2층 205호","indutype":"보건위생 - 피부미용실","category":"beauty"},{"name":"재클린헤어살롱","tel":"","addr":"경기도 부천시 중동 1145번지 매트로펠리스II 1층 110호","indutype":"보건위생 - 미용원","category":"beauty"},{"name":"제니스헤어","tel":"032-322-1452","addr":"경기도 부천시 중동 1145번지 매트로펠리스II 101,102호","indutype":"보건위생 - 미용원","category":"beauty"},{"name":"지영에스테틱","tel":"032-323-3399","addr":"경기도 부천시 중동 1145번지 매트로펠리스II-A 309호","indutype":"보건위생 - 피부미용실","category":"beauty"},{"name":"클레오파트라네일#","tel":"032-326-5262","addr":"경기도 부천시 중동 1145번지 매트로펠리스 11-A 2층 206호","indutype":"보건위생 - 피부미용실","category":"beauty"},{"name":"히어로헤어","tel":"032-211-9393","addr":"경기도 부천시 중동 1145번지 메트로팰리스투 A동 108호","indutype":"보건위생 - 미용원","category":"beauty"}]},{"lat":"37.503730894","long":"126.78118465","imageIndex":13,"items":[{"name":"Q사랑염색방","tel":"032-322-5004","addr":"경기도 부천시 중동 1083-3번지 1층 102호","indutype":"보건위생 - 화장품","category":"beauty"},{"name":"사넬헤어","tel":"032-321-0085","addr":"경기도 부천시 중동 1083-3번지 1층","indutype":"보건위생 - 미용원","category":"beauty"}]},{"lat":"37.501011119","long":"126.77240565","imageIndex":13,"items":[{"name":"j-perm Queen","tel":"032-678-2346","addr":"경기도 부천시 중동 1144-1번지 굿모닝위너스텔3차 201호,202호일부","indutype":"보건위생 - 미용원","category":"beauty"},{"name":"살롱드케이(K)","tel":"032-323-6424","addr":"경기도 부천시 중동 1144-1번지 굿모닝위너스텔3차 110호","indutype":"보건위생 - 미용원","category":"beauty"},{"name":"체스헤어","tel":"032-325-4069","addr":"경기도 부천시 중동 1144-1번지 굿모닝위너스텔 105호","indutype":"보건위생 - 미용원","category":"beauty"}]},{"lat":"37.504977809","long":"126.76449941","imageIndex":13,"items":[{"name":"가빈헤어","tel":"032-677-5588","addr":"경기도 부천시 중동 1033-3번지 굿모닝프라자 114호","indutype":"보건위생 - 미용원","category":"beauty"},{"name":"경일심리상담연구소","tel":"032-323-0270","addr":"경기도 부천시 중동 1033-3번지 굿모닝프라자 514호","indutype":"보건위생 - 기타대인서비스","category":"beauty"},{"name":"글라스스토리안경원","tel":"032-329-1225","addr":"경기도 부천시 중동 1033-3번지 굿모닝프라자 108호 107","indutype":"보건위생 - 안경","category":"beauty"},{"name":"누벨르헤어살롱","tel":"032-322-3509","addr":"경기도 부천시 중동 1033-3번지 굿모닝프라자 119호","indutype":"보건위생 - 미용원","category":"beauty"},{"name":"더브레인두뇌학습크리닉","tel":"032-326-2085","addr":"경기도 부천시 중동 1033-3번지 굿모닝프라자 3층 308호","indutype":"보건위생 - 기타대인서비스","category":"beauty"},{"name":"독일지멘스보청기","tel":"032-326-8870","addr":"경기도 부천시 중동 1033-3번지 굿모닝프라자 410호","indutype":"보건위생 - 의료용품","category":"beauty"},{"name":"바른자세 연구원","tel":"032-328-8069","addr":"경기도 부천시 중동 1033-3번지 굿모닝프라자 4호","indutype":"보건위생 - 기타대인서비스","category":"beauty"},{"name":"벗고탠 부천","tel":"070-7354-8283","addr":"경기도 부천시 중동 1033-3번지 굿모닝프라자 415호","indutype":"보건위생 - 화장품","category":"beauty"},{"name":"엘림아동발달센터 부천점","tel":"032-329-7587","addr":"경기도 부천시 중동 1033-3번지 굿모닝프라자 507호(1033-4,0번지","indutype":"보건위생 - 기타대인서비스","category":"beauty"}]},{"lat":"37.492317151","long":"126.76813547","imageIndex":13,"items":[{"name":"가상란헤어이즈","tel":"070-8926-7912","addr":"경기도 부천시 중동 773-27번지","indutype":"보건위생 - 미용원","category":"beauty"},{"name":"오찬엽헤어오케이 (OK)","tel":"070-7356-0572","addr":"경기도 부천시 중동 773-27번지 1층","indutype":"보건위생 - 미용원","category":"beauty"}]},{"lat":"37.504450748","long":"126.7806849","imageIndex":13,"items":[{"name":"가정복지센타","tel":"032-677-1114","addr":"경기도 부천시 중동 1082-4번지","indutype":"보건위생 - 의료용품","category":"beauty"}]},{"lat":"37.500762513","long":"126.774295","imageIndex":13,"items":[{"name":"감각살롱","tel":"032-326-1207","addr":"경기도 부천시 중동 1135번지 대야하이빌2차 201호","indutype":"보건위생 - 미용원","category":"beauty"},{"name":"월드사투","tel":"032-323-6828","addr":"경기도 부천시 중동 1135번지 대야하이빌2차 104호","indutype":"보건위생 - 미용재료","category":"beauty"}]},{"lat":"37.501207483","long":"126.77610308","imageIndex":13,"items":[{"name":"고수헤어","tel":"032-326-7497","addr":"경기도 부천시 중동 1140-4번지 트리플타워 108,109호","indutype":"보건위생 - 미용원","category":"beauty"},{"name":"더나인","tel":"070-7783-2005","addr":"경기도 부천시 중동 1140-4번지 트리플타워 203호","indutype":"보건위생 - 화장품","category":"beauty"},{"name":"라둘라스","tel":"032-322-0237","addr":"경기도 부천시 중동 1140-4번지 트리플타워 C동 308호","indutype":"보건위생 - 피부미용실","category":"beauty"},{"name":"살롱드율","tel":"070-7126-2768","addr":"경기도 부천시 중동 1140-4번지 트리플타워 306호","indutype":"보건위생 - 피부미용실","category":"beauty"},{"name":"아리따움중동트리플타워점","tel":"032-321-0345","addr":"경기도 부천시 중동 1140-4번지 트리플타워 사동 102호","indutype":"보건위생 - 화장품","category":"beauty"},{"name":"제오헤어 신중동역점","tel":"032-323-1103","addr":"경기도 부천시 중동 1140-4번지 트리플타워 C동 202호 제201","indutype":"보건위생 - 미용원","category":"beauty"}]},{"lat":"37.503622552","long":"126.76263768","imageIndex":13,"items":[{"name":"고수헤어","tel":"032-327-7497","addr":"경기도 부천시 중동 1163-6번지 2층 202호","indutype":"보건위생 - 미용원","category":"beauty"},{"name":"향수&화장품","tel":"032-327-4326","addr":"경기도 부천시 중동 1163-6번지 1층","indutype":"보건위생 - 화장품","category":"beauty"}]},{"lat":"37.502982243","long":"126.77135914","imageIndex":13,"items":[{"name":"고썹브로우","tel":"","addr":"경기도 부천시 중동 1148번지 이안더클래식 A동 19층 1901호","indutype":"보건위생 - 화장품","category":"beauty"},{"name":"디바이드(DIVIDE)","tel":"070-8829-6215","addr":"경기도 부천시 중동 1148번지 이안더클래식 121호","indutype":"보건위생 - 미용원","category":"beauty"},{"name":"비비드왁싱&래쉬","tel":"02-0000-0000","addr":"경기도 부천시 중동 1148번지 이안더클래식 1층 124호","indutype":"보건위생 - 피부미용실","category":"beauty"},{"name":"사주&타로","tel":"070-7378-6116","addr":"경기도 부천시 중동 1148번지 이안더클래식 1층 104호","indutype":"보건위생 - 기타대인서비스","category":"beauty"},{"name":"윤헤어","tel":"070-8659-2196","addr":"경기도 부천시 중동 1148번지 이안더클래식 A동 110호","indutype":"보건위생 - 미용원","category":"beauty"},{"name":"지투지헤어","tel":"032-205-3532","addr":"경기도 부천시 중동 1148번지 이안더클래식 1층 108호","indutype":"보건위생 - 미용원","category":"beauty"},{"name":"쿠스헤어(Koo.s Hair)","tel":"032-323-5505","addr":"경기도 부천시 중동 1148번지 이안더클래식 102호","indutype":"보건위생 - 미용원","category":"beauty"},{"name":"헤어드로아","tel":"031-000-0000","addr":"경기도 부천시 중동 1148번지 이안더클래식 102호","indutype":"보건위생 - 미용원","category":"beauty"}]},{"lat":"37.492646296","long":"126.76601991","imageIndex":13,"items":[{"name":"골든샵","tel":"032-613-4140","addr":"경기도 부천시 중동 771-2번지 1층","indutype":"보건위생 - 화장품","category":"beauty"}]},{"lat":"37.49898527","long":"126.77779478","imageIndex":13,"items":[{"name":"관계와 소통","tel":"031-000-0000","addr":"경기도 부천시 중동 1110번지 위브더스테이트 상가 5동 211호","indutype":"보건위생 - 기타대인서비스","category":"beauty"},{"name":"꼬알네일 (kkor.nail)","tel":"070-7849-4613","addr":"경기도 부천시 중동 1110번지 위브더스테이트 5동 105호","indutype":"보건위생 - 피부미용실","category":"beauty"},{"name":"네일바나나","tel":"","addr":"경기도 부천시 중동 1110번지 위브더스테이트 상가 5동 2층 227호","indutype":"보건위생 - 피부미용실","category":"beauty"},{"name":"네일아지트","tel":"","addr":"경기도 부천시 중동 1110번지 위브더스테이트 5동 2층 231호","indutype":"보건위생 - 피부미용실","category":"beauty"},{"name":"로즈하우스","tel":"032-655-4898","addr":"경기도 부천시 중동 1110번지 위브더스테이트 상가 5동 110호","indutype":"보건위생 - 피부미용실","category":"beauty"},{"name":"메이퀸네일","tel":"032-651-4245","addr":"경기도 부천시 중동 1110번지 위브더스테이트 상가 5동 119호","indutype":"보건위생 - 피부미용실","category":"beauty"},{"name":"비유티풀 프레그런스","tel":"","addr":"경기도 부천시 중동 1110번지","indutype":"보건위생 - 화장품","category":"beauty"},{"name":"살롱드알(SALON DE.R)","tel":"032-612-3373","addr":"경기도 부천시 중동 1110번지 위브더스테이트 상가 5동 121호","indutype":"보건위생 - 미용원","category":"beauty"},{"name":"에스엔제이헤어마루","tel":"032-620-5970","addr":"경기도 부천시 중동 1110번지 위브더스테이트 상가 5동 104호","indutype":"보건위생 - 미용원","category":"beauty"},{"name":"제이헤어","tel":"032-515-0074","addr":"경기도 부천시 중동 1110번지 위브더스테이트 상가 5동 211호","indutype":"보건위생 - 미용원","category":"beauty"},{"name":"제인네일","tel":"032-621-8020","addr":"경기도 부천시 중동 1110번지 위브더스테이트5단지 118호","indutype":"보건위생 - 피부미용실","category":"beauty"},{"name":"주식회사 애니미","tel":"02-839-4766","addr":"경기도 부천시 중동 1110번지 위브더스테이트 상가 5동 213호","indutype":"보건위생 - 의료용품","category":"beauty"},{"name":"하이슈가링","tel":"","addr":"경기도 부천시 중동 1110번지 위브더스테이트 상가 5동 232호","indutype":"보건위생 - 피부미용실","category":"beauty"}]},{"lat":"37.502561959","long":"126.7639077","imageIndex":13,"items":[{"name":"광뷰티","tel":"02-0000-0000","addr":"경기도 부천시 중동 1159-5번지 부광프라자 107호","indutype":"보건위생 - 피부미용실","category":"beauty"}]},{"lat":"37.498899288","long":"126.77996629","imageIndex":13,"items":[{"name":"광천목욕탕","tel":"032-666-4729","addr":"경기도 부천시 중동 1102번지 꿈마을상가동지하1층","indutype":"보건위생 - 사우나","category":"beauty"},{"name":"성창우작명소","tel":"","addr":"경기도 부천시 중동 1102번지 꿈마을 건영,서안아파트","indutype":"보건위생 - 기타대인서비스","category":"beauty"},{"name":"송현","tel":"032-344-6938","addr":"경기도 부천시 중동 1102번지 꿈마을 상가동 205호","indutype":"보건위생 - 화장품","category":"beauty"},{"name":"정준헤어라인","tel":"032-655-9082","addr":"경기도 부천시 중동 1102","indutype":"보건위생 - 미용원","category":"beauty"}]},{"lat":"37.50231376","long":"126.77046779","imageIndex":13,"items":[{"name":"구나","tel":"032-329-5988","addr":"경기도 부천시 중동 1150-8번지 프린스프라자 지층 102호","indutype":"보건위생 - 미용재료","category":"beauty"}]},{"lat":"37.503151942","long":"126.76161004","imageIndex":13,"items":[{"name":"굿데이메디코","tel":"","addr":"경기도 부천시 중동 1162-1번지 화이트밸리 3층 301호 일부","indutype":"보건위생 - 의료용품","category":"beauty"},{"name":"준성메디칼","tel":"032-508-5198","addr":"경기도 부천시 중동 1162-1번지 화이트밸리 3층 301호 A20","indutype":"보건위생 - 의료용품","category":"beauty"},{"name":"피부연출","tel":"070-4151-2947","addr":"경기도 부천시 중동 1162-1번지 화이트밸리 501호","indutype":"보건위생 - 화장품","category":"beauty"}]},{"lat":"37.508673644","long":"126.76990518","imageIndex":13,"items":[{"name":"굿모닝헤어펌","tel":"032-324-3170","addr":"경기도 부천시 중동 1051-1번지 204호","indutype":"보건위생 - 미용원","category":"beauty"},{"name":"아름다운스킨케어","tel":"","addr":"경기도 부천시 중동 1051-1번지 202호","indutype":"보건위생 - 피부미용실","category":"beauty"}]},{"lat":"37.500927373","long":"126.77568549","imageIndex":13,"items":[{"name":"굿케어","tel":"","addr":"경기도 부천시 중동 1136-4번지 중앙프라자2차 202호","indutype":"보건위생 - 피부미용실","category":"beauty"},{"name":"더에스네일","tel":"070-7465-0731","addr":"경기도 부천시 중동 1136-4번지 중앙프라자2차 104호","indutype":"보건위생 - 피부미용실","category":"beauty"}]},{"lat":"37.508010759","long":"126.7628272","imageIndex":13,"items":[{"name":"귀빈헤어","tel":"032-328-8487","addr":"경기도 부천시 중동 1029-4번지 102금강일반상가","indutype":"보건위생 - 미용원","category":"beauty"}]},{"lat":"37.501178059","long":"126.77485918","imageIndex":13,"items":[{"name":"그린알로에","tel":"032-327-6300","addr":"경기도 부천시 중동 1138-1번지 3층","indutype":"보건위생 - 화장품","category":"beauty"},{"name":"도트헤어(DATHAIR)","tel":"032-325-5802","addr":"경기도 부천시 중동 1138-1번지 조이럭타운 102호","indutype":"보건위생 - 미용원","category":"beauty"},{"name":"마인드디톡스코칭","tel":"031-311-3923","addr":"경기도 부천시 중동 1138-1번지 조이럭타운 602호 내 34호","indutype":"보건위생 - 기타대인서비스","category":"beauty"},{"name":"모양새","tel":"070-8135-8006","addr":"경기도 부천시 중동 1138-1번지","indutype":"보건위생 - 미용재료","category":"beauty"},{"name":"블루클럽","tel":"032-327-2804","addr":"경기도 부천시 중동 1138-1번지 조이럭타운 104호","indutype":"보건위생 - 미용원","category":"beauty"},{"name":"비너스테라피","tel":"032-217-0124","addr":"경기도 부천시 중동 1138-1번지 조이럭타운 4층 401호","indutype":"보건위생 - 화장품","category":"beauty"},{"name":"월드제이앤지","tel":"032-678-6337","addr":"경기도 부천시 중동 1138-1번지 조이럭타운 602호","indutype":"보건위생 - 미용재료","category":"beauty"},{"name":"중동메디칼","tel":"032-652-9133","addr":"경기도 부천시 중동 1138-1번지 조이럭타운 602호","indutype":"보건위생 - 의료용품","category":"beauty"},{"name":"하이메디칼","tel":"032-226-5851","addr":"경기도 부천시 중동 1138-1번지 조이럭타운 602호 일부","indutype":"보건위생 - 의료용품","category":"beauty"}]},{"lat":"37.504842882","long":"126.77371708","imageIndex":13,"items":[{"name":"극동머리방","tel":"032-322-0049","addr":"경기도 부천시 중동 1054극동상가203호","indutype":"보건위생 - 미용원","category":"beauty"}]},{"lat":"37.497209162","long":"126.77718946","imageIndex":13,"items":[{"name":"글라스스토리안경원","tel":"032-327-9099","addr":"경기도 부천시 중동 1126-1번지 필-그린타워 110호","indutype":"보건위생 - 안경","category":"beauty"},{"name":"민네일살롱","tel":"032-326-5322","addr":"경기도 부천시 중동 1126-1번지 필-그린타워 1층 104호","indutype":"보건위생 - 피부미용실","category":"beauty"}]},{"lat":"37.502590761","long":"126.76035653","imageIndex":13,"items":[{"name":"글램","tel":"070-8990-5231","addr":"경기도 부천시 중동 1168-1번지 디아뜨1 2층 207호","indutype":"보건위생 - 피부미용실","category":"beauty"}]},{"lat":"37.508338971","long":"126.76030401","imageIndex":13,"items":[{"name":"금강미용실","tel":"032-321-0285","addr":"경기도 부천시 중동 1030-4번지 금강마을복합상가 204호","indutype":"보건위생 - 미용원","category":"beauty"},{"name":"제이룸(J room)","tel":"032-321-3580","addr":"경기도 부천시 중동 1030-4번지 금강마을아파트 204호","indutype":"보건위생 - 미용원","category":"beauty"}]},{"lat":"37.494954902","long":"126.76705295","imageIndex":13,"items":[{"name":"기능장금발헤어","tel":"032-351-7473","addr":"경기도 부천시 중동 716-3번지 2층","indutype":"보건위생 - 미용원","category":"beauty"},{"name":"블루클럽중동점","tel":"032-652-1809","addr":"경기도 부천시 중동 716-3번지","indutype":"보건위생 - 미용원","category":"beauty"}]},{"lat":"37.502093835","long":"126.76410145","imageIndex":13,"items":[{"name":"기욤래쉬","tel":"","addr":"경기도 부천시 중동 1160-3번지 필레오트윈파크2동 2층 201호","indutype":"보건위생 - 피부미용실","category":"beauty"},{"name":"약손체형수기관리","tel":"032-323-7142","addr":"경기도 부천시 중동 1160-3번지 팔레오트윈파크 3층 301호","indutype":"보건위생 - 피부미용실","category":"beauty"},{"name":"제이앤뷰티아이","tel":"070-8727-4565","addr":"경기도 부천시 중동 1160-3번지 필레오트윈파크2동 215호","indutype":"보건위생 - 미용원","category":"beauty"}]},{"lat":"37.494313868","long":"126.7663878","imageIndex":13,"items":[{"name":"김고은피부&두피사랑","tel":"070-4686-2383","addr":"경기도 부천시 중동 720-5번지 가인빌에코 101호","indutype":"보건위생 - 피부미용실","category":"beauty"}]},{"lat":"37.496876421","long":"126.7637675","imageIndex":13,"items":[{"name":"김두지헤어라인","tel":"032-666-5233","addr":"경기도 부천시 중동 593-12번지 1층","indutype":"보건위생 - 미용원","category":"beauty"}]},{"lat":"37.487763875","long":"126.76649891","imageIndex":13,"items":[{"name":"김미림헤어러브","tel":"032-663-3563","addr":"경기도 부천시 중동 813-1번지","indutype":"보건위생 - 미용원","category":"beauty"}]},{"lat":"37.487180377","long":"126.7675749","imageIndex":13,"items":[{"name":"김미애헤어스케치","tel":"032-654-2748","addr":"경기도 부천시 중동 818번지 동우빌라 105호","indutype":"보건위생 - 미용원","category":"beauty"}]},{"lat":"37.503895001","long":"126.77276999","imageIndex":13,"items":[{"name":"김지후헤어","tel":"032-324-1970","addr":"경기도 부천시 중동 1058-1번지 신명타운 105호","indutype":"보건위생 - 미용원","category":"beauty"},{"name":"더원 행동재활센터","tel":"032-214-2004","addr":"경기도 부천시 중동 1058-1번지 신명타운 6층 604호","indutype":"보건위생 - 기타대인서비스","category":"beauty"},{"name":"로코코스메틱","tel":"032-322-0455","addr":"경기도 부천시 중동 1058-1번지 신명타운 306호","indutype":"보건위생 - 화장품","category":"beauty"},{"name":"바라보다","tel":"032-322-3016","addr":"경기도 부천시 중동 1058-1번지 신명타운 111호","indutype":"보건위생 - 안경","category":"beauty"},{"name":"오휘 부천제일대리점","tel":"032-322-4200","addr":"경기도 부천시 중동 1058-1번지 신명타운 302호","indutype":"보건위생 - 화장품","category":"beauty"},{"name":"오휘컨설턴트","tel":"032-322-4200","addr":"경기도 부천시 중동 1058-1번지 선명타운 302호","indutype":"보건위생 - 화장품","category":"beauty"}]},{"lat":"37.500792291","long":"126.77571983","imageIndex":13,"items":[{"name":"김환헤어","tel":"032-327-2028","addr":"경기도 부천시 중동 1136-3번지 대호프라자 202호","indutype":"보건위생 - 미용원","category":"beauty"},{"name":"라비앙르로즈","tel":"032-715-5432","addr":"경기도 부천시 중동 1136-3번지 대호프라자 3층","indutype":"보건위생 - 미용원","category":"beauty"}]},{"lat":"37.5002590006","long":"126.7702140511","imageIndex":13,"items":[{"name":"김희경미용실","tel":"032-322-1513","addr":"경기도 부천시 중동 1178번지 은하수상가 202호","indutype":"보건위생 - 미용원","category":"beauty"}]},{"lat":"37.5010113839","long":"126.7590724231","imageIndex":13,"items":[{"name":"까까머리미용실","tel":"032-322-2315","addr":"경기도 부천시 중동 1170번지 포도마을삼보상가 202호","indutype":"보건위생 - 미용원","category":"beauty"},{"name":"이브화장품","tel":"032-326-3037","addr":"경기도 부천시 중동 1170번지","indutype":"보건위생 - 화장품","category":"beauty"},{"name":"준헤어이벤트","tel":"032-325-7845","addr":"경기도 부천시 중동 1170번지 포도마을삼보상가 B-19호","indutype":"보건위생 - 미용원","category":"beauty"}]},{"lat":"37.486899145","long":"126.77116003","imageIndex":13,"items":[{"name":"깎꼬뽁꼬","tel":"032-667-0441","addr":"경기도 부천시 중동 794-26번지 1층","indutype":"보건위생 - 미용원","category":"beauty"},{"name":"연코스메틱","tel":"070-7322-2475","addr":"경기도 부천시 중동 794-26번지 4층","indutype":"보건위생 - 화장품","category":"beauty"}]},{"lat":"37.50184328","long":"126.77407683","imageIndex":13,"items":[{"name":"꾸아퍼스트(중동롯데점)","tel":"032-321-8611","addr":"경기도 부천시 중동 1142-11번지","indutype":"보건위생 - 미용원","category":"beauty"}]},{"lat":"37.503151075","long":"126.77015984","imageIndex":13,"items":[{"name":"끄레소","tel":"031-790-1568","addr":"경기도 부천시 중동 1149-2번지 금광베네스타 5층 514호","indutype":"보건위생 - 미용재료","category":"beauty"},{"name":"더마힐 케이투","tel":"","addr":"경기도 부천시 중동 1149-2번지 금광베네스타 813호","indutype":"보건위생 - 미용재료","category":"beauty"},{"name":"드림메디컬","tel":"070-4300-7274","addr":"경기도 부천시 중동 1149-2번지 금광베네스타 710호","indutype":"보건위생 - 의료용품","category":"beauty"},{"name":"로투스","tel":"032-216-9399","addr":"경기도 부천시 중동 1149-2번지 금광베네스타 1911호","indutype":"보건위생 - 화장품","category":"beauty"},{"name":"바른바디","tel":"02-2698-2443","addr":"경기도 부천시 중동 1149-2번지 금광베네스타 1710호","indutype":"보건위생 - 기타대인서비스","category":"beauty"},{"name":"오케타니모유육아상담실","tel":"032-612-1413","addr":"경기도 부천시 중동 1149-2번지 금광베네스타 808호","indutype":"보건위생 - 기타대인서비스","category":"beauty"},{"name":"프로텍트바이오","tel":"070-7853-1229","addr":"경기도 부천시 중동 1149-2번지 금광베네스타 207호","indutype":"보건위생 - 의료용품","category":"beauty"}]},{"lat":"37.499014659","long":"126.76972033","imageIndex":13,"items":[{"name":"끌레오","tel":"032-323-1489","addr":"경기도 부천시 중동 1181미리내마을동성상가210","indutype":"보건위생 - 미용원","category":"beauty"},{"name":"블링네일","tel":"","addr":"경기도 부천시 중동 1181번지 동성 상가 110호","indutype":"보건위생 - 피부미용실","category":"beauty"}]},{"lat":"37.500315732","long":"126.78096857","imageIndex":13,"items":[{"name":"끌레헤어아트미용실","tel":"032-651-8464","addr":"경기도 부천시 중동 1096-3번지","indutype":"보건위생 - 미용원","category":"beauty"}]},{"lat":"37.502618346","long":"126.77418756","imageIndex":13,"items":[{"name":"나노메디에스테틱","tel":"032-329-7070","addr":"경기도 부천시 중동 1141-5번지 다운타운빌딩 3층 304호","indutype":"보건위생 - 화장품","category":"beauty"},{"name":"더그린에스테틱","tel":"032-321-1030","addr":"경기도 부천시 중동 1141-5번지 다운타운빌딩 6층 601호","indutype":"보건위생 - 화장품","category":"beauty"},{"name":"맥섬석의료기","tel":"032-664-2022","addr":"경기도 부천시 중동 1141-5번지 다운타운 903호","indutype":"보건위생 - 의료용품","category":"beauty"},{"name":"박승철헤어스투디오 중동롯데점","tel":"032-324-3390","addr":"경기도 부천시 중동 1141-5번지 다운타운 205호","indutype":"보건위생 - 미용원","category":"beauty"},{"name":"비즈통상","tel":"031-000-0001","addr":"경기도 부천시 중동 1141-5번지 다운타운 8층 805호","indutype":"보건위생 - 화장품","category":"beauty"},{"name":"스킨케어하우스 오월의신부","tel":"032-321-0956","addr":"경기도 부천시 중동 1141-5번지 다운타운 2층 204호","indutype":"보건위생 - 피부미용실","category":"beauty"},{"name":"유니메드","tel":"","addr":"경기도 부천시 중동 1141-5번지 다운타운 306호 일부호","indutype":"보건위생 - 의료용품","category":"beauty"},{"name":"일공오네일샵(105NAIL#)","tel":"032-328-1484","addr":"경기도 부천시 중동 1141-5번지 다운타운 109호","indutype":"보건위생 - 피부미용실","category":"beauty"},{"name":"토금개발 주식회사","tel":"032-329-4400","addr":"경기도 부천시 중동 1141-5번지 다운타운 404호","indutype":"보건위생 - 의료용품","category":"beauty"}]},{"lat":"37.502431085","long":"126.76157844","imageIndex":13,"items":[{"name":"나는예뻐네일","tel":"031-000-0000","addr":"경기도 부천시 중동 1161번지 디아뜨갤러리2 B동 110호","indutype":"보건위생 - 피부미용실","category":"beauty"}]},{"lat":"37.500423787","long":"126.78093432","imageIndex":13,"items":[{"name":"나스헤어","tel":"032-657-5245","addr":"경기도 부천시 중동 1096-2번지","indutype":"보건위생 - 미용원","category":"beauty"}]},{"lat":"37.505199849","long":"126.76291536","imageIndex":13,"items":[{"name":"난청엔보청기부천센터","tel":"032-325-5002","addr":"경기도 부천시 중동 1031-3번지 영라이프빌딩 301호","indutype":"보건위생 - 의료용품","category":"beauty"},{"name":"라인에스테틱","tel":"032-321-4875","addr":"경기도 부천시 중동 1031-3번지 영라이프빌딩 601호","indutype":"보건위생 - 화장품","category":"beauty"},{"name":"아리따움부천시청역점","tel":"032-325-5883","addr":"경기도 부천시 중동 1031-3번지 영라이프빌딩 107호","indutype":"보건위생 - 화장품","category":"beauty"}]},{"lat":"37.505597254","long":"126.76787901","imageIndex":13,"items":[{"name":"남성컷트전문점","tel":"032-324-4264","addr":"경기도 부천시 중동 1036은하마을상가동1층106","indutype":"보건위생 - 이용원","category":"beauty"},{"name":"시크라인","tel":"032-672-2351","addr":"경기도 부천시 중동 1036번지 은하마을 상가동 2층 201호","indutype":"보건위생 - 화장품","category":"beauty"},{"name":"엔(N)헤어살롱","tel":"032-324-2790","addr":"경기도 부천시 중동 1036번지 은하마을상가동 101-2호 상가","indutype":"보건위생 - 미용원","category":"beauty"}]},{"lat":"37.503125536","long":"126.76191548","imageIndex":13,"items":[{"name":"내몸에 슈가","tel":"","addr":"경기도 부천시 중동 1162-2번지 제이클래스중동 321호 320호,321호","indutype":"보건위생 - 미용재료","category":"beauty"},{"name":"릴리스헤어","tel":"032-326-4144","addr":"경기도 부천시 중동 1162-2번지 225호,226호","indutype":"보건위생 - 미용원","category":"beauty"},{"name":"임네일","tel":"070-4200-0912","addr":"경기도 부천시 중동 1162-2번지 제이클래스중동 206호","indutype":"보건위생 - 피부미용실","category":"beauty"},{"name":"헬로슈가왁싱","tel":"","addr":"경기도 부천시 중동 1162-2번지 제이클래스 305호","indutype":"보건위생 - 피부미용실","category":"beauty"}]},{"lat":"37.501431665","long":"126.77554826","imageIndex":13,"items":[{"name":"네일레시피","tel":"032-324-0361","addr":"경기도 부천시 중동 1137-1번지 한동 상가 105호","indutype":"보건위생 - 화장품","category":"beauty"}]},{"lat":"37.498145669","long":"126.77691524","imageIndex":13,"items":[{"name":"네일즈세상","tel":"02-586-4127","addr":"경기도 부천시 중동 1131-4번지 굿모닝위너스텔4차 201,211호","indutype":"보건위생 - 피부미용실","category":"beauty"},{"name":"블루밍헤어","tel":"070-4922-1261","addr":"경기도 부천시 중동 1131-4번지 굿모닝위너스텔4차 202호","indutype":"보건위생 - 미용원","category":"beauty"}]},{"lat":"37.507983458","long":"126.77637664","imageIndex":13,"items":[{"name":"노블헤어","tel":"070-7378-5505","addr":"경기도 부천시 중동 1293-1번지 래미안부천중동 113동 123호","indutype":"보건위생 - 미용원","category":"beauty"},{"name":"코코헤어살롱","tel":"032-678-8833","addr":"경기도 부천시 중동 1293-1번지 래미안부천중동 110호","indutype":"보건위생 - 미용원","category":"beauty"},{"name":"하얀네일","tel":"031-111-1111","addr":"경기도 부천시 중동 1293-1번지 래미안부천중동 113동 120호","indutype":"보건위생 - 피부미용실","category":"beauty"}]},{"lat":"37.504703001","long":"126.76673956","imageIndex":13,"items":[{"name":"누구나헤어살롱","tel":"","addr":"경기도 부천시 중동 1034-4번지 드림빌딩 205호","indutype":"보건위생 - 미용원","category":"beauty"},{"name":"비앤에스메디칼","tel":"032-324-9220","addr":"경기도 부천시 중동 1034-4번지 드림빌딩 507호","indutype":"보건위생 - 의료용품","category":"beauty"},{"name":"제이유(JU)맞춤운동센터","tel":"032-322-8865","addr":"경기도 부천시 중동 1034-4번지 드림빌딩 401호","indutype":"보건위생 - 기타대인서비스","category":"beauty"},{"name":"커트클럽","tel":"032-323-2801","addr":"경기도 부천시 중동 1034-4번지 드림빌딩 103호","indutype":"보건위생 - 미용원","category":"beauty"}]},{"lat":"37.502147162","long":"126.76373939","imageIndex":13,"items":[{"name":"누리다네일","tel":"032-323-4144","addr":"경기도 부천시 중동 1160-2번지 필레오트윈파크1 112호","indutype":"보건위생 - 피부미용실","category":"beauty"},{"name":"리메이크아트","tel":"070-7529-8843","addr":"경기도 부천시 중동 1160-2번지 필레오트윈파크1 213호","indutype":"보건위생 - 미용재료","category":"beauty"},{"name":"원메디칼","tel":"032-000-0000","addr":"경기도 부천시 중동 1160-2번지 필레오트윈파크 1동 908호","indutype":"보건위생 - 의료용품","category":"beauty"},{"name":"키메라스킨","tel":"011-****-****","addr":"경기도 부천시 중동 1160-2번지 필레오트윈파크 1동 1102호","indutype":"보건위생 - 화장품","category":"beauty"},{"name":"퓨어미","tel":"070-7397-0660","addr":"경기도 부천시 중동 1160-2번지 필레오트윈파크1 204호","indutype":"보건위생 - 피부미용실","category":"beauty"}]},{"lat":"37.493872911","long":"126.78058055","imageIndex":13,"items":[{"name":"눈썰미(  )네일아트","tel":"032-656-1577","addr":"경기도 부천시 중동 1118-1번지 스타팰리움 301동 1-109-1호","indutype":"보건위생 - 피부미용실","category":"beauty"},{"name":"르씨엘","tel":"","addr":"경기도 부천시 중동 1118-1번지 스타펠리움 301동 2-202호","indutype":"보건위생 - 피부미용실","category":"beauty"},{"name":"링고네일세미나(lingonailsemina)","tel":"","addr":"경기도 부천시 중동 1118-1번지 스타팰리움 301동 3-106호","indutype":"보건위생 - 피부미용실","category":"beauty"},{"name":"물대포체형관리","tel":"032-611-0806","addr":"경기도 부천시 중동 1118-1번지 스타팰리움 102동 230호","indutype":"보건위생 - 피부미용실","category":"beauty"},{"name":"미인네일(  in네일)","tel":"031-222-2222","addr":"경기도 부천시 중동 1118-1번지 스타팰리움 301동 107호","indutype":"보건위생 - 피부미용실","category":"beauty"},{"name":"숙스킨앤바디","tel":"070-4153-7938","addr":"경기도 부천시 중동 1118-1번지 스타팰리움 301동1-201호","indutype":"보건위생 - 피부미용실","category":"beauty"},{"name":"지나헤어","tel":"032-655-2245","addr":"경기도 부천시 중동 1118-1번지 부천중동스타펠리움 301동 1층2-112호","indutype":"보건위생 - 미용원","category":"beauty"},{"name":"케이102헤어살롱","tel":"032-662-1102","addr":"경기도 부천시 중동 1118-1번지 301동1-102호","indutype":"보건위생 - 미용원","category":"beauty"},{"name":"케이스킨 (K스킨)","tel":"031-5242-1216","addr":"경기도 부천시 중동 1118-1번지 스타팰리움 301동 1-211호","indutype":"보건위생 - 피부미용실","category":"beauty"}]},{"lat":"37.501513666","long":"126.77602299","imageIndex":13,"items":[{"name":"다르오","tel":"070-7623-7623","addr":"경기도 부천시 중동 1140-3번지 트리플타워 209호","indutype":"보건위생 - 피부미용실","category":"beauty"},{"name":"도도샵","tel":"070-4388-2894","addr":"경기도 부천시 중동 1140-3번지 트리플타워 B동 205호","indutype":"보건위생 - 화장품","category":"beauty"},{"name":"삶의향기에스테틱","tel":"032-223-9668","addr":"경기도 부천시 중동 1140-3번지 트리플타워 B동 308호","indutype":"보건위생 - 화장품","category":"beauty"},{"name":"아이엠헤어","tel":"032-324-0335","addr":"경기도 부천시 중동 1140-3번지 트리플타워b동 111호 110호,111호","indutype":"보건위생 - 미용원","category":"beauty"},{"name":"왁싱하니","tel":"070-8899-9337","addr":"경기도 부천시 중동 1140-3번지 트리플타워 306호","indutype":"보건위생 - 피부미용실","category":"beauty"},{"name":"이니스프리 신중동역점","tel":"032-322-6444","addr":"경기도 부천시 중동 1140-3번지 트리플타워 104호","indutype":"보건위생 - 화장품","category":"beauty"}]},{"lat":"37.504929161","long":"126.77640849","imageIndex":13,"items":[{"name":"다모아미용실","tel":"032-322-6799","addr":"경기도 부천시 중동 1066번지 1층","indutype":"보건위생 - 미용원","category":"beauty"}]},{"lat":"37.500895357","long":"126.77310716","imageIndex":13,"items":[{"name":"다솜&뷰티","tel":"032-000-0000","addr":"경기도 부천시 중동 1144-3번지 디아뜨갤러리3 A동 205호","indutype":"보건위생 - 미용원","category":"beauty"},{"name":"솔투(SOL2)","tel":"032-323-5803","addr":"경기도 부천시 중동 1144-3번지 디아뜨갤러리3 A동 102호","indutype":"보건위생 - 미용원","category":"beauty"},{"name":"주엔비","tel":"032-325-8803","addr":"경기도 부천시 중동 1144-3번지 디아뜨갤러리 A동 803호","indutype":"보건위생 - 화장품","category":"beauty"},{"name":"지금바로네일","tel":"070-8970-4016","addr":"경기도 부천시 중동 1144-3번지 디아뜨갤러리3 110호","indutype":"보건위생 - 피부미용실","category":"beauty"}]},{"lat":"37.496508826","long":"126.7784694","imageIndex":13,"items":[{"name":"다올팬텀","tel":"070-4118-3540","addr":"경기도 부천시 중동 1114번지","indutype":"보건위생 - 의료용품","category":"beauty"},{"name":"라비네일","tel":"032-612-0304","addr":"경기도 부천시 중동 1114번지 위브더스테이트 9동 205호","indutype":"보건위생 - 화장품","category":"beauty"},{"name":"보체헤어","tel":"070-8970-4016","addr":"경기도 부천시 중동 1114번지 위브더스테이트 상가 9동 213호","indutype":"보건위생 - 미용원","category":"beauty"},{"name":"쏘울터치(Soul Touch)","tel":"02-4634-8894","addr":"경기도 부천시 중동 1114번지 위브더스테이트 상가 9동 214호","indutype":"보건위생 - 피부미용실","category":"beauty"},{"name":"율지","tel":"032-327-6582","addr":"경기도 부천시 중동 1114번지 위브더스테이트 상가 9동 2층 216호","indutype":"보건위생 - 화장품","category":"beauty"},{"name":"프롬도트","tel":"032-661-0707","addr":"경기도 부천시 중동 1114번지 위브더스테이트 상가 9동 2층 218호","indutype":"보건위생 - 미용원","category":"beauty"}]},{"lat":"37.493288294","long":"126.7626934","imageIndex":13,"items":[{"name":"다올헤어","tel":"032-651-0113","addr":"경기도 부천시 중동 765-10번지","indutype":"보건위생 - 미용원","category":"beauty"}]},{"lat":"37.497652499","long":"126.77816065","imageIndex":13,"items":[{"name":"다홍헤어","tel":"032-621-8668","addr":"경기도 부천시 중동 1113번지 위브더스테이트 7동 121호","indutype":"보건위생 - 미용원","category":"beauty"},{"name":"닥터스옵티칼","tel":"","addr":"경기도 부천시 중동 1113번지","indutype":"보건위생 - 안경","category":"beauty"},{"name":"벨라비스","tel":"032-620-3652","addr":"경기도 부천시 중동 1113번지 위브더스테이트7단지 211호","indutype":"보건위생 - 피부미용실","category":"beauty"},{"name":"뷰티썸","tel":"","addr":"경기도 부천시 중동 1113번지","indutype":"보건위생 - 미용재료","category":"beauty"},{"name":"아이에듀학습코칭상담센타","tel":"032-620-3828","addr":"경기도 부천시 중동 1113번지 위브더스테이트 상가 128호","indutype":"보건위생 - 기타대인서비스","category":"beauty"},{"name":"아트래쉬","tel":"032-266-2077","addr":"경기도 부천시 중동 1113번지 위브더스테이트 상가 7동 213호","indutype":"보건위생 - 피부미용실","category":"beauty"},{"name":"주식회사 해리코스","tel":"","addr":"경기도 부천시 중동 1113번지","indutype":"보건위생 - 화장품","category":"beauty"},{"name":"최가을헤어드레서","tel":"032-620-3700","addr":"경기도 부천시 중동 1113번지 위브더스테이트 7동 104호","indutype":"보건위생 - 미용원","category":"beauty"}]},{"lat":"37.501152844","long":"126.77116123","imageIndex":13,"items":[{"name":"달달한 잡담","tel":"070-4252-2467","addr":"경기도 부천시 중동 1145-1번지 메트로팰리스2차 B동 1021호","indutype":"보건위생 - 기타대인서비스","category":"beauty"},{"name":"스킨앤스킨","tel":"032-329-6339","addr":"경기도 부천시 중동 1145-1번지 매츠로팰리스2차 B동 208호","indutype":"보건위생 - 화장품","category":"beauty"},{"name":"스킨앤스킨뷰티샵","tel":"032-322-0802","addr":"경기도 부천시 중동 1145-1번지 메트로팰리스2차 B동 208호","indutype":"보건위생 - 화장품","category":"beauty"},{"name":"아이앤봄 심리성장 연구소","tel":"032-243-7171","addr":"경기도 부천시 중동 1145-1번지 메트로팰리스2차 2층 205호","indutype":"보건위생 - 기타대인서비스","category":"beauty"},{"name":"헤어살롱 하루","tel":"032-321-3382","addr":"경기도 부천시 중동 1145-1번지 메트로팰리스2차 B동 1층 101호","indutype":"보건위생 - 미용원","category":"beauty"}]},{"lat":"37.503897769","long":"126.76063504","imageIndex":13,"items":[{"name":"달콤아로마","tel":"032-326-5666","addr":"경기도 부천시 중동 1166-2번지 록스타운 3층","indutype":"보건위생 - 화장품","category":"beauty"},{"name":"헤어브로시(Hair bro C)중동점","tel":"032-325-6789","addr":"경기도 부천시 중동 1166-2번지 럭스타운 2층 일부","indutype":"보건위생 - 미용원","category":"beauty"}]},{"lat":"37.49420679","long":"126.7669083","imageIndex":13,"items":[{"name":"당나라풋샵","tel":"032-553-6889","addr":"경기도 부천시 중동 720-1번지 3층","indutype":"보건위생 - 화장품","category":"beauty"}]},{"lat":"37.502539939","long":"126.77094207","imageIndex":13,"items":[{"name":"대성안경","tel":"032-322-3010","addr":"경기도 부천시 중동 1147번지","indutype":"보건위생 - 안경","category":"beauty"},{"name":"헤어바이수다","tel":"032-1111-1111","addr":"경기도 부천시 중동 1147번지 화이트몰빌딩 104호","indutype":"보건위생 - 미용원","category":"beauty"}]},{"lat":"37.503201337","long":"126.76374733","imageIndex":13,"items":[{"name":"대힐링","tel":"","addr":"경기도 부천시 중동 1158-11번지 3층","indutype":"보건위생 - 기타대인서비스","category":"beauty"}]},{"lat":"37.498650005","long":"126.77680063","imageIndex":13,"items":[{"name":"더고은스킨앤바디","tel":"032-322-5007","addr":"경기도 부천시 중동 1131-2번지 미림프라자오피스텔 202호","indutype":"보건위생 - 피부미용실","category":"beauty"},{"name":"솔가바이오","tel":"070-7561-0945","addr":"경기도 부천시 중동 1131-2번지 미림프라자오피스텔 303호","indutype":"보건위생 - 의료용품","category":"beauty"}]},{"lat":"37.48779262","long":"126.76735814","imageIndex":13,"items":[{"name":"더마젠","tel":"070-8717-0025","addr":"경기도 부천시 중동 805-1번지 204-4호","indutype":"보건위생 - 화장품","category":"beauty"},{"name":"로미드보떼","tel":"032-235-1777","addr":"경기도 부천시 중동 805-1번지 1층 6호","indutype":"보건위생 - 피부미용실","category":"beauty"}]},{"lat":"37.495515242","long":"126.77716063","imageIndex":13,"items":[{"name":"더모던제이","tel":"032-321-0097","addr":"경기도 부천시 중동 1124-8번지 101호 102호","indutype":"보건위생 - 미용원","category":"beauty"}]},{"lat":"37.498653282","long":"126.77851953","imageIndex":13,"items":[{"name":"더뮤즈헤어스튜디오","tel":"032-656-0658","addr":"경기도 부천시 중동 1111번지 위브더스테이트 상가 6동 215호","indutype":"보건위생 - 미용원","category":"beauty"},{"name":"더헤어플러스","tel":"032-611-8788","addr":"경기도 부천시 중동 1111번지 위브더스테이트 6동 116호","indutype":"보건위생 - 미용원","category":"beauty"},{"name":"라이츠(Lights) 스포츠재활 스튜디오","tel":"","addr":"경기도 부천시 중동 1111번지 위브더스테이트 상가 6동 314호","indutype":"보건위생 - 기타대인서비스","category":"beauty"},{"name":"리안헤어(중동위브점)","tel":"032-621-7232","addr":"경기도 부천시 중동 1111번지 위브더스테이트 상가 6동 316호","indutype":"보건위생 - 미용원","category":"beauty"},{"name":"리즈헤어살롱","tel":"032-621-7799","addr":"경기도 부천시 중동 1111번지 위브더스테이트 6동 104호","indutype":"보건위생 - 미용원","category":"beauty"},{"name":"블랙스완","tel":"","addr":"경기도 부천시 중동 1111번지 위브더스테이트 상가 6동 206호","indutype":"보건위생 - 피부미용실","category":"beauty"},{"name":"에스에스뷰티아카데미","tel":"032-0000-0000","addr":"경기도 부천시 중동 1111번지 위브더스테이트 6동 204호","indutype":"보건위생 - 피부미용실","category":"beauty"},{"name":"헤세드","tel":"070-4823-9998","addr":"경기도 부천시 중동 1111번지 위브더스테이트 6동 2층 216호","indutype":"보건위생 - 화장품","category":"beauty"}]},{"lat":"37.50290235","long":"126.77197009","imageIndex":13,"items":[{"name":"더바른헤어","tel":"032-323-1254","addr":"경기도 부천시 중동 1148-2번지 중동대우마이빌2 112호","indutype":"보건위생 - 미용원","category":"beauty"},{"name":"데일리 뷰티(dailly beauty)","tel":"032-231-2001","addr":"경기도 부천시 중동 1148-2번지 중동대우마이빌2 1318호","indutype":"보건위생 - 화장품","category":"beauty"},{"name":"로로뷰티","tel":"031-000-0000","addr":"경기도 부천시 중동 1148-2번지 중동대우마이빌2 204호","indutype":"보건위생 - 미용원","category":"beauty"},{"name":"버블스토리","tel":"032-321-7676","addr":"경기도 부천시 중동 1148-2번지 215호 중동대우아이빌II","indutype":"보건위생 - 미용원","category":"beauty"},{"name":"아동발달센터 든든한 벗","tel":"032-343-7595","addr":"경기도 부천시 중동 1148-2번지 304호 중동대우마이빌II","indutype":"보건위생 - 기타대인서비스","category":"beauty"},{"name":"원텐스","tel":"032-255-0501","addr":"경기도 부천시 중동 1148-2번지 중동대우마이빌2 2층 201호","indutype":"보건위생 - 미용원","category":"beauty"},{"name":"킨이로헤어샵","tel":"032-666-1330","addr":"경기도 부천시 중동 1148-2번지 201호 , 중동대우마이빌II","indutype":"보건위생 - 미용원","category":"beauty"},{"name":"토니앤가이","tel":"032-329-7770","addr":"경기도 부천시 중동 1148-2번지 대우마이빌 206호","indutype":"보건위생 - 미용원","category":"beauty"}]},{"lat":"37.49492623","long":"126.77077338","imageIndex":13,"items":[{"name":"더블루맨","tel":"070-7423-6603","addr":"경기도 부천시 중동 1208번지 계남아카데미빌딩 1층 109호","indutype":"보건위생 - 미용원","category":"beauty"},{"name":"오투헤어컬렉션","tel":"032-614-6100","addr":"경기도 부천시 중동 1208번지 계남아카데미 1층 109호","indutype":"보건위생 - 미용원","category":"beauty"}]},{"lat":"37.50192314","long":"126.77344328","imageIndex":13,"items":[{"name":"더블유샴뷰티","tel":"","addr":"경기도 부천시 중동 1142-14번지 월드코아 2층 205호","indutype":"보건위생 - 미용재료","category":"beauty"},{"name":"라뷰티아카데미","tel":"032-327-0998","addr":"경기도 부천시 중동 1142-14번지 월드코아 203호","indutype":"보건위생 - 화장품","category":"beauty"},{"name":"미미뷰티샵","tel":"032-000-0000","addr":"경기도 부천시 중동 1142-14번지 월드코아 206호","indutype":"보건위생 - 피부미용실","category":"beauty"}]},{"lat":"37.503757772","long":"126.77635548","imageIndex":13,"items":[{"name":"더블유티메소드(WT-methode)","tel":"032-321-4717","addr":"경기도 부천시 중동 1062-3번지 빈센트타워 7층","indutype":"보건위생 - 피부미용실","category":"beauty"},{"name":"페이스핏 수면마스크","tel":"070-4738-0357","addr":"경기도 부천시 중동 1062-3번지 빈센트타워 1층","indutype":"보건위생 - 미용재료","category":"beauty"}]},{"lat":"37.50328503","long":"126.76060309","imageIndex":13,"items":[{"name":"더썸테라피","tel":"070-4652-2275","addr":"경기도 부천시 중동 1167-1번지 미라클타워 2층 201,203호","indutype":"보건위생 - 화장품","category":"beauty"}]},{"lat":"37.504205895","long":"126.77049585","imageIndex":13,"items":[{"name":"더예지빈/라테라스파","tel":"032-323-1515","addr":"경기도 부천시 중동 1056-3번지 동현빌딩 1층","indutype":"보건위생 - 화장품","category":"beauty"}]},{"lat":"37.50198544","long":"126.77304727","imageIndex":13,"items":[{"name":"더왁싱","tel":"070-9174-7209","addr":"경기도 부천시 중동 1142-16번지 성원프라자 3층 301호","indutype":"보건위생 - 피부미용실","category":"beauty"}]},{"lat":"37.495014967","long":"126.77941244","imageIndex":13,"items":[{"name":"더풋샵 신중동 리첸시아점","tel":"032-668-0010","addr":"경기도 부천시 중동 1116번지 207호,208호,209호","indutype":"보건위생 - 화장품","category":"beauty"},{"name":"레이나헤어","tel":"032-214-8951","addr":"경기도 부천시 중동 1116번지 리첸시아 204호","indutype":"보건위생 - 미용원","category":"beauty"},{"name":"안녕 네일","tel":"032-259-1118","addr":"경기도 부천시 중동 1116번지 리첸시아 112호","indutype":"보건위생 - 피부미용실","category":"beauty"},{"name":"유태성입시전략연구소","tel":"070-8847-7952","addr":"경기도 부천시 중동 1116번지 리첸시아 B동 2005호","indutype":"보건위생 - 기타대인서비스","category":"beauty"},{"name":"헤이미쉬(Heimish)","tel":"032-664-0010","addr":"경기도 부천시 중동 1116번지 리첸시아 129호","indutype":"보건위생 - 미용원","category":"beauty"}]},{"lat":"37.503178394","long":"126.76132723","imageIndex":13,"items":[{"name":"더풋샵(THEFOOTSHOP)중동","tel":"032-327-8889","addr":"경기도 부천시 중동 1162번지 뉴월드프라자 402호","indutype":"보건위생 - 기타대인서비스","category":"beauty"},{"name":"데일리브로우","tel":"032-325-3650","addr":"경기도 부천시 중동 1162번지 뉴월드프라자 503호","indutype":"보건위생 - 피부미용실","category":"beauty"},{"name":"뮤뮤속눈썹","tel":"070-8128-4603","addr":"경기도 부천시 중동 1162번지 뉴월드프라자 1층 107호","indutype":"보건위생 - 피부미용실","category":"beauty"},{"name":"이니스프리 부천중동점","tel":"032-324-7093","addr":"경기도 부천시 중동 1162번지 뉴월드프라자 102호","indutype":"보건위생 - 화장품","category":"beauty"},{"name":"장루이다비드 헤어살롱","tel":"031-325-8500","addr":"경기도 부천시 중동 1162번지 뉴월드프라자 201호","indutype":"보건위생 - 미용원","category":"beauty"}]},{"lat":"37.492343843","long":"126.76796577","imageIndex":13,"items":[{"name":"더헤어","tel":"070-7723-1253","addr":"경기도 부천시 중동 773-30번지 지하","indutype":"보건위생 - 미용원","category":"beauty"}]},{"lat":"37.505206811","long":"126.7709112","imageIndex":13,"items":[{"name":"더헤어샵","tel":"032-218-0304","addr":"경기도 부천시 중동 1055번지 중흥마을 상가동 205호","indutype":"보건위생 - 미용원","category":"beauty"},{"name":"머리사랑","tel":"032-322-1888","addr":"경기도 부천시 중동 1055 신동아상가 104","indutype":"보건위생 - 화장품","category":"beauty"}]},{"lat":"37.502979205","long":"126.76085288","imageIndex":13,"items":[{"name":"더힐링카페","tel":"032-322-0610","addr":"경기도 부천시 중동 1167-3번지 파크리움 304,305호","indutype":"보건위생 - 기타대인서비스","category":"beauty"},{"name":"토리헤어","tel":"032-325-3255","addr":"경기도 부천시 중동 1167-3번지 파크리움 상가 204,205호","indutype":"보건위생 - 미용원","category":"beauty"}]},{"lat":"37.494206519","long":"126.76677261","imageIndex":13,"items":[{"name":"데미쥬헤어","tel":"032-656-1948","addr":"경기도 부천시 중동 720-2번지 1층","indutype":"보건위생 - 미용원","category":"beauty"}]},{"lat":"37.502342463","long":"126.76230251","imageIndex":13,"items":[{"name":"데핏","tel":"032-322-3454","addr":"경기도 부천시 중동 1161-3번지 일신빌딩 601호","indutype":"보건위생 - 화장품","category":"beauty"},{"name":"아이리스아카데미","tel":"032-324-2233","addr":"경기도 부천시 중동 1161-3번지 일신빌딩 503호","indutype":"보건위생 - 화장품","category":"beauty"},{"name":"지니","tel":"070-7786-6668","addr":"경기도 부천시 중동 1161-3번지 일신빌딩 112호","indutype":"보건위생 - 화장품","category":"beauty"},{"name":"텐탠부천","tel":"032-322-2445","addr":"경기도 부천시 중동 1161-3번지 일신빌딩 2층 208호","indutype":"보건위생 - 피부미용실","category":"beauty"}]},{"lat":"37.50181985","long":"126.7759429","imageIndex":13,"items":[{"name":"도담다담아동발달센터","tel":"070-4001-0130","addr":"경기도 부천시 중동 1140-2번지 트리플타워제 A동 602호","indutype":"보건위생 - 기타대인서비스","category":"beauty"},{"name":"스킨유스킨케어","tel":"032-326-5770","addr":"경기도 부천시 중동 1140-2번지 트리플타워 306호 307호","indutype":"보건위생 - 피부미용실","category":"beauty"},{"name":"화이트안경","tel":"032-324-3003","addr":"경기도 부천시 중동 1140-2번지 트피플타워 A동 109호","indutype":"보건위생 - 안경","category":"beauty"},{"name":"황재하헤어클리닉","tel":"032-327-9400","addr":"경기도 부천시 중동 1140-2번지 트리플타워 A동 107호","indutype":"보건위생 - 미용원","category":"beauty"}]},{"lat":"37.494486209","long":"126.76696396","imageIndex":13,"items":[{"name":"독일콘텍트안경원","tel":"032-666-7325","addr":"경기도 부천시 중동 719-7번지","indutype":"보건위생 - 안경","category":"beauty"}]},{"lat":"37.505951989","long":"126.76505048","imageIndex":13,"items":[{"name":"동양박사작명연구소","tel":"","addr":"경기도 부천시 중동 1037번지 은하마을 상가 202호","indutype":"보건위생 - 기타대인서비스","category":"beauty"},{"name":"중동한증막","tel":"032-323-6155","addr":"경기도 부천시 중동 1037","indutype":"보건위생 - 사우나","category":"beauty"}]},{"lat":"37.498450921","long":"126.77634889","imageIndex":13,"items":[{"name":"동해메디칼","tel":"032-242-4566","addr":"경기도 부천시 중동 1130-14번지 3동 46층","indutype":"보건위생 - 의료용품","category":"beauty"},{"name":"에스와이메디 (SYM)","tel":"070-4366-2506","addr":"경기도 부천시 중동 1130-14번지 3층 326호","indutype":"보건위생 - 화장품","category":"beauty"},{"name":"에스와이메디(SYM)","tel":"070-4366-2506","addr":"경기도 부천시 중동 1130-14번지 3층 326호","indutype":"보건위생 - 화장품","category":"beauty"},{"name":"에스윗 (S.with)","tel":"","addr":"경기도 부천시 중동 1130-14번지 3층 5-8호","indutype":"보건위생 - 의료용품","category":"beauty"},{"name":"헤어조이","tel":"02-2616-7015","addr":"경기도 부천시 중동 1130-14번지 3층 41호","indutype":"보건위생 - 미용재료","category":"beauty"}]},{"lat":"37.497260773","long":"126.77591146","imageIndex":13,"items":[{"name":"두가이헤어","tel":"032-327-8587","addr":"경기도 부천시 중동 1128번지 그린프라자 108호","indutype":"보건위생 - 미용원","category":"beauty"}]},{"lat":"37.503231003","long":"126.76957151","imageIndex":13,"items":[{"name":"두뇌스포츠센터","tel":"032-329-0082","addr":"경기도 부천시 중동 1149번지 부천중동리슈빌엔클래스,205에이1호,205에이2호","indutype":"보건위생 - 기타대인서비스","category":"beauty"},{"name":"라뤼엘헤어살롱(LaRuelle Hair Salon)","tel":"070-4065-0618","addr":"경기도 부천시 중동 1149번지 부천중동리슈빌엔클래스 1층 1068호","indutype":"보건위생 - 미용원","category":"beauty"},{"name":"라스코리아(LAS KOREA)","tel":"","addr":"경기도 부천시 중동 1149번지 부천중동리슈빌엔클래스 1707호","indutype":"보건위생 - 의료용품","category":"beauty"},{"name":"라푼젤뷰티","tel":"032-212-7889","addr":"경기도 부천시 중동 1149번지 1층","indutype":"보건위생 - 미용재료","category":"beauty"},{"name":"라헬","tel":"032-323-7799","addr":"경기도 부천시 중동 1149번지 부천중동리슈빌앤클래스 104호","indutype":"보건위생 - 피부미용실","category":"beauty"},{"name":"마인드힐링 명상상담센터","tel":"032-322-6122","addr":"경기도 부천시 중동 1149번지 부천중슈빌엔클래스 314호","indutype":"보건위생 - 기타대인서비스","category":"beauty"},{"name":"부천더왁싱","tel":"032-325-5857","addr":"경기도 부천시 중동 1149번지 부천중동리슈빌엔클래스 307호","indutype":"보건위생 - 피부미용실","category":"beauty"},{"name":"에스네일","tel":"032-325-6231","addr":"경기도 부천시 중동 1149번지 부천중동리슈빌엔클래스 116A호","indutype":"보건위생 - 피부미용실","category":"beauty"},{"name":"퀸즈스파셀트리온스킨큐어부천중동센터","tel":"032-324-3681","addr":"경기도 부천시 중동 1149번지 부천중동리슈빌엔클래스 312C호","indutype":"보건위생 - 화장품","category":"beauty"},{"name":"헤어디오(HAIR D5)","tel":"032-325-0252","addr":"경기도 부천시 중동 1149번지 110 A","indutype":"보건위생 - 미용원","category":"beauty"},{"name":"헤어빈","tel":"032-111-1111","addr":"경기도 부천시 중동 1149번지 부천중동리슈빌엔클래스 1108호","indutype":"보건위생 - 미용원","category":"beauty"}]},{"lat":"37.496176072","long":"126.76496841","imageIndex":13,"items":[{"name":"디아르떼보스 중동점","tel":"032-662-9006","addr":"경기도 부천시 중동 628-9번지 1층 일부","indutype":"보건위생 - 미용원","category":"beauty"}]},{"lat":"37.501507961","long":"126.77307135","imageIndex":13,"items":[{"name":"딜리버리엠","tel":"02-2083-1367","addr":"경기도 부천시 중동 1143-3번지 6층","indutype":"보건위생 - 의료용품","category":"beauty"}]},{"lat":"37.49484434","long":"126.76583204","imageIndex":13,"items":[{"name":"또띠언니염색방","tel":"070-4960-0553","addr":"경기도 부천시 중동 718-2번지 1층 일부","indutype":"보건위생 - 미용원","category":"beauty"}]},{"lat":"37.501847201","long":"126.77146443","imageIndex":13,"items":[{"name":"라라네일","tel":"","addr":"경기도 부천시 중동 1146-2번지 외 1필지 센트럴프라움 1층 103호","indutype":"보건위생 - 피부미용실","category":"beauty"},{"name":"모모왁싱앤래쉬","tel":"031-0000-0000","addr":"경기도 부천시 중동 1146-2번지 센트럴프라움 203호","indutype":"보건위생 - 피부미용실","category":"beauty"},{"name":"아뜰리에헤어(atelier hair)","tel":"032-613-1351","addr":"경기도 부천시 중동 1146-2번지 중동센트럴푸라움 102호","indutype":"보건위생 - 미용원","category":"beauty"}]},{"lat":"37.497428254","long":"126.76938601","imageIndex":13,"items":[{"name":"라미네일","tel":"","addr":"경기도 부천시 중동 1182번지 분산 상가동 106호","indutype":"보건위생 - 피부미용실","category":"beauty"},{"name":"란 스킨케어","tel":"032-321-0406","addr":"경기도 부천시 중동 1182번지 그린타운우성 상가 2층 208호","indutype":"보건위생 - 화장품","category":"beauty"},{"name":"알즈너 그린대리점","tel":"070-4523-6558","addr":"경기도 부천시 중동 1182번지 그린타운 삼성,우성1차아파트","indutype":"보건위생 - 의료용품","category":"beauty"}]},{"lat":"37.500957766","long":"126.7727677","imageIndex":13,"items":[{"name":"라움헤어","tel":"032-321-1331","addr":"경기도 부천시 중동 1144-2번지 디아뜨갤러리3 B동 109호","indutype":"보건위생 - 미용원","category":"beauty"},{"name":"몽드로쉐에스테틱","tel":"032-325-2689","addr":"경기도 부천시 중동 1144-2번지 디아뜨갤러리아3 B동 202호","indutype":"보건위생 - 피부미용실","category":"beauty"},{"name":"보니따네일","tel":"032-322-8105","addr":"경기도 부천시 중동 1144-2번지 디아뜨갤러리3 B동 104호 일부","indutype":"보건위생 - 피부미용실","category":"beauty"}]},{"lat":"37.497374503","long":"126.7788513","imageIndex":13,"items":[{"name":"라인블리(속눈썹)","tel":"","addr":"경기도 부천시 중동 1112번지 위브더스테이트 상가 8동 207호 일부","indutype":"보건위생 - 피부미용실","category":"beauty"},{"name":"라인블리(피부)","tel":"031-000-0000","addr":"경기도 부천시 중동 1112번지 위브더스테이트 상가 8동 207호 일부","indutype":"보건위생 - 피부미용실","category":"beauty"},{"name":"살롱드벨르 (salon de belle)","tel":"032-5556-6666","addr":"경기도 부천시 중동 1112번지 위브더스테이트 8동 222호","indutype":"보건위생 - 피부미용실","category":"beauty"},{"name":"슈가라운지","tel":"032-665-6665","addr":"경기도 부천시 중동 1112번지 위브더스테이트 상가동 2층 202호","indutype":"보건위생 - 피부미용실","category":"beauty"},{"name":"스킨앤스킨","tel":"032-322-0802","addr":"경기도 부천시 중동 1112번지 위브더스테이트 상가 8동 203호","indutype":"보건위생 - 피부미용실","category":"beauty"},{"name":"에끌로헤어","tel":"032-664-9996","addr":"경기도 부천시 중동 1112번지 위브더스테이트 상가8동 204호,205호","indutype":"보건위생 - 미용원","category":"beauty"}]},{"lat":"37.494455279","long":"126.7650191","imageIndex":13,"items":[{"name":"라임","tel":"032-661-1104","addr":"경기도 부천시 중동 723-4번지","indutype":"보건위생 - 미용원","category":"beauty"}]},{"lat":"37.502926002","long":"126.76127149","imageIndex":13,"items":[{"name":"러블리왁싱","tel":"032-327-6880","addr":"경기도 부천시 중동 1162-9번지 새롬프라자 502호","indutype":"보건위생 - 피부미용실","category":"beauty"},{"name":"아미치0.3(부천상동점)","tel":"032-329-7902","addr":"경기도 부천시 중동 1162-9번지 새롬프라자 301호","indutype":"보건위생 - 화장품","category":"beauty"},{"name":"휴이엠헤어","tel":"032-326-0172","addr":"경기도 부천시 중동 1162-9번지 새롬프라자 201~202호","indutype":"보건위생 - 미용원","category":"beauty"}]},{"lat":"37.500869031","long":"126.77346912","imageIndex":13,"items":[{"name":"럭셔리뷰티 신중동점","tel":"032-321-3308","addr":"경기도 부천시 중동 1144-4번지 탑프라자 301호","indutype":"보건위생 - 화장품","category":"beauty"},{"name":"씨에프헤어모드","tel":"032-327-7772","addr":"경기도 부천시 중동 1144-4번지 탑프라자 101호","indutype":"보건위생 - 미용원","category":"beauty"},{"name":"월드","tel":"","addr":"경기도 부천시 중동 1144-4번지 탑프라자 303호","indutype":"보건위생 - 화장품","category":"beauty"},{"name":"파워태닝","tel":"","addr":"경기도 부천시 중동 1144-4번지 탑프라자 702-2호","indutype":"보건위생 - 피부미용실","category":"beauty"}]},{"lat":"37.495708832","long":"126.76560314","imageIndex":13,"items":[{"name":"레 벙뜨(Les Ventes)","tel":"","addr":"경기도 부천시 중동 712-9번지 3층","indutype":"보건위생 - 화장품","category":"beauty"},{"name":"예쁜화장품","tel":"032-655-3485","addr":"경기도 부천시 중동 712-9번지","indutype":"보건위생 - 화장품","category":"beauty"}]},{"lat":"37.502537491","long":"126.76074122","imageIndex":13,"items":[{"name":"렌즈미","tel":"032-233-9463","addr":"경기도 부천시 중동 1168-2번지 베네피아오피스텔 1층 103호","indutype":"보건위생 - 안경","category":"beauty"},{"name":"미오헤어","tel":"032-329-0078","addr":"경기도 부천시 중동 1168-2번지 베네피아오피스텔 101호","indutype":"보건위생 - 미용원","category":"beauty"},{"name":"수인화장품","tel":"032-321-6302","addr":"경기도 부천시 중동 1168-2번지 베네피아오피스텔 2층 216호","indutype":"보건위생 - 화장품","category":"beauty"},{"name":"아리따움중동현대점","tel":"032-326-1904","addr":"경기도 부천시 중동 1168-2번지 베네피아오피스텔 1층 102호","indutype":"보건위생 - 화장품","category":"beauty"}]},{"lat":"37.496121802","long":"126.76937877","imageIndex":13,"items":[{"name":"로얄스킨","tel":"032-323-1488","addr":"경기도 부천시 중동 1183번지 한신 상가 202호","indutype":"보건위생 - 화장품","category":"beauty"},{"name":"헤어패밀리","tel":"032-661-5442","addr":"경기도 부천시 중동 1183,그린타운한신상가203호","indutype":"보건위생 - 미용원","category":"beauty"}]},{"lat":"37.5014549","long":"126.76898897","imageIndex":13,"items":[{"name":"로이드밤헤어 중동점","tel":"032-326-7473","addr":"경기도 부천시 중동 1152번지 상록센트럴타워 202호","indutype":"보건위생 - 미용원","category":"beauty"},{"name":"부천체형관리원","tel":"032-323-7475","addr":"경기도 부천시 중동 1152번지 상록센트럴타워 303호","indutype":"보건위생 - 기타대인서비스","category":"beauty"}]},{"lat":"37.503290198","long":"126.76313635","imageIndex":13,"items":[{"name":"르몽듀","tel":"032-325-6660","addr":"경기도 부천시 중동 1158-14번지 강림프라자 2층 201호","indutype":"보건위생 - 미용원","category":"beauty"},{"name":"보인(IN)다 안경원","tel":"032-326-9898","addr":"경기도 부천시 중동 1158-14번지 강림프라자 1층 6,7,8호","indutype":"보건위생 - 안경","category":"beauty"}]},{"lat":"37.502680385","long":"126.77365584","imageIndex":13,"items":[{"name":"리드벨헤어","tel":"032-322-8799","addr":"경기도 부천시 중동 1141-3번지 신중동역헤리움메트로 314호","indutype":"보건위생 - 미용원","category":"beauty"},{"name":"바른자세운동연구센터","tel":"","addr":"경기도 부천시 중동 1141-3번지 신중동역헤리움메트로 5층 510호","indutype":"보건위생 - 기타대인서비스","category":"beauty"},{"name":"뷰티왁싱","tel":"032-322-3252","addr":"경기도 부천시 중동 1141-3번지 신중동역헤리움메트로 317호","indutype":"보건위생 - 피부미용실","category":"beauty"},{"name":"셀레네(Selene)","tel":"","addr":"경기도 부천시 중동 1141-3번지 신중동역헤리움메트로타워 313호","indutype":"보건위생 - 피부미용실","category":"beauty"},{"name":"아벨리뜨(Avelitte)","tel":"032-674-9004","addr":"경기도 부천시 중동 1141-3번지 신중동역헤리움메트로타워 3층 312호","indutype":"보건위생 - 피부미용실","category":"beauty"},{"name":"영앤유","tel":"","addr":"경기도 부천시 중동 1141-3번지 신중동역헤리움메트로타워 7층 715호","indutype":"보건위생 - 미용재료","category":"beauty"},{"name":"주식회사해나인","tel":"032-321-8535","addr":"경기도 부천시 중동 1141-3번지 신중동역헤리움메트로 820호","indutype":"보건위생 - 기타대인서비스","category":"beauty"},{"name":"청소년 척추테라피연구소(세계자연치유학회","tel":"070-7121-0622","addr":"경기도 부천시 중동 1141-3번지 신중동역헤리움메트로타워 7층 719호","indutype":"보건위생 - 기타대인서비스","category":"beauty"},{"name":"히든비치태닝중동점","tel":"032-323-1491","addr":"경기도 부천시 중동 1141-3번지 신중동역헤리움메트로 4층 412호","indutype":"보건위생 - 화장품","category":"beauty"}]},{"lat":"37.502757192","long":"126.76243689","imageIndex":13,"items":[{"name":"리베라네일","tel":"032-6645-2409","addr":"경기도 부천시 중동 1162-5번지 중동프라자 118호","indutype":"보건위생 - 피부미용실","category":"beauty"},{"name":"쇼이헤어","tel":"031-000-0000","addr":"경기도 부천시 중동 1162-5번지 중동프라자 2층 203,204호","indutype":"보건위생 - 미용원","category":"beauty"},{"name":"숲속향기테라피","tel":"032-325-5375","addr":"경기도 부천시 중동 1162-5번지 중동프라자 2층 205호","indutype":"보건위생 - 피부미용실","category":"beauty"},{"name":"싸다구 속눈썹&네일","tel":"032-323-1217","addr":"경기도 부천시 중동 1162-5번지 중동프라자 305,306일부호","indutype":"보건위생 - 피부미용실","category":"beauty"},{"name":"헤어스파자연체감","tel":"032-326-5927","addr":"경기도 부천시 중동 1162-5번지 중동프라자 304호","indutype":"보건위생 - 미용원","category":"beauty"}]},{"lat":"37.495203712","long":"126.76532204","imageIndex":13,"items":[{"name":"마샬헤어","tel":"032-612-0333","addr":"경기도 부천시 중동 709-20번지 중앙그린빌 101호","indutype":"보건위생 - 미용원","category":"beauty"}]},{"lat":"37.50512","long":"126.76352633","imageIndex":13,"items":[{"name":"마임부천중부","tel":"032-323-1057","addr":"경기도 부천시 중동 1033번지 우신빌딩 4층","indutype":"보건위생 - 화장품","category":"beauty"},{"name":"포낙보청기펄청각재활연구소","tel":"032-326-9938","addr":"경기도 부천시 중동 1033번지 우신빌딩 603호","indutype":"보건위생 - 의료용품","category":"beauty"}]},{"lat":"37.495841361","long":"126.76430229","imageIndex":13,"items":[{"name":"마임중동센타","tel":"032-676-9166","addr":"경기도 부천시 중동 707-1번지 3층","indutype":"보건위생 - 화장품","category":"beauty"}]},{"lat":"37.485758688","long":"126.7731083","imageIndex":13,"items":[{"name":"마제스티","tel":"032-656-3380","addr":"경기도 부천시 중동 908번지 정화홈타운 B동 402호","indutype":"보건위생 - 미용재료","category":"beauty"}]},{"lat":"37.506236565","long":"126.77691347","imageIndex":13,"items":[{"name":"맨(MEN)","tel":"032-321-3722","addr":"경기도 부천시 중동 1071-6번지","indutype":"보건위생 - 미용원","category":"beauty"}]},{"lat":"37.505040192","long":"126.76415992","imageIndex":13,"items":[{"name":"맨즈모","tel":"032-323-2833","addr":"경기도 부천시 중동 1033-2번지 금영프라자2차 603호","indutype":"보건위생 - 미용재료","category":"beauty"}]},{"lat":"37.502617047","long":"126.75999455","imageIndex":13,"items":[{"name":"맨지트(MANZIT)","tel":"032-325-7942","addr":"경기도 부천시 중동 1168번지 디아뜨갤러리 203호 디아뜨갤러리","indutype":"보건위생 - 미용원","category":"beauty"},{"name":"살롱드에스 (Salon De S)","tel":"032-323-6103","addr":"경기도 부천시 중동 1168번지 디아뜨갤러리1 A동 109호","indutype":"보건위생 - 미용원","category":"beauty"},{"name":"손톱나라 눈썹공주","tel":"032-326-6002","addr":"경기도 부천시 중동 1168번지 디아뜨갤러리 A동 105호","indutype":"보건위생 - 피부미용실","category":"beauty"}]},{"lat":"37.495788648","long":"126.76496963","imageIndex":13,"items":[{"name":"머리못하는집","tel":"070-4922-1261","addr":"경기도 부천시 중동 712-4번지 1층 일부","indutype":"보건위생 - 미용원","category":"beauty"}]},{"lat":"37.50012517","long":"126.77551829","imageIndex":13,"items":[{"name":"머리예쁜집","tel":"","addr":"경기도 부천시 중동 1133-13번지 금강5차프라자 303호","indutype":"보건위생 - 미용원","category":"beauty"},{"name":"휴","tel":"032-321-3855","addr":"경기도 부천시 중동 1133-13번지 금강5차프라자 304호","indutype":"보건위생 - 화장품","category":"beauty"}]},{"lat":"37.494896102","long":"126.76468977","imageIndex":13,"items":[{"name":"머리예술미용실","tel":"032-668-8488","addr":"경기도 부천시 중동 724-1번지","indutype":"보건위생 - 미용원","category":"beauty"}]},{"lat":"37.501456884","long":"126.77460953","imageIndex":13,"items":[{"name":"메디퓨처스 중부","tel":"","addr":"경기도 부천시 중동 1138번지 호정프라자 502호 (A-47)호","indutype":"보건위생 - 의료용품","category":"beauty"},{"name":"뷰티메디프라자","tel":"032-235-9595","addr":"경기도 부천시 중동 1138번지 호정프라자 503호","indutype":"보건위생 - 화장품","category":"beauty"},{"name":"으뜸50안경부천중동점","tel":"032-321-5051","addr":"경기도 부천시 중동 1138번지 호정프라자 3층 304호","indutype":"보건위생 - 안경","category":"beauty"},{"name":"쿤","tel":"032-322-6558","addr":"경기도 부천시 중동 1138번지 호정프라자 3층 306호","indutype":"보건위생 - 화장품","category":"beauty"},{"name":"하나힐링센터","tel":"032-323-5806","addr":"경기도 부천시 중동 1138번지 호정프라자 506호","indutype":"보건위생 - 의료용품","category":"beauty"}]},{"lat":"37.49650955","long":"126.76502389","imageIndex":13,"items":[{"name":"메리케이","tel":"032-399-9751","addr":"경기도 부천시 중동 628-6번지 1층","indutype":"보건위생 - 화장품","category":"beauty"}]},{"lat":"37.493654284","long":"126.76101867","imageIndex":13,"items":[{"name":"명품속눈썹","tel":"070-4383-6549","addr":"경기도 부천시 중동 762-14번지","indutype":"보건위생 - 피부미용실","category":"beauty"}]},{"lat":"37.49484645","long":"126.7714408","imageIndex":13,"items":[{"name":"모유사랑","tel":"032-668-5675","addr":"경기도 부천시 중동 1208-3번지 3층","indutype":"보건위생 - 기타대인서비스","category":"beauty"}]},{"lat":"37.500011877","long":"126.77752029","imageIndex":13,"items":[{"name":"몽헤브","tel":"02-000-0000","addr":"경기도 부천시 중동 1109번지","indutype":"보건위생 - 기타대인서비스","category":"beauty"},{"name":"블루밍","tel":"070-8745-7001","addr":"경기도 부천시 중동 1109번지 위브더스테이트 상가 3동 105호","indutype":"보건위생 - 화장품","category":"beauty"},{"name":"아라네일","tel":"","addr":"경기도 부천시 중동 1109번지 위브더스테이트 상가 3동 105호","indutype":"보건위생 - 피부미용실","category":"beauty"},{"name":"오늘그리고네일","tel":"032-620-5519","addr":"경기도 부천시 중동 1109번지 위브더스테이트 상가동 205호","indutype":"보건위생 - 피부미용실","category":"beauty"},{"name":"주나코드(JUNA CODE)","tel":"032-620-5554","addr":"경기도 부천시 중동 1109번지 위브더스테이트 상가 215호","indutype":"보건위생 - 미용원","category":"beauty"},{"name":"주식회사 제이티인터내셔널","tel":"","addr":"경기도 부천시 중동 1109번지","indutype":"보건위생 - 미용재료","category":"beauty"},{"name":"힐링앤케어","tel":"032-620-3880","addr":"경기도 부천시 중동 1109번지 제상가 3동 2층 210호 209","indutype":"보건위생 - 화장품","category":"beauty"}]},{"lat":"37.503680805","long":"126.77851579","imageIndex":13,"items":[{"name":"미드미헤어샵","tel":"032-324-9263","addr":"경기도 부천시 중동 1081번지 1층","indutype":"보건위생 - 미용원","category":"beauty"}]},{"lat":"37.501037509","long":"126.77207761","imageIndex":13,"items":[{"name":"미래건강","tel":"032-322-0221","addr":"경기도 부천시 중동 1144번지 굿모닝이너스텔3차 106호","indutype":"보건위생 - 화장품","category":"beauty"}]},{"lat":"37.502484404","long":"126.76121637","imageIndex":13,"items":[{"name":"미쁘다","tel":"","addr":"경기도 부천시 중동 1161번지 디아뜨2 A동 112호","indutype":"보건위생 - 미용원","category":"beauty"},{"name":"우리코스체험방","tel":"032-326-5033","addr":"경기도 부천시 중동 1161번지 디아뜨2 A동 604호","indutype":"보건위생 - 화장품","category":"beauty"}]},{"lat":"37.500709","long":"126.77457788","imageIndex":13,"items":[{"name":"미스터힐링","tel":"032-111-1111","addr":"경기도 부천시 중동 1135-1번지 제일프라자 404호","indutype":"보건위생 - 의료용품","category":"beauty"}]},{"lat":"37.502091993","long":"126.772244","imageIndex":13,"items":[{"name":"미스터힐링","tel":"070-9148-2118","addr":"경기도 부천시 중동 1142-20번지 302호","indutype":"보건위생 - 기타대인서비스","category":"beauty"}]},{"lat":"37.502872521","long":"126.7615544","imageIndex":13,"items":[{"name":"미스터힐링 부천시청점","tel":"032-322-9257","addr":"경기도 부천시 중동 1162-8번지 현대센트럴파크 201호","indutype":"보건위생 - 기타대인서비스","category":"beauty"},{"name":"헤어살롱 고쿠","tel":"032-328-0714","addr":"경기도 부천시 중동 1162-8번지 현대센트럴파크 2층 203호","indutype":"보건위생 - 화장품","category":"beauty"}]},{"lat":"37.492820601","long":"126.76757982","imageIndex":13,"items":[{"name":"미앤미헤어","tel":"032-663-8345","addr":"경기도 부천시 중동 772-1번지","indutype":"보건위생 - 미용원","category":"beauty"}]},{"lat":"37.499118258","long":"126.77666352","imageIndex":13,"items":[{"name":"미오헤어","tel":"032-322-7725","addr":"경기도 부천시 중동 1131외1필지중동아크로텔상가114","indutype":"보건위생 - 미용원","category":"beauty"}]},{"lat":"37.502760463","long":"126.77313537","imageIndex":13,"items":[{"name":"미용실비와이(by)선혜","tel":"032-323-3588","addr":"경기도 부천시 중동 1141-2번지 프리머스부천타워 116호","indutype":"보건위생 - 미용원","category":"beauty"},{"name":"부천비엠샵","tel":"032-719-7050","addr":"경기도 부천시 중동 1141-2번지 프리머스부천타워 404호","indutype":"보건위생 - 화장품","category":"beauty"},{"name":"에드비붙임머리","tel":"032-321-2008","addr":"경기도 부천시 중동 1141-2번지 프리머스부천타워 106호","indutype":"보건위생 - 미용원","category":"beauty"},{"name":"옐로우왁싱(yellowwaxing)","tel":"","addr":"경기도 부천시 중동 1141-2번지 프리머스부천타워 110호","indutype":"보건위생 - 피부미용실","category":"beauty"}]},{"lat":"37.501342325","long":"126.7806828","imageIndex":13,"items":[{"name":"민정헤어","tel":"032-653-0606","addr":"경기도 부천시 중동 1089-3번지 1층","indutype":"보건위생 - 미용원","category":"beauty"}]},{"lat":"37.494508905","long":"126.76480408","imageIndex":13,"items":[{"name":"믿음화장품","tel":"032-288-7388","addr":"경기도 부천시 중동 723-6번지 부림빌딩 1층","indutype":"보건위생 - 화장품","category":"beauty"}]},{"lat":"37.502149286","long":"126.77390626","imageIndex":13,"items":[{"name":"바디케어","tel":"070-4176-7091","addr":"경기도 부천시 중동 1142-8번지 에덴프라자 302호","indutype":"보건위생 - 기타대인서비스","category":"beauty"},{"name":"살롱깔롱","tel":"032-321-1102","addr":"경기도 부천시 중동 1142-8번지 에덴프라자 201호","indutype":"보건위생 - 미용원","category":"beauty"}]},{"lat":"37.495900956","long":"126.77626613","imageIndex":13,"items":[{"name":"바이(by)헤어","tel":"032-322-4041","addr":"경기도 부천시 중동 1123-2번지 대우마이빌스위티 103호","indutype":"보건위생 - 미용원","category":"beauty"},{"name":"푸르고앤덴탈","tel":"070-8734-2070","addr":"경기도 부천시 중동 1123-2 마이빌스위티 312","indutype":"보건위생 - 의료용품","category":"beauty"}]},{"lat":"37.493958665","long":"126.7644892","imageIndex":13,"items":[{"name":"박경민미용실","tel":"032-652-7020","addr":"경기도 부천시 중동 736-19번지","indutype":"보건위생 - 미용원","category":"beauty"}]},{"lat":"37.489847322","long":"126.76757784","imageIndex":13,"items":[{"name":"반헤어","tel":"032-667-5333","addr":"경기도 부천시 중동 1289번지 팰리스카운티대림전문상가 104호 호일부호","indutype":"보건위생 - 미용원","category":"beauty"},{"name":"백상치재","tel":"070-6528-4251","addr":"경기도 부천시 중동 1289번지 팰리스카운티 11동 2403호","indutype":"보건위생 - 의료용품","category":"beauty"},{"name":"시크릿네일(SECRET NAIL)","tel":"070-4789-2381","addr":"경기도 부천시 중동 1289번지 대림전문 상가 106호 일부","indutype":"보건위생 - 피부미용실","category":"beauty"},{"name":"전수아헤어","tel":"032-612-6169","addr":"경기도 부천시 중동 1289번지 제대림정운 팰리스카운티 상가동 103호","indutype":"보건위생 - 미용원","category":"beauty"},{"name":"전수아헤어","tel":"032-612-6719","addr":"경기도 부천시 중동 1289번지 1층","indutype":"보건위생 - 미용원","category":"beauty"}]},{"lat":"37.501594814","long":"126.77140866","imageIndex":13,"items":[{"name":"반헤어","tel":"032-325-2626","addr":"경기도 부천시 중동 1146-5번지 101호","indutype":"보건위생 - 미용원","category":"beauty"},{"name":"제이앤헤어","tel":"032-326-8777","addr":"경기도 부천시 중동 1146-5번지 105호","indutype":"보건위생 - 미용원","category":"beauty"},{"name":"쿠스헤어(koo'shair)","tel":"032-323-5505","addr":"경기도 부천시 중동 1146-5번지 102호","indutype":"보건위생 - 미용원","category":"beauty"}]},{"lat":"37.505288636","long":"126.76227043","imageIndex":13,"items":[{"name":"발라발라네일","tel":"032-327-9355","addr":"경기도 부천시 중동 1031-1번지 에스티마오피스텔 104호","indutype":"보건위생 - 미용재료","category":"beauty"},{"name":"샤인","tel":"070-7565-6181","addr":"경기도 부천시 중동 1031-1번지 중동에스티마오피스텔 407호","indutype":"보건위생 - 화장품","category":"beauty"}]},{"lat":"37.498926706","long":"126.77544276","imageIndex":13,"items":[{"name":"밝은눈안경콘택트(중동점)","tel":"032-321-1116","addr":"경기도 부천시 중동 1129번지 이스트타워 원 105동 106호","indutype":"보건위생 - 안경","category":"beauty"},{"name":"살롱드문(Salondemoon)","tel":"032-324-4222","addr":"경기도 부천시 중동 1129번지 203,204호","indutype":"보건위생 - 미용원","category":"beauty"},{"name":"폭스뷰티","tel":"031-111-1111","addr":"경기도 부천시 중동 1129번지 이스트타워 원 404호","indutype":"보건위생 - 피부미용실","category":"beauty"}]},{"lat":"37.498320074","long":"126.77390665","imageIndex":13,"items":[{"name":"방신영헤어","tel":"032-323-5730","addr":"경기도 부천시 중동 1180-1미리내마을상가동1층102","indutype":"보건위생 - 미용원","category":"beauty"},{"name":"정세희머리쟁이","tel":"032-322-7700","addr":"경기도 부천시 중동 1180-1미리내롯데상가204","indutype":"보건위생 - 미용원","category":"beauty"}]},{"lat":"37.487730272","long":"126.76772016","imageIndex":13,"items":[{"name":"백스헤어아토","tel":"031-651-0624","addr":"경기도 부천시 중동 805-2번지 1층 105호","indutype":"보건위생 - 미용원","category":"beauty"},{"name":"부광헤어클럽","tel":"032-664-9635","addr":"경기도 부천시 중동 805-2번지 1층 112호","indutype":"보건위생 - 미용원","category":"beauty"}]},{"lat":"37.504009939","long":"126.77629817","imageIndex":13,"items":[{"name":"백코스메틱","tel":"032-326-8388","addr":"경기도 부천시 중동 1062-2메디타워301-1","indutype":"보건위생 - 화장품","category":"beauty"}]},{"lat":"37.503343131","long":"126.76258203","imageIndex":13,"items":[{"name":"베스트풋중동점","tel":"032-329-0044","addr":"경기도 부천시 중동 1163-8번지 대신프라자 301호","indutype":"보건위생 - 기타대인서비스","category":"beauty"},{"name":"스크린헤어살롱","tel":"032-321-2306","addr":"경기도 부천시 중동 1163-8번지 대신프라자 202호","indutype":"보건위생 - 미용원","category":"beauty"}]},{"lat":"37.494008528","long":"126.76688631","imageIndex":13,"items":[{"name":"베아뚜스헤어","tel":"032-667-6679","addr":"경기도 부천시 중동 749-16번지 2층","indutype":"보건위생 - 미용원","category":"beauty"}]},{"lat":"37.501428015","long":"126.77365967","imageIndex":13,"items":[{"name":"벨에뽀끄헤어","tel":"032-654-0711","addr":"경기도 부천시 중동 1143-4번지 공영노외주차장 1층 일부 4호","indutype":"보건위생 - 미용원","category":"beauty"},{"name":"휘닉스사우나컷트실","tel":"","addr":"경기도 부천시 중동 1143-4번지 부천시공영노외주차장(4호) 6층 일부","indutype":"보건위생 - 이용원","category":"beauty"}]},{"lat":"37.503844567","long":"126.76105366","imageIndex":13,"items":[{"name":"보그헤어 중동현대점","tel":"032-324-2612","addr":"경기도 부천시 중동 1166-4번지 영플러스3차 201호","indutype":"보건위생 - 미용원","category":"beauty"}]},{"lat":"37.493816761","long":"126.76560913","imageIndex":13,"items":[{"name":"보보스헤어","tel":"032-612-4254","addr":"경기도 부천시 중동 748-4번지 101 누리안 1층","indutype":"보건위생 - 미용원","category":"beauty"}]},{"lat":"37.503761787","long":"126.77376563","imageIndex":13,"items":[{"name":"복음보청기(부천점)","tel":"032-321-1152","addr":"경기도 부천시 중동 1058-4번지 서호빌딩 4층 408호","indutype":"보건위생 - 의료용품","category":"beauty"},{"name":"쉐라보떼","tel":"032-323-3727","addr":"경기도 부천시 중동 1058-4번지 서호빌딩 105호","indutype":"보건위생 - 미용원","category":"beauty"},{"name":"제니네일","tel":"032-326-4177","addr":"경기도 부천시 중동 1058-4번지 서호빌딩 112호","indutype":"보건위생 - 피부미용실","category":"beauty"},{"name":"청명아동운동발달센터","tel":"070-4131-2552","addr":"경기도 부천시 중동 1058-4번지 서호빌딩 301호","indutype":"보건위생 - 기타대인서비스","category":"beauty"}]},{"lat":"37.497369783","long":"126.76269163","imageIndex":13,"items":[{"name":"복음의료기","tel":"032-654-0173","addr":"경기도 부천시 중동 590번지","indutype":"보건위생 - 의료용품","category":"beauty"}]},{"lat":"37.501399205","long":"126.77274373","imageIndex":13,"items":[{"name":"본메디케어","tel":"","addr":"경기도 부천시 중동 1143-6번지 신풍프라자 201호","indutype":"보건위생 - 의료용품","category":"beauty"},{"name":"주식회사 도담도담","tel":"031-1600-3219","addr":"경기도 부천시 중동 1143-6번지 신풍프라자 601호","indutype":"보건위생 - 화장품","category":"beauty"}]},{"lat":"37.504622816","long":"126.76719219","imageIndex":13,"items":[{"name":"본칸안경콘텍트","tel":"032-225-8007","addr":"경기도 부천시 중동 1034-5번지 씨티오피스 203호","indutype":"보건위생 - 안경","category":"beauty"},{"name":"위드헤어","tel":"032-322-3357","addr":"경기도 부천시 중동 1034-5번지 씨티오피스 2층 205호","indutype":"보건위생 - 미용원","category":"beauty"}]},{"lat":"37.496373719","long":"126.76468507","imageIndex":13,"items":[{"name":"본헤어(Bon Hair)","tel":"032-663-5893","addr":"경기도 부천시 중동 628-7번지 드림씨티빌딩 101호","indutype":"보건위생 - 미용원","category":"beauty"}]},{"lat":"37.501339381","long":"126.76980358","imageIndex":13,"items":[{"name":"봄봄네일","tel":"032-323-4006","addr":"경기도 부천시 중동 1152-2번지 메트로팰리스1차 A동 103호","indutype":"보건위생 - 피부미용실","category":"beauty"},{"name":"헤어파크","tel":"032-325-8361","addr":"경기도 부천시 중동 1152-2번지 메트로팰리스 1-A동 103호","indutype":"보건위생 - 미용원","category":"beauty"}]},{"lat":"37.498902129","long":"126.77672071","imageIndex":13,"items":[{"name":"봉숭아손톱","tel":"032-224-4075","addr":"경기도 부천시 중동 1131-1번지 중동아크로텔 104호","indutype":"보건위생 - 피부미용실","category":"beauty"},{"name":"유에스테틱","tel":"032-322-2330","addr":"경기도 부천시 중동 1131-1번지 대림아크로텔 914호","indutype":"보건위생 - 화장품","category":"beauty"},{"name":"코코스킨앤바디왁싱","tel":"032-326-3688","addr":"경기도 부천시 중동 1131-1번지 중동아크로텔 118호","indutype":"보건위생 - 피부미용실","category":"beauty"}]},{"lat":"37.501429606","long":"126.77918976","imageIndex":13,"items":[{"name":"부엉이네일","tel":"","addr":"경기도 부천시 중동 1104번지 101호","indutype":"보건위생 - 피부미용실","category":"beauty"},{"name":"헤어토피아미용실","tel":"032-664-8696","addr":"경기도 부천시 중동 1104꿈마을상가2층205","indutype":"보건위생 - 미용원","category":"beauty"}]},{"lat":"37.496513042","long":"126.76229859","imageIndex":13,"items":[{"name":"부천유니싸롱","tel":"032-556-4978","addr":"경기도 부천시 중동 679-1번지 3층 일부","indutype":"보건위생 - 화장품","category":"beauty"},{"name":"수미뷰티샵","tel":"032-657-9989","addr":"경기도 부천시 중동 679-1번지","indutype":"보건위생 - 미용원","category":"beauty"}]},{"lat":"37.505066559","long":"126.76383186","imageIndex":13,"items":[{"name":"뷰젬 부천지점","tel":"032-325-9060","addr":"경기도 부천시 중동 1033-1번지 금영프라자 503호","indutype":"보건위생 - 의료용품","category":"beauty"},{"name":"오티콘보청기부천점","tel":"032-323-8299","addr":"경기도 부천시 중동 1033-1번지 금영프라자 201호내203호","indutype":"보건위생 - 의료용품","category":"beauty"},{"name":"키네스부천점","tel":"032-323-0604","addr":"경기도 부천시 중동 1033-1번지 금영프라자 501호","indutype":"보건위생 - 기타대인서비스","category":"beauty"}]},{"lat":"37.494292195","long":"126.76907915","imageIndex":13,"items":[{"name":"빛나라피부관리","tel":"","addr":"경기도 부천시 중동 1191-4번지 1층 일부","indutype":"보건위생 - 피부미용실","category":"beauty"}]},{"lat":"37.509844704","long":"126.76083072","imageIndex":13,"items":[{"name":"뿔라미용실","tel":"032-324-8500","addr":"경기도 부천시 중동 1027번지 한라 상가 204호","indutype":"보건위생 - 미용원","category":"beauty"},{"name":"신세계 코스메틱","tel":"","addr":"경기도 부천시 중동 1027번지 한라마을주공3차아파트","indutype":"보건위생 - 미용재료","category":"beauty"}]},{"lat":"37.499512869","long":"126.7757124","imageIndex":13,"items":[{"name":"뿔라헤어스페이스","tel":"032-321-9606","addr":"경기도 부천시 중동 1133-9번지","indutype":"보건위생 - 미용원","category":"beauty"}]},{"lat":"37.500035832","long":"126.77591437","imageIndex":13,"items":[{"name":"사바이","tel":"032-325-5680","addr":"경기도 부천시 중동 1133-2번지 유진빌딩 303호","indutype":"보건위생 - 피부미용실","category":"beauty"}]},{"lat":"37.496702421","long":"126.77604885","imageIndex":13,"items":[{"name":"살롱(salon)106","tel":"032-328-1414","addr":"경기도 부천시 중동 1128-2번지 한양프라자 1층 106호","indutype":"보건위생 - 미용원","category":"beauty"}]},{"lat":"37.50128608","long":"126.77018825","imageIndex":13,"items":[{"name":"살롱라샤","tel":"032-327-3733","addr":"경기도 부천시 중동 1152-3번지 메트로팰리스1차 102호","indutype":"보건위생 - 미용원","category":"beauty"},{"name":"송's 스킨앤바디","tel":"070-7782-7623","addr":"경기도 부천시 중동 1152-3번지 메트로팰리스1비동 523호","indutype":"보건위생 - 화장품","category":"beauty"}]},{"lat":"37.498873495","long":"126.77588396","imageIndex":13,"items":[{"name":"샤넬케어","tel":"032-324-9634","addr":"경기도 부천시 중동 1130-1번지 중동유림프라자빌딩 301호","indutype":"보건위생 - 기타대인서비스","category":"beauty"}]},{"lat":"37.501539042","long":"126.77516343","imageIndex":13,"items":[{"name":"샤인","tel":"032-323-6818","addr":"경기도 부천시 중동 1137-6번지 뉴그린프라자 302호","indutype":"보건위생 - 화장품","category":"beauty"}]},{"lat":"37.499814745","long":"126.7734045","imageIndex":13,"items":[{"name":"선(  )헤어살롱","tel":"032-325-7200","addr":"경기도 부천시 중동 1179번지","indutype":"보건위생 - 미용원","category":"beauty"},{"name":"오다영미용실","tel":"032-326-1831","addr":"경기도 부천시 중동 1179번지 상가-109 미리내마을","indutype":"보건위생 - 미용원","category":"beauty"},{"name":"지니헤어스토리","tel":"032-327-7622","addr":"경기도 부천시 중동 1179번지 미리내금호한신 상가동 109호","indutype":"보건위생 - 미용원","category":"beauty"}]},{"lat":"37.486286207","long":"126.77102625","imageIndex":13,"items":[{"name":"성태인 헤어","tel":"032-664-7700","addr":"경기도 부천시 중동 896-5번지 1층","indutype":"보건위생 - 미용원","category":"beauty"}]},{"lat":"37.498539478","long":"126.77554572","imageIndex":13,"items":[{"name":"소라(SoRa)헤어","tel":"032-324-7377","addr":"경기도 부천시 중동 1129-1번지 센타프라자 1동 121호","indutype":"보건위생 - 미용원","category":"beauty"},{"name":"쑤기네일","tel":"032-676-5544","addr":"경기도 부천시 중동 1129-1번지 센타프라자 103호","indutype":"보건위생 - 피부미용실","category":"beauty"},{"name":"엠에이치(MH)코스메틱","tel":"031-201-4824","addr":"경기도 부천시 중동 1129-1번지 센타프라자 603호","indutype":"보건위생 - 화장품","category":"beauty"},{"name":"정규동의웰빙건강(보완대체의학 자연치유연","tel":"031-1661-9675","addr":"경기도 부천시 중동 1129-1번지 센타프라자 2층 204호","indutype":"보건위생 - 기타대인서비스","category":"beauty"},{"name":"헤어빈바이지아","tel":"032-321-5999","addr":"경기도 부천시 중동 1129-1번지 센터프라자 1동 1층 118호","indutype":"보건위생 - 미용원","category":"beauty"}]},{"lat":"37.503874797","long":"126.78104851","imageIndex":13,"items":[{"name":"소망","tel":"032-321-9217","addr":"경기도 부천시 중동 1083-2번지 지하","indutype":"보건위생 - 화장품","category":"beauty"},{"name":"아모레미용재료","tel":"032-425-8286","addr":"경기도 부천시 중동 1083-2번지 G동 1층","indutype":"보건위생 - 미용재료","category":"beauty"}]},{"lat":"37.487952584","long":"126.76624956","imageIndex":13,"items":[{"name":"수","tel":"032-656-5464","addr":"경기도 부천시 중동 807번지 302호","indutype":"보건위생 - 화장품","category":"beauty"},{"name":"지지아나","tel":"032-321-4843","addr":"경기도 부천시 중동 807번지 2층 45호","indutype":"보건위생 - 화장품","category":"beauty"}]},{"lat":"37.50222919","long":"126.77329533","imageIndex":13,"items":[{"name":"수 테라피","tel":"070-7259-8511","addr":"경기도 부천시 중동 1142-5번지 혜영빌딩 3층 302호","indutype":"보건위생 - 화장품","category":"beauty"}]},{"lat":"37.508424436","long":"126.77146675","imageIndex":13,"items":[{"name":"수미나라","tel":"070-5121-4552","addr":"경기도 부천시 중동 1051번지 설악마을주공아파트","indutype":"보건위생 - 화장품","category":"beauty"}]},{"lat":"37.501401623","long":"126.76938495","imageIndex":13,"items":[{"name":"수코스메틱(Soo COSMETIC)","tel":"070-4318-5220","addr":"경기도 부천시 중동 1152-1번지 루미아트클래식 1층 109호","indutype":"보건위생 - 미용재료","category":"beauty"},{"name":"크리핀헤어","tel":"032-328-6900","addr":"경기도 부천시 중동 1152-1번지 루미아트클래식 106호","indutype":"보건위생 - 미용원","category":"beauty"},{"name":"헤어샵#","tel":"070-4962-1317","addr":"경기도 부천시 중동 1152-1번지 루미아트클래식 1층 113호","indutype":"보건위생 - 미용원","category":"beauty"}]},{"lat":"37.497620506","long":"126.78029804","imageIndex":13,"items":[{"name":"술람미","tel":"032-654-2322","addr":"경기도 부천시 중동 1101번지 연화마을 상가동 207호","indutype":"보건위생 - 화장품","category":"beauty"}]},{"lat":"37.500369023","long":"126.77582289","imageIndex":13,"items":[{"name":"쉬즈","tel":"032-327-2411","addr":"경기도 부천시 중동 1133번지 110호","indutype":"보건위생 - 화장품","category":"beauty"}]},{"lat":"37.494512809","long":"126.76674903","imageIndex":13,"items":[{"name":"쉬즈헤어","tel":"032-611-0443","addr":"경기도 부천시 중동 719-5번지","indutype":"보건위생 - 미용원","category":"beauty"}]},{"lat":"37.50384191","long":"126.77326777","imageIndex":13,"items":[{"name":"쉬크헤어","tel":"032-324-2408","addr":"경기도 부천시 중동 1058-2번지 중동프라자 118호","indutype":"보건위생 - 미용원","category":"beauty"},{"name":"오휘컨설턴트","tel":"032-322-4200","addr":"경기도 부천시 중동 1058-2번지 중동프라자 603호","indutype":"보건위생 - 화장품","category":"beauty"},{"name":"제이스킨케어","tel":"070-4122-0406","addr":"경기도 부천시 중동 1058-2번지 중동프라자 6층 606호","indutype":"보건위생 - 피부미용실","category":"beauty"},{"name":"키즈맘 심리 스쿨","tel":"032-323-5449","addr":"경기도 부천시 중동 1058-2번지 중동프라자 5층 508호","indutype":"보건위생 - 기타대인서비스","category":"beauty"},{"name":"하이보청기언어청각센터","tel":"","addr":"경기도 부천시 중동 1058-2번지 중동프라자 503호","indutype":"보건위생 - 의료용품","category":"beauty"},{"name":"한국화장품부천대리점","tel":"032-666-5556","addr":"경기도 부천시 중동 1058-2번지 중동프라 401호","indutype":"보건위생 - 화장품","category":"beauty"}]},{"lat":"37.503950969","long":"126.76021642","imageIndex":13,"items":[{"name":"스타네일","tel":"032-321-0333","addr":"경기도 부천시 중동 1166번지 현대프라자 1층 113호","indutype":"보건위생 - 화장품","category":"beauty"},{"name":"영뷰티샵","tel":"","addr":"경기도 부천시 중동 1166번지 현대프라자 301호","indutype":"보건위생 - 피부미용실","category":"beauty"},{"name":"조니스타일","tel":"032-321-7909","addr":"경기도 부천시 중동 1166번지 현대프라자 202호","indutype":"보건위생 - 미용원","category":"beauty"}]},{"lat":"37.50270426","long":"126.7629912","imageIndex":13,"items":[{"name":"스피릿왁싱","tel":"","addr":"경기도 부천시 중동 1159-8번지 하성빌딩 504호","indutype":"보건위생 - 피부미용실","category":"beauty"}]},{"lat":"37.497369586","long":"126.776273","imageIndex":13,"items":[{"name":"시암","tel":"032-322-7290","addr":"경기도 부천시 중동 1127-10번지 태진프라자 3층","indutype":"보건위생 - 기타대인서비스","category":"beauty"}]},{"lat":"37.49542964","long":"126.76566057","imageIndex":13,"items":[{"name":"신나는머리나라","tel":"032-679-0767","addr":"경기도 부천시 중동 711-3 1층","indutype":"보건위생 - 미용원","category":"beauty"}]},{"lat":"37.499980271","long":"126.77513423","imageIndex":13,"items":[{"name":"신데렐라헤어","tel":"032-326-1619","addr":"경기도 부천시 중동 1134-1번지 상지프라자 101호","indutype":"보건위생 - 미용원","category":"beauty"},{"name":"유니베라","tel":"032-677-9100","addr":"경기도 부천시 중동 1134-1번지 상지프라자 203호","indutype":"보건위생 - 화장품","category":"beauty"}]},{"lat":"37.508367266","long":"126.77449801","imageIndex":13,"items":[{"name":"신중동24시사우나","tel":"032-679-1700","addr":"경기도 부천시 중동 3-75번지 한일빌딩 701호","indutype":"보건위생 - 사우나","category":"beauty"},{"name":"신중동불가마사우나","tel":"032-679-1700","addr":"경기도 부천시 중동 3-75번지 알프스타워지하1~2층","indutype":"보건위생 - 사우나","category":"beauty"},{"name":"알프스타워","tel":"02-6716-7337","addr":"경기도 부천시 중동 3-75번지","indutype":"보건위생 - 사우나","category":"beauty"},{"name":"올네이션 부천제일지사","tel":"031-111-1111","addr":"경기도 부천시 중동 3-75번지 알프스타워 605호 일부","indutype":"보건위생 - 화장품","category":"beauty"},{"name":"정진통상","tel":"032-672-5858","addr":"경기도 부천시 중동 3-75번지 알프스타워 6층 602호","indutype":"보건위생 - 미용재료","category":"beauty"}]},{"lat":"37.507566702","long":"126.77055329","imageIndex":13,"items":[{"name":"쎄씨머리만들기","tel":"032-322-0895","addr":"경기도 부천시 중동 1051-12번지 설악마을 상가 205호","indutype":"보건위생 - 미용원","category":"beauty"}]},{"lat":"37.502235701","long":"126.76297009","imageIndex":13,"items":[{"name":"쎄컨글라스","tel":"032-328-3830","addr":"경기도 부천시 중동 1160번지 부일빌딩 1층 106호","indutype":"보건위생 - 안경","category":"beauty"},{"name":"오션 에스테틱","tel":"032-327-6321","addr":"경기도 부천시 중동 1160번지 부일빌딩 3층","indutype":"보건위생 - 화장품","category":"beauty"},{"name":"오션 에스테틱","tel":"032-327-6321","addr":"경기도 부천시 중동 1160번지 부일빌딩 3층","indutype":"보건위생 - 화장품","category":"beauty"}]},{"lat":"37.501758518","long":"126.77218848","imageIndex":13,"items":[{"name":"쑤앙드보떼","tel":"032-322-5768","addr":"경기도 부천시 중동 1143번지 신일아르디세 110호","indutype":"보건위생 - 미용원","category":"beauty"}]},{"lat":"37.503318042","long":"126.77727286","imageIndex":13,"items":[{"name":"아델라속눈썹","tel":"","addr":"경기도 부천시 중동 1079번지 뉴월드타운 301호 일부","indutype":"보건위생 - 기타대인서비스","category":"beauty"},{"name":"헤어린","tel":"032-327-8180","addr":"경기도 부천시 중동 1079번지 뉴월드타운 1층 103호","indutype":"보건위생 - 미용원","category":"beauty"}]},{"lat":"37.498397837","long":"126.77685794","imageIndex":13,"items":[{"name":"아모레","tel":"032-676-5920","addr":"경기도 부천시 중동 1131-3번지 신영빌딩 8층","indutype":"보건위생 - 화장품","category":"beauty"},{"name":"아모레","tel":"032-676-5920","addr":"경기도 부천시 중동 1131-3번지 신영빌딩 8층","indutype":"보건위생 - 화장품","category":"beauty"},{"name":"아모레","tel":"032-676-5920","addr":"경기도 부천시 중동 1131-3번지","indutype":"보건위생 - 화장품","category":"beauty"},{"name":"아모레","tel":"032-676-5920","addr":"경기도 부천시 중동 1131-3번지 신영빌딩 8층","indutype":"보건위생 - 화장품","category":"beauty"},{"name":"아모레","tel":"032-676-5920","addr":"경기도 부천시 중동 1131-3번지 신영빌딩 8층 801~802호","indutype":"보건위생 - 화장품","category":"beauty"},{"name":"아모레","tel":"032-676-5920","addr":"경기도 부천시 중동 1131-3번지 신영빌딩 8층 801-802호","indutype":"보건위생 - 화장품","category":"beauty"},{"name":"아모레 카운셀러","tel":"032-676-5920","addr":"경기도 부천시 중동 1131-3번지 신영빌딩 8층","indutype":"보건위생 - 화장품","category":"beauty"},{"name":"아모레 퍼시픽","tel":"032-676-5920","addr":"경기도 부천시 중동 1131-3번지 신영빌딩 8층","indutype":"보건위생 - 화장품","category":"beauty"},{"name":"아모레 퍼시픽","tel":"032-676-5920","addr":"경기도 부천시 중동 1131-3번지 신영빌딩 8층","indutype":"보건위생 - 화장품","category":"beauty"},{"name":"아모레 퍼시픽 제일특약점","tel":"032-676-5920","addr":"경기도 부천시 중동 1131-3번지 신영빌딩 8층","indutype":"보건위생 - 화장품","category":"beauty"},{"name":"아모레카운셀러","tel":"032-676-5920","addr":"경기도 부천시 중동 1131-3번지 신영빌딩 8층","indutype":"보건위생 - 화장품","category":"beauty"},{"name":"아모레카운셀러","tel":"032-676-5920","addr":"경기도 부천시 중동 1131-3번지 신영빌딩 8층","indutype":"보건위생 - 화장품","category":"beauty"},{"name":"아모레카운셀러","tel":"032-676-5920","addr":"경기도 부천시 중동 1131-3번지 신영빌딩 8층","indutype":"보건위생 - 화장품","category":"beauty"},{"name":"아모레카운셀러","tel":"032-676-5920","addr":"경기도 부천시 중동 1131-3번지 신영빌딩","indutype":"보건위생 - 화장품","category":"beauty"},{"name":"아모레카운셀러","tel":"032-676-5920","addr":"경기도 부천시 중동 1131-3번지 신영빌딩 8층","indutype":"보건위생 - 화장품","category":"beauty"},{"name":"아모레카운셀러","tel":"032-676-5920","addr":"경기도 부천시 중동 1131-3번지 신영빌딩 8층","indutype":"보건위생 - 화장품","category":"beauty"},{"name":"아모레카운셀러","tel":"032-676-5920","addr":"경기도 부천시 중동 1131-3번지 신영빌딩 8층","indutype":"보건위생 - 화장품","category":"beauty"},{"name":"아모레카운셀러","tel":"032-676-5920","addr":"경기도 부천시 중동 1131-3번지 신영빌딩 8층","indutype":"보건위생 - 화장품","category":"beauty"},{"name":"아모레카운셀러","tel":"032-676-5920","addr":"경기도 부천시 중동 1131-3번지 신영빌딩 8층","indutype":"보건위생 - 화장품","category":"beauty"},{"name":"아모레카운셀러","tel":"032-676-5920","addr":"경기도 부천시 중동 1131-3번지 신영빌딩 8층","indutype":"보건위생 - 화장품","category":"beauty"},{"name":"아모레카운셀러","tel":"032-676-5920","addr":"경기도 부천시 중동 1131-3번지 신영빌딩 801호","indutype":"보건위생 - 화장품","category":"beauty"},{"name":"아모레카운셀러","tel":"032-676-5920","addr":"경기도 부천시 중동 1131-3번지 신영빌딩 8층","indutype":"보건위생 - 화장품","category":"beauty"},{"name":"아모레카운셀러","tel":"032-676-5920","addr":"경기도 부천시 중동 1131-3번지 신영빌딩 8층","indutype":"보건위생 - 화장품","category":"beauty"},{"name":"아모레카운셀러","tel":"032-676-5920","addr":"경기도 부천시 중동 1131-3번지 신영빌딩","indutype":"보건위생 - 화장품","category":"beauty"},{"name":"아모레카운셀러","tel":"032-676-5920","addr":"경기도 부천시 중동 1131-3번지 신영빌딩 8층","indutype":"보건위생 - 화장품","category":"beauty"},{"name":"아모레카운셀러","tel":"032-676-5920","addr":"경기도 부천시 중동 1131-3번지 신영빌딩 8층","indutype":"보건위생 - 화장품","category":"beauty"},{"name":"아모레카운셀러","tel":"032-676-5920","addr":"경기도 부천시 중동 1131-3번지 신영빌딩 8층","indutype":"보건위생 - 화장품","category":"beauty"},{"name":"아모레카운셀러","tel":"032-676-5920","addr":"경기도 부천시 중동 1131-3번지 신영빌딩 8층","indutype":"보건위생 - 화장품","category":"beauty"},{"name":"아모레카운셀러","tel":"032-343-0801","addr":"경기도 부천시 중동 1131-3번지","indutype":"보건위생 - 화장품","category":"beauty"},{"name":"아모레카운셀러","tel":"032-676-5920","addr":"경기도 부천시 중동 1131-3번지 신영빌딩 8층","indutype":"보건위생 - 화장품","category":"beauty"},{"name":"아모레카운셀러","tel":"032-676-5920","addr":"경기도 부천시 중동 1131-3번지 신영빌딩 8층","indutype":"보건위생 - 화장품","category":"beauty"},{"name":"아모레카운셀러","tel":"032-671-2175","addr":"경기도 부천시 중동 1131-3번지 신영빌딩 8층","indutype":"보건위생 - 화장품","category":"beauty"},{"name":"아모레카운셀러","tel":"032-676-5920","addr":"경기도 부천시 중동 1131-3번지 신영빌딩 8층","indutype":"보건위생 - 화장품","category":"beauty"},{"name":"아모레카운셀러","tel":"032-676-5920","addr":"경기도 부천시 중동 1131-3번지 신영빌딩 8층","indutype":"보건위생 - 화장품","category":"beauty"},{"name":"아모레카운셀러","tel":"032-676-5920","addr":"경기도 부천시 중동 1131-3번지 신영빌딩 8층","indutype":"보건위생 - 화장품","category":"beauty"},{"name":"아모레카운셀러","tel":"032-676-5920","addr":"경기도 부천시 중동 1131-3번지 신영빌딩 8층","indutype":"보건위생 - 화장품","category":"beauty"},{"name":"아모레카운셀러","tel":"032-676-5920","addr":"경기도 부천시 중동 1131-3번지 신영빌딩 8층","indutype":"보건위생 - 화장품","category":"beauty"},{"name":"아모레카운셀러","tel":"032-676-5921","addr":"경기도 부천시 중동 1131-3번지 신영빌딩 8층","indutype":"보건위생 - 화장품","category":"beauty"},{"name":"아모레카운셀러","tel":"032-676-5925","addr":"경기도 부천시 중동 1131-3번지 신영빌딩 8층","indutype":"보건위생 - 화장품","category":"beauty"},{"name":"아모레카운셀러","tel":"032-676-5920","addr":"경기도 부천시 중동 1131-3번지 신영빌딩 8층","indutype":"보건위생 - 화장품","category":"beauty"},{"name":"아모레카운셀러","tel":"032-676-5920","addr":"경기도 부천시 중동 1131-3번지 신영빌딩 8층","indutype":"보건위생 - 화장품","category":"beauty"},{"name":"아모레카운셀러","tel":"032-676-5920","addr":"경기도 부천시 중동 1131-3번지 신영빌딩 8층","indutype":"보건위생 - 화장품","category":"beauty"},{"name":"아모레카운셀러","tel":"032-676-5920","addr":"경기도 부천시 중동 1131-3번지 신영빌딩 8층","indutype":"보건위생 - 화장품","category":"beauty"},{"name":"아모레카운셀러","tel":"050-2007-3000","addr":"경기도 부천시 중동 1131-3번지 신영빌딩(주) 아모레퍼시픽부천제일영업소","indutype":"보건위생 - 화장품","category":"beauty"},{"name":"아모레카운셀러","tel":"032-676-5920","addr":"경기도 부천시 중동 1131-3번지 신영빌딩 801호","indutype":"보건위생 - 화장품","category":"beauty"},{"name":"아모레카운셀러","tel":"032-676-5920","addr":"경기도 부천시 중동 1131-3번지 신영빌딩 8층","indutype":"보건위생 - 화장품","category":"beauty"},{"name":"아모레카운셀러","tel":"032-328-9872","addr":"경기도 부천시 중동 1131-3번지 신영빌딩 8층","indutype":"보건위생 - 화장품","category":"beauty"},{"name":"아모레퍼시픽","tel":"032-676-5920","addr":"경기도 부천시 중동 1131-3번지 신영빌딩 8층","indutype":"보건위생 - 화장품","category":"beauty"},{"name":"아모레퍼시픽","tel":"032-676-5920","addr":"경기도 부천시 중동 1131-3번지 신영빌딩 8층","indutype":"보건위생 - 화장품","category":"beauty"},{"name":"아모레퍼시픽","tel":"032-676-5920","addr":"경기도 부천시 중동 1131-3번지 신영빌딩 8층","indutype":"보건위생 - 화장품","category":"beauty"},{"name":"아모레퍼시픽","tel":"032-676-5920","addr":"경기도 부천시 중동 1131-3번지 신영빌딩 8층","indutype":"보건위생 - 화장품","category":"beauty"},{"name":"아모레퍼시픽","tel":"032-676-5920","addr":"경기도 부천시 중동 1131-3번지 신영빌딩 8층","indutype":"보건위생 - 화장품","category":"beauty"},{"name":"아모레퍼시픽","tel":"032-676-5920","addr":"경기도 부천시 중동 1131-3번지 신영빌딩 8층","indutype":"보건위생 - 화장품","category":"beauty"},{"name":"아모레퍼시픽","tel":"032-676-5920","addr":"경기도 부천시 중동 1131-3번지 신영빌딩 8층","indutype":"보건위생 - 화장품","category":"beauty"},{"name":"아모레퍼시픽","tel":"032-676-5920","addr":"경기도 부천시 중동 1131-3번지 신영빌딩 8층","indutype":"보건위생 - 화장품","category":"beauty"},{"name":"아모레퍼시픽","tel":"032-676-5920","addr":"경기도 부천시 중동 1131-3번지 신영빌딩 8층","indutype":"보건위생 - 화장품","category":"beauty"},{"name":"아모레퍼시픽","tel":"032-676-5920","addr":"경기도 부천시 중동 1131-3번지 신영빌딩 8층","indutype":"보건위생 - 화장품","category":"beauty"},{"name":"아모레퍼시픽","tel":"032-676-5920","addr":"경기도 부천시 중동 1131-3번지 신영빌딩 8층","indutype":"보건위생 - 화장품","category":"beauty"},{"name":"아모레퍼시픽","tel":"032-676-5920","addr":"경기도 부천시 중동 1131-3번지 신영빌딩 8층","indutype":"보건위생 - 화장품","category":"beauty"},{"name":"아모레퍼시픽","tel":"032-676-5920","addr":"경기도 부천시 중동 1131-3번지 신영빌딩 8층","indutype":"보건위생 - 화장품","category":"beauty"},{"name":"아모레퍼시픽","tel":"032-676-5920","addr":"경기도 부천시 중동 1131-3번지 신영빌딩 8층","indutype":"보건위생 - 화장품","category":"beauty"},{"name":"아모레퍼시픽(주)","tel":"032-676-5920","addr":"경기도 부천시 중동 1131-3번지 신영빌딩 8층","indutype":"보건위생 - 화장품","category":"beauty"},{"name":"아모레화장품","tel":"032-676-5920","addr":"경기도 부천시 중동 1131-3번지 신영빌딩 8층","indutype":"보건위생 - 화장품","category":"beauty"},{"name":"위드스파","tel":"032-323-9009","addr":"경기도 부천시 중동 1131-3번지 신영빌딩 304호","indutype":"보건위생 - 피부미용실","category":"beauty"}]},{"lat":"37.497902554","long":"126.77699513","imageIndex":13,"items":[{"name":"아모레카운셀러","tel":"032-328-9872","addr":"경기도 부천시 중동 1131-5번지 신한국빌딩 6층","indutype":"보건위생 - 화장품","category":"beauty"},{"name":"아모레카운셀러","tel":"032-668-5020","addr":"경기도 부천시 중동 1131-5번지 신한국빌딩 6층","indutype":"보건위생 - 화장품","category":"beauty"},{"name":"아모레카운셀러","tel":"032-382-9872","addr":"경기도 부천시 중동 1131-5번지 6층","indutype":"보건위생 - 화장품","category":"beauty"},{"name":"아모레카운셀러","tel":"032-382-9872","addr":"경기도 부천시 중동 1131-5번지 신영빌딩 6층","indutype":"보건위생 - 화장품","category":"beauty"},{"name":"아모레퍼시픽","tel":"032-328-9872","addr":"경기도 부천시 중동 1131-5번지 6층","indutype":"보건위생 - 화장품","category":"beauty"},{"name":"아모레퍼시픽","tel":"032-328-9872","addr":"경기도 부천시 중동 1131-5번지 신한국빌딩 6층","indutype":"보건위생 - 화장품","category":"beauty"},{"name":"아모레퍼시픽","tel":"032-328-9872","addr":"경기도 부천시 중동 1131-5번지 신한국빌딩 6층","indutype":"보건위생 - 화장품","category":"beauty"},{"name":"아모레퍼시픽 (주) 카운셀러","tel":"032-328-9872","addr":"경기도 부천시 중동 1131-5번지 신한국빌딩 6층","indutype":"보건위생 - 화장품","category":"beauty"}]},{"lat":"37.504400875","long":"126.76885538","imageIndex":13,"items":[{"name":"아아진","tel":"032-322-1007","addr":"경기도 부천시 중동 1035-3번지 111, 112호","indutype":"보건위생 - 안경","category":"beauty"},{"name":"훈코스메틱","tel":"032-321-9583","addr":"경기도 부천시 중동 1035-3번지 부천메디칼 5층","indutype":"보건위생 - 화장품","category":"beauty"}]},{"lat":"37.501869871","long":"126.77385057","imageIndex":13,"items":[{"name":"아이네일샵","tel":"032-322-4313","addr":"경기도 부천시 중동 1142-12번지 1층 101호","indutype":"보건위생 - 피부미용실","category":"beauty"}]},{"lat":"37.502368755","long":"126.76194053","imageIndex":13,"items":[{"name":"아이반헤어","tel":"032-323-7785","addr":"경기도 부천시 중동 1161-2번지 프라움시티 108호","indutype":"보건위생 - 미용원","category":"beauty"},{"name":"엘스뷰티","tel":"032-243-1016","addr":"경기도 부천시 중동 1161-2번지 프라움시티 514호","indutype":"보건위생 - 미용재료","category":"beauty"}]},{"lat":"37.504514231","long":"126.77616093","imageIndex":13,"items":[{"name":"아이패션안경","tel":"032-321-0618","addr":"경기도 부천시 중동 1062번지 1층","indutype":"보건위생 - 안경","category":"beauty"}]},{"lat":"37.498541025","long":"126.75827755","imageIndex":13,"items":[{"name":"아주미용실","tel":"032-323-7807","addr":"경기도 부천시 중동 1172아주상가118","indutype":"보건위생 - 미용원","category":"beauty"},{"name":"키라키라","tel":"032-329-1258","addr":"경기도 부천시 중동 1172번지 보람마을아주상사 112호","indutype":"보건위생 - 화장품","category":"beauty"}]},{"lat":"37.497819609","long":"126.76682909","imageIndex":13,"items":[{"name":"알리바바상사","tel":"032-321-4255","addr":"경기도 부천시 중동 1176-2번지 무지개마을동신아파트","indutype":"보건위생 - 미용재료","category":"beauty"},{"name":"조순헤어","tel":"031-322-7573","addr":"경기도 부천시 중동 1176-2번지","indutype":"보건위생 - 미용원","category":"beauty"}]},{"lat":"37.496209541","long":"126.77744125","imageIndex":13,"items":[{"name":"애쉬샵(ASH shop)","tel":"032-221-0886","addr":"경기도 부천시 중동 1125-1번지 루미아트 110호","indutype":"보건위생 - 미용원","category":"beauty"}]},{"lat":"37.508452517","long":"126.7629615","imageIndex":13,"items":[{"name":"양옥숙미장","tel":"032-327-7876","addr":"경기도 부천시 중동 1028-1번지","indutype":"보건위생 - 미용원","category":"beauty"}]},{"lat":"37.497396307","long":"126.76244277","imageIndex":13,"items":[{"name":"양지의료기","tel":"032-653-7779","addr":"경기도 부천시 중동 587-5 황실다세대1층 102 5/6","indutype":"보건위생 - 의료용품","category":"beauty"}]},{"lat":"37.494097869","long":"126.76204626","imageIndex":13,"items":[{"name":"언라이크 아더스","tel":"032-612-0023","addr":"경기도 부천시 중동 760-6번지 신성힐스타운 101호","indutype":"보건위생 - 미용원","category":"beauty"}]},{"lat":"37.495396685","long":"126.77641466","imageIndex":13,"items":[{"name":"에스엠스포츠과학센터","tel":"032-611-7573","addr":"경기도 부천시 중동 1123-4번지 태정빌딩 5층 502호","indutype":"보건위생 - 기타대인서비스","category":"beauty"}]},{"lat":"37.5001788586","long":"126.7753258790","imageIndex":13,"items":[{"name":"엠앤엠(M&M)","tel":"032-321-2656","addr":"경기도 부천시 중동 1134번지 새롬프라자 6층 603동 604호","indutype":"보건위생 - 피부미용실","category":"beauty"}]},{"lat":"37.504731595","long":"126.77674837","imageIndex":13,"items":[{"name":"엠엘교역","tel":"032-325-8788","addr":"경기도 부천시 중동 1066-10번지","indutype":"보건위생 - 미용재료","category":"beauty"}]},{"lat":"37.499620095","long":"126.77524841","imageIndex":13,"items":[{"name":"여니크","tel":"032-323-7316","addr":"경기도 부천시 중동 1134-2번지 골드존타워 119호","indutype":"보건위생 - 미용원","category":"beauty"},{"name":"이하영 감각통합 상담연구소","tel":"055-332-4165","addr":"경기도 부천시 중동 1134-2번지 골드존타워 603호","indutype":"보건위생 - 기타대인서비스","category":"beauty"}]},{"lat":"37.495511933","long":"126.76180425","imageIndex":13,"items":[{"name":"여성도시","tel":"032-612-2331","addr":"경기도 부천시 중동 681-10번지 현진시앤시빌 101호","indutype":"보건위생 - 미용원","category":"beauty"}]},{"lat":"37.493618476","long":"126.76557583","imageIndex":13,"items":[{"name":"여왕벌헤어샵","tel":"032-655-0862","addr":"경기도 부천시 중동 755-15","indutype":"보건위생 - 미용원","category":"beauty"},{"name":"오예스스킨케어좌훈카페","tel":"070-4922-1261","addr":"경기도 부천시 중동 755-15번지 1층","indutype":"보건위생 - 피부미용실","category":"beauty"}]},{"lat":"37.506981485","long":"126.77076999","imageIndex":13,"items":[{"name":"연주연미용실","tel":"032-323-7623","addr":"경기도 부천시 중동 1052-3번지 중흥마을주공 상가 2층","indutype":"보건위생 - 미용원","category":"beauty"}]},{"lat":"37.495626803","long":"126.77426542","imageIndex":13,"items":[{"name":"연출미용실","tel":"032-324-5513","addr":"경기도 부천시 중동 1185-2한양상가107","indutype":"보건위생 - 미용원","category":"beauty"}]},{"lat":"37.495037222","long":"126.78166267","imageIndex":13,"items":[{"name":"연화대중탕","tel":"032-656-7200","addr":"경기도 부천시 중동 1099-2 연화마을상가동지층 101","indutype":"보건위생 - 사우나","category":"beauty"}]},{"lat":"37.501367899","long":"126.77518656","imageIndex":13,"items":[{"name":"영빈헤어샵","tel":"032-325-8750","addr":"경기도 부천시 중동 1137-5번지 중앙프라자 1층 104호","indutype":"보건위생 - 미용원","category":"beauty"},{"name":"화장품랜드","tel":"032-325-6620","addr":"경기도 부천시 중동 1137-5번지 중앙프라자 1층 103호","indutype":"보건위생 - 화장품","category":"beauty"}]},{"lat":"37.504153167","long":"126.78055007","imageIndex":13,"items":[{"name":"영주상사","tel":"032-324-9221","addr":"경기도 부천시 중동 1085-1번지 지하","indutype":"보건위생 - 화장품","category":"beauty"}]},{"lat":"37.503122731","long":"126.77880019","imageIndex":13,"items":[{"name":"오넬네일","tel":"032-321-9581","addr":"경기도 부천시 중동 1080-1번지 1층 101호 내 102호","indutype":"보건위생 - 피부미용실","category":"beauty"}]},{"lat":"37.493958392","long":"126.76435351","imageIndex":13,"items":[{"name":"오땡큐헤어라인","tel":"032-682-0551","addr":"경기도 부천시 중동 736-20번지 1층","indutype":"보건위생 - 미용원","category":"beauty"}]},{"lat":"37.500815608","long":"126.77379725","imageIndex":13,"items":[{"name":"오르다","tel":"032-325-7366","addr":"경기도 부천시 중동 1144-5번지 굿모닝위너스텔3차 104호","indutype":"보건위생 - 미용원","category":"beauty"}]},{"lat":"37.487597369","long":"126.76885127","imageIndex":13,"items":[{"name":"오엘코스메틱","tel":"070-7799-2175","addr":"경기도 부천시 중동 799번지 황금빌딩 201호","indutype":"보건위생 - 화장품","category":"beauty"}]},{"lat":"37.501900395","long":"126.77102321","imageIndex":13,"items":[{"name":"오예살롱","tel":"032-325-6321","addr":"경기도 부천시 중동 1146번지 하이베라스 406호","indutype":"보건위생 - 피부미용실","category":"beauty"},{"name":"태호물산","tel":"032-326-2348","addr":"경기도 부천시 중동 1146번지 502-1호","indutype":"보건위생 - 의료용품","category":"beauty"},{"name":"헬스코리아","tel":"032-326-2348","addr":"경기도 부천시 중동 1146번지 하이베라스 501-1호","indutype":"보건위생 - 의료용품","category":"beauty"}]},{"lat":"37.497927133","long":"126.7757172","imageIndex":13,"items":[{"name":"오투헤어(O2헤어)","tel":"032-323-6429","addr":"경기도 부천시 중동 1129-3번지 중동공영노외주차장 105호","indutype":"보건위생 - 미용원","category":"beauty"}]},{"lat":"37.500205409","long":"126.775077","imageIndex":13,"items":[{"name":"오헤어","tel":"032-329-0066","addr":"경기도 부천시 중동 1134번지 새롬프라자6차 201호","indutype":"보건위생 - 미용원","category":"beauty"},{"name":"이가자헤어버스","tel":"032-329-0066","addr":"경기도 부천시 중동 1134번지 새롬프라자6차 201호","indutype":"보건위생 - 미용원","category":"beauty"},{"name":"이가자헤어비스","tel":"032-329-0066","addr":"경기도 부천시 중동 1134번지 새롬프라자6차 201호","indutype":"보건위생 - 미용원","category":"beauty"},{"name":"이끌림","tel":"031-000-0000","addr":"경기도 부천시 중동 1134번지 새롬프라자6차 301호 일부","indutype":"보건위생 - 피부미용실","category":"beauty"}]},{"lat":"37.503755648","long":"126.76163072","imageIndex":13,"items":[{"name":"올포유피부관리실","tel":"032-323-7667","addr":"경기도 부천시 중동 1163-1번지 2층","indutype":"보건위생 - 피부미용실","category":"beauty"},{"name":"헤어바이린(HAIR BY LYN)","tel":"032-327-0965","addr":"경기도 부천시 중동 1163-1번지 3층","indutype":"보건위생 - 미용원","category":"beauty"}]},{"lat":"37.509205952","long":"126.76574139","imageIndex":13,"items":[{"name":"우리미용실","tel":"032-324-5417","addr":"경기도 부천시 중동 1041 덕유주공종합상가 206","indutype":"보건위생 - 미용원","category":"beauty"}]},{"lat":"37.506263313","long":"126.77676637","imageIndex":13,"items":[{"name":"운도","tel":"032-322-4363","addr":"경기도 부천시 중동 1071-5번지","indutype":"보건위생 - 화장품","category":"beauty"}]},{"lat":"37.495207336","long":"126.76713132","imageIndex":13,"items":[{"name":"원네일","tel":"032-272-7405","addr":"경기도 부천시 중동 714-1번지 1층","indutype":"보건위생 - 피부미용실","category":"beauty"}]},{"lat":"37.502042685","long":"126.77007281","imageIndex":13,"items":[{"name":"웰스콥코리아","tel":"032-327-7565","addr":"경기도 부천시 중동 1151-2번지 천마프라자 1002호","indutype":"보건위생 - 의료용품","category":"beauty"}]},{"lat":"37.505235199","long":"126.76257596","imageIndex":13,"items":[{"name":"위두(we do)심리상담연구소","tel":"032-325-8947","addr":"경기도 부천시 중동 1031-2번지 골든벨타워 802호","indutype":"보건위생 - 기타대인서비스","category":"beauty"}]},{"lat":"37.4964856974","long":"126.7666071191","imageIndex":13,"items":[{"name":"유진뷰티","tel":"032-322-9269","addr":"경기도 부천시 중동 1175-2번지 무지개마을상가 204호","indutype":"보건위생 - 화장품","category":"beauty"}]},{"lat":"37.49264591","long":"126.76582768","imageIndex":13,"items":[{"name":"은혜헤어샵","tel":"032-653-6835","addr":"경기도 부천시 중동 771-5번지","indutype":"보건위생 - 미용원","category":"beauty"}]},{"lat":"37.5046228158","long":"126.7671921899","imageIndex":13,"items":[{"name":"인치바이인치","tel":"032-329-2208","addr":"경기도 부천시 중동 1034-5번지 시티오피스 303-1호","indutype":"보건위생 - 피부미용실","category":"beauty"}]},{"lat":"37.503649167","long":"126.76243402","imageIndex":13,"items":[{"name":"인텍스코리아","tel":"032-325-6244","addr":"경기도 부천시 중동 1163-5번지 조유빌딩 3층","indutype":"보건위생 - 화장품","category":"beauty"}]},{"lat":"37.504454216","long":"126.76849331","imageIndex":13,"items":[{"name":"잇츠미코리아","tel":"032-666-5533","addr":"경기도 부천시 중동 1035-2번지 하나빌딩 401-1호","indutype":"보건위생 - 미용재료","category":"beauty"},{"name":"좋은인연","tel":"032-666-5533","addr":"경기도 부천시 중동 1035-2번지 하나빌딩 104호","indutype":"보건위생 - 화장품","category":"beauty"}]},{"lat":"37.493320537","long":"126.76527147","imageIndex":13,"items":[{"name":"전희선미용실","tel":"032-611-2468","addr":"경기도 부천시 중동 757-2번지","indutype":"보건위생 - 미용원","category":"beauty"}]},{"lat":"37.500207656","long":"126.7809915","imageIndex":13,"items":[{"name":"정유정헤어샵","tel":"032-653-4535","addr":"경기도 부천시 중동 1096-4번지 1층","indutype":"보건위생 - 미용원","category":"beauty"}]},{"lat":"37.493431557","long":"126.76671851","imageIndex":13,"items":[{"name":"제이더블유(JW)헤어","tel":"032-611-0718","addr":"경기도 부천시 중동 752-3번지","indutype":"보건위생 - 미용원","category":"beauty"}]},{"lat":"37.495458312","long":"126.76201927","imageIndex":13,"items":[{"name":"제일미용실","tel":"032-655-2044","addr":"경기도 부천시 중동 685-16번지","indutype":"보건위생 - 미용원","category":"beauty"}]},{"lat":"37.486509653","long":"126.77010971","imageIndex":13,"items":[{"name":"주식회사 에이스제이씨","tel":"","addr":"경기도 부천시 중동 864번지 아이원팰리스 203호","indutype":"보건위생 - 화장품","category":"beauty"}]},{"lat":"37.507008699","long":"126.77549742","imageIndex":13,"items":[{"name":"주식회사 천비궁","tel":"032-325-2282","addr":"경기도 부천시 중동 1060-3번지 6층","indutype":"보건위생 - 화장품","category":"beauty"}]},{"lat":"37.50173684","long":"126.77032256","imageIndex":13,"items":[{"name":"주식회사 코스코치","tel":"031-229-0931","addr":"경기도 부천시 중동 1151-4번지 이스트타워 투 803호","indutype":"보건위생 - 화장품","category":"beauty"}]},{"lat":"37.509623704","long":"126.76291251","imageIndex":13,"items":[{"name":"주연미용실","tel":"032-325-2005","addr":"경기도 부천시 중동 1028","indutype":"보건위생 - 미용원","category":"beauty"},{"name":"피부사랑","tel":"032-329-8183","addr":"경기도 부천시 중동 1028번지 한라주공아 종합상가 206호","indutype":"보건위생 - 피부미용실","category":"beauty"}]},{"lat":"37.487181164","long":"126.76797063","imageIndex":13,"items":[{"name":"주헤어라인","tel":"032-662-4988","addr":"경기도 부천시 중동 853번지 107호,113호","indutype":"보건위생 - 미용원","category":"beauty"}]},{"lat":"37.495430208","long":"126.76594327","imageIndex":13,"items":[{"name":"줄리아속눈썹","tel":"","addr":"경기도 부천시 중동 714-12번지 1층 일부호","indutype":"보건위생 - 피부미용실","category":"beauty"},{"name":"챠밍미용실","tel":"032-665-6170","addr":"경기도 부천시 중동 714-12번지","indutype":"보건위생 - 미용원","category":"beauty"}]},{"lat":"37.497119297","long":"126.76357449","imageIndex":13,"items":[{"name":"중동의료기","tel":"032-613-1852","addr":"경기도 부천시 중동 590-14번지 1층 103호","indutype":"보건위생 - 의료용품","category":"beauty"}]},{"lat":"37.494287946","long":"126.76694197","imageIndex":13,"items":[{"name":"쥬쥬헤어클럽","tel":"032-653-9371","addr":"경기도 부천시 중동 720번지","indutype":"보건위생 - 미용원","category":"beauty"}]},{"lat":"37.502260523","long":"126.77088639","imageIndex":13,"items":[{"name":"지나헤어","tel":"070-4417-1004","addr":"경기도 부천시 중동 1147-12번지 베스트몰빌딩 102호","indutype":"보건위생 - 미용원","category":"beauty"}]},{"lat":"37.493098192","long":"126.76671956","imageIndex":13,"items":[{"name":"지남미장","tel":"032-665-4367","addr":"경기도 부천시 중동 753번지 원진빌딩 2층","indutype":"보건위생 - 미용원","category":"beauty"}]},{"lat":"37.493375557","long":"126.76130226","imageIndex":13,"items":[{"name":"지오지아미용실","tel":"032-611-6979","addr":"경기도 부천시 중동 763-13번지 다빈치하우스 102호","indutype":"보건위생 - 미용원","category":"beauty"}]},{"lat":"37.495541678","long":"126.76313851","imageIndex":13,"items":[{"name":"찬스헤어","tel":"02-1111-1111","addr":"경기도 부천시 중동 684-6번지 1층","indutype":"보건위생 - 미용원","category":"beauty"}]},{"lat":"37.502200442","long":"126.76335471","imageIndex":13,"items":[{"name":"채연스킨","tel":"032-329-2544","addr":"경기도 부천시 중동 1160-1번지 대우마이빌센트럴파크 211호","indutype":"보건위생 - 피부미용실","category":"beauty"}]},{"lat":"37.488068193","long":"126.76549163","imageIndex":13,"items":[{"name":"최숙이 헤어모드","tel":"032-653-6705","addr":"경기도 부천시 중동 809번지 2층 203호","indutype":"보건위생 - 미용원","category":"beauty"}]},{"lat":"37.494398013","long":"126.77249382","imageIndex":13,"items":[{"name":"최재연헤어모드","tel":"032-612-9767","addr":"경기도 부천시 중동 1204-11번지","indutype":"보건위생 - 미용원","category":"beauty"}]},{"lat":"37.495512723","long":"126.76665542","imageIndex":13,"items":[{"name":"츄네일(CHU NAIL)","tel":"032-652-1203","addr":"경기도 부천시 중동 713-4번지 1층 일부","indutype":"보건위생 - 피부미용실","category":"beauty"}]},{"lat":"37.487232732","long":"126.77127207","imageIndex":13,"items":[{"name":"카라웨딩&메이크업","tel":"032-666-7601","addr":"경기도 부천시 중동 794번지","indutype":"보건위생 - 미용원","category":"beauty"}]},{"lat":"37.493898928","long":"126.7706861","imageIndex":13,"items":[{"name":"큐사랑","tel":"032-656-2078","addr":"경기도 부천시 중동 1199번지 1층","indutype":"보건위생 - 화장품","category":"beauty"}]},{"lat":"37.487487725","long":"126.76808274","imageIndex":13,"items":[{"name":"클리아","tel":"032-652-7600","addr":"경기도 부천시 중동 802번지 평화상가 A동 2층","indutype":"보건위생 - 화장품","category":"beauty"},{"name":"토마토헤어","tel":"032-651-4084","addr":"경기도 부천시 중동 802번지 일부 1층","indutype":"보건위생 - 미용원","category":"beauty"}]},{"lat":"37.49286927","long":"126.76488843","imageIndex":13,"items":[{"name":"태이랩","tel":"032-772-3471","addr":"경기도 부천시 중동 769-4번지 하이트뷰 202호","indutype":"보건위생 - 의료용품","category":"beauty"}]},{"lat":"37.4926786","long":"126.7686658","imageIndex":13,"items":[{"name":"토마토헤어","tel":"032-662-1420","addr":"경기도 부천시 중동 774번지 1층","indutype":"보건위생 - 미용원","category":"beauty"}]},{"lat":"37.493844809","long":"126.7616626","imageIndex":13,"items":[{"name":"투쓰리헤어라인","tel":"032-655-5426","addr":"경기도 부천시 중동 761-19번지 일부 1층","indutype":"보건위생 - 미용원","category":"beauty"}]},{"lat":"37.506922106","long":"126.76807844","imageIndex":13,"items":[{"name":"파닉스메디칼","tel":"02-2632-4046","addr":"경기도 부천시 중동 1039번지 은하마을주공1단지아파트 523동 304호","indutype":"보건위생 - 의료용품","category":"beauty"}]},{"lat":"37.494645832","long":"126.76124163","imageIndex":13,"items":[{"name":"하루헤어","tel":"032-663-3533","addr":"경기도 부천시 중동 730-12번지 상도하이츠빌 101호","indutype":"보건위생 - 미용원","category":"beauty"}]},{"lat":"37.504232257","long":"126.77015648","imageIndex":13,"items":[{"name":"하온네일","tel":"032-322-2570","addr":"경기도 부천시 중동 1056-2번지 대일빌딩 202-2호","indutype":"보건위생 - 피부미용실","category":"beauty"}]},{"lat":"37.493431818","long":"126.77604743","imageIndex":13,"items":[{"name":"한국불교여래종백산사","tel":"032-665-2646","addr":"경기도 부천시 중동 1216-14번지","indutype":"보건위생 - 기타대인서비스","category":"beauty"}]},{"lat":"37.4985410252","long":"126.7582775475","imageIndex":13,"items":[{"name":"함지화장품","tel":"032-325-2954","addr":"경기도 부천시 중동 1172번지 아주상가 1층 39호","indutype":"보건위생 - 화장품","category":"beauty"}]},{"lat":"37.493597837","long":"126.7642755","imageIndex":13,"items":[{"name":"해피뷰티크레딧","tel":"032-665-7677","addr":"경기도 부천시 중동 757-12번지 1층","indutype":"보건위생 - 화장품","category":"beauty"}]},{"lat":"37.492761584","long":"126.76510362","imageIndex":13,"items":[{"name":"햇살미용실","tel":"032-662-7670","addr":"경기도 부천시 중동 769-2번지 1층","indutype":"보건위생 - 미용원","category":"beauty"}]},{"lat":"37.496673974","long":"126.76168743","imageIndex":13,"items":[{"name":"행복한안경콘텍트","tel":"032-651-2882","addr":"경기도 부천시 중동 679-5번지 인성프라자 1층","indutype":"보건위생 - 안경","category":"beauty"}]},{"lat":"37.487292531","long":"126.76960978","imageIndex":13,"items":[{"name":"헤어도로시","tel":"032-612-6282","addr":"경기도 부천시 중동 797-21번지 1층","indutype":"보건위생 - 미용원","category":"beauty"}]},{"lat":"37.49440213","long":"126.76547158","imageIndex":13,"items":[{"name":"헤어두(HAIRDO)","tel":"032-611-1107","addr":"경기도 부천시 중동 722번지","indutype":"보건위생 - 미용원","category":"beauty"}]},{"lat":"37.487349217","long":"126.77094381","imageIndex":13,"items":[{"name":"헤어샬롱권스","tel":"032-327-7856","addr":"경기도 부천시 중동 795번지 1층 일부","indutype":"보건위생 - 미용원","category":"beauty"}]},{"lat":"37.506177715","long":"126.77913035","imageIndex":13,"items":[{"name":"헤어오투","tel":"032-672-2051","addr":"경기도 부천시 중동 3-26번지 1층","indutype":"보건위생 - 미용원","category":"beauty"}]},{"lat":"37.49306892","long":"126.76560019","imageIndex":13,"items":[{"name":"헤어지지마","tel":"011-****-****","addr":"경기도 부천시 중동 770-10번지 파인센트럴빌 101호","indutype":"보건위생 - 미용원","category":"beauty"}]},{"lat":"37.486703757","long":"126.7726079","imageIndex":13,"items":[{"name":"헤어퀸미용실","tel":"032-666-4811","addr":"경기도 부천시 중동 793-6번지 1층","indutype":"보건위생 - 미용원","category":"beauty"}]},{"lat":"37.494570445","long":"126.76404625","imageIndex":13,"items":[{"name":"혜빈헤어","tel":"032-668-6656","addr":"경기도 부천시 중동 726-3번지","indutype":"보건위생 - 미용원","category":"beauty"}]},{"lat":"37.495760546","long":"126.76443824","imageIndex":13,"items":[{"name":"화장품마트","tel":"032-661-2477","addr":"경기도 부천시 중동 707-2번지","indutype":"보건위생 - 화장품","category":"beauty"}]},{"lat":"37.492872607","long":"126.76655065","imageIndex":13,"items":[{"name":"황실","tel":"032-655-9244","addr":"경기도 부천시 중동 770-5번지 창신빌딩 5층 502호","indutype":"보건위생 - 미용재료","category":"beauty"}]},{"lat":"37.496291123","long":"126.76393899","imageIndex":13,"items":[{"name":"효소테라피","tel":"032-668-8885","addr":"경기도 부천시 중동 675-13번지 2층","indutype":"보건위생 - 피부미용실","category":"beauty"}]},{"lat":"37.502429194","long":"126.76960793","imageIndex":13,"items":[{"name":"힐링인카페","tel":"032-654-7673","addr":"경기도 부천시 중동 1150-12번지 동아프라자 202호","indutype":"보건위생 - 화장품","category":"beauty"}]},{"lat":"37.495682075","long":"126.76573893","imageIndex":13,"items":[{"name":"힐스템 찜질테라피 부천지점","tel":"032-652-9902","addr":"경기도 부천시 중동 712-10번지 2층","indutype":"보건위생 - 의료용품","category":"beauty"}]}]