[{"lat":"37.483264805","long":"126.78357422","imageIndex":16,"items":[{"name":"(주)한국산업재해연구원","tel":"032-651-0033","addr":"경기도 부천시 심곡본동 552번지 데카에셋빌딩 302동 303호","indutype":"학원 - 기타 교육기관","category":"study"},{"name":"부천바리스타학원","tel":"032-432-1590","addr":"경기도 부천시 심곡본동 552번지 데카에셋빌딩 503호","indutype":"학원 - 기능학원","category":"study"},{"name":"한국외식음료개발원","tel":"032-1800-6288","addr":"경기도 부천시 심곡본동 552번지 데카에셋빌딩 5층 503호","indutype":"학원 - 기능학원","category":"study"}]},{"lat":"37.478204784","long":"126.78066088","imageIndex":16,"items":[{"name":"CEJ 영어수학보습학원","tel":"032-665-6089","addr":"경기도 부천시 심곡본동 697-4번지 2층","indutype":"학원 - 보습학원","category":"study"}]},{"lat":"37.482126279","long":"126.78668672","imageIndex":16,"items":[{"name":"H&T(에이치엔티)나래음악학원","tel":"032-346-8136","addr":"경기도 부천시 심곡본동 747-21,747-23,742-24(2층일부)","indutype":"학원 - 예·체능계학원","category":"study"}]},{"lat":"37.480514287","long":"126.7774658","imageIndex":16,"items":[{"name":"Wien(빈)음악학원","tel":"032-666-8108","addr":"경기도 부천시 심곡본동 603-12번지 2층","indutype":"학원 - 예·체능계학원","category":"study"}]},{"lat":"37.481787183","long":"126.78357854","imageIndex":16,"items":[{"name":"건무관","tel":"032-614-3267","addr":"경기도 부천시 심곡본동 734-18번지","indutype":"학원 - 예·체능계학원","category":"study"}]},{"lat":"37.483510615","long":"126.77538775","imageIndex":16,"items":[{"name":"곧은산 미술교실","tel":"070-8828-4447","addr":"경기도 부천시 심곡본동 560-9번지 부천심곡파라곤 110호","indutype":"학원 - 예·체능계학원","category":"study"}]},{"lat":"37.479572618","long":"126.77504921","imageIndex":16,"items":[{"name":"관우체육관","tel":"032-612-3322","addr":"경기도 부천시 심곡본동 583-6번지 2층","indutype":"회원제형태 - 학원","category":"study"}]},{"lat":"37.481207115","long":"126.78173736","imageIndex":16,"items":[{"name":"관우체육관2관","tel":"032-612-5745","addr":"경기도 부천시 심곡본동 678-15번지","indutype":"학원 - 예·체능계학원","category":"study"},{"name":"꿈꾸는나무보습학원","tel":"032-654-2218","addr":"경기도 부천시 심곡본동 678-15번지 2층","indutype":"학원 - 보습학원","category":"study"}]},{"lat":"37.478870173","long":"126.77522092","imageIndex":16,"items":[{"name":"구스영어보습학원","tel":"032-667-0505","addr":"경기도 부천시 심곡본동 608-15번지 2층","indutype":"학원 - 보습학원","category":"study"}]},{"lat":"37.477961048","long":"126.78041289","imageIndex":16,"items":[{"name":"기토보습학원","tel":"032-655-0707","addr":"경기도 부천시 심곡본동 709-3번지 은하빌딩 2층","indutype":"학원 - 보습학원","category":"study"},{"name":"필립스엑세터쥬니어어학원","tel":"070-9250-4716","addr":"경기도 부천시 심곡본동 709-3번지 은하빌딩 3층","indutype":"학원 - 외국어학원","category":"study"}]},{"lat":"37.478680159","long":"126.77480319","imageIndex":16,"items":[{"name":"노란코끼리","tel":"070-4144-4497","addr":"경기도 부천시 심곡본동 585-1번지 흥일빌딩","indutype":"학원 - 기타 교육기관","category":"study"}]},{"lat":"37.477401278","long":"126.77507841","imageIndex":16,"items":[{"name":"뉴 예본 음악학원","tel":"032-651-2232","addr":"경기도 부천시 심곡본동 623-6번지 2층 일부","indutype":"학원 - 예·체능계학원","category":"study"},{"name":"유엔아이보습학원","tel":"032-655-0545","addr":"경기도 부천시 심곡본동 623-6번지 3층","indutype":"학원 - 보습학원","category":"study"}]},{"lat":"37.47801338","long":"126.77949699","imageIndex":16,"items":[{"name":"대현보습학원","tel":"032-652-9793","addr":"경기도 부천시 심곡본동 701-12번지","indutype":"회원제형태 - 학원","category":"study"}]},{"lat":"37.483235231","long":"126.77743501","imageIndex":16,"items":[{"name":"동녘조리학원","tel":"032-611-6640","addr":"경기도 부천시 심곡본동 589-4번지 3층","indutype":"학원 - 기능학원","category":"study"}]},{"lat":"37.47862793","long":"126.78049005","imageIndex":16,"items":[{"name":"마술피리음악교습소","tel":"","addr":"경기도 부천시 심곡본동 696-13번지 1층","indutype":"학원 - 예·체능계학원","category":"study"}]},{"lat":"37.481989036","long":"126.7855452","imageIndex":16,"items":[{"name":"뮤솔맘보습학원","tel":"032-655-5248","addr":"경기도 부천시 심곡본동 744-11번지 2층","indutype":"학원 - 보습학원","category":"study"}]},{"lat":"37.480265276","long":"126.77918503","imageIndex":16,"items":[{"name":"뮤즈피아노음악학원","tel":"032-612-8105","addr":"경기도 부천시 심곡본동 649번지 3층","indutype":"학원 - 예·체능계학원","category":"study"}]},{"lat":"37.478538286","long":"126.77599071","imageIndex":16,"items":[{"name":"민경호수학보습학원","tel":"032-668-0902","addr":"경기도 부천시 심곡본동 613-3번지 2층","indutype":"학원 - 보습학원","category":"study"}]},{"lat":"37.484149336","long":"126.77487702","imageIndex":16,"items":[{"name":"바보스탁주식회사","tel":"02-1644-4377","addr":"경기도 부천시 심곡본동 527번지 케이씨씨엠파이어타워 A동 1906호","indutype":"회원제형태 - 학원","category":"study"}]},{"lat":"37.476926673","long":"126.78135429","imageIndex":16,"items":[{"name":"부천남부해법영어교습소","tel":"032-655-1105","addr":"경기도 부천시 심곡본동 566-1 극동상가201","indutype":"회원제형태 - 학원","category":"study"}]},{"lat":"37.483148871","long":"126.78421901","imageIndex":16,"items":[{"name":"부천용접직업전문학교","tel":"032-613-0995","addr":"경기도 부천시 심곡본동 552-13번지 선일빌딩 8층","indutype":"회원제형태 - 학원","category":"study"}]},{"lat":"37.482820224","long":"126.78191351","imageIndex":16,"items":[{"name":"부천이용학원","tel":"032-345-8220","addr":"경기도 부천시 심곡본동 674번지 3층","indutype":"학원 - 기능학원","category":"study"}]},{"lat":"37.480904516","long":"126.78865747","imageIndex":16,"items":[{"name":"사회복지법인백십자사","tel":"032-667-7994","addr":"경기도 부천시 심곡본동 523-99","indutype":"학원 - 기타 교육기관","category":"study"}]},{"lat":"37.4786479","long":"126.77677046","imageIndex":16,"items":[{"name":"삼성영어심곡보습학원","tel":"32-227-4627","addr":"경기도 부천시 심곡본동 611-11번지 2층 3층","indutype":"학원 - 보습학원","category":"study"}]},{"lat":"37.480955219","long":"126.78194161","imageIndex":16,"items":[{"name":"삼손태권도","tel":"032-611-1181","addr":"경기도 부천시 심곡본동 730번지 2층","indutype":"학원 - 예·체능계학원","category":"study"}]},{"lat":"37.477343903","long":"126.7780519","imageIndex":16,"items":[{"name":"새반석음악학원","tel":"032-657-6655","addr":"경기도 부천시 심곡본동 626-30번지 3층","indutype":"학원 - 예·체능계학원","category":"study"}]},{"lat":"37.478656785","long":"126.78146224","imageIndex":16,"items":[{"name":"서은실피아노교습소","tel":"070-7563-1535","addr":"경기도 부천시 심곡본동 711번지 1층","indutype":"학원 - 예·체능계학원","category":"study"},{"name":"해동검도 (명지대천지본관)","tel":"032-662-2962","addr":"경기도 부천시 심곡본동 711번지 3층","indutype":"학원 - 예·체능계학원","category":"study"}]},{"lat":"37.483342356","long":"126.7769146","imageIndex":16,"items":[{"name":"성빈센트보육교사교육원","tel":"032-655-0453","addr":"경기도 부천시 심곡본동 589번지 2층","indutype":"회원제형태 - 학원","category":"study"}]},{"lat":"37.484015865","long":"126.77574802","imageIndex":16,"items":[{"name":"세종요리제과제빵학원","tel":"032-271-7174","addr":"경기도 부천시 심곡본동 532-11번지 5층","indutype":"회원제형태 - 학원","category":"study"}]},{"lat":"37.482733683","long":"126.78382451","imageIndex":16,"items":[{"name":"세종통역가이드컴퓨터학원","tel":"032-614-9114","addr":"경기도 부천시 심곡본동 738-20번지 202호","indutype":"학원 - 컴퓨터학원","category":"study"}]},{"lat":"37.477065284","long":"126.7784145","imageIndex":16,"items":[{"name":"소리숲알프레드음악학원","tel":"032-653-3702","addr":"경기도 부천시 심곡본동 706번지 금강 상가 2층","indutype":"회원제형태 - 학원","category":"study"}]},{"lat":"37.480294313","long":"126.78024769","imageIndex":16,"items":[{"name":"스마일에듀테인먼트(smill-edutainment)","tel":"032-232-1389","addr":"경기도 부천시 심곡본동 686-16번지 1층","indutype":"학원 - 기타 교육기관","category":"study"}]},{"lat":"37.482543237","long":"126.783158","imageIndex":16,"items":[{"name":"스케치북미술학원","tel":"032-204-3001","addr":"경기도 부천시 심곡본동 739-1번지 가동 4층","indutype":"학원 - 예·체능계학원","category":"study"}]},{"lat":"37.479486119","long":"126.78168591","imageIndex":16,"items":[{"name":"스펙트럼영어보습학원/주식회사미디어저널","tel":"032-663-3803","addr":"경기도 부천시 심곡본동 723-5번지","indutype":"학원 - 보습학원","category":"study"}]},{"lat":"37.477959149","long":"126.77469233","imageIndex":16,"items":[{"name":"아리미술교습소","tel":"031-664-6833","addr":"경기도 부천시 심곡본동 585-12번지","indutype":"학원 - 예·체능계학원","category":"study"}]},{"lat":"37.477878531","long":"126.77965567","imageIndex":16,"items":[{"name":"아트클래스미술학원","tel":"032-351-8063","addr":"경기도 부천시 심곡본동 701-11번지 3층","indutype":"학원 - 예·체능계학원","category":"study"}]},{"lat":"37.479683765","long":"126.78138007","imageIndex":16,"items":[{"name":"앤더슨파인힐어학원","tel":"032-662-0582","addr":"경기도 부천시 심곡본동 688-2번지 광성빌딩 301호","indutype":"회원제형태 - 학원","category":"study"},{"name":"포인트업독서실","tel":"032-612-2770","addr":"경기도 부천시 심곡본동 688-2번지 광성빌딩 401호","indutype":"학원 - 독서실","category":"study"}]},{"lat":"37.47746187","long":"126.77849245","imageIndex":16,"items":[{"name":"연세대꿈나무태권도","tel":"032-662-4947","addr":"경기도 부천시 심곡본동 703-9번지 아람빌딩 3층","indutype":"학원 - 예·체능계학원","category":"study"}]},{"lat":"37.478070209","long":"126.78096653","imageIndex":16,"items":[{"name":"예성태권도장","tel":"032-655-2412","addr":"경기도 부천시 심곡본동 709번지 206호","indutype":"학원 - 예·체능계학원","category":"study"}]},{"lat":"37.477599277","long":"126.77496476","imageIndex":16,"items":[{"name":"오렌지산소독서실","tel":"032-614-5515","addr":"경기도 부천시 심곡본동 623번지 2층,3층","indutype":"학원 - 독서실","category":"study"}]},{"lat":"37.484481741","long":"126.77437853","imageIndex":16,"items":[{"name":"와이비위너스 에듀","tel":"070-8600-1621","addr":"경기도 부천시 심곡본동 526번지 2층","indutype":"학원 - 기타 교육기관","category":"study"}]},{"lat":"37.478457677","long":"126.780988","imageIndex":16,"items":[{"name":"은수학영어보습학원","tel":"032-611-7043","addr":"경기도 부천시 심곡본동 698-2번지 심곡빌딩 2층","indutype":"학원 - 보습학원","category":"study"}]},{"lat":"37.478066798","long":"126.77915767","imageIndex":16,"items":[{"name":"이엠티씨(ETMC)영수보습학원","tel":"032-651-7046","addr":"경기도 부천시 심곡본동 701-7번지 2층","indutype":"학원 - 보습학원","category":"study"}]},{"lat":"37.477850965","long":"126.77465874","imageIndex":16,"items":[{"name":"이화수학교실","tel":"032-657-2112","addr":"경기도 부천시 심곡본동 585-13 타임아크로빌 203 10/2","indutype":"회원제형태 - 학원","category":"study"}]},{"lat":"37.480928654","long":"126.78219042","imageIndex":16,"items":[{"name":"일등해법보습학원","tel":"032-667-3330","addr":"경기도 부천시 심곡본동 730-3번지 1층","indutype":"학원 - 보습학원","category":"study"}]},{"lat":"37.481044323","long":"126.78140997","imageIndex":16,"items":[{"name":"줄리어드음악학원","tel":"032-667-4549","addr":"경기도 부천시 심곡본동 687-3번지","indutype":"학원 - 예·체능계학원","category":"study"}]},{"lat":"37.478428514","long":"126.77513182","imageIndex":16,"items":[{"name":"지혜중고등영어","tel":"032-651-6133","addr":"경기도 부천시 심곡본동 621-9번지","indutype":"회원제형태 - 학원","category":"study"}]},{"lat":"37.47971143","long":"126.78171916","imageIndex":16,"items":[{"name":"진솔보습학원","tel":"032-613-5980","addr":"경기도 부천시 심곡본동 723-2번지","indutype":"학원 - 기타 교육기관","category":"study"},{"name":"한국교원직업전문학교","tel":"032-876-9938","addr":"경기도 부천시 심곡본동 723-2번지 해창빌딩 3층","indutype":"학원 - 기능학원","category":"study"}]},{"lat":"37.477873284","long":"126.78165675","imageIndex":16,"items":[{"name":"차이랑 심곡본점 중국어교습소","tel":"032-656-2346","addr":"경기도 부천시 심곡본동 562-115번지 태경삼익아파트 103호","indutype":"학원 - 외국어학원","category":"study"}]},{"lat":"37.478765029","long":"126.77677011","imageIndex":16,"items":[{"name":"케이원보습학원","tel":"032-662-5900","addr":"경기도 부천시 심곡본동 611-10번지 2층","indutype":"학원 - 보습학원","category":"study"}]},{"lat":"37.479176662","long":"126.77529913","imageIndex":16,"items":[{"name":"탑(TOP)비젼보습학원","tel":"032-654-7721","addr":"경기도 부천시 심곡본동 608-12번지 2층","indutype":"학원 - 보습학원","category":"study"}]},{"lat":"37.481765792","long":"126.78176964","imageIndex":16,"items":[{"name":"태풍보습학원","tel":"032-668-4936","addr":"경기도 부천시 심곡본동 678-4번지 2층","indutype":"학원 - 보습학원","category":"study"}]},{"lat":"37.481121537","long":"126.77935207","imageIndex":16,"items":[{"name":"태풍체육관","tel":"032-666-4936","addr":"경기도 부천시 심곡본동 657-6번지 2층","indutype":"학원 - 예·체능계학원","category":"study"}]},{"lat":"37.47898807","long":"126.78035331","imageIndex":16,"items":[{"name":"피렌체음악학원","tel":"032-654-5863","addr":"경기도 부천시 심곡본동 695-9번지 1층","indutype":"학원 - 예·체능계학원","category":"study"}]},{"lat":"37.478069185","long":"126.77568688","imageIndex":16,"items":[{"name":"하늘공부방","tel":"070-7370-0304","addr":"경기도 부천시 심곡본동 618번지 2층","indutype":"회원제형태 - 학원","category":"study"}]},{"lat":"37.477293485","long":"126.77524832","imageIndex":16,"items":[{"name":"하버드독서실","tel":"032-611-6887","addr":"경기도 부천시 심곡본동 630-23번지","indutype":"학원 - 독서실","category":"study"}]},{"lat":"37.475678925","long":"126.7743262","imageIndex":16,"items":[{"name":"한울음악학원","tel":"032-657-7003","addr":"경기도 부천시 심곡본동 811번지","indutype":"학원 - 기타 교육기관","category":"study"}]}]