[{"lat":"37.410965606","long":"126.91164899","imageIndex":17,"items":[{"name":"(주)건축사사무소 백향목","tel":"031-471-2052","addr":"경기도 안양시 만안구 석수동 325-11번지","indutype":"용역 서비스 - 사무서비스","category":"other"},{"name":"벨로드","tel":"070-7786-3606","addr":"경기도 안양시 만안구 석수동 325-11번지","indutype":"직물 - 옷감·직물","category":"other"},{"name":"수엔텍","tel":"031-473-7403","addr":"경기도 안양시 만안구 석수동 325-11번지","indutype":"기타 - 기계공구","category":"other"},{"name":"한중무역 (K&C Trading)","tel":"","addr":"경기도 안양시 만안구 석수동 325-11번지","indutype":"신변잡화 - 액세서리","category":"other"}]},{"lat":"37.416165557","long":"126.91314508","imageIndex":17,"items":[{"name":"(주)공드린라이프","tel":"031-474-8253","addr":"경기도 안양시 만안구 석수동 178-6번지","indutype":"용역 서비스 - 가례서비스업","category":"other"}]},{"lat":"37.419606044","long":"126.92387284","imageIndex":17,"items":[{"name":"(주)근영종합개발","tel":"031-474-5555","addr":"경기도 안양시 만안구 석수동 825-1번지","indutype":"건축자재 - 부동산 분양","category":"other"},{"name":"(주)와이케이동그라미 안양지점","tel":"031-471-6610","addr":"경기도 안양시 만안구 석수동 825-1번지","indutype":"기타의료기관 - 산후조리원","category":"other"},{"name":"주식회사엘에이에치","tel":"031-474-5555","addr":"경기도 안양시 만안구 석수동 825-1번지","indutype":"회원제형태 - 레져업소","category":"other"},{"name":"초록동산","tel":"02-1600-0766","addr":"경기도 안양시 만안구 석수동 825-1번지","indutype":"용역 서비스 - 종합용역","category":"other"}]},{"lat":"37.415604624","long":"126.91015228","imageIndex":17,"items":[{"name":"(주)대길전기통신","tel":"031-473-1842","addr":"경기도 안양시 만안구 석수동 274-18번지","indutype":"용역 서비스 - 기타용역서비스","category":"other"}]},{"lat":"37.407325434","long":"126.90051668","imageIndex":17,"items":[{"name":"(주)더나누기","tel":"031-742-8781","addr":"경기도 안양시 만안구 석수동 788-1번지","indutype":"용역 서비스 - 사무서비스","category":"other"},{"name":"아트빌","tel":"031-447-7496","addr":"경기도 안양시 만안구 석수동 788-1번지","indutype":"건축자재 - 기타건축자재","category":"other"}]},{"lat":"37.41119006","long":"126.91062084","imageIndex":17,"items":[{"name":"(주)에쓰아이","tel":"031-472-2649","addr":"경기도 안양시 만안구 석수동 317번지","indutype":"기타 - 기계공구","category":"other"},{"name":"세븐일레븐안양대교점","tel":"031-1577-0711","addr":"경기도 안양시 만안구 석수동 317번지","indutype":"유통업 영리 - 편 의 점","category":"other"}]},{"lat":"37.424490527","long":"126.91272844","imageIndex":17,"items":[{"name":"(주)우양테크","tel":"031-472-3680","addr":"경기도 안양시 만안구 석수동 61번지","indutype":"기타 - 기타 전문점","category":"other"}]},{"lat":"37.410749495","long":"126.91181869","imageIndex":17,"items":[{"name":"(주)웅진상사","tel":"031-73-1133","addr":"경기도 안양시 만안구 석수동 325-13번지","indutype":"전기제품 - 가전제품","category":"other"},{"name":"고구려방재(주)","tel":"031-473-4911","addr":"경기도 안양시 만안구 석수동 325-13번지","indutype":"용역 서비스 - 기타용역서비스","category":"other"}]},{"lat":"37.428331073","long":"126.90428422","imageIndex":17,"items":[{"name":"(주)정현금속","tel":"031-473-5100","addr":"경기도 안양시 만안구 석수동 392-11번지","indutype":"기타 - 기계공구","category":"other"}]},{"lat":"37.435879043","long":"126.90140434","imageIndex":17,"items":[{"name":"(주)효성펌프테크","tel":"","addr":"경기도 안양시 만안구 석수동 356-3번지","indutype":"기타 - 기계공구","category":"other"}]},{"lat":"37.410357947","long":"126.90662332","imageIndex":17,"items":[{"name":"CEN스포츠","tel":"031-387-9005","addr":"경기도 안양시 만안구 석수동 294-6번지","indutype":"레져용품 - 스포츠·레져용품","category":"other"}]},{"lat":"37.421549984","long":"126.90854078","imageIndex":17,"items":[{"name":"EM 지구를 살리는사람들","tel":"031-123-4567","addr":"경기도 안양시 만안구 석수동 101-60번지","indutype":"신변잡화 - 기타잡화","category":"other"},{"name":"무진향","tel":"031-470-3118","addr":"경기도 안양시 만안구 석수동 101-60번지","indutype":"회원제형태 - 서적","category":"other"}]},{"lat":"37.415858178","long":"126.91178991","imageIndex":17,"items":[{"name":"GS25안양대림점","tel":"","addr":"경기도 안양시 만안구 석수동 183-45번지","indutype":"유통업 영리 - 편 의 점","category":"other"}]},{"lat":"37.415775218","long":"126.90939523","imageIndex":17,"items":[{"name":"GS25안양무림점","tel":"","addr":"경기도 안양시 만안구 석수동 275-2번지","indutype":"유통업 영리 - 편 의 점","category":"other"}]},{"lat":"37.42240855","long":"126.91187235","imageIndex":17,"items":[{"name":"GS25안양삼막타운","tel":"","addr":"경기도 안양시 만안구 석수동 94번지","indutype":"유통업 영리 - 편 의 점","category":"other"}]},{"lat":"37.433853765","long":"126.90373463","imageIndex":17,"items":[{"name":"GS25안양석수역점","tel":"","addr":"경기도 안양시 만안구 석수동 374-12번지","indutype":"유통업 영리 - 편 의 점","category":"other"},{"name":"숨쉬는공방","tel":"","addr":"경기도 안양시 만안구 석수동 374-12번지","indutype":"신변잡화 - 기타잡화","category":"other"},{"name":"우리집공인중개사","tel":"031-471-6501","addr":"경기도 안양시 만안구 석수동 374-12번지","indutype":"용역 서비스 - 부동산 중개·임대","category":"other"}]},{"lat":"37.415162446","long":"126.90928303","imageIndex":17,"items":[{"name":"GnB영어전문교육","tel":"031-474-9557","addr":"경기도 안양시 만안구 석수동 274-48번지","indutype":"회원제형태 - 서적","category":"other"}]},{"lat":"37.423491719","long":"126.91445812","imageIndex":17,"items":[{"name":"Go Too Shop","tel":"070-7560-1411","addr":"경기도 안양시 만안구 석수동 산49-3번지","indutype":"회원제형태 - 기타4","category":"other"}]},{"lat":"37.414053436","long":"126.90831297","imageIndex":17,"items":[{"name":"HD현대광고기획","tel":"031-473-9608","addr":"경기도 안양시 만안구 석수동 281-4번지","indutype":"용역 서비스 - 종합용역","category":"other"},{"name":"알레프(aleph coperation)","tel":"031-687-8797","addr":"경기도 안양시 만안구 석수동 281-4번지","indutype":"신변잡화 - 기타잡화","category":"other"},{"name":"주식회사육송이엔지","tel":"031-474-4751","addr":"경기도 안양시 만안구 석수동 281-4번지","indutype":"건축자재 - 기타건축자재","category":"other"},{"name":"한일상사","tel":"031-471-0044","addr":"경기도 안양시 만안구 석수동 281-4번지","indutype":"수리서비스 - 기타수리서비스","category":"other"},{"name":"현대기획","tel":"031-473-5008","addr":"경기도 안양시 만안구 석수동 281-4번지","indutype":"용역 서비스 - 종합용역","category":"other"}]},{"lat":"37.414332058","long":"126.90745413","imageIndex":17,"items":[{"name":"KD케미칼","tel":"031-474-1125","addr":"경기도 안양시 만안구 석수동","indutype":"신변잡화 - 기타잡화","category":"other"}]},{"lat":"37.411746682","long":"126.90808996","imageIndex":17,"items":[{"name":"LG공인중개사사무소","tel":"031-473-5050","addr":"경기도 안양시 만안구 석수동","indutype":"용역 서비스 - 부동산 중개·임대","category":"other"}]},{"lat":"37.412827087","long":"126.90709458","imageIndex":17,"items":[{"name":"SHT산업","tel":"02-808-4544","addr":"경기도 안양시 만안구 석수동 291-1번지","indutype":"용역 서비스 - 사무서비스","category":"other"}]},{"lat":"37.417133891","long":"126.90708909","imageIndex":17,"items":[{"name":"TMI","tel":"031-474-8245","addr":"경기도 안양시 만안구 석수동 265-11번지","indutype":"레져용품 - 스포츠·레져용품","category":"other"}]},{"lat":"37.412359483","long":"126.90823603","imageIndex":17,"items":[{"name":"가 도어락","tel":"031-473-5999","addr":"경기도 안양시 만안구 석수동 289-19번지 다미안","indutype":"수리서비스 - 기타수리서비스","category":"other"}]},{"lat":"37.406909074","long":"126.89834865","imageIndex":17,"items":[{"name":"강남공인중개사무소","tel":"031-471-0040","addr":"경기도 안양시 만안구 석수동 785-29번지","indutype":"용역 서비스 - 부동산 중개·임대","category":"other"},{"name":"뚱보신발","tel":"031-472-8961","addr":"경기도 안양시 만안구 석수동 785-29번지","indutype":"신변잡화 - 신발","category":"other"}]},{"lat":"37.424274312","long":"126.91276259","imageIndex":17,"items":[{"name":"개맘대로(행복이랑 장수랑 신나게)","tel":"","addr":"경기도 안양시 만안구 석수동 63-3번지","indutype":"문화.취미 - 애완동물","category":"other"}]},{"lat":"37.421298251","long":"126.90923021","imageIndex":17,"items":[{"name":"건형ENG","tel":"031-474-7728","addr":"경기도 안양시 만안구 석수동 101-8번지","indutype":"용역 서비스 - 기타용역서비스","category":"other"}]},{"lat":"37.409693762","long":"126.90982071","imageIndex":17,"items":[{"name":"고투엔터테인먼트","tel":"","addr":"경기도 안양시 만안구 석수동 298-24번지","indutype":"용역 서비스 - 종합용역","category":"other"}]},{"lat":"37.406999543","long":"126.89876643","imageIndex":17,"items":[{"name":"골드 주얼리","tel":"031-471-8940","addr":"경기도 안양시 만안구 석수동 785-26번지","indutype":"신변잡화 - 귀금속","category":"other"}]},{"lat":"37.407249397","long":"126.89604403","imageIndex":17,"items":[{"name":"골드라인애드","tel":"031-445-0404","addr":"경기도 안양시 만안구 석수동 757-5번지 골든빌라","indutype":"건축자재 - 인테리어전문","category":"other"}]},{"lat":"37.420527566","long":"126.9277015","imageIndex":17,"items":[{"name":"공간 생","tel":"","addr":"경기도 안양시 만안구 석수동 831번지","indutype":"용역 서비스 - 사무서비스","category":"other"}]},{"lat":"37.427821884","long":"126.89888448","imageIndex":17,"items":[{"name":"공방애","tel":"070-4107-8451","addr":"경기도 안양시 만안구 석수동 473-15번지","indutype":"가구 - 일반가구","category":"other"}]},{"lat":"37.428528136","long":"126.9029056","imageIndex":17,"items":[{"name":"공항밴 서비스","tel":"","addr":"경기도 안양시 만안구 석수동 484-8번지 석수엘지빌리지","indutype":"여행 - 기타교통수단","category":"other"}]},{"lat":"37.409808938","long":"126.90736951","imageIndex":17,"items":[{"name":"관악열쇠","tel":"","addr":"경기도 안양시 만안구 석수동 296번지 럭키아파트","indutype":"수리서비스 - 기타수리서비스","category":"other"}]},{"lat":"37.416658364","long":"126.90959747","imageIndex":17,"items":[{"name":"관악지물포","tel":"031-471-3228","addr":"경기도 안양시 만안구 석수동 268-46번지","indutype":"직물 - 카페트,커튼,천막,지물","category":"other"}]},{"lat":"37.406800533","long":"126.89787442","imageIndex":17,"items":[{"name":"광명전기","tel":"031-471-4955","addr":"경기도 안양시 만안구 석수동 785-10번지","indutype":"전기제품 - 기타전기제품","category":"other"}]},{"lat":"37.41652246","long":"126.90864875","imageIndex":17,"items":[{"name":"광성프린테크(주)","tel":"02-2285-2042","addr":"경기도 안양시 만안구 석수동 275-1번지 현대아파트","indutype":"서적문구 - 출판 및 인쇄물","category":"other"},{"name":"미즈포스","tel":"031-473-8254","addr":"경기도 안양시 만안구 석수동 275-1번지 현대아파트","indutype":"사무통신 - 통신기기","category":"other"},{"name":"인피니티","tel":"031-471-2786","addr":"경기도 안양시 만안구 석수동 275-1번지","indutype":"수리서비스 - 세탁소","category":"other"},{"name":"잉크블루","tel":"031-473-3838","addr":"경기도 안양시 만안구 석수동","indutype":"사무통신 - 기타 사무용품","category":"other"},{"name":"현대 토탈인테리어","tel":"063-284-0477","addr":"경기도 안양시 만안구 석수동 275-1번지","indutype":"건축자재 - 인테리어전문","category":"other"},{"name":"현대문구","tel":"031-474-1919","addr":"경기도 안양시 만안구 석수동","indutype":"서적문구 - 문구용품","category":"other"}]},{"lat":"37.418441185","long":"126.90812671","imageIndex":17,"items":[{"name":"그랜드가구","tel":"031-471-7120","addr":"경기도 안양시 만안구 석수동 262-13번지","indutype":"가구 - 일반가구","category":"other"}]},{"lat":"37.412466032","long":"126.90629305","imageIndex":17,"items":[{"name":"그린그린티룸","tel":"","addr":"경기도 안양시 만안구 석수동 292-5번지","indutype":"문화.취미 - 문화취미기타","category":"other"}]},{"lat":"37.406826067","long":"126.89620276","imageIndex":17,"items":[{"name":"그린양복점","tel":"031-72-0381","addr":"경기도 안양시 만안구 석수동 761-6번지","indutype":"의류 - 맞춤복점","category":"other"}]},{"lat":"37.405549991","long":"126.89998825","imageIndex":17,"items":[{"name":"그림애드","tel":"031-444-7889","addr":"경기도 안양시 만안구 석수동 792번지","indutype":"용역 서비스 - 종합용역","category":"other"}]},{"lat":"37.433684049","long":"126.90550877","imageIndex":17,"items":[{"name":"그림일기","tel":"031-345-5731","addr":"경기도 안양시 만안구 석수동 375-1번지","indutype":"주방용구 - 주방용식기","category":"other"},{"name":"한양인","tel":"031-472-0131","addr":"경기도 안양시 만안구 석수동 375-1번지","indutype":"주방용구 - 기타주방용구","category":"other"}]},{"lat":"37.426429494","long":"126.90373313","imageIndex":17,"items":[{"name":"글로벌 한GLO","tel":"","addr":"경기도 안양시 만안구 석수동 485-8번지 안양석수하우스토리아파트","indutype":"서적문구 - 기타서적문구","category":"other"}]},{"lat":"37.417856262","long":"126.90904246","imageIndex":17,"items":[{"name":"금강스튜디오","tel":"031-471-4281","addr":"경기도 안양시 만안구 석수동","indutype":"광학제품 - 사진관","category":"other"},{"name":"동이애견","tel":"031-472-8281","addr":"경기도 안양시 만안구 석수동 267-27번지","indutype":"문화.취미 - 애완동물","category":"other"},{"name":"에코전기조명","tel":"031-346-2333","addr":"경기도 안양시 만안구 석수동 267-27번지","indutype":"건축자재 - 조명기구","category":"other"},{"name":"코스모스시스템","tel":"031-472-8335","addr":"경기도 안양시 만안구 석수동 267-27번지","indutype":"사무통신 - 컴퓨터","category":"other"}]},{"lat":"37.427774692","long":"126.89647808","imageIndex":17,"items":[{"name":"금영상사","tel":"02-804-8282","addr":"경기도 안양시 만안구 석수동 706-52번지","indutype":"기타 - 기계공구","category":"other"}]},{"lat":"37.411943061","long":"126.90581931","imageIndex":17,"items":[{"name":"금호사","tel":"031-461-1173","addr":"경기도 안양시 만안구 석수동 315-21번지","indutype":"용역 서비스 - 기타용역서비스","category":"other"}]},{"lat":"37.433572904","long":"126.9019046","imageIndex":17,"items":[{"name":"기손아로마피부관리","tel":"031-472-5350","addr":"경기도 안양시 만안구 석수동 424번지","indutype":"회원제형태 - 기타4","category":"other"},{"name":"크린토피아 안양석수동점","tel":"031-471-9598","addr":"경기도 안양시 만안구 석수동 424번지","indutype":"수리서비스 - 세탁소","category":"other"}]},{"lat":"37.413386891","long":"126.90856231","imageIndex":17,"items":[{"name":"꽃님이네","tel":"031-471-3405","addr":"경기도 안양시 만안구 석수동 280-7번지","indutype":"직물 - 침구·수예점","category":"other"}]},{"lat":"37.42144292","long":"126.90987396","imageIndex":17,"items":[{"name":"꽃들의이야기","tel":"031-471-0720","addr":"경기도 안양시 만안구 석수동 101-2번지","indutype":"문화.취미 - 화원","category":"other"},{"name":"들꽃향기","tel":"070-8962-0117","addr":"경기도 안양시 만안구 석수동 101-2번지","indutype":"문화.취미 - 화원","category":"other"}]},{"lat":"37.40657616","long":"126.89886867","imageIndex":17,"items":[{"name":"꽃들이랑","tel":"031-473-1688","addr":"경기도 안양시 만안구 석수동 783번지","indutype":"문화.취미 - 화원","category":"other"},{"name":"오나르","tel":"031-472-6421","addr":"경기도 안양시 만안구 석수동 783번지","indutype":"의류 - 정장","category":"other"}]},{"lat":"37.413658559","long":"126.91029023","imageIndex":17,"items":[{"name":"나무","tel":"","addr":"경기도 안양시 만안구 석수동 271-31번지","indutype":"의류 - 정장","category":"other"}]},{"lat":"37.416275529","long":"126.91561882","imageIndex":17,"items":[{"name":"나우그래픽","tel":"031-474-8241","addr":"경기도 안양시 만안구 석수동 199-24번지","indutype":"용역 서비스 - 종합용역","category":"other"}]},{"lat":"37.408329866","long":"126.89522926","imageIndex":17,"items":[{"name":"남양엔지니어링","tel":"031-472-8872","addr":"경기도 안양시 만안구 석수동 750-10번지","indutype":"전기제품 - 냉열기기","category":"other"}]},{"lat":"37.417303553","long":"126.91681504","imageIndex":17,"items":[{"name":"네모의미학경기지사","tel":"031-471-0405","addr":"경기도 안양시 만안구 석수동 210-23번지","indutype":"용역 서비스 - 종합용역","category":"other"}]},{"lat":"37.413438339","long":"126.90534296","imageIndex":17,"items":[{"name":"넷피플","tel":"070-7532-4434","addr":"경기도 안양시 만안구 석수동 350-17번지","indutype":"용역 서비스 - 종합용역","category":"other"}]},{"lat":"37.418324587","long":"126.90879335","imageIndex":17,"items":[{"name":"뉴대호공인중개사사무소","tel":"031-474-5900","addr":"경기도 안양시 만안구 석수동 267-11번지","indutype":"용역 서비스 - 부동산 중개·임대","category":"other"}]},{"lat":"37.432518151","long":"126.9012281","imageIndex":17,"items":[{"name":"뉴욕티파니","tel":"031-474-5689","addr":"경기도 안양시 만안구 석수동","indutype":"의류 - 정장","category":"other"}]},{"lat":"37.412638095","long":"126.90736591","imageIndex":17,"items":[{"name":"다성철물","tel":"031-471-4624","addr":"경기도 안양시 만안구 석수동 291-6번지","indutype":"건축자재 - 목재·석재·철물","category":"other"},{"name":"세일세일타운","tel":"031-471-7116","addr":"경기도 안양시 만안구 석수동 291-6번지","indutype":"의류 - 정장","category":"other"}]},{"lat":"37.419493281","long":"126.91720791","imageIndex":17,"items":[{"name":"다세한","tel":"031-348-8904","addr":"경기도 안양시 만안구 석수동 221-14번지","indutype":"전기제품 - 냉열기기","category":"other"}]},{"lat":"37.407025905","long":"126.89800964","imageIndex":17,"items":[{"name":"다이소","tel":"031-471-6064","addr":"경기도 안양시 만안구 석수동 785-12번지","indutype":"신변잡화 - 기타잡화","category":"other"},{"name":"석수아동복","tel":"031-3-0650","addr":"경기도 안양시 만안구 석수동 785-12번지","indutype":"의류 - 아동의류","category":"other"}]},{"lat":"37.405306088","long":"126.89926574","imageIndex":17,"items":[{"name":"다해디자인","tel":"031-382-1377","addr":"경기도 안양시 만안구 석수동 777-11번지 선일빌라","indutype":"건축자재 - 인테리어전문","category":"other"}]},{"lat":"37.407214351","long":"126.89715097","imageIndex":17,"items":[{"name":"닥터PC","tel":"031-387-7770","addr":"경기도 안양시 만안구 석수동 759번지","indutype":"사무통신 - 컴퓨터","category":"other"}]},{"lat":"37.433539562","long":"126.9051135","imageIndex":17,"items":[{"name":"달덩이마켓","tel":"","addr":"경기도 안양시 만안구 석수동 374-5번지 석수역푸르지오아파트","indutype":"신변잡화 - 액세서리","category":"other"}]},{"lat":"37.414913893","long":"126.91411803","imageIndex":17,"items":[{"name":"대림문구","tel":"031-471-0520","addr":"경기도 안양시 만안구 석수동 182-2번지","indutype":"서적문구 - 문구용품","category":"other"},{"name":"크린나라 이편안점","tel":"031-474-1202","addr":"경기도 안양시 만안구 석수동 182-2번지","indutype":"수리서비스 - 세탁소","category":"other"},{"name":"하우스터디 안양석수스터디카페","tel":"031-454-2233","addr":"경기도 안양시 만안구 석수동 182-2번지","indutype":"용역 서비스 - 사무서비스","category":"other"}]},{"lat":"37.41643626","long":"126.91367568","imageIndex":17,"items":[{"name":"대림전기조명","tel":"031-471-7400","addr":"경기도 안양시 만안구 석수동 177-6번지","indutype":"건축자재 - 조명기구","category":"other"},{"name":"삼예인터디자인","tel":"031-474-1577","addr":"경기도 안양시 만안구 석수동 177-6번지","indutype":"건축자재 - 인테리어전문","category":"other"},{"name":"스위트 하트 도그","tel":"031-471-5005","addr":"경기도 안양시 만안구 석수동 177-6번지","indutype":"문화.취미 - 애완동물","category":"other"},{"name":"칠일공사","tel":"031-473-7104","addr":"경기도 안양시 만안구 석수동 177-6번지","indutype":"건축자재 - 페인트","category":"other"},{"name":"한우리","tel":"031-341-0991","addr":"경기도 안양시 만안구 석수동 177-6번지","indutype":"회원제형태 - 서적","category":"other"}]},{"lat":"37.412745362","long":"126.90631528","imageIndex":17,"items":[{"name":"대성 OA 솔루션","tel":"031-474-2709","addr":"경기도 안양시 만안구 석수동 292-15번지 원진아파트","indutype":"사무통신 - 사무용 OA기기","category":"other"}]},{"lat":"37.418026542","long":"126.9079013","imageIndex":17,"items":[{"name":"대신","tel":"031-474-4007","addr":"경기도 안양시 만안구 석수동 263-9번지","indutype":"신변잡화 - 기타잡화","category":"other"},{"name":"모두모아","tel":"070-5123-9159","addr":"경기도 안양시 만안구 석수동 263-9번지","indutype":"직물 - 침구·수예점","category":"other"}]},{"lat":"37.417326555","long":"126.91144924","imageIndex":17,"items":[{"name":"대아세탁소","tel":"031-474-7433","addr":"경기도 안양시 만안구 석수동 168-4번지","indutype":"수리서비스 - 세탁소","category":"other"},{"name":"베스트골프연습장","tel":"031-471-3635","addr":"경기도 안양시 만안구 석수동 168-4번지","indutype":"회원제형태 - 레져업소","category":"other"},{"name":"황실유럽자수 (석수점)","tel":"031-447-6040","addr":"경기도 안양시 만안구 석수동 168-4번지","indutype":"직물 - 침구·수예점","category":"other"}]},{"lat":"37.416137577","long":"126.91190253","imageIndex":17,"items":[{"name":"대영상사","tel":"031-472-6318","addr":"경기도 안양시 만안구 석수동 180-5번지","indutype":"주방용구 - 주방용구","category":"other"}]},{"lat":"37.4112724","long":"126.91223599","imageIndex":17,"items":[{"name":"대우컴퓨터랜드","tel":"031-472-2031","addr":"경기도 안양시 만안구 석수동 324-16번지","indutype":"사무통신 - 컴퓨터","category":"other"}]},{"lat":"37.413858051","long":"126.91192788","imageIndex":17,"items":[{"name":"대한공조기계","tel":"031-472-4640","addr":"경기도 안양시 만안구 석수동 321-20번지","indutype":"전기제품 - 냉열기기","category":"other"}]},{"lat":"37.413659464","long":"126.9114537","imageIndex":17,"items":[{"name":"대한아이앤에스","tel":"031-473-7523","addr":"경기도 안양시 만안구 석수동 321-1번지","indutype":"사무통신 - 기타 사무용품","category":"other"}]},{"lat":"37.407215835","long":"126.89882261","imageIndex":17,"items":[{"name":"대한예수교장로회길교회(VC)","tel":"031-474-5333","addr":"경기도 안양시 만안구 석수동 785-19번지","indutype":"기타 - 비영리/대상","category":"other"},{"name":"베이글","tel":"031-473-3979","addr":"경기도 안양시 만안구 석수동 785-19번지","indutype":"의류 - 정장","category":"other"}]},{"lat":"37.412217681","long":"126.91122954","imageIndex":17,"items":[{"name":"대한종합건축전기공사","tel":"031-472-8276","addr":"경기도 안양시 만안구 석수동 320-24번지","indutype":"건축자재 - 보일러·펌프·샷시","category":"other"}]},{"lat":"37.432573828","long":"126.90312619","imageIndex":17,"items":[{"name":"대한종합목재","tel":"031-473-5151","addr":"경기도 안양시 만안구 석수동 368-3번지","indutype":"건축자재 - 목재·석재·철물","category":"other"},{"name":"명성목재","tel":"031-473-8988","addr":"경기도 안양시 만안구 석수동 368-3번지","indutype":"건축자재 - 목재·석재·철물","category":"other"}]},{"lat":"37.418415971","long":"126.91041993","imageIndex":17,"items":[{"name":"대화","tel":"031-237-1404","addr":"경기도 안양시 만안구 석수동 110-20번지 안양석수대주파크빌","indutype":"직물 - 카페트,커튼,천막,지물","category":"other"}]},{"lat":"37.415291367","long":"126.91286372","imageIndex":17,"items":[{"name":"더 릭스 (The Rick's)","tel":"031-472-4849","addr":"경기도 안양시 만안구 석수동 182-2번지 석수e-편한세상아파트","indutype":"광학제품 - 사진관","category":"other"}]},{"lat":"37.411388149","long":"126.91045116","imageIndex":17,"items":[{"name":"더끌린통신","tel":"070-7539-9547","addr":"경기도 안양시 만안구 석수동 318-13번지","indutype":"사무통신 - 통신기기","category":"other"},{"name":"이화결혼상담소,쑥좌훈방","tel":"031-472-2033","addr":"경기도 안양시 만안구 석수동 318-13번지","indutype":"회원제형태 - 기타4","category":"other"}]},{"lat":"37.410110102","long":"126.91223739","imageIndex":17,"items":[{"name":"덕성건축설비공사","tel":"031-473-3646","addr":"경기도 안양시 만안구 석수동 326-17번지","indutype":"용역 서비스 - 종합용역","category":"other"},{"name":"예쁜꽃","tel":"031-471-8331","addr":"경기도 안양시 만안구 석수동 326-17번지","indutype":"문화.취미 - 화원","category":"other"},{"name":"임마누엘인쇄문구백화점","tel":"031-472-7374","addr":"경기도 안양시 만안구 석수동 326-17번지","indutype":"서적문구 - 문구용품","category":"other"}]},{"lat":"37.41369279","long":"126.90800844","imageIndex":17,"items":[{"name":"덕영설비","tel":"","addr":"경기도 안양시 만안구 석수동 286-5번지","indutype":"건축자재 - 인테리어전문","category":"other"}]},{"lat":"37.411407186","long":"126.91176141","imageIndex":17,"items":[{"name":"덴덴 컴퍼니","tel":"070-7867-4016","addr":"경기도 안양시 만안구 석수동 325-4번지 그린파크빌라","indutype":"서적문구 - 완구점","category":"other"}]},{"lat":"37.41741468","long":"126.90893004","imageIndex":17,"items":[{"name":"동경전파사","tel":"031-472-4429","addr":"경기도 안양시 만안구 석수동 268-1번지","indutype":"용역 서비스 - 기타용역서비스","category":"other"},{"name":"열린상사","tel":"031-348-5242","addr":"경기도 안양시 만안구 석수동 268-1번지","indutype":"신변잡화 - 기타잡화","category":"other"},{"name":"행운전기조명인테리어","tel":"031-444-9886","addr":"경기도 안양시 만안구 석수동 268-1번지","indutype":"건축자재 - 조명기구","category":"other"}]},{"lat":"37.405611255","long":"126.89793255","imageIndex":17,"items":[{"name":"동아철물","tel":"031-471-5609","addr":"경기도 안양시 만안구 석수동 764-9번지","indutype":"기타 - 기계공구","category":"other"}]},{"lat":"37.411800115","long":"126.9073105","imageIndex":17,"items":[{"name":"동양지물상사","tel":"031-474-8500","addr":"경기도 안양시 만안구 석수동 290-12번지","indutype":"직물 - 카페트,커튼,천막,지물","category":"other"},{"name":"신라주단","tel":"02-899-8719","addr":"경기도 안양시 만안구 석수동 290-12번지","indutype":"직물 - 침구·수예점","category":"other"}]},{"lat":"37.417996922","long":"126.91626072","imageIndex":17,"items":[{"name":"두드림나무공방","tel":"070-8116-5150","addr":"경기도 안양시 만안구 석수동 218-7번지","indutype":"문화.취미 - 민예·공예품","category":"other"}]},{"lat":"37.408169901","long":"126.89769179","imageIndex":17,"items":[{"name":"둥이공조","tel":"","addr":"경기도 안양시 만안구 석수동 786번지 석수코오롱하늘채","indutype":"용역 서비스 - 기타용역서비스","category":"other"}]},{"lat":"37.423824777","long":"126.91403973","imageIndex":17,"items":[{"name":"둥지스튜디오","tel":"031-472-2242","addr":"경기도 안양시 만안구 석수동 157-1번지","indutype":"광학제품 - 사진관","category":"other"}]},{"lat":"37.428077098","long":"126.90227351","imageIndex":17,"items":[{"name":"드림열쇠","tel":"031-474-7444","addr":"경기도 안양시 만안구 석수동 484-8번지 석수엘지빌리지","indutype":"수리서비스 - 기타수리서비스","category":"other"}]},{"lat":"37.416075858","long":"126.91367611","imageIndex":17,"items":[{"name":"디에치모바일","tel":"031-342-7793","addr":"경기도 안양시 만안구 석수동 178-3번지","indutype":"사무통신 - 통신기기","category":"other"}]},{"lat":"37.417692477","long":"126.9070432","imageIndex":17,"items":[{"name":"디자인두","tel":"02-2272-3556","addr":"경기도 안양시 만안구 석수동 265-1번지","indutype":"용역 서비스 - 사무서비스","category":"other"}]},{"lat":"37.429751313","long":"126.90035058","imageIndex":17,"items":[{"name":"라임애드","tel":"02-2261-0775","addr":"경기도 안양시 만안구 석수동 415-1번지 석수엘지빌리지","indutype":"서적문구 - 출판 및 인쇄물","category":"other"}]},{"lat":"37.411186982","long":"126.9067578","imageIndex":17,"items":[{"name":"라임오렌지","tel":"031-474-1895","addr":"경기도 안양시 만안구 석수동 294-52번지","indutype":"문화.취미 - 민예·공예품","category":"other"},{"name":"워시프렌즈 셀프빨래방 안양 석수동점","tel":"","addr":"경기도 안양시 만안구 석수동 294-52번지","indutype":"수리서비스 - 세탁소","category":"other"}]},{"lat":"37.410443301","long":"126.91201108","imageIndex":17,"items":[{"name":"라파대리점","tel":"031-346-5030","addr":"경기도 안양시 만안구 석수동 326-5번지","indutype":"전기제품 - 기타전기제품","category":"other"},{"name":"보일러할인플라자","tel":"031-473-3233","addr":"경기도 안양시 만안구 석수동 326-5번지","indutype":"수리서비스 - 기타수리서비스","category":"other"}]},{"lat":"37.409250669","long":"126.90781073","imageIndex":17,"items":[{"name":"럭키인테리어","tel":"031-474-1300","addr":"경기도 안양시 만안구 석수동 296번지","indutype":"용역 서비스 - 기타용역서비스","category":"other"},{"name":"스듀디오피앤피","tel":"","addr":"경기도 안양시 만안구 석수동 296번지 럭키아파트","indutype":"광학제품 - 사진관","category":"other"},{"name":"안녕아가","tel":"031-472-0595","addr":"경기도 안양시 만안구 석수동 296번지","indutype":"의류 - 정장","category":"other"}]},{"lat":"37.410412071","long":"126.90670232","imageIndex":17,"items":[{"name":"레더마마(reather mama)","tel":"031-347-0400","addr":"경기도 안양시 만안구 석수동 294-29번지","indutype":"신변잡화 - 가방","category":"other"}]},{"lat":"37.41354852","long":"126.90787307","imageIndex":17,"items":[{"name":"루디아주단","tel":"031-472-6433","addr":"경기도 안양시 만안구 석수동 286-11번지 지성주택","indutype":"직물 - 침구·수예점","category":"other"}]},{"lat":"37.413136099","long":"126.91044902","imageIndex":17,"items":[{"name":"리스펙트텔레콤","tel":"","addr":"경기도 안양시 만안구 석수동 320-27번지","indutype":"사무통신 - 통신기기","category":"other"}]},{"lat":"37.413041495","long":"126.90485775","imageIndex":17,"items":[{"name":"리유플라워","tel":"02-546-1634","addr":"경기도 안양시 만안구 석수동 346-3번지 영풍마드레빌아파트","indutype":"문화.취미 - 화원","category":"other"}]},{"lat":"37.407278387","long":"126.89823519","imageIndex":17,"items":[{"name":"마을공인중개사사무소","tel":"02-830-4662","addr":"경기도 안양시 만안구 석수동 785-22번지","indutype":"용역 서비스 - 부동산 중개·임대","category":"other"}]},{"lat":"37.423192398","long":"126.91183751","imageIndex":17,"items":[{"name":"명작 노래 뮤비방","tel":"","addr":"경기도 안양시 만안구 석수동 73-1번지","indutype":"용역 서비스 - 종합용역","category":"other"}]},{"lat":"37.407304946","long":"126.89770429","imageIndex":17,"items":[{"name":"미강애강","tel":"031-472-0303","addr":"경기도 안양시 만안구 석수동 785번지","indutype":"문화.취미 - 애완동물","category":"other"},{"name":"에덴세탁소","tel":"031-471-8572","addr":"경기도 안양시 만안구 석수동 785번지","indutype":"수리서비스 - 세탁소","category":"other"}]},{"lat":"37.414936494","long":"126.90840223","imageIndex":17,"items":[{"name":"미골드","tel":"031-474-6619","addr":"경기도 안양시 만안구 석수동 277-2번지","indutype":"신변잡화 - 귀금속","category":"other"},{"name":"에이원문구","tel":"031-471-5704","addr":"경기도 안양시 만안구 석수동 277-2번지","indutype":"서적문구 - 문구용품","category":"other"},{"name":"이자르","tel":"031-72-0019","addr":"경기도 안양시 만안구 석수동 277-2번지","indutype":"유통업 영리 - 기타유통업","category":"other"},{"name":"코튼월드","tel":"031-474-0659","addr":"경기도 안양시 만안구 석수동 277-2번지","indutype":"직물 - 옷감·직물","category":"other"}]},{"lat":"37.417387028","long":"126.90815063","imageIndex":17,"items":[{"name":"미스터엠몰이엘","tel":"070-8113-2125","addr":"경기도 안양시 만안구 석수동 266-13번지 관악아파트","indutype":"신변잡화 - 기타잡화","category":"other"},{"name":"수선쌀롱","tel":"031-472-0434","addr":"경기도 안양시 만안구 석수동 266-13번지 관악아파트","indutype":"수리서비스 - 세탁소","category":"other"},{"name":"압구정구제가게","tel":"","addr":"경기도 안양시 만안구 석수동 266-13번지 관악아파트","indutype":"의류 - 정장","category":"other"},{"name":"우리세탁","tel":"031-472-9600","addr":"경기도 안양시 만안구 석수동 266-13번지 관악아파트","indutype":"수리서비스 - 세탁소","category":"other"},{"name":"하나쇼캅","tel":"031-624-2469","addr":"경기도 안양시 만안구 석수동 266-13번지 관악아파트","indutype":"전기제품 - 기타전기제품","category":"other"}]},{"lat":"37.406772687","long":"126.89695958","imageIndex":17,"items":[{"name":"민&구PC","tel":"031-474-2692","addr":"경기도 안양시 만안구 석수동 763-7번지 목화빌라","indutype":"수리서비스 - 사무·통신기기수리","category":"other"}]},{"lat":"37.416166214","long":"126.91401488","imageIndex":17,"items":[{"name":"민트래빗","tel":"031-471-0580","addr":"경기도 안양시 만안구 석수동 177-7번지","indutype":"의류 - 정장","category":"other"}]},{"lat":"37.410306044","long":"126.90931167","imageIndex":17,"items":[{"name":"밍밍(Ming-Ming)","tel":"031-342-2229","addr":"경기도 안양시 만안구 석수동 300-11번지","indutype":"의류 - 정장","category":"other"},{"name":"푸른ENG","tel":"070-4531-9003","addr":"경기도 안양시 만안구 석수동 300-11번지","indutype":"수리서비스 - 기타수리서비스","category":"other"}]},{"lat":"37.409605322","long":"126.91195561","imageIndex":17,"items":[{"name":"바로기술","tel":"031-431-2242","addr":"경기도 안양시 만안구 석수동","indutype":"용역 서비스 - 소프트웨어","category":"other"},{"name":"포시즌","tel":"031-472-0443","addr":"경기도 안양시 만안구 석수동 314-9번지","indutype":"직물 - 침구·수예점","category":"other"}]},{"lat":"37.406719171","long":"126.89756958","imageIndex":17,"items":[{"name":"백조시스템","tel":"031-471-8934","addr":"경기도 안양시 만안구 석수동 759-6번지","indutype":"주방용구 - 주방용구","category":"other"},{"name":"제일유리","tel":"031-471-7591","addr":"경기도 안양시 만안구 석수동 759-6번지","indutype":"건축자재 - 유리","category":"other"}]},{"lat":"37.433052543","long":"126.9045379","imageIndex":17,"items":[{"name":"백조재가장기요양센터","tel":"031-471-3477","addr":"경기도 안양시 만안구 석수동 374-5번지 석수역푸르지오아파트","indutype":"기타의료기관 - 기타의료기관 및 기타","category":"other"},{"name":"푸르지오세탁소","tel":"031-471-7848","addr":"경기도 안양시 만안구 석수동 374-5번지","indutype":"수리서비스 - 세탁소","category":"other"}]},{"lat":"37.407360065","long":"126.89890147","imageIndex":17,"items":[{"name":"베비라석수전문점","tel":"031-472-8216","addr":"경기도 안양시 만안구 석수동 785-18번지","indutype":"의류 - 아동의류","category":"other"}]},{"lat":"37.415775575","long":"126.90984708","imageIndex":17,"items":[{"name":"베이비월드","tel":"031-388-5999","addr":"경기도 안양시 만안구 석수동","indutype":"수리서비스 - 가정용품수리","category":"other"}]},{"lat":"37.407161006","long":"126.89795298","imageIndex":17,"items":[{"name":"벽산건설","tel":"031-473-5533","addr":"경기도 안양시 만안구 석수동 785-13번지","indutype":"기타 - 기계공구","category":"other"},{"name":"파워에어로빅","tel":"031-474-2760","addr":"경기도 안양시 만안구 석수동 785-13번지","indutype":"회원제형태 - 레져업소","category":"other"}]},{"lat":"37.415328787","long":"126.91469364","imageIndex":17,"items":[{"name":"보리 샵","tel":"","addr":"경기도 안양시 만안구 석수동 182-2번지 석수e-편한세상아파트","indutype":"문화.취미 - 애완동물","category":"other"}]},{"lat":"37.432690154","long":"126.90217695","imageIndex":17,"items":[{"name":"보인당","tel":"031-472-4007","addr":"경기도 안양시 만안구 석수동 421-8번지","indutype":"신변잡화 - 귀금속","category":"other"},{"name":"주식회사에스제이렌트카안양엽업소","tel":"031-454-6767","addr":"경기도 안양시 만안구 석수동 421-8번지","indutype":"여행 - 렌터카","category":"other"},{"name":"크린데이","tel":"031-347-2002","addr":"경기도 안양시 만안구 석수동 421-8번지","indutype":"수리서비스 - 세탁소","category":"other"}]},{"lat":"37.419691641","long":"126.91739973","imageIndex":17,"items":[{"name":"부띠끄코리아","tel":"070-8703-1715","addr":"경기도 안양시 만안구 석수동 221-56번지","indutype":"신변잡화 - 액세서리","category":"other"},{"name":"북앤스쿨","tel":"031-343-7079","addr":"경기도 안양시 만안구 석수동 221-56번지","indutype":"서적문구 - 일반서적","category":"other"}]},{"lat":"37.413609939","long":"126.90583975","imageIndex":17,"items":[{"name":"부영정밀/원격지","tel":"031-472-4244","addr":"경기도 안양시 만안구 석수동 351-9번지","indutype":"기타 - 기타 전문점","category":"other"}]},{"lat":"37.415714865","long":"126.9128971","imageIndex":17,"items":[{"name":"분홍무지개 안양 만안점","tel":"031-360-6271","addr":"경기도 안양시 만안구 석수동 183-7번지","indutype":"신변잡화 - 기타잡화","category":"other"}]},{"lat":"37.406243352","long":"126.89951293","imageIndex":17,"items":[{"name":"비누자루천연비누","tel":"031-427-8859","addr":"경기도 안양시 만안구 석수동 782-16번지 우성빌라","indutype":"신변잡화 - 기타잡화","category":"other"}]},{"lat":"37.433394424","long":"126.90393862","imageIndex":17,"items":[{"name":"쁘띠아토","tel":"031-8836-8885","addr":"경기도 안양시 만안구 석수동 374-5번지 석수역푸르지오아파트","indutype":"의류 - 정장","category":"other"}]},{"lat":"37.424491247","long":"126.91367742","imageIndex":17,"items":[{"name":"삼막상회","tel":"031-472-0642","addr":"경기도 안양시 만안구 석수동 147번지","indutype":"회원제형태 - 기타4","category":"other"}]},{"lat":"37.420686378","long":"126.91025899","imageIndex":17,"items":[{"name":"삼성철물","tel":"031-472-8111","addr":"경기도 안양시 만안구 석수동 805번지","indutype":"건축자재 - 목재·석재·철물","category":"other"},{"name":"크린토피아 안양구룡그린빌점","tel":"031-471-8410","addr":"경기도 안양시 만안구 석수동 805번지","indutype":"수리서비스 - 세탁소","category":"other"}]},{"lat":"37.415939434","long":"126.91200444","imageIndex":17,"items":[{"name":"삼천리자전거 석수점","tel":"","addr":"경기도 안양시 만안구 석수동 183-59번지","indutype":"레져용품 - 스포츠·레져용품","category":"other"}]},{"lat":"37.419331855","long":"126.90648757","imageIndex":17,"items":[{"name":"삼천유압기계","tel":"031-473-0754","addr":"경기도 안양시 만안구 석수동 254-3번지","indutype":"기타 - 기계공구","category":"other"},{"name":"에프엠시스템","tel":"031-471-1414","addr":"경기도 안양시 만안구 석수동 254-3번지","indutype":"건축자재 - 목재·석재·철물","category":"other"}]},{"lat":"37.412387153","long":"126.90903798","imageIndex":17,"items":[{"name":"삼호스튜디오","tel":"031-474-1188","addr":"경기도 안양시 만안구 석수동 305-19번지","indutype":"광학제품 - 사진관","category":"other"},{"name":"스타일","tel":"070-8724-6313","addr":"경기도 안양시 만안구 석수동 305-19번지","indutype":"의류 - 정장","category":"other"}]},{"lat":"37.416242243","long":"126.90751948","imageIndex":17,"items":[{"name":"상보커뮤니케이션","tel":"031-473-0282","addr":"경기도 안양시 만안구 석수동 275-1번지 현대아파트","indutype":"사무통신 - 통신기기","category":"other"}]},{"lat":"37.425214296","long":"126.9167043","imageIndex":17,"items":[{"name":"샤이닝브로","tel":"","addr":"경기도 안양시 만안구 석수동 139-1번지 삼성타운3차","indutype":"광학제품 - 사진관","category":"other"}]},{"lat":"37.407160513","long":"126.89739954","imageIndex":17,"items":[{"name":"샤인","tel":"031-474-7540","addr":"경기도 안양시 만안구 석수동 759-2번지","indutype":"의류 - 정장","category":"other"}]},{"lat":"37.411082001","long":"126.91070004","imageIndex":17,"items":[{"name":"서울정텔레콤","tel":"031-472-7197","addr":"경기도 안양시 만안구 석수동 317-18번지","indutype":"사무통신 - 통신기기","category":"other"},{"name":"신흥ENG","tel":"031-471-6060","addr":"경기도 안양시 만안구 석수동 317-18번지","indutype":"전기제품 - 냉열기기","category":"other"},{"name":"신흥기획(어울터밴드)","tel":"031-471-6060","addr":"경기도 안양시 만안구 석수동 317-18번지","indutype":"용역 서비스 - 종합용역","category":"other"},{"name":"청명","tel":"","addr":"경기도 안양시 만안구 석수동 317-18번지","indutype":"신변잡화 - 기타잡화","category":"other"}]},{"lat":"37.409077608","long":"126.89512653","imageIndex":17,"items":[{"name":"석수3동주민자치위원회","tel":"031-8045-3759","addr":"경기도 안양시 만안구 석수동 600-3번지","indutype":"문화.취미 - 문화취미기타","category":"other"}]},{"lat":"37.412666285","long":"126.90881172","imageIndex":17,"items":[{"name":"석수DC마트","tel":"031-496-8989","addr":"경기도 안양시 만안구 석수동 289-8번지","indutype":"신변잡화 - 기타잡화","category":"other"},{"name":"트리니티시스템즈","tel":"031-427-1800","addr":"경기도 안양시 만안구 석수동 289-8번지","indutype":"가구 - 일반가구","category":"other"}]},{"lat":"37.427607639","long":"126.90117825","imageIndex":17,"items":[{"name":"석수엘지빌리지입주자대표회의","tel":"031-474-1842","addr":"경기도 안양시 만안구 석수동 484번지 석수엘지빌리지","indutype":"용역 서비스 - 종합용역","category":"other"},{"name":"엘지세탁소","tel":"031-474-6555","addr":"경기도 안양시 만안구 석수동 484번지 석수엘지빌리지","indutype":"수리서비스 - 세탁소","category":"other"}]},{"lat":"37.413576102","long":"126.90856208","imageIndex":17,"items":[{"name":"석수열쇠","tel":"031-474-0011","addr":"경기도 안양시 만안구 석수동 280-16번지 더파인타운","indutype":"기타 - 기타 전문점","category":"other"}]},{"lat":"37.406492949","long":"126.8964856","imageIndex":17,"items":[{"name":"석수자전거","tel":"031-471-8615","addr":"경기도 안양시 만안구 석수동 763-14번지","indutype":"레져용품 - 스포츠·레져용품","category":"other"}]},{"lat":"37.406187718","long":"126.89772845","imageIndex":17,"items":[{"name":"석수철물","tel":"031-443-4344","addr":"경기도 안양시 만안구 석수동 764-4번지","indutype":"건축자재 - 목재·석재·철물","category":"other"}]},{"lat":"37.423770962","long":"126.91436741","imageIndex":17,"items":[{"name":"선일금고(안양점)","tel":"031-473-9388","addr":"경기도 안양시 만안구 석수동 152-9번지","indutype":"가구 - 철제가구","category":"other"},{"name":"티엔엠상사(T&M상사)","tel":"070-4239-2919","addr":"경기도 안양시 만안구 석수동 152-9번지","indutype":"가구 - 철제가구","category":"other"}]},{"lat":"37.408909637","long":"126.90950542","imageIndex":17,"items":[{"name":"선일홈오토메이션","tel":"031-449-2649","addr":"경기도 안양시 만안구 석수동 297-6번지","indutype":"용역 서비스 - 기타용역서비스","category":"other"},{"name":"오성상사","tel":"031-477-1250","addr":"경기도 안양시 만안구 석수동 297-6번지","indutype":"기타 - 기계공구","category":"other"},{"name":"용MTB","tel":"031-474-6763","addr":"경기도 안양시 만안구 석수동 297-6번지","indutype":"레져용품 - 스포츠·레져용품","category":"other"}]},{"lat":"37.420468662","long":"126.90839528","imageIndex":17,"items":[{"name":"선흥인테리어","tel":"","addr":"경기도 안양시 만안구 석수동 104-53번지","indutype":"용역 서비스 - 기타용역서비스","category":"other"}]},{"lat":"37.412687134","long":"126.9124376","imageIndex":17,"items":[{"name":"성실유통","tel":"02-826-8888","addr":"경기도 안양시 만안구 석수동 322-3번지 경일아파트","indutype":"유통업 영리 - 기타유통업","category":"other"},{"name":"작은별리본","tel":"","addr":"경기도 안양시 만안구 석수동 322-3번지 경일아파트","indutype":"신변잡화 - 액세서리","category":"other"}]},{"lat":"37.407555463","long":"126.89573863","imageIndex":17,"items":[{"name":"세븐아이티","tel":"","addr":"경기도 안양시 만안구 석수동 755-9번지 파크빌라","indutype":"사무통신 - 컴퓨터","category":"other"}]},{"lat":"37.429628818","long":"126.90464406","imageIndex":17,"items":[{"name":"세진","tel":"031-471-2277","addr":"경기도 안양시 만안구 석수동 389-13번지","indutype":"건축자재 - 기타건축자재","category":"other"}]},{"lat":"37.40666494","long":"126.89737764","imageIndex":17,"items":[{"name":"세진전자","tel":"031-471-5096","addr":"경기도 안양시 만안구 석수동 759-7번지","indutype":"전기제품 - 기타전기제품","category":"other"}]},{"lat":"37.412242189","long":"126.90803286","imageIndex":17,"items":[{"name":"세창문구팬시","tel":"031-471-7350","addr":"경기도 안양시 만안구 석수동 289-14번지","indutype":"서적문구 - 문구용품","category":"other"}]},{"lat":"37.412333137","long":"126.90909453","imageIndex":17,"items":[{"name":"소망꽃화원","tel":"031-471-1077","addr":"경기도 안양시 만안구 석수동 305-20번지 삼호빌라","indutype":"문화.취미 - 화원","category":"other"}]},{"lat":"37.420605694","long":"126.91077874","imageIndex":17,"items":[{"name":"송하정보통신","tel":"031-388-8254","addr":"경기도 안양시 만안구 석수동 805번지 주공그린빌","indutype":"사무통신 - 통신기기","category":"other"},{"name":"핸내모바일 유통","tel":"050-4474-4136","addr":"경기도 안양시 만안구 석수동 805번지 주공그린빌","indutype":"신변잡화 - 기타잡화","category":"other"}]},{"lat":"37.411243838","long":"126.91025932","imageIndex":17,"items":[{"name":"스킨벨","tel":"031-443-1615","addr":"경기도 안양시 만안구 석수동 318-6번지","indutype":"사무통신 - 통신기기","category":"other"}]},{"lat":"37.418243118","long":"126.908319","imageIndex":17,"items":[{"name":"스파클","tel":"","addr":"경기도 안양시 만안구 석수동 262-27번지","indutype":"주방용구 - 정수기","category":"other"}]},{"lat":"37.411494563","long":"126.9082936","imageIndex":17,"items":[{"name":"시가통","tel":"031-473-2464","addr":"경기도 안양시 만안구 석수동 303-15번지","indutype":"신변잡화 - 기타잡화","category":"other"}]},{"lat":"37.416581276","long":"126.91481643","imageIndex":17,"items":[{"name":"신데렐라","tel":"031-471-7177","addr":"경기도 안양시 만안구 석수동 203-3번지","indutype":"회원제형태 - 기타4","category":"other"},{"name":"지산공인중개사사무소","tel":"031-474-5588","addr":"경기도 안양시 만안구 석수동 203-3번지","indutype":"용역 서비스 - 부동산 중개·임대","category":"other"}]},{"lat":"37.411082972","long":"126.91195383","imageIndex":17,"items":[{"name":"신동양상사","tel":"031-471-5556","addr":"경기도 안양시 만안구 석수동 325-10번지 골든트리","indutype":"직물 - 카페트,커튼,천막,지물","category":"other"}]},{"lat":"37.416660817","long":"126.91276042","imageIndex":17,"items":[{"name":"신비오카리나","tel":"031-469-1619","addr":"경기도 안양시 만안구 석수동 174-18번지","indutype":"레져용품 - 악기점","category":"other"}]},{"lat":"37.407467768","long":"126.89842694","imageIndex":17,"items":[{"name":"신용공인중개사","tel":"031-474-7888","addr":"경기도 안양시 만안구 석수동 785-16번지","indutype":"용역 서비스 - 부동산 중개·임대","category":"other"}]},{"lat":"37.411215206","long":"126.90823747","imageIndex":17,"items":[{"name":"신우코리아","tel":"031-472-1366","addr":"경기도 안양시 만안구 석수동 303-12번지 그린빌","indutype":"신변잡화 - 기타잡화","category":"other"}]},{"lat":"37.421304916","long":"126.90631559","imageIndex":17,"items":[{"name":"싸인플러스","tel":"031-424-7777","addr":"경기도 안양시 만안구 석수동 251-9번지","indutype":"건축자재 - 인테리어전문","category":"other"}]},{"lat":"37.411744496","long":"126.90540163","imageIndex":17,"items":[{"name":"씨에이치","tel":"031-341-5531","addr":"경기도 안양시 만안구 석수동 315-2번지","indutype":"용역 서비스 - 소프트웨어","category":"other"}]},{"lat":"37.434239646","long":"126.9019037","imageIndex":17,"items":[{"name":"씨유안양석수역점","tel":"031-471-8743","addr":"경기도 안양시 만안구 석수동 423-59번지","indutype":"유통업 영리 - 편 의 점","category":"other"}]},{"lat":"37.414930974","long":"126.91287545","imageIndex":17,"items":[{"name":"아이엔에이치글로벌(I&H Global)/원격지","tel":"","addr":"경기도 안양시 만안구 석수동 182-2번지 석수e-편한세상아파트","indutype":"기타 - 기타 전문점","category":"other"}]},{"lat":"37.411581969","long":"126.90498391","imageIndex":17,"items":[{"name":"아인스케치인","tel":"031-474-9497","addr":"경기도 안양시 만안구 석수동 315-25번지","indutype":"건축자재 - 인테리어전문","category":"other"},{"name":"아인인테리어","tel":"031-474-9497","addr":"경기도 안양시 만안구 석수동 315-25번지","indutype":"건축자재 - 인테리어전문","category":"other"}]},{"lat":"37.413830917","long":"126.91179237","imageIndex":17,"items":[{"name":"안양대림바스","tel":"031-407-7966","addr":"경기도 안양시 만안구 석수동 321-18번지","indutype":"전기제품 - 기타전기제품","category":"other"},{"name":"안양대림바스","tel":"031-348-8202","addr":"경기도 안양시 만안구 석수동 321-18번지","indutype":"전기제품 - 기타전기제품","category":"other"}]},{"lat":"37.422023017","long":"126.90306111","imageIndex":17,"items":[{"name":"안양시시설관리공단/석수체육공원","tel":"031-389-5288","addr":"경기도 안양시 만안구 석수동 251-1번지","indutype":"용역 서비스 - 종합용역","category":"other"}]},{"lat":"37.422160435","long":"126.90578353","imageIndex":17,"items":[{"name":"안양자동차극장","tel":"031-471-3003","addr":"경기도 안양시 만안구 석수동 249-6번지","indutype":"문화.취미 - 문화취미기타","category":"other"}]},{"lat":"37.427470552","long":"126.89895275","imageIndex":17,"items":[{"name":"액티브존(ACTIVEZONE)","tel":"070-7760-8968","addr":"경기도 안양시 만안구 석수동 473-2번지","indutype":"용역 서비스 - 종합용역","category":"other"}]},{"lat":"37.409179128","long":"126.89780333","imageIndex":17,"items":[{"name":"어반보타닉","tel":"031-366-7380","addr":"경기도 안양시 만안구 석수동 786번지 석수코오롱하늘채","indutype":"직물 - 침구·수예점","category":"other"}]},{"lat":"37.416634122","long":"126.913201","imageIndex":17,"items":[{"name":"어썸(AWESOME)","tel":"070-4312-1312","addr":"경기도 안양시 만안구 석수동 177-32번지","indutype":"의류 - 정장","category":"other"}]},{"lat":"37.405051309","long":"126.89645375","imageIndex":17,"items":[{"name":"에듀바이크","tel":"031-383-5350","addr":"경기도 안양시 만안구 석수동 770번지","indutype":"레져용품 - 스포츠·레져용품","category":"other"}]},{"lat":"37.406854764","long":"126.89806636","imageIndex":17,"items":[{"name":"에바다종합의류","tel":"031-446-9456","addr":"경기도 안양시 만안구 석수동 785-11번지","indutype":"의류 - 아동의류","category":"other"}]},{"lat":"37.428697316","long":"126.90055538","imageIndex":17,"items":[{"name":"에스에이치 솔루션(SH SOLUTION)","tel":"","addr":"경기도 안양시 만안구 석수동 415-1번지 석수엘지빌리지","indutype":"수리서비스 - 사무·통신기기수리","category":"other"}]},{"lat":"37.409749379","long":"126.9118199","imageIndex":17,"items":[{"name":"에스엘씨엠씨","tel":"050-4417-4706","addr":"경기도 안양시 만안구 석수동","indutype":"사무통신 - 통신기기","category":"other"}]},{"lat":"37.411513678","long":"126.90967162","imageIndex":17,"items":[{"name":"에스엠(SM)인테리어","tel":"031-471-7768","addr":"경기도 안양시 만안구 석수동 308-5번지 석수아파트","indutype":"건축자재 - 인테리어전문","category":"other"}]},{"lat":"37.432328941","long":"126.90122835","imageIndex":17,"items":[{"name":"에이랑 케이크","tel":"","addr":"경기도 안양시 만안구 석수동 417-3번지 석수두산위브아파트","indutype":"문화.취미 - 문화취미기타","category":"other"}]},{"lat":"37.409271067","long":"126.91081521","imageIndex":17,"items":[{"name":"엔에스알 안양점","tel":"","addr":"경기도 안양시 만안구 석수동 313-14번지 로체그랑","indutype":"의류 - 스포츠의류","category":"other"}]},{"lat":"37.410442004","long":"126.91033937","imageIndex":17,"items":[{"name":"엠아이유(miu)","tel":"031-516-2792","addr":"경기도 안양시 만안구 석수동 310-20번지 인화하이츠빌라","indutype":"회원제형태 - 기타4","category":"other"}]},{"lat":"37.433852283","long":"126.90198331","imageIndex":17,"items":[{"name":"엠에스 (ms)모바일","tel":"070-8882-7530","addr":"경기도 안양시 만안구 석수동 422-1번지","indutype":"사무통신 - 통신기기","category":"other"}]},{"lat":"37.433603061","long":"126.91728222","imageIndex":17,"items":[{"name":"열린글사랑","tel":"031-472-4784","addr":"경기도 안양시 만안구 석수동 6-8번지","indutype":"서적문구 - 일반서적","category":"other"}]},{"lat":"37.412521908","long":"126.90854081","imageIndex":17,"items":[{"name":"영진전자","tel":"031-441-1128","addr":"경기도 안양시 만안구 석수동 289-6번지","indutype":"전기제품 - 가전제품","category":"other"},{"name":"예림산업","tel":"","addr":"경기도 안양시 만안구 석수동 289-6번지","indutype":"직물 - 침구·수예점","category":"other"}]},{"lat":"37.424076152","long":"126.91284191","imageIndex":17,"items":[{"name":"영화목공인테리어","tel":"","addr":"경기도 안양시 만안구 석수동 680-97번지","indutype":"건축자재 - 인테리어전문","category":"other"}]},{"lat":"37.40706311","long":"126.89933109","imageIndex":17,"items":[{"name":"예쁜손천연비누","tel":"","addr":"경기도 안양시 만안구 석수동 784번지 석수아이파크","indutype":"신변잡화 - 기타잡화","category":"other"},{"name":"참여연극연구소","tel":"031-348-6021","addr":"경기도 안양시 만안구 석수동 784번지 석수아이파크","indutype":"문화.취미 - 티켓","category":"other"}]},{"lat":"37.406494291","long":"126.8979878","imageIndex":17,"items":[{"name":"예쁜옷방","tel":"031-465-1960","addr":"경기도 안양시 만안구 석수동 780-18번지","indutype":"의류 - 정장","category":"other"}]},{"lat":"37.416247338","long":"126.91405997","imageIndex":17,"items":[{"name":"오렉스","tel":"031-474-9700","addr":"경기도 안양시 만안구 석수동 177-34번지","indutype":"건축자재 - 인테리어전문","category":"other"}]},{"lat":"37.409647348","long":"126.9081039","imageIndex":17,"items":[{"name":"오렌지구두수선","tel":"031-342-1774","addr":"경기도 안양시 만안구 석수동 296번지 럭키아파트","indutype":"회원제형태 - 기타4","category":"other"}]},{"lat":"37.409497054","long":"126.91176373","imageIndex":17,"items":[{"name":"오성상사","tel":"031-473-7704","addr":"경기도 안양시 만안구 석수동 314-8번지","indutype":"건축자재 - 페인트","category":"other"}]},{"lat":"37.408449273","long":"126.89775917","imageIndex":17,"items":[{"name":"오케이클린","tel":"031-469-4326","addr":"경기도 안양시 만안구 석수동 786번지 석수코오롱하늘채","indutype":"용역 서비스 - 종합용역","category":"other"}]},{"lat":"37.409286509","long":"126.90756219","imageIndex":17,"items":[{"name":"오픈스타코리아","tel":"031-399-8200","addr":"경기도 안양시 만안구 석수동","indutype":"회원제형태 - 기타4","category":"other"}]},{"lat":"37.41152181","long":"126.90856465","imageIndex":17,"items":[{"name":"온나라씨에스환경","tel":"031-473-3182","addr":"경기도 안양시 만안구 석수동 306-6번지","indutype":"용역 서비스 - 종합용역","category":"other"},{"name":"유진세탁소","tel":"031-471-0140","addr":"경기도 안양시 만안구 석수동 306-6번지","indutype":"수리서비스 - 세탁소","category":"other"},{"name":"진주네애견샵","tel":"031-474-1044","addr":"경기도 안양시 만안구 석수동 306-6번지","indutype":"문화.취미 - 애완동물","category":"other"}]},{"lat":"37.407413487","long":"126.89817853","imageIndex":17,"items":[{"name":"완이네텔레콤","tel":"031-471-8010","addr":"경기도 안양시 만안구 석수동 785-15번지","indutype":"사무통신 - 통신기기","category":"other"},{"name":"제이제이텔레콤(JJ텔레콤)","tel":"031-474-2111","addr":"경기도 안양시 만안구 석수동 785-15번지","indutype":"사무통신 - 통신기기","category":"other"}]},{"lat":"37.413188045","long":"126.90778316","imageIndex":17,"items":[{"name":"용인그릇","tel":"031-471-7243","addr":"경기도 안양시 만안구 석수동 287번지","indutype":"주방용구 - 주방용식기","category":"other"}]},{"lat":"37.406079648","long":"126.89778507","imageIndex":17,"items":[{"name":"워시큐 석수점","tel":"02-1670-4090","addr":"경기도 안양시 만안구 석수동 764-5번지","indutype":"수리서비스 - 세탁소","category":"other"}]},{"lat":"37.407053454","long":"126.89859694","imageIndex":17,"items":[{"name":"원투복싱클럽","tel":"070-7548-9281","addr":"경기도 안양시 만안구 석수동 785-25번지","indutype":"회원제형태 - 레져업소","category":"other"}]},{"lat":"37.4167489","long":"126.91015087","imageIndex":17,"items":[{"name":"월드그린","tel":"031-473-9976","addr":"경기도 안양시 만안구 석수동 269-7번지","indutype":"신변잡화 - 기타잡화","category":"other"}]},{"lat":"37.407053155","long":"126.89825809","imageIndex":17,"items":[{"name":"월드크리닝 안양석수점","tel":"031-472-8462","addr":"경기도 안양시 만안구 석수동 785-23번지","indutype":"수리서비스 - 세탁소","category":"other"}]},{"lat":"37.420108665","long":"126.90890408","imageIndex":17,"items":[{"name":"위(We)","tel":"031-448-3711","addr":"경기도 안양시 만안구 석수동 104-98번지","indutype":"의류 - 정장","category":"other"}]},{"lat":"37.420813651","long":"126.91171613","imageIndex":17,"items":[{"name":"위즈엄","tel":"070-8866-2233","addr":"경기도 안양시 만안구 석수동 166번지 관악산현대홈타운","indutype":"광학제품 - 사진관","category":"other"}]},{"lat":"37.416741571","long":"126.91231976","imageIndex":17,"items":[{"name":"윈짐","tel":"031-472-8686","addr":"경기도 안양시 만안구 석수동 174-5번지","indutype":"레져용품 - 스포츠·레져용품","category":"other"}]},{"lat":"37.409333377","long":"126.90984375","imageIndex":17,"items":[{"name":"유로쿡","tel":"031-1666-3778","addr":"경기도 안양시 만안구 석수동 297-12번지","indutype":"주방용구 - 주방용구","category":"other"}]},{"lat":"37.41734501","long":"126.91201404","imageIndex":17,"items":[{"name":"유미테크","tel":"031-342-8260","addr":"경기도 안양시 만안구 석수동 168-4번지 석수경남아너스빌","indutype":"회원제형태 - 기타4","category":"other"}]},{"lat":"37.417827169","long":"126.9064782","imageIndex":17,"items":[{"name":"유성전기","tel":"02-804-1320","addr":"경기도 안양시 만안구 석수동 256-4번지","indutype":"전기제품 - 기타전기제품","category":"other"}]},{"lat":"37.414495943","long":"126.90958885","imageIndex":17,"items":[{"name":"유진HC","tel":"031-473-8255","addr":"경기도 안양시 만안구 석수동","indutype":"건축자재 - 목재·석재·철물","category":"other"}]},{"lat":"37.412405253","long":"126.90913962","imageIndex":17,"items":[{"name":"은정디자인","tel":"031-471-1077","addr":"경기도 안양시 만안구 석수동 305-20번지 삼호빌라","indutype":"수리서비스 - 세탁소","category":"other"}]},{"lat":"37.405584044","long":"126.89772929","imageIndex":17,"items":[{"name":"은혜지물포","tel":"031-471-4212","addr":"경기도 안양시 만안구 석수동 764-10번지","indutype":"직물 - 카페트,커튼,천막,지물","category":"other"}]},{"lat":"37.419937537","long":"126.90898338","imageIndex":17,"items":[{"name":"의류할인매장","tel":"031-474-6282","addr":"경기도 안양시 만안구 석수동 104-121번지 석수빌딩","indutype":"의류 - 정장","category":"other"}]},{"lat":"37.415081248","long":"126.90914758","imageIndex":17,"items":[{"name":"이레","tel":"031-472-1921","addr":"경기도 안양시 만안구 석수동 274-1번지","indutype":"의류 - 기타의류","category":"other"}]},{"lat":"37.405746376","long":"126.89789848","imageIndex":17,"items":[{"name":"이마트24 안양충훈점","tel":"","addr":"경기도 안양시 만안구 석수동 764-8번지","indutype":"유통업 영리 - 편 의 점","category":"other"}]},{"lat":"37.409774281","long":"126.90909772","imageIndex":17,"items":[{"name":"이벤트클릭","tel":"070-7454-6282","addr":"경기도 안양시 만안구 석수동 299-2번지","indutype":"용역 서비스 - 종합용역","category":"other"}]},{"lat":"37.41049307","long":"126.90658926","imageIndex":17,"items":[{"name":"이쁜이옷장","tel":"031-474-8637","addr":"경기도 안양시 만안구 석수동 294-4번지 오성빌라","indutype":"의류 - 정장","category":"other"}]},{"lat":"37.409549707","long":"126.90995643","imageIndex":17,"items":[{"name":"일광세탁소","tel":"031-472-1788","addr":"경기도 안양시 만안구 석수동 297-9번지 금아트빌","indutype":"수리서비스 - 세탁소","category":"other"}]},{"lat":"37.417657834","long":"126.90878289","imageIndex":17,"items":[{"name":"일신감정평가사무소","tel":"031-472-1125","addr":"경기도 안양시 만안구 석수동","indutype":"용역 서비스 - 사무서비스","category":"other"},{"name":"현대커텐,열쇠","tel":"031-471-8267","addr":"경기도 안양시 만안구 석수동 267-23번지","indutype":"직물 - 카페트,커튼,천막,지물","category":"other"}]},{"lat":"37.416424343","long":"126.90990276","imageIndex":17,"items":[{"name":"자연소년","tel":"070-8269-2464","addr":"경기도 안양시 만안구 석수동 269-39번지","indutype":"신변잡화 - 기타잡화","category":"other"}]},{"lat":"37.412772687","long":"126.90667671","imageIndex":17,"items":[{"name":"장인가구","tel":"031-463-6675","addr":"경기도 안양시 만안구 석수동 292-2번지 혜동아파트","indutype":"가구 - 일반가구","category":"other"}]},{"lat":"37.41905142","long":"126.91670007","imageIndex":17,"items":[{"name":"정우","tel":"031-473-2402","addr":"경기도 안양시 만안구 석수동 221-52번지","indutype":"직물 - 침구·수예점","category":"other"}]},{"lat":"37.406242867","long":"126.89895949","imageIndex":17,"items":[{"name":"제이네트웍스","tel":"02-897-7896","addr":"경기도 안양시 만안구 석수동 783-8번지","indutype":"전기제품 - 기타전기제품","category":"other"}]},{"lat":"37.41190898","long":"126.9082366","imageIndex":17,"items":[{"name":"제이에이치(J.H)","tel":"031-382-4600","addr":"경기도 안양시 만안구 석수동 305-3번지","indutype":"건축자재 - 인테리어전문","category":"other"}]},{"lat":"37.431996276","long":"126.9020536","imageIndex":17,"items":[{"name":"제이에이치서비스","tel":"020-111-1111","addr":"경기도 안양시 만안구 석수동 420-9번지 명지빌라","indutype":"수리서비스 - 기타수리서비스","category":"other"}]},{"lat":"37.41144043","long":"126.9082033","imageIndex":17,"items":[{"name":"제이엔케이","tel":"070-4401-9266","addr":"경기도 안양시 만안구 석수동 303-26번지","indutype":"레져용품 - 스포츠·레져용품","category":"other"}]},{"lat":"37.419206912","long":"126.90796759","imageIndex":17,"items":[{"name":"제이케이통상","tel":"032-831-2425","addr":"경기도 안양시 만안구 석수동 259-44번지 대광빌라","indutype":"회원제형태 - 기타4","category":"other"}]},{"lat":"37.43562768","long":"126.90247809","imageIndex":17,"items":[{"name":"제일공업/원격지","tel":"031-472-2088","addr":"경기도 안양시 만안구 석수동 361-3번지","indutype":"기타 - 기타 전문점","category":"other"}]},{"lat":"37.416743927","long":"126.91544883","imageIndex":17,"items":[{"name":"젬에스","tel":"","addr":"경기도 안양시 만안구 석수동 206-7번지","indutype":"신변잡화 - 기념품점","category":"other"}]},{"lat":"37.418189274","long":"126.90859018","imageIndex":17,"items":[{"name":"조선일보석수지국","tel":"031-471-5318","addr":"경기도 안양시 만안구 석수동 267-5번지","indutype":"서적문구 - 정기간행물","category":"other"}]},{"lat":"37.419078934","long":"126.91736654","imageIndex":17,"items":[{"name":"조은생활","tel":"","addr":"경기도 안양시 만안구 석수동 221-22번지","indutype":"주방용구 - 주방용구","category":"other"}]},{"lat":"37.413216783","long":"126.90992931","imageIndex":17,"items":[{"name":"종인","tel":"031-474-4989","addr":"경기도 안양시 만안구 석수동 279-27번지","indutype":"전기제품 - 기타전기제품","category":"other"}]},{"lat":"37.418303487","long":"126.91656537","imageIndex":17,"items":[{"name":"주식회사 파트너유통","tel":"031-443-6067","addr":"경기도 안양시 만안구 석수동 218-9번지","indutype":"신변잡화 - 기타잡화","category":"other"}]},{"lat":"37.407277593","long":"126.8973429","imageIndex":17,"items":[{"name":"주원전자","tel":"031-473-8685","addr":"경기도 안양시 만안구 석수동 759-1번지","indutype":"사무통신 - 컴퓨터","category":"other"}]},{"lat":"37.423742591","long":"126.91259377","imageIndex":17,"items":[{"name":"중앙화원","tel":"02-534-6631","addr":"경기도 안양시 만안구 석수동 78-1번지","indutype":"문화.취미 - 화원","category":"other"}]},{"lat":"37.41346948","long":"126.9104599","imageIndex":17,"items":[{"name":"쥴리","tel":"031-471-3695","addr":"경기도 안양시 만안구 석수동 271-33번지","indutype":"의류 - 정장","category":"other"}]},{"lat":"37.408791771","long":"126.90857937","imageIndex":17,"items":[{"name":"진영통신","tel":"031-382-6880","addr":"경기도 안양시 만안구 석수동 296번지 럭키아파트","indutype":"전기제품 - 기타전기제품","category":"other"}]},{"lat":"37.413270994","long":"126.91012127","imageIndex":17,"items":[{"name":"진인테리어","tel":"031-474-8367","addr":"경기도 안양시 만안구 석수동 279-34번지","indutype":"건축자재 - 인테리어전문","category":"other"}]},{"lat":"37.409270767","long":"126.91043117","imageIndex":17,"items":[{"name":"청명 시스템 에어컨","tel":"","addr":"경기도 안양시 만안구 석수동 313-2번지","indutype":"전기제품 - 냉열기기","category":"other"}]},{"lat":"37.433104519","long":"126.90206341","imageIndex":17,"items":[{"name":"청산","tel":"070-7500-3133","addr":"경기도 안양시 만안구 석수동 425-1번지 연현씨티빌","indutype":"수리서비스 - 사무·통신기기수리","category":"other"}]},{"lat":"37.416886111","long":"126.91281663","imageIndex":17,"items":[{"name":"청송플라워","tel":"031-471-1327","addr":"경기도 안양시 만안구 석수동 172-9번지","indutype":"문화.취미 - 화원","category":"other"}]},{"lat":"37.41599397","long":"126.91262566","imageIndex":17,"items":[{"name":"청현보석","tel":"031-474-8853","addr":"경기도 안양시 만안구 석수동 180-8번지","indutype":"신변잡화 - 액세서리","category":"other"}]},{"lat":"37.434744178","long":"126.90186913","imageIndex":17,"items":[{"name":"최우수에어컨","tel":"031-472-1819","addr":"경기도 안양시 만안구 석수동 423-13번지 풍년빌라","indutype":"용역 서비스 - 기타용역서비스","category":"other"}]},{"lat":"37.432728772","long":"126.90525014","imageIndex":17,"items":[{"name":"카드기협회 씨아이밴","tel":"02-1600-3100","addr":"경기도 안양시 만안구 석수동 374-5번지 석수역푸르지오아파트","indutype":"사무통신 - 통신기기","category":"other"}]},{"lat":"37.406000081","long":"126.89951326","imageIndex":17,"items":[{"name":"크린에이드 석수점","tel":"031-473-7783","addr":"경기도 안양시 만안구 석수동 782-6번지","indutype":"수리서비스 - 세탁소","category":"other"}]},{"lat":"37.413388777","long":"126.91095701","imageIndex":17,"items":[{"name":"크린코리아","tel":"031-473-1797","addr":"경기도 안양시 만안구 석수동 321-39번지","indutype":"용역 서비스 - 종합용역","category":"other"}]},{"lat":"37.416193074","long":"126.91378893","imageIndex":17,"items":[{"name":"크린토피아","tel":"031-471-3482","addr":"경기도 안양시 만안구 석수동 178-19번지","indutype":"수리서비스 - 세탁소","category":"other"}]},{"lat":"37.417665958","long":"126.90767583","imageIndex":17,"items":[{"name":"클라우드솔루션(주)","tel":"031-471-1119","addr":"경기도 안양시 만안구 석수동 266-26번지","indutype":"사무통신 - 사무용 OA기기","category":"other"},{"name":"클라우드오에이","tel":"","addr":"경기도 안양시 만안구 석수동 266-26번지","indutype":"사무통신 - 컴퓨터","category":"other"}]},{"lat":"37.43153602","long":"126.90118423","imageIndex":17,"items":[{"name":"키즈카니발","tel":"070-7554-3124","addr":"경기도 안양시 만안구 석수동 417-3번지 석수두산위브아파트","indutype":"회원제형태 - 기타4","category":"other"}]},{"lat":"37.417576591","long":"126.90859095","imageIndex":17,"items":[{"name":"타임텔레콤","tel":"031-473-5900","addr":"경기도 안양시 만안구 석수동 266-15번지","indutype":"사무통신 - 통신기기","category":"other"}]},{"lat":"37.411189627","long":"126.91006736","imageIndex":17,"items":[{"name":"탑시스템(TOP system)","tel":"031-474-4119","addr":"경기도 안양시 만안구 석수동 308-7번지","indutype":"수리서비스 - 사무·통신기기수리","category":"other"}]},{"lat":"37.406665852","long":"126.89840546","imageIndex":17,"items":[{"name":"태광유리","tel":"031-472-9915","addr":"경기도 안양시 만안구 석수동 781번지","indutype":"건축자재 - 유리","category":"other"}]},{"lat":"37.413754682","long":"126.9065512","imageIndex":17,"items":[{"name":"태산ENE","tel":"02-783-6382","addr":"경기도 안양시 만안구 석수동 284-1번지 적성아파트","indutype":"건축자재 - 인테리어전문","category":"other"}]},{"lat":"37.427740734","long":"126.8988168","imageIndex":17,"items":[{"name":"토탈멀티샵 TM&S","tel":"02-1600-8381","addr":"경기도 안양시 만안구 석수동 473-15번지","indutype":"레져용품 - 스포츠·레져용품","category":"other"}]},{"lat":"37.429688233","long":"126.90033936","imageIndex":17,"items":[{"name":"튼튼북","tel":"031-474-4012","addr":"경기도 안양시 만안구 석수동","indutype":"서적문구 - 전문서적","category":"other"}]},{"lat":"37.410551335","long":"126.91189799","imageIndex":17,"items":[{"name":"튼튼영어안양만안지사","tel":"031-471-2505","addr":"경기도 안양시 만안구 석수동 326-1번지","indutype":"회원제형태 - 서적","category":"other"}]},{"lat":"37.413297015","long":"126.90884482","imageIndex":17,"items":[{"name":"퍼니토이","tel":"031-473-7894","addr":"경기도 안양시 만안구 석수동 280-4번지","indutype":"서적문구 - 완구점","category":"other"}]},{"lat":"37.406053358","long":"126.89862091","imageIndex":17,"items":[{"name":"평화열쇠","tel":"031-471-1382","addr":"경기도 안양시 만안구 석수동 781-11번지 유경빌라11차","indutype":"기타 - 기계공구","category":"other"}]},{"lat":"37.417189671","long":"126.90923533","imageIndex":17,"items":[{"name":"포럼경영컨설팅(주)","tel":"031-472-7794","addr":"경기도 안양시 만안구 석수동 268-9번지","indutype":"회원제형태 - 기타4","category":"other"}]},{"lat":"37.416074992","long":"126.91253519","imageIndex":17,"items":[{"name":"포르테","tel":"031-474-2423","addr":"경기도 안양시 만안구 석수동 180-14번지","indutype":"의류 - 정장","category":"other"}]},{"lat":"37.429914845","long":"126.90192081","imageIndex":17,"items":[{"name":"플러스냉난방","tel":"","addr":"경기도 안양시 만안구 석수동 415-2번지 석수엘지빌리지","indutype":"용역 서비스 - 기타용역서비스","category":"other"}]},{"lat":"37.405881085","long":"126.89740133","imageIndex":17,"items":[{"name":"핑크플라워","tel":"","addr":"경기도 안양시 만안구 석수동 768-10번지","indutype":"문화.취미 - 화원","category":"other"},{"name":"행복인테리어","tel":"031-472-1282","addr":"경기도 안양시 만안구 석수동 768-10번지","indutype":"건축자재 - 인테리어전문","category":"other"}]},{"lat":"37.413942837","long":"126.90526323","imageIndex":17,"items":[{"name":"하나로시스템","tel":"070-8547-0658","addr":"경기도 안양시 만안구 석수동 351-14번지","indutype":"용역 서비스 - 기타용역서비스","category":"other"}]},{"lat":"37.419135993","long":"126.90942495","imageIndex":17,"items":[{"name":"하늘간병","tel":"031-689-3395","addr":"경기도 안양시 만안구 석수동 104-188번지","indutype":"회원제형태 - 기타4","category":"other"}]},{"lat":"37.407691935","long":"126.89720678","imageIndex":17,"items":[{"name":"하우슬로(HOWSLOW)","tel":"070-7781-5555","addr":"경기도 안양시 만안구 석수동 753-4번지","indutype":"가구 - 기타가구","category":"other"}]},{"lat":"37.421521046","long":"126.90617975","imageIndex":17,"items":[{"name":"한독(석수점)","tel":"","addr":"경기도 안양시 만안구 석수동 251-4번지","indutype":"의류 - 정장","category":"other"}]},{"lat":"37.413856674","long":"126.91015444","imageIndex":17,"items":[{"name":"한뫼스포츠","tel":"031-471-7870","addr":"경기도 안양시 만안구 석수동 271-1번지","indutype":"레져용품 - 스포츠·레져용품","category":"other"}]},{"lat":"37.406053706","long":"126.89901622","imageIndex":17,"items":[{"name":"한울난방관리","tel":"031-471-8380","addr":"경기도 안양시 만안구 석수동 782-11번지 궁전빌라","indutype":"용역 서비스 - 기타용역서비스","category":"other"}]},{"lat":"37.421776619","long":"126.91029153","imageIndex":17,"items":[{"name":"합자회사 통일관광","tel":"031-1566-7738","addr":"경기도 안양시 만안구 석수동 93-7번지","indutype":"여행 - 관광여행","category":"other"}]},{"lat":"37.416523427","long":"126.90986874","imageIndex":17,"items":[{"name":"행거(HANGER)","tel":"","addr":"경기도 안양시 만안구 석수동 269-3번지","indutype":"의류 - 정장","category":"other"}]},{"lat":"37.408024108","long":"126.89587351","imageIndex":17,"items":[{"name":"행복나라 칼마트","tel":"","addr":"경기도 안양시 만안구 석수동 754-21번지","indutype":"수리서비스 - 기타수리서비스","category":"other"}]},{"lat":"37.406693022","long":"126.89856355","imageIndex":17,"items":[{"name":"행복한 뜨개작업실","tel":"031-449-5692","addr":"경기도 안양시 만안구 석수동 781-1번지","indutype":"직물 - 침구·수예점","category":"other"},{"name":"희라유통","tel":"","addr":"경기도 안양시 만안구 석수동 781-1번지","indutype":"신변잡화 - 기타잡화","category":"other"}]},{"lat":"37.416527543","long":"126.91525704","imageIndex":17,"items":[{"name":"향 수놓다","tel":"","addr":"경기도 안양시 만안구 석수동 201-1번지 석수연립","indutype":"직물 - 침구·수예점","category":"other"}]},{"lat":"37.413729345","long":"126.90865225","imageIndex":17,"items":[{"name":"헤라","tel":"031-474-8629","addr":"경기도 안양시 만안구 석수동 280-16번지 더파인타운","indutype":"신변잡화 - 기타잡화","category":"other"}]},{"lat":"37.405801146","long":"126.89870032","imageIndex":17,"items":[{"name":"헨리","tel":"031-474-9556","addr":"경기도 안양시 만안구 석수동 781-9번지","indutype":"의류 - 정장","category":"other"},{"name":"희래네 애견미용실","tel":"031-346-1185","addr":"경기도 안양시 만안구 석수동 781-9번지","indutype":"문화.취미 - 애완동물","category":"other"}]},{"lat":"37.416137785","long":"126.91217364","imageIndex":17,"items":[{"name":"현대인테리어","tel":"031-471-7173","addr":"경기도 안양시 만안구 석수동 180-6번지","indutype":"건축자재 - 인테리어전문","category":"other"}]},{"lat":"37.405494484","long":"126.89833932","imageIndex":17,"items":[{"name":"현대종합설비","tel":"031-73-4982","addr":"경기도 안양시 만안구 석수동 779번지","indutype":"건축자재 - 보일러·펌프·샷시","category":"other"}]},{"lat":"37.418991798","long":"126.92156898","imageIndex":17,"items":[{"name":"협동조합스페이스크리오","tel":"070-4224-9711","addr":"경기도 안양시 만안구 석수동 820-3번지","indutype":"문화.취미 - 티켓","category":"other"}]},{"lat":"37.410522331","long":"126.90936788","imageIndex":17,"items":[{"name":"협진인테리어","tel":"031-472-0040","addr":"경기도 안양시 만안구 석수동 309-1번지","indutype":"직물 - 카페트,커튼,천막,지물","category":"other"}]},{"lat":"37.415580237","long":"126.91358633","imageIndex":17,"items":[{"name":"형제상회","tel":"031-474-3557","addr":"경기도 안양시 만안구 석수동 182-2번지 석수e-편한세상아파트","indutype":"회원제형태 - 기타1","category":"other"}]},{"lat":"37.406855333","long":"126.89871016","imageIndex":17,"items":[{"name":"호기획","tel":"070-8733-4498","addr":"경기도 안양시 만안구 석수동 785-27번지","indutype":"유통업 영리 - 기타유통업","category":"other"}]},{"lat":"37.406799818","long":"126.89707249","imageIndex":17,"items":[{"name":"홀릭슈즈(Holic Shoes)","tel":"031-347-1567","addr":"경기도 안양시 만안구 석수동 763-8번지 우성빌라","indutype":"신변잡화 - 신발","category":"other"}]},{"lat":"37.410854885","long":"126.90833958","imageIndex":17,"items":[{"name":"홈케어 나무","tel":"","addr":"경기도 안양시 만안구 석수동 302-9번지","indutype":"용역 서비스 - 종합용역","category":"other"}]},{"lat":"37.412243081","long":"126.90915112","imageIndex":17,"items":[{"name":"홍구기획","tel":"070-4237-1008","addr":"경기도 안양시 만안구 석수동 305-13번지","indutype":"회원제형태 - 기타4","category":"other"}]},{"lat":"37.406548911","long":"126.89862023","imageIndex":17,"items":[{"name":"홍주네아동복","tel":"031-472-9375","addr":"경기도 안양시 만안구 석수동 781-2번지","indutype":"의류 - 아동의류","category":"other"}]},{"lat":"37.433746577","long":"126.90485336","imageIndex":17,"items":[{"name":"화이트바스","tel":"031-473-5012","addr":"경기도 안양시 만안구 석수동 374-5번지 석수역푸르지오아파트","indutype":"회원제형태 - 기타4","category":"other"}]},{"lat":"37.411718869","long":"126.90711858","imageIndex":17,"items":[{"name":"화인컴퓨터","tel":"031-471-8690","addr":"경기도 안양시 만안구 석수동 290-10번지","indutype":"사무통신 - 컴퓨터","category":"other"}]}]