[{"lat":"37.150644051","long":"127.06063945","imageIndex":17,"items":[{"name":"815당구재료","tel":"031-374-4354","addr":"경기도 오산시 가수동 293번지","indutype":"레져용품 - 스포츠·레져용품","category":"other"},{"name":"늘푸른세탁","tel":"031-375-8323","addr":"경기도 오산시 가수동 293번지 1층","indutype":"수리서비스 - 세탁소","category":"other"},{"name":"프리에이스 알뜰여사","tel":"031-372-2759","addr":"경기도 오산시 가수동 293번지 1층 106호","indutype":"용역 서비스 - 종합용역","category":"other"}]},{"lat":"37.146834462","long":"127.05673072","imageIndex":17,"items":[{"name":"GS25세교행복로점","tel":"","addr":"경기도 오산시 가수동 215-4번지 오산세교2 A-7블록 행복주택 단지 내 임대상가 102호","indutype":"유통업 영리 - 편 의 점","category":"other"},{"name":"오산컴퓨터수리","tel":"031-222-5489","addr":"경기도 오산시 가수동 215-4번지 오산세교행복주택 1201동 1212호","indutype":"사무통신 - 컴퓨터","category":"other"}]},{"lat":"37.143173958","long":"127.06147793","imageIndex":17,"items":[{"name":"GS25오산누읍점","tel":"","addr":"경기도 오산시 가수동 378-4번지 1동 1층","indutype":"유통업 영리 - 편 의 점","category":"other"}]},{"lat":"37.149868535","long":"127.06188832","imageIndex":17,"items":[{"name":"가구마을","tel":"031-373-1591","addr":"경기도 오산시 가수동 298-6","indutype":"가구 - 일반가구","category":"other"}]},{"lat":"37.150112312","long":"127.06088668","imageIndex":17,"items":[{"name":"경기모타","tel":"031-375-8738","addr":"경기도 오산시 가수동 290-2번지","indutype":"수리서비스 - 기타수리서비스","category":"other"},{"name":"우리종합상사","tel":"031-377-0034","addr":"경기도 오산시 가수동 290-2번지 1층 4호","indutype":"의류 - 기타의류","category":"other"},{"name":"유성전기","tel":"031-372-8035","addr":"경기도 오산시 가수동 290-2번지","indutype":"전기제품 - 기타전기제품","category":"other"},{"name":"태양공구철물종합상사","tel":"031-376-0989","addr":"경기도 오산시 가수동 290-2번지","indutype":"건축자재 - 기타건축자재","category":"other"}]},{"lat":"37.150472934","long":"127.06047047","imageIndex":17,"items":[{"name":"남촌철물건재","tel":"031-374-2870","addr":"경기도 오산시 가수동 293-2번지","indutype":"건축자재 - 기타건축자재","category":"other"},{"name":"미야공방","tel":"070-4317-4775","addr":"경기도 오산시 가수동 293-2번지 2층","indutype":"문화.취미 - 문화취미기타","category":"other"},{"name":"아주전기","tel":"031-378-9204","addr":"경기도 오산시 가수동 293-2번지 아주전기","indutype":"건축자재 - 보일러·펌프·샷시","category":"other"},{"name":"청학종합장식","tel":"031-373-9146","addr":"경기도 오산시 가수동 293-2번지","indutype":"직물 - 카페트,커튼,천막,지물","category":"other"},{"name":"컴네트","tel":"031-376-1119","addr":"경기도 오산시 가수동 293-2번지","indutype":"사무통신 - 컴퓨터","category":"other"}]},{"lat":"37.148950001","long":"127.060807","imageIndex":17,"items":[{"name":"대동종합상사","tel":"031-611-9023","addr":"경기도 오산시 가수동 302-46번지","indutype":"기타 - 기계공구","category":"other"},{"name":"태화상사","tel":"031-377-9797","addr":"경기도 오산시 가수동 302-46번지","indutype":"기타 - 기계공구","category":"other"}]},{"lat":"37.150112213","long":"127.0610893","imageIndex":17,"items":[{"name":"뜨지가구","tel":"031-372-2515","addr":"경기도 오산시 가수동 297-1번지","indutype":"가구 - 일반가구","category":"other"}]},{"lat":"37.150337546","long":"127.06094314","imageIndex":17,"items":[{"name":"씨엘사무용가구","tel":"031-372-0255","addr":"경기도 오산시 가수동 293-3번지","indutype":"가구 - 기타가구","category":"other"},{"name":"씨엘사무용가구","tel":"031-372-0255","addr":"경기도 오산시 가수동 293-3번지","indutype":"가구 - 기타가구","category":"other"}]},{"lat":"37.149922693","long":"127.06169701","imageIndex":17,"items":[{"name":"씨유SK남촌주유소점","tel":"031-375-6300","addr":"경기도 오산시 가수동 298-1번지","indutype":"유통업 영리 - 편 의 점","category":"other"}]},{"lat":"37.144916664","long":"127.05347645","imageIndex":17,"items":[{"name":"연합철재","tel":"031-665-1339","addr":"경기도 오산시 가수동 179-2번지","indutype":"기타 - 기계공구","category":"other"}]},{"lat":"37.144755927","long":"127.04995331","imageIndex":17,"items":[{"name":"오산초등학교","tel":"031-373-7853","addr":"경기도 오산시 가수동 76번지","indutype":"문화.취미 - 문화취미기타","category":"other"}]},{"lat":"37.150193174","long":"127.06135952","imageIndex":17,"items":[{"name":"오산토탈알뜰매장","tel":"031-373-2328","addr":"경기도 오산시 가수동 294-7번지","indutype":"전기제품 - 가전제품","category":"other"}]},{"lat":"37.150364412","long":"127.06128086","imageIndex":17,"items":[{"name":"제일유리창호공사","tel":"031-372-0757","addr":"경기도 오산시 가수동 294-1번지","indutype":"건축자재 - 유리","category":"other"}]},{"lat":"37.149309831","long":"127.06200045","imageIndex":17,"items":[{"name":"주식회사청학전력공사","tel":"031-372-4534","addr":"경기도 오산시 가수동 303-6","indutype":"건축자재 - 건축용 요업제품","category":"other"}]}]