[{"lat":"37.237608254","long":"127.15629346","imageIndex":17,"items":[{"name":"(사)한국그린키퍼협회","tel":"031-338-7805","addr":"경기도 용인시 처인구 삼가동 333-10번지 2층","indutype":"용역 서비스 - 종합용역","category":"other"}]},{"lat":"37.237857203","long":"127.17817936","imageIndex":17,"items":[{"name":"(주) 에이스투어","tel":"031-333-4788","addr":"경기도 용인시 처인구 삼가동 241-5번지 신천빌딩 106호","indutype":"여행 - 관광여행","category":"other"},{"name":"(주)한솔종합건축사","tel":"031-339-2024","addr":"경기도 용인시 처인구 삼가동 241-5번지 신천빌딩 401호","indutype":"용역 서비스 - 법률회계서비스(법인)","category":"other"},{"name":"드림디포 용인시청점","tel":"031-336-7411","addr":"경기도 용인시 처인구 삼가동 241-5번지 신천빌딩 103동 105호","indutype":"서적문구 - 문구용품","category":"other"},{"name":"드림디포카피센터","tel":"031-336-7411","addr":"경기도 용인시 처인구 삼가동 241-5번지 신천빌딩 지하 101호","indutype":"서적문구 - 출판 및 인쇄물","category":"other"},{"name":"로그","tel":"031-434-2351","addr":"경기도 용인시 처인구 삼가동 241-5번지","indutype":"광학제품 - 사진관","category":"other"},{"name":"세무회계 TaxPartners","tel":"031-332-7969","addr":"경기도 용인시 처인구 삼가동 241-5번지 신천빌딩 301호","indutype":"용역 서비스 - 법률회계서비스(개인)","category":"other"},{"name":"센트럴시티공인중개사사무소","tel":"031-336-1212","addr":"경기도 용인시 처인구 삼가동 241-5번지 신천빌딩 101호","indutype":"용역 서비스 - 부동산 중개·임대","category":"other"},{"name":"청운세무회계사무소(용인점)","tel":"031-323-6242","addr":"경기도 용인시 처인구 삼가동 241-5번지 신천빌딩 402호","indutype":"용역 서비스 - 법률회계서비스(개인)","category":"other"}]},{"lat":"37.241799103","long":"127.16887938","imageIndex":17,"items":[{"name":"(주)신일산업","tel":"031-321-5667","addr":"경기도 용인시 처인구 삼가동 207-3번지","indutype":"용역 서비스 - 보관및 창고업","category":"other"},{"name":"아놀드파마용인점","tel":"031-334-7988","addr":"경기도 용인시 처인구 삼가동 207-3번지","indutype":"레져용품 - 스포츠·레져용품","category":"other"}]},{"lat":"37.240378988","long":"127.16635181","imageIndex":17,"items":[{"name":"(주)용인신문사","tel":"031-336-3133","addr":"경기도 용인시 처인구 삼가동 186-1번지 307호","indutype":"용역 서비스 - 종합용역","category":"other"},{"name":"(주)해주이엔지","tel":"031-273-6855","addr":"경기도 용인시 처인구 삼가동 186-1번지 CMC빌딩 3층 305호","indutype":"용역 서비스 - 기타용역서비스","category":"other"},{"name":"북앤스토리","tel":"031-336-8585","addr":"경기도 용인시 처인구 삼가동 186-1번지 307호","indutype":"서적문구 - 출판 및 인쇄물","category":"other"},{"name":"호호통신","tel":"031-338-9595","addr":"경기도 용인시 처인구 삼가동 186-1번지 101-102호","indutype":"사무통신 - 통신기기","category":"other"}]},{"lat":"37.240463549","long":"127.170319","imageIndex":17,"items":[{"name":"(주)유성환경","tel":"031-338-2997","addr":"경기도 용인시 처인구 삼가동 197-3번지","indutype":"용역 서비스 - 기타용역서비스","category":"other"}]},{"lat":"37.24080194","long":"127.17312597","imageIndex":17,"items":[{"name":"GS25용인금령점","tel":"","addr":"경기도 용인시 처인구 삼가동 537번지 상가동 104호 (상가동)","indutype":"유통업 영리 - 편 의 점","category":"other"}]},{"lat":"37.239521246","long":"127.16762344","imageIndex":17,"items":[{"name":"GS25용인위브점","tel":"","addr":"경기도 용인시 처인구 삼가동 563번지 용인행정타운두산위브2단지 1,2호","indutype":"유통업 영리 - 편 의 점","category":"other"},{"name":"SD테크","tel":"031-274-6778","addr":"경기도 용인시 처인구 삼가동 563번지 용인행정타운두산위브2단지","indutype":"회원제형태 - 기타4","category":"other"},{"name":"모던사운드","tel":"032-321-4935","addr":"경기도 용인시 처인구 삼가동 563번지 용인행정타운두산위브2단지","indutype":"회원제형태 - 기타3","category":"other"}]},{"lat":"37.244829276","long":"127.16693622","imageIndex":17,"items":[{"name":"거미하우스디자인","tel":"","addr":"경기도 용인시 처인구 삼가동 111-3번지 204호","indutype":"건축자재 - 인테리어전문","category":"other"}]},{"lat":"37.242159641","long":"127.16879001","imageIndex":17,"items":[{"name":"고은","tel":"031-338-0102","addr":"경기도 용인시 처인구 삼가동 207-6번지 1층 13,14호","indutype":"의류 - 정장","category":"other"},{"name":"마운틴하우스용인점","tel":"031-338-0106","addr":"경기도 용인시 처인구 삼가동 207-6번지 8(1,2층8호~9호)","indutype":"레져용품 - 스포츠·레져용품","category":"other"},{"name":"벤제프(용인로데오점)","tel":"031-334-3363","addr":"경기도 용인시 처인구 삼가동 207-6번지 1호 ,2층6,7호","indutype":"레져용품 - 스포츠·레져용품","category":"other"},{"name":"올포유 용인시청점","tel":"031-332-7587","addr":"경기도 용인시 처인구 삼가동 207-6번지","indutype":"레져용품 - 스포츠·레져용품","category":"other"},{"name":"웨스트우드용인로데오점","tel":"031-335-2624","addr":"경기도 용인시 처인구 삼가동 207-6번지 11호 (1층11호~12호)","indutype":"레져용품 - 스포츠·레져용품","category":"other"},{"name":"코오롱스포츠용인점","tel":"031-334-3939","addr":"경기도 용인시 처인구 삼가동 207-6번지","indutype":"레져용품 - 스포츠·레져용품","category":"other"},{"name":"피에스 앤 엠아이 스포츠","tel":"031-333-1871","addr":"경기도 용인시 처인구 삼가동 207-6번지 2층 11,12,13,14호","indutype":"레져용품 - 스포츠·레져용품","category":"other"},{"name":"핑크골프(PINK GOLF)","tel":"031-304-8979","addr":"경기도 용인시 처인구 삼가동 207-6번지 용인로데오 204,205호","indutype":"레져용품 - 스포츠·레져용품","category":"other"}]},{"lat":"37.239617609","long":"127.1630594","imageIndex":17,"items":[{"name":"국제기술인증원","tel":"031-335-1911","addr":"경기도 용인시 처인구 삼가동 294-4번지 고려주택 B동 305호","indutype":"용역 서비스 - 사무서비스","category":"other"}]},{"lat":"37.226608742","long":"127.16812494","imageIndex":17,"items":[{"name":"기념품,스포츠잡화점","tel":"031-8020-3908","addr":"경기도 용인시 처인구 삼가동 470번지 용인대학교 1층 용인대학교인성관","indutype":"신변잡화 - 기타잡화","category":"other"},{"name":"꾸러기문구점","tel":"031-334-5322","addr":"경기도 용인시 처인구 삼가동 470번지 용인대학교 1층","indutype":"서적문구 - 문구용품","category":"other"},{"name":"나우","tel":"031-471-3222","addr":"경기도 용인시 처인구 삼가동 470번지 용인대학교 중앙도서관","indutype":"사무통신 - 기타 사무용품","category":"other"},{"name":"사단법인 한국재난정보학회","tel":"02-403-4484","addr":"경기도 용인시 처인구 삼가동 470번지 용인대학교경호하고가사회안전연구실","indutype":"용역 서비스 - 사무서비스","category":"other"},{"name":"예대복사","tel":"031-335-8994","addr":"경기도 용인시 처인구 삼가동 470번지 용인대학교 1층","indutype":"서적문구 - 출판 및 인쇄물","category":"other"},{"name":"용인대학교복사실","tel":"031-335-8990","addr":"경기도 용인시 처인구 삼가동 470번지","indutype":"서적문구 - 출판 및 인쇄물","category":"other"},{"name":"중앙도서관복사실","tel":"031-339-7146","addr":"경기도 용인시 처인구 삼가동 470번지","indutype":"용역 서비스 - 사무서비스","category":"other"}]},{"lat":"37.242883507","long":"127.16660517","imageIndex":17,"items":[{"name":"까스텔바쟉 용인","tel":"031-323-2929","addr":"경기도 용인시 처인구 삼가동 173-16번지 대웅빌딩 101호","indutype":"레져용품 - 스포츠·레져용품","category":"other"},{"name":"석바이크","tel":"031-339-0369","addr":"경기도 용인시 처인구 삼가동 173-16번지 대웅빌딩 1층 102호","indutype":"레져용품 - 스포츠·레져용품","category":"other"},{"name":"주식회사퓨처젠라이프","tel":"031-1644-3216","addr":"경기도 용인시 처인구 삼가동 173-16번지 대웅빌딩","indutype":"레져용품 - 스포츠·레져용품","category":"other"},{"name":"캠핑123","tel":"031-1644-3216","addr":"경기도 용인시 처인구 삼가동 173-16번지 대웅빌딩 2층","indutype":"레져용품 - 스포츠·레져용품","category":"other"}]},{"lat":"37.239302032","long":"127.16974168","imageIndex":17,"items":[{"name":"네르하 순","tel":"031-8869-5525","addr":"경기도 용인시 처인구 삼가동 564번지 용인행정타운두산위브3단지","indutype":"의류 - 정장","category":"other"},{"name":"삼성세이프&스마트홈(SNS)","tel":"","addr":"경기도 용인시 처인구 삼가동 564번지 용인행정타운두산위브3단지","indutype":"건축자재 - 목재·석재·철물","category":"other"}]},{"lat":"37.238018826","long":"127.17237592","imageIndex":17,"items":[{"name":"늘푸른세탁소","tel":"031-323-7070","addr":"경기도 용인시 처인구 삼가동 552늘푸른오스카빌상가동205","indutype":"수리서비스 - 세탁소","category":"other"},{"name":"더빅 커뮤니케이션즈","tel":"031-332-3650","addr":"경기도 용인시 처인구 삼가동 552","indutype":"문화.취미 - 티켓","category":"other"},{"name":"애플문구","tel":"031-339-3996","addr":"경기도 용인시 처인구 삼가동 552번지 삼현마을늘푸른오스카빌 상가동 103호","indutype":"서적문구 - 문구용품","category":"other"}]},{"lat":"37.241268426","long":"127.16821329","imageIndex":17,"items":[{"name":"다나","tel":"031-333-6893","addr":"경기도 용인시 처인구 삼가동 203-6","indutype":"의류 - 정장","category":"other"}]},{"lat":"37.241546071","long":"127.16940852","imageIndex":17,"items":[{"name":"다우인쇄사","tel":"031-323-0982","addr":"경기도 용인시 처인구 삼가동 202-5번지 101호","indutype":"서적문구 - 출판 및 인쇄물","category":"other"}]},{"lat":"37.243602641","long":"127.16782392","imageIndex":17,"items":[{"name":"대광FIRE","tel":"031-334-3119","addr":"경기도 용인시 처인구 삼가동 109-6번지","indutype":"기타 - 기계공구","category":"other"},{"name":"로샤 쏠라","tel":"","addr":"경기도 용인시 처인구 삼가동 109-6번지","indutype":"의류 - 내의판매","category":"other"}]},{"lat":"37.247187901","long":"127.16842909","imageIndex":17,"items":[{"name":"대명공조시스템","tel":"070-7018-5366","addr":"경기도 용인시 처인구 삼가동 103-10번지","indutype":"전기제품 - 냉열기기","category":"other"}]},{"lat":"37.245046986","long":"127.16587726","imageIndex":17,"items":[{"name":"대성나루텍","tel":"031-335-3466","addr":"경기도 용인시 처인구 삼가동 131번지 1층","indutype":"건축자재 - 목재·석재·철물","category":"other"}]},{"lat":"37.252738105","long":"127.16195999","imageIndex":17,"items":[{"name":"대한불교조계종화운사","tel":"031-335-2576","addr":"경기도 용인시 처인구 삼가동 33-1번지","indutype":"기타 - 비영리/대상","category":"other"}]},{"lat":"37.236716117","long":"127.15638181","imageIndex":17,"items":[{"name":"더샵","tel":"070-4940-7464","addr":"경기도 용인시 처인구 삼가동 329-1번지","indutype":"의류 - 정장","category":"other"}]},{"lat":"37.237334784","long":"127.17185599","imageIndex":17,"items":[{"name":"디노컴이노베이션","tel":"031-334-7219","addr":"경기도 용인시 처인구 삼가동 552번지 행정타운늘푸른오스카빌","indutype":"회원제형태 - 기타3","category":"other"}]},{"lat":"37.244992116","long":"127.16646321","imageIndex":17,"items":[{"name":"리움(LIUM)","tel":"070-8943-5373","addr":"경기도 용인시 처인구 삼가동 132번지 2층","indutype":"용역 서비스 - 사무서비스","category":"other"},{"name":"주식회사 컴앤넷용인점","tel":"031-338-3985","addr":"경기도 용인시 처인구 삼가동 132번지 1층","indutype":"사무통신 - 컴퓨터","category":"other"}]},{"lat":"37.243216029","long":"127.1797358","imageIndex":17,"items":[{"name":"마을미디어인스토리 협동조합","tel":"031-321-0870","addr":"경기도 용인시 처인구 삼가동 557-1번지","indutype":"용역 서비스 - 종합용역","category":"other"}]},{"lat":"37.241690045","long":"127.16954408","imageIndex":17,"items":[{"name":"마켓24","tel":"070-8252-8242","addr":"경기도 용인시 처인구 삼가동 202-4번지 부흥빌라 1층 2호","indutype":"기타 - 기타 전문점","category":"other"}]},{"lat":"37.241545325","long":"127.16993821","imageIndex":17,"items":[{"name":"메이플 교육","tel":"031-323-5579","addr":"경기도 용인시 처인구 삼가동 200-26번지 상원주택 B동 103호","indutype":"서적문구 - 일반서적","category":"other"}]},{"lat":"37.244712689","long":"127.1665415","imageIndex":17,"items":[{"name":"밝달법인","tel":"031-321-7668","addr":"경기도 용인시 처인구 삼가동 125-3번지 3층","indutype":"문화.취미 - 민예·공예품","category":"other"}]},{"lat":"37.243243044","long":"127.16723708","imageIndex":17,"items":[{"name":"백년옥침대","tel":"031-335-8363","addr":"경기도 용인시 처인구 삼가동 208-12번지 1층","indutype":"가구 - 일반가구","category":"other"}]},{"lat":"37.241370154","long":"127.17273279","imageIndex":17,"items":[{"name":"부영","tel":"031-322-1879","addr":"경기도 용인시 처인구 삼가동 537번지 금령마을우남퍼스트빌아파트","indutype":"유통업 영리 - 기타유통업","category":"other"},{"name":"사랑","tel":"031-335-8417","addr":"경기도 용인시 처인구 삼가동 537번지 금령마을우남퍼스트빌아파트","indutype":"회원제형태 - 기타4","category":"other"},{"name":"여름하늘  (호)","tel":"","addr":"경기도 용인시 처인구 삼가동 537번지 금령마을우남퍼스트빌아파트","indutype":"문화.취미 - 화원","category":"other"}]},{"lat":"37.249296841","long":"127.16805049","imageIndex":17,"items":[{"name":"사계절농원","tel":"031-336-3362","addr":"경기도 용인시 처인구 삼가동 56-4","indutype":"문화.취미 - 화원","category":"other"},{"name":"용인꽃농원","tel":"031-332-2400","addr":"경기도 용인시 처인구 삼가동 56-4","indutype":"문화.취미 - 화원","category":"other"}]},{"lat":"37.234741953","long":"127.15707649","imageIndex":17,"items":[{"name":"사단법인대한프로골프협회","tel":"0505-586-3727","addr":"경기도 용인시 처인구 삼가동 419-3번지 3층 조일프라자골프","indutype":"용역 서비스 - 사무서비스","category":"other"},{"name":"키움스포츠 용인조일점","tel":"","addr":"경기도 용인시 처인구 삼가동 419-3번지","indutype":"레져용품 - 골프용품 전문점","category":"other"}]},{"lat":"37.245129255","long":"127.16502087","imageIndex":17,"items":[{"name":"산성수석화원","tel":"031-321-8486","addr":"경기도 용인시 처인구 삼가동 128-5","indutype":"문화.취미 - 화원","category":"other"},{"name":"산성옥션민속품","tel":"031-321-8486","addr":"경기도 용인시 처인구 삼가동 128-5번지 마루카페","indutype":"문화.취미 - 민예·공예품","category":"other"}]},{"lat":"37.248937652","long":"127.16054311","imageIndex":17,"items":[{"name":"삼우종합기계","tel":"031-321-7056","addr":"경기도 용인시 처인구 삼가동 39-7번지","indutype":"기타 - 기계공구","category":"other"}]},{"lat":"37.241274985","long":"127.16996016","imageIndex":17,"items":[{"name":"세무사 문덕배사무소","tel":"","addr":"경기도 용인시 처인구 삼가동 199-3번지 3층","indutype":"용역 서비스 - 법률회계서비스(개인)","category":"other"}]},{"lat":"37.239053408","long":"127.17349394","imageIndex":17,"items":[{"name":"세무사김우중사무소","tel":"031-322-3131","addr":"경기도 용인시 처인구 삼가동 250-44번지 씨티프라자 402호","indutype":"용역 서비스 - 법률회계서비스(개인)","category":"other"},{"name":"윤경호세무사","tel":"031-338-8300","addr":"경기도 용인시 처인구 삼가동 250-44번지 씨티프라자 602호","indutype":"용역 서비스 - 법률회계서비스(개인)","category":"other"}]},{"lat":"37.246407725","long":"127.16574494","imageIndex":17,"items":[{"name":"세븐일레븐용인삼가점","tel":"","addr":"경기도 용인시 처인구 삼가동 137-7번지 상가동102호~103호","indutype":"유통업 영리 - 편 의 점","category":"other"},{"name":"컴퓨터와친구들","tel":"031-333-8226","addr":"경기도 용인시 처인구 삼가동 137-7번지 현대빌라 상가동 104호","indutype":"사무통신 - 컴퓨터","category":"other"},{"name":"포시즌마트","tel":"031-338-0961","addr":"경기도 용인시 처인구 삼가동 137-7번지 상가동102호~103호","indutype":"유통업 영리 - 편 의 점","category":"other"}]},{"lat":"37.235690516","long":"127.16201432","imageIndex":17,"items":[{"name":"수덕사","tel":"031-322-3553","addr":"경기도 용인시 처인구 삼가동 428-6번지","indutype":"기타 - 비영리/대상","category":"other"}]},{"lat":"37.244242748","long":"127.16755483","imageIndex":17,"items":[{"name":"신용건설","tel":"031-339-4537","addr":"경기도 용인시 처인구 삼가동 109-18번지 전원주택 B동 402호","indutype":"회원제형태 - 기타4","category":"other"}]},{"lat":"37.239161775","long":"127.17332513","imageIndex":17,"items":[{"name":"씨유용인삼가점","tel":"031-338-8277","addr":"경기도 용인시 처인구 삼가동 250-39번지 인앤인프라자 106호","indutype":"유통업 영리 - 편 의 점","category":"other"},{"name":"엔젤리카","tel":"031-334-2012","addr":"경기도 용인시 처인구 삼가동 250-39번지 인앤인플라자 1층 105호","indutype":"의류 - 정장","category":"other"}]},{"lat":"37.245279635","long":"127.16704991","imageIndex":17,"items":[{"name":"아기비","tel":"070-7565-1710","addr":"경기도 용인시 처인구 삼가동 117 상가A동101","indutype":"전기제품 - 기타전기제품","category":"other"},{"name":"풍림세탁소","tel":"031-321-4386","addr":"경기도 용인시 처인구 삼가동 117풍림상가A-104","indutype":"수리서비스 - 세탁소","category":"other"}]},{"lat":"37.243684157","long":"127.1675198","imageIndex":17,"items":[{"name":"어드레스골프(address golf)","tel":"031-333-2524","addr":"경기도 용인시 처인구 삼가동 210번지 102호","indutype":"레져용품 - 골프용품 전문점","category":"other"}]},{"lat":"37.245964916","long":"127.16669073","imageIndex":17,"items":[{"name":"연희공방","tel":"","addr":"경기도 용인시 처인구 삼가동 117번지 풍림아파트","indutype":"문화.취미 - 문화취미기타","category":"other"}]},{"lat":"37.243107686","long":"127.1673833","imageIndex":17,"items":[{"name":"용인 데이터복구스마트폰KDT","tel":"031-335-5106","addr":"경기도 용인시 처인구 삼가동 208-10번지 204호","indutype":"용역 서비스 - 사무서비스","category":"other"}]},{"lat":"37.241412323","long":"127.16840519","imageIndex":17,"items":[{"name":"용인나비","tel":"031-321-0984","addr":"경기도 용인시 처인구 삼가동 203-1번지 101호 101호~102호","indutype":"전기제품 - 가전제품","category":"other"}]},{"lat":"37.240768592","long":"127.17746482","imageIndex":17,"items":[{"name":"용인시청 교통행정/CAT","tel":"031-324-4278","addr":"경기도 용인시 처인구 삼가동 556번지 용인시청 교통행정과","indutype":"용역 서비스 - 조세서비스","category":"other"},{"name":"용인시청 교통행정/인터넷","tel":"031-324-4278","addr":"경기도 용인시 처인구 삼가동 556번지 용인시청 교통행정과","indutype":"용역 서비스 - 조세서비스","category":"other"},{"name":"용인시청 세외수입/CAT","tel":"031-324-4278","addr":"경기도 용인시 처인구 삼가동 556번지 용인시청 세정과","indutype":"용역 서비스 - 조세서비스","category":"other"},{"name":"용인시청 세외수입/인터넷","tel":"031-324-4278","addr":"경기도 용인시 처인구 삼가동 556번지 용인시청 세정과","indutype":"용역 서비스 - 조세서비스","category":"other"},{"name":"주식회사드림아일랜드투어(용인지점)","tel":"031-324-9911","addr":"경기도 용인시 처인구 삼가동 556번지 문화복지행정타운 1층","indutype":"여행 - 관광여행","category":"other"}]},{"lat":"37.246795895","long":"127.16521605","imageIndex":17,"items":[{"name":"용인인프라인상사","tel":"","addr":"경기도 용인시 처인구 삼가동 137-5번지 1층","indutype":"수리서비스 - 기타수리서비스","category":"other"}]},{"lat":"37.238660749","long":"127.17707679","imageIndex":17,"items":[{"name":"우성복층유리","tel":"031-321-6209","addr":"경기도 용인시 처인구 삼가동 238-29번지","indutype":"건축자재 - 유리","category":"other"}]},{"lat":"37.23833388","long":"127.17259075","imageIndex":17,"items":[{"name":"윙텍","tel":"031-336-0772","addr":"경기도 용인시 처인구 삼가동 552번지 행정타운늘푸른오스카빌","indutype":"회원제형태 - 기타4","category":"other"}]},{"lat":"37.241048468","long":"127.17084998","imageIndex":17,"items":[{"name":"유니테크","tel":"070-4219-0610","addr":"경기도 용인시 처인구 삼가동 199-9번지","indutype":"기타 - 기계공구","category":"other"}]},{"lat":"37.237246362","long":"127.15743094","imageIndex":17,"items":[{"name":"유림","tel":"02-572-3437","addr":"경기도 용인시 처인구 삼가동 327-4번지","indutype":"신변잡화 - 기타잡화","category":"other"}]},{"lat":"37.241008966","long":"127.17327294","imageIndex":17,"items":[{"name":"이삭도어","tel":"070-6275-0622","addr":"경기도 용인시 처인구 삼가동 537번지 금령마을우남퍼스트빌아파트 104동 604호","indutype":"용역 서비스 - 기타용역서비스","category":"other"}]},{"lat":"37.238352928","long":"127.1654346","imageIndex":17,"items":[{"name":"이젠스포츠","tel":"031-285-1117","addr":"경기도 용인시 처인구 삼가동 562","indutype":"레져용품 - 스포츠·레져용품","category":"other"},{"name":"패션왕","tel":"070-8210-2522","addr":"경기도 용인시 처인구 삼가동 562번지 용인행정타운두산위브1단지","indutype":"의류 - 정장","category":"other"},{"name":"팻어라운드(PET_AROUND)","tel":"02-1661-9358","addr":"경기도 용인시 처인구 삼가동 562번지 용인행정타운두산위브1단지","indutype":"문화.취미 - 애완동물","category":"other"}]},{"lat":"37.239129073","long":"127.15777287","imageIndex":17,"items":[{"name":"제이에스스포츠","tel":"031-333-5600","addr":"경기도 용인시 처인구 삼가동 320-9번지 3층 3-1호","indutype":"레져용품 - 골프용품 전문점","category":"other"}]},{"lat":"37.24446124","long":"127.16593235","imageIndex":17,"items":[{"name":"제이엘조명전기","tel":"031-336-2710","addr":"경기도 용인시 처인구 삼가동 128-1,2층3층","indutype":"건축자재 - 조명기구","category":"other"}]},{"lat":"37.239878404","long":"127.16343185","imageIndex":17,"items":[{"name":"진영골프","tel":"1111-1111-1111","addr":"경기도 용인시 처인구 삼가동 296-3번지 문화용인오피스텔 101호","indutype":"회원제형태 - 기타4","category":"other"}]},{"lat":"37.24627353","long":"127.16504586","imageIndex":17,"items":[{"name":"천마차대리점","tel":"070-8669-1191","addr":"경기도 용인시 처인구 삼가동 135-8번지 삼성그린빌라 403호","indutype":"회원제형태 - 기타4","category":"other"}]},{"lat":"37.239468886","long":"127.17279615","imageIndex":17,"items":[{"name":"청수C&F","tel":"031-333-3459","addr":"경기도 용인시 처인구 삼가동 250-7번지 진우APT상가106","indutype":"용역 서비스 - 종합용역","category":"other"}]},{"lat":"37.238827191","long":"127.17415833","imageIndex":17,"items":[{"name":"태화건설,종합컨설팅(주)","tel":"031-321-7011","addr":"경기도 용인시 처인구 삼가동 250-49번지","indutype":"용역 서비스 - 기타용역서비스","category":"other"},{"name":"태화부동산공인중개주식회사","tel":"031-321-7011","addr":"경기도 용인시 처인구 삼가동 250-49번지","indutype":"용역 서비스 - 부동산 중개·임대","category":"other"}]},{"lat":"37.239713823","long":"127.16518959","imageIndex":17,"items":[{"name":"티엔아이","tel":"031-336-8215","addr":"경기도 용인시 처인구 삼가동 298-4번지","indutype":"사무통신 - 기타 사무용품","category":"other"}]},{"lat":"37.239689432","long":"127.16325113","imageIndex":17,"items":[{"name":"파브리카나인","tel":"","addr":"경기도 용인시 처인구 삼가동 294-6번지 고려주택 C동 202호","indutype":"신변잡화 - 액세서리","category":"other"}]},{"lat":"37.24002043","long":"127.17145627","imageIndex":17,"items":[{"name":"펫스타일","tel":"031-334-4589","addr":"경기도 용인시 처인구 삼가동 197-30번지","indutype":"농업 - 비료,사료,종자","category":"other"}]},{"lat":"37.245496848","long":"127.1663516","imageIndex":17,"items":[{"name":"피앤에스카피랜드","tel":"031-338-4805","addr":"경기도 용인시 처인구 삼가동 133-1번지 재보빌딩 1층","indutype":"용역 서비스 - 사무서비스","category":"other"}]},{"lat":"37.242439999","long":"127.16804679","imageIndex":17,"items":[{"name":"허시파피","tel":"031-332-7270","addr":"경기도 용인시 처인구 삼가동 208-6 용인로데오1번가","indutype":"레져용품 - 스포츠·레져용품","category":"other"}]}]