[{"lat":"37.373970507","long":"126.73421756","imageIndex":16,"items":[{"name":"2H수학학원","tel":"031-434-0502","addr":"경기도 시흥시 정왕동 2471-1번지 로얄페스타 507호","indutype":"교육서비스업 - 학원","category":"study"},{"name":"리딩잇츠 영어학원","tel":"031-433-2005","addr":"경기도 시흥시 정왕동 2471-1번지 로얄페스타 304호","indutype":"개인서비스업 - 학원","category":"study"},{"name":"바라어학원","tel":"031-319-7905","addr":"경기도 시흥시 정왕동 2471-1번지 로얄페스타 406호","indutype":"교육서비스업 - 학원","category":"study"},{"name":"배곧영재아카데미학원","tel":"031-488-5369","addr":"경기도 시흥시 정왕동 2471-1번지 로얄페스타 401호","indutype":"교육서비스업 - 학원","category":"study"},{"name":"앤드음악학원","tel":"031-433-5551","addr":"경기도 시흥시 정왕동 2471-1번지 로얄페스타 501호","indutype":"교육서비스업 - 예술학원","category":"study"},{"name":"에임스영어학원","tel":"031-498-3198","addr":"경기도 시흥시 정왕동 2471-1번지 402,403호","indutype":"교육서비스업 - 학원","category":"study"}]},{"lat":"37.354419529","long":"126.72297779","imageIndex":16,"items":[{"name":"YBM ECC영어학원","tel":"031-499-0509","addr":"경기도 시흥시 정왕동 1861-1번지 3층","indutype":"교육서비스업 - 영어학원","category":"study"},{"name":"더올림학원","tel":"031-499-0509","addr":"경기도 시흥시 정왕동 1861-1번지 세종월드빌딩 301호","indutype":"교육서비스업 - 보습학원","category":"study"},{"name":"에스코드학원","tel":"031-319-3005","addr":"경기도 시흥시 정왕동 1861-1번지 세종월드빌딩 4층","indutype":"교육서비스업 - 입시학원","category":"study"}]},{"lat":"37.354024581","long":"126.72361132","imageIndex":16,"items":[{"name":"㈜대성아카데미","tel":"031-434-3300","addr":"경기도 시흥시 정왕동 1861-3번지 메가쇼핑몰 4층","indutype":"교육서비스업 - 학원","category":"study"}]},{"lat":"37.373800009","long":"126.734523","imageIndex":16,"items":[{"name":"가우스수학학원","tel":"031-319-3139","addr":"경기도 시흥시 정왕동 2471-2번지 대경프라자 502호","indutype":"교육서비스업 - 학원","category":"study"},{"name":"공부다이어리학원","tel":"031-365-4250","addr":"경기도 시흥시 정왕동 2471-2번지 대경프라자 305호","indutype":"교육서비스업 - 학원","category":"study"},{"name":"라온음악학원","tel":"031-433-3357","addr":"경기도 시흥시 정왕동 2471-2번지 대경프라자 404호","indutype":"교육서비스업 - 음악학원","category":"study"},{"name":"수학의 길 학원","tel":"031-488-8252","addr":"경기도 시흥시 정왕동 2471-2번지 대경프라자 302호","indutype":"교육서비스업 - 학원","category":"study"},{"name":"아트리 미술창작소학원","tel":"031-433-9531","addr":"경기도 시흥시 정왕동 2471-2번지 대경프라자 405호","indutype":"교육서비스업 - 학원","category":"study"},{"name":"엠투(M2)수학학원","tel":"031-433-6886","addr":"경기도 시흥시 정왕동 2471-2번지 대경프라자 501호","indutype":"교육서비스업 - 보습학원","category":"study"}]},{"lat":"37.363221248","long":"126.73019214","imageIndex":16,"items":[{"name":"국제사관학교","tel":"031-497-1444","addr":"경기도 시흥시 정왕동 1882-4번지 505,506,507호일부","indutype":"교육서비스업 - 보습학원","category":"study"},{"name":"꿈의교실","tel":"","addr":"경기도 시흥시 정왕동 1882-4번지 세종프라자 504-2호, 505-1~2호","indutype":"교육서비스업 - 영수학원","category":"study"}]},{"lat":"37.363445666","long":"126.7298301","imageIndex":16,"items":[{"name":"그릴래키즈브라운영어미술학원","tel":"031-499-4834","addr":"경기도 시흥시 정왕동 1882-2번지","indutype":"교육서비스업 - 영어,미술학원","category":"study"},{"name":"아르떼음악학원","tel":"031-499-6535","addr":"경기도 시흥시 정왕동 1882-2번지 대림하이츠프라자 302호","indutype":"교육서비스업 - 학원","category":"study"},{"name":"티엔티정왕어학원","tel":"031-431-0505","addr":"경기도 시흥시 정왕동 1882-2번지 대림하이츠프라자 301호","indutype":"교육서비스업 - 어학원","category":"study"}]},{"lat":"37.343866408","long":"126.73764273","imageIndex":16,"items":[{"name":"글로벌외국어학원","tel":"031-313-6969","addr":"경기도 시흥시 정왕동 1739-6번지 길재빌딩 5층","indutype":"교육서비스업 - 영어학원","category":"study"}]},{"lat":"37.345584921","long":"126.75308664","imageIndex":16,"items":[{"name":"금메달보습학원","tel":"031-498-3726","addr":"경기도 시흥시 정왕동 1177-7번지 2층","indutype":"교육서비스업 - 보습학원","category":"study"}]},{"lat":"37.376666205","long":"126.72711769","imageIndex":16,"items":[{"name":"나나음악학원","tel":"031-431-0153","addr":"경기도 시흥시 정왕동 2477-4번지 골든프라자 405호","indutype":"교육서비스업 - 음악학원","category":"study"},{"name":"비상잉글리시아이학원","tel":"031-311-7077","addr":"경기도 시흥시 정왕동 2477-4번지 골든프라자 305호","indutype":"교육서비스업 - 영어학원","category":"study"},{"name":"삼성영어 쎈수학 배곧학원(삼성영어어학원)","tel":"","addr":"경기도 시흥시 정왕동 2477-4번지 402,502호","indutype":"교육서비스업 - 학원","category":"study"},{"name":"필아트미술학원","tel":"031-497-2429","addr":"경기도 시흥시 정왕동 2477-4번지 골든프라자 4층 404호","indutype":"교육서비스업 - 미술학원","category":"study"},{"name":"홍익클래스 미술학원","tel":"","addr":"경기도 시흥시 정왕동 2477-4번지 골든프라자 501호","indutype":"교육서비스업 - 미술학원","category":"study"}]},{"lat":"37.374132072","long":"126.73394603","imageIndex":16,"items":[{"name":"더뮤즈음악학원","tel":"031-433-5535","addr":"경기도 시흥시 정왕동 1772-31번지 지음프라자 503호","indutype":"교육서비스업 - 음악학원","category":"study"},{"name":"라온잉글리시학원","tel":"031-319-3080","addr":"경기도 시흥시 정왕동 1772-31번지 지음프라자 4층 403호","indutype":"교육서비스업 - 외국어학원","category":"study"},{"name":"박진운국어전문학원","tel":"031-434-4945","addr":"경기도 시흥시 정왕동 1772-31번지 지음프라자 4층 401호","indutype":"교육서비스업 - 학원","category":"study"},{"name":"수인재학원","tel":"031-433-2510","addr":"경기도 시흥시 정왕동 1772-31번지 지음프라자 404호","indutype":"교육서비스업 - 보습학원","category":"study"},{"name":"조이스감성미술학원","tel":"031-364-8411","addr":"경기도 시흥시 정왕동 1772-31번지 지음프라자 3층 303호","indutype":"교육서비스업 - 미술학원","category":"study"},{"name":"토스영어학원","tel":"031-499-6554","addr":"경기도 시흥시 정왕동 1772-31번지 지음프라자 603호","indutype":"교육서비스업 - 외국어학원","category":"study"}]},{"lat":"37.341831545","long":"126.73828185","imageIndex":16,"items":[{"name":"더피아노음악전문학원","tel":"031-431-7895","addr":"경기도 시흥시 정왕동 1790번지 상가동 210,211호","indutype":"교육서비스업 - 음악학원","category":"study"},{"name":"삼성영어이해법수학학원","tel":"031-503-9018","addr":"경기도 시흥시 정왕동 1790번지 영남6차아파트 302호","indutype":"교육서비스업 - 학원","category":"study"},{"name":"제이엔씨최상학원","tel":"031-311-1009","addr":"경기도 시흥시 정왕동 1790번지 204호~206호","indutype":"교육서비스업 - 보습학원","category":"study"}]},{"lat":"37.37741501","long":"126.72753269","imageIndex":16,"items":[{"name":"두드림음악학원","tel":"031-498-3303","addr":"경기도 시흥시 정왕동 2475-3번지 배곧타운 502호","indutype":"교육서비스업 - 음악학원","category":"study"},{"name":"배곧와이즈만 영재교육학원","tel":"","addr":"경기도 시흥시 정왕동 2475-3번지 배곧타운 3층 301~2호","indutype":"교육서비스업 - 보습학원","category":"study"},{"name":"에이블수학학원","tel":"031-433-2347","addr":"경기도 시흥시 정왕동 2475-3번지 배곧타운 ㅣ 402호","indutype":"교육서비스업 - 보습학원","category":"study"},{"name":"왕쌤수학&한솔영어학원","tel":"031-8042-2600","addr":"경기도 시흥시 정왕동 2475-3번지 배곧타운 504호","indutype":"교육서비스업 - 보습학원","category":"study"},{"name":"지(G)1230 에듀학원","tel":"031-319-8668","addr":"경기도 시흥시 정왕동 2475-3번지 403~404호","indutype":"교육서비스업 - 학원교과교습학원","category":"study"},{"name":"책읽는루브르아뜰리에미술학원","tel":"031-432-7553","addr":"경기도 시흥시 정왕동 2475-3번지 배곧타운 1동 5층 501호","indutype":"교육서비스업 - 예술학원","category":"study"},{"name":"플레이아트몬드리안창작소미술학원","tel":"","addr":"경기도 시흥시 정왕동 2475-3번지 배곧타운 4층 408호","indutype":"교육서비스업 - 미술학원","category":"study"}]},{"lat":"37.377773858","long":"126.72686525","imageIndex":16,"items":[{"name":"디디영어학원","tel":"031-499-3553","addr":"경기도 시흥시 정왕동 2475-1번지 배곧타운2 304호","indutype":"교육서비스업 - 학원","category":"study"},{"name":"라임어학원","tel":"","addr":"경기도 시흥시 정왕동 2475-1번지 배곧타운2 317호","indutype":"교육서비스업 - 학원","category":"study"},{"name":"마스터레벨업학원","tel":"031-449-2340","addr":"경기도 시흥시 정왕동 2475-1번지 배곧타운2 3층 312호","indutype":"교육서비스업 - 보습학원","category":"study"},{"name":"배곧검도교실","tel":"031-433-9979","addr":"경기도 시흥시 정왕동 2475-1번지 배곧타운2 513~4호","indutype":"교육서비스업 - 학원","category":"study"},{"name":"뿌리수학","tel":"031-431-3334","addr":"경기도 시흥시 정왕동 2475-1번지 배곧타운2차 302호","indutype":"교육서비스업 - 학원","category":"study"},{"name":"수학N이해학원","tel":"031-434-0901","addr":"경기도 시흥시 정왕동 2475-1번지 배곧타운2 305호","indutype":"교육서비스업 - 학원","category":"study"},{"name":"알파수학학원","tel":"031-499-0948","addr":"경기도 시흥시 정왕동 2475-1번지 배곧타운2 403호","indutype":"교육서비스업 - 보습학원","category":"study"},{"name":"유니팝미술학원","tel":"031-431-6635","addr":"경기도 시흥시 정왕동 2475-1번지 배곧타운2 301호","indutype":"교육서비스업 - 미술학원","category":"study"},{"name":"이보영의토킹클럽 배곧어학원","tel":"","addr":"경기도 시흥시 정왕동 2475-1번지 배곧타운2 411,412호","indutype":"교육서비스업 - 영어학원","category":"study"},{"name":"클랑뮤직피아노학원","tel":"031-434-3969","addr":"경기도 시흥시 정왕동 2475-1번지 배곧타운2 4층 401호","indutype":"교육서비스업 - 음악학원","category":"study"},{"name":"하이실용음악학원","tel":"031-497-0840","addr":"경기도 시흥시 정왕동 2475-1번지 310호 311호","indutype":"교육서비스업 - 학원","category":"study"}]},{"lat":"37.353805242","long":"126.72230287","imageIndex":16,"items":[{"name":"디딤돌보습학원","tel":"031-432-7942","addr":"경기도 시흥시 정왕동 1857-3번지 2층","indutype":"교육서비스업 - 보습학원","category":"study"},{"name":"해와달키앤쥬미술음악보습학원","tel":"031-432-2086~7","addr":"경기도 시흥시 정왕동 1857-3번지 4층","indutype":"교육서비스업 - 미술학원","category":"study"}]},{"lat":"37.382053572","long":"126.73466295","imageIndex":16,"items":[{"name":"디엔에이미술학원","tel":"070-8840-2972","addr":"경기도 시흥시 정왕동 2393번지 더프리미엄타워 401호","indutype":"교육서비스업 - 학원","category":"study"}]},{"lat":"37.377080139","long":"126.72689037","imageIndex":16,"items":[{"name":"리틀창조의아침미술학원","tel":"031-499-4560","addr":"경기도 시흥시 정왕동 2477-3번지 203호","indutype":"교육서비스업 - 미술학원","category":"study"},{"name":"마스터 학원","tel":"031-498-0595","addr":"경기도 시흥시 정왕동 2477-3번지 303호","indutype":"교육서비스업 - 학원","category":"study"},{"name":"배곧청록태권도장","tel":"031-431-1192","addr":"경기도 시흥시 정왕동 2477-3번지 4층 402호 403호","indutype":"교육서비스업 - 학원","category":"study"},{"name":"와이비엠잉글루영어학원","tel":"031-431-6100","addr":"경기도 시흥시 정왕동 2477-3번지 504호","indutype":"교육서비스업 - 영어학원","category":"study"},{"name":"윤남숙음악학원","tel":"","addr":"경기도 시흥시 정왕동 2477-3번지 502호","indutype":"교육서비스업 - 음악학원","category":"study"},{"name":"이해법수학뮤엠영어학원","tel":"031-433-2927","addr":"경기도 시흥시 정왕동 2477-3번지 유라테스 506호","indutype":"교육서비스업 - 교습학원","category":"study"},{"name":"플레이팩토학원","tel":"","addr":"경기도 시흥시 정왕동 2477-3번지 404호","indutype":"교육서비스업 - 학원","category":"study"},{"name":"홍익예뜨락 미술학원","tel":"031-319-7973","addr":"경기도 시흥시 정왕동 2477-3번지 505호","indutype":"교육서비스업 - 미술학원","category":"study"}]},{"lat":"37.3747515","long":"126.73295031","imageIndex":16,"items":[{"name":"마이엠수학학원","tel":"031-498-9004","addr":"경기도 시흥시 정왕동 2470번지 아이프라자 401호","indutype":"교육서비스업 - 수학학원","category":"study"},{"name":"서강학원","tel":"031-498-8599","addr":"경기도 시흥시 정왕동 2470번지 아이프라자 405호","indutype":"교육서비스업 - 학교교과교습학원","category":"study"},{"name":"아이뮤직음악학원","tel":"031-433-1151","addr":"경기도 시흥시 정왕동 2470번지 아이프라자 3층 304호","indutype":"교육서비스업 - 학원","category":"study"},{"name":"이룸영수학원","tel":"031-434-9060","addr":"경기도 시흥시 정왕동 2470번지 아이프라자 403호","indutype":"교육서비스업 - 보습학원","category":"study"},{"name":"지엔비어학원","tel":"031-433-0500","addr":"경기도 시흥시 정왕동 2470번지 아이프라자 4층 402호","indutype":"교육서비스업 - 외국어학원","category":"study"}]},{"lat":"37.354058139","long":"126.72256152","imageIndex":16,"items":[{"name":"뮤직스토리실용음악학원","tel":"031-431-9777","addr":"경기도 시흥시 정왕동 1857-1번지 한성빌딩 503호","indutype":"교육서비스업 - 음악학원","category":"study"}]},{"lat":"37.362580076","long":"126.72956232","imageIndex":16,"items":[{"name":"박찬익수학전문학원","tel":"031-509-5566","addr":"경기도 시흥시 정왕동 1884-9번지 시화연세빌딩 301호","indutype":"교육서비스업 - 보습학원","category":"study"}]},{"lat":"37.370302119","long":"126.72972623","imageIndex":16,"items":[{"name":"발레더블유학원","tel":"031-433-0651","addr":"경기도 시흥시 정왕동 2513-1번지 센터프라자2 5층 505호","indutype":"교육서비스업 - 무용학원","category":"study"},{"name":"본 종합학원","tel":"031-434-0105","addr":"경기도 시흥시 정왕동 2513-1번지 센터프라자2 7층 704호","indutype":"교육서비스업 - 교습학원","category":"study"},{"name":"시흥배곧소마학원","tel":"031-319-0553","addr":"경기도 시흥시 정왕동 2513-1번지 센터프라자2 510호","indutype":"교육서비스업 - 보습학원","category":"study"},{"name":"투플러스미술학원","tel":"031-434-8820","addr":"경기도 시흥시 정왕동 2513-1번지 601~602호","indutype":"교육서비스업 - 미술학원","category":"study"},{"name":"포유학원","tel":"031-432-1131","addr":"경기도 시흥시 정왕동 2513-1번지 센터프라자 501호","indutype":"교육서비스업 - 교습학원","category":"study"}]},{"lat":"37.374861319","long":"126.73369505","imageIndex":16,"items":[{"name":"배곧비상학원","tel":"031-433-8686","addr":"경기도 시흥시 정왕동 2467번지 현대프라자 3층 301,302호","indutype":"교육서비스업 - 학원","category":"study"}]},{"lat":"37.377277516","long":"126.72652835","imageIndex":16,"items":[{"name":"배곧연세학원","tel":"031-433-7707","addr":"경기도 시흥시 정왕동 2477-2번지 3층","indutype":"교육서비스업 - 학원","category":"study"},{"name":"배곧예인무용학원","tel":"031-497-8917","addr":"경기도 시흥시 정왕동 2477-2번지 배곧 로자벨 403호","indutype":"교육서비스업 - 무용학원","category":"study"},{"name":"스카이학원","tel":"031-362-5486","addr":"경기도 시흥시 정왕동 2477-2번지 로자벨 402호","indutype":"교육서비스업 - 학원","category":"study"},{"name":"에이앤디미술학원","tel":"031-431-7493","addr":"경기도 시흥시 정왕동 2477-2번지 배곧로자벨 5층 502호","indutype":"교육서비스업 - 미술학원","category":"study"},{"name":"제다수학학원","tel":"031-496-0503","addr":"경기도 시흥시 정왕동 2477-2번지 배곧로자벨 503호","indutype":"교육서비스업 - 학원","category":"study"},{"name":"티에스에이(TSA)학원","tel":"031-364-8333","addr":"경기도 시흥시 정왕동 2477-2번지 301,302,303호","indutype":"교육서비스업 - 보습학원","category":"study"}]},{"lat":"37.370083292","long":"126.72860939","imageIndex":16,"items":[{"name":"배곧음악학원","tel":"031-498-2500","addr":"경기도 시흥시 정왕동 2515번지 배곧프라자 5층 507호","indutype":"교육서비스업 - 음악학원","category":"study"},{"name":"워릭영어어학원","tel":"031-434-0582","addr":"경기도 시흥시 정왕동 2515번지 배곧프라자 506호","indutype":"교육서비스업 - 교습학원","category":"study"}]},{"lat":"37.362442842","long":"126.71353373","imageIndex":16,"items":[{"name":"삼성영어쎈수학배곧한라학원","tel":"031-497-3188","addr":"경기도 시흥시 정왕동 2564번지 한라비발디캠퍼스2차 1동 201호","indutype":"교육서비스업 - 보습학원","category":"study"}]},{"lat":"37.346664531","long":"126.73188845","imageIndex":16,"items":[{"name":"샾앤플랫실용음악학원","tel":"","addr":"경기도 시흥시 정왕동 1731-1번지 한일프라자 504호","indutype":"교육서비스업 - 음악학원","category":"study"}]},{"lat":"37.360554112","long":"126.72625105","imageIndex":16,"items":[{"name":"소리숲피아노학원","tel":"","addr":"경기도 시흥시 정왕동 1886-4번지 서해2차상가 305~7호","indutype":"교육서비스업 - 음악학원","category":"study"}]},{"lat":"37.370329609","long":"126.733858","imageIndex":16,"items":[{"name":"쇼팽음악학원","tel":"031-433-9966","addr":"경기도 시흥시 정왕동 2503번지 호반베르다움 센트로하임 단지내상가 1145동 201-202호","indutype":"교육서비스업 - 음악학원","category":"study"}]},{"lat":"37.363971963","long":"126.73144242","imageIndex":16,"items":[{"name":"시그너스영수학원","tel":"031-434-5420","addr":"경기도 시흥시 정왕동 1881-4번지 월드프라자 301호","indutype":"교육서비스업 - 보습학원","category":"study"}]},{"lat":"37.377944389","long":"126.72658236","imageIndex":16,"items":[{"name":"시매쓰배곧학원","tel":"031-431-3851","addr":"경기도 시흥시 정왕동 2475번지 에이플러스 3층","indutype":"교육서비스업 - 보습학원","category":"study"}]},{"lat":"37.346278622","long":"126.73255569","imageIndex":16,"items":[{"name":"시화멀티짐","tel":"031-499-9565","addr":"경기도 시흥시 정왕동 1731-5번지 5층 501~503호","indutype":"교육서비스업 - 유도학원","category":"study"}]},{"lat":"37.347692517","long":"126.75271851","imageIndex":16,"items":[{"name":"시화보습영어학원","tel":"031-505-8575","addr":"경기도 시흥시 정왕동 1164번지 2층 201호","indutype":"교육서비스업 - 보습학원","category":"study"}]},{"lat":"37.363836502","long":"126.73130745","imageIndex":16,"items":[{"name":"시흥시화C&C(씨앤씨)미술학원","tel":"031-509-6677","addr":"경기도 시흥시 정왕동 1881-5번지 401~402호","indutype":"교육서비스업 - 미술학원","category":"study"}]},{"lat":"37.369861331","long":"126.73003263","imageIndex":16,"items":[{"name":"시흥정상어학원","tel":"031-499-4555","addr":"경기도 시흥시 정왕동 2514번지 M-플러스 6층 602~3,605~6호","indutype":"교육서비스업 - 학원,서적","category":"study"}]},{"lat":"37.374473194","long":"126.73339161","imageIndex":16,"items":[{"name":"씨엘티 고등영어학원","tel":"031-432-0509","addr":"경기도 시흥시 정왕동 2470-1번지 베스트프라자 509호","indutype":"교육서비스업 - 영어학원","category":"study"},{"name":"연세대닥스어학원","tel":"031-509-0579","addr":"경기도 시흥시 정왕동 2470-1번지 6층 604~608호 일부","indutype":"교육서비스업 - 어학원","category":"study"},{"name":"이엠마스터영수전문학원","tel":"031-432-3695","addr":"경기도 시흥시 정왕동 2470-1번지 베스트프라자 405호","indutype":"교육서비스업 - 일반보습학원","category":"study"},{"name":"케이맥스수학학원","tel":"031-432-2285","addr":"경기도 시흥시 정왕동 2470-1번지 베스트프라자 507호","indutype":"교육서비스업 - 학원","category":"study"}]},{"lat":"37.374386302","long":"126.72696798","imageIndex":16,"items":[{"name":"아르떼피아노","tel":"070-8692-1191","addr":"경기도 시흥시 정왕동 2485번지 시흥배곧신도시호반베르디움센트럴파크","indutype":"교육서비스업 - 예술학원","category":"study"},{"name":"캐피타운영어 배곧센터","tel":"","addr":"경기도 시흥시 정왕동 2485번지 시흥배곧신도시호반베르디움센트럴파크","indutype":"교육서비스업 - 학원강사, 과외교습지","category":"study"}]},{"lat":"37.370444608","long":"126.7290032","imageIndex":16,"items":[{"name":"아이맥영수학원","tel":"031-431-0910","addr":"경기도 시흥시 정왕동 2513번지 센터프라자 505호","indutype":"교육서비스업 - 학원","category":"study"}]},{"lat":"37.361665718","long":"126.72769183","imageIndex":16,"items":[{"name":"아이사랑 뮤즈음악학원","tel":"031-498-8706","addr":"경기도 시흥시 정왕동 1886-3번지 서해아파트 203호","indutype":"교육서비스업 - 보습학원","category":"study"}]},{"lat":"37.374412075","long":"126.73424986","imageIndex":16,"items":[{"name":"엘리아음악학원","tel":"031-319-0660","addr":"경기도 시흥시 정왕동 2468번지 솔로몬프라자 401호","indutype":"교육서비스업 - 음악학원","category":"study"}]},{"lat":"37.36132923","long":"126.71875303","imageIndex":16,"items":[{"name":"와이비엠 잉글루 영어 수학 플러스 학원","tel":"031-319-2331","addr":"경기도 시흥시 정왕동 2558번지 한라3차 상가4동 1층 118, 119호","indutype":"교육서비스업 - 학원","category":"study"},{"name":"플래뮤미술학원","tel":"031-434-7277","addr":"경기도 시흥시 정왕동 2558번지 한라비발디캠퍼스3차 201호 일부, 202호","indutype":"교육서비스업 - 미술학원","category":"study"}]},{"lat":"37.347974497","long":"126.73341863","imageIndex":16,"items":[{"name":"원더프리모학원","tel":"031-319-0533","addr":"경기도 시흥시 정왕동 1726-1번지 광개토빌딩 303호","indutype":"교육서비스업 - 어학원","category":"study"}]},{"lat":"37.347364019","long":"126.73439139","imageIndex":16,"items":[{"name":"이삭실용음악학원 ","tel":"031-496-0852","addr":"경기도 시흥시 정왕동 1726-4번지 한성타운 301호","indutype":"교육서비스업 - 음악학원","category":"study"}]},{"lat":"37.343144082","long":"126.73696816","imageIndex":16,"items":[{"name":"이원미술음악학원","tel":"031-432-4242","addr":"경기도 시흥시 정왕동 1744-3번지 삼우빌딩 5층","indutype":"교육서비스업 - 미술학원","category":"study"}]},{"lat":"37.35391363","long":"126.72241533","imageIndex":16,"items":[{"name":"이화어학원","tel":"031-433-8222","addr":"경기도 시흥시 정왕동 1857-2번지 21세기 5층 프라자빌딩","indutype":"교육서비스업 - 어학원","category":"study"}]},{"lat":"37.353557815","long":"126.72435798","imageIndex":16,"items":[{"name":"인텔피아영수학원","tel":"031-432-6262","addr":"경기도 시흥시 정왕동 1861-6번지 뉴스타프라자 301호","indutype":"교육서비스업 - 보습학원","category":"study"}]},{"lat":"37.35913442","long":"126.71283531","imageIndex":16,"items":[{"name":"조이 피아노 교습소","tel":"","addr":"경기도 시흥시 정왕동 2575번지 시흥배곧신도시 이지더원2차 에듀그린 상가 501동 121호","indutype":"교육서비스업 - 음악학원","category":"study"}]},{"lat":"37.339811125","long":"126.7454773","imageIndex":16,"items":[{"name":"참수학교습소","tel":"031-499-2358","addr":"경기도 시흥시 정왕동 1785-1번지 달월신협 정왕지점 205호","indutype":"교육서비스업 - 수학학원","category":"study"}]},{"lat":"37.347667022","long":"126.73292315","imageIndex":16,"items":[{"name":"학림학원","tel":"031-432-7430","addr":"경기도 시흥시 정왕동 1727-1번지 코아프라자 401호","indutype":"교육서비스업 - 보습학원","category":"study"}]},{"lat":"37.363969159","long":"126.73022329","imageIndex":16,"items":[{"name":"행복한학원","tel":"031-431-2020","addr":"경기도 시흥시 정왕동 1881-11번지 화신프라자 506호","indutype":"교육서비스업 - 보습학원","category":"study"}]},{"lat":"37.376083849","long":"126.73244877","imageIndex":16,"items":[{"name":"황쌤창의사고력수학교습소","tel":"","addr":"경기도 시흥시 정왕동 2456번지 시흥배곧신도시골드클래스 상가동 208호","indutype":"교육서비스업 - 일반교과학원","category":"study"}]}]