[{"lat":"37.127173669","long":"126.90652176","imageIndex":4,"items":[{"name":"929숯불닭갈비 향남점","tel":"031-353-3997","addr":"경기도 화성시 향남읍 제암리 63-2번지","indutype":"일반휴게음식 - 일반한식","category":"restaurant"}]},{"lat":"37.125527667","long":"126.89929952","imageIndex":4,"items":[{"name":"고구려 수제 본갈비","tel":"031-352-7999","addr":"경기도 화성시 향남읍 제암리 478-50번지 1층","indutype":"일반휴게음식 - 일반한식","category":"restaurant"}]},{"lat":"37.125059292","long":"126.88963403","imageIndex":4,"items":[{"name":"고향불고기","tel":"031-352-0863","addr":"경기도 화성시 향남읍 제암리 419-4번지","indutype":"일반휴게음식 - 일반한식","category":"restaurant"}]},{"lat":"37.125392578","long":"126.89937847","imageIndex":4,"items":[{"name":"구름성가든","tel":"031-352-5130","addr":"경기도 화성시 향남읍 제암리 136-13번지","indutype":"일반휴게음식 - 일반한식","category":"restaurant"}]},{"lat":"37.128389689","long":"126.89557079","imageIndex":4,"items":[{"name":"두렁바위가든","tel":"031-353-3367","addr":"경기도 화성시 향남읍 제암리 334-4번지","indutype":"일반휴게음식 - 일반한식","category":"restaurant"}]},{"lat":"37.12178178","long":"126.89208065","imageIndex":4,"items":[{"name":"안심순대국","tel":"031-352-9244","addr":"경기도 화성시 향남읍 제암리 457-1번지 1층","indutype":"일반휴게음식 - 일반한식","category":"restaurant"}]},{"lat":"37.125865614","long":"126.90465544","imageIndex":17,"items":[{"name":"강산유리샷시","tel":"031-351-6266","addr":"경기도 화성시 향남읍 제암리 196","indutype":"건축자재 - 유리","category":"other"}]},{"lat":"37.125586726","long":"126.90518468","imageIndex":17,"items":[{"name":"농업회사법인 플랜트리 유한회사","tel":"031-353-7070","addr":"경기도 화성시 향남읍 제암리 198번지","indutype":"문화.취미 - 화원","category":"other"}]},{"lat":"37.126840791","long":"126.90715235","imageIndex":17,"items":[{"name":"다연하늘꽃","tel":"031-366-0756","addr":"경기도 화성시 향남읍 제암리 68-3번지","indutype":"문화.취미 - 화원","category":"other"},{"name":"아름다운정원","tel":"031-366-0254","addr":"경기도 화성시 향남읍 제암리 68-3","indutype":"문화.취미 - 화원","category":"other"},{"name":"향남플라워","tel":"031-366-6086","addr":"경기도 화성시 향남읍 제암리 68-3번지","indutype":"문화.취미 - 화원","category":"other"}]},{"lat":"37.124977098","long":"126.89824251","imageIndex":17,"items":[{"name":"대원애드피아","tel":"031-366-1211","addr":"경기도 화성시 향남읍 제암리 299-6번지","indutype":"건축자재 - 인테리어전문","category":"other"}]},{"lat":"37.124165137","long":"126.88744109","imageIndex":17,"items":[{"name":"미싱도로시발안점","tel":"031-8059-8181","addr":"경기도 화성시 향남읍 제암리 427-3번지 101호","indutype":"의류 - 정장","category":"other"},{"name":"예하컴퍼니","tel":"070-4253-7877","addr":"경기도 화성시 향남읍 제암리 427-3번지 102호","indutype":"의류 - 정장","category":"other"}]},{"lat":"37.124751667","long":"126.89805153","imageIndex":17,"items":[{"name":"발안건설기계","tel":"031-354-1325","addr":"경기도 화성시 향남읍 제암리 286-13번지","indutype":"기타 - 기타 전문점","category":"other"}]},{"lat":"37.122639042","long":"126.89344095","imageIndex":17,"items":[{"name":"수성조경농원","tel":"031-353-4959","addr":"경기도 화성시 향남읍 제암리 315-1번지","indutype":"문화.취미 - 화원","category":"other"}]},{"lat":"37.12591949","long":"126.90443031","imageIndex":17,"items":[{"name":"아름다운집  미택","tel":"031-366-3663","addr":"경기도 화성시 향남읍 제암리 195번지 유림꽃화원 196호","indutype":"문화.취미 - 화원","category":"other"}]},{"lat":"37.126866386","long":"126.89498778","imageIndex":17,"items":[{"name":"우리열쇠","tel":"031-353-0403","addr":"경기도 화성시 향남읍 제암리 330-4번지","indutype":"건축자재 - 목재·석재·철물","category":"other"}]},{"lat":"37.125392578","long":"126.89937847","imageIndex":17,"items":[{"name":"초우광고기획","tel":"031-352-3332","addr":"경기도 화성시 향남읍 제암리 136-13번지","indutype":"건축자재 - 인테리어전문","category":"other"}]},{"lat":"37.126560294","long":"126.90571232","imageIndex":17,"items":[{"name":"향남플라워","tel":"031-366-6086","addr":"경기도 화성시 향남읍 제암리 129번지","indutype":"문화.취미 - 화원","category":"other"}]},{"lat":"37.126667343","long":"126.90440684","imageIndex":7,"items":[{"name":"과일나라","tel":"031-297-6055","addr":"경기도 화성시 향남읍 제암리 186번지","indutype":"음료식품 - 농·축·수산품","category":"food"}]},{"lat":"37.121059809","long":"126.89087772","imageIndex":7,"items":[{"name":"화성우수농축산물생산가공협동조합","tel":"031-358-1391","addr":"경기도 화성시 향남읍 제암리 454-8번지","indutype":"음료식품 - 농·축·수산품","category":"food"}]},{"lat":"37.126694859","long":"126.90499196","imageIndex":0,"items":[{"name":"넥센타이어(주)타이어테크 화성향남점","tel":"031-359-8927","addr":"경기도 화성시 향남읍 제암리 184번지","indutype":"자동차정비 유지 - 자동차시트·타이어","category":"car"}]},{"lat":"37.124751667","long":"126.89805153","imageIndex":0,"items":[{"name":"발안건설기계","tel":"031-354-1326","addr":"경기도 화성시 향남읍 제암리 286-13번지","indutype":"자동차정비 유지 - 중장비수리","category":"car"},{"name":"발안건설기계","tel":"031-354-0625","addr":"경기도 화성시 향남읍 제암리 286-13번지","indutype":"자동차정비 유지 - 중장비수리","category":"car"}]},{"lat":"37.124832442","long":"126.89769133","imageIndex":0,"items":[{"name":"오토 앤 조이","tel":"031-353-4599","addr":"경기도 화성시 향남읍 제암리 286-11번지","indutype":"자동차정비 유지 - 자동차부품","category":"car"},{"name":"카테크","tel":"031-353-8150","addr":"경기도 화성시 향남읍 제암리 286-11번지","indutype":"자동차정비 유지 - 자동차정비","category":"car"}]},{"lat":"37.125221408","long":"126.89941247","imageIndex":5,"items":[{"name":"수모텔","tel":"031-354-4277","addr":"경기도 화성시 향남읍 제암리 136-19번지 1층","indutype":"숙박업 - 여관/기타숙박업","category":"hotel"}]},{"lat":"37.125112839","long":"126.89890624","imageIndex":5,"items":[{"name":"호텔느낌","tel":"","addr":"경기도 화성시 향남읍 제암리 136-1번지","indutype":"숙박업 - 여관/기타숙박업","category":"hotel"}]},{"lat":"37.12178178","long":"126.89208065","imageIndex":13,"items":[{"name":"애니팜","tel":"031-352-0142","addr":"경기도 화성시 향남읍 제암리 457-1번지 2층","indutype":"보건위생 - 의료용품","category":"beauty"}]},{"lat":"37.126415964","long":"126.89510095","imageIndex":9,"items":[{"name":"우정종합가스","tel":"031-351-1666","addr":"경기도 화성시 향남읍 제암리 328-5번지","indutype":"연료판매점 - LPG 취급점","category":"oil"}]}]