[{"lat":"37.235689958","long":"127.28362003","imageIndex":7,"items":[{"name":"경남유통","tel":"031-338-2121","addr":"경기도 용인시 처인구 양지면 양지리 596-3번지","indutype":"유통업 영리 - 슈퍼마켓","category":"mart"}]},{"lat":"37.232557392","long":"127.31822584","imageIndex":7,"items":[{"name":"광천상회","tel":"031-322-0357","addr":"경기도 용인시 처인구 양지면 평창리 240번지","indutype":"유통업 영리 - 슈퍼마켓","category":"mart"}]},{"lat":"37.23427463","long":"127.28391904","imageIndex":7,"items":[{"name":"그린유통","tel":"031-338-3998","addr":"경기도 용인시 처인구 양지면 양지리 573-1","indutype":"유통업 영리 - 슈퍼마켓","category":"mart"}]},{"lat":"37.225943363","long":"127.29375865","imageIndex":7,"items":[{"name":"리조트마트","tel":"031-338-4442","addr":"경기도 용인시 처인구 양지면 남곡리91","indutype":"유통업 영리 - 슈퍼마켓","category":"mart"}]},{"lat":"37.230275422","long":"127.28334078","imageIndex":7,"items":[{"name":"센텀홈마트","tel":"031-336-3721","addr":"경기도 용인시 처인구 양지면 남곡리156-11 센텀스몰시티상가동1,2호","indutype":"유통업 영리 - 슈퍼마켓","category":"mart"}]},{"lat":"37.234938332","long":"127.28520618","imageIndex":7,"items":[{"name":"신기상회","tel":"031-338-3983","addr":"경기도 용인시 처인구 양지면 양지리 907번지 양지마을신원아침도시 상가동 1층","indutype":"유통업 영리 - 슈퍼마켓","category":"mart"}]},{"lat":"37.234468536","long":"127.28573407","imageIndex":7,"items":[{"name":"양지DC마트","tel":"031-337-2248","addr":"경기도 용인시 처인구 양지면 양지리467-2","indutype":"유통업 영리 - 슈퍼마켓","category":"mart"}]},{"lat":"37.218613687","long":"127.31319922","imageIndex":7,"items":[{"name":"에코그린타운","tel":"031-338-6610","addr":"경기도 용인시 처인구 양지면 평창리 680번지 지하1층","indutype":"유통업 영리 - 슈퍼마켓","category":"mart"}]},{"lat":"37.225696315","long":"127.29161684","imageIndex":7,"items":[{"name":"용곡슈퍼","tel":"031-338-3102","addr":"경기도 용인시 처인구 양지면 남곡리 72-8번지","indutype":"유통업 영리 - 슈퍼마켓","category":"mart"}]},{"lat":"37.222106826","long":"127.27789104","imageIndex":7,"items":[{"name":"은이뜰마트","tel":"031-333-9571","addr":"경기도 용인시 처인구 양지면 남곡리 612번지","indutype":"유통업 영리 - 슈퍼마켓","category":"mart"}]},{"lat":"37.246497188","long":"127.25379255","imageIndex":7,"items":[{"name":"치루개마트","tel":"031-333-6223","addr":"경기도 용인시 처인구 양지면 주북리 391-4번지","indutype":"유통업 영리 - 슈퍼마켓","category":"mart"}]},{"lat":"37.227938269","long":"127.29227893","imageIndex":7,"items":[{"name":"파인편의점","tel":"070-8171-9878","addr":"경기도 용인시 처인구 양지면 양지리 137-1","indutype":"유통업 영리 - 슈퍼마켓","category":"mart"}]},{"lat":"37.235218107","long":"127.28120669","imageIndex":7,"items":[{"name":"한국유통","tel":"031-321-6200","addr":"경기도 용인시 처인구 양지면 양지리 617번지","indutype":"유통업 영리 - 슈퍼마켓","category":"mart"}]},{"lat":"37.225271734","long":"127.29206592","imageIndex":7,"items":[{"name":"해오름마트","tel":"031-338-1101","addr":"경기도 용인시 처인구 양지면 남곡리 70-1번지 첼시 1층 101호","indutype":"유통업 영리 - 슈퍼마켓","category":"mart"}]},{"lat":"37.228799097","long":"127.29028776","imageIndex":7,"items":[{"name":"홈마켓","tel":"031-336-5289","addr":"경기도 용인시 처인구 양지면 남곡리 123-2번지","indutype":"유통업 영리 - 슈퍼마켓","category":"mart"}]}]