[{"lat":"37.39514501","long":"127.2940611","imageIndex":7,"items":[{"name":"(주) 온새미","tel":"031-761-9551","addr":"경기도 광주시 초월읍 도평리 156번지","indutype":"음료식품 - 기타음료식품","category":"food"}]},{"lat":"37.39767193","long":"127.2923882","imageIndex":7,"items":[{"name":"나누리FNC","tel":"031-111-1111","addr":"경기도 광주시 초월읍 도평리 196번지 삼성그린빌 1동 1층 101호","indutype":"음료식품 - 기타음료식품","category":"food"}]},{"lat":"37.39556113","long":"127.2933851","imageIndex":7,"items":[{"name":"농부와어민","tel":"031-765-6968","addr":"경기도 광주시 초월읍 도평리 162-14번지 하람빌리지","indutype":"음료식품 - 농·축·수산품","category":"food"}]},{"lat":"37.39567354","long":"127.2916351","imageIndex":7,"items":[{"name":"맛반찬","tel":"031-765-7681","addr":"경기도 광주시 초월읍 도평리 212-11번지 1층 102호","indutype":"음료식품 - 기타음료식품","category":"food"}]},{"lat":"37.39381095","long":"127.2906116","imageIndex":7,"items":[{"name":"명당골","tel":"031-765-9294","addr":"경기도 광주시 초월읍 도평리 223-3번지 산하빌딩 108호","indutype":"음료식품 - 기타음료식품","category":"food"}]},{"lat":"37.39455738","long":"127.2911904","imageIndex":7,"items":[{"name":"믿음축산","tel":"031-766-9659","addr":"경기도 광주시 초월읍 도평리 225번지","indutype":"음료식품 - 정육점","category":"food"},{"name":"자연과 약초","tel":"031-765-1015","addr":"경기도 광주시 초월읍 도평리 225번지 동희상가","indutype":"건강식품 - 기타건강식품","category":"food"},{"name":"파리바게트","tel":"031-767-4256","addr":"경기도 광주시 초월읍 도평리 225번지","indutype":"음료식품 - 제과점","category":"food"}]},{"lat":"37.39483051","long":"127.2900283","imageIndex":7,"items":[{"name":"비타민하우스H","tel":"070-8612-2295","addr":"경기도 광주시 초월읍 도평리 259번지 대주피오레 104동 703호","indutype":"회원제형태 - 건강식품","category":"food"}]},{"lat":"37.39534138","long":"127.291137","imageIndex":7,"items":[{"name":"서울떡방앗간","tel":"031-768-0445","addr":"경기도 광주시 초월읍 도평리 221-1번지","indutype":"음료식품 - 제과점","category":"food"}]},{"lat":"37.40028308","long":"127.3003603","imageIndex":7,"items":[{"name":"씨에이치푸드","tel":"031-769-7856","addr":"경기도 광주시 초월읍 도평리 44-5번지","indutype":"음료식품 - 기타음료식품","category":"food"}]},{"lat":"37.39481012","long":"127.2909994","imageIndex":7,"items":[{"name":"아이스께끼","tel":"031-764-0816","addr":"경기도 광주시 초월읍 도평리 222-1번지 1층 101호","indutype":"음료식품 - 기타음료식품","category":"food"}]},{"lat":"37.39648123","long":"127.2929482","imageIndex":7,"items":[{"name":"진유통","tel":"031-767-5289","addr":"경기도 광주시 초월읍 도평리 209-4","indutype":"음료식품 - 정육점","category":"food"}]},{"lat":"37.39436822","long":"127.2911671","imageIndex":7,"items":[{"name":"행복떡집","tel":"031-769-4422","addr":"경기도 광주시 초월읍 도평리 225-5번지 1층 101호","indutype":"음료식품 - 제과점","category":"food"},{"name":"현미와누룽지","tel":"031-797-3858","addr":"경기도 광주시 초월읍 도평리 225-5번지","indutype":"음료식품 - 기타음료식품","category":"food"}]}]