[{"lat":"37.775511526","long":"127.13167753","imageIndex":17,"items":[{"name":"(주)세훈에프.에이","tel":"031-848-2411","addr":"경기도 포천시 소흘읍 무림리 198-2","indutype":"기타 - 기계공구","category":"other"}]},{"lat":"37.777125201","long":"127.13078361","imageIndex":17,"items":[{"name":"강공조 SYSTEM","tel":"070-4193-9131","addr":"경기도 포천시 소흘읍 무림리 512-1번지 나동 101호","indutype":"전기제품 - 냉열기기","category":"other"}]},{"lat":"37.776930081","long":"127.14387079","imageIndex":17,"items":[{"name":"나봉스","tel":"070-7779-4717","addr":"경기도 포천시 소흘읍 무림리 9-2번지","indutype":"의류 - 정장","category":"other"}]},{"lat":"37.770150607","long":"127.13191793","imageIndex":17,"items":[{"name":"남선자바라공사","tel":"02-911-5203","addr":"경기도 포천시 소흘읍 무림리 208-3번지 외1필지가","indutype":"건축자재 - 기타건축자재","category":"other"}]},{"lat":"37.775620382","long":"127.13903293","imageIndex":17,"items":[{"name":"농업회사법인 주식회사 홍성플러스","tel":"031-957-8331","addr":"경기도 포천시 소흘읍 무림리 41번지","indutype":"레져용품 - 스포츠·레져용품","category":"other"},{"name":"농업회사법인 주식회사 홍성플러스","tel":"031-957-8332","addr":"경기도 포천시 소흘읍 무림리 41번지","indutype":"레져용품 - 스포츠·레져용품","category":"other"},{"name":"포천자동차극장/주식회사 와이엠엔터테이먼","tel":"031-541-5442","addr":"경기도 포천시 소흘읍 무림리 41번지","indutype":"문화.취미 - 티켓","category":"other"}]},{"lat":"37.767121692","long":"127.13347887","imageIndex":17,"items":[{"name":"대원공업사","tel":"031-822-6733","addr":"경기도 포천시 소흘읍 무림리 279-1번지","indutype":"회원제형태 - 기타3","category":"other"}]},{"lat":"37.774261386","long":"127.13778189","imageIndex":17,"items":[{"name":"송림농원조경","tel":"031-544-9184","addr":"경기도 포천시 소흘읍 무림리 33","indutype":"문화.취미 - 화원","category":"other"}]},{"lat":"37.778510658","long":"127.14055928","imageIndex":17,"items":[{"name":"쇼 (show)","tel":"031-541-0740","addr":"경기도 포천시 소흘읍 무림리 86-1번지","indutype":"의류 - 정장","category":"other"}]},{"lat":"37.776014599","long":"127.13300643","imageIndex":17,"items":[{"name":"쑈","tel":"031-874-9608","addr":"경기도 포천시 소흘읍 무림리 597","indutype":"의류 - 정장","category":"other"}]},{"lat":"37.777064502","long":"127.14447265","imageIndex":17,"items":[{"name":"아름이네 다육","tel":"031-111-1111","addr":"경기도 포천시 소흘읍 무림리 6-14번지","indutype":"문화.취미 - 화원","category":"other"}]},{"lat":"37.775484081","long":"127.14003154","imageIndex":17,"items":[{"name":"아프리카예술박물관","tel":"031-543-3600","addr":"경기도 포천시 소흘읍 무림리 42","indutype":"문화.취미 - 티켓","category":"other"}]},{"lat":"37.773876937","long":"127.13517061","imageIndex":17,"items":[{"name":"주식회사 제일산업","tel":"031-542-0951","addr":"경기도 포천시 소흘읍 무림리 166번지","indutype":"건축자재 - 기타건축자재","category":"other"}]},{"lat":"37.769737494","long":"127.13070279","imageIndex":17,"items":[{"name":"주식회사 프렌즈앤컴퍼니","tel":"02-6953-2622","addr":"경기도 포천시 소흘읍 무림리 378-1번지","indutype":"신변잡화 - 기타잡화","category":"other"}]},{"lat":"37.774235658","long":"127.12845179","imageIndex":17,"items":[{"name":"코리아경찰견훈련소","tel":"031-541-7410","addr":"경기도 포천시 소흘읍 무림리 461번지","indutype":"기타 - 기타 전문점","category":"other"}]}]