[{"lat":"37.341140693","long":"126.86815112","imageIndex":17,"items":[{"name":"(주) 광명프라캔","tel":"031-411-8971","addr":"경기도 안산시 상록구 부곡동 69-6번지","indutype":"유통업 영리 - 기타유통업","category":"other"}]},{"lat":"37.332723278","long":"126.8588797","imageIndex":17,"items":[{"name":"(주) 삼보전자통신","tel":"031-495-4700","addr":"경기도 안산시 상록구 부곡동 735-9번지","indutype":"용역 서비스 - 소프트웨어","category":"other"},{"name":"드림씽크","tel":"031-401-1183","addr":"경기도 안산시 상록구 부곡동 735-9번지 1층","indutype":"주방용구 - 주방용구","category":"other"}]},{"lat":"37.322756724","long":"126.85782691","imageIndex":17,"items":[{"name":"(주)다함석재","tel":"031-502-2430","addr":"경기도 안산시 상록구 부곡동 695-23번지","indutype":"건축자재 - 기타건축자재","category":"other"}]},{"lat":"37.338252002","long":"126.87132723","imageIndex":17,"items":[{"name":"(주)범양산업기계","tel":"031-485-9861","addr":"경기도 안산시 상록구 부곡동 273-2번지","indutype":"건축자재 - 기타건축자재","category":"other"},{"name":"현대기전","tel":"031-486-9052","addr":"경기도 안산시 상록구 부곡동 273-2번지","indutype":"전기제품 - 기타전기제품","category":"other"}]},{"lat":"37.334362007","long":"126.86551151","imageIndex":17,"items":[{"name":"(주)보아스여행사","tel":"031-408-0372","addr":"경기도 안산시 상록구 부곡동 646-10번지 부곡쇼핑 202호","indutype":"여행 - 관광여행","category":"other"}]},{"lat":"37.341642944","long":"126.86613021","imageIndex":17,"items":[{"name":"(주)세원정밀","tel":"031-484-8095","addr":"경기도 안산시 상록구 부곡동 75-82번지","indutype":"기타 - 기계공구","category":"other"}]},{"lat":"37.332926002","long":"126.8626255","imageIndex":17,"items":[{"name":"(주)지놈오피니언","tel":"","addr":"경기도 안산시 상록구 부곡동 665-9번지 103호","indutype":"용역 서비스 - 사무서비스","category":"other"},{"name":"(주)지놈오피니언","tel":"031-1111-1111","addr":"경기도 안산시 상록구 부곡동 665-9번지 103호","indutype":"용역 서비스 - 사무서비스","category":"other"}]},{"lat":"37.343807259","long":"126.86776266","imageIndex":17,"items":[{"name":"(주)지원산업","tel":"031-475-1546","addr":"경기도 안산시 상록구 부곡동 산9-9번지","indutype":"용역 서비스 - 기타용역서비스","category":"other"},{"name":"매직쇼파","tel":"031-418-4789","addr":"경기도 안산시 상록구 부곡동 산9-9번지 공장B동 1호","indutype":"가구 - 일반가구","category":"other"}]},{"lat":"37.326370589","long":"126.85846308","imageIndex":17,"items":[{"name":"(주)집과사람","tel":"031-406-1233","addr":"경기도 안산시 상록구 부곡동 685-11번지 안산제2종합시장 3004호","indutype":"주방용구 - 주방용구","category":"other"},{"name":"가구아울렛직판장, 종합가구","tel":"031-484-0689","addr":"경기도 안산시 상록구 부곡동 685-11번지 ***연번지,25","indutype":"전기제품 - 가전제품","category":"other"},{"name":"갤러리가구","tel":"031-419-2484","addr":"경기도 안산시 상록구 부곡동 685-11번지 지하 외 49호","indutype":"가구 - 일반가구","category":"other"},{"name":"골방","tel":"","addr":"경기도 안산시 상록구 부곡동 685-11번지 안산제2종합시장 1층 1013호","indutype":"주방용구 - 주방용식기","category":"other"},{"name":"그린환경","tel":"031-406-0738","addr":"경기도 안산시 상록구 부곡동 685-11번지 안산제2종합시장 3층 3043호","indutype":"용역 서비스 - 종합용역","category":"other"},{"name":"꽃댕기노래봉사예술단","tel":"","addr":"경기도 안산시 상록구 부곡동 685-11번지 안산제2종합시장 3층 3011호","indutype":"용역 서비스 - 종합용역","category":"other"},{"name":"대한시스템","tel":"031-439-7129","addr":"경기도 안산시 상록구 부곡동 685-11번지 안산제2종합시장 1025호","indutype":"전기제품 - 냉열기기","category":"other"},{"name":"동우씨엔씨","tel":"031-417-0365","addr":"경기도 안산시 상록구 부곡동 685-11번지 안산제2종합시장 4층 402호","indutype":"신변잡화 - 기타잡화","category":"other"},{"name":"동우환경","tel":"031-417-0365","addr":"경기도 안산시 상록구 부곡동 685-11번지 안산제2종합시장 4층 402호","indutype":"신변잡화 - 기타잡화","category":"other"},{"name":"버스사랑","tel":"070-8944-0015","addr":"경기도 안산시 상록구 부곡동 685-11번지 안산제2종합시장 1012호","indutype":"용역 서비스 - 종합용역","category":"other"},{"name":"서진상사","tel":"070-7556-7078","addr":"경기도 안산시 상록구 부곡동 685-11번지 안산제2종합시장3015호","indutype":"직물 - 옷감·직물","category":"other"},{"name":"쌤터","tel":"031-487-8430","addr":"경기도 안산시 상록구 부곡동 685-11번지 안산제2종합시장2층2025호","indutype":"서적문구 - 문구용품","category":"other"},{"name":"예일산업","tel":"031-407-4802","addr":"경기도 안산시 상록구 부곡동 685-11번지 안산제2종합시장2층2201호","indutype":"용역 서비스 - 종합용역","category":"other"},{"name":"올스윌(AllsWell)","tel":"031-418-0404","addr":"경기도 안산시 상록구 부곡동 685-11번지 제2종합상가 1014호","indutype":"서적문구 - 출판 및 인쇄물","category":"other"},{"name":"주식회사 파워쎄라","tel":"031-485-8989","addr":"경기도 안산시 상록구 부곡동 685-11번지 안산제2종합시장 3075호","indutype":"가구 - 일반가구","category":"other"},{"name":"코리아에어컨","tel":"031-484-0520","addr":"경기도 안산시 상록구 부곡동 685-11번지 제2종합상가지하1층216","indutype":"전기제품 - 가전제품","category":"other"},{"name":"코리아에어컨","tel":"031-484-0520","addr":"경기도 안산시 상록구 부곡동 685-11번지 제2종합상가 지하1층-216","indutype":"전기제품 - 가전제품","category":"other"},{"name":"토리몰","tel":"070-4643-7206","addr":"경기도 안산시 상록구 부곡동 685-11번지 안산제2종합시장 1008호","indutype":"의류 - 정장","category":"other"},{"name":"포리피아노","tel":"031-437-4213","addr":"경기도 안산시 상록구 부곡동 685-11번지 지하1층 32호 안산제2종합시장","indutype":"레져용품 - 피아노대리점","category":"other"},{"name":"하우스씨엠(주)","tel":"031-406-6985","addr":"경기도 안산시 상록구 부곡동 685-11번지 3004-1호","indutype":"건축자재 - 기타건축자재","category":"other"},{"name":"행복한꽃집","tel":"031-520-4880","addr":"경기도 안산시 상록구 부곡동 685-11번지 안산제2종합시장 1033호","indutype":"문화.취미 - 화원","category":"other"}]},{"lat":"37.324920584","long":"126.85898485","imageIndex":17,"items":[{"name":"ABC어린이집","tel":"031-416-0773","addr":"경기도 안산시 상록구 부곡동 690-2번지","indutype":"기타 - 비영리/비대상","category":"other"}]},{"lat":"37.332507296","long":"126.86671095","imageIndex":17,"items":[{"name":"BS닷컴","tel":"031-417-1236","addr":"경기도 안산시 상록구 부곡동 535-4번지 지하 101호","indutype":"수리서비스 - 사무·통신기기수리","category":"other"}]},{"lat":"37.341362438","long":"126.86510379","imageIndex":17,"items":[{"name":"E.F.A대명","tel":"031-692-5633","addr":"경기도 안산시 상록구 부곡동 75-57번지","indutype":"주방용구 - 주방용구","category":"other"},{"name":"대명퍼니쳐","tel":"031-970-3059","addr":"경기도 안산시 상록구 부곡동 75-57번지","indutype":"주방용구 - 주방용구","category":"other"}]},{"lat":"37.321197949","long":"126.85781862","imageIndex":17,"items":[{"name":"ENG SHOP","tel":"","addr":"경기도 안산시 상록구 부곡동 696-7번지 4층","indutype":"사무통신 - 통신기기","category":"other"},{"name":"엠케이앵글","tel":"031-417-8117","addr":"경기도 안산시 상록구 부곡동 696-7번지 1층","indutype":"건축자재 - 기타건축자재","category":"other"}]},{"lat":"37.328563253","long":"126.86109911","imageIndex":17,"items":[{"name":"G-IF(지-아이에프)","tel":"031-398-3700","addr":"경기도 안산시 상록구 부곡동 622-12번지 1층","indutype":"건축자재 - 인테리어전문","category":"other"},{"name":"월드버티칼","tel":"031-416-2071","addr":"경기도 안산시 상록구 부곡동 622-12번지","indutype":"직물 - 카페트,커튼,천막,지물","category":"other"}]},{"lat":"37.327697206","long":"126.86020939","imageIndex":17,"items":[{"name":"GS25부곡대로점","tel":"","addr":"경기도 안산시 상록구 부곡동 684-1번지 101~102호","indutype":"유통업 영리 - 편 의 점","category":"other"}]},{"lat":"37.324452535","long":"126.85938062","imageIndex":17,"items":[{"name":"GS25상록부곡로점","tel":"","addr":"경기도 안산시 상록구 부곡동 692-4번지 1층 상가","indutype":"유통업 영리 - 편 의 점","category":"other"}]},{"lat":"37.335361662","long":"126.86510346","imageIndex":17,"items":[{"name":"GS25상록부곡점","tel":"080-555-2525","addr":"경기도 안산시 상록구 부곡동 647-17번지","indutype":"유통업 영리 - 편 의 점","category":"other"},{"name":"수인상사","tel":"031-409-7243","addr":"경기도 안산시 상록구 부곡동 647-17번지","indutype":"건축자재 - 목재·석재·철물","category":"other"}]},{"lat":"37.331696186","long":"126.86654316","imageIndex":17,"items":[{"name":"GS25상록하이츠점","tel":"","addr":"경기도 안산시 상록구 부곡동 543-5번지 1층","indutype":"유통업 영리 - 편 의 점","category":"other"}]},{"lat":"37.333865009","long":"126.85679001","imageIndex":17,"items":[{"name":"GS25시낭한울점","tel":"","addr":"경기도 안산시 상록구 부곡동 734-16번지 1층","indutype":"유통업 영리 - 편 의 점","category":"other"}]},{"lat":"37.335562328","long":"126.85957389","imageIndex":17,"items":[{"name":"GS25안산공고점","tel":"","addr":"경기도 안산시 상록구 부곡동 724-8번지 103호","indutype":"유통업 영리 - 편 의 점","category":"other"}]},{"lat":"37.330591874","long":"126.86221235","imageIndex":17,"items":[{"name":"GS25안산부곡점","tel":"02-2006-2118","addr":"경기도 안산시 상록구 부곡동 627-15번지 다청림 101호","indutype":"유통업 영리 - 편 의 점","category":"other"}]},{"lat":"37.333197294","long":"126.86345999","imageIndex":17,"items":[{"name":"GS25안산정재로점","tel":"","addr":"경기도 안산시 상록구 부곡동 662-5번지","indutype":"유통업 영리 - 편 의 점","category":"other"}]},{"lat":"37.326668832","long":"126.85920717","imageIndex":17,"items":[{"name":"K골프연습장","tel":"031-407-3645","addr":"경기도 안산시 상록구 부곡동 685-8번지","indutype":"회원제형태 - 레져업소","category":"other"}]},{"lat":"37.3294468571","long":"126.8616051954","imageIndex":17,"items":[{"name":"M헤어","tel":"031-419-1580","addr":"경기도 안산시 상록구 부곡동 623-9번지","indutype":"협회 및 단체, 수리 및 기타 개인서","category":"other"}]},{"lat":"37.335335339","long":"126.86571285","imageIndex":17,"items":[{"name":"SK가스경인센터","tel":"032-224-4229","addr":"경기도 안산시 상록구 부곡동 647-4번지 102호","indutype":"건축자재 - 보일러·펌프·샷시","category":"other"}]},{"lat":"37.325588622","long":"126.86004414","imageIndex":17,"items":[{"name":"The style factory","tel":"031-409-2178","addr":"경기도 안산시 상록구 부곡동 612-5번지 영월드빌 401호","indutype":"직물 - 침구·수예점","category":"other"}]},{"lat":"37.326814114","long":"126.86013208","imageIndex":17,"items":[{"name":"YES냉난방시스템","tel":"031-415-6189","addr":"경기도 안산시 상록구 부곡동 613번지 1층","indutype":"전기제품 - 냉열기기","category":"other"}]},{"lat":"37.3282554","long":"126.85984728","imageIndex":17,"items":[{"name":"ing공조","tel":"031-417-3277","addr":"경기도 안산시 상록구 부곡동 682-3번지 102호","indutype":"용역 서비스 - 기타용역서비스","category":"other"}]},{"lat":"37.3333627801","long":"126.8662919090","imageIndex":17,"items":[{"name":"가가건설중기","tel":"","addr":"경기도 안산시 상록구 부곡동 638-11번지","indutype":"협회 및 단체, 수리 및 기타 개인서","category":"other"}]},{"lat":"37.3263705894","long":"126.8584630762","imageIndex":17,"items":[{"name":"가구아울렛직판장, 종합가구","tel":"031-416-4310","addr":"경기도 안산시 상록구 부곡동 685-11번지","indutype":"도매 및 소매업 - 가구","category":"other"},{"name":"갤러리가구","tel":"031-419-2484","addr":"경기도 안산시 상록구 부곡동 685-11번지","indutype":"도매 및 소매업 - 가구","category":"other"}]},{"lat":"37.332865397","long":"126.85720944","imageIndex":17,"items":[{"name":"가나안천막산업","tel":"031-483-3800","addr":"경기도 안산시 상록구 부곡동 738-6번지","indutype":"직물 - 카페트,커튼,천막,지물","category":"other"},{"name":"창대 폴딩도어","tel":"031-503-1466","addr":"경기도 안산시 상록구 부곡동 738-6번지 103호","indutype":"건축자재 - 기타건축자재","category":"other"},{"name":"황제중고가전,냉난방에어컨","tel":"031-439-7414","addr":"경기도 안산시 상록구 부곡동 738-6번지 1층 101,102호","indutype":"전기제품 - 가전제품","category":"other"}]},{"lat":"37.330419226","long":"126.86099408","imageIndex":17,"items":[{"name":"가람유통","tel":"031-438-0702","addr":"경기도 안산시 상록구 부곡동 673-16번지","indutype":"유통업 영리 - 기타유통업","category":"other"}]},{"lat":"37.333588164","long":"126.86640434","imageIndex":17,"items":[{"name":"가뮤라 슈즈1","tel":"031-000-0000","addr":"경기도 안산시 상록구 부곡동 638-9번지 B04호","indutype":"신변잡화 - 신발","category":"other"}]},{"lat":"37.325786846","long":"126.86004376","imageIndex":17,"items":[{"name":"가야공조","tel":"031-438-7777","addr":"경기도 안산시 상록구 부곡동 612-2번지 상가 101호","indutype":"전기제품 - 냉열기기","category":"other"},{"name":"미니네세탁","tel":"031-407-0770","addr":"경기도 안산시 상록구 부곡동 612-2번지 1층 103호","indutype":"수리서비스 - 세탁소","category":"other"}]},{"lat":"37.3309525085","long":"126.8624034979","imageIndex":17,"items":[{"name":"가휘헤어샵&샵","tel":"031-416-6659","addr":"경기도 안산시 상록구 부곡동 627-12번지","indutype":"협회 및 단체, 수리 및 기타 개인서","category":"other"},{"name":"가휘헤어샵&샵","tel":"031-416-6659","addr":"경기도 안산시 상록구 부곡동 627-12번지","indutype":"협회 및 단체, 수리 및 기타 개인서","category":"other"}]},{"lat":"37.335389473","long":"126.85820885","imageIndex":17,"items":[{"name":"강원세탁","tel":"031-411-8555","addr":"경기도 안산시 상록구 부곡동 727-17번지","indutype":"수리서비스 - 세탁소","category":"other"},{"name":"피어나","tel":"031-410-5315","addr":"경기도 안산시 상록구 부곡동 727-17번지 103호","indutype":"문화.취미 - 화원","category":"other"}]},{"lat":"37.3353894729","long":"126.8582088462","imageIndex":17,"items":[{"name":"강원세탁","tel":"","addr":"경기도 안산시 상록구 부곡동 727-17번지","indutype":"협회 및 단체, 수리 및 기타 개인서","category":"other"},{"name":"라라헤어","tel":"031-403-2255","addr":"경기도 안산시 상록구 부곡동 727-17번지","indutype":"협회 및 단체, 수리 및 기타 개인서","category":"other"},{"name":"아뉴","tel":"","addr":"경기도 안산시 상록구 부곡동 727-17번지","indutype":"도매 및 소매업 - 구제의류","category":"other"}]},{"lat":"37.335616224","long":"126.85943838","imageIndex":17,"items":[{"name":"개올화실","tel":"031-485-4742","addr":"경기도 안산시 상록구 부곡동 724-9번지 우암파크빌 202호","indutype":"회원제형태 - 기타4","category":"other"}]},{"lat":"37.3327852283","long":"126.8655143808","imageIndex":17,"items":[{"name":"거성유통","tel":"070-4046-1068","addr":"경기도 안산시 상록구 부곡동 534-10번지","indutype":"도매 및 소매업 - 농공산품식자재","category":"other"},{"name":"대성유통","tel":"031-509-5664","addr":"경기도 안산시 상록구 부곡동 534-10번지","indutype":"도매 및 소매업 - 농공산품식자재","category":"other"}]},{"lat":"37.332867606","long":"126.85901482","imageIndex":17,"items":[{"name":"경기금속","tel":"031-414-8608","addr":"경기도 안산시 상록구 부곡동 735-8번지","indutype":"건축자재 - 기타건축자재","category":"other"},{"name":"경기철강","tel":"031-414-8618","addr":"경기도 안산시 상록구 부곡동 735-8번지 1층 101호102호","indutype":"건축자재 - 기타건축자재","category":"other"}]},{"lat":"37.327147259","long":"126.85993964","imageIndex":17,"items":[{"name":"경기난방관리","tel":"031-509-7599","addr":"경기도 안산시 상록구 부곡동 684-4번지 1층 101호","indutype":"용역 서비스 - 기타용역서비스","category":"other"},{"name":"예당인테리어","tel":"031-415-1204","addr":"경기도 안산시 상록구 부곡동 684-4번지 101호","indutype":"건축자재 - 인테리어전문","category":"other"}]},{"lat":"37.333451362","long":"126.85745655","imageIndex":17,"items":[{"name":"경기에어컨","tel":"031-403-1786","addr":"경기도 안산시 상록구 부곡동 736-3번지","indutype":"용역 서비스 - 기타용역서비스","category":"other"}]},{"lat":"37.322198604","long":"126.85824542","imageIndex":17,"items":[{"name":"경안열쇠","tel":"031-501-1382","addr":"경기도 안산시 상록구 부곡동 697번지 302호","indutype":"수리서비스 - 기타수리서비스","category":"other"},{"name":"디자인(Design)좋은생각","tel":"031-407-5390","addr":"경기도 안산시 상록구 부곡동 697번지 1층 101호","indutype":"건축자재 - 인테리어전문","category":"other"},{"name":"반월열기","tel":"031-484-1421","addr":"경기도 안산시 상록구 부곡동 697번지 1층","indutype":"수리서비스 - 기타수리서비스","category":"other"}]},{"lat":"37.335083851","long":"126.86640163","imageIndex":17,"items":[{"name":"경일메디칼","tel":"031-415-1300","addr":"경기도 안산시 상록구 부곡동 637번지","indutype":"회원제형태 - 기타4","category":"other"}]},{"lat":"37.3255611960","long":"126.8597169937","imageIndex":17,"items":[{"name":"고깃간","tel":"031-502-3398","addr":"경기도 안산시 상록구 부곡동 612-11번지","indutype":"도매 및 소매업 - 식육판매점","category":"other"}]},{"lat":"37.332502952","long":"126.86298736","imageIndex":17,"items":[{"name":"고잔정보","tel":"031-501-6665","addr":"경기도 안산시 상록구 부곡동 666-3번지 2,3호","indutype":"사무통신 - 통신기기","category":"other"}]},{"lat":"37.3325029518","long":"126.8629873601","imageIndex":17,"items":[{"name":"고잔정보","tel":"","addr":"경기도 안산시 상록구 부곡동 666-3번지","indutype":"도매 및 소매업 - 휴대폰,담배","category":"other"}]},{"lat":"37.3325036707","long":"126.8635966751","imageIndex":17,"items":[{"name":"고향방앗간","tel":"031-416-0889","addr":"경기도 안산시 상록구 부곡동 538-1번지","indutype":"제조업 - 방앗간","category":"other"},{"name":"콘서트 노래연습장","tel":"","addr":"경기도 안산시 상록구 부곡동 538-1번지","indutype":"협회 및 단체, 수리 및 기타 개인서","category":"other"}]},{"lat":"37.345950886","long":"126.86707039","imageIndex":17,"items":[{"name":"골드문","tel":"031-481-9545","addr":"경기도 안산시 상록구 부곡동 3-2번지","indutype":"건축자재 - 인테리어전문","category":"other"}]},{"lat":"37.3301414597","long":"126.8622921751","imageIndex":17,"items":[{"name":"골프메인","tel":"031-417-4464","addr":"경기도 안산시 상록구 부곡동 624-1번지","indutype":"도매 및 소매업 - 골프용품, 통신판","category":"other"}]},{"lat":"37.33014146","long":"126.86229218","imageIndex":17,"items":[{"name":"골프메인","tel":"031-417-4464","addr":"경기도 안산시 상록구 부곡동 624-1번지","indutype":"레져용품 - 골프용품 전문점","category":"other"}]},{"lat":"37.33383793","long":"126.86423739","imageIndex":17,"items":[{"name":"공방DC마트","tel":"031-416-6860","addr":"경기도 안산시 상록구 부곡동 643-11번지","indutype":"신변잡화 - 기타잡화","category":"other"}]},{"lat":"37.3337022213","long":"126.8637637195","imageIndex":17,"items":[{"name":"과일생각","tel":"031-416-8333","addr":"경기도 안산시 상록구 부곡동 661-6번지","indutype":"도매 및 소매업 - 청과","category":"other"},{"name":"용인축산","tel":"031-418-2952","addr":"경기도 안산시 상록구 부곡동 661-6번지","indutype":"도매 및 소매업 - 육류","category":"other"}]},{"lat":"37.324477667","long":"126.8578236","imageIndex":17,"items":[{"name":"광신천막공업사","tel":"031-493-8272","addr":"경기도 안산시 상록구 부곡동 689-7번지 102호","indutype":"직물 - 카페트,커튼,천막,지물","category":"other"}]},{"lat":"37.332556786","long":"126.86279544","imageIndex":17,"items":[{"name":"구제","tel":"","addr":"경기도 안산시 상록구 부곡동 666-2번지 1층","indutype":"의류 - 기타의류","category":"other"},{"name":"구제#","tel":"","addr":"경기도 안산시 상록구 부곡동 666-2번지 102호","indutype":"의류 - 정장","category":"other"}]},{"lat":"37.33491944","long":"126.86448365","imageIndex":17,"items":[{"name":"구제","tel":"031-000-0000","addr":"경기도 안산시 상록구 부곡동 657-7번지 B01호","indutype":"의류 - 정장","category":"other"}]},{"lat":"37.33336989","long":"126.86465575","imageIndex":17,"items":[{"name":"구제샵","tel":"","addr":"경기도 안산시 상록구 부곡동 642-6번지 지층 102호","indutype":"의류 - 정장","category":"other"}]},{"lat":"37.333335157","long":"126.85821279","imageIndex":17,"items":[{"name":"국제공업","tel":"031-484-4524","addr":"경기도 안산시 상록구 부곡동 735-16번지","indutype":"건축자재 - 기타건축자재","category":"other"},{"name":"국제종합건재(주)","tel":"031-484-4524","addr":"경기도 안산시 상록구 부곡동 735-16번지","indutype":"건축자재 - 기타건축자재","category":"other"}]},{"lat":"37.332867351","long":"126.86640564","imageIndex":17,"items":[{"name":"국제세탁소","tel":"031-501-5772","addr":"경기도 안산시 상록구 부곡동 630-9번지","indutype":"수리서비스 - 세탁소","category":"other"},{"name":"에어컨이사나라","tel":"031-507-4804","addr":"경기도 안산시 상록구 부곡동 630-9번지 그린상가103","indutype":"용역 서비스 - 기타용역서비스","category":"other"}]},{"lat":"37.3333410035","long":"126.8630760761","imageIndex":17,"items":[{"name":"굿서플라이(모닝글로리)","tel":"031-407-9921","addr":"경기도 안산시 상록구 부곡동 662-8번지","indutype":"도매 및 소매업 - 문구 잡화","category":"other"}]},{"lat":"37.327003627","long":"126.86037994","imageIndex":17,"items":[{"name":"그린공조","tel":"031-548-6643","addr":"경기도 안산시 상록구 부곡동 619-5번지 302호","indutype":"용역 서비스 - 기타용역서비스","category":"other"}]},{"lat":"37.334057795","long":"126.85971215","imageIndex":17,"items":[{"name":"그린에어컨","tel":"031-482-5031","addr":"경기도 안산시 상록구 부곡동 729-12번지 301호","indutype":"용역 서비스 - 기타용역서비스","category":"other"},{"name":"다온시큐","tel":"031-123-4567","addr":"경기도 안산시 상록구 부곡동 729-12번지 402호","indutype":"용역 서비스 - 기타용역서비스","category":"other"}]},{"lat":"37.33636956","long":"126.86404091","imageIndex":17,"items":[{"name":"그린워터정수기","tel":"02-2697-2526","addr":"경기도 안산시 상록구 부곡동 654-10번지","indutype":"주방용구 - 정수기","category":"other"},{"name":"루시앤폴","tel":"031-506-5535","addr":"경기도 안산시 상록구 부곡동 654-10번지 101호","indutype":"문화.취미 - 화원","category":"other"},{"name":"소중하개 사랑하개","tel":"031-506-9943","addr":"경기도 안산시 상록구 부곡동 654-10번지 101호","indutype":"문화.취미 - 애완동물","category":"other"}]},{"lat":"37.333063188","long":"126.86435165","imageIndex":17,"items":[{"name":"그린콘트롤","tel":"031-406-1359","addr":"경기도 안산시 상록구 부곡동 533-4번지 부곡 상가 203호","indutype":"전기제품 - 기타전기제품","category":"other"},{"name":"미니펫","tel":"031-417-7009","addr":"경기도 안산시 상록구 부곡동 533-4번지 부곡시장 106호","indutype":"문화.취미 - 애완동물","category":"other"},{"name":"바이올렛","tel":"031-501-5013","addr":"경기도 안산시 상록구 부곡동 533-4번지 부곡시장 105호","indutype":"의류 - 정장","category":"other"},{"name":"부곡상가번영회","tel":"031-416-5960","addr":"경기도 안산시 상록구 부곡동 533-4번지 시장상가","indutype":"기타 - 비영리/대상","category":"other"},{"name":"엘리","tel":"031-000-0000","addr":"경기도 안산시 상록구 부곡동 533-4번지 부곡시장 1층 108호","indutype":"의류 - 정장","category":"other"},{"name":"예니악세사리","tel":"031-406-7628","addr":"경기도 안산시 상록구 부곡동 533-4번지 부곡시장 104호","indutype":"신변잡화 - 액세서리","category":"other"},{"name":"콜라","tel":"","addr":"경기도 안산시 상록구 부곡동 533-4번지 부곡시장 110호","indutype":"의류 - 정장","category":"other"},{"name":"티엔티 (TNT)","tel":"02-1111-1111","addr":"경기도 안산시 상록구 부곡동 533-4번지 부곡시장 1동 110층","indutype":"의류 - 정장","category":"other"},{"name":"패션하우스","tel":"031-415-7475","addr":"경기도 안산시 상록구 부곡동 533-4번지 부곡시장 1층 119호","indutype":"의류 - 정장","category":"other"},{"name":"홀리키즈","tel":"031-111-1111","addr":"경기도 안산시 상록구 부곡동 533-4번지 부곡시장 1층 117호","indutype":"의류 - 아동의류","category":"other"}]},{"lat":"37.333197917","long":"126.86399032","imageIndex":17,"items":[{"name":"금강지물장식","tel":"031-407-0896","addr":"경기도 안산시 상록구 부곡동 533-1번지","indutype":"건축자재 - 인테리어전문","category":"other"}]},{"lat":"37.336974555","long":"126.85763031","imageIndex":17,"items":[{"name":"금성냉열","tel":"031-111-1111","addr":"경기도 안산시 상록구 부곡동 714-1번지 대경마로니에 302호","indutype":"전기제품 - 냉열기기","category":"other"}]},{"lat":"37.341281036","long":"126.87278899","imageIndex":17,"items":[{"name":"기린기업","tel":"031-480-5288","addr":"경기도 안산시 상록구 부곡동 234-14번지","indutype":"용역 서비스 - 종합용역","category":"other"}]},{"lat":"37.3274542304","long":"126.8604580723","imageIndex":17,"items":[{"name":"김가네한우사골","tel":"","addr":"경기도 안산시 상록구 부곡동 619-9번지","indutype":"도매 및 소매업 - 즉석판매제조가공업","category":"other"}]},{"lat":"37.335478465","long":"126.86482115","imageIndex":17,"items":[{"name":"김서방","tel":"031-408-2466","addr":"경기도 안산시 상록구 부곡동 655-11번지 102호","indutype":"가구 - 일반가구","category":"other"}]},{"lat":"37.334342367","long":"126.86412362","imageIndex":17,"items":[{"name":"꼬리치는강아지","tel":"031-505-2823","addr":"경기도 안산시 상록구 부곡동 661-1번지 102동 103호","indutype":"문화.취미 - 애완동물","category":"other"}]},{"lat":"37.33472456","long":"126.8673727","imageIndex":17,"items":[{"name":"꽃블리 꽃자판기","tel":"070-5121-6776","addr":"경기도 안산시 상록구 부곡동 633번지 정상캐슬 502호","indutype":"문화.취미 - 화원","category":"other"},{"name":"원진상사","tel":"031-423-7090","addr":"경기도 안산시 상록구 부곡동 633번지 정상캐슬","indutype":"의류 - 정장","category":"other"}]},{"lat":"37.3300844777","long":"126.8598550939","imageIndex":17,"items":[{"name":"꽃이야기","tel":"","addr":"경기도 안산시 상록구 부곡동 679번지","indutype":"도매 및 소매업 - 꽃","category":"other"}]},{"lat":"37.335812812","long":"126.85809519","imageIndex":17,"items":[{"name":"꿀잼블럭","tel":"031-439-6660","addr":"경기도 안산시 상록구 부곡동 715-5번지 102호","indutype":"서적문구 - 완구점","category":"other"}]},{"lat":"37.3321427719","long":"126.8631798488","imageIndex":17,"items":[{"name":"나리네일","tel":"070-7568-8597","addr":"경기도 안산시 상록구 부곡동 538-4번지","indutype":"협회 및 단체, 수리 및 기타 개인서","category":"other"}]},{"lat":"37.334336942","long":"126.86721543","imageIndex":17,"items":[{"name":"나린중문","tel":"","addr":"경기도 안산시 상록구 부곡동 632번지 202호","indutype":"용역 서비스 - 기타용역서비스","category":"other"}]},{"lat":"37.334064671","long":"126.86551205","imageIndex":17,"items":[{"name":"나무무","tel":"","addr":"경기도 안산시 상록구 부곡동 646-7번지 1층","indutype":"문화.취미 - 문화취미기타","category":"other"}]},{"lat":"37.333172062","long":"126.86499462","imageIndex":17,"items":[{"name":"나이스건축설비","tel":"031-437-9248","addr":"경기도 안산시 상록구 부곡동 641-6번지 104호","indutype":"건축자재 - 인테리어전문","category":"other"}]},{"lat":"37.3278961627","long":"126.8608182925","imageIndex":17,"items":[{"name":"낙원타일","tel":"031-401-2524","addr":"경기도 안산시 상록구 부곡동 620-1번지","indutype":"도매 및 소매업 - 타일,도기","category":"other"}]},{"lat":"37.334000343","long":"126.85693643","imageIndex":17,"items":[{"name":"낙원타일","tel":"031-401-2524","addr":"경기도 안산시 상록구 부곡동 734-17번지 101호","indutype":"건축자재 - 건축용 요업제품","category":"other"}]},{"lat":"37.32492146","long":"126.85970692","imageIndex":17,"items":[{"name":"낭만통신","tel":"031-501-0288","addr":"경기도 안산시 상록구 부곡동 606번지 1층","indutype":"사무통신 - 통신기기","category":"other"}]},{"lat":"37.3330631883","long":"126.8643516514","imageIndex":17,"items":[{"name":"내손에피어나","tel":"031-438-1163","addr":"경기도 안산시 상록구 부곡동 533-4번지","indutype":"협회 및 단체, 수리 및 기타 개인서","category":"other"},{"name":"바이올렛","tel":"031-501-5013","addr":"경기도 안산시 상록구 부곡동 533-4번지","indutype":"도매 및 소매업 - 의류","category":"other"},{"name":"부곡반찬","tel":"","addr":"경기도 안산시 상록구 부곡동 533-4번지","indutype":"도매 및 소매업 - 반찬","category":"other"},{"name":"예니악세사리","tel":"031-406-7628","addr":"경기도 안산시 상록구 부곡동 533-4번지","indutype":"도매 및 소매업 - 악세사리","category":"other"},{"name":"패션하우스","tel":"031-415-7475","addr":"경기도 안산시 상록구 부곡동 533-4번지","indutype":"도매 및 소매업 - 의류,잡화","category":"other"},{"name":"홀라키즈","tel":"","addr":"경기도 안산시 상록구 부곡동 533-4번지","indutype":"도매 및 소매업 - 아동복","category":"other"}]},{"lat":"37.3340903731","long":"126.8643723330","imageIndex":17,"items":[{"name":"네일에 반하다","tel":"","addr":"경기도 안산시 상록구 부곡동 643-13번지","indutype":"협회 및 단체, 수리 및 기타 개인서","category":"other"},{"name":"이불나라","tel":"031-408-1440","addr":"경기도 안산시 상록구 부곡동 643-13번지","indutype":"도매 및 소매업 - 이불","category":"other"}]},{"lat":"37.332478888","long":"126.85796619","imageIndex":17,"items":[{"name":"녹색가구 도소매 센타","tel":"031-410-5954","addr":"경기도 안산시 상록구 부곡동 737-6번지","indutype":"가구 - 일반가구","category":"other"}]},{"lat":"37.335278215","long":"126.86309505","imageIndex":17,"items":[{"name":"다옴","tel":"","addr":"경기도 안산시 상록구 부곡동 656-15번지 1동 102호","indutype":"용역 서비스 - 종합용역","category":"other"}]},{"lat":"37.336585777","long":"126.86401794","imageIndex":17,"items":[{"name":"다원종합전기공사","tel":"031-415-3242","addr":"경기도 안산시 상록구 부곡동 654-2번지 대광아트빌 101호","indutype":"용역 서비스 - 기타용역서비스","category":"other"}]},{"lat":"37.3327289911","long":"126.8636526775","imageIndex":17,"items":[{"name":"달달한친구들","tel":"","addr":"경기도 안산시 상록구 부곡동 538번지","indutype":"교육서비스업 - 심리상담, 카페, 댄","category":"other"},{"name":"부곡치과의원","tel":"031-416-2994","addr":"경기도 안산시 상록구 부곡동 538번지","indutype":"보건업 및 사회복지서비스업 - 치과","category":"other"},{"name":"스타헬스에어로빅","tel":"031-416-0787","addr":"경기도 안산시 상록구 부곡동 538번지","indutype":"예술, 스포츠 및 여가관련 서비스업","category":"other"},{"name":"헤어토크","tel":"031-409-8694","addr":"경기도 안산시 상록구 부곡동 538번지","indutype":"협회 및 단체, 수리 및 기타 개인서","category":"other"}]},{"lat":"37.3257859718","long":"126.8593216751","imageIndex":17,"items":[{"name":"대경텔레콤","tel":"031-415-3010","addr":"경기도 안산시 상록구 부곡동 686-7번지","indutype":"도매 및 소매업 - 통신기기","category":"other"},{"name":"제일디자인앤인테리어","tel":"031-409-9776","addr":"경기도 안산시 상록구 부곡동 686-7번지","indutype":"도매 및 소매업 - 벽지,장판,문구","category":"other"}]},{"lat":"37.325785972","long":"126.85932168","imageIndex":17,"items":[{"name":"대경텔레콤","tel":"031-415-3010","addr":"경기도 안산시 상록구 부곡동 686-7번지 101호","indutype":"사무통신 - 통신기기","category":"other"},{"name":"제일디자인앤인테리어","tel":"031-409-9776","addr":"경기도 안산시 상록구 부곡동 686-7번지 104호","indutype":"직물 - 카페트,커튼,천막,지물","category":"other"},{"name":"제일종합인테리어","tel":"031-409-9776","addr":"경기도 안산시 상록구 부곡동 686-7번지 104호","indutype":"직물 - 카페트,커튼,천막,지물","category":"other"},{"name":"제일종합인테리어","tel":"031-409-9776","addr":"경기도 안산시 상록구 부곡동 686-7번지","indutype":"직물 - 카페트,커튼,천막,지물","category":"other"}]},{"lat":"37.336868403","long":"126.85924416","imageIndex":17,"items":[{"name":"대광리싸이클","tel":"","addr":"경기도 안산시 상록구 부곡동 720-1번지 1층","indutype":"전기제품 - 가전제품","category":"other"}]},{"lat":"37.324003904","long":"126.86093844","imageIndex":17,"items":[{"name":"대림케미칼","tel":"070-7779-5445","addr":"경기도 안산시 상록구 부곡동 604-3번지 하나화이트빌 101호","indutype":"직물 - 기타직물","category":"other"}]},{"lat":"37.333144099","long":"126.85671242","imageIndex":17,"items":[{"name":"대민철물점","tel":"031-405-6276","addr":"경기도 안산시 상록구 부곡동 738-10번지","indutype":"건축자재 - 목재·석재·철물","category":"other"}]},{"lat":"37.33270363","long":"126.85754826","imageIndex":17,"items":[{"name":"대신철강","tel":"031-486-4520","addr":"경기도 안산시 상록구 부곡동 737-9번지","indutype":"건축자재 - 기타건축자재","category":"other"}]},{"lat":"37.330006803","long":"126.86270991","imageIndex":17,"items":[{"name":"대영중문","tel":"","addr":"경기도 안산시 상록구 부곡동 625-1번지","indutype":"용역 서비스 - 기타용역서비스","category":"other"},{"name":"홀인원","tel":"070-4655-7803","addr":"경기도 안산시 상록구 부곡동 625-1번지 101호","indutype":"의류 - 정장","category":"other"}]},{"lat":"37.339892119","long":"126.86368459","imageIndex":17,"items":[{"name":"대웅주유소","tel":"","addr":"경기도 안산시 상록구 부곡동 214-13번지","indutype":"유통업 영리 - 편 의 점","category":"other"}]},{"lat":"37.3325011","long":"126.86143022","imageIndex":17,"items":[{"name":"대진주방","tel":"031-415-9689","addr":"경기도 안산시 상록구 부곡동 667-11번지 102호","indutype":"주방용구 - 기타주방용구","category":"other"}]},{"lat":"37.336868198","long":"126.8590749","imageIndex":17,"items":[{"name":"대창물산(주)","tel":"031-402-4252","addr":"경기도 안산시 상록구 부곡동 720번지","indutype":"건축자재 - 보일러·펌프·샷시","category":"other"}]},{"lat":"37.332452179","long":"126.86579708","imageIndex":17,"items":[{"name":"대한난방관리","tel":"031-415-6769","addr":"경기도 안산시 상록구 부곡동 537-8번지 101호","indutype":"용역 서비스 - 기타용역서비스","category":"other"}]},{"lat":"37.335531456","long":"126.86390704","imageIndex":17,"items":[{"name":"대한난방시설관리","tel":"080-076-0909","addr":"경기도 안산시 상록구 부곡동 656-4번지 1층","indutype":"수리서비스 - 기타수리서비스","category":"other"},{"name":"세종산업","tel":"031-406-3100","addr":"경기도 안산시 상록구 부곡동 656-4번지 101호","indutype":"건축자재 - 기타건축자재","category":"other"}]},{"lat":"37.324612819","long":"126.85782334","imageIndex":17,"items":[{"name":"대흥상사","tel":"031-408-7704","addr":"경기도 안산시 상록구 부곡동 689-8번지","indutype":"건축자재 - 페인트","category":"other"}]},{"lat":"37.3268124591","long":"126.8587668658","imageIndex":17,"items":[{"name":"더조은온스크린","tel":"","addr":"경기도 안산시 상록구 부곡동 685-2번지","indutype":"협회 및 단체, 수리 및 기타 개인서","category":"other"}]},{"lat":"37.335280044","long":"126.86465225","imageIndex":17,"items":[{"name":"더컴시스템","tel":"070-7524-5964","addr":"경기도 안산시 상록구 부곡동 657-4번지 105호","indutype":"사무통신 - 컴퓨터","category":"other"},{"name":"태영이엔지","tel":"031-406-2407","addr":"경기도 안산시 상록구 부곡동 657-4번지 101호","indutype":"용역 서비스 - 기타용역서비스","category":"other"}]},{"lat":"37.3366398025","long":"126.8565138099","imageIndex":17,"items":[{"name":"더헤어","tel":"031-487-9787","addr":"경기도 안산시 상록구 부곡동 717번지","indutype":"협회 및 단체, 수리 및 기타 개인서","category":"other"}]},{"lat":"37.328229674","long":"126.86093049","imageIndex":17,"items":[{"name":"동신철물상사","tel":"031-417-1972","addr":"경기도 안산시 상록구 부곡동 622-9번지","indutype":"기타 - 기계공구","category":"other"}]},{"lat":"37.3282296743","long":"126.8609304945","imageIndex":17,"items":[{"name":"동신철물상사","tel":"031-417-1972","addr":"경기도 안산시 상록구 부곡동 622-9번지","indutype":"도매 및 소매업 - 철물","category":"other"}]},{"lat":"37.3283378369","long":"126.8609641401","imageIndex":17,"items":[{"name":"동안스킨케어","tel":"","addr":"경기도 안산시 상록구 부곡동 622-10번지","indutype":"협회 및 단체, 수리 및 기타 개인서","category":"other"}]},{"lat":"37.33072712","long":"126.86229108","imageIndex":17,"items":[{"name":"동진인테리어","tel":"031-417-6789","addr":"경기도 안산시 상록구 부곡동 627-10번지 1층","indutype":"직물 - 카페트,커튼,천막,지물","category":"other"}]},{"lat":"37.333784976","long":"126.86518533","imageIndex":17,"items":[{"name":"동화속다락방","tel":"","addr":"경기도 안산시 상록구 부곡동 641-12번지","indutype":"문화.취미 - 문화취미기타","category":"other"}]},{"lat":"37.327560138","long":"126.85863004","imageIndex":17,"items":[{"name":"두리","tel":"031-482-5277","addr":"경기도 안산시 상록구 부곡동 681-8번지 1층 102호","indutype":"용역 서비스 - 기타용역서비스","category":"other"}]},{"lat":"37.331895936","long":"126.86787426","imageIndex":17,"items":[{"name":"두리냉동설비","tel":"070-4792-6033","addr":"경기도 안산시 상록구 부곡동 548-2번지 102호","indutype":"용역 서비스 - 기타용역서비스","category":"other"}]},{"lat":"37.334143825","long":"126.86385318","imageIndex":17,"items":[{"name":"드림MGB","tel":"031-406-1260","addr":"경기도 안산시 상록구 부곡동 661-18번지 102호","indutype":"용역 서비스 - 기타용역서비스","category":"other"},{"name":"주식회사 엠지비상사","tel":"031-416-1919","addr":"경기도 안산시 상록구 부곡동 661-18번지 103호","indutype":"레져용품 - 스포츠·레져용품","category":"other"}]},{"lat":"37.329535348","long":"126.86026233","imageIndex":17,"items":[{"name":"드림종합건축하우징","tel":"","addr":"경기도 안산시 상록구 부곡동 675-1번지 101호","indutype":"건축자재 - 인테리어전문","category":"other"}]},{"lat":"37.3447842165","long":"126.8633257151","imageIndex":17,"items":[{"name":"디자인솔","tel":"","addr":"경기도 안산시 상록구 부곡동 38-2번지","indutype":"제조업 - 인쇄,실내장식","category":"other"}]},{"lat":"37.325477796","long":"126.85782168","imageIndex":17,"items":[{"name":"라라 잡화점","tel":"","addr":"경기도 안산시 상록구 부곡동 688-8번지 이든하우스 301호","indutype":"신변잡화 - 액세서리","category":"other"},{"name":"온누리광고기획","tel":"031-417-7542","addr":"경기도 안산시 상록구 부곡동 688-8번지","indutype":"수리서비스 - 기타수리서비스","category":"other"}]},{"lat":"37.332142772","long":"126.86317985","imageIndex":17,"items":[{"name":"라미옷가게","tel":"","addr":"경기도 안산시 상록구 부곡동 538-4번지 서광빌딩 103호","indutype":"의류 - 정장","category":"other"},{"name":"아브라함교역","tel":"031-417-4996","addr":"경기도 안산시 상록구 부곡동 538-4 지하","indutype":"레져용품 - 스포츠·레져용품","category":"other"}]},{"lat":"37.327698777","long":"126.86151821","imageIndex":17,"items":[{"name":"라온투어","tel":"","addr":"경기도 안산시 상록구 부곡동 620-6번지 501호","indutype":"용역 서비스 - 사무서비스","category":"other"}]},{"lat":"37.333171864","long":"126.86482537","imageIndex":17,"items":[{"name":"럭키철물","tel":"031-417-6477","addr":"경기도 안산시 상록구 부곡동 641-7번지 1층점포","indutype":"건축자재 - 목재·석재·철물","category":"other"}]},{"lat":"37.3331718642","long":"126.8648253688","imageIndex":17,"items":[{"name":"럭키철물","tel":"031-417-6477","addr":"경기도 안산시 상록구 부곡동 641-7번지","indutype":"도매 및 소매업 - 철물점","category":"other"}]},{"lat":"37.333306555","long":"126.86443019","imageIndex":17,"items":[{"name":"레알컴퓨터","tel":"031-406-5025","addr":"경기도 안산시 상록구 부곡동 642-8번지 1층 101호","indutype":"사무통신 - 컴퓨터","category":"other"}]},{"lat":"37.325784791","long":"126.85835137","imageIndex":17,"items":[{"name":"리앤지컴퍼니(Lee&Ji company)","tel":"031-406-5512","addr":"경기도 안산시 상록구 부곡동 686-1번지 202호","indutype":"레져용품 - 스포츠·레져용품","category":"other"}]},{"lat":"37.333868377","long":"126.85954326","imageIndex":17,"items":[{"name":"리치","tel":"070-4150-5894","addr":"경기도 안산시 상록구 부곡동 731-5번지 르네상스빌 3층 302호","indutype":"의류 - 내의판매","category":"other"}]},{"lat":"37.3337311896","long":"126.8578735118","imageIndex":17,"items":[{"name":"매일좋은날헤어샵","tel":"","addr":"경기도 안산시 상록구 부곡동 734-6번지","indutype":"협회 및 단체, 수리 및 기타 개인서","category":"other"}]},{"lat":"37.333280604","long":"126.86535551","imageIndex":17,"items":[{"name":"명군전기","tel":"031-405-3847","addr":"경기도 안산시 상록구 부곡동 640-13번지 101호","indutype":"용역 서비스 - 기타용역서비스","category":"other"}]},{"lat":"37.324308973","long":"126.85987732","imageIndex":17,"items":[{"name":"명성건축설비","tel":"031-407-0404","addr":"경기도 안산시 상록구 부곡동 606-8번지 101호","indutype":"용역 서비스 - 기타용역서비스","category":"other"}]},{"lat":"37.322532421","long":"126.85860581","imageIndex":17,"items":[{"name":"명성지물포","tel":"031-485-3411","addr":"경기도 안산시 상록구 부곡동 695-17번지","indutype":"직물 - 카페트,커튼,천막,지물","category":"other"}]},{"lat":"37.3225324210","long":"126.8586058069","imageIndex":17,"items":[{"name":"명성지물포","tel":"031-485-3411","addr":"경기도 안산시 상록구 부곡동 695-17번지","indutype":"도매 및 소매업 - 지물","category":"other"}]},{"lat":"37.334923207","long":"126.8600716","imageIndex":17,"items":[{"name":"명수건설","tel":"","addr":"경기도 안산시 상록구 부곡동 725-12번지 502호","indutype":"용역 서비스 - 기타용역서비스","category":"other"}]},{"lat":"37.3249210637","long":"126.8593797330","imageIndex":17,"items":[{"name":"명품바른고기","tel":"031-409-1660","addr":"경기도 안산시 상록구 부곡동 692-1번지","indutype":"도매 및 소매업 - 육류","category":"other"},{"name":"퀸헤어?","tel":"031-416-9370","addr":"경기도 안산시 상록구 부곡동 692-1번지","indutype":"협회 및 단체, 수리 및 기타 개인서","category":"other"}]},{"lat":"37.326120453","long":"126.86023494","imageIndex":17,"items":[{"name":"명품세탁소","tel":"031-406-4089","addr":"경기도 안산시 상록구 부곡동 613-5번지 선샤인 101호","indutype":"수리서비스 - 세탁소","category":"other"}]},{"lat":"37.324614718","long":"126.85938032","imageIndex":17,"items":[{"name":"미녀는 개로워","tel":"","addr":"경기도 안산시 상록구 부곡동 692-3번지 101호","indutype":"문화.취미 - 애완동물","category":"other"},{"name":"스마트텔레콤","tel":"031-416-4016","addr":"경기도 안산시 상록구 부곡동 692-3번지 1층 102호","indutype":"사무통신 - 통신기기","category":"other"},{"name":"여우와솜사탕","tel":"031-406-8969","addr":"경기도 안산시 상록구 부곡동 692-3번지","indutype":"서적문구 - 문구용품","category":"other"}]},{"lat":"37.332700614","long":"126.86251308","imageIndex":17,"items":[{"name":"미니스톱 안산럭키점","tel":"031-1577-9621","addr":"경기도 안산시 상록구 부곡동 666번지 1층","indutype":"유통업 영리 - 편 의 점","category":"other"}]},{"lat":"37.32575942","long":"126.85971662","imageIndex":17,"items":[{"name":"미니스톱안산부곡로점","tel":"031-1577-9621","addr":"경기도 안산시 상록구 부곡동 612번지 1층","indutype":"유통업 영리 - 편 의 점","category":"other"}]},{"lat":"37.334813978","long":"126.8591578","imageIndex":17,"items":[{"name":"미니스톱안산시낭북로점","tel":"031-1577-9621","addr":"경기도 안산시 상록구 부곡동 727-9번지 1층","indutype":"유통업 영리 - 편 의 점","category":"other"}]},{"lat":"37.327866649","long":"126.85876485","imageIndex":17,"items":[{"name":"미래종합기획","tel":"031-501-3368","addr":"경기도 안산시 상록구 부곡동 681-10번지 우석팰리스 104호","indutype":"용역 서비스 - 종합용역","category":"other"},{"name":"하나","tel":"031-406-4221","addr":"경기도 안산시 상록구 부곡동 681-10번지 우석팰리스 101호","indutype":"용역 서비스 - 기타용역서비스","category":"other"}]},{"lat":"37.331141896","long":"126.86254983","imageIndex":17,"items":[{"name":"미성컴퓨터세탁","tel":"031-416-1970","addr":"경기도 안산시 상록구 부곡동 627번지","indutype":"수리서비스 - 세탁소","category":"other"}]},{"lat":"37.32217109","long":"126.8578506","imageIndex":17,"items":[{"name":"바비와몰티","tel":"070-8246-7778","addr":"경기도 안산시 상록구 부곡동 696번지 102호","indutype":"문화.취미 - 애완동물","category":"other"}]},{"lat":"37.3325575456","long":"126.8634386046","imageIndex":17,"items":[{"name":"밝은안경","tel":"031-406-9009","addr":"경기도 안산시 상록구 부곡동 538-6번지","indutype":"도매 및 소매업 - 안경","category":"other"}]},{"lat":"37.333529589","long":"126.86254539","imageIndex":17,"items":[{"name":"방플러스창","tel":"031-415-7866","addr":"경기도 안산시 상록구 부곡동 663-6번지 영동아트빌5차 상가 1층 104호","indutype":"직물 - 침구·수예점","category":"other"}]},{"lat":"37.324306943","long":"126.85820753","imageIndex":17,"items":[{"name":"베베크린","tel":"070-8288-5681","addr":"경기도 안산시 상록구 부곡동 691-11 202호","indutype":"용역 서비스 - 종합용역","category":"other"}]},{"lat":"37.338945401","long":"126.8631334","imageIndex":17,"items":[{"name":"별빛마을기프트샵","tel":"","addr":"경기도 안산시 상록구 부곡동 216-3번지 1층","indutype":"신변잡화 - 기념품점","category":"other"}]},{"lat":"37.333891567","long":"126.86387621","imageIndex":17,"items":[{"name":"별진모바일","tel":"070-8264-8010","addr":"경기도 안산시 상록구 부곡동 661-4번지 103호","indutype":"사무통신 - 통신기기","category":"other"},{"name":"신발창고","tel":"070-0000-0000","addr":"경기도 안산시 상록구 부곡동 661-4번지 1층","indutype":"신변잡화 - 신발","category":"other"}]},{"lat":"37.324946196","long":"126.8578227","imageIndex":17,"items":[{"name":"별찌바이크","tel":"031-438-3003","addr":"경기도 안산시 상록구 부곡동 689번지 102호","indutype":"레져용품 - 스포츠·레져용품","category":"other"},{"name":"현디자인","tel":"031-485-1560","addr":"경기도 안산시 상록구 부곡동 689번지 1층 101호","indutype":"건축자재 - 인테리어전문","category":"other"}]},{"lat":"37.331619796","long":"126.8628536","imageIndex":17,"items":[{"name":"보물창고","tel":"031-415-7393","addr":"경기도 안산시 상록구 부곡동 628-11번지 1층 1","indutype":"의류 - 정장","category":"other"}]},{"lat":"37.322534037","long":"126.8599371","imageIndex":17,"items":[{"name":"보미클린홈","tel":"","addr":"경기도 안산시 상록구 부곡동 600-9번지 부원빌라 102호","indutype":"용역 서비스 - 종합용역","category":"other"}]},{"lat":"37.332728991","long":"126.86365268","imageIndex":17,"items":[{"name":"보옥당","tel":"031-417-0326","addr":"경기도 안산시 상록구 부곡동 538번지 부곡프라자 108호","indutype":"신변잡화 - 귀금속","category":"other"},{"name":"스타헬스에어로빅","tel":"031-416-0787","addr":"경기도 안산시 상록구 부곡동 538번지 부곡프라자 601호","indutype":"회원제형태 - 레져업소","category":"other"},{"name":"씨유안산부곡타워점","tel":"031-406-0151","addr":"경기도 안산시 상록구 부곡동 538번지 부곡프라자 110동 111호","indutype":"유통업 영리 - 편 의 점","category":"other"},{"name":"프라자신발가방","tel":"031-438-6561","addr":"경기도 안산시 상록구 부곡동 538번지 부곡프라자 1층 104호","indutype":"신변잡화 - 신발","category":"other"}]},{"lat":"37.333224165","long":"126.86332454","imageIndex":17,"items":[{"name":"부곡D.C마트","tel":"031-417-1666","addr":"경기도 안산시 상록구 부곡동 662-6번지","indutype":"유통업 영리 - 기타유통업","category":"other"}]},{"lat":"37.3352271935","long":"126.8581301691","imageIndex":17,"items":[{"name":"부곡늘푸른약국","tel":"031-411-6325","addr":"경기도 안산시 상록구 부곡동 727-16번지","indutype":"도매 및 소매업 - 양약","category":"other"}]},{"lat":"37.3332518193","long":"126.8638548201","imageIndex":17,"items":[{"name":"부곡라성약국","tel":"031-8044-8180","addr":"경기도 안산시 상록구 부곡동 533번지","indutype":"도매 및 소매업 - 양약","category":"other"},{"name":"연세성모의원","tel":"031-502-7575","addr":"경기도 안산시 상록구 부곡동 533번지","indutype":"보건업 및 사회복지서비스업 - 가정의","category":"other"},{"name":"제이와이 댄스에어로빅","tel":"031-409-1554","addr":"경기도 안산시 상록구 부곡동 533번지","indutype":"예술, 스포츠 및 여가관련 서비스업","category":"other"},{"name":"제이와이(JY)댄스에어로빅","tel":"031-409-1554","addr":"경기도 안산시 상록구 부곡동 533번지","indutype":"예술, 스포츠 및 여가관련 서비스업","category":"other"}]},{"lat":"37.3331979174","long":"126.8639903243","imageIndex":17,"items":[{"name":"부곡불가마사우나","tel":"031-409-5551","addr":"경기도 안산시 상록구 부곡동 533-1번지","indutype":"협회 및 단체, 수리 및 기타 개인서","category":"other"}]},{"lat":"37.33297269","long":"126.86401331","imageIndex":17,"items":[{"name":"부곡상회(BYC)","tel":"031-417-9236","addr":"경기도 안산시 상록구 부곡동 533-9번지","indutype":"의류 - 내의판매","category":"other"}]},{"lat":"37.332394763","long":"126.86293114","imageIndex":17,"items":[{"name":"부곡스튜디오","tel":"031-411-5206","addr":"경기도 안산시 상록구 부곡동 666-4번지 부곡웨스턴빌딩 1층 103호","indutype":"광학제품 - 사진관","category":"other"},{"name":"슈올즈 부곡점","tel":"051-531-7257","addr":"경기도 안산시 상록구 부곡동 666-4번지 1층","indutype":"신변잡화 - 신발","category":"other"}]},{"lat":"37.3323947631","long":"126.8629311426","imageIndex":17,"items":[{"name":"부곡스튜디오","tel":"031-417-7388","addr":"경기도 안산시 상록구 부곡동 666-4번지","indutype":"협회 및 단체, 수리 및 기타 개인서","category":"other"},{"name":"행복당구클럽","tel":"031-502-6711","addr":"경기도 안산시 상록구 부곡동 666-4번지","indutype":"협회 및 단체, 수리 및 기타 개인서","category":"other"}]},{"lat":"37.327779531","long":"126.86123598","imageIndex":17,"items":[{"name":"부곡유통","tel":"031-111-1111","addr":"경기도 안산시 상록구 부곡동 620-4번지 동현쎈스빌2차 201호","indutype":"의류 - 정장","category":"other"}]},{"lat":"37.3322545691","long":"126.8663277663","imageIndex":17,"items":[{"name":"부여버섯","tel":"","addr":"경기도 안산시 상록구 부곡동 536-2번지","indutype":"도매 및 소매업 - 버섯","category":"other"}]},{"lat":"37.325362972","long":"126.85971737","imageIndex":17,"items":[{"name":"브로스라이크 (BrosLike)","tel":"031-000-0000","addr":"경기도 안산시 상록구 부곡동 612-10번지 301호","indutype":"용역 서비스 - 종합용역","category":"other"},{"name":"서광인테리어","tel":"031-406-0291","addr":"경기도 안산시 상록구 부곡동 612-10번지 101호","indutype":"건축자재 - 인테리어전문","category":"other"},{"name":"프리모 학생복","tel":"031-416-4234","addr":"경기도 안산시 상록구 부곡동 612-10번지 103호","indutype":"의류 - 맞춤복점","category":"other"}]},{"lat":"37.334111559","long":"126.86710299","imageIndex":17,"items":[{"name":"비비드아쿠아","tel":"031-504-2005","addr":"경기도 안산시 상록구 부곡동 632-20번지 엘리시움 402호","indutype":"문화.취미 - 수족관","category":"other"}]},{"lat":"37.333703266","long":"126.86465514","imageIndex":17,"items":[{"name":"빅쳇","tel":"000-000-0000","addr":"경기도 안산시 상록구 부곡동 642-11번지 303호","indutype":"전기제품 - 기타전기제품","category":"other"}]},{"lat":"37.328869802","long":"126.86126778","imageIndex":17,"items":[{"name":"뿌리","tel":"031-419-5226","addr":"경기도 안산시 상록구 부곡동 622-15번지 1층","indutype":"신변잡화 - 신발","category":"other"},{"name":"열린ENG","tel":"031-000-0000","addr":"경기도 안산시 상록구 부곡동 622-15번지 302호","indutype":"건축자재 - 인테리어전문","category":"other"},{"name":"팝콘(popcorn)","tel":"","addr":"경기도 안산시 상록구 부곡동 622-15번지 101호","indutype":"의류 - 정장","category":"other"}]},{"lat":"37.332754354","long":"126.86224217","imageIndex":17,"items":[{"name":"쁘띠꼬까.심심이네 (simsimnaposs house)","tel":"070-4645-1184","addr":"경기도 안산시 상록구 부곡동 667-3번지 해성빌라4차 102호","indutype":"의류 - 아동의류","category":"other"}]},{"lat":"37.325171934","long":"126.85821715","imageIndex":17,"items":[{"name":"사계절에어컨","tel":"","addr":"경기도 안산시 상록구 부곡동 687-11번지 302호","indutype":"용역 서비스 - 기타용역서비스","category":"other"},{"name":"솔이네특종","tel":"031-415-5519","addr":"경기도 안산시 상록구 부곡동 687-11번지 금강홈타운 102호","indutype":"수리서비스 - 기타수리서비스","category":"other"}]},{"lat":"37.334613853","long":"126.857601","imageIndex":17,"items":[{"name":"사랑지물인테리어","tel":"031-411-0555","addr":"경기도 안산시 상록구 부곡동 733번지","indutype":"직물 - 카페트,커튼,천막,지물","category":"other"}]},{"lat":"37.325477962","long":"126.85795707","imageIndex":17,"items":[{"name":"사무기마트","tel":"031-501-2748","addr":"경기도 안산시 상록구 부곡동 688-3번지","indutype":"사무통신 - 사무용 OA기기","category":"other"}]},{"lat":"37.3302313064","long":"126.8620776251","imageIndex":17,"items":[{"name":"삼성골프스포츠","tel":"031-502-9787","addr":"경기도 안산시 상록구 부곡동 624번지","indutype":"도매 및 소매업 - 스포츠용품","category":"other"}]},{"lat":"37.330231306","long":"126.86207763","imageIndex":17,"items":[{"name":"삼성스포츠","tel":"031-502-9787","addr":"경기도 안산시 상록구 부곡동 624번지 전체 1층","indutype":"레져용품 - 스포츠·레져용품","category":"other"}]},{"lat":"37.323840239","long":"126.85970898","imageIndex":17,"items":[{"name":"삼성시스템에어컨","tel":"031-415-1581","addr":"경기도 안산시 상록구 부곡동 605-11번지 101호","indutype":"전기제품 - 냉열기기","category":"other"}]},{"lat":"37.334778649","long":"126.85974464","imageIndex":17,"items":[{"name":"삼성에어컨","tel":"031-403-1786","addr":"경기도 안산시 상록구 부곡동 726-13번지","indutype":"회원제형태 - 기타4","category":"other"}]},{"lat":"37.328473381","long":"126.86129109","imageIndex":17,"items":[{"name":"삼성열기","tel":"070-4733-6644","addr":"경기도 안산시 상록구 부곡동 622-5번지 302호","indutype":"수리서비스 - 기타수리서비스","category":"other"},{"name":"한국냉열기","tel":"","addr":"경기도 안산시 상록구 부곡동 622-5번지 302호","indutype":"수리서비스 - 가정용품수리","category":"other"}]},{"lat":"37.330508718","long":"126.86818139","imageIndex":17,"items":[{"name":"삼신유통","tel":"031-407-4114","addr":"경기도 안산시 상록구 부곡동 553-1번지","indutype":"유통업 영리 - 기타유통업","category":"other"}]},{"lat":"37.336947691","long":"126.85776577","imageIndex":17,"items":[{"name":"삼일공사","tel":"031-401-3104","addr":"경기도 안산시 상록구 부곡동 714-2번지 102호","indutype":"용역 서비스 - 기타용역서비스","category":"other"}]},{"lat":"37.326309613","long":"126.86018945","imageIndex":17,"items":[{"name":"삼주실업","tel":"031-407-0930","addr":"경기도 안산시 상록구 부곡동 613-4번지","indutype":"신변잡화 - 기타잡화","category":"other"}]},{"lat":"37.330895896","long":"126.86027104","imageIndex":17,"items":[{"name":"삼천리가스프라자","tel":"031-417-3002","addr":"경기도 안산시 상록구 부곡동 678번지 102호","indutype":"건축자재 - 보일러·펌프·샷시","category":"other"},{"name":"씨유안산부곡대로점","tel":"031-898-6569","addr":"경기도 안산시 상록구 부곡동 678번지 102(102호~103호)","indutype":"유통업 영리 - 편 의 점","category":"other"},{"name":"피오레","tel":"031-502-7502","addr":"경기도 안산시 상록구 부곡동 678번지","indutype":"건축자재 - 인테리어전문","category":"other"}]},{"lat":"37.328281597","long":"126.85915897","imageIndex":17,"items":[{"name":"삼화상사","tel":"031-417-2866","addr":"경기도 안산시 상록구 부곡동 681-2번지","indutype":"건축자재 - 목재·석재·철물","category":"other"}]},{"lat":"37.3317009539","long":"126.8629098625","imageIndex":17,"items":[{"name":"삼화페인트(버들상사)","tel":"031-417-0063","addr":"경기도 안산시 상록구 부곡동 628-12번지","indutype":"도매 및 소매업 - 페인트","category":"other"}]},{"lat":"37.328335452","long":"126.85898962","imageIndex":17,"items":[{"name":"상도프라스틱산업(주)","tel":"031-417-2866","addr":"경기도 안산시 상록구 부곡동 681-13","indutype":"건축자재 - 기타건축자재","category":"other"}]},{"lat":"37.327616481","long":"126.86051418","imageIndex":17,"items":[{"name":"상록멀티짐","tel":"031-403-0059","addr":"경기도 안산시 상록구 부곡동 619번지 102호","indutype":"기타 - 기타 전문점","category":"other"},{"name":"티톡","tel":"031-410-7611","addr":"경기도 안산시 상록구 부곡동 619번지 103호","indutype":"사무통신 - 통신기기","category":"other"}]},{"lat":"37.327506242","long":"126.85876554","imageIndex":17,"items":[{"name":"생각창고","tel":"","addr":"경기도 안산시 상록구 부곡동 681-7번지","indutype":"서적문구 - 기타서적문구","category":"other"}]},{"lat":"37.327534928","long":"126.86013072","imageIndex":17,"items":[{"name":"샤론의꽃","tel":"031-417-2931","addr":"경기도 안산시 상록구 부곡동 684-2번지 101호","indutype":"문화.취미 - 화원","category":"other"}]},{"lat":"37.334226762","long":"126.85788384","imageIndex":17,"items":[{"name":"샬롬크린","tel":"031-458-2659","addr":"경기도 안산시 상록구 부곡동 733-4번지 행복마을 301호","indutype":"용역 서비스 - 종합용역","category":"other"}]},{"lat":"37.327975045","long":"126.8589903","imageIndex":17,"items":[{"name":"서남지사","tel":"031-414-6633","addr":"경기도 안산시 상록구 부곡동 681-4번지","indutype":"서적문구 - 일반서적","category":"other"}]},{"lat":"37.3325011005","long":"126.8614302216","imageIndex":17,"items":[{"name":"서신유통","tel":"031-418-5467","addr":"경기도 안산시 상록구 부곡동 667-11번지","indutype":"도매 및 소매업 - 농수산물","category":"other"}]},{"lat":"37.334396956","long":"126.86457488","imageIndex":17,"items":[{"name":"서울구제","tel":"","addr":"경기도 안산시 상록구 부곡동 644-8번지 1층 101호","indutype":"의류 - 기타의류","category":"other"},{"name":"수입상가","tel":"","addr":"경기도 안산시 상록구 부곡동 644-8번지","indutype":"신변잡화 - 기타잡화","category":"other"}]},{"lat":"37.3287526021","long":"126.8612115877","imageIndex":17,"items":[{"name":"선경문구","tel":"031-437-0553","addr":"경기도 안산시 상록구 부곡동 622-14번지","indutype":"도매 및 소매업 - 문구,완구,팬시,","category":"other"},{"name":"써니도그","tel":"070-8650-5500","addr":"경기도 안산시 상록구 부곡동 622-14번지","indutype":"협회 및 단체, 수리 및 기타 개인서","category":"other"}]},{"lat":"37.328752602","long":"126.86121159","imageIndex":17,"items":[{"name":"선경문구","tel":"031-437-0553","addr":"경기도 안산시 상록구 부곡동 622-14번지","indutype":"서적문구 - 문구용품","category":"other"},{"name":"써니도그","tel":"031-1111-111","addr":"경기도 안산시 상록구 부곡동 622-14번지 1층 101호","indutype":"문화.취미 - 애완동물","category":"other"}]},{"lat":"37.326995754","long":"126.86132771","imageIndex":17,"items":[{"name":"선디자인","tel":"031-416-5673","addr":"경기도 안산시 상록구 부곡동 617-4번지 다솜빌 A동 302호","indutype":"회원제형태 - 사무서비스","category":"other"},{"name":"세진냉난방전문점","tel":"031-000-0000","addr":"경기도 안산시 상록구 부곡동 617-4번지 다솜빌 A동 401호","indutype":"용역 서비스 - 기타용역서비스","category":"other"}]},{"lat":"37.331865706","long":"126.86509856","imageIndex":17,"items":[{"name":"선영테크","tel":"031-502-0496","addr":"경기도 안산시 상록구 부곡동 541-2번지 지층","indutype":"건축자재 - 기타건축자재","category":"other"}]},{"lat":"37.338641272","long":"126.87298538","imageIndex":17,"items":[{"name":"성원엔지니어링","tel":"031-480-9120","addr":"경기도 안산시 상록구 부곡동 261-4번지","indutype":"기타 - 기타 전문점","category":"other"}]},{"lat":"37.331864122","long":"126.86374454","imageIndex":17,"items":[{"name":"성현건설","tel":"031-406-2503","addr":"경기도 안산시 상록구 부곡동 539-7번지 삼성파크빌 401호","indutype":"건축자재 - 기타건축자재","category":"other"}]},{"lat":"37.327030494","long":"126.8602445","imageIndex":17,"items":[{"name":"세븐일레븐부곡신라점","tel":"02-3284-8168","addr":"경기도 안산시 상록구 부곡동 619-6번지 1층","indutype":"유통업 영리 - 편 의 점","category":"other"}]},{"lat":"37.33622586","long":"126.86443612","imageIndex":17,"items":[{"name":"세븐일레븐안산성호로점","tel":"031-1577-0711","addr":"경기도 안산시 상록구 부곡동 654-7번지 1층 101호","indutype":"유통업 영리 - 편 의 점","category":"other"}]},{"lat":"37.332064481","long":"126.86557211","imageIndex":17,"items":[{"name":"세븐일레븐안산정재로점","tel":"031-1577-0711","addr":"경기도 안산시 상록구 부곡동 542-4번지 1층","indutype":"유통업 영리 - 편 의 점","category":"other"}]},{"lat":"37.327759404","long":"126.85948716","imageIndex":17,"items":[{"name":"세원방수","tel":"070-8173-6542","addr":"경기도 안산시 상록구 부곡동 683-7번지","indutype":"수리서비스 - 기타수리서비스","category":"other"}]},{"lat":"37.341723578","long":"126.86573509","imageIndex":17,"items":[{"name":"세원정밀제작소","tel":"031-484-8095","addr":"경기도 안산시 상록구 부곡동 75-38번지","indutype":"기타 - 기계공구","category":"other"}]},{"lat":"37.3308353094","long":"126.8623472991","imageIndex":17,"items":[{"name":"세일공사","tel":"031-417-3104","addr":"경기도 안산시 상록구 부곡동 627-11번지","indutype":"제조업 - 창호제작","category":"other"}]},{"lat":"37.331812967","long":"126.8662383","imageIndex":17,"items":[{"name":"세자매(SEJAME)","tel":"031-401-5566","addr":"경기도 안산시 상록구 부곡동 543-3번지 북경아트빌 506호","indutype":"의류 - 정장","category":"other"}]},{"lat":"37.325787918","long":"126.86093509","imageIndex":17,"items":[{"name":"소상공번영회","tel":"","addr":"경기도 안산시 상록구 부곡동 611-3번지 명인파크빌 201호","indutype":"용역 서비스 - 종합용역","category":"other"}]},{"lat":"37.331335936","long":"126.86667922","imageIndex":17,"items":[{"name":"소소디자인","tel":"02-1234-1234","addr":"경기도 안산시 상록구 부곡동 545-7번지 1층","indutype":"용역 서비스 - 종합용역","category":"other"}]},{"lat":"37.334697885","long":"126.86001561","imageIndex":17,"items":[{"name":"수리홈케어","tel":"","addr":"경기도 안산시 상록구 부곡동 726-15번지 지층 103호","indutype":"용역 서비스 - 기타용역서비스","category":"other"}]},{"lat":"37.345418911","long":"126.86674407","imageIndex":17,"items":[{"name":"수성산업(캐터소형장비)","tel":"031-403-9749","addr":"경기도 안산시 상록구 부곡동 45번지","indutype":"수리서비스 - 기타수리서비스","category":"other"}]},{"lat":"37.322171256","long":"126.85798598","imageIndex":17,"items":[{"name":"수영공조시스템","tel":"031-416-2233","addr":"경기도 안산시 상록구 부곡동 696-1번지 로얄주택 상가 104호","indutype":"용역 서비스 - 기타용역서비스","category":"other"}]},{"lat":"37.3343702319","long":"126.8573193716","imageIndex":17,"items":[{"name":"순헤어, 화장품 잡화","tel":"031-481-8926","addr":"경기도 안산시 상록구 부곡동 733-11번지","indutype":"도매 및 소매업 - 화장품","category":"other"},{"name":"착하면돼지","tel":"031-410-4343","addr":"경기도 안산시 상록구 부곡동 733-11번지","indutype":"도매 및 소매업 - 육류","category":"other"}]},{"lat":"37.325370157","long":"126.85821677","imageIndex":17,"items":[{"name":"스팀앤트","tel":"","addr":"경기도 안산시 상록구 부곡동 687번지 1층 계단 코너쪽","indutype":"수리서비스 - 레져용품수리","category":"other"}]},{"lat":"37.3350923722","long":"126.8584012444","imageIndex":17,"items":[{"name":"슬로미헤어샵","tel":"031-482-2575","addr":"경기도 안산시 상록구 부곡동 727-14번지","indutype":"협회 및 단체, 수리 및 기타 개인서","category":"other"},{"name":"조은옷방","tel":"031-487-5205","addr":"경기도 안산시 상록구 부곡동 727-14번지","indutype":"도매 및 소매업 - 의류","category":"other"}]},{"lat":"37.331755268","long":"126.86312415","imageIndex":17,"items":[{"name":"시원나라","tel":"070-8940-6286","addr":"경기도 안산시 상록구 부곡동 628-2번지 B02호","indutype":"용역 서비스 - 기타용역서비스","category":"other"}]},{"lat":"37.333477259","long":"126.86401238","imageIndex":17,"items":[{"name":"시후모바일","tel":"031-416-6330","addr":"경기도 안산시 상록구 부곡동 643-8번지 1층 102,103호","indutype":"사무통신 - 통신기기","category":"other"},{"name":"주식회사케이원텔레콤","tel":"031-416-6330","addr":"경기도 안산시 상록구 부곡동 643-8번지","indutype":"사무통신 - 통신기기","category":"other"}]},{"lat":"37.3334772589","long":"126.8640123776","imageIndex":17,"items":[{"name":"시후모바일","tel":"031-416-6330","addr":"경기도 안산시 상록구 부곡동 643-8번지","indutype":"도매 및 소매업 - 휴대폰수리","category":"other"}]},{"lat":"37.332613695","long":"126.85768384","imageIndex":17,"items":[{"name":"신광콘크리트","tel":"031-484-8882","addr":"경기도 안산시 상록구 부곡동 737-8번지","indutype":"건축자재 - 기타건축자재","category":"other"}]},{"lat":"37.324505924","long":"126.85882768","imageIndex":17,"items":[{"name":"신발의제왕","tel":"","addr":"경기도 안산시 상록구 부곡동 691-4번지 101호","indutype":"신변잡화 - 신발","category":"other"}]},{"lat":"37.325342643","long":"126.85782194","imageIndex":17,"items":[{"name":"신성슁글기와","tel":"031-409-2277","addr":"경기도 안산시 상록구 부곡동 688-7번지 1층","indutype":"건축자재 - 기타건축자재","category":"other"},{"name":"한일종합주방","tel":"031-416-2575","addr":"경기도 안산시 상록구 부곡동 688-7번지 1층 102호","indutype":"주방용구 - 주방용구","category":"other"}]},{"lat":"37.333029994","long":"126.85918377","imageIndex":17,"items":[{"name":"신성테크","tel":"031-484-8771","addr":"경기도 안산시 상록구 부곡동 735-7번지 1층 103호~104호","indutype":"건축자재 - 기타건축자재","category":"other"}]},{"lat":"37.341535966","long":"126.86712348","imageIndex":17,"items":[{"name":"신한종합상사","tel":"031-484-0292","addr":"경기도 안산시 상록구 부곡동 75-40번지","indutype":"직물 - 카페트,커튼,천막,지물","category":"other"}]},{"lat":"37.334147884","long":"126.86735117","imageIndex":17,"items":[{"name":"신현대물류","tel":"031-402-5815","addr":"경기도 안산시 상록구 부곡동 632-2번지 레이크빌 501호","indutype":"신변잡화 - 기타잡화","category":"other"}]},{"lat":"37.3249214601","long":"126.8597069248","imageIndex":17,"items":[{"name":"신화태권도","tel":"031-416-5123","addr":"경기도 안산시 상록구 부곡동 606번지","indutype":"협회 및 단체, 수리 및 기타 개인서","category":"other"},{"name":"정성약국","tel":"031-416-6272","addr":"경기도 안산시 상록구 부곡동 606번지","indutype":"도매 및 소매업 - 양약 의약품 의료","category":"other"},{"name":"차은아피부관리실","tel":"031-503-8487","addr":"경기도 안산시 상록구 부곡동 606번지","indutype":"협회 및 단체, 수리 및 기타 개인서","category":"other"}]},{"lat":"37.322731591","long":"126.8593839","imageIndex":17,"items":[{"name":"씨엔제이세탁","tel":"","addr":"경기도 안산시 상록구 부곡동 695-11번지 1층 103,104호","indutype":"수리서비스 - 세탁소","category":"other"},{"name":"씨엔제이세탁","tel":"031-409-3650","addr":"경기도 안산시 상록구 부곡동 695-11번지 1층 103,104호","indutype":"수리서비스 - 세탁소","category":"other"}]},{"lat":"37.3325598","long":"126.85781935","imageIndex":17,"items":[{"name":"씨유안산부곡고점","tel":"031-402-6802","addr":"경기도 안산시 상록구 부곡동 737-7번지 조은빌라 102호","indutype":"유통업 영리 - 편 의 점","category":"other"}]},{"lat":"37.335560804","long":"126.85832136","imageIndex":17,"items":[{"name":"씨유안산부곡본점","tel":"031-410-5681","addr":"경기도 안산시 상록구 부곡동 727번지 101호","indutype":"유통업 영리 - 편 의 점","category":"other"}]},{"lat":"37.332282651","long":"126.86724169","imageIndex":17,"items":[{"name":"씨유안산부곡사랑점","tel":"080-080-3663","addr":"경기도 안산시 상록구 부곡동 546-4번지 101호","indutype":"유통업 영리 - 편 의 점","category":"other"}]},{"lat":"37.325173745","long":"126.85970645","imageIndex":17,"items":[{"name":"씨유안산부곡제일점","tel":"031-502-9897","addr":"경기도 안산시 상록구 부곡동 612-9번지 1층","indutype":"유통업 영리 - 편 의 점","category":"other"}]},{"lat":"37.323399218","long":"126.86010469","imageIndex":17,"items":[{"name":"씨유안산부곡중앙점","tel":"080-080-3663","addr":"경기도 안산시 상록구 부곡동 602-11번지 1층","indutype":"유통업 영리 - 편 의 점","category":"other"}]},{"lat":"37.328978018","long":"126.86134656","imageIndex":17,"items":[{"name":"씨유안산부곡타운점","tel":"031-437-9531","addr":"경기도 안산시 상록구 부곡동 622번지 1층","indutype":"유통업 영리 - 편 의 점","category":"other"}]},{"lat":"37.334531752","long":"126.86426997","imageIndex":17,"items":[{"name":"씨유안산아리랑점","tel":"080-080-3663","addr":"경기도 안산시 상록구 부곡동 657-10번지 1층 1호","indutype":"유통업 영리 - 편 의 점","category":"other"}]},{"lat":"37.33206116","long":"126.86273994","imageIndex":17,"items":[{"name":"씨이오정보통신(주)","tel":"051-517-1500","addr":"경기도 안산시 상록구 부곡동 666-7번지 3층","indutype":"사무통신 - 통신기기","category":"other"}]},{"lat":"37.327174752","long":"126.86032321","imageIndex":17,"items":[{"name":"씨컴","tel":"031-388-6824","addr":"경기도 안산시 상록구 부곡동 619-7번지","indutype":"용역 서비스 - 기타용역서비스","category":"other"}]},{"lat":"37.334144714","long":"126.85710541","imageIndex":17,"items":[{"name":"아이(i)-시원해에어컨","tel":"","addr":"경기도 안산시 상록구 부곡동 734번지 시낭원룸 204호","indutype":"용역 서비스 - 기타용역서비스","category":"other"}]},{"lat":"37.3370011","long":"126.8572353","imageIndex":17,"items":[{"name":"아이지에이마트 안산부곡점","tel":"031-768-0708","addr":"경기도 안산시 상록구 부곡동 713-6번지","indutype":"유통업 영리 - 편 의 점","category":"other"}]},{"lat":"37.333195422","long":"126.86188027","imageIndex":17,"items":[{"name":"아쿠아비","tel":"070-8802-6012","addr":"경기도 안산시 상록구 부곡동 664-9번지","indutype":"문화.취미 - 수족관","category":"other"}]},{"lat":"37.335040243","long":"126.85999239","imageIndex":17,"items":[{"name":"아쿠아월드","tel":"031-403-4415","addr":"경기도 안산시 상록구 부곡동 725-13번지 재민하이츠빌라 B동 401호","indutype":"회원제형태 - 기타4","category":"other"}]},{"lat":"37.333001276","long":"126.86534473","imageIndex":17,"items":[{"name":"아트글라스","tel":"031-401-8116","addr":"경기도 안산시 상록구 부곡동 534-1번지","indutype":"건축자재 - 유리","category":"other"}]},{"lat":"37.335226956","long":"126.86548737","imageIndex":17,"items":[{"name":"안산LG공조","tel":"031-402-1052","addr":"경기도 안산시 상록구 부곡동 647-14번지 305호","indutype":"수리서비스 - 기타수리서비스","category":"other"}]},{"lat":"37.332585293","long":"126.86404787","imageIndex":17,"items":[{"name":"안산농협부곡지점","tel":"031-416-6300","addr":"경기도 안산시 상록구 부곡동 539번지 청해빌딩 102호","indutype":"유통업 비영리 - 농,축협 직영매장","category":"other"},{"name":"주식회사태랑","tel":"031-501-5470","addr":"경기도 안산시 상록구 부곡동 539번지 부곡쇼핑 202호","indutype":"용역 서비스 - 종합용역","category":"other"}]},{"lat":"37.339116754","long":"126.86326849","imageIndex":17,"items":[{"name":"안산별빛마을","tel":"031-484-5050","addr":"경기도 안산시 상록구 부곡동 214-9번지 215-2,216-3,216-8","indutype":"문화.취미 - 티켓","category":"other"}]},{"lat":"37.341444041","long":"126.86554375","imageIndex":17,"items":[{"name":"안산샤링","tel":"031-487-1416","addr":"경기도 안산시 상록구 부곡동 75-23번지","indutype":"건축자재 - 기타건축자재","category":"other"}]},{"lat":"37.3367231827","long":"126.8583755523","imageIndex":17,"items":[{"name":"안산제일복지재단 빛과둥지","tel":"031-405-0957","addr":"경기도 안산시 상록구 부곡동 714-11번지","indutype":"제조업 - 세척제","category":"other"}]},{"lat":"37.330589877","long":"126.86054242","imageIndex":17,"items":[{"name":"안산콜밴","tel":"031-416-6056","addr":"경기도 안산시 상록구 부곡동 673-19번지","indutype":"여행 - 기타교통수단","category":"other"}]},{"lat":"37.3360641912","long":"126.8648764964","imageIndex":17,"items":[{"name":"애니카랜드 부곡점","tel":"031-413-4086","addr":"경기도 안산시 상록구 부곡동 649-11번지","indutype":"협회 및 단체, 수리 및 기타 개인서","category":"other"}]},{"lat":"37.324308768","long":"126.85970809","imageIndex":17,"items":[{"name":"애목원","tel":"031-501-4049","addr":"경기도 안산시 상록구 부곡동 606-9번지","indutype":"문화.취미 - 화원","category":"other"}]},{"lat":"37.3243087683","long":"126.8597080873","imageIndex":17,"items":[{"name":"애목원","tel":"031-501-4049","addr":"경기도 안산시 상록구 부곡동 606-9번지","indutype":"도매 및 소매업 - 생화","category":"other"},{"name":"헤어일번가","tel":"031-416-1151","addr":"경기도 안산시 상록구 부곡동 606-9번지","indutype":"협회 및 단체, 수리 및 기타 개인서","category":"other"}]},{"lat":"37.338535213","long":"126.85918457","imageIndex":17,"items":[{"name":"어리골화원","tel":"031-487-2340","addr":"경기도 안산시 상록구 부곡동 174-2번지","indutype":"문화.취미 - 화원","category":"other"}]},{"lat":"37.327668535","long":"126.85885549","imageIndex":17,"items":[{"name":"에너지세이버","tel":"070-8736-7119","addr":"경기도 안산시 상록구 부곡동 681-6번지 401호","indutype":"용역 서비스 - 기타용역서비스","category":"other"}]},{"lat":"37.334120154","long":"126.86674189","imageIndex":17,"items":[{"name":"에스앤피","tel":"031-504-2655","addr":"경기도 안산시 상록구 부곡동 638-4번지 202호","indutype":"용역 서비스 - 기타용역서비스","category":"other"}]},{"lat":"37.333227406","long":"126.86610033","imageIndex":17,"items":[{"name":"에스엔커뮤니케이션","tel":"031-415-8954","addr":"경기도 안산시 상록구 부곡동 640-5번지 성신아트빌 402호","indutype":"용역 서비스 - 사무서비스","category":"other"}]},{"lat":"37.322723917","long":"126.86048956","imageIndex":17,"items":[{"name":"에어컨 마스터","tel":"031-410-7712","addr":"경기도 안산시 상록구 부곡동 599번지","indutype":"용역 서비스 - 기타용역서비스","category":"other"}]},{"lat":"37.333173475","long":"126.86621327","imageIndex":17,"items":[{"name":"에어컨설치센터","tel":"","addr":"경기도 안산시 상록구 부곡동 640-6번지 201호","indutype":"용역 서비스 - 기타용역서비스","category":"other"}]},{"lat":"37.327309973","long":"126.86037936","imageIndex":17,"items":[{"name":"에이스컴","tel":"031-480-2382","addr":"경기도 안산시 상록구 부곡동 619-8번지 102호","indutype":"사무통신 - 컴퓨터","category":"other"}]},{"lat":"37.332559974","long":"126.86551479","imageIndex":17,"items":[{"name":"에이스포토기획","tel":"031-410-2660","addr":"경기도 안산시 상록구 부곡동 537-6번지 1층","indutype":"광학제품 - 사진관","category":"other"}]},{"lat":"37.332056437","long":"126.86640711","imageIndex":17,"items":[{"name":"엘림화학","tel":"031-416-1277","addr":"경기도 안산시 상록구 부곡동 536-8번지","indutype":"기타 - 기타 전문점","category":"other"}]},{"lat":"37.3339731485","long":"126.8642935612","imageIndex":17,"items":[{"name":"엘사론염색방","tel":"","addr":"경기도 안산시 상록구 부곡동 643-12번지","indutype":"협회 및 단체, 수리 및 기타 개인서","category":"other"}]},{"lat":"37.326146953","long":"126.85979486","imageIndex":17,"items":[{"name":"엠(M)이동통신","tel":"070-8637-7566","addr":"경기도 안산시 상록구 부곡동 613-8번지","indutype":"사무통신 - 통신기기","category":"other"}]},{"lat":"37.330060663","long":"126.86254056","imageIndex":17,"items":[{"name":"엠디모터스","tel":"031-635-5722","addr":"경기도 안산시 상록구 부곡동 625번지 1층 102호","indutype":"수리서비스 - 레져용품수리","category":"other"}]},{"lat":"37.331058812","long":"126.86088004","imageIndex":17,"items":[{"name":"엠케이(MK)냉열기","tel":"","addr":"경기도 안산시 상록구 부곡동 672-34번지 창원그린빌 11동 201호","indutype":"수리서비스 - 기타수리서비스","category":"other"}]},{"lat":"37.3278955656","long":"126.8603218439","imageIndex":17,"items":[{"name":"여기서헤어","tel":"031-501-1314","addr":"경기도 안산시 상록구 부곡동 682-8번지","indutype":"협회 및 단체, 수리 및 기타 개인서","category":"other"},{"name":"한빛재활용센터","tel":"031-407-8949","addr":"경기도 안산시 상록구 부곡동 682-8번지","indutype":"도매 및 소매업 - 중고가전재활용,중","category":"other"}]},{"lat":"37.3318641217","long":"126.8637445419","imageIndex":17,"items":[{"name":"여성의도시","tel":"031-408-9965","addr":"경기도 안산시 상록구 부곡동 539-7번지 삼성파크빌","indutype":"협회 및 단체, 수리 및 기타 개인서","category":"other"}]},{"lat":"37.324479962","long":"126.85970776","imageIndex":17,"items":[{"name":"영일","tel":"031-408-9508","addr":"경기도 안산시 상록구 부곡동 606-12번지","indutype":"의류 - 내의판매","category":"other"}]},{"lat":"37.3244799616","long":"126.8597077625","imageIndex":17,"items":[{"name":"영일 BYC","tel":"031-408-9508","addr":"경기도 안산시 상록구 부곡동 606-12번지","indutype":"도매 및 소매업 - 메리야스 임대","category":"other"}]},{"lat":"37.33466697","long":"126.86432614","imageIndex":17,"items":[{"name":"예담","tel":"031-8044-0635","addr":"경기도 안산시 상록구 부곡동 657-9번지 1층 103호","indutype":"회원제형태 - 기타4","category":"other"},{"name":"태양지물포","tel":"031-416-0808","addr":"경기도 안산시 상록구 부곡동 657-9번지","indutype":"직물 - 카페트,커튼,천막,지물","category":"other"}]},{"lat":"37.333729715","long":"126.8641586","imageIndex":17,"items":[{"name":"오렌지","tel":"031-410-5605","addr":"경기도 안산시 상록구 부곡동 643-10번지 102호","indutype":"의류 - 정장","category":"other"},{"name":"포인트","tel":"031-416-9569","addr":"경기도 안산시 상록구 부곡동 643-10번지","indutype":"의류 - 정장","category":"other"}]},{"lat":"37.3337297155","long":"126.8641586025","imageIndex":17,"items":[{"name":"오렌지","tel":"031-410-5605","addr":"경기도 안산시 상록구 부곡동 643-10번지","indutype":"도매 및 소매업 - 의류","category":"other"}]},{"lat":"37.3330356020","long":"126.8638777860","imageIndex":17,"items":[{"name":"오복떡 방앗간","tel":"031-418-7118","addr":"경기도 안산시 상록구 부곡동 533-10번지","indutype":"제조업 - 방앗간,농산물","category":"other"}]},{"lat":"37.334031062","long":"126.8676222","imageIndex":17,"items":[{"name":"오에이누리 (OANURI)","tel":"","addr":"경기도 안산시 상록구 부곡동 631-21번지 퀸즈트윈빌 202호","indutype":"사무통신 - 사무용 OA기기","category":"other"}]},{"lat":"37.3325852926","long":"126.8640478704","imageIndex":17,"items":[{"name":"오케이헤어샵","tel":"031-415-1357","addr":"경기도 안산시 상록구 부곡동 539번지","indutype":"협회 및 단체, 수리 및 기타 개인서","category":"other"},{"name":"축산물직판장","tel":"031-407-4985","addr":"경기도 안산시 상록구 부곡동 539번지","indutype":"도매 및 소매업 - 식육즉석판매제공업","category":"other"}]},{"lat":"37.3284797109","long":"126.8590683234","imageIndex":17,"items":[{"name":"오토클럽","tel":"031-416-4361","addr":"경기도 안산시 상록구 부곡동 681번지","indutype":"협회 및 단체, 수리 및 기타 개인서","category":"other"}]},{"lat":"37.3253629722","long":"126.8597173697","imageIndex":17,"items":[{"name":"옥스포드학생복","tel":"031-416-4234","addr":"경기도 안산시 상록구 부곡동 612-10번지","indutype":"도매 및 소매업 - 교복","category":"other"}]},{"lat":"37.324785706","long":"126.85921075","imageIndex":17,"items":[{"name":"올뎃모드","tel":"031-408-0654","addr":"경기도 안산시 상록구 부곡동 692-9번지 한양센스빌 201호","indutype":"의류 - 정장","category":"other"}]},{"lat":"37.333117117","long":"126.86423872","imageIndex":17,"items":[{"name":"요가 스튜디오 율","tel":"031-449-6886","addr":"경기도 안산시 상록구 부곡동 533-3 2층","indutype":"회원제형태 - 레져업소","category":"other"}]},{"lat":"37.3338904899","long":"126.8629622194","imageIndex":17,"items":[{"name":"용화건강원","tel":"","addr":"경기도 안산시 상록구 부곡동 660-9번지","indutype":"제조업 - 즉석판매제조가공업","category":"other"}]},{"lat":"37.333668298","long":"126.85802032","imageIndex":17,"items":[{"name":"우리자판기/삼원FA(일반)","tel":"031-410-2131","addr":"경기도 안산시 상록구 부곡동 734-7번지 104호","indutype":"기타 - 기타 전문점","category":"other"}]},{"lat":"37.326147157","long":"126.8599641","imageIndex":17,"items":[{"name":"우신창호","tel":"031-409-9118","addr":"경기도 안산시 상록구 부곡동 613-7번지 101호","indutype":"건축자재 - 보일러·펌프·샷시","category":"other"}]},{"lat":"37.332389462","long":"126.85851926","imageIndex":17,"items":[{"name":"우주요업","tel":"031-403-8181","addr":"경기도 안산시 상록구 부곡동 737-2번지","indutype":"건축자재 - 건축용 요업제품","category":"other"}]},{"lat":"37.341978306","long":"126.86018238","imageIndex":17,"items":[{"name":"우진하우징","tel":"02-866-0022","addr":"경기도 안산시 상록구 부곡동 109-2번지","indutype":"건축자재 - 기타건축자재","category":"other"}]},{"lat":"37.332254145","long":"126.85838411","imageIndex":17,"items":[{"name":"월드음향","tel":"031-410-1472","addr":"경기도 안산시 상록구 부곡동 737-3번지","indutype":"전기제품 - 기타전기제품","category":"other"},{"name":"토탈음향","tel":"","addr":"경기도 안산시 상록구 부곡동 737-3번지 1층 103호","indutype":"전기제품 - 가전제품","category":"other"}]},{"lat":"37.332203468","long":"126.86118254","imageIndex":17,"items":[{"name":"월드컵체육사","tel":"031-501-0894","addr":"경기도 안산시 상록구 부곡동 671번지","indutype":"레져용품 - 스포츠·레져용품","category":"other"}]},{"lat":"37.3353616619","long":"126.8651034629","imageIndex":17,"items":[{"name":"유정아 머리박사","tel":"031-501-7883","addr":"경기도 안산시 상록구 부곡동 647-17번지","indutype":"협회 및 단체, 수리 및 기타 개인서","category":"other"}]},{"lat":"37.3333686196","long":"126.8635725107","imageIndex":17,"items":[{"name":"유준헤어첸지","tel":"031-501-4213","addr":"경기도 안산시 상록구 부곡동 662-4번지","indutype":"협회 및 단체, 수리 및 기타 개인서","category":"other"}]},{"lat":"37.334837183","long":"126.86349081","imageIndex":17,"items":[{"name":"유진유통","tel":"070-8600-2335","addr":"경기도 안산시 상록구 부곡동 659-4번지 퀸즈트윈빌 B동 502호","indutype":"의류 - 정장","category":"other"}]},{"lat":"37.33389049","long":"126.86296222","imageIndex":17,"items":[{"name":"유진토탈인테리어","tel":"031-437-1056","addr":"경기도 안산시 상록구 부곡동 660-9번지","indutype":"건축자재 - 인테리어전문","category":"other"}]},{"lat":"37.3345055646","long":"126.8574658016","imageIndex":17,"items":[{"name":"윤헤어비스","tel":"031-484-4396","addr":"경기도 안산시 상록구 부곡동 733-12번지","indutype":"협회 및 단체, 수리 및 기타 개인서","category":"other"}]},{"lat":"37.3345317520","long":"126.8642699671","imageIndex":17,"items":[{"name":"은혜미용실","tel":"","addr":"경기도 안산시 상록구 부곡동 657-10번지","indutype":"협회 및 단체, 수리 및 기타 개인서","category":"other"}]},{"lat":"37.335085526","long":"126.86018413","imageIndex":17,"items":[{"name":"이레인테리어","tel":"070-8268-3918","addr":"경기도 안산시 상록구 부곡동 725-9번지","indutype":"건축자재 - 인테리어전문","category":"other"}]},{"lat":"37.334090373","long":"126.86437233","imageIndex":17,"items":[{"name":"이불나라","tel":"031-408-1440","addr":"경기도 안산시 상록구 부곡동 643-13번지","indutype":"직물 - 침구·수예점","category":"other"}]},{"lat":"37.321585594","long":"126.85798711","imageIndex":17,"items":[{"name":"이쁜여우","tel":"","addr":"경기도 안산시 상록구 부곡동 696-4번지 401호","indutype":"의류 - 정장","category":"other"}]},{"lat":"37.3321693488","long":"126.8627961577","imageIndex":17,"items":[{"name":"이즈컴","tel":"031-418-9140","addr":"경기도 안산시 상록구 부곡동 666-6번지","indutype":"도매 및 소매업 - 컴퓨터및주변기기,","category":"other"}]},{"lat":"37.332169349","long":"126.86279616","imageIndex":17,"items":[{"name":"이즈컴","tel":"031-418-9140","addr":"경기도 안산시 상록구 부곡동 666-6번지 1층","indutype":"사무통신 - 컴퓨터","category":"other"}]},{"lat":"37.329365698","long":"126.86154893","imageIndex":17,"items":[{"name":"이화수선","tel":"031-407-2412","addr":"경기도 안산시 상록구 부곡동 623-8번지","indutype":"수리서비스 - 세탁소","category":"other"},{"name":"이화크린텍","tel":"031-407-2434","addr":"경기도 안산시 상록구 부곡동 623-8번지 1층","indutype":"수리서비스 - 세탁소","category":"other"}]},{"lat":"37.341005862","long":"126.86843349","imageIndex":17,"items":[{"name":"인스타스포츠(Instearsports Company)","tel":"070-7720-4521","addr":"경기도 안산시 상록구 부곡동 69-8번지","indutype":"레져용품 - 스포츠·레져용품","category":"other"}]},{"lat":"37.333254231","long":"126.85834835","imageIndex":17,"items":[{"name":"인천미라클","tel":"02-2631-2461","addr":"경기도 안산시 상록구 부곡동 735-15번지 301호","indutype":"신변잡화 - 기타잡화","category":"other"}]},{"lat":"37.345503046","long":"126.86165412","imageIndex":17,"items":[{"name":"인트라디자인","tel":"031-401-5755","addr":"경기도 안산시 상록구 부곡동 11번지","indutype":"사무통신 - 컴퓨터","category":"other"},{"name":"주식회사태림중문","tel":"031-317-0049","addr":"경기도 안산시 상록구 부곡동 11번지 가동","indutype":"건축자재 - 기타건축자재","category":"other"}]},{"lat":"37.334670033","long":"126.86696658","imageIndex":17,"items":[{"name":"인트로덕션 미디어","tel":"031-408-9333","addr":"경기도 안산시 상록구 부곡동 637-8번지 J파크리움 1층","indutype":"용역 서비스 - 종합용역","category":"other"}]},{"lat":"37.32203682","long":"126.85857291","imageIndex":17,"items":[{"name":"일동포장기계","tel":"031-430-0297","addr":"경기도 안산시 상록구 부곡동 697-7번지","indutype":"기타 - 기타 전문점","category":"other"}]},{"lat":"37.341695997","long":"126.86526117","imageIndex":17,"items":[{"name":"자담","tel":"031-486-6588","addr":"경기도 안산시 상록구 부곡동 81-13번지 2층","indutype":"건축자재 - 기타건축자재","category":"other"}]},{"lat":"37.3322034681","long":"126.8611825406","imageIndex":17,"items":[{"name":"자매끼리초콜릿","tel":"","addr":"경기도 안산시 상록구 부곡동 671번지","indutype":"제조업 - 초콜릿","category":"other"}]},{"lat":"37.32745423","long":"126.86045807","imageIndex":17,"items":[{"name":"자연인테리어","tel":"031-437-9248","addr":"경기도 안산시 상록구 부곡동 619-9번지 1층 101호","indutype":"가구 - 기타가구","category":"other"}]},{"lat":"37.341422025","long":"126.86993365","imageIndex":17,"items":[{"name":"전통농업연구소","tel":"","addr":"경기도 안산시 상록구 부곡동 66-17번지","indutype":"농업 - 기타농업관련","category":"other"}]},{"lat":"37.3330895303","long":"126.8637648494","imageIndex":17,"items":[{"name":"정민약국","tel":"031-417-8160","addr":"경기도 안산시 상록구 부곡동 533-11번지","indutype":"도매 및 소매업 - 양약","category":"other"}]},{"lat":"37.338974809","long":"126.8731315","imageIndex":17,"items":[{"name":"정수샤링","tel":"031-483-6766","addr":"경기도 안산시 상록구 부곡동 261-18번지","indutype":"건축자재 - 기타건축자재","category":"other"}]},{"lat":"37.3345321744","long":"126.8646310524","imageIndex":17,"items":[{"name":"정쌤헤어","tel":"","addr":"경기도 안산시 상록구 부곡동 644-9번지","indutype":"협회 및 단체, 수리 및 기타 개인서","category":"other"}]},{"lat":"37.3358667073","long":"126.8579596799","imageIndex":17,"items":[{"name":"정원","tel":"","addr":"경기도 안산시 상록구 부곡동 715-6번지","indutype":"도매 및 소매업 - 의류","category":"other"}]},{"lat":"37.335866707","long":"126.85795968","imageIndex":17,"items":[{"name":"정원","tel":"","addr":"경기도 안산시 상록구 부곡동 715-6번지 102호","indutype":"의류 - 정장","category":"other"}]},{"lat":"37.333228492","long":"126.85940907","imageIndex":17,"items":[{"name":"제이에스종합건설 주식회사","tel":"02-2684-0472","addr":"경기도 안산시 상록구 부곡동 730-5번지 지층","indutype":"용역 서비스 - 기타용역서비스","category":"other"}]},{"lat":"37.333251819","long":"126.86385482","imageIndex":17,"items":[{"name":"제이와이(JY)댄스에어로빅","tel":"031-409-1554","addr":"경기도 안산시 상록구 부곡동 533번지 지층 상가","indutype":"회원제형태 - 레져업소","category":"other"}]},{"lat":"37.33033889","long":"126.86162609","imageIndex":17,"items":[{"name":"제이제이(JJ)스크린골프","tel":"","addr":"경기도 안산시 상록구 부곡동 673-7번지 301,401호","indutype":"레져용품 - 골프용품 전문점","category":"other"}]},{"lat":"37.3324247301","long":"126.8654360518","imageIndex":17,"items":[{"name":"제일애드","tel":"031-417-5756","addr":"경기도 안산시 상록구 부곡동 537-11번지","indutype":"제조업 - 광고간판","category":"other"}]},{"lat":"37.33242473","long":"126.86543605","imageIndex":17,"items":[{"name":"제일애드","tel":"031-417-5756","addr":"경기도 안산시 상록구 부곡동 537-11번지 101동 102호","indutype":"용역 서비스 - 종합용역","category":"other"}]},{"lat":"37.341250514","long":"126.86965182","imageIndex":17,"items":[{"name":"제주삼다수(안산단원)","tel":"031-431-0043","addr":"경기도 안산시 상록구 부곡동 66-4번지","indutype":"유통업 영리 - 기타유통업","category":"other"},{"name":"형우통상","tel":"031-356-6172","addr":"경기도 안산시 상록구 부곡동 66-4번지","indutype":"유통업 영리 - 기타유통업","category":"other"},{"name":"형우통상","tel":"031-222-2222","addr":"경기도 안산시 상록구 부곡동 66-4번지","indutype":"유통업 영리 - 기타유통업","category":"other"}]},{"lat":"37.335092372","long":"126.85840124","imageIndex":17,"items":[{"name":"조은옷방","tel":"031-487-5205","addr":"경기도 안산시 상록구 부곡동 727-14번지 102호","indutype":"의류 - 정장","category":"other"}]},{"lat":"37.3323079122","long":"126.8657070713","imageIndex":17,"items":[{"name":"조은이헤어라인","tel":"","addr":"경기도 안산시 상록구 부곡동 537-9번지","indutype":"협회 및 단체, 수리 및 기타 개인서","category":"other"}]},{"lat":"37.332918761","long":"126.86412624","imageIndex":17,"items":[{"name":"주부연출","tel":"031-416-7152","addr":"경기도 안산시 상록구 부곡동 533-8번지","indutype":"신변잡화 - 기타잡화","category":"other"}]},{"lat":"37.3329187612","long":"126.8641262426","imageIndex":17,"items":[{"name":"주부연출","tel":"031-416-7152","addr":"경기도 안산시 상록구 부곡동 533-8번지","indutype":"도매 및 소매업 - 커튼, 이불","category":"other"}]},{"lat":"37.332171828","long":"126.86490618","imageIndex":17,"items":[{"name":"주식화사 파스텔블루코리아","tel":"031-312-2246","addr":"경기도 안산시 상록구 부곡동 542-9번지 2층","indutype":"용역 서비스 - 종합용역","category":"other"}]},{"lat":"37.343420492","long":"126.86835018","imageIndex":17,"items":[{"name":"주식회사 에코랜드 (ECO LAND)","tel":"031-1600-6484","addr":"경기도 안산시 상록구 부곡동 65번지","indutype":"건축자재 - 기타건축자재","category":"other"}]},{"lat":"37.334370232","long":"126.85731937","imageIndex":17,"items":[{"name":"주식회사 포유컴퍼니","tel":"031-413-4130","addr":"경기도 안산시 상록구 부곡동 733-11번지 1층 104호","indutype":"주방용구 - 주방용구","category":"other"}]},{"lat":"37.335146152","long":"126.86573576","imageIndex":17,"items":[{"name":"주식회사나노시스템","tel":"031-406-9271","addr":"경기도 안산시 상록구 부곡동 647-12번지 101호","indutype":"사무통신 - 컴퓨터","category":"other"},{"name":"청룡상가","tel":"031-411-1782","addr":"경기도 안산시 상록구 부곡동 647-12번지 101호","indutype":"건축자재 - 기타건축자재","category":"other"}]},{"lat":"37.339307054","long":"126.87210403","imageIndex":17,"items":[{"name":"주식회사델코코/원격지","tel":"031-357-3474","addr":"경기도 안산시 상록구 부곡동 260-1번지","indutype":"기타 - 기타 전문점","category":"other"}]},{"lat":"37.333002178","long":"126.86612331","imageIndex":17,"items":[{"name":"주식회사민팩키지","tel":"02-2275-1042","addr":"경기도 안산시 상록구 부곡동 640-7번지","indutype":"기타 - 기타 전문점","category":"other"}]},{"lat":"37.339424992","long":"126.86488163","imageIndex":17,"items":[{"name":"주식회사부국스틸","tel":"031-409-5577","addr":"경기도 안산시 상록구 부곡동 220-3번지","indutype":"건축자재 - 기타건축자재","category":"other"}]},{"lat":"37.332784541","long":"126.85740142","imageIndex":17,"items":[{"name":"주식회사서울종합상사","tel":"031-402-7553","addr":"경기도 안산시 상록구 부곡동 737-10번지","indutype":"건축자재 - 목재·석재·철물","category":"other"}]},{"lat":"37.33222957","long":"126.86809934","imageIndex":17,"items":[{"name":"주식회사에이치앤디엔터테인먼트","tel":"070-7534-2299","addr":"경기도 안산시 상록구 부곡동 547-5번지 2층","indutype":"용역 서비스 - 종합용역","category":"other"}]},{"lat":"37.332335057","long":"126.85823727","imageIndex":17,"items":[{"name":"주식회사이화세라믹","tel":"031-403-8181","addr":"경기도 안산시 상록구 부곡동 737-4번지","indutype":"건축자재 - 기타건축자재","category":"other"}]},{"lat":"37.3273986","long":"126.85916065","imageIndex":17,"items":[{"name":"주연도어","tel":"","addr":"경기도 안산시 상록구 부곡동 684-9번지 제너빌 201호","indutype":"건축자재 - 인테리어전문","category":"other"}]},{"lat":"37.324309409","long":"126.86023836","imageIndex":17,"items":[{"name":"준트레이딩","tel":"031-501-2171","addr":"경기도 안산시 상록구 부곡동 606-6번지 쎈스빌 302호","indutype":"가구 - 일반가구","category":"other"}]},{"lat":"37.335729971","long":"126.86415492","imageIndex":17,"items":[{"name":"줄리건축","tel":"031-483-0402","addr":"경기도 안산시 상록구 부곡동 655-16번지 드림파크빌 202호","indutype":"용역 서비스 - 기타용역서비스","category":"other"}]},{"lat":"37.3331972936","long":"126.8634599896","imageIndex":17,"items":[{"name":"지리산약국","tel":"031-409-5596","addr":"경기도 안산시 상록구 부곡동 662-5번지","indutype":"도매 및 소매업 - 양약, 한약","category":"other"}]},{"lat":"37.338088836","long":"126.86262718","imageIndex":17,"items":[{"name":"지에스(GS)인터내셔널","tel":"","addr":"경기도 안산시 상록구 부곡동 215-1번지 외1필지","indutype":"신변잡화 - 액세서리","category":"other"}]},{"lat":"37.337063112","long":"126.85637758","imageIndex":17,"items":[{"name":"진광금속(주)","tel":"031-483-6597","addr":"경기도 안산시 상록구 부곡동 713-1번지","indutype":"기타 - 기타 전문점","category":"other"}]},{"lat":"37.335256146","long":"126.85970988","imageIndex":17,"items":[{"name":"진도건업","tel":"031-402-2350","addr":"경기도 안산시 상록구 부곡동 725-6번지","indutype":"용역 서비스 - 기타용역서비스","category":"other"}]},{"lat":"37.33159227","long":"126.86243616","imageIndex":17,"items":[{"name":"진보석","tel":"051-513-1141","addr":"경기도 안산시 상록구 부곡동 670-2번지","indutype":"신변잡화 - 시계","category":"other"}]},{"lat":"37.322199416","long":"126.85891106","imageIndex":17,"items":[{"name":"진흥콤프중부대리점","tel":"031-417-8244","addr":"경기도 안산시 상록구 부곡동 697-4번지 신지하우스 3층","indutype":"기타 - 기계공구","category":"other"}]},{"lat":"37.329418691","long":"126.86065746","imageIndex":17,"items":[{"name":"천지상사","tel":"031-484-7727","addr":"경기도 안산시 상록구 부곡동 675-3번지 신진쎈스빌 101호","indutype":"기타 - 기타 전문점","category":"other"}]},{"lat":"37.3388698196","long":"126.8760205384","imageIndex":17,"items":[{"name":"청곡농원","tel":"031-413-3133","addr":"경기도 안산시 상록구 부곡동 262-2번지","indutype":"농업, 임업 및 어업 - 작물재배","category":"other"}]},{"lat":"37.332397962","long":"126.85810175","imageIndex":17,"items":[{"name":"청진목재","tel":"031-483-8850","addr":"경기도 안산시 상록구 부곡동 737-5","indutype":"건축자재 - 목재·석재·철물","category":"other"}]},{"lat":"37.322532984","long":"126.85906837","imageIndex":17,"items":[{"name":"카프리","tel":"031-000-0000","addr":"경기도 안산시 상록구 부곡동 695-14번지","indutype":"용역 서비스 - 종합용역","category":"other"}]},{"lat":"37.3261469526","long":"126.8597948612","imageIndex":17,"items":[{"name":"커트보이","tel":"031-406-8400","addr":"경기도 안산시 상록구 부곡동 613-8번지","indutype":"협회 및 단체, 수리 및 기타 개인서","category":"other"}]},{"lat":"37.334923981","long":"126.86071479","imageIndex":17,"items":[{"name":"코드(CODE)/원격지","tel":"031-410-9984","addr":"경기도 안산시 상록구 부곡동 723-9번지","indutype":"기타 - 기타 전문점","category":"other"}]},{"lat":"37.336972731","long":"126.85615207","imageIndex":17,"items":[{"name":"큐브월드","tel":"070-1111-1111","addr":"경기도 안산시 상록구 부곡동 713-15번지 301호","indutype":"서적문구 - 완구점","category":"other"}]},{"lat":"37.3345856145","long":"126.8641006089","imageIndex":17,"items":[{"name":"크린위드","tel":"","addr":"경기도 안산시 상록구 부곡동 657-11번지","indutype":"협회 및 단체, 수리 및 기타 개인서","category":"other"}]},{"lat":"37.333007561","long":"126.86302028","imageIndex":17,"items":[{"name":"크린토피아 부곡점","tel":"031-405-0440","addr":"경기도 안산시 상록구 부곡동 665-2번지 101,102호","indutype":"수리서비스 - 세탁소","category":"other"}]},{"lat":"37.333922274","long":"126.85940775","imageIndex":17,"items":[{"name":"클로버 에어컨","tel":"","addr":"경기도 안산시 상록구 부곡동 731-4번지 지오트레벨 302호","indutype":"수리서비스 - 가정용품수리","category":"other"}]},{"lat":"37.333697348","long":"126.85967899","imageIndex":17,"items":[{"name":"키즈맘","tel":"031-942-2726","addr":"경기도 안산시 상록구 부곡동 730-21번지","indutype":"신변잡화 - 신발","category":"other"}]},{"lat":"37.336639803","long":"126.85651381","imageIndex":17,"items":[{"name":"태양문구점","tel":"031-405-7602","addr":"경기도 안산시 상록구 부곡동 717번지","indutype":"서적문구 - 문구용품","category":"other"}]},{"lat":"37.334752449","long":"126.86043301","imageIndex":17,"items":[{"name":"태웅시스템","tel":"","addr":"경기도 안산시 상록구 부곡동 726번지 4층 401호","indutype":"용역 서비스 - 기타용역서비스","category":"other"}]},{"lat":"37.3306982973","long":"126.8607904497","imageIndex":17,"items":[{"name":"태진카서비스","tel":"031-414-6792","addr":"경기도 안산시 상록구 부곡동 673-1번지","indutype":"협회 및 단체, 수리 및 기타 개인서","category":"other"}]},{"lat":"37.3331720615","long":"126.8649946245","imageIndex":17,"items":[{"name":"태후사랑","tel":"031-415-0066","addr":"경기도 안산시 상록구 부곡동 641-6번지","indutype":"도매 및 소매업 - 화장품용품","category":"other"}]},{"lat":"37.3318364264","long":"126.8631804161","imageIndex":17,"items":[{"name":"털보카마스터","tel":"031-418-6974","addr":"경기도 안산시 상록구 부곡동 628-1번지","indutype":"협회 및 단체, 수리 및 기타 개인서","category":"other"}]},{"lat":"37.336201542","long":"126.85915516","imageIndex":17,"items":[{"name":"토끼네정원","tel":"","addr":"경기도 안산시 상록구 부곡동 721-5번지 동화하이츠빌 401호","indutype":"문화.취미 - 화원","category":"other"}]},{"lat":"37.329922894","long":"126.86035186","imageIndex":17,"items":[{"name":"투핸테크(주)","tel":"070-8623-0481","addr":"경기도 안산시 상록구 부곡동 676-1번지 1층","indutype":"수리서비스 - 가정용품수리","category":"other"}]},{"lat":"37.3276164813","long":"126.8605141806","imageIndex":17,"items":[{"name":"티톡","tel":"031-410-7611","addr":"경기도 안산시 상록구 부곡동 619번지","indutype":"도매 및 소매업 - 휴대폰","category":"other"}]},{"lat":"37.334562829","long":"126.86776793","imageIndex":17,"items":[{"name":"티티샵","tel":"","addr":"경기도 안산시 상록구 부곡동 633-3번지 명진아트빌라 202호","indutype":"의류 - 아동의류","category":"other"}]},{"lat":"37.3328618438","long":"126.8617116375","imageIndex":17,"items":[{"name":"파마쟁이","tel":"","addr":"경기도 안산시 상록구 부곡동 667-14번지","indutype":"협회 및 단체, 수리 및 기타 개인서","category":"other"}]},{"lat":"37.334336261","long":"126.85901202","imageIndex":17,"items":[{"name":"풍림목재","tel":"031-413-1697","addr":"경기도 안산시 상록구 부곡동 729-17번지","indutype":"건축자재 - 기타건축자재","category":"other"}]},{"lat":"37.333585487","long":"126.86410245","imageIndex":17,"items":[{"name":"하나꽃집","tel":"031-416-2698","addr":"경기도 안산시 상록구 부곡동 643-9번지 1층","indutype":"문화.취미 - 화원","category":"other"}]},{"lat":"37.3335854867","long":"126.8641024488","imageIndex":17,"items":[{"name":"하나꽃집","tel":"031-416-2698","addr":"경기도 안산시 상록구 부곡동 643-9번지","indutype":"농업, 임업 및 어업 - 화훼.생화","category":"other"}]},{"lat":"37.341841196","long":"126.85856888","imageIndex":17,"items":[{"name":"하림ENG/원격지","tel":"070-4010-1806","addr":"경기도 안산시 상록구 부곡동 107-1번지 일부 1층","indutype":"기타 - 기타 전문점","category":"other"}]},{"lat":"37.341366511","long":"126.86092834","imageIndex":17,"items":[{"name":"하음리프트","tel":"070-4070-1077","addr":"경기도 안산시 상록구 부곡동 115-38번지","indutype":"기타 - 기계공구","category":"other"}]},{"lat":"37.336973861","long":"126.86457016","imageIndex":17,"items":[{"name":"하이파이브스포츠","tel":"031-000-0000","addr":"경기도 안산시 상록구 부곡동 652-12번지 202호","indutype":"레져용품 - 스포츠·레져용품","category":"other"}]},{"lat":"37.345617381","long":"126.86695814","imageIndex":17,"items":[{"name":"한국상사","tel":"031-483-6500","addr":"경기도 안산시 상록구 부곡동 3번지","indutype":"건축자재 - 기타건축자재","category":"other"}]},{"lat":"37.333667739","long":"126.86509527","imageIndex":17,"items":[{"name":"한눌아람","tel":"000-1688-5625","addr":"경기도 안산시 상록구 부곡동 641-11번지 1층","indutype":"회원제형태 - 기타4","category":"other"}]},{"lat":"37.33442534","long":"126.86573707","imageIndex":17,"items":[{"name":"한서형공연기획사","tel":"031-502-1580","addr":"경기도 안산시 상록구 부곡동 646-4번지 1층 102호","indutype":"문화.취미 - 티켓","category":"other"}]},{"lat":"37.330673915","long":"126.86301332","imageIndex":17,"items":[{"name":"한솔냉열기","tel":"070-8031-4038","addr":"경기도 안산시 상록구 부곡동 626-17번지 트라움하우스 301호","indutype":"수리서비스 - 가정용품수리","category":"other"}]},{"lat":"37.330670683","long":"126.86798929","imageIndex":17,"items":[{"name":"한솔누수탐지방수","tel":"031-409-1474","addr":"경기도 안산시 상록구 부곡동 551-5번지 현대맨션 201호","indutype":"건축자재 - 인테리어전문","category":"other"}]},{"lat":"37.3220302690","long":"126.8606036934","imageIndex":17,"items":[{"name":"한양열쇠","tel":"031-486-1565","addr":"경기도 안산시 상록구 부곡동 699-10번지","indutype":"도매 및 소매업 - 열쇠","category":"other"}]},{"lat":"37.341616421","long":"126.86657037","imageIndex":17,"items":[{"name":"한화하우징상재","tel":"031-311-2301","addr":"경기도 안산시 상록구 부곡동 75-6번지","indutype":"직물 - 카페트,커튼,천막,지물","category":"other"}]},{"lat":"37.3286444125","long":"126.8611553755","imageIndex":17,"items":[{"name":"해법영어교실","tel":"031-501-0519","addr":"경기도 안산시 상록구 부곡동 622-13번지","indutype":"교육서비스업 - 교습소","category":"other"}]},{"lat":"37.331700459","long":"126.86249237","imageIndex":17,"items":[{"name":"해피트리","tel":"031-417-9869","addr":"경기도 안산시 상록구 부곡동 670-1번지","indutype":"문화.취미 - 화원","category":"other"}]},{"lat":"37.33056189","long":"126.86740275","imageIndex":17,"items":[{"name":"행복 in","tel":"","addr":"경기도 안산시 상록구 부곡동 552-2번지 지하층 101호","indutype":"직물 - 카페트,커튼,천막,지물","category":"other"}]},{"lat":"37.3247859112","long":"126.8593799900","imageIndex":17,"items":[{"name":"행복한미용실","tel":"","addr":"경기도 안산시 상록구 부곡동 692-2번지","indutype":"협회 및 단체, 수리 및 기타 개인서","category":"other"},{"name":"현대세탁소","tel":"031-416-7989","addr":"경기도 안산시 상록구 부곡동 692-2번지","indutype":"협회 및 단체, 수리 및 기타 개인서","category":"other"}]},{"lat":"37.3322001431","long":"126.8660119242","imageIndex":17,"items":[{"name":"향기나세탁","tel":"031-406-0422","addr":"경기도 안산시 상록구 부곡동 536-10번지","indutype":"협회 및 단체, 수리 및 기타 개인서","category":"other"}]},{"lat":"37.332200143","long":"126.86601192","imageIndex":17,"items":[{"name":"향기나세탁","tel":"031-406-0422","addr":"경기도 안산시 상록구 부곡동 536-10번지 1층","indutype":"수리서비스 - 세탁소","category":"other"}]},{"lat":"37.3246147179","long":"126.8593803156","imageIndex":17,"items":[{"name":"헤어기분전환","tel":"031-417-9285","addr":"경기도 안산시 상록구 부곡동 692-3번지","indutype":"협회 및 단체, 수리 및 기타 개인서","category":"other"}]},{"lat":"37.3225326134","long":"126.8587637566","imageIndex":17,"items":[{"name":"헤어닥터","tel":"","addr":"경기도 안산시 상록구 부곡동 695-16번지","indutype":"협회 및 단체, 수리 및 기타 개인서","category":"other"}]},{"lat":"37.3271472587","long":"126.8599396412","imageIndex":17,"items":[{"name":"헤어사랑","tel":"031-406-3640","addr":"경기도 안산시 상록구 부곡동 684-4번지","indutype":"협회 및 단체, 수리 및 기타 개인서","category":"other"}]},{"lat":"37.3341447376","long":"126.8646317624","imageIndex":17,"items":[{"name":"헤어존","tel":"031-438-4009","addr":"경기도 안산시 상록구 부곡동 643-1번지","indutype":"협회 및 단체, 수리 및 기타 개인서","category":"other"}]},{"lat":"37.3330883185","long":"126.8627380326","imageIndex":17,"items":[{"name":"헤어탤런트샵","tel":"031-408-5833","addr":"경기도 안산시 상록구 부곡동 665번지","indutype":"협회 및 단체, 수리 및 기타 개인서","category":"other"}]},{"lat":"37.33847698","long":"126.87107857","imageIndex":17,"items":[{"name":"현대디자인","tel":"031-416-1055","addr":"경기도 안산시 상록구 부곡동 273-2번지 가동 1층","indutype":"가구 - 일반가구","category":"other"}]},{"lat":"37.324785911","long":"126.85937999","imageIndex":17,"items":[{"name":"현대세탁소","tel":"031-416-7989","addr":"경기도 안산시 상록구 부곡동 692-2번지","indutype":"수리서비스 - 세탁소","category":"other"}]},{"lat":"37.334532174","long":"126.86463105","imageIndex":17,"items":[{"name":"현대테크컴퓨터","tel":"031-417-2255","addr":"경기도 안산시 상록구 부곡동 644-9번지 1층 2호","indutype":"사무통신 - 컴퓨터","category":"other"}]},{"lat":"37.339889577","long":"126.8615405","imageIndex":17,"items":[{"name":"현대후렘","tel":"031-405-4504","addr":"경기도 안산시 상록구 부곡동 212-6","indutype":"기타 - 기타 전문점","category":"other"}]},{"lat":"37.3249461958","long":"126.8578226993","imageIndex":17,"items":[{"name":"협동1급카서비스","tel":"031-414-1997","addr":"경기도 안산시 상록구 부곡동 689번지","indutype":"협회 및 단체, 수리 및 기타 개인서","category":"other"}]},{"lat":"37.3300068025","long":"126.8627099068","imageIndex":17,"items":[{"name":"홀인원(더골프스토링앤카페)","tel":"","addr":"경기도 안산시 상록구 부곡동 625-1번지","indutype":"도매 및 소매업 - 의류","category":"other"}]},{"lat":"37.324922833","long":"126.86084646","imageIndex":17,"items":[{"name":"홈 솔루션","tel":"031-000-0000","addr":"경기도 안산시 상록구 부곡동 609-5번지 302호","indutype":"용역 서비스 - 종합용역","category":"other"}]},{"lat":"37.3323928841","long":"126.8613514392","imageIndex":17,"items":[{"name":"홈쇼핑명품마켓(아르케유통)","tel":"031-416-5889","addr":"경기도 안산시 상록구 부곡동 667-10번지","indutype":"도매 및 소매업 - 유통","category":"other"}]},{"lat":"37.333980925","long":"126.86324415","imageIndex":17,"items":[{"name":"화이트","tel":"031-416-9779","addr":"경기도 안산시 상록구 부곡동 661-12번지 103호","indutype":"수리서비스 - 세탁소","category":"other"}]},{"lat":"37.3339809248","long":"126.8632441481","imageIndex":17,"items":[{"name":"화이트세탁소","tel":"","addr":"경기도 안산시 상록구 부곡동 661-12번지","indutype":"협회 및 단체, 수리 및 기타 개인서","category":"other"}]},{"lat":"37.3358128122","long":"126.8580951930","imageIndex":17,"items":[{"name":"효미네김치","tel":"031-507-8043","addr":"경기도 안산시 상록구 부곡동 715-5번지","indutype":"도매 및 소매업 - 반찬","category":"other"}]}]