[{"lat":"36.943688333","long":"126.87599396","imageIndex":0,"items":[{"name":"거림공업주식회사","tel":"031-684-8232","addr":"경기도 평택시 포승읍 신영리 385-1번지 B동 413-46","indutype":"자동차판매 - 기타운송","category":"car"}]},{"lat":"36.937915926","long":"126.88830635","imageIndex":0,"items":[{"name":"광명오토파트","tel":"031-683-5254","addr":"경기도 평택시 포승읍 신영리 870번지","indutype":"자동차정비 유지 - 자동차부품","category":"car"}]},{"lat":"36.943969181","long":"126.87741921","imageIndex":0,"items":[{"name":"비티엠(BTM)","tel":"031-684-5789","addr":"경기도 평택시 포승읍 신영리 413-31번지","indutype":"자동차정비 유지 - 카인테리어","category":"car"}]},{"lat":"36.938275901","long":"126.88783435","imageIndex":0,"items":[{"name":"서해판매","tel":"031-683-1480","addr":"경기도 평택시 포승읍 신영리 868-4번지","indutype":"자동차정비 유지 - 자동차부품","category":"car"}]},{"lat":"36.945693581","long":"126.87216245","imageIndex":0,"items":[{"name":"아도카정비센터","tel":"031-684-7077","addr":"경기도 평택시 포승읍 신영리 373-16번지","indutype":"자동차정비 유지 - 자동차정비","category":"car"},{"name":"아도카정비센터","tel":"031-681-8217","addr":"경기도 평택시 포승읍 신영리 373-16번지","indutype":"서비스업 - 자동차정비","category":"car"},{"name":"한국상사","tel":"","addr":"경기도 평택시 포승읍 신영리 373-16번지","indutype":"자동차정비 유지 - 윤활유 전문 판매","category":"car"}]},{"lat":"36.943139739","long":"126.87699398","imageIndex":0,"items":[{"name":"아이에이치엘","tel":"031-682-1296","addr":"경기도 평택시 포승읍 신영리 413-9","indutype":"자동차정비 유지 - 자동차부품","category":"car"},{"name":"평택항한일타이어","tel":"031-682-0913","addr":"경기도 평택시 포승읍 신영리 413-9번지","indutype":"자동차정비 유지 - 자동차시트·타이어","category":"car"}]},{"lat":"36.943445724","long":"126.87663424","imageIndex":0,"items":[{"name":"안중카케리어","tel":"031-683-4457","addr":"경기도 평택시 포승읍 신영리 385","indutype":"자동차정비 유지 - 자동차정비","category":"car"}]},{"lat":"36.943831916","long":"126.87544364","imageIndex":0,"items":[{"name":"오케이공업사","tel":"031-686-8018","addr":"경기도 평택시 포승읍 신영리 385-11번지","indutype":"자동차정비 유지 - 윤활유 전문 판매","category":"car"},{"name":"오케이종합타이어","tel":"031-686-8018","addr":"경기도 평택시 포승읍 신영리 385-11번지","indutype":"자동차정비 유지 - 자동차시트·타이어","category":"car"}]},{"lat":"36.948936553","long":"126.87974624","imageIndex":0,"items":[{"name":"주식회사 삼화특장","tel":"070-9962-5325","addr":"경기도 평택시 포승읍 신영리 435-23번지","indutype":"자동차판매 - 기타운송","category":"car"}]},{"lat":"36.939500153","long":"126.88658648","imageIndex":0,"items":[{"name":"태현카공업사","tel":"031-684-8240","addr":"경기도 평택시 포승읍 신영리 672-6번지","indutype":"자동차정비 유지 - 자동차정비","category":"car"}]},{"lat":"36.945801376","long":"126.87185916","imageIndex":0,"items":[{"name":"항만상사","tel":"031-683-5124","addr":"경기도 평택시 포승읍 신영리 373-8번지","indutype":"자동차정비 유지 - 자동차부품","category":"car"}]}]