[{"lat":"37.195797918","long":"127.02708675","imageIndex":0,"items":[{"name":"E.M.모터스","tel":"031-376-3354","addr":"경기도 오산시 양산동 318번지","indutype":"자동차정비 유지 - 자동차정비","category":"car"}]},{"lat":"37.194582302","long":"127.0228627","imageIndex":0,"items":[{"name":"레스큐맥스","tel":"070-8780-9119","addr":"경기도 오산시 양산동 419번지 B1층","indutype":"자동차정비 유지 - 자동차시트·타이어","category":"car"}]},{"lat":"37.195771684","long":"127.0228067","imageIndex":0,"items":[{"name":"양산카공업사","tel":"031-8059-1744","addr":"경기도 오산시 양산동 442-1번지","indutype":"자동차정비 유지 - 자동차부품","category":"car"}]},{"lat":"37.192300053","long":"127.03481188","imageIndex":0,"items":[{"name":"전진카센타","tel":"031-239-3173","addr":"경기도 오산시 양산동 671-13번지","indutype":"자동차정비 유지 - 자동차정비","category":"car"}]},{"lat":"37.191777306","long":"127.03534101","imageIndex":0,"items":[{"name":"카&제이","tel":"031-378-3177","addr":"경기도 오산시 양산동 671-18번지 1층","indutype":"자동차정비 유지 - 자동차부품","category":"car"},{"name":"카&제이","tel":"031-378-3177","addr":"경기도 오산시 양산동 671-18번지 1층","indutype":"자동차정비 유지 - 자동차부품","category":"car"}]},{"lat":"37.196581626","long":"127.02803312","imageIndex":0,"items":[{"name":"카토리존 (CARTORY ZONE)","tel":"031-000-0000","addr":"경기도 오산시 양산동 321번지","indutype":"자동차정비 유지 - 자동차부품","category":"car"}]},{"lat":"37.192771262","long":"127.02255813","imageIndex":0,"items":[{"name":"한신대학교","tel":"031-379-0075","addr":"경기도 오산시 양산동 411번지","indutype":"자동차정비 유지 - 주차장","category":"car"}]}]