[{"lat":"37.345719319","long":"126.74850424","imageIndex":7,"items":[{"name":"(주)비제이유통","tel":"031-497-0689","addr":"경기도 시흥시 정왕동 1203번지 정왕시장 202호","indutype":"소매업 - 슈퍼","category":"mart"},{"name":"신장산마트","tel":"031-497-4453","addr":"경기도 시흥시 정왕동 1203번지","indutype":"소매업 - 슈퍼마켓","category":"mart"}]},{"lat":"37.34919514","long":"126.74339119","imageIndex":7,"items":[{"name":"24시플러스마트","tel":"031-431-3288","addr":"경기도 시흥시 정왕동 1826-1번지 101호","indutype":"소매업 - 슈퍼마켓","category":"mart"}]},{"lat":"37.374744702","long":"126.73392127","imageIndex":7,"items":[{"name":"㈜빅마트","tel":"031-498-0028","addr":"경기도 시흥시 정왕동 2467-1번지 제일프라자 1층 108호","indutype":"소매업 - 슈퍼마켓","category":"mart"}]},{"lat":"37.362442842","long":"126.71353373","imageIndex":7,"items":[{"name":"㈜월곶식자재 배곧점","tel":"031-488-8854","addr":"경기도 시흥시 정왕동 2564번지 한라비발디2차 제상가1동 101A호","indutype":"소매업 - 슈퍼마켓","category":"mart"}]},{"lat":"37.34491694","long":"126.73205273","imageIndex":7,"items":[{"name":"㈜윈플러스마트서부 시화점","tel":"1833-6222","addr":"경기도 시흥시 정왕동 1733-4번지","indutype":"소매업 - 슈퍼","category":"mart"}]},{"lat":"37.35216545","long":"126.73002897","imageIndex":7,"items":[{"name":"건영하이퍼","tel":"031-503-6644","addr":"경기도 시흥시 정왕동 1871-1번지 건영3차아파트","indutype":"소매업 - 슈퍼,담배","category":"mart"}]},{"lat":"37.34647386","long":"126.75163912","imageIndex":7,"items":[{"name":"골드할인마트","tel":"031-496-9464","addr":"경기도 시흥시 정왕동 1176-13번지","indutype":"소매업 - 슈퍼","category":"mart"}]},{"lat":"37.344859259","long":"126.73841794","imageIndex":7,"items":[{"name":"굿데이25","tel":"031-431-9892","addr":"경기도 시흥시 정왕동 1734-7번지 제일프라자 106호","indutype":"소매업 - 슈퍼","category":"mart"}]},{"lat":"37.338610411","long":"126.74855078","imageIndex":7,"items":[{"name":"굿모닝마트","tel":"031-433-0331","addr":"경기도 시흥시 정왕동 1622-1번지 굿모닝빌 114호","indutype":"소매업 - 슈퍼","category":"mart"}]},{"lat":"37.355745314","long":"126.72352594","imageIndex":7,"items":[{"name":"그랜드마트","tel":"031-432-7735","addr":"경기도 시흥시 정왕동 1864-1번지","indutype":"소매업 - 슈퍼마켓","category":"mart"}]},{"lat":"37.351940417","long":"126.71491714","imageIndex":7,"items":[{"name":"나들가게","tel":"031-498-7889","addr":"경기도 시흥시 정왕동 2164-2번지 메가폴리스 B동 124~125호","indutype":"소매업 - 슈퍼마켓","category":"mart"}]},{"lat":"37.341831545","long":"126.73828185","imageIndex":7,"items":[{"name":"농심가할인마트","tel":"031-499-6242","addr":"경기도 시흥시 정왕동 1790번지 영남6차아파트","indutype":"소매업 - 슈퍼마켓","category":"mart"}]},{"lat":"37.354829516","long":"126.72109135","imageIndex":7,"items":[{"name":"대림슈퍼","tel":"031-433-1604","addr":"경기도 시흥시 정왕동 1863번지 2 106호 대림슈퍼","indutype":"소매업 - 슈퍼마켓","category":"mart"}]},{"lat":"37.349441375","long":"126.74474468","imageIndex":7,"items":[{"name":"대림할인마트","tel":"031-499-4685","addr":"경기도 시흥시 정왕동 1812-8번지 1층","indutype":"소매업 - 슈퍼","category":"mart"}]},{"lat":"37.346721159","long":"126.74930215","imageIndex":7,"items":[{"name":"동원마트","tel":"","addr":"경기도 시흥시 정왕동 1188-17번지 1층","indutype":"소매업 - 슈퍼마켓","category":"mart"}]},{"lat":"37.338366088","long":"126.74391368","imageIndex":7,"items":[{"name":"두산슈퍼","tel":"031-497-5885","addr":"경기도 시흥시 정왕동 1786번지 두산아파트","indutype":"소매업 - 슈퍼마켓","category":"mart"}]},{"lat":"37.374473194","long":"126.73339161","imageIndex":7,"items":[{"name":"떠벌이 과일, 야채","tel":"031-498-4754","addr":"경기도 시흥시 정왕동 2470-1번지 베스트프라자 109호","indutype":"소매업 - 슈퍼마켓","category":"mart"}]},{"lat":"37.342222148","long":"126.68806195","imageIndex":7,"items":[{"name":"로고스마트 삼도점","tel":"031-499-7819","addr":"경기도 시흥시 정왕동 2034-12번지","indutype":"소매업 - 슈퍼마켓","category":"mart"}]},{"lat":"37.353222838","long":"126.74346762","imageIndex":7,"items":[{"name":"로얄마트","tel":"031-431-2524","addr":"경기도 시흥시 정왕동 2308-5번지","indutype":"소매업 - 슈퍼마켓","category":"mart"}]},{"lat":"37.342375054","long":"126.6982856","imageIndex":7,"items":[{"name":"리더낚시마트","tel":"031-8041-9390","addr":"경기도 시흥시 정왕동 2211번지 오이도철강단지 1동 143호","indutype":"소매업 - 슈퍼마켓","category":"mart"}]},{"lat":"37.361998194","long":"126.7312012","imageIndex":7,"items":[{"name":"모아마트","tel":"031-498-3532","addr":"경기도 시흥시 정왕동 1876-2번지 모아a 102호","indutype":"소매업 - 슈퍼마켓","category":"mart"}]},{"lat":"37.33569257","long":"126.74922638","imageIndex":7,"items":[{"name":"무진농심가","tel":"031-431-0601","addr":"경기도 시흥시 정왕동 1629번지 무진아파트 102동 103호","indutype":"소매업 - 슈퍼마켓","category":"mart"}]},{"lat":"37.344751599","long":"126.69055676","imageIndex":7,"items":[{"name":"미니슈퍼","tel":"031-319-6657","addr":"경기도 시흥시 정왕동 1994-3번지","indutype":"소매업 - 슈퍼","category":"mart"}]},{"lat":"37.342830566","long":"126.75013905","imageIndex":7,"items":[{"name":"빅마트(현대시스템)","tel":"031-433-4566","addr":"경기도 시흥시 정왕동 1555-6번지","indutype":"소매업 - 슈퍼마켓","category":"mart"}]},{"lat":"37.347169165","long":"126.7481382","imageIndex":7,"items":[{"name":"빨강마트","tel":"031-433-0675","addr":"경기도 시흥시 정왕동 1185-3번지","indutype":"소매업 - 슈퍼","category":"mart"}]},{"lat":"37.343053522","long":"126.7576091","imageIndex":7,"items":[{"name":"사랑마트","tel":"031-432-3497","addr":"경기도 시흥시 정왕동 1531-11번지","indutype":"소매업 - 슈퍼마켓","category":"mart"}]},{"lat":"37.354246937","long":"126.73402828","imageIndex":7,"items":[{"name":"삼성슈퍼","tel":"031-504-5837","addr":"경기도 시흥시 정왕동 1872-5번지 삼성아파트","indutype":"소매업 - 슈퍼마켓","category":"mart"}]},{"lat":"37.344556262","long":"126.74400528","imageIndex":7,"items":[{"name":"서가네마트","tel":"","addr":"경기도 시흥시 정왕동 1592번지 동신흥산빌딩 101호","indutype":"소매업 - 슈퍼","category":"mart"}]},{"lat":"37.344915368","long":"126.68775729","imageIndex":7,"items":[{"name":"선창마트","tel":"031-497-7018","addr":"경기도 시흥시 정왕동 2006-22번지 1층 102호","indutype":"소매업 - 슈퍼","category":"mart"}]},{"lat":"37.346668508","long":"126.74578118","imageIndex":7,"items":[{"name":"설연과일야채가게","tel":"031-497-7988","addr":"경기도 시흥시 정왕동 1210-2번지 102호","indutype":"소매업 - 슈퍼마켓","category":"mart"}]},{"lat":"37.341471039","long":"126.74641957","imageIndex":7,"items":[{"name":"성애슈퍼","tel":"031-432-7262","addr":"경기도 시흥시 정왕동 1438-13번지","indutype":"소매업 - 슈퍼마켓","category":"mart"}]},{"lat":"37.342643273","long":"126.75530827","imageIndex":7,"items":[{"name":"스카이마트","tel":"","addr":"경기도 시흥시 정왕동 1544-6번지","indutype":"소매업 - 슈퍼","category":"mart"}]},{"lat":"37.36366391","long":"126.73069851","imageIndex":7,"items":[{"name":"시흥YMCA소비자생활협동조합","tel":"031-432-0041","addr":"경기도 시흥시 정왕동 1881-9번지 굿모닝프라자 112호","indutype":"소매업 - 슈퍼마켓, 유니농산물유통","category":"mart"}]},{"lat":"37.348723345","long":"126.74602246","imageIndex":7,"items":[{"name":"신가네 할인마트","tel":"031-434-1236","addr":"경기도 시흥시 정왕동 1820-2번지 1층 101호","indutype":"소매업 - 슈퍼","category":"mart"}]},{"lat":"37.359193248","long":"126.72228281","imageIndex":7,"items":[{"name":"신동아 우리슈퍼","tel":"","addr":"경기도 시흥시 정왕동 1940-1번지 신동아아파트","indutype":"소매업 - 슈퍼마켓","category":"mart"}]},{"lat":"37.345221895","long":"126.74349515","imageIndex":7,"items":[{"name":"아리랑마트","tel":"","addr":"경기도 시흥시 정왕동 1606-7번지","indutype":"소매업 - 슈퍼마켓","category":"mart"}]},{"lat":"37.354058139","long":"126.72256152","imageIndex":7,"items":[{"name":"아울렛마트","tel":"031-434-7942","addr":"경기도 시흥시 정왕동 1857-1번지","indutype":"소매업 - 슈퍼마켓","category":"mart"}]},{"lat":"37.346664531","long":"126.73188845","imageIndex":7,"items":[{"name":"아이원마트","tel":"031-432-2135","addr":"경기도 시흥시 정왕동 1731-1번지 101,102호","indutype":"소매업 - 슈퍼","category":"mart"}]},{"lat":"37.346166287","long":"126.75533056","imageIndex":7,"items":[{"name":"엘지그린마트","tel":"","addr":"경기도 시흥시 정왕동 1499-6번지","indutype":"소매업 - 슈퍼마켓","category":"mart"}]},{"lat":"37.345643932","long":"126.74283913","imageIndex":7,"items":[{"name":"열린할인마트","tel":"031-432-0080","addr":"경기도 시흥시 정왕동 1606번지 101호","indutype":"소매업 - 슈퍼마켓","category":"mart"}]},{"lat":"37.339280808","long":"126.7502525","imageIndex":7,"items":[{"name":"영광슈퍼","tel":"070-4259-1890","addr":"경기도 시흥시 정왕동 1417-9번지","indutype":"소매업 - 슈퍼마켓","category":"mart"}]},{"lat":"37.358331713","long":"126.72757984","imageIndex":7,"items":[{"name":"영남슈퍼","tel":"031-431-9530","addr":"경기도 시흥시 정왕동 1875-1번지 영남아파트 상가동 1층 104호","indutype":"소매업 - 슈퍼","category":"mart"}]},{"lat":"37.345357611","long":"126.68803758","imageIndex":7,"items":[{"name":"오이도직판장마트","tel":"031-431-4454","addr":"경기도 시흥시 정왕동 2003-12번지 오이도수산물직판장 B-1","indutype":"소매업 - 슈퍼마켓","category":"mart"}]},{"lat":"37.344003394","long":"126.75511195","imageIndex":7,"items":[{"name":"용마트","tel":"","addr":"경기도 시흥시 정왕동 1511-9번지","indutype":"소매업 - 슈퍼마켓","category":"mart"}]},{"lat":"37.343781511","long":"126.75672648","imageIndex":7,"items":[{"name":"정왕마트","tel":"031-497-5840","addr":"경기도 시흥시 정왕동 1532-19번지","indutype":"소매업 - 슈퍼마켓","category":"mart"}]},{"lat":"37.356635627","long":"126.72281154","imageIndex":7,"items":[{"name":"주공 하이퍼마켓","tel":"031-498-3897","addr":"경기도 시흥시 정왕동 1864번지","indutype":"소매업 - 슈퍼마켓","category":"mart"}]},{"lat":"37.342033492","long":"126.74818941","imageIndex":7,"items":[{"name":"지할인마트","tel":"031-507-0705","addr":"경기도 시흥시 정왕동 1568번지 1층","indutype":"소매업 - 슈퍼마켓","category":"mart"}]},{"lat":"37.382384189","long":"126.72952433","imageIndex":7,"items":[{"name":"진로할인마트","tel":"","addr":"경기도 시흥시 정왕동 2383번지 시흥배곧신도시 이지더원1차 더 퍼스트 상가동-1동 1층 106~11호","indutype":"소매업 - 슈퍼마켓","category":"mart"}]},{"lat":"37.3439698","long":"126.75199731","imageIndex":7,"items":[{"name":"코앞마트","tel":"031-434-8885","addr":"경기도 시흥시 정왕동 1517번지","indutype":"소매업 - 슈퍼마켓","category":"mart"}]},{"lat":"37.341528495","long":"126.75649685","imageIndex":7,"items":[{"name":"통큰할인마트","tel":"031-449-5257","addr":"경기도 시흥시 정왕동 1540번지","indutype":"소매업 - 슈퍼마켓","category":"mart"}]},{"lat":"37.345667178","long":"126.75363936","imageIndex":7,"items":[{"name":"하나로슈퍼마켓","tel":"031-431-4991","addr":"경기도 시흥시 정왕동 1500-9번지","indutype":"소매업 - 슈퍼마켓","category":"mart"}]},{"lat":"37.340892012","long":"126.74121921","imageIndex":7,"items":[{"name":"하나유통","tel":"031-432-7044","addr":"경기도 시흥시 정왕동 1787-5번지","indutype":"소매업 - 슈퍼,담배","category":"mart"}]},{"lat":"37.350302338","long":"126.74291336","imageIndex":7,"items":[{"name":"하늘소마트","tel":"031-432-9968","addr":"경기도 시흥시 정왕동 1811-1번지","indutype":"소매업 - 슈퍼","category":"mart"}]},{"lat":"37.362667209","long":"126.71317165","imageIndex":7,"items":[{"name":"하모니마트","tel":"031-433-2200","addr":"경기도 시흥시 정왕동 2566번지 한라비발디 상가1동 지하1층 101호","indutype":"소매업 - 슈퍼마켓","category":"mart"}]},{"lat":"37.345476872","long":"126.74888877","imageIndex":7,"items":[{"name":"하모니마트 정왕점","tel":"","addr":"경기도 시흥시 정왕동 1202번지","indutype":"소매업 - 슈퍼마켓","category":"mart"}]},{"lat":"37.352110984","long":"126.7459432","imageIndex":7,"items":[{"name":"하모니마트정왕역점","tel":"031-497-3850","addr":"경기도 시흥시 정왕동 2316-1번지","indutype":"소매업 - 슈퍼","category":"mart"}]},{"lat":"37.352392735","long":"126.73886555","imageIndex":7,"items":[{"name":"하모니아울렛마트","tel":"031-319-5140","addr":"경기도 시흥시 정왕동 2304-9번지 1층","indutype":"소매업 - 슈퍼마켓","category":"mart"}]},{"lat":"37.352999006","long":"126.72428104","imageIndex":7,"items":[{"name":"한아름슈퍼","tel":"031-433-8858","addr":"경기도 시흥시 정왕동 1860-7번지 101호","indutype":"소매업 - 슈퍼","category":"mart"}]},{"lat":"37.358080645","long":"126.72425097","imageIndex":7,"items":[{"name":"한일뉴마트","tel":"031-432-8160","addr":"경기도 시흥시 정왕동 1865번지","indutype":"소매업 - 슈퍼마켓","category":"mart"}]},{"lat":"37.352500888","long":"126.74708182","imageIndex":7,"items":[{"name":"행복한마트","tel":"031-497-1033","addr":"경기도 시흥시 정왕동 2314-13번지 정문우측101호","indutype":"소매업 - 슈퍼","category":"mart"}]},{"lat":"37.340839264","long":"126.75011186","imageIndex":7,"items":[{"name":"행복할인마트","tel":"031-319-9722","addr":"경기도 시흥시 정왕동 1412-17번지","indutype":"소매업 - 슈퍼마켓","category":"mart"}]}]