[{"lat":"37.27334891","long":"126.97423268","imageIndex":16,"items":[{"name":"개념원리수학탑동제1학원","tel":"031-294-6636","addr":"경기도 수원시 권선구 탑동 766-5번지 2층","indutype":"회원제형태 - 학원","category":"study"},{"name":"삼성영어스마트쎈클래스탑동학원","tel":"031-306-0505","addr":"경기도 수원시 권선구 탑동 766-5번지 2층","indutype":"학원 - 보습학원","category":"study"}]},{"lat":"37.268843821","long":"126.97444859","imageIndex":16,"items":[{"name":"경희대석사천하태권도","tel":"031-296-7111","addr":"경기도 수원시 권선구 탑동 835-4번지 3층","indutype":"학원 - 예·체능계학원","category":"study"}]},{"lat":"37.27187133","long":"126.97467294","imageIndex":16,"items":[{"name":"공부하는아이들학원","tel":"031-278-0090","addr":"경기도 수원시 권선구 탑동 791-15번지 2층","indutype":"학원 - 보습학원","category":"study"},{"name":"웨스턴어학원","tel":"031-292-9353","addr":"경기도 수원시 권선구 탑동 791-15번지 2층 3호 전체","indutype":"회원제형태 - 학원","category":"study"}]},{"lat":"37.272015307","long":"126.97389494","imageIndex":16,"items":[{"name":"그림쟁이미술학원","tel":"031-296-7706","addr":"경기도 수원시 권선구 탑동 783-4번지 천림빌라3차 102호","indutype":"학원 - 예·체능계학원","category":"study"}]},{"lat":"37.267483639","long":"126.97603873","imageIndex":16,"items":[{"name":"글로벌해법영어학원","tel":"070-8753-8751","addr":"경기도 수원시 권선구 탑동 873-1번지 2층","indutype":"학원 - 보습학원","category":"study"}]},{"lat":"37.275376765","long":"126.97656586","imageIndex":16,"items":[{"name":"꿈드림학원","tel":"031-291-1881","addr":"경기도 수원시 권선구 탑동 759-12번지 3층","indutype":"학원 - 기타 교육기관","category":"study"}]},{"lat":"37.273601964","long":"126.97759249","imageIndex":16,"items":[{"name":"독서논술(공부방)","tel":"02-1111-1111","addr":"경기도 수원시 권선구 탑동 22-25번지 계림빌라 502호","indutype":"학원 - 기타 교육기관","category":"study"}]},{"lat":"37.267961024","long":"126.97533957","imageIndex":16,"items":[{"name":"드림교육컨설팅그룹(Dream Education Consu","tel":"031-123-4567","addr":"경기도 수원시 권선구 탑동 862-5번지 403호","indutype":"학원 - 외국어학원","category":"study"}]},{"lat":"37.273763348","long":"126.97408595","imageIndex":16,"items":[{"name":"명성음악학원","tel":"031-296-6090","addr":"경기도 수원시 권선구 탑동 766-2번지 2층","indutype":"학원 - 예·체능계학원","category":"study"},{"name":"수원중앙검도관","tel":"031-298-2333","addr":"경기도 수원시 권선구 탑동 766-2번지","indutype":"학원 - 기타 교육기관","category":"study"},{"name":"탑그랜드음악학원","tel":"031-296-6090","addr":"경기도 수원시 권선구 탑동 766-2번지 2층","indutype":"학원 - 예·체능계학원","category":"study"}]},{"lat":"37.267096067","long":"126.97547517","imageIndex":16,"items":[{"name":"뮤엠영어 효탑점 영어교습소","tel":"031-298-3411","addr":"경기도 수원시 권선구 탑동 868-8번지 진흥그린빌 101호","indutype":"학원 - 외국어학원","category":"study"}]},{"lat":"37.275376709","long":"126.9763178","imageIndex":16,"items":[{"name":"미디시티실용음악학원","tel":"031-292-8130","addr":"경기도 수원시 권선구 탑동 759-10번지 세종빌라 3층","indutype":"학원 - 예·체능계학원","category":"study"}]},{"lat":"37.267988164","long":"126.97581307","imageIndex":16,"items":[{"name":"미래클어린이집[아이행복]","tel":"031-295-9194","addr":"경기도 수원시 권선구 탑동 865-1번지","indutype":"학원 - 유아원","category":"study"}]},{"lat":"37.270709627","long":"126.97742434","imageIndex":16,"items":[{"name":"미예뜰어린이집","tel":"031-293-2279","addr":"경기도 수원시 권선구 탑동 855-2번지","indutype":"학원 - 유아원","category":"study"},{"name":"미예뜰어린이집[아이행복]","tel":"031-293-2279","addr":"경기도 수원시 권선구 탑동 855-2번지","indutype":"학원 - 유아원","category":"study"}]},{"lat":"37.273150875","long":"126.97503326","imageIndex":16,"items":[{"name":"백조어린이집[아이행복]","tel":"031-294-3119","addr":"경기도 수원시 권선구 탑동 769-1번지","indutype":"학원 - 유아원","category":"study"}]},{"lat":"37.274042545","long":"126.97358974","imageIndex":16,"items":[{"name":"베스트학원","tel":"031-298-0579","addr":"경기도 수원시 권선구 탑동 749-7번지 3층","indutype":"회원제형태 - 학원","category":"study"},{"name":"예그리나미술학원","tel":"031-296-1446","addr":"경기도 수원시 권선구 탑동 749-7번지 3층","indutype":"학원 - 예·체능계학원","category":"study"},{"name":"탑클랑피아노음악학원","tel":"031-293-5878","addr":"경기도 수원시 권선구 탑동 749-7번지 2층","indutype":"학원 - 예·체능계학원","category":"study"}]},{"lat":"37.272267823","long":"126.97484192","imageIndex":16,"items":[{"name":"보현어린이집[아이행복]","tel":"031-291-0555","addr":"경기도 수원시 권선구 탑동 790-11번지","indutype":"학원 - 유아원","category":"study"}]},{"lat":"37.272934355","long":"126.97389459","imageIndex":16,"items":[{"name":"삼공삼공영어학원","tel":"031-291-2986","addr":"경기도 수원시 권선구 탑동 782-8번지 301호","indutype":"회원제형태 - 학원","category":"study"},{"name":"탑동이해법수학셀파수학교습소","tel":"031-8004-2090","addr":"경기도 수원시 권선구 탑동 782-8번지 302호","indutype":"학원 - 보습학원","category":"study"}]},{"lat":"37.275322874","long":"126.97734386","imageIndex":16,"items":[{"name":"서수원간호학원","tel":"070-4119-1500","addr":"경기도 수원시 권선구 탑동 5-4번지 2층 5,6호","indutype":"학원 - 기능학원","category":"study"}]},{"lat":"37.269844049","long":"126.97480899","imageIndex":16,"items":[{"name":"서수원종로엠학원","tel":"031-269-4441","addr":"경기도 수원시 권선구 탑동 841-1번지 2층 서호새마을금고","indutype":"학원 - 보습학원","category":"study"},{"name":"한승연무용학원","tel":"070-8111-6270","addr":"경기도 수원시 권선구 탑동 841-1번지 3층","indutype":"학원 - 예·체능계학원","category":"study"}]},{"lat":"37.273430532","long":"126.97651016","imageIndex":16,"items":[{"name":"솔샘어린이집[아이행복]","tel":"031-296-2060","addr":"경기도 수원시 권선구 탑동 20-11번지","indutype":"학원 - 유아원","category":"study"},{"name":"예솔어린이집[아이행복]","tel":"031-296-2060","addr":"경기도 수원시 권선구 탑동 20-11번지","indutype":"학원 - 유아원","category":"study"}]},{"lat":"37.275042921","long":"126.97455901","imageIndex":16,"items":[{"name":"숨결무용학원","tel":"070-8814-1312","addr":"경기도 수원시 권선구 탑동 758-4번지 4층 전체","indutype":"학원 - 예·체능계학원","category":"study"}]},{"lat":"37.257210947","long":"126.97211958","imageIndex":16,"items":[{"name":"시립 탑고을어린이집[아이행복]","tel":"031-295-1601","addr":"경기도 수원시 권선구 탑동 900번지 권선구청","indutype":"학원 - 유아원","category":"study"}]},{"lat":"37.274429959","long":"126.97347684","imageIndex":16,"items":[{"name":"아이엘에스학원","tel":"031-295-7057","addr":"경기도 수원시 권선구 탑동 749-4번지 2층","indutype":"학원 - 보습학원","category":"study"}]},{"lat":"37.27065421","long":"126.97175333","imageIndex":16,"items":[{"name":"아이팡팡","tel":"031-268-3469","addr":"경기도 수원시 권선구 탑동 801-11번지 402호","indutype":"학원 - 기타 교육기관","category":"study"}]},{"lat":"37.270988429","long":"126.97512425","imageIndex":16,"items":[{"name":"아이퍼스트학원","tel":"031-294-8811","addr":"경기도 수원시 권선구 탑동 843-2번지 2층","indutype":"학원 - 보습학원","category":"study"}]},{"lat":"37.269790323","long":"126.9762634","imageIndex":16,"items":[{"name":"엄마사랑어린이집[아이행복]","tel":"031-294-9876","addr":"경기도 수원시 권선구 탑동 366-11번지 삼미주택","indutype":"학원 - 유아원","category":"study"}]},{"lat":"37.274267782","long":"126.97351073","imageIndex":16,"items":[{"name":"엠베스트탑동학원","tel":"031-295-7057","addr":"경기도 수원시 권선구 탑동 749-5번지 2층","indutype":"학원 - 보습학원","category":"study"}]},{"lat":"37.273015668","long":"126.97480782","imageIndex":16,"items":[{"name":"예쁜백조어린이집[아이행복]","tel":"031-298-2906","addr":"경기도 수원시 권선구 탑동 790-3번지","indutype":"학원 - 유아원","category":"study"},{"name":"잉글리쉬무무탑동제일학습관학원","tel":"070-4210-0573","addr":"경기도 수원시 권선구 탑동 790-3번지 2층","indutype":"회원제형태 - 학원","category":"study"},{"name":"한나뮤직음악교습소","tel":"031-294-5002","addr":"경기도 수원시 권선구 탑동 790-3번지 3층","indutype":"학원 - 예·체능계학원","category":"study"}]},{"lat":"37.274150662","long":"126.97356715","imageIndex":16,"items":[{"name":"올림수학탑캠퍼스수학교습소","tel":"","addr":"경기도 수원시 권선구 탑동 749-6번지","indutype":"학원 - 보습학원","category":"study"},{"name":"피아노선생님교습소","tel":"031-292-8013","addr":"경기도 수원시 권선구 탑동 749-6번지 2층","indutype":"학원 - 예·체능계학원","category":"study"}]},{"lat":"37.272988527","long":"126.97434556","imageIndex":16,"items":[{"name":"와이제이 (YJ)뷰티연구소","tel":"031-242-2470","addr":"경기도 수원시 권선구 탑동 789-1번지 강서빌딩 603호","indutype":"학원 - 기능학원","category":"study"},{"name":"탑경희대태권도","tel":"031-296-4141","addr":"경기도 수원시 권선구 탑동 789-1번지","indutype":"학원 - 예·체능계학원","category":"study"},{"name":"티엘에스외국어건국학원","tel":"031-293-5525","addr":"경기도 수원시 권선구 탑동 789-1번지 강서빌딩 4층","indutype":"학원 - 외국어학원","category":"study"}]},{"lat":"37.27284428","long":"126.97400737","imageIndex":16,"items":[{"name":"용숙쌤의탑주산교습소","tel":"","addr":"경기도 수원시 권선구 탑동 782-10번지 2층","indutype":"학원 - 기타 교육기관","category":"study"}]},{"lat":"37.272709227","long":"126.97442459","imageIndex":16,"items":[{"name":"용인대탑동태권도","tel":"031-298-2004","addr":"경기도 수원시 권선구 탑동 789-5번지","indutype":"학원 - 예·체능계학원","category":"study"}]},{"lat":"37.271295163","long":"126.97681532","imageIndex":16,"items":[{"name":"용인대한미르태권도장","tel":"031-298-4080","addr":"경기도 수원시 권선구 탑동 300-17번지 3층","indutype":"학원 - 예·체능계학원","category":"study"},{"name":"힘찬태권도","tel":"031-298-4080","addr":"경기도 수원시 권선구 탑동 300-17번지 3층","indutype":"학원 - 예·체능계학원","category":"study"}]},{"lat":"37.266213362","long":"126.97681707","imageIndex":16,"items":[{"name":"웜업","tel":"031-000-0000","addr":"경기도 수원시 권선구 탑동 501-2번지 우측상가 1층","indutype":"학원 - 예·체능계학원","category":"study"}]},{"lat":"37.26726731","long":"126.97567804","imageIndex":16,"items":[{"name":"이든학원","tel":"","addr":"경기도 수원시 권선구 탑동 867-1번지 2층","indutype":"학원 - 보습학원","category":"study"}]},{"lat":"37.274845309","long":"126.97725382","imageIndex":16,"items":[{"name":"이한도예교습소","tel":"031-292-8141","addr":"경기도 수원시 권선구 탑동 5-6번지 2층","indutype":"회원제형태 - 학원","category":"study"}]},{"lat":"37.26524033","long":"126.97717816","imageIndex":16,"items":[{"name":"자혜학교","tel":"031-293-6682","addr":"경기도 수원시 권선구 탑동 508-6번지 자혜학교","indutype":"학원 - 초중고교육기관","category":"study"}]},{"lat":"37.271348491","long":"126.97366971","imageIndex":16,"items":[{"name":"작은나무어린이집[아이행복]","tel":"070-8200-3089","addr":"경기도 수원시 권선구 탑동 807-2번지","indutype":"학원 - 유아원","category":"study"}]},{"lat":"37.274014687","long":"126.9704215","imageIndex":16,"items":[{"name":"정무합기도","tel":"031-293-4993","addr":"경기도 수원시 권선구 탑동 744-1번지","indutype":"학원 - 예·체능계학원","category":"study"}]},{"lat":"37.27457377","long":"126.97208996","imageIndex":16,"items":[{"name":"제이엠학원","tel":"031-293-3999","addr":"경기도 수원시 권선구 탑동 748-1번지 3층","indutype":"학원 - 보습학원","category":"study"}]},{"lat":"37.272069784","long":"126.97564249","imageIndex":16,"items":[{"name":"조은아이어린이집[아이행복]","tel":"031-293-1179","addr":"경기도 수원시 권선구 탑동 795-3번지","indutype":"학원 - 유아원","category":"study"},{"name":"조은아이어린이집[아이행복]","tel":"031-293-1179","addr":"경기도 수원시 권선구 탑동 795-3번지","indutype":"학원 - 유아원","category":"study"}]},{"lat":"37.271988437","long":"126.97456016","imageIndex":16,"items":[{"name":"직선수학교습소","tel":"","addr":"경기도 수원시 권선구 탑동 791-1번지 삼호빌딩 302호","indutype":"학원 - 보습학원","category":"study"}]},{"lat":"37.266961098","long":"126.97628694","imageIndex":16,"items":[{"name":"최강이해법수학셀파수학학원","tel":"031-294-5777","addr":"경기도 수원시 권선구 탑동 867-5번지","indutype":"학원 - 보습학원","category":"study"},{"name":"최강이해법수학셀파수학학원","tel":"031-294-5777","addr":"경기도 수원시 권선구 탑동 867-5번지 한아름빌딩 2층","indutype":"학원 - 보습학원","category":"study"}]},{"lat":"37.273628207","long":"126.97414237","imageIndex":16,"items":[{"name":"최정상영수학원","tel":"031-291-0579","addr":"경기도 수원시 권선구 탑동 766-3번지 2층","indutype":"학원 - 보습학원","category":"study"}]},{"lat":"37.272817345","long":"126.974402","imageIndex":16,"items":[{"name":"커티스음악학원","tel":"031-298-2950","addr":"경기도 수원시 권선구 탑동 789-4번지","indutype":"학원 - 예·체능계학원","category":"study"}]},{"lat":"37.271898931","long":"126.97717589","imageIndex":16,"items":[{"name":"큰나무음악학원","tel":"031-291-6309","addr":"경기도 수원시 권선구 탑동 25-7번지 2층","indutype":"학원 - 예·체능계학원","category":"study"}]},{"lat":"37.268376454","long":"126.97981523","imageIndex":16,"items":[{"name":"큰솔유치원[아이행복]","tel":"031-295-5858","addr":"경기도 수원시 권선구 탑동 332-1번지","indutype":"학원 - 유치원","category":"study"}]},{"lat":"37.273484051","long":"126.97417625","imageIndex":16,"items":[{"name":"클래스피아노음악학원","tel":"031-295-1390","addr":"경기도 수원시 권선구 탑동 766-4번지 2층 202호","indutype":"학원 - 예·체능계학원","category":"study"}]},{"lat":"37.267672527","long":"126.97462942","imageIndex":16,"items":[{"name":"탑동사임당어린이집[아이행복]","tel":"031-294-5684","addr":"경기도 수원시 권선구 탑동 860번지 수원탑동우방파크타운 102동 103호","indutype":"학원 - 유아원","category":"study"}]},{"lat":"37.273375674","long":"126.97315028","imageIndex":16,"items":[{"name":"탑동초등학교","tel":"031-296-6236","addr":"경기도 수원시 권선구 탑동 755번지 탑동초등학교","indutype":"학원 - 초중고교육기관","category":"study"}]},{"lat":"37.273124519","long":"126.97806619","imageIndex":16,"items":[{"name":"탑아이들세상어린이집[아이행복]","tel":"031-278-6868","addr":"경기도 수원시 권선구 탑동 25-41번지","indutype":"학원 - 유아원","category":"study"}]},{"lat":"37.273898496","long":"126.97406334","imageIndex":16,"items":[{"name":"탑옹달샘음악학원","tel":"031-295-1001","addr":"경기도 수원시 권선구 탑동 766-1번지 2층","indutype":"학원 - 예·체능계학원","category":"study"}]},{"lat":"37.272204684","long":"126.97456007","imageIndex":16,"items":[{"name":"탑제이에스보습학원","tel":"031-292-6799","addr":"경기도 수원시 권선구 탑동 789-10번지 3층","indutype":"학원 - 보습학원","category":"study"}]},{"lat":"37.268763118","long":"126.97611719","imageIndex":16,"items":[{"name":"태양체육관","tel":"031-295-5090","addr":"경기도 수원시 권선구 탑동 863-3번지 대림빌딩 4층","indutype":"학원 - 예·체능계학원","category":"study"}]},{"lat":"37.270456899","long":"126.97545141","imageIndex":16,"items":[{"name":"튼튼아이어린이집[아이행복]","tel":"031-292-9172","addr":"경기도 수원시 권선구 탑동 847-1번지","indutype":"학원 - 유아원","category":"study"}]},{"lat":"37.273321953","long":"126.97453711","imageIndex":16,"items":[{"name":"튼튼영어마스터클럽탑동학원","tel":"031-296-0525","addr":"경기도 수원시 권선구 탑동 765-7번지 2층","indutype":"회원제형태 - 학원","category":"study"}]},{"lat":"37.274538068","long":"126.97342043","imageIndex":16,"items":[{"name":"푸르넷리더스학원","tel":"031-293-4454","addr":"경기도 수원시 권선구 탑동 749-3번지 2층","indutype":"학원 - 보습학원","category":"study"}]},{"lat":"37.266735521","long":"126.97490034","imageIndex":16,"items":[{"name":"푸르넷효탑학원","tel":"070-8248-8429","addr":"경기도 수원시 권선구 탑동 868-3번지 종흥하우스빌 202, 203호","indutype":"학원 - 보습학원","category":"study"}]},{"lat":"37.273240793","long":"126.97425527","imageIndex":16,"items":[{"name":"한림보습학원","tel":"031-294-8886","addr":"경기도 수원시 권선구 탑동 766-6번지 2층","indutype":"학원 - 기타 교육기관","category":"study"}]},{"lat":"37.259129373","long":"126.96928935","imageIndex":16,"items":[{"name":"한봄고등학교","tel":"070-7860-7407","addr":"경기도 수원시 권선구 탑동 614번지 수원전산여자고등학교","indutype":"학원 - 초중고교육기관","category":"study"}]},{"lat":"37.27265574","long":"126.97692759","imageIndex":16,"items":[{"name":"해달별어린이집[아이행복]","tel":"031-298-4508","addr":"경기도 수원시 권선구 탑동 28-7번지 미주디럭스빌 C동 102호","indutype":"학원 - 유아원","category":"study"}]},{"lat":"37.272239993","long":"126.9716512","imageIndex":16,"items":[{"name":"향기나무어린이집[아이행복]","tel":"031-291-3355","addr":"경기도 수원시 권선구 탑동 774-7번지","indutype":"학원 - 유아원","category":"study"}]},{"lat":"37.266267204","long":"126.97583623","imageIndex":16,"items":[{"name":"효탑초등학교","tel":"031-294-8163","addr":"경기도 수원시 권선구 탑동 870번지 효탑초등학교","indutype":"학원 - 초중고교육기관","category":"study"}]}]