[{"lat":"37.288322787","long":"127.45191015","imageIndex":16,"items":[{"name":"(주)더스쿨","tel":"031-631-0584","addr":"경기도 이천시 증포동 148-4번지 금장빌딩 3층 장태훈영어학원","indutype":"회원제형태 - 학원","category":"study"}]},{"lat":"37.293406141","long":"127.45621461","imageIndex":16,"items":[{"name":"J&ONE태권도스쿨","tel":"031-634-1964","addr":"경기도 이천시 증포동 207-10번지","indutype":"학원 - 예·체능계학원","category":"study"},{"name":"피아노데이음악학원","tel":"031-636-0081","addr":"경기도 이천시 증포동 207-10번지 1층","indutype":"학원 - 예·체능계학원","category":"study"}]},{"lat":"37.290103865","long":"127.45740146","imageIndex":16,"items":[{"name":"NKIDS태권도스쿨","tel":"031-633-4988","addr":"경기도 이천시 증포동 78-15번지 3층","indutype":"학원 - 예·체능계학원","category":"study"},{"name":"라온어린이집[아이행복]","tel":"031-8011-2377","addr":"경기도 이천시 증포동 78-15번지","indutype":"학원 - 유아원","category":"study"},{"name":"엔키즈어린이집","tel":"031-635-7441","addr":"경기도 이천시 증포동 78-15번지","indutype":"학원 - 유아원","category":"study"},{"name":"엔키즈주식회사","tel":"031-631-7441","addr":"경기도 이천시 증포동 78-15번지","indutype":"학원 - 기타 교육기관","category":"study"},{"name":"이성민피아노교습소","tel":"031-631-4744","addr":"경기도 이천시 증포동 78-15번지 1층","indutype":"학원 - 예·체능계학원","category":"study"}]},{"lat":"37.286659196","long":"127.45812501","imageIndex":16,"items":[{"name":"가이젤","tel":"031-633-0584","addr":"경기도 이천시 증포동 121-5번지 2층","indutype":"학원 - 보습학원","category":"study"}]},{"lat":"37.295962594","long":"127.45685025","imageIndex":16,"items":[{"name":"거산학원","tel":"031-637-7707","addr":"경기도 이천시 증포동 215-7번지 우리타워 6층","indutype":"학원 - 보습학원","category":"study"},{"name":"다짐독서실","tel":"031-8011-9119","addr":"경기도 이천시 증포동 215-7번지 우리타워 4층 403,404호","indutype":"학원 - 독서실","category":"study"},{"name":"아수카일본어교실","tel":"031-632-1521","addr":"경기도 이천시 증포동 215-7번지 우리타워 4층 409호","indutype":"회원제형태 - 학원","category":"study"},{"name":"잉글리쉬무무보습학원","tel":"031-638-9905","addr":"경기도 이천시 증포동 215-7번지 410동 411호","indutype":"학원 - 보습학원","category":"study"}]},{"lat":"37.289383385","long":"127.45496127","imageIndex":16,"items":[{"name":"건강한 미래교육센터","tel":"031-637-2353","addr":"경기도 이천시 증포동 157-5번지 하니빌딩","indutype":"학원 - 기타 교육기관","category":"study"},{"name":"레고교육센터학원","tel":"031-631-8341","addr":"경기도 이천시 증포동 157-5번지 하나빌딩 2층","indutype":"학원 - 기타 교육기관","category":"study"},{"name":"어린왕자유니랭스미술영어학원","tel":"031-633-0955","addr":"경기도 이천시 증포동 157-5번지","indutype":"학원 - 보습학원","category":"study"}]},{"lat":"37.293239524","long":"127.45501818","imageIndex":16,"items":[{"name":"경원대 석사태권도","tel":"031-636-3365","addr":"경기도 이천시 증포동 210-5번지","indutype":"학원 - 예·체능계학원","category":"study"},{"name":"김효선음악학원","tel":"031-634-8088","addr":"경기도 이천시 증포동 210-5번지","indutype":"학원 - 예·체능계학원","category":"study"},{"name":"서울외대영어교습소","tel":"031-694-9501","addr":"경기도 이천시 증포동 210-5","indutype":"회원제형태 - 학원","category":"study"},{"name":"증포백상미술학원","tel":"031-635-8561","addr":"경기도 이천시 증포동 210-5번지","indutype":"학원 - 예·체능계학원","category":"study"}]},{"lat":"37.290438762","long":"127.44990409","imageIndex":16,"items":[{"name":"그림아트스튜디오이천증포학원","tel":"031-634-1398","addr":"경기도 이천시 증포동 362-59번지 3층","indutype":"학원 - 예·체능계학원","category":"study"},{"name":"수담고등수학학원","tel":"031-634-1312","addr":"경기도 이천시 증포동 362-59번지 3층","indutype":"학원 - 보습학원","category":"study"}]},{"lat":"37.295934752","long":"127.45470724","imageIndex":16,"items":[{"name":"그림이야기","tel":"031-634-8971","addr":"경기도 이천시 증포동 475번지 증포동한솔솔파크 202호","indutype":"학원 - 예·체능계학원","category":"study"},{"name":"숙명음악학원","tel":"","addr":"경기도 이천시 증포동 475번지 한솔솔파크 상가 2층 201호","indutype":"학원 - 예·체능계학원","category":"study"}]},{"lat":"37.290606008","long":"127.4533221","imageIndex":16,"items":[{"name":"금강어린이집[아이행복]","tel":"031-635-5084","addr":"경기도 이천시 증포동 180-3번지 금강유치원","indutype":"학원 - 유아원","category":"study"},{"name":"지예슬유치원[아이행복]","tel":"031-635-5084","addr":"경기도 이천시 증포동 180-3번지","indutype":"학원 - 유치원","category":"study"}]},{"lat":"37.293770164","long":"127.45526946","imageIndex":16,"items":[{"name":"김숙현피아노증포음악학원","tel":"031-634-1696","addr":"경기도 이천시 증포동 211-1번지 1층","indutype":"학원 - 예·체능계학원","category":"study"},{"name":"맥플러스수학교습소","tel":"031-637-7489","addr":"경기도 이천시 증포동 211-1번지 맥플러스수학교 2층 2호","indutype":"학원 - 보습학원","category":"study"},{"name":"박호창미술학원","tel":"031-634-5349","addr":"경기도 이천시 증포동 211-1번지 2층","indutype":"학원 - 예·체능계학원","category":"study"},{"name":"성문영재종합학원","tel":"031-636-4066","addr":"경기도 이천시 증포동 211-1번지 1,3층","indutype":"학원 - 보습학원","category":"study"},{"name":"줌스독서실","tel":"031-634-8558","addr":"경기도 이천시 증포동 211-1번지 4층","indutype":"학원 - 독서실","category":"study"},{"name":"푸른나무어린이집[아이행복]","tel":"031-634-1446","addr":"경기도 이천시 증포동 211-1번지 1층","indutype":"학원 - 유아원","category":"study"}]},{"lat":"37.296295313","long":"127.45702142","imageIndex":16,"items":[{"name":"대한특공무술고덕체육관","tel":"031-636-3009","addr":"경기도 이천시 증포동 215-2번지 1호","indutype":"학원 - 예·체능계학원","category":"study"}]},{"lat":"37.290106851","long":"127.45662335","imageIndex":16,"items":[{"name":"데이비드영어교습소","tel":"","addr":"경기도 이천시 증포동 164-4번지 1층 102호","indutype":"학원 - 외국어학원","category":"study"}]},{"lat":"37.28880076","long":"127.44701876","imageIndex":16,"items":[{"name":"라라음악학원","tel":"031-631-7974","addr":"경기도 이천시 증포동 351-9번지 증포로자벨프라자 1동 305호","indutype":"학원 - 예·체능계학원","category":"study"},{"name":"마마몽떼 이천센터","tel":"031-111-1111","addr":"경기도 이천시 증포동 351-9번지 303호","indutype":"학원 - 기타 교육기관","category":"study"},{"name":"한솔플러스영어수학바른학원","tel":"031-634-9807","addr":"경기도 이천시 증포동 351-9번지 3층 304호","indutype":"학원 - 보습학원","category":"study"}]},{"lat":"37.293822844","long":"127.45563067","imageIndex":16,"items":[{"name":"로뎀미술음악교습소","tel":"031-636-7030","addr":"경기도 이천시 증포동 210-1번지 흥인프라자 406호","indutype":"학원 - 예·체능계학원","category":"study"},{"name":"로뎀음악교습소","tel":"031-636-7030","addr":"경기도 이천시 증포동 210-1번지 흥인프라자 4층 406호","indutype":"학원 - 예·체능계학원","category":"study"},{"name":"리틀브러쉬심리미술교습소","tel":"031-634-0816","addr":"경기도 이천시 증포동 210-1번지 흥인프라자 502호","indutype":"학원 - 예·체능계학원","category":"study"},{"name":"뮤엠영어증포학원","tel":"031-637-7853","addr":"경기도 이천시 증포동 210-1번지 흥인프라자 6층 606호","indutype":"회원제형태 - 학원","category":"study"},{"name":"생각의깊이언송국어입시전문학원","tel":"031-638-2076","addr":"경기도 이천시 증포동 210-1번지 흥인프라자 203호","indutype":"학원 - 보습학원","category":"study"},{"name":"영수공감","tel":"031-633-8409","addr":"경기도 이천시 증포동 210-1번지 흥인프라자 604호","indutype":"회원제형태 - 학원","category":"study"},{"name":"예스증포영어학원","tel":"031-636-0910","addr":"경기도 이천시 증포동 210-1번지 흥인프라자 605호","indutype":"학원 - 외국어학원","category":"study"},{"name":"용인대태권도","tel":"031-637-3663","addr":"경기도 이천시 증포동 210-1번지 흥인프라자 201호","indutype":"학원 - 예·체능계학원","category":"study"},{"name":"웰(WELL)영어교습소","tel":"031-633-5046","addr":"경기도 이천시 증포동 210-1번지 흥인프라자 404호","indutype":"학원 - 외국어학원","category":"study"},{"name":"이지학원","tel":"031-632-6687","addr":"경기도 이천시 증포동 210-1번지 흥인프라자 3층 306호","indutype":"학원 - 보습학원","category":"study"},{"name":"증포삼성영어","tel":"031-638-2073","addr":"경기도 이천시 증포동 210-1번지 흥인프라자 205호","indutype":"학원 - 외국어학원","category":"study"},{"name":"하버드독서실","tel":"031-634-8666","addr":"경기도 이천시 증포동 210-1흥인프라자602호603호","indutype":"학원 - 독서실","category":"study"},{"name":"한국외대이천중국어교습소","tel":"070-5022-4846","addr":"경기도 이천시 증포동 210-1번지 601-2호","indutype":"학원 - 외국어학원","category":"study"},{"name":"해법프라임보습학원","tel":"031-633-6110","addr":"경기도 이천시 증포동 210-1번지 흥인프라자 504호","indutype":"학원 - 보습학원","category":"study"}]},{"lat":"37.289966961","long":"127.45076965","imageIndex":16,"items":[{"name":"메이저수학","tel":"031-632-8563","addr":"경기도 이천시 증포동 367-1번지 3층","indutype":"학원 - 보습학원","category":"study"},{"name":"캠든학원","tel":"031-633-3384","addr":"경기도 이천시 증포동 367-1번지 3층","indutype":"학원 - 보습학원","category":"study"}]},{"lat":"37.288300441","long":"127.45304899","imageIndex":16,"items":[{"name":"모아고시텔","tel":"031-631-4000","addr":"경기도 이천시 증포동 155-20번지","indutype":"학원 - 독서실","category":"study"}]},{"lat":"37.290184352","long":"127.45046645","imageIndex":16,"items":[{"name":"문태호수학교실교습소","tel":"031-635-9413","addr":"경기도 이천시 증포동 362-48번지 3층","indutype":"학원 - 보습학원","category":"study"},{"name":"뮤엠영어","tel":"031-631-0200","addr":"경기도 이천시 증포동 362-48번지","indutype":"학원 - 외국어학원","category":"study"}]},{"lat":"37.290356819","long":"127.44773837","imageIndex":16,"items":[{"name":"미래연수자인어린이집[아이행복]","tel":"031-637-2242","addr":"경기도 이천시 증포동 491번지 한양수자인아파트 5블록","indutype":"학원 - 유아원","category":"study"},{"name":"토킹스타영어교습소","tel":"031-694-9559","addr":"경기도 이천시 증포동 491번지 한양수자인아파트 5블록 202호","indutype":"학원 - 외국어학원","category":"study"}]},{"lat":"37.28937908","long":"127.4584346","imageIndex":16,"items":[{"name":"백상미술학원","tel":"031-637-3808","addr":"경기도 이천시 증포동 94-1번지 3층","indutype":"학원 - 예·체능계학원","category":"study"},{"name":"참소리피아노학원","tel":"031-633-7974","addr":"경기도 이천시 증포동 94-1번지 2층 참소리피아노학원","indutype":"학원 - 예·체능계학원","category":"study"},{"name":"토마토","tel":"031-638-3386","addr":"경기도 이천시 증포동 94-1번지","indutype":"학원 - 외국어학원","category":"study"}]},{"lat":"37.288802382","long":"127.45373988","imageIndex":16,"items":[{"name":"벨리향댄스학원","tel":"031-636-4447","addr":"경기도 이천시 증포동 155-11번지","indutype":"학원 - 예·체능계학원","category":"study"}]},{"lat":"37.288850607","long":"127.46228815","imageIndex":16,"items":[{"name":"비전플러스보습학원","tel":"031-638-8215","addr":"경기도 이천시 증포동 109-1번지 3층 2호","indutype":"학원 - 기타 교육기관","category":"study"},{"name":"행복나무음악학원","tel":"031-638-0933","addr":"경기도 이천시 증포동 109-1번지 4층","indutype":"학원 - 예·체능계학원","category":"study"}]},{"lat":"37.28932546","long":"127.46065586","imageIndex":16,"items":[{"name":"빨간펜수학의달인교습소","tel":"031-637-6162","addr":"경기도 이천시 증포동 105번지","indutype":"회원제형태 - 학원","category":"study"}]},{"lat":"37.286546152","long":"127.44996","imageIndex":16,"items":[{"name":"빽쌤수학교습소","tel":"070-7420-9201","addr":"경기도 이천시 증포동 375-25번지 201호","indutype":"학원 - 보습학원","category":"study"}]},{"lat":"37.288852113","long":"127.4595704","imageIndex":16,"items":[{"name":"소리모아음악학원","tel":"031-638-5072","addr":"경기도 이천시 증포동 101-5번지 2층","indutype":"학원 - 예·체능계학원","category":"study"}]},{"lat":"37.295327522","long":"127.45798551","imageIndex":16,"items":[{"name":"소울실용음악학원","tel":"031-638-4070","addr":"경기도 이천시 증포동 49-8번지 신세기타운 A동 401호","indutype":"회원제형태 - 학원","category":"study"}]},{"lat":"37.286937772","long":"127.45123659","imageIndex":16,"items":[{"name":"수학1번가자유자재수학학원","tel":"031-635-0314","addr":"경기도 이천시 증포동 377-10번지 2층","indutype":"학원 - 보습학원","category":"study"}]},{"lat":"37.287968459","long":"127.45739989","imageIndex":16,"items":[{"name":"슈필렌음악학원","tel":"031-636-3307","addr":"경기도 이천시 증포동 94-3.신한@상가303호","indutype":"학원 - 예·체능계학원","category":"study"},{"name":"조윤주영어학원","tel":"031-631-2669","addr":"경기도 이천시 증포동 94-3번지 신한아파트 206동 207호","indutype":"학원 - 외국어학원","category":"study"}]},{"lat":"37.287188737","long":"127.45395579","imageIndex":16,"items":[{"name":"쌤과통하는수학학원","tel":"031-635-7796","addr":"경기도 이천시 증포동 135-6번지 2층","indutype":"학원 - 보습학원","category":"study"}]},{"lat":"37.287942142","long":"127.45249429","imageIndex":16,"items":[{"name":"쎄듀영어학원","tel":"031-638-7016","addr":"경기도 이천시 증포동 146-1번지 3층","indutype":"학원 - 보습학원","category":"study"}]},{"lat":"37.294363183","long":"127.45570157","imageIndex":16,"items":[{"name":"아소비교육원 이천증포점","tel":"","addr":"경기도 이천시 증포동 478번지 한솔솔파크 201동 1003호","indutype":"학원 - 기타 교육기관","category":"study"}]},{"lat":"37.285218914","long":"127.45068512","imageIndex":16,"items":[{"name":"아이엠수학학원","tel":"031-634-2181","addr":"경기도 이천시 증포동 386-11번지 2층","indutype":"회원제형태 - 학원","category":"study"}]},{"lat":"37.287574659","long":"127.45198464","imageIndex":16,"items":[{"name":"에듀케이EVS수학영재외국어보습학원","tel":"031-634-4742","addr":"경기도 이천시 증포동 381번지","indutype":"학원 - 외국어학원","category":"study"},{"name":"페트라실용음악학원","tel":"031-631-2473","addr":"경기도 이천시 증포동 381번지","indutype":"학원 - 예·체능계학원","category":"study"}]},{"lat":"37.294689008","long":"127.45532008","imageIndex":16,"items":[{"name":"에이스탑학원","tel":"031-637-4697","addr":"경기도 이천시 증포동 212번지","indutype":"회원제형태 - 학원","category":"study"}]},{"lat":"37.285962984","long":"127.45168187","imageIndex":16,"items":[{"name":"엠씨수학학원","tel":"031-633-4863","addr":"경기도 이천시 증포동 142번지 2층 201호","indutype":"학원 - 보습학원","category":"study"}]},{"lat":"37.28885585","long":"127.4586006","imageIndex":16,"items":[{"name":"유나이티드 다온 태권도장","tel":"031-637-4577","addr":"경기도 이천시 증포동 93-1번지 1동 2층 202호","indutype":"학원 - 예·체능계학원","category":"study"}]},{"lat":"37.289358051","long":"127.46154695","imageIndex":16,"items":[{"name":"윤선생영어아이지에스이한내학원","tel":"031-631-0509","addr":"경기도 이천시 증포동 104-7번지 3층","indutype":"학원 - 보습학원","category":"study"},{"name":"한내태권도","tel":"031-635-4111","addr":"경기도 이천시 증포동 104-7번지 2층","indutype":"학원 - 예·체능계학원","category":"study"},{"name":"한내피아노학원","tel":"031-632-0181","addr":"경기도 이천시 증포동 104-7번지 1층","indutype":"학원 - 예·체능계학원","category":"study"}]},{"lat":"37.287913927","long":"127.44803975","imageIndex":16,"items":[{"name":"이천고등학교","tel":"031-645-0800","addr":"경기도 이천시 증포동 402번지 이천고등학교","indutype":"학원 - 초중고교육기관","category":"study"}]},{"lat":"37.289357089","long":"127.46179504","imageIndex":16,"items":[{"name":"정민피아노교습소","tel":"080-8835-5656","addr":"경기도 이천시 증포동 104-10번지","indutype":"학원 - 예·체능계학원","category":"study"},{"name":"한솔플러스 영어수학 한내학원","tel":"031-631-0519","addr":"경기도 이천시 증포동 104-10번지 1층","indutype":"학원 - 보습학원","category":"study"},{"name":"효음바이올린교습소","tel":"","addr":"경기도 이천시 증포동 104-10번지 1층","indutype":"학원 - 예·체능계학원","category":"study"}]},{"lat":"37.297303347","long":"127.45730944","imageIndex":16,"items":[{"name":"정상아카데미","tel":"031-637-0509","addr":"경기도 이천시 증포동 479번지 한솔솔파크 301동 101호","indutype":"학원 - 기타 교육기관","category":"study"}]},{"lat":"37.286743946","long":"127.45007394","imageIndex":16,"items":[{"name":"제이아이에스어학원","tel":"031-631-5740","addr":"경기도 이천시 증포동 375-23번지 3층","indutype":"학원 - 외국어학원","category":"study"}]},{"lat":"37.288238872","long":"127.45265393","imageIndex":16,"items":[{"name":"종로엠학원","tel":"031-631-8811","addr":"경기도 이천시 증포동 152-4번지 3층","indutype":"학원 - 보습학원","category":"study"}]},{"lat":"37.287659894","long":"127.45562757","imageIndex":16,"items":[{"name":"증포중학교","tel":"031-638-2736","addr":"경기도 이천시 증포동 476번지 증포중학교","indutype":"학원 - 초중고교육기관","category":"study"}]},{"lat":"37.293881033","long":"127.45690541","imageIndex":16,"items":[{"name":"증포초등학교","tel":"031-637-2064","addr":"경기도 이천시 증포동 477번지 증포초등학교","indutype":"학원 - 초중고교육기관","category":"study"},{"name":"증포초병설유치원[아이행복]","tel":"031-637-2065","addr":"경기도 이천시 증포동 477번지","indutype":"학원 - 유치원","category":"study"}]},{"lat":"37.287852833","long":"127.4593501","imageIndex":16,"items":[{"name":"지오숲어린이집[아이행복]","tel":"031-633-7525","addr":"경기도 이천시 증포동 486번지 센트럴푸르지오 관리동","indutype":"학원 - 유아원","category":"study"},{"name":"한솔플러스 푸르지오3차","tel":"070-4922-1261","addr":"경기도 이천시 증포동 486번지 센트럴푸르지오 107동 1604호","indutype":"학원 - 기타 교육기관","category":"study"}]},{"lat":"37.286771912","long":"127.44982602","imageIndex":16,"items":[{"name":"진국어학원","tel":"070-8615-8799","addr":"경기도 이천시 증포동 375-14번지 401-1호","indutype":"학원 - 보습학원","category":"study"}]},{"lat":"37.290663792","long":"127.45470955","imageIndex":16,"items":[{"name":"참소리음악미술학원","tel":"031-636-7982","addr":"경기도 이천시 증포동 177-9번지","indutype":"학원 - 예·체능계학원","category":"study"}]},{"lat":"37.289378342","long":"127.4586263","imageIndex":16,"items":[{"name":"코코쌤의 놀이수학학원","tel":"","addr":"경기도 이천시 증포동 93-4번지 3층","indutype":"학원 - 보습학원","category":"study"},{"name":"크리아트창의미술학원","tel":"","addr":"경기도 이천시 증포동 93-4번지","indutype":"학원 - 예·체능계학원","category":"study"},{"name":"하바놀이어린이집[아이행복]","tel":"031-635-5511","addr":"경기도 이천시 증포동 93-4번지","indutype":"학원 - 유아원","category":"study"}]},{"lat":"37.289740132","long":"127.45118556","imageIndex":16,"items":[{"name":"프랜즈어학원","tel":"031-635-1304","addr":"경기도 이천시 증포동 371번지 2층","indutype":"학원 - 외국어학원","category":"study"}]},{"lat":"37.28966268","long":"127.45731987","imageIndex":16,"items":[{"name":"프리미엄영어학원","tel":"031-633-1990","addr":"경기도 이천시 증포동 165-2번지 1동 202호","indutype":"학원 - 외국어학원","category":"study"}]},{"lat":"37.297488637","long":"127.45362254","imageIndex":16,"items":[{"name":"하늘빛어린이집","tel":"031-631-7145","addr":"경기도 이천시 증포동 234-25번지","indutype":"학원 - 유아원","category":"study"},{"name":"하늘빛어린이집[아이행복]","tel":"031-631-7144","addr":"경기도 이천시 증포동 234-25번지","indutype":"학원 - 유아원","category":"study"}]},{"lat":"37.290052299","long":"127.46142711","imageIndex":16,"items":[{"name":"한내초등학교","tel":"031-636-9384","addr":"경기도 이천시 증포동 70-5번지 한내초등학교","indutype":"학원 - 초중고교육기관","category":"study"},{"name":"한내초등학교병설유치원[아이행복]","tel":"031-636-9384","addr":"경기도 이천시 증포동 70-5번지 한내초등학교","indutype":"학원 - 유치원","category":"study"}]},{"lat":"37.292885592","long":"127.45568144","imageIndex":16,"items":[{"name":"한솔플러스수학교습소","tel":"031-631-5578","addr":"경기도 이천시 증포동 202-2 2층","indutype":"학원 - 보습학원","category":"study"}]}]