[{"lat":"37.801067398","long":"127.34540254","imageIndex":4,"items":[{"name":"김가네잣두부","tel":"031-584-2957","addr":"경기도 가평군 상면 연하리 439-2번지","indutype":"일반휴게음식 - 일반한식","category":"restaurant"}]},{"lat":"37.805038427","long":"127.35528846","imageIndex":4,"items":[{"name":"속초 닭강정","tel":"031-584-3156","addr":"경기도 가평군 상면 연하리 179-18번지 1층","indutype":"일반휴게음식 - 일반한식","category":"restaurant"}]},{"lat":"37.806238446","long":"127.35770148","imageIndex":4,"items":[{"name":"쌈밥수라상","tel":"031-585-0902","addr":"경기도 가평군 상면 연하리 175-1번지","indutype":"일반휴게음식 - 일반한식","category":"restaurant"}]},{"lat":"37.788761664","long":"127.34809307","imageIndex":4,"items":[{"name":"아지랑이","tel":"031-585-5565","addr":"경기도 가평군 상면 연하리 309-9번지","indutype":"일반휴게음식 - 일반한식","category":"restaurant"}]},{"lat":"37.805264246","long":"127.35809425","imageIndex":4,"items":[{"name":"연인산 식당","tel":"031-585-9801","addr":"경기도 가평군 상면 연하리 14-5번지","indutype":"일반휴게음식 - 일반한식","category":"restaurant"}]},{"lat":"37.805181896","long":"127.35551625","imageIndex":4,"items":[{"name":"요리1번지곰탕","tel":"031-585-4542","addr":"경기도 가평군 상면 연하리 179-10번지","indutype":"일반휴게음식 - 일반한식","category":"restaurant"},{"name":"요리일번지","tel":"031-585-3704","addr":"경기도 가평군 상면 연하리 179-10","indutype":"일반휴게음식 - 일반한식","category":"restaurant"}]},{"lat":"37.805180501","long":"127.3559818","imageIndex":4,"items":[{"name":"이모네소머리국밥","tel":"031-585-6436","addr":"경기도 가평군 상면 연하리 180-4번지","indutype":"일반휴게음식 - 일반한식","category":"restaurant"}]},{"lat":"37.80492899","long":"127.35573079","imageIndex":4,"items":[{"name":"일번지 뼈 해장국","tel":"031-585-4245","addr":"경기도 가평군 상면 연하리 181-6번지","indutype":"일반휴게음식 - 일반한식","category":"restaurant"}]},{"lat":"37.805147353","long":"127.35501646","imageIndex":4,"items":[{"name":"황소가든 정육점식당","tel":"031-585-8955","addr":"경기도 가평군 상면 연하리 186-17번지","indutype":"일반휴게음식 - 일반한식","category":"restaurant"}]}]