[{"lat":"37.122418962","long":"126.9947015","imageIndex":0,"items":[{"name":"24시 출장 밧데리마트","tel":"031-354-1124","addr":"경기도 화성시 양감면 송산리 11-2번지 1층","indutype":"자동차정비 유지 - 자동차부품","category":"car"}]},{"lat":"37.119695204","long":"126.97682239","imageIndex":0,"items":[{"name":"GS&C(지에스앤씨)","tel":"031-354-1274","addr":"경기도 화성시 양감면 송산리 258-43번지","indutype":"자동차정비 유지 - 자동차부품","category":"car"}]},{"lat":"37.106676941","long":"126.98812191","imageIndex":0,"items":[{"name":"대성자동차공업사","tel":"031-8059-5319","addr":"경기도 화성시 양감면 송산리 460-3","indutype":"자동차정비 유지 - 자동차부품","category":"car"},{"name":"신화카센타","tel":"031-353-5715","addr":"경기도 화성시 양감면 송산리 460-3번지","indutype":"자동차정비 유지 - 자동차정비","category":"car"}]},{"lat":"37.122896586","long":"126.99573668","imageIndex":0,"items":[{"name":"대성종합카센타","tel":"031-352-8975","addr":"경기도 화성시 양감면 송산리 5-17번지","indutype":"자동차정비 유지 - 자동차정비","category":"car"}]},{"lat":"37.117669059","long":"126.98314653","imageIndex":0,"items":[{"name":"송산손세차장","tel":"","addr":"경기도 화성시 양감면 송산리 232번지","indutype":"자동차정비 유지 - 세차장","category":"car"}]},{"lat":"37.105036812","long":"126.98651351","imageIndex":0,"items":[{"name":"양감 송산 밋션","tel":"031-353-0885","addr":"경기도 화성시 양감면 송산리 711-1번지","indutype":"자동차정비 유지 - 자동차부품","category":"car"}]},{"lat":"37.122446038","long":"126.99537664","imageIndex":0,"items":[{"name":"양감전자","tel":"031-353-2358","addr":"경기도 화성시 양감면 송산리 5-25번지","indutype":"자동차정비 유지 - 자동차부품","category":"car"},{"name":"타이어티스토어","tel":"031-352-7778","addr":"경기도 화성시 양감면 송산리 5-25번지","indutype":"자동차정비 유지 - 자동차시트·타이어","category":"car"}]},{"lat":"37.118200515","long":"126.98217874","imageIndex":0,"items":[{"name":"우성호이스트디자인","tel":"031-354-4797","addr":"경기도 화성시 양감면 송산리 238-9번지 C동","indutype":"자동차판매 - 기타운송","category":"car"}]}]