[{"lat":"37.396446217","long":"126.94890035","imageIndex":4,"items":[{"name":"(주)우담/봉구스밥버거(비산동샛별점)","tel":"031-383-6279","addr":"경기도 안양시 동안구 달안로","indutype":"일반휴게음식 - 스넥","category":"restaurant"},{"name":"라떼야(평촌샛별점)","tel":"031-381-8233","addr":"경기도 안양시 동안구 달안로","indutype":"일반휴게음식 - 서양음식","category":"restaurant"},{"name":"수라청","tel":"031-388-9252","addr":"경기도 안양시 동안구 달안로","indutype":"일반휴게음식 - 일반한식","category":"restaurant"},{"name":"촌닭숯불바베큐","tel":"031-452-4541","addr":"경기도 안양시 동안구 달안로","indutype":"일반휴게음식 - 스넥","category":"restaurant"}]},{"lat":"37.396250512","long":"126.95472778","imageIndex":17,"items":[{"name":"LG종합인테리어","tel":"031-387-2731","addr":"경기도 안양시 동안구 달안로","indutype":"건축자재 - 인테리어전문","category":"other"}]},{"lat":"37.395996263","long":"126.95012033","imageIndex":17,"items":[{"name":"달안동 주민자치위원회","tel":"031-8045-4648","addr":"경기도 안양시 동안구 달안로","indutype":"문화.취미 - 문화취미기타","category":"other"}]},{"lat":"37.395348148","long":"126.95150983","imageIndex":17,"items":[{"name":"에리스(Arles)","tel":"031-399-8735","addr":"경기도 안양시 동안구 달안로","indutype":"회원제형태 - 기타3","category":"other"}]},{"lat":"37.396647275","long":"126.95551805","imageIndex":17,"items":[{"name":"하나정보","tel":"031-341-9697","addr":"경기도 안양시 동안구 달안로","indutype":"회원제형태 - 기타1","category":"other"}]},{"lat":"37.396636645","long":"126.95163318","imageIndex":17,"items":[{"name":"황제제복","tel":"031-3633-6907","addr":"경기도 안양시 동안구 달안로","indutype":"회원제형태 - 기타4","category":"other"}]},{"lat":"37.396475815","long":"126.95485186","imageIndex":16,"items":[{"name":"꿈예랑어린이집[아이행복]","tel":"031-381-1117","addr":"경기도 안양시 동안구 달안로","indutype":"학원 - 유아원","category":"study"}]},{"lat":"37.39969382","long":"126.95844121","imageIndex":16,"items":[{"name":"아이숲어린이집[아이행복]","tel":"031-476-9111","addr":"경기도 안양시 동안구 달안로","indutype":"학원 - 유아원","category":"study"}]},{"lat":"37.39717607","long":"126.94897888","imageIndex":16,"items":[{"name":"은가비어린이집[아이행복]","tel":"031-476-0202","addr":"경기도 안양시 동안구 달안로","indutype":"학원 - 유아원","category":"study"}]}]