[{"lat":"37.174670421","long":"127.05047857","imageIndex":4,"items":[{"name":"24시누름돌생고기김치찌개세교점","tel":"031-378-8885","addr":"경기도 오산시 금암동 502-4번지 105,106호","indutype":"일반휴게음식 - 일반한식","category":"restaurant"},{"name":"미스사이공오산세교점","tel":"031-376-3420","addr":"경기도 오산시 금암동 502-4번지 삼성프라자 107,108호","indutype":"일반휴게음식 - 서양음식","category":"restaurant"},{"name":"한솥도시락 세교점","tel":"031-376-1038","addr":"경기도 오산시 금암동 502-4번지 세교삼성프라자 102호","indutype":"일반휴게음식 - 일반한식","category":"restaurant"}]},{"lat":"37.174418043","long":"127.05069235","imageIndex":4,"items":[{"name":"59쌀피자(오산세교점)","tel":"031-377-5919","addr":"경기도 오산시 금암동 502-5번지 인피니트타워 1층 109호","indutype":"일반휴게음식 - 서양음식","category":"restaurant"},{"name":"꿀마니닭강정","tel":"","addr":"경기도 오산시 금암동 502-5번지 인피니트타워 1층 109호","indutype":"일반휴게음식 - 일반한식","category":"restaurant"},{"name":"또봉이통닭세교점","tel":"031-226-1212","addr":"경기도 오산시 금암동 502-5번지 인피니트타워 107호","indutype":"일반휴게음식 - 일반한식","category":"restaurant"},{"name":"바른생갈비세교점","tel":"031-372-9271","addr":"경기도 오산시 금암동 502-5번지 인피니트타워2층201호,202호 2층","indutype":"일반휴게음식 - 일반한식","category":"restaurant"},{"name":"백화원 양곱창","tel":"031-378-7979","addr":"경기도 오산시 금암동 502-5번지 인피니트타워","indutype":"일반휴게음식 - 일반한식","category":"restaurant"},{"name":"불닭발땡초동대문엽기떡볶이오산세교점","tel":"031-373-8592","addr":"경기도 오산시 금암동 502-5번지 인피니트타워 103호","indutype":"일반휴게음식 - 일반한식","category":"restaurant"},{"name":"스시사까에세교점","tel":"031-377-2434","addr":"경기도 오산시 금암동 502-5번지 인피니트타워 1층 110호","indutype":"일반휴게음식 - 일식·회집","category":"restaurant"},{"name":"제주오겹살왕돌판구이","tel":"031-378-5025","addr":"경기도 오산시 금암동 502-5번지 인피니트타워 108호","indutype":"일반휴게음식 - 일반한식","category":"restaurant"},{"name":"펀펀점핑키즈카페","tel":"031-377-2866","addr":"경기도 오산시 금암동 502-5번지 인피니트타워 303호,304호","indutype":"일반휴게음식 - 서양음식","category":"restaurant"}]},{"lat":"37.175193238","long":"127.04994966","imageIndex":4,"items":[{"name":"60계치킨 세교궐동점","tel":"031-377-6082","addr":"경기도 오산시 금암동 502-1번지 1층 105호","indutype":"일반휴게음식 - 스넥","category":"restaurant"},{"name":"배부장찌개 세교점","tel":"031-372-8851","addr":"경기도 오산시 금암동 502-1번지 110호","indutype":"일반휴게음식 - 일반한식","category":"restaurant"},{"name":"어가반상","tel":"031-377-9592","addr":"경기도 오산시 금암동 502-1번지 203호","indutype":"일반휴게음식 - 일반한식","category":"restaurant"},{"name":"주앤차이","tel":"031-1111-1111","addr":"경기도 오산시 금암동 502-1번지 204,205호","indutype":"일반휴게음식 - 중국식","category":"restaurant"}]},{"lat":"37.175138649","long":"127.05125581","imageIndex":4,"items":[{"name":"79대포오산세교점","tel":"070-8882-2684","addr":"경기도 오산시 금암동 500-5번지 109,110호","indutype":"일반휴게음식 - 일반한식","category":"restaurant"},{"name":"모해","tel":"031-000-0000","addr":"경기도 오산시 금암동 500-5번지 101호102호","indutype":"일반휴게음식 - 일반한식","category":"restaurant"},{"name":"방가","tel":"031-376-0405","addr":"경기도 오산시 금암동 500-5번지 108,111호","indutype":"일반휴게음식 - 일반한식","category":"restaurant"},{"name":"사쿠(SAKU)","tel":"070-4234-1681","addr":"경기도 오산시 금암동 500-5번지 1층","indutype":"일반휴게음식 - 일식·회집","category":"restaurant"},{"name":"어사출또","tel":"031-373-9207","addr":"경기도 오산시 금암동 500-5번지 1층 105, 106호","indutype":"일반휴게음식 - 일반한식","category":"restaurant"},{"name":"일품양평해장국","tel":"","addr":"경기도 오산시 금암동 500-5번지 1층","indutype":"일반휴게음식 - 일반한식","category":"restaurant"},{"name":"짝태패밀리오산세교점","tel":"031-372-9953","addr":"경기도 오산시 금암동 500-5번지 1층","indutype":"일반휴게음식 - 주점","category":"restaurant"}]},{"lat":"37.17511191","long":"127.05053514","imageIndex":4,"items":[{"name":"가장맛있는족발오산세교점","tel":"031-376-5849","addr":"경기도 오산시 금암동 501-1번지 상지빌딩 1층","indutype":"일반휴게음식 - 일반한식","category":"restaurant"}]},{"lat":"37.17675042","long":"127.05386926","imageIndex":4,"items":[{"name":"강릉궁짬뽕","tel":"031-376-6576","addr":"경기도 오산시 금암동 493-8번지","indutype":"일반휴게음식 - 중국식","category":"restaurant"}]},{"lat":"37.17727628","long":"127.04563818","imageIndex":4,"items":[{"name":"고봉민김밥(오산세교점)","tel":"031-378-3070","addr":"경기도 오산시 금암동 512-4번지 1층 106호 롯데슈퍼","indutype":"일반휴게음식 - 일반한식","category":"restaurant"}]},{"lat":"37.176447539","long":"127.04502965","imageIndex":4,"items":[{"name":"국수나무세교점","tel":"031-372-2731","addr":"경기도 오산시 금암동 516-3번지 백현프라자 1층 104호","indutype":"일반휴게음식 - 스넥","category":"restaurant"},{"name":"김밥천국세교점","tel":"031-372-3380","addr":"경기도 오산시 금암동 516-3번지 백현프라자 106호","indutype":"일반휴게음식 - 스넥","category":"restaurant"},{"name":"메가엠지씨커피오산세교점","tel":"","addr":"경기도 오산시 금암동 516-3번지 백현프라자 1층 105호","indutype":"일반휴게음식 - 서양음식","category":"restaurant"},{"name":"본죽앤비빔밥","tel":"031-376-6288","addr":"경기도 오산시 금암동 516-3번지 백현프라자 103호","indutype":"일반휴게음식 - 일반한식","category":"restaurant"},{"name":"세교쭈꾸미","tel":"031-378-2324","addr":"경기도 오산시 금암동 516-3번지 백현프라자 204,205호","indutype":"일반휴게음식 - 일반한식","category":"restaurant"},{"name":"자매곱창","tel":"031-375-0660","addr":"경기도 오산시 금암동 516-3번지 백현프라자 2층 204호","indutype":"일반휴게음식 - 일반한식","category":"restaurant"},{"name":"청기와감자탕","tel":"031-377-0331","addr":"경기도 오산시 금암동 516-3번지 백현프라자 203호","indutype":"일반휴게음식 - 일반한식","category":"restaurant"}]},{"lat":"37.176858584","long":"127.05377925","imageIndex":4,"items":[{"name":"까로치아 세교점","tel":"031-372-4804","addr":"경기도 오산시 금암동 493-9번지 1층","indutype":"일반휴게음식 - 서양음식","category":"restaurant"}]},{"lat":"37.174967887","long":"127.05017473","imageIndex":4,"items":[{"name":"나오미키친","tel":"031-376-1855","addr":"경기도 오산시 금암동 502-2번지 무한메디컬빌딩","indutype":"일반휴게음식 - 스넥","category":"restaurant"},{"name":"린바","tel":"02-1111-1111","addr":"경기도 오산시 금암동 502-2번지 무한메디컬빌딩 402호","indutype":"일반휴게음식 - 일반한식","category":"restaurant"},{"name":"신불떡볶이","tel":"031-372-0094","addr":"경기도 오산시 금암동 502-2번지 무한메디컬빌딩 103호","indutype":"일반휴게음식 - 일반한식","category":"restaurant"},{"name":"요거프레소(YOGERPRESSO)오산세교점","tel":"","addr":"경기도 오산시 금암동 502-2번지 1층 102호","indutype":"일반휴게음식 - 서양음식","category":"restaurant"},{"name":"큰맘할매순대국세교점","tel":"031-373-1239","addr":"경기도 오산시 금암동 502-2번지 무한메디컬빌딩 108호","indutype":"일반휴게음식 - 일반한식","category":"restaurant"},{"name":"홍대불닭발세교점","tel":"031-373-5165","addr":"경기도 오산시 금암동 502-2번지 무한메디컬빌딩 110호","indutype":"일반휴게음식 - 일반한식","category":"restaurant"},{"name":"화성옥","tel":"031-374-2504","addr":"경기도 오산시 금암동 502-2번지 무한메디컬빌딩","indutype":"일반휴게음식 - 일반한식","category":"restaurant"}]},{"lat":"37.17635753","long":"127.04475935","imageIndex":4,"items":[{"name":"남가교동짬뽕","tel":"","addr":"경기도 오산시 금암동 516-2번지 정원프라자 1층 102호","indutype":"일반휴게음식 - 중국식","category":"restaurant"},{"name":"사쿠사쿠금암점","tel":"031-372-9599","addr":"경기도 오산시 금암동 516-2번지 정원프라자 1층 108호","indutype":"일반휴게음식 - 스넥","category":"restaurant"},{"name":"세교참숯화로구이","tel":"031-378-4684","addr":"경기도 오산시 금암동 516-2번지 정원프라자 304호","indutype":"일반휴게음식 - 일반한식","category":"restaurant"},{"name":"커피에반하다 오산세교점","tel":"031-377-3830","addr":"경기도 오산시 금암동 516-2번지 정원프라자 109호","indutype":"일반휴게음식 - 서양음식","category":"restaurant"},{"name":"포메인오산세교점","tel":"031-378-7742","addr":"경기도 오산시 금암동 516-2번지 정원프라자 201호","indutype":"일반휴게음식 - 서양음식","category":"restaurant"},{"name":"피엠푸드오산세교점","tel":"031-8003-0700","addr":"경기도 오산시 금암동 516-2번지 정원프라자 107호","indutype":"일반휴게음식 - 서양음식","category":"restaurant"},{"name":"허니닭강정","tel":"031-376-5676","addr":"경기도 오산시 금암동 516-2번지 정원프라자 106호","indutype":"일반휴게음식 - 스넥","category":"restaurant"}]},{"lat":"37.175391337","long":"127.05027633","imageIndex":4,"items":[{"name":"내일도 청춘갈매기","tel":"031-375-0813","addr":"경기도 오산시 금암동 500-1번지 1층 106~107호","indutype":"일반휴게음식 - 일반한식","category":"restaurant"},{"name":"번개막창","tel":"031-223-5214","addr":"경기도 오산시 금암동 500-1번지 102-2호","indutype":"일반휴게음식 - 일반한식","category":"restaurant"},{"name":"신미양꼬치","tel":"031-373-1578","addr":"경기도 오산시 금암동 500-1번지 108,109호","indutype":"일반휴게음식 - 중국식","category":"restaurant"},{"name":"하이루","tel":"031-222-0357","addr":"경기도 오산시 금암동 500-1번지 웅신프라자 101호","indutype":"일반휴게음식 - 일식·회집","category":"restaurant"}]},{"lat":"37.175219971","long":"127.05069286","imageIndex":4,"items":[{"name":"냉동삼겹살","tel":"031-0000-0000","addr":"경기도 오산시 금암동 501-2번지 1층 101호","indutype":"일반휴게음식 - 일반한식","category":"restaurant"},{"name":"죽이야기 세교점","tel":"031-372-6281","addr":"경기도 오산시 금암동 501-2번지 106호","indutype":"일반휴게음식 - 일반한식","category":"restaurant"},{"name":"철뚝집 오산세교점","tel":"031-375-1312","addr":"경기도 오산시 금암동 501-2번지 102,103호","indutype":"일반휴게음식 - 일반한식","category":"restaurant"}]},{"lat":"37.174859532","long":"127.05074893","imageIndex":4,"items":[{"name":"노가리앤비어 세교점","tel":"","addr":"경기도 오산시 금암동 501-4번지 1층","indutype":"일반휴게음식 - 일반한식","category":"restaurant"},{"name":"띵똥와플오산세교점","tel":"031-378-7557","addr":"경기도 오산시 금암동 501-4번지 1층","indutype":"일반휴게음식 - 서양음식","category":"restaurant"},{"name":"수원신닭발세교점","tel":"031-375-0020","addr":"경기도 오산시 금암동 501-4번지","indutype":"일반휴게음식 - 일반한식","category":"restaurant"},{"name":"태영생막창금암점","tel":"031-376-1922","addr":"경기도 오산시 금암동 501-4번지 1층","indutype":"일반휴게음식 - 일반한식","category":"restaurant"},{"name":"피자공방","tel":"031-377-4627","addr":"경기도 오산시 금암동 501-4번지 202호","indutype":"일반휴게음식 - 서양음식","category":"restaurant"}]},{"lat":"37.174967589","long":"127.0509179","imageIndex":4,"items":[{"name":"더맛구이구이쪽갈비","tel":"031-372-0192","addr":"경기도 오산시 금암동 501-3번지 103,104","indutype":"일반휴게음식 - 일반한식","category":"restaurant"},{"name":"이번지깡통집","tel":"031-9427-3281","addr":"경기도 오산시 금암동 501-3번지 1층 101,102호","indutype":"일반휴게음식 - 일반한식","category":"restaurant"},{"name":"커피위드(COFEEWITH)","tel":"031-377-7511","addr":"경기도 오산시 금암동 501-3번지 1층","indutype":"일반휴게음식 - 서양음식","category":"restaurant"}]},{"lat":"37.176528532","long":"127.0453112","imageIndex":4,"items":[{"name":"도쿄빙수오산세교점","tel":"031-375-6662","addr":"경기도 오산시 금암동 516-4번지 P&P세교프라자 205호","indutype":"일반휴게음식 - 서양음식","category":"restaurant"},{"name":"쥬씨 세교점","tel":"031-374-5211","addr":"경기도 오산시 금암동 516-4번지 P&P세교프라자 1층 105호","indutype":"일반휴게음식 - 서양음식","category":"restaurant"},{"name":"카페플라타너스오산세교점","tel":"031-375-1017","addr":"경기도 오산시 금암동 516-4번지 P&P세교프라자 1층 101호","indutype":"일반휴게음식 - 서양음식","category":"restaurant"}]},{"lat":"37.174751192","long":"127.05127809","imageIndex":4,"items":[{"name":"디저트39 오산세교점","tel":"031-376-6439","addr":"경기도 오산시 금암동 503-2번지 1층 121호","indutype":"일반휴게음식 - 일반한식","category":"restaurant"},{"name":"반값소세교점","tel":"031-373-8188","addr":"경기도 오산시 금암동 503-2번지 지플레이스세교 204,205,206호","indutype":"일반휴게음식 - 일반한식","category":"restaurant"},{"name":"본도시락 오산세교점","tel":"031-374-4281","addr":"경기도 오산시 금암동 503-2번지 108호","indutype":"일반휴게음식 - 스넥","category":"restaurant"},{"name":"온차이나","tel":"","addr":"경기도 오산시 금암동 503-2번지 203호","indutype":"일반휴게음식 - 중국식","category":"restaurant"},{"name":"이삭토스트세교점","tel":"031-373-2102","addr":"경기도 오산시 금암동 503-2번지 1층 118호","indutype":"일반휴게음식 - 일반한식","category":"restaurant"},{"name":"카페비은","tel":"","addr":"경기도 오산시 금암동 503-2번지 지플레이스 1층 117호","indutype":"일반휴게음식 - 서양음식","category":"restaurant"},{"name":"킹콩쥬스엔청춘핫도그 (오산금암점)","tel":"031-111-1111","addr":"경기도 오산시 금암동 503-2번지 지플레이스세교상가 1층 119호","indutype":"일반휴게음식 - 서양음식","category":"restaurant"},{"name":"투썸플레이스 오산세교점","tel":"031-373-3100","addr":"경기도 오산시 금암동 503-2번지 G플레이스 103호 ,104,201,202호","indutype":"일반휴게음식 - 서양음식","category":"restaurant"},{"name":"홍춘천치즈닭갈비 오산세교점","tel":"031-378-9989","addr":"경기도 오산시 금암동 503-2번지 1층 120호","indutype":"일반휴게음식 - 일반한식","category":"restaurant"}]},{"lat":"37.177083927","long":"127.05358798","imageIndex":4,"items":[{"name":"마미스푼","tel":"031-372-1826","addr":"경기도 오산시 금암동 493-1번지 1층","indutype":"일반휴게음식 - 일반한식","category":"restaurant"}]},{"lat":"37.176858321","long":"127.05438732","imageIndex":4,"items":[{"name":"명태본가","tel":"031-000-0000","addr":"경기도 오산시 금암동 492-7번지 1층","indutype":"일반휴게음식 - 일반한식","category":"restaurant"}]},{"lat":"37.176939605","long":"127.05394821","imageIndex":4,"items":[{"name":"미소닭발","tel":"031-376-9929","addr":"경기도 오산시 금암동 493-4번지 1층","indutype":"일반휴게음식 - 일반한식","category":"restaurant"},{"name":"정성푸드","tel":"031-372-2532","addr":"경기도 오산시 금암동 493-4번지 1층","indutype":"일반휴게음식 - 일반한식","category":"restaurant"}]},{"lat":"37.170912642","long":"127.05153461","imageIndex":4,"items":[{"name":"바다가내곁에","tel":"031-372-0717","addr":"경기도 오산시 금암동 542-13번지","indutype":"일반휴게음식 - 일반한식","category":"restaurant"}]},{"lat":"37.176723534","long":"127.05353143","imageIndex":4,"items":[{"name":"바오돈까스","tel":"031-374-1109","addr":"경기도 오산시 금암동 494-3번지 1층","indutype":"일반휴게음식 - 서양음식","category":"restaurant"}]},{"lat":"37.170912748","long":"127.05127564","imageIndex":4,"items":[{"name":"바지라기","tel":"031-613-6250","addr":"경기도 오산시 금암동 542-12번지","indutype":"일반휴게음식 - 일반한식","category":"restaurant"},{"name":"조마루감자탕세교점","tel":"031-373-8558","addr":"경기도 오산시 금암동 542-12번지 2층","indutype":"일반휴게음식 - 일반한식","category":"restaurant"}]},{"lat":"37.176498191","long":"127.05372271","imageIndex":4,"items":[{"name":"백청우칼국수오산점","tel":"031-226-4025","addr":"경기도 오산시 금암동 494-5번지 1층","indutype":"일반휴게음식 - 일반한식","category":"restaurant"}]},{"lat":"37.175526403","long":"127.05050162","imageIndex":4,"items":[{"name":"보스턴오뎅","tel":"031-377-3017","addr":"경기도 오산시 금암동 500-2번지 1층 105호","indutype":"일반휴게음식 - 일반한식","category":"restaurant"},{"name":"육회한녀석들본점","tel":"","addr":"경기도 오산시 금암동 500-2번지 상지빌딩 101호","indutype":"일반휴게음식 - 일반한식","category":"restaurant"},{"name":"코다리1번가","tel":"","addr":"경기도 오산시 금암동 500-2번지 106호","indutype":"일반휴게음식 - 일반한식","category":"restaurant"},{"name":"한양포차","tel":"031-376-8202","addr":"경기도 오산시 금암동 500-2번지 104호","indutype":"일반휴게음식 - 일반한식","category":"restaurant"},{"name":"화숯불꼬치","tel":"031-376-8202","addr":"경기도 오산시 금암동 500-2번지 104호","indutype":"일반휴게음식 - 일반한식","category":"restaurant"}]},{"lat":"37.177191208","long":"127.05552485","imageIndex":4,"items":[{"name":"뽀글뽀글태산부대찌개오산세교점","tel":"031-374-9559","addr":"경기도 오산시 금암동 491-5번지","indutype":"일반휴게음식 - 일반한식","category":"restaurant"}]},{"lat":"37.176831446","long":"127.05402696","imageIndex":4,"items":[{"name":"세교닭갈비","tel":"031-373-1898","addr":"경기도 오산시 금암동 493-5번지","indutype":"일반휴게음식 - 일반한식","category":"restaurant"}]},{"lat":"37.176330598","long":"127.04447783","imageIndex":4,"items":[{"name":"세교점쿡1015","tel":"031-374-1015","addr":"경기도 오산시 금암동 516-1번지 센타프라자 106호","indutype":"일반휴게음식 - 일반한식","category":"restaurant"},{"name":"춤추는 왕만두 세교점","tel":"031-372-2219","addr":"경기도 오산시 금암동 516-1번지 센터프라자 1층 102호","indutype":"일반휴게음식 - 스넥","category":"restaurant"}]},{"lat":"37.176939866","long":"127.05334015","imageIndex":4,"items":[{"name":"스테이크 박스","tel":"031-8058-3799","addr":"경기도 오산시 금암동 494-1번지 1층","indutype":"일반휴게음식 - 스넥","category":"restaurant"}]},{"lat":"37.177164963","long":"127.05372316","imageIndex":4,"items":[{"name":"원조마포숯불갈비","tel":"031-373-6668","addr":"경기도 오산시 금암동 493-2번지 1층","indutype":"일반휴게음식 - 일반한식","category":"restaurant"}]},{"lat":"37.176606365","long":"127.05361018","imageIndex":4,"items":[{"name":"육전국밥","tel":"031-372-3739","addr":"경기도 오산시 금암동 494-4번지 1층","indutype":"일반휴게음식 - 일반한식","category":"restaurant"}]},{"lat":"37.176831707","long":"127.0534189","imageIndex":4,"items":[{"name":"응급실국물떡볶이세교점","tel":"031-372-7419","addr":"경기도 오산시 금암동 494-2번지 1층 101호","indutype":"일반휴게음식 - 일반한식","category":"restaurant"}]},{"lat":"37.176975768","long":"127.05366673","imageIndex":4,"items":[{"name":"이디야오산세교점","tel":"031-373-1477","addr":"경기도 오산시 금암동 493-10번지 1층","indutype":"일반휴게음식 - 서양음식","category":"restaurant"}]},{"lat":"37.176885082","long":"127.05500666","imageIndex":4,"items":[{"name":"이안커피(IAN coffee)","tel":"070-8869-2748","addr":"경기도 오산시 금암동 491-1번지","indutype":"일반휴게음식 - 서양음식","category":"restaurant"}]},{"lat":"37.177191839","long":"127.05408351","imageIndex":4,"items":[{"name":"진스시","tel":"031-372-4979","addr":"경기도 오산시 금암동 492-10번지 1층 101호","indutype":"일반휴게음식 - 일식·회집","category":"restaurant"}]},{"lat":"37.177110174","long":"127.05538967","imageIndex":4,"items":[{"name":"카페투엘브","tel":"070-0000-0000","addr":"경기도 오산시 금암동 491-4번지 1층 102호","indutype":"일반휴게음식 - 서양음식","category":"restaurant"}]},{"lat":"37.17758288","long":"127.04495146","imageIndex":4,"items":[{"name":"카페휴(  )","tel":"031-290-8530","addr":"경기도 오산시 금암동 512번지 1층","indutype":"일반휴게음식 - 서양음식","category":"restaurant"}]},{"lat":"37.176975393","long":"127.05453378","imageIndex":4,"items":[{"name":"투마리치킨세교점","tel":"031-376-1989","addr":"경기도 오산시 금암동 492-6번지 1층","indutype":"일반휴게음식 - 스넥","category":"restaurant"}]},{"lat":"37.177308527","long":"127.0551083","imageIndex":4,"items":[{"name":"푸드콜덮밥플러스","tel":"031-373-0106","addr":"경기도 오산시 금암동 490-6번지 1층","indutype":"일반휴게음식 - 일반한식","category":"restaurant"}]},{"lat":"37.176578935","long":"127.05453351","imageIndex":4,"items":[{"name":"행복으로가는로스터리카페","tel":"031-111-1111","addr":"경기도 오산시 금암동 495-2번지","indutype":"일반휴게음식 - 서양음식","category":"restaurant"}]}]