[{"lat":"37.32814868","long":"127.3340825","imageIndex":17,"items":[{"name":"(주)두원인테리어","tel":"031-768-7971","addr":"경기도 광주시 도척면 진우리 100-37번지","indutype":"기타 - 기타 전문점","category":"other"}]},{"lat":"37.32207444","long":"127.3377789","imageIndex":17,"items":[{"name":"(주)드라이어텍","tel":"031-797-3521","addr":"경기도 광주시 도척면 진우리 412-1","indutype":"회원제형태 - 기타3","category":"other"}]},{"lat":"37.31840271","long":"127.3297528","imageIndex":17,"items":[{"name":"(주)드래곤스포츠","tel":"031-762-8829","addr":"경기도 광주시 도척면 진우리 377-7번지 2호","indutype":"레져용품 - 스포츠·레져용품","category":"other"},{"name":"굳잠","tel":"02-486-0901","addr":"경기도 광주시 도척면 진우리 377-7번지","indutype":"신변잡화 - 기타잡화","category":"other"}]},{"lat":"37.31873525","long":"127.3459658","imageIndex":17,"items":[{"name":"(주)신마로지스","tel":"031-548-0586","addr":"경기도 광주시 도척면 진우리 690-23번지","indutype":"유통업 영리 - 기타유통업","category":"other"}]},{"lat":"37.33503896","long":"127.3381637","imageIndex":17,"items":[{"name":"(주)청담도예","tel":"031-764-4259","addr":"경기도 광주시 도척면 진우리 40-1번지","indutype":"문화.취미 - 민예·공예품","category":"other"}]},{"lat":"37.33248282","long":"127.3371932","imageIndex":17,"items":[{"name":"(주)한린정밀용접기","tel":"031-798-2344","addr":"경기도 광주시 도척면 진우리 55-9번지","indutype":"기타 - 기계공구","category":"other"}]},{"lat":"37.31682165","long":"127.3345292","imageIndex":17,"items":[{"name":"GS25광주심포니점","tel":"080-555-2525","addr":"경기도 광주시 도척면 진우리 369-17번지","indutype":"유통업 영리 - 편 의 점","category":"other"},{"name":"GS25광주심포니점","tel":"080-555-2525","addr":"경기도 광주시 도척면 진우리 369-17번지","indutype":"유통업 영리 - 상품권전문판매","category":"other"}]},{"lat":"37.33535078","long":"127.3362242","imageIndex":17,"items":[{"name":"GS25뉴광주진우점","tel":"","addr":"경기도 광주시 도척면 진우리 28번지","indutype":"유통업 영리 - 상품권전문판매","category":"other"},{"name":"GS25뉴광주진우점","tel":"","addr":"경기도 광주시 도척면 진우리 28번지","indutype":"유통업 영리 - 편 의 점","category":"other"}]},{"lat":"37.31801332","long":"127.3336996","imageIndex":17,"items":[{"name":"가위사랑","tel":"070-4111-5624","addr":"경기도 광주시 도척면 진우리 1002번지 광주근형심포니아파트 107동 906호","indutype":"회원제형태 - 기타4","category":"other"}]},{"lat":"37.32587562","long":"127.3381681","imageIndex":17,"items":[{"name":"경도산업","tel":"031-763-1870","addr":"경기도 광주시 도척면 진우리 163-1","indutype":"가구 - 기타가구","category":"other"}]},{"lat":"37.33217578","long":"127.3374401","imageIndex":17,"items":[{"name":"곤지암 재활용 센타","tel":"031-762-3989","addr":"경기도 광주시 도척면 진우리 52번지","indutype":"전기제품 - 가전제품","category":"other"},{"name":"한솔마대세상","tel":"031-798-9036","addr":"경기도 광주시 도척면 진우리 52번지","indutype":"신변잡화 - 기타잡화","category":"other"}]},{"lat":"37.32354664","long":"127.3365218","imageIndex":17,"items":[{"name":"그린오피스","tel":"031-763-3801","addr":"경기도 광주시 도척면 진우리 204-2번지","indutype":"서적문구 - 문구용품","category":"other"},{"name":"진우상사","tel":"031-767-2218","addr":"경기도 광주시 도척면 진우리 204-2번지","indutype":"건축자재 - 보일러·펌프·샷시","category":"other"}]},{"lat":"37.3328437","long":"127.3370256","imageIndex":17,"items":[{"name":"금복상사","tel":"031-763-3231","addr":"경기도 광주시 도척면 진우리 55-4번지","indutype":"기타 - 기계공구","category":"other"}]},{"lat":"37.31689739","long":"127.3332209","imageIndex":17,"items":[{"name":"남홍이 Dinosaurs","tel":"031-764-2640","addr":"경기도 광주시 도척면 진우리 1002번지 광주근형심포니아파트","indutype":"문화.취미 - 애완동물","category":"other"}]},{"lat":"37.32035192","long":"127.3351426","imageIndex":17,"items":[{"name":"다움","tel":"","addr":"경기도 광주시 도척면 진우리 418-19번지 해피네스트 C동 102호","indutype":"건축자재 - 인테리어전문","category":"other"}]},{"lat":"37.31390526","long":"127.3523062","imageIndex":17,"items":[{"name":"닥터컴퓨터","tel":"031-797-2445","addr":"경기도 광주시 도척면 진우리 844-11번지","indutype":"수리서비스 - 사무·통신기기수리","category":"other"}]},{"lat":"37.317405","long":"127.3479453","imageIndex":17,"items":[{"name":"단원요","tel":"031-762-8820","addr":"경기도 광주시 도척면 진우리 670","indutype":"문화.취미 - 민예·공예품","category":"other"},{"name":"단원요","tel":"031-762-8820","addr":"경기도 광주시 도척면 진우리 670번지","indutype":"문화.취미 - 민예·공예품","category":"other"}]},{"lat":"37.32143135","long":"127.3357792","imageIndex":17,"items":[{"name":"대신유리","tel":"031-763-3906","addr":"경기도 광주시 도척면 진우리 417-1번지","indutype":"건축자재 - 유리","category":"other"}]},{"lat":"37.32328809","long":"127.3355504","imageIndex":17,"items":[{"name":"데코팩토리","tel":"070-8279-8392","addr":"경기도 광주시 도척면 진우리 230-6번지","indutype":"문화.취미 - 민예·공예품","category":"other"}]},{"lat":"37.33576502","long":"127.3363051","imageIndex":17,"items":[{"name":"동일케미칼","tel":"031-797-7825","addr":"경기도 광주시 도척면 진우리 26번지 명성빌딩 1층","indutype":"건축자재 - 페인트","category":"other"}]},{"lat":"37.32623337","long":"127.3391062","imageIndex":17,"items":[{"name":"두레건축","tel":"031-762-7601","addr":"경기도 광주시 도척면 진우리 177번지","indutype":"용역 서비스 - 기타용역서비스","category":"other"}]},{"lat":"37.32873395","long":"127.3342205","imageIndex":17,"items":[{"name":"미성가설","tel":"031-797-7495","addr":"경기도 광주시 도척면 진우리 100-9","indutype":"건축자재 - 기타건축자재","category":"other"}]},{"lat":"37.32376289","long":"127.3365228","imageIndex":17,"items":[{"name":"번창광고","tel":"031-763-6125","addr":"경기도 광주시 도척면 진우리 205번지","indutype":"건축자재 - 인테리어전문","category":"other"}]},{"lat":"37.31645724","long":"127.3391416","imageIndex":17,"items":[{"name":"벨루스(Bellus)퍼니처","tel":"","addr":"경기도 광주시 도척면 진우리 573-18번지","indutype":"가구 - 일반가구","category":"other"}]},{"lat":"37.31592972","long":"127.3345027","imageIndex":17,"items":[{"name":"삼성종합상사","tel":"031-763-8504","addr":"경기도 광주시 도척면 진우리 351","indutype":"기타 - 기계공구","category":"other"}]},{"lat":"37.32862844","long":"127.3364992","imageIndex":17,"items":[{"name":"슐츠페인트코리아","tel":"031-764-0002","addr":"경기도 광주시 도척면 진우리 123-10번지 3층","indutype":"건축자재 - 페인트","category":"other"}]},{"lat":"37.33320794","long":"127.332446","imageIndex":17,"items":[{"name":"승실화원","tel":"02-598-2026","addr":"경기도 광주시 도척면 진우리 76-51","indutype":"문화.취미 - 화원","category":"other"}]},{"lat":"37.31659662","long":"127.3344492","imageIndex":17,"items":[{"name":"신창환경이엔지 주식회사","tel":"031-798-7628","addr":"경기도 광주시 도척면 진우리 369-1번지","indutype":"용역 서비스 - 종합용역","category":"other"}]},{"lat":"37.33495418","long":"127.3362789","imageIndex":17,"items":[{"name":"에스앤케이 (주)","tel":"031-763-7355","addr":"경기도 광주시 도척면 진우리 27-7번지","indutype":"신변잡화 - 신발","category":"other"}]},{"lat":"37.31623435","long":"127.3351132","imageIndex":17,"items":[{"name":"예스포","tel":"031-797-0236","addr":"경기도 광주시 도척면 진우리 367","indutype":"레져용품 - 스포츠·레져용품","category":"other"}]},{"lat":"37.33121231","long":"127.3372215","imageIndex":17,"items":[{"name":"우성냉동","tel":"031-761-4547","addr":"경기도 광주시 도척면 진우리 46번지","indutype":"전기제품 - 냉열기기","category":"other"}]},{"lat":"37.32582355","long":"127.3406388","imageIndex":17,"items":[{"name":"유한회사 골든게이트","tel":"031-767-7467","addr":"경기도 광주시 도척면 진우리 172번지","indutype":"건축자재 - 기타건축자재","category":"other"}]},{"lat":"37.32068453","long":"127.3354149","imageIndex":17,"items":[{"name":"이마트24 광주진우리점","tel":"","addr":"경기도 광주시 도척면 진우리 418-5번지 1,2호","indutype":"유통업 영리 - 편 의 점","category":"other"}]},{"lat":"37.31913064","long":"127.3368859","imageIndex":17,"items":[{"name":"정순진 디자인 스튜디오","tel":"031-763-1835","addr":"경기도 광주시 도척면 진우리 387-1번지","indutype":"가구 - 일반가구","category":"other"}]},{"lat":"37.33309614","long":"127.3369703","imageIndex":17,"items":[{"name":"주식회사 게르","tel":"031-761-9009","addr":"경기도 광주시 도척면 진우리 55-2번지","indutype":"레져용품 - 스포츠·레져용품","category":"other"},{"name":"주식회사 한서퍼니처더리치","tel":"031-111-1111","addr":"경기도 광주시 도척면 진우리 55-2번지","indutype":"가구 - 일반가구","category":"other"}]},{"lat":"37.31609607","long":"127.3518538","imageIndex":17,"items":[{"name":"주식회사 대륭이앤디","tel":"031-761-0184","addr":"경기도 광주시 도척면 진우리 831-38번지","indutype":"유통업 영리 - 기타유통업","category":"other"}]},{"lat":"37.3328223","long":"127.3350283","imageIndex":17,"items":[{"name":"주식회사이안제화","tel":"070-4945-9980","addr":"경기도 광주시 도척면 진우리 77-3번지","indutype":"신변잡화 - 제화","category":"other"}]},{"lat":"37.33154214","long":"127.3352822","imageIndex":17,"items":[{"name":"주현스틸","tel":"031-769-2276","addr":"경기도 광주시 도척면 진우리 80-1번지","indutype":"전기제품 - 냉열기기","category":"other"}]},{"lat":"37.32559615","long":"127.3350303","imageIndex":17,"items":[{"name":"지평도자기","tel":"031-763-3386","addr":"경기도 광주시 도척면 진우리 226-1번지","indutype":"문화.취미 - 민예·공예품","category":"other"}]},{"lat":"37.3167932","long":"127.3507176","imageIndex":17,"items":[{"name":"참벗보호작업장","tel":"031-762-7346","addr":"경기도 광주시 도척면 진우리 661번지","indutype":"용역 서비스 - 종합용역","category":"other"}]},{"lat":"37.33604417","long":"127.3363627","imageIndex":17,"items":[{"name":"캠핑카마스터","tel":"031-763-5782","addr":"경기도 광주시 도척면 진우리 25번지","indutype":"레져용품 - 스포츠·레져용품","category":"other"},{"name":"하영기계공압","tel":"031-865-8777","addr":"경기도 광주시 도척면 진우리 25번지 1층","indutype":"기타 - 기계공구","category":"other"}]},{"lat":"37.33473729","long":"127.333299","imageIndex":17,"items":[{"name":"포토뱅크","tel":"031-769-1386","addr":"경기도 광주시 도척면 진우리 76-45번지 2층","indutype":"서적문구 - 출판 및 인쇄물","category":"other"},{"name":"해강에스티","tel":"031-764-0444","addr":"경기도 광주시 도척면 진우리 76-45","indutype":"광학제품 - 사진관","category":"other"}]},{"lat":"37.3282603","long":"127.3328306","imageIndex":17,"items":[{"name":"한미일렉트릭(주)","tel":"031-769-9771","addr":"경기도 광주시 도척면 진우리 102-3","indutype":"건축자재 - 기타건축자재","category":"other"}]},{"lat":"37.31787884","long":"127.336666","imageIndex":17,"items":[{"name":"훼밀리어유통","tel":"031-769-7707","addr":"경기도 광주시 도척면 진우리 392번지","indutype":"전기제품 - 기타전기제품","category":"other"}]}]