[{"lat":"37.45715595","long":"126.8776746","imageIndex":17,"items":[{"name":"(주)단꼬레아","tel":"02-776-2055","addr":"경기도 광명시 하안동 242-12번지","indutype":"의류 - 아동의류","category":"other"}]},{"lat":"37.4620685","long":"126.8796783","imageIndex":17,"items":[{"name":"(주)도리통신 하안점","tel":"031-000-0000","addr":"경기도 광명시 하안동 36-4번지 성보빌딩 1층 4,5호","indutype":"사무통신 - 통신기기","category":"other"},{"name":"(주)세영하우징","tel":"02-805-6455","addr":"경기도 광명시 하안동 36-4번지 성보빌딩 505호","indutype":"건축자재 - 기타건축자재","category":"other"},{"name":"(주)진일보","tel":"02-898-0199","addr":"경기도 광명시 하안동 36-4번지 성보빌딩 101호","indutype":"사무통신 - 통신기기","category":"other"},{"name":"A+과학나라","tel":"02-893-7722","addr":"경기도 광명시 하안동 36-4번지 성보빌딩 803호","indutype":"회원제형태 - 서적","category":"other"},{"name":"S핫요가하안점","tel":"02-897-9955","addr":"경기도 광명시 하안동 36-4 3층2-2호,3호","indutype":"회원제형태 - 레져업소","category":"other"},{"name":"경민사(알파하안점)","tel":"02-895-9737","addr":"경기도 광명시 하안동 36-4번지 108호","indutype":"서적문구 - 문구용품","category":"other"},{"name":"그린에듀","tel":"02-808-3050","addr":"경기도 광명시 하안동 36-4번지 성보빌딩 401호","indutype":"서적문구 - 일반서적","category":"other"},{"name":"모닝글로리","tel":"02-899-5559","addr":"경기도 광명시 하안동 36-4번지 성보프라자 지하1층5,6,7,8호","indutype":"서적문구 - 문구용품","category":"other"},{"name":"북경건강체형관리","tel":"02-897-8809","addr":"경기도 광명시 하안동 36-4번지 501호","indutype":"회원제형태 - 기타4","category":"other"},{"name":"아이다운","tel":"070-8806-4220","addr":"경기도 광명시 하안동 36-4번지 6층 606호","indutype":"서적문구 - 완구점","category":"other"},{"name":"오렌지골드하안점","tel":"02-809-0633","addr":"경기도 광명시 하안동 36-4번지 성보빌딩 107호","indutype":"신변잡화 - 시계","category":"other"},{"name":"제이에스 텔레콤","tel":"02-2615-7019","addr":"경기도 광명시 하안동 36-4번지 102호","indutype":"사무통신 - 통신기기","category":"other"},{"name":"토이랜드 & 베비라","tel":"02-896-6684","addr":"경기도 광명시 하안동 36-4번지 성보빌딩 1층","indutype":"서적문구 - 완구점","category":"other"},{"name":"하이앤글로우","tel":"070-4848-0100","addr":"경기도 광명시 하안동 36-4번지 602-1호","indutype":"신변잡화 - 기타잡화","category":"other"},{"name":"한국사회교육원 제B377113지부","tel":"02-891-0710","addr":"경기도 광명시 하안동 36-4번지 성보프라자 604동 605호","indutype":"문화.취미 - 민예·공예품","category":"other"},{"name":"한국철마산업","tel":"02-111-1111","addr":"경기도 광명시 하안동 36-4번지 성보빌딩 503호","indutype":"용역 서비스 - 종합용역","category":"other"}]},{"lat":"37.46154482","long":"126.878628","imageIndex":17,"items":[{"name":"(주)도엘산업","tel":"02-804-2417","addr":"경기도 광명시 하안동 36번지 골드르라자빌딩 401호","indutype":"건축자재 - 조명기구","category":"other"},{"name":"미씨싸롱","tel":"02-899-6340","addr":"경기도 광명시 하안동 36번지 1층 104호","indutype":"의류 - 정장","category":"other"},{"name":"사진마을","tel":"02-806-3939","addr":"경기도 광명시 하안동 36번지 골드프라자 107호","indutype":"광학제품 - 사진관","category":"other"},{"name":"주식회사 구르미","tel":"070-5096-9889","addr":"경기도 광명시 하안동 36번지 5층 504호","indutype":"서적문구 - 완구점","category":"other"}]},{"lat":"37.46212417","long":"126.8812381","imageIndex":17,"items":[{"name":"(주)맥슨컨설팅아이앤씨","tel":"02-894-0091","addr":"경기도 광명시 하안동 61-1번지","indutype":"용역 서비스 - 부동산 중개·임대","category":"other"},{"name":"(주)소나무","tel":"02-893-6977","addr":"경기도 광명시 하안동 61-1번지 조일프라자 202호","indutype":"문화.취미 - 티켓","category":"other"},{"name":"뉴서울다이빙풀","tel":"02-892-4943","addr":"경기도 광명시 하안동 61-1맥슨프라자지하3층","indutype":"회원제형태 - 레져업소","category":"other"},{"name":"소나무","tel":"02-893-6977","addr":"경기도 광명시 하안동 61-1번지 조일프라자빌딩 2층 202호","indutype":"문화.취미 - 티켓","category":"other"},{"name":"아담리즈수학학원","tel":"02-806-0503","addr":"경기도 광명시 하안동 61-1번지 조일프라자 902호","indutype":"회원제형태 - 기타4","category":"other"},{"name":"요술나라","tel":"02-894-9697","addr":"경기도 광명시 하안동 61-1번지 주은프라자 1층","indutype":"의류 - 아동의류","category":"other"},{"name":"웰빙약손바디","tel":"031-893-8855","addr":"경기도 광명시 하안동 61-1번지 지하1층 웰빙사우나","indutype":"회원제형태 - 기타4","category":"other"},{"name":"장원교육광명지점","tel":"02-806-8109","addr":"경기도 광명시 하안동 61-1번지 조일프라자빌딩 903호","indutype":"회원제형태 - 서적","category":"other"},{"name":"플레이타임","tel":"02-803-2502","addr":"경기도 광명시 하안동 61-1번지 주은프라자 2층","indutype":"회원제형태 - 레져업소","category":"other"}]},{"lat":"37.46015219","long":"126.8738719","imageIndex":17,"items":[{"name":"(주)사람과풍경","tel":"0505-374-0114","addr":"경기도 광명시 하안동 604-9번지 103호","indutype":"여행 - 관광여행","category":"other"}]},{"lat":"37.45909866","long":"126.8744614","imageIndex":17,"items":[{"name":"(주)삼마에스크로","tel":"02-897-1412","addr":"경기도 광명시 하안동 301-4번지 홍우프라자 401호","indutype":"전기제품 - 냉열기기","category":"other"},{"name":"광명청솔라이온스클럽","tel":"02-897-4043","addr":"경기도 광명시 하안동 301-4번지 홍우빌딩 805호","indutype":"기타 - 비영리/비대상","category":"other"},{"name":"광명청운 라이온스클럽","tel":"02-897-4043","addr":"경기도 광명시 하안동 301-4번지 홍우빌딩 8층 5호","indutype":"기타 - 비영리/비대상","category":"other"},{"name":"빌포츠","tel":"02-898-1661","addr":"경기도 광명시 하안동 301-4번지 홍우빌딩 4층 402호","indutype":"레져용품 - 스포츠·레져용품","category":"other"},{"name":"씨유광명홍우점","tel":"02-898-7826","addr":"경기도 광명시 하안동 301-4번지 제2-1,제2-2호","indutype":"유통업 영리 - 편 의 점","category":"other"},{"name":"케이디자인","tel":"02-899-0485","addr":"경기도 광명시 하안동 301-4번지 홍우빌딩 3층 1호","indutype":"건축자재 - 인테리어전문","category":"other"}]},{"lat":"37.46262666","long":"126.8792366","imageIndex":17,"items":[{"name":"(주)스마트여행사","tel":"02-894-2626","addr":"경기도 광명시 하안동 34-5번지 성원빌딩 1층","indutype":"여행 - 관광여행","category":"other"},{"name":"르하임스터디카페 광명하안점","tel":"02-6949-5030","addr":"경기도 광명시 하안동 34-5번지 성원빌딩 8층","indutype":"용역 서비스 - 사무서비스","category":"other"},{"name":"수입코너선물의집","tel":"02-809-1190","addr":"경기도 광명시 하안동 34-5번지 성원빌딩 지하층","indutype":"신변잡화 - 기타잡화","category":"other"},{"name":"유럽풍십자수","tel":"02-892-9472","addr":"경기도 광명시 하안동 34-5번지 성원빌딩 5호","indutype":"직물 - 침구·수예점","category":"other"},{"name":"푸른컴퓨터","tel":"02-806-8880","addr":"경기도 광명시 하안동 34-5번지 성원빌딩 지하7호 라파엘 컴퓨터 임장훈","indutype":"사무통신 - 컴퓨터","category":"other"}]},{"lat":"37.45896432","long":"126.8671262","imageIndex":17,"items":[{"name":"(주)아인팩","tel":"","addr":"경기도 광명시 하안동 556-3번지 1층","indutype":"기타 - 기계공구","category":"other"}]},{"lat":"37.45829118","long":"126.8776501","imageIndex":17,"items":[{"name":"(주)엘엔티투어","tel":"02-897-0330","addr":"경기도 광명시 하안동 322번지 제니스빌딩 406호","indutype":"여행 - 관광여행","category":"other"},{"name":"아리랑이온","tel":"","addr":"경기도 광명시 하안동 322번지 한솔빌딩 405호","indutype":"주방용구 - 정수기","category":"other"}]},{"lat":"37.4620129","long":"126.878209","imageIndex":17,"items":[{"name":"(주)일신아이디","tel":"02-891-8190","addr":"경기도 광명시 하안동 34-11번지 삼호빌딩 지하층 103호","indutype":"건축자재 - 인테리어전문","category":"other"},{"name":"법무사 선정민 사무소","tel":"02-899-8553","addr":"경기도 광명시 하안동 34-11번지 삼호빌딩 2층 5호","indutype":"용역 서비스 - 법률회계서비스(개인)","category":"other"},{"name":"변호사 김범구 법률사무소","tel":"02-897-1997","addr":"경기도 광명시 하안동 34-11번지 삼호빌딩 204호","indutype":"용역 서비스 - 법률회계서비스(개인)","category":"other"},{"name":"비즈누","tel":"02-896-5579","addr":"경기도 광명시 하안동 24-11 삼호빌딩202호","indutype":"문화.취미 - 민예·공예품","category":"other"},{"name":"제임스딘","tel":"02-111-1111","addr":"경기도 광명시 하안동 34-11번지 삼호빌딩 103호","indutype":"의류 - 내의판매","category":"other"}]},{"lat":"37.45004818","long":"126.8626218","imageIndex":17,"items":[{"name":"(주)일영복층유리","tel":"02-897-7794","addr":"경기도 광명시 하안동 403번지","indutype":"건축자재 - 유리","category":"other"}]},{"lat":"37.45935136","long":"126.8748453","imageIndex":17,"items":[{"name":"(주)정금퍼펙트클린","tel":"02-899-9471","addr":"경기도 광명시 하안동 302번지 녹원프라자 802-1호","indutype":"회원제형태 - 기타3","category":"other"},{"name":"GS25광명녹원점","tel":"","addr":"경기도 광명시 하안동 302번지 녹원프라자 106,107호","indutype":"유통업 영리 - 편 의 점","category":"other"},{"name":"광명골프존","tel":"02-897-5192","addr":"경기도 광명시 하안동 302번지 녹원프라자 701호~705호","indutype":"회원제형태 - 레져업소","category":"other"},{"name":"신스포츠","tel":"02-897-3312","addr":"경기도 광명시 하안동 302번지 녹원프라자 504~505호","indutype":"레져용품 - 스포츠·레져용품","category":"other"},{"name":"주식회사 베쏘네트웍스","tel":"02-897-8750","addr":"경기도 광명시 하안동 302번지 녹원플라자 4층 402호","indutype":"신변잡화 - 기타잡화","category":"other"}]},{"lat":"37.45768808","long":"126.8781823","imageIndex":17,"items":[{"name":"(주)지맨커뮤니케이션즈","tel":"02-516-4505","addr":"경기도 광명시 하안동 322-4번지","indutype":"레져용품 - 스포츠·레져용품","category":"other"},{"name":"삼천리빌딩","tel":"02-897-2252","addr":"경기도 광명시 하안동 322-4번지","indutype":"용역 서비스 - 부동산 중개·임대","category":"other"}]},{"lat":"37.45871365","long":"126.8767113","imageIndex":17,"items":[{"name":"(주)창우환경","tel":"02-868-4688","addr":"경기도 광명시 하안동 305-1번지 프라임모터스빌딩","indutype":"용역 서비스 - 종합용역","category":"other"},{"name":"Myung tech","tel":"02-898-7141","addr":"경기도 광명시 하안동 305-1번지 프리임모터스빌딩 325호","indutype":"건축자재 - 인테리어전문","category":"other"},{"name":"애드웍스","tel":"02-6959-7066","addr":"경기도 광명시 하안동 305-1번지 프라임모터스빌딩 2층 201호","indutype":"용역 서비스 - 종합용역","category":"other"},{"name":"우일랩메이트","tel":"02-897-3522","addr":"경기도 광명시 하안동 305-1번지 프라임모터스빌딩 2층 227호","indutype":"서적문구 - 과학기자재","category":"other"},{"name":"필바이크","tel":"02-899-7590","addr":"경기도 광명시 하안동 305-1번지 233,234호","indutype":"레져용품 - 스포츠·레져용품","category":"other"},{"name":"현진","tel":"02-1661-8944","addr":"경기도 광명시 하안동 305-1번지 프라임모터스빌딩 428호","indutype":"서적문구 - 기타서적문구","category":"other"}]},{"lat":"37.45990187","long":"126.8756807","imageIndex":17,"items":[{"name":"(주)피엔아이","tel":"02-899-9290","addr":"경기도 광명시 하안동 302-5번지 녹원토피아 801호","indutype":"기타 - 기계공구","category":"other"},{"name":"쉐마선교회","tel":"02-899-2111","addr":"경기도 광명시 하안동 302-5번지 녹원토피아 1508호","indutype":"기타 - 비영리/대상","category":"other"},{"name":"티엔느","tel":"02-2625-1385","addr":"경기도 광명시 하안동 302-5번지 녹원토피아 1503호","indutype":"신변잡화 - 가방","category":"other"},{"name":"피부나라","tel":"02-897-5055","addr":"경기도 광명시 하안동 302-5번지 녹원토피아빌딩 605호","indutype":"회원제형태 - 기타4","category":"other"}]},{"lat":"37.45915965","long":"126.8725625","imageIndex":17,"items":[{"name":"249days","tel":"","addr":"경기도 광명시 하안동 603-10번지","indutype":"신변잡화 - 기타잡화","category":"other"}]},{"lat":"37.45943576","long":"126.8779421","imageIndex":17,"items":[{"name":"24시열쇠디지털도어락현관문도어락번호키","tel":"02-1600-1304","addr":"경기도 광명시 하안동 296번지","indutype":"건축자재 - 목재·석재·철물","category":"other"},{"name":"드림아이","tel":"02-813-8859","addr":"경기도 광명시 하안동 296번지","indutype":"신변잡화 - 기타잡화","category":"other"}]},{"lat":"37.46234836","long":"126.8802091","imageIndex":17,"items":[{"name":"2men전자담배","tel":"070-4124-8253","addr":"경기도 광명시 하안동 53-1번지 골든힐빌딩 1층 124호","indutype":"기타 - 기타 전문점","category":"other"},{"name":"MYC이룸교육","tel":"02-893-4650","addr":"경기도 광명시 하안동 53-1번지 골든힐빌딩 410호","indutype":"회원제형태 - 서적","category":"other"},{"name":"가나지물보수","tel":"02-899-6553","addr":"경기도 광명시 하안동 53-1(골든힐빌딩203)","indutype":"건축자재 - 인테리어전문","category":"other"},{"name":"골든종합신발","tel":"02-896-6849","addr":"경기도 광명시 하안동 53-1번지 골든힐빌딩 1층 108호","indutype":"신변잡화 - 신발","category":"other"},{"name":"금수화","tel":"","addr":"경기도 광명시 하안동 53-1번지 골든힐쇼핑센타 G동 1층 30호","indutype":"의류 - 정장","category":"other"},{"name":"늑대와여우컴퓨터 광명하안점","tel":"070-8975-3923","addr":"경기도 광명시 하안동 53-1번지 지층층 03,04호","indutype":"사무통신 - 컴퓨터","category":"other"},{"name":"다빈","tel":"","addr":"경기도 광명시 하안동 53-1번지 골든힐쇼핑센타 1층 116호","indutype":"의류 - 정장","category":"other"},{"name":"더(The)파랑새","tel":"02-898-2576","addr":"경기도 광명시 하안동 53-1번지 골든힐빌딩 지층 2호","indutype":"직물 - 침구·수예점","category":"other"},{"name":"도로시","tel":"031-899-1105","addr":"경기도 광명시 하안동 53-1번지 골든힐쇼핑센타 117호","indutype":"신변잡화 - 기타잡화","category":"other"},{"name":"동양철물전기","tel":"02-896-1425","addr":"경기도 광명시 하안동 53-1번지 골든힐쇼핑센타 102호","indutype":"건축자재 - 기타건축자재","category":"other"},{"name":"두리컴퓨터랜드","tel":"02-802-8098","addr":"경기도 광명시 하안동 53-1번지 골든힐센터 207호","indutype":"사무통신 - 컴퓨터","category":"other"},{"name":"로뎀","tel":"02-896-5300","addr":"경기도 광명시 하안동 53-1번지","indutype":"주방용구 - 주방용구","category":"other"},{"name":"릴렉스","tel":"","addr":"경기도 광명시 하안동 53-1번지 골든힐쇼핑 지하 1층 7호","indutype":"의류 - 정장","category":"other"},{"name":"멜멜 (MELMEL)","tel":"","addr":"경기도 광명시 하안동 53-1번지 골든힐쇼핑센타 127호","indutype":"의류 - 정장","category":"other"},{"name":"베이스캠프씨엔엠","tel":"02-897-3857","addr":"경기도 광명시 하안동 53-1번지 골든힐 상가 409호","indutype":"사무통신 - 컴퓨터","category":"other"},{"name":"샤인","tel":"02-804-1239","addr":"경기도 광명시 하안동 53-1번지 골든힐빌딩 지층 28,29호","indutype":"의류 - 기타의류","category":"other"},{"name":"소친연리빙","tel":"02-809-1114","addr":"경기도 광명시 하안동 53-1번지 골든힐지하상가 지하층 18호","indutype":"가구 - 기타가구","category":"other"},{"name":"쉬즈가든J","tel":"02-898-4601","addr":"경기도 광명시 하안동 53-1번지 골든힐 117호","indutype":"문화.취미 - 화원","category":"other"},{"name":"스타일","tel":"02-897-2685","addr":"경기도 광명시 하안동 53-1번지 골든힐쇼핑센타 지층 8호","indutype":"의류 - 정장","category":"other"},{"name":"스타일맘","tel":"070-8819-3795","addr":"경기도 광명시 하안동 53-1번지 골든힐 상가 118호","indutype":"의류 - 정장","category":"other"},{"name":"신데렐라","tel":"02-802-2530","addr":"경기도 광명시 하안동 53-1번지 제8호 지하층","indutype":"신변잡화 - 제화","category":"other"},{"name":"아이콘","tel":"02-897-4046","addr":"경기도 광명시 하안동 53-1 골든힐빌딩106호~107호","indutype":"의류 - 정장","category":"other"},{"name":"엘리트 광명점","tel":"02-892-6634","addr":"경기도 광명시 하안동 53-1번지 골든힐쇼핑센터 114호","indutype":"의류 - 단체복","category":"other"},{"name":"엣지","tel":"","addr":"경기도 광명시 하안동 53-1번지 골든힐쇼핑센터 1층 123호","indutype":"의류 - 정장","category":"other"},{"name":"예닮에스테틱","tel":"02-802-4179","addr":"경기도 광명시 하안동 53-1번지 골든힐 B17호","indutype":"회원제형태 - 기타4","category":"other"},{"name":"오잉크","tel":"02-893-0054","addr":"경기도 광명시 하안동 53-1 골든힐지하 33","indutype":"사무통신 - 기타 사무용품","category":"other"},{"name":"종이와나무","tel":"02-899-3369","addr":"경기도 광명시 하안동 53-1번지 골든힐빌딩 지층 1호","indutype":"문화.취미 - 문화취미기타","category":"other"},{"name":"주은뜨게방","tel":"02-893-7752","addr":"경기도 광명시 하안동 53-1번지 골든힐빌딩 127호","indutype":"직물 - 침구·수예점","category":"other"},{"name":"천막속의 멋","tel":"02-898-0347","addr":"경기도 광명시 하안동 53-1번지 골든힐쇼핑센타 1층 113호","indutype":"의류 - 정장","category":"other"},{"name":"코코샤넬","tel":"02-1111-1111","addr":"경기도 광명시 하안동 53-1번지 골든힐쇼핑 1층 128호","indutype":"의류 - 정장","category":"other"},{"name":"퀼트스토리","tel":"","addr":"경기도 광명시 하안동 53-1번지 골든힐 지하 27호","indutype":"직물 - 침구·수예점","category":"other"},{"name":"퀼트큐브","tel":"02-2611-2883","addr":"경기도 광명시 하안동 53-1번지 골든힐쇼핑센터 4층 3호","indutype":"직물 - 옷감·직물","category":"other"},{"name":"프랑스자수 by 지유짱","tel":"02-4130-5315","addr":"경기도 광명시 하안동 53-1번지 골든힐쇼핑센타 G동 1층 11호","indutype":"문화.취미 - 문화취미기타","category":"other"},{"name":"프린트박스","tel":"02-892-3257","addr":"경기도 광명시 하안동 53-1번지 골든힐빌딩 226호","indutype":"서적문구 - 출판 및 인쇄물","category":"other"},{"name":"하루","tel":"02-111-1111","addr":"경기도 광명시 하안동 53-1번지 골든힐쇼핑센타 지하 15호","indutype":"의류 - 정장","category":"other"},{"name":"하안의료기,수족관","tel":"02-804-8008","addr":"경기도 광명시 하안동 53-1번지 골든힐빌딩 1동 105호","indutype":"기타의료기관 - 기타의료기관 및 기타","category":"other"},{"name":"헨느","tel":"02-899-3497","addr":"경기도 광명시 하안동 53-1번지 골든힐쇼핑센타 119호","indutype":"의류 - 정장","category":"other"}]},{"lat":"37.46245723","long":"126.8809324","imageIndex":17,"items":[{"name":"FIGI","tel":"02-803-0789","addr":"경기도 광명시 하안동 54-2번지","indutype":"의류 - 정장","category":"other"},{"name":"다다앤도도","tel":"02-330-5824","addr":"경기도 광명시 하안동 54-2번지 양정빌딩 201호","indutype":"의류 - 정장","category":"other"},{"name":"리즈원예","tel":"070-7864-1177","addr":"경기도 광명시 하안동 54-2번지 양정빌딩 1층 102호","indutype":"문화.취미 - 화원","category":"other"},{"name":"솜씨판다","tel":"031-000-0000","addr":"경기도 광명시 하안동 54-2번지 양정빌딩 3층 303호","indutype":"문화.취미 - 문화취미기타","category":"other"},{"name":"에스티코디","tel":"070-8966-8249","addr":"경기도 광명시 하안동 54-2번지 양정빌딩 101호","indutype":"신변잡화 - 신발","category":"other"},{"name":"와우광고기획","tel":"02-807-9304","addr":"경기도 광명시 하안동 54-2번지 양정빌딩 304호","indutype":"용역 서비스 - 종합용역","category":"other"},{"name":"유비스선우주식회사","tel":"02-898-8766","addr":"경기도 광명시 하안동 54-2번지 양정빌딩 402호","indutype":"기타 - 기계공구","category":"other"},{"name":"햅번하우스(Hepburn haus)","tel":"02-898-1442","addr":"경기도 광명시 하안동 54-2번지 양정빌딩 302호","indutype":"건축자재 - 인테리어전문","category":"other"}]},{"lat":"37.46334687","long":"126.8786816","imageIndex":17,"items":[{"name":"G&G요가샵","tel":"02-897-9599","addr":"경기도 광명시 하안동 34번지 5층","indutype":"회원제형태 - 레져업소","category":"other"},{"name":"나인애드컴","tel":"02-898-8488","addr":"경기도 광명시 하안동 34번지 한일빌딩 301호","indutype":"서적문구 - 출판 및 인쇄물","category":"other"},{"name":"크린토피아","tel":"02-804-2990","addr":"경기도 광명시 하안동 34제2층204","indutype":"수리서비스 - 세탁소","category":"other"},{"name":"폐리샵","tel":"","addr":"경기도 광명시 하안동 34번지 한일빌딩 B1층 14호","indutype":"레져용품 - 스포츠·레져용품","category":"other"}]},{"lat":"37.46698125","long":"126.8654388","imageIndex":17,"items":[{"name":"GG그룹상사","tel":"000-0000-0000","addr":"경기도 광명시 하안동 864번지 이편한세상센트레빌아파트","indutype":"신변잡화 - 액세서리","category":"other"}]},{"lat":"37.46113114","long":"126.8793747","imageIndex":17,"items":[{"name":"GIOTO2","tel":"02-3397-7033","addr":"경기도 광명시 하안동 38번지 메르존 상가 1103호","indutype":"의류 - 정장","category":"other"},{"name":"나라모바일 4호점","tel":"070-0000-0000","addr":"경기도 광명시 하안동 38번지 뉴코아아울렛 지하1층 1호","indutype":"사무통신 - 통신기기","category":"other"},{"name":"뉴코아아울렛(수선실)","tel":"02-3397-2654","addr":"경기도 광명시 하안동 38번지 뉴코아아울렛(광명점)2층","indutype":"수리서비스 - 세탁소","category":"other"},{"name":"다음악기","tel":"02-899-9402","addr":"경기도 광명시 하안동 38번지 뉴코아아울렛광명점 6층","indutype":"레져용품 - 피아노대리점","category":"other"},{"name":"동화여행","tel":"02-898-7439","addr":"경기도 광명시 하안동 38번지 메르존상가 4039동 4040호","indutype":"의류 - 아동의류","category":"other"},{"name":"우진상회","tel":"02-899-7001","addr":"경기도 광명시 하안동 38번지 메르죤상가북면","indutype":"레져용품 - 스포츠·레져용품","category":"other"},{"name":"크린토피아","tel":"02-899-9226","addr":"경기도 광명시 하안동 38번지 (주)뉴코아아울렛광명점","indutype":"수리서비스 - 세탁소","category":"other"}]},{"lat":"37.4630149","long":"126.8800159","imageIndex":17,"items":[{"name":"GS25광명유창점","tel":"","addr":"경기도 광명시 하안동 33-5번지 유창빌딩 103호","indutype":"유통업 영리 - 편 의 점","category":"other"},{"name":"스튜디오눈","tel":"02-897-2111","addr":"경기도 광명시 하안동 33-5번지 유창빌딩 9층 901호","indutype":"광학제품 - 사진관","category":"other"},{"name":"엘에스아로마스킨케어","tel":"02-899-9008","addr":"경기도 광명시 하안동 33-5번지 유창빌딩 904호","indutype":"회원제형태 - 기타4","category":"other"}]},{"lat":"37.46371209","long":"126.8747587","imageIndex":17,"items":[{"name":"GS25하안3단지점","tel":"","addr":"경기도 광명시 하안동 650-1번지 하안주공3단지종합상가 129호","indutype":"유통업 영리 - 편 의 점","category":"other"},{"name":"YJ.예전상조","tel":"02-899-1472","addr":"경기도 광명시 하안동 650-1번지 하안주공3단시종합상가 2층 208호","indutype":"용역 서비스 - 가례서비스업","category":"other"},{"name":"동아문구","tel":"02-806-8278","addr":"경기도 광명시 하안동 650-1번지 3단지종합상가 101호","indutype":"서적문구 - 문구용품","category":"other"},{"name":"루이펫샵","tel":"031-899-3543","addr":"경기도 광명시 하안동 650-1번지 하안주공3단지 종합상가 130-1호","indutype":"문화.취미 - 애완동물","category":"other"},{"name":"선경철물","tel":"02-892-1184","addr":"경기도 광명시 하안동 650-1번지 주공3단지 종합상가 132호","indutype":"건축자재 - 인테리어전문","category":"other"},{"name":"신덕기업","tel":"02-804-5055","addr":"경기도 광명시 하안동 650-1번지 하안주공3단지종합상가 107호","indutype":"의류 - 정장","category":"other"},{"name":"썬정보시스템","tel":"02-897-8575","addr":"경기도 광명시 하안동 650-1번지 주공 상가 107호","indutype":"사무통신 - 사무용 OA기기","category":"other"},{"name":"중앙철물","tel":"02-806-6777","addr":"경기도 광명시 하안동 650-1번지 하안주공3단지종합상가 종합상가 106호","indutype":"기타 - 기계공구","category":"other"}]},{"lat":"37.46032319","long":"126.873702","imageIndex":17,"items":[{"name":"GS25하안단지점","tel":"02-2006-2118","addr":"경기도 광명시 하안동 601-10번지","indutype":"유통업 영리 - 편 의 점","category":"other"}]},{"lat":"37.45970803","long":"126.8714538","imageIndex":17,"items":[{"name":"GS25하안타운점","tel":"","addr":"경기도 광명시 하안동 584-13번지 1층","indutype":"유통업 영리 - 편 의 점","category":"other"}]},{"lat":"37.46751435","long":"126.8747974","imageIndex":17,"items":[{"name":"JUNBOX","tel":"070-8031-4038","addr":"경기도 광명시 하안동 681번지 하안2단지고층주공아파트","indutype":"신변잡화 - 기타잡화","category":"other"},{"name":"선희자동차부품","tel":"070-3375-1459","addr":"경기도 광명시 하안동 681번지 하안2단지고층주공아파트","indutype":"회원제형태 - 기타4","category":"other"},{"name":"파라플라","tel":"070-7694-9001","addr":"경기도 광명시 하안동 681번지 하안2단지고층주공아파트","indutype":"회원제형태 - 기타4","category":"other"}]},{"lat":"37.45890766","long":"126.8728228","imageIndex":17,"items":[{"name":"LOM","tel":"02-6465-7970","addr":"경기도 광명시 하안동 611-10번지 201호","indutype":"사무통신 - 통신기기","category":"other"}]},{"lat":"37.46246422","long":"126.8789882","imageIndex":17,"items":[{"name":"OSD KOREA","tel":"02-892-6913","addr":"경기도 광명시 하안동 34-7번지 우덕빌딩 5층","indutype":"회원제형태 - 기타4","category":"other"},{"name":"맥시코스","tel":"02-892-6913","addr":"경기도 광명시 하안동 34-7번지 우덕빌딩 501호","indutype":"용역 서비스 - 종합용역","category":"other"},{"name":"코어짐","tel":"031-898-8810","addr":"경기도 광명시 하안동 34-7번지 우덕빌딩 3층 302호","indutype":"회원제형태 - 레져업소","category":"other"}]},{"lat":"37.4611295","long":"126.8778149","imageIndex":17,"items":[{"name":"PC119","tel":"02-895-0119","addr":"경기도 광명시 하안동 296-3번지","indutype":"사무통신 - 컴퓨터","category":"other"}]},{"lat":"37.46290582","long":"126.8791005","imageIndex":17,"items":[{"name":"S&S 복싱체육관","tel":"02-898-1282","addr":"경기도 광명시 하안동 34-3번지 세인빌딩 4층 401호","indutype":"회원제형태 - 레져업소","category":"other"},{"name":"비제이메디컬","tel":"02-899-5839","addr":"경기도 광명시 하안동 34-3번지 세인빌딩 5층 501호","indutype":"기타의료기관 - 기타의료기관 및 기타","category":"other"},{"name":"올비시스(Orbissys)","tel":"02-892-6895","addr":"경기도 광명시 하안동 34-3번지 세인빌딩 501호","indutype":"기타 - 기계공구","category":"other"},{"name":"하성희건강요가","tel":"02-6053-6377","addr":"경기도 광명시 하안동 34-3번지 세인빌딩 301호","indutype":"회원제형태 - 레져업소","category":"other"}]},{"lat":"37.46759171","long":"126.8635386","imageIndex":17,"items":[{"name":"SH컴","tel":"070-4125-9898","addr":"경기도 광명시 하안동 707-9번지 하안현대아파트","indutype":"회원제형태 - 기타3","category":"other"}]},{"lat":"37.46049108","long":"126.8790367","imageIndex":17,"items":[{"name":"SLP광명학사","tel":"02-2038-6737","addr":"경기도 광명시 하안동 35-7번지 조일프라자 802호","indutype":"서적문구 - 일반서적","category":"other"},{"name":"미스터 크리닝","tel":"02-893-1712","addr":"경기도 광명시 하안동 35-7번지 다래프라자빌딩 203호","indutype":"수리서비스 - 세탁소","category":"other"},{"name":"샘터장식","tel":"02-803-6989","addr":"경기도 광명시 하안동 35-7번지 다래프라자 105호","indutype":"직물 - 카페트,커튼,천막,지물","category":"other"}]},{"lat":"37.46146976","long":"126.875825","imageIndex":17,"items":[{"name":"WS에어컨","tel":"02-826-9798","addr":"경기도 광명시 하안동 650번지 하안3단지고층주공아파트","indutype":"전기제품 - 냉열기기","category":"other"}]},{"lat":"37.46578346","long":"126.8739074","imageIndex":17,"items":[{"name":"cafe쎄라비","tel":"070-7529-8843","addr":"경기도 광명시 하안동 682번지 하안1단지고층주공아파트","indutype":"신변잡화 - 기타잡화","category":"other"},{"name":"바람공조","tel":"","addr":"경기도 광명시 하안동 682번지 하안1단지고층주공아파트","indutype":"용역 서비스 - 기타용역서비스","category":"other"},{"name":"쎄라비","tel":"","addr":"경기도 광명시 하안동 682번지 하안1단지고층주공아파트","indutype":"신변잡화 - 액세서리","category":"other"}]},{"lat":"37.46190841","long":"126.8817019","imageIndex":17,"items":[{"name":"emart24하안12단지","tel":"02-6916-1500","addr":"경기도 광명시 하안동 62-5번지 신광빌딩 1층 5호","indutype":"유통업 영리 - 편 의 점","category":"other"},{"name":"아리랑스크린골프존","tel":"02-803-2211","addr":"경기도 광명시 하안동 62-5번지 신광빌딩 지하1층","indutype":"회원제형태 - 레져업소","category":"other"},{"name":"이마트24하안12단지점","tel":"02-6915-1500","addr":"경기도 광명시 하안동 62-5번지 신광빌딩 10,1층 5호","indutype":"유통업 영리 - 편 의 점","category":"other"}]},{"lat":"37.46836999","long":"126.8664762","imageIndex":17,"items":[{"name":"itcbook","tel":"070-4667-1899","addr":"경기도 광명시 하안동 864번지 이편한세상센트레빌아파트","indutype":"회원제형태 - 서적","category":"other"},{"name":"합동기획","tel":"02-764-7078","addr":"경기도 광명시 하안동 864번지 이편한세상센트레빌아파트","indutype":"회원제형태 - 기타4","category":"other"}]},{"lat":"37.4509033","long":"126.8619309","imageIndex":17,"items":[{"name":"가가키드 스튜디오 광명점","tel":"02-892-8074","addr":"경기도 광명시 하안동 408-1번지","indutype":"광학제품 - 사진관","category":"other"}]},{"lat":"37.45765787","long":"126.8671286","imageIndex":17,"items":[{"name":"가나물류보관","tel":"02-899-3939","addr":"경기도 광명시 하안동 517-2번지","indutype":"건축자재 - 기타건축자재","category":"other"},{"name":"제이에스씨스포츠","tel":"02-2611-7286","addr":"경기도 광명시 하안동 517-2번지","indutype":"레져용품 - 스포츠·레져용품","category":"other"}]},{"lat":"37.46290646","long":"126.8797109","imageIndex":17,"items":[{"name":"가은통신","tel":"02-899-4411","addr":"경기도 광명시 하안동 33-3번지 세일빌딩 101동 103호","indutype":"사무통신 - 통신기기","category":"other"},{"name":"동남","tel":"031-453-5688","addr":"경기도 광명시 하안동 33-3번지 세일빌딩 G동 3층","indutype":"사무통신 - 기타 사무용품","category":"other"},{"name":"비에이블스터디카페 광명하안센터","tel":"02-854-8255","addr":"경기도 광명시 하안동 33-3번지 세일빌딩 401호","indutype":"용역 서비스 - 사무서비스","category":"other"},{"name":"이레스포츠","tel":"02-894-5851","addr":"경기도 광명시 하안동 33-3번지 세일빌딩 G동 지하층 101호","indutype":"레져용품 - 스포츠·레져용품","category":"other"},{"name":"플스빌 광명 하안점","tel":"02-898-1909","addr":"경기도 광명시 하안동 33-3번지 세일빌딩 4층 1호","indutype":"서적문구 - 완구점","category":"other"},{"name":"하안정보통신","tel":"02-898-0199","addr":"경기도 광명시 하안동 33-3번지 세일빌딩 1층 104호","indutype":"사무통신 - 통신기기","category":"other"}]},{"lat":"37.46368446","long":"126.8661795","imageIndex":17,"items":[{"name":"갠이불플라워","tel":"02-898-4565","addr":"경기도 광명시 하안동 662-3번지 1층","indutype":"문화.취미 - 화원","category":"other"}]},{"lat":"37.4590972","long":"126.8731277","imageIndex":17,"items":[{"name":"건미건설","tel":"02-899-4123","addr":"경기도 광명시 하안동 611-7번지","indutype":"용역 서비스 - 기타용역서비스","category":"other"},{"name":"성원냉난방","tel":"02-897-1665","addr":"경기도 광명시 하안동 611-7번지 102호","indutype":"용역 서비스 - 기타용역서비스","category":"other"}]},{"lat":"37.45854322","long":"126.8774236","imageIndex":17,"items":[{"name":"경기광명지역자활센터","tel":"02-2612-0453","addr":"경기도 광명시 하안동 305-6번지 석산빌딩 501일부,502호,503호","indutype":"신변잡화 - 기타잡화","category":"other"},{"name":"베이비샤워","tel":"070-4827-1349","addr":"경기도 광명시 하안동 305-6번지 석산빌딩 2층 2호","indutype":"광학제품 - 사진관","category":"other"},{"name":"스트릿샵","tel":"02-8388-8949","addr":"경기도 광명시 하안동 305-6번지 석산빌딩 301-3호","indutype":"의류 - 정장","category":"other"},{"name":"자연을 담다","tel":"02-897-8472","addr":"경기도 광명시 하안동 305-6번지 석산빌딩 7층 1호","indutype":"신변잡화 - 기타잡화","category":"other"},{"name":"주주펫","tel":"070-8899-3927","addr":"경기도 광명시 하안동 305-6번지 석산빌딩 1층 102,103호","indutype":"문화.취미 - 애완동물","category":"other"},{"name":"케이에스디","tel":"02-806-6844","addr":"경기도 광명시 하안동 305-6번지 석산빌딩 3층 1호","indutype":"용역 서비스 - 종합용역","category":"other"},{"name":"한울자연통상","tel":"031-000-0000","addr":"경기도 광명시 하안동 305-6번지 석산빌딩 503호","indutype":"유통업 영리 - 기타유통업","category":"other"},{"name":"행복한 하루","tel":"02-897-3393","addr":"경기도 광명시 하안동 305-6번지 석산빌딩 201,202 2층 305-6호","indutype":"광학제품 - 사진관","category":"other"},{"name":"환경토탈","tel":"02-6403-9994","addr":"경기도 광명시 하안동 305-6번지 석산빌딩 401-1호","indutype":"신변잡화 - 기타잡화","category":"other"}]},{"lat":"37.45529633","long":"126.8587354","imageIndex":17,"items":[{"name":"경인창호금속","tel":"02-898-5321","addr":"경기도 광명시 하안동 454-1번지","indutype":"건축자재 - 보일러·펌프·샷시","category":"other"}]},{"lat":"37.4651521","long":"126.8817983","imageIndex":17,"items":[{"name":"경희스포츠","tel":"02-2617-5633","addr":"경기도 광명시 하안동 27번지 하안11단지고층주공아파트","indutype":"레져용품 - 스포츠·레져용품","category":"other"},{"name":"에이치엠스타즈컴퍼니","tel":"070-7807-5523","addr":"경기도 광명시 하안동 27번지 하안11단지고층주공아파트","indutype":"의류 - 정장","category":"other"}]},{"lat":"37.46553125","long":"126.8825099","imageIndex":17,"items":[{"name":"고유","tel":"","addr":"경기도 광명시 하안동 27번지 하안11단지고층주공아파트","indutype":"의류 - 정장","category":"other"},{"name":"라이온 정비기기","tel":"02-899-3756","addr":"경기도 광명시 하안동 27번지 하안11단지고층주공아파트","indutype":"기타 - 기계공구","category":"other"},{"name":"송프린팅서비스","tel":"02-571-7033","addr":"경기도 광명시 하안동 27번지 하안11단지고층주공아파트","indutype":"서적문구 - 문구용품","category":"other"}]},{"lat":"37.45824107","long":"126.8729596","imageIndex":17,"items":[{"name":"골프사랑","tel":"","addr":"경기도 광명시 하안동 319-7번지 2층","indutype":"레져용품 - 골프용품 전문점","category":"other"}]},{"lat":"37.45912563","long":"126.8829835","imageIndex":17,"items":[{"name":"광명 에어로빅 YAHA","tel":"02-898-9436","addr":"경기도 광명시 하안동 200-2번지 정산빌딩 지층 4호","indutype":"회원제형태 - 레져업소","category":"other"},{"name":"이레부엌가구","tel":"02-802-3824","addr":"경기도 광명시 하안동 200-2번지 정산빌딩 1층 11호","indutype":"주방용구 - 주방용구","category":"other"}]},{"lat":"37.46329767","long":"126.8667341","imageIndex":17,"items":[{"name":"광명(약수터)화원","tel":"02-899-8070","addr":"경기도 광명시 하안동 산58-2","indutype":"건축자재 - 기타건축자재","category":"other"}]},{"lat":"37.46890675","long":"126.8793732","imageIndex":17,"items":[{"name":"광명24시골프존","tel":"02-899-7050","addr":"경기도 광명시 하안동 24번지 2층","indutype":"회원제형태 - 레져업소","category":"other"},{"name":"광명기획","tel":"02-899-9839","addr":"경기도 광명시 하안동 24번지 광명골프연습장내 1층","indutype":"레져용품 - 골프용품 전문점","category":"other"},{"name":"광명더골프","tel":"02-897-6900","addr":"경기도 광명시 하안동 24번지 광명골프연습장내1층","indutype":"레져용품 - 스포츠·레져용품","category":"other"}]},{"lat":"37.45932639","long":"126.8767668","imageIndex":17,"items":[{"name":"광명방역공사","tel":"02-2689-0223","addr":"경기도 광명시 하안동 302-11번지 호연빌딩 705호","indutype":"용역 서비스 - 종합용역","category":"other"},{"name":"변호사이재범법률사무소","tel":"02-2631-1515","addr":"경기도 광명시 하안동 302-11번지 호연빌딩 601호","indutype":"용역 서비스 - 법률회계서비스(개인)","category":"other"},{"name":"엔텍시스템","tel":"02-2612-7236","addr":"경기도 광명시 하안동 302-11번지 욘빌딩 706호","indutype":"사무통신 - 컴퓨터","category":"other"}]},{"lat":"37.45521665","long":"126.8598997","imageIndex":17,"items":[{"name":"광명보육사","tel":"02-2681-7373","addr":"경기도 광명시 하안동 475-8번지","indutype":"서적문구 - 문구용품","category":"other"}]},{"lat":"37.46101473","long":"126.8800644","imageIndex":17,"items":[{"name":"광명복싱체육관","tel":"02-899-1272","addr":"경기도 광명시 하안동 52-5번지 4층 A,B,C호","indutype":"회원제형태 - 레져업소","category":"other"},{"name":"민정원목가구","tel":"02-804-6697","addr":"경기도 광명시 하안동 52-5번지 상업지구뉴코아 104호","indutype":"가구 - 일반가구","category":"other"},{"name":"씨유광명코아점","tel":"02-896-0999","addr":"경기도 광명시 하안동 52-5번지 (1층C호)","indutype":"유통업 영리 - 편 의 점","category":"other"}]},{"lat":"37.45576915","long":"126.8783776","imageIndex":17,"items":[{"name":"광명시보건소","tel":"02-2680-5536","addr":"경기도 광명시 하안동 230번지 광명시보건소","indutype":"기타의료기관 - 기타의료기관 및 기타","category":"other"},{"name":"광명시보건소","tel":"02-2680-5536","addr":"경기도 광명시 하안동 230번지 광명시보건소 보건사업과","indutype":"기타의료기관 - 기타의료기관 및 기타","category":"other"}]},{"lat":"37.4618184","long":"126.8732925","imageIndex":17,"items":[{"name":"광명시생활체육회","tel":"02-2680-2276","addr":"경기도 광명시 하안동 577-1번지 차량등록사업소건물 3층","indutype":"기타 - 비영리/대상","category":"other"},{"name":"광명시태권도협회(장학회)","tel":"02-2680-6255","addr":"경기도 광명시 하안동 577-1번지","indutype":"기타 - 비영리/비대상","category":"other"},{"name":"사단법인 바르게살기운동광명시협의회","tel":"02-804-8345","addr":"경기도 광명시 하안동 577-1번지 차량등록사업소 2층","indutype":"기타 - 비영리/비대상","category":"other"}]},{"lat":"37.46321482","long":"126.8731771","imageIndex":17,"items":[{"name":"광명시의사회","tel":"02-894-4450","addr":"경기도 광명시 하안동 682번지 하안1단지고층주공아파트","indutype":"기타 - 기타 전문점","category":"other"}]},{"lat":"37.46001785","long":"126.8832082","imageIndex":17,"items":[{"name":"광명시재활용센타","tel":"02-891-2543","addr":"경기도 광명시 하안동 110-7번지","indutype":"가구 - 일반가구","category":"other"},{"name":"기림정보시스템","tel":"02-891-4577","addr":"경기도 광명시 하안동 110-7번지","indutype":"사무통신 - 컴퓨터","category":"other"}]},{"lat":"37.46107379","long":"126.8762665","imageIndex":17,"items":[{"name":"광명우체국","tel":"02-896-1107","addr":"경기도 광명시 하안동 650-2번지","indutype":"용역 서비스 - 공공요금대행서비스/소","category":"other"}]},{"lat":"37.45970921","long":"126.8725163","imageIndex":17,"items":[{"name":"광명이벤트","tel":"02-899-3777","addr":"경기도 광명시 하안동 602-6번지","indutype":"용역 서비스 - 사무서비스","category":"other"}]},{"lat":"37.44832707","long":"126.8624555","imageIndex":17,"items":[{"name":"광명이화물류보관창고","tel":"02-2654-6000","addr":"경기도 광명시 하안동 390번지","indutype":"용역 서비스 - 보관및 창고업","category":"other"}]},{"lat":"37.46234687","long":"126.8787849","imageIndex":17,"items":[{"name":"광명자기주도학습관","tel":"02-896-1016","addr":"경기도 광명시 하안동 34-8제일프라자601~2호","indutype":"회원제형태 - 서적","category":"other"},{"name":"마이뷰티독","tel":"","addr":"경기도 광명시 하안동 34-8번지 제일프라자 2층 201호","indutype":"문화.취미 - 애완동물","category":"other"},{"name":"으뜸아이","tel":"02-891-3234","addr":"경기도 광명시 하안동 34-8번지 제일프라자 201호","indutype":"광학제품 - 사진관","category":"other"}]},{"lat":"37.45759762","long":"126.8778434","imageIndex":17,"items":[{"name":"광명자동차유리","tel":"02-898-1182","addr":"경기도 광명시 하안동 323-2번지","indutype":"건축자재 - 유리","category":"other"}]},{"lat":"37.46318486","long":"126.8788401","imageIndex":17,"items":[{"name":"광명장애인자립생활센터","tel":"02-897-7008","addr":"경기도 광명시 하안동 34-1번지 근영빌딩 503호","indutype":"수리서비스 - 기타수리서비스","category":"other"}]},{"lat":"37.47109745","long":"126.87218","imageIndex":17,"items":[{"name":"광명철산동우체국","tel":"031-898-0100","addr":"경기도 광명시 하안동 771번지","indutype":"용역 서비스 - 공공요금대행서비스/소","category":"other"}]},{"lat":"37.46717762","long":"126.8638559","imageIndex":17,"items":[{"name":"광명총판","tel":"02-898-2589","addr":"경기도 광명시 하안동 707-9번지 하안현대아파트","indutype":"전기제품 - 냉열기기","category":"other"}]},{"lat":"37.46349149","long":"126.8791221","imageIndex":17,"items":[{"name":"광명침구(우먼로드)","tel":"02-802-9178","addr":"경기도 광명시 하안동 33번지","indutype":"직물 - 침구·수예점","category":"other"}]},{"lat":"37.46070782","long":"126.879511","imageIndex":17,"items":[{"name":"광명하안서적","tel":"02-805-3800","addr":"경기도 광명시 하안동 52-1번지 동명빌딩 501호","indutype":"회원제형태 - 서적","category":"other"},{"name":"어라운드스터디룸 광명하안점","tel":"02-899-6295","addr":"경기도 광명시 하안동 52-1번지 동명빌딩 6층","indutype":"용역 서비스 - 사무서비스","category":"other"}]},{"lat":"37.45913299","long":"126.8729016","imageIndex":17,"items":[{"name":"구씨공방","tel":"02-899-3310","addr":"경기도 광명시 하안동 611-5번지","indutype":"주방용구 - 주방용구","category":"other"}]},{"lat":"37.4614661","long":"126.8809001","imageIndex":17,"items":[{"name":"국선도","tel":"02-2613-3664","addr":"경기도 광명시 하안동 62번지 금성빌딩 404호","indutype":"회원제형태 - 레져업소","category":"other"},{"name":"수","tel":"02-891-5574","addr":"경기도 광명시 하안동 62번지 금성빌딩 401호","indutype":"회원제형태 - 기타4","category":"other"},{"name":"아테나밸리코리아","tel":"02-897-2344","addr":"경기도 광명시 하안동 62번지 금성빌딩 5층 503호","indutype":"회원제형태 - 레져업소","category":"other"},{"name":"오르다코리아 광명지사","tel":"02-2684-5507","addr":"경기도 광명시 하안동 62번지 금성빌딩 504호","indutype":"회원제형태 - 서적","category":"other"},{"name":"호산나자연미","tel":"02-808-8720","addr":"경기도 광명시 하안동 62번지 금성빌딩 302호","indutype":"회원제형태 - 기타1","category":"other"}]},{"lat":"37.47084498","long":"126.8720109","imageIndex":17,"items":[{"name":"굿샷스크린골프클럽","tel":"02-897-0753","addr":"경기도 광명시 하안동 770번지 B101호경흥빌딩","indutype":"회원제형태 - 레져업소","category":"other"}]},{"lat":"37.46429705","long":"126.8741247","imageIndex":17,"items":[{"name":"그린재","tel":"02-1111-1111","addr":"경기도 광명시 하안동 682-1번지 하얀1단지 종합상가 1층 7호","indutype":"의류 - 정장","category":"other"},{"name":"꽃사랑","tel":"02-894-7783","addr":"경기도 광명시 하안동 682-1하안고층주공A1단지상가10","indutype":"문화.취미 - 화원","category":"other"},{"name":"나산지물포","tel":"02-809-6336","addr":"경기도 광명시 하안동 682-1 종합상사1층115","indutype":"직물 - 카페트,커튼,천막,지물","category":"other"},{"name":"노엘","tel":"","addr":"경기도 광명시 하안동 682-1번지 하안주공1단지상가 공7호","indutype":"신변잡화 - 가방","category":"other"},{"name":"블럭아이","tel":"02-809-9894","addr":"경기도 광명시 하안동 682-1번지 하안주공1단지종합상가 201호","indutype":"서적문구 - 완구점","category":"other"},{"name":"신아이레","tel":"02-3486-7200","addr":"경기도 광명시 하안동 682-1번지 (1단지상가11호)","indutype":"사무통신 - 통신기기","category":"other"},{"name":"예손인테리어","tel":"02-806-1317","addr":"경기도 광명시 하안동 682-1번지 하안주공1단지종합상가 124호","indutype":"건축자재 - 인테리어전문","category":"other"},{"name":"코코풍선","tel":"02-802-8081","addr":"경기도 광명시 하안동 682-1번지 주공1단지 종합상가","indutype":"신변잡화 - 기타잡화","category":"other"},{"name":"큐티팜 작업실","tel":"02-807-9846","addr":"경기도 광명시 하안동 682-1번지 1층 102호 하안주공1단지종합 상가","indutype":"문화.취미 - 민예·공예품","category":"other"}]},{"lat":"37.46367484","long":"126.8736397","imageIndex":17,"items":[{"name":"글로컬마켓","tel":"031-000-0000","addr":"경기도 광명시 하안동 682번지 하안1단지고층주공아파트","indutype":"직물 - 침구·수예점","category":"other"},{"name":"해피컴(비비샵)","tel":"031-1599-1321","addr":"경기도 광명시 하안동 682번지 하안1단지고층주공아파트","indutype":"회원제형태 - 기타4","category":"other"}]},{"lat":"37.46024268","long":"126.8742334","imageIndex":17,"items":[{"name":"글룹 (GUULLP)","tel":"","addr":"경기도 광명시 하안동 605-17번지","indutype":"의류 - 캐주얼의류","category":"other"}]},{"lat":"37.46479026","long":"126.8803973","imageIndex":17,"items":[{"name":"금성종합인테리어","tel":"02-891-4455","addr":"경기도 광명시 하안동 30-5번지 고층주공10단지 상가 110호","indutype":"수리서비스 - 기타수리서비스","category":"other"},{"name":"명문세탁소","tel":"02-891-2697","addr":"경기도 광명시 하안동 30-5번지 10단지 상가 207호","indutype":"수리서비스 - 세탁소","category":"other"}]},{"lat":"37.44843389","long":"126.8613704","imageIndex":17,"items":[{"name":"꽃배달농장","tel":"02-899-8234","addr":"경기도 광명시 하안동 397","indutype":"문화.취미 - 화원","category":"other"},{"name":"해룡광고산업","tel":"02-899-4353","addr":"경기도 광명시 하안동 397","indutype":"건축자재 - 인테리어전문","category":"other"}]},{"lat":"37.45593014","long":"126.8690418","imageIndex":17,"items":[{"name":"나나꽃농원","tel":"02-898-6116","addr":"경기도 광명시 하안동 339","indutype":"문화.취미 - 화원","category":"other"}]},{"lat":"37.45685","long":"126.8697861","imageIndex":17,"items":[{"name":"나무아래꽃향기골프화원","tel":"031-803-0418","addr":"경기도 광명시 하안동 339-11번지","indutype":"문화.취미 - 화원","category":"other"},{"name":"허브다육이","tel":"02-803-0418","addr":"경기도 광명시 하안동 339-11번지","indutype":"문화.취미 - 화원","category":"other"}]},{"lat":"37.44990579","long":"126.8641252","imageIndex":17,"items":[{"name":"난대국","tel":"02-898-0437","addr":"경기도 광명시 하안동 382번지","indutype":"문화.취미 - 화원","category":"other"}]},{"lat":"37.4513004","long":"126.8624839","imageIndex":17,"items":[{"name":"난친구","tel":"02-898-7173","addr":"경기도 광명시 하안동 417","indutype":"문화.취미 - 화원","category":"other"}]},{"lat":"37.46174342","long":"126.8789894","imageIndex":17,"items":[{"name":"남부교육산업","tel":"02-892-5778","addr":"경기도 광명시 하안동 36-1번지 제일빌딩 404호","indutype":"서적문구 - 문구용품","category":"other"},{"name":"랑데뷰영상제작실","tel":"02-897-0044","addr":"경기도 광명시 하안동 36-1번지 제일빌딩 지하 2호","indutype":"용역 서비스 - 종합용역","category":"other"},{"name":"마망스튜디오","tel":"02-802-8101","addr":"경기도 광명시 하안동 36-1번지 제일빌딩 4층 406호","indutype":"광학제품 - 사진관","category":"other"},{"name":"블랙퀸 다이어리","tel":"02-2687-7184","addr":"경기도 광명시 하안동 36-1번지 제일빌딩 309호","indutype":"의류 - 정장","category":"other"},{"name":"에이케이시스템","tel":"02-6403-8051","addr":"경기도 광명시 하안동 36-1번지 제일빌딩 601-2호","indutype":"의류 - 정장","category":"other"},{"name":"하안악기","tel":"02-894-0489","addr":"경기도 광명시 하안동 36-1번지 제일빌딩 606호","indutype":"레져용품 - 악기점","category":"other"},{"name":"하안풀잎문화센터","tel":"02-899-6866","addr":"경기도 광명시 하안동 36-1번지 제일빌딩 403호","indutype":"문화.취미 - 문화취미기타","category":"other"}]},{"lat":"37.4663418","long":"126.8656547","imageIndex":17,"items":[{"name":"내추럴휴(NATURAL HUE)","tel":"","addr":"경기도 광명시 하안동 864번지 이편한세상센트레빌아파트","indutype":"문화.취미 - 문화취미기타","category":"other"}]},{"lat":"37.46157255","long":"126.8792949","imageIndex":17,"items":[{"name":"눈에띄네","tel":"02-2060-7024","addr":"경기도 광명시 하안동 37-3번지 정산빌딩 102호","indutype":"의류 - 정장","category":"other"}]},{"lat":"37.4597358","long":"126.8721206","imageIndex":17,"items":[{"name":"뉴동진액자","tel":"02-897-1358","addr":"경기도 광명시 하안동 596-9번지","indutype":"신변잡화 - 기타잡화","category":"other"}]},{"lat":"37.46754414","long":"126.8773747","imageIndex":17,"items":[{"name":"뉴존디자인","tel":"070-7675-6404","addr":"경기도 광명시 하안동 13번지 하안9단지고층주공아파트","indutype":"용역 서비스 - 사무서비스","category":"other"}]},{"lat":"37.46068465","long":"126.8746734","imageIndex":17,"items":[{"name":"다로보안시스템","tel":"02-897-3335","addr":"경기도 광명시 하안동 605-6번지","indutype":"건축자재 - 목재·석재·철물","category":"other"}]},{"lat":"37.45877115","long":"126.8715911","imageIndex":17,"items":[{"name":"다운전산","tel":"02-6406-6425","addr":"경기도 광명시 하안동 586-8번지 103호","indutype":"사무통신 - 기타 사무용품","category":"other"},{"name":"중앙애드컴","tel":"02-2066-7743","addr":"경기도 광명시 하안동 586-8번지 101호","indutype":"서적문구 - 출판 및 인쇄물","category":"other"}]},{"lat":"37.45285309","long":"126.8574856","imageIndex":17,"items":[{"name":"단양건재","tel":"02-2615-7202","addr":"경기도 광명시 하안동 440-3 외2필지","indutype":"건축자재 - 기타건축자재","category":"other"}]},{"lat":"37.4605995","long":"126.8793191","imageIndex":17,"items":[{"name":"대기전기","tel":"031-894-6822","addr":"경기도 광명시 하안동 52번지 계명빌딩 101호","indutype":"건축자재 - 조명기구","category":"other"},{"name":"블럭쟁이","tel":"070-8804-2577","addr":"경기도 광명시 하안동 52번지 계명빌딩 3층 3호","indutype":"서적문구 - 완구점","category":"other"},{"name":"세븐일레븐광명하안중앙점","tel":"","addr":"경기도 광명시 하안동 52번지 계명빌딩 101호","indutype":"유통업 영리 - 편 의 점","category":"other"}]},{"lat":"37.46432534","long":"126.8671957","imageIndex":17,"items":[{"name":"대동연마재상사","tel":"02-898-8192","addr":"경기도 광명시 하안동 702번지 하안5단지고층주공아파트","indutype":"건축자재 - 기타건축자재","category":"other"},{"name":"로이기획 (팩)","tel":"","addr":"경기도 광명시 하안동 702번지 하안5단지고층주공아파트","indutype":"유통업 영리 - 기타유통업","category":"other"}]},{"lat":"37.46680208","long":"126.8743578","imageIndex":17,"items":[{"name":"대명정밀","tel":"02-2675-1061","addr":"경기도 광명시 하안동 682번지 하안1단지고층주공아파트","indutype":"회원제형태 - 기타4","category":"other"}]},{"lat":"37.45860006","long":"126.8716818","imageIndex":17,"items":[{"name":"대성보일러","tel":"02-898-1161","addr":"경기도 광명시 하안동 590-1번지","indutype":"건축자재 - 보일러·펌프·샷시","category":"other"}]},{"lat":"37.45710065","long":"126.8852359","imageIndex":17,"items":[{"name":"대윤테크","tel":"02-891-9666","addr":"경기도 광명시 하안동 201시범공단123","indutype":"기타 - 기계공구","category":"other"},{"name":"디엠바이오","tel":"","addr":"경기도 광명시 하안동 201번지 광명시범공단3동4층1~2호","indutype":"서적문구 - 과학기자재","category":"other"},{"name":"삼우시스템(주)/원격지","tel":"02-894-3673","addr":"경기도 광명시 하안동 201 시범공단 374","indutype":"기타 - 기타 전문점","category":"other"},{"name":"서명상사","tel":"02-6925-5020","addr":"경기도 광명시 하안동 201번지 광명시범공단444-3호","indutype":"레져용품 - 스포츠·레져용품","category":"other"},{"name":"송강산업","tel":"02-804-6625","addr":"경기도 광명시 하안동 201번지 광명시범공단부대 B동 621호","indutype":"신변잡화 - 기타잡화","category":"other"},{"name":"신명종합상사","tel":"02-895-2058","addr":"경기도 광명시 하안동 201번지 시범공단","indutype":"기타 - 기계공구","category":"other"},{"name":"엠보구코리아(M-bogu Korea)","tel":"070-4402-4008","addr":"경기도 광명시 하안동 201번지 관리동207호","indutype":"레져용품 - 스포츠·레져용품","category":"other"},{"name":"옥서스서비스","tel":"02-808-5205","addr":"경기도 광명시 하안동 201번지 광명시범공단1동2층3-2호","indutype":"수리서비스 - 기타수리서비스","category":"other"},{"name":"주식회사 논노패션","tel":"02-867-2345","addr":"경기도 광명시 하안동 201번지 시범공단 관리동 205호","indutype":"의류 - 정장","category":"other"},{"name":"주식회사 리버스톤미디어","tel":"02-898-4052","addr":"경기도 광명시 하안동 201번지 광명시범공단 243-2호","indutype":"광학제품 - 카메라","category":"other"},{"name":"주식회사 우진전자시스템","tel":"02-2614-0759","addr":"경기도 광명시 하안동 201번지 광명시범공단 462호","indutype":"전기제품 - 기타전기제품","category":"other"},{"name":"주식회사 하이온테크","tel":"02-585-4291","addr":"경기도 광명시 하안동 201번지 광명시범공단 4동7층3-1호","indutype":"사무통신 - 사무용 OA기기","category":"other"},{"name":"한진시스템","tel":"02-802-8551","addr":"경기도 광명시 하안동 201번지 시범공단 내관리동 211호","indutype":"전기제품 - 기타전기제품","category":"other"},{"name":"한진시스템/원격지","tel":"02-802-8551","addr":"경기도 광명시 하안동 201번지 시범공단 내관리동 211호","indutype":"기타 - 기타 전문점","category":"other"}]},{"lat":"37.46318545","long":"126.8794052","imageIndex":17,"items":[{"name":"대창상회","tel":"02-892-5222","addr":"경기도 광명시 하안동 33-1번지 다래빌딩 304호","indutype":"의류 - 내의판매","category":"other"},{"name":"마드모아젤","tel":"02-892-6168","addr":"경기도 광명시 하안동 33-1번지 다래빌딩 101호","indutype":"의류 - 정장","category":"other"},{"name":"우리한복대여맞춤","tel":"02-893-8922","addr":"경기도 광명시 하안동 33-1번지 다래빌딩 201호","indutype":"의류 - 맞춤복점","category":"other"},{"name":"위드미하안사거리점","tel":"02-6916-1500","addr":"경기도 광명시 하안동 33-1번지 다래빌딩 103호","indutype":"유통업 영리 - 편 의 점","category":"other"},{"name":"하안스튜디오","tel":"02-808-4488","addr":"경기도 광명시 하안동 33-1번지 다래빌딩 204호","indutype":"광학제품 - 사진관","category":"other"}]},{"lat":"37.45940683","long":"126.8761563","imageIndex":17,"items":[{"name":"대호정보통신","tel":"02-2612-6108","addr":"경기도 광명시 하안동 303-1번지 다카자동차쇼핑몰 B112,113호","indutype":"전기제품 - 기타전기제품","category":"other"},{"name":"동방열쇠","tel":"02-897-3330","addr":"경기도 광명시 하안동 303-1번지 다카자동차쇼핑몰 1층","indutype":"건축자재 - 목재·석재·철물","category":"other"},{"name":"조은 OA","tel":"070-4115-0244","addr":"경기도 광명시 하안동 303-1번지 다카자동차쇼핑몰 지하1층 14호","indutype":"사무통신 - 사무용 OA기기","category":"other"},{"name":"진성컴인","tel":"02-899-5757","addr":"경기도 광명시 하안동 303-1번지 다카자동차쇼핑몰 남서울유통센터 14","indutype":"서적문구 - 출판 및 인쇄물","category":"other"},{"name":"케이렌트카(주)","tel":"02-899-8200","addr":"경기도 광명시 하안동 303-1번지 다카자동차쇼핑몰 301호","indutype":"여행 - 렌터카","category":"other"}]},{"lat":"37.46080926","long":"126.8817714","imageIndex":17,"items":[{"name":"더나은","tel":"02-2066-8107","addr":"경기도 광명시 하안동 110번지 하안12단지고층주공아파트","indutype":"회원제형태 - 기타4","category":"other"}]},{"lat":"37.46154641","long":"126.8801539","imageIndex":17,"items":[{"name":"더블유스토어","tel":"02-802-1354","addr":"경기도 광명시 하안동 51번지 광명태흥빌딩 1층 102호","indutype":"유통업 영리 - 편 의 점","category":"other"}]},{"lat":"37.46168545","long":"126.8839515","imageIndex":17,"items":[{"name":"덕산 토탈인테리어","tel":"02-893-1319","addr":"경기도 광명시 하안동 110번지 하안12단지 상가 108호","indutype":"건축자재 - 인테리어전문","category":"other"}]},{"lat":"37.4616557","long":"126.881284","imageIndex":17,"items":[{"name":"데코젠","tel":"02-898-9423","addr":"경기도 광명시 하안동 62-2번지 뉴코리아나빌딩 1층 101호","indutype":"건축자재 - 인테리어전문","category":"other"},{"name":"빠이프행거","tel":"","addr":"경기도 광명시 하안동 62-2번지 뉴코리아나빌딩 102호","indutype":"의류 - 정장","category":"other"},{"name":"크린에이드","tel":"02-899-1170","addr":"경기도 광명시 하안동 62-2번지 뉴코리아나빌딩 502호","indutype":"수리서비스 - 세탁소","category":"other"},{"name":"힘이되는 방문요양센터","tel":"02-898-9192","addr":"경기도 광명시 하안동 62-2번지 뉴코리아나빌딩 402호","indutype":"기타의료기관 - 기타의료기관 및 기타","category":"other"}]},{"lat":"37.45882571","long":"126.8720431","imageIndex":17,"items":[{"name":"도담 화실","tel":"","addr":"경기도 광명시 하안동 595-5번지 1층","indutype":"문화.취미 - 문화취미기타","category":"other"},{"name":"세븐일레븐광명하안점","tel":"","addr":"경기도 광명시 하안동 595-5번지","indutype":"유통업 영리 - 편 의 점","category":"other"}]},{"lat":"37.46190652","long":"126.8798708","imageIndex":17,"items":[{"name":"도윤정보통신","tel":"02-898-0086","addr":"경기도 광명시 하안동 36-5번지 노벨빌딩 1층 일부","indutype":"사무통신 - 통신기기","category":"other"}]},{"lat":"37.45968381","long":"126.8740083","imageIndex":17,"items":[{"name":"동아상사","tel":"02-897-8251","addr":"경기도 광명시 하안동 607-12번지 1층","indutype":"직물 - 카페트,커튼,천막,지물","category":"other"}]},{"lat":"37.4585737","long":"126.8722922","imageIndex":17,"items":[{"name":"동양사무기기/특별할부","tel":"02-878-2700","addr":"경기도 광명시 하안동 590-5번지","indutype":"사무통신 - 컴퓨터","category":"other"}]},{"lat":"37.46379125","long":"126.8814614","imageIndex":17,"items":[{"name":"두바퀴오토바이총판점","tel":"02-806-0224","addr":"경기도 광명시 하안동 27-1번지 하안주공11단지교육센타 106호","indutype":"수리서비스 - 레져용품수리","category":"other"},{"name":"헬로멍","tel":"02-899-9525","addr":"경기도 광명시 하안동 27-1번지 1층 107호 (11단지유치원부지)","indutype":"문화.취미 - 애완동물","category":"other"}]},{"lat":"37.45959945","long":"126.8710358","imageIndex":17,"items":[{"name":"드림커피(WFC)","tel":"02-2108-5138","addr":"경기도 광명시 하안동 585번지 102호","indutype":"용역 서비스 - 소프트웨어","category":"other"}]},{"lat":"37.46538024","long":"126.8759653","imageIndex":17,"items":[{"name":"디자인플러스","tel":"","addr":"경기도 광명시 하안동 681번지 하안2단지고층주공아파트","indutype":"건축자재 - 인테리어전문","category":"other"}]},{"lat":"37.46427495","long":"126.8787252","imageIndex":17,"items":[{"name":"라미스타일","tel":"070-4671-7790","addr":"경기도 광명시 하안동 30번지 하안10단지고층주공아파트","indutype":"광학제품 - 사진관","category":"other"}]},{"lat":"37.45693032","long":"126.8773133","imageIndex":17,"items":[{"name":"라온","tel":"","addr":"경기도 광명시 하안동 242-5번지","indutype":"문화.취미 - 민예·공예품","category":"other"}]},{"lat":"37.46165378","long":"126.8794304","imageIndex":17,"items":[{"name":"라임","tel":"031-565-2823","addr":"경기도 광명시 하안동 37-4번지 성우빌딩 101호","indutype":"의류 - 정장","category":"other"}]},{"lat":"37.46312713","long":"126.8753927","imageIndex":17,"items":[{"name":"러블리","tel":"02-2690-3488","addr":"경기도 광명시 하안동 650번지 하안3단지고층주공아파트","indutype":"의류 - 정장","category":"other"},{"name":"하나","tel":"02-2682-0135","addr":"경기도 광명시 하안동 650번지 하안3단지고층주공아파트","indutype":"용역 서비스 - 종합용역","category":"other"}]},{"lat":"37.46271322","long":"126.875902","imageIndex":17,"items":[{"name":"럭키","tel":"02-893-6872","addr":"경기도 광명시 하안동 650번지 3단지 상가 125호","indutype":"직물 - 카페트,커튼,천막,지물","category":"other"}]},{"lat":"37.46610233","long":"126.8771736","imageIndex":17,"items":[{"name":"로파","tel":"02-895-6064","addr":"경기도 광명시 하안동 13-2번지 (9단지종합상가109호의2분지1)","indutype":"의류 - 정장","category":"other"},{"name":"우림세탁소","tel":"02-892-8471","addr":"경기도 광명시 하안동 13-2번지 하안주공9단지종합상가 종합상가 202호","indutype":"수리서비스 - 세탁소","category":"other"},{"name":"초원화원","tel":"02-892-1272","addr":"경기도 광명시 하안동 13-2번지 하안9단지 상가","indutype":"문화.취미 - 화원","category":"other"}]},{"lat":"37.46129688","long":"126.8742655","imageIndex":17,"items":[{"name":"루스","tel":"","addr":"경기도 광명시 하안동 598-7번지","indutype":"회원제형태 - 기타1","category":"other"}]},{"lat":"37.46148617","long":"126.8829007","imageIndex":17,"items":[{"name":"루시","tel":"02-898-7252","addr":"경기도 광명시 하안동 110-5번지 1층 101호(1/2)","indutype":"신변잡화 - 액세서리","category":"other"}]},{"lat":"37.45668241","long":"126.8814955","imageIndex":17,"items":[{"name":"뤼느(la lune)","tel":"031-000-0000","addr":"경기도 광명시 하안동 260번지 하안8단지주공아파트","indutype":"신변잡화 - 기타잡화","category":"other"},{"name":"삼익퍼니처","tel":"070-5031-0327","addr":"경기도 광명시 하안동 260번지 하안8단지주공아파트","indutype":"가구 - 일반가구","category":"other"}]},{"lat":"37.46616933","long":"126.8645586","imageIndex":17,"items":[{"name":"른른의 아뜰리에","tel":"070-8749-1332","addr":"경기도 광명시 하안동 702번지 하안5단지고층주공아파트","indutype":"회원제형태 - 기타4","category":"other"}]},{"lat":"37.45782311","long":"126.8780691","imageIndex":17,"items":[{"name":"리사이클씨티 광명하안점중고가전가구재활","tel":"02-899-8425","addr":"경기도 광명시 하안동 322-3번지","indutype":"신변잡화 - 기타잡화","category":"other"},{"name":"리사이클홈 광명점","tel":"02-899-8425","addr":"경기도 광명시 하안동 322-3번지 외1필지","indutype":"전기제품 - 가전제품","category":"other"}]},{"lat":"37.45976406","long":"126.8732396","imageIndex":17,"items":[{"name":"리치건설전기","tel":"02-898-6664","addr":"경기도 광명시 하안동 604-3번지 1층","indutype":"용역 서비스 - 기타용역서비스","category":"other"}]},{"lat":"37.4589067","long":"126.8719526","imageIndex":17,"items":[{"name":"마더네이쳐(Mother Nature)","tel":"02-803-0525","addr":"경기도 광명시 하안동 595-4번지 2층","indutype":"신변잡화 - 기타잡화","category":"other"}]},{"lat":"37.45974311","long":"126.8705948","imageIndex":17,"items":[{"name":"마블라멘","tel":"","addr":"경기도 광명시 하안동 578-3번지","indutype":"유통업 영리 - 기타유통업","category":"other"}]},{"lat":"37.46531597","long":"126.8748464","imageIndex":17,"items":[{"name":"매드케이","tel":"","addr":"경기도 광명시 하안동 682번지 하안1단지고층주공아파트","indutype":"의류 - 스포츠의류","category":"other"}]},{"lat":"37.46871128","long":"126.873518","imageIndex":17,"items":[{"name":"맥스","tel":"","addr":"경기도 광명시 하안동 863번지 광명두산위브트레지움","indutype":"용역 서비스 - 기타용역서비스","category":"other"},{"name":"호첸설비","tel":"","addr":"경기도 광명시 하안동 863번지 광명두산위브트레지움","indutype":"용역 서비스 - 기타용역서비스","category":"other"}]},{"lat":"37.461933","long":"126.8793395","imageIndex":17,"items":[{"name":"메디버디","tel":"02-801-1234","addr":"경기도 광명시 하안동 36-2번지","indutype":"용역 서비스 - 부동산 중개·임대","category":"other"}]},{"lat":"37.45787202","long":"126.8817875","imageIndex":17,"items":[{"name":"메이커스오일","tel":"","addr":"경기도 광명시 하안동 260번지 하안8단지주공아파트","indutype":"신변잡화 - 기타잡화","category":"other"}]},{"lat":"37.45623578","long":"126.8684309","imageIndex":17,"items":[{"name":"명선화원","tel":"02-898-3118","addr":"경기도 광명시 하안동 337-4번지","indutype":"문화.취미 - 화원","category":"other"}]},{"lat":"37.46257452","long":"126.8810904","imageIndex":17,"items":[{"name":"명이화플라워샵","tel":"02-806-4232","addr":"경기도 광명시 하안동 54-3번지 부림코아빌딩 103호","indutype":"문화.취미 - 화원","category":"other"},{"name":"베네치아가구","tel":"02-894-4141","addr":"경기도 광명시 하안동 54-3번지 부림코아빌딩 105호","indutype":"가구 - 일반가구","category":"other"},{"name":"빅아트 점핑클레이","tel":"02-899-1128","addr":"경기도 광명시 하안동 54-3번지 부림코아빌딩 2층 202호","indutype":"문화.취미 - 문화취미기타","category":"other"}]},{"lat":"37.46615025","long":"126.8636543","imageIndex":17,"items":[{"name":"모모코","tel":"","addr":"경기도 광명시 하안동 702번지 하안5단지고층주공아파트","indutype":"의류 - 아동의류","category":"other"},{"name":"지원프로","tel":"","addr":"경기도 광명시 하안동 702번지 하안5단지고층주공아파트","indutype":"용역 서비스 - 종합용역","category":"other"}]},{"lat":"37.46373942","long":"126.8669594","imageIndex":17,"items":[{"name":"무지개농원","tel":"02-899-7755","addr":"경기도 광명시 하안동 산58-22번지","indutype":"용역 서비스 - 부동산 중개·임대","category":"other"},{"name":"토브","tel":"","addr":"경기도 광명시 하안동 산58-22번지 2호","indutype":"문화.취미 - 화원","category":"other"},{"name":"포도나무 숲","tel":"02-897-8811","addr":"경기도 광명시 하안동 산58-22번지","indutype":"문화.취미 - 화원","category":"other"}]},{"lat":"37.45380028","long":"126.8659828","imageIndex":17,"items":[{"name":"문화수석분재조경원","tel":"02-864-1254","addr":"경기도 광명시 하안동 501-1번지","indutype":"문화.취미 - 화원","category":"other"},{"name":"백호꽃농원","tel":"02-2688-8228","addr":"경기도 광명시 하안동 501-1번지","indutype":"문화.취미 - 화원","category":"other"},{"name":"정수플라워","tel":"02-899-6948","addr":"경기도 광명시 하안동 501-1번지","indutype":"문화.취미 - 화원","category":"other"},{"name":"정수플라워","tel":"02-899-6948","addr":"경기도 광명시 하안동 501-1번지","indutype":"문화.취미 - 화원","category":"other"},{"name":"플라워뱅크","tel":"02-806-4545","addr":"경기도 광명시 하안동 501-1번지","indutype":"문화.취미 - 화원","category":"other"}]},{"lat":"37.46079223","long":"126.8741759","imageIndex":17,"items":[{"name":"미라클","tel":"070-7841-6214","addr":"경기도 광명시 하안동 599-4번지","indutype":"회원제형태 - 기타1","category":"other"}]},{"lat":"37.46265519","long":"126.8806834","imageIndex":17,"items":[{"name":"미래여성산후조리원","tel":"02-806-1002","addr":"경기도 광명시 하안동 53-4번지 8층","indutype":"기타의료기관 - 산후조리원","category":"other"},{"name":"예가작은여유광명하안점","tel":"02-899-9986","addr":"경기도 광명시 하안동 53-4번지 천일빌딩 504호","indutype":"회원제형태 - 기타4","category":"other"},{"name":"호수산후조리원","tel":"02-806-4555","addr":"경기도 광명시 하안동 53-4번지 천일빌딩 8층","indutype":"기타의료기관 - 산후조리원","category":"other"}]},{"lat":"37.46254686","long":"126.8804801","imageIndex":17,"items":[{"name":"미래휴산후조리원","tel":"02-892-2300","addr":"경기도 광명시 하안동 53-3번지 남전빌딩 4층","indutype":"기타의료기관 - 산후조리원","category":"other"},{"name":"주)좋은문구페이펄","tel":"02-897-7080","addr":"경기도 광명시 하안동 53-3번지","indutype":"서적문구 - 문구용품","category":"other"},{"name":"페이펄","tel":"02-897-7080","addr":"경기도 광명시 하안동 53-3번지 남전빌딩 지하1층","indutype":"문화.취미 - 화방·표구점","category":"other"}]},{"lat":"37.45812497","long":"126.8738979","imageIndex":17,"items":[{"name":"미미플라워","tel":"02-2611-5779","addr":"경기도 광명시 하안동 307-6번지","indutype":"문화.취미 - 화원","category":"other"},{"name":"하안식물원","tel":"02-898-8709","addr":"경기도 광명시 하안동 307-6번지","indutype":"문화.취미 - 화원","category":"other"}]},{"lat":"37.46234201","long":"126.8827976","imageIndex":17,"items":[{"name":"미즈","tel":"02-806-6451","addr":"경기도 광명시 하안동 110번지 하안12단지고층주공아파트","indutype":"직물 - 카페트,커튼,천막,지물","category":"other"}]},{"lat":"37.45879908","long":"126.8724048","imageIndex":17,"items":[{"name":"바른손기획","tel":"070-8227-3661","addr":"경기도 광명시 하안동 611번지","indutype":"용역 서비스 - 종합용역","category":"other"}]},{"lat":"37.4589618","long":"126.8729019","imageIndex":17,"items":[{"name":"바이크시대","tel":"031-474-2146","addr":"경기도 광명시 하안동 611-9번지 1층","indutype":"수리서비스 - 레져용품수리","category":"other"}]},{"lat":"37.4567379","long":"126.8587101","imageIndex":17,"items":[{"name":"밤일농원","tel":"02-898-2491","addr":"경기도 광명시 하안동 465번지","indutype":"농업 - 비료,사료,종자","category":"other"}]},{"lat":"37.45143657","long":"126.8633425","imageIndex":17,"items":[{"name":"밤일농원","tel":"02-899-7586","addr":"경기도 광명시 하안동 413-3","indutype":"문화.취미 - 화원","category":"other"}]},{"lat":"37.45958065","long":"126.8786313","imageIndex":17,"items":[{"name":"베르씨 빌라쥬","tel":"02-472-3126","addr":"경기도 광명시 하안동 296번지","indutype":"회원제형태 - 기타4","category":"other"}]},{"lat":"37.45193216","long":"126.8633755","imageIndex":17,"items":[{"name":"베스트스크린골프존","tel":"02-899-7790","addr":"경기도 광명시 하안동 884-4번지 3층","indutype":"회원제형태 - 레져업소","category":"other"}]},{"lat":"37.46953057","long":"126.8729514","imageIndex":17,"items":[{"name":"베스트퓨어","tel":"","addr":"경기도 광명시 하안동 863번지 광명두산위브트레지움","indutype":"신변잡화 - 기타잡화","category":"other"}]},{"lat":"37.46775067","long":"126.8767187","imageIndex":17,"items":[{"name":"베키","tel":"02-898-1559","addr":"경기도 광명시 하안동 13번지 하안9단지고층주공아파트","indutype":"회원제형태 - 기타4","category":"other"},{"name":"아이티와이","tel":"031-337-5629","addr":"경기도 광명시 하안동 13번지 하안9단지고층주공아파트","indutype":"회원제형태 - 기타1","category":"other"}]},{"lat":"37.46304082","long":"126.8789533","imageIndex":17,"items":[{"name":"보훈당","tel":"02-807-0110","addr":"경기도 광명시 하안동 34-2번지 상업지구목화빌딩","indutype":"신변잡화 - 시계","category":"other"},{"name":"보훈토탈인테리어","tel":"02-895-5408","addr":"경기도 광명시 하안동 34-2번지 목화빌딩 2층","indutype":"직물 - 카페트,커튼,천막,지물","category":"other"},{"name":"스콜라","tel":"02-897-7905","addr":"경기도 광명시 하안동 34-2번지 목화빌딩 3층 302호","indutype":"서적문구 - 문구용품","category":"other"}]},{"lat":"37.46668638","long":"126.8756805","imageIndex":17,"items":[{"name":"복지종합보수","tel":"02-804-0482","addr":"경기도 광명시 하안동 681-4번지","indutype":"수리서비스 - 기타수리서비스","category":"other"},{"name":"하안렘포레","tel":"02-891-3388","addr":"경기도 광명시 하안동 681-4번지 3층 시호","indutype":"서적문구 - 기타서적문구","category":"other"}]},{"lat":"37.46925061","long":"126.8723641","imageIndex":17,"items":[{"name":"블럭앤블랙(하안점)","tel":"070-4204-8502","addr":"경기도 광명시 하안동 863번지 두산트레지움 상가 207동 201호","indutype":"서적문구 - 완구점","category":"other"},{"name":"클린워시세탁전문점","tel":"02-899-9909","addr":"경기도 광명시 하안동 863번지 광명두산위브트레지움 1층 상가동 1층 113호일부","indutype":"수리서비스 - 세탁소","category":"other"}]},{"lat":"37.46854203","long":"126.8672107","imageIndex":17,"items":[{"name":"비손문구팬시","tel":"02-898-3374","addr":"경기도 광명시 하안동 864 가동상가 106호","indutype":"서적문구 - 문구용품","category":"other"},{"name":"이편한세탁소","tel":"02-898-7715","addr":"경기도 광명시 하안동 864 이편한센트레빌나상가 103","indutype":"수리서비스 - 세탁소","category":"other"}]},{"lat":"37.45741337","long":"126.8826246","imageIndex":17,"items":[{"name":"빈트(Vint)","tel":"","addr":"경기도 광명시 하안동 260번지 하안8단지주공아파트","indutype":"신변잡화 - 기타잡화","category":"other"},{"name":"혜정화예조형연구소","tel":"070-8784-0425","addr":"경기도 광명시 하안동 260번지 하안8단지주공아파트","indutype":"회원제형태 - 기타4","category":"other"}]},{"lat":"37.46202085","long":"126.8772144","imageIndex":17,"items":[{"name":"뽐한복","tel":"","addr":"경기도 광명시 하안동 650번지 하안3단지고층주공아파트","indutype":"의류 - 맞춤복점","category":"other"}]},{"lat":"37.45765299","long":"126.870768","imageIndex":17,"items":[{"name":"사군자농원","tel":"02-898-3382","addr":"경기도 광명시 하안동 317-27번지 두필지","indutype":"문화.취미 - 화원","category":"other"},{"name":"어울림플라워","tel":"02-898-5690","addr":"경기도 광명시 하안동 317-27번지","indutype":"문화.취미 - 화원","category":"other"},{"name":"예빈플라워","tel":"02-899-5639","addr":"경기도 광명시 하안동 317-27번지 외두필지","indutype":"문화.취미 - 화원","category":"other"}]},{"lat":"37.46084711","long":"126.8749331","imageIndex":17,"items":[{"name":"사람과컴퓨터","tel":"02-897-4884","addr":"경기도 광명시 하안동 605-8번지","indutype":"사무통신 - 컴퓨터","category":"other"}]},{"lat":"37.46598297","long":"126.8670118","imageIndex":17,"items":[{"name":"사진찍어주는곳","tel":"070-2699-0807","addr":"경기도 광명시 하안동 864번지 이편한세상센트레빌아파트","indutype":"광학제품 - 사진관","category":"other"},{"name":"아젤리아","tel":"02-2616-4843","addr":"경기도 광명시 하안동 864번지 이편한세상센트레빌아파트","indutype":"직물 - 카페트,커튼,천막,지물","category":"other"},{"name":"임미화플랜트아트","tel":"070-4122-3141","addr":"경기도 광명시 하안동 864번지 이편한세상센트레빌아파트","indutype":"회원제형태 - 기타4","category":"other"}]},{"lat":"37.46157561","long":"126.8737338","imageIndex":17,"items":[{"name":"사회복지법인 빛나라","tel":"02-897-2969","addr":"경기도 광명시 하안동 581-6 3층","indutype":"기타 - 비영리/대상","category":"other"}]},{"lat":"37.46769482","long":"126.8669748","imageIndex":17,"items":[{"name":"삼성정보통신","tel":"070-8187-8148","addr":"경기도 광명시 하안동 864번지 이편한세상센트레빌아파트","indutype":"사무통신 - 통신기기","category":"other"}]},{"lat":"37.45857324","long":"126.871874","imageIndex":17,"items":[{"name":"삼우상사","tel":"","addr":"경기도 광명시 하안동 590-2번지 102호","indutype":"서적문구 - 과학기자재","category":"other"},{"name":"삼우상사","tel":"02-2684-4620","addr":"경기도 광명시 하안동 590-2번지 지층 102호","indutype":"서적문구 - 과학기자재","category":"other"}]},{"lat":"37.45659685","long":"126.8612873","imageIndex":17,"items":[{"name":"삼원중기","tel":"02-2607-1495","addr":"경기도 광명시 하안동 471-1","indutype":"수리서비스 - 기타수리서비스","category":"other"}]},{"lat":"37.46512676","long":"126.8667873","imageIndex":17,"items":[{"name":"삼융공인중개사사무소","tel":"02-898-9066","addr":"경기도 광명시 하안동 702-1번지 5단지종합상가 103호","indutype":"용역 서비스 - 부동산 중개·임대","category":"other"}]},{"lat":"37.46709127","long":"126.8751599","imageIndex":17,"items":[{"name":"삼익피아노조율센타","tel":"02-892-9155","addr":"경기도 광명시 하안동 681번지 하안2단지고층주공아파트","indutype":"수리서비스 - 기타수리서비스","category":"other"}]},{"lat":"37.46408405","long":"126.8771318","imageIndex":17,"items":[{"name":"샘물대성유통","tel":"02-6166-9919","addr":"경기도 광명시 하안동 651번지 하안4단지고층주공아파트","indutype":"회원제형태 - 기타4","category":"other"}]},{"lat":"37.45884927","long":"126.8771518","imageIndex":17,"items":[{"name":"선두웨딩컴퍼니","tel":"02-899-6601","addr":"경기도 광명시 하안동 305-4번지 숭천빌딩 4층 1호","indutype":"신변잡화 - 기타잡화","category":"other"},{"name":"씨유광명창원점","tel":"02-898-1793","addr":"경기도 광명시 하안동 305-4번지 창원빌딩 1층","indutype":"유통업 영리 - 편 의 점","category":"other"},{"name":"아이누리","tel":"02-899-5282","addr":"경기도 광명시 하안동 305-4번지 숭천빌딩8층 4","indutype":"회원제형태 - 서적","category":"other"},{"name":"아이로프","tel":"070-8833-4665","addr":"경기도 광명시 하안동 305-4번지 숭천빌딩 501호","indutype":"레져용품 - 스포츠·레져용품","category":"other"},{"name":"아이자람교육센터","tel":"02-899-5282","addr":"경기도 광명시 하안동 305-4번지 창원빌딩 3층 4호","indutype":"서적문구 - 기타서적문구","category":"other"}]},{"lat":"37.46807695","long":"126.8785268","imageIndex":17,"items":[{"name":"선우시스템","tel":"02-6269-3920","addr":"경기도 광명시 하안동 13번지 하안9단지고층주공아파트","indutype":"회원제형태 - 기타1","category":"other"},{"name":"포토키즈","tel":"","addr":"경기도 광명시 하안동 13번지 하안9단지고층주공아파트","indutype":"광학제품 - 사진관","category":"other"}]},{"lat":"37.45921421","long":"126.8730145","imageIndex":17,"items":[{"name":"선일인테리어","tel":"02-6674-2525","addr":"경기도 광명시 하안동 611-6번지","indutype":"건축자재 - 인테리어전문","category":"other"},{"name":"한샘애드","tel":"02-897-3648","addr":"경기도 광명시 하안동 611-6번지 103호","indutype":"회원제형태 - 기타4","category":"other"}]},{"lat":"37.46016044","long":"126.8731824","imageIndex":17,"items":[{"name":"세기공조써비스","tel":"02-897-9004","addr":"경기도 광명시 하안동 601-5번지","indutype":"전기제품 - 냉열기기","category":"other"}]},{"lat":"37.46129271","long":"126.8787867","imageIndex":17,"items":[{"name":"세라","tel":"02-0000-0000","addr":"경기도 광명시 하안동 37번지 신영빌딩 1층 102호","indutype":"의류 - 정장","category":"other"}]},{"lat":"37.4601885","long":"126.8741205","imageIndex":17,"items":[{"name":"세탁천국","tel":"02-899-8481","addr":"경기도 광명시 하안동 605-18","indutype":"수리서비스 - 세탁소","category":"other"}]},{"lat":"37.45745145","long":"126.8846477","imageIndex":17,"items":[{"name":"셈소닉","tel":"02-802-2862","addr":"경기도 광명시 하안동 201광명시범공단3동6층4호","indutype":"전기제품 - 기타전기제품","category":"other"},{"name":"셈소닉/원격지","tel":"02-802-2862","addr":"경기도 광명시 하안동 201광명시범공단3동6층4호","indutype":"기타 - 기타 전문점","category":"other"}]},{"lat":"37.46450962","long":"126.8791205","imageIndex":17,"items":[{"name":"소윤스킨케어","tel":"02-807-8437","addr":"경기도 광명시 하안동 30번지 하안10단지고층주공아파트","indutype":"회원제형태 - 기타1","category":"other"}]},{"lat":"37.4591047","long":"126.8717601","imageIndex":17,"items":[{"name":"솔빛교육","tel":"02-897-8380","addr":"경기도 광명시 하안동 595-2번지 101호","indutype":"서적문구 - 기타서적문구","category":"other"}]},{"lat":"37.45834933","long":"126.881572","imageIndex":17,"items":[{"name":"수도119광명대리점","tel":"02-899-3119","addr":"경기도 광명시 하안동 260번지 하안8단지주공아파트","indutype":"회원제형태 - 기타4","category":"other"},{"name":"아이꿈터 광명점","tel":"031-444-9895","addr":"경기도 광명시 하안동 260번지 하안8단지주공아파트","indutype":"서적문구 - 문구용품","category":"other"}]},{"lat":"37.45990581","long":"126.8793993","imageIndex":17,"items":[{"name":"수인테리어","tel":"02-899-7760","addr":"경기도 광명시 하안동 295-1번지 7단지 상가 104호","indutype":"건축자재 - 인테리어전문","category":"other"},{"name":"유정세탁","tel":"02-805-6263","addr":"경기도 광명시 하안동 295-1번지 하안주공7단지 종합상가 205호","indutype":"수리서비스 - 세탁소","category":"other"}]},{"lat":"37.46429481","long":"126.8641777","imageIndex":17,"items":[{"name":"숙자상회","tel":"","addr":"경기도 광명시 하안동 702번지 하안5단지고층주공아파트","indutype":"의류 - 정장","category":"other"}]},{"lat":"37.45981919","long":"126.8742115","imageIndex":17,"items":[{"name":"스마트정보통신","tel":"02-894-2220","addr":"경기도 광명시 하안동 607-10번지","indutype":"용역 서비스 - 기타용역서비스","category":"other"},{"name":"합자신영위생","tel":"031-111-1111","addr":"경기도 광명시 하안동 607-10번지 1층","indutype":"용역 서비스 - 종합용역","category":"other"}]},{"lat":"37.46376327","long":"126.8642239","imageIndex":17,"items":[{"name":"스마트존","tel":"","addr":"경기도 광명시 하안동 702번지 하안5단지고층주공아파트","indutype":"전기제품 - 기타전기제품","category":"other"}]},{"lat":"37.46515946","long":"126.8639161","imageIndex":17,"items":[{"name":"스카이크린","tel":"050-4570-2893","addr":"경기도 광명시 하안동 702번지 하안5단지고층주공아파트","indutype":"용역 서비스 - 종합용역","category":"other"}]},{"lat":"37.4604655","long":"126.8720177","imageIndex":17,"items":[{"name":"스튜디오 여기","tel":"","addr":"경기도 광명시 하안동 580번지 102호","indutype":"주방용구 - 주방용식기","category":"other"}]},{"lat":"37.46079812","long":"126.879703","imageIndex":17,"items":[{"name":"슬라임토피아","tel":"070-4111-5400","addr":"경기도 광명시 하안동 52-2번지 대하빌딩 401호","indutype":"서적문구 - 완구점","category":"other"},{"name":"승현인테리어","tel":"02-804-3336","addr":"경기도 광명시 하안동 52-2번지","indutype":"직물 - 카페트,커튼,천막,지물","category":"other"}]},{"lat":"37.46009761","long":"126.8733972","imageIndex":17,"items":[{"name":"신나는에듀","tel":"","addr":"경기도 광명시 하안동 601-13번지 17-1 , 202","indutype":"문화.취미 - 문화취미기타","category":"other"}]},{"lat":"37.46665177","long":"126.8770144","imageIndex":17,"items":[{"name":"신바람플라워","tel":"02-892-5063","addr":"경기도 광명시 하안동 13번지 하안9단지고층주공아파트","indutype":"회원제형태 - 기타4","category":"other"}]},{"lat":"37.4662264","long":"126.8752405","imageIndex":17,"items":[{"name":"싱싱한과일","tel":"02-2616-1235","addr":"경기도 광명시 하안동 681번지 하안2단지고층주공아파트","indutype":"회원제형태 - 기타1","category":"other"},{"name":"에듀봇","tel":"","addr":"경기도 광명시 하안동 681번지 하안2단지고층주공아파트","indutype":"서적문구 - 기타서적문구","category":"other"},{"name":"케이원(K-1) 파워텍","tel":"","addr":"경기도 광명시 하안동 681번지 하안2단지고층주공아파트","indutype":"용역 서비스 - 기타용역서비스","category":"other"}]},{"lat":"37.45982651","long":"126.8726743","imageIndex":17,"items":[{"name":"쎈수학","tel":"02-808-0365","addr":"경기도 광명시 하안동 601번지 203호","indutype":"회원제형태 - 서적","category":"other"}]},{"lat":"37.45890198","long":"126.8677593","imageIndex":17,"items":[{"name":"씨아이주식회사","tel":"02-898-5044","addr":"경기도 광명시 하안동 567-2번지","indutype":"기타 - 기계공구","category":"other"}]},{"lat":"37.45818513","long":"126.8712644","imageIndex":17,"items":[{"name":"씨에스마케팅","tel":"031-111-1111","addr":"경기도 광명시 하안동 317-23번지","indutype":"용역 서비스 - 종합용역","category":"other"},{"name":"씨에스마케팅","tel":"031-111-1111","addr":"경기도 광명시 하안동 317-23번지 1층","indutype":"용역 서비스 - 종합용역","category":"other"}]},{"lat":"37.46176405","long":"126.8815099","imageIndex":17,"items":[{"name":"씨유광명스마일점","tel":"02-898-7566","addr":"경기도 광명시 하안동 62-4번지 우성빌딩 101호","indutype":"유통업 영리 - 편 의 점","category":"other"},{"name":"한양홈서비스","tel":"02-898-7929","addr":"경기도 광명시 하안동 62-4번지 우성빌딩 105호","indutype":"건축자재 - 목재·석재·철물","category":"other"}]},{"lat":"37.46682141","long":"126.8755673","imageIndex":17,"items":[{"name":"씨유광명하안주공점","tel":"080-080-3663","addr":"경기도 광명시 하안동 681-3번지 주공2단지일반상가 1층 102호, 101호 일부","indutype":"유통업 영리 - 편 의 점","category":"other"},{"name":"하일왕자서점","tel":"02-892-8919","addr":"경기도 광명시 하안동 681-3번지","indutype":"서적문구 - 일반서적","category":"other"}]},{"lat":"37.45988021","long":"126.8723464","imageIndex":17,"items":[{"name":"씨유하안1동점","tel":"02-898-6378","addr":"경기도 광명시 하안동 596-7번지 1층","indutype":"유통업 영리 - 편 의 점","category":"other"}]},{"lat":"37.46215728","long":"126.8784236","imageIndex":17,"items":[{"name":"아르떼플라워","tel":"02-899-0457","addr":"경기도 광명시 하안동 34-10번지 삼성빌딩 104호","indutype":"문화.취미 - 화원","category":"other"},{"name":"요가힐","tel":"02-899-8330","addr":"경기도 광명시 하안동 34-10번지 삼성빌딩 301호","indutype":"회원제형태 - 레져업소","category":"other"},{"name":"토즈멤버십라운지 하안센터","tel":"02-898-0302","addr":"경기도 광명시 하안동 34-10번지 삼성빌딩 701-1호","indutype":"용역 서비스 - 사무서비스","category":"other"}]},{"lat":"37.46035165","long":"126.8750131","imageIndex":17,"items":[{"name":"아이더준","tel":"02-855-1293","addr":"경기도 광명시 하안동 606-12번지","indutype":"서적문구 - 기타서적문구","category":"other"}]},{"lat":"37.45907233","long":"126.8837296","imageIndex":17,"items":[{"name":"아이들세상","tel":"02-895-8702","addr":"경기도 광명시 하안동 200번지 하안13단지고층주공아파트 200외5필지 1304동 101호","indutype":"용역 서비스 - 사무서비스","category":"other"}]},{"lat":"37.46187737","long":"126.8778476","imageIndex":17,"items":[{"name":"아이보람광명","tel":"02-897-8919","addr":"경기도 광명시 하안동 651-1번지 송화빌딩 6층 602호","indutype":"서적문구 - 일반서적","category":"other"}]},{"lat":"37.46359162","long":"126.8800941","imageIndex":17,"items":[{"name":"아이사랑교육사","tel":"02-889-8712","addr":"경기도 광명시 하안동 30번지 하안10단지고층주공아파트","indutype":"서적문구 - 일반서적","category":"other"}]},{"lat":"37.46580333","long":"126.8756142","imageIndex":17,"items":[{"name":"아이엠어스쿠버다이버","tel":"","addr":"경기도 광명시 하안동 681번지 하안2단지고층주공아파트","indutype":"회원제형태 - 기타4","category":"other"}]},{"lat":"37.45332626","long":"126.861316","imageIndex":17,"items":[{"name":"아지트토탈패션","tel":"","addr":"경기도 광명시 하안동 874-4번지 103호","indutype":"의류 - 정장","category":"other"}]},{"lat":"37.46223859","long":"126.8786269","imageIndex":17,"items":[{"name":"아카데미라운지 하안모임센터","tel":"02-802-0240","addr":"경기도 광명시 하안동 34-9번지 원촌빌딩 502호","indutype":"용역 서비스 - 사무서비스","category":"other"}]},{"lat":"37.4680971","long":"126.8642498","imageIndex":17,"items":[{"name":"애니샘","tel":"","addr":"경기도 광명시 하안동 707-7번지 광명하안현대아파트","indutype":"서적문구 - 완구점","category":"other"}]},{"lat":"37.46179361","long":"126.8753497","imageIndex":17,"items":[{"name":"애란플라워","tel":"02-897-0181","addr":"경기도 광명시 하안동 650번지 하안3단지고층주공아파트","indutype":"문화.취미 - 화원","category":"other"}]},{"lat":"37.45196605","long":"126.8615672","imageIndex":17,"items":[{"name":"앳더트리헬스케어","tel":"02-111-1111","addr":"경기도 광명시 하안동 887-6번지 3층","indutype":"신변잡화 - 가방","category":"other"}]},{"lat":"37.46218041","long":"126.8747726","imageIndex":17,"items":[{"name":"어진 컴퍼니","tel":"","addr":"경기도 광명시 하안동 650번지 하안3단지고층주공아파트","indutype":"신변잡화 - 액세서리","category":"other"}]},{"lat":"37.46401058","long":"126.875832","imageIndex":17,"items":[{"name":"에듀바비 서울양천지점","tel":"","addr":"경기도 광명시 하안동 650번지 하안3단지고층주공아파트","indutype":"용역 서비스 - 사무서비스","category":"other"}]},{"lat":"37.4649109","long":"126.8751975","imageIndex":17,"items":[{"name":"에루화","tel":"070-7802-8999","addr":"경기도 광명시 하안동 682번지 하안1단지고층주공아파트","indutype":"신변잡화 - 액세서리","category":"other"},{"name":"좋은유통","tel":"031-000-0000","addr":"경기도 광명시 하안동 682번지 하안1단지고층주공아파트","indutype":"신변잡화 - 기타잡화","category":"other"}]},{"lat":"37.46406108","long":"126.8810089","imageIndex":17,"items":[{"name":"에이쓰리","tel":"","addr":"경기도 광명시 하안동 27번지 하안11단지고층주공아파트","indutype":"용역 서비스 - 기타용역서비스","category":"other"}]},{"lat":"37.46548996","long":"126.8774572","imageIndex":17,"items":[{"name":"에코&필스킨","tel":"02-804-3224","addr":"경기도 광명시 하안동 30-1번지 중앙상가제4층 제3-2","indutype":"회원제형태 - 기타4","category":"other"},{"name":"중앙수족관","tel":"02-894-1124","addr":"경기도 광명시 하안동 30-1번지 중앙상가 1층","indutype":"문화.취미 - 화원","category":"other"}]},{"lat":"37.45735547","long":"126.870599","imageIndex":17,"items":[{"name":"연인테리어&인텍스가구","tel":"02-898-7300","addr":"경기도 광명시 하안동 339-1번지","indutype":"가구 - 일반가구","category":"other"},{"name":"조은합판목재","tel":"02-899-5513","addr":"경기도 광명시 하안동 339-1번지","indutype":"건축자재 - 목재·석재·철물","category":"other"}]},{"lat":"37.46029583","long":"126.8733969","imageIndex":17,"items":[{"name":"열린유통","tel":"02-897-0788","addr":"경기도 광명시 하안동 601-7번지","indutype":"서적문구 - 문구용품","category":"other"}]},{"lat":"37.46494171","long":"126.8787467","imageIndex":17,"items":[{"name":"예스온","tel":"02-566-4255","addr":"경기도 광명시 하안동 30번지 하안10단지고층주공아파트","indutype":"회원제형태 - 기타4","category":"other"}]},{"lat":"37.45882745","long":"126.8821476","imageIndex":17,"items":[{"name":"오리날다","tel":"02-806-9385","addr":"경기도 광명시 하안동 260-2번지 8단지종합상가 111호","indutype":"신변잡화 - 기타잡화","category":"other"},{"name":"하안인테리어","tel":"02-808-4200","addr":"경기도 광명시 하안동 260-2번지 8단지종합상가 113호","indutype":"건축자재 - 인테리어전문","category":"other"}]},{"lat":"37.45623735","long":"126.8780717","imageIndex":17,"items":[{"name":"온오프코리아 주식회사 (대표)","tel":"02-1600-8952","addr":"경기도 광명시 하안동 232번지 2층","indutype":"유통업 영리 - 인터넷P/G","category":"other"}]},{"lat":"37.44935012","long":"126.8666577","imageIndex":17,"items":[{"name":"우리네 자원","tel":"","addr":"경기도 광명시 하안동 376번지","indutype":"전기제품 - 가전제품","category":"other"}]},{"lat":"37.45996189","long":"126.8728775","imageIndex":17,"items":[{"name":"우리동네 옷가게","tel":"02-899-5759","addr":"경기도 광명시 하안동 601-2번지","indutype":"의류 - 정장","category":"other"}]},{"lat":"37.46371213","long":"126.8667333","imageIndex":17,"items":[{"name":"우리들화원","tel":"02-898-8880","addr":"경기도 광명시 하안동 661-2번지","indutype":"문화.취미 - 화원","category":"other"}]},{"lat":"37.46720377","long":"126.8792743","imageIndex":17,"items":[{"name":"원플러스시스템","tel":"02-804-3224","addr":"경기도 광명시 하안동 13번지 하안9단지고층주공아파트","indutype":"수리서비스 - 기타수리서비스","category":"other"}]},{"lat":"37.46037716","long":"126.8821338","imageIndex":17,"items":[{"name":"유스토어","tel":"02-6332-3756","addr":"경기도 광명시 하안동 110번지 하안12단지고층주공아파트","indutype":"사무통신 - 컴퓨터","category":"other"}]},{"lat":"37.46001749","long":"126.8742903","imageIndex":17,"items":[{"name":"유일산업","tel":"02-897-1649","addr":"경기도 광명시 하안동 606번지","indutype":"광학제품 - 기타광학제품","category":"other"}]},{"lat":"37.45671038","long":"126.8824223","imageIndex":17,"items":[{"name":"유현유통","tel":"02-803-1417","addr":"경기도 광명시 하안동 260번지 하안8단지주공아파트","indutype":"회원제형태 - 기타4","category":"other"}]},{"lat":"37.4622947","long":"126.8805935","imageIndex":17,"items":[{"name":"윤선생영어교실","tel":"02-894-3100","addr":"경기도 광명시 하안동 54번지 청진빌딩 201호","indutype":"서적문구 - 일반서적","category":"other"},{"name":"코델리아","tel":"02-896-6778","addr":"경기도 광명시 하안동 54번지 청진빌딩 103호","indutype":"의류 - 정장","category":"other"}]},{"lat":"37.46237596","long":"126.8807629","imageIndex":17,"items":[{"name":"윤선생영어교실하안대리점","tel":"02-894-3319","addr":"경기도 광명시 하안동 54-1번지 한진빌딩 302호","indutype":"서적문구 - 전문서적","category":"other"},{"name":"한중피부경락센터","tel":"02-804-7868","addr":"경기도 광명시 하안동 54-1번지 한진빌딩 3층 3호","indutype":"회원제형태 - 기타4","category":"other"},{"name":"홍선생미술광명지사","tel":"02-898-1203","addr":"경기도 광명시 하안동 54-1번지 한진빌딩 603호","indutype":"회원제형태 - 서적","category":"other"}]},{"lat":"37.45813219","long":"126.8806907","imageIndex":17,"items":[{"name":"이끌림","tel":"070-8252-7502","addr":"경기도 광명시 하안동 260번지 하안8단지주공아파트","indutype":"의류 - 내의판매","category":"other"}]},{"lat":"37.46209814","long":"126.8822102","imageIndex":17,"items":[{"name":"이삭 세탁소","tel":"02-892-1109","addr":"경기도 광명시 하안동 110-3번지 2층 201호","indutype":"수리서비스 - 세탁소","category":"other"}]},{"lat":"37.46087118","long":"126.8806524","imageIndex":17,"items":[{"name":"이선생넷","tel":"031-212-9080","addr":"경기도 광명시 하안동 295번지 하안7단지고층주공아파트","indutype":"용역 서비스 - 사무서비스","category":"other"},{"name":"코담코담","tel":"02-6166-5736","addr":"경기도 광명시 하안동 295번지 하안7단지고층주공아파트","indutype":"의류 - 정장","category":"other"}]},{"lat":"37.45910449","long":"126.8715679","imageIndex":17,"items":[{"name":"인광상사","tel":"070-4065-4248","addr":"경기도 광명시 하안동 595번지 지하1층","indutype":"주방용구 - 주방용구","category":"other"}]},{"lat":"37.45896107","long":"126.872235","imageIndex":17,"items":[{"name":"일화건재","tel":"02-897-8867","addr":"경기도 광명시 하안동 603-13번지","indutype":"기타 - 기계공구","category":"other"}]},{"lat":"37.45635317","long":"126.8686568","imageIndex":17,"items":[{"name":"자연애(  )헤라네","tel":"02-898-6388","addr":"경기도 광명시 하안동 337-3번지 102호","indutype":"신변잡화 - 기타잡화","category":"other"}]},{"lat":"37.46141001","long":"126.878956","imageIndex":17,"items":[{"name":"작업실 보라","tel":"031-000-0000","addr":"경기도 광명시 하안동 37-1번지 잠실빌딩 603호","indutype":"문화.취미 - 문화취미기타","category":"other"}]},{"lat":"37.45954843","long":"126.8737938","imageIndex":17,"items":[{"name":"작은정원","tel":"02-897-1737","addr":"경기도 광명시 하안동 607-14번지 2층 201호","indutype":"문화.취미 - 화원","category":"other"}]},{"lat":"37.46063008","long":"126.8742101","imageIndex":17,"items":[{"name":"재온BNG","tel":"070-8811-7494","addr":"경기도 광명시 하안동 599-14번지 4층 2호","indutype":"신변잡화 - 기타잡화","category":"other"}]},{"lat":"37.46032246","long":"126.8730352","imageIndex":17,"items":[{"name":"재원건축","tel":"","addr":"경기도 광명시 하안동 597-11번지 1층 102호","indutype":"건축자재 - 인테리어전문","category":"other"}]},{"lat":"37.46076617","long":"126.8750689","imageIndex":17,"items":[{"name":"전국오토바이","tel":"02-897-3156","addr":"경기도 광명시 하안동 605-9번지","indutype":"수리서비스 - 기타수리서비스","category":"other"}]},{"lat":"37.46914219","long":"126.872093","imageIndex":17,"items":[{"name":"전다영도자기(DARAMIC)","tel":"02-1234-1234","addr":"경기도 광명시 하안동 863번지 광명두산위브트레지움","indutype":"문화.취미 - 민예·공예품","category":"other"}]},{"lat":"37.47000583","long":"126.8709045","imageIndex":17,"items":[{"name":"제니보정속옷","tel":"02-3282-2410","addr":"경기도 광명시 하안동 863번지 광명두산위브트레지움","indutype":"의류 - 내의판매","category":"other"},{"name":"칼의부활양천점","tel":"000-1599-8826","addr":"경기도 광명시 하안동 863번지 광명두산위브트레지움","indutype":"수리서비스 - 기타수리서비스","category":"other"},{"name":"홈웨이","tel":"02-928-5441","addr":"경기도 광명시 하안동 863번지 광명두신위브트레지움 상가 107동 108호","indutype":"유통업 영리 - 편 의 점","category":"other"}]},{"lat":"37.45902032","long":"126.8770159","imageIndex":17,"items":[{"name":"제일기획","tel":"02-592-1630","addr":"경기도 광명시 하안동 305-3번지 경일빌딩 803호","indutype":"건축자재 - 인테리어전문","category":"other"},{"name":"주식회사 이테크시스템즈 (E-tech systems","tel":"02-899-6848","addr":"경기도 광명시 하안동 305-3번지 경일빌딩 7층","indutype":"전기제품 - 기타전기제품","category":"other"},{"name":"주식회사아이사랑방역시스템","tel":"02-898-8881","addr":"경기도 광명시 하안동 305-3번지 경일빌딩 302호","indutype":"용역 서비스 - 종합용역","category":"other"},{"name":"진형기획","tel":"","addr":"경기도 광명시 하안동 305-3번지 경일빌딩 9층 4호","indutype":"용역 서비스 - 사무서비스","category":"other"},{"name":"현대오디오","tel":"02-897-4487","addr":"경기도 광명시 하안동 305-3번지 경일빌딩 105호","indutype":"전기제품 - 가전제품","category":"other"}]},{"lat":"37.46273026","long":"126.8836108","imageIndex":17,"items":[{"name":"제임스콜밴","tel":"02-804-6325","addr":"경기도 광명시 하안동 110번지 하안12단지고층주공아파트","indutype":"여행 - 기타교통수단","category":"other"}]},{"lat":"37.46068348","long":"126.8735997","imageIndex":17,"items":[{"name":"조광부동산중개","tel":"02-897-3535","addr":"경기도 광명시 하안동 598-15번지","indutype":"용역 서비스 - 부동산 중개·임대","category":"other"}]},{"lat":"37.45241132","long":"126.8572605","imageIndex":17,"items":[{"name":"주식회사 그린세상","tel":"","addr":"경기도 광명시 하안동 437-4번지","indutype":"용역 서비스 - 기타용역서비스","category":"other"}]},{"lat":"37.45963108","long":"126.8752291","imageIndex":17,"items":[{"name":"주식회사 에프아이텍","tel":"","addr":"경기도 광명시 하안동 302-2번지 대광프라자 803호","indutype":"전기제품 - 기타전기제품","category":"other"}]},{"lat":"37.4673754","long":"126.8634825","imageIndex":17,"items":[{"name":"주식회사 창원이씨오","tel":"070-8836-2201","addr":"경기도 광명시 하안동 707-9번지 하안현대아파트","indutype":"용역 서비스 - 종합용역","category":"other"}]},{"lat":"37.46184791","long":"126.8842338","imageIndex":17,"items":[{"name":"주식회사라이프케어바이오","tel":"02-511-6004","addr":"경기도 광명시 하안동 110번지 하안12단지고층주공아파트","indutype":"용역 서비스 - 사무서비스","category":"other"}]},{"lat":"37.45052096","long":"126.86626","imageIndex":17,"items":[{"name":"주식회사리새드/올리브물대","tel":"02-898-7808","addr":"경기도 광명시 하안동 369-7번지","indutype":"별도관리 - 자체물품대금","category":"other"}]},{"lat":"37.46040583","long":"126.875126","imageIndex":17,"items":[{"name":"주식회사신용기획","tel":"02-897-6866","addr":"경기도 광명시 하안동 606-11번지 1층","indutype":"건축자재 - 인테리어전문","category":"other"}]},{"lat":"37.46077013","long":"126.8787875","imageIndex":17,"items":[{"name":"주식회사인스코스/통판","tel":"02-896-8517","addr":"경기도 광명시 하안동 35-5번지 영보빌딩 202호","indutype":"별도관리 - 일반(통신판매)","category":"other"}]},{"lat":"37.46213224","long":"126.8803225","imageIndex":17,"items":[{"name":"주영사","tel":"02-893-9393","addr":"경기도 광명시 하안동 53번지 현대빌딩 1층","indutype":"건축자재 - 목재·석재·철물","category":"other"}]},{"lat":"37.45401568","long":"126.8652591","imageIndex":17,"items":[{"name":"주은","tel":"02-897-1024","addr":"경기도 광명시 하안동 502번지","indutype":"신변잡화 - 기타잡화","category":"other"}]},{"lat":"37.45846506","long":"126.8718177","imageIndex":17,"items":[{"name":"중앙일보 하안센터","tel":"02-2625-7410","addr":"경기도 광명시 하안동 590-8번지 1층 101호,102호,103호","indutype":"서적문구 - 정기간행물","category":"other"}]},{"lat":"37.46628832","long":"126.8741778","imageIndex":17,"items":[{"name":"지지팡클린","tel":"02-6672-7878","addr":"경기도 광명시 하안동 682번지 하안1단지고층주공아파트","indutype":"용역 서비스 - 종합용역","category":"other"}]},{"lat":"37.46573229","long":"126.8684139","imageIndex":17,"items":[{"name":"진골프아카데미","tel":"02-6166-4180","addr":"경기도 광명시 하안동 864번지 이편한세상센트레빌아파트","indutype":"회원제형태 - 레져업소","category":"other"}]},{"lat":"37.45876728","long":"126.8681551","imageIndex":17,"items":[{"name":"진스디자인","tel":"02-893-4151","addr":"경기도 광명시 하안동 568번지","indutype":"용역 서비스 - 종합용역","category":"other"}]},{"lat":"37.44927246","long":"126.8619","imageIndex":17,"items":[{"name":"진양상사","tel":"02-898-9396","addr":"경기도 광명시 하안동 403-1번지","indutype":"신변잡화 - 기타잡화","category":"other"}]},{"lat":"37.46153925","long":"126.8819398","imageIndex":17,"items":[{"name":"쩡이네의류","tel":"02-111-1111","addr":"경기도 광명시 하안동 110번지 하안12단지고층주공아파트","indutype":"의류 - 내의판매","category":"other"}]},{"lat":"37.45934921","long":"126.8728786","imageIndex":17,"items":[{"name":"창대인테리어","tel":"02-897-0303","addr":"경기도 광명시 하안동 603-7번지","indutype":"직물 - 카페트,커튼,천막,지물","category":"other"},{"name":"컴스퀘어","tel":"070-7722-8883","addr":"경기도 광명시 하안동 603-7번지","indutype":"사무통신 - 컴퓨터","category":"other"}]},{"lat":"37.45824008","long":"126.8720667","imageIndex":17,"items":[{"name":"철산건설","tel":"02-898-6500","addr":"경기도 광명시 하안동 318-6번지","indutype":"건축자재 - 보일러·펌프·샷시","category":"other"}]},{"lat":"37.45798738","long":"126.8716829","imageIndex":17,"items":[{"name":"철산낚시","tel":"031-898-4600","addr":"경기도 광명시 하안동 317-13번지","indutype":"레져용품 - 스포츠·레져용품","category":"other"}]},{"lat":"37.45963061","long":"126.8834009","imageIndex":17,"items":[{"name":"취미공작소","tel":"02-6326-3896","addr":"경기도 광명시 하안동 200번지 하안13단지고층주공아파트","indutype":"문화.취미 - 민예·공예품","category":"other"}]},{"lat":"37.45629704","long":"126.8835193","imageIndex":17,"items":[{"name":"캘리아틀리에","tel":"","addr":"경기도 광명시 하안동 260번지 하안8단지주공아파트","indutype":"문화.취미 - 화랑","category":"other"}]},{"lat":"37.46609038","long":"126.8664012","imageIndex":17,"items":[{"name":"컴퍼니 연작","tel":"02-6956-5155","addr":"경기도 광명시 하안동 864번지 이편한세상센트레빌아파트 207동 502호","indutype":"문화.취미 - 티켓","category":"other"}]},{"lat":"37.46213666","long":"126.8759708","imageIndex":17,"items":[{"name":"케이디통상 (KD통상)","tel":"","addr":"경기도 광명시 하안동 650번지 하안3단지고층주공아파트","indutype":"신변잡화 - 기타잡화","category":"other"},{"name":"허브냉동","tel":"02-6264-6957","addr":"경기도 광명시 하안동 650번지 하안3단지고층주공아파트","indutype":"회원제형태 - 기타1","category":"other"}]},{"lat":"37.45774023","long":"126.8851106","imageIndex":17,"items":[{"name":"코리아에어필터 주식회사","tel":"02-2138-6543","addr":"경기도 광명시 하안동 201번지 광명시범공단공장형아파트 1동 2층 4호","indutype":"신변잡화 - 기타잡화","category":"other"}]},{"lat":"37.45724195","long":"126.8823988","imageIndex":17,"items":[{"name":"쿤스트광명지사","tel":"02-803-2648","addr":"경기도 광명시 하안동 260번지 하안8단지주공아파트","indutype":"회원제형태 - 서적","category":"other"}]},{"lat":"37.45937413","long":"126.8709797","imageIndex":17,"items":[{"name":"태백전산","tel":"02-897-5203","addr":"경기도 광명시 하안동 586-2번지 201호","indutype":"사무통신 - 기타 사무용품","category":"other"}]},{"lat":"37.46246195","long":"126.8768406","imageIndex":17,"items":[{"name":"태영S라인","tel":"070-7548-1500","addr":"경기도 광명시 하안동 650번지 하안3단지고층주공아파트","indutype":"회원제형태 - 기타1","category":"other"}]},{"lat":"37.45887518","long":"126.8679628","imageIndex":17,"items":[{"name":"태진창호","tel":"02-897-0630","addr":"경기도 광명시 하안동 567번지","indutype":"건축자재 - 보일러·펌프·샷시","category":"other"}]},{"lat":"37.4594117","long":"126.8807791","imageIndex":17,"items":[{"name":"트럭코리아","tel":"032-888-8688","addr":"경기도 광명시 하안동 295번지 하안7단지고층주공아파트","indutype":"회원제형태 - 기타3","category":"other"}]},{"lat":"37.45715295","long":"126.883484","imageIndex":17,"items":[{"name":"트윈테크","tel":"","addr":"경기도 광명시 하안동 260-3번지 하안주공8단지 상가 지층","indutype":"사무통신 - 컴퓨터","category":"other"}]},{"lat":"37.45946621","long":"126.8727654","imageIndex":17,"items":[{"name":"플레이큐브","tel":"02-703-1054","addr":"경기도 광명시 하안동 603-6번지","indutype":"사무통신 - 컴퓨터","category":"other"}]},{"lat":"37.4606312","long":"126.8752387","imageIndex":17,"items":[{"name":"피알광고","tel":"031-897-7881","addr":"경기도 광명시 하안동 606-9번지 단독필지","indutype":"용역 서비스 - 종합용역","category":"other"}]},{"lat":"37.46356565","long":"126.8726678","imageIndex":17,"items":[{"name":"하늘바람","tel":"","addr":"경기도 광명시 하안동 682번지 하안1단지고층주공아파트","indutype":"용역 서비스 - 종합용역","category":"other"}]},{"lat":"37.46488222","long":"126.8736829","imageIndex":17,"items":[{"name":"하안누수설비","tel":"02-892-9095","addr":"경기도 광명시 하안동 682번지 주공1단지 상가 105호","indutype":"건축자재 - 기타건축자재","category":"other"}]},{"lat":"37.46480507","long":"126.877334","imageIndex":17,"items":[{"name":"하안플라워","tel":"","addr":"경기도 광명시 하안동 651번지 하안4단지고층주공아파트","indutype":"문화.취미 - 화원","category":"other"}]},{"lat":"37.45860359","long":"126.874903","imageIndex":17,"items":[{"name":"한마음연예기획사","tel":"02-897-6944","addr":"경기도 광명시 하안동 304-2번지 302호","indutype":"용역 서비스 - 종합용역","category":"other"}]},{"lat":"37.45996118","long":"126.8722333","imageIndex":17,"items":[{"name":"한빛테크툴","tel":"02-2269-0989","addr":"경기도 광명시 하안동 596-6번지 102호","indutype":"기타 - 기계공구","category":"other"}]},{"lat":"37.4577271","long":"126.8810418","imageIndex":17,"items":[{"name":"해드림 기획","tel":"","addr":"경기도 광명시 하안동 260번지 하안8단지주공아파트","indutype":"용역 서비스 - 종합용역","category":"other"}]},{"lat":"37.45895492","long":"126.8834585","imageIndex":17,"items":[{"name":"행복한 생활","tel":"","addr":"경기도 광명시 하안동 200번지 하안13단지고층주공아파트","indutype":"주방용구 - 주방용구","category":"other"}]},{"lat":"37.45904302","long":"126.8730148","imageIndex":17,"items":[{"name":"현대주방설비","tel":"02-897-1516","addr":"경기도 광명시 하안동 611-8번지","indutype":"용역 서비스 - 기타용역서비스","category":"other"}]},{"lat":"37.45035602","long":"126.8638983","imageIndex":17,"items":[{"name":"현플라워","tel":"02-2060-4444","addr":"경기도 광명시 하안동 384-1번지","indutype":"문화.취미 - 화원","category":"other"}]},{"lat":"37.45956588","long":"126.8817621","imageIndex":17,"items":[{"name":"호표어패럴","tel":"031-501-3317","addr":"경기도 광명시 하안동 295번지 하안7단지고층주공아파트","indutype":"회원제형태 - 기타4","category":"other"},{"name":"호표어패럴","tel":"02-2632-4037","addr":"경기도 광명시 하안동 295","indutype":"회원제형태 - 기타4","category":"other"}]},{"lat":"37.46482084","long":"126.8671496","imageIndex":17,"items":[{"name":"홀리스틱(holistic)","tel":"","addr":"경기도 광명시 하안동 702번지 하안5단지고층주공아파트","indutype":"신변잡화 - 기타잡화","category":"other"}]},{"lat":"37.46965977","long":"126.8676495","imageIndex":17,"items":[{"name":"화이트스노우","tel":"","addr":"경기도 광명시 하안동 864번지 이편한세상센트레빌아파트","indutype":"의류 - 정장","category":"other"}]},{"lat":"37.46593025","long":"126.8763374","imageIndex":17,"items":[{"name":"환희발란스","tel":"031-0000-0000","addr":"경기도 광명시 하안동 681번지 하안2단지고층주공아파트","indutype":"레져용품 - 스포츠·레져용품","category":"other"}]},{"lat":"37.46059401","long":"126.8827325","imageIndex":17,"items":[{"name":"황제상사","tel":"","addr":"경기도 광명시 하안동 110번지 하안12단지고층주공아파트","indutype":"주방용구 - 주방용구","category":"other"}]},{"lat":"37.46402372","long":"126.8797317","imageIndex":17,"items":[{"name":"힐링키즈에듀","tel":"02-893-4650","addr":"경기도 광명시 하안동 30번지 하안10단지고층주공아파트","indutype":"회원제형태 - 서적","category":"other"}]}]