[{"lat":"38.07966665","long":"127.2615134","imageIndex":17,"items":[{"name":"(주)유리수","tel":"02-1522-9237","addr":"경기도 포천시 영북면 문암리 479번지 1층","indutype":"유통업 영리 - 기타유통업","category":"other"}]},{"lat":"38.070279072","long":"127.2735943","imageIndex":17,"items":[{"name":"GS25포천문암","tel":"-","addr":"경기도 포천시 영북면 문암리 96번지","indutype":"편의점 - 편의점","category":"other"},{"name":"GS25포천문암점","tel":"02-2006-2485","addr":"경기도 포천시 영북면 문암리 96","indutype":"유통업 영리 - 편 의 점","category":"other"}]},{"lat":"38.07189233","long":"127.27331533","imageIndex":17,"items":[{"name":"김남조의산정호수다육이","tel":"031-533-0599","addr":"경기도 포천시 영북면 문암리 151번지","indutype":"문화.취미 - 화원","category":"other"}]},{"lat":"38.072675847","long":"127.27343218","imageIndex":17,"items":[{"name":"보물섬","tel":"031-532-0150","addr":"경기도 포천시 영북면 문암리 161번지","indutype":"의류 - 정장","category":"other"},{"name":"태영공구","tel":"031-534-0922","addr":"경기도 포천시 영북면 문암리 161번지","indutype":"기타 - 기계공구","category":"other"}]},{"lat":"38.077142287","long":"127.27431481","imageIndex":17,"items":[{"name":"시오비스","tel":"031-534-5003","addr":"경기도 포천시 영북면 문암리 240-21번지 A동 103호","indutype":"농업 - 기타농업관련","category":"other"},{"name":"오리온㈜포천대리점","tel":"533-5828","addr":"경기도 포천시 영북면 문암리 240-21번지","indutype":"도소매 - 청과물","category":"other"}]},{"lat":"38.070697151","long":"127.26803456","imageIndex":17,"items":[{"name":"자연비료공사","tel":"031-531-7121","addr":"경기도 포천시 영북면 문암리 395번지","indutype":"농업 - 비료,사료,종자","category":"other"}]}]