[{"lat":"37.33517183","long":"126.81265563","imageIndex":13,"items":[{"name":"(주) 커브스 선부클럽","tel":"031-411-2310","addr":"경기도 안산시 단원구 선부동 1076-7번지 새한프라자 405호","indutype":"레저업소 - 헬스클럽","category":"leisure"},{"name":"RSB스크린야구","tel":"031-482-4349","addr":"경기도 안산시 단원구 선부동 1076-7번지 새한프라자 F동 303호","indutype":"레저업소 - 기타레져업소","category":"leisure"},{"name":"베베스타헬로방방","tel":"031-401-1911","addr":"경기도 안산시 단원구 선부동 1076-7번지 새한프라자 301호","indutype":"레저업소 - 기타레져업소","category":"leisure"},{"name":"아방궁당구장","tel":"031-402-0020","addr":"경기도 안산시 단원구 선부동 1076-7번지 501-1호","indutype":"레저업소 - 당 구 장","category":"leisure"},{"name":"케이2당구장","tel":"","addr":"경기도 안산시 단원구 선부동 1076-7번지 새한프라자 501-1호","indutype":"레저업소 - 당 구 장","category":"leisure"},{"name":"헤라PC방","tel":"","addr":"경기도 안산시 단원구 선부동 1076-7번지 새한프라자 B101호","indutype":"레저업소 - 기타레져업소","category":"leisure"},{"name":"헤라PC방","tel":"","addr":"경기도 안산시 단원구 선부동 1076-7번지 새한프라자 지하층 101동 105호","indutype":"레저업소 - 기타레져업소","category":"leisure"}]},{"lat":"37.335505132","long":"126.81260965","imageIndex":13,"items":[{"name":"1004노래방","tel":"031-484-3355","addr":"경기도 안산시 단원구 선부동 1076-6번지 서림프라자 2층 202호","indutype":"레저업소 - 노 래 방","category":"leisure"},{"name":"별당구장","tel":"031-410-0948","addr":"경기도 안산시 단원구 선부동 1076-6 507호~508호","indutype":"레저업소 - 당 구 장","category":"leisure"},{"name":"에이스볼링장","tel":"031-413-0114","addr":"경기도 안산시 단원구 선부동 1076-6번지 서림프라자 601호","indutype":"레저업소 - 볼 링 장","category":"leisure"},{"name":"위플라잉&요가","tel":"031-410-5455","addr":"경기도 안산시 단원구 선부동 1076-6번지 서림프라자 401, 402호","indutype":"레저업소 - 헬스클럽","category":"leisure"},{"name":"킴스(Kim''s)당구장","tel":"031-411-7680","addr":"경기도 안산시 단원구 선부동 1076-6번지 서림프라자 507,508호","indutype":"레저업소 - 당 구 장","category":"leisure"}]},{"lat":"37.346006005","long":"126.81513371","imageIndex":13,"items":[{"name":"25시당구장","tel":"031-402-4088","addr":"경기도 안산시 단원구 선부동 1116-5번지 2층","indutype":"레저업소 - 당 구 장","category":"leisure"}]},{"lat":"37.336336805","long":"126.80874835","imageIndex":13,"items":[{"name":"76노래연습장","tel":"031-480-9318","addr":"경기도 안산시 단원구 선부동 1070-16번지 칠성프러스타운 205호","indutype":"레저업소 - 노 래 방","category":"leisure"},{"name":"바디지음","tel":"031-439-2612","addr":"경기도 안산시 단원구 선부동 1070-16번지 403-404호","indutype":"레저업소 - 헬스클럽","category":"leisure"},{"name":"보보스PC존","tel":"031-0000-0000","addr":"경기도 안산시 단원구 선부동 1070-16번지 칠성프러스타운 3층 303호","indutype":"레저업소 - 기타레져업소","category":"leisure"},{"name":"칠공주당구장","tel":"070-8838-1235","addr":"경기도 안산시 단원구 선부동 1070-16번지 301,302","indutype":"레저업소 - 당 구 장","category":"leisure"},{"name":"피닉스PC방","tel":"031-0000-0000","addr":"경기도 안산시 단원구 선부동 1070-16번지 303, 304호","indutype":"레저업소 - 기타레져업소","category":"leisure"}]},{"lat":"37.333171362","long":"126.81252526","imageIndex":13,"items":[{"name":"IBS당구장","tel":"031-410-4914","addr":"경기도 안산시 단원구 선부동 1077-3번지 다이아몬드프라자 208호","indutype":"레저업소 - 당 구 장","category":"leisure"},{"name":"더베스트휘트니스","tel":"031-401-9700","addr":"경기도 안산시 단원구 선부동 1077-3번지 다이아몬드프라자 3층 301-309호","indutype":"레저업소 - 헬스클럽","category":"leisure"},{"name":"라이브노래연습장","tel":"031-405-6888","addr":"경기도 안산시 단원구 선부동 1077-3번지 다이아몬드프라자 201,209호","indutype":"레저업소 - 노 래 방","category":"leisure"},{"name":"씰골프연습장","tel":"031-405-0789","addr":"경기도 안산시 단원구 선부동 1077-3다이아몬드프라자405~407호","indutype":"레저업소 - 골프연습장","category":"leisure"},{"name":"친구노래뮤비방","tel":"031-487-3392","addr":"경기도 안산시 단원구 선부동 1077-3번지 다이아몬드프라자 206호","indutype":"레저업소 - 노 래 방","category":"leisure"},{"name":"피씨채널PC방(선부점)","tel":"031-403-0042","addr":"경기도 안산시 단원구 선부동 1077-3번지 다이아몬드프라자 B층 01호","indutype":"레저업소 - 기타레져업소","category":"leisure"}]},{"lat":"37.341917141","long":"126.81623854","imageIndex":13,"items":[{"name":"TIMO PC (티모 피씨)","tel":"070-8246-8268","addr":"경기도 안산시 단원구 선부동 1087-24번지 지영프라자 2층","indutype":"레저업소 - 기타레져업소","category":"leisure"},{"name":"민당구클럽","tel":"031-405-4404","addr":"경기도 안산시 단원구 선부동 1087-24번지 지영프라자 3층 301호","indutype":"레저업소 - 당 구 장","category":"leisure"}]},{"lat":"37.342312414","long":"126.80444464","imageIndex":13,"items":[{"name":"VENI PC방","tel":"070-8007-4471","addr":"경기도 안산시 단원구 선부동 1029-16번지 2층","indutype":"레저업소 - 기타레져업소","category":"leisure"}]},{"lat":"37.337418495","long":"126.80361118","imageIndex":13,"items":[{"name":"가고파노래연습장","tel":"031-413-0188","addr":"경기도 안산시 단원구 선부동 969-1번지","indutype":"레저업소 - 노 래 방","category":"leisure"}]},{"lat":"37.336364671","long":"126.80382837","imageIndex":13,"items":[{"name":"공주노래연습장","tel":"031-0000-0000","addr":"경기도 안산시 단원구 선부동 971-6번지 지하층","indutype":"레저업소 - 노 래 방","category":"leisure"}]},{"lat":"37.335757722","long":"126.80727162","imageIndex":13,"items":[{"name":"광원당구클럽","tel":"031-426-7579","addr":"경기도 안산시 단원구 선부동 1070-12번지 광원빌딩 309호","indutype":"레저업소 - 당 구 장","category":"leisure"},{"name":"광원당구클럽","tel":"031-485-7868","addr":"경기도 안산시 단원구 선부동 1070-12번지 광원빌딩 309호","indutype":"레저업소 - 당 구 장","category":"leisure"},{"name":"샹떼PC방 안산선부점","tel":"","addr":"경기도 안산시 단원구 선부동 1070-12번지 광원빌딩 4층 402,403호","indutype":"레저업소 - 기타레져업소","category":"leisure"},{"name":"스타노래방","tel":"031-412-9018","addr":"경기도 안산시 단원구 선부동 1070-12번지 광원빌딩 310호","indutype":"레저업소 - 노 래 방","category":"leisure"}]},{"lat":"37.342005008","long":"126.81482769","imageIndex":13,"items":[{"name":"궁전노래연습장","tel":"031-405-1132","addr":"경기도 안산시 단원구 선부동 1143-5번지 지하층","indutype":"레저업소 - 노 래 방","category":"leisure"}]},{"lat":"37.343026158","long":"126.80560513","imageIndex":13,"items":[{"name":"그린노래방","tel":"031-402-3843","addr":"경기도 안산시 단원구 선부동 1024-6번지","indutype":"레저업소 - 노 래 방","category":"leisure"}]},{"lat":"37.339783718","long":"126.79577334","imageIndex":13,"items":[{"name":"까뮤노래방","tel":"031-495-1090","addr":"경기도 안산시 단원구 선부동 986-9번지 지층","indutype":"레저업소 - 노 래 방","category":"leisure"}]},{"lat":"37.347250277","long":"126.81568362","imageIndex":13,"items":[{"name":"나드리당구장","tel":"","addr":"경기도 안산시 단원구 선부동 1103번지 2층","indutype":"레저업소 - 당 구 장","category":"leisure"}]},{"lat":"37.346700535","long":"126.81560598","imageIndex":13,"items":[{"name":"나이트노래연습장","tel":"031-402-0770","addr":"경기도 안산시 단원구 선부동 1103-20번지 지층","indutype":"레저업소 - 노 래 방","category":"leisure"}]},{"lat":"37.339087699","long":"126.79450009","imageIndex":13,"items":[{"name":"다문화춤연습장","tel":"031-495-6953","addr":"경기도 안산시 단원구 선부동 979-10번지","indutype":"레저업소 - 기타레져업소","category":"leisure"}]},{"lat":"37.338722138","long":"126.80193763","imageIndex":13,"items":[{"name":"달인노래연습장","tel":"031-414-4747","addr":"경기도 안산시 단원구 선부동 998-9번지 지층","indutype":"레저업소 - 노 래 방","category":"leisure"},{"name":"달인노래연습장","tel":"031-414-5473","addr":"경기도 안산시 단원구 선부동 998-9번지 지층","indutype":"레저업소 - 노 래 방","category":"leisure"},{"name":"둘리노래연습장","tel":"031-414-4747","addr":"경기도 안산시 단원구 선부동 998-9번지 지층","indutype":"레저업소 - 노 래 방","category":"leisure"}]},{"lat":"37.332557235","long":"126.81163541","imageIndex":13,"items":[{"name":"대성당구장","tel":"031-402-0988","addr":"경기도 안산시 단원구 선부동 1077-6번지 대준빌딩 2층 3호","indutype":"레저업소 - 당 구 장","category":"leisure"},{"name":"케이(K)2당구장","tel":"02-000-0000","addr":"경기도 안산시 단원구 선부동 1077-6번지 대준빌딩 2층 203호","indutype":"레저업소 - 당 구 장","category":"leisure"},{"name":"큰손노래연습장","tel":"031-401-2830","addr":"경기도 안산시 단원구 선부동 1077-6번지 대준빌딩","indutype":"레저업소 - 노 래 방","category":"leisure"},{"name":"클라이밍짐","tel":"","addr":"경기도 안산시 단원구 선부동 1077-6번지 대준빌딩 5층 7호","indutype":"레저업소 - 기타레져업소","category":"leisure"}]},{"lat":"37.339809244","long":"126.79491563","imageIndex":13,"items":[{"name":"대지노래연습장","tel":"031-493-7834","addr":"경기도 안산시 단원구 선부동 986-15번지 지층","indutype":"레저업소 - 노 래 방","category":"leisure"}]},{"lat":"37.336201097","long":"126.80841018","imageIndex":13,"items":[{"name":"더캠프PC방 선부점","tel":"031-439-7662","addr":"경기도 안산시 단원구 선부동 1070-15번지 단원프라자 205,206호","indutype":"레저업소 - 기타레져업소","category":"leisure"},{"name":"뛰어라 방방","tel":"031-410-2109","addr":"경기도 안산시 단원구 선부동 1070-15번지 단원프라자 503,504호","indutype":"레저업소 - 기타레져업소","category":"leisure"},{"name":"산울림노래연습장","tel":"031-414-2636","addr":"경기도 안산시 단원구 선부동 1070-15번지 단원프라자","indutype":"레저업소 - 노 래 방","category":"leisure"},{"name":"와~당구클럽","tel":"031-411-8262","addr":"경기도 안산시 단원구 선부동 1070-15번지 단원프라자 406,407호","indutype":"레저업소 - 당 구 장","category":"leisure"},{"name":"왕부","tel":"031-413-9998","addr":"경기도 안산시 단원구 선부동 1070-15번지 단원프라자 405호","indutype":"레저업소 - 헬스클럽","category":"leisure"},{"name":"짱가체육교실","tel":"031-486-7942","addr":"경기도 안산시 단원구 선부동 1070-15번지 단원프라자 507,508호","indutype":"레저업소 - 기타레져업소","category":"leisure"}]},{"lat":"37.336114262","long":"126.8104077","imageIndex":13,"items":[{"name":"데일리PC방선부점","tel":"070-9400-7061","addr":"경기도 안산시 단원구 선부동 1076-17번지 신안골드리치빌딩 306호 신안리치골드","indutype":"레저업소 - 기타레져업소","category":"leisure"},{"name":"샵노래연습장","tel":"031-482-1894","addr":"경기도 안산시 단원구 선부동 1076-17번지 신안골드리치빌딩 305호","indutype":"레저업소 - 노 래 방","category":"leisure"},{"name":"썸노래연습장","tel":"031-410-3072","addr":"경기도 안산시 단원구 선부동 1076-17번지 신안골드리치빌딩 307호","indutype":"레저업소 - 노 래 방","category":"leisure"},{"name":"와~노래연습장","tel":"031-414-5291","addr":"경기도 안산시 단원구 선부동 1076-17번지 신안골드리치빌딩 203,204,204-1호","indutype":"레저업소 - 노 래 방","category":"leisure"},{"name":"조아당구클럽","tel":"031-486-2221","addr":"경기도 안산시 단원구 선부동 1076-17번지 신안골드리치빌딩 3층 308호","indutype":"레저업소 - 당 구 장","category":"leisure"},{"name":"히트코인노래연습장","tel":"070-4333-9645","addr":"경기도 안산시 단원구 선부동 1076-17번지 신안골드리치빌딩 201호","indutype":"레저업소 - 노 래 방","category":"leisure"}]},{"lat":"37.336563001","long":"126.80932327","imageIndex":13,"items":[{"name":"동명노래연습장","tel":"031-413-0415","addr":"경기도 안산시 단원구 선부동 1070-18번지 상록타운 201호","indutype":"레저업소 - 노 래 방","category":"leisure"}]},{"lat":"37.335451191","long":"126.80715958","imageIndex":13,"items":[{"name":"동양당구클럽","tel":"031-402-0186","addr":"경기도 안산시 단원구 선부동 1070-11번지 동양빌딩 202동 202-1호","indutype":"레저업소 - 당 구 장","category":"leisure"},{"name":"친구노래연습장","tel":"031-405-2335","addr":"경기도 안산시 단원구 선부동 1070-11번지 동양빌딩 3011동","indutype":"레저업소 - 노 래 방","category":"leisure"}]},{"lat":"37.336196709","long":"126.81124252","imageIndex":13,"items":[{"name":"동원당구클럽","tel":"031-410-4939","addr":"경기도 안산시 단원구 선부동 1076-2번지 동원프라자 501호","indutype":"레저업소 - 당 구 장","category":"leisure"},{"name":"자노래연습장","tel":"031-401-1515","addr":"경기도 안산시 단원구 선부동 1076-2번지 동원상가빌딩 4층 407호","indutype":"레저업소 - 노 래 방","category":"leisure"},{"name":"점핑다이어트 선부점","tel":"","addr":"경기도 안산시 단원구 선부동 1076-2번지 동원상가빌딩 502호","indutype":"레저업소 - 헬스클럽","category":"leisure"},{"name":"칼라노래연습장","tel":"031-486-0589","addr":"경기도 안산시 단원구 선부동 1076-2번지 동원상가빌딩 지하 103호","indutype":"레저업소 - 노 래 방","category":"leisure"}]},{"lat":"37.342420763","long":"126.80457977","imageIndex":13,"items":[{"name":"딱좋아노래연습장","tel":"031-475-0722","addr":"경기도 안산시 단원구 선부동 1029-15번지 지층","indutype":"레저업소 - 노 래 방","category":"leisure"}]},{"lat":"37.33947577","long":"126.79486013","imageIndex":13,"items":[{"name":"똥쌍피노래연습장","tel":"031-494-8021","addr":"경기도 안산시 단원구 선부동 983번지 지하1층","indutype":"레저업소 - 노 래 방","category":"leisure"}]},{"lat":"37.341889201","long":"126.81566307","imageIndex":13,"items":[{"name":"라쿤당구클럽","tel":"070-8116-4885","addr":"경기도 안산시 단원구 선부동 1087-1번지 501,502호","indutype":"레저업소 - 당 구 장","category":"leisure"},{"name":"산레모노래연습장","tel":"031-484-8382","addr":"경기도 안산시 단원구 선부동 1087-1번지 대흥빌딩 지하층 101호","indutype":"레저업소 - 노 래 방","category":"leisure"}]},{"lat":"37.345222643","long":"126.81546294","imageIndex":13,"items":[{"name":"로얄노래연습장","tel":"031-483-4126","addr":"경기도 안산시 단원구 선부동 1097-3번지","indutype":"레저업소 - 노 래 방","category":"leisure"}]},{"lat":"37.342558421","long":"126.80608033","imageIndex":13,"items":[{"name":"만남노래연습장","tel":"031-412-9998","addr":"경기도 안산시 단원구 선부동 1037-16번지 지층","indutype":"레저업소 - 노 래 방","category":"leisure"}]},{"lat":"37.335864374","long":"126.81188656","imageIndex":13,"items":[{"name":"만점당구장","tel":"070-7778-8984","addr":"경기도 안산시 단원구 선부동 1076-4번지 402,403호","indutype":"레저업소 - 당 구 장","category":"leisure"}]},{"lat":"37.341781989","long":"126.81623887","imageIndex":13,"items":[{"name":"명품PC방","tel":"031-486-3778","addr":"경기도 안산시 단원구 선부동 1087-31번지 신협프라자 401,402,403,404호","indutype":"레저업소 - 기타레져업소","category":"leisure"},{"name":"신협헬스","tel":"031-413-3569","addr":"경기도 안산시 단원구 선부동 1087-31번지 신협빌딩 4층","indutype":"레저업소 - 헬스클럽","category":"leisure"}]},{"lat":"37.34211313","long":"126.81482742","imageIndex":13,"items":[{"name":"뮤직박스노래연습장","tel":"031-411-6812","addr":"경기도 안산시 단원구 선부동 1143-4번지 2층","indutype":"레저업소 - 노 래 방","category":"leisure"}]},{"lat":"37.342501264","long":"126.81526657","imageIndex":13,"items":[{"name":"민들레노래연습장","tel":"031-439-7288","addr":"경기도 안산시 단원구 선부동 1090-20번지","indutype":"레저업소 - 노 래 방","category":"leisure"}]},{"lat":"37.336475126","long":"126.81068888","imageIndex":13,"items":[{"name":"버블버블키즈","tel":"031-402-2737","addr":"경기도 안산시 단원구 선부동 1076-1번지 603호","indutype":"레저업소 - 기타레져업소","category":"leisure"},{"name":"준(JUN)당구클럽","tel":"031-410-7042","addr":"경기도 안산시 단원구 선부동 1076-1번지 604호","indutype":"레저업소 - 당 구 장","category":"leisure"}]},{"lat":"37.341915749","long":"126.81535831","imageIndex":13,"items":[{"name":"베스트노래연습장","tel":"","addr":"경기도 안산시 단원구 선부동 1087-11번지 화성프라자 203호","indutype":"레저업소 - 노 래 방","category":"leisure"},{"name":"스카이점핑다이어트","tel":"","addr":"경기도 안산시 단원구 선부동 1087-11번지 화성프라자 5층 504호","indutype":"레저업소 - 헬스클럽","category":"leisure"},{"name":"아이탐스pc방(세반점)","tel":"070-8931-6473","addr":"경기도 안산시 단원구 선부동 1087-11번지 화성프라자 404,405호","indutype":"레저업소 - 기타레져업소","category":"leisure"},{"name":"화성당구장","tel":"031-413-3006","addr":"경기도 안산시 단원구 선부동 1087-11번지 화성프라자 4층 6호,7호","indutype":"레저업소 - 당 구 장","category":"leisure"}]},{"lat":"37.341860792","long":"126.8147942","imageIndex":13,"items":[{"name":"본주짓수 아카데미","tel":"031-401-7772","addr":"경기도 안산시 단원구 선부동 1143-6번지 3층","indutype":"레저업소 - 헬스클럽","category":"leisure"},{"name":"해피노래방","tel":"031-482-7010","addr":"경기도 안산시 단원구 선부동 1143-6번지","indutype":"레저업소 - 노 래 방","category":"leisure"}]},{"lat":"37.342221251","long":"126.81482715","imageIndex":13,"items":[{"name":"비바노래방","tel":"031-480-0885","addr":"경기도 안산시 단원구 선부동 1143-3번지","indutype":"레저업소 - 노 래 방","category":"leisure"}]},{"lat":"37.338029297","long":"126.80249241","imageIndex":13,"items":[{"name":"비타민 노래연습장","tel":"031-439-2431","addr":"경기도 안산시 단원구 선부동 974-2번지 지하층","indutype":"레저업소 - 노 래 방","category":"leisure"},{"name":"짱노래연습장","tel":"031-000-0000","addr":"경기도 안산시 단원구 선부동 974-2번지 지하","indutype":"레저업소 - 노 래 방","category":"leisure"}]},{"lat":"37.333729227","long":"126.81204994","imageIndex":13,"items":[{"name":"비타민휘트니스센터","tel":"031-411-0018","addr":"경기도 안산시 단원구 선부동 1077번지 서울프라자 601~605호","indutype":"레저업소 - 헬스클럽","category":"leisure"},{"name":"슈퍼스타 롤러스케이트장","tel":"031-000-0000","addr":"경기도 안산시 단원구 선부동 1077번지 서울프라자 4층 401호","indutype":"레저업소 - 기타레져업소","category":"leisure"},{"name":"주식회사 엘크볼링센터","tel":"031-487-8388","addr":"경기도 안산시 단원구 선부동 1077번지 서울프라자 501호","indutype":"레저업소 - 볼 링 장","category":"leisure"}]},{"lat":"37.338417076","long":"126.8026945","imageIndex":13,"items":[{"name":"선부2동주민자치위원회","tel":"031-486-6968","addr":"경기도 안산시 단원구 선부동 997-2번지","indutype":"레저업소 - 기타레져업소","category":"leisure"}]},{"lat":"37.340001514","long":"126.81280143","imageIndex":13,"items":[{"name":"선부골프시티24","tel":"031-1899-0759","addr":"경기도 안산시 단원구 선부동 1085번지 오렌지팩토리 지하2층","indutype":"레저업소 - 스크린골프","category":"leisure"},{"name":"스타덤PC안산선부점","tel":"070-4020-6645","addr":"경기도 안산시 단원구 선부동 1085번지 오렌지팩토리, 기업은행한샘레포트점 2층 218호-220호","indutype":"레저업소 - 기타레져업소","category":"leisure"}]},{"lat":"37.332944214","long":"126.81135233","imageIndex":13,"items":[{"name":"선부비전골프","tel":"031-401-8011","addr":"경기도 안산시 단원구 선부동 1077-17번지 4층","indutype":"레저업소 - 스크린골프","category":"leisure"}]},{"lat":"37.34580848","long":"126.81557434","imageIndex":13,"items":[{"name":"세븐당구클럽","tel":"","addr":"경기도 안산시 단원구 선부동 1102-15번지 3층","indutype":"레저업소 - 당 구 장","category":"leisure"},{"name":"친구야놀자","tel":"070-7572-7959","addr":"경기도 안산시 단원구 선부동 1102-15번지 2층","indutype":"레저업소 - 기타레져업소","category":"leisure"}]},{"lat":"37.342168997","long":"126.81596708","imageIndex":13,"items":[{"name":"세시봉노래연습장","tel":"031-411-2601","addr":"경기도 안산시 단원구 선부동 1087-14번지 세반장여관 205호","indutype":"레저업소 - 노 래 방","category":"leisure"},{"name":"세시봉노래연습장","tel":"031-111-1111","addr":"경기도 안산시 단원구 선부동 1087-14번지 세반장여관 205호","indutype":"레저업소 - 노 래 방","category":"leisure"}]},{"lat":"37.342615983","long":"126.80279621","imageIndex":13,"items":[{"name":"섹시당구클럽","tel":"031-111-1111","addr":"경기도 안산시 단원구 선부동 1017-11번지 3층","indutype":"레저업소 - 당 구 장","category":"leisure"},{"name":"황제노래연습장","tel":"031-403-4412","addr":"경기도 안산시 단원구 선부동 1017-11번지 202호","indutype":"레저업소 - 노 래 방","category":"leisure"}]},{"lat":"37.337750785","long":"126.80296709","imageIndex":13,"items":[{"name":"소리노래연습장","tel":"031-475-2024","addr":"경기도 안산시 단원구 선부동 974-6번지 지하층","indutype":"레저업소 - 노 래 방","category":"leisure"}]},{"lat":"37.342283923","long":"126.80357576","imageIndex":13,"items":[{"name":"스카이 당구클럽","tel":"","addr":"경기도 안산시 단원구 선부동 1028번지 안산제1종합시장 2006호","indutype":"레저업소 - 당 구 장","category":"leisure"}]},{"lat":"37.342728956","long":"126.80568491","imageIndex":13,"items":[{"name":"스토리 노래연습장","tel":"031-403-8345","addr":"경기도 안산시 단원구 선부동 1031-1번지 지하","indutype":"레저업소 - 노 래 방","category":"leisure"},{"name":"영산강노래연습장","tel":"031-403-8345","addr":"경기도 안산시 단원구 선부동 1031-1번지 지하","indutype":"레저업소 - 노 래 방","category":"leisure"}]},{"lat":"37.342336381","long":"126.80802195","imageIndex":13,"items":[{"name":"스토리PC방","tel":"","addr":"경기도 안산시 단원구 선부동 1058-35번지 1층","indutype":"레저업소 - 기타레져업소","category":"leisure"}]},{"lat":"37.336035019","long":"126.8115476","imageIndex":13,"items":[{"name":"스트라이크존 안산선부구장","tel":"031-410-1600","addr":"경기도 안산시 단원구 선부동 1076-3번지 용현빌딩 5층 503호","indutype":"레저업소 - 기타레져업소","category":"leisure"},{"name":"아이엔지(ING)필라테스","tel":"031-411-7693","addr":"경기도 안산시 단원구 선부동 1076-3번지 용현빌딩 502호","indutype":"레저업소 - 헬스클럽","category":"leisure"},{"name":"쪼꼬당구장","tel":"031-480-4208","addr":"경기도 안산시 단원구 선부동 1076-3번지 용현빌딩 504호","indutype":"레저업소 - 당 구 장","category":"leisure"},{"name":"카카오노래연습장","tel":"031-486-2508","addr":"경기도 안산시 단원구 선부동 1076-3번지 용현빌딩 3층 309호","indutype":"레저업소 - 노 래 방","category":"leisure"}]},{"lat":"37.343417149","long":"126.80774831","imageIndex":13,"items":[{"name":"시네마노래연습장","tel":"031-403-2805","addr":"경기도 안산시 단원구 선부동 1058-9번지 지층","indutype":"레저업소 - 노 래 방","category":"leisure"}]},{"lat":"37.335666679","long":"126.8122143","imageIndex":13,"items":[{"name":"식스팩휘트니스센터","tel":"02-1600-9605","addr":"경기도 안산시 단원구 선부동 1076-5번지 훼미리프라자 4층 402-411호","indutype":"레저업소 - 헬스클럽","category":"leisure"}]},{"lat":"37.339423313","long":"126.79577433","imageIndex":13,"items":[{"name":"신나게팡팡노래연습장","tel":"031-493-4377","addr":"경기도 안산시 단원구 선부동 983-6번지","indutype":"레저업소 - 노 래 방","category":"leisure"}]},{"lat":"37.341084358","long":"126.80285669","imageIndex":13,"items":[{"name":"신나라노래방","tel":"031-402-2048","addr":"경기도 안산시 단원구 선부동 1008번지 지하층","indutype":"레저업소 - 노 래 방","category":"leisure"}]},{"lat":"37.342449804","long":"126.81691433","imageIndex":13,"items":[{"name":"신바람노래방","tel":"031-480-9400","addr":"경기도 안산시 단원구 선부동 1088-16번지","indutype":"레저업소 - 노 래 방","category":"leisure"}]},{"lat":"37.342923737","long":"126.80363049","imageIndex":13,"items":[{"name":"신바람노래연습장","tel":"031-402-3198","addr":"경기도 안산시 단원구 선부동 1027-18번지 지하","indutype":"레저업소 - 노 래 방","category":"leisure"},{"name":"종합노래방","tel":"031-402-3198","addr":"경기도 안산시 단원구 선부동 1027-18번지","indutype":"레저업소 - 노 래 방","category":"leisure"}]},{"lat":"37.341948516","long":"126.81330435","imageIndex":13,"items":[{"name":"쌈바노래연습장","tel":"031-483-1431","addr":"경기도 안산시 단원구 선부동 1144-10번지 지하층","indutype":"레저업소 - 노 래 방","category":"leisure"}]},{"lat":"37.336166925","long":"126.80954997","imageIndex":13,"items":[{"name":"씨엘스포츠","tel":"","addr":"경기도 안산시 단원구 선부동 1070-1번지 8층","indutype":"레저업소 - 기타레져업소","category":"leisure"}]},{"lat":"37.342338383","long":"126.81482686","imageIndex":13,"items":[{"name":"아리랑노래연습장","tel":"031-401-6608","addr":"경기도 안산시 단원구 선부동 1143-2번지 지층","indutype":"레저업소 - 노 래 방","category":"leisure"}]},{"lat":"37.341639295","long":"126.80602631","imageIndex":13,"items":[{"name":"아이비스PC방","tel":"02-222-2222","addr":"경기도 안산시 단원구 선부동 1032-9번지 2층 관인제일학원","indutype":"레저업소 - 기타레져업소","category":"leisure"}]},{"lat":"37.342197822","long":"126.8171068","imageIndex":13,"items":[{"name":"아이에스캐롬클럽","tel":"","addr":"경기도 안산시 단원구 선부동 1087-17번지 도원스위트빌3차 201호","indutype":"레저업소 - 당 구 장","category":"leisure"}]},{"lat":"37.342725908","long":"126.81488232","imageIndex":13,"items":[{"name":"아치당구장","tel":"031-480-3060","addr":"경기도 안산시 단원구 선부동 1142-8번지 2층","indutype":"레저업소 - 당 구 장","category":"leisure"}]},{"lat":"37.336807569","long":"126.80466224","imageIndex":13,"items":[{"name":"연다라노래연습장","tel":"031-405-5166","addr":"경기도 안산시 단원구 선부동 969-10번지 지하층","indutype":"레저업소 - 노 래 방","category":"leisure"}]},{"lat":"37.342666448","long":"126.80602363","imageIndex":13,"items":[{"name":"열창노래연습장","tel":"031-405-5580","addr":"경기도 안산시 단원구 선부동 1037-17번지 지층","indutype":"레저업소 - 노 래 방","category":"leisure"}]},{"lat":"37.338083166","long":"126.80237942","imageIndex":13,"items":[{"name":"와와노래연습장","tel":"031-411-9858","addr":"경기도 안산시 단원구 선부동 974-1번지","indutype":"레저업소 - 노 래 방","category":"leisure"}]},{"lat":"37.339117317","long":"126.80119179","imageIndex":13,"items":[{"name":"우리노래방","tel":"031-482-1801","addr":"경기도 안산시 단원구 선부동 998-15번지","indutype":"레저업소 - 노 래 방","category":"leisure"}]},{"lat":"37.343085501","long":"126.80338179","imageIndex":13,"items":[{"name":"월드노래연습장","tel":"031-414-5984","addr":"경기도 안산시 단원구 선부동 1020-9번지 지하","indutype":"레저업소 - 노 래 방","category":"leisure"}]},{"lat":"37.342752924","long":"126.80385665","imageIndex":13,"items":[{"name":"월드당구장","tel":"031-4036-2187","addr":"경기도 안산시 단원구 선부동 1027-16번지 301호","indutype":"레저업소 - 당 구 장","category":"leisure"},{"name":"쿵쿵따노래연습장","tel":"031-402-5002","addr":"경기도 안산시 단원구 선부동 1027-16번지","indutype":"레저업소 - 노 래 방","category":"leisure"}]},{"lat":"37.345447288","long":"126.81507868","imageIndex":13,"items":[{"name":"이도당구장","tel":"","addr":"경기도 안산시 단원구 선부동 1116-10번지 2층","indutype":"레저업소 - 당 구 장","category":"leisure"}]},{"lat":"37.34211109","long":"126.80799996","imageIndex":13,"items":[{"name":"정당구클럽","tel":"","addr":"경기도 안산시 단원구 선부동 1058-33번지 3층","indutype":"레저업소 - 당 구 장","category":"leisure"}]},{"lat":"37.342225178","long":"126.8061602","imageIndex":13,"items":[{"name":"짝노래연습장","tel":"070-7764-0038","addr":"경기도 안산시 단원구 선부동 1037-13번지 지층","indutype":"레저업소 - 노 래 방","category":"leisure"}]},{"lat":"37.342474256","long":"126.80424108","imageIndex":13,"items":[{"name":"캉캉노래연습장","tel":"031-410-9953","addr":"경기도 안산시 단원구 선부동 1027-12번지 지하","indutype":"레저업소 - 노 래 방","category":"leisure"}]},{"lat":"37.341173926","long":"126.80793467","imageIndex":13,"items":[{"name":"컨츄리노래연습장","tel":"031-402-6996","addr":"경기도 안산시 단원구 선부동 1059-12번지 지하층","indutype":"레저업소 - 노 래 방","category":"leisure"},{"name":"컨츄리노래연습장","tel":"031-402-6996","addr":"경기도 안산시 단원구 선부동 1059-12번지","indutype":"레저업소 - 노 래 방","category":"leisure"}]},{"lat":"37.34294653","long":"126.81765793","imageIndex":13,"items":[{"name":"코스모스노래연습장","tel":"","addr":"경기도 안산시 단원구 선부동 1089-8번지 지층 101호","indutype":"레저업소 - 노 래 방","category":"leisure"}]},{"lat":"37.34180998","long":"126.80572117","imageIndex":13,"items":[{"name":"쿨PC방","tel":"031-481-9920","addr":"경기도 안산시 단원구 선부동 1031-10번지 2층","indutype":"레저업소 - 기타레져업소","category":"leisure"},{"name":"쿨PC방","tel":"031-357-7620","addr":"경기도 안산시 단원구 선부동 1031-10번지 2층","indutype":"레저업소 - 기타레져업소","category":"leisure"}]},{"lat":"37.34244654","long":"126.81484916","imageIndex":13,"items":[{"name":"킴스핫요가 선부2호점","tel":"031-483-8333","addr":"경기도 안산시 단원구 선부동 1143-1번지","indutype":"레저업소 - 헬스클럽","category":"leisure"}]},{"lat":"37.340975015","long":"126.80751765","imageIndex":13,"items":[{"name":"태양당구클럽","tel":"031-501-3328","addr":"경기도 안산시 단원구 선부동 1065번지 3층","indutype":"레저업소 - 당 구 장","category":"leisure"}]},{"lat":"37.341860541","long":"126.81463621","imageIndex":13,"items":[{"name":"테마노래연습장","tel":"031-402-5233","addr":"경기도 안산시 단원구 선부동 1143-7번지","indutype":"레저업소 - 노 래 방","category":"leisure"}]},{"lat":"37.338865878","long":"126.80168898","imageIndex":13,"items":[{"name":"하마노래방","tel":"031-480-1249","addr":"경기도 안산시 단원구 선부동 998-11번지","indutype":"레저업소 - 노 래 방","category":"leisure"}]},{"lat":"37.337086088","long":"126.80418756","imageIndex":13,"items":[{"name":"하모니노래방","tel":"031-483-3359","addr":"경기도 안산시 단원구 선부동 969-6번지","indutype":"레저업소 - 노 래 방","category":"leisure"}]},{"lat":"37.341777028","long":"126.80758328","imageIndex":13,"items":[{"name":"한국무술원","tel":"031-401-8031","addr":"경기도 안산시 단원구 선부동 1033-10번지 지하층","indutype":"레저업소 - 헬스클럽","category":"leisure"}]},{"lat":"37.339285435","long":"126.8157711","imageIndex":13,"items":[{"name":"해동검도일무본관","tel":"031-402-4015","addr":"경기도 안산시 단원구 선부동 1086번지 한양프라자 B1층001호","indutype":"레저업소 - 기타레져업소","category":"leisure"}]},{"lat":"37.341867761","long":"126.80796674","imageIndex":13,"items":[{"name":"황진이노래연습장","tel":"031-410-6344","addr":"경기도 안산시 단원구 선부동 1058-31번지 지하층","indutype":"레저업소 - 노 래 방","category":"leisure"}]}]