[{"lat":"37.693790154","long":"126.78029121","imageIndex":8,"items":[{"name":"김태빈내과의원","tel":"031-975-8402","addr":"경기도 고양시 일산동구 중산동 1561번지","indutype":"의원 - 의원","category":"medical"}]},{"lat":"37.683155269","long":"126.77842979","imageIndex":8,"items":[{"name":"더독동물병원","tel":"031-977-0154","addr":"경기도 고양시 일산동구 중산동 1667-3번지","indutype":"기타의료기관 - 동물병원","category":"medical"}]},{"lat":"37.682572848","long":"126.78012067","imageIndex":8,"items":[{"name":"더휴 정신건강의학과의원","tel":"031-975-5285","addr":"경기도 고양시 일산동구 중산동 1694번지","indutype":"의원 - 의원","category":"medical"}]},{"lat":"37.674430008","long":"126.78595997","imageIndex":8,"items":[{"name":"동원당한의원","tel":"031-976-8272","addr":"경기도 고양시 일산동구 중산동 1806번지","indutype":"의원 - 한의원","category":"medical"},{"name":"샘터온누리약국","tel":"031-976-3105","addr":"경기도 고양시 일산동구 중산동 1806번지","indutype":"약국 - 약국","category":"medical"},{"name":"서울수치과의원","tel":"031-976-7520","addr":"경기도 고양시 일산동구 중산동 1806번지","indutype":"의원 - 치과의원","category":"medical"},{"name":"일산효성내과의원","tel":"031-976-7525","addr":"경기도 고양시 일산동구 중산동 1806번지","indutype":"의원 - 의원","category":"medical"}]},{"lat":"37.682794993","long":"126.77848756","imageIndex":8,"items":[{"name":"두리이비인후과의원","tel":"031-975-8822","addr":"경기도 고양시 일산동구 중산동","indutype":"의원 - 의원","category":"medical"},{"name":"성산한의원","tel":"031-977-0075","addr":"경기도 고양시 일산동구 중산동 1667-6번지","indutype":"의원 - 한의원","category":"medical"},{"name":"일산그린약국","tel":"031-975-2475","addr":"경기도 고양시 일산동구 중산동 1667-6번지","indutype":"약국 - 약국","category":"medical"}]},{"lat":"37.693123125","long":"126.78012313","imageIndex":8,"items":[{"name":"메디칼참사랑온누리약국","tel":"031-976-8341","addr":"경기도 고양시 일산동구 중산동 1562번지","indutype":"약국 - 약국","category":"medical"},{"name":"이소아과의원","tel":"031-975-3177","addr":"경기도 고양시 일산동구 중산동 1562번지","indutype":"의원 - 의원","category":"medical"},{"name":"허브치과","tel":"031-976-3433","addr":"경기도 고양시 일산동구 중산동 1562번지","indutype":"의원 - 치과의원","category":"medical"}]},{"lat":"37.673819393","long":"126.78707259","imageIndex":8,"items":[{"name":"미플란트치과","tel":"031-977-2879","addr":"경기도 고양시 일산동구 중산동","indutype":"의원 - 치과의원","category":"medical"},{"name":"위즈펫동물병원 풍산점","tel":"031-975-7579","addr":"경기도 고양시 일산동구 중산동 1809번지","indutype":"기타의료기관 - 동물병원","category":"medical"}]},{"lat":"37.682020169","long":"126.77848989","imageIndex":8,"items":[{"name":"산들동물병원","tel":"031-976-7585","addr":"경기도 고양시 일산동구 중산동 1669-3번지","indutype":"기타의료기관 - 동물병원","category":"medical"}]},{"lat":"37.683019758","long":"126.77823748","imageIndex":8,"items":[{"name":"서울미래마취통증의학과의원","tel":"031-994-3250","addr":"경기도 고양시 일산동구 중산동 1667-8번지","indutype":"의원 - 의원","category":"medical"},{"name":"연세항정외과의원","tel":"031-976-0700","addr":"경기도 고양시 일산동구 중산동 1667-8번지","indutype":"의원 - 의원","category":"medical"},{"name":"우성의원","tel":"031-967-7769","addr":"경기도 고양시 일산동구 중산동 1667-8번지","indutype":"의원 - 의원","category":"medical"}]},{"lat":"37.695015155","long":"126.78012881","imageIndex":8,"items":[{"name":"아름다운약국","tel":"031-976-9537","addr":"경기도 고양시 일산동구 중산동","indutype":"약국 - 약국","category":"medical"}]},{"lat":"37.681367721","long":"126.78126924","imageIndex":8,"items":[{"name":"어담한의원","tel":"02-826-7900","addr":"경기도 고양시 일산동구 중산동 1692번지","indutype":"의원 - 한의원","category":"medical"},{"name":"온누리하늘약국","tel":"031-977-9760","addr":"경기도 고양시 일산동구 중산동 1692번지","indutype":"약국 - 약국","category":"medical"},{"name":"하늘소아청소년과의원","tel":"031-977-1822","addr":"경기도 고양시 일산동구 중산동 1692번지","indutype":"의원 - 의원","category":"medical"}]},{"lat":"37.693710115","long":"126.78084701","imageIndex":8,"items":[{"name":"열린부부한의원","tel":"031-977-8770","addr":"경기도 고양시 일산동구 중산동 1569-3번지","indutype":"의원 - 한의원","category":"medical"}]},{"lat":"37.693403683","long":"126.78079124","imageIndex":8,"items":[{"name":"예원부부치과의원","tel":"031-975-9075","addr":"경기도 고양시 일산동구 중산동 1569-5번지","indutype":"의원 - 치과의원","category":"medical"}]},{"lat":"37.68376192","long":"126.78001509","imageIndex":8,"items":[{"name":"일산이편한치과의원","tel":"031-923-2804","addr":"경기도 고양시 일산동구 중산동 1651번지","indutype":"의원 - 치과의원","category":"medical"}]},{"lat":"37.687067299","long":"126.77940433","imageIndex":8,"items":[{"name":"중산연세치과의원","tel":"031-975-0028","addr":"경기도 고양시 일산동구 중산동 1580-1번지","indutype":"의원 - 치과의원","category":"medical"}]},{"lat":"37.692763747","long":"126.78065709","imageIndex":8,"items":[{"name":"중산정형외과의원","tel":"031-975-8233","addr":"경기도 고양시 일산동구 중산동 1570-5번지","indutype":"의원 - 의원","category":"medical"}]},{"lat":"37.692320952","long":"126.77995546","imageIndex":8,"items":[{"name":"중산한의원","tel":"031-977-1201","addr":"경기도 고양시 일산동구 중산동 1563-2번지","indutype":"의원 - 한의원","category":"medical"}]},{"lat":"37.693043663","long":"126.78098506","imageIndex":8,"items":[{"name":"참사랑동물병원","tel":"031-975-0187","addr":"경기도 고양시 일산동구 중산동 1570번지","indutype":"기타의료기관 - 동물병원","category":"medical"}]},{"lat":"37.693654968","long":"126.78026893","imageIndex":8,"items":[{"name":"참좋은치과의원","tel":"031-975-2275","addr":"경기도 고양시 일산동구 중산동 1561-1번지","indutype":"의원 - 치과의원","category":"medical"}]},{"lat":"37.682457348","long":"126.78098259","imageIndex":8,"items":[{"name":"하나로서비스","tel":"031-975-4825","addr":"경기도 고양시 일산동구 중산동 1696번지","indutype":"기타의료기관 - 동물병원","category":"medical"}]},{"lat":"37.69409774","long":"126.78095924","imageIndex":8,"items":[{"name":"하얀마음한의원","tel":"031-914-6911","addr":"경기도 고양시 일산동구 중산동 1568-2번지","indutype":"의원 - 한의원","category":"medical"}]},{"lat":"37.693070179","long":"126.78071286","imageIndex":8,"items":[{"name":"해맑은한의원","tel":"031-975-7582","addr":"경기도 고양시 일산동구 중산동","indutype":"의원 - 한의원","category":"medical"}]},{"lat":"37.694177736","long":"126.78038075","imageIndex":8,"items":[{"name":"햇빛약국","tel":"031-975-1313","addr":"경기도 고양시 일산동구 중산동 1560-1번지","indutype":"약국 - 약국","category":"medical"}]},{"lat":"37.682736668","long":"126.79078779","imageIndex":8,"items":[{"name":"호정약국","tel":"031-975-7589","addr":"경기도 고양시 일산동구 중산동 12-2번지","indutype":"약국 - 약국","category":"medical"}]}]