[{"lat":"37.728012308","long":"126.70096686","imageIndex":17,"items":[{"name":"(사)한국장애인협회 사업단","tel":"031-949-3733","addr":"경기도 파주시 신촌동 61번지","indutype":"유통업 영리 - 기타유통업","category":"other"}]},{"lat":"37.726283179","long":"126.6977411","imageIndex":17,"items":[{"name":"(주) 비투윈","tel":"031-000-0000","addr":"경기도 파주시 신촌동 70-13번지","indutype":"레져용품 - 스포츠·레져용품","category":"other"},{"name":"선샤인트레이딩(주)","tel":"031-946-4651","addr":"경기도 파주시 신촌동 70-13번지","indutype":"유통업 영리 - 기타유통업","category":"other"},{"name":"제이투마켓","tel":"","addr":"경기도 파주시 신촌동 70-13번지","indutype":"전기제품 - 가전제품","category":"other"}]},{"lat":"37.739618677","long":"126.69137849","imageIndex":17,"items":[{"name":"(주)구즈몬","tel":"070-4680-4560","addr":"경기도 파주시 신촌동 245-16번지","indutype":"유통업 영리 - 기타유통업","category":"other"}]},{"lat":"37.729254942","long":"126.69033293","imageIndex":17,"items":[{"name":"(주)네임북스","tel":"031-955-9610","addr":"경기도 파주시 신촌동 742-1번지","indutype":"서적문구 - 출판 및 인쇄물","category":"other"},{"name":"시현 티에스(TS)","tel":"070-7563-9863","addr":"경기도 파주시 신촌동 742-1번지","indutype":"사무통신 - 기타 사무용품","category":"other"},{"name":"위너스프린팅","tel":"031-955-9187","addr":"경기도 파주시 신촌동 742-1번지","indutype":"서적문구 - 출판 및 인쇄물","category":"other"}]},{"lat":"37.730011937","long":"126.69382359","imageIndex":17,"items":[{"name":"(주)동양잉크서부","tel":"031-944-8530","addr":"경기도 파주시 신촌동 722-7번지","indutype":"사무통신 - 기타 사무용품","category":"other"}]},{"lat":"37.731621128","long":"126.70648803","imageIndex":17,"items":[{"name":"(주)사브라","tel":"031-944-0088","addr":"경기도 파주시 신촌동 11-16번지","indutype":"건축자재 - 조명기구","category":"other"}]},{"lat":"37.734758445","long":"126.68983333","imageIndex":17,"items":[{"name":"(주)성지정보기술","tel":"031-955-9902","addr":"경기도 파주시 신촌동 728-3번지","indutype":"신변잡화 - 기타잡화","category":"other"}]},{"lat":"37.727346089","long":"126.69765734","imageIndex":17,"items":[{"name":"(주)에어리코리아","tel":"070-4923-3135","addr":"경기도 파주시 신촌동 63-22번지","indutype":"기타 - 기계공구","category":"other"}]},{"lat":"37.728652137","long":"126.6975272","imageIndex":17,"items":[{"name":"(주)웰모아","tel":"000-1688-9471","addr":"경기도 파주시 신촌동 84번지","indutype":"전기제품 - 가전제품","category":"other"}]},{"lat":"37.734178107","long":"126.70224642","imageIndex":17,"items":[{"name":"(주)유니크앤","tel":"031-945-9391","addr":"경기도 파주시 신촌동 29-24번지","indutype":"서적문구 - 출판 및 인쇄물","category":"other"},{"name":"주식회사 삼영페이퍼","tel":"031-944-3082","addr":"경기도 파주시 신촌동 29-24번지","indutype":"유통업 영리 - 기타유통업","category":"other"}]},{"lat":"37.738206282","long":"126.68877509","imageIndex":17,"items":[{"name":"(주)유로산업","tel":"031-948-9789","addr":"경기도 파주시 신촌동 308-2번지","indutype":"신변잡화 - 기타잡화","category":"other"}]},{"lat":"37.726758627","long":"126.70043882","imageIndex":17,"items":[{"name":"(주)중산기업","tel":"031-942-2171","addr":"경기도 파주시 신촌동 63-11번지","indutype":"건축자재 - 기타건축자재","category":"other"}]},{"lat":"37.727201457","long":"126.70097015","imageIndex":17,"items":[{"name":"(주)케이제이건축","tel":"031-942-6340","addr":"경기도 파주시 신촌동 60-14번지","indutype":"건축자재 - 목재·석재·철물","category":"other"},{"name":"이쏘가구파주아울렛","tel":"070-4120-0585","addr":"경기도 파주시 신촌동 60-14번지","indutype":"가구 - 일반가구","category":"other"}]},{"lat":"37.729618112","long":"126.69138636","imageIndex":17,"items":[{"name":"GS25출판행복도시점","tel":"","addr":"경기도 파주시 신촌동 740-5번지","indutype":"유통업 영리 - 편 의 점","category":"other"},{"name":"씨엠(C.M)INC","tel":"031-948-0551","addr":"경기도 파주시 신촌동 740-5번지","indutype":"주방용구 - 주방용구","category":"other"}]},{"lat":"37.728290329","long":"126.69352447","imageIndex":17,"items":[{"name":"HB스톤","tel":"031-944-3258","addr":"경기도 파주시 신촌동 725-1번지","indutype":"용역 서비스 - 종합용역","category":"other"}]},{"lat":"37.729982907","long":"126.70352252","imageIndex":17,"items":[{"name":"K스크린골프","tel":"031-942-1253","addr":"경기도 파주시 신촌동 43-9번지 외1필지 학산상가 201호","indutype":"회원제형태 - 레져업소","category":"other"}]},{"lat":"37.731338495","long":"126.69122034","imageIndex":17,"items":[{"name":"TK스토리박스","tel":"031-955-9449","addr":"경기도 파주시 신촌동 736-1번지","indutype":"서적문구 - 완구점","category":"other"},{"name":"도자기공방 아눔","tel":"031-925-3295","addr":"경기도 파주시 신촌동 736-1번지","indutype":"주방용구 - 주방용식기","category":"other"}]},{"lat":"37.73389838","long":"126.70207739","imageIndex":17,"items":[{"name":"강림쉬레드","tel":"070-4151-0984","addr":"경기도 파주시 신촌동 29-27번지","indutype":"주방용구 - 주방용구","category":"other"}]},{"lat":"37.727456929","long":"126.69871181","imageIndex":17,"items":[{"name":"경성특수금박인쇄사","tel":"031-8071-1950","addr":"경기도 파주시 신촌동 63-31","indutype":"기타 - 기타 전문점","category":"other"}]},{"lat":"37.726567652","long":"126.69974767","imageIndex":17,"items":[{"name":"곽엘피","tel":"031-1111-1111","addr":"경기도 파주시 신촌동 63-15번지","indutype":"레져용품 - 음반/영상물","category":"other"}]},{"lat":"37.731619921","long":"126.7096076","imageIndex":17,"items":[{"name":"나무목","tel":"","addr":"경기도 파주시 신촌동 7-1번지","indutype":"건축자재 - 기타건축자재","category":"other"}]},{"lat":"37.740032751","long":"126.69124062","imageIndex":17,"items":[{"name":"노바교육","tel":"031-945-0922","addr":"경기도 파주시 신촌동 245-27번지 1층","indutype":"회원제형태 - 서적","category":"other"}]},{"lat":"37.728645061","long":"126.69137909","imageIndex":17,"items":[{"name":"더 도어즈","tel":"","addr":"경기도 파주시 신촌동 741-2번지","indutype":"서적문구 - 출판 및 인쇄물","category":"other"},{"name":"온리더 (ON READER)","tel":"031-955-9577","addr":"경기도 파주시 신촌동 741-2번지","indutype":"서적문구 - 일반서적","category":"other"}]},{"lat":"37.730200617","long":"126.70057229","imageIndex":17,"items":[{"name":"데시앙","tel":"031-1544-8710","addr":"경기도 파주시 신촌동 51-10번지","indutype":"신변잡화 - 기타잡화","category":"other"}]},{"lat":"37.735401099","long":"126.69437976","imageIndex":17,"items":[{"name":"도담프린팅","tel":"031-945-8894","addr":"경기도 파주시 신촌동 380-2번지","indutype":"서적문구 - 출판 및 인쇄물","category":"other"}]},{"lat":"37.737646379","long":"126.69857937","imageIndex":17,"items":[{"name":"도서출판 KOKOJI","tel":"031-943-5678","addr":"경기도 파주시 신촌동 194-6번지","indutype":"서적문구 - 출판 및 인쇄물","category":"other"}]},{"lat":"37.731062282","long":"126.70282621","imageIndex":17,"items":[{"name":"디에스페이퍼위드","tel":"031-949+-0006","addr":"경기도 파주시 신촌동 42-1번지","indutype":"유통업 영리 - 기타유통업","category":"other"}]},{"lat":"37.726422648","long":"126.69593698","imageIndex":17,"items":[{"name":"미니스톱파주문발점","tel":"031-426-3992","addr":"경기도 파주시 신촌동 65-2번지","indutype":"유통업 영리 - 편 의 점","category":"other"}]},{"lat":"37.731845958","long":"126.69232992","imageIndex":17,"items":[{"name":"바람서적","tel":"031-941-3691","addr":"경기도 파주시 신촌동 729-7번지","indutype":"서적문구 - 일반서적","category":"other"}]},{"lat":"37.726791662","long":"126.69927034","imageIndex":17,"items":[{"name":"사단법인내일을여는멋진여성중증장애인사업","tel":"031-949-0976","addr":"경기도 파주시 신촌동 63-32번지","indutype":"서적문구 - 출판 및 인쇄물","category":"other"}]},{"lat":"37.727535913","long":"126.69443507","imageIndex":17,"items":[{"name":"수성토탈산업장비","tel":"","addr":"경기도 파주시 신촌동 419-6번지","indutype":"기타 - 기계공구","category":"other"}]},{"lat":"37.72622727","long":"126.69702672","imageIndex":17,"items":[{"name":"스완 리빙","tel":"031-906-1530","addr":"경기도 파주시 신촌동 70-8번지","indutype":"직물 - 침구·수예점","category":"other"},{"name":"스완페딕","tel":"070-4100-1200","addr":"경기도 파주시 신촌동 70-8번지","indutype":"가구 - 일반가구","category":"other"}]},{"lat":"37.737456437","long":"126.69482502","imageIndex":17,"items":[{"name":"스피드퀸","tel":"031-974-6984","addr":"경기도 파주시 신촌동 225-3번지","indutype":"수리서비스 - 가정용품수리","category":"other"}]},{"lat":"37.725394596","long":"126.69212999","imageIndex":17,"items":[{"name":"씨유문발산업단지점","tel":"031-945-1496","addr":"경기도 파주시 신촌동 445번지","indutype":"유통업 영리 - 편 의 점","category":"other"}]},{"lat":"37.733810881","long":"126.70666081","imageIndex":17,"items":[{"name":"씨유파주신촌공단점","tel":"031-941-9451","addr":"경기도 파주시 신촌동 17-3번지","indutype":"유통업 영리 - 편 의 점","category":"other"}]},{"lat":"37.729953894","long":"126.70630183","imageIndex":17,"items":[{"name":"씨유파주신촌산단점","tel":"031-944-1496","addr":"경기도 파주시 신촌동 12-4번지","indutype":"유통업 영리 - 편 의 점","category":"other"}]},{"lat":"37.729227887","long":"126.70068968","imageIndex":17,"items":[{"name":"아이스타일 주식회사","tel":"031-948-4549","addr":"경기도 파주시 신촌동 55-1번지","indutype":"서적문구 - 문구용품","category":"other"}]},{"lat":"37.72920275","long":"126.69446219","imageIndex":17,"items":[{"name":"엠케이(MK)금속","tel":"031-945-8912","addr":"경기도 파주시 신촌동 724-2번지","indutype":"건축자재 - 기타건축자재","category":"other"}]},{"lat":"37.728534967","long":"126.69063089","imageIndex":17,"items":[{"name":"웬즈데이커머스주식회사","tel":"031-955-4095","addr":"경기도 파주시 신촌동 742-6","indutype":"서적문구 - 출판 및 인쇄물","category":"other"}]},{"lat":"37.72822839","long":"126.70090927","imageIndex":17,"items":[{"name":"윤호기업사","tel":"","addr":"경기도 파주시 신촌동 62번지","indutype":"기타 - 기계공구","category":"other"}]},{"lat":"37.73256333","long":"126.69104504","imageIndex":17,"items":[{"name":"이마트24 파주출판도시","tel":"02-6916-1500","addr":"경기도 파주시 신촌동 735번지","indutype":"유통업 영리 - 편 의 점","category":"other"}]},{"lat":"37.733504902","long":"126.70679816","imageIndex":17,"items":[{"name":"조조에어컨","tel":"031-939-6060","addr":"경기도 파주시 신촌동 17-1번지","indutype":"용역 서비스 - 기타용역서비스","category":"other"},{"name":"주식회사 대한시스템","tel":"031-943-8513","addr":"경기도 파주시 신촌동 17-1 가동","indutype":"건축자재 - 인테리어전문","category":"other"}]},{"lat":"37.729678587","long":"126.69382498","imageIndex":17,"items":[{"name":"주식회사 경성산업","tel":"031-8071-2090","addr":"경기도 파주시 신촌동 722-8번지","indutype":"서적문구 - 출판 및 인쇄물","category":"other"}]},{"lat":"37.74067272","long":"126.69135139","imageIndex":17,"items":[{"name":"주식회사 노아","tel":"031-941-3422","addr":"경기도 파주시 신촌동 245-25번지","indutype":"건축자재 - 기타건축자재","category":"other"}]},{"lat":"37.731314322","long":"126.70629641","imageIndex":17,"items":[{"name":"주식회사 아이포","tel":"031-942-6346","addr":"경기도 파주시 신촌동 13-17번지","indutype":"건축자재 - 기타건축자재","category":"other"}]},{"lat":"37.740476429","long":"126.6920783","imageIndex":17,"items":[{"name":"주식회사 우솔","tel":"031-941-1280","addr":"경기도 파주시 신촌동 245-6번지","indutype":"전기제품 - 가전제품","category":"other"}]},{"lat":"37.739316108","long":"126.69624679","imageIndex":17,"items":[{"name":"주식회사 제로디펙트코리아","tel":"031-946-0216","addr":"경기도 파주시 신촌동 231-1번지","indutype":"전기제품 - 가전제품","category":"other"}]},{"lat":"37.729201681","long":"126.69405383","imageIndex":17,"items":[{"name":"주식회사 티원정보","tel":"031-948-1174","addr":"경기도 파주시 신촌동 724-1번지","indutype":"용역 서비스 - 기타용역서비스","category":"other"}]},{"lat":"37.728374167","long":"126.70154391","imageIndex":17,"items":[{"name":"주식회사그린웨이브","tel":"02-2061-9970","addr":"경기도 파주시 신촌동 59","indutype":"유통업 영리 - 기타유통업","category":"other"}]},{"lat":"37.738925368","long":"126.69843799","imageIndex":17,"items":[{"name":"주식회사다함이엔씨","tel":"031-949-1418","addr":"경기도 파주시 신촌동 196-5번지","indutype":"서적문구 - 과학기자재","category":"other"}]},{"lat":"37.72828343","long":"126.69432988","imageIndex":17,"items":[{"name":"주식회사블루아트","tel":"031-943-0215","addr":"경기도 파주시 신촌동 725-3번지","indutype":"용역 서비스 - 기타용역서비스","category":"other"}]},{"lat":"37.730261998","long":"126.703442","imageIndex":17,"items":[{"name":"주식회사엑스아이자이북스","tel":"031-904-2290","addr":"경기도 파주시 신촌동 43-14번지","indutype":"회원제형태 - 서적","category":"other"}]},{"lat":"37.725397312","long":"126.69316219","imageIndex":17,"items":[{"name":"천지인","tel":"031-949-3563","addr":"경기도 파주시 신촌동 443-15번지","indutype":"건축자재 - 인테리어전문","category":"other"}]},{"lat":"37.73014352","long":"126.70290932","imageIndex":17,"items":[{"name":"태영미디어","tel":"031-8071-1879","addr":"경기도 파주시 신촌동 43-5번지","indutype":"서적문구 - 출판 및 인쇄물","category":"other"}]},{"lat":"37.728037563","long":"126.70027482","imageIndex":17,"items":[{"name":"파주피앤피종합촬영소","tel":"","addr":"경기도 파주시 신촌동 64-5번지","indutype":"용역 서비스 - 사무서비스","category":"other"}]},{"lat":"37.736925977","long":"126.69524697","imageIndex":17,"items":[{"name":"포이어컴","tel":"","addr":"경기도 파주시 신촌동 210-2번지","indutype":"전기제품 - 가전제품","category":"other"}]},{"lat":"37.734314809","long":"126.70285846","imageIndex":17,"items":[{"name":"플랜스톤","tel":"031-000-0000","addr":"경기도 파주시 신촌동 29-1번지","indutype":"서적문구 - 출판 및 인쇄물","category":"other"}]},{"lat":"37.740954339","long":"126.68883155","imageIndex":17,"items":[{"name":"한강유통","tel":"031-947-1279","addr":"경기도 파주시 신촌동 682번지","indutype":"전기제품 - 기타전기제품","category":"other"}]},{"lat":"37.728617449","long":"126.69804914","imageIndex":17,"items":[{"name":"힐링존미디어","tel":"070-4659-2423","addr":"경기도 파주시 신촌동 84-3번지","indutype":"가구 - 기타가구","category":"other"}]}]