[{"lat":"37.936021062","long":"127.06792569","imageIndex":16,"items":[{"name":"사단법인 명덕문화원","tel":"031-832-4730","addr":"경기도 동두천시 동두천동 35-30번지","indutype":"학원 - 기타 교육기관","category":"study"}]},{"lat":"37.926820915","long":"127.0529496","imageIndex":16,"items":[{"name":"신창해피어린이집[아이행복]","tel":"031-865-3936","addr":"경기도 동두천시 동두천동 524번지 동두천신창비바패밀리-1단지 관리-1","indutype":"학원 - 유아원","category":"study"}]},{"lat":"37.924298163","long":"127.05331184","imageIndex":16,"items":[{"name":"신흥태양체육관","tel":"031-868-6291","addr":"경기도 동두천시 동두천동 209-12","indutype":"학원 - 기타 교육기관","category":"study"}]},{"lat":"37.930380793","long":"127.05000604","imageIndex":16,"items":[{"name":"안흥어린이집[아이행복]","tel":"031-862-6423","addr":"경기도 동두천시 동두천동 539-1번지","indutype":"학원 - 유아원","category":"study"},{"name":"안흥어린이집[아이행복]","tel":"031-862-6423","addr":"경기도 동두천시 동두천동 539-1번지 안흥어린이집","indutype":"학원 - 유아원","category":"study"}]},{"lat":"37.924100158","long":"127.05284539","imageIndex":16,"items":[{"name":"예일피아노","tel":"031-867-2081","addr":"경기도 동두천시 동두천동 210-12","indutype":"학원 - 예·체능계학원","category":"study"}]},{"lat":"37.931689635","long":"127.06414551","imageIndex":16,"items":[{"name":"지중해어린이집[아이행복]","tel":"031-861-9441","addr":"경기도 동두천시 동두천동 9-27번지","indutype":"학원 - 유아원","category":"study"}]},{"lat":"37.934766538","long":"127.05422899","imageIndex":16,"items":[{"name":"창말어린이집[아이행복]","tel":"031-862-8733","addr":"경기도 동두천시 동두천동 289-24번지","indutype":"학원 - 유아원","category":"study"}]}]