[{"lat":"37.271213164","long":"127.15198711","imageIndex":4,"items":[{"name":"(주)리갈에이스","tel":"031-282-8777","addr":"경기도 용인시 기흥구 중동 848-3번지 동백에이스프라자","indutype":"일반휴게음식 - 서양음식","category":"restaurant"},{"name":"(주)리갈에이스-파파이스","tel":"031-282-8666","addr":"경기도 용인시 기흥구 중동 848-3번지 동백에이스프라자","indutype":"일반휴게음식 - 서양음식","category":"restaurant"},{"name":"고양이네 생선구이","tel":"070-8834-4633","addr":"경기도 용인시 기흥구 중동 848-3번지 동백에이스프라자 101호","indutype":"일반휴게음식 - 일반한식","category":"restaurant"},{"name":"누름돌김치찌개","tel":"031-282-1595","addr":"경기도 용인시 기흥구 중동 848-3번지 에이스프라자 113호","indutype":"일반휴게음식 - 일반한식","category":"restaurant"},{"name":"마이","tel":"031-282-6669","addr":"경기도 용인시 기흥구 중동 848-3번지 에이스프라자 304호","indutype":"일반휴게음식 - 일반한식","category":"restaurant"},{"name":"밀밭","tel":"031-8003-2321","addr":"경기도 용인시 기흥구 중동 848-3번지 동백에이스프라자 106호","indutype":"일반휴게음식 - 일반한식","category":"restaurant"},{"name":"엠클락","tel":"031-287-6511","addr":"경기도 용인시 기흥구 중동 848-3번지 에이스프라자 2층 201호","indutype":"일반휴게음식 - 서양음식","category":"restaurant"},{"name":"정다믄김밥","tel":"","addr":"경기도 용인시 기흥구 중동 848-3번지 에이스프라자 1층 110호","indutype":"일반휴게음식 - 일반한식","category":"restaurant"},{"name":"파이굽는 집 (동백점)","tel":"031-287-7730","addr":"경기도 용인시 기흥구 중동 848-3번지 에이스프라자 107호","indutype":"일반휴게음식 - 서양음식","category":"restaurant"},{"name":"황소가한우곱창","tel":"031-281-8253","addr":"경기도 용인시 기흥구 중동 848-3번지 에이스프라자 104호","indutype":"일반휴게음식 - 일반한식","category":"restaurant"}]},{"lat":"37.27662848","long":"127.15187376","imageIndex":4,"items":[{"name":"(주)무아레","tel":"070-4227-5764","addr":"경기도 용인시 기흥구 중동 832-7번지 동백레이크시티프라자 110호","indutype":"일반휴게음식 - 서양음식","category":"restaurant"},{"name":"더(The)한점","tel":"031-287-0862","addr":"경기도 용인시 기흥구 중동 832-7번지 동백레이크시티프라자 203~205호","indutype":"일반휴게음식 - 일반한식","category":"restaurant"},{"name":"맥주대장 동백점","tel":"031-282-1231","addr":"경기도 용인시 기흥구 중동 832-7번지 동백레이크시티프라자 101호,102호","indutype":"일반휴게음식 - 주점","category":"restaurant"},{"name":"민이네시골밥상","tel":"031-283-4646","addr":"경기도 용인시 기흥구 중동 832-7번지 동백레이크시티프라자 1층 105호","indutype":"일반휴게음식 - 일반한식","category":"restaurant"},{"name":"어반블루(URBAN BLUE)","tel":"031-283-6344","addr":"경기도 용인시 기흥구 중동 832-7번지 동백레이크시티프라자 303호","indutype":"일반휴게음식 - 일반한식","category":"restaurant"},{"name":"전주명가콩나물국밥","tel":"031-275-3802","addr":"경기도 용인시 기흥구 중동 832-7번지 동백레이크시티프라자 107호 108호 107호","indutype":"일반휴게음식 - 일반한식","category":"restaurant"},{"name":"파파존스피자","tel":"031-281-8117","addr":"경기도 용인시 기흥구 중동 832-7번지 레이크시티프라자 104호","indutype":"일반휴게음식 - 서양음식","category":"restaurant"}]},{"lat":"37.256766657","long":"127.16785262","imageIndex":4,"items":[{"name":"(주)창성피에스","tel":"031-8021-3660","addr":"경기도 용인시 기흥구 중동 1030번지 대우프론티어밸리I B01호","indutype":"일반휴게음식 - 위탁급식업","category":"restaurant"}]},{"lat":"37.269463836","long":"127.15304344","imageIndex":4,"items":[{"name":"2도비어 동백역점","tel":"031-275-2342","addr":"경기도 용인시 기흥구 중동 851-3번지 포스트타워 106호","indutype":"일반휴게음식 - 주점","category":"restaurant"},{"name":"미미칼국수","tel":"031-1111-1111","addr":"경기도 용인시 기흥구 중동 851-3번지 포스트타워 1층 101호","indutype":"일반휴게음식 - 일반한식","category":"restaurant"},{"name":"부어치킨","tel":"031-274-0992","addr":"경기도 용인시 기흥구 중동 851-3번지 포스트타워 107호","indutype":"일반휴게음식 - 스넥","category":"restaurant"},{"name":"헥사곤","tel":"","addr":"경기도 용인시 기흥구 중동 851-3번지 포스트타워 1층 104호","indutype":"일반휴게음식 - 서양음식","category":"restaurant"}]},{"lat":"37.278014017","long":"127.15348889","imageIndex":4,"items":[{"name":"2도비어 동백점","tel":"031-275-2229","addr":"경기도 용인시 기흥구 중동 829번지 골드프라자 B동 126호","indutype":"일반휴게음식 - 주점","category":"restaurant"},{"name":"명랑쌀핫도그 용인동백점","tel":"031-283-2332","addr":"경기도 용인시 기흥구 중동 829번지 골드프라자 제비동 제1층 112호","indutype":"일반휴게음식 - 서양음식","category":"restaurant"},{"name":"명장숯불직화꼬치구이","tel":"031-284-8527","addr":"경기도 용인시 기흥구 중동 829번지 골드프라자 B동 107호","indutype":"일반휴게음식 - 일반한식","category":"restaurant"},{"name":"아마스빈 (용인동백점)","tel":"031-284-5933","addr":"경기도 용인시 기흥구 중동 829번지 골드프라자 B동 1층 104호","indutype":"일반휴게음식 - 일반한식","category":"restaurant"},{"name":"정성한줄 동백점","tel":"031-282-6996","addr":"경기도 용인시 기흥구 중동 829번지 골드프라자 B동 107호","indutype":"일반휴게음식 - 일반한식","category":"restaurant"},{"name":"토속골집밥","tel":"031-281-3868","addr":"경기도 용인시 기흥구 중동 829번지 골드프라자 B동 207호 일부208호","indutype":"일반휴게음식 - 일반한식","category":"restaurant"},{"name":"호치킨하우스","tel":"031-287-5727","addr":"경기도 용인시 기흥구 중동 829번지 골드프라자 B동 102호 128호","indutype":"일반휴게음식 - 스넥","category":"restaurant"},{"name":"홍루이젠","tel":"031-274-5713","addr":"경기도 용인시 기흥구 중동 829번지 골드프라자 B동 118호","indutype":"일반휴게음식 - 서양음식","category":"restaurant"}]},{"lat":"37.257687499","long":"127.15990754","imageIndex":4,"items":[{"name":"4.2베이커리동백점","tel":"","addr":"경기도 용인시 기흥구 중동 31-5번지 1층","indutype":"일반휴게음식 - 서양음식","category":"restaurant"},{"name":"도토리편백집용인동춘점","tel":"031-8009-0805","addr":"경기도 용인시 기흥구 중동 31-5번지 2층 2~7호","indutype":"일반휴게음식 - 일반한식","category":"restaurant"},{"name":"리엔최푸드컴퍼니","tel":"","addr":"경기도 용인시 기흥구 중동 31-5번지 푸드코트 내 2층 2~10호","indutype":"일반휴게음식 - 일반한식","category":"restaurant"},{"name":"빨라쪼 동춘175","tel":"02-709-7807","addr":"경기도 용인시 기흥구 중동 31-5번지 A동 2층","indutype":"일반휴게음식 - 서양음식","category":"restaurant"},{"name":"성북동방앗간","tel":"","addr":"경기도 용인시 기흥구 중동 31-5번지","indutype":"일반휴게음식 - 스넥","category":"restaurant"},{"name":"육전국밥동백점","tel":"031-8009-0890","addr":"경기도 용인시 기흥구 중동 31-5번지 2층","indutype":"일반휴게음식 - 일반한식","category":"restaurant"},{"name":"토닭토닭","tel":"","addr":"경기도 용인시 기흥구 중동 31-5번지 A동 2층","indutype":"일반휴게음식 - 일반한식","category":"restaurant"}]},{"lat":"37.276790451","long":"127.15204321","imageIndex":4,"items":[{"name":"43도","tel":"031-287-3346","addr":"경기도 용인시 기흥구 중동 832-6번지 동백베스트빌오피스텔 203호","indutype":"일반휴게음식 - 일반한식","category":"restaurant"},{"name":"미담(램)양꼬치","tel":"031-286-3799","addr":"경기도 용인시 기흥구 중동 832-6번지 베스트빌오피스텔 1층 107호,108호","indutype":"일반휴게음식 - 일반한식","category":"restaurant"},{"name":"미담(램)양꼬치","tel":"031-286-3799","addr":"경기도 용인시 기흥구 중동 832-6번지 107~108호","indutype":"일반휴게음식 - 일반한식","category":"restaurant"},{"name":"비사(VI BAR)","tel":"031-286-7377","addr":"경기도 용인시 기흥구 중동 832-6번지 동백베스트오피스텔 402호","indutype":"일반휴게음식 - 주점","category":"restaurant"},{"name":"설빙용인동백점","tel":"031-275-2818","addr":"경기도 용인시 기흥구 중동 832-6번지 베스트빌오피스텔 201호 202호","indutype":"일반휴게음식 - 스넥","category":"restaurant"},{"name":"응급실국물떡볶이 용인동백점","tel":"","addr":"경기도 용인시 기흥구 중동 832-6번지 베스트빌오피스텔 1층 102호","indutype":"일반휴게음식 - 스넥","category":"restaurant"},{"name":"촌딱포차(동백점)","tel":"031-286-8887","addr":"경기도 용인시 기흥구 중동 832-6번지 베스트빌오피스텔 106호","indutype":"일반휴게음식 - 일반한식","category":"restaurant"},{"name":"퍼즐카페 에이블","tel":"031-285-0109","addr":"경기도 용인시 기흥구 중동 832-6번지","indutype":"일반휴게음식 - 서양음식","category":"restaurant"}]},{"lat":"37.256410123","long":"127.16504504","imageIndex":4,"items":[{"name":"95도C커피&버블티","tel":"02-851-3451","addr":"경기도 용인시 기흥구 중동 1033번지 에이스동백타워 지하1층 2-101호","indutype":"일반휴게음식 - 서양음식","category":"restaurant"},{"name":"고베소 동백본점","tel":"031-334-2019","addr":"경기도 용인시 기흥구 중동 1033번지 에이스동백타워 2동 B102호","indutype":"일반휴게음식 - 일반한식","category":"restaurant"},{"name":"돼지의재발견 동백점","tel":"031-8060-8080","addr":"경기도 용인시 기흥구 중동 1033번지 에이스동백타워 2동 B106호","indutype":"일반휴게음식 - 일반한식","category":"restaurant"},{"name":"삼원케터링","tel":"031-8060-8880","addr":"경기도 용인시 기흥구 중동 1033번지 에이스동백타워 1B106호","indutype":"일반휴게음식 - 일반한식","category":"restaurant"},{"name":"원스타양고기 동백본점","tel":"031-8060-7292","addr":"경기도 용인시 기흥구 중동 1033번지 에이스동백타워 2동 B103호","indutype":"일반휴게음식 - 일반한식","category":"restaurant"},{"name":"패러데이커피","tel":"031-111-1111","addr":"경기도 용인시 기흥구 중동 1033번지 에이스동백타워 2동 508호","indutype":"일반휴게음식 - 서양음식","category":"restaurant"}]},{"lat":"37.27657375","long":"127.15240359","imageIndex":4,"items":[{"name":"가마솥왕족발","tel":"031-282-0115","addr":"경기도 용인시 기흥구 중동 831-1번지 월드프라자 102호","indutype":"일반휴게음식 - 일반한식","category":"restaurant"},{"name":"루나리치","tel":"031-285-6383","addr":"경기도 용인시 기흥구 중동 831-1번지 월드프라자 104동 105호","indutype":"일반휴게음식 - 서양음식","category":"restaurant"},{"name":"블루오션","tel":"070-6309-1292","addr":"경기도 용인시 기흥구 중동 831-1번지 월드프라자 301호","indutype":"일반휴게음식 - 일반한식","category":"restaurant"},{"name":"이찌방","tel":"031-897-3369","addr":"경기도 용인시 기흥구 중동 831-1번지 월드프라자 1층 103호","indutype":"일반휴게음식 - 일반한식","category":"restaurant"},{"name":"이차돌기흥동백점","tel":"031-111-1111","addr":"경기도 용인시 기흥구 중동 831-1번지 1층 106호,107호","indutype":"일반휴게음식 - 일반한식","category":"restaurant"},{"name":"참치집플러스","tel":"031-274-3383","addr":"경기도 용인시 기흥구 중동 831-1번지 월드프라자 1층 104,105호","indutype":"일반휴게음식 - 일반한식","category":"restaurant"}]},{"lat":"37.277599474","long":"127.15354444","imageIndex":4,"items":[{"name":"가장맛있는족발","tel":"031-283-5849","addr":"경기도 용인시 기흥구 중동 829번지 골드프라자 1층 C118 ,C119호","indutype":"일반휴게음식 - 일반한식","category":"restaurant"},{"name":"경성술집","tel":"031-275-2171","addr":"경기도 용인시 기흥구 중동 829번지 골드프라자 1층 A115호","indutype":"일반휴게음식 - 주점","category":"restaurant"},{"name":"깐부치킨 동백점","tel":"031-8006-2029","addr":"경기도 용인시 기흥구 중동 829번지 골드프라자 C동 125,126호","indutype":"일반휴게음식 - 스넥","category":"restaurant"},{"name":"깐부치킨동백점","tel":"031-8006-2092","addr":"경기도 용인시 기흥구 중동 829번지 (중동골드프라자C동125,126호)","indutype":"일반휴게음식 - 스넥","category":"restaurant"},{"name":"더아메리칸41","tel":"070-1111-1111","addr":"경기도 용인시 기흥구 중동 829번지 골드프라자 1층 103호","indutype":"일반휴게음식 - 서양음식","category":"restaurant"},{"name":"동백연가 동백점","tel":"031-274-1150","addr":"경기도 용인시 기흥구 중동 829번지 골드프라자 D동 1층 102호,103호","indutype":"일반휴게음식 - 일반한식","category":"restaurant"},{"name":"동백점담소사골순대","tel":"031-282-1821","addr":"경기도 용인시 기흥구 중동 829번지 골드프라자 디동118,119호","indutype":"일반휴게음식 - 일반한식","category":"restaurant"},{"name":"두끼즉석떡볶이뷔페 용인동백점","tel":"031-211-2726","addr":"경기도 용인시 기흥구 중동 829번지 골드프라자 B동 206,207호","indutype":"일반휴게음식 - 스넥","category":"restaurant"},{"name":"두루막창","tel":"031-275-9162","addr":"경기도 용인시 기흥구 중동 829번지 골드프라자C동124,127호","indutype":"일반휴게음식 - 일반한식","category":"restaurant"},{"name":"릴리펏 용인동백점","tel":"031-285-2223","addr":"경기도 용인시 기흥구 중동 829번지 골드프라자 C동 406,407호","indutype":"일반휴게음식 - 서양음식","category":"restaurant"},{"name":"송탄이정부대찌개","tel":"031-274-3102","addr":"경기도 용인시 기흥구 중동 829번지 골드프라자 D동 203~204호","indutype":"일반휴게음식 - 일반한식","category":"restaurant"},{"name":"스마일명품찹쌀꽈배기","tel":"031-274-6522","addr":"경기도 용인시 기흥구 중동 829번지 골드프라자 124호","indutype":"일반휴게음식 - 일반한식","category":"restaurant"},{"name":"신전떡볶이","tel":"031-285-5560","addr":"경기도 용인시 기흥구 중동 829번지 골드프라자 9동 1층 125호","indutype":"일반휴게음식 - 스넥","category":"restaurant"},{"name":"써브웨이 용인동백점","tel":"031-285-4857","addr":"경기도 용인시 기흥구 중동 829번지 골드프라자 A동 105,106호","indutype":"일반휴게음식 - 서양음식","category":"restaurant"},{"name":"이디야","tel":"031-8005-6402","addr":"경기도 용인시 기흥구 중동 829번지 골드프라자B123,124호","indutype":"일반휴게음식 - 서양음식","category":"restaurant"},{"name":"제이엔키친(JN Kitchen)","tel":"031-287-9194","addr":"경기도 용인시 기흥구 중동 829번지 골드프라자 A동 209,210호","indutype":"일반휴게음식 - 일반한식","category":"restaurant"},{"name":"지글","tel":"031-274-9291","addr":"경기도 용인시 기흥구 중동 829번지 골드프라자 A동 2층 201호 ,202,203호","indutype":"일반휴게음식 - 일반한식","category":"restaurant"},{"name":"커피에반하다","tel":"031-275-0079","addr":"경기도 용인시 기흥구 중동 829번지 골드프라자 A동 1층 119,120호","indutype":"일반휴게음식 - 서양음식","category":"restaurant"},{"name":"타카커피 (TAKA COFFEE)","tel":"031-000-0000","addr":"경기도 용인시 기흥구 중동 829번지 골드프라자 제1층 108호,109일부호","indutype":"일반휴게음식 - 서양음식","category":"restaurant"},{"name":"포차천국(용인동백점)","tel":"031-000-0000","addr":"경기도 용인시 기흥구 중동 829번지 골드프라자 C동 101,102호","indutype":"일반휴게음식 - 일반한식","category":"restaurant"},{"name":"포크포크","tel":"031-8006-2399","addr":"경기도 용인시 기흥구 중동 829번지 골드프라자 103호","indutype":"일반휴게음식 - 일반한식","category":"restaurant"},{"name":"혼다라멘","tel":"031-287-8254","addr":"경기도 용인시 기흥구 중동 829번지 골드프라자 1층 제디 120호","indutype":"일반휴게음식 - 일식·회집","category":"restaurant"},{"name":"황금돼지","tel":"031-286-3330","addr":"경기도 용인시 기흥구 중동 829번지 골드프라자 D동 114,115호","indutype":"일반휴게음식 - 일반한식","category":"restaurant"}]},{"lat":"37.27013048","long":"127.15313495","imageIndex":4,"items":[{"name":"간이역","tel":"031-281-2900","addr":"경기도 용인시 기흥구 중동 852-3번지 브릭스타워 126호","indutype":"일반휴게음식 - 일반한식","category":"restaurant"},{"name":"개집비어 (용인동백점)","tel":"","addr":"경기도 용인시 기흥구 중동 852-3번지 105호,106호","indutype":"일반휴게음식 - 일반한식","category":"restaurant"},{"name":"두마리치킨마당","tel":"031-275-7796","addr":"경기도 용인시 기흥구 중동 852-3번지 브릭스타워 149호","indutype":"일반휴게음식 - 스넥","category":"restaurant"},{"name":"뒷담화","tel":"031-287-0489","addr":"경기도 용인시 기흥구 중동 852-3번지 브릭스타워 127호","indutype":"일반휴게음식 - 일반한식","category":"restaurant"},{"name":"레드썬동백점","tel":"031-285-1944","addr":"경기도 용인시 기흥구 중동 852-3번지 브릭스타워 101호,102호","indutype":"일반휴게음식 - 일반한식","category":"restaurant"},{"name":"메이","tel":"031-285-9905","addr":"경기도 용인시 기흥구 중동 852-3번지 브릭스타워 153호","indutype":"일반휴게음식 - 일반한식","category":"restaurant"},{"name":"명물곱창","tel":"031-286-3833","addr":"경기도 용인시 기흥구 중동 852-3번지 브릭스타워 110호","indutype":"일반휴게음식 - 일반한식","category":"restaurant"},{"name":"삼백집 동백점","tel":"031-281-3001","addr":"경기도 용인시 기흥구 중동 852-3번지 브릭스타워 1층 154,155,156,157호","indutype":"일반휴게음식 - 일반한식","category":"restaurant"},{"name":"수제막창","tel":"031-889-2339","addr":"경기도 용인시 기흥구 중동 852-3번지 브릭스타워 147호","indutype":"일반휴게음식 - 일반한식","category":"restaurant"},{"name":"슈퍼맵짱떡볶이 동백점","tel":"031-285-1253","addr":"경기도 용인시 기흥구 중동 852-3번지 브릭스타워 1층 107호","indutype":"일반휴게음식 - 일반한식","category":"restaurant"},{"name":"식당","tel":"031-693-5558","addr":"경기도 용인시 기흥구 중동 852-3번지 브릭스타워 115,116호","indutype":"일반휴게음식 - 일반한식","category":"restaurant"},{"name":"식당","tel":"031-693-5558","addr":"경기도 용인시 기흥구 중동 852-3번지 브릭스타워 115동 116호","indutype":"일반휴게음식 - 일반한식","category":"restaurant"},{"name":"아날로그","tel":"070-6253-3253","addr":"경기도 용인시 기흥구 중동 852-3번지 브릭스타워 152동 153호","indutype":"일반휴게음식 - 서양음식","category":"restaurant"},{"name":"에비스","tel":"031-827-7214","addr":"경기도 용인시 기흥구 중동 852-3번지 브릭스타워 103호","indutype":"일반휴게음식 - 일반한식","category":"restaurant"},{"name":"오성족발","tel":"031-283-5007","addr":"경기도 용인시 기흥구 중동 852-3번지 브릭스타워 111,112호","indutype":"일반휴게음식 - 일반한식","category":"restaurant"},{"name":"케냐커피","tel":"031-283-5040","addr":"경기도 용인시 기흥구 중동 852-3번지 브릭스타워 109호","indutype":"일반휴게음식 - 서양음식","category":"restaurant"},{"name":"템푸스(Tempus)","tel":"070-4255-0120","addr":"경기도 용인시 기흥구 중동 852-3번지 브릭스타워 1층 137호","indutype":"일반휴게음식 - 일반한식","category":"restaurant"},{"name":"토프레소 용인동백역점","tel":"031-274-0510","addr":"경기도 용인시 기흥구 중동 852-3번지 브릭스타워 1층 124호","indutype":"일반휴게음식 - 서양음식","category":"restaurant"},{"name":"행복치킨동백점","tel":"031-8005-9971","addr":"경기도 용인시 기흥구 중동 852-3번지 브릭스타워 104호","indutype":"일반휴게음식 - 주점","category":"restaurant"}]},{"lat":"37.276187031","long":"127.14448762","imageIndex":4,"items":[{"name":"감로옥","tel":"031-274-3435","addr":"경기도 용인시 기흥구 중동 671번지 1층","indutype":"일반휴게음식 - 일반한식","category":"restaurant"},{"name":"어정관","tel":"031-274-3435","addr":"경기도 용인시 기흥구 중동 671번지","indutype":"일반휴게음식 - 일반한식","category":"restaurant"}]},{"lat":"37.271132767","long":"127.1514345","imageIndex":4,"items":[{"name":"강씨 가문의 족발","tel":"031-287-5842","addr":"경기도 용인시 기흥구 중동 845-7번지 파크리움 102,103호","indutype":"일반휴게음식 - 일반한식","category":"restaurant"},{"name":"아토","tel":"02-1577-0000","addr":"경기도 용인시 기흥구 중동 845-7번지 1층 103-1, 104호","indutype":"일반휴게음식 - 일반한식","category":"restaurant"}]},{"lat":"37.267158535","long":"127.15199039","imageIndex":4,"items":[{"name":"개성집동백점","tel":"031-275-0202","addr":"경기도 용인시 기흥구 중동 434번지 1층","indutype":"일반휴게음식 - 일반한식","category":"restaurant"}]},{"lat":"37.269544284","long":"127.15355094","imageIndex":4,"items":[{"name":"걸작떡볶이 용인동백점","tel":"031-285-8864","addr":"경기도 용인시 기흥구 중동 853-3번지 V프라자 105호","indutype":"일반휴게음식 - 스넥","category":"restaurant"},{"name":"국수나무동백역점","tel":"031-275-1134","addr":"경기도 용인시 기흥구 중동 853-3번지 V프라자 1층 104호","indutype":"일반휴게음식 - 일반한식","category":"restaurant"},{"name":"돈짱","tel":"031-283-6653","addr":"경기도 용인시 기흥구 중동 853-3번지 V프라자 109호 V동백-TOWN","indutype":"일반휴게음식 - 일반한식","category":"restaurant"},{"name":"막창도둑","tel":"031-274-9238","addr":"경기도 용인시 기흥구 중동 853-3번지 동맥브이타운 110호","indutype":"일반휴게음식 - 일반한식","category":"restaurant"},{"name":"영미네카페밥상","tel":"031-283-0028","addr":"경기도 용인시 기흥구 중동 853-3번지 V프라자 1층 112호","indutype":"일반휴게음식 - 일반한식","category":"restaurant"},{"name":"족로망스","tel":"031-282-0034","addr":"경기도 용인시 기흥구 중동 853-3번지 V프라자 1층 111호","indutype":"일반휴게음식 - 일반한식","category":"restaurant"},{"name":"피자스쿨동백역점","tel":"031-693-5811","addr":"경기도 용인시 기흥구 중동 853-3번지 동백브이타운 103호","indutype":"일반휴게음식 - 서양음식","category":"restaurant"}]},{"lat":"37.283542727","long":"127.14168231","imageIndex":4,"items":[{"name":"고기깡패(동백점)","tel":"031-8005-7008","addr":"경기도 용인시 기흥구 중동 1112번지 하우스타 1층 101호","indutype":"일반휴게음식 - 일반한식","category":"restaurant"}]},{"lat":"37.277401062","long":"127.15369062","imageIndex":4,"items":[{"name":"고봉민김밥인용인중동점","tel":"031-282-2001","addr":"경기도 용인시 기흥구 중동 829번지 골드프라자 C동 115호","indutype":"일반휴게음식 - 일반한식","category":"restaurant"},{"name":"곱&삼","tel":"031-274-9233","addr":"경기도 용인시 기흥구 중동 829번지 골드프라자 C동 105호","indutype":"일반휴게음식 - 일반한식","category":"restaurant"},{"name":"더 떡볶이","tel":"031-286-9964","addr":"경기도 용인시 기흥구 중동 829번지 골드프라자 C동 110호","indutype":"일반휴게음식 - 스넥","category":"restaurant"},{"name":"딤채락","tel":"031-285-6060","addr":"경기도 용인시 기흥구 중동 829번지 골드프라자 C동 122호 123호","indutype":"일반휴게음식 - 일반한식","category":"restaurant"},{"name":"마카롱카페 용인동백쥬네브점","tel":"0505-355-0801","addr":"경기도 용인시 기흥구 중동 829번지 골드프라자 C동 117호","indutype":"일반휴게음식 - 일반한식","category":"restaurant"},{"name":"명품양갈비","tel":"070-2699-0807","addr":"경기도 용인시 기흥구 중동 829번지 골드프라자 C동 2층 205호","indutype":"일반휴게음식 - 중국식","category":"restaurant"},{"name":"뽀글이신닭발(뽀글이  닭발)","tel":"031-284-6878","addr":"경기도 용인시 기흥구 중동 829번지 골드프라자 C동 128호","indutype":"일반휴게음식 - 일반한식","category":"restaurant"},{"name":"피자애 동백점","tel":"031-287-1142","addr":"경기도 용인시 기흥구 중동 829번지 골드프라자 C동 107호","indutype":"일반휴게음식 - 서양음식","category":"restaurant"},{"name":"화통삼(동백점)","tel":"031-283-3389","addr":"경기도 용인시 기흥구 중동 829번지 골드프라자 C동 120호 121호","indutype":"일반휴게음식 - 일반한식","category":"restaurant"}]},{"lat":"37.276987651","long":"127.15285542","imageIndex":4,"items":[{"name":"골뱅이집","tel":"031-283-1595","addr":"경기도 용인시 기흥구 중동 830-1번지 동백지스타 111호","indutype":"일반휴게음식 - 주점","category":"restaurant"},{"name":"구울래?찔래?","tel":"031-274-4285","addr":"경기도 용인시 기흥구 중동 830-1번지 동백지스타 118호","indutype":"일반휴게음식 - 일반한식","category":"restaurant"},{"name":"그옛날종로빈대떡","tel":"031-274-7113","addr":"경기도 용인시 기흥구 중동 830-1번지 동백 지스타 107호","indutype":"일반휴게음식 - 일반한식","category":"restaurant"},{"name":"뉴앵글(뚱보집)","tel":"031-111-1111","addr":"경기도 용인시 기흥구 중동 830-1번지","indutype":"일반휴게음식 - 일반한식","category":"restaurant"},{"name":"동백명가부대찌게","tel":"031-283-9492","addr":"경기도 용인시 기흥구 중동 830-1번지 동백 지스타 2층 206호","indutype":"일반휴게음식 - 일반한식","category":"restaurant"},{"name":"맵도리탕 용인동백점","tel":"02-0000-0000","addr":"경기도 용인시 기흥구 중동 830-1번지 동백 지스타 112호","indutype":"일반휴게음식 - 일반한식","category":"restaurant"},{"name":"미스터오징어","tel":"031-281-8596","addr":"경기도 용인시 기흥구 중동 830-1번지 124,125호","indutype":"일반휴게음식 - 주점","category":"restaurant"},{"name":"별엉클","tel":"031-287-9605","addr":"경기도 용인시 기흥구 중동 830-1번지 동백 지스타 201호","indutype":"일반휴게음식 - 일반한식","category":"restaurant"},{"name":"오점오닭갈비(5.5닭갈비)","tel":"031-286-9295","addr":"경기도 용인시 기흥구 중동 830-1번지 동백지스타 119,120호","indutype":"일반휴게음식 - 일반한식","category":"restaurant"},{"name":"윤선생숯불닭갈비","tel":"031-3004-4006","addr":"경기도 용인시 기흥구 중동 830-1번지 109호 동백지스타","indutype":"일반휴게음식 - 일반한식","category":"restaurant"},{"name":"제이티(JT)","tel":"031-274-3233","addr":"경기도 용인시 기흥구 중동 830-1번지 중동,지스타프라자 110호","indutype":"일반휴게음식 - 주점","category":"restaurant"},{"name":"조선화로집동백점","tel":"031-275-0022","addr":"경기도 용인시 기흥구 중동 830-1번지 207~213호,동백지스타","indutype":"일반휴게음식 - 일반한식","category":"restaurant"},{"name":"참치집","tel":"031-281-5168","addr":"경기도 용인시 기흥구 중동 830-1번지 지스타프라자 1층 109호","indutype":"일반휴게음식 - 일식·회집","category":"restaurant"},{"name":"하남돼지집용인동백점","tel":"031-281-9992","addr":"경기도 용인시 기흥구 중동 830-1번지 동백지스타 113호","indutype":"일반휴게음식 - 일반한식","category":"restaurant"},{"name":"황소곱창","tel":"031-287-9492","addr":"경기도 용인시 기흥구 중동 830-1번지 지스타 1층 116~117호","indutype":"일반휴게음식 - 일반한식","category":"restaurant"},{"name":"황태매니아","tel":"031-275-4731","addr":"경기도 용인시 기흥구 중동 830-1번지 동백지스타 115호","indutype":"일반휴게음식 - 일반한식","category":"restaurant"}]},{"lat":"37.282713481","long":"127.14194014","imageIndex":4,"items":[{"name":"곰푸드","tel":"031-281-2555","addr":"경기도 용인시 기흥구 중동 1111-11번지 B101호","indutype":"일반휴게음식 - 일반한식","category":"restaurant"},{"name":"더시카고짬뽕 용인동백점","tel":"070-7862-1697","addr":"경기도 용인시 기흥구 중동 1111-11번지 B102,B103,B104호","indutype":"일반휴게음식 - 일반한식","category":"restaurant"}]},{"lat":"37.277735115","long":"127.15316134","imageIndex":4,"items":[{"name":"곱분이곱창(용인동백점)","tel":"031-693-5382","addr":"경기도 용인시 기흥구 중동 829번지 골드프라자 D동 110호","indutype":"일반휴게음식 - 일반한식","category":"restaurant"},{"name":"더벤티","tel":"031-242-1027","addr":"경기도 용인시 기흥구 중동 829번지 골드프라자 D동 124호","indutype":"일반휴게음식 - 서양음식","category":"restaurant"},{"name":"메가엠지씨 용인동백점","tel":"070-4756-0756","addr":"경기도 용인시 기흥구 중동 829번지 골드프라자 D동 1층 125호","indutype":"일반휴게음식 - 서양음식","category":"restaurant"},{"name":"밥스바비","tel":"031-8006-2082","addr":"경기도 용인시 기흥구 중동 829번지 골드프라자 D동 1층 122호","indutype":"일반휴게음식 - 스넥","category":"restaurant"},{"name":"빽다방(동백쥬네브점)","tel":"031-274-1366","addr":"경기도 용인시 기흥구 중동 829번지 골드프라자 D동 121호","indutype":"일반휴게음식 - 서양음식","category":"restaurant"},{"name":"스시노백쉐프동백","tel":"031-548-1744","addr":"경기도 용인시 기흥구 중동 829번지 골드프라자 D동 205호","indutype":"일반휴게음식 - 일식·회집","category":"restaurant"},{"name":"신스쭈꾸미","tel":"","addr":"경기도 용인시 기흥구 중동 829번지 골드프라자 D동 106호","indutype":"일반휴게음식 - 일반한식","category":"restaurant"},{"name":"오륙도회","tel":"031-8006-2055","addr":"경기도 용인시 기흥구 중동 829번지 골드프라자 D동 117호","indutype":"일반휴게음식 - 일식·회집","category":"restaurant"},{"name":"인계동껍데기(동백점)","tel":"031-274-4847","addr":"경기도 용인시 기흥구 중동 829번지 골드프라자 D동 116호","indutype":"일반휴게음식 - 일반한식","category":"restaurant"},{"name":"주식회사 소굿(SO GOOD)","tel":"031-282-0617","addr":"경기도 용인시 기흥구 중동 829번지 골드프라자 D동 207호 206","indutype":"일반휴게음식 - 일반한식","category":"restaurant"},{"name":"쥬시빈 용인동백중앙점","tel":"070-9456-1468","addr":"경기도 용인시 기흥구 중동 829번지 골드프라자 D동 101호","indutype":"일반휴게음식 - 일반한식","category":"restaurant"},{"name":"하루만족발(동백점)","tel":"031-8006-2006","addr":"경기도 용인시 기흥구 중동 829번지 골드프라자 D동 112-3호","indutype":"일반휴게음식 - 일반한식","category":"restaurant"}]},{"lat":"37.27746538","long":"127.15270979","imageIndex":4,"items":[{"name":"공차용인동백점","tel":"031-286-6208","addr":"경기도 용인시 기흥구 중동 832-1번지 동백훼미리프라자 121동 122호","indutype":"일반휴게음식 - 스넥","category":"restaurant"},{"name":"까르보네용인동백점","tel":"031-283-2269","addr":"경기도 용인시 기흥구 중동 832-1번지 동백훼미리프라자 111호","indutype":"일반휴게음식 - 서양음식","category":"restaurant"},{"name":"대단한포차","tel":"031-274-8987","addr":"경기도 용인시 기흥구 중동 832-1번지 훼미리프라자 2층 201호","indutype":"일반휴게음식 - 일반한식","category":"restaurant"},{"name":"도피오","tel":"031-282-4522","addr":"경기도 용인시 기흥구 중동 832-1번지 동백훼미리프라자1 105호","indutype":"일반휴게음식 - 서양음식","category":"restaurant"},{"name":"롯데리아용인동백점","tel":"031-274-2255","addr":"경기도 용인시 기흥구 중동 832-1번지","indutype":"일반휴게음식 - 서양음식","category":"restaurant"},{"name":"맛깔참죽","tel":"031-284-6233","addr":"경기도 용인시 기흥구 중동 832-1번지 외2필지 동백훼미리프라자 1층 106호","indutype":"일반휴게음식 - 일반한식","category":"restaurant"},{"name":"명가짜장","tel":"031-275-3442","addr":"경기도 용인시 기흥구 중동 832-1번지 동백훼미리프라자1 103,104호","indutype":"일반휴게음식 - 중국식","category":"restaurant"},{"name":"보드람치킨","tel":"031-282-2728","addr":"경기도 용인시 기흥구 중동 832-1 외2필지1층101호~102호","indutype":"일반휴게음식 - 주점","category":"restaurant"},{"name":"신풍닭발","tel":"031-275-0825","addr":"경기도 용인시 기흥구 중동 832-1번지 동백훼미리프라자 1층 123 외2필지","indutype":"일반휴게음식 - 일반한식","category":"restaurant"},{"name":"예닮소","tel":"031-287-0723","addr":"경기도 용인시 기흥구 중동 832-1번지","indutype":"일반휴게음식 - 스넥","category":"restaurant"},{"name":"포메인용인동백점","tel":"031-284-4697","addr":"경기도 용인시 기흥구 중동 832-1번지 동백훼미리프라자1 202호","indutype":"일반휴게음식 - 서양음식","category":"restaurant"}]},{"lat":"37.267437085","long":"127.15259973","imageIndex":4,"items":[{"name":"교동짬뽕","tel":"031-275-6524","addr":"경기도 용인시 기흥구 중동 435-1번지","indutype":"일반휴게음식 - 중국식","category":"restaurant"}]},{"lat":"37.270545695","long":"127.15254951","imageIndex":4,"items":[{"name":"국민순대국 동백점","tel":"031-285-8858","addr":"경기도 용인시 기흥구 중동 849-3번지 로뎀빌딩 1층 1호","indutype":"일반휴게음식 - 일반한식","category":"restaurant"},{"name":"옥탑방오봉자싸롱","tel":"070-7747-7776","addr":"경기도 용인시 기흥구 중동 849-3번지 로뎀빌딩 102호","indutype":"일반휴게음식 - 주점","category":"restaurant"},{"name":"펀비어킹 용인동백역점","tel":"031-0000-0000","addr":"경기도 용인시 기흥구 중동 849-3번지 103,104호","indutype":"일반휴게음식 - 일반한식","category":"restaurant"}]},{"lat":"37.283570339","long":"127.14118621","imageIndex":4,"items":[{"name":"국수나무신동백점","tel":"031-282-3475","addr":"경기도 용인시 기흥구 중동 1111-4번지 지하1층 102호","indutype":"일반휴게음식 - 스넥","category":"restaurant"},{"name":"음성농장","tel":"031-281-9393","addr":"경기도 용인시 기흥구 중동 1111-4번지 101,102호","indutype":"일반휴게음식 - 일반한식","category":"restaurant"}]},{"lat":"37.275853517","long":"127.14459974","imageIndex":4,"items":[{"name":"군산간장게장","tel":"031-281-9485","addr":"경기도 용인시 기흥구 중동 673번지 라비스타 B109,B110호","indutype":"일반휴게음식 - 일반한식","category":"restaurant"},{"name":"난다곱창 강남대점","tel":"031-274-2384","addr":"경기도 용인시 기흥구 중동 673번지 1층 라비스타 B111호","indutype":"일반휴게음식 - 일반한식","category":"restaurant"},{"name":"먹구반찬","tel":"031-275-0369","addr":"경기도 용인시 기흥구 중동 673번지 라비스타 B동 113호","indutype":"일반휴게음식 - 일반한식","category":"restaurant"},{"name":"소문난대구왕뽈찜 동백점","tel":"031-284-9153","addr":"경기도 용인시 기흥구 중동 673번지 B동 101-106호","indutype":"일반휴게음식 - 일반한식","category":"restaurant"},{"name":"송이분식","tel":"031-282-4797","addr":"경기도 용인시 기흥구 중동 673번지 C동 1층 C102호","indutype":"일반휴게음식 - 스넥","category":"restaurant"},{"name":"이디야 어정역점","tel":"031-283-9184","addr":"경기도 용인시 기흥구 중동 673번지 라비스타 A105,106호","indutype":"일반휴게음식 - 서양음식","category":"restaurant"},{"name":"쭈꾸미할매","tel":"031-287-1577","addr":"경기도 용인시 기흥구 중동 673번지 라비스타 C동 105호","indutype":"일반휴게음식 - 일반한식","category":"restaurant"},{"name":"투게더케이크 (2gether cake)","tel":"","addr":"경기도 용인시 기흥구 중동 673번지 라비스타 C동 101호","indutype":"일반휴게음식 - 서양음식","category":"restaurant"},{"name":"피자스쿨 동백어정역점","tel":"031-281-0082","addr":"경기도 용인시 기흥구 중동 673번지 라비스타 A동 101호","indutype":"일반휴게음식 - 서양음식","category":"restaurant"}]},{"lat":"37.271376354","long":"127.15118694","imageIndex":4,"items":[{"name":"굽네치킨","tel":"031-274-9492","addr":"경기도 용인시 기흥구 중동 845-6번지 새롬프라자 106호","indutype":"일반휴게음식 - 스넥","category":"restaurant"},{"name":"무안뻘낚지해물탕","tel":"031-274-6181","addr":"경기도 용인시 기흥구 중동 845-6번지 새롬프라자 108호","indutype":"일반휴게음식 - 일반한식","category":"restaurant"},{"name":"바른순대국","tel":"031-286-1314","addr":"경기도 용인시 기흥구 중동 845-6번지 새롬프라자 109,110호","indutype":"일반휴게음식 - 일반한식","category":"restaurant"},{"name":"수위스키","tel":"","addr":"경기도 용인시 기흥구 중동 845-6번지 새롬프라자 2층 206호","indutype":"일반휴게음식 - 일반한식","category":"restaurant"},{"name":"알블로피자동백점","tel":"031-285-8495","addr":"경기도 용인시 기흥구 중동 845-6번지 새롬프라자 1층 103호","indutype":"일반휴게음식 - 서양음식","category":"restaurant"},{"name":"오겹살돌구이","tel":"031-287-5392","addr":"경기도 용인시 기흥구 중동 845-6번지 새롬프라자 112호","indutype":"일반휴게음식 - 일반한식","category":"restaurant"},{"name":"윤가네동백순대국","tel":"031-287-3764","addr":"경기도 용인시 기흥구 중동 845-6번지 새롬프라자 109동 110호","indutype":"일반휴게음식 - 일반한식","category":"restaurant"},{"name":"제주뜰향갈치전문점앤해물뚝배기","tel":"031-286-1314","addr":"경기도 용인시 기흥구 중동 845-6번지 새롬프라자 111호","indutype":"일반휴게음식 - 일반한식","category":"restaurant"},{"name":"호랑이육반장","tel":"031-5561-0191","addr":"경기도 용인시 기흥구 중동 845-6번지 새롬프라자 101,102호","indutype":"일반휴게음식 - 일반한식","category":"restaurant"}]},{"lat":"37.273046596","long":"127.14849555","imageIndex":4,"items":[{"name":"금강산화로구이","tel":"031-286-8592","addr":"경기도 용인시 기흥구 중동 711-2번지 외2필지","indutype":"일반휴게음식 - 일반한식","category":"restaurant"}]},{"lat":"37.27693296","long":"127.15335143","imageIndex":4,"items":[{"name":"김가네김밥","tel":"031-274-1419","addr":"경기도 용인시 기흥구 중동 830-2번지 1층107호 훼미리프라자 Ⅱ","indutype":"일반휴게음식 - 스넥","category":"restaurant"},{"name":"백채김치찌개 용인동백점","tel":"031-283-8846","addr":"경기도 용인시 기흥구 중동 830-2번지 동백훼미리프라자II 113호","indutype":"일반휴게음식 - 일반한식","category":"restaurant"},{"name":"연안식당 용인동백점","tel":"031-563-6092","addr":"경기도 용인시 기흥구 중동 830-2번지 동백훼미리프라자II 1층 101,102호","indutype":"일반휴게음식 - 일반한식","category":"restaurant"},{"name":"오징어매니아","tel":"031-274-1215","addr":"경기도 용인시 기흥구 중동 830-2번지 동백훼미리프라자ll106호","indutype":"일반휴게음식 - 일반한식","category":"restaurant"},{"name":"유정식당","tel":"031-283-1339","addr":"경기도 용인시 기흥구 중동 830-2번지 동백훼미리프라자2 110호","indutype":"일반휴게음식 - 일반한식","category":"restaurant"},{"name":"이삭토스트","tel":"031-274-0904","addr":"경기도 용인시 기흥구 중동 830-2번지 동백훼미리프라자 108호","indutype":"일반휴게음식 - 서양음식","category":"restaurant"},{"name":"커피829","tel":"","addr":"경기도 용인시 기흥구 중동 830-2번지 동백훼미리프라자II 1동 109호","indutype":"일반휴게음식 - 서양음식","category":"restaurant"},{"name":"피자오 동백점","tel":"031-895-5090","addr":"경기도 용인시 기흥구 중동 830-2번지 동백훼미리프라자2 1층 116호","indutype":"일반휴게음식 - 서양음식","category":"restaurant"},{"name":"행당족발","tel":"031-275-4180","addr":"경기도 용인시 기흥구 중동 830-2번지 동백훼미리프라자Ⅱ 111,112호","indutype":"일반휴게음식 - 일반한식","category":"restaurant"},{"name":"호우양꼬치","tel":"070-8117-8866","addr":"경기도 용인시 기흥구 중동 830-2번지 동백훼미리프라자II 114호","indutype":"일반휴게음식 - 일반한식","category":"restaurant"}]},{"lat":"37.269903961","long":"127.15412664","imageIndex":4,"items":[{"name":"김밥천국","tel":"031-693-9740","addr":"경기도 용인시 기흥구 중동 853-1번지 우함빌딩 102호","indutype":"일반휴게음식 - 일반한식","category":"restaurant"},{"name":"미친꽈배기","tel":"031-286-8001","addr":"경기도 용인시 기흥구 중동 853-1번지 우함빌딩 1층 110호","indutype":"일반휴게음식 - 스넥","category":"restaurant"},{"name":"빽다방","tel":"031-274-1909","addr":"경기도 용인시 기흥구 중동 853-1번지 우함빌딩 109호","indutype":"일반휴게음식 - 서양음식","category":"restaurant"},{"name":"얌체꼬마김밥","tel":"031-274-4093","addr":"경기도 용인시 기흥구 중동 853-1번지 우함빌딩 115호","indutype":"일반휴게음식 - 스넥","category":"restaurant"},{"name":"요런떡볶이동백점","tel":"031-274-7545","addr":"경기도 용인시 기흥구 중동 853-1번지 우함빌딩 114호","indutype":"일반휴게음식 - 일반한식","category":"restaurant"},{"name":"치킨마루 동백역점","tel":"031-281-7891","addr":"경기도 용인시 기흥구 중동 853-1번지 우함빌딩 1층 113호","indutype":"일반휴게음식 - 스넥","category":"restaurant"}]},{"lat":"37.282126673","long":"127.14290881","imageIndex":4,"items":[{"name":"김성구의 의성마늘치킨","tel":"031-275-1231","addr":"경기도 용인시 기흥구 중동 1109번지","indutype":"일반휴게음식 - 스넥","category":"restaurant"},{"name":"노닥가비여우굴","tel":"031-263-3582","addr":"경기도 용인시 기흥구 중동 1109번지","indutype":"일반휴게음식 - 서양음식","category":"restaurant"}]},{"lat":"37.269292427","long":"127.15321221","imageIndex":4,"items":[{"name":"까로치아 동백점","tel":"031-275-1999","addr":"경기도 용인시 기흥구 중동 851-4번지 동백역타워 102호","indutype":"일반휴게음식 - 서양음식","category":"restaurant"},{"name":"다오네밥상","tel":"031-283-5183","addr":"경기도 용인시 기흥구 중동 851-4번지 동백역타워 3층 301호","indutype":"일반휴게음식 - 일반한식","category":"restaurant"},{"name":"동백역 하얀집","tel":"070-8880-5748","addr":"경기도 용인시 기흥구 중동 851-4번지 동백역타워 101호","indutype":"일반휴게음식 - 일반한식","category":"restaurant"},{"name":"쏭스핫도그 (동백역점)","tel":"070-7848-5653","addr":"경기도 용인시 기흥구 중동 851-4번지 동백역타워 105호","indutype":"일반휴게음식 - 서양음식","category":"restaurant"},{"name":"파찌네만두 동백역점","tel":"031-284-6328","addr":"경기도 용인시 기흥구 중동 851-4번지 동백역타워 108호","indutype":"일반휴게음식 - 스넥","category":"restaurant"}]},{"lat":"37.273017781","long":"127.14993866","imageIndex":4,"items":[{"name":"까페520샵(Cafe520#)","tel":"050-6743-1198","addr":"경기도 용인시 기흥구 중동 844-1번지 리츠타워 1층 102호","indutype":"일반휴게음식 - 서양음식","category":"restaurant"},{"name":"나는 떡볶이","tel":"","addr":"경기도 용인시 기흥구 중동 844-1번지 리츠타워 1층 104호","indutype":"일반휴게음식 - 일반한식","category":"restaurant"},{"name":"컵오브커피용인중동점","tel":"031-293-1905","addr":"경기도 용인시 기흥구 중동 844-1번지 리츠타워 1층 107호","indutype":"일반휴게음식 - 서양음식","category":"restaurant"}]},{"lat":"37.256877356","long":"127.16599292","imageIndex":4,"items":[{"name":"꺼비분식","tel":"02-3281-1300","addr":"경기도 용인시 기흥구 중동 1028번지 일부 105호","indutype":"일반휴게음식 - 일반한식","category":"restaurant"},{"name":"이호식당","tel":"031-8021-1976","addr":"경기도 용인시 기흥구 중동 1028번지 이호지식산업센터 103,104,107,108호","indutype":"일반휴게음식 - 일반한식","category":"restaurant"},{"name":"퀸즈브라운 용인동백점","tel":"031-8021-0888","addr":"경기도 용인시 기흥구 중동 1028번지 이호지식산업센터 106호","indutype":"일반휴게음식 - 서양음식","category":"restaurant"}]},{"lat":"37.270934329","long":"127.15160323","imageIndex":4,"items":[{"name":"꼬꿉","tel":"031-281-5589","addr":"경기도 용인시 기흥구 중동 845-8번지 D타운 106호","indutype":"일반휴게음식 - 일반한식","category":"restaurant"},{"name":"떡가게종춘 동백점","tel":"031-8005-8822","addr":"경기도 용인시 기흥구 중동 845-8번지 엠디타운 1층 101호 102호","indutype":"일반휴게음식 - 일반한식","category":"restaurant"}]},{"lat":"37.280765592","long":"127.14335733","imageIndex":4,"items":[{"name":"남딘 (NAM DINH)","tel":"031-286-0007","addr":"경기도 용인시 기흥구 중동 1110-10번지 1층 102호","indutype":"일반휴게음식 - 일반한식","category":"restaurant"},{"name":"더진분식(The진분식)","tel":"031-284-2349","addr":"경기도 용인시 기흥구 중동 1110-10번지 지하1층","indutype":"일반휴게음식 - 스넥","category":"restaurant"},{"name":"이디야커피 용인신동백점","tel":"031-284-0525","addr":"경기도 용인시 기흥구 중동 1110-10번지 101호","indutype":"일반휴게음식 - 서양음식","category":"restaurant"}]},{"lat":"37.276430335","long":"127.14446552","imageIndex":4,"items":[{"name":"내고향우렁쌈밥","tel":"031-274-5268","addr":"경기도 용인시 기흥구 중동 626-3번지","indutype":"일반휴게음식 - 일반한식","category":"restaurant"},{"name":"배달삼겹돼지되지동백점","tel":"031-281-8592","addr":"경기도 용인시 기흥구 중동 626-3번지 2층","indutype":"일반휴게음식 - 일반한식","category":"restaurant"},{"name":"비긴스(BEGINS)","tel":"","addr":"경기도 용인시 기흥구 중동 626-3번지 들안교회 2동","indutype":"일반휴게음식 - 서양음식","category":"restaurant"}]},{"lat":"37.273017122","long":"127.15046857","imageIndex":4,"items":[{"name":"다리를놓는사람들","tel":"070-4028-7460","addr":"경기도 용인시 기흥구 중동 846-1번지 지젤레이크타워 2층 203호","indutype":"일반휴게음식 - 일반한식","category":"restaurant"},{"name":"동백차이","tel":"031-693-7474","addr":"경기도 용인시 기흥구 중동 846-1번지 지젤레이크타워 103호,104호","indutype":"일반휴게음식 - 중국식","category":"restaurant"},{"name":"이태리돈까스","tel":"","addr":"경기도 용인시 기흥구 중동 846-1번지 지렐레이크타워 202호","indutype":"일반휴게음식 - 일반한식","category":"restaurant"},{"name":"일쩜오쭈꾸미","tel":"031-282-1569","addr":"경기도 용인시 기흥구 중동 846-1 지젤레이크타워110호~112호","indutype":"일반휴게음식 - 일반한식","category":"restaurant"},{"name":"참숯꼬치삼매경","tel":"031-287-7372","addr":"경기도 용인시 기흥구 중동 846-1번지 지젤레이크타워 108,109호","indutype":"일반휴게음식 - 일반한식","category":"restaurant"},{"name":"칼국수한마당 용인동백점","tel":"","addr":"경기도 용인시 기흥구 중동 846-1번지 지렐레이크타워 107호","indutype":"일반휴게음식 - 일반한식","category":"restaurant"}]},{"lat":"37.276854449","long":"127.14393638","imageIndex":4,"items":[{"name":"달레나","tel":"031-284-1357","addr":"경기도 용인시 기흥구 중동 627-4번지 휠타이어할인마트 나동","indutype":"일반휴게음식 - 일반한식","category":"restaurant"},{"name":"석전칼국수","tel":"031-281-3389","addr":"경기도 용인시 기흥구 중동 627-4번지","indutype":"일반휴게음식 - 스넥","category":"restaurant"}]},{"lat":"37.283876067","long":"127.14171676","imageIndex":4,"items":[{"name":"대게대첩","tel":"031-8005-5454","addr":"경기도 용인시 기흥구 중동 1111번지 101호","indutype":"일반휴게음식 - 일식·회집","category":"restaurant"},{"name":"청춘통닭신동백점","tel":"031-284-9290","addr":"경기도 용인시 기흥구 중동 1111번지 102호","indutype":"일반휴게음식 - 일반한식","category":"restaurant"},{"name":"행복한시간","tel":"","addr":"경기도 용인시 기흥구 중동 1111번지 1층","indutype":"일반휴게음식 - 일반한식","category":"restaurant"}]},{"lat":"37.273909558","long":"127.15013207","imageIndex":4,"items":[{"name":"더커피","tel":"02-0000-0000","addr":"경기도 용인시 기흥구 중동 842번지 쥬네브스타월드빌딩 가동 146호","indutype":"일반휴게음식 - 서양음식","category":"restaurant"},{"name":"바스티나","tel":"070-8845-7415","addr":"경기도 용인시 기흥구 중동 842번지 쥬네브스타월드빌딩 가동 169호","indutype":"일반휴게음식 - 서양음식","category":"restaurant"}]},{"lat":"37.276321207","long":"127.15260604","imageIndex":4,"items":[{"name":"도미노피자 동백점/주식회사오성에프디","tel":"031-287-9045","addr":"경기도 용인시 기흥구 중동 831-2번지 더엠 1층 101호","indutype":"일반휴게음식 - 서양음식","category":"restaurant"},{"name":"맘스터치 용인동백점","tel":"031-287-1900","addr":"경기도 용인시 기흥구 중동 831-2번지 더엠 104-2호, 202호","indutype":"일반휴게음식 - 서양음식","category":"restaurant"},{"name":"엉터리생고기 용인동백점","tel":"031-282-3711","addr":"경기도 용인시 기흥구 중동 831-2번지 더엠 2층 201호","indutype":"일반휴게음식 - 일반한식","category":"restaurant"},{"name":"청년다방 동백점","tel":"031-282-4100","addr":"경기도 용인시 기흥구 중동 831-2번지 더엠 1층 105호","indutype":"일반휴게음식 - 일반한식","category":"restaurant"},{"name":"할매순대국","tel":"031-275-6888","addr":"경기도 용인시 기흥구 중동 831-2번지","indutype":"일반휴게음식 - 일반한식","category":"restaurant"}]},{"lat":"37.27162826","long":"127.15149185","imageIndex":4,"items":[{"name":"돌오리","tel":"070-8988-3110","addr":"경기도 용인시 기흥구 중동 848-1번지 미도타운 110호 101","indutype":"일반휴게음식 - 일반한식","category":"restaurant"},{"name":"미스터 모인(MR.Moin)","tel":"","addr":"경기도 용인시 기흥구 중동 848-1번지 미도타운 107호","indutype":"일반휴게음식 - 일반한식","category":"restaurant"},{"name":"항아리보쌈 동백점","tel":"031-800-5232","addr":"경기도 용인시 기흥구 중동 848-1번지 미도타운 201, 202호","indutype":"일반휴게음식 - 일반한식","category":"restaurant"},{"name":"항아리보쌈/주식회사 오병이어항아리보쌈","tel":"031-8005-5232","addr":"경기도 용인시 기흥구 중동 848-1번지 미도타운 201,202호","indutype":"일반휴게음식 - 일반한식","category":"restaurant"},{"name":"황금코다리 동백점","tel":"031-284-3479","addr":"경기도 용인시 기흥구 중동 848-1번지 미도타운 1층 102,103,104,105호","indutype":"일반휴게음식 - 일반한식","category":"restaurant"}]},{"lat":"37.271438733","long":"127.15173951","imageIndex":4,"items":[{"name":"동거동낙(용인동백점)","tel":"","addr":"경기도 용인시 기흥구 중동 848-2번지 미주타운 101,102,103호","indutype":"일반휴게음식 - 일반한식","category":"restaurant"},{"name":"동백짬뽕24시","tel":"031-284-8885","addr":"경기도 용인시 기흥구 중동 848-2번지 미주타운 1층 104호~107호","indutype":"일반휴게음식 - 중국식","category":"restaurant"},{"name":"아이점프","tel":"031-281-1178","addr":"경기도 용인시 기흥구 중동 848-2번지 701~705호","indutype":"일반휴게음식 - 일반한식","category":"restaurant"},{"name":"해빔 용인점","tel":"031-276-7855","addr":"경기도 용인시 기흥구 중동 848-2번지 미주타운 108동 111호","indutype":"일반휴게음식 - 일반한식","category":"restaurant"}]},{"lat":"37.270519332","long":"127.15201956","imageIndex":4,"items":[{"name":"동백빈대떡","tel":"070-8116-4169","addr":"경기도 용인시 기흥구 중동 850-2번지 더드림오피스텔 102호","indutype":"일반휴게음식 - 일반한식","category":"restaurant"}]},{"lat":"37.277679992","long":"127.15399562","imageIndex":4,"items":[{"name":"동백전복삼계탕","tel":"031-274-7531","addr":"경기도 용인시 기흥구 중동 829번지 골드프라자 A동 204호","indutype":"일반휴게음식 - 일반한식","category":"restaurant"},{"name":"바른치킨 용인동백점","tel":"031-275-8244","addr":"경기도 용인시 기흥구 중동 829번지 골드프라자 A동 108호","indutype":"일반휴게음식 - 스넥","category":"restaurant"},{"name":"생활맥주 동백점","tel":"031-286-3789","addr":"경기도 용인시 기흥구 중동 829번지 골드프라자 A동 1층 114호","indutype":"일반휴게음식 - 주점","category":"restaurant"},{"name":"스시선","tel":"031-286-1333","addr":"경기도 용인시 기흥구 중동 829번지 골드프라자 A동 107호","indutype":"일반휴게음식 - 일식·회집","category":"restaurant"},{"name":"신야노미야","tel":"031-766-1019","addr":"경기도 용인시 기흥구 중동 829번지 골드프라자 A동 116호","indutype":"일반휴게음식 - 일반한식","category":"restaurant"},{"name":"크래프트소호","tel":"","addr":"경기도 용인시 기흥구 중동 829번지 골드프라자 A동 121호","indutype":"일반휴게음식 - 주점","category":"restaurant"},{"name":"타로카페","tel":"031-281-3468","addr":"경기도 용인시 기흥구 중동 829번지 골드프라자 A동 112호","indutype":"일반휴게음식 - 일반한식","category":"restaurant"}]},{"lat":"37.28226326","long":"127.14169124","imageIndex":4,"items":[{"name":"동백통큰장어","tel":"031-284-0905","addr":"경기도 용인시 기흥구 중동 645-3번지","indutype":"일반휴게음식 - 일반한식","category":"restaurant"}]},{"lat":"37.269715134","long":"127.15382186","imageIndex":4,"items":[{"name":"동태촌장냉면면장","tel":"031-287-1844","addr":"경기도 용인시 기흥구 중동 853-2번지 제일프라자 111호","indutype":"일반휴게음식 - 일반한식","category":"restaurant"},{"name":"두리쪽갈비","tel":"031-309-0857","addr":"경기도 용인시 기흥구 중동 853-2번지 제일프라자 1층 111호","indutype":"일반휴게음식 - 일반한식","category":"restaurant"},{"name":"명인옛날통닭 동백직영점","tel":"031-274-1044","addr":"경기도 용인시 기흥구 중동 853-2번지 제일프라자 108,109호","indutype":"일반휴게음식 - 일반한식","category":"restaurant"},{"name":"본죽(동백역세권점)","tel":"031-275-3388","addr":"경기도 용인시 기흥구 중동 853-2번지 제일프라자 106호","indutype":"일반휴게음식 - 일반한식","category":"restaurant"},{"name":"용인마을협동조합/마을밥상동백","tel":"031-283-6683","addr":"경기도 용인시 기흥구 중동 853-2번지 제일프라자 204호","indutype":"일반휴게음식 - 일반한식","category":"restaurant"},{"name":"커피에반하다(동백역점)","tel":"031-274-1080","addr":"경기도 용인시 기흥구 중동 853-2번지 제일프라자 1층 102호","indutype":"일반휴게음식 - 서양음식","category":"restaurant"},{"name":"훌랄라(동백점)","tel":"031-281-3166","addr":"경기도 용인시 기흥구 중동 853-2번지 제일프라자 1층 112호","indutype":"일반휴게음식 - 일반한식","category":"restaurant"}]},{"lat":"37.269797601","long":"127.15273969","imageIndex":4,"items":[{"name":"디디치킨동백역점","tel":"031-693-9249","addr":"경기도 용인시 기흥구 중동 851-1번지 한솔프라자 1층 101호","indutype":"일반휴게음식 - 일반한식","category":"restaurant"},{"name":"전설의치킨 동백역점","tel":"031-275-0059","addr":"경기도 용인시 기흥구 중동 851-1번지 한솔프라자 107. 108호","indutype":"일반휴게음식 - 스넥","category":"restaurant"},{"name":"종로맥가","tel":"031-0000-0000","addr":"경기도 용인시 기흥구 중동 851-1번지 한솔프라자 1층 104-105호","indutype":"일반휴게음식 - 일반한식","category":"restaurant"}]},{"lat":"37.276402755","long":"127.1522454","imageIndex":4,"items":[{"name":"땡초불닭발엽기떡볶이동백점","tel":"031-285-8595","addr":"경기도 용인시 기흥구 중동 831-3번지 동백명진프라자 104호","indutype":"일반휴게음식 - 일반한식","category":"restaurant"},{"name":"버거킹용인동백점","tel":"031-287-8815","addr":"경기도 용인시 기흥구 중동 831-3번지 명진프라자 102,103,201,202호","indutype":"일반휴게음식 - 서양음식","category":"restaurant"},{"name":"본도시락(동백점)","tel":"031-283-4283","addr":"경기도 용인시 기흥구 중동 831-3번지 동백명진프라자 1층 101호","indutype":"일반휴게음식 - 일반한식","category":"restaurant"},{"name":"일마레용인동백점","tel":"031-281-8870","addr":"경기도 용인시 기흥구 중동 831-3번지 명진프라자 901호","indutype":"일반휴게음식 - 서양음식","category":"restaurant"}]},{"lat":"37.276519937","long":"127.14488287","imageIndex":4,"items":[{"name":"또래오래 동백점","tel":"031-285-5885","addr":"경기도 용인시 기흥구 중동 625-3번지 103호","indutype":"일반휴게음식 - 스넥","category":"restaurant"}]},{"lat":"37.260437431","long":"127.15854923","imageIndex":4,"items":[{"name":"랄라바이 LULLABY","tel":"","addr":"경기도 용인시 기흥구 중동 38-3번지 제지 2층 비201-1호","indutype":"일반휴게음식 - 서양음식","category":"restaurant"},{"name":"초당코다리갈비찜","tel":"031-274-9990","addr":"경기도 용인시 기흥구 중동 38-3번지 지하2층 B201호","indutype":"일반휴게음식 - 일반한식","category":"restaurant"}]},{"lat":"37.272160529","long":"127.15096299","imageIndex":4,"items":[{"name":"럭셔리오","tel":"032-000-0000","addr":"경기도 용인시 기흥구 중동 847번지 삼성타워 1층 129호","indutype":"일반휴게음식 - 일반한식","category":"restaurant"},{"name":"로얄피그","tel":"","addr":"경기도 용인시 기흥구 중동 847번지 1층 116호,117호","indutype":"일반휴게음식 - 일반한식","category":"restaurant"},{"name":"블리스","tel":"031-8005-8260","addr":"경기도 용인시 기흥구 중동 847번지 삼성타워 202,203호","indutype":"일반휴게음식 - 서양음식","category":"restaurant"},{"name":"연탄길","tel":"","addr":"경기도 용인시 기흥구 중동 847번지 삼성타워 1층 118호","indutype":"일반휴게음식 - 일반한식","category":"restaurant"},{"name":"오늘도곱창","tel":"031-111-1111","addr":"경기도 용인시 기흥구 중동 847번지 삼성타워 1층","indutype":"일반휴게음식 - 일반한식","category":"restaurant"},{"name":"지구촌쉼터","tel":"031-8005-8260","addr":"경기도 용인시 기흥구 중동 847번지","indutype":"일반휴게음식 - 스넥","category":"restaurant"},{"name":"카페하늘정원","tel":"031-274-9394","addr":"경기도 용인시 기흥구 중동 847번지 삼성타워 901호","indutype":"일반휴게음식 - 주점","category":"restaurant"},{"name":"코코마로(cocomaro)","tel":"","addr":"경기도 용인시 기흥구 중동 847번지 삼성타워 1층 114호","indutype":"일반휴게음식 - 일반한식","category":"restaurant"},{"name":"호수꼬치(동백점)","tel":"031-8016-0054","addr":"경기도 용인시 기흥구 중동 847번지 삼성타워 126,127호","indutype":"일반휴게음식 - 주점","category":"restaurant"}]},{"lat":"37.283295464","long":"127.14504219","imageIndex":4,"items":[{"name":"레이지마미","tel":"031-000-0000","addr":"경기도 용인시 기흥구 중동 1096번지 신동백롯데캐슬에코1단지 2동 2층 202호","indutype":"일반휴게음식 - 서양음식","category":"restaurant"},{"name":"코코분식","tel":"","addr":"경기도 용인시 기흥구 중동 1096번지 신동백롯데캐슬에코1단지 1층 102-1호","indutype":"일반휴게음식 - 스넥","category":"restaurant"}]},{"lat":"37.270797596","long":"127.15285442","imageIndex":4,"items":[{"name":"로이스푼","tel":"031-275-3123","addr":"경기도 용인시 기흥구 중동 849-2번지 씨티프라자 202호","indutype":"일반휴게음식 - 서양음식","category":"restaurant"},{"name":"제이스테이블","tel":"031-282-9905","addr":"경기도 용인시 기흥구 중동 849-2번지 씨티프라자 112호","indutype":"일반휴게음식 - 스넥","category":"restaurant"},{"name":"홍대불닭발","tel":"031-286-8280","addr":"경기도 용인시 기흥구 중동 849-2번지 씨티프라자 103호","indutype":"일반휴게음식 - 일반한식","category":"restaurant"},{"name":"회사랑","tel":"031-285-8307","addr":"경기도 용인시 기흥구 중동 849-2번지 씨티프라자 105호","indutype":"일반휴게음식 - 일식·회집","category":"restaurant"}]},{"lat":"37.281206208","long":"127.14410236","imageIndex":4,"items":[{"name":"룰루키즈카페","tel":"031-275-0877","addr":"경기도 용인시 기흥구 중동 1108-2번지 3층","indutype":"일반휴게음식 - 서양음식","category":"restaurant"}]},{"lat":"37.277016768","long":"127.14382392","imageIndex":4,"items":[{"name":"먹보한우동백점","tel":"031-334-9233","addr":"경기도 용인시 기흥구 중동 627-1번지 외1필지 한우아름소식당","indutype":"일반휴게음식 - 일반한식","category":"restaurant"},{"name":"치킨이있는공간","tel":"031-283-7077","addr":"경기도 용인시 기흥구 중동 627-1번지","indutype":"일반휴게음식 - 스넥","category":"restaurant"}]},{"lat":"37.270987168","long":"127.15257293","imageIndex":4,"items":[{"name":"몬테네로","tel":"070-8635-1085","addr":"경기도 용인시 기흥구 중동 849-1번지 동창프라자 201호","indutype":"일반휴게음식 - 일반한식","category":"restaurant"},{"name":"뽕뜨락동백1호점","tel":"031-281-1082","addr":"경기도 용인시 기흥구 중동 849-1번지 동창프라자 107호","indutype":"일반휴게음식 - 일반한식","category":"restaurant"}]},{"lat":"37.279125004","long":"127.14396316","imageIndex":4,"items":[{"name":"무진장식당","tel":"031-111-1111","addr":"경기도 용인시 기흥구 중동 633-1지하1층","indutype":"일반휴게음식 - 일반한식","category":"restaurant"}]},{"lat":"37.281350439","long":"127.14404625","imageIndex":4,"items":[{"name":"미락제면1941","tel":"031-282-5176","addr":"경기도 용인시 기흥구 중동 1108-1번지 2층","indutype":"일반휴게음식 - 일반한식","category":"restaurant"}]},{"lat":"37.269626192","long":"127.15290847","imageIndex":4,"items":[{"name":"미미동백점","tel":"","addr":"경기도 용인시 기흥구 중동 851-2번지 1층 일부 동백시티빌","indutype":"일반휴게음식 - 일반한식","category":"restaurant"},{"name":"투썸플레이스 용인동백역점","tel":"031-8005-6104","addr":"경기도 용인시 기흥구 중동 851-2번지 1층","indutype":"일반휴게음식 - 서양음식","category":"restaurant"}]},{"lat":"37.270654657","long":"127.15188454","imageIndex":4,"items":[{"name":"미소야낙지","tel":"031-274-0937","addr":"경기도 용인시 기흥구 중동 850-1번지 아이브프라자 101호","indutype":"일반휴게음식 - 일반한식","category":"restaurant"},{"name":"호마레","tel":"031-287-0789","addr":"경기도 용인시 기흥구 중동 850-1번지 아이브타운 201호","indutype":"일반휴게음식 - 일식·회집","category":"restaurant"}]},{"lat":"37.27579825","long":"127.14560313","imageIndex":4,"items":[{"name":"밥이보약","tel":"031-287-7746","addr":"경기도 용인시 기흥구 중동 676-8번지 1층","indutype":"일반휴게음식 - 일반한식","category":"restaurant"}]},{"lat":"37.27604828","long":"127.14746401","imageIndex":4,"items":[{"name":"배달의쌀국수 용인기흥점","tel":"031-284-0207","addr":"경기도 용인시 기흥구 중동 680-1번지 1층 101호","indutype":"일반휴게음식 - 서양음식","category":"restaurant"}]},{"lat":"37.276654072","long":"127.15301261","imageIndex":4,"items":[{"name":"보영만두","tel":"031-275-7775","addr":"경기도 용인시 기흥구 중동 830-3번지 동백벤포스타 1동 104호","indutype":"일반휴게음식 - 스넥","category":"restaurant"},{"name":"본죽&비빔밥동백중앙점","tel":"031-284-6288","addr":"경기도 용인시 기흥구 중동 830-3번지 101,102호","indutype":"일반휴게음식 - 일반한식","category":"restaurant"}]},{"lat":"37.257794332","long":"127.16087719","imageIndex":4,"items":[{"name":"부바스/해우개발주식회사","tel":"031-274-0922","addr":"경기도 용인시 기흥구 중동 26번지","indutype":"일반휴게음식 - 일반한식","category":"restaurant"}]},{"lat":"37.276934402","long":"127.15221262","imageIndex":4,"items":[{"name":"부엉이돈가스 동백호수공원점","tel":"031-286-5392","addr":"경기도 용인시 기흥구 중동 832-5번지 동일하이빌오피스텔 1층 104호","indutype":"일반휴게음식 - 일반한식","category":"restaurant"},{"name":"짱우동짱만두","tel":"031-000-0000","addr":"경기도 용인시 기흥구 중동 832-5번지 동일하이빌오피스텔 1층 106호","indutype":"일반휴게음식 - 일반한식","category":"restaurant"}]},{"lat":"37.270879458","long":"127.15224576","imageIndex":4,"items":[{"name":"북문로떡볶이(동백점)","tel":"031-284-2487","addr":"경기도 용인시 기흥구 중동 849-5번지 1층 101호","indutype":"일반휴게음식 - 스넥","category":"restaurant"}]},{"lat":"37.284461666","long":"127.14177421","imageIndex":4,"items":[{"name":"비어1589","tel":"031-286-1589","addr":"경기도 용인시 기흥구 중동 665-28번지 나동 지하층 1 일부","indutype":"일반휴게음식 - 주점","category":"restaurant"},{"name":"엘리스 카페 (Ellie's cafe)","tel":"02-1577-0000","addr":"경기도 용인시 기흥구 중동 665-28번지 나동 지하1층 102호","indutype":"일반휴게음식 - 서양음식","category":"restaurant"}]},{"lat":"37.280964285","long":"127.14296304","imageIndex":4,"items":[{"name":"삼보추어탕","tel":"031-281-9199","addr":"경기도 용인시 기흥구 중동 1110-6번지 태블리스빌딩 1층","indutype":"일반휴게음식 - 일반한식","category":"restaurant"}]},{"lat":"37.282408987","long":"127.14790467","imageIndex":4,"items":[{"name":"셀렉토커피 용인신동백점","tel":"031-281-3665","addr":"경기도 용인시 기흥구 중동 1101번지 신동백롯데캐슬에코2단지 상가동 103호","indutype":"일반휴게음식 - 서양음식","category":"restaurant"}]},{"lat":"37.271325235","long":"127.14881919","imageIndex":4,"items":[{"name":"소나무가있는풍경 (소풍)","tel":"031-274-9290","addr":"경기도 용인시 기흥구 중동 717번지 1,2층","indutype":"일반휴게음식 - 일반한식","category":"restaurant"}]},{"lat":"37.274237866","long":"127.14693063","imageIndex":4,"items":[{"name":"소확소","tel":"070-4548-4245","addr":"경기도 용인시 기흥구 중동 707-12번지 지하1층","indutype":"일반휴게음식 - 일반한식","category":"restaurant"}]},{"lat":"37.270210842","long":"127.15371011","imageIndex":4,"items":[{"name":"스터디카페 민트","tel":"","addr":"경기도 용인시 기흥구 중동 852-2번지 202-1호","indutype":"일반휴게음식 - 서양음식","category":"restaurant"},{"name":"아찌밥","tel":"070-4150-4883","addr":"경기도 용인시 기흥구 중동 852-2번지 동백CIEL-VUE오피스텔 109호","indutype":"일반휴게음식 - 일반한식","category":"restaurant"},{"name":"요기족이","tel":"031-275-1011","addr":"경기도 용인시 기흥구 중동 852-2번지 동백씨엘뷰오피스텔 107호","indutype":"일반휴게음식 - 일반한식","category":"restaurant"},{"name":"이디야 동백역점","tel":"031-274-6223","addr":"경기도 용인시 기흥구 중동 852-2번지 101, 102호(동백CIEL-VUE오피스텔)","indutype":"일반휴게음식 - 서양음식","category":"restaurant"},{"name":"홍짜장","tel":"031-287-7070","addr":"경기도 용인시 기흥구 중동 852-2번지 씨엘뷰오피스텔 107호","indutype":"일반휴게음식 - 중국식","category":"restaurant"}]},{"lat":"37.274653145","long":"127.14626619","imageIndex":4,"items":[{"name":"시골애 낙지볶음","tel":"031-284-1638","addr":"경기도 용인시 기흥구 중동 705번지 라온 705동 101호","indutype":"일반휴게음식 - 일반한식","category":"restaurant"},{"name":"카페브라운","tel":"031-901-6774","addr":"경기도 용인시 기흥구 중동 705번지 라온 B동 103호","indutype":"일반휴게음식 - 서양음식","category":"restaurant"},{"name":"홍익돈까스 용인기흥점","tel":"031-1111-1111","addr":"경기도 용인시 기흥구 중동 705번지 라온705 지하1층 104호","indutype":"일반휴게음식 - 일반한식","category":"restaurant"}]},{"lat":"37.267319252","long":"127.15315192","imageIndex":4,"items":[{"name":"아 그집쭈꾸미 동백점","tel":"031-8005-7170","addr":"경기도 용인시 기흥구 중동 436번지 동백빌딩 104호","indutype":"일반휴게음식 - 서양음식","category":"restaurant"},{"name":"아그집쭈꾸미동백점","tel":"031-8005-7150","addr":"경기도 용인시 기흥구 중동 436번지 동백빌딩 104호","indutype":"일반휴게음식 - 일반한식","category":"restaurant"}]},{"lat":"37.276735248","long":"127.14566128","imageIndex":4,"items":[{"name":"왕손김밥","tel":"031-285-1827","addr":"경기도 용인시 기흥구 중동 623-4번지 1층 일부","indutype":"일반휴게음식 - 일반한식","category":"restaurant"}]},{"lat":"37.261154499","long":"127.16138022","imageIndex":4,"items":[{"name":"육대장","tel":"031-285-6920","addr":"경기도 용인시 기흥구 중동 1042-11번지 1층","indutype":"일반휴게음식 - 일반한식","category":"restaurant"}]},{"lat":"37.260435421","long":"127.16007106","imageIndex":4,"items":[{"name":"육대장","tel":"031-285-6920","addr":"경기도 용인시 기흥구 중동 1043-1번지 옐로우존 1층 101호~104호","indutype":"일반휴게음식 - 일반한식","category":"restaurant"}]},{"lat":"37.270347924","long":"127.15218834","imageIndex":4,"items":[{"name":"이화원","tel":"031-286-6012","addr":"경기도 용인시 기흥구 중동 850-3번지 원스톤프라자108-110 108호","indutype":"일반휴게음식 - 중국식","category":"restaurant"},{"name":"철뚝집","tel":"031-283-5989","addr":"경기도 용인시 기흥구 중동 850-3번지 원스톤프라자 104호 105호","indutype":"일반휴게음식 - 일반한식","category":"restaurant"}]},{"lat":"37.276349471","long":"127.14427369","imageIndex":4,"items":[{"name":"좋은아침pasty(페스츄리)","tel":"02-421-6704","addr":"경기도 용인시 기흥구 중동 627-3번지 ,1,2층","indutype":"일반휴게음식 - 서양음식","category":"restaurant"}]},{"lat":"37.280846229","long":"127.14374086","imageIndex":4,"items":[{"name":"죽이야기 신동백점","tel":"031-275-6233","addr":"경기도 용인시 기흥구 중동 1110-12번지 유성빌딩 104호","indutype":"일반휴게음식 - 일반한식","category":"restaurant"}]},{"lat":"37.284291","long":"127.14132284","imageIndex":4,"items":[{"name":"집밥","tel":"031-282-9597","addr":"경기도 용인시 기흥구 중동 668-20번지 지하층","indutype":"일반휴게음식 - 일반한식","category":"restaurant"},{"name":"카작 동백점","tel":"031-283-2642","addr":"경기도 용인시 기흥구 중동 668-20번지","indutype":"일반휴게음식 - 서양음식","category":"restaurant"}]},{"lat":"37.277735725","long":"127.14538128","imageIndex":4,"items":[{"name":"처갓집양념치킨","tel":"031-274-9299","addr":"경기도 용인시 기흥구 중동 1081번지 어정마을동백아이파크 상가 101호","indutype":"일반휴게음식 - 주점","category":"restaurant"}]},{"lat":"37.260965766","long":"127.16101909","imageIndex":4,"items":[{"name":"최고집칼국수 해물찜","tel":"031-274-0911","addr":"경기도 용인시 기흥구 중동 1042-9번지 1층","indutype":"일반휴게음식 - 일반한식","category":"restaurant"}]},{"lat":"37.260848858","long":"127.16084975","imageIndex":4,"items":[{"name":"추오정남원추어탕","tel":"031-281-0990","addr":"경기도 용인시 기흥구 중동 1042-8번지","indutype":"일반휴게음식 - 일반한식","category":"restaurant"}]},{"lat":"37.260182759","long":"127.16035236","imageIndex":4,"items":[{"name":"커스텀커피 (중동직영점)","tel":"031-111-1111","addr":"경기도 용인시 기흥구 중동 1043-3번지 에스아이오피스텔 1층 101호","indutype":"일반휴게음식 - 서양음식","category":"restaurant"}]},{"lat":"37.271353514","long":"127.1549864","imageIndex":4,"items":[{"name":"커피그랑블 (coffee그랑블)","tel":"070-8260-3322","addr":"경기도 용인시 기흥구 중동 860번지 성산마을서해그랑블 상가동 201호","indutype":"일반휴게음식 - 서양음식","category":"restaurant"}]},{"lat":"37.258825318","long":"127.15799355","imageIndex":4,"items":[{"name":"커피지저스153","tel":"","addr":"경기도 용인시 기흥구 중동 38-1번지 웨스트민스터신학대학교 가동 1층","indutype":"일반휴게음식 - 서양음식","category":"restaurant"}]},{"lat":"37.269459264","long":"127.15660608","imageIndex":4,"items":[{"name":"토브훼미리카페","tel":"070-7582-6582","addr":"경기도 용인시 기흥구 중동 958번지 어은목마을대원칸타빌 상가동 101호","indutype":"일반휴게음식 - 일반한식","category":"restaurant"}]},{"lat":"37.281874746","long":"127.14260389","imageIndex":4,"items":[{"name":"티투","tel":"031-304-2222","addr":"경기도 용인시 기흥구 중동 1110번지 1-2층","indutype":"일반휴게음식 - 서양음식","category":"restaurant"}]},{"lat":"37.282847785","long":"127.14266207","imageIndex":4,"items":[{"name":"한식뷔페","tel":"031-281-5988","addr":"경기도 용인시 기흥구 중동 1112-7번지 3층","indutype":"일반휴게음식 - 일반한식","category":"restaurant"}]},{"lat":"37.284596462","long":"127.14207893","imageIndex":4,"items":[{"name":"향차이","tel":"031-283-7479","addr":"경기도 용인시 기흥구 중동 665-49번지 2-5호","indutype":"일반휴게음식 - 중국식","category":"restaurant"}]}]