[{"lat":"37.751396021","long":"126.97101969","imageIndex":4,"items":[{"name":"KFA아트밸리카페","tel":"031-855-5007","addr":"경기도 양주시 장흥면 석현리 48-1번지","indutype":"일반휴게음식 - 서양음식","category":"restaurant"}]},{"lat":"37.738100143","long":"126.95175037","imageIndex":4,"items":[{"name":"가배","tel":"","addr":"경기도 양주시 장흥면 석현리 371-4번지 1층","indutype":"일반휴게음식 - 서양음식","category":"restaurant"}]},{"lat":"37.742813875","long":"126.95591098","imageIndex":4,"items":[{"name":"계곡산장","tel":"031-855-6065","addr":"경기도 양주시 장흥면 석현리 345번지","indutype":"일반휴게음식 - 일반한식","category":"restaurant"}]},{"lat":"37.757179555","long":"126.96890651","imageIndex":4,"items":[{"name":"고비골","tel":"031-878-7260","addr":"경기도 양주시 장흥면 석현리 34-2번지","indutype":"일반휴게음식 - 일반한식","category":"restaurant"}]},{"lat":"37.750043124","long":"126.94385617","imageIndex":4,"items":[{"name":"고향산천","tel":"031-855-9844","addr":"경기도 양주시 장흥면 석현리 289번지","indutype":"일반휴게음식 - 일반한식","category":"restaurant"}]},{"lat":"37.761124959","long":"126.96632861","imageIndex":4,"items":[{"name":"곤드레황제보쌈","tel":"02-351-3577","addr":"경기도 양주시 장흥면 석현리 9-1번지","indutype":"일반휴게음식 - 서양음식","category":"restaurant"}]},{"lat":"37.747819363","long":"126.94713705","imageIndex":4,"items":[{"name":"구름다리","tel":"031-878-1159","addr":"경기도 양주시 장흥면 석현리 217번지","indutype":"일반휴게음식 - 일반한식","category":"restaurant"}]},{"lat":"37.730098444","long":"126.94905607","imageIndex":4,"items":[{"name":"그남자","tel":"","addr":"경기도 양주시 장흥면 석현리 392-3번지","indutype":"일반휴게음식 - 일반한식","category":"restaurant"},{"name":"김여사 푸드&드링크","tel":"031-406-2317","addr":"경기도 양주시 장흥면 석현리 392-3번지","indutype":"일반휴게음식 - 서양음식","category":"restaurant"},{"name":"김여사 푸드&드링크(Food&Drink)","tel":"031-406-2317","addr":"경기도 양주시 장흥면 석현리 392-3번지","indutype":"일반휴게음식 - 서양음식","category":"restaurant"},{"name":"피턴하우스","tel":"070-8279-1801","addr":"경기도 양주시 장흥면 석현리 392-3번지","indutype":"일반휴게음식 - 서양음식","category":"restaurant"}]},{"lat":"37.746843093","long":"126.96108232","imageIndex":4,"items":[{"name":"금강산","tel":"031-855-6500","addr":"경기도 양주시 장흥면 석현리 342-9번지","indutype":"일반휴게음식 - 일반한식","category":"restaurant"}]},{"lat":"37.745289451","long":"126.95101928","imageIndex":4,"items":[{"name":"나우리","tel":"031-829-0405","addr":"경기도 양주시 장흥면 석현리 326","indutype":"일반휴게음식 - 일반한식","category":"restaurant"}]},{"lat":"37.760701758","long":"126.96713455","imageIndex":4,"items":[{"name":"다래골","tel":"031-855-4598","addr":"경기도 양주시 장흥면 석현리 17번지","indutype":"일반휴게음식 - 일반한식","category":"restaurant"}]},{"lat":"37.747203228","long":"126.96039","imageIndex":4,"items":[{"name":"도깨비방망이","tel":"","addr":"경기도 양주시 장흥면 석현리 77번지 1층","indutype":"일반휴게음식 - 일반한식","category":"restaurant"}]},{"lat":"37.731873164","long":"126.94869178","imageIndex":4,"items":[{"name":"도이창 장욱진미술관점","tel":"070-4212-1417","addr":"경기도 양주시 장흥면 석현리 산1번지 장욱진미술관 1층","indutype":"일반휴게음식 - 서양음식","category":"restaurant"}]},{"lat":"37.747009203","long":"126.94863536","imageIndex":4,"items":[{"name":"돌고개 늘품","tel":"031-855-1700","addr":"경기도 양주시 장흥면 석현리 200번지","indutype":"일반휴게음식 - 일반한식","category":"restaurant"},{"name":"돌고개식당여관","tel":"031-855-1700","addr":"경기도 양주시 장흥면 석현리 200번지","indutype":"일반휴게음식 - 일반한식","category":"restaurant"}]},{"lat":"37.742398357","long":"126.95327907","imageIndex":4,"items":[{"name":"레마르크","tel":"031-855-2713","addr":"경기도 양주시 장흥면 석현리 359-3번지","indutype":"일반휴게음식 - 일반한식","category":"restaurant"}]},{"lat":"37.754566965","long":"126.96952047","imageIndex":4,"items":[{"name":"로뎀","tel":"031-855-5615","addr":"경기도 양주시 장흥면 석현리 42-3번지","indutype":"일반휴게음식 - 일반한식","category":"restaurant"}]},{"lat":"37.748899125","long":"126.96668637","imageIndex":4,"items":[{"name":"밀과보리","tel":"031-855-8717","addr":"경기도 양주시 장흥면 석현리 69번지","indutype":"일반휴게음식 - 일반한식","category":"restaurant"}]},{"lat":"37.753287491","long":"126.96910119","imageIndex":4,"items":[{"name":"봄날의정원","tel":"031-855-8091","addr":"경기도 양주시 장흥면 석현리 44번지","indutype":"일반휴게음식 - 일반한식","category":"restaurant"}]},{"lat":"37.747429255","long":"126.96263644","imageIndex":4,"items":[{"name":"산들","tel":"","addr":"경기도 양주시 장흥면 석현리 73번지 1층","indutype":"일반휴게음식 - 일반한식","category":"restaurant"}]},{"lat":"37.763701442","long":"126.96555562","imageIndex":4,"items":[{"name":"산마루","tel":"031-855-2333","addr":"경기도 양주시 장흥면 석현리 3-7번지","indutype":"일반휴게음식 - 일반한식","category":"restaurant"}]},{"lat":"37.736568502","long":"126.95171739","imageIndex":4,"items":[{"name":"삼막골커피숍","tel":"031-855-2889","addr":"경기도 양주시 장흥면 석현리 369-7","indutype":"일반휴게음식 - 서양음식","category":"restaurant"}]},{"lat":"37.736406246","long":"126.95152464","imageIndex":4,"items":[{"name":"선비촌","tel":"031-855-6396","addr":"경기도 양주시 장흥면 석현리 369-4번지","indutype":"일반휴게음식 - 일반한식","category":"restaurant"}]},{"lat":"37.752206251","long":"126.96877262","imageIndex":4,"items":[{"name":"소바하나","tel":"","addr":"경기도 양주시 장흥면 석현리 47-9번지 1층","indutype":"일반휴게음식 - 일식·회집","category":"restaurant"}]},{"lat":"37.749791625","long":"126.94541087","imageIndex":4,"items":[{"name":"솔내음","tel":"031-872-1256","addr":"경기도 양주시 장흥면 석현리 256-2번지","indutype":"일반휴게음식 - 일반한식","category":"restaurant"}]},{"lat":"37.744181232","long":"126.95091794","imageIndex":4,"items":[{"name":"신선식당","tel":"031-855-5213","addr":"경기도 양주시 장흥면 석현리 331-1번지","indutype":"일반휴게음식 - 일반한식","category":"restaurant"}]},{"lat":"37.748674979","long":"126.94652369","imageIndex":4,"items":[{"name":"신털뫼1","tel":"031-855-6936","addr":"경기도 양주시 장흥면 석현리 211번지","indutype":"일반휴게음식 - 일반한식","category":"restaurant"}]},{"lat":"37.759009208","long":"126.97149304","imageIndex":4,"items":[{"name":"아트포유","tel":"02-491-2116","addr":"경기도 양주시 장흥면 석현리 산10-13번지 1층","indutype":"일반휴게음식 - 일반한식","category":"restaurant"}]},{"lat":"37.741399229","long":"126.95554882","imageIndex":4,"items":[{"name":"여울목","tel":"031-840-0526","addr":"경기도 양주시 장흥면 석현리 346-4번지","indutype":"일반휴게음식 - 일반한식","category":"restaurant"}]},{"lat":"37.737010186","long":"126.95221626","imageIndex":4,"items":[{"name":"예전도예갤러리","tel":"031-829-6139","addr":"경기도 양주시 장흥면 석현리 368-6","indutype":"일반휴게음식 - 서양음식","category":"restaurant"}]},{"lat":"37.74270449","long":"126.95282504","imageIndex":4,"items":[{"name":"올리브","tel":"031-855-7923","addr":"경기도 양주시 장흥면 석현리 359-1번지","indutype":"일반휴게음식 - 서양음식","category":"restaurant"}]},{"lat":"37.752873123","long":"126.96935102","imageIndex":4,"items":[{"name":"은하수","tel":"031-855-2663","addr":"경기도 양주시 장흥면 석현리 45번지","indutype":"일반휴게음식 - 일반한식","category":"restaurant"}]},{"lat":"37.735766188","long":"126.9506629","imageIndex":4,"items":[{"name":"이집이좋겠네(별관)","tel":"031-855-2454","addr":"경기도 양주시 장흥면 석현리 373-4번지","indutype":"일반휴게음식 - 일반한식","category":"restaurant"}]},{"lat":"37.742011155","long":"126.95377853","imageIndex":4,"items":[{"name":"작은영토","tel":"031-855-5670","addr":"경기도 양주시 장흥면 석현리 357번지","indutype":"일반휴게음식 - 일반한식","category":"restaurant"},{"name":"작은영토","tel":"031-855-5610","addr":"경기도 양주시 장흥면 석현리 357번지","indutype":"일반휴게음식 - 일반한식","category":"restaurant"}]},{"lat":"37.741875917","long":"126.95355171","imageIndex":4,"items":[{"name":"작은영토별관","tel":"031-855-6247","addr":"경기도 양주시 장흥면 석현리 359-4번지","indutype":"일반휴게음식 - 일반한식","category":"restaurant"}]},{"lat":"37.74329157","long":"126.9563872","imageIndex":4,"items":[{"name":"장산","tel":"031-855-0345","addr":"경기도 양주시 장흥면 석현리 337-1번지","indutype":"일반휴게음식 - 일반한식","category":"restaurant"}]},{"lat":"37.749872475","long":"126.96774114","imageIndex":4,"items":[{"name":"장원","tel":"031-879-3589","addr":"경기도 양주시 장흥면 석현리 64번지","indutype":"일반휴게음식 - 일반한식","category":"restaurant"}]},{"lat":"37.751035026","long":"126.96882989","imageIndex":4,"items":[{"name":"장흥궁","tel":"031-829-1020","addr":"경기도 양주시 장흥면 석현리 51번지","indutype":"일반휴게음식 - 일반한식","category":"restaurant"}]},{"lat":"37.756792204","long":"126.96911095","imageIndex":4,"items":[{"name":"장흥배꼽","tel":"031-855-4597","addr":"경기도 양주시 장흥면 석현리 35-2번지","indutype":"일반휴게음식 - 일반한식","category":"restaurant"}]},{"lat":"37.754846118","long":"126.96902105","imageIndex":4,"items":[{"name":"장흥빛고을","tel":"031-877-3326","addr":"경기도 양주시 장흥면 석현리 38번지","indutype":"일반휴게음식 - 일반한식","category":"restaurant"}]},{"lat":"37.734405658","long":"126.950471","imageIndex":4,"items":[{"name":"장흥산장","tel":"031-855-5570","addr":"경기도 양주시 장흥면 석현리 385-15번지","indutype":"일반휴게음식 - 일반한식","category":"restaurant"}]},{"lat":"37.742821474","long":"126.95249594","imageIndex":4,"items":[{"name":"장흥수목원펜션식당","tel":"","addr":"경기도 양주시 장흥면 석현리 359-11번지 1층","indutype":"일반휴게음식 - 일반한식","category":"restaurant"}]},{"lat":"37.74401052","long":"126.95199591","imageIndex":4,"items":[{"name":"장흥일번가","tel":"031-872-7752","addr":"경기도 양주시 장흥면 석현리 331-2번지","indutype":"일반휴게음식 - 일반한식","category":"restaurant"},{"name":"장흥일번가","tel":"031-855-2282","addr":"경기도 양주시 장흥면 석현리 331-2번지","indutype":"일반휴게음식 - 일반한식","category":"restaurant"}]},{"lat":"37.744761375","long":"126.95966525","imageIndex":4,"items":[{"name":"장흥참숯가마 구내식당","tel":"031-877-4666","addr":"경기도 양주시 장흥면 석현리 343번지 나동","indutype":"일반휴게음식 - 일반한식","category":"restaurant"}]},{"lat":"37.745316102","long":"126.95016831","imageIndex":4,"items":[{"name":"장흥폭포수식당","tel":"031-855-5656","addr":"경기도 양주시 장흥면 석현리 329-1 (329-1,4,5)","indutype":"일반휴게음식 - 일반한식","category":"restaurant"}]},{"lat":"37.748485483","long":"126.94591112","imageIndex":4,"items":[{"name":"장흥황토마당","tel":"031-855-5806","addr":"경기도 양주시 장흥면 석현리 236-2번지","indutype":"일반휴게음식 - 일반한식","category":"restaurant"}]},{"lat":"37.735370072","long":"126.95135519","imageIndex":4,"items":[{"name":"전원산골","tel":"031-829-2832","addr":"경기도 양주시 장흥면 석현리 374-4번지","indutype":"일반휴게음식 - 일반한식","category":"restaurant"}]},{"lat":"37.750258993","long":"126.94314115","imageIndex":4,"items":[{"name":"전주계곡산장","tel":"031-829-2268","addr":"경기도 양주시 장흥면 석현리 296","indutype":"일반휴게음식 - 일반한식","category":"restaurant"}]},{"lat":"37.73893044","long":"126.95513062","imageIndex":4,"items":[{"name":"주막촌","tel":"031-855-7736","addr":"경기도 양주시 장흥면 석현리 364-2","indutype":"일반휴게음식 - 일반한식","category":"restaurant"}]},{"lat":"37.729621449","long":"126.95019078","imageIndex":4,"items":[{"name":"참솔가든","tel":"031-855-4109","addr":"경기도 양주시 장흥면 석현리 386-6번지 1층","indutype":"일반휴게음식 - 일반한식","category":"restaurant"}]},{"lat":"37.744541699","long":"126.95111057","imageIndex":4,"items":[{"name":"초가마을","tel":"031-855-1124","addr":"경기도 양주시 장흥면 석현리 328번지","indutype":"일반휴게음식 - 일반한식","category":"restaurant"}]},{"lat":"37.737929649","long":"126.95336146","imageIndex":4,"items":[{"name":"춘천댁화로닭갈비","tel":"031-111-1111","addr":"경기도 양주시 장흥면 석현리 367-2번지","indutype":"일반휴게음식 - 일반한식","category":"restaurant"},{"name":"코알라하우스","tel":"043-423-1171","addr":"경기도 양주시 장흥면 석현리 367-2번지 1층","indutype":"일반휴게음식 - 일반한식","category":"restaurant"},{"name":"화이트하우스","tel":"031-826-2016","addr":"경기도 양주시 장흥면 석현리 367-2번지","indutype":"일반휴게음식 - 서양음식","category":"restaurant"}]},{"lat":"37.749008037","long":"126.94591072","imageIndex":4,"items":[{"name":"카페같은집","tel":"031-829-8711","addr":"경기도 양주시 장흥면 석현리 248-2","indutype":"일반휴게음식 - 일반한식","category":"restaurant"}]},{"lat":"37.756702011","long":"126.96877056","imageIndex":4,"items":[{"name":"커피해요","tel":"031-855-5732","addr":"경기도 양주시 장흥면 석현리 37번지","indutype":"일반휴게음식 - 서양음식","category":"restaurant"}]},{"lat":"37.762953623","long":"126.96546521","imageIndex":4,"items":[{"name":"큐로","tel":"031-855-0983","addr":"경기도 양주시 장흥면 석현리 3-1","indutype":"일반휴게음식 - 서양음식","category":"restaurant"}]},{"lat":"37.751927082","long":"126.96921528","imageIndex":4,"items":[{"name":"탑골토속음식점","tel":"031-855-7730","addr":"경기도 양주시 장흥면 석현리 51-3번지","indutype":"일반휴게음식 - 일반한식","category":"restaurant"}]},{"lat":"37.731540228","long":"126.94961088","imageIndex":4,"items":[{"name":"토속마당","tel":"031-855-8180","addr":"경기도 양주시 장흥면 석현리 394-2번지","indutype":"일반휴게음식 - 일반한식","category":"restaurant"}]},{"lat":"37.747791412","long":"126.94521953","imageIndex":4,"items":[{"name":"풍촌","tel":"031-840-5665","addr":"경기도 양주시 장흥면 석현리 229번지","indutype":"일반휴게음식 - 일반한식","category":"restaurant"}]},{"lat":"37.747736119","long":"126.96424746","imageIndex":4,"items":[{"name":"해뜨는집","tel":"031-855-6100","addr":"경기도 양주시 장흥면 석현리 72-2번지","indutype":"일반휴게음식 - 일반한식","category":"restaurant"}]},{"lat":"37.748179241","long":"126.94608155","imageIndex":4,"items":[{"name":"화이트식당","tel":"","addr":"경기도 양주시 장흥면 석현리 214번지 1층","indutype":"일반휴게음식 - 일반한식","category":"restaurant"}]}]