[{"lat":"37.721235827","long":"126.76763047","imageIndex":7,"items":[{"name":"(주)성안","tel":"031-945-6605","addr":"경기도 파주시 야당동 45-89번지","indutype":"음료식품 - 기타음료식품","category":"food"}]},{"lat":"37.71642572","long":"126.76365344","imageIndex":7,"items":[{"name":"HD컴퍼니","tel":"031-941-2100","addr":"경기도 파주시 야당동 226-5번지","indutype":"음료식품 - 기타음료식품","category":"food"}]},{"lat":"37.709349856","long":"126.74912631","imageIndex":7,"items":[{"name":"교하축산","tel":"031-944-6689","addr":"경기도 파주시 야당동 1023번지 한빛마을6단지","indutype":"음료식품 - 정육점","category":"food"}]},{"lat":"37.710265354","long":"126.75170886","imageIndex":7,"items":[{"name":"국선생 파주 한빛마을점","tel":"031-946-1121","addr":"경기도 파주시 야당동 1006-8번지","indutype":"음료식품 - 기타음료식품","category":"food"},{"name":"씨제이리메디","tel":"031-944-9131","addr":"경기도 파주시 야당동 1006-8번지","indutype":"건강식품 - 기타건강식품","category":"food"},{"name":"점핑홀릭","tel":"","addr":"경기도 파주시 야당동 1006-8번지","indutype":"건강식품 - 기타건강식품","category":"food"}]},{"lat":"37.711953658","long":"126.75765714","imageIndex":7,"items":[{"name":"남매정육점","tel":"031-944-9298","addr":"경기도 파주시 야당동 1016번지 롯데캐슬파크타운","indutype":"음료식품 - 정육점","category":"food"},{"name":"아이스크림 할인점","tel":"","addr":"경기도 파주시 야당동 1016번지 롯데캐슬파크타운","indutype":"음료식품 - 기타음료식품","category":"food"}]},{"lat":"37.722923764","long":"126.76921309","imageIndex":7,"items":[{"name":"네이쳐 그레인","tel":"031-949-1622","addr":"경기도 파주시 야당동 39-20번지","indutype":"음료식품 - 미곡상","category":"food"}]},{"lat":"37.713898857","long":"126.74873654","imageIndex":7,"items":[{"name":"녹색한우안심축산물전문점","tel":"031-943-4120","addr":"경기도 파주시 야당동 1000-5번지 한빛프라자 103호","indutype":"음료식품 - 정육점","category":"food"},{"name":"레스쁘아","tel":"031-945-9950","addr":"경기도 파주시 야당동 1000-5번지","indutype":"음료식품 - 제과점","category":"food"},{"name":"아빠홍삼","tel":"031-945-8738","addr":"경기도 파주시 야당동 1000-5 한빛프라자 102호 (미래로408번길 40,102호)","indutype":"건강식품 - 홍삼제품","category":"food"}]},{"lat":"37.709709442","long":"126.76162239","imageIndex":7,"items":[{"name":"대박상회","tel":"","addr":"경기도 파주시 야당동 424-1번지","indutype":"음료식품 - 농·축·수산품","category":"food"}]},{"lat":"37.724903535","long":"126.76803856","imageIndex":7,"items":[{"name":"대양건강원","tel":"031-942-3642","addr":"경기도 파주시 야당동 296-36번지","indutype":"건강식품 - 기타건강식품","category":"food"}]},{"lat":"37.71695617","long":"126.76757595","imageIndex":7,"items":[{"name":"대흥농수산물유통","tel":"031-944-1270","addr":"경기도 파주시 야당동 239번지","indutype":"음료식품 - 농·축·수산품","category":"food"},{"name":"종가집 은평","tel":"031-111-1111","addr":"경기도 파주시 야당동 239번지","indutype":"음료식품 - 기타음료식품","category":"food"},{"name":"하우개정육점","tel":"031-944-3191","addr":"경기도 파주시 야당동 239번지","indutype":"음료식품 - 정육점","category":"food"}]},{"lat":"37.705736331","long":"126.76168063","imageIndex":7,"items":[{"name":"대흥유통","tel":"031-948-5545","addr":"경기도 파주시 야당동 469-252번지 모리안","indutype":"음료식품 - 기타음료식품","category":"food"}]},{"lat":"37.708926976","long":"126.7579166","imageIndex":7,"items":[{"name":"더건강해지다","tel":"","addr":"경기도 파주시 야당동 1031번지 휴먼시아한빛마을","indutype":"건강식품 - 기타건강식품","category":"food"}]},{"lat":"37.713733253","long":"126.75993085","imageIndex":7,"items":[{"name":"더스파매점","tel":"031-944-3000","addr":"경기도 파주시 야당동 1070번지","indutype":"음료식품 - 기타음료식품","category":"food"},{"name":"던킨도너츠(운전야당점)","tel":"031-945-6448","addr":"경기도 파주시 야당동 1070번지","indutype":"음료식품 - 제과점","category":"food"},{"name":"배스킨라빈스 운정야당역점","tel":"031-941-3107","addr":"경기도 파주시 야당동 1070번지","indutype":"음료식품 - 제과점","category":"food"},{"name":"스넥바","tel":"031-944-3000","addr":"경기도 파주시 야당동 1070번지","indutype":"음료식품 - 기타음료식품","category":"food"}]},{"lat":"37.711370327","long":"126.75020814","imageIndex":7,"items":[{"name":"뚜레쥬르 운정한빛마을점","tel":"031-944-0453","addr":"경기도 파주시 야당동 1006번지","indutype":"음료식품 - 제과점","category":"food"},{"name":"아이스크림할인점","tel":"","addr":"경기도 파주시 야당동 1006번지","indutype":"음료식품 - 기타음료식품","category":"food"}]},{"lat":"37.71550263","long":"126.75727117","imageIndex":7,"items":[{"name":"뚜레쥬르 파주운정캐슬(2)","tel":"031-949-7772","addr":"경기도 파주시 야당동 991번지","indutype":"음료식품 - 제과점","category":"food"},{"name":"아이스가(한빛점)","tel":"02-1111-1111","addr":"경기도 파주시 야당동 991번지","indutype":"음료식품 - 기타음료식품","category":"food"},{"name":"정직한정육점","tel":"031-946-8878","addr":"경기도 파주시 야당동 991번지","indutype":"음료식품 - 정육점","category":"food"},{"name":"청정오름","tel":"031-944-9448","addr":"경기도 파주시 야당동 991번지","indutype":"음료식품 - 농·축·수산품","category":"food"},{"name":"청정오름","tel":"","addr":"경기도 파주시 야당동 991번지","indutype":"음료식품 - 농·축·수산품","category":"food"}]},{"lat":"37.712209896","long":"126.75957291","imageIndex":7,"items":[{"name":"라인핏(점핑다이어트)","tel":"","addr":"경기도 파주시 야당동 1066-3번지","indutype":"건강식품 - 기타건강식품","category":"food"},{"name":"최아롬","tel":"031-947-7277","addr":"경기도 파주시 야당동 1066-3번지","indutype":"건강식품 - 기타건강식품","category":"food"}]},{"lat":"37.711430911","long":"126.76193435","imageIndex":7,"items":[{"name":"레프레르","tel":"02-716-8696","addr":"경기도 파주시 야당동 421-90번지","indutype":"음료식품 - 기타음료식품","category":"food"}]},{"lat":"37.71095703","long":"126.75074256","imageIndex":7,"items":[{"name":"마이스터델리","tel":"","addr":"경기도 파주시 야당동 1006-3번지","indutype":"음료식품 - 정육점","category":"food"},{"name":"장독대","tel":"02-945-4464","addr":"경기도 파주시 야당동 1006-3번지","indutype":"음료식품 - 기타음료식품","category":"food"}]},{"lat":"37.71076453","long":"126.76209528","imageIndex":7,"items":[{"name":"마이패밀리","tel":"","addr":"경기도 파주시 야당동 421-130번지","indutype":"음료식품 - 농·축·수산품","category":"food"}]},{"lat":"37.723092239","long":"126.76785145","imageIndex":7,"items":[{"name":"미도","tel":"031-853-1708","addr":"경기도 파주시 야당동 291-17번지 주영그린빌라","indutype":"음료식품 - 미곡상","category":"food"}]},{"lat":"37.714787601","long":"126.76004082","imageIndex":7,"items":[{"name":"미래아이","tel":"031-948-1275","addr":"경기도 파주시 야당동 1072번지","indutype":"건강식품 - 기타건강식품","category":"food"},{"name":"차타타 운정점","tel":"031-942-3094","addr":"경기도 파주시 야당동 1072번지","indutype":"음료식품 - 기타음료식품","category":"food"}]},{"lat":"37.712288851","long":"126.76292958","imageIndex":7,"items":[{"name":"부자공방베이커리","tel":"031-943-9260","addr":"경기도 파주시 야당동 192-2번지 벨라타운","indutype":"음료식품 - 제과점","category":"food"}]},{"lat":"37.711651118","long":"126.75948401","imageIndex":7,"items":[{"name":"소리대장간","tel":"031-942-3975","addr":"경기도 파주시 야당동 1056번지","indutype":"건강식품 - 기타건강식품","category":"food"}]},{"lat":"37.709515598","long":"126.76376638","imageIndex":7,"items":[{"name":"스마일찰진꽈배기","tel":"031-948-3350","addr":"경기도 파주시 야당동 178-35번지","indutype":"음료식품 - 제과점","category":"food"}]},{"lat":"37.710958414","long":"126.75998527","imageIndex":7,"items":[{"name":"야당회밀리","tel":"","addr":"경기도 파주시 야당동 1059번지","indutype":"음료식품 - 기타음료식품","category":"food"}]},{"lat":"37.710067772","long":"126.76504609","imageIndex":7,"items":[{"name":"어쭈구리왕문어 파주점","tel":"","addr":"경기도 파주시 야당동 178-123번지","indutype":"음료식품 - 농·축·수산품","category":"food"}]},{"lat":"37.716736875","long":"126.76604552","imageIndex":7,"items":[{"name":"엄마찬'스","tel":"031-000-0000","addr":"경기도 파주시 야당동 240-85번지","indutype":"음료식품 - 기타음료식품","category":"food"}]},{"lat":"37.70973116","long":"126.76343681","imageIndex":7,"items":[{"name":"예담베이커리","tel":"031-905-7759","addr":"경기도 파주시 야당동 178-27번지","indutype":"음료식품 - 제과점","category":"food"}]},{"lat":"37.71047209","long":"126.75148135","imageIndex":7,"items":[{"name":"오복떡집","tel":"031-943-8858","addr":"경기도 파주시 야당동 1006-7번지","indutype":"음료식품 - 제과점","category":"food"},{"name":"이지바이 운정1호점","tel":"031-946-9289","addr":"경기도 파주시 야당동 1006-7번지","indutype":"음료식품 - 제과점","category":"food"}]},{"lat":"37.708537513","long":"126.75693127","imageIndex":7,"items":[{"name":"올리브찬방","tel":"031-957-1175","addr":"경기도 파주시 야당동 1031번지","indutype":"음료식품 - 기타음료식품","category":"food"}]},{"lat":"37.711235548","long":"126.75037871","imageIndex":7,"items":[{"name":"운정떡","tel":"031-946-0025","addr":"경기도 파주시 야당동 1006-1번지","indutype":"음료식품 - 제과점","category":"food"}]},{"lat":"37.716536031","long":"126.76031865","imageIndex":7,"items":[{"name":"원바디 운정점(One body)","tel":"031-942-4984","addr":"경기도 파주시 야당동 1076번지","indutype":"건강식품 - 기타건강식품","category":"food"},{"name":"종근당건강헬스벨스토리야당동점","tel":"","addr":"경기도 파주시 야당동 1076번지","indutype":"건강식품 - 기타건강식품","category":"food"}]},{"lat":"37.703704946","long":"126.75962339","imageIndex":7,"items":[{"name":"원산수산","tel":"031-943-0377","addr":"경기도 파주시 야당동 920번지","indutype":"음료식품 - 농·축·수산품","category":"food"}]},{"lat":"37.707291068","long":"126.75977044","imageIndex":7,"items":[{"name":"월드축산","tel":"031-945-5600","addr":"경기도 파주시 야당동 1046번지","indutype":"음료식품 - 정육점","category":"food"}]},{"lat":"37.721152063","long":"126.76629234","imageIndex":7,"items":[{"name":"으뜸라이스","tel":"","addr":"경기도 파주시 야당동 289-23번지","indutype":"음료식품 - 미곡상","category":"food"}]},{"lat":"37.70840313","long":"126.75300795","imageIndex":7,"items":[{"name":"일산야채","tel":"","addr":"경기도 파주시 야당동 1026번지 한빛마을7단지","indutype":"음료식품 - 농·축·수산품","category":"food"}]},{"lat":"37.724257554","long":"126.76940173","imageIndex":7,"items":[{"name":"장단양봉","tel":"031-947-3643","addr":"경기도 파주시 야당동 37-23번지","indutype":"건강식품 - 기타건강식품","category":"food"}]},{"lat":"37.722979078","long":"126.7698481","imageIndex":7,"items":[{"name":"장수축산","tel":"031-947-3318","addr":"경기도 파주시 야당동 39-1번지","indutype":"음료식품 - 농·축·수산품","category":"food"}]},{"lat":"37.709237704","long":"126.76445904","imageIndex":7,"items":[{"name":"축복굴비수산","tel":"031-957-8008","addr":"경기도 파주시 야당동 175-1번지","indutype":"음료식품 - 농·축·수산품","category":"food"}]},{"lat":"37.710984249","long":"126.75940681","imageIndex":7,"items":[{"name":"토원농산","tel":"031-942-7721","addr":"경기도 파주시 야당동 1056-2번지","indutype":"음료식품 - 농·축·수산품","category":"food"}]},{"lat":"37.712786669","long":"126.75965041","imageIndex":7,"items":[{"name":"파리바게뜨 야당역점","tel":"031-945-4334","addr":"경기도 파주시 야당동 1066-1번지","indutype":"음료식품 - 제과점","category":"food"}]},{"lat":"37.714233961","long":"126.76245831","imageIndex":7,"items":[{"name":"파주대리점","tel":"031-945-9437","addr":"경기도 파주시 야당동 224-14번지","indutype":"음료식품 - 기타음료식품","category":"food"}]},{"lat":"37.712430621","long":"126.761761","imageIndex":7,"items":[{"name":"파주축산물 도소매센터","tel":"031-947-9611","addr":"경기도 파주시 야당동 421-41번지","indutype":"음료식품 - 정육점","category":"food"}]},{"lat":"37.712693923","long":"126.7498294","imageIndex":7,"items":[{"name":"포촌인천유통","tel":"031-949-0130","addr":"경기도 파주시 야당동 975번지 한빛마을3단지자유로아이파크","indutype":"음료식품 - 정육점","category":"food"}]},{"lat":"37.714763539","long":"126.76592705","imageIndex":7,"items":[{"name":"폴렌 (POLLEN)","tel":"031-944-4897","addr":"경기도 파주시 야당동 217-3번지","indutype":"음료식품 - 제과점","category":"food"}]},{"lat":"37.711070093","long":"126.75306704","imageIndex":7,"items":[{"name":"하나로축산","tel":"02-303-5665","addr":"경기도 파주시 야당동 976 자유로아이파크상가 102","indutype":"음료식품 - 정육점","category":"food"}]},{"lat":"37.711345893","long":"126.76001803","imageIndex":7,"items":[{"name":"헤브 (Reves)","tel":"031-000-1234","addr":"경기도 파주시 야당동 1060번지","indutype":"음료식품 - 제과점","category":"food"}]}]