[{"lat":"37.205774458","long":"127.01303152","imageIndex":13,"items":[{"name":"공감심리상담소","tel":"031-223-1669","addr":"경기도 화성시 안녕동 23-3번지","indutype":"보건위생 - 기타대인서비스","category":"beauty"},{"name":"한스헤어","tel":"031-206-5915","addr":"경기도 화성시 안녕동 23-3번지 1층","indutype":"보건위생 - 미용원","category":"beauty"}]},{"lat":"37.199384723","long":"127.02356232","imageIndex":13,"items":[{"name":"까끌레뽀끌레","tel":"031-239-7074","addr":"경기도 화성시 안녕동 8-124번지","indutype":"보건위생 - 미용원","category":"beauty"}]},{"lat":"37.210359086","long":"126.98064401","imageIndex":13,"items":[{"name":"대지유통","tel":"02-499-7209","addr":"경기도 화성시 안녕동 188-255번지","indutype":"보건위생 - 의료용품","category":"beauty"}]},{"lat":"37.207359883","long":"126.98881201","imageIndex":13,"items":[{"name":"독산성반야아동숲원예치료연구소","tel":"070-4400-0999","addr":"경기도 화성시 안녕동 186-70번지","indutype":"보건위생 - 기타대인서비스","category":"beauty"}]},{"lat":"37.204052438","long":"127.02155852","imageIndex":13,"items":[{"name":"동문굿모닝헤어샵","tel":"031-212-5786","addr":"경기도 화성시 안녕동 211번지 동문굿모닝힐 상가 102호","indutype":"보건위생 - 미용원","category":"beauty"}]},{"lat":"37.19874566","long":"126.98653834","imageIndex":13,"items":[{"name":"명동헤어클럽","tel":"031-352-1673","addr":"경기도 화성시 안녕동 176-59번지 1층","indutype":"보건위생 - 미용재료","category":"beauty"}]},{"lat":"37.202999636","long":"127.00656542","imageIndex":13,"items":[{"name":"아모헤어","tel":"031-111-1111","addr":"경기도 화성시 안녕동 223번지 안녕동우방아이유쉘 상가동 104호","indutype":"보건위생 - 미용원","category":"beauty"}]},{"lat":"37.204242626","long":"127.01378604","imageIndex":13,"items":[{"name":"안경마을화산점","tel":"031-223-3194","addr":"경기도 화성시 안녕동 37-49번지","indutype":"보건위생 - 안경","category":"beauty"}]},{"lat":"37.200421719","long":"126.98747289","imageIndex":13,"items":[{"name":"이모네칼갈이","tel":"031-278-2805","addr":"경기도 화성시 안녕동 180-450번지 금성그린맨션 다동 102호","indutype":"보건위생 - 기타대인서비스","category":"beauty"}]},{"lat":"37.201386137","long":"126.99004091","imageIndex":13,"items":[{"name":"주식회사 지투지테크","tel":"031-223-9211","addr":"경기도 화성시 안녕동 180-191번지","indutype":"보건위생 - 의료용품","category":"beauty"}]},{"lat":"37.196853749","long":"126.98864501","imageIndex":13,"items":[{"name":"주식회사휴먼라인","tel":"031-224-7744","addr":"경기도 화성시 안녕동 176-123번지","indutype":"보건위생 - 의료용품","category":"beauty"}]},{"lat":"37.205332934","long":"127.01320043","imageIndex":13,"items":[{"name":"준헤어","tel":"031-238-7970","addr":"경기도 화성시 안녕동 37-113번지","indutype":"보건위생 - 미용원","category":"beauty"}]},{"lat":"37.195384703","long":"126.98597591","imageIndex":13,"items":[{"name":"청광헤어샵","tel":"070-7776-5540","addr":"경기도 화성시 안녕동 210번지 남산마을청광플러스원 104호","indutype":"보건위생 - 미용원","category":"beauty"}]},{"lat":"37.19361085","long":"127.00453764","imageIndex":13,"items":[{"name":"카라","tel":"031-238-4477","addr":"경기도 화성시 안녕동 121-22번지 다동 102호","indutype":"보건위생 - 미용원","category":"beauty"}]},{"lat":"37.205603265","long":"127.01297518","imageIndex":13,"items":[{"name":"태양미용실","tel":"031-239-1524","addr":"경기도 화성시 안녕동 37-11번지","indutype":"보건위생 - 미용원","category":"beauty"}]},{"lat":"37.197943041","long":"127.02367457","imageIndex":13,"items":[{"name":"탤런트헤어","tel":"031-251-3860","addr":"경기도 화성시 안녕동 1-11번지 1층","indutype":"보건위생 - 미용원","category":"beauty"}]},{"lat":"37.204494891","long":"127.01405643","imageIndex":13,"items":[{"name":"향기","tel":"031-296-9792","addr":"경기도 화성시 안녕동 38-1번지 2층","indutype":"보건위생 - 화장품","category":"beauty"}]},{"lat":"37.204575374","long":"126.98648076","imageIndex":13,"items":[{"name":"황토 불한증막","tel":"031-225-8881","addr":"경기도 화성시 안녕동 180-141번지","indutype":"보건위생 - 사우나","category":"beauty"}]}]