[{"lat":"38.08530574","long":"127.0777577","imageIndex":7,"items":[{"name":"농업회사법인 물바위산양산삼(주)","tel":"031-834-9544","addr":"경기도 연천군 연천읍 동막리 590-3번지","indutype":"음료식품 - 농·축·수산품","category":"food"}]},{"lat":"38.08950148","long":"127.0815351","imageIndex":7,"items":[{"name":"동막골 스낵코너","tel":"","addr":"경기도 연천군 연천읍 동막리 467번지 2층","indutype":"음료식품 - 기타음료식품","category":"food"},{"name":"동막골여탕매점","tel":"","addr":"경기도 연천군 연천읍 동막리 467번지","indutype":"음료식품 - 기타음료식품","category":"food"},{"name":"동막골유황천매점","tel":"02-0000-0000","addr":"경기도 연천군 연천읍 동막리 467번지","indutype":"음료식품 - 기타음료식품","category":"food"}]},{"lat":"38.1075306","long":"127.1218826","imageIndex":7,"items":[{"name":"부흥골 쉼터","tel":"031-834-9006","addr":"경기도 연천군 연천읍 동막리 77번지","indutype":"음료식품 - 기타음료식품","category":"food"}]},{"lat":"38.09311254","long":"127.1067434","imageIndex":7,"items":[{"name":"사계절유원지(쉼터)","tel":"","addr":"경기도 연천군 연천읍 동막리 635-40번지","indutype":"음료식품 - 기타음료식품","category":"food"}]},{"lat":"38.11316538","long":"127.1265782","imageIndex":7,"items":[{"name":"산장계곡","tel":"031-834-9916","addr":"경기도 연천군 연천읍 동막리 617","indutype":"음료식품 - 기타음료식품","category":"food"},{"name":"푸른농원","tel":"031-834-3177","addr":"경기도 연천군 연천읍 동막리 617","indutype":"음료식품 - 기타음료식품","category":"food"}]},{"lat":"38.09983006","long":"127.1102985","imageIndex":7,"items":[{"name":"자라바위","tel":"031-834-2827","addr":"경기도 연천군 연천읍 동막리 181","indutype":"음료식품 - 기타음료식품","category":"food"}]},{"lat":"38.09294202","long":"127.1060022","imageIndex":7,"items":[{"name":"첫머리","tel":"031-834-4114","addr":"경기도 연천군 연천읍 동막리 635번지","indutype":"음료식품 - 기타음료식품","category":"food"}]},{"lat":"38.09674809","long":"127.1112744","imageIndex":7,"items":[{"name":"해태의집","tel":"031-834-3461","addr":"경기도 연천군 연천읍 동막리 198번지","indutype":"음료식품 - 주류 판매점","category":"food"}]}]