[{"lat":"37.818035591","long":"127.04620941","imageIndex":8,"items":[{"name":"가족약국","tel":"031-861-8288","addr":"경기도 양주시 덕계동 420-9번지 영토빌딩 104호","indutype":"약국 - 약국","category":"medical"},{"name":"우리치과","tel":"031-865-0505","addr":"경기도 양주시 덕계동 420-9번지 3층","indutype":"의원 - 치과의원","category":"medical"},{"name":"한평주정신건강의학과의원","tel":"031-867-7780","addr":"경기도 양주시 덕계동 420-9번지 영토빌딩 9층 902호 901","indutype":"의원 - 의원","category":"medical"}]},{"lat":"37.81906238","long":"127.0469823","imageIndex":8,"items":[{"name":"강호플러스치과","tel":"031-863-3840","addr":"경기도 양주시 덕계동 424-4번지 1동 301호","indutype":"의원 - 치과의원","category":"medical"},{"name":"백경훈소아과","tel":"031-864-3838","addr":"경기도 양주시 덕계동 424-4번지 1동 302호","indutype":"의원 - 의원","category":"medical"},{"name":"스타약국","tel":"031-859-9993","addr":"경기도 양주시 덕계동 424-4번지 311호","indutype":"약국 - 약국","category":"medical"},{"name":"양주아산정형외과","tel":"031-858-1275","addr":"경기도 양주시 덕계동 424-4번지 스타프라자 3층","indutype":"의원 - 의원","category":"medical"},{"name":"평화약국","tel":"031-861-1061","addr":"경기도 양주시 덕계동 424-4번지 스타프라자 1층 125호","indutype":"약국 - 약국","category":"medical"}]},{"lat":"37.822396015","long":"127.04659812","imageIndex":8,"items":[{"name":"경기웰니스요양병원/의료법인 가화의료재단","tel":"031-828-1803","addr":"경기도 양주시 덕계동 477-5번지 경기웰니스요양병원","indutype":"병원 - 병원","category":"medical"}]},{"lat":"37.819422724","long":"127.04707338","imageIndex":8,"items":[{"name":"경희한의원","tel":"031-863-0543","addr":"경기도 양주시 덕계동 462-2번지 2층","indutype":"의원 - 한의원","category":"medical"}]},{"lat":"37.818945648","long":"127.04592601","imageIndex":8,"items":[{"name":"덕계약국","tel":"031-863-0824","addr":"경기도 양주시 덕계동 681-23번지 1층","indutype":"약국 - 약국","category":"medical"},{"name":"성모의원","tel":"031-863-2098","addr":"경기도 양주시 덕계동 681-23번지","indutype":"의원 - 의원","category":"medical"}]},{"lat":"37.816702114","long":"127.04642441","imageIndex":8,"items":[{"name":"덕계치과의원","tel":"031-863-0414","addr":"경기도 양주시 덕계동 418-9번지 학산빌딩 3층","indutype":"의원 - 치과의원","category":"medical"},{"name":"신양주종로약국","tel":"031-859-7077","addr":"경기도 양주시 덕계동 418-9번지 1층","indutype":"약국 - 약국","category":"medical"},{"name":"양주중앙의원","tel":"031-867-3355","addr":"경기도 양주시 덕계동 418-9번지 2층","indutype":"의원 - 의원","category":"medical"}]},{"lat":"37.819224828","long":"127.04623282","imageIndex":8,"items":[{"name":"덕계한의원","tel":"031-866-5464","addr":"경기도 양주시 덕계동 465-9번지","indutype":"의원 - 한의원","category":"medical"},{"name":"연세웰치과의원","tel":"031-866-2876","addr":"경기도 양주시 덕계동 465-9번지 435-15,465-32","indutype":"의원 - 치과의원","category":"medical"}]},{"lat":"37.817612147","long":"127.04620916","imageIndex":8,"items":[{"name":"동의보감한의원","tel":"031-867-8210","addr":"경기도 양주시 덕계동 420-10번지 세원빌딩 5층 1호","indutype":"의원 - 한의원","category":"medical"},{"name":"라파이비인후과의원","tel":"031-862-9905","addr":"경기도 양주시 덕계동 420-10번지 세원빌딩 3층","indutype":"의원 - 의원","category":"medical"},{"name":"서울안과","tel":"031-865-4001","addr":"경기도 양주시 덕계동 420-10번지","indutype":"의원 - 의원","category":"medical"},{"name":"양주정형외과의원","tel":"031-864-5119","addr":"경기도 양주시 덕계동 420-10번지 4층","indutype":"의원 - 의원","category":"medical"}]},{"lat":"37.818422988","long":"127.04623235","imageIndex":8,"items":[{"name":"미소약국","tel":"031-858-7227","addr":"경기도 양주시 덕계동 421-2번지","indutype":"약국 - 약국","category":"medical"}]},{"lat":"37.818585116","long":"127.04634601","imageIndex":8,"items":[{"name":"손정문비뇨기과","tel":"031-861-1488","addr":"경기도 양주시 덕계동 421-15","indutype":"의원 - 의원","category":"medical"}]},{"lat":"37.819863989","long":"127.04759608","imageIndex":8,"items":[{"name":"윤홍식정형외과","tel":"031-863-8275","addr":"경기도 양주시 덕계동 456-1번지","indutype":"의원 - 의원","category":"medical"},{"name":"윤홍식정형외과","tel":"031-866-8275","addr":"경기도 양주시 덕계동 456-1번지","indutype":"의원 - 의원","category":"medical"}]},{"lat":"37.817008788","long":"127.04545925","imageIndex":8,"items":[{"name":"이화산부인과의원","tel":"031-865-1230","addr":"경기도 양주시 덕계동 697-4번지","indutype":"의원 - 의원","category":"medical"}]},{"lat":"37.819116906","long":"127.04571032","imageIndex":8,"items":[{"name":"장원규내과의원","tel":"031-861-7583","addr":"경기도 양주시 덕계동 681-1번지 정산빌딩 201호","indutype":"의원 - 의원","category":"medical"},{"name":"희망약국","tel":"031-868-3678","addr":"경기도 양주시 덕계동 681-1번지","indutype":"약국 - 약국","category":"medical"}]}]