[{"lat":"37.491404163","long":"126.79035753","imageIndex":17,"items":[{"name":"(KDB)스터디카페","tel":"","addr":"경기도 부천시 원미동 115-3번지 4층","indutype":"용역 서비스 - 사무서비스","category":"other"},{"name":"올망똘망스튜디오","tel":"032-656-4369","addr":"경기도 부천시 원미동 115-3번지 송림빌딩 1층","indutype":"광학제품 - 사진관","category":"other"}]},{"lat":"37.496063631","long":"126.79110198","imageIndex":17,"items":[{"name":"(WWW)은","tel":"","addr":"경기도 부천시 원미동 54-3번지 1층 2호","indutype":"신변잡화 - 가방","category":"other"}]},{"lat":"37.500286188","long":"126.78938242","imageIndex":17,"items":[{"name":"(주) 씨엘시스템즈","tel":"070-4906-3801","addr":"경기도 부천시 원미동 41-2번지 춘의테크노파크3차 710호","indutype":"사무통신 - 통신기기","category":"other"},{"name":"(주)나노컴텍닥터큐","tel":"02-2694-0006","addr":"경기도 부천시 원미동 41-2번지 춘의테크노타워 206호","indutype":"전기제품 - 기타전기제품","category":"other"},{"name":"(주)미디어밸리","tel":"031-1111-1111","addr":"경기도 부천시 원미동 41-2번지 춘의테크노파크3차 1011호","indutype":"전기제품 - 가전제품","category":"other"},{"name":"(주)세이프티랩","tel":"070-4412-9282","addr":"경기도 부천시 원미동 41-2번지 춘의테크노파크3차 910호","indutype":"수리서비스 - 사무·통신기기수리","category":"other"},{"name":"(주)정석이엔씨/원격지","tel":"032-655-3323","addr":"경기도 부천시 원미동 41-2번지 춘의테크노파크 312호","indutype":"기타 - 기타 전문점","category":"other"},{"name":"멕메신코리아","tel":"032-719-7866","addr":"경기도 부천시 원미동 41-2번지 춘의테크노파크 1동 9층 902호","indutype":"서적문구 - 과학기자재","category":"other"},{"name":"사단법인 한국접착코팅협회","tel":"032-656-2585","addr":"경기도 부천시 원미동 41-2번지 춘의테크노타워 12층 1206호","indutype":"용역 서비스 - 사무서비스","category":"other"},{"name":"에프와이피그룹","tel":"02-1577-8681","addr":"경기도 부천시 원미동 41-2번지 춘의테크노타워 13층 1305호 일부","indutype":"사무통신 - 통신기기","category":"other"},{"name":"유니솔루션","tel":"","addr":"경기도 부천시 원미동 41-2번지 춘의테크노타워 908호","indutype":"사무통신 - 컴퓨터","category":"other"},{"name":"이마트24춘의테크노타워점","tel":"","addr":"경기도 부천시 원미동 41-2번지 춘의테크노타워 102호","indutype":"유통업 영리 - 편 의 점","category":"other"},{"name":"이플렉스","tel":"032-329-2536","addr":"경기도 부천시 원미동 41-2번지 춘의테크노타워 1304호","indutype":"서적문구 - 과학기자재","category":"other"},{"name":"크래들랩","tel":"02-521-9840","addr":"경기도 부천시 원미동 41-2번지 춘의테크노타워 506호","indutype":"회원제형태 - 기타1","category":"other"}]},{"lat":"37.499508509","long":"126.78782403","imageIndex":17,"items":[{"name":"(주)모바일페이","tel":"070-8709-8710","addr":"경기도 부천시 원미동 46-13번지 오토마빌딩 3층","indutype":"여행 - 관광여행","category":"other"}]},{"lat":"37.497735371","long":"126.78882426","imageIndex":17,"items":[{"name":"(주)비케이코리아","tel":"032-581-3466","addr":"경기도 부천시 원미동 44-8번지 피더스카풀링 3층 302호","indutype":"용역 서비스 - 사무서비스","category":"other"},{"name":"(주)엔픽","tel":"1661-6773-0000","addr":"경기도 부천시 원미동 44-8번지","indutype":"용역 서비스 - 사무서비스","category":"other"}]},{"lat":"37.497342728","long":"126.78596436","imageIndex":17,"items":[{"name":"(주)엘앤씨투어","tel":"032-326-0356","addr":"경기도 부천시 원미동 72-13번지 비1호","indutype":"용역 서비스 - 종합용역","category":"other"},{"name":"송월타올노블레스","tel":"032-664-5252","addr":"경기도 부천시 원미동 72-13번지","indutype":"직물 - 기타직물","category":"other"}]},{"lat":"37.499432045","long":"126.79038002","imageIndex":17,"items":[{"name":"(주)정석엔지니어링","tel":"032-613-5636","addr":"경기도 부천시 원미동 31-2번지 1층","indutype":"서적문구 - 과학기자재","category":"other"}]},{"lat":"37.495423978","long":"126.78616215","imageIndex":17,"items":[{"name":"(주)제이에스페이","tel":"070-7376-2244","addr":"경기도 부천시 원미동 90-3번지 종만빌딩 202호","indutype":"용역 서비스 - 정보서비스","category":"other"},{"name":"3J Trading(3제이트레이딩)","tel":"032-205-3371","addr":"경기도 부천시 원미동 90-3번지 THE EL 203호","indutype":"전기제품 - 가전제품","category":"other"}]},{"lat":"37.499318786","long":"126.78754186","imageIndex":17,"items":[{"name":"(주)코스모테크놀리지","tel":"032-613-1538","addr":"경기도 부천시 원미동 46-10번지 2층","indutype":"전기제품 - 냉열기기","category":"other"}]},{"lat":"37.490841933","long":"126.78835771","imageIndex":17,"items":[{"name":"-FORM","tel":"032-673-4077","addr":"경기도 부천시 원미동 174-1번지","indutype":"의류 - 정장","category":"other"}]},{"lat":"37.496928539","long":"126.79107692","imageIndex":17,"items":[{"name":"24시 출장열쇠(네트워크)","tel":"032-505-7865","addr":"경기도 부천시 원미동 55-10번지 1층 일부","indutype":"건축자재 - 목재·석재·철물","category":"other"},{"name":"유진레포츠","tel":"032-665-1992","addr":"경기도 부천시 원미동 55-10번지","indutype":"의류 - 정장","category":"other"}]},{"lat":"37.492788478","long":"126.7885783","imageIndex":17,"items":[{"name":"365빈티지","tel":"070-8869-2694","addr":"경기도 부천시 원미동 122-1번지","indutype":"의류 - 기타의류","category":"other"},{"name":"아이난다","tel":"070-8780-2150","addr":"경기도 부천시 원미동 122-1번지","indutype":"의류 - 정장","category":"other"}]},{"lat":"37.495677683","long":"126.78694167","imageIndex":17,"items":[{"name":"4BD","tel":"070-7847-5222","addr":"경기도 부천시 원미동 87-2번지 부천만화창작스튜디오 311호","indutype":"서적문구 - 일반서적","category":"other"},{"name":"디지커쳐","tel":"032-611-4169","addr":"경기도 부천시 원미동 87-2번지 부천만화창작스튜디오 215호","indutype":"용역 서비스 - 종합용역","category":"other"},{"name":"아름다운디자인","tel":"032-665-1322","addr":"경기도 부천시 원미동 87-2번지 벤처창업보육센터 206호","indutype":"서적문구 - 완구점","category":"other"},{"name":"아이큐브","tel":"000-0000-0000","addr":"경기도 부천시 원미동 87-2번지 부천만화산업종합지원센타 212호","indutype":"용역 서비스 - 종합용역","category":"other"},{"name":"팡팡기획","tel":"","addr":"경기도 부천시 원미동 87-2번지 부천만화산업종합지원센터","indutype":"용역 서비스 - 종합용역","category":"other"}]},{"lat":"37.496596852","long":"126.79201644","imageIndex":17,"items":[{"name":"AKF 챔프","tel":"","addr":"경기도 부천시 원미동 50-4번지","indutype":"레져용품 - 스포츠·레져용품","category":"other"}]},{"lat":"37.496926934","long":"126.79018356","imageIndex":17,"items":[{"name":"A플러스","tel":"032-620-5531","addr":"경기도 부천시 원미동 56-3번지","indutype":"기타 - 기계공구","category":"other"}]},{"lat":"37.492841531","long":"126.78802407","imageIndex":17,"items":[{"name":"Boho","tel":"032-667-2967","addr":"경기도 부천시 원미동 122-7번지 서해골든빌라 101호","indutype":"의류 - 정장","category":"other"}]},{"lat":"37.495008969","long":"126.79082225","imageIndex":17,"items":[{"name":"D.C백화점","tel":"032-667-0426","addr":"경기도 부천시 원미동 77-6번지","indutype":"주방용구 - 주방용식기","category":"other"}]},{"lat":"37.492818755","long":"126.79037614","imageIndex":17,"items":[{"name":"DC클럽","tel":"032-613-9284","addr":"경기도 부천시 원미동 96-7번지","indutype":"신변잡화 - 기타잡화","category":"other"}]},{"lat":"37.49189987","long":"126.78549388","imageIndex":17,"items":[{"name":"GS25부천심곡행복","tel":"","addr":"경기도 부천시 원미동 138-1번지 1층","indutype":"유통업 영리 - 편 의 점","category":"other"}]},{"lat":"37.494927563","long":"126.78568864","imageIndex":17,"items":[{"name":"GS25부천원미샛별점","tel":"","addr":"경기도 부천시 원미동 110-1번지 3~4호","indutype":"유통업 영리 - 편 의 점","category":"other"},{"name":"양지설비","tel":"032-661-9983","addr":"경기도 부천시 원미동 110-1번지 1층 2호","indutype":"용역 서비스 - 기타용역서비스","category":"other"},{"name":"철물마트","tel":"032-271-9983","addr":"경기도 부천시 원미동 110-1번지","indutype":"건축자재 - 목재·석재·철물","category":"other"}]},{"lat":"37.493424021","long":"126.79126774","imageIndex":17,"items":[{"name":"GS25부천원미점","tel":"","addr":"경기도 부천시 원미동 94-3번지 신영빌딩 1층","indutype":"유통업 영리 - 편 의 점","category":"other"}]},{"lat":"37.497119829","long":"126.79224114","imageIndex":17,"items":[{"name":"GS25부천조마루점","tel":"","addr":"경기도 부천시 원미동 2-5번지 1층","indutype":"유통업 영리 - 편 의 점","category":"other"}]},{"lat":"37.48865327","long":"126.78877103","imageIndex":17,"items":[{"name":"GS25원미늘푸른점","tel":"","addr":"경기도 부천시 원미동 199-18번지 1층","indutype":"유통업 영리 - 편 의 점","category":"other"}]},{"lat":"37.497040092","long":"126.78798943","imageIndex":17,"items":[{"name":"GS25원미중앙점","tel":"","addr":"경기도 부천시 원미동 62-30번지 1층","indutype":"유통업 영리 - 편 의 점","category":"other"}]},{"lat":"37.494625119","long":"126.79282485","imageIndex":17,"items":[{"name":"GS25원미한우리점","tel":"","addr":"경기도 부천시 원미동 166-6번지 1층","indutype":"유통업 영리 - 편 의 점","category":"other"}]},{"lat":"37.496403811","long":"126.78987973","imageIndex":17,"items":[{"name":"ITEC아이텍","tel":"032-662-8838","addr":"경기도 부천시 원미동 58-1번지 대화파크아파트","indutype":"회원제형태 - 기타3","category":"other"},{"name":"고려인삼","tel":"070-8135-4078","addr":"경기도 부천시 원미동 58-1번지 대화파크아파트","indutype":"회원제형태 - 기타4","category":"other"}]},{"lat":"37.4964038109","long":"126.7898797256","imageIndex":17,"items":[{"name":"IT신도","tel":"032-657-4447","addr":"경기도 부천시 원미동 58-1번지","indutype":"사무통신 - 사무용 OA기기","category":"other"}]},{"lat":"37.489842882","long":"126.78893724","imageIndex":17,"items":[{"name":"LEE PHOTO(이포토)","tel":"032-219-7800","addr":"경기도 부천시 원미동 194-2번지","indutype":"의류 - 정장","category":"other"}]},{"lat":"37.49737432","long":"126.78846342","imageIndex":17,"items":[{"name":"PC프라자","tel":"032-208-6567","addr":"경기도 부천시 원미동 61-1번지 1층","indutype":"사무통신 - 컴퓨터","category":"other"}]},{"lat":"37.4937305590","long":"126.7913799517","imageIndex":17,"items":[{"name":"RGO","tel":"0032-0256-8500","addr":"경기도 부천시 원미동 94-6번지 명서프라자 103호","indutype":"별도관리 - 자체물품대금","category":"other"}]},{"lat":"37.493873277","long":"126.79057669","imageIndex":17,"items":[{"name":"SK신발마트","tel":"032-652-5000","addr":"경기도 부천시 원미동 96-2번지 1층","indutype":"신변잡화 - 신발","category":"other"},{"name":"원미숙녀복","tel":"032-664-9708","addr":"경기도 부천시 원미동 96-2번지","indutype":"의류 - 정장","category":"other"}]},{"lat":"37.495181756","long":"126.7917151","imageIndex":17,"items":[{"name":"SM정보통신(원미점)","tel":"032-656-5655","addr":"경기도 부천시 원미동 76-1번지 우측일부분 1층","indutype":"사무통신 - 통신기기","category":"other"}]},{"lat":"37.494924434","long":"126.78891144","imageIndex":17,"items":[{"name":"SM홍보기획","tel":"070-8778-8560","addr":"경기도 부천시 원미동 85-27번지 2층 우측","indutype":"유통업 영리 - 기타유통업","category":"other"}]},{"lat":"37.491956521","long":"126.78690716","imageIndex":17,"items":[{"name":"가구나라","tel":"032-653-4384","addr":"경기도 부천시 원미동 128-3번지","indutype":"가구 - 일반가구","category":"other"},{"name":"신라보석","tel":"032-613-7785","addr":"경기도 부천시 원미동 128-3번지 17,18호","indutype":"신변잡화 - 액세서리","category":"other"},{"name":"엠투(M2)의류","tel":"033-111-1111","addr":"경기도 부천시 원미동 128-3번지 1층 25,26호","indutype":"의류 - 정장","category":"other"}]},{"lat":"37.497595108","long":"126.78602017","imageIndex":17,"items":[{"name":"가나열쇠","tel":"032-665-1616","addr":"경기도 부천시 원미동 72-3번지","indutype":"수리서비스 - 기타수리서비스","category":"other"},{"name":"시원모바일","tel":"032-654-9010","addr":"경기도 부천시 원미동 72-3번지 1층 일부","indutype":"사무통신 - 통신기기","category":"other"},{"name":"아이펀","tel":"032-613-7524","addr":"경기도 부천시 원미동 72-3번지 제1호1층","indutype":"레져용품 - 스포츠·레져용품","category":"other"},{"name":"여성의류","tel":"","addr":"경기도 부천시 원미동 72-3번지 1층 일부","indutype":"의류 - 정장","category":"other"}]},{"lat":"37.492675856","long":"126.79107762","imageIndex":17,"items":[{"name":"강원간판","tel":"032-662-5217","addr":"경기도 부천시 원미동 94-4번지 1층 3호","indutype":"건축자재 - 인테리어전문","category":"other"}]},{"lat":"37.487203476","long":"126.78921613","imageIndex":17,"items":[{"name":"개린이 유치원","tel":"","addr":"경기도 부천시 원미동 204-89번지 1층","indutype":"문화.취미 - 애완동물","category":"other"}]},{"lat":"37.490952304","long":"126.78960121","imageIndex":17,"items":[{"name":"개편한세상","tel":"070-7695-1867","addr":"경기도 부천시 원미동 172-31번지 1층","indutype":"문화.취미 - 애완동물","category":"other"}]},{"lat":"37.495954688","long":"126.78568567","imageIndex":17,"items":[{"name":"갤러리","tel":"032-611-0355","addr":"경기도 부천시 원미동 92-1번지","indutype":"회원제형태 - 기타4","category":"other"},{"name":"대웅세무회계사무소","tel":"032-667-6100","addr":"경기도 부천시 원미동 92-1번지 2층","indutype":"용역 서비스 - 법률회계서비스(개인)","category":"other"},{"name":"수도환경","tel":"032-671-7086","addr":"경기도 부천시 원미동 92-1번지 서부빌딩 4층 403호","indutype":"용역 서비스 - 기타용역서비스","category":"other"},{"name":"한솔건축사무소","tel":"032-652-9328","addr":"경기도 부천시 원미동 92-1번지","indutype":"용역 서비스 - 사무서비스","category":"other"}]},{"lat":"37.498760936","long":"126.78796188","imageIndex":17,"items":[{"name":"거산","tel":"032-684-9929","addr":"경기도 부천시 원미동 47-14번지 1층","indutype":"용역 서비스 - 기타용역서비스","category":"other"}]},{"lat":"37.495702765","long":"126.78587864","imageIndex":17,"items":[{"name":"건축사사무소 아이엔지","tel":"032-227-5652","addr":"경기도 부천시 원미동 91-2번지 1층","indutype":"용역 서비스 - 사무서비스","category":"other"}]},{"lat":"37.491016534","long":"126.79024555","imageIndex":17,"items":[{"name":"게임나라&제이소프트","tel":"032-321-7182","addr":"경기도 부천시 원미동 181-18번지 302호","indutype":"사무통신 - 통신기기","category":"other"}]},{"lat":"37.497062834","long":"126.79060159","imageIndex":17,"items":[{"name":"경기공구","tel":"032-652-7481","addr":"경기도 부천시 원미동 55-6번지 1호","indutype":"기타 - 기계공구","category":"other"}]},{"lat":"37.493730559","long":"126.79137995","imageIndex":17,"items":[{"name":"경기열쇠상사","tel":"032-613-1304","addr":"경기도 부천시 원미동 94-5번지 명성프라자 104호","indutype":"기타 - 기계공구","category":"other"},{"name":"하나애견","tel":"032-657-8880","addr":"경기도 부천시 원미동 94-5번지","indutype":"문화.취미 - 애완동물","category":"other"}]},{"lat":"37.489512819","long":"126.79076995","imageIndex":17,"items":[{"name":"경원종합냉열","tel":"032-613-4158","addr":"경기도 부천시 원미동 189-170번지 청구빌라 1층 101호","indutype":"전기제품 - 냉열기기","category":"other"},{"name":"부천냉동설비","tel":"070-0000-0000","addr":"경기도 부천시 원미동 189-170번지 청구그린빌 402호","indutype":"용역 서비스 - 기타용역서비스","category":"other"}]},{"lat":"37.49684745","long":"126.79107715","imageIndex":17,"items":[{"name":"고전의상실","tel":"032-612-3410","addr":"경기도 부천시 원미동 55-2번지 삼성빌라","indutype":"의류 - 맞춤복점","category":"other"}]},{"lat":"37.493179834","long":"126.78579548","imageIndex":17,"items":[{"name":"공간건축인테리어","tel":"032-663-3311","addr":"경기도 부천시 원미동 130-2번지 성원빌딩 1층","indutype":"건축자재 - 인테리어전문","category":"other"}]},{"lat":"37.496234659","long":"126.78604672","imageIndex":17,"items":[{"name":"교보문화","tel":"032-663-8100","addr":"경기도 부천시 원미동 74-4번지","indutype":"서적문구 - 출판 및 인쇄물","category":"other"},{"name":"신진인재사","tel":"032-657-1010","addr":"경기도 부천시 원미동 74-4번지","indutype":"기타 - 기타 전문점","category":"other"},{"name":"제일문구","tel":"032-611-3927","addr":"경기도 부천시 원미동 74-4번지","indutype":"서적문구 - 출판 및 인쇄물","category":"other"}]},{"lat":"37.495821117","long":"126.78654548","imageIndex":17,"items":[{"name":"국제로타리3690지구,나눔로","tel":"032-668-4195","addr":"경기도 부천시 원미동 88-1번지","indutype":"기타 - 비영리/대상","category":"other"},{"name":"국제로타리3690지구부천중앙","tel":"032-653-8199","addr":"경기도 부천시 원미동 88-1번지","indutype":"기타 - 비영리/대상","category":"other"},{"name":"제이건축사사무소","tel":"070-7847-9971","addr":"경기도 부천시 원미동 88-1번지 부영빌딩 5층-나","indutype":"용역 서비스 - 사무서비스","category":"other"}]},{"lat":"37.491845353","long":"126.78524527","imageIndex":17,"items":[{"name":"국제소상공인회","tel":"","addr":"경기도 부천시 원미동 139-1번지","indutype":"문화.취미 - 티켓","category":"other"}]},{"lat":"37.492903185","long":"126.79224167","imageIndex":17,"items":[{"name":"귀뚜라미보일러 경기광주홈시스","tel":"031-768-9009","addr":"경기도 부천시 원미동 177-188번지 1층","indutype":"수리서비스 - 기타수리서비스","category":"other"}]},{"lat":"37.494066306","long":"126.79271334","imageIndex":17,"items":[{"name":"그랜드슬램","tel":"070-8806-4221","addr":"경기도 부천시 원미동 166-39번지","indutype":"서적문구 - 기타서적문구","category":"other"}]},{"lat":"37.489234404","long":"126.79126825","imageIndex":17,"items":[{"name":"금강세탁소","tel":"032-654-9504","addr":"경기도 부천시 원미동 189-42번지","indutype":"수리서비스 - 세탁소","category":"other"}]},{"lat":"37.494179206","long":"126.79034967","imageIndex":17,"items":[{"name":"금석","tel":"032-656-1084","addr":"경기도 부천시 원미동 97-1번지 경원빌딩 1층 7호","indutype":"신변잡화 - 귀금속","category":"other"}]},{"lat":"37.496756879","long":"126.78585297","imageIndex":17,"items":[{"name":"금성문화사","tel":"032-612-8008","addr":"경기도 부천시 원미동 74-1번지","indutype":"서적문구 - 문구용품","category":"other"},{"name":"인광사","tel":"032-668-8278","addr":"경기도 부천시 원미동 74-1번지 1층","indutype":"용역 서비스 - 종합용역","category":"other"}]},{"lat":"37.4907642578","long":"126.7902462695","imageIndex":17,"items":[{"name":"금성원미대리점","tel":"032-62-6332","addr":"경기도 부천시 원미동 181-8번지 6통5반","indutype":"전기제품 - 가전제품","category":"other"}]},{"lat":"37.49037728","long":"126.79049613","imageIndex":17,"items":[{"name":"기브썸미","tel":"032-665-8807","addr":"경기도 부천시 원미동 190-18번지","indutype":"의류 - 정장","category":"other"}]},{"lat":"37.495288103","long":"126.78576676","imageIndex":17,"items":[{"name":"기산정밀","tel":"032-611-6585","addr":"경기도 부천시 원미동 91-5번지 2층","indutype":"광학제품 - 카메라","category":"other"}]},{"lat":"37.490709384","long":"126.78979413","imageIndex":17,"items":[{"name":"까미","tel":"032-657-9283","addr":"경기도 부천시 원미동 181-13번지","indutype":"의류 - 정장","category":"other"}]},{"lat":"37.493098122","long":"126.79040927","imageIndex":17,"items":[{"name":"꼬락","tel":"","addr":"경기도 부천시 원미동 96-6번지 1층","indutype":"의류 - 기타의류","category":"other"},{"name":"지누사","tel":"070-8667-6486","addr":"경기도 부천시 원미동 96-6번지 1층","indutype":"신변잡화 - 액세서리","category":"other"}]},{"lat":"37.495207835","long":"126.79118355","imageIndex":17,"items":[{"name":"꼬비랑","tel":"","addr":"경기도 부천시 원미동 77-1번지 플로채 301호","indutype":"신변잡화 - 기타잡화","category":"other"},{"name":"더스타일","tel":"070-7593-1588","addr":"경기도 부천시 원미동 77-1번지 플로채 102호","indutype":"의류 - 정장","category":"other"}]},{"lat":"37.494431354","long":"126.78532823","imageIndex":17,"items":[{"name":"꽃피는날","tel":"032-651-7246","addr":"경기도 부천시 원미동 111-8번지 한마음 상가 103호","indutype":"문화.취미 - 화원","category":"other"},{"name":"부흥체육사","tel":"032-662-5665","addr":"경기도 부천시 원미동 111-8번지 삼성한마음아파트","indutype":"레져용품 - 스포츠·레져용품","category":"other"}]},{"lat":"37.49698457","long":"126.78718669","imageIndex":17,"items":[{"name":"나래에어컨","tel":"032-654-2324","addr":"경기도 부천시 원미동 69-1번지","indutype":"수리서비스 - 가정용품수리","category":"other"}]},{"lat":"37.492982334","long":"126.79115591","imageIndex":17,"items":[{"name":"나무와 디자인","tel":"032-655-5448","addr":"경기도 부천시 원미동 94-12번지 영광빌딩","indutype":"문화.취미 - 문화취미기타","category":"other"}]},{"lat":"37.492397613","long":"126.78669104","imageIndex":17,"items":[{"name":"나무와공간","tel":"032-654-1243","addr":"경기도 부천시 원미동 132-1번지 지하","indutype":"가구 - 일반가구","category":"other"}]},{"lat":"37.49850741","long":"126.79227116","imageIndex":17,"items":[{"name":"남부천로타리클럽","tel":"032-652-6940","addr":"경기도 부천시 원미동 6-6번지 청화빌딩 3층","indutype":"기타 - 비영리/대상","category":"other"}]},{"lat":"37.48912295","long":"126.78941419","imageIndex":17,"items":[{"name":"낫드이래무역상사","tel":"02-2689-1215","addr":"경기도 부천시 원미동 193-12번지","indutype":"레져용품 - 스포츠·레져용품","category":"other"}]},{"lat":"37.492794017","long":"126.79165398","imageIndex":17,"items":[{"name":"냉난방기설치전문점","tel":"070-4069-6335","addr":"경기도 부천시 원미동 178-6번지","indutype":"용역 서비스 - 기타용역서비스","category":"other"}]},{"lat":"37.488484431","long":"126.79007182","imageIndex":17,"items":[{"name":"놀자기획","tel":"","addr":"경기도 부천시 원미동 191-7번지 지하 예림교회","indutype":"용역 서비스 - 종합용역","category":"other"},{"name":"순이네 구제","tel":"031-111-1111","addr":"경기도 부천시 원미동 191-7번지 1층 일부","indutype":"의류 - 기타의류","category":"other"}]},{"lat":"37.493486066","long":"126.78573805","imageIndex":17,"items":[{"name":"뉴부천현대컴퓨터","tel":"032-666-1471","addr":"경기도 부천시 원미동 109-19번지 시민연립 가동 1층 103호","indutype":"사무통신 - 컴퓨터","category":"other"},{"name":"제일잉크뱅크","tel":"032-655-0023","addr":"경기도 부천시 원미동 109-19번지 시민연립 가동 103호","indutype":"사무통신 - 기타 사무용품","category":"other"},{"name":"현애드컴","tel":"032-613-0083","addr":"경기도 부천시 원미동 109-19 지층 가-101","indutype":"용역 서비스 - 종합용역","category":"other"}]},{"lat":"37.491013223","long":"126.78841376","imageIndex":17,"items":[{"name":"다모아 불교용품백화점","tel":"070-5205-8168","addr":"경기도 부천시 원미동 172-1번지 1층","indutype":"신변잡화 - 기념품점","category":"other"}]},{"lat":"37.49331631","long":"126.78651878","imageIndex":17,"items":[{"name":"다솔장식","tel":"032-665-1425","addr":"경기도 부천시 원미동 109-22번지","indutype":"직물 - 카페트,커튼,천막,지물","category":"other"}]},{"lat":"37.496960276","long":"126.78869077","imageIndex":17,"items":[{"name":"다야 (DAYA)","tel":"031-000-0000","addr":"경기도 부천시 원미동 62-5번지 2층","indutype":"의류 - 맞춤복점","category":"other"}]},{"lat":"37.488817308","long":"126.7897995","imageIndex":17,"items":[{"name":"다온","tel":"","addr":"경기도 부천시 원미동 193-20번지 1층","indutype":"의류 - 정장","category":"other"}]},{"lat":"37.48996604","long":"126.78729734","imageIndex":17,"items":[{"name":"다올통신","tel":"070-8970-4016","addr":"경기도 부천시 원미동 168-20번지 대훈탑스빌 3동 1층 102호","indutype":"사무통신 - 통신기기","category":"other"}]},{"lat":"37.491537558","long":"126.78938471","imageIndex":17,"items":[{"name":"다울","tel":"032-1111-1111","addr":"경기도 부천시 원미동 120-6번지","indutype":"의류 - 정장","category":"other"},{"name":"마카리오스","tel":"032-2632-5236","addr":"경기도 부천시 원미동 120-6번지","indutype":"신변잡화 - 액세서리","category":"other"},{"name":"명석당","tel":"032-665-6775","addr":"경기도 부천시 원미동 120-6번지","indutype":"신변잡화 - 귀금속","category":"other"},{"name":"오시날개","tel":"032-661-5708","addr":"경기도 부천시 원미동 120-6번지","indutype":"의류 - 정장","category":"other"}]},{"lat":"37.491321157","long":"126.78929486","imageIndex":17,"items":[{"name":"다이소부천부흥시장점","tel":"032-663-8370","addr":"경기도 부천시 원미동 172-23번지","indutype":"신변잡화 - 기타잡화","category":"other"}]},{"lat":"37.492788026","long":"126.78832953","imageIndex":17,"items":[{"name":"대건모피","tel":"032-656-9707","addr":"경기도 부천시 원미동 122-4번지","indutype":"의류 - 기타의류","category":"other"},{"name":"대박양말","tel":"02-1111-1111","addr":"경기도 부천시 원미동 122-4번지 1층","indutype":"의류 - 기타의류","category":"other"}]},{"lat":"37.496234098","long":"126.7857414","imageIndex":17,"items":[{"name":"대경공조","tel":"032-666-2396","addr":"경기도 부천시 원미동 74-3번지","indutype":"전기제품 - 냉열기기","category":"other"},{"name":"대경공조","tel":"032-666-2398","addr":"경기도 부천시 원미동 74-3번지","indutype":"전기제품 - 냉열기기","category":"other"},{"name":"송월타올","tel":"032-663-2001","addr":"경기도 부천시 원미동 74-3지하1층","indutype":"직물 - 기타직물","category":"other"}]},{"lat":"37.499230518","long":"126.78854858","imageIndex":17,"items":[{"name":"대경케미칼","tel":"032-656-7811","addr":"경기도 부천시 원미동 45-2번지","indutype":"서적문구 - 과학기자재","category":"other"},{"name":"주식회사 이엔엠컴퍼니","tel":"032-1600-8326","addr":"경기도 부천시 원미동 45-2번지 B01호","indutype":"건축자재 - 기타건축자재","category":"other"}]},{"lat":"37.49165393","long":"126.788966","imageIndex":17,"items":[{"name":"대광정보통신","tel":"032-207-6211","addr":"경기도 부천시 원미동 121-7번지 반도연립 1동 106호","indutype":"사무통신 - 통신기기","category":"other"}]},{"lat":"37.491817701","long":"126.78984752","imageIndex":17,"items":[{"name":"대도숙녀복","tel":"032-613-8523","addr":"경기도 부천시 원미동 119-6번지","indutype":"의류 - 정장","category":"other"}]},{"lat":"37.493738301","long":"126.7857147","imageIndex":17,"items":[{"name":"대명공인중개사사무소","tel":"032-664-0678","addr":"경기도 부천시 원미동 108-7번지","indutype":"용역 서비스 - 부동산 중개·임대","category":"other"}]},{"lat":"37.493431732","long":"126.79054402","imageIndex":17,"items":[{"name":"대성D.C마트","tel":"032-611-5559","addr":"경기도 부천시 원미동 96-4번지","indutype":"신변잡화 - 기타잡화","category":"other"}]},{"lat":"37.497071255","long":"126.79027362","imageIndex":17,"items":[{"name":"대성철물공구","tel":"032-651-4765","addr":"경기도 부천시 원미동 56-1번지","indutype":"기타 - 기계공구","category":"other"},{"name":"토너셀","tel":"032-667-3885","addr":"경기도 부천시 원미동 56-1번지","indutype":"사무통신 - 기타 사무용품","category":"other"}]},{"lat":"37.493037314","long":"126.7866892","imageIndex":17,"items":[{"name":"대영상사","tel":"032-652-8652","addr":"경기도 부천시 원미동 129-23번지","indutype":"전기제품 - 냉열기기","category":"other"}]},{"lat":"37.491953054","long":"126.7850188","imageIndex":17,"items":[{"name":"대운통신","tel":"032-656-4213","addr":"경기도 부천시 원미동 137-1번지 103호","indutype":"사무통신 - 통신기기","category":"other"}]},{"lat":"37.490730267","long":"126.78641316","imageIndex":17,"items":[{"name":"대한불교법륜조계종용신사","tel":"032-207-7787","addr":"경기도 부천시 원미동 150-1번지 장미연립 9동 4호","indutype":"기타 - 비영리/대상","category":"other"},{"name":"이룸전자","tel":"","addr":"경기도 부천시 원미동 150-1번지 장미연립 7동 104호","indutype":"수리서비스 - 가정용품수리","category":"other"}]},{"lat":"37.488900897","long":"126.79119004","imageIndex":17,"items":[{"name":"더라인미디어","tel":"032-653-1119","addr":"경기도 부천시 원미동 189-44번지 대원칸타빌 301호","indutype":"회원제형태 - 기타4","category":"other"}]},{"lat":"37.491679606","long":"126.78821963","imageIndex":17,"items":[{"name":"더존모바일","tel":"","addr":"경기도 부천시 원미동 126-11번지 1층 일부","indutype":"사무통신 - 통신기기","category":"other"},{"name":"메리야스할인매장","tel":"032-666-0232","addr":"경기도 부천시 원미동 126-11번지 1층","indutype":"의류 - 내의판매","category":"other"}]},{"lat":"37.490091683","long":"126.7870256","imageIndex":17,"items":[{"name":"덕수설비","tel":"032-654-2990","addr":"경기도 부천시 원미동 168-3번지 대훈탑스빌","indutype":"건축자재 - 보일러·펌프·샷시","category":"other"}]},{"lat":"37.492343685","long":"126.79174571","imageIndex":17,"items":[{"name":"도연애견샵","tel":"032-662-7771","addr":"경기도 부천시 원미동 184-91번지","indutype":"문화.취미 - 애완동물","category":"other"}]},{"lat":"37.491873048","long":"126.78560703","imageIndex":17,"items":[{"name":"동대문의류","tel":"032-655-8903","addr":"경기도 부천시 원미동 138-2번지","indutype":"의류 - 정장","category":"other"},{"name":"루디아아름다운집만들기","tel":"032-656-8513","addr":"경기도 부천시 원미동 138-2번지","indutype":"직물 - 침구·수예점","category":"other"},{"name":"복된 주얼리","tel":"032-684-8050","addr":"경기도 부천시 원미동 138-2번지 1층","indutype":"신변잡화 - 시계","category":"other"}]},{"lat":"37.491313957","long":"126.78534858","imageIndex":17,"items":[{"name":"동림OA상사","tel":"032-662-8537","addr":"경기도 부천시 원미동 140-17번지","indutype":"사무통신 - 사무용 OA기기","category":"other"},{"name":"바이오테크(푸드엠)","tel":"032-328-2989","addr":"경기도 부천시 원미동 140-17번지","indutype":"주방용구 - 주방용구","category":"other"}]},{"lat":"37.493485359","long":"126.78535359","imageIndex":17,"items":[{"name":"동산재가복지센터","tel":"032-665-8733","addr":"경기도 부천시 원미동 110-10번지 3층","indutype":"기타의료기관 - 기타의료기관 및 기타","category":"other"}]},{"lat":"37.492592571","long":"126.78985663","imageIndex":17,"items":[{"name":"동서가구","tel":"032-656-8978","addr":"경기도 부천시 원미동 117-7번지","indutype":"가구 - 일반가구","category":"other"},{"name":"옥보석","tel":"032-654-6766","addr":"경기도 부천시 원미동 117-7번지","indutype":"신변잡화 - 시계","category":"other"}]},{"lat":"37.48778967","long":"126.78951975","imageIndex":17,"items":[{"name":"동아일보도당원총지국","tel":"032-681-0548","addr":"경기도 부천시 원미동 204-121번지 1층","indutype":"서적문구 - 정기간행물","category":"other"}]},{"lat":"37.493286621","long":"126.78507147","imageIndex":17,"items":[{"name":"동양사","tel":"032-651-1223","addr":"경기도 부천시 원미동 134-2번지","indutype":"신변잡화 - 귀금속","category":"other"},{"name":"부천토방","tel":"032-663-3340","addr":"경기도 부천시 원미동 134-2번지 3층","indutype":"문화.취미 - 문화취미기타","category":"other"},{"name":"삼성전자판매장","tel":"032-651-8789","addr":"경기도 부천시 원미동 134-2번지","indutype":"전기제품 - 가전제품","category":"other"}]},{"lat":"37.500041059","long":"126.79337512","imageIndex":17,"items":[{"name":"동양정보넷","tel":"032-663-3332","addr":"경기도 부천시 원미동 1-2번지 나흥빌딩 4층","indutype":"사무통신 - 컴퓨터","category":"other"},{"name":"주간부천신문","tel":"032-667-0071","addr":"경기도 부천시 원미동 1-2번지","indutype":"서적문구 - 출판 및 인쇄물","category":"other"},{"name":"한국사회교육원제231000지부","tel":"032-612-2064","addr":"경기도 부천시 원미동 1-2번지","indutype":"기타 - 비영리/대상","category":"other"}]},{"lat":"37.500506774","long":"126.79180189","imageIndex":17,"items":[{"name":"동우정밀","tel":"032-662-0614","addr":"경기도 부천시 원미동 9-9번지 1층","indutype":"기타 - 기계공구","category":"other"}]},{"lat":"37.495176847","long":"126.79402196","imageIndex":17,"items":[{"name":"두산문구","tel":"032-251-6609","addr":"경기도 부천시 원미동 151-1번지 두산아파트","indutype":"서적문구 - 문구용품","category":"other"}]},{"lat":"37.495432324","long":"126.78580026","imageIndex":17,"items":[{"name":"두성전기광고","tel":"032-654-2350","addr":"경기도 부천시 원미동 91-4번지 현대주택 4층 101호","indutype":"전기제품 - 기타전기제품","category":"other"}]},{"lat":"37.492427323","long":"126.78816095","imageIndex":17,"items":[{"name":"드로잉그루브","tel":"","addr":"경기도 부천시 원미동 122-3번지 성원아트빌라 403호","indutype":"문화.취미 - 화랑","category":"other"}]},{"lat":"37.493147208","long":"126.78766135","imageIndex":17,"items":[{"name":"디아자닷컴","tel":"032-668-7725","addr":"경기도 부천시 원미동 103-6번지 1층","indutype":"사무통신 - 컴퓨터","category":"other"}]},{"lat":"37.492681752","long":"126.78934753","imageIndex":17,"items":[{"name":"디오디너리샵","tel":"","addr":"경기도 부천시 원미동 117-20번지 명성연립 1층 101호","indutype":"의류 - 정장","category":"other"}]},{"lat":"37.495842436","long":"126.78835472","imageIndex":17,"items":[{"name":"디자인맥","tel":"032-613-5110","addr":"경기도 부천시 원미동 65-22","indutype":"용역 서비스 - 종합용역","category":"other"}]},{"lat":"37.495682674","long":"126.78968954","imageIndex":17,"items":[{"name":"또또기획","tel":"032-612-3511","addr":"경기도 부천시 원미동 60-6번지","indutype":"용역 서비스 - 종합용역","category":"other"},{"name":"부천시니어클럽유니-원기획","tel":"032-668-4106","addr":"경기도 부천시 원미동 60-6번지","indutype":"의류 - 단체복","category":"other"}]},{"lat":"37.490764258","long":"126.79024627","imageIndex":17,"items":[{"name":"또바기의 발자국","tel":"070-4282-2467","addr":"경기도 부천시 원미동 181-8번지 1층","indutype":"신변잡화 - 신발","category":"other"},{"name":"이가인테리어","tel":"032-657-6210","addr":"경기도 부천시 원미동 181-8번지","indutype":"기타 - 기타 전문점","category":"other"}]},{"lat":"37.491452567","long":"126.78723653","imageIndex":17,"items":[{"name":"똥강아지","tel":"032-668-0544","addr":"경기도 부천시 원미동 146-1번지 정화연립 B동 101호","indutype":"회원제형태 - 기타4","category":"other"}]},{"lat":"37.489342867","long":"126.79146017","imageIndex":17,"items":[{"name":"라이커OA","tel":"02-777-6262","addr":"경기도 부천시 원미동 189-319번지 주영샤르망 1층","indutype":"사무통신 - 사무용 OA기기","category":"other"}]},{"lat":"37.492235828","long":"126.78690635","imageIndex":17,"items":[{"name":"런스카이스포츠(RUNSKY SPORTS)","tel":"","addr":"경기도 부천시 원미동 127-10번지 라데팡스 401호","indutype":"레져용품 - 스포츠·레져용품","category":"other"}]},{"lat":"37.49270784","long":"126.7888273","imageIndex":17,"items":[{"name":"레오곤충샵","tel":"032-612-7644","addr":"경기도 부천시 원미동 117-2번지 명성연립 103호","indutype":"문화.취미 - 애완동물","category":"other"},{"name":"보물구제","tel":"","addr":"경기도 부천시 원미동 117-2번지 명성연립 103호","indutype":"의류 - 기타의류","category":"other"},{"name":"아쿠아하이텍","tel":"032-673-6065","addr":"경기도 부천시 원미동 117-2번지 명성연립 103호","indutype":"주방용구 - 정수기","category":"other"},{"name":"크리스탈 샵(christal shOp)","tel":"032-651-2079","addr":"경기도 부천시 원미동 117-2번지 명성연립 1층 102호","indutype":"의류 - 정장","category":"other"}]},{"lat":"37.495653024","long":"126.78824218","imageIndex":17,"items":[{"name":"레이 엔터테인먼트","tel":"070-4632-6676","addr":"경기도 부천시 원미동 83-2번지 현지그린빌 5층 501호","indutype":"용역 서비스 - 종합용역","category":"other"},{"name":"앤스","tel":"","addr":"경기도 부천시 원미동 83-2번지 현지그린빌 202호","indutype":"의류 - 정장","category":"other"}]},{"lat":"37.49200911","long":"126.78610417","imageIndex":17,"items":[{"name":"레츠고","tel":"032-612-0799","addr":"경기도 부천시 원미동 133-2번지 101호","indutype":"의류 - 정장","category":"other"},{"name":"천지암","tel":"032-504-8898","addr":"경기도 부천시 원미동 133-2번지 대우연립 C동 201호","indutype":"신변잡화 - 기념품점","category":"other"}]},{"lat":"37.491258803","long":"126.7896908","imageIndex":17,"items":[{"name":"로쟈니에","tel":"032-622-2430","addr":"경기도 부천시 원미동 172-34번지 1,층","indutype":"의류 - 정장","category":"other"},{"name":"조이너스신발가게","tel":"032-612-3094","addr":"경기도 부천시 원미동 172-34번지","indutype":"신변잡화 - 신발","category":"other"},{"name":"풍기인견","tel":"032-732-0740","addr":"경기도 부천시 원미동 172-34번지 1층","indutype":"의류 - 정장","category":"other"}]},{"lat":"37.493070584","long":"126.79012665","imageIndex":17,"items":[{"name":"루디아","tel":"032-656-5023","addr":"경기도 부천시 원미동 98-6번지","indutype":"의류 - 정장","category":"other"},{"name":"아울렛","tel":"032-651-3120","addr":"경기도 부천시 원미동 98-6번지","indutype":"신변잡화 - 액세서리","category":"other"}]},{"lat":"37.494233032","long":"126.78527226","imageIndex":17,"items":[{"name":"루키","tel":"032-663-3450","addr":"경기도 부천시 원미동 111-2번지 1층","indutype":"의류 - 정장","category":"other"},{"name":"정현사교댄스","tel":"032-431-8297","addr":"경기도 부천시 원미동 111-2번지 2층","indutype":"회원제형태 - 레져업소","category":"other"}]},{"lat":"37.491372509","long":"126.78780213","imageIndex":17,"items":[{"name":"리즌정보통신","tel":"032-662-0702","addr":"경기도 부천시 원미동 146-4번지 정화연립 B동 1층 1호","indutype":"사무통신 - 통신기기","category":"other"}]},{"lat":"37.491457824","long":"126.78518985","imageIndex":17,"items":[{"name":"멋내기의류","tel":"070-4922-1161","addr":"경기도 부천시 원미동 140-1번지 1층","indutype":"의류 - 정장","category":"other"},{"name":"성원창호","tel":"032-344-2265","addr":"경기도 부천시 원미동 140-1번지 1층 좌 3호","indutype":"건축자재 - 기타건축자재","category":"other"}]},{"lat":"37.491544149","long":"126.7880504","imageIndex":17,"items":[{"name":"메르시","tel":"","addr":"경기도 부천시 원미동 141-2번지 1층","indutype":"의류 - 정장","category":"other"}]},{"lat":"37.495513379","long":"126.79074167","imageIndex":17,"items":[{"name":"멜리사","tel":"070-8865-0729","addr":"경기도 부천시 원미동 59-21번지 중앙연립","indutype":"신변잡화 - 신발","category":"other"},{"name":"신앙촌상회","tel":"070-7345-9502","addr":"경기도 부천시 원미동 59-21번지 중앙연립 온누리약국옆 1층","indutype":"신변잡화 - 기타잡화","category":"other"}]},{"lat":"37.496479885","long":"126.79210723","imageIndex":17,"items":[{"name":"명가부동산","tel":"032-651-8955","addr":"경기도 부천시 원미동 50-5번지 1층","indutype":"용역 서비스 - 부동산 중개·임대","category":"other"}]},{"lat":"37.491347737","long":"126.78904602","imageIndex":17,"items":[{"name":"명동의류","tel":"031-000-0000","addr":"경기도 부천시 원미동 173-2번지 부흥빌딩","indutype":"의류 - 정장","category":"other"}]},{"lat":"37.492708331","long":"126.78909868","imageIndex":17,"items":[{"name":"명성타일상사","tel":"032-664-7766","addr":"경기도 부천시 원미동 117-16번지 명성연립 102호","indutype":"건축자재 - 기타건축자재","category":"other"}]},{"lat":"37.498876498","long":"126.78710209","imageIndex":17,"items":[{"name":"명진정밀","tel":"032-207-1362","addr":"경기도 부천시 원미동 47-4,1층","indutype":"기타 - 기계공구","category":"other"}]},{"lat":"37.497370567","long":"126.78640531","imageIndex":17,"items":[{"name":"명품구두수선실","tel":"032-666-7914","addr":"경기도 부천시 원미동 72-12번지","indutype":"수리서비스 - 신변잡화수리","category":"other"}]},{"lat":"37.488897048","long":"126.78905301","imageIndex":17,"items":[{"name":"모던","tel":"070-7397-3110","addr":"경기도 부천시 원미동 198-7번지 1층","indutype":"회원제형태 - 기타1","category":"other"}]},{"lat":"37.498174588","long":"126.79257743","imageIndex":17,"items":[{"name":"모츠","tel":"032-614-5830","addr":"경기도 부천시 원미동 2-2번지 4층","indutype":"서적문구 - 문구용품","category":"other"}]},{"lat":"37.487095705","long":"126.78940866","imageIndex":17,"items":[{"name":"미강공업","tel":"032-666-2438","addr":"경기도 부천시 원미동 204-92번지","indutype":"기타 - 기타 전문점","category":"other"}]},{"lat":"37.497815352","long":"126.78821337","imageIndex":17,"items":[{"name":"미니스톱 부천조마루점","tel":"031-1577-9621","addr":"경기도 부천시 원미동 44-5번지 스테이트로뎀 1층 101호","indutype":"유통업 영리 - 편 의 점","category":"other"},{"name":"샬롬공인중개사무소","tel":"032-612-4580","addr":"경기도 부천시 원미동 44-5번지 1층","indutype":"용역 서비스 - 부동산 중개·임대","category":"other"}]},{"lat":"37.497569798","long":"126.78695884","imageIndex":17,"items":[{"name":"믿음공조","tel":"032-664-8945","addr":"경기도 부천시 원미동 68-2번지 믿음공조","indutype":"전기제품 - 냉열기기","category":"other"}]},{"lat":"37.497764159","long":"126.7897967","imageIndex":17,"items":[{"name":"밀림하우스","tel":"070-4247-2701","addr":"경기도 부천시 원미동 37-4번지 3층","indutype":"문화.취미 - 애완동물","category":"other"}]},{"lat":"37.495209459","long":"126.78710134","imageIndex":17,"items":[{"name":"반석인컴","tel":"032-661-0993","addr":"경기도 부천시 원미동 89-1번지 원미상가아파트 204호","indutype":"회원제형태 - 기타3","category":"other"},{"name":"한누리교육시스템","tel":"032-656-2638","addr":"경기도 부천시 원미동 89-1번지 원미 상가 215호","indutype":"사무통신 - 컴퓨터","category":"other"}]},{"lat":"37.490679373","long":"126.79316381","imageIndex":17,"items":[{"name":"반야샘","tel":"032-668-0072","addr":"경기도 부천시 원미동 184-97번지","indutype":"서적문구 - 출판 및 인쇄물","category":"other"}]},{"lat":"37.49229318","long":"126.78871541","imageIndex":17,"items":[{"name":"백양세탁소","tel":"032-666-4768","addr":"경기도 부천시 원미동 118-23번지 백양세탁소","indutype":"수리서비스 - 세탁소","category":"other"}]},{"lat":"37.494983344","long":"126.78662705","imageIndex":17,"items":[{"name":"번영문화사","tel":"032-657-6446","addr":"경기도 부천시 원미동 89-10번지","indutype":"용역 서비스 - 종합용역","category":"other"}]},{"lat":"37.496315083","long":"126.78568463","imageIndex":17,"items":[{"name":"법무사민영규사무소","tel":"032-653-5819","addr":"경기도 부천시 원미동 74-2번지","indutype":"용역 서비스 - 법률회계서비스(개인)","category":"other"},{"name":"이불커텐상설할인매장","tel":"032-653-7903","addr":"경기도 부천시 원미동 74-2번지 1층","indutype":"직물 - 침구·수예점","category":"other"}]},{"lat":"37.496983391","long":"126.78654212","imageIndex":17,"items":[{"name":"법무사한철우사무소","tel":"032-664-3661","addr":"경기도 부천시 원미동 70-3번지","indutype":"용역 서비스 - 법률회계서비스(개인)","category":"other"},{"name":"씨유원미구청점","tel":"032-611-9946","addr":"경기도 부천시 원미동 70-3번지 1층","indutype":"유통업 영리 - 편 의 점","category":"other"},{"name":"한영인쇄","tel":"032-664-4521","addr":"경기도 부천시 원미동 70-3번지","indutype":"서적문구 - 출판 및 인쇄물","category":"other"},{"name":"황진이 뮤비방","tel":"032-564-3865","addr":"경기도 부천시 원미동 70-3번지 지하1층","indutype":"용역 서비스 - 종합용역","category":"other"}]},{"lat":"37.497011351","long":"126.78705092","imageIndex":17,"items":[{"name":"베스트원 기프트마켓","tel":"032-651-8245","addr":"경기도 부천시 원미동 70-6번지 금강빌리지 202호","indutype":"유통업 영리 - 기타유통업","category":"other"},{"name":"베스트원기프트마켓","tel":"032-651-8245","addr":"경기도 부천시 원미동 70-6번지 금강빌리지 202호","indutype":"유통업 영리 - 기타유통업","category":"other"}]},{"lat":"37.497955664","long":"126.79107402","imageIndex":17,"items":[{"name":"보성전자","tel":"032-652-7028","addr":"경기도 부천시 원미동 34-1번지 지하층","indutype":"건축자재 - 조명기구","category":"other"},{"name":"진성테크","tel":"032-546-3182","addr":"경기도 부천시 원미동 34-1번지","indutype":"전기제품 - 기타전기제품","category":"other"}]},{"lat":"37.49250828","long":"126.79310216","imageIndex":17,"items":[{"name":"보영디자인건축","tel":"031-954-3266","addr":"경기도 부천시 원미동 177-69번지","indutype":"전기제품 - 기타전기제품","category":"other"}]},{"lat":"37.4913990234","long":"126.7875193667","imageIndex":17,"items":[{"name":"복사골화훼직하장","tel":"032-673-3971","addr":"경기도 부천시 원미동 146-3번지 정화연립 3-A동 206호","indutype":"문화.취미 - 화원","category":"other"}]},{"lat":"37.492486696","long":"126.78613671","imageIndex":17,"items":[{"name":"복지미니슈퍼","tel":"070-7551-2728","addr":"경기도 부천시 원미동 132-2번지","indutype":"신변잡화 - 기타잡화","category":"other"}]},{"lat":"37.495567576","long":"126.78585641","imageIndex":17,"items":[{"name":"봄","tel":"","addr":"경기도 부천시 원미동 91-3번지 2층 201호","indutype":"건축자재 - 인테리어전문","category":"other"},{"name":"삼성기획","tel":"032-663-6363","addr":"경기도 부천시 원미동 91-3번지 일부 2층","indutype":"용역 서비스 - 종합용역","category":"other"}]},{"lat":"37.497120233","long":"126.78746901","imageIndex":17,"items":[{"name":"부강전산","tel":"070-8820-8272","addr":"경기도 부천시 원미동 68-24번지 2층","indutype":"사무통신 - 기타 사무용품","category":"other"}]},{"lat":"37.497321061","long":"126.7889046","imageIndex":17,"items":[{"name":"부광철물공구","tel":"032-666-8909","addr":"경기도 부천시 원미동 61-16번지","indutype":"기타 - 기계공구","category":"other"}]},{"lat":"37.491813478","long":"126.78751818","imageIndex":17,"items":[{"name":"부림화원","tel":"032-667-4321","addr":"경기도 부천시 원미동 128-9번지","indutype":"문화.취미 - 화원","category":"other"}]},{"lat":"37.497512127","long":"126.78993312","imageIndex":17,"items":[{"name":"부원냉동","tel":"032-656-6600","addr":"경기도 부천시 원미동 37-7번지","indutype":"전기제품 - 냉열기기","category":"other"}]},{"lat":"37.499209332","long":"126.79179423","imageIndex":17,"items":[{"name":"부원정밀","tel":"032-671-2703","addr":"경기도 부천시 원미동 5-7번지","indutype":"기타 - 기타 전문점","category":"other"},{"name":"창일산업","tel":"032-653-5337","addr":"경기도 부천시 원미동 5-7번지 1층","indutype":"기타 - 기계공구","category":"other"}]},{"lat":"37.499842701","long":"126.79329651","imageIndex":17,"items":[{"name":"부일서적","tel":"032-611-7845","addr":"경기도 부천시 원미동 1-3번지","indutype":"서적문구 - 전문서적","category":"other"}]},{"lat":"37.491397141","long":"126.79146568","imageIndex":17,"items":[{"name":"부천사임당라이온스클럽","tel":"032-324-6116","addr":"경기도 부천시 원미동 114-1번지 풍림아파트","indutype":"기타 - 비영리/비대상","category":"other"},{"name":"창조인테리어","tel":"032-612-9246","addr":"경기도 부천시 원미동 114-1외필지 풍림상가 B107호","indutype":"건축자재 - 인테리어전문","category":"other"},{"name":"클린앤제이 청라지점","tel":"","addr":"경기도 부천시 원미동 114-1번지 풍림아파트","indutype":"용역 서비스 - 종합용역","category":"other"}]},{"lat":"37.496371485","long":"126.78696229","imageIndex":17,"items":[{"name":"부천시원미노인복지관","tel":"032-667-0261","addr":"경기도 부천시 원미동 71번지 원미어울마당","indutype":"문화.취미 - 문화취미기타","category":"other"},{"name":"원미구경영인협의회","tel":"032-650-2216","addr":"경기도 부천시 원미동 71번지","indutype":"문화.취미 - 민예·공예품","category":"other"},{"name":"케이와이이엔지","tel":"070-4655-0989","addr":"경기도 부천시 원미동 71번지 원미구청사 4층 407호","indutype":"기타 - 기계공구","category":"other"},{"name":"플럼디자인연구소","tel":"032-677-5519","addr":"경기도 부천시 원미동 71번지 4층","indutype":"건축자재 - 인테리어전문","category":"other"}]},{"lat":"37.491599809","long":"126.78893223","imageIndex":17,"items":[{"name":"부천전기","tel":"","addr":"경기도 부천시 원미동 121-7번지 반도연립 105호","indutype":"전기제품 - 기타전기제품","category":"other"}]},{"lat":"37.489376817","long":"126.79029543","imageIndex":17,"items":[{"name":"부천전기철물","tel":"032-665-2868","addr":"경기도 부천시 원미동 191-1번지","indutype":"건축자재 - 목재·석재·철물","category":"other"}]},{"lat":"37.49148147","long":"126.78826542","imageIndex":17,"items":[{"name":"부흥전기전자","tel":"032-613-0734","addr":"경기도 부천시 원미동 141-1번지","indutype":"건축자재 - 조명기구","category":"other"}]},{"lat":"37.500623255","long":"126.79143967","imageIndex":17,"items":[{"name":"북셰프","tel":"032-651-5074","addr":"경기도 부천시 원미동 9-1번지 2층","indutype":"사무통신 - 사무용 OA기기","category":"other"}]},{"lat":"37.496092097","long":"126.79190478","imageIndex":17,"items":[{"name":"뷰티전기조명","tel":"032-611-1863","addr":"경기도 부천시 원미동 51-4번지 1층","indutype":"전기제품 - 기타전기제품","category":"other"}]},{"lat":"37.490069376","long":"126.78962634","imageIndex":17,"items":[{"name":"블루패션","tel":"031-000-0000","addr":"경기도 부천시 원미동 182-29번지","indutype":"의류 - 정장","category":"other"}]},{"lat":"37.491514727","long":"126.78673882","imageIndex":17,"items":[{"name":"비바열쇠","tel":"032-653-8809","addr":"경기도 부천시 원미동 147-14번지","indutype":"기타 - 기계공구","category":"other"}]},{"lat":"37.495626446","long":"126.78849103","imageIndex":17,"items":[{"name":"비숑이즈","tel":"032-000-0000","addr":"경기도 부천시 원미동 83-13번지 2층","indutype":"문화.취미 - 애완동물","category":"other"}]},{"lat":"37.495093094","long":"126.78752007","imageIndex":17,"items":[{"name":"삼광인재사","tel":"032-612-7799","addr":"경기도 부천시 원미동 85-5번지","indutype":"신변잡화 - 기타잡화","category":"other"}]},{"lat":"37.495424477","long":"126.7914091","imageIndex":17,"items":[{"name":"삼성원미제일프라자","tel":"032-667-4933","addr":"경기도 부천시 원미동 54-25번지 1층","indutype":"전기제품 - 가전제품","category":"other"},{"name":"씨유부천원미점","tel":"031-446-8960","addr":"경기도 부천시 원미동 54-25번지 1층","indutype":"유통업 영리 - 편 의 점","category":"other"}]},{"lat":"37.490957684","long":"126.78759979","imageIndex":17,"items":[{"name":"삼진설비건설기업","tel":"032-667-3663","addr":"경기도 부천시 원미동 148-22번지 청담빌리지 101호","indutype":"용역 서비스 - 기타용역서비스","category":"other"}]},{"lat":"37.49287462","long":"126.79138237","imageIndex":17,"items":[{"name":"새빛버티칼","tel":"032-655-5811","addr":"경기도 부천시 원미동 179-16번지","indutype":"회원제형태 - 기타4","category":"other"}]},{"lat":"37.494286877","long":"126.79010059","imageIndex":17,"items":[{"name":"색동저고리","tel":"032-663-6035","addr":"경기도 부천시 원미동 97-16번지 1층","indutype":"의류 - 맞춤복점","category":"other"}]},{"lat":"37.493539749","long":"126.79048717","imageIndex":17,"items":[{"name":"샬롬","tel":"032-614-5070","addr":"경기도 부천시 원미동 96-11번지 1층","indutype":"신변잡화 - 기타잡화","category":"other"}]},{"lat":"37.492542992","long":"126.79235576","imageIndex":17,"items":[{"name":"샬롬인테리어","tel":"032-652-3737","addr":"경기도 부천시 원미동 184-78번지","indutype":"직물 - 카페트,커튼,천막,지물","category":"other"}]},{"lat":"37.494511737","long":"126.7898851","imageIndex":17,"items":[{"name":"서광골프기획","tel":"032-668-3124","addr":"경기도 부천시 원미동 82-13번지","indutype":"레져용품 - 골프용품 전문점","category":"other"}]},{"lat":"37.500569479","long":"126.79159815","imageIndex":17,"items":[{"name":"석산테크놀로지","tel":"032-672-8556","addr":"경기도 부천시 원미동 9-8번지","indutype":"기타 - 기타 전문점","category":"other"},{"name":"풍경CNC","tel":"031-665-6572","addr":"경기도 부천시 원미동 9-8번지","indutype":"기타 - 기계공구","category":"other"}]},{"lat":"37.493431142","long":"126.79021609","imageIndex":17,"items":[{"name":"선물의집","tel":"032-656-9198","addr":"경기도 부천시 원미동 98-2번지","indutype":"직물 - 침구·수예점","category":"other"}]},{"lat":"37.49870597","long":"126.79246285","imageIndex":17,"items":[{"name":"선일정공","tel":"032-665-9357","addr":"경기도 부천시 원미동 4-11번지","indutype":"기타 - 기계공구","category":"other"}]},{"lat":"37.493565989","long":"126.78510458","imageIndex":17,"items":[{"name":"선표구사","tel":"032-652-2375","addr":"경기도 부천시 원미동 111-6번지","indutype":"문화.취미 - 화방·표구점","category":"other"}]},{"lat":"37.49270832","long":"126.7941306","imageIndex":17,"items":[{"name":"설 멍멍이","tel":"032-611-0777","addr":"경기도 부천시 원미동 162-86번지 아이파크숲","indutype":"문화.취미 - 애완동물","category":"other"}]},{"lat":"37.49590175","long":"126.78629646","imageIndex":17,"items":[{"name":"섬김가정복지센터","tel":"032-203-6262","addr":"경기도 부천시 원미동 88-2번지 토탈프라자 203호","indutype":"기타의료기관 - 기타의료기관 및 기타","category":"other"},{"name":"장영학세무회계사무소","tel":"032-668-0035","addr":"경기도 부천시 원미동 88-2번지 토탈프라자 3층 301호","indutype":"용역 서비스 - 법률회계서비스(개인)","category":"other"}]},{"lat":"37.487897544","long":"126.78938376","imageIndex":17,"items":[{"name":"성민정밀","tel":"032-653-4407","addr":"경기도 부천시 원미동 204-134번지","indutype":"기타 - 기계공구","category":"other"}]},{"lat":"37.489206381","long":"126.79071428","imageIndex":17,"items":[{"name":"성보사이언스강서대리점","tel":"032-652-7979","addr":"경기도 부천시 원미동 189-63 삼성그린빌 403 13/4","indutype":"농업 - 비료,사료,종자","category":"other"}]},{"lat":"37.493174485","long":"126.78779696","imageIndex":17,"items":[{"name":"성실사무기","tel":"032-652-8370","addr":"경기도 부천시 원미동 103-10번지","indutype":"사무통신 - 사무용 OA기기","category":"other"},{"name":"씨유원미사랑점","tel":"031-898-6568","addr":"경기도 부천시 원미동 103-10번지","indutype":"유통업 영리 - 편 의 점","category":"other"}]},{"lat":"37.495566646","long":"126.7903005","imageIndex":17,"items":[{"name":"세공전문수리방","tel":"","addr":"경기도 부천시 원미동 59-34번지","indutype":"신변잡화 - 귀금속","category":"other"},{"name":"은성종합인테리어","tel":"032-665-2057","addr":"경기도 부천시 원미동 59-34번지 1층","indutype":"건축자재 - 인테리어전문","category":"other"}]},{"lat":"37.495098417","long":"126.79046014","imageIndex":17,"items":[{"name":"세기양행","tel":"032-613-9282","addr":"경기도 부천시 원미동 80-25번지","indutype":"수리서비스 - 가정용품수리","category":"other"}]},{"lat":"37.490877603","long":"126.78815408","imageIndex":17,"items":[{"name":"세븐일레븐부천원미본점","tel":"","addr":"경기도 부천시 원미동 148-4번지 1층","indutype":"유통업 영리 - 편 의 점","category":"other"}]},{"lat":"37.496263346","long":"126.79193822","imageIndex":17,"items":[{"name":"세븐일레븐부천원미조마루점","tel":"","addr":"경기도 부천시 원미동 51-2번지","indutype":"유통업 영리 - 편 의 점","category":"other"}]},{"lat":"37.493126294","long":"126.78607832","imageIndex":17,"items":[{"name":"섹션21정보통신","tel":"032-664-8886","addr":"경기도 부천시 원미동 130-1번지 1층 일부","indutype":"전기제품 - 기타전기제품","category":"other"}]},{"lat":"37.493347241","long":"126.79368782","imageIndex":17,"items":[{"name":"소사 (SOSA)","tel":"","addr":"경기도 부천시 원미동 162-49번지 4층","indutype":"문화.취미 - 화랑","category":"other"}]},{"lat":"37.494342887","long":"126.79118599","imageIndex":17,"items":[{"name":"스마트플래닛","tel":"032-614-2332","addr":"경기도 부천시 원미동 78-15번지 101호 (101호,103동)","indutype":"사무통신 - 통신기기","category":"other"}]},{"lat":"37.497010027","long":"126.78632719","imageIndex":17,"items":[{"name":"승희네 다육이","tel":"","addr":"경기도 부천시 원미동 73-1번지","indutype":"문화.취미 - 화원","category":"other"}]},{"lat":"37.4928772","long":"126.78782043","imageIndex":17,"items":[{"name":"시대종합공사","tel":"032-667-4657","addr":"경기도 부천시 원미동 123-1번지 1층 일부","indutype":"건축자재 - 보일러·펌프·샷시","category":"other"}]},{"lat":"37.497984355","long":"126.78701419","imageIndex":17,"items":[{"name":"신부천로타리클럽","tel":"032-665-8204","addr":"경기도 부천시 원미동 48-4번지","indutype":"기타 - 비영리/비대상","category":"other"},{"name":"주식회사 바나나선데이","tel":"070-4466-2992","addr":"경기도 부천시 원미동 48-4번지 3층 304호","indutype":"신변잡화 - 기타잡화","category":"other"}]},{"lat":"37.49165538","long":"126.78976883","imageIndex":17,"items":[{"name":"신어봐","tel":"032-662-8429","addr":"경기도 부천시 원미동 120-1번지 1층 7호","indutype":"신변잡화 - 신발","category":"other"}]},{"lat":"37.492151063","long":"126.78490515","imageIndex":17,"items":[{"name":"쌍용DC마트","tel":"032-668-4554","addr":"경기도 부천시 원미동 134-9번지","indutype":"유통업 영리 - 기타유통업","category":"other"}]},{"lat":"37.49543054","long":"126.78976941","imageIndex":17,"items":[{"name":"쏠트라이팅","tel":"032-611-3315","addr":"경기도 부천시 원미동 79-2번지 지층","indutype":"건축자재 - 조명기구","category":"other"}]},{"lat":"37.494731894","long":"126.78708009","imageIndex":17,"items":[{"name":"쑤니네옷장","tel":"032-655-7173","addr":"경기도 부천시 원미동 104-1번지 초원하우스 1층 102호","indutype":"의류 - 정장","category":"other"},{"name":"울빛컴퓨터","tel":"032-666-5531","addr":"경기도 부천시 원미동 104-1번지","indutype":"사무통신 - 컴퓨터","category":"other"}]},{"lat":"37.497093585","long":"126.79268224","imageIndex":17,"items":[{"name":"씨라인(S.L)해양엔지니어링","tel":"031-461-4414","addr":"경기도 부천시 원미동 142-8번지","indutype":"레져용품 - 스포츠·레져용품","category":"other"}]},{"lat":"37.495210264","long":"126.78754235","imageIndex":17,"items":[{"name":"씨유부천나눔점","tel":"032-663-9946","addr":"경기도 부천시 원미동 85-4번지 1층","indutype":"유통업 영리 - 편 의 점","category":"other"},{"name":"이리스컴","tel":"032-661-4705","addr":"경기도 부천시 원미동 85-4번지 2층","indutype":"용역 서비스 - 종합용역","category":"other"}]},{"lat":"37.498400137","long":"126.79274642","imageIndex":17,"items":[{"name":"씨유원미대로점","tel":"032-654-8009","addr":"경기도 부천시 원미동 1-8번지","indutype":"유통업 영리 - 편 의 점","category":"other"}]},{"lat":"37.490233061","long":"126.79046261","imageIndex":17,"items":[{"name":"씨유원미베스트점","tel":"032-274-0057","addr":"경기도 부천시 원미동 190-20번지 1층","indutype":"유통업 영리 - 편 의 점","category":"other"}]},{"lat":"37.497538402","long":"126.78951463","imageIndex":17,"items":[{"name":"아리랑애드컴","tel":"032-653-6663","addr":"경기도 부천시 원미동 44-3번지","indutype":"건축자재 - 인테리어전문","category":"other"}]},{"lat":"37.496396338","long":"126.78577486","imageIndex":17,"items":[{"name":"아비바","tel":"032-613-3280","addr":"경기도 부천시 원미동 74-8번지 1층","indutype":"의류 - 정장","category":"other"},{"name":"아티스트","tel":"070-7749-4741","addr":"경기도 부천시 원미동 74-8번지 1층","indutype":"의류 - 내의판매","category":"other"},{"name":"윤의철법무사사무소","tel":"032-651-0634","addr":"경기도 부천시 원미동 74-8번지","indutype":"용역 서비스 - 법률회계서비스(개인)","category":"other"},{"name":"토탈사무편의점","tel":"032-668-9227","addr":"경기도 부천시 원미동 74-8번지","indutype":"서적문구 - 문구용품","category":"other"}]},{"lat":"37.491960613","long":"126.78915735","imageIndex":17,"items":[{"name":"아앤독방문훈련","tel":"","addr":"경기도 부천시 원미동 119-2번지 한양아파트","indutype":"문화.취미 - 애완동물","category":"other"}]},{"lat":"37.494735165","long":"126.78887805","imageIndex":17,"items":[{"name":"아이지미술","tel":"032-665-6943","addr":"경기도 부천시 원미동 86-24번지 효성타운","indutype":"회원제형태 - 서적","category":"other"}]},{"lat":"37.493812763","long":"126.78701489","imageIndex":17,"items":[{"name":"아지트지(G)(태양미래전기)","tel":"070-4898-5859","addr":"경기도 부천시 원미동 106-7번지 1층","indutype":"용역 서비스 - 기타용역서비스","category":"other"}]},{"lat":"37.494099174","long":"126.7909379","imageIndex":17,"items":[{"name":"안나꽃분재","tel":"032-664-0679","addr":"경기도 부천시 원미동 95-1백송연립D-1","indutype":"문화.취미 - 화원","category":"other"}]},{"lat":"37.494071697","long":"126.79068921","imageIndex":17,"items":[{"name":"애견미용실","tel":"032-657-8880","addr":"경기도 부천시 원미동 96-1번지 백송주택E동2호","indutype":"회원제형태 - 기타4","category":"other"},{"name":"우리모바일","tel":"032-611-7474","addr":"경기도 부천시 원미동 96-1번지 백송연립 E동 1층 3호","indutype":"사무통신 - 통신기기","category":"other"},{"name":"타고난","tel":"","addr":"경기도 부천시 원미동 96-1번지 백송연립 C동 1층 1호 일부","indutype":"의류 - 정장","category":"other"},{"name":"프리즘","tel":"032-657-8581","addr":"경기도 부천시 원미동 96-1번지 백송연립 B동 1층 1호","indutype":"의류 - 정장","category":"other"},{"name":"핑크바니","tel":"032-663-9942","addr":"경기도 부천시 원미동 96-1번지 백송연립 A동 4호","indutype":"의류 - 정장","category":"other"},{"name":"하나애견","tel":"032-657-8880","addr":"경기도 부천시 원미동 96-1번지 백송연립 E동 1층 2호","indutype":"문화.취미 - 애완동물","category":"other"}]},{"lat":"37.491846268","long":"126.7857428","imageIndex":17,"items":[{"name":"앤","tel":"032-612-1039","addr":"경기도 부천시 원미동 138-3번지","indutype":"의류 - 정장","category":"other"},{"name":"한일광고","tel":"032-613-1515","addr":"경기도 부천시 원미동 138-3번지","indutype":"용역 서비스 - 종합용역","category":"other"}]},{"lat":"37.491205294","long":"126.78999626","imageIndex":17,"items":[{"name":"앤","tel":"","addr":"경기도 부천시 원미동 181-2번지 C동 1층 111호","indutype":"의류 - 정장","category":"other"},{"name":"화사한오늘","tel":"032-324-2978","addr":"경기도 부천시 원미동 181-2번지 C동 1층 110호","indutype":"신변잡화 - 기타잡화","category":"other"}]},{"lat":"37.487571817","long":"126.78862712","imageIndex":17,"items":[{"name":"앰엔디테크","tel":"032-661-7784","addr":"경기도 부천시 원미동 777-30번지 2층","indutype":"전기제품 - 기타전기제품","category":"other"}]},{"lat":"37.495098783","long":"126.79066369","imageIndex":17,"items":[{"name":"양지의류","tel":"032-662-5460","addr":"경기도 부천시 원미동 80-8번지","indutype":"의류 - 정장","category":"other"}]},{"lat":"37.493152451","long":"126.78560332","imageIndex":17,"items":[{"name":"에스에스기획","tel":"032-612-2495","addr":"경기도 부천시 원미동 130-3번지 성원빌딩 1층","indutype":"용역 서비스 - 종합용역","category":"other"}]},{"lat":"37.497396098","long":"126.7905441","imageIndex":17,"items":[{"name":"에스제이몰","tel":"","addr":"경기도 부천시 원미동 36-1번지 서광빌딩 1층 2호","indutype":"전기제품 - 기타전기제품","category":"other"},{"name":"태경기획","tel":"032-652-5352","addr":"경기도 부천시 원미동 36-1번지 서광빌딩 1층","indutype":"용역 서비스 - 종합용역","category":"other"}]},{"lat":"37.492960636","long":"126.79415251","imageIndex":17,"items":[{"name":"에스제이미디어","tel":"032-677-1004","addr":"경기도 부천시 원미동 162-83번지 지층","indutype":"전기제품 - 가전제품","category":"other"}]},{"lat":"37.497007024","long":"126.78962923","imageIndex":17,"items":[{"name":"에스피디자인","tel":"032-612-5213","addr":"경기도 부천시 원미동 56-18번지","indutype":"용역 서비스 - 종합용역","category":"other"}]},{"lat":"37.496149429","long":"126.7887157","imageIndex":17,"items":[{"name":"에스홈케어 설비","tel":"02-000-0000","addr":"경기도 부천시 원미동 65-35번지 우성데시앙 C동 402호","indutype":"용역 서비스 - 종합용역","category":"other"}]},{"lat":"37.495869014","long":"126.78810586","imageIndex":17,"items":[{"name":"에어메이트주식회사","tel":"031-520-5525","addr":"경기도 부천시 원미동 65-8번지","indutype":"기타 - 기계공구","category":"other"}]},{"lat":"37.494343878","long":"126.79174008","imageIndex":17,"items":[{"name":"에이 앤 비(A&B)","tel":"","addr":"경기도 부천시 원미동 169-2번지 1층","indutype":"건축자재 - 보일러·펌프·샷시","category":"other"}]},{"lat":"37.491204029","long":"126.7892952","imageIndex":17,"items":[{"name":"에코크린샷","tel":"","addr":"경기도 부천시 원미동 172-38번지","indutype":"주방용구 - 주방용구","category":"other"}]},{"lat":"37.490654078","long":"126.78910454","imageIndex":17,"items":[{"name":"엠테크","tel":"070-8912-3217","addr":"경기도 부천시 원미동 174-43번지 연승트윈빌","indutype":"회원제형태 - 기타1","category":"other"}]},{"lat":"37.48815027","long":"126.78963179","imageIndex":17,"items":[{"name":"여성의류판매장","tel":"032-657-9529","addr":"경기도 부천시 원미동 201-31번지","indutype":"의류 - 정장","category":"other"}]},{"lat":"37.495568736","long":"126.79146523","imageIndex":17,"items":[{"name":"여우숲","tel":"","addr":"경기도 부천시 원미동 54-11번지 1층","indutype":"의류 - 정장","category":"other"}]},{"lat":"37.4949244339","long":"126.7889114378","imageIndex":17,"items":[{"name":"연주설비","tel":"032-663-6996","addr":"경기도 부천시 원미동 85-27번지","indutype":"용역 서비스 - 기타용역서비스","category":"other"}]},{"lat":"37.492317543","long":"126.79224332","imageIndex":17,"items":[{"name":"영동기업","tel":"032-614-7577","addr":"경기도 부천시 원미동 184-80번지","indutype":"용역 서비스 - 기타용역서비스","category":"other"}]},{"lat":"37.494064026","long":"126.79143555","imageIndex":17,"items":[{"name":"영원유리","tel":"032-655-5527","addr":"경기도 부천시 원미동 94-1번지","indutype":"건축자재 - 유리","category":"other"}]},{"lat":"37.499259512","long":"126.78963413","imageIndex":17,"items":[{"name":"영진테크","tel":"032-663-3220","addr":"경기도 부천시 원미동 40-8번지","indutype":"기타 - 기계공구","category":"other"},{"name":"프렌즈","tel":"032-662-6700","addr":"경기도 부천시 원미동 40-8번지 2층","indutype":"신변잡화 - 기타잡화","category":"other"}]},{"lat":"37.4877896704","long":"126.7895197498","imageIndex":17,"items":[{"name":"예그린","tel":"032-667-8900","addr":"경기도 부천시 원미동 204-121 지층","indutype":"직물 - 카페트,커튼,천막,지물","category":"other"}]},{"lat":"37.495261549","long":"126.79099116","imageIndex":17,"items":[{"name":"예화화원","tel":"032-612-6977","addr":"경기도 부천시 원미동 77-2번지","indutype":"문화.취미 - 화원","category":"other"}]},{"lat":"37.491730571","long":"126.78652335","imageIndex":17,"items":[{"name":"오널","tel":"","addr":"경기도 부천시 원미동 138-6번지 1층 일부","indutype":"신변잡화 - 액세서리","category":"other"},{"name":"제이에스 (JS)통신","tel":"","addr":"경기도 부천시 원미동 138-6번지 1층","indutype":"사무통신 - 통신기기","category":"other"},{"name":"하늘이네","tel":"032-656-3321","addr":"경기도 부천시 원미동 138-6번지","indutype":"의류 - 정장","category":"other"}]},{"lat":"37.492869958","long":"126.79382484","imageIndex":17,"items":[{"name":"오성종합장식","tel":"032-662-5848","addr":"경기도 부천시 원미동 162-71번지","indutype":"직물 - 카페트,커튼,천막,지물","category":"other"}]},{"lat":"37.490149566","long":"126.78912859","imageIndex":17,"items":[{"name":"온오프","tel":"070-7420-5925","addr":"경기도 부천시 원미동 174-51번지 퀸즈빌 1층 101호 ONOFF","indutype":"의류 - 정장","category":"other"}]},{"lat":"37.493620899","long":"126.79052087","imageIndex":17,"items":[{"name":"옷이야기","tel":"032-651-1230","addr":"경기도 부천시 원미동 96-12","indutype":"의류 - 정장","category":"other"}]},{"lat":"37.495398094","long":"126.79177103","imageIndex":17,"items":[{"name":"왕대박모바일","tel":"032-612-3379","addr":"경기도 부천시 원미동 51-7번지 1층","indutype":"사무통신 - 통신기기","category":"other"}]},{"lat":"37.492341028","long":"126.79026441","imageIndex":17,"items":[{"name":"용신발","tel":"032-664-1767","addr":"경기도 부천시 원미동 116-1번지 제에이동제1층 2호","indutype":"신변잡화 - 신발","category":"other"}]},{"lat":"37.489403195","long":"126.78993353","imageIndex":17,"items":[{"name":"용인테리어수족관","tel":"032-657-0244","addr":"경기도 부천시 원미동 192-1번지 1층","indutype":"문화.취미 - 수족관","category":"other"}]},{"lat":"37.497374628","long":"126.78863305","imageIndex":17,"items":[{"name":"우리집보일러","tel":"032-611-0313","addr":"경기도 부천시 원미동 61-3번지 1층","indutype":"건축자재 - 보일러·펌프·샷시","category":"other"},{"name":"콤프코리아","tel":"032-679-2738","addr":"경기도 부천시 원미동 61-3번지","indutype":"기타 - 기계공구","category":"other"}]},{"lat":"37.494287182","long":"126.79027021","imageIndex":17,"items":[{"name":"우림","tel":"032-937-1520","addr":"경기도 부천시 원미동 97-2번지","indutype":"용역 서비스 - 부동산 중개·임대","category":"other"}]},{"lat":"37.491150623","long":"126.78965719","imageIndex":17,"items":[{"name":"우먼로드","tel":"032-656-8881","addr":"경기도 부천시 원미동 172-33번지","indutype":"건축자재 - 인테리어전문","category":"other"},{"name":"원미지물포","tel":"032-655-4418","addr":"경기도 부천시 원미동 172-33번지","indutype":"직물 - 카페트,커튼,천막,지물","category":"other"}]},{"lat":"37.49751174","long":"126.78971826","imageIndex":17,"items":[{"name":"우주산업주식회사","tel":"032-224-8285","addr":"경기도 부천시 원미동 37-9번지","indutype":"건축자재 - 기타건축자재","category":"other"}]},{"lat":"37.496568488","long":"126.79127017","imageIndex":17,"items":[{"name":"운동화세탁","tel":"","addr":"경기도 부천시 원미동 52-11번지","indutype":"수리서비스 - 세탁소","category":"other"}]},{"lat":"37.49631611","long":"126.79121435","imageIndex":17,"items":[{"name":"원미","tel":"032-653-6714","addr":"경기도 부천시 원미동 53-6번지","indutype":"문화.취미 - 화원","category":"other"}]},{"lat":"37.493370058","long":"126.78634901","imageIndex":17,"items":[{"name":"원미공사","tel":"032-612-7500","addr":"경기도 부천시 원미동 109-17번지","indutype":"건축자재 - 조명기구","category":"other"},{"name":"혀니펫","tel":"032-611-5900","addr":"경기도 부천시 원미동 109-17번지 1층 일부","indutype":"문화.취미 - 애완동물","category":"other"}]},{"lat":"37.493819462","long":"126.79071254","imageIndex":17,"items":[{"name":"원미동금산인삼직매점","tel":"032-656-5010","addr":"경기도 부천시 원미동 96-19번지 예성빌라 B동 202호","indutype":"회원제형태 - 기타1","category":"other"}]},{"lat":"37.490844144","long":"126.78957891","imageIndex":17,"items":[{"name":"원미봉투백화점","tel":"032-656-4763","addr":"경기도 부천시 원미동 172-30번지 1층","indutype":"직물 - 기타직물","category":"other"}]},{"lat":"37.494459974","long":"126.79116304","imageIndex":17,"items":[{"name":"원미삼천리","tel":"032-652-3000","addr":"경기도 부천시 원미동 78-12번지","indutype":"레져용품 - 스포츠·레져용품","category":"other"}]},{"lat":"37.493701988","long":"126.79052064","imageIndex":17,"items":[{"name":"원미속옷","tel":"032-663-6588","addr":"경기도 부천시 원미동 96-3번지","indutype":"의류 - 내의판매","category":"other"},{"name":"원미이불","tel":"032-665-2406","addr":"경기도 부천시 원미동 96-3번지 1층","indutype":"직물 - 침구·수예점","category":"other"},{"name":"유진신발","tel":"032-652-0217","addr":"경기도 부천시 원미동 96-3번지","indutype":"신변잡화 - 신발","category":"other"}]},{"lat":"37.493397751","long":"126.78671078","imageIndex":17,"items":[{"name":"원미열쇠","tel":"032-652-1313","addr":"경기도 부천시 원미동 109-2번지 시민연립","indutype":"기타 - 기계공구","category":"other"}]},{"lat":"37.492980933","long":"126.79037568","imageIndex":17,"items":[{"name":"원미정보통신","tel":"032-613-1011","addr":"경기도 부천시 원미동 96-17번지","indutype":"사무통신 - 통신기기","category":"other"}]},{"lat":"37.494622841","long":"126.79154706","imageIndex":17,"items":[{"name":"월드디자인","tel":"032-668-2814","addr":"경기도 부천시 원미동 76-13번지","indutype":"건축자재 - 인테리어전문","category":"other"}]},{"lat":"37.497146747","long":"126.78718623","imageIndex":17,"items":[{"name":"위드S시큐리티","tel":"032-1899-8077","addr":"경기도 부천시 원미동 68-13번지","indutype":"전기제품 - 기타전기제품","category":"other"},{"name":"현대주방가구","tel":"032-657-9660","addr":"경기도 부천시 원미동 68-13번지","indutype":"주방용구 - 주방용구","category":"other"}]},{"lat":"37.495703429","long":"126.7862405","imageIndex":17,"items":[{"name":"위드어스","tel":"032-362-7254","addr":"경기도 부천시 원미동 88-7번지 HM빌딩 303호","indutype":"용역 서비스 - 기타용역서비스","category":"other"}]},{"lat":"37.499346716","long":"126.79304911","imageIndex":17,"items":[{"name":"유성공구","tel":"032-655-3409","addr":"경기도 부천시 원미동 1-18번지","indutype":"기타 - 기계공구","category":"other"}]},{"lat":"37.499982439","long":"126.7908195","imageIndex":17,"items":[{"name":"유성상사","tel":"032-665-0497","addr":"경기도 부천시 원미동 9-6번지","indutype":"건축자재 - 건축용 요업제품","category":"other"}]},{"lat":"37.495785326","long":"126.78668128","imageIndex":17,"items":[{"name":"유앤아이 기프트","tel":"070-8887-7717","addr":"경기도 부천시 원미동 88-4번지 태백맨션 나동 302호","indutype":"유통업 영리 - 기타유통업","category":"other"}]},{"lat":"37.492259348","long":"126.78993673","imageIndex":17,"items":[{"name":"유일정보산업","tel":"032-668-2581","addr":"경기도 부천시 원미동 118-6번지","indutype":"사무통신 - 통신기기","category":"other"}]},{"lat":"37.491343394","long":"126.78666016","imageIndex":17,"items":[{"name":"유진전기철물","tel":"032-663-1504","addr":"경기도 부천시 원미동 147-4번지 1층","indutype":"건축자재 - 목재·석재·철물","category":"other"}]},{"lat":"37.491653212","long":"126.78857024","imageIndex":17,"items":[{"name":"은영침구","tel":"032-652-5261","addr":"경기도 부천시 원미동 121-4번지","indutype":"직물 - 침구·수예점","category":"other"}]},{"lat":"37.487537944","long":"126.78982575","imageIndex":17,"items":[{"name":"이마트24 부천원미로점","tel":"","addr":"경기도 부천시 원미동 204-99번지 1층","indutype":"유통업 영리 - 편 의 점","category":"other"}]},{"lat":"37.492287436","long":"126.79052464","imageIndex":17,"items":[{"name":"이마트24 원미사거리점","tel":"032-655-0304","addr":"경기도 부천시 원미동 115-1번지 유림연립 가동 101호","indutype":"유통업 영리 - 편 의 점","category":"other"}]},{"lat":"37.494351263","long":"126.78587124","imageIndex":17,"items":[{"name":"이마트24 원미타운점","tel":"032-1111-1111","addr":"경기도 부천시 원미동 107-2번지 원미샤인빌리지 1동 101호","indutype":"유통업 영리 - 편 의 점","category":"other"}]},{"lat":"37.493036858","long":"126.78644043","imageIndex":17,"items":[{"name":"이안스타일","tel":"","addr":"경기도 부천시 원미동 129-9번지 1층 일부","indutype":"의류 - 정장","category":"other"}]},{"lat":"37.493708856","long":"126.79437659","imageIndex":17,"items":[{"name":"이엔비공조","tel":"","addr":"경기도 부천시 원미동 162-26번지 롯데그린빌 302호","indutype":"용역 서비스 - 기타용역서비스","category":"other"}]},{"lat":"37.490933078","long":"126.78893413","imageIndex":17,"items":[{"name":"이오션","tel":"070-8829-6902","addr":"경기도 부천시 원미동 172-15번지 1층 일부","indutype":"문화.취미 - 화방·표구점","category":"other"},{"name":"진시스템","tel":"032-668-8840","addr":"경기도 부천시 원미동 172-15번지","indutype":"전기제품 - 냉열기기","category":"other"}]},{"lat":"37.491066872","long":"126.78818746","imageIndex":17,"items":[{"name":"인덕장식","tel":"032-655-3630","addr":"경기도 부천시 원미동 141-12번지 1층","indutype":"직물 - 카페트,커튼,천막,지물","category":"other"}]},{"lat":"37.499427214","long":"126.78771118","imageIndex":17,"items":[{"name":"일광","tel":"032-663-1672","addr":"경기도 부천시 원미동 46-12번지 3층","indutype":"전기제품 - 기타전기제품","category":"other"}]},{"lat":"37.490764908","long":"126.7906081","imageIndex":17,"items":[{"name":"정경임한복","tel":"032-612-3742","addr":"경기도 부천시 원미동 190-3번지","indutype":"의류 - 맞춤복점","category":"other"}]},{"lat":"37.491978715","long":"126.78920253","imageIndex":17,"items":[{"name":"정덕순민화세상","tel":"032-667-7741","addr":"경기도 부천시 원미동 119-2번지 한양아파트","indutype":"문화.취미 - 문화취미기타","category":"other"}]},{"lat":"37.49901309","long":"126.79290303","imageIndex":17,"items":[{"name":"제이제이켐","tel":"032-662-7707","addr":"경기도 부천시 원미동 1-28번지 5층","indutype":"건축자재 - 페인트","category":"other"}]},{"lat":"37.495480931","long":"126.78774512","imageIndex":17,"items":[{"name":"젤리도그","tel":"","addr":"경기도 부천시 원미동 84-2번지 엘지빌 1층 101호","indutype":"문화.취미 - 애완동물","category":"other"}]},{"lat":"37.489432075","long":"126.7909624","imageIndex":17,"items":[{"name":"조선일보동부천","tel":"032-665-6373","addr":"경기도 부천시 원미동 189-316번지 1층","indutype":"서적문구 - 정기간행물","category":"other"}]},{"lat":"37.494209673","long":"126.78727383","imageIndex":17,"items":[{"name":"좋은친구","tel":"032-000-0000","addr":"경기도 부천시 원미동 102-27번지 1층 일부","indutype":"용역 서비스 - 종합용역","category":"other"}]},{"lat":"37.493178919","long":"126.78529794","imageIndex":17,"items":[{"name":"주식회사 도서출판 디자이너클럽","tel":"032-613-6352","addr":"경기도 부천시 원미동 134-1번지 일광빌딩 602호","indutype":"서적문구 - 출판 및 인쇄물","category":"other"}]},{"lat":"37.49176343","long":"126.7847932","imageIndex":17,"items":[{"name":"주식회사 준희정보통신","tel":"032-656-5011","addr":"경기도 부천시 원미동 137-3번지","indutype":"사무통신 - 통신기기","category":"other"}]},{"lat":"37.49051192","long":"126.79021306","imageIndex":17,"items":[{"name":"중고파는날","tel":"032-614-4751","addr":"경기도 부천시 원미동 182-9번지","indutype":"신변잡화 - 기타잡화","category":"other"}]},{"lat":"37.49578973","long":"126.78910121","imageIndex":17,"items":[{"name":"중앙철물","tel":"032-656-4425","addr":"경기도 부천시 원미동 64-6번지","indutype":"건축자재 - 목재·석재·철물","category":"other"}]},{"lat":"37.49162239","long":"126.78648974","imageIndex":17,"items":[{"name":"지니하우스","tel":"032-325-5650","addr":"경기도 부천시 원미동 138-8번지 1층","indutype":"직물 - 침구·수예점","category":"other"}]},{"lat":"37.49053956","long":"126.79055221","imageIndex":17,"items":[{"name":"지엔에스시스템","tel":"032-614-5311","addr":"경기도 부천시 원미동 190-16번지","indutype":"사무통신 - 컴퓨터","category":"other"}]},{"lat":"37.499400637","long":"126.78796005","imageIndex":17,"items":[{"name":"지티엘","tel":"","addr":"경기도 부천시 원미동 46-19번지 2층","indutype":"전기제품 - 기타전기제품","category":"other"}]},{"lat":"37.491457774","long":"126.79010861","imageIndex":17,"items":[{"name":"진흥꽃화원","tel":"032-652-7302","addr":"경기도 부천시 원미동 116-5번지","indutype":"문화.취미 - 화원","category":"other"}]},{"lat":"37.494814385","long":"126.7878488","imageIndex":17,"items":[{"name":"참전기조명","tel":"032-611-0268","addr":"경기도 부천시 원미동 86-3번지","indutype":"건축자재 - 조명기구","category":"other"}]},{"lat":"37.493236296","long":"126.78710701","imageIndex":17,"items":[{"name":"참조은 광고","tel":"070-4950-2365","addr":"경기도 부천시 원미동 102-14번지 1층","indutype":"용역 서비스 - 종합용역","category":"other"}]},{"lat":"37.496149334","long":"126.79369131","imageIndex":17,"items":[{"name":"창우오피스","tel":"019-***-****","addr":"경기도 부천시 원미동 151-37번지 지평빌딩 302호","indutype":"사무통신 - 기타 사무용품","category":"other"}]},{"lat":"37.490010779","long":"126.7871276","imageIndex":17,"items":[{"name":"창조종합건축공사","tel":"032-657-7727","addr":"경기도 부천시 원미동 168-19번지 대훈탑스빌 1층 102호","indutype":"건축자재 - 인테리어전문","category":"other"}]},{"lat":"37.495621539","long":"126.79076398","imageIndex":17,"items":[{"name":"천광타일","tel":"032-654-2664","addr":"경기도 부천시 원미동 59-26번지 상가지하및지상1층","indutype":"건축자재 - 인테리어전문","category":"other"}]},{"lat":"37.490681905","long":"126.78954545","imageIndex":17,"items":[{"name":"천냥백화점","tel":"032-613-0588","addr":"경기도 부천시 원미동 174-65번지 1층","indutype":"신변잡화 - 기타잡화","category":"other"}]},{"lat":"37.492926538","long":"126.78524213","imageIndex":17,"items":[{"name":"청산인쇄","tel":"032-665-0290","addr":"경기도 부천시 원미동 134-4번지","indutype":"용역 서비스 - 종합용역","category":"other"},{"name":"키즈세상","tel":"070-7736-7070","addr":"경기도 부천시 원미동 134-4번지 1층 일부","indutype":"서적문구 - 기타서적문구","category":"other"}]},{"lat":"37.495902243","long":"126.79154345","imageIndex":17,"items":[{"name":"추억이 담긴것","tel":"","addr":"경기도 부천시 원미동 54-29번지 2층","indutype":"서적문구 - 일반서적","category":"other"}]},{"lat":"37.495181109","long":"126.79135325","imageIndex":17,"items":[{"name":"충군패밀리","tel":"","addr":"경기도 부천시 원미동 77-9번지 1층","indutype":"사무통신 - 통신기기","category":"other"}]},{"lat":"37.489598261","long":"126.78819166","imageIndex":17,"items":[{"name":"친구이사포장자재유통","tel":"070-8272-8924","addr":"경기도 부천시 원미동 196-12번지","indutype":"유통업 영리 - 기타유통업","category":"other"}]},{"lat":"37.492124139","long":"126.78990319","imageIndex":17,"items":[{"name":"친절상회","tel":"032-651-3553","addr":"경기도 부천시 원미동 118-18번지","indutype":"의류 - 내의판매","category":"other"}]},{"lat":"37.493980902","long":"126.78535215","imageIndex":17,"items":[{"name":"친정산후조리원","tel":"032-665-0070","addr":"경기도 부천시 원미동 111-3번지 한위빌딩 7층","indutype":"기타의료기관 - 산후조리원","category":"other"}]},{"lat":"37.492814748","long":"126.78815984","imageIndex":17,"items":[{"name":"캔디","tel":"032-651-0360","addr":"경기도 부천시 원미동 122-5번지","indutype":"의류 - 정장","category":"other"}]},{"lat":"37.495594976","long":"126.79102414","imageIndex":17,"items":[{"name":"캠퍼스청바지","tel":"032-667-6061","addr":"경기도 부천시 원미동 54-16번지","indutype":"의류 - 캐주얼의류","category":"other"},{"name":"행복한갤러리","tel":"032-665-4012","addr":"경기도 부천시 원미동 54-16번지 1층","indutype":"의류 - 정장","category":"other"}]},{"lat":"37.498985034","long":"126.79232637","imageIndex":17,"items":[{"name":"코끼리공구","tel":"032-715-5163","addr":"경기도 부천시 원미동 4-12번지 태강 CITY 1층 102호","indutype":"기타 - 기계공구","category":"other"}]},{"lat":"37.493370804","long":"126.78675608","imageIndex":17,"items":[{"name":"코디","tel":"032-612-6508","addr":"경기도 부천시 원미동 109-2번지 시민연립 A동 1층 102호","indutype":"의류 - 정장","category":"other"}]},{"lat":"37.492980444","long":"126.79010429","imageIndex":17,"items":[{"name":"코코럭스","tel":"070-7522-6811","addr":"경기도 부천시 원미동 98-7번지 1층","indutype":"회원제형태 - 기타4","category":"other"}]},{"lat":"37.49553731","long":"126.78902277","imageIndex":17,"items":[{"name":"크린토피아","tel":"032-656-0993","addr":"경기도 부천시 원미동 83-9번지 1층 일부","indutype":"수리서비스 - 세탁소","category":"other"}]},{"lat":"37.488014407","long":"126.78923644","imageIndex":17,"items":[{"name":"태성인테리어","tel":"070-8142-4648","addr":"경기도 부천시 원미동 204-120번지","indutype":"건축자재 - 인테리어전문","category":"other"}]},{"lat":"37.489620145","long":"126.79032866","imageIndex":17,"items":[{"name":"태양건축종합공사","tel":"032-673-1001","addr":"경기도 부천시 원미동 190-7번지 1층","indutype":"용역 서비스 - 기타용역서비스","category":"other"}]},{"lat":"37.489983579","long":"126.79202372","imageIndex":17,"items":[{"name":"태영연예기획사","tel":"","addr":"경기도 부천시 원미동 189-99번지","indutype":"용역 서비스 - 종합용역","category":"other"}]},{"lat":"37.492625438","long":"126.78810384","imageIndex":17,"items":[{"name":"태풍건어물","tel":"032-656-5538","addr":"경기도 부천시 원미동 122-21번지 1층","indutype":"직물 - 침구·수예점","category":"other"}]},{"lat":"37.494458411","long":"126.79029234","imageIndex":17,"items":[{"name":"테디베어","tel":"032-666-7475","addr":"경기도 부천시 원미동 82-18번지 1층","indutype":"의류 - 아동의류","category":"other"}]},{"lat":"37.493151734","long":"126.79016035","imageIndex":17,"items":[{"name":"토마토","tel":"032-655-1652","addr":"경기도 부천시 원미동 98-5번지 원미시장","indutype":"의류 - 정장","category":"other"}]},{"lat":"37.49487382","long":"126.79082264","imageIndex":17,"items":[{"name":"투쎄븐","tel":"032-666-6649","addr":"경기도 부천시 원미동 78-1번지 1층","indutype":"의류 - 정장","category":"other"}]},{"lat":"37.494840962","long":"126.78759995","imageIndex":17,"items":[{"name":"특수열쇠","tel":"032-663-9264","addr":"경기도 부천시 원미동 86-18번지","indutype":"기타 - 기계공구","category":"other"}]},{"lat":"37.49568754","long":"126.78740528","imageIndex":17,"items":[{"name":"파란하늘인쇄기획","tel":"032-663-7116","addr":"경기도 부천시 원미동 87-30번지 신오스카이빌 3동 1층 102호","indutype":"서적문구 - 출판 및 인쇄물","category":"other"}]},{"lat":"37.494431747","long":"126.79049596","imageIndex":17,"items":[{"name":"파랑텔레콤(원미)","tel":"032-668-8484","addr":"경기도 부천시 원미동 82-17번지","indutype":"사무통신 - 통신기기","category":"other"}]},{"lat":"37.495590714","long":"126.78866076","imageIndex":17,"items":[{"name":"퍼스트전산","tel":"032-665-4540","addr":"경기도 부천시 원미동 83-1번지 대림프라우드빌 1층","indutype":"사무통신 - 기타 사무용품","category":"other"}]},{"lat":"37.492926079","long":"126.78499336","imageIndex":17,"items":[{"name":"펫마트부천점","tel":"","addr":"경기도 부천시 원미동 134-3번지","indutype":"문화.취미 - 애완동물","category":"other"}]},{"lat":"37.494485196","long":"126.79015657","imageIndex":17,"items":[{"name":"펫사랑","tel":"032-611-7701","addr":"경기도 부천시 원미동 82-19번지 1층","indutype":"문화.취미 - 애완동물","category":"other"}]},{"lat":"37.491756668","long":"126.78601444","imageIndex":17,"items":[{"name":"포그니이불","tel":"032-657-7004","addr":"경기도 부천시 원미동 138-4번지 한일연립 B동 107호","indutype":"직물 - 침구·수예점","category":"other"}]},{"lat":"37.492484697","long":"126.78999262","imageIndex":17,"items":[{"name":"폰사진","tel":"","addr":"경기도 부천시 원미동 117-11번지 1층 4호","indutype":"광학제품 - 사진관","category":"other"}]},{"lat":"37.489484039","long":"126.78979761","imageIndex":17,"items":[{"name":"풍선파티","tel":"032-612-1110","addr":"경기도 부천시 원미동 192-4번지","indutype":"신변잡화 - 기타잡화","category":"other"}]},{"lat":"37.496370575","long":"126.79144036","imageIndex":17,"items":[{"name":"피부나라","tel":"032-665-2191","addr":"경기도 부천시 원미동 53-3번지 1층 3호","indutype":"회원제형태 - 기타4","category":"other"}]},{"lat":"37.493896844","long":"126.79368629","imageIndex":17,"items":[{"name":"피시엔지니어","tel":"070-4365-4845","addr":"경기도 부천시 원미동 163번지","indutype":"사무통신 - 컴퓨터","category":"other"}]},{"lat":"37.4941792063","long":"126.7903496674","imageIndex":17,"items":[{"name":"피엔티코퍼레이션","tel":"070-7723-9040","addr":"경기도 부천시 원미동 97-1","indutype":"신변잡화 - 가방","category":"other"}]},{"lat":"37.490704814","long":"126.79227046","imageIndex":17,"items":[{"name":"하나시스템에어컨","tel":"","addr":"경기도 부천시 원미동 184-52번지","indutype":"용역 서비스 - 기타용역서비스","category":"other"}]},{"lat":"37.491427781","long":"126.78846911","imageIndex":17,"items":[{"name":"하나정보","tel":"032-655-5010","addr":"경기도 부천시 원미동 173-7번지 코너 1층","indutype":"사무통신 - 통신기기","category":"other"}]},{"lat":"37.492956432","long":"126.78680251","imageIndex":17,"items":[{"name":"하늘공조","tel":"070-8624-2581","addr":"경기도 부천시 원미동 129-25번지 퍼스트클래스","indutype":"전기제품 - 냉열기기","category":"other"}]},{"lat":"37.49639724","long":"126.79123673","imageIndex":17,"items":[{"name":"하우스키퍼","tel":"032-614-8282","addr":"경기도 부천시 원미동 53-4번지","indutype":"전기제품 - 냉열기기","category":"other"}]},{"lat":"37.493038575","long":"126.79237698","imageIndex":17,"items":[{"name":"하은솔루션","tel":"","addr":"경기도 부천시 원미동 177-184번지","indutype":"회원제형태 - 기타4","category":"other"}]},{"lat":"37.496238007","long":"126.78787864","imageIndex":17,"items":[{"name":"하이파이버(HIGHFIBER)","tel":"031-000-0000","addr":"경기도 부천시 원미동 66-8번지","indutype":"직물 - 침구·수예점","category":"other"}]},{"lat":"37.498233019","long":"126.78998762","imageIndex":17,"items":[{"name":"한국전자","tel":"032-665-5690","addr":"경기도 부천시 원미동 33-12번지","indutype":"기타 - 기타 전문점","category":"other"},{"name":"한국전자/세라잼구매","tel":"032-665-5690","addr":"경기도 부천시 원미동 33-12번지","indutype":"기타 - 기타 전문점","category":"other"}]},{"lat":"37.495842231","long":"126.78824164","imageIndex":17,"items":[{"name":"한길인쇄기획","tel":"032-664-5531","addr":"경기도 부천시 원미동 65-14번지","indutype":"용역 서비스 - 종합용역","category":"other"}]},{"lat":"37.497182252","long":"126.79187909","imageIndex":17,"items":[{"name":"한일인테리어","tel":"032-655-0472","addr":"경기도 부천시 원미동 7-5번지 1층","indutype":"건축자재 - 인테리어전문","category":"other"}]},{"lat":"37.499427845","long":"126.7930715","imageIndex":17,"items":[{"name":"합동포장상사","tel":"032-654-6454","addr":"경기도 부천시 원미동 1-19번지 지하층1층","indutype":"신변잡화 - 기타잡화","category":"other"}]},{"lat":"37.498317759","long":"126.79202291","imageIndex":17,"items":[{"name":"현대산업","tel":"032-663-3465","addr":"경기도 부천시 원미동 8-1번지","indutype":"주방용구 - 주방용구","category":"other"}]},{"lat":"37.494704203","long":"126.78671832","imageIndex":17,"items":[{"name":"현대인쇄","tel":"032-656-3839","addr":"경기도 부천시 원미동 104-5번지","indutype":"서적문구 - 출판 및 인쇄물","category":"other"}]},{"lat":"37.494760882","long":"126.78815427","imageIndex":17,"items":[{"name":"현대장식","tel":"032-653-7500","addr":"경기도 부천시 원미동 86-12번지","indutype":"직물 - 카페트,커튼,천막,지물","category":"other"}]},{"lat":"37.494730372","long":"126.79121882","imageIndex":17,"items":[{"name":"현대전기","tel":"032-654-4985","addr":"경기도 부천시 원미동 78-3번지","indutype":"전기제품 - 기타전기제품","category":"other"},{"name":"혜린종합인테리어","tel":"032-654-4881","addr":"경기도 부천시 원미동 78-3번지","indutype":"직물 - 카페트,커튼,천막,지물","category":"other"}]},{"lat":"37.496979545","long":"126.78938052","imageIndex":17,"items":[{"name":"현성특수금속/원격지","tel":"011-****-****","addr":"경기도 부천시 원미동 62-1번지 2층","indutype":"기타 - 기타 전문점","category":"other"}]},{"lat":"37.492930765","long":"126.78754889","imageIndex":17,"items":[{"name":"현진환경개발","tel":"032-1588-3613","addr":"경기도 부천시 원미동 124-14번지 1호","indutype":"용역 서비스 - 종합용역","category":"other"}]},{"lat":"37.494064228","long":"126.79154863","imageIndex":17,"items":[{"name":"협동조합 커뮤니티플랫폼 이유","tel":"","addr":"경기도 부천시 원미동 94-9번지 2층","indutype":"용역 서비스 - 종합용역","category":"other"}]},{"lat":"37.498206356","long":"126.79019124","imageIndex":17,"items":[{"name":"홍성광학","tel":"032-612-1701","addr":"경기도 부천시 원미동 33-11번지 2층","indutype":"광학제품 - 기타광학제품","category":"other"}]},{"lat":"37.495480622","long":"126.7875755","imageIndex":17,"items":[{"name":"휴먼월드","tel":"070-5135-0772","addr":"경기도 부천시 원미동 84-1번지 뜨란채 201호","indutype":"신변잡화 - 기타잡화","category":"other"}]}]