[{"lat":"37.167306155","long":"126.89585356","imageIndex":13,"items":[{"name":"SBS당구장","tel":"070-8947-4490","addr":"경기도 화성시 팔탄면 구장리 23-6번지 2층","indutype":"레저업소 - 당 구 장","category":"leisure"}]},{"lat":"37.168026357","long":"126.89515448","imageIndex":13,"items":[{"name":"S노래연습장","tel":"031-366-2923","addr":"경기도 화성시 팔탄면 구장리 23-1번지 2층","indutype":"레저업소 - 노 래 방","category":"leisure"}]},{"lat":"37.167666267","long":"126.89551528","imageIndex":13,"items":[{"name":"간지노래연습장","tel":"070-8947-4490","addr":"경기도 화성시 팔탄면 구장리 23-4번지 2층","indutype":"레저업소 - 노 래 방","category":"leisure"}]},{"lat":"37.171330474","long":"126.89221102","imageIndex":13,"items":[{"name":"골프존파크","tel":"031-366-3120","addr":"경기도 화성시 팔탄면 구장리 3-1번지 DCT-MALL 101호","indutype":"레저업소 - 스크린골프","category":"leisure"}]},{"lat":"37.168882347","long":"126.89515326","imageIndex":13,"items":[{"name":"구장노래연습장","tel":"031-353-7345","addr":"경기도 화성시 팔탄면 구장리 38-44번지 2층","indutype":"레저업소 - 노 래 방","category":"leisure"},{"name":"신라 스트레칭","tel":"070-8946-1279","addr":"경기도 화성시 팔탄면 구장리 38-44번지 203,204,205호","indutype":"레저업소 - 헬스클럽","category":"leisure"}]},{"lat":"37.168133619","long":"126.89420856","imageIndex":13,"items":[{"name":"부킹노래연습장","tel":"031-223-5214","addr":"경기도 화성시 팔탄면 구장리 21-4번지 지하1층","indutype":"레저업소 - 노 래 방","category":"leisure"}]},{"lat":"37.162690979","long":"126.9041237","imageIndex":13,"items":[{"name":"천궁노래연습장","tel":"070-8947-4490","addr":"경기도 화성시 팔탄면 구장리 567-5번지 2층","indutype":"레저업소 - 노 래 방","category":"leisure"}]},{"lat":"37.166918054","long":"126.89513353","imageIndex":13,"items":[{"name":"퀸당구클럽","tel":"031-352-8947","addr":"경기도 화성시 팔탄면 구장리 113-9번지 2층","indutype":"레저업소 - 당 구 장","category":"leisure"}]},{"lat":"37.160717346","long":"126.90370972","imageIndex":13,"items":[{"name":"팔탄노래연습장","tel":"031-353-2518","addr":"경기도 화성시 팔탄면 구장리 527-30번지","indutype":"레저업소 - 노 래 방","category":"leisure"}]},{"lat":"37.169357653","long":"126.89270931","imageIndex":13,"items":[{"name":"힐링","tel":"070-9144-2513","addr":"경기도 화성시 팔탄면 구장리 10-1번지 팔탄공구유통상가 A동 2층","indutype":"레저업소 - 헬스클럽","category":"leisure"}]}]