[{"lat":"37.800665393","long":"126.79234724","imageIndex":4,"items":[{"name":"강변가든","tel":"031-000-0000","addr":"경기도 파주시 월롱면 위전리 153-6","indutype":"일반휴게음식 - 일반한식","category":"restaurant"}]},{"lat":"37.796840173","long":"126.7894515","imageIndex":4,"items":[{"name":"구여사낙지명가","tel":"031-943-3332","addr":"경기도 파주시 월롱면 위전리 608-3번지","indutype":"일반휴게음식 - 일반한식","category":"restaurant"}]},{"lat":"37.795004998","long":"126.79097816","imageIndex":4,"items":[{"name":"그뤠잇","tel":"031-942-7702","addr":"경기도 파주시 월롱면 위전리 430-43번지","indutype":"일반휴게음식 - 스넥","category":"restaurant"}]},{"lat":"37.797892873","long":"126.7886764","imageIndex":4,"items":[{"name":"금촌가마솥해장국","tel":"031-941-1087","addr":"경기도 파주시 월롱면 위전리 293-3번지 2동","indutype":"일반휴게음식 - 일반한식","category":"restaurant"},{"name":"와우피치","tel":"070-111-1111","addr":"경기도 파주시 월롱면 위전리 293-3번지","indutype":"일반휴게음식 - 일반한식","category":"restaurant"},{"name":"행복한밥상","tel":"031-941-8639","addr":"경기도 파주시 월롱면 위전리 293-3번지","indutype":"일반휴게음식 - 일반한식","category":"restaurant"}]},{"lat":"37.797420195","long":"126.79134595","imageIndex":4,"items":[{"name":"나주곰탕","tel":"031-942-0898","addr":"경기도 파주시 월롱면 위전리 321-1번지","indutype":"일반휴게음식 - 일반한식","category":"restaurant"}]},{"lat":"37.791146736","long":"126.79995806","imageIndex":4,"items":[{"name":"동일B&F","tel":"02-423-5584","addr":"경기도 파주시 월롱면 위전리 89-1번지","indutype":"일반휴게음식 - 일반한식","category":"restaurant"}]},{"lat":"37.790446279","long":"126.79608863","imageIndex":4,"items":[{"name":"뚱뚱이할머니족발보쌈","tel":"031-945-2150","addr":"경기도 파주시 월롱면 위전리 506-6번지 1층","indutype":"일반휴게음식 - 일반한식","category":"restaurant"}]},{"lat":"37.790785236","long":"126.80459105","imageIndex":4,"items":[{"name":"복진이네","tel":"031-947-1835","addr":"경기도 파주시 월롱면 위전리 203-10번지, 1층 일부","indutype":"일반휴게음식 - 일반한식","category":"restaurant"}]},{"lat":"37.796310485","long":"126.79048622","imageIndex":4,"items":[{"name":"삼시세끼","tel":"031-943-2945","addr":"경기도 파주시 월롱면 위전리 422-4번지","indutype":"일반휴게음식 - 일반한식","category":"restaurant"},{"name":"스마일찹쌀꽈베기","tel":"031-947-8830","addr":"경기도 파주시 월롱면 위전리 422-4번지","indutype":"일반휴게음식 - 일반한식","category":"restaurant"}]},{"lat":"37.794283059","long":"126.79032172","imageIndex":4,"items":[{"name":"시골개장국","tel":"031-945-0451","addr":"경기도 파주시 월롱면 위전리 583-1번지","indutype":"일반휴게음식 - 일반한식","category":"restaurant"}]},{"lat":"37.796534572","long":"126.78984977","imageIndex":4,"items":[{"name":"신작로해장","tel":"031-941-2381","addr":"경기도 파주시 월롱면 위전리 608-10번지","indutype":"일반휴게음식 - 일반한식","category":"restaurant"}]},{"lat":"37.796778175","long":"126.79004208","imageIndex":4,"items":[{"name":"암소식당","tel":"031-945-9238","addr":"경기도 파주시 월롱면 위전리 608-1번지","indutype":"일반휴게음식 - 일반한식","category":"restaurant"},{"name":"월롱암소곰탕","tel":"031-945-1451","addr":"경기도 파주시 월롱면 위전리 608-1번지","indutype":"일반휴게음식 - 일반한식","category":"restaurant"}]},{"lat":"37.796221739","long":"126.79123583","imageIndex":4,"items":[{"name":"옛날수타손짜장","tel":"031-945-5959","addr":"경기도 파주시 월롱면 위전리 426번지","indutype":"일반휴게음식 - 중국식","category":"restaurant"},{"name":"커피트레인","tel":"031-944-9405","addr":"경기도 파주시 월롱면 위전리 426번지","indutype":"일반휴게음식 - 서양음식","category":"restaurant"}]},{"lat":"37.796031827","long":"126.79083899","imageIndex":4,"items":[{"name":"옥돌례","tel":"031-945-0021","addr":"경기도 파주시 월롱면 위전리 427-7번지","indutype":"일반휴게음식 - 일반한식","category":"restaurant"},{"name":"옥돌례","tel":"","addr":"경기도 파주시 월롱면 위전리 427-7번지","indutype":"일반휴게음식 - 일반한식","category":"restaurant"}]},{"lat":"37.796922121","long":"126.78992813","imageIndex":4,"items":[{"name":"용지촌","tel":"","addr":"경기도 파주시 월롱면 위전리 608-8번지","indutype":"일반휴게음식 - 일반한식","category":"restaurant"}]},{"lat":"37.796112728","long":"126.79073657","imageIndex":4,"items":[{"name":"우리술한잔할까","tel":"031-952-0010","addr":"경기도 파주시 월롱면 위전리 423-8번지","indutype":"일반휴게음식 - 주점","category":"restaurant"},{"name":"월롱양푼이통김치찌개","tel":"031-944-4356","addr":"경기도 파주시 월롱면 위전리 423-8번지","indutype":"일반휴게음식 - 일반한식","category":"restaurant"}]},{"lat":"37.796695528","long":"126.78917943","imageIndex":4,"items":[{"name":"월롱면고기리","tel":"031-000-0000","addr":"경기도 파주시 월롱면 위전리 607-1번지","indutype":"일반휴게음식 - 일반한식","category":"restaurant"}]},{"lat":"37.796861509","long":"126.79129077","imageIndex":4,"items":[{"name":"월롱부대찌개","tel":"031-942-5979","addr":"경기도 파주시 월롱면 위전리 422-6번지","indutype":"일반휴게음식 - 일반한식","category":"restaurant"}]},{"lat":"37.795248457","long":"126.79109101","imageIndex":4,"items":[{"name":"유일곰탕","tel":"031-944-3691","addr":"경기도 파주시 월롱면 위전리 430-27번지","indutype":"일반휴게음식 - 일반한식","category":"restaurant"}]},{"lat":"37.796895585","long":"126.7902007","imageIndex":4,"items":[{"name":"윤가네 진수성찬","tel":"031-947-5502","addr":"경기도 파주시 월롱면 위전리 298-12번지","indutype":"일반휴게음식 - 일반한식","category":"restaurant"}]},{"lat":"37.797587666","long":"126.7892904","imageIndex":4,"items":[{"name":"이가네순대국전통육개장","tel":"031-944-6840","addr":"경기도 파주시 월롱면 위전리 294-5번지","indutype":"일반휴게음식 - 일반한식","category":"restaurant"}]},{"lat":"37.794644275","long":"126.79078618","imageIndex":4,"items":[{"name":"주식회사 착한패션소","tel":"031-945-9295","addr":"경기도 파주시 월롱면 위전리 431번지","indutype":"일반휴게음식 - 일반한식","category":"restaurant"}]},{"lat":"37.797056049","long":"126.78925787","imageIndex":4,"items":[{"name":"참두루두루치기","tel":"031-946-0278","addr":"경기도 파주시 월롱면 위전리 609번지","indutype":"일반휴게음식 - 일반한식","category":"restaurant"}]},{"lat":"37.794365228","long":"126.79092322","imageIndex":4,"items":[{"name":"창삼덕돌판오리구이","tel":"031-942-8852","addr":"경기도 파주시 월롱면 위전리 592-13번지","indutype":"일반휴게음식 - 일반한식","category":"restaurant"}]},{"lat":"37.797470996","long":"126.78954052","imageIndex":4,"items":[{"name":"풍년마을 의정부 부대찌개","tel":"031-945-0051","addr":"경기도 파주시 월롱면 위전리 295-1번지","indutype":"일반휴게음식 - 일반한식","category":"restaurant"}]},{"lat":"37.795887329","long":"126.79064639","imageIndex":4,"items":[{"name":"한백년능이한방백숙","tel":"031-946-1854","addr":"경기도 파주시 월롱면 위전리 427-3번지","indutype":"일반휴게음식 - 일반한식","category":"restaurant"}]}]