[{"lat":"37.301102579","long":"127.65463253","imageIndex":4,"items":[{"name":"강릉초당두부래요","tel":"031-881-0403","addr":"경기도 여주시 천송동 541-3번지","indutype":"일반휴게음식 - 일반한식","category":"restaurant"},{"name":"연탄구이 도니랑","tel":"031-111-1111","addr":"경기도 여주시 천송동 541-3번지","indutype":"일반휴게음식 - 일반한식","category":"restaurant"},{"name":"오박사네칼국수","tel":"031-886-2900","addr":"경기도 여주시 천송동 541-3번지","indutype":"일반휴게음식 - 일반한식","category":"restaurant"}]},{"lat":"37.297658095","long":"127.65511034","imageIndex":4,"items":[{"name":"강으로","tel":"031-886-2615","addr":"경기도 여주시 천송동 288-86번지","indutype":"일반휴게음식 - 일반한식","category":"restaurant"},{"name":"커피볶는 오늘","tel":"","addr":"경기도 여주시 천송동 288-86번지 2층","indutype":"일반휴게음식 - 서양음식","category":"restaurant"}]},{"lat":"37.300991721","long":"127.65349242","imageIndex":4,"items":[{"name":"고루모 도시락","tel":"031-886-8600","addr":"경기도 여주시 천송동 534번지","indutype":"일반휴게음식 - 서양음식","category":"restaurant"}]},{"lat":"37.302414266","long":"127.65858021","imageIndex":4,"items":[{"name":"곤지암소머리국밥","tel":"","addr":"경기도 여주시 천송동 319-2번지 1층","indutype":"일반휴게음식 - 일반한식","category":"restaurant"}]},{"lat":"37.29835631","long":"127.65430432","imageIndex":4,"items":[{"name":"구르미","tel":"031-111-1111","addr":"경기도 여주시 천송동 289-7번지 1층","indutype":"일반휴게음식 - 서양음식","category":"restaurant"},{"name":"금수강산","tel":"031-885-5293","addr":"경기도 여주시 천송동 289-7번지","indutype":"일반휴게음식 - 일반한식","category":"restaurant"},{"name":"산너머남촌","tel":"031-886-1425","addr":"경기도 여주시 천송동 289-7번지","indutype":"일반휴게음식 - 일반한식","category":"restaurant"},{"name":"여주 설렁탕","tel":"070-4123-0323","addr":"경기도 여주시 천송동 289-7번지 1층","indutype":"일반휴게음식 - 일반한식","category":"restaurant"},{"name":"여주맛집초계국수N수제왕돈까스","tel":"031-885-5888","addr":"경기도 여주시 천송동 289-7번지","indutype":"일반휴게음식 - 일반한식","category":"restaurant"},{"name":"카일라라이브카페","tel":"031-885-1180","addr":"경기도 여주시 천송동 289-7번지 2층","indutype":"일반휴게음식 - 주점","category":"restaurant"},{"name":"풍경","tel":"031-886-2073","addr":"경기도 여주시 천송동 289-7번지","indutype":"일반휴게음식 - 일반한식","category":"restaurant"}]},{"lat":"37.30130049","long":"127.65140851","imageIndex":4,"items":[{"name":"그린베이지","tel":"","addr":"경기도 여주시 천송동 517-7번지","indutype":"일반휴게음식 - 서양음식","category":"restaurant"}]},{"lat":"37.301357763","long":"127.65899963","imageIndex":4,"items":[{"name":"김가네부대찌개","tel":"031-885-1288","addr":"경기도 여주시 천송동 299-7번지","indutype":"일반휴게음식 - 일반한식","category":"restaurant"}]},{"lat":"37.300465674","long":"127.64919072","imageIndex":4,"items":[{"name":"김명자 낙지마당","tel":"031-884-8807","addr":"경기도 여주시 천송동 566-4번지 1층","indutype":"일반휴게음식 - 일반한식","category":"restaurant"},{"name":"일품향","tel":"031-883-8280","addr":"경기도 여주시 천송동 566-4번지 2층","indutype":"일반휴게음식 - 중국식","category":"restaurant"}]},{"lat":"37.302749304","long":"127.64844329","imageIndex":4,"items":[{"name":"낭만포차","tel":"031-882-7759","addr":"경기도 여주시 천송동 590-3번지 1층 5호 6호","indutype":"일반휴게음식 - 일반한식","category":"restaurant"}]},{"lat":"37.298717753","long":"127.65575108","imageIndex":4,"items":[{"name":"대성식당","tel":"031-886-5594","addr":"경기도 여주시 천송동 290-2번지","indutype":"일반휴게음식 - 일반한식","category":"restaurant"},{"name":"옥천식당","tel":"031-885-2476","addr":"경기도 여주시 천송동 290-2번지","indutype":"일반휴게음식 - 일반한식","category":"restaurant"}]},{"lat":"37.300387603","long":"127.6486374","imageIndex":4,"items":[{"name":"마우리","tel":"031-885-8840","addr":"경기도 여주시 천송동 565-6번지","indutype":"일반휴게음식 - 일반한식","category":"restaurant"},{"name":"유리의정원","tel":"031-885-0606","addr":"경기도 여주시 천송동 565-6번지","indutype":"일반휴게음식 - 서양음식","category":"restaurant"}]},{"lat":"37.303023309","long":"127.64941563","imageIndex":4,"items":[{"name":"만다린","tel":"031-885-0705","addr":"경기도 여주시 천송동 491-3번지","indutype":"일반휴게음식 - 중국식","category":"restaurant"}]},{"lat":"37.3009684","long":"127.66097003","imageIndex":4,"items":[{"name":"맛내골","tel":"031-885-5599","addr":"경기도 여주시 천송동 299-18번지","indutype":"일반휴게음식 - 일반한식","category":"restaurant"}]},{"lat":"37.301277489","long":"127.65885231","imageIndex":4,"items":[{"name":"맛들이","tel":"031-886-1886","addr":"경기도 여주시 천송동 299-6번지","indutype":"일반휴게음식 - 일반한식","category":"restaurant"},{"name":"미소푸드","tel":"031-884-1130","addr":"경기도 여주시 천송동 299-6번지","indutype":"일반휴게음식 - 일반한식","category":"restaurant"}]},{"lat":"37.2986614593","long":"127.6545212436","imageIndex":4,"items":[{"name":"명성회관","tel":"031-885-3234","addr":"경기도 여주시 천송동 289-1번지","indutype":"일반휴게음식 - 일반한식","category":"restaurant"},{"name":"이박사네","tel":"031-884-2168","addr":"경기도 여주시 천송동 289-1번지","indutype":"일반휴게음식 - 일반한식","category":"restaurant"}]},{"lat":"37.30091398","long":"127.6528827","imageIndex":4,"items":[{"name":"소나무","tel":"031-881-4534","addr":"경기도 여주시 천송동 527-2번지","indutype":"일반휴게음식 - 서양음식","category":"restaurant"}]},{"lat":"37.301912054","long":"127.66301972","imageIndex":4,"items":[{"name":"소지개보리밥","tel":"031-886-6786","addr":"경기도 여주시 천송동 231-1번지","indutype":"일반휴게음식 - 일반한식","category":"restaurant"}]},{"lat":"37.298827921","long":"127.65537984","imageIndex":4,"items":[{"name":"송학식당","tel":"031-885-3936","addr":"경기도 여주시 천송동 290-8번지","indutype":"일반휴게음식 - 일반한식","category":"restaurant"}]},{"lat":"37.301720356","long":"127.64877286","imageIndex":4,"items":[{"name":"숲속카페","tel":"031-111-1111","addr":"경기도 여주시 천송동 591-6번지 2층","indutype":"일반휴게음식 - 일반한식","category":"restaurant"}]},{"lat":"37.300884473","long":"127.6533336","imageIndex":4,"items":[{"name":"스며들다","tel":"031-885-5518","addr":"경기도 여주시 천송동 533-1번지","indutype":"일반휴게음식 - 서양음식","category":"restaurant"}]},{"lat":"37.304608124","long":"127.65288066","imageIndex":4,"items":[{"name":"싸리골","tel":"031-883-0165","addr":"경기도 여주시 천송동 503-8번지","indutype":"일반휴게음식 - 일반한식","category":"restaurant"}]},{"lat":"37.301803678","long":"127.65982686","imageIndex":4,"items":[{"name":"쌍둥이네영양탕","tel":"031-886-3848","addr":"경기도 여주시 천송동 299-12번지","indutype":"일반휴게음식 - 일반한식","category":"restaurant"}]},{"lat":"37.301161238","long":"127.6586934","imageIndex":4,"items":[{"name":"약초꾼의집","tel":"031-885-9065","addr":"경기도 여주시 천송동 299-5번지","indutype":"일반휴게음식 - 일반한식","category":"restaurant"}]},{"lat":"37.300857904","long":"127.65160772","imageIndex":4,"items":[{"name":"어버이왕순대","tel":"031-886-2227","addr":"경기도 여주시 천송동 556-2번지","indutype":"일반휴게음식 - 일반한식","category":"restaurant"}]},{"lat":"37.299964989","long":"127.6566867","imageIndex":4,"items":[{"name":"여주시장애인단체연합회","tel":"031-885-6657","addr":"경기도 여주시 천송동 297-1번지","indutype":"일반휴게음식 - 일반한식","category":"restaurant"},{"name":"재단법인한국도자재단여주도자세상","tel":"031-887-8225","addr":"경기도 여주시 천송동 297-1번지","indutype":"일반휴게음식 - 서양음식","category":"restaurant"}]},{"lat":"37.302914269","long":"127.64958388","imageIndex":4,"items":[{"name":"오학감자탕2호점","tel":"031-885-3200","addr":"경기도 여주시 천송동 495-4번지","indutype":"일반휴게음식 - 일반한식","category":"restaurant"}]},{"lat":"37.300971641","long":"127.65058234","imageIndex":4,"items":[{"name":"온누리","tel":"031-886-1816","addr":"경기도 여주시 천송동 558-2번지","indutype":"일반휴게음식 - 주점","category":"restaurant"}]},{"lat":"37.304412446","long":"127.67182811","imageIndex":4,"items":[{"name":"웅골손두부","tel":"031-882-1617","addr":"경기도 여주시 천송동 31-1번지","indutype":"일반휴게음식 - 일반한식","category":"restaurant"}]},{"lat":"37.3044124462","long":"127.6718281101","imageIndex":4,"items":[{"name":"웅골아그맛","tel":"031-882-6178","addr":"경기도 여주시 천송동 31-1번지","indutype":"일반휴게음식 - 일반한식","category":"restaurant"}]},{"lat":"37.30132993","long":"127.65588644","imageIndex":4,"items":[{"name":"원스치킨","tel":"","addr":"경기도 여주시 천송동 304-4번지","indutype":"일반휴게음식 - 일반한식","category":"restaurant"}]},{"lat":"37.299439955","long":"127.65549791","imageIndex":4,"items":[{"name":"천가셀프","tel":"031-885-1663","addr":"경기도 여주시 천송동 294-3번지","indutype":"일반휴게음식 - 일반한식","category":"restaurant"}]},{"lat":"37.310406814","long":"127.65846913","imageIndex":4,"items":[{"name":"천송매운탕","tel":"031-885-9029","addr":"경기도 여주시 천송동 407-1번지","indutype":"일반휴게음식 - 일반한식","category":"restaurant"}]},{"lat":"37.301745925","long":"127.66049181","imageIndex":4,"items":[{"name":"천송정","tel":"031-0000-0000","addr":"경기도 여주시 천송동 299-16번지","indutype":"일반휴게음식 - 일반한식","category":"restaurant"}]},{"lat":"37.302437593","long":"127.64777517","imageIndex":4,"items":[{"name":"청춘","tel":"031-884-2200","addr":"경기도 여주시 천송동 589-3번지","indutype":"일반휴게음식 - 일반한식","category":"restaurant"},{"name":"청춘","tel":"031-884-2200","addr":"경기도 여주시 천송동 589-3번지","indutype":"일반휴게음식 - 일반한식","category":"restaurant"}]},{"lat":"37.299554161","long":"127.65111155","imageIndex":4,"items":[{"name":"카페라이브러리","tel":"031-885-3237","addr":"경기도 여주시 천송동 561-3번지","indutype":"일반휴게음식 - 서양음식","category":"restaurant"}]},{"lat":"37.301215211","long":"127.65052803","imageIndex":4,"items":[{"name":"카페힐링","tel":"031-883-0800","addr":"경기도 여주시 천송동 563-6번지 일성남한강콘도미니엄 지하1층","indutype":"일반휴게음식 - 서양음식","category":"restaurant"}]},{"lat":"37.302380953","long":"127.6482484","imageIndex":4,"items":[{"name":"코코로","tel":"031-881-0505","addr":"경기도 여주시 천송동 591-1번지 1층","indutype":"일반휴게음식 - 일반한식","category":"restaurant"}]},{"lat":"37.301717768","long":"127.66069458","imageIndex":4,"items":[{"name":"콩닭콩닭","tel":"031-884-9563","addr":"경기도 여주시 천송동 299-17번지","indutype":"일반휴게음식 - 일반한식","category":"restaurant"}]},{"lat":"37.30224507","long":"127.64838259","imageIndex":4,"items":[{"name":"태백골","tel":"031-855-5523","addr":"경기도 여주시 천송동 591-2번지","indutype":"일반휴게음식 - 일반한식","category":"restaurant"}]},{"lat":"37.30124841","long":"127.65432926","imageIndex":4,"items":[{"name":"통달배 족발 보쌈 삼겹 여주점","tel":"031-885-3530","addr":"경기도 여주시 천송동 541-19번지 1층","indutype":"일반휴게음식 - 일반한식","category":"restaurant"}]},{"lat":"37.30291555","long":"127.66724685","imageIndex":4,"items":[{"name":"한양관","tel":"031-885-6778","addr":"경기도 여주시 천송동 57-3번지","indutype":"일반휴게음식 - 일반한식","category":"restaurant"}]},{"lat":"37.298661459","long":"127.65452124","imageIndex":4,"items":[{"name":"해피푸드","tel":"070-8161-8359","addr":"경기도 여주시 천송동 289-1번지","indutype":"일반휴게음식 - 일반한식","category":"restaurant"}]},{"lat":"37.3010528037","long":"127.6538538703","imageIndex":4,"items":[{"name":"향토집","tel":"031-885-1261","addr":"경기도 여주시 천송동 539-1번지","indutype":"일반휴게음식 - 일반한식","category":"restaurant"}]},{"lat":"37.302939614","long":"127.64824189","imageIndex":4,"items":[{"name":"화봉돼지순대국밥","tel":"031-883-8959","addr":"경기도 여주시 천송동 590-1번지 2","indutype":"일반휴게음식 - 일반한식","category":"restaurant"}]},{"lat":"37.301465128","long":"127.65913591","imageIndex":4,"items":[{"name":"흥부네웰빙(빈e)","tel":"031-886-8085","addr":"경기도 여주시 천송동 299-8번지 1층","indutype":"일반휴게음식 - 일반한식","category":"restaurant"}]}]