[{"lat":"37.725842485","long":"126.79295622","imageIndex":4,"items":[{"name":"cafe&갤러리펫","tel":"031-461-0359","addr":"경기도 파주시 상지석동 133-43번지","indutype":"일반휴게음식 - 서양음식","category":"restaurant"}]},{"lat":"37.729258678","long":"126.78881753","imageIndex":4,"items":[{"name":"가현이네","tel":"031-942-6927","addr":"경기도 파주시 상지석동 190-172번지","indutype":"일반휴게음식 - 일반한식","category":"restaurant"}]},{"lat":"37.720982051","long":"126.78078832","imageIndex":4,"items":[{"name":"고향식당","tel":"031-975-3595","addr":"경기도 파주시 상지석동 549-9번지","indutype":"일반휴게음식 - 일반한식","category":"restaurant"}]},{"lat":"37.731180267","long":"126.78046293","imageIndex":4,"items":[{"name":"괸돌 순두부","tel":"031-947-5455","addr":"경기도 파주시 상지석동 449-2번지","indutype":"일반휴게음식 - 일반한식","category":"restaurant"}]},{"lat":"37.725591904","long":"126.76987395","imageIndex":4,"items":[{"name":"구제카페 서른","tel":"031-946-0961","addr":"경기도 파주시 상지석동 991-7번지","indutype":"일반휴게음식 - 서양음식","category":"restaurant"},{"name":"하림멕시칸","tel":"031-948-9233","addr":"경기도 파주시 상지석동 991-7 나동","indutype":"일반휴게음식 - 주점","category":"restaurant"}]},{"lat":"37.722760981","long":"126.77348975","imageIndex":4,"items":[{"name":"그리핀도르","tel":"","addr":"경기도 파주시 상지석동 601-2번지","indutype":"일반휴게음식 - 서양음식","category":"restaurant"},{"name":"아리바바피자","tel":"031-947-7334","addr":"경기도 파주시 상지석동 601-2","indutype":"일반휴게음식 - 서양음식","category":"restaurant"}]},{"lat":"37.72381348","long":"126.77265848","imageIndex":4,"items":[{"name":"기란정","tel":"031-942-9939","addr":"경기도 파주시 상지석동 995-3번지","indutype":"일반휴게음식 - 중국식","category":"restaurant"},{"name":"화(  )갈비본가","tel":"031-945-1978","addr":"경기도 파주시 상지석동 995-3번지","indutype":"일반휴게음식 - 일반한식","category":"restaurant"}]},{"lat":"37.721485172","long":"126.78003823","imageIndex":4,"items":[{"name":"늘푸른식당","tel":"031-945-9059","addr":"경기도 파주시 상지석동 511-9번지","indutype":"일반휴게음식 - 일반한식","category":"restaurant"},{"name":"주은이네 집밥","tel":"031-945-9059","addr":"경기도 파주시 상지석동 511-9번지","indutype":"일반휴게음식 - 일반한식","category":"restaurant"},{"name":"파주돌짜장","tel":"070-4413-7700","addr":"경기도 파주시 상지석동 511-9번지","indutype":"일반휴게음식 - 중국식","category":"restaurant"}]},{"lat":"37.729235476","long":"126.78598171","imageIndex":4,"items":[{"name":"동해루","tel":"031-942-8969","addr":"경기도 파주시 상지석동 177-172,177-173","indutype":"일반휴게음식 - 중국식","category":"restaurant"}]},{"lat":"37.72525862","long":"126.76990902","imageIndex":4,"items":[{"name":"동화","tel":"031-944-0206","addr":"경기도 파주시 상지석동 991번지","indutype":"일반휴게음식 - 중국식","category":"restaurant"},{"name":"섬마을활어횟집","tel":"031-942-8832","addr":"경기도 파주시 상지석동 991번지","indutype":"일반휴게음식 - 일식·회집","category":"restaurant"},{"name":"커피톡","tel":"070-7639-5663","addr":"경기도 파주시 상지석동 991번지","indutype":"일반휴게음식 - 서양음식","category":"restaurant"}]},{"lat":"37.724010869","long":"126.77223819","imageIndex":4,"items":[{"name":"뚠돈","tel":"070-8881-4646","addr":"경기도 파주시 상지석동 994번지","indutype":"일반휴게음식 - 일반한식","category":"restaurant"},{"name":"와우피치","tel":"031-944-7934","addr":"경기도 파주시 상지석동 994번지","indutype":"일반휴게음식 - 서양음식","category":"restaurant"}]},{"lat":"37.724702422","long":"126.77112445","imageIndex":4,"items":[{"name":"띠띠빵빵한식부페","tel":"031-977-6096","addr":"경기도 파주시 상지석동 992-15번지","indutype":"일반휴게음식 - 일반한식","category":"restaurant"}]},{"lat":"37.721343584","long":"126.78139973","imageIndex":4,"items":[{"name":"밥상","tel":"02-3667-2068","addr":"경기도 파주시 상지석동 547-7번지","indutype":"일반휴게음식 - 일반한식","category":"restaurant"}]},{"lat":"37.725320519","long":"126.76931899","imageIndex":4,"items":[{"name":"사또돼지부속","tel":"031-8071-1198","addr":"경기도 파주시 상지석동 990-16번지","indutype":"일반휴게음식 - 일반한식","category":"restaurant"}]},{"lat":"37.7310932","long":"126.78207401","imageIndex":4,"items":[{"name":"순이네밥상","tel":"031-946-8332","addr":"경기도 파주시 상지석동 452-27번지","indutype":"일반휴게음식 - 일반한식","category":"restaurant"}]},{"lat":"37.723621754","long":"126.79051247","imageIndex":4,"items":[{"name":"쑥스럼","tel":"031-943-7227","addr":"경기도 파주시 상지석동 133-19번지","indutype":"일반휴게음식 - 일반한식","category":"restaurant"}]},{"lat":"37.722758985","long":"126.78673786","imageIndex":4,"items":[{"name":"에덴한식부페","tel":"031-944-7333","addr":"경기도 파주시 상지석동 139-7번지","indutype":"일반휴게음식 - 일반한식","category":"restaurant"}]},{"lat":"37.721651349","long":"126.77740629","imageIndex":4,"items":[{"name":"옛날국수집","tel":"031-942-8548","addr":"경기도 파주시 상지석동 587-11","indutype":"일반휴게음식 - 일반한식","category":"restaurant"}]},{"lat":"37.733036455","long":"126.77585166","imageIndex":4,"items":[{"name":"오래된 서점","tel":"070-8821-3355","addr":"경기도 파주시 상지석동 697-9번지","indutype":"일반휴게음식 - 서양음식","category":"restaurant"}]},{"lat":"37.729372928","long":"126.78724044","imageIndex":4,"items":[{"name":"웰빙한정식부페","tel":"031-944-3441","addr":"경기도 파주시 상지석동 190-25번지","indutype":"일반휴게음식 - 일반한식","category":"restaurant"}]},{"lat":"37.724899716","long":"126.77065877","imageIndex":4,"items":[{"name":"장안포차","tel":"","addr":"경기도 파주시 상지석동 990-31번지","indutype":"일반휴게음식 - 주점","category":"restaurant"}]},{"lat":"37.725843677","long":"126.76962361","imageIndex":4,"items":[{"name":"진 자갈자갈","tel":"031-111-1111","addr":"경기도 파주시 상지석동 991-5번지","indutype":"일반휴게음식 - 일반한식","category":"restaurant"}]},{"lat":"37.7351502","long":"126.77404144","imageIndex":4,"items":[{"name":"초가누룽지백숙","tel":"031-946-3763","addr":"경기도 파주시 상지석동 679-7번지","indutype":"일반휴게음식 - 일반한식","category":"restaurant"}]},{"lat":"37.723619679","long":"126.77492762","imageIndex":4,"items":[{"name":"한일정","tel":"031-942-7569","addr":"경기도 파주시 상지석동 604-10번지","indutype":"일반휴게음식 - 일반한식","category":"restaurant"}]},{"lat":"37.728229668","long":"126.76884478","imageIndex":4,"items":[{"name":"헤이미쉬","tel":"031-942-0293","addr":"경기도 파주시 상지석동 974-10번지","indutype":"일반휴게음식 - 서양음식","category":"restaurant"}]},{"lat":"37.71659935","long":"126.77396241","imageIndex":4,"items":[{"name":"황룡산오리","tel":"031-943-0959","addr":"경기도 파주시 상지석동 552-1번지","indutype":"일반휴게음식 - 일반한식","category":"restaurant"}]}]