[{"lat":"37.844779887","long":"127.15845134","imageIndex":4,"items":[{"name":"8요일치킨","tel":"031-534-8385","addr":"경기도 포천시 설운동 70-11번지 B동","indutype":"일반휴게음식 - 서양음식","category":"restaurant"},{"name":"8요일키친","tel":"543-4005","addr":"경기도 포천시 설운동 70-11번지","indutype":"음식 - 양식","category":"restaurant"},{"name":"옥의야해장국","tel":"544-4144","addr":"경기도 포천시 설운동 70-11번지","indutype":"음식 - 한식","category":"restaurant"}]},{"lat":"37.845751724","long":"127.15933957","imageIndex":4,"items":[{"name":"가리반점","tel":"031-534-4121","addr":"경기도 포천시 설운동 78-1번지 1층","indutype":"일반휴게음식 - 중국식","category":"restaurant"},{"name":"가리반점","tel":"543-4121","addr":"경기도 포천시 설운동 78-1번지","indutype":"음식 - 중식","category":"restaurant"},{"name":"수랏간양평해장국(송우점)","tel":"031-543-0779","addr":"경기도 포천시 설운동 78-1번지","indutype":"일반휴게음식 - 일반한식","category":"restaurant"}]},{"lat":"37.857974887","long":"127.1396956","imageIndex":4,"items":[{"name":"공원가든","tel":"542-8600","addr":"경기도 포천시 설운동 561-20번지","indutype":"음식 - 한식","category":"restaurant"},{"name":"공원가든","tel":"031-542-8600","addr":"경기도 포천시 설운동 561-20번지","indutype":"일반휴게음식 - 일반한식","category":"restaurant"}]},{"lat":"37.865413826","long":"127.14208451","imageIndex":4,"items":[{"name":"드리","tel":"031-542-2173","addr":"경기도 포천시 설운동 474-8번지 라동 1층","indutype":"일반휴게음식 - 일반한식","category":"restaurant"},{"name":"드리","tel":"542-2173","addr":"경기도 포천시 설운동 474-8번지 다동 1층","indutype":"음식 - 한식","category":"restaurant"}]},{"lat":"37.845309752","long":"127.15972492","imageIndex":4,"items":[{"name":"로컬아이(Locali)","tel":"070-8848-6478","addr":"경기도 포천시 설운동 72-2번지","indutype":"일반휴게음식 - 일반한식","category":"restaurant"}]},{"lat":"37.84674932","long":"127.16117088","imageIndex":4,"items":[{"name":"보우칼국수","tel":"031-544-2427","addr":"경기도 포천시 설운동 16-3번지 1층","indutype":"일반휴게음식 - 일반한식","category":"restaurant"},{"name":"칼뽕","tel":"031-544-1122","addr":"경기도 포천시 설운동 16-3번지 A동","indutype":"일반휴게음식 - 중국식","category":"restaurant"}]},{"lat":"37.846281397","long":"127.16074951","imageIndex":4,"items":[{"name":"삼천리손짜장","tel":"031-543-6633","addr":"경기도 포천시 설운동 13-8번지","indutype":"일반휴게음식 - 중국식","category":"restaurant"}]},{"lat":"37.861944326","long":"127.14283937","imageIndex":4,"items":[{"name":"아미고스","tel":"541-9456","addr":"경기도 포천시 설운동 530-5번지","indutype":"음식 - 커피 등","category":"restaurant"},{"name":"아미고스 (Amigos)","tel":"031-535-0825","addr":"경기도 포천시 설운동 530-5번지","indutype":"일반휴게음식 - 서양음식","category":"restaurant"}]},{"lat":"37.845445738","long":"127.15908897","imageIndex":4,"items":[{"name":"여단정","tel":"031-541-6733","addr":"경기도 포천시 설운동 78-4번지 1층","indutype":"일반휴게음식 - 일반한식","category":"restaurant"},{"name":"여단정","tel":"541-6733","addr":"경기도 포천시 설운동 78-4번지","indutype":"음식 - 한식","category":"restaurant"}]},{"lat":"37.845615555","long":"127.16011185","imageIndex":4,"items":[{"name":"한국맥도날드(유)포천점","tel":"070-7017-0674","addr":"경기도 포천시 설운동 13-7번지","indutype":"일반휴게음식 - 서양음식","category":"restaurant"}]},{"lat":"37.856559545","long":"127.14044295","imageIndex":4,"items":[{"name":"한누리","tel":"541-5258","addr":"경기도 포천시 설운동 560-25번지","indutype":"음식 - 한식","category":"restaurant"},{"name":"한누리","tel":"031-541-5258","addr":"경기도 포천시 설운동 560-25번지 1층","indutype":"일반휴게음식 - 일반한식","category":"restaurant"}]}]