[{"lat":"37.848173767","long":"127.19113486","imageIndex":4,"items":[{"name":"COFFEEON\"(커피온\")","tel":"031-541-2244","addr":"경기도 포천시 가산면 마산리 144-5번지","indutype":"일반휴게음식 - 서양음식","category":"restaurant"},{"name":"COFFEEON(커피온)","tel":"541-2244","addr":"경기도 포천시 가산면 마산리 144-5번지","indutype":"음식 - 커피 등","category":"restaurant"},{"name":"다정","tel":"031-541-9901","addr":"경기도 포천시 가산면 마산리 144-5번지 1층","indutype":"일반휴게음식 - 일반한식","category":"restaurant"},{"name":"다정","tel":"541-9901","addr":"경기도 포천시 가산면 마산리 144-5번지 1층","indutype":"음식 - 한식","category":"restaurant"},{"name":"머피온","tel":"541-2244","addr":"경기도 포천시 가산면 마산리 144-5번지 1층","indutype":"음식 - 커피 등","category":"restaurant"},{"name":"삼거리횟집","tel":"541-2770","addr":"경기도 포천시 가산면 마산리 144-5번지","indutype":"음식 - 일식","category":"restaurant"},{"name":"삼거리횟집","tel":"031-541-2770","addr":"경기도 포천시 가산면 마산리 144-5번지 1층","indutype":"일반휴게음식 - 일식·회집","category":"restaurant"},{"name":"해두리치킨(가산점)","tel":"031-541-3777","addr":"경기도 포천시 가산면 마산리 144-5번지 2층","indutype":"일반휴게음식 - 스넥","category":"restaurant"},{"name":"해두리치킨가산점","tel":"541-3777","addr":"경기도 포천시 가산면 마산리 144-5번지","indutype":"음식 - 치킨","category":"restaurant"}]},{"lat":"37.847749473","long":"127.19166778","imageIndex":4,"items":[{"name":"가산뼈해장국","tel":"031-542-9466","addr":"경기도 포천시 가산면 마산리 186-1번지","indutype":"일반휴게음식 - 일반한식","category":"restaurant"},{"name":"예린치킨","tel":"542-8845","addr":"경기도 포천시 가산면 마산리 186-1번지","indutype":"음식 - 치킨","category":"restaurant"},{"name":"예린호프","tel":"031-542-8845","addr":"경기도 포천시 가산면 마산리 186-1번지","indutype":"일반휴게음식 - 주점","category":"restaurant"},{"name":"킹","tel":"031-541-2078","addr":"경기도 포천시 가산면 마산리 186-1번지","indutype":"일반휴게음식 - 주점","category":"restaurant"},{"name":"한우마루","tel":"","addr":"경기도 포천시 가산면 마산리 186-1번지","indutype":"음식 - 한식","category":"restaurant"},{"name":"한우마루","tel":"031-532-8402","addr":"경기도 포천시 가산면 마산리 186-1번지","indutype":"일반휴게음식 - 일반한식","category":"restaurant"}]},{"lat":"37.847256534","long":"127.19005318","imageIndex":4,"items":[{"name":"가산옥","tel":"070-8973-8936","addr":"경기도 포천시 가산면 마산리 183-21번지","indutype":"일반휴게음식 - 일반한식","category":"restaurant"},{"name":"가산옥","tel":"541-8936","addr":"경기도 포천시 가산면 마산리 183-21번지","indutype":"음식 - 한식","category":"restaurant"},{"name":"김밥나라","tel":"031-543-4514","addr":"경기도 포천시 가산면 마산리 183-21번지","indutype":"일반휴게음식 - 스넥","category":"restaurant"},{"name":"처갓집","tel":"031-543-0575","addr":"경기도 포천시 가산면 마산리 183-21","indutype":"일반휴게음식 - 주점","category":"restaurant"}]},{"lat":"37.845973865","long":"127.18644837","imageIndex":4,"items":[{"name":"가산지짐이","tel":"031-542-5581","addr":"경기도 포천시 가산면 마산리 43-11번지 1층","indutype":"일반휴게음식 - 일반한식","category":"restaurant"},{"name":"오렌지카페호프","tel":"031-544-0018","addr":"경기도 포천시 가산면 마산리 43-11번지","indutype":"일반휴게음식 - 주점","category":"restaurant"}]},{"lat":"37.845230255","long":"127.1837539","imageIndex":4,"items":[{"name":"가산토스트","tel":"543-7771","addr":"경기도 포천시 가산면 마산리 431-2번지 1층","indutype":"음식 - 분식","category":"restaurant"}]},{"lat":"37.844476402","long":"127.18183202","imageIndex":4,"items":[{"name":"가산토스트","tel":"031-543-7771","addr":"경기도 포천시 가산면 마산리 435-10번지","indutype":"일반휴게음식 - 스넥","category":"restaurant"}]},{"lat":"37.845697465","long":"127.18458442","imageIndex":4,"items":[{"name":"김연숙가정식백반","tel":"031-543-7006","addr":"경기도 포천시 가산면 마산리 39-28번지","indutype":"일반휴게음식 - 일반한식","category":"restaurant"},{"name":"어느달브레드카페","tel":"031-543-4047","addr":"경기도 포천시 가산면 마산리 39-28번지 가동 1층","indutype":"일반휴게음식 - 서양음식","category":"restaurant"},{"name":"어느달브레드카페","tel":"-","addr":"경기도 포천시 가산면 마산리 39-28번지 가동 1층","indutype":"음식 - 커피 등","category":"restaurant"}]},{"lat":"37.847448319","long":"127.18841759","imageIndex":4,"items":[{"name":"꾸이꾸이덕","tel":"031-544-9293","addr":"경기도 포천시 가산면 마산리 149-2 외1필지","indutype":"일반휴게음식 - 일반한식","category":"restaurant"}]},{"lat":"37.845696059","long":"127.18549332","imageIndex":4,"items":[{"name":"네네치킨 가산점","tel":"031-541-9585","addr":"경기도 포천시 가산면 마산리 42-18번지","indutype":"일반휴게음식 - 스넥","category":"restaurant"},{"name":"황룡","tel":"031-542-5752","addr":"경기도 포천시 가산면 마산리 42-18번지","indutype":"일반휴게음식 - 중국식","category":"restaurant"}]},{"lat":"37.847501945","long":"127.1886904","imageIndex":4,"items":[{"name":"농원쌈밥","tel":"031-544-8678","addr":"경기도 포천시 가산면 마산리 150-5번지","indutype":"일반휴게음식 - 일반한식","category":"restaurant"},{"name":"농원쌈밥","tel":"544-3005","addr":"경기도 포천시 가산면 마산리 150-5번지","indutype":"음식 - 한식","category":"restaurant"}]},{"lat":"37.847721697","long":"127.19213354","imageIndex":4,"items":[{"name":"다빈 중화요리","tel":"031-543-8653","addr":"경기도 포천시 가산면 마산리 186번지","indutype":"일반휴게음식 - 중국식","category":"restaurant"}]},{"lat":"37.846891915","long":"127.18703008","imageIndex":4,"items":[{"name":"다우리명태간장게장","tel":"031-542-1203","addr":"경기도 포천시 가산면 마산리 399-36번지","indutype":"일반휴게음식 - 일반한식","category":"restaurant"}]},{"lat":"37.847141392","long":"127.18880311","imageIndex":4,"items":[{"name":"또래오래 (가산점)","tel":"031-5419-8990","addr":"경기도 포천시 가산면 마산리 183-8번지 평화빌딩 1층","indutype":"일반휴게음식 - 스넥","category":"restaurant"},{"name":"손큰할매순대국 (가산점)","tel":"031-544-6555","addr":"경기도 포천시 가산면 마산리 183-8번지 평화빌딩 1층","indutype":"일반휴게음식 - 일반한식","category":"restaurant"}]},{"lat":"37.847810528","long":"127.19291772","imageIndex":4,"items":[{"name":"부대찌개&솥뚜껑삼겹살","tel":"031-544-1864","addr":"경기도 포천시 가산면 마산리 142-7번지","indutype":"일반휴게음식 - 일반한식","category":"restaurant"}]},{"lat":"37.846479344","long":"127.1858361","imageIndex":4,"items":[{"name":"북쟁이","tel":"031-535-0825","addr":"경기도 포천시 가산면 마산리 402-21번지 행복아파트","indutype":"일반휴게음식 - 일반한식","category":"restaurant"}]},{"lat":"37.84622717","long":"127.18577867","imageIndex":4,"items":[{"name":"북쟁이","tel":"","addr":"경기도 포천시 가산면 마산리 402-5번지","indutype":"음식 - 한식","category":"restaurant"}]},{"lat":"37.846999991","long":"127.18705307","imageIndex":4,"items":[{"name":"비비큐가산점","tel":"031-541-9234","addr":"경기도 포천시 가산면 마산리 399-25번지","indutype":"일반휴게음식 - 스넥","category":"restaurant"},{"name":"카페밀빈앤티","tel":"-","addr":"경기도 포천시 가산면 마산리 399-25번지","indutype":"음식 - 커피 등","category":"restaurant"},{"name":"카페밀빈앤티","tel":"070-7434-0058","addr":"경기도 포천시 가산면 마산리 399-25번지","indutype":"일반휴게음식 - 서양음식","category":"restaurant"}]},{"lat":"37.848532113","long":"127.18671603","imageIndex":4,"items":[{"name":"사랑채","tel":"031-543-7773","addr":"경기도 포천시 가산면 마산리 601-2번지 1층","indutype":"일반휴게음식 - 일반한식","category":"restaurant"},{"name":"사랑채","tel":"544-7773","addr":"경기도 포천시 가산면 마산리 601-2번지","indutype":"음식 - 한식","category":"restaurant"}]},{"lat":"37.847252342","long":"127.18699689","imageIndex":4,"items":[{"name":"설악칡냉면","tel":"031-543-6663","addr":"경기도 포천시 가산면 마산리 399-21번지","indutype":"일반휴게음식 - 일반한식","category":"restaurant"},{"name":"설악칡냉면","tel":"543-6663","addr":"경기도 포천시 가산면 마산리 399-21번지","indutype":"음식 - 한식","category":"restaurant"}]},{"lat":"37.844368669","long":"127.18158181","imageIndex":4,"items":[{"name":"소먹고 돼지먹고","tel":"542-9252","addr":"경기도 포천시 가산면 마산리 435-11번지","indutype":"음식 - 한식","category":"restaurant"},{"name":"소먹고 돼지먹고","tel":"031-542-9252","addr":"경기도 포천시 가산면 마산리 435-11번지","indutype":"일반휴게음식 - 일반한식","category":"restaurant"}]},{"lat":"37.847534503","long":"127.19088328","imageIndex":4,"items":[{"name":"신의주찹쌀순대&감자탕","tel":"542-2829","addr":"경기도 포천시 가산면 마산리 184-3번지","indutype":"음식 - 한식","category":"restaurant"},{"name":"신의주찹쌀순대&감자탕","tel":"031-542-2829","addr":"경기도 포천시 가산면 마산리 184-3번지 1층","indutype":"일반휴게음식 - 일반한식","category":"restaurant"}]},{"lat":"37.846091394","long":"127.18618735","imageIndex":4,"items":[{"name":"쏨땀타이","tel":"031-544-5059","addr":"경기도 포천시 가산면 마산리 43-8번지","indutype":"일반휴게음식 - 일반한식","category":"restaurant"},{"name":"쏨땀타이","tel":"544-5059","addr":"경기도 포천시 가산면 마산리 43-8번지","indutype":"음식 - 외국음식","category":"restaurant"},{"name":"오누이포차","tel":"031-541-0266","addr":"경기도 포천시 가산면 마산리 43-8번지","indutype":"일반휴게음식 - 일반한식","category":"restaurant"}]},{"lat":"37.847726173","long":"127.18932722","imageIndex":4,"items":[{"name":"아름드리회","tel":"541-7749","addr":"경기도 포천시 가산면 마산리 150-1번지","indutype":"음식 - 일식","category":"restaurant"},{"name":"아름드리횟집","tel":"031-544-7749","addr":"경기도 포천시 가산면 마산리 150-1번지 아름드리할인마트내","indutype":"일반휴게음식 - 일식·회집","category":"restaurant"}]},{"lat":"37.843144016","long":"127.18116986","imageIndex":4,"items":[{"name":"엄마손밥상","tel":"031-544-5618","addr":"경기도 포천시 가산면 마산리 27번지","indutype":"일반휴게음식 - 일반한식","category":"restaurant"},{"name":"엄마손밥상","tel":"544-5618","addr":"경기도 포천시 가산면 마산리 27번지","indutype":"음식 - 한식","category":"restaurant"}]},{"lat":"37.846306839","long":"127.18668778","imageIndex":4,"items":[{"name":"영순이해물찜","tel":"031-544-2159","addr":"경기도 포천시 가산면 마산리 181-2번지 3/3","indutype":"일반휴게음식 - 일반한식","category":"restaurant"},{"name":"영순이해물찜","tel":"544-2159","addr":"경기도 포천시 가산면 마산리 181-2번지","indutype":"음식 - 한식","category":"restaurant"}]},{"lat":"37.847284391","long":"127.18953061","imageIndex":4,"items":[{"name":"옛날통닭","tel":"","addr":"경기도 포천시 가산면 마산리 183-7번지 가동 1층","indutype":"일반휴게음식 - 스넥","category":"restaurant"},{"name":"이모네분식","tel":"535-6787","addr":"경기도 포천시 가산면 마산리 183-7번지 가동 1층","indutype":"음식 - 분식","category":"restaurant"},{"name":"이모네분식","tel":"031-535-6787","addr":"경기도 포천시 가산면 마산리 183-7번지 가동 1층","indutype":"일반휴게음식 - 스넥","category":"restaurant"}]},{"lat":"37.846639226","long":"127.18730213","imageIndex":4,"items":[{"name":"옹달샘","tel":"031-543-2377","addr":"경기도 포천시 가산면 마산리 398-11번지","indutype":"일반휴게음식 - 일반한식","category":"restaurant"}]},{"lat":"37.847833186","long":"127.19002055","imageIndex":4,"items":[{"name":"웰덤치킨 포천가산점","tel":"031-543-8517","addr":"경기도 포천시 가산면 마산리 146-1번지 102호","indutype":"일반휴게음식 - 스넥","category":"restaurant"}]},{"lat":"37.84794991","long":"127.1902708","imageIndex":4,"items":[{"name":"이웃사촌","tel":"541-9259","addr":"경기도 포천시 가산면 마산리 146-4번지","indutype":"음식 - 치킨등","category":"restaurant"}]},{"lat":"37.843504321","long":"127.18121617","imageIndex":4,"items":[{"name":"장군왕족발보쌈","tel":"031-541-2667","addr":"경기도 포천시 가산면 마산리 339-6번지","indutype":"일반휴게음식 - 일반한식","category":"restaurant"}]},{"lat":"37.846863403","long":"127.19910733","imageIndex":4,"items":[{"name":"제일푸드","tel":"031-542-8979","addr":"경기도 포천시 가산면 마산리 133-4번지 1층","indutype":"일반휴게음식 - 위탁급식업","category":"restaurant"}]},{"lat":"37.847027393","long":"127.19249533","imageIndex":4,"items":[{"name":"진수성찬뷔페","tel":"541-2256","addr":"경기도 포천시 가산면 마산리 172-3번지","indutype":"음식 - 한식","category":"restaurant"},{"name":"진수성찬뷔페","tel":"031-541-2256","addr":"경기도 포천시 가산면 마산리 172-3번지 1층","indutype":"일반휴게음식 - 일반한식","category":"restaurant"}]},{"lat":"37.848416929","long":"127.19119229","imageIndex":4,"items":[{"name":"춘하추동 간장게장","tel":"031-543-1440","addr":"경기도 포천시 가산면 마산리 144-1번지","indutype":"일반휴게음식 - 일반한식","category":"restaurant"}]},{"lat":"37.847784071","long":"127.1868846","imageIndex":4,"items":[{"name":"토대박","tel":"031-541-9421","addr":"경기도 포천시 가산면 마산리 595-5번지","indutype":"일반휴게음식 - 일반한식","category":"restaurant"}]},{"lat":"37.846971431","long":"127.1880301","imageIndex":4,"items":[{"name":"하우스만찬","tel":"070-4300-3064","addr":"경기도 포천시 가산면 마산리 152-6번지","indutype":"일반휴게음식 - 일반한식","category":"restaurant"}]},{"lat":"37.848223963","long":"127.18788553","imageIndex":4,"items":[{"name":"한성식당","tel":"541-2777","addr":"경기도 포천시 가산면 마산리 598번지","indutype":"음식 - 한식","category":"restaurant"},{"name":"한성식당","tel":"031-541-2777","addr":"경기도 포천시 가산면 마산리 598번지","indutype":"일반휴게음식 - 일반한식","category":"restaurant"}]},{"lat":"37.847949458","long":"127.19055484","imageIndex":4,"items":[{"name":"해바라기","tel":"031-541-3309","addr":"경기도 포천시 가산면 마산리 146-5번지","indutype":"일반휴게음식 - 일반한식","category":"restaurant"}]},{"lat":"37.847117113","long":"127.18705337","imageIndex":4,"items":[{"name":"홍차우","tel":"031-542-0977","addr":"경기도 포천시 가산면 마산리 399-51번지","indutype":"일반휴게음식 - 중국식","category":"restaurant"}]},{"lat":"37.847505296","long":"127.18655442","imageIndex":4,"items":[{"name":"화봉산가든","tel":"031-543-6268","addr":"경기도 포천시 가산면 마산리 593-8번지","indutype":"일반휴게음식 - 일반한식","category":"restaurant"},{"name":"화봉산가든","tel":"544-6869","addr":"경기도 포천시 가산면 마산리 593-8번지","indutype":"음식 - 한식","category":"restaurant"}]}]