[{"lat":"37.733976984","long":"126.72301856","imageIndex":13,"items":[{"name":"SH industry","tel":"02-821-3937","addr":"경기도 파주시 다율동 640-4","indutype":"보건위생 - 미용재료","category":"beauty"}]},{"lat":"37.726952891","long":"126.71690833","imageIndex":13,"items":[{"name":"로엠헤어살롱","tel":"031-957-3011","addr":"경기도 파주시 다율동 1000-4번지 1층","indutype":"보건위생 - 미용원","category":"beauty"}]},{"lat":"37.728759211","long":"126.71501837","imageIndex":13,"items":[{"name":"문스킨케어","tel":"031-942-5259","addr":"경기도 파주시 다율동 994-9번지","indutype":"보건위생 - 피부미용실","category":"beauty"}]},{"lat":"37.732485313","long":"126.72088015","imageIndex":13,"items":[{"name":"쁘띠헤어샵","tel":"031-945-3927","addr":"경기도 파주시 다율동 982번지","indutype":"보건위생 - 미용원","category":"beauty"},{"name":"알로에퀸","tel":"","addr":"경기도 파주시 다율동 982번지 청석마을동문굿모닝힐","indutype":"보건위생 - 피부미용실","category":"beauty"},{"name":"제이스킨(J.Skin)","tel":"031-8035-6077","addr":"경기도 파주시 다율동 982번지","indutype":"보건위생 - 피부미용실","category":"beauty"},{"name":"핑키","tel":"031-957-1022","addr":"경기도 파주시 다율동 982 상가2층","indutype":"보건위생 - 화장품","category":"beauty"}]},{"lat":"37.728481464","long":"126.71937532","imageIndex":13,"items":[{"name":"헤어룩","tel":"031-948-2155","addr":"경기도 파주시 다율동 986번지 청석마을대원효성아파트","indutype":"보건위생 - 미용원","category":"beauty"}]},{"lat":"37.727061004","long":"126.71690792","imageIndex":13,"items":[{"name":"헤어팡","tel":"070-4133-6575","addr":"경기도 파주시 다율동 1000-5번지","indutype":"보건위생 - 미용원","category":"beauty"}]}]