[{"lat":"37.687044609","long":"126.71863749","imageIndex":16,"items":[{"name":"the HOON 사회탐구","tel":"031-812-0502","addr":"경기도 고양시 일산서구 가좌동 400-2번지","indutype":"학원 - 보습학원","category":"study"},{"name":"가좌퍼스트원학원","tel":"031-923-5353","addr":"경기도 고양시 일산서구 가좌동 400-2번지","indutype":"학원 - 보습학원","category":"study"}]},{"lat":"37.683794064","long":"126.71571371","imageIndex":16,"items":[{"name":"가띠엘드론","tel":"031-913-2025","addr":"경기도 고양시 일산서구 가좌동 969번지","indutype":"학원 - 기타 교육기관","category":"study"}]},{"lat":"37.684851759","long":"126.71718341","imageIndex":16,"items":[{"name":"가좌 태권도 아카데미","tel":"031-992-1900","addr":"경기도 고양시 일산서구 가좌동 1090번지","indutype":"학원 - 예·체능계학원","category":"study"},{"name":"가좌이엠이학원","tel":"031-921-3800","addr":"경기도 고양시 일산서구 가좌동 1090번지","indutype":"학원 - 보습학원","category":"study"}]},{"lat":"37.687072976","long":"126.7191929","imageIndex":16,"items":[{"name":"가좌 해오름 학원","tel":"031-923-0050","addr":"경기도 고양시 일산서구 가좌동 390-8번지","indutype":"학원 - 보습학원","category":"study"}]},{"lat":"37.68770544","long":"126.71993874","imageIndex":16,"items":[{"name":"가좌고등학교","tel":"031-910-1993","addr":"경기도 고양시 일산서구 가좌동 1097번지","indutype":"학원 - 초중고교육기관","category":"study"},{"name":"가좌고등학교_수업료","tel":"031-910-1993","addr":"경기도 고양시 일산서구 가좌동 1097번지","indutype":"학원 - 초중고교육기관","category":"study"}]},{"lat":"37.686044333","long":"126.71855061","imageIndex":16,"items":[{"name":"가좌고릴라수학학원","tel":"031-925-4206","addr":"경기도 고양시 일산서구 가좌동 397-4번지","indutype":"회원제형태 - 학원","category":"study"}]},{"lat":"37.683782025","long":"126.72193755","imageIndex":16,"items":[{"name":"가좌국제어린이집[아이행복]","tel":"031-919-0785","addr":"경기도 고양시 일산서구 가좌동 1105번지 가좌마을7단지아파트","indutype":"학원 - 유아원","category":"study"}]},{"lat":"37.686128282","long":"126.71974067","imageIndex":16,"items":[{"name":"가좌명문학원","tel":"031-921-7773","addr":"경기도 고양시 일산서구 가좌동 392-3번지","indutype":"학원 - 보습학원","category":"study"},{"name":"몬스터영어교습소","tel":"031-911-1021","addr":"경기도 고양시 일산서구 가좌동 392-3번지","indutype":"학원 - 보습학원","category":"study"}]},{"lat":"37.686713248","long":"126.71946636","imageIndex":16,"items":[{"name":"가좌성실학원","tel":"031-925-4209","addr":"경기도 고양시 일산서구 가좌동 392-17번지","indutype":"학원 - 보습학원","category":"study"},{"name":"가좌이엠이영어학원","tel":"031-921-3800","addr":"경기도 고양시 일산서구 가좌동 392-17번지","indutype":"회원제형태 - 학원","category":"study"}]},{"lat":"37.691260263","long":"126.7220454","imageIndex":16,"items":[{"name":"가좌아람어린이집[아이행복]","tel":"031-925-2726","addr":"경기도 고양시 일산서구 가좌동 1087번지 가좌마을5단지아파트","indutype":"학원 - 유아원","category":"study"},{"name":"김쌤수학","tel":"","addr":"경기도 고양시 일산서구 가좌동 1087번지 가좌마을5단지아파트","indutype":"학원 - 보습학원","category":"study"}]},{"lat":"37.69095943","long":"126.72057263","imageIndex":16,"items":[{"name":"가좌연세음악학원","tel":"031-0000-0000","addr":"경기도 고양시 일산서구 가좌동 1087번지","indutype":"학원 - 예·체능계학원","category":"study"},{"name":"가좌하연과학교습소","tel":"","addr":"경기도 고양시 일산서구 가좌동 1087번지 가좌마을5단지아파트","indutype":"학원 - 보습학원","category":"study"},{"name":"석사 아이사랑 태권도장","tel":"031-922-0909","addr":"경기도 고양시 일산서구 가좌동 1087번지","indutype":"학원 - 예·체능계학원","category":"study"},{"name":"일산페르마학원","tel":"031-925-3330","addr":"경기도 고양시 일산서구 가좌동 1087번지","indutype":"학원 - 보습학원","category":"study"}]},{"lat":"37.687041048","long":"126.71716368","imageIndex":16,"items":[{"name":"가좌이화음악학원","tel":"031-923-6640","addr":"경기도 고양시 일산서구 가좌동","indutype":"회원제형태 - 학원","category":"study"},{"name":"경희MMA 가좌태권도장","tel":"031-923-2993","addr":"경기도 고양시 일산서구 가좌동 1089번지","indutype":"학원 - 예·체능계학원","category":"study"},{"name":"대우사과나무어린이집[아이행복]","tel":"031-922-9102","addr":"경기도 고양시 일산서구 가좌동 1089번지","indutype":"학원 - 유아원","category":"study"},{"name":"알마영어","tel":"070-7766-0710","addr":"경기도 고양시 일산서구 가좌동 1089번지 가좌마을2단지아파트","indutype":"학원 - 보습학원","category":"study"},{"name":"오킬트영어학원","tel":"031-911-0900","addr":"경기도 고양시 일산서구 가좌동 1089번지","indutype":"학원 - 보습학원","category":"study"},{"name":"위위어린이집[아이행복]","tel":"031-923-1470","addr":"경기도 고양시 일산서구 가좌동 1089번지","indutype":"학원 - 유아원","category":"study"},{"name":"제이미독서영어교습소","tel":"","addr":"경기도 고양시 일산서구 가좌동 1089번지","indutype":"학원 - 외국어학원","category":"study"},{"name":"초록벌어린이집[아이행복]","tel":"031-922-7646","addr":"경기도 고양시 일산서구 가좌동 1089번지","indutype":"학원 - 유아원","category":"study"}]},{"lat":"37.68859999","long":"126.72102373","imageIndex":16,"items":[{"name":"가좌초등학교","tel":"031-922-6044","addr":"경기도 고양시 일산서구 가좌동 1099번지","indutype":"학원 - 초중고교육기관","category":"study"},{"name":"가좌초등학교병설유치원[아이행복]","tel":"031-922-6047","addr":"경기도 고양시 일산서구 가좌동 1099번지","indutype":"학원 - 유치원","category":"study"}]},{"lat":"37.687261685","long":"126.71898811","imageIndex":16,"items":[{"name":"고양굿모닝태권도장","tel":"031-925-2524","addr":"경기도 고양시 일산서구 가좌동 405-6번지","indutype":"학원 - 예·체능계학원","category":"study"}]},{"lat":"37.687711155","long":"126.72233087","imageIndex":16,"items":[{"name":"고양송산중학교","tel":"031-910-1305","addr":"경기도 고양시 일산서구 가좌동 1100번지","indutype":"학원 - 초중고교육기관","category":"study"}]},{"lat":"37.686262036","long":"126.71916198","imageIndex":16,"items":[{"name":"고양장례지도사교육원","tel":"070-8817-9004","addr":"경기도 고양시 일산서구 가좌동 394-5번지","indutype":"회원제형태 - 학원","category":"study"},{"name":"예꼬몬테소리스쿨어린이집[아이행복]","tel":"031-923-9004","addr":"경기도 고양시 일산서구 가좌동 394-5번지","indutype":"학원 - 유아원","category":"study"}]},{"lat":"37.685156449","long":"126.72024318","imageIndex":16,"items":[{"name":"공신프리미엄독서실","tel":"031-925-8811","addr":"경기도 고양시 일산서구 가좌동 308-1번지","indutype":"학원 - 독서실","category":"study"}]},{"lat":"37.683342041","long":"126.72256272","imageIndex":16,"items":[{"name":"그린나무어린이집[아이행복]","tel":"031-923-0069","addr":"경기도 고양시 일산서구 가좌동","indutype":"학원 - 유아원","category":"study"}]},{"lat":"37.685651103","long":"126.71987853","imageIndex":16,"items":[{"name":"글사랑독서실","tel":"03-192-1008","addr":"경기도 고양시 일산서구 가좌동 392-22번지","indutype":"학원 - 독서실","category":"study"}]},{"lat":"37.689669682","long":"126.71999931","imageIndex":16,"items":[{"name":"김희은수학교실","tel":"031-911-0900","addr":"경기도 고양시 일산서구 가좌동 1088번지 가좌마을3단지아파트","indutype":"회원제형태 - 학원","category":"study"}]},{"lat":"37.686791002","long":"126.71808294","imageIndex":16,"items":[{"name":"꼬마숲푸르지오어린이집[아이행복]","tel":"031-921-8774","addr":"경기도 고양시 일산서구 가좌동 1089번지 가좌마을2단지아파트","indutype":"학원 - 유아원","category":"study"}]},{"lat":"37.689433296","long":"126.72287992","imageIndex":16,"items":[{"name":"꼬마에디슨어린이집[아이행복]","tel":"031-925-4445","addr":"경기도 고양시 일산서구 가좌동 1086번지 가좌마을6단지아파트","indutype":"학원 - 유아원","category":"study"},{"name":"나래빅스맘어린이집[아이행복]","tel":"031-914-9191","addr":"경기도 고양시 일산서구 가좌동 1086번지 가좌마을6단지아파트","indutype":"학원 - 유아원","category":"study"},{"name":"윤선생우리집앞영어교실가좌영어학원","tel":"031-921-0509","addr":"경기도 고양시 일산서구 가좌동 1086번지","indutype":"학원 - 보습학원","category":"study"}]},{"lat":"37.687439689","long":"126.71808046","imageIndex":16,"items":[{"name":"대우사과나무어린이집[아이행복]","tel":"031-922-9102","addr":"경기도 고양시 일산서구 가좌동 1089번지 가좌마을2단지아파트","indutype":"학원 - 유아원","category":"study"}]},{"lat":"37.685713435","long":"126.71957219","imageIndex":16,"items":[{"name":"드럼공작소학원","tel":"031-921-3118","addr":"경기도 고양시 일산서구 가좌동 393-4번지","indutype":"학원 - 예·체능계학원","category":"study"}]},{"lat":"37.689730099","long":"126.72266339","imageIndex":16,"items":[{"name":"리틀명성어린이집[아이행복]","tel":"070-8227-9007","addr":"경기도 고양시 일산서구 가좌동 1086번지 가좌마을6단지아파트","indutype":"학원 - 유아원","category":"study"}]},{"lat":"37.685956638","long":"126.71954859","imageIndex":16,"items":[{"name":"리틀팍스어학원","tel":"031-924-0594","addr":"경기도 고양시 일산서구 가좌동 392-26번지","indutype":"학원 - 외국어학원","category":"study"},{"name":"프라임 삼성영어학원","tel":"031-923-0501","addr":"경기도 고양시 일산서구 가좌동 392-26번지","indutype":"회원제형태 - 학원","category":"study"},{"name":"피그마리온수학교습소","tel":"031-914-4901","addr":"경기도 고양시 일산서구 가좌동 392-26번지","indutype":"학원 - 보습학원","category":"study"}]},{"lat":"37.685514767","long":"126.7231554","imageIndex":16,"items":[{"name":"마르첼로음악아카데미아학원","tel":"031-923-6567","addr":"경기도 고양시 일산서구 가좌동 202-18번지","indutype":"학원 - 예·체능계학원","category":"study"}]},{"lat":"37.686044934","long":"126.71880002","imageIndex":16,"items":[{"name":"매버릭학원","tel":"031-911-0366","addr":"경기도 고양시 일산서구 가좌동 392-18번지","indutype":"학원 - 보습학원","category":"study"}]},{"lat":"37.685336341","long":"126.7201178","imageIndex":16,"items":[{"name":"목동수학학원","tel":"031-912-9210","addr":"경기도 고양시 일산서구 가좌동 308-1번지","indutype":"학원 - 보습학원","category":"study"}]},{"lat":"37.693986894","long":"126.72446148","imageIndex":16,"items":[{"name":"미연전통음식 연구소","tel":"031-925-1785","addr":"경기도 고양시 일산서구 가좌동 91-17번지","indutype":"학원 - 기타 교육기관","category":"study"}]},{"lat":"37.692428714","long":"126.71343551","imageIndex":16,"items":[{"name":"석세스코드","tel":"02-1111-1111","addr":"경기도 고양시 일산서구 가좌동 697-1번지","indutype":"학원 - 유학원","category":"study"}]},{"lat":"37.685599842","long":"126.72104642","imageIndex":16,"items":[{"name":"송포초등학교","tel":"031-923-0166","addr":"경기도 고양시 일산서구 가좌동 355-1번지","indutype":"학원 - 초중고교육기관","category":"study"},{"name":"송포초등학교병설유치원[아이행복]","tel":"031-923-0056","addr":"경기도 고양시 일산서구 가좌동 355-1번지","indutype":"학원 - 유치원","category":"study"}]},{"lat":"37.695405158","long":"126.72224519","imageIndex":16,"items":[{"name":"신원자동차운전전문학원","tel":"031-923-0750","addr":"경기도 고양시 일산서구 가좌동 494-4번지","indutype":"학원 - 기능학원","category":"study"}]},{"lat":"37.685221617","long":"126.71737472","imageIndex":16,"items":[{"name":"아이누리어린이집[아이행복]","tel":"031-815-5430","addr":"경기도 고양시 일산서구 가좌동 1090번지 가좌마을1단지아파트","indutype":"학원 - 유아원","category":"study"}]},{"lat":"37.69043263","long":"126.71880596","imageIndex":16,"items":[{"name":"아이캔어린이집[아이행복]","tel":"031-817-3377","addr":"경기도 고양시 일산서구 가좌동 1088번지 가좌마을3단지아파트","indutype":"학원 - 유아원","category":"study"}]},{"lat":"37.684904508","long":"126.72038018","imageIndex":16,"items":[{"name":"아트앤하트가좌마을교육학원","tel":"031-922-7878","addr":"경기도 고양시 일산서구 가좌동 307-9번지","indutype":"학원 - 예·체능계학원","category":"study"}]},{"lat":"37.685237399","long":"126.72018619","imageIndex":16,"items":[{"name":"예감창그림으로생각하기미술교습소","tel":"031-922-5007","addr":"경기도 고양시 일산서구 가좌동 308-1번지","indutype":"학원 - 예·체능계학원","category":"study"}]},{"lat":"37.691183","long":"126.72365565","imageIndex":16,"items":[{"name":"오마FC","tel":"031-923-1111","addr":"경기도 고양시 일산서구 가좌동 135-1번지","indutype":"학원 - 예·체능계학원","category":"study"}]},{"lat":"37.685764955","long":"126.71851766","imageIndex":16,"items":[{"name":"와이비엠잉글루학원","tel":"031-922-2278","addr":"경기도 고양시 일산서구 가좌동 397-6번지","indutype":"학원 - 보습학원","category":"study"}]},{"lat":"37.688464087","long":"126.71696548","imageIndex":16,"items":[{"name":"위너스영어교실","tel":"","addr":"경기도 고양시 일산서구 가좌동 1089번지 가좌마을2단지아파트","indutype":"학원 - 기타 교육기관","category":"study"},{"name":"이레하바어린이집[아이행복]","tel":"070-8955-7955","addr":"경기도 고양시 일산서구 가좌동 1089번지 가좌마을2단지아파트","indutype":"학원 - 유아원","category":"study"}]},{"lat":"37.68821344","long":"126.71763535","imageIndex":16,"items":[{"name":"윤정수학교습소","tel":"031-922-9107","addr":"경기도 고양시 일산서구 가좌동 404번지","indutype":"학원 - 보습학원","category":"study"},{"name":"창작나무미술교습소","tel":"","addr":"경기도 고양시 일산서구 가좌동 404번지","indutype":"학원 - 예·체능계학원","category":"study"}]},{"lat":"37.684849989","long":"126.72018766","imageIndex":16,"items":[{"name":"이룸학원","tel":"031-923-1617","addr":"경기도 고양시 일산서구 가좌동 997-4번지","indutype":"학원 - 보습학원","category":"study"},{"name":"이룸학원","tel":"","addr":"경기도 고양시 일산서구 가좌동 997-4번지","indutype":"학원 - 보습학원","category":"study"}]},{"lat":"37.683958605","long":"126.71668803","imageIndex":16,"items":[{"name":"일산아이사랑어린이집[아이행복]","tel":"031-923-0020","addr":"경기도 고양시 일산서구 가좌동 778-1번지","indutype":"학원 - 유아원","category":"study"}]},{"lat":"37.68590018","long":"126.71855116","imageIndex":16,"items":[{"name":"주니어랩영어가좌보습학원","tel":"031-922-1105","addr":"경기도 고양시 일산서구 가좌동","indutype":"학원 - 보습학원","category":"study"}]},{"lat":"37.694538593","long":"126.71780387","imageIndex":16,"items":[{"name":"주미잉글리시클럽하우스학원","tel":"031-927-9232","addr":"경기도 고양시 일산서구 가좌동 478-1번지","indutype":"학원 - 외국어학원","category":"study"}]},{"lat":"37.689379717","long":"126.72690492","imageIndex":16,"items":[{"name":"초롱유치원","tel":"031-923-6663","addr":"경기도 고양시 일산서구 가좌동 157-5번지","indutype":"학원 - 유치원","category":"study"},{"name":"초롱유치원[아이행복]","tel":"031-923-6663","addr":"경기도 고양시 일산서구 가좌동","indutype":"학원 - 유치원","category":"study"}]},{"lat":"37.687780845","long":"126.71758032","imageIndex":16,"items":[{"name":"최쌤고등수학","tel":"","addr":"경기도 고양시 일산서구 가좌동 1089번지 가좌마을2단지아파트","indutype":"학원 - 기타 교육기관","category":"study"},{"name":"추희정개인과외교습","tel":"031-123-4567","addr":"경기도 고양시 일산서구 가좌동 1089번지 가좌마을2단지아파트","indutype":"학원 - 기타 교육기관","category":"study"}]},{"lat":"37.688279025","long":"126.71867813","imageIndex":16,"items":[{"name":"탑과외","tel":"031-922-0124","addr":"경기도 고양시 일산서구 가좌동 1088번지 가좌마을3단지아파트","indutype":"회원제형태 - 학원","category":"study"}]},{"lat":"37.686711038","long":"126.71854806","imageIndex":16,"items":[{"name":"하이클래스학원","tel":"031-915-9456","addr":"경기도 고양시 일산서구 가좌동 398-10번지","indutype":"학원 - 보습학원","category":"study"}]},{"lat":"37.691568851","long":"126.72299661","imageIndex":16,"items":[{"name":"합기도","tel":"031-921-8909","addr":"경기도 고양시 일산서구 가좌동 461-27번지","indutype":"회원제형태 - 학원","category":"study"}]},{"lat":"37.690389571","long":"126.72340919","imageIndex":16,"items":[{"name":"해나라어린이집[아이행복]","tel":"031-921-0323","addr":"경기도 고양시 일산서구 가좌동 1086번지 가좌마을6단지아파트","indutype":"학원 - 유아원","category":"study"}]}]