[{"lat":"37.149061508","long":"127.07136553","imageIndex":13,"items":[{"name":"(주)하늘공원","tel":"031-378-0480","addr":"경기도 오산시 오산동 870-1번지 세명프라자 7층","indutype":"보건위생 - 사우나","category":"beauty"},{"name":"더핀뷰티","tel":"031-373-8535","addr":"경기도 오산시 오산동 870-1번지 세명프라자 307호","indutype":"보건위생 - 피부미용실","category":"beauty"},{"name":"영미화장품","tel":"031-374-2013","addr":"경기도 오산시 오산동 870-1번지 세명프라자 202호","indutype":"보건위생 - 화장품","category":"beauty"},{"name":"하늘헤어","tel":"","addr":"경기도 오산시 오산동 870-1번지 세명프라자 801호 일부호","indutype":"보건위생 - 미용원","category":"beauty"}]},{"lat":"37.14766814","long":"127.06547732","imageIndex":13,"items":[{"name":"AN화장품","tel":"031-377-0215","addr":"경기도 오산시 오산동 622-20번지","indutype":"보건위생 - 화장품","category":"beauty"}]},{"lat":"37.149171375","long":"127.06828139","imageIndex":13,"items":[{"name":"BVC아이테라피","tel":"031-372-6684","addr":"경기도 오산시 오산동 874-5번지 용현빌딩 1층","indutype":"보건위생 - 기타대인서비스","category":"beauty"},{"name":"글라스바바안경원오산점","tel":"031-378-6681","addr":"경기도 오산시 오산동 874-5번지 용현빌딩 1층","indutype":"보건위생 - 안경","category":"beauty"}]},{"lat":"37.148062297","long":"127.06969871","imageIndex":13,"items":[{"name":"LG오휘","tel":"031-377-1037","addr":"경기도 오산시 오산동 877-19번지","indutype":"보건위생 - 화장품","category":"beauty"},{"name":"LG오휘","tel":"031-377-1037","addr":"경기도 오산시 오산동 877-19번지","indutype":"보건위생 - 화장품","category":"beauty"},{"name":"LG오휘","tel":"031-377-1037","addr":"경기도 오산시 오산동 877-19번지","indutype":"보건위생 - 화장품","category":"beauty"},{"name":"LG오휘","tel":"031-377-1037","addr":"경기도 오산시 오산동 877-19번지","indutype":"보건위생 - 화장품","category":"beauty"},{"name":"LG오휘","tel":"031-377-1037","addr":"경기도 오산시 오산동 877-19번지","indutype":"보건위생 - 화장품","category":"beauty"},{"name":"LG오휘","tel":"031-377-1037","addr":"경기도 오산시 오산동 877-19번지","indutype":"보건위생 - 화장품","category":"beauty"},{"name":"LG오휘","tel":"031-377-1037","addr":"경기도 오산시 오산동 877-19번지","indutype":"보건위생 - 화장품","category":"beauty"},{"name":"LG오휘","tel":"031-111-1111","addr":"경기도 오산시 오산동 877-19번지","indutype":"보건위생 - 화장품","category":"beauty"},{"name":"LG오휘","tel":"031-377-1037","addr":"경기도 오산시 오산동 877-19번지","indutype":"보건위생 - 화장품","category":"beauty"},{"name":"LG오휘(김주)","tel":"031-377-1037","addr":"경기도 오산시 오산동 877-19번지","indutype":"보건위생 - 화장품","category":"beauty"},{"name":"LG오휘(김향자)","tel":"031-377-1037","addr":"경기도 오산시 오산동 877-19번지","indutype":"보건위생 - 화장품","category":"beauty"},{"name":"LG오휘(이미애)","tel":"031-377-1037","addr":"경기도 오산시 오산동 877-19번지","indutype":"보건위생 - 화장품","category":"beauty"},{"name":"LG오휘오산점 / 김애자","tel":"070-7672-3051","addr":"경기도 오산시 오산동 877-19번지","indutype":"보건위생 - 화장품","category":"beauty"},{"name":"LG오휘화장품","tel":"031-377-1037","addr":"경기도 오산시 오산동 877-19번지","indutype":"보건위생 - 화장품","category":"beauty"},{"name":"엘지 오휘(문미희)","tel":"031-377-1037","addr":"경기도 오산시 오산동 877-19번지","indutype":"보건위생 - 화장품","category":"beauty"},{"name":"오휘","tel":"031-377-1037","addr":"경기도 오산시 오산동 877-19번지","indutype":"보건위생 - 화장품","category":"beauty"},{"name":"오휘","tel":"031-226-6488","addr":"경기도 오산시 오산동 877-19번지","indutype":"보건위생 - 화장품","category":"beauty"},{"name":"오휘","tel":"031-377-1037","addr":"경기도 오산시 오산동 877-19번지","indutype":"보건위생 - 화장품","category":"beauty"},{"name":"오휘","tel":"031-377-1037","addr":"경기도 오산시 오산동 877-19번지","indutype":"보건위생 - 화장품","category":"beauty"},{"name":"오휘","tel":"031-377-1037","addr":"경기도 오산시 오산동 877-19번지","indutype":"보건위생 - 화장품","category":"beauty"},{"name":"오휘","tel":"031-377-1037","addr":"경기도 오산시 오산동 877-19번지","indutype":"보건위생 - 화장품","category":"beauty"},{"name":"오휘","tel":"031-377-1037","addr":"경기도 오산시 오산동 877-19번지","indutype":"보건위생 - 화장품","category":"beauty"},{"name":"오휘","tel":"031-377-1037","addr":"경기도 오산시 오산동 877-19번지","indutype":"보건위생 - 화장품","category":"beauty"},{"name":"오휘","tel":"031-377-1037","addr":"경기도 오산시 오산동 877-19번지","indutype":"보건위생 - 화장품","category":"beauty"},{"name":"오휘","tel":"031-377-1037","addr":"경기도 오산시 오산동 877-19번지","indutype":"보건위생 - 화장품","category":"beauty"},{"name":"오휘","tel":"031-377-1037","addr":"경기도 오산시 오산동 877-19번지","indutype":"보건위생 - 화장품","category":"beauty"},{"name":"오휘","tel":"031-377-1037","addr":"경기도 오산시 오산동 877-19번지","indutype":"보건위생 - 화장품","category":"beauty"},{"name":"오휘 오산점","tel":"031-377-1037","addr":"경기도 오산시 오산동 877-19번지 1층","indutype":"보건위생 - 화장품","category":"beauty"},{"name":"오휘 화장품","tel":"031-377-1037","addr":"경기도 오산시 오산동 877-19번지 1층","indutype":"보건위생 - 화장품","category":"beauty"},{"name":"오휘(김민경)","tel":"031-377-1037","addr":"경기도 오산시 오산동 877-19번지","indutype":"보건위생 - 화장품","category":"beauty"},{"name":"오휘(김지연)","tel":"031-377-1037","addr":"경기도 오산시 오산동 877-19번지","indutype":"보건위생 - 화장품","category":"beauty"},{"name":"오휘(유영숙)","tel":"031-377-1037","addr":"경기도 오산시 오산동 877-19번지","indutype":"보건위생 - 화장품","category":"beauty"},{"name":"오휘오산","tel":"031-377-1037","addr":"경기도 오산시 오산동 877-19번지","indutype":"보건위생 - 화장품","category":"beauty"},{"name":"오휘오산점","tel":"031-377-1037","addr":"경기도 오산시 오산동 877-19번지","indutype":"보건위생 - 화장품","category":"beauty"},{"name":"오휘오산점","tel":"031-377-1037","addr":"경기도 오산시 오산동 877-19번지","indutype":"보건위생 - 화장품","category":"beauty"},{"name":"오휘오산점","tel":"031-377-1037","addr":"경기도 오산시 오산동 877-19번지 6층","indutype":"보건위생 - 화장품","category":"beauty"},{"name":"오휘오산점","tel":"031-377-1037","addr":"경기도 오산시 오산동 877-19번지 1층","indutype":"보건위생 - 화장품","category":"beauty"},{"name":"오휘오산점","tel":"031-377-1037","addr":"경기도 오산시 오산동 877-19번지 오휘","indutype":"보건위생 - 화장품","category":"beauty"},{"name":"오휘오산점","tel":"031-377-1037","addr":"경기도 오산시 오산동 877-19번지","indutype":"보건위생 - 화장품","category":"beauty"},{"name":"오휘오산점","tel":"031-377-1037","addr":"경기도 오산시 오산동 877-19번지","indutype":"보건위생 - 화장품","category":"beauty"},{"name":"오휘화장품","tel":"031-377-1037","addr":"경기도 오산시 오산동 877-19번지","indutype":"보건위생 - 화장품","category":"beauty"},{"name":"오휘화장품","tel":"031-377-1037","addr":"경기도 오산시 오산동 877-19번지","indutype":"보건위생 - 화장품","category":"beauty"},{"name":"오휘화장품(홍정미)","tel":"031-377-1037","addr":"경기도 오산시 오산동 877-19번지","indutype":"보건위생 - 화장품","category":"beauty"}]},{"lat":"37.153865569","long":"127.06874697","imageIndex":13,"items":[{"name":"가람철학관(성명,타로,풍수지리)","tel":"031-377-1915","addr":"경기도 오산시 오산동 369-2번지","indutype":"보건위생 - 기타대인서비스","category":"beauty"}]},{"lat":"37.154419205","long":"127.07722407","imageIndex":13,"items":[{"name":"가야미용실","tel":"031-375-6269","addr":"경기도 오산시 오산동 920-5번지 주공2단지 상가 203호","indutype":"보건위생 - 미용원","category":"beauty"}]},{"lat":"37.147891901","long":"127.06825777","imageIndex":13,"items":[{"name":"가위손","tel":"070-4218-1966","addr":"경기도 오산시 오산동 875-13번지 메디타워 102호","indutype":"보건위생 - 미용원","category":"beauty"}]},{"lat":"37.144062545","long":"127.06808565","imageIndex":13,"items":[{"name":"고은피부관리실","tel":"031-377-9342","addr":"경기도 오산시 오산동 882-2번지 탑프라자 1층 118호","indutype":"보건위생 - 피부미용실","category":"beauty"},{"name":"루디아","tel":"031-378-5912","addr":"경기도 오산시 오산동 882-2번지 외1필지오산탑프라자 108호","indutype":"보건위생 - 미용원","category":"beauty"},{"name":"포낙보청기 오산센터","tel":"031-372-5999","addr":"경기도 오산시 오산동 882-2번지 탑프라자 204호","indutype":"보건위생 - 의료용품","category":"beauty"}]},{"lat":"37.152811265","long":"127.06889239","imageIndex":13,"items":[{"name":"구피샵오색시장점","tel":"031-373-8839","addr":"경기도 오산시 오산동 840-7번지 1층","indutype":"보건위생 - 미용원","category":"beauty"}]},{"lat":"37.154332666","long":"127.07130274","imageIndex":13,"items":[{"name":"금이헤어","tel":"","addr":"경기도 오산시 오산동 320-9번지 대도건설(주) 1층 3호","indutype":"보건위생 - 미용원","category":"beauty"},{"name":"금이헤어","tel":"","addr":"경기도 오산시 오산동 320-9번지 1층","indutype":"보건위생 - 미용원","category":"beauty"}]},{"lat":"37.149311273","long":"127.07560941","imageIndex":13,"items":[{"name":"금전수","tel":"031-376-9959","addr":"경기도 오산시 오산동 924-5번지 6층 601,602호","indutype":"보건위생 - 화장품","category":"beauty"},{"name":"더블유 (W)아로마앤왁싱","tel":"","addr":"경기도 오산시 오산동 924-5번지 코아프라자 202호","indutype":"보건위생 - 피부미용실","category":"beauty"},{"name":"엘림","tel":"031-377-1001","addr":"경기도 오산시 오산동 924-5번지 코아프라자 202호","indutype":"보건위생 - 기타대인서비스","category":"beauty"}]},{"lat":"37.149143881","long":"127.06911433","imageIndex":13,"items":[{"name":"김가영헤어필","tel":"031-374-2624","addr":"경기도 오산시 오산동 872-16번지","indutype":"보건위생 - 미용원","category":"beauty"}]},{"lat":"37.148915837","long":"127.07392058","imageIndex":13,"items":[{"name":"김경헤어펌","tel":"031-372-1707","addr":"경기도 오산시 오산동 867-6번지 상가 2층 조립식","indutype":"보건위생 - 미용원","category":"beauty"}]},{"lat":"37.152783294","long":"127.07055839","imageIndex":13,"items":[{"name":"김명자헤어샵","tel":"031-375-2379","addr":"경기도 오산시 오산동 837-23번지","indutype":"보건위생 - 미용원","category":"beauty"}]},{"lat":"37.150720975","long":"127.06864293","imageIndex":13,"items":[{"name":"김영미헤어샵","tel":"031-374-8157","addr":"경기도 오산시 오산동 856-15번지 1층 점포","indutype":"보건위생 - 미용원","category":"beauty"}]},{"lat":"37.149640333","long":"127.06752761","imageIndex":13,"items":[{"name":"김혜주미용실","tel":"031-375-8124","addr":"경기도 오산시 오산동 545-9번지","indutype":"보건위생 - 미용원","category":"beauty"}]},{"lat":"37.152361035","long":"127.06836293","imageIndex":13,"items":[{"name":"깍세미 헤어","tel":"031-375-9118","addr":"경기도 오산시 오산동 842-6번지","indutype":"보건위생 - 미용원","category":"beauty"},{"name":"깍세헤어","tel":"031-375-9118","addr":"경기도 오산시 오산동 842-6번지","indutype":"보건위생 - 미용원","category":"beauty"}]},{"lat":"37.155673349","long":"127.07447851","imageIndex":13,"items":[{"name":"나이스가이","tel":"031-378-2859","addr":"경기도 오산시 오산동 74-35번지 중앙씨티월 109호","indutype":"보건위생 - 미용원","category":"beauty"}]},{"lat":"37.153333952","long":"127.06874651","imageIndex":13,"items":[{"name":"낙원스트레칭","tel":"031-223-5214","addr":"경기도 오산시 오산동 424-2번지","indutype":"보건위생 - 기타대인서비스","category":"beauty"}]},{"lat":"37.151501609","long":"127.07430573","imageIndex":13,"items":[{"name":"남성클럽","tel":"031-376-9230","addr":"경기도 오산시 오산동 262번지 제1호","indutype":"보건위생 - 미용원","category":"beauty"},{"name":"네이처테라피아","tel":"","addr":"경기도 오산시 오산동 262번지 2층 일부","indutype":"보건위생 - 화장품","category":"beauty"},{"name":"라온하제","tel":"031-372-3014","addr":"경기도 오산시 오산동 262번지 2층 남쪽일부","indutype":"보건위생 - 화장품","category":"beauty"}]},{"lat":"37.149416141","long":"127.06553504","imageIndex":13,"items":[{"name":"남촌헤어샵","tel":"","addr":"경기도 오산시 오산동 532-6번지 1층","indutype":"보건위생 - 미용원","category":"beauty"}]},{"lat":"37.14966695","long":"127.06828181","imageIndex":13,"items":[{"name":"네일하니","tel":"031-372-7088","addr":"경기도 오산시 오산동 858-15번지","indutype":"보건위생 - 피부미용실","category":"beauty"}]},{"lat":"37.151999461","long":"127.07042261","imageIndex":13,"items":[{"name":"노바비타","tel":"031-372-5573","addr":"경기도 오산시 오산동 847-1번지 양산빌딩 2층 2호","indutype":"보건위생 - 의료용품","category":"beauty"},{"name":"잠언의료기오산지점","tel":"031-377-7589","addr":"경기도 오산시 오산동 847-1번지 양산빌딩 1층 2호","indutype":"보건위생 - 의료용품","category":"beauty"}]},{"lat":"37.146612003","long":"127.06899957","imageIndex":13,"items":[{"name":"다비치안경 오산역2호점","tel":"031-374-4551","addr":"경기도 오산시 오산동 880-18번지","indutype":"보건위생 - 안경","category":"beauty"}]},{"lat":"37.145035781","long":"127.06789513","imageIndex":13,"items":[{"name":"다올언어심리발달센터","tel":"031-374-1179","addr":"경기도 오산시 오산동 881-29번지 2층","indutype":"보건위생 - 기타대인서비스","category":"beauty"}]},{"lat":"37.148612106","long":"127.06939528","imageIndex":13,"items":[{"name":"다조이","tel":"031-377-7579","addr":"경기도 오산시 오산동 876-6번지","indutype":"보건위생 - 의료용품","category":"beauty"}]},{"lat":"37.149446952","long":"127.07475405","imageIndex":13,"items":[{"name":"더 테라스","tel":"031-372-4566","addr":"경기도 오산시 오산동 925-2번지 한마음빌딩 801호","indutype":"보건위생 - 화장품","category":"beauty"}]},{"lat":"37.153000746","long":"127.06841977","imageIndex":13,"items":[{"name":"더 테라피","tel":"031-374-6617","addr":"경기도 오산시 오산동 444-6번지 2층","indutype":"보건위생 - 화장품","category":"beauty"}]},{"lat":"37.149194979","long":"127.07422476","imageIndex":13,"items":[{"name":"더풋샵","tel":"031-372-6878","addr":"경기도 오산시 오산동 910-9번지","indutype":"보건위생 - 화장품","category":"beauty"},{"name":"수스킨케어","tel":"031-378-2226","addr":"경기도 오산시 오산동 910-9번지 5층","indutype":"보건위생 - 피부미용실","category":"beauty"}]},{"lat":"37.156167162","long":"127.07733835","imageIndex":13,"items":[{"name":"더헤어샵","tel":"031-376-8483","addr":"경기도 오산시 오산동 919-21번지 2층","indutype":"보건위생 - 미용원","category":"beauty"}]},{"lat":"37.154748669","long":"127.06861265","imageIndex":13,"items":[{"name":"도도","tel":"031-375-2004","addr":"경기도 오산시 오산동 388-8번지","indutype":"보건위생 - 화장품","category":"beauty"}]},{"lat":"37.146891559","long":"127.06858334","imageIndex":13,"items":[{"name":"독일디지털보청기","tel":"031-378-5233","addr":"경기도 오산시 오산동 880-1번지","indutype":"보건위생 - 의료용품","category":"beauty"},{"name":"불란서안경","tel":"031-374-7874","addr":"경기도 오산시 오산동 880-1번지","indutype":"보건위생 - 안경","category":"beauty"}]},{"lat":"37.154640387","long":"127.06889398","imageIndex":13,"items":[{"name":"동방의료기","tel":"031-330-9076","addr":"경기도 오산시 오산동 388-5번지 에이스펠리체 102호","indutype":"보건위생 - 의료용품","category":"beauty"},{"name":"아모레카운셀러","tel":"031-374-6207","addr":"경기도 오산시 오산동 388-5번지 에이스펠거체 1층","indutype":"보건위생 - 화장품","category":"beauty"}]},{"lat":"37.156139733","long":"127.07796874","imageIndex":13,"items":[{"name":"라벨2030헤어","tel":"","addr":"경기도 오산시 오산동 919-17번지 108호","indutype":"보건위생 - 미용원","category":"beauty"},{"name":"일공공일안경오산점","tel":"031-373-4422","addr":"경기도 오산시 오산동 919-17중앙스포츠프라자1","indutype":"보건위생 - 안경","category":"beauty"}]},{"lat":"37.149419157","long":"127.07600348","imageIndex":13,"items":[{"name":"라보떼에스테틱","tel":"031-377-1308","addr":"경기도 오산시 오산동 925-11번지 한진프라자 4층 403호","indutype":"보건위생 - 피부미용실","category":"beauty"},{"name":"헤어파인드","tel":"","addr":"경기도 오산시 오산동 925-11번지 한진프라자 1층 101호","indutype":"보건위생 - 미용원","category":"beauty"}]},{"lat":"37.149644418","long":"127.0760037","imageIndex":13,"items":[{"name":"라브리지오산시청점","tel":"031-372-7876","addr":"경기도 오산시 오산동 925-12번지 거성프라자 102호","indutype":"보건위생 - 미용원","category":"beauty"},{"name":"연세마음향기상담센터","tel":"031-373-4411","addr":"경기도 오산시 오산동 925-12번지 거성프라자 302호","indutype":"보건위생 - 기타대인서비스","category":"beauty"},{"name":"한마당","tel":"","addr":"경기도 오산시 오산동 925-12번지 거성프라자 6층 602호","indutype":"보건위생 - 화장품","category":"beauty"}]},{"lat":"37.149693801","long":"127.06860827","imageIndex":13,"items":[{"name":"라이프엔진 뷰티마스터","tel":"","addr":"경기도 오산시 오산동 859-22번지 3층","indutype":"보건위생 - 화장품","category":"beauty"}]},{"lat":"37.149558825","long":"127.06828172","imageIndex":13,"items":[{"name":"로얄안경","tel":"031-375-3277","addr":"경기도 오산시 오산동 858-16번지","indutype":"보건위생 - 안경","category":"beauty"},{"name":"부티(ti)","tel":"031-000-0000","addr":"경기도 오산시 오산동 858-16번지","indutype":"보건위생 - 피부미용실","category":"beauty"}]},{"lat":"37.149583873","long":"127.07178249","imageIndex":13,"items":[{"name":"루비뷰티","tel":"","addr":"경기도 오산시 오산동 869-5번지 1층","indutype":"보건위생 - 미용원","category":"beauty"}]},{"lat":"37.149089604","long":"127.069497","imageIndex":13,"items":[{"name":"마임오산서부지사","tel":"031-372-8959","addr":"경기도 오산시 오산동 872-14번지 3층 알로에마임","indutype":"보건위생 - 화장품","category":"beauty"}]},{"lat":"37.149311576","long":"127.07511413","imageIndex":13,"items":[{"name":"머리에반하다","tel":"031-375-3126","addr":"경기도 오산시 오산동 924-2번지 운암프라자2차 101호","indutype":"보건위생 - 미용원","category":"beauty"}]},{"lat":"37.149558582","long":"127.06872072","imageIndex":13,"items":[{"name":"명동안경","tel":"031-373-1988","addr":"경기도 오산시 오산동 859-23번지","indutype":"보건위생 - 안경","category":"beauty"}]},{"lat":"37.144116848","long":"127.06764672","imageIndex":13,"items":[{"name":"명랑","tel":"070-8969-0672","addr":"경기도 오산시 오산동 882-8번지","indutype":"보건위생 - 화장품","category":"beauty"}]},{"lat":"37.150865311","long":"127.06833913","imageIndex":13,"items":[{"name":"명전미용실","tel":"031-377-9484","addr":"경기도 오산시 오산동 857-16번지 1층","indutype":"보건위생 - 미용원","category":"beauty"}]},{"lat":"37.148915675","long":"127.07419073","imageIndex":13,"items":[{"name":"명품","tel":"031-376-6686","addr":"경기도 오산시 오산동 910-11번지 덕화빌딩 3층","indutype":"보건위생 - 화장품","category":"beauty"},{"name":"아리따움 오산시청점","tel":"031-376-4565","addr":"경기도 오산시 오산동 910-11번지","indutype":"보건위생 - 화장품","category":"beauty"}]},{"lat":"37.153640508","long":"127.06838655","imageIndex":13,"items":[{"name":"모드니헤어","tel":"031-378-7836","addr":"경기도 오산시 오산동 403-4번지","indutype":"보건위생 - 미용원","category":"beauty"}]},{"lat":"37.147999846","long":"127.0685843","imageIndex":13,"items":[{"name":"미르안경오산점","tel":"031-374-3355","addr":"경기도 오산시 오산동 877-36번지","indutype":"보건위생 - 안경","category":"beauty"}]},{"lat":"37.14958811","long":"127.06406059","imageIndex":13,"items":[{"name":"미림헤어샵","tel":"031-375-3594","addr":"경기도 오산시 오산동 613-3번지 운산빌딩 1층 1호","indutype":"보건위생 - 미용원","category":"beauty"}]},{"lat":"37.150889837","long":"127.07272923","imageIndex":13,"items":[{"name":"민서헤어샵","tel":"031-376-9759","addr":"경기도 오산시 오산동 863-22번지","indutype":"보건위생 - 미용원","category":"beauty"}]},{"lat":"37.150639586","long":"127.06917192","imageIndex":13,"items":[{"name":"민아화장품","tel":"031-375-1515","addr":"경기도 오산시 오산동 855-19번지","indutype":"보건위생 - 화장품","category":"beauty"}]},{"lat":"37.156779225","long":"127.07836338","imageIndex":13,"items":[{"name":"보니또헤어","tel":"031-378-1427","addr":"경기도 오산시 오산동 919-1번지 2층","indutype":"보건위생 - 미용원","category":"beauty"}]},{"lat":"37.149810155","long":"127.07000417","imageIndex":13,"items":[{"name":"뷰티라인","tel":"031-372-0660","addr":"경기도 오산시 오산동 861-7번지","indutype":"보건위생 - 화장품","category":"beauty"}]},{"lat":"37.149672214","long":"127.07475426","imageIndex":13,"items":[{"name":"블루","tel":"031-374-5506","addr":"경기도 오산시 오산동 925-1번지 운암프라자3차 304호 303호,304호","indutype":"보건위생 - 화장품","category":"beauty"},{"name":"위드헤어","tel":"031-373-4658","addr":"경기도 오산시 오산동 925-1번지 운암프라자3차 201호","indutype":"보건위생 - 미용원","category":"beauty"}]},{"lat":"37.150027357","long":"127.06830464","imageIndex":13,"items":[{"name":"비겐의료기 오산점","tel":"031-373-6190","addr":"경기도 오산시 오산동 858-10번지 2층","indutype":"보건위생 - 의료용품","category":"beauty"}]},{"lat":"37.150834998","long":"127.07403494","imageIndex":13,"items":[{"name":"비엔나","tel":"031-223-9159","addr":"경기도 오산시 오산동 866-1번지","indutype":"보건위생 - 미용재료","category":"beauty"}]},{"lat":"37.153919645","long":"127.0687245","imageIndex":13,"items":[{"name":"샤론미용실","tel":"031-372-9313","addr":"경기도 오산시 오산동 369-3번지 1층","indutype":"보건위생 - 미용원","category":"beauty"}]},{"lat":"37.156671157","long":"127.07827321","imageIndex":13,"items":[{"name":"샤보이운암점","tel":"031-377-3521","addr":"경기도 오산시 오산동 919-2번지 1층","indutype":"보건위생 - 미용원","category":"beauty"}]},{"lat":"37.152673152","long":"127.07400289","imageIndex":13,"items":[{"name":"샤샤네일","tel":"000-000-0000","addr":"경기도 오산시 오산동 269-4번지","indutype":"보건위생 - 피부미용실","category":"beauty"},{"name":"헤어앤비미용실","tel":"031-375-9911","addr":"경기도 오산시 오산동 269-4번지 2층","indutype":"보건위생 - 미용원","category":"beauty"}]},{"lat":"37.154333297","long":"127.07019954","imageIndex":13,"items":[{"name":"성균관미용실","tel":"031-374-2887","addr":"경기도 오산시 오산동 325-3번지","indutype":"보건위생 - 미용원","category":"beauty"}]},{"lat":"37.146728969","long":"127.06930358","imageIndex":13,"items":[{"name":"세기보청기","tel":"031-378-4183","addr":"경기도 오산시 오산동 880-6번지 오산프라자 2층","indutype":"보건위생 - 의료용품","category":"beauty"},{"name":"헤어로체아","tel":"031-377-0366","addr":"경기도 오산시 오산동 880-6번지 오산프라자 1층","indutype":"보건위생 - 미용원","category":"beauty"}]},{"lat":"37.153450055","long":"127.0705815","imageIndex":13,"items":[{"name":"소망미용실","tel":"031-373-1415","addr":"경기도 오산시 오산동 316-23번지","indutype":"보건위생 - 미용원","category":"beauty"}]},{"lat":"37.147061995","long":"127.06994547","imageIndex":13,"items":[{"name":"손톱헤어샵미용실","tel":"031-373-5194","addr":"경기도 오산시 오산동 878-29번지","indutype":"보건위생 - 미용원","category":"beauty"}]},{"lat":"37.151584677","long":"127.07095131","imageIndex":13,"items":[{"name":"송이살롱","tel":"","addr":"경기도 오산시 오산동 853-15번지 1층","indutype":"보건위생 - 미용원","category":"beauty"}]},{"lat":"37.153945988","long":"127.06995154","imageIndex":13,"items":[{"name":"수뷰티샵","tel":"031-286-6655","addr":"경기도 오산시 오산동 324-22번지","indutype":"보건위생 - 피부미용실","category":"beauty"}]},{"lat":"37.15644732","long":"127.07599899","imageIndex":13,"items":[{"name":"수스킨앤바디","tel":"070-2325-3857","addr":"경기도 오산시 오산동 911-28번지 수성빌딩 2층 202호","indutype":"보건위생 - 화장품","category":"beauty"}]},{"lat":"37.151892323","long":"127.06866646","imageIndex":13,"items":[{"name":"수지헤어","tel":"","addr":"경기도 오산시 오산동 843-12번지 1층","indutype":"보건위생 - 미용원","category":"beauty"}]},{"lat":"37.153171153","long":"127.06983829","imageIndex":13,"items":[{"name":"숨피부미용","tel":"031-377-4358","addr":"경기도 오산시 오산동 313-11번지 다우리빌 203호","indutype":"보건위생 - 피부미용실","category":"beauty"}]},{"lat":"37.14533299","long":"127.06814301","imageIndex":13,"items":[{"name":"스크린H헤어살롱","tel":"031-376-8821","addr":"경기도 오산시 오산동 881-16번지 201호,202호","indutype":"보건위생 - 미용원","category":"beauty"},{"name":"청현사주&타로","tel":"031-378-5874","addr":"경기도 오산시 오산동 881-16번지 1층 104호","indutype":"보건위생 - 기타대인서비스","category":"beauty"}]},{"lat":"37.153748321","long":"127.06894949","imageIndex":13,"items":[{"name":"씨엔씨미용실","tel":"031-373-3060","addr":"경기도 오산시 오산동 429-4번지","indutype":"보건위생 - 미용원","category":"beauty"}]},{"lat":"37.149892293","long":"127.06813567","imageIndex":13,"items":[{"name":"아랑헤어클럽","tel":"031-376-0560","addr":"경기도 오산시 오산동 548-6 외1필지(858-13)1층","indutype":"보건위생 - 미용원","category":"beauty"}]},{"lat":"37.144612109","long":"127.06822119","imageIndex":13,"items":[{"name":"아모레 오산성호","tel":"031-378-3508","addr":"경기도 오산시 오산동 881-7번지 동양프라자 5층 501~503호","indutype":"보건위생 - 화장품","category":"beauty"},{"name":"아모레 오산성호","tel":"031-378-3508","addr":"경기도 오산시 오산동 881-7번지 동양프라자 501호","indutype":"보건위생 - 화장품","category":"beauty"},{"name":"아모레 오산성호","tel":"031-378-3508","addr":"경기도 오산시 오산동 881-7번지 동양프라자 501호","indutype":"보건위생 - 화장품","category":"beauty"},{"name":"아모레 오산성호","tel":"031-378-3508","addr":"경기도 오산시 오산동 881-7번지 동양프라자 501호","indutype":"보건위생 - 화장품","category":"beauty"},{"name":"아모레 오산성호","tel":"031-378-3508","addr":"경기도 오산시 오산동 881-7번지 동양프라자 501호","indutype":"보건위생 - 화장품","category":"beauty"},{"name":"아모레 오산성호","tel":"031-378-3508","addr":"경기도 오산시 오산동 881-7번지 동양프라자 501호","indutype":"보건위생 - 화장품","category":"beauty"},{"name":"아모레 오산성호","tel":"031-378-3508","addr":"경기도 오산시 오산동 881-7번지 동양프라자 501호","indutype":"보건위생 - 화장품","category":"beauty"},{"name":"아모레 오산성호","tel":"031-378-3508","addr":"경기도 오산시 오산동 881-7번지 동양프라자 501호","indutype":"보건위생 - 화장품","category":"beauty"},{"name":"아모레 오산점","tel":"031-378-3508","addr":"경기도 오산시 오산동 881-7번지 동양프라자 501~503호","indutype":"보건위생 - 화장품","category":"beauty"},{"name":"아모레 오산점","tel":"031-378-3508","addr":"경기도 오산시 오산동 881-7번지 동양프라자 501호","indutype":"보건위생 - 화장품","category":"beauty"},{"name":"아모레 오산점","tel":"031-378-3508","addr":"경기도 오산시 오산동 881-7번지 동양프라자 501호","indutype":"보건위생 - 화장품","category":"beauty"},{"name":"아모레 오산점","tel":"031-378-3508","addr":"경기도 오산시 오산동 881-7번지 동양프라자 501호","indutype":"보건위생 - 화장품","category":"beauty"},{"name":"아모레 오산점","tel":"031-378-3508","addr":"경기도 오산시 오산동 881-7번지 동양프라자 501호","indutype":"보건위생 - 화장품","category":"beauty"},{"name":"아모레 오산점","tel":"031-378-3508","addr":"경기도 오산시 오산동 881-7번지 동양프라자 501호","indutype":"보건위생 - 화장품","category":"beauty"},{"name":"아모레 오산점","tel":"031-378-3508","addr":"경기도 오산시 오산동 881-7번지 동양프라자 501호","indutype":"보건위생 - 화장품","category":"beauty"},{"name":"아모레 오산점","tel":"031-378-3508","addr":"경기도 오산시 오산동 881-7번지 동양프라자 501호","indutype":"보건위생 - 화장품","category":"beauty"},{"name":"아모레 오산점","tel":"031-378-3508","addr":"경기도 오산시 오산동 881-7번지 동양프라자 501호","indutype":"보건위생 - 화장품","category":"beauty"},{"name":"아모레 오산점","tel":"031-378-3508","addr":"경기도 오산시 오산동 881-7번지 동양프라자 501동 503호","indutype":"보건위생 - 화장품","category":"beauty"},{"name":"아모레 오산점","tel":"031-378-3508","addr":"경기도 오산시 오산동 881-7번지 동양프라자 501호","indutype":"보건위생 - 화장품","category":"beauty"},{"name":"아모레 오산점 카운셀러","tel":"031-378-3508","addr":"경기도 오산시 오산동 881-7번지 동양프라자 501,502호","indutype":"보건위생 - 화장품","category":"beauty"},{"name":"아모레오산","tel":"031-378-3508","addr":"경기도 오산시 오산동 881-7번지 동양프라자 5층","indutype":"보건위생 - 화장품","category":"beauty"},{"name":"아모레오산 성호특약점","tel":"031-378-3508","addr":"경기도 오산시 오산동 881-7번지 동양프라자 501호","indutype":"보건위생 - 화장품","category":"beauty"},{"name":"아모레오산 성호특약점","tel":"031-378-3508","addr":"경기도 오산시 오산동 881-7번지 동양프라자 501.502호","indutype":"보건위생 - 화장품","category":"beauty"},{"name":"아모레오산성호","tel":"031-378-3508","addr":"경기도 오산시 오산동 881-7번지 동양프라자 501호","indutype":"보건위생 - 화장품","category":"beauty"},{"name":"아모레오산성호","tel":"031-378-3508","addr":"경기도 오산시 오산동 881-7번지","indutype":"보건위생 - 화장품","category":"beauty"},{"name":"아모레오산성호","tel":"031-378-3505","addr":"경기도 오산시 오산동 881-7번지 동양프라자 501호","indutype":"보건위생 - 화장품","category":"beauty"},{"name":"아모레오산성호","tel":"031-378-3508","addr":"경기도 오산시 오산동 881-7번지 동양프라자","indutype":"보건위생 - 화장품","category":"beauty"},{"name":"아모레오산성호","tel":"031-378-3508","addr":"경기도 오산시 오산동 881-7번지 동양프라자 501호","indutype":"보건위생 - 화장품","category":"beauty"},{"name":"아모레오산성호","tel":"031-378-3508","addr":"경기도 오산시 오산동 881-7번지 동양프라자 501호","indutype":"보건위생 - 화장품","category":"beauty"},{"name":"아모레오산성호","tel":"031-378-3508","addr":"경기도 오산시 오산동 881-7번지 동양프라자 501호","indutype":"보건위생 - 화장품","category":"beauty"},{"name":"아모레오산성호","tel":"031-378-3508","addr":"경기도 오산시 오산동 881-7번지 동양프라자 501호","indutype":"보건위생 - 화장품","category":"beauty"},{"name":"아모레오산성호","tel":"031-378-3508","addr":"경기도 오산시 오산동 881-7번지 동양프라자 501호","indutype":"보건위생 - 화장품","category":"beauty"},{"name":"아모레오산성호","tel":"031-378-3508","addr":"경기도 오산시 오산동 881-7번지","indutype":"보건위생 - 화장품","category":"beauty"},{"name":"아모레오산성호점","tel":"031-378-3508","addr":"경기도 오산시 오산동 881-7번지 동양프라자 501호","indutype":"보건위생 - 화장품","category":"beauty"},{"name":"아모레오산성호특약점","tel":"031-378-3508","addr":"경기도 오산시 오산동 881-7 동양프라자501~503호","indutype":"보건위생 - 화장품","category":"beauty"},{"name":"아모레오산성호특약점","tel":"031-378-3508","addr":"경기도 오산시 오산동 881-7번지 동양프라자 501호","indutype":"보건위생 - 화장품","category":"beauty"},{"name":"아모레오산성호특약점","tel":"031-378-3508","addr":"경기도 오산시 오산동 881-7번지 동양프라자 5층","indutype":"보건위생 - 화장품","category":"beauty"},{"name":"아모레오산점","tel":"031-378-3508","addr":"경기도 오산시 오산동 881-7번지 동양프라자 501호","indutype":"보건위생 - 화장품","category":"beauty"},{"name":"아모레오산점","tel":"031-378-3508","addr":"경기도 오산시 오산동 881-7번지 동양프라자 501호","indutype":"보건위생 - 화장품","category":"beauty"},{"name":"아모레오산점","tel":"031-378-3508","addr":"경기도 오산시 오산동 881-7번지 동양프라자 501호","indutype":"보건위생 - 화장품","category":"beauty"},{"name":"아모레오산점","tel":"031-378-3508","addr":"경기도 오산시 오산동 881-7번지 동양프라자 501호","indutype":"보건위생 - 화장품","category":"beauty"},{"name":"아모레오산점","tel":"031-378-3508","addr":"경기도 오산시 오산동 881-7번지 동양프라자 501호","indutype":"보건위생 - 화장품","category":"beauty"},{"name":"아모레오산점","tel":"031-378-3508","addr":"경기도 오산시 오산동 881-7번지 동양프라자 501호","indutype":"보건위생 - 화장품","category":"beauty"},{"name":"아모레오산점","tel":"031-378-3508","addr":"경기도 오산시 오산동 881-7번지 동양프라자 5층","indutype":"보건위생 - 화장품","category":"beauty"},{"name":"아모레오산점","tel":"031-378-3508","addr":"경기도 오산시 오산동 881-7번지 동양프라자 5층 501호","indutype":"보건위생 - 화장품","category":"beauty"},{"name":"아모레오산점","tel":"031-378-3508","addr":"경기도 오산시 오산동 881-7번지 동양프라자 501호","indutype":"보건위생 - 화장품","category":"beauty"},{"name":"아모레오산점","tel":"031-378-3508","addr":"경기도 오산시 오산동 881-7번지 동양프라자 501동 503호","indutype":"보건위생 - 화장품","category":"beauty"},{"name":"아모레오산특약점","tel":"031-378-3508","addr":"경기도 오산시 오산동 881-7번지 동양프라자 501호","indutype":"보건위생 - 화장품","category":"beauty"},{"name":"아모레카운셀러","tel":"031-378-3508","addr":"경기도 오산시 오산동 881-7번지 동양프라자","indutype":"보건위생 - 화장품","category":"beauty"},{"name":"아모레카운셀러","tel":"031-378-3508","addr":"경기도 오산시 오산동 881-7번지 동양프라자 501호","indutype":"보건위생 - 화장품","category":"beauty"},{"name":"이지네일살롱(easy nail salong)","tel":"","addr":"경기도 오산시 오산동 881-7번지 동양프라자 106호","indutype":"보건위생 - 피부미용실","category":"beauty"}]},{"lat":"37.144702504","long":"127.06769225","imageIndex":13,"items":[{"name":"아모레 오산점","tel":"031-378-3508","addr":"경기도 오산시 오산동 881-9번지 경화빌딩 201호","indutype":"보건위생 - 화장품","category":"beauty"},{"name":"아모레 오산점","tel":"031-378-3508","addr":"경기도 오산시 오산동 881-9번지 경화빌딩 201호","indutype":"보건위생 - 화장품","category":"beauty"},{"name":"아모레오산점","tel":"031-378-3508","addr":"경기도 오산시 오산동 881-9번지 경화빌딩 201호","indutype":"보건위생 - 화장품","category":"beauty"},{"name":"아모레오산점","tel":"031-378-3508","addr":"경기도 오산시 오산동 881-9번지 경화빌딩 201호","indutype":"보건위생 - 화장품","category":"beauty"}]},{"lat":"37.15486449","long":"127.07094299","imageIndex":13,"items":[{"name":"아모레/김정순","tel":"031-374-6007","addr":"경기도 오산시 오산동 331번지","indutype":"보건위생 - 화장품","category":"beauty"},{"name":"아모레태산(특)","tel":"031-374-6207","addr":"경기도 오산시 오산동 331번지","indutype":"보건위생 - 화장품","category":"beauty"},{"name":"아모레태평양특약점","tel":"031-374-6207","addr":"경기도 오산시 오산동 331번지","indutype":"보건위생 - 화장품","category":"beauty"},{"name":"아모레화장품","tel":"031-377-8805","addr":"경기도 오산시 오산동 331번지","indutype":"보건위생 - 화장품","category":"beauty"}]},{"lat":"37.150727309","long":"127.07330316","imageIndex":13,"items":[{"name":"아모레퍼시픽 리리코스","tel":"031-375-3353","addr":"경기도 오산시 오산동 865-1번지 대동다숲 202호","indutype":"보건위생 - 화장품","category":"beauty"},{"name":"아모레퍼시픽 리리코스","tel":"031-375-3353","addr":"경기도 오산시 오산동 865-1번지 대동다숲 202호","indutype":"보건위생 - 화장품","category":"beauty"},{"name":"아모레퍼시픽 뷰레이터","tel":"031-375-3353","addr":"경기도 오산시 오산동 865-1번지 대동다숲 202호","indutype":"보건위생 - 화장품","category":"beauty"},{"name":"아모레퍼시픽뷰레이터","tel":"031-375-3353","addr":"경기도 오산시 오산동 865-1번지 대동다숲 202호","indutype":"보건위생 - 화장품","category":"beauty"},{"name":"아모레퍼시픽뷰레이터","tel":"031-375-3353","addr":"경기도 오산시 오산동 865-1번지 대동다숲 2층 202호","indutype":"보건위생 - 화장품","category":"beauty"},{"name":"아모레퍼시픽뷰레이터","tel":"031-372-3353","addr":"경기도 오산시 오산동 865-1번지 대동다숲 202호","indutype":"보건위생 - 화장품","category":"beauty"},{"name":"유니베라오산대리점","tel":"031-372-0865","addr":"경기도 오산시 오산동 865-1번지 오산대동다숲주상복합 2층 204호","indutype":"보건위생 - 화장품","category":"beauty"}]},{"lat":"37.152755816","long":"127.07133509","imageIndex":13,"items":[{"name":"아쿠아미용실","tel":"031-377-7297","addr":"경기도 오산시 오산동 837-13","indutype":"보건위생 - 미용원","category":"beauty"}]},{"lat":"37.152087269","long":"127.07434005","imageIndex":13,"items":[{"name":"아트홀","tel":"031-377-1476","addr":"경기도 오산시 오산동 268번지 농민마트1층102호","indutype":"보건위생 - 미용원","category":"beauty"}]},{"lat":"37.143305541","long":"127.06831011","imageIndex":13,"items":[{"name":"안경매니져","tel":"031-376-8083","addr":"경기도 오산시 오산동 883-6번지","indutype":"보건위생 - 안경","category":"beauty"}]},{"lat":"37.149257753","long":"127.0747201","imageIndex":13,"items":[{"name":"안경에반하다","tel":"031-376-4969","addr":"경기도 오산시 오산동 925-3번지 화성프라자","indutype":"보건위생 - 안경","category":"beauty"},{"name":"정민경헤어","tel":"031-378-3355","addr":"경기도 오산시 오산동 925-3번지 화성프라자 201호","indutype":"보건위생 - 미용원","category":"beauty"},{"name":"하이얀","tel":"031-377-7794","addr":"경기도 오산시 오산동 925-3번지 화성프라자 303호","indutype":"보건위생 - 미용재료","category":"beauty"}]},{"lat":"37.144945497","long":"127.06822147","imageIndex":13,"items":[{"name":"에스(S)뷰티","tel":"031-377-7799","addr":"경기도 오산시 오산동 881-5번지 2층","indutype":"보건위생 - 피부미용실","category":"beauty"}]},{"lat":"37.149278538","long":"127.0700037","imageIndex":13,"items":[{"name":"에스아이생명공학오산점","tel":"031-374-7554","addr":"경기도 오산시 오산동 872-5번지 2층","indutype":"보건위생 - 의료용품","category":"beauty"}]},{"lat":"37.149034189","long":"127.07186078","imageIndex":13,"items":[{"name":"엔에프 코리아","tel":"","addr":"경기도 오산시 오산동 869-34번지 2층 2호","indutype":"보건위생 - 화장품","category":"beauty"}]},{"lat":"37.142584796","long":"127.06814065","imageIndex":13,"items":[{"name":"엘지미용상사","tel":"031-610-6640","addr":"경기도 오산시 오산동 885-5번지 라온빌","indutype":"보건위생 - 미용재료","category":"beauty"}]},{"lat":"37.154618073","long":"127.07619986","imageIndex":13,"items":[{"name":"연이헤어나라","tel":"031-377-7667","addr":"경기도 오산시 오산동 920-2번지 주공2단지 상가 204호","indutype":"보건위생 - 미용원","category":"beauty"}]},{"lat":"37.154109188","long":"127.0681393","imageIndex":13,"items":[{"name":"영성의료기","tel":"031-374-3223","addr":"경기도 오산시 오산동 399번지 1층","indutype":"보건위생 - 의료용품","category":"beauty"}]},{"lat":"37.151729166","long":"127.0703886","imageIndex":13,"items":[{"name":"예쁜솜씨","tel":"031-376-1863","addr":"경기도 오산시 오산동 847-5번지","indutype":"보건위생 - 피부미용실","category":"beauty"}]},{"lat":"37.151252549","long":"127.06872219","imageIndex":13,"items":[{"name":"오땡큐천연머리염색전문점오산점","tel":"031-376-7786","addr":"경기도 오산시 오산동 856-22번지 금옥당 1층 4호","indutype":"보건위생 - 미용원","category":"beauty"}]},{"lat":"37.138278133","long":"127.06750669","imageIndex":13,"items":[{"name":"오산 체형관리","tel":"","addr":"경기도 오산시 오산동 789-2번지 2층","indutype":"보건위생 - 기타대인서비스","category":"beauty"},{"name":"오산사우나","tel":"031-377-3883","addr":"경기도 오산시 오산동 789-2번지","indutype":"보건위생 - 사우나","category":"beauty"}]},{"lat":"37.145225259","long":"127.06742255","imageIndex":13,"items":[{"name":"오산언어심리치료센터","tel":"031-377-1355","addr":"경기도 오산시 오산동 603-33번지 동일빌딩 301호","indutype":"보건위생 - 기타대인서비스","category":"beauty"}]},{"lat":"37.146584453","long":"127.06992253","imageIndex":13,"items":[{"name":"오산종합화장품","tel":"00-000-0000","addr":"경기도 오산시 오산동 880-11번지 1층","indutype":"보건위생 - 화장품","category":"beauty"}]},{"lat":"37.150449885","long":"127.07002725","imageIndex":13,"items":[{"name":"오산종합화장품","tel":"031-378-0370","addr":"경기도 오산시 오산동 860-9번지","indutype":"보건위생 - 화장품","category":"beauty"}]},{"lat":"37.148978374","long":"127.07480989","imageIndex":13,"items":[{"name":"오산한솔","tel":"031-372-1700","addr":"경기도 오산시 오산동 925-5번지 월드타워 5층 503호","indutype":"보건위생 - 화장품","category":"beauty"}]},{"lat":"37.149229937","long":"127.0760033","imageIndex":13,"items":[{"name":"오휘 오산시청점","tel":"031-375-3325","addr":"경기도 오산시 오산동 925-10번지 한미프라자 401호","indutype":"보건위생 - 화장품","category":"beauty"}]},{"lat":"37.148360452","long":"127.06824692","imageIndex":13,"items":[{"name":"운동요법","tel":"031-374-6204","addr":"경기도 오산시 오산동 875-8번지 2층","indutype":"보건위생 - 피부미용실","category":"beauty"}]},{"lat":"37.151784334","long":"127.06841872","imageIndex":13,"items":[{"name":"웰빙 아로마테라피","tel":"031-377-5838","addr":"경기도 오산시 오산동 842-14번지","indutype":"보건위생 - 피부미용실","category":"beauty"}]},{"lat":"37.150360262","long":"127.06917168","imageIndex":13,"items":[{"name":"은지헤어투","tel":"031-377-1136","addr":"경기도 오산시 오산동 860-16번지","indutype":"보건위생 - 미용원","category":"beauty"}]},{"lat":"37.149590749","long":"127.07536203","imageIndex":13,"items":[{"name":"이가가","tel":"031-377-3761","addr":"경기도 오산시 오산동 924-1번지 거성그린프라자 110호","indutype":"보건위생 - 미용원","category":"beauty"},{"name":"좋은날","tel":"070-4821-1451","addr":"경기도 오산시 오산동 924-1번지 거성그린프라자 204호","indutype":"보건위생 - 미용원","category":"beauty"}]},{"lat":"37.149810937","long":"127.06860838","imageIndex":13,"items":[{"name":"이얼싼","tel":"","addr":"경기도 오산시 오산동 859-21번지 1층","indutype":"보건위생 - 미용원","category":"beauty"}]},{"lat":"37.150387744","long":"127.06836123","imageIndex":13,"items":[{"name":"이지헤어","tel":"031-373-9328","addr":"경기도 오산시 오산동 858-4번지 1층","indutype":"보건위생 - 미용원","category":"beauty"}]},{"lat":"37.147225176","long":"127.06816715","imageIndex":13,"items":[{"name":"일광스트레칭","tel":"031-375-6421","addr":"경기도 오산시 오산동 879-9번지 대성빌딩 3층","indutype":"보건위생 - 기타대인서비스","category":"beauty"}]},{"lat":"37.153891785","long":"127.07019915","imageIndex":13,"items":[{"name":"자기연출","tel":"031-375-1287","addr":"경기도 오산시 오산동 323-4번지","indutype":"보건위생 - 미용원","category":"beauty"}]},{"lat":"37.151613136","long":"127.06841857","imageIndex":13,"items":[{"name":"전영승 헤어샵","tel":"031-377-4006","addr":"경기도 오산시 오산동 857-1번지 1층","indutype":"보건위생 - 미용원","category":"beauty"}]},{"lat":"37.148558663","long":"127.06828086","imageIndex":13,"items":[{"name":"정쌤 (SAM)헤어","tel":"031-373-1606","addr":"경기도 오산시 오산동 875-2번지 1층","indutype":"보건위생 - 미용원","category":"beauty"}]},{"lat":"37.14894825","long":"127.0642852","imageIndex":13,"items":[{"name":"조미용실","tel":"031-375-2971","addr":"경기도 오산시 오산동 612-6번지","indutype":"보건위생 - 미용원","category":"beauty"}]},{"lat":"37.151810132","long":"127.07061381","imageIndex":13,"items":[{"name":"조양디엠 오산지점","tel":"031-372-7278","addr":"경기도 오산시 오산동 847-7번지 2층","indutype":"보건위생 - 의료용품","category":"beauty"},{"name":"혜당 생활과학 오산지사","tel":"031-378-7572","addr":"경기도 오산시 오산동 847-7번지 2층,싱싱유통","indutype":"보건위생 - 의료용품","category":"beauty"}]},{"lat":"37.146702339","long":"127.06858317","imageIndex":13,"items":[{"name":"쥬땜헤어갤러리","tel":"031-372-7871","addr":"경기도 오산시 오산동 880-23번지","indutype":"보건위생 - 미용원","category":"beauty"}]},{"lat":"37.153144557","long":"127.06906154","imageIndex":13,"items":[{"name":"짱헤어1번지","tel":"031-377-2589","addr":"경기도 오산시 오산동 439-3번지 1층","indutype":"보건위생 - 미용원","category":"beauty"}]},{"lat":"37.146503984","long":"127.06880812","imageIndex":13,"items":[{"name":"초콜렛","tel":"031-375-4665","addr":"경기도 오산시 오산동 880-20번지 2호","indutype":"보건위생 - 화장품","category":"beauty"}]},{"lat":"37.152477689","long":"127.06922981","imageIndex":13,"items":[{"name":"칼라미용실","tel":"031-372-0391","addr":"경기도 오산시 오산동 844-5번지","indutype":"보건위생 - 미용원","category":"beauty"}]},{"lat":"37.149396456","long":"127.06860802","imageIndex":13,"items":[{"name":"크로바피부미용","tel":"031-374-6050","addr":"경기도 오산시 오산동 873-1 ,2","indutype":"보건위생 - 화장품","category":"beauty"}]},{"lat":"37.149171194","long":"127.06860782","imageIndex":13,"items":[{"name":"탈렌트미용실","tel":"031-375-8035","addr":"경기도 오산시 오산동 873-6번지","indutype":"보건위생 - 미용원","category":"beauty"}]},{"lat":"37.148951123","long":"127.07517006","imageIndex":13,"items":[{"name":"프로라인헤어","tel":"031-000-0000","addr":"경기도 오산시 오산동 925-6번지 오산그린프라자 205호","indutype":"보건위생 - 미용원","category":"beauty"},{"name":"해피","tel":"031-378-4540","addr":"경기도 오산시 오산동 925-6번지 오산그린프라자 403호","indutype":"보건위생 - 화장품","category":"beauty"}]},{"lat":"37.151811241","long":"127.06864388","imageIndex":13,"items":[{"name":"행복한미용실","tel":"","addr":"경기도 오산시 오산동 843-11번지 1층","indutype":"보건위생 - 미용원","category":"beauty"}]},{"lat":"37.152586053","long":"127.06880214","imageIndex":13,"items":[{"name":"헤어봄","tel":"031-377-9094","addr":"경기도 오산시 오산동 843-3번지 1층","indutype":"보건위생 - 미용원","category":"beauty"}]},{"lat":"37.15045048","long":"127.06896914","imageIndex":13,"items":[{"name":"헤어센스","tel":"031-374-9275","addr":"경기도 오산시 오산동 859-1번지 1층","indutype":"보건위생 - 미용원","category":"beauty"}]},{"lat":"37.149560326","long":"127.06550139","imageIndex":13,"items":[{"name":"헤어스토리","tel":"031-372-9075","addr":"경기도 오산시 오산동 533-5번지","indutype":"보건위생 - 미용원","category":"beauty"}]},{"lat":"37.152198678","long":"127.06866673","imageIndex":13,"items":[{"name":"헤어퀸","tel":"031-377-0516","addr":"경기도 오산시 오산동 843-16번지","indutype":"보건위생 - 미용원","category":"beauty"}]},{"lat":"37.149334963","long":"127.06569256","imageIndex":13,"items":[{"name":"헤어피플","tel":"031-377-3317","addr":"경기도 오산시 오산동 532-5번지 1층","indutype":"보건위생 - 미용원","category":"beauty"}]}]