[{"lat":"37.297814361","long":"127.06977453","imageIndex":0,"items":[{"name":"(주)에스케이특수운수","tel":"050-4096-7712","addr":"경기도 용인시 수지구 상현동 1131-2번지 세현빌딩 728호","indutype":"자동차정비 유지 - 견인서비스","category":"car"}]},{"lat":"37.30723578","long":"127.07535513","imageIndex":0,"items":[{"name":"T-스테이션(서수지점)","tel":"031-261-4848","addr":"경기도 용인시 수지구 상현동 193-18번지","indutype":"자동차정비 유지 - 자동차정비","category":"car"}]},{"lat":"37.296516778","long":"127.06996511","imageIndex":0,"items":[{"name":"광교리치안오피스텔관리단","tel":"031-213-6755","addr":"경기도 용인시 수지구 상현동 1132-4번지 관리사무소동 리치안오피스텔 광교","indutype":"자동차정비 유지 - 주차장","category":"car"}]},{"lat":"37.30337027","long":"127.07555444","imageIndex":0,"items":[{"name":"광교세차장","tel":"031-272-2242","addr":"경기도 용인시 수지구 상현동 342-9번지 외4필지","indutype":"자동차정비 유지 - 세차장","category":"car"}]},{"lat":"37.301481006","long":"127.07069138","imageIndex":0,"items":[{"name":"광교현대자동차서비스","tel":"031-333-9800","addr":"경기도 용인시 수지구 상현동 1191-1","indutype":"자동차정비 유지 - 자동차부품","category":"car"}]},{"lat":"37.307064551","long":"127.07541136","imageIndex":0,"items":[{"name":"넘버원 자동차 피부과","tel":"","addr":"경기도 용인시 수지구 상현동 193-17번지","indutype":"자동차정비 유지 - 세차장","category":"car"},{"name":"애니카랜드 상현점","tel":"031-896-2842","addr":"경기도 용인시 수지구 상현동 193-17번지 193-17,193-25","indutype":"자동차정비 유지 - 세차장","category":"car"},{"name":"애니카랜드 상현점","tel":"031-896-2842","addr":"경기도 용인시 수지구 상현동 193-17번지 (193-17,193-25)","indutype":"자동차정비 유지 - 자동차정비","category":"car"},{"name":"코스코 모터스","tel":"031-896-2843","addr":"경기도 용인시 수지구 상현동 193-17번지","indutype":"자동차정비 유지 - 자동차정비","category":"car"}]},{"lat":"37.306650281","long":"127.07508385","imageIndex":0,"items":[{"name":"넥센타이어(주)타이어테크용인상현점(R/C)","tel":"031-896-5985","addr":"경기도 용인시 수지구 상현동 193-11번지 1층","indutype":"자동차정비 유지 - 자동차시트·타이어","category":"car"}]},{"lat":"37.309760676","long":"127.08597226","imageIndex":0,"items":[{"name":"대성카센타","tel":"031-263-4868","addr":"경기도 용인시 수지구 상현동 64-2번지","indutype":"자동차정비 유지 - 자동차정비","category":"car"},{"name":"카메이크업","tel":"031-266-7193","addr":"경기도 용인시 수지구 상현동 64-2번지","indutype":"자동차정비 유지 - 자동차정비","category":"car"}]},{"lat":"37.297597834","long":"127.07027059","imageIndex":0,"items":[{"name":"미래상사","tel":"031-898-8811","addr":"경기도 용인시 수지구 상현동 1132-1번지 광교푸르지오시티2단지 706호","indutype":"자동차정비 유지 - 자동차부품","category":"car"}]},{"lat":"37.301203927","long":"127.08163172","imageIndex":0,"items":[{"name":"상현손세차장","tel":"031-264-8890","addr":"경기도 용인시 수지구 상현동 573-1번지","indutype":"자동차정비 유지 - 세차장","category":"car"}]},{"lat":"37.31403879","long":"127.08841364","imageIndex":0,"items":[{"name":"새차만들기","tel":"031-262-6161","addr":"경기도 용인시 수지구 상현동 3-4번지 성산빌딩 104호","indutype":"자동차정비 유지 - 자동차정비","category":"car"}]},{"lat":"37.314011318","long":"127.08902277","imageIndex":0,"items":[{"name":"성실카센타","tel":"031-276-0365","addr":"경기도 용인시 수지구 상현동 5-4번지","indutype":"자동차정비 유지 - 자동차정비","category":"car"}]},{"lat":"37.303704089","long":"127.07483289","imageIndex":0,"items":[{"name":"세덴","tel":"070-8670-2011","addr":"경기도 용인시 수지구 상현동 351-13번지 1층 2호일부,3호","indutype":"자동차정비 유지 - 자동차정비","category":"car"}]},{"lat":"37.301264935","long":"127.07038665","imageIndex":0,"items":[{"name":"스피드메이트SK용인고속점","tel":"031-264-1373","addr":"경기도 용인시 수지구 상현동 373-3번지","indutype":"자동차정비 유지 - 자동차정비","category":"car"}]},{"lat":"37.297598147","long":"127.06971795","imageIndex":0,"items":[{"name":"신명프라자 관리단","tel":"031-759-8801","addr":"경기도 용인시 수지구 상현동 1131-3번지 신명프라자","indutype":"자동차정비 유지 - 주차장","category":"car"}]},{"lat":"37.30845495","long":"127.08488794","imageIndex":0,"items":[{"name":"아이티프라자 상가관리단","tel":"031-344-6270","addr":"경기도 용인시 수지구 상현동 257-1번지 IT프라자","indutype":"자동차정비 유지 - 주차장","category":"car"}]},{"lat":"37.311424624","long":"127.07682561","imageIndex":0,"items":[{"name":"오로지 스팀세차","tel":"031-262-2886","addr":"경기도 용인시 수지구 상현동 102-3번지","indutype":"자동차정비 유지 - 세차장","category":"car"}]},{"lat":"37.303649364","long":"127.07591565","imageIndex":0,"items":[{"name":"오토오아시스대한2점","tel":"031-264-5588","addr":"경기도 용인시 수지구 상현동 342번지","indutype":"자동차정비 유지 - 자동차정비","category":"car"}]},{"lat":"37.306734287","long":"127.08446872","imageIndex":0,"items":[{"name":"원희캐슬프라자관리단","tel":"031-261-6991","addr":"경기도 용인시 수지구 상현동 254-14번지 원희캐슬프라자","indutype":"자동차정비 유지 - 주차장","category":"car"}]},{"lat":"37.304603328","long":"127.07771001","imageIndex":0,"items":[{"name":"유-모터스","tel":"","addr":"경기도 용인시 수지구 상현동 825번지 상현마을현대성우2차아파트","indutype":"자동차판매 - 중고자동차판매","category":"car"}]},{"lat":"37.307265757","long":"127.08466105","imageIndex":0,"items":[{"name":"유에스투코리아","tel":"031-276-2345","addr":"경기도 용인시 수지구 상현동 255번지 2층","indutype":"자동차정비 유지 - 자동차부품","category":"car"}]},{"lat":"37.310595543","long":"127.07705041","imageIndex":0,"items":[{"name":"저먼오토","tel":"031-265-3330","addr":"경기도 용인시 수지구 상현동 105-1번지 3층 1호 2","indutype":"자동차정비 유지 - 자동차부품","category":"car"}]},{"lat":"37.295904108","long":"127.06991945","imageIndex":0,"items":[{"name":"주식회사 대성디앤씨","tel":"031-213-2929","addr":"경기도 용인시 수지구 상현동 1133-2번지 205호","indutype":"자동차정비 유지 - 주차장","category":"car"}]},{"lat":"37.296238501","long":"127.06810396","imageIndex":0,"items":[{"name":"주식회사 문앤인","tel":"031-627-2200","addr":"경기도 용인시 수지구 상현동 1118번지 광교유타워 790호","indutype":"자동차정비 유지 - 주차장","category":"car"}]},{"lat":"37.299596734","long":"127.0726409","imageIndex":0,"items":[{"name":"주식회사 썬스엠디","tel":"031-211-5810","addr":"경기도 용인시 수지구 상현동 1125번지 큐브빌딩","indutype":"자동차정비 유지 - 주차장","category":"car"}]},{"lat":"37.295757838","long":"127.07353961","imageIndex":0,"items":[{"name":"지니출장세차","tel":"02-994-7933","addr":"경기도 용인시 수지구 상현동 1135번지 광교마을휴먼시아41단지","indutype":"자동차정비 유지 - 세차장","category":"car"},{"name":"지온 세차","tel":"","addr":"경기도 용인시 수지구 상현동 1135번지 광교마을휴먼시아41단지","indutype":"자동차정비 유지 - 세차장","category":"car"}]},{"lat":"37.309820799","long":"127.07683532","imageIndex":0,"items":[{"name":"타이어프로 상현점","tel":"031-263-8333","addr":"경기도 용인시 수지구 상현동 107-1번지","indutype":"자동차정비 유지 - 자동차시트·타이어","category":"car"},{"name":"타이어프로 상현점","tel":"031-263-8333","addr":"경기도 용인시 수지구 상현동 107-1번지","indutype":"자동차정비 유지 - 자동차시트·타이어","category":"car"}]},{"lat":"37.302928651","long":"127.07574577","imageIndex":0,"items":[{"name":"현대카하우스","tel":"031-263-8349","addr":"경기도 용인시 수지구 상현동 823번지","indutype":"자동차정비 유지 - 자동차정비","category":"car"}]}]