[{"lat":"37.116031973","long":"126.68307138","imageIndex":4,"items":[{"name":"궁평리어촌계부녀회영어조합법인","tel":"031-357-9285","addr":"경기도 화성시 서신면 궁평리 688번지","indutype":"일반휴게음식 - 일반한식","category":"restaurant"},{"name":"카페시모궁평1점","tel":"","addr":"경기도 화성시 서신면 궁평리 688번지","indutype":"일반휴게음식 - 일반한식","category":"restaurant"}]},{"lat":"37.116307523","long":"126.68167505","imageIndex":4,"items":[{"name":"궁평항","tel":"","addr":"경기도 화성시 서신면 궁평리 689번지 B동 1층 6동","indutype":"일반휴게음식 - 스넥","category":"restaurant"},{"name":"궁평항 수산물 직판장 4호점","tel":"031-2742-7305","addr":"경기도 화성시 서신면 궁평리 689번지 궁평항수산물판매장 1층 4호","indutype":"일반휴게음식 - 일반한식","category":"restaurant"},{"name":"궁평항 수산물 직판장9호","tel":"031-2208-0612","addr":"경기도 화성시 서신면 궁평리 689번지 궁평항수산물판매장 1층 9호","indutype":"일반휴게음식 - 일반한식","category":"restaurant"},{"name":"궁평항 수산물직판장 2호점","tel":"031-345-5700","addr":"경기도 화성시 서신면 궁평리 689번지 궁평항수산물판매장 1층 2호","indutype":"일반휴게음식 - 일반한식","category":"restaurant"},{"name":"궁평항 수산물직판장 3호점","tel":"031-1111-1111","addr":"경기도 화성시 서신면 궁평리 689번지 궁평항수산물판매장 1층 3호","indutype":"일반휴게음식 - 일반한식","category":"restaurant"},{"name":"양념코너 3호점","tel":"","addr":"경기도 화성시 서신면 궁평리 689번지 궁평항수산물판매장 1층 3호","indutype":"일반휴게음식 - 일식·회집","category":"restaurant"},{"name":"에이(A/B)동양념코너1층1호","tel":"031-5811-8253","addr":"경기도 화성시 서신면 궁평리 689번지 1층1호,궁평항수산물판매장","indutype":"일반휴게음식 - 일반한식","category":"restaurant"},{"name":"효선례","tel":"031-356-3614","addr":"경기도 화성시 서신면 궁평리 689번지","indutype":"일반휴게음식 - 일반한식","category":"restaurant"}]},{"lat":"37.116863534","long":"126.68403552","imageIndex":4,"items":[{"name":"궁평항 카페","tel":"031-8702-3070","addr":"경기도 화성시 서신면 궁평리 666-20번지 3층","indutype":"일반휴게음식 - 서양음식","category":"restaurant"},{"name":"룰루랄라궁평항카페","tel":"031-8702-3070","addr":"경기도 화성시 서신면 궁평리 666-20번지 1동 3층","indutype":"일반휴게음식 - 일반한식","category":"restaurant"}]},{"lat":"37.138029505","long":"126.70140269","imageIndex":4,"items":[{"name":"궁평항가는길","tel":"031-355-7874","addr":"경기도 화성시 서신면 궁평리 173-1번지","indutype":"일반휴게음식 - 일반한식","category":"restaurant"}]},{"lat":"37.120967782","long":"126.68570612","imageIndex":4,"items":[{"name":"궁평항올레","tel":"031-111-1111","addr":"경기도 화성시 서신면 궁평리 661-3번지 1층","indutype":"일반휴게음식 - 스넥","category":"restaurant"}]},{"lat":"37.120336665","long":"126.68556248","imageIndex":4,"items":[{"name":"그래거기","tel":"031-355-7486","addr":"경기도 화성시 서신면 궁평리 660-3번지 2층","indutype":"일반휴게음식 - 일반한식","category":"restaurant"}]},{"lat":"37.122218597","long":"126.68509328","imageIndex":4,"items":[{"name":"도리도회집","tel":"031-357-7339","addr":"경기도 화성시 서신면 궁평리 538번지","indutype":"일반휴게음식 - 일식·회집","category":"restaurant"}]},{"lat":"37.116945232","long":"126.6842602","imageIndex":4,"items":[{"name":"멜팅","tel":"031-000-0000","addr":"경기도 화성시 서신면 궁평리 666-37번지 2층","indutype":"일반휴게음식 - 서양음식","category":"restaurant"}]},{"lat":"37.129277429","long":"126.68309443","imageIndex":4,"items":[{"name":"바다회집","tel":"031-357-0502","addr":"경기도 화성시 서신면 궁평리 509-1번지","indutype":"일반휴게음식 - 일반한식","category":"restaurant"}]},{"lat":"37.121696809","long":"126.68539927","imageIndex":4,"items":[{"name":"서해말뚝","tel":"031-355-7944","addr":"경기도 화성시 서신면 궁평리 661-12번지 1층 일부","indutype":"일반휴게음식 - 서양음식","category":"restaurant"}]},{"lat":"37.129494952","long":"126.68356616","imageIndex":4,"items":[{"name":"서해식당","tel":"031-357-3232","addr":"경기도 화성시 서신면 궁평리 507번지","indutype":"일반휴게음식 - 일반한식","category":"restaurant"}]},{"lat":"37.126661805","long":"126.69228786","imageIndex":4,"items":[{"name":"오아시스 cafe&pub","tel":"032-831-3711","addr":"경기도 화성시 서신면 궁평리 376-35번지 1층","indutype":"일반휴게음식 - 서양음식","category":"restaurant"}]},{"lat":"37.129248818","long":"126.68250938","imageIndex":4,"items":[{"name":"완도집","tel":"031-357-9098","addr":"경기도 화성시 서신면 궁평리 512-1번지","indutype":"일반휴게음식 - 일반한식","category":"restaurant"}]},{"lat":"37.131888043","long":"126.69581143","imageIndex":4,"items":[{"name":"전주초가집","tel":"031-355-6954","addr":"경기도 화성시 서신면 궁평리 312-1번지","indutype":"일반휴게음식 - 일반한식","category":"restaurant"}]},{"lat":"37.132973766","long":"126.69406269","imageIndex":4,"items":[{"name":"정다운농원","tel":"031-355-1780","addr":"경기도 화성시 서신면 궁평리 327-1번지","indutype":"일반휴게음식 - 일반한식","category":"restaurant"}]},{"lat":"37.116918956","long":"126.6845416","imageIndex":4,"items":[{"name":"한끼분식","tel":"031-357-6620","addr":"경기도 화성시 서신면 궁평리 666-38번지 1층","indutype":"일반휴게음식 - 스넥","category":"restaurant"}]}]