[{"lat":"37.253266139","long":"127.07224875","imageIndex":7,"items":[{"name":"O.K마트","tel":"031-202-1995","addr":"경기도 수원시 영통구 영통동 959-4번지 다모아프라자 208호","indutype":"유통업 영리 - 슈퍼마켓","category":"mart"}]},{"lat":"37.251154207","long":"127.06213627","imageIndex":7,"items":[{"name":"두배로행복마트","tel":"031-203-3232","addr":"경기도 수원시 영통구 영통동 972-8번지 벽적골주공 휴먼시아8단지 상가동 105호","indutype":"유통업 영리 - 슈퍼마켓","category":"mart"}]},{"lat":"37.249551082","long":"127.0768891","imageIndex":7,"items":[{"name":"마마트 수원영통점","tel":"","addr":"경기도 수원시 영통구 영통동 1014-15번지 1층 101-1호","indutype":"유통업 영리 - 슈퍼마켓","category":"mart"}]},{"lat":"37.247911121","long":"127.07702275","imageIndex":7,"items":[{"name":"미니슈퍼","tel":"031-273-4242","addr":"경기도 수원시 영통구 영통동 1024-7번지 영통빌딩","indutype":"유통업 영리 - 슈퍼마켓","category":"mart"}]},{"lat":"37.246182211","long":"127.05863844","imageIndex":7,"items":[{"name":"삼성마트","tel":"031-206-8886","addr":"경기도 수원시 영통구 영통동 976-7삼성영프라자1층3-4","indutype":"유통업 영리 - 슈퍼마켓","category":"mart"}]},{"lat":"37.252126757","long":"127.06325293","imageIndex":7,"items":[{"name":"소비자유통","tel":"031-203-0087","addr":"경기도 수원시 영통구 영통동 964-5번지 신나무실주공5단지 나동 101호","indutype":"유통업 영리 - 슈퍼마켓","category":"mart"}]},{"lat":"37.244947531","long":"127.05920106","imageIndex":7,"items":[{"name":"에이티에스","tel":"031-303-5151","addr":"경기도 수원시 영통구 영통동 980-3번지 디지털엠파이어빌딩 B동 1208호","indutype":"유통업 영리 - 슈퍼마켓","category":"mart"}]},{"lat":"37.253435589","long":"127.07516831","imageIndex":7,"items":[{"name":"영통락슈퍼","tel":"031-206-3066","addr":"경기도 수원시 영통구 영통동 998-1번지","indutype":"유통업 영리 - 슈퍼마켓","category":"mart"}]},{"lat":"37.254208857","long":"127.07777287","imageIndex":7,"items":[{"name":"우리농산물마트","tel":"031-202-2745","addr":"경기도 수원시 영통구 영통동 1038-10번지 운현빌딩 1층","indutype":"유통업 영리 - 슈퍼마켓","category":"mart"},{"name":"우리마트","tel":"031-202-2745","addr":"경기도 수원시 영통구 영통동 1038-10번지 운현빌딩","indutype":"유통업 영리 - 슈퍼마켓","category":"mart"}]},{"lat":"37.26584799","long":"127.08113268","imageIndex":7,"items":[{"name":"자연마트 영통점","tel":"031-308-6688","addr":"경기도 수원시 영통구 영통동 947-10번지 102호","indutype":"유통업 영리 - 슈퍼마켓","category":"mart"}]},{"lat":"37.265632504","long":"127.07997127","imageIndex":7,"items":[{"name":"주공마트","tel":"031-205-8482","addr":"경기도 수원시 영통구 영통동 948-4번지 주공1단지 상가 101호","indutype":"유통업 영리 - 슈퍼마켓","category":"mart"}]},{"lat":"37.258514369","long":"127.07997529","imageIndex":7,"items":[{"name":"주공하이퍼","tel":"031-203-0997","addr":"경기도 수원시 영통구 영통동 1048-5번지 가상가 103호","indutype":"유통업 영리 - 슈퍼마켓","category":"mart"}]},{"lat":"37.250882301","long":"127.06524698","imageIndex":7,"items":[{"name":"주식회사 펀마트","tel":"031-203-0116","addr":"경기도 수원시 영통구 영통동 968번지 동보신명상가 지하층 101,102,103호","indutype":"유통업 영리 - 슈퍼마켓","category":"mart"}]},{"lat":"37.25099334","long":"127.07590989","imageIndex":7,"items":[{"name":"중국식품","tel":"031-205-9779","addr":"경기도 수원시 영통구 영통동 1009-3번지 호원빌딩 102호","indutype":"유통업 영리 - 슈퍼마켓","category":"mart"}]},{"lat":"37.265909358","long":"127.08366932","imageIndex":7,"items":[{"name":"초록마을영통황골점","tel":"031-204-6288","addr":"경기도 수원시 영통구 영통동 1053-2번지 벽산.풍림아파트","indutype":"유통업 영리 - 슈퍼마켓","category":"mart"}]},{"lat":"37.252377952","long":"127.06536093","imageIndex":7,"items":[{"name":"포유25(foryou25)","tel":"031-206-2223","addr":"경기도 수원시 영통구 영통동 964-4번지 소망문화센터 1층 104호","indutype":"유통업 영리 - 슈퍼마켓","category":"mart"}]},{"lat":"37.257625536","long":"127.07491304","imageIndex":7,"items":[{"name":"현대슈퍼","tel":"031-202-0771","addr":"경기도 수원시 영통구 영통동 957-6삼익벽산상가102","indutype":"유통업 영리 - 슈퍼마켓","category":"mart"}]}]