[{"lat":"37.696156868","long":"126.83906296","imageIndex":0,"items":[{"name":"NA Motors","tel":"031-962-7355","addr":"경기도 고양시 일산동구 사리현동 466번지","indutype":"자동차정비 유지 - 자동차정비","category":"car"}]},{"lat":"37.706796574","long":"126.84519724","imageIndex":0,"items":[{"name":"up이엔지","tel":"031-901-4050","addr":"경기도 고양시 일산동구 사리현동 277-7번지","indutype":"자동차정비 유지 - 자동차부품","category":"car"}]},{"lat":"37.69743168","long":"126.83581729","imageIndex":0,"items":[{"name":"고양현대카센터","tel":"031-969-5992","addr":"경기도 고양시 일산동구 사리현동 641-19번지","indutype":"자동차정비 유지 - 자동차정비","category":"car"},{"name":"은우자동차유리","tel":"031-964-5866","addr":"경기도 고양시 일산동구 사리현동 641-19번지","indutype":"자동차정비 유지 - 자동차부품","category":"car"}]},{"lat":"37.695623727","long":"126.84450658","imageIndex":0,"items":[{"name":"동진카센타","tel":"031-968-0909","addr":"경기도 고양시 일산동구 사리현동 124-1번지","indutype":"자동차정비 유지 - 자동차정비","category":"car"}]},{"lat":"37.694709125","long":"126.8410957","imageIndex":0,"items":[{"name":"마우라","tel":"031-123-4567","addr":"경기도 고양시 일산동구 사리현동 484-1번지","indutype":"자동차정비 유지 - 자동차부품","category":"car"},{"name":"악튜닝코리아(Achtuning Korea)","tel":"070-7135-7827","addr":"경기도 고양시 일산동구 사리현동 484-1번지","indutype":"자동차정비 유지 - 자동차부품","category":"car"},{"name":"오토얼라이언스","tel":"031-964-9238","addr":"경기도 고양시 일산동구 사리현동 484-1번지","indutype":"자동차정비 유지 - 세차장","category":"car"}]},{"lat":"37.695019932","long":"126.84439448","imageIndex":0,"items":[{"name":"모든자동차정비센타","tel":"031-967-9026","addr":"경기도 고양시 일산동구 사리현동 121-1번지","indutype":"자동차정비 유지 - 자동차정비","category":"car"}]},{"lat":"37.694599746","long":"126.84017754","imageIndex":0,"items":[{"name":"붕붕모터스","tel":"031-968-7279","addr":"경기도 고양시 일산동구 사리현동 478-6번지","indutype":"자동차정비 유지 - 자동차정비","category":"car"}]},{"lat":"37.693325421","long":"126.85070207","imageIndex":0,"items":[{"name":"브랜뉴카케어(BRANDNEW CARCARE)","tel":"033-241-2495","addr":"경기도 고양시 일산동구 사리현동 23-94번지","indutype":"자동차정비 유지 - 카인테리어","category":"car"}]},{"lat":"37.695185104","long":"126.83998351","imageIndex":0,"items":[{"name":"성산프라자","tel":"031-964-8742","addr":"경기도 고양시 일산동구 사리현동 478-23번지","indutype":"자동차정비 유지 - 윤활유 전문 판매","category":"car"}]},{"lat":"37.694905081","long":"126.84609548","imageIndex":0,"items":[{"name":"세차클럽","tel":"031-964-3737","addr":"경기도 고양시 일산동구 사리현동 132-1번지","indutype":"자동차정비 유지 - 세차장","category":"car"},{"name":"신화정비공업사","tel":"031-969-8166","addr":"경기도 고양시 일산동구 사리현동 132-1번지","indutype":"자동차정비 유지 - 자동차정비","category":"car"}]},{"lat":"37.687850123","long":"126.84578155","imageIndex":0,"items":[{"name":"쌍용상사","tel":"031-64-8820","addr":"경기도 고양시 일산동구 사리현동 40번지","indutype":"자동차정비 유지 - 카인테리어","category":"car"}]},{"lat":"37.701014923","long":"126.8470918","imageIndex":0,"items":[{"name":"일산보링자동차공업사","tel":"031-977-0073","addr":"경기도 고양시 일산동구 사리현동 238번지","indutype":"자동차정비 유지 - 자동차정비","category":"car"}]},{"lat":"37.701316491","long":"126.84353063","imageIndex":0,"items":[{"name":"주식회사 엘앤케이","tel":"031-968-0388","addr":"경기도 고양시 일산동구 사리현동 252-15번지","indutype":"자동차정비 유지 - 자동차부품","category":"car"}]},{"lat":"37.695350529","long":"126.83586731","imageIndex":0,"items":[{"name":"프로 시스템","tel":"031-969-3566","addr":"경기도 고양시 일산동구 사리현동 636-5번지 삼성벨라지오빌","indutype":"자동차정비 유지 - 카인테리어","category":"car"}]},{"lat":"37.713378808","long":"126.84239337","imageIndex":0,"items":[{"name":"현대1급일산동부공업사","tel":"031-963-0051","addr":"경기도 고양시 일산동구 사리현동","indutype":"자동차정비 유지 - 자동차정비","category":"car"}]},{"lat":"37.697101326","long":"126.8379497","imageIndex":0,"items":[{"name":"현명유통","tel":"031-964-0063","addr":"경기도 고양시 일산동구 사리현동 466-10번지","indutype":"자동차판매 - 이륜차판매","category":"car"}]}]