[{"lat":"37.138169768","long":"127.19888287","imageIndex":7,"items":[{"name":"(주)에스엠케이마트","tel":"031-322-3234","addr":"경기도 용인시 처인구 이동읍 송전리 582-24번지","indutype":"유통업 영리 - 슈퍼마켓","category":"mart"}]},{"lat":"37.184304147","long":"127.23340601","imageIndex":7,"items":[{"name":"느티나무슈퍼","tel":"031-332-9691","addr":"경기도 용인시 처인구 이동읍 묵리719-2","indutype":"유통업 영리 - 슈퍼마켓","category":"mart"}]},{"lat":"37.180700391","long":"127.20346331","imageIndex":7,"items":[{"name":"도희쉼터","tel":"031-338-9702","addr":"경기도 용인시 처인구 이동읍 덕성리 600-1번지 106호","indutype":"유통업 영리 - 슈퍼마켓","category":"mart"}]},{"lat":"37.188997765","long":"127.20940919","imageIndex":7,"items":[{"name":"동아아파트상가슈퍼","tel":"031-339-0033","addr":"경기도 용인시 처인구 이동읍 천리118-1","indutype":"유통업 영리 - 슈퍼마켓","category":"mart"}]},{"lat":"37.12390073","long":"127.21259674","imageIndex":7,"items":[{"name":"삼거리슈퍼","tel":"031-323-4482","addr":"경기도 용인시 처인구 이동읍 묘봉리 731-5번지","indutype":"유통업 영리 - 슈퍼마켓","category":"mart"}]},{"lat":"37.194696624","long":"127.20163065","imageIndex":7,"items":[{"name":"새마을슈퍼","tel":"031-335-7326","addr":"경기도 용인시 처인구 이동읍 천리 792-10번지 1층","indutype":"유통업 영리 - 슈퍼마켓","category":"mart"}]},{"lat":"37.123977319","long":"127.21512878","imageIndex":7,"items":[{"name":"새마을슈퍼","tel":"031-336-2789","addr":"경기도 용인시 처인구 이동읍 묘봉리 970-15","indutype":"유통업 영리 - 슈퍼마켓","category":"mart"}]},{"lat":"37.193499285","long":"127.17813308","imageIndex":7,"items":[{"name":"서리구판장","tel":"031-334-3418","addr":"경기도 용인시 처인구 이동읍 서리 180","indutype":"유통업 영리 - 슈퍼마켓","category":"mart"}]},{"lat":"37.124479039","long":"127.20648813","imageIndex":7,"items":[{"name":"송전매점","tel":"031-339-9927","addr":"경기도 용인시 처인구 이동읍 어비리 180-6번지","indutype":"유통업 영리 - 슈퍼마켓","category":"mart"}]},{"lat":"37.140037688","long":"127.19721069","imageIndex":7,"items":[{"name":"송전슈퍼","tel":"031-336-8158","addr":"경기도 용인시 처인구 이동읍 송전리 715-8번지","indutype":"유통업 영리 - 슈퍼마켓","category":"mart"}]},{"lat":"37.187417366","long":"127.21651121","imageIndex":7,"items":[{"name":"수연슈퍼","tel":"031-333-6786","addr":"경기도 용인시 처인구 이동읍 천리65-2","indutype":"유통업 영리 - 슈퍼마켓","category":"mart"}]},{"lat":"37.209467091","long":"127.17093768","imageIndex":7,"items":[{"name":"애경마트편의점","tel":"031-333-6375","addr":"경기도 용인시 처인구 이동읍 서리 640-1","indutype":"유통업 영리 - 슈퍼마켓","category":"mart"}]},{"lat":"37.193031777","long":"127.1774337","imageIndex":7,"items":[{"name":"은실네슈퍼","tel":"031-333-7351","addr":"경기도 용인시 처인구 이동읍 서리 392-10","indutype":"유통업 영리 - 슈퍼마켓","category":"mart"}]},{"lat":"37.138476457","long":"127.19868107","imageIndex":7,"items":[{"name":"한국영농조합법인","tel":"031-323-5689","addr":"경기도 용인시 처인구 이동읍 송전리 582-15번지","indutype":"유통업 영리 - 슈퍼마켓","category":"mart"}]}]