[{"lat":"37.139026463","long":"126.90054166","imageIndex":4,"items":[{"name":"강남한우99","tel":"02-353-5545","addr":"경기도 화성시 향남읍 장짐리 360-5번지 금탄빌딩 2층","indutype":"일반휴게음식 - 일반한식","category":"restaurant"},{"name":"랑렌바란","tel":"070-8947-4490","addr":"경기도 화성시 향남읍 장짐리 360-5번지","indutype":"일반휴게음식 - 일반한식","category":"restaurant"},{"name":"산드레곤드레","tel":"031-353-3966","addr":"경기도 화성시 향남읍 장짐리 360-5번지 1동 1층","indutype":"일반휴게음식 - 일반한식","category":"restaurant"}]},{"lat":"37.13636717","long":"126.89916095","imageIndex":4,"items":[{"name":"강쇠야장어먹자","tel":"031-352-3662","addr":"경기도 화성시 향남읍 장짐리 334번지","indutype":"일반휴게음식 - 일반한식","category":"restaurant"}]},{"lat":"37.13808623","long":"126.89696393","imageIndex":4,"items":[{"name":"그카페","tel":"","addr":"경기도 화성시 향남읍 장짐리 339-10번지","indutype":"일반휴게음식 - 서양음식","category":"restaurant"}]},{"lat":"37.13925113","long":"126.89985481","imageIndex":4,"items":[{"name":"김포손칼국수","tel":"031-352-2233","addr":"경기도 화성시 향남읍 장짐리 360-1번지","indutype":"일반휴게음식 - 일반한식","category":"restaurant"},{"name":"정든맛닭개장","tel":"031-353-9947","addr":"경기도 화성시 향남읍 장짐리 360-1번지","indutype":"일반휴게음식 - 일반한식","category":"restaurant"}]},{"lat":"37.139601949","long":"126.89917904","imageIndex":4,"items":[{"name":"논뚜렁","tel":"031-353-1341","addr":"경기도 화성시 향남읍 장짐리 359-5번지 외1필지비동109호","indutype":"일반휴게음식 - 일반한식","category":"restaurant"}]},{"lat":"37.139331497","long":"126.89902184","imageIndex":4,"items":[{"name":"다전구이집","tel":"031-352-1547","addr":"경기도 화성시 향남읍 장짐리 359-5번지 103 (B동)","indutype":"일반휴게음식 - 일반한식","category":"restaurant"}]},{"lat":"37.132750415","long":"126.90560312","imageIndex":4,"items":[{"name":"대포양꼬치","tel":"031-353-0709","addr":"경기도 화성시 향남읍 장짐리 281-4번지 1층 105호","indutype":"일반휴게음식 - 중국식","category":"restaurant"},{"name":"발안통닭","tel":"031-366-5373","addr":"경기도 화성시 향남읍 장짐리 281-4번지","indutype":"일반휴게음식 - 스넥","category":"restaurant"}]},{"lat":"37.137558376","long":"126.91238351","imageIndex":4,"items":[{"name":"도미노피자 (발안 향남점)","tel":"031-8059-3082","addr":"경기도 화성시 향남읍 장짐리 216-4번지 1층","indutype":"일반휴게음식 - 서양음식","category":"restaurant"},{"name":"페리카나","tel":"031-8059-1881","addr":"경기도 화성시 향남읍 장짐리 216-4번지 외2필지 B동 1층","indutype":"일반휴게음식 - 스넥","category":"restaurant"}]},{"lat":"37.138727717","long":"126.89893263","imageIndex":4,"items":[{"name":"명가","tel":"031-366-5341","addr":"경기도 화성시 향남읍 장짐리 343-8번지 1층","indutype":"일반휴게음식 - 일반한식","category":"restaurant"}]},{"lat":"37.133362488","long":"126.90482581","imageIndex":4,"items":[{"name":"오장식당","tel":"031-354-1245","addr":"경기도 화성시 향남읍 장짐리 303-6번지 1층4,5호","indutype":"일반휴게음식 - 일반한식","category":"restaurant"}]},{"lat":"37.133030017","long":"126.90594038","imageIndex":4,"items":[{"name":"인천매운탕","tel":"031-353-3502","addr":"경기도 화성시 향남읍 장짐리 282-31번지","indutype":"일반휴게음식 - 일반한식","category":"restaurant"}]},{"lat":"37.13898906","long":"126.89897729","imageIndex":4,"items":[{"name":"장수능이삼계탕","tel":"031-353-3545","addr":"경기도 화성시 향남읍 장짐리 344-1번지 A동 1층일부","indutype":"일반휴게음식 - 일반한식","category":"restaurant"}]},{"lat":"37.135223265","long":"126.91057435","imageIndex":4,"items":[{"name":"전기구이옛날통닭","tel":"031-352-3349","addr":"경기도 화성시 향남읍 장짐리 273-3번지","indutype":"일반휴게음식 - 스넥","category":"restaurant"}]},{"lat":"37.135998872","long":"126.91148501","imageIndex":4,"items":[{"name":"카페소예","tel":"070-8881-6000","addr":"경기도 화성시 향남읍 장짐리 271-2번지 카페소예","indutype":"일반휴게음식 - 서양음식","category":"restaurant"}]},{"lat":"37.13897093","long":"126.89885351","imageIndex":4,"items":[{"name":"황태랑동태랑","tel":"031-352-1060","addr":"경기도 화성시 향남읍 장짐리 344-1번지","indutype":"일반휴게음식 - 일반한식","category":"restaurant"}]}]