[{"lat":"37.43507076","long":"126.78866388","imageIndex":7,"items":[{"name":"(주)신천홈마트","tel":"031-312-2002","addr":"경기도 시흥시 신천동 860-16번지","indutype":"소매업 - 슈퍼마켓","category":"mart"}]},{"lat":"37.435462587","long":"126.79110336","imageIndex":7,"items":[{"name":"경남마트","tel":"031-314-1612","addr":"경기도 시흥시 신천동 948번지 휴먼프라자상가 108호","indutype":"소매업 - 슈퍼마켓","category":"mart"}]},{"lat":"37.442683023","long":"126.78310511","imageIndex":7,"items":[{"name":"그린마트","tel":"031-404-2441","addr":"경기도 시흥시 신천동 705-33번지 1층","indutype":"소매업 - 슈퍼","category":"mart"}]},{"lat":"37.431686192","long":"126.79043609","imageIndex":7,"items":[{"name":"녹원유통","tel":"031-318-1135","addr":"경기도 시흥시 신천동 875-7번지","indutype":"소매업 - 슈퍼마켓","category":"mart"}]},{"lat":"37.436434155","long":"126.78046807","imageIndex":7,"items":[{"name":"대성슈퍼마켓","tel":"031-314-9113","addr":"경기도 시흥시 신천동 835-28번지","indutype":"소매업 - 슈퍼마켓","category":"mart"}]},{"lat":"37.444296581","long":"126.7835185","imageIndex":7,"items":[{"name":"대우슈퍼","tel":"031-312-8960","addr":"경기도 시흥시 신천동 704-43번지 101호","indutype":"소매업 - 슈퍼","category":"mart"}]},{"lat":"37.4371577","long":"126.78680484","imageIndex":7,"items":[{"name":"더블할인마트","tel":"031-404-1133","addr":"경기도 시흥시 신천동 855-1번지 태원탑스빌 101호","indutype":"소매업 - 슈퍼","category":"mart"}]},{"lat":"37.436933492","long":"126.78248916","imageIndex":7,"items":[{"name":"동경상회(동경슈퍼)","tel":"","addr":"경기도 시흥시 신천동 843-24번지","indutype":"소매업 - 슈퍼마켓","category":"mart"}]},{"lat":"37.440160025","long":"126.78299949","imageIndex":7,"items":[{"name":"롯데할인마트","tel":"031-312-8612","addr":"경기도 시흥시 신천동 739-12번지 1층","indutype":"소매업 - 슈퍼마켓","category":"mart"}]},{"lat":"37.433435889","long":"126.79141414","imageIndex":7,"items":[{"name":"신천하이퍼","tel":"","addr":"경기도 시흥시 신천동 879-15번지 101호","indutype":"소매업 - 슈퍼","category":"mart"}]},{"lat":"37.440097523","long":"126.78330476","imageIndex":7,"items":[{"name":"아시아DC마트","tel":"031-404-6989","addr":"경기도 시흥시 신천동 739-10번지 1층","indutype":"소매업 - 슈퍼마켓","category":"mart"}]},{"lat":"37.437100613","long":"126.78515531","imageIndex":7,"items":[{"name":"연희할인매장","tel":"031-313-3688","addr":"경기도 시흥시 신천동 277-6번지 연희아파트","indutype":"소매업 - 슈퍼마켓","category":"mart"}]},{"lat":"37.43354245","long":"126.79054383","imageIndex":7,"items":[{"name":"월드슈퍼","tel":"031-311-5697","addr":"경기도 시흥시 신천동 869-2번지 뉴월드아파트","indutype":"소매업 - 슈퍼","category":"mart"}]},{"lat":"37.437991985","long":"126.77998888","imageIndex":7,"items":[{"name":"진로마트","tel":"031-314-0550","addr":"경기도 시흥시 신천동 388-15번지","indutype":"소매업 - 슈퍼마켓","category":"mart"}]},{"lat":"37.438133247","long":"126.78815797","imageIndex":7,"items":[{"name":"진로마트 시흥점","tel":"031-315-5333","addr":"경기도 시흥시 신천동 774번지 우명프라자 제1층외 18개소","indutype":"소매업 - 슈퍼마켓","category":"mart"}]},{"lat":"37.440241724","long":"126.78332694","imageIndex":7,"items":[{"name":"킹할인마트","tel":"031-314-7037","addr":"경기도 시흥시 신천동 739-2번지","indutype":"소매업 - 슈퍼마켓","category":"mart"}]},{"lat":"37.439766415","long":"126.7845261","imageIndex":7,"items":[{"name":"프라임마트","tel":"031-317-7111","addr":"경기도 시흥시 신천동 736-1번지","indutype":"소매업 - 슈퍼마켓","category":"mart"}]},{"lat":"37.437460464","long":"126.7897983","imageIndex":7,"items":[{"name":"한우리마트 신천점","tel":"031-311-3173","addr":"경기도 시흥시 신천동 781-9번지 남영맨션","indutype":"소매업 - 슈퍼","category":"mart"}]},{"lat":"37.436376535","long":"126.78338343","imageIndex":7,"items":[{"name":"현대마트","tel":"031-313-1149","addr":"경기도 시흥시 신천동 846-29번지","indutype":"소매업 - 슈퍼마켓","category":"mart"}]},{"lat":"37.443852506","long":"126.78212986","imageIndex":7,"items":[{"name":"현대썬마트","tel":"031-404-4656","addr":"경기도 시흥시 신천동 703번지 현대홈타운","indutype":"소매업 - 슈퍼마켓","category":"mart"}]},{"lat":"37.438772707","long":"126.77832553","imageIndex":7,"items":[{"name":"현대유통","tel":"031-312-7740","addr":"경기도 시흥시 신천동 817-5번지","indutype":"소매업 - 슈퍼마켓","category":"mart"}]},{"lat":"37.443489971","long":"126.7809896","imageIndex":7,"items":[{"name":"훼미리슈퍼","tel":"031-311-8322","addr":"경기도 시흥시 신천동 314-38번지","indutype":"소매업 - 슈퍼","category":"mart"}]}]