[{"lat":"37.263462745","long":"127.37124889","imageIndex":17,"items":[{"name":"레몬트리","tel":"02-1111-1111","addr":"경기도 이천시 마장면 회억리 55-3번지","indutype":"직물 - 옷감·직물","category":"other"}]},{"lat":"37.254050274","long":"127.36138526","imageIndex":17,"items":[{"name":"마장오토바이","tel":"031-633-5343","addr":"경기도 이천시 마장면 회억리 209번지","indutype":"수리서비스 - 레져용품수리","category":"other"},{"name":"천마중기","tel":"031-633-6616","addr":"경기도 이천시 마장면 회억리 209","indutype":"기타 - 기계공구","category":"other"}]},{"lat":"37.261823922","long":"127.370914","imageIndex":17,"items":[{"name":"바람아래","tel":"031-1111-1111","addr":"경기도 이천시 마장면 회억리 101","indutype":"문화.취미 - 화원","category":"other"}]},{"lat":"37.256609046","long":"127.35844406","imageIndex":17,"items":[{"name":"서가건축","tel":"031-634-2821","addr":"경기도 이천시 마장면 회억리 226-2번지","indutype":"용역 서비스 - 기타용역서비스","category":"other"}]},{"lat":"37.260328952","long":"127.36483068","imageIndex":17,"items":[{"name":"소예","tel":"031-338-1101","addr":"경기도 이천시 마장면 회억리 258-3번지 1동 1층","indutype":"문화.취미 - 문화취미기타","category":"other"}]},{"lat":"37.266776388","long":"127.37766853","imageIndex":17,"items":[{"name":"육군제5779부대","tel":"031-638-5779","addr":"경기도 이천시 마장면 회억리 산113-1번지","indutype":"유통업 비영리 - 구내매점(국가기관","category":"other"},{"name":"육군제5779부대","tel":"031-638-5779","addr":"경기도 이천시 마장면 회억리 산113-1번지","indutype":"유통업 비영리 - 구내매점(국가기관","category":"other"}]},{"lat":"37.257716073","long":"127.35885507","imageIndex":17,"items":[{"name":"창공사","tel":"031-111-1111","addr":"경기도 이천시 마장면 회억리 230-7번지","indutype":"수리서비스 - 세탁소","category":"other"}]},{"lat":"37.257326772","long":"127.35947321","imageIndex":17,"items":[{"name":"태양철물마트","tel":"031-111-1111","addr":"경기도 이천시 마장면 회억리 229-1번지 2동","indutype":"건축자재 - 목재·석재·철물","category":"other"}]},{"lat":"37.262270173","long":"127.36938303","imageIndex":17,"items":[{"name":"폰 온","tel":"031-633-9020","addr":"경기도 이천시 마장면 회억리 96-1번지 1동 101호","indutype":"사무통신 - 통신기기","category":"other"}]},{"lat":"37.253519256","long":"127.36119113","imageIndex":17,"items":[{"name":"해피우드","tel":"031-632-8401","addr":"경기도 이천시 마장면 회억리 207-3, 422-1","indutype":"가구 - 일반가구","category":"other"}]}]