[{"lat":"37.786753285","long":"126.99326647","imageIndex":8,"items":[{"name":"녹십자약국","tel":"031-855-1400","addr":"경기도 양주시 백석읍 복지리 130-8번지","indutype":"약국 - 약국","category":"medical"}]},{"lat":"37.786699316","long":"126.99441307","imageIndex":8,"items":[{"name":"미소치과의원","tel":"031-877-2830","addr":"경기도 양주시 백석읍 복지리 135-5번지","indutype":"의원 - 치과의원","category":"medical"},{"name":"백석의원","tel":"031-837-7575","addr":"경기도 양주시 백석읍 복지리 135-5번지 1층","indutype":"의원 - 의원","category":"medical"},{"name":"서울약국","tel":"031-877-5380","addr":"경기도 양주시 백석읍 복지리 135-5번지 1층 102호","indutype":"약국 - 약국","category":"medical"}]},{"lat":"37.787230659","long":"126.99180195","imageIndex":8,"items":[{"name":"백석튼튼치과의원","tel":"031-875-2825","addr":"경기도 양주시 백석읍 복지리 132-5번지 2층","indutype":"의원 - 치과의원","category":"medical"}]},{"lat":"37.786509895","long":"126.99174529","imageIndex":8,"items":[{"name":"백석한의원","tel":"031-879-6386","addr":"경기도 양주시 백석읍 복지리 128-1번지","indutype":"의원 - 한의원","category":"medical"}]},{"lat":"37.786978459","long":"126.99251719","imageIndex":8,"items":[{"name":"서울베스트치과의원","tel":"031-836-2275","addr":"경기도 양주시 백석읍 복지리 130-7번지 2층","indutype":"의원 - 치과의원","category":"medical"}]},{"lat":"37.78678914","long":"126.99124575","imageIndex":8,"items":[{"name":"서울연합이비인후과","tel":"031-855-1424","addr":"경기도 양주시 백석읍 복지리 111번지 3층","indutype":"의원 - 의원","category":"medical"},{"name":"참조은약국","tel":"031-855-8920","addr":"경기도 양주시 백석읍 복지리 111번지 102호","indutype":"약국 - 약국","category":"medical"}]},{"lat":"37.783589821","long":"126.98393565","imageIndex":8,"items":[{"name":"서울탑치과의원","tel":"031-879-2777","addr":"경기도 양주시 백석읍 복지리 290번지 2층 210-213호","indutype":"의원 - 치과의원","category":"medical"},{"name":"양주한마음약국","tel":"031-829-5580","addr":"경기도 양주시 백석읍 복지리 290번지 (동화베르사이유(1차)상가1층102호)","indutype":"약국 - 약국","category":"medical"}]},{"lat":"37.788230802","long":"126.99280083","imageIndex":8,"items":[{"name":"혜민약국","tel":"031-871-6100","addr":"경기도 양주시 백석읍 복지리 132-4번지","indutype":"약국 - 약국","category":"medical"}]}]