[{"lat":"37.402588847","long":"127.5463654","imageIndex":4,"items":[{"name":"(이포) E4 커피하우스","tel":"031-882-5397","addr":"경기도 여주시 대신면 천서리 603-3번지 1,2층","indutype":"일반휴게음식 - 서양음식","category":"restaurant"}]},{"lat":"37.403116105","long":"127.54730662","imageIndex":4,"items":[{"name":"E4커피전문점","tel":"031-882-5397","addr":"경기도 여주시 대신면 천서리 603-3번지","indutype":"일반휴게음식 - 서양음식","category":"restaurant"}]},{"lat":"37.402037699","long":"127.54670024","imageIndex":4,"items":[{"name":"강촌아구전문","tel":"031-881-0010","addr":"경기도 여주시 대신면 천서리 595-7번지","indutype":"일반휴게음식 - 일반한식","category":"restaurant"}]},{"lat":"37.402254908","long":"127.55233749","imageIndex":4,"items":[{"name":"녹지촌","tel":"031-883-9007","addr":"경기도 여주시 대신면 천서리 448번지","indutype":"일반휴게음식 - 일반한식","category":"restaurant"}]},{"lat":"37.403818805","long":"127.54927689","imageIndex":4,"items":[{"name":"대가집","tel":"031-886-8823","addr":"경기도 여주시 대신면 천서리 412-1번지","indutype":"일반휴게음식 - 일반한식","category":"restaurant"}]},{"lat":"37.402483532","long":"127.54575476","imageIndex":4,"items":[{"name":"대신가든","tel":"","addr":"경기도 여주시 대신면 천서리 597-7번지","indutype":"일반휴게음식 - 일반한식","category":"restaurant"}]},{"lat":"37.403871409","long":"127.54763961","imageIndex":4,"items":[{"name":"명가","tel":"031-884-9608","addr":"경기도 여주시 대신면 천서리 615번지","indutype":"일반휴게음식 - 일반한식","category":"restaurant"}]},{"lat":"37.402984817","long":"127.54842378","imageIndex":4,"items":[{"name":"봉춘막국수","tel":"031-884-9852","addr":"경기도 여주시 대신면 천서리 609-6번지","indutype":"일반휴게음식 - 일반한식","category":"restaurant"}]},{"lat":"37.403700113","long":"127.54961486","imageIndex":4,"items":[{"name":"봉황막국수","tel":"031-882-3369","addr":"경기도 여주시 대신면 천서리 413-1번지","indutype":"일반휴게음식 - 일반한식","category":"restaurant"}]},{"lat":"37.403367076","long":"127.54759079","imageIndex":4,"items":[{"name":"여양커피","tel":"031-883-1500","addr":"경기도 여주시 대신면 천서리 614-6번지 1층","indutype":"일반휴게음식 - 서양음식","category":"restaurant"}]},{"lat":"37.402566983","long":"127.547201","imageIndex":4,"items":[{"name":"올드타임갤러리카페","tel":"031-1111-1111","addr":"경기도 여주시 대신면 천서리 605-2번지 1층","indutype":"일반휴게음식 - 서양음식","category":"restaurant"}]},{"lat":"37.403173489","long":"127.54658421","imageIndex":4,"items":[{"name":"이포 순두부 막국수","tel":"031-885-0144","addr":"경기도 여주시 대신면 천서리 617-17번지","indutype":"일반휴게음식 - 일반한식","category":"restaurant"}]},{"lat":"37.402257408","long":"127.54594513","imageIndex":4,"items":[{"name":"이포장어추어탕","tel":"031-886-2930","addr":"경기도 여주시 대신면 천서리 597-5번지","indutype":"일반휴게음식 - 일반한식","category":"restaurant"}]},{"lat":"37.40461667","long":"127.5540263","imageIndex":4,"items":[{"name":"정든집","tel":"031-886-6533","addr":"경기도 여주시 대신면 천서리 401-1번지","indutype":"일반휴게음식 - 일반한식","category":"restaurant"}]},{"lat":"37.404011129","long":"127.54664673","imageIndex":4,"items":[{"name":"천서리바지락칼국수","tel":"031-884-7558","addr":"경기도 여주시 대신면 천서리 624-6번지 외1필지","indutype":"일반휴게음식 - 일반한식","category":"restaurant"}]},{"lat":"37.408426645","long":"127.55814295","imageIndex":4,"items":[{"name":"천서리손두부","tel":"031-882-8310","addr":"경기도 여주시 대신면 천서리 347-3번지","indutype":"일반휴게음식 - 일반한식","category":"restaurant"}]},{"lat":"37.404566625","long":"127.55122494","imageIndex":4,"items":[{"name":"천서영양탕","tel":"031-884-1060","addr":"경기도 여주시 대신면 천서리 403-8번지","indutype":"일반휴게음식 - 일반한식","category":"restaurant"}]},{"lat":"37.404010668","long":"127.54870228","imageIndex":4,"items":[{"name":"청정바다회센터","tel":"070-8837-2817","addr":"경기도 여주시 대신면 천서리 412-3번지","indutype":"일반휴게음식 - 일반한식","category":"restaurant"}]},{"lat":"37.404011815","long":"127.54845382","imageIndex":4,"items":[{"name":"춘천본가닭갈비","tel":"031-884-1909","addr":"경기도 여주시 대신면 천서리 612번지","indutype":"일반휴게음식 - 일반한식","category":"restaurant"}]},{"lat":"37.404506361","long":"127.54475287","imageIndex":4,"items":[{"name":"커피마마 이포보전망대점","tel":"031-881-2593","addr":"경기도 여주시 대신면 천서리 645-1번지 3층","indutype":"일반휴게음식 - 서양음식","category":"restaurant"}]},{"lat":"37.401259954","long":"127.5492809","imageIndex":4,"items":[{"name":"필우재카페&갤러리","tel":"031-7523-6492","addr":"경기도 여주시 대신면 천서리 436번지","indutype":"일반휴게음식 - 서양음식","category":"restaurant"}]},{"lat":"37.400033288","long":"127.54761183","imageIndex":4,"items":[{"name":"한송갈비","tel":"031-881-3292","addr":"경기도 여주시 대신면 천서리 584번지","indutype":"일반휴게음식 - 일반한식","category":"restaurant"}]}]