[{"lat":"36.962085892","long":"127.24234621","imageIndex":17,"items":[{"name":"나노윈(주)/원격지","tel":"070-8676-7161","addr":"경기도 안성시 미양면 보체리 325-30","indutype":"기타 - 기타 전문점","category":"other"}]},{"lat":"36.962060533","long":"127.2415152","imageIndex":17,"items":[{"name":"다인케미칼","tel":"031-677-5541","addr":"경기도 안성시 미양면 보체리 325-7","indutype":"기타 - 기타 전문점","category":"other"}]},{"lat":"36.966587253","long":"127.24871614","imageIndex":17,"items":[{"name":"더존 컨테이너","tel":"031-677-2788","addr":"경기도 안성시 미양면 보체리 247-22번지","indutype":"건축자재 - 기타건축자재","category":"other"}]},{"lat":"36.972665271","long":"127.23743802","imageIndex":17,"items":[{"name":"로뎀나무어린이집","tel":"031-677-7631","addr":"경기도 안성시 미양면 보체리 39-2번지","indutype":"기타 - 비영리/비대상","category":"other"}]},{"lat":"36.962723902","long":"127.24762575","imageIndex":17,"items":[{"name":"미니스톱안성미양공단점","tel":"031-340-4260","addr":"경기도 안성시 미양면 보체리 255-7","indutype":"유통업 영리 - 편 의 점","category":"other"}]},{"lat":"36.961501307","long":"127.24179417","imageIndex":17,"items":[{"name":"세븐일레븐안성승현점","tel":"031-1577-0711","addr":"경기도 안성시 미양면 보체리 325-20번지 1층","indutype":"유통업 영리 - 편 의 점","category":"other"}]},{"lat":"36.967501171","long":"127.24243055","imageIndex":17,"items":[{"name":"주식회사 동보티씨에스","tel":"031-674-3252","addr":"경기도 안성시 미양면 보체리 269-2번지","indutype":"수리서비스 - 기타수리서비스","category":"other"}]},{"lat":"36.974806878","long":"127.24782166","imageIndex":17,"items":[{"name":"플랜24","tel":"031-673-0024","addr":"경기도 안성시 미양면 보체리 150-3번지 1,2층 전체","indutype":"문화.취미 - 티켓","category":"other"}]},{"lat":"36.970225546","long":"127.24532517","imageIndex":17,"items":[{"name":"호산테크 (주)","tel":"031-677-9601","addr":"경기도 안성시 미양면 보체리 222-17번지","indutype":"기타 - 기계공구","category":"other"}]}]