[{"lat":"37.28180031","long":"127.63180153","imageIndex":17,"items":[{"name":"(주)레띠즈코리아","tel":"02-522-8330","addr":"경기도 여주시 교동 391-1번지","indutype":"의류 - 아동의류","category":"other"}]},{"lat":"37.279585514","long":"127.63655266","imageIndex":17,"items":[{"name":"GS25여주교리점","tel":"","addr":"경기도 여주시 교동 99-2번지 1~2호","indutype":"유통업 영리 - 편 의 점","category":"other"},{"name":"세종열쇠","tel":"031-631-5133","addr":"경기도 여주시 교동 99-2번지","indutype":"건축자재 - 목재·석재·철물","category":"other"},{"name":"아로마식물원","tel":"031-884-4989","addr":"경기도 여주시 교동 99-2번지","indutype":"문화.취미 - 화원","category":"other"},{"name":"에바다디자인인쇄","tel":"031-883-1544","addr":"경기도 여주시 교동 99-2번지 1층 103호","indutype":"서적문구 - 출판 및 인쇄물","category":"other"},{"name":"여주식물원","tel":"031-885-9918","addr":"경기도 여주시 교동 99-2번지","indutype":"문화.취미 - 화원","category":"other"}]},{"lat":"37.274891208","long":"127.63655842","imageIndex":17,"items":[{"name":"강남세탁소","tel":"031-886-2928","addr":"경기도 여주시 교동 75-6번지","indutype":"수리서비스 - 세탁소","category":"other"}]},{"lat":"37.269749145","long":"127.63267086","imageIndex":17,"items":[{"name":"게스트하우스 및 자동차공학관 편의점","tel":"","addr":"경기도 여주시 교동 454-4번지 여주대학교","indutype":"유통업 영리 - 편 의 점","category":"other"},{"name":"나를","tel":"031-882-0221","addr":"경기도 여주시 교동 454-4번지 여주대학 401-9호","indutype":"문화.취미 - 애완동물","category":"other"},{"name":"여주대학교내 문구점","tel":"031-880-5595","addr":"경기도 여주시 교동 454-4번지 여암학술정보관 B동 6호","indutype":"서적문구 - 문구용품","category":"other"},{"name":"조은인쇄","tel":"031-880-5466","addr":"경기도 여주시 교동 454-4번지 여암학술정보관 3층","indutype":"용역 서비스 - 사무서비스","category":"other"},{"name":"주식회사프로젝트에프","tel":"070-7841-3759","addr":"경기도 여주시 교동 454-4번지 여주대학교 4층 여주대학교창업보육센터","indutype":"의류 - 정장","category":"other"},{"name":"클레이스토리","tel":"031-885-1947","addr":"경기도 여주시 교동 454-4번지 여주대학교 422호","indutype":"문화.취미 - 민예·공예품","category":"other"}]},{"lat":"37.26902558","long":"127.63824545","imageIndex":17,"items":[{"name":"경기여주지역자활센터","tel":"070-8831-0871","addr":"경기도 여주시 교동 45-20번지","indutype":"문화.취미 - 민예·공예품","category":"other"}]},{"lat":"37.277415932","long":"127.63788751","imageIndex":17,"items":[{"name":"고광상사","tel":"031-886-4148","addr":"경기도 여주시 교동 16-1번지","indutype":"기타 - 기계공구","category":"other"}]},{"lat":"37.280273691","long":"127.63591572","imageIndex":17,"items":[{"name":"나는가구다","tel":"031-886-2449","addr":"경기도 여주시 교동 101번지","indutype":"가구 - 일반가구","category":"other"}]},{"lat":"37.273805572","long":"127.63738365","imageIndex":17,"items":[{"name":"다이소 여주대점","tel":"031-855-9749","addr":"경기도 여주시 교동 61-2번지 1층 110,111,112,113호","indutype":"신변잡화 - 기타잡화","category":"other"}]},{"lat":"37.272968816","long":"127.63716241","imageIndex":17,"items":[{"name":"동심식물원","tel":"031-883-3160","addr":"경기도 여주시 교동 58번지","indutype":"문화.취미 - 화원","category":"other"}]},{"lat":"37.276855557","long":"127.63988978","imageIndex":17,"items":[{"name":"동원가스이엔지","tel":"070-7419-8593","addr":"경기도 여주시 교동 19번지","indutype":"용역 서비스 - 기타용역서비스","category":"other"}]},{"lat":"37.274696432","long":"127.63591412","imageIndex":17,"items":[{"name":"동화조명","tel":"031-886-0056","addr":"경기도 여주시 교동 77번지 102호","indutype":"전기제품 - 기타전기제품","category":"other"},{"name":"벤자롱스파","tel":"","addr":"경기도 여주시 교동 77번지 1동 101호","indutype":"문화.취미 - 문화취미기타","category":"other"}]},{"lat":"37.273300846","long":"127.63741323","imageIndex":17,"items":[{"name":"로데오토탈뷰티케어","tel":"031-885-6355","addr":"경기도 여주시 교동 59-2번지","indutype":"회원제형태 - 기타4","category":"other"}]},{"lat":"37.271390059","long":"127.63753249","imageIndex":17,"items":[{"name":"블랑쉐","tel":"031-881-5540","addr":"경기도 여주시 교동 50-1번지","indutype":"문화.취미 - 화원","category":"other"}]},{"lat":"37.274992426","long":"127.63952456","imageIndex":17,"items":[{"name":"삼성세탁소","tel":"031-881-5946","addr":"경기도 여주시 교동 28번지 삼성명가타운 상가 105동 106호","indutype":"수리서비스 - 세탁소","category":"other"}]},{"lat":"37.279946115","long":"127.63483052","imageIndex":17,"items":[{"name":"세띠앙문구","tel":"031-883-1608","addr":"경기도 여주시 교동 103-1번지","indutype":"서적문구 - 문구용품","category":"other"}]},{"lat":"37.274661599","long":"127.63568833","imageIndex":17,"items":[{"name":"스프링 블라썸","tel":"031-884-5541","addr":"경기도 여주시 교동 80번지","indutype":"문화.취미 - 화원","category":"other"}]},{"lat":"37.2733008464","long":"127.6374132336","imageIndex":17,"items":[{"name":"시티 스포츠센타","tel":"031-882-8833","addr":"경기도 여주시 교동 59-2번지","indutype":"회원제형태 - 레져업소","category":"other"}]},{"lat":"37.279583498","long":"127.63524468","imageIndex":17,"items":[{"name":"씨유여주교동점","tel":"031-239-6698","addr":"경기도 여주시 교동 103-3번지 1층","indutype":"유통업 영리 - 편 의 점","category":"other"}]},{"lat":"37.277053728","long":"127.63822272","imageIndex":17,"items":[{"name":"씨유여주금양점","tel":"031-239-6696","addr":"경기도 여주시 교동 17번지 1층","indutype":"유통업 영리 - 편 의 점","category":"other"}]},{"lat":"37.269140828","long":"127.63691609","imageIndex":17,"items":[{"name":"씨유여주대캠퍼스타운점","tel":"031-885-8935","addr":"경기도 여주시 교동 51-6번지","indutype":"유통업 영리 - 편 의 점","category":"other"}]},{"lat":"37.284223449","long":"127.62680376","imageIndex":17,"items":[{"name":"아이지에이마트서장금점","tel":"","addr":"경기도 여주시 교동 191-4번지 1층","indutype":"유통업 영리 - 편 의 점","category":"other"}]},{"lat":"37.276441914","long":"127.63805973","imageIndex":17,"items":[{"name":"여주본가","tel":"031-883-9226","addr":"경기도 여주시 교동 17-22번지 1층","indutype":"사무통신 - 통신기기","category":"other"}]},{"lat":"37.27597457","long":"127.64119025","imageIndex":17,"items":[{"name":"여주상사","tel":"","addr":"경기도 여주시 교동 25-13번지","indutype":"수리서비스 - 가정용품수리","category":"other"}]},{"lat":"37.28754774","long":"127.62688759","imageIndex":17,"items":[{"name":"여주생화유통","tel":"031-886-0182","addr":"경기도 여주시 교동 223-1번지","indutype":"문화.취미 - 화원","category":"other"}]},{"lat":"37.289331916","long":"127.62514311","imageIndex":17,"items":[{"name":"여주종합건재","tel":"031-883-6616","addr":"경기도 여주시 교동 279-1번지","indutype":"건축자재 - 건축용 요업제품","category":"other"}]},{"lat":"37.276022475","long":"127.64066073","imageIndex":17,"items":[{"name":"영림전기콘트롤","tel":"","addr":"경기도 여주시 교동 25-2번지 101호","indutype":"수리서비스 - 기타수리서비스","category":"other"}]},{"lat":"37.276997733","long":"127.63858305","imageIndex":17,"items":[{"name":"와방","tel":"070-8831-7579","addr":"경기도 여주시 교동 17-37번지","indutype":"의류 - 정장","category":"other"}]},{"lat":"37.274913345","long":"127.63747187","imageIndex":17,"items":[{"name":"이마트24 여주교동점","tel":"","addr":"경기도 여주시 교동 68-4번지","indutype":"유통업 영리 - 편 의 점","category":"other"},{"name":"이마트24 여주교동점","tel":"","addr":"경기도 여주시 교동 68-4번지","indutype":"유통업 영리 - 편 의 점","category":"other"}]},{"lat":"37.2895539342","long":"127.6274680107","imageIndex":17,"items":[{"name":"제일냉동","tel":"031-883-4643","addr":"경기도 여주시 교동 269번지","indutype":"전기제품 - 냉열기기","category":"other"}]},{"lat":"37.282105925","long":"127.62683139","imageIndex":17,"items":[{"name":"채움주방","tel":"031-886-2006","addr":"경기도 여주시 교동 379-1번지","indutype":"주방용구 - 주방용구","category":"other"}]},{"lat":"37.2810528848","long":"127.6300250152","imageIndex":17,"items":[{"name":"해동사","tel":"031-881-1014","addr":"경기도 여주시 교동 400번지","indutype":"기타 - 비영리/대상","category":"other"}]},{"lat":"37.274776012","long":"127.63619666","imageIndex":17,"items":[{"name":"향기로운세탁소","tel":"031-885-1105","addr":"경기도 여주시 교동 75-5번지","indutype":"수리서비스 - 세탁소","category":"other"}]},{"lat":"37.28011031","long":"127.63613987","imageIndex":17,"items":[{"name":"현대적벽돌","tel":"031-883-3800","addr":"경기도 여주시 교동 101-4번지","indutype":"건축자재 - 기타건축자재","category":"other"}]},{"lat":"37.274946895","long":"127.63625446","imageIndex":16,"items":[{"name":"(주)마인드펀치심리상담센타","tel":"031-886-8711","addr":"경기도 여주시 교동 75번지","indutype":"학원 - 기타 교육기관","category":"study"}]},{"lat":"37.2799658530","long":"127.6361950337","imageIndex":16,"items":[{"name":"라온종합학원","tel":"031-886-5050","addr":"경기도 여주시 교동 100-3번지","indutype":"학원 - 기타 교육기관","category":"study"}]},{"lat":"37.279640779","long":"127.63632762","imageIndex":16,"items":[{"name":"맨투맨보습학원","tel":"031-885-0882","addr":"경기도 여주시 교동 100번지","indutype":"학원 - 보습학원","category":"study"},{"name":"베라카음악학원","tel":"031-885-6008","addr":"경기도 여주시 교동 100번지","indutype":"학원 - 예·체능계학원","category":"study"}]},{"lat":"37.279585514","long":"127.63655266","imageIndex":16,"items":[{"name":"멘사영어전문교습소","tel":"031-885-9040","addr":"경기도 여주시 교동 99-2번지 1동 5호","indutype":"학원 - 외국어학원","category":"study"},{"name":"삼성영어","tel":"031-885-0880","addr":"경기도 여주시 교동 99-2번지","indutype":"회원제형태 - 학원","category":"study"},{"name":"세종보습학원","tel":"031-885-0880","addr":"경기도 여주시 교동 99-2번지","indutype":"학원 - 보습학원","category":"study"},{"name":"해법중국어학원","tel":"070-5022-4846","addr":"경기도 여주시 교동 99-2번지 202호","indutype":"회원제형태 - 학원","category":"study"}]},{"lat":"37.279583498","long":"127.63524468","imageIndex":16,"items":[{"name":"명성수학학원","tel":"031-885-3412","addr":"경기도 여주시 교동 103-3번지","indutype":"학원 - 보습학원","category":"study"},{"name":"잉글리쉬무무학원","tel":"031-881-3313","addr":"경기도 여주시 교동 103-3번지","indutype":"회원제형태 - 학원","category":"study"}]},{"lat":"37.276441914","long":"127.63805973","imageIndex":16,"items":[{"name":"반포수학교습소","tel":"","addr":"경기도 여주시 교동 17-22번지 3층","indutype":"학원 - 보습학원","category":"study"}]},{"lat":"37.279218074","long":"127.63280612","imageIndex":16,"items":[{"name":"세종중학교","tel":"031-884-6175","addr":"경기도 여주시 교동 121-11번지 세종중학교","indutype":"학원 - 초중고교육기관","category":"study"}]},{"lat":"37.279500921","long":"127.63383455","imageIndex":16,"items":[{"name":"세종초등학교","tel":"031-880-2600","addr":"경기도 여주시 교동 121-7번지 세종초등학교","indutype":"학원 - 초중고교육기관","category":"study"},{"name":"세종초등학교병설유치원[아이행복]","tel":"031-880-2680","addr":"경기도 여주시 교동 121-7번지 세종초등학교","indutype":"학원 - 유치원","category":"study"}]},{"lat":"37.279946115","long":"127.63483052","imageIndex":16,"items":[{"name":"세종해법수학교습소","tel":"031-886-9555","addr":"경기도 여주시 교동 103-1번지","indutype":"회원제형태 - 학원","category":"study"},{"name":"프레이즈음악학원","tel":"031-885-3721","addr":"경기도 여주시 교동 103-1번지","indutype":"학원 - 예·체능계학원","category":"study"}]},{"lat":"37.276248657","long":"127.63713355","imageIndex":16,"items":[{"name":"에스에이치(SH)에이전시","tel":"031-883-4489","addr":"경기도 여주시 교동 84-6번지","indutype":"학원 - 예·체능계학원","category":"study"}]},{"lat":"37.269749145","long":"127.63267086","imageIndex":16,"items":[{"name":"엔에스이항공","tel":"031-881-6653","addr":"경기도 여주시 교동 454-4번지 여주대학교 104호 여암정보학술관","indutype":"학원 - 기능학원","category":"study"},{"name":"용마FC 유소년 축구교실","tel":"","addr":"경기도 여주시 교동 454-4번지 여주대학 207호","indutype":"학원 - 예·체능계학원","category":"study"}]},{"lat":"37.28063266","long":"127.63280663","imageIndex":16,"items":[{"name":"예일어린이집[아이행복]","tel":"031-882-6223","addr":"경기도 여주시 교동 127번지 여주예일세띠앙","indutype":"학원 - 유아원","category":"study"}]},{"lat":"37.277221993","long":"127.64211408","imageIndex":16,"items":[{"name":"재능유치원[아이행복]","tel":"031-882-1475","addr":"경기도 여주시 교동 21-3번지","indutype":"학원 - 유치원","category":"study"}]},{"lat":"37.2697491453","long":"127.6326708592","imageIndex":16,"items":[{"name":"주식회사소통교육연구소","tel":"031-882-5562","addr":"경기도 여주시 교동 454-4번지","indutype":"회원제형태 - 학원","category":"study"}]},{"lat":"37.296774852","long":"127.64027199","imageIndex":16,"items":[{"name":"지앤비어학원","tel":"031-881-0582","addr":"경기도 여주시 교동 103-1번지","indutype":"회원제형태 - 학원","category":"study"}]},{"lat":"37.274661599","long":"127.63568833","imageIndex":16,"items":[{"name":"하예진영어교습소","tel":"031-883-7005","addr":"경기도 여주시 교동 80번지","indutype":"학원 - 외국어학원","category":"study"}]},{"lat":"37.279354519","long":"127.63594185","imageIndex":16,"items":[{"name":"한우리독서토론논술학원","tel":"031-884-7556","addr":"경기도 여주시 교동 105-1번지","indutype":"학원 - 보습학원","category":"study"}]},{"lat":"37.288304511","long":"127.62519103","imageIndex":4,"items":[{"name":"By The Pond(바이더폰드)","tel":"031-886-1115","addr":"경기도 여주시 교동 299-4번지","indutype":"일반휴게음식 - 서양음식","category":"restaurant"}]},{"lat":"37.269140828","long":"127.63691609","imageIndex":4,"items":[{"name":"곰식당","tel":"","addr":"경기도 여주시 교동 51-6번지","indutype":"일반휴게음식 - 일반한식","category":"restaurant"},{"name":"김영희 동태찜&코다리냉면","tel":"031-883-5529","addr":"경기도 여주시 교동 51-6번지","indutype":"일반휴게음식 - 일반한식","category":"restaurant"},{"name":"선우화로막창","tel":"031-882-8295","addr":"경기도 여주시 교동 51-6번지","indutype":"일반휴게음식 - 일반한식","category":"restaurant"},{"name":"양마담이 만드는 버거","tel":"070-7786-0903","addr":"경기도 여주시 교동 51-6번지","indutype":"일반휴게음식 - 서양음식","category":"restaurant"},{"name":"우리동네","tel":"","addr":"경기도 여주시 교동 51-6번지","indutype":"일반휴게음식 - 일반한식","category":"restaurant"},{"name":"즉석김밥마을 여주대분식","tel":"031-886-6990","addr":"경기도 여주시 교동 51-6번지","indutype":"일반휴게음식 - 스넥","category":"restaurant"},{"name":"커피마마","tel":"031-882-3053","addr":"경기도 여주시 교동 51-6번지","indutype":"일반휴게음식 - 일반한식","category":"restaurant"},{"name":"호프아프리칸","tel":"031-882-6477","addr":"경기도 여주시 교동 51-6번지","indutype":"일반휴게음식 - 일반한식","category":"restaurant"}]},{"lat":"37.270968535","long":"127.63716818","imageIndex":4,"items":[{"name":"교리여주쌀밥","tel":"031-884-9997","addr":"경기도 여주시 교동 50번지","indutype":"일반휴게음식 - 일반한식","category":"restaurant"}]},{"lat":"37.2752778137","long":"127.6350282691","imageIndex":4,"items":[{"name":"국시랑볶기랑","tel":"031-882-2229","addr":"경기도 여주시 교동 81번지 강남아파트","indutype":"일반휴게음식 - 일반한식","category":"restaurant"}]},{"lat":"37.269725434","long":"127.63711265","imageIndex":4,"items":[{"name":"김가네갈비탕&화로구이","tel":"031-886-6877","addr":"경기도 여주시 교동 46번지","indutype":"일반휴게음식 - 일반한식","category":"restaurant"},{"name":"김가네밥상&화로구이","tel":"031-882-6262","addr":"경기도 여주시 교동 46번지","indutype":"일반휴게음식 - 일반한식","category":"restaurant"},{"name":"불타는 꽃돼지 미스닭 미스터돈","tel":"031-882-4587","addr":"경기도 여주시 교동 46번지 2층","indutype":"일반휴게음식 - 일반한식","category":"restaurant"},{"name":"여주반점","tel":"031-884-3110","addr":"경기도 여주시 교동 46번지","indutype":"일반휴게음식 - 중국식","category":"restaurant"}]},{"lat":"37.274891208","long":"127.63655842","imageIndex":4,"items":[{"name":"대학로막창","tel":"031-885-7030","addr":"경기도 여주시 교동 75-6번지","indutype":"일반휴게음식 - 일반한식","category":"restaurant"},{"name":"장명달","tel":"031-882-0042","addr":"경기도 여주시 교동 75-6번지","indutype":"일반휴게음식 - 일반한식","category":"restaurant"},{"name":"훌랄라 참숯바베큐(여주대점)","tel":"031-883-9692","addr":"경기도 여주시 교동 75-6번지","indutype":"일반휴게음식 - 스넥","category":"restaurant"}]},{"lat":"37.271390059","long":"127.63753249","imageIndex":4,"items":[{"name":"더카페 이탈리아노(THE CAFE Italiano)","tel":"031-885-1530","addr":"경기도 여주시 교동 50-1번지 1층","indutype":"일반휴게음식 - 서양음식","category":"restaurant"}]},{"lat":"37.273526996","long":"127.63724601","imageIndex":4,"items":[{"name":"돈까스타운","tel":"031-881-2011","addr":"경기도 여주시 교동 60번지","indutype":"일반휴게음식 - 서양음식","category":"restaurant"}]},{"lat":"37.273805572","long":"127.63738365","imageIndex":4,"items":[{"name":"레츠그루","tel":"031-885-1683","addr":"경기도 여주시 교동 61-2번지 105호106호","indutype":"일반휴게음식 - 서양음식","category":"restaurant"},{"name":"아담한 고깃집","tel":"","addr":"경기도 여주시 교동 61-2번지 107호","indutype":"일반휴게음식 - 일반한식","category":"restaurant"}]},{"lat":"37.276382595","long":"127.63736017","imageIndex":4,"items":[{"name":"맛고을","tel":"031-883-5577","addr":"경기도 여주시 교동 84-3번지","indutype":"일반휴게음식 - 일반한식","category":"restaurant"}]},{"lat":"37.274776012","long":"127.63619666","imageIndex":4,"items":[{"name":"무한똥집숯불구이전문점","tel":"031-881-0511","addr":"경기도 여주시 교동 75-5번지","indutype":"일반휴게음식 - 칵테일바","category":"restaurant"}]},{"lat":"37.269749145","long":"127.63267086","imageIndex":4,"items":[{"name":"봄날","tel":"070-4220-2815","addr":"경기도 여주시 교동 454-4번지 여주대학교","indutype":"일반휴게음식 - 서양음식","category":"restaurant"},{"name":"용마분식","tel":"","addr":"경기도 여주시 교동 454-4번지 여주대학교 학생회관 1층","indutype":"일반휴게음식 - 스넥","category":"restaurant"},{"name":"주식회사통 Tong cafe","tel":"031-885-5749","addr":"경기도 여주시 교동 454-4번지","indutype":"일반휴게음식 - 스넥","category":"restaurant"}]},{"lat":"37.275690451","long":"127.64040988","imageIndex":4,"items":[{"name":"비에이치씨(BHC) 레귤러여주대점","tel":"031-883-5510","addr":"경기도 여주시 교동 23-3번지 지하1층","indutype":"일반휴게음식 - 스넥","category":"restaurant"}]},{"lat":"37.274913345","long":"127.63747187","imageIndex":4,"items":[{"name":"사월","tel":"","addr":"경기도 여주시 교동 68-4번지 2층","indutype":"일반휴게음식 - 서양음식","category":"restaurant"}]},{"lat":"37.284223449","long":"127.62680376","imageIndex":4,"items":[{"name":"서장금 한식부페","tel":"031-885-7230","addr":"경기도 여주시 교동 191-4번지 1동 1층 맛집","indutype":"일반휴게음식 - 일반한식","category":"restaurant"}]},{"lat":"37.273300846","long":"127.63741323","imageIndex":4,"items":[{"name":"설빙 여주대점","tel":"031-882-5945","addr":"경기도 여주시 교동 59-2번지 102호","indutype":"일반휴게음식 - 서양음식","category":"restaurant"},{"name":"채선당 여주점","tel":"031-881-2660","addr":"경기도 여주시 교동 59-2번지","indutype":"일반휴게음식 - 일반한식","category":"restaurant"},{"name":"초밥가든","tel":"031-882-2285","addr":"경기도 여주시 교동 59-2번지 로데오타운 108호","indutype":"일반휴게음식 - 일반한식","category":"restaurant"},{"name":"커피엔라떼","tel":"031-886-9180","addr":"경기도 여주시 교동 59-2번지 107호","indutype":"일반휴게음식 - 서양음식","category":"restaurant"}]},{"lat":"37.275888208","long":"127.6371418","imageIndex":4,"items":[{"name":"세종로248","tel":"031-884-2483","addr":"경기도 여주시 교동 84-16번지","indutype":"일반휴게음식 - 일반한식","category":"restaurant"}]},{"lat":"37.280047328","long":"127.63274537","imageIndex":4,"items":[{"name":"어울림카페 다온","tel":"070-4178-7948","addr":"경기도 여주시 교동 127번지 여주예일세띠앙 103동","indutype":"일반휴게음식 - 서양음식","category":"restaurant"}]},{"lat":"37.270580694","long":"127.63724384","imageIndex":4,"items":[{"name":"여주본갈비","tel":"031-885-6644","addr":"경기도 여주시 교동 48-2번지 1층","indutype":"일반휴게음식 - 일반한식","category":"restaurant"},{"name":"최가네행복한 집밥","tel":"031-885-0833","addr":"경기도 여주시 교동 48-2번지","indutype":"일반휴게음식 - 일반한식","category":"restaurant"}]},{"lat":"37.270138734","long":"127.63733033","imageIndex":4,"items":[{"name":"여주송탄부대찌개","tel":"031-881-2237","addr":"경기도 여주시 교동 47-2번지","indutype":"일반휴게음식 - 일반한식","category":"restaurant"}]},{"lat":"37.287388034","long":"127.6298295","imageIndex":4,"items":[{"name":"우준아빠의 하누야","tel":"033-881-6685","addr":"경기도 여주시 교동 211번지","indutype":"일반휴게음식 - 일반한식","category":"restaurant"}]},{"lat":"37.279965853","long":"127.63619503","imageIndex":4,"items":[{"name":"육대장","tel":"031-881-6447","addr":"경기도 여주시 교동 100-3번지 1층","indutype":"일반휴게음식 - 일반한식","category":"restaurant"}]},{"lat":"37.277938375","long":"127.63791445","imageIndex":4,"items":[{"name":"정가네숯불갈비","tel":"031-885-3222","addr":"경기도 여주시 교동 12번지","indutype":"일반휴게음식 - 일반한식","category":"restaurant"}]},{"lat":"37.275331706","long":"127.62997755","imageIndex":4,"items":[{"name":"제비골가든","tel":"031-884-0009","addr":"경기도 여주시 교동 441-2번지","indutype":"일반휴게음식 - 일반한식","category":"restaurant"}]},{"lat":"37.272110173","long":"127.63766255","imageIndex":4,"items":[{"name":"주막","tel":"031-885-9889","addr":"경기도 여주시 교동 50-2번지","indutype":"일반휴게음식 - 일반한식","category":"restaurant"}]},{"lat":"37.277385635","long":"127.63849611","imageIndex":4,"items":[{"name":"주문진물회","tel":"031-883-9807","addr":"경기도 여주시 교동 15번지","indutype":"일반휴게음식 - 일반한식","category":"restaurant"}]},{"lat":"37.274584576","long":"127.63661222","imageIndex":4,"items":[{"name":"즐겨찾기","tel":"031-885-9734","addr":"경기도 여주시 교동 484-3번지","indutype":"일반휴게음식 - 스넥","category":"restaurant"}]},{"lat":"37.287218759","long":"127.62946724","imageIndex":4,"items":[{"name":"지중해 수산","tel":"031-111-1111","addr":"경기도 여주시 교동 210-1번지 1층","indutype":"일반휴게음식 - 일반한식","category":"restaurant"}]},{"lat":"37.276248657","long":"127.63713355","imageIndex":4,"items":[{"name":"학사반점","tel":"031-886-2222","addr":"경기도 여주시 교동 84-6번지","indutype":"일반휴게음식 - 중국식","category":"restaurant"}]},{"lat":"37.273300846","long":"127.63741323","imageIndex":13,"items":[{"name":"LG)오휘여주지사","tel":"031-886-7015","addr":"경기도 여주시 교동 59-2번지","indutype":"보건위생 - 화장품","category":"beauty"},{"name":"LG오휘여주지사","tel":"031-886-7015","addr":"경기도 여주시 교동 59-2번지","indutype":"보건위생 - 화장품","category":"beauty"},{"name":"LG오휘컨설턴트","tel":"031-886-7015","addr":"경기도 여주시 교동 59-2번지","indutype":"보건위생 - 화장품","category":"beauty"},{"name":"LG화장품오휘여주지사","tel":"031-886-7015","addr":"경기도 여주시 교동 59-2번지 103동","indutype":"보건위생 - 화장품","category":"beauty"},{"name":"엘지(LG)오휘여주지사","tel":"031-886-7015","addr":"경기도 여주시 교동 59-2번지","indutype":"보건위생 - 화장품","category":"beauty"},{"name":"엘지오휘여주지사","tel":"031-886-7015","addr":"경기도 여주시 교동 59-2번지","indutype":"보건위생 - 화장품","category":"beauty"},{"name":"오휘화장품","tel":"031-886-7015","addr":"경기도 여주시 교동 59-2번지 1층","indutype":"보건위생 - 화장품","category":"beauty"},{"name":"오휘화장품","tel":"031-886-7015","addr":"경기도 여주시 교동 59-2번지 오휘여주","indutype":"보건위생 - 화장품","category":"beauty"},{"name":"오휘화장품","tel":"031-886-7015","addr":"경기도 여주시 교동 59-2번지","indutype":"보건위생 - 화장품","category":"beauty"}]},{"lat":"37.274913345","long":"127.63747187","imageIndex":13,"items":[{"name":"네일 봄봄봄","tel":"","addr":"경기도 여주시 교동 68-4번지 101호","indutype":"보건위생 - 피부미용실","category":"beauty"}]},{"lat":"37.274661599","long":"127.63568833","imageIndex":13,"items":[{"name":"도도네일","tel":"031-881-4042","addr":"경기도 여주시 교동 80번지 상가동 102호","indutype":"보건위생 - 피부미용실","category":"beauty"},{"name":"혜란뷰티샵","tel":"031-884-1458","addr":"경기도 여주시 교동 80번지 101호","indutype":"보건위생 - 미용원","category":"beauty"}]},{"lat":"37.275111795","long":"127.63910839","imageIndex":13,"items":[{"name":"명가헤어샵","tel":"031-881-3285","addr":"경기도 여주시 교동 28번지 삼성명가타운아파트","indutype":"보건위생 - 미용원","category":"beauty"}]},{"lat":"37.274891208","long":"127.63655842","imageIndex":13,"items":[{"name":"비타민헤어아트","tel":"031-885-5490","addr":"경기도 여주시 교동 75-6번지","indutype":"보건위생 - 미용원","category":"beauty"}]},{"lat":"37.269749145","long":"127.63267086","imageIndex":13,"items":[{"name":"프로젝트에이치","tel":"031-880-5662","addr":"경기도 여주시 교동 454-4번지 여주대학","indutype":"보건위생 - 미용원","category":"beauty"}]},{"lat":"37.274329698","long":"127.63372374","imageIndex":13,"items":[{"name":"호반헤어샵","tel":"031-881-2628","addr":"경기도 여주시 교동 81-2번지 스카이밸리단지 상가 102호","indutype":"보건위생 - 미용원","category":"beauty"}]},{"lat":"37.269749145","long":"127.63267086","imageIndex":7,"items":[{"name":"Y SHOP","tel":"031-880-5595","addr":"경기도 여주시 교동 454-4번지","indutype":"음료식품 - 기타음료식품","category":"food"},{"name":"여주대학교학생회관편의점","tel":"031-880-5472","addr":"경기도 여주시 교동 454-4번지 여주대학교","indutype":"음료식품 - 기타음료식품","category":"food"}]},{"lat":"37.287388034","long":"127.6298295","imageIndex":7,"items":[{"name":"강원영농축산","tel":"031-881-6685","addr":"경기도 여주시 교동 211번지","indutype":"음료식품 - 정육점","category":"food"}]},{"lat":"37.26902558","long":"127.63824545","imageIndex":7,"items":[{"name":"경기여주지역자활센터","tel":"031-881-0872","addr":"경기도 여주시 교동 45-20번지","indutype":"음료식품 - 농·축·수산품","category":"food"},{"name":"여민협동조합","tel":"031-884-7402","addr":"경기도 여주시 교동 45-20번지 2층","indutype":"음료식품 - 기타음료식품","category":"food"}]},{"lat":"37.273300846","long":"127.63741323","imageIndex":7,"items":[{"name":"뚜레쥬르 여주대로데오점","tel":"031-884-0016","addr":"경기도 여주시 교동 59-2번지 101호","indutype":"음료식품 - 제과점","category":"food"},{"name":"파리바게뜨 여주대학점","tel":"031-881-5118","addr":"경기도 여주시 교동 59-2번지 1층 106호","indutype":"음료식품 - 제과점","category":"food"}]},{"lat":"37.273805572","long":"127.63738365","imageIndex":7,"items":[{"name":"아미띠에(제과점)","tel":"031-885-8933","addr":"경기도 여주시 교동 61-2번지 108,109","indutype":"음료식품 - 제과점","category":"food"}]},{"lat":"37.270473306","long":"127.62864073","imageIndex":7,"items":[{"name":"오성농원","tel":"031-858-4604","addr":"경기도 여주시 교동 453-38번지","indutype":"음료식품 - 농·축·수산품","category":"food"}]},{"lat":"37.274913345","long":"127.63747187","imageIndex":7,"items":[{"name":"픽미픽미아이스 여주점","tel":"031-111-1111","addr":"경기도 여주시 교동 68-4번지 1층 103호","indutype":"음료식품 - 기타음료식품","category":"food"}]},{"lat":"37.279585514","long":"127.63655266","imageIndex":7,"items":[{"name":"현미와누룽지","tel":"031-886-7011","addr":"경기도 여주시 교동 99-2번지","indutype":"음료식품 - 기타음료식품","category":"food"}]},{"lat":"37.275277814","long":"127.63502827","imageIndex":7,"items":[{"name":"강남할인마트","tel":"031-881-2720","addr":"경기도 여주시 교동 81번지 강남아파트","indutype":"유통업 영리 - 슈퍼마켓","category":"mart"}]},{"lat":"37.276076989","long":"127.63722231","imageIndex":7,"items":[{"name":"한살림경기동부소비자생활협동조합여주매장","tel":"031-884-9122","addr":"경기도 여주시 교동 84-10번지","indutype":"유통업 영리 - 슈퍼마켓","category":"mart"}]},{"lat":"37.270968535","long":"127.63716818","imageIndex":0,"items":[{"name":"경기자동차 주식회사","tel":"031-882-5982","addr":"경기도 여주시 교동 50번지","indutype":"자동차정비 유지 - 자동차정비","category":"car"}]},{"lat":"37.274220624","long":"127.63727438","imageIndex":0,"items":[{"name":"대학세차,경정비","tel":"031-884-5820","addr":"경기도 여주시 교동 62-6번지","indutype":"자동차정비 유지 - 세차장","category":"car"}]},{"lat":"37.276501352","long":"127.63705674","imageIndex":0,"items":[{"name":"성흥자동차공업사","tel":"031-1111-1111","addr":"경기도 여주시 교동 84-9번지","indutype":"자동차정비 유지 - 자동차정비","category":"car"}]},{"lat":"37.275910522","long":"127.63802144","imageIndex":0,"items":[{"name":"시민세차장","tel":"","addr":"경기도 여주시 교동 30-32번지","indutype":"자동차정비 유지 - 세차장","category":"car"}]},{"lat":"37.277167347","long":"127.63719763","imageIndex":0,"items":[{"name":"정품C&B","tel":"070-7108-4072","addr":"경기도 여주시 교동 92-5번지","indutype":"자동차정비 유지 - 자동차부품","category":"car"}]},{"lat":"37.271390059","long":"127.63753249","imageIndex":0,"items":[{"name":"휠&타이어","tel":"031-884-3700","addr":"경기도 여주시 교동 50-1번지","indutype":"자동차정비 유지 - 자동차시트·타이어","category":"car"}]},{"lat":"37.269917264","long":"127.63493836","imageIndex":13,"items":[{"name":"동신교육재단","tel":"031-881-2882","addr":"경기도 여주시 교동 454-5번지","indutype":"레저업소 - 골프연습장","category":"leisure"}]},{"lat":"37.269140828","long":"127.63691609","imageIndex":13,"items":[{"name":"맥스피드PC 여주대점","tel":"070-4660-9762","addr":"경기도 여주시 교동 51-6번지 캠퍼스타운2 201호","indutype":"레저업소 - 기타레져업소","category":"leisure"},{"name":"아프리칸노래연습장","tel":"031-886-5196","addr":"경기도 여주시 교동 51-6번지 201호","indutype":"레저업소 - 노 래 방","category":"leisure"},{"name":"에이스프러스당구장","tel":"031-885-7170","addr":"경기도 여주시 교동 51-6번지","indutype":"레저업소 - 당 구 장","category":"leisure"}]},{"lat":"37.274696432","long":"127.63591412","imageIndex":13,"items":[{"name":"민'S 슬라임","tel":"","addr":"경기도 여주시 교동 77번지","indutype":"레저업소 - 기타레져업소","category":"leisure"}]},{"lat":"37.270580694","long":"127.63724384","imageIndex":13,"items":[{"name":"바디라인","tel":"031-881-0117","addr":"경기도 여주시 교동 48-2번지 2층","indutype":"레저업소 - 헬스클럽","category":"leisure"}]},{"lat":"37.279583498","long":"127.63524468","imageIndex":13,"items":[{"name":"여주우슈체육관","tel":"031-885-9364","addr":"경기도 여주시 교동 103-3번지 1층","indutype":"레저업소 - 헬스클럽","category":"leisure"}]},{"lat":"37.284223449","long":"127.62680376","imageIndex":13,"items":[{"name":"영 스크린 골프","tel":"031-884-0753","addr":"경기도 여주시 교동 191-4번지 2층","indutype":"레저업소 - 스크린골프","category":"leisure"}]},{"lat":"37.276248657","long":"127.63713355","imageIndex":13,"items":[{"name":"짱구노래연습장","tel":"031-884-8660","addr":"경기도 여주시 교동 84-6번지 2층","indutype":"레저업소 - 노 래 방","category":"leisure"},{"name":"투플러스 PC방","tel":"","addr":"경기도 여주시 교동 84-6번지 1층","indutype":"레저업소 - 기타레져업소","category":"leisure"}]},{"lat":"37.273300846","long":"127.63741323","imageIndex":8,"items":[{"name":"편안한거북이한의원","tel":"031-883-6771","addr":"경기도 여주시 교동 59-2번지 206호","indutype":"의원 - 한의원","category":"medical"}]}]