[{"lat":"37.46374332","long":"127.2481416","imageIndex":4,"items":[{"name":"농가보쌈훈제오리","tel":"031-767-9292","addr":"경기도 광주시 남한산성면 광지원리 173번지","indutype":"일반휴게음식 - 일반한식","category":"restaurant"}]},{"lat":"37.46188163","long":"127.2465079","imageIndex":4,"items":[{"name":"다래가든","tel":"031-743-6586","addr":"경기도 광주시 남한산성면 광지원리 103-3번지 1층","indutype":"일반휴게음식 - 일반한식","category":"restaurant"}]},{"lat":"37.46377483","long":"127.2459714","imageIndex":4,"items":[{"name":"다린갤러리 공방카페","tel":"031-798-0524","addr":"경기도 광주시 남한산성면 광지원리 156-2번지 2층","indutype":"일반휴게음식 - 서양음식","category":"restaurant"},{"name":"봉천막국수","tel":"031-793-7714","addr":"경기도 광주시 남한산성면 광지원리 156-2번지","indutype":"일반휴게음식 - 일반한식","category":"restaurant"}]},{"lat":"37.4602205","long":"127.243722","imageIndex":4,"items":[{"name":"대박낙소","tel":"031-444-6781","addr":"경기도 광주시 남한산성면 광지원리 32-3번지 1층","indutype":"일반휴게음식 - 일반한식","category":"restaurant"}]},{"lat":"37.4606894","long":"127.2435313","imageIndex":4,"items":[{"name":"메밀로43","tel":"031-765-3999","addr":"경기도 광주시 남한산성면 광지원리 38-1번지","indutype":"일반휴게음식 - 일반한식","category":"restaurant"}]},{"lat":"37.46305196","long":"127.2469751","imageIndex":4,"items":[{"name":"산성각","tel":"031-761-3080","addr":"경기도 광주시 남한산성면 광지원리 163-7번지 1층","indutype":"일반휴게음식 - 중국식","category":"restaurant"}]},{"lat":"37.4599168","long":"127.2424212","imageIndex":4,"items":[{"name":"위베이크 남한산성/주식회사 위베이크","tel":"031-1234-5612","addr":"경기도 광주시 남한산성면 광지원리 5-3번지 1층","indutype":"일반휴게음식 - 서양음식","category":"restaurant"}]},{"lat":"37.46177465","long":"127.2459537","imageIndex":4,"items":[{"name":"카페남한산성로15","tel":"","addr":"경기도 광주시 남한산성면 광지원리 103-7번지 2층","indutype":"일반휴게음식 - 서양음식","category":"restaurant"}]},{"lat":"37.46313214","long":"127.2474162","imageIndex":4,"items":[{"name":"한가닭","tel":"031-763-2977","addr":"경기도 광주시 남한산성면 광지원리 163-1번지","indutype":"일반휴게음식 - 일반한식","category":"restaurant"}]}]