[{"lat":"37.578610744","long":"126.86284518","imageIndex":0,"items":[{"name":"국제카써비스","tel":"031-987-8305","addr":"경기도 고양시 덕양구 덕은동","indutype":"자동차정비 유지 - 자동차부품","category":"car"}]},{"lat":"37.590943172","long":"126.87708848","imageIndex":0,"items":[{"name":"대덕주차장","tel":"070-8945-8545","addr":"경기도 고양시 덕양구 덕은동 115번지","indutype":"자동차정비 유지 - 주차장","category":"car"}]},{"lat":"37.580666618","long":"126.86423382","imageIndex":0,"items":[{"name":"덕은상사","tel":"02-375-1481","addr":"경기도 고양시 덕양구 덕은동 444-2번지","indutype":"자동차정비 유지 - 자동차정비","category":"car"},{"name":"제일상사","tel":"02-305-0343","addr":"경기도 고양시 덕양구 덕은동 444-2번지","indutype":"자동차정비 유지 - 자동차부품","category":"car"}]},{"lat":"37.586581789","long":"126.87648444","imageIndex":0,"items":[{"name":"덕은점 현대자동차","tel":"02-353-8290","addr":"경기도 고양시 덕양구 덕은동 201-7번지","indutype":"자동차정비 유지 - 자동차정비","category":"car"}]},{"lat":"37.586221361","long":"126.87645108","imageIndex":0,"items":[{"name":"덕은점기아오토큐","tel":"02-3159-7300","addr":"경기도 고양시 덕양구 덕은동 201-8번지","indutype":"자동차정비 유지 - 자동차정비","category":"car"}]},{"lat":"37.579138216","long":"126.85942533","imageIndex":0,"items":[{"name":"상암C.W","tel":"02-3158-0066","addr":"경기도 고양시 덕양구 덕은동","indutype":"자동차정비 유지 - 세차장","category":"car"}]},{"lat":"37.585914616","long":"126.87606666","imageIndex":0,"items":[{"name":"상암OMC24H셀프세차타운","tel":"02-3158-4302","addr":"경기도 고양시 덕양구 덕은동 190-4번지","indutype":"자동차정비 유지 - 세차장","category":"car"}]},{"lat":"37.589748667","long":"126.88070232","imageIndex":0,"items":[{"name":"수색주차장","tel":"031-973-6812","addr":"경기도 고양시 덕양구 덕은동","indutype":"자동차정비 유지 - 주차장","category":"car"}]},{"lat":"37.589528674","long":"126.87712483","imageIndex":0,"items":[{"name":"제일카","tel":"02-3158-5525","addr":"경기도 고양시 덕양구 덕은동 120-4번지","indutype":"자동차정비 유지 - 자동차정비","category":"car"}]},{"lat":"37.587806706","long":"126.87609742","imageIndex":0,"items":[{"name":"카메오랩 주식회사","tel":"031-000-0000","addr":"경기도 고양시 덕양구 덕은동 209-5번지","indutype":"자동차정비 유지 - 자동차정비","category":"car"}]},{"lat":"37.589275566","long":"126.87634402","imageIndex":0,"items":[{"name":"합정자동차공업사","tel":"02-337-2260","addr":"경기도 고양시 덕양구 덕은동 131번지","indutype":"자동차정비 유지 - 자동차정비","category":"car"}]},{"lat":"37.586554371","long":"126.87612218","imageIndex":0,"items":[{"name":"현대자동차공업사","tel":"02-3159-2050","addr":"경기도 고양시 덕양구 덕은동 201-2번지","indutype":"자동차정비 유지 - 자동차정비","category":"car"}]},{"lat":"37.581833173","long":"126.87606226","imageIndex":0,"items":[{"name":"현대토탈카쎈타","tel":"031-375-1560","addr":"경기도 고양시 덕양구 덕은동","indutype":"자동차정비 유지 - 자동차정비","category":"car"},{"name":"히아트앤워시박스(HE'ART&WASHBOX)","tel":"02-3158-2868","addr":"경기도 고양시 덕양구 덕은동 282-2번지","indutype":"자동차정비 유지 - 자동차정비","category":"car"}]}]