[{"lat":"37.62467096","long":"127.18717154","imageIndex":7,"items":[{"name":"(주)달인푸드","tel":"02-492-7537","addr":"경기도 남양주시 일패동 593번지","indutype":"음료식품 - 기타음료식품","category":"food"}]},{"lat":"37.616861291","long":"127.19175081","imageIndex":7,"items":[{"name":"(주)코리아케이푸드","tel":"031-511-7890","addr":"경기도 남양주시 일패동 300-1번지","indutype":"음료식품 - 농·축·수산품","category":"food"}]},{"lat":"37.615723939","long":"127.18739864","imageIndex":7,"items":[{"name":"개미슈퍼","tel":"031-595-1864","addr":"경기도 남양주시 일패동 465-2번지","indutype":"음료식품 - 기타음료식품","category":"food"}]},{"lat":"37.621944973","long":"127.17866939","imageIndex":7,"items":[{"name":"금강수산","tel":"031-567-0192","addr":"경기도 남양주시 일패동 671-4번지","indutype":"음료식품 - 농·축·수산품","category":"food"}]},{"lat":"37.622278332","long":"127.17867018","imageIndex":7,"items":[{"name":"김제유통","tel":"031-559-4902","addr":"경기도 남양주시 일패동 671-3번지","indutype":"음료식품 - 기타음료식품","category":"food"}]},{"lat":"37.621532135","long":"127.18936127","imageIndex":7,"items":[{"name":"다대수산","tel":"070-7166-7187","addr":"경기도 남양주시 일패동 173-1번지","indutype":"음료식품 - 농·축·수산품","category":"food"}]},{"lat":"37.625526691","long":"127.19297348","imageIndex":7,"items":[{"name":"동원양반김치","tel":"031-577-6618","addr":"경기도 남양주시 일패동 104-4번지","indutype":"음료식품 - 기타음료식품","category":"food"}]},{"lat":"37.625445579","long":"127.18145294","imageIndex":7,"items":[{"name":"미원상사(구리,남양주)","tel":"031-595-2445","addr":"경기도 남양주시 일패동 664번지","indutype":"음료식품 - 기타음료식품","category":"food"}]},{"lat":"37.623586917","long":"127.18900392","imageIndex":7,"items":[{"name":"뿌리농산","tel":"031-595-5721","addr":"경기도 남양주시 일패동 170-2번지","indutype":"음료식품 - 농·축·수산품","category":"food"}]},{"lat":"37.623893553","long":"127.1830011","imageIndex":7,"items":[{"name":"상록청과","tel":"031-595-5344","addr":"경기도 남양주시 일패동 554-8번지 1층","indutype":"음료식품 - 농·축·수산품","category":"food"}]},{"lat":"37.624527224","long":"127.18103162","imageIndex":7,"items":[{"name":"소백농장","tel":"031-557-8909","addr":"경기도 남양주시 일패동 667-1번지","indutype":"음료식품 - 농·축·수산품","category":"food"}]},{"lat":"37.622000334","long":"127.189555","imageIndex":7,"items":[{"name":"솔밭농원","tel":"031-595-4570","addr":"경기도 남양주시 일패동 174-1번지","indutype":"음료식품 - 농·축·수산품","category":"food"}]},{"lat":"37.630280668","long":"127.19492276","imageIndex":7,"items":[{"name":"용마정육점","tel":"031-592-3686","addr":"경기도 남양주시 일패동 13-20번지","indutype":"음료식품 - 정육점","category":"food"}]},{"lat":"37.616088127","long":"127.18495305","imageIndex":7,"items":[{"name":"우리한우","tel":"031-591-8537","addr":"경기도 남양주시 일패동 446-15번지 1층","indutype":"음료식품 - 정육점","category":"food"}]},{"lat":"37.620728427","long":"127.17267452","imageIndex":7,"items":[{"name":"정명 유통","tel":"070-4042-2966","addr":"경기도 남양주시 일패동 805-24번지 1층","indutype":"음료식품 - 농·축·수산품","category":"food"}]},{"lat":"37.622007152","long":"127.18519403","imageIndex":7,"items":[{"name":"주식회사 상록","tel":"031-792-6021","addr":"경기도 남양주시 일패동 534-5번지","indutype":"음료식품 - 기타음료식품","category":"food"}]},{"lat":"37.626865814","long":"127.19502725","imageIndex":7,"items":[{"name":"지나에코","tel":"031-557-5760","addr":"경기도 남양주시 일패동 138번지","indutype":"음료식품 - 기타음료식품","category":"food"}]},{"lat":"37.61575393","long":"127.191227","imageIndex":7,"items":[{"name":"청수식품","tel":"031-511-5304","addr":"경기도 남양주시 일패동 352번지","indutype":"음료식품 - 기타음료식품","category":"food"}]},{"lat":"37.619171934","long":"127.18334084","imageIndex":7,"items":[{"name":"태선농원","tel":"031-528-2305","addr":"경기도 남양주시 일패동 503번지","indutype":"음료식품 - 농·축·수산품","category":"food"}]},{"lat":"37.616253636","long":"127.18277879","imageIndex":7,"items":[{"name":"한톨","tel":"031-511-6540","addr":"경기도 남양주시 일패동 433-4번지","indutype":"음료식품 - 농·축·수산품","category":"food"}]}]