[{"lat":"37.51549205","long":"127.19717326","imageIndex":17,"items":[{"name":"(주)창동기업","tel":"031-792-1486","addr":"경기도 하남시 하사창동 292-2번지","indutype":"직물 - 카페트,커튼,천막,지물","category":"other"}]},{"lat":"37.519186146","long":"127.1971489","imageIndex":17,"items":[{"name":"GS25하남춘궁점","tel":"02-2006-2118","addr":"경기도 하남시 하사창동 259-2번지","indutype":"유통업 영리 - 편 의 점","category":"other"}]},{"lat":"37.510572624","long":"127.20258949","imageIndex":17,"items":[{"name":"GS25하남하사창동점","tel":"","addr":"경기도 하남시 하사창동 117-13번지 1층","indutype":"유통업 영리 - 편 의 점","category":"other"}]},{"lat":"37.516123898","long":"127.20189168","imageIndex":17,"items":[{"name":"J&J Communications(제이엔제이커뮤니케이","tel":"031-796-1942","addr":"경기도 하남시 하사창동 316-4번지","indutype":"의류 - 아동의류","category":"other"}]},{"lat":"37.519014922","long":"127.19717108","imageIndex":17,"items":[{"name":"고골종합철물","tel":"031-796-6770","addr":"경기도 하남시 하사창동 260-1번지","indutype":"건축자재 - 목재·석재·철물","category":"other"}]},{"lat":"37.511242247","long":"127.20087208","imageIndex":17,"items":[{"name":"그린아트상사","tel":"031-793-1351","addr":"경기도 하남시 하사창동 347-1번지 외1필지","indutype":"문화.취미 - 화방·표구점","category":"other"}]},{"lat":"37.509517378","long":"127.20323136","imageIndex":17,"items":[{"name":"늘푸른(주)","tel":"02-573-8521","addr":"경기도 하남시 하사창동 117-3번지","indutype":"의류 - 정장","category":"other"}]},{"lat":"37.511159163","long":"127.19664175","imageIndex":17,"items":[{"name":"대길유통","tel":"031-794-7793","addr":"경기도 하남시 하사창동 402-2번지 101-4호","indutype":"건축자재 - 목재·석재·철물","category":"other"}]},{"lat":"37.513047936","long":"127.20400993","imageIndex":17,"items":[{"name":"더 트리 인 갓 (THE TREE IN GOD)","tel":"031-795-0671","addr":"경기도 하남시 하사창동 172-2번지 101호","indutype":"서적문구 - 문구용품","category":"other"}]},{"lat":"37.513461936","long":"127.19892117","imageIndex":17,"items":[{"name":"동광상사","tel":"031-793-7018","addr":"경기도 하남시 하사창동 371번지","indutype":"건축자재 - 기타건축자재","category":"other"}]},{"lat":"37.51040433","long":"127.20086987","imageIndex":17,"items":[{"name":"동부상사","tel":"","addr":"경기도 하남시 하사창동 65-5번지","indutype":"유통업 영리 - 기타유통업","category":"other"}]},{"lat":"37.50884886","long":"127.20428142","imageIndex":17,"items":[{"name":"두산렌탈","tel":"02-430-2424","addr":"경기도 하남시 하사창동 131번지","indutype":"신변잡화 - 기타잡화","category":"other"}]},{"lat":"37.515097099","long":"127.20169666","imageIndex":17,"items":[{"name":"로쉬 (RoShe)","tel":"031-793-4886","addr":"경기도 하남시 하사창동 325","indutype":"의류 - 정장","category":"other"},{"name":"천북","tel":"031-792-0580","addr":"경기도 하남시 하사창동 325번지","indutype":"의류 - 정장","category":"other"}]},{"lat":"37.51507043","long":"127.20148168","imageIndex":17,"items":[{"name":"마이본점","tel":"","addr":"경기도 하남시 하사창동 325-3번지","indutype":"유통업 영리 - 편 의 점","category":"other"}]},{"lat":"37.513124663","long":"127.20126162","imageIndex":17,"items":[{"name":"미래합판","tel":"02-445-3349","addr":"경기도 하남시 하사창동 337번지","indutype":"건축자재 - 목재·석재·철물","category":"other"}]},{"lat":"37.510769192","long":"127.20356271","imageIndex":17,"items":[{"name":"믿음유통","tel":"02-1234-1234","addr":"경기도 하남시 하사창동 152번지","indutype":"의류 - 정장","category":"other"},{"name":"호연지기유통","tel":"031-794-9035","addr":"경기도 하남시 하사창동 152번지","indutype":"의류 - 정장","category":"other"}]},{"lat":"37.512905335","long":"127.20309338","imageIndex":17,"items":[{"name":"사운드케어","tel":"031-792-8644","addr":"경기도 하남시 하사창동 168번지 402호","indutype":"건축자재 - 인테리어전문","category":"other"}]},{"lat":"37.516789972","long":"127.19687122","imageIndex":17,"items":[{"name":"삼영냉동산업","tel":"031-795-3377","addr":"경기도 하남시 하사창동 283-5번지","indutype":"용역 서비스 - 기타용역서비스","category":"other"}]},{"lat":"37.514046844","long":"127.19936383","imageIndex":17,"items":[{"name":"삼우종합공사","tel":"","addr":"경기도 하남시 하사창동 372번지","indutype":"건축자재 - 인테리어전문","category":"other"}]},{"lat":"37.511323942","long":"127.20051036","imageIndex":17,"items":[{"name":"수기일렉트릭 주식회사","tel":"070-7783-9117","addr":"경기도 하남시 하사창동 352번지","indutype":"사무통신 - 통신기기","category":"other"}]},{"lat":"37.515042338","long":"127.19669703","imageIndex":17,"items":[{"name":"아름창호","tel":"02-6083-6001","addr":"경기도 하남시 하사창동 294-3번지","indutype":"건축자재 - 보일러·펌프·샷시","category":"other"}]},{"lat":"37.508818954","long":"127.20065079","imageIndex":17,"items":[{"name":"아이넷","tel":"031-794-2271","addr":"경기도 하남시 하사창동 82-1번지","indutype":"서적문구 - 완구점","category":"other"}]},{"lat":"37.513825527","long":"127.20239456","imageIndex":17,"items":[{"name":"아프로뮤직(AFRO MUSIC)","tel":"","addr":"경기도 하남시 하사창동 189-14번지","indutype":"레져용품 - 악기점","category":"other"}]},{"lat":"37.515684277","long":"127.20078202","imageIndex":17,"items":[{"name":"에스앤디","tel":"031-791-9550","addr":"경기도 하남시 하사창동 324번지","indutype":"의류 - 정장","category":"other"},{"name":"창조","tel":"02-406-9799","addr":"경기도 하남시 하사창동 324번지","indutype":"의류 - 정장","category":"other"}]},{"lat":"37.513790841","long":"127.2015914","imageIndex":17,"items":[{"name":"에이스캐노피","tel":"031-795-8455","addr":"경기도 하남시 하사창동 332번지","indutype":"직물 - 카페트,커튼,천막,지물","category":"other"}]},{"lat":"37.512826302","long":"127.19645378","imageIndex":17,"items":[{"name":"엔케이 통상","tel":"031-793-3220","addr":"경기도 하남시 하사창동 406-19번지","indutype":"건축자재 - 기타건축자재","category":"other"}]},{"lat":"37.507935438","long":"127.20097645","imageIndex":17,"items":[{"name":"엔피씨월드","tel":"02-3401-8506","addr":"경기도 하남시 하사창동 82-2번지","indutype":"직물 - 기타직물","category":"other"}]},{"lat":"37.513768083","long":"127.19903508","imageIndex":17,"items":[{"name":"엘케이엠(L.K.M)","tel":"031-793-1922","addr":"경기도 하남시 하사창동 372-3번지","indutype":"건축자재 - 인테리어전문","category":"other"}]},{"lat":"37.512908995","long":"127.20092173","imageIndex":17,"items":[{"name":"영토산업","tel":"031-792-0933","addr":"경기도 하남시 하사창동 360번지","indutype":"건축자재 - 기타건축자재","category":"other"}]},{"lat":"37.510714287","long":"127.20406022","imageIndex":17,"items":[{"name":"오륜상사","tel":"02-408-8340","addr":"경기도 하남시 하사창동 145-3번지","indutype":"용역 서비스 - 종합용역","category":"other"}]},{"lat":"37.511070927","long":"127.2009508","imageIndex":17,"items":[{"name":"우림스텐","tel":"031-791-6388","addr":"경기도 하남시 하사창동 346번지","indutype":"건축자재 - 기타건축자재","category":"other"}]},{"lat":"37.512012841","long":"127.20339638","imageIndex":17,"items":[{"name":"원동컴퍼니","tel":"031-741-1347","addr":"경기도 하남시 하사창동 156-1번지","indutype":"건축자재 - 보일러·펌프·샷시","category":"other"}]},{"lat":"37.514241847","long":"127.2012872","imageIndex":17,"items":[{"name":"제페토나무숲","tel":"031-0000-0000","addr":"경기도 하남시 하사창동 329번지 102호","indutype":"가구 - 일반가구","category":"other"}]},{"lat":"37.506238352","long":"127.20814233","imageIndex":17,"items":[{"name":"조은A&C","tel":"031-796-2371","addr":"경기도 하남시 하사창동 101-26번지","indutype":"문화.취미 - 수족관","category":"other"}]},{"lat":"37.51382075","long":"127.19987223","imageIndex":17,"items":[{"name":"주식회사 대양에프앤오","tel":"031-000-0000","addr":"경기도 하남시 하사창동 366-2번지","indutype":"직물 - 카페트,커튼,천막,지물","category":"other"}]},{"lat":"37.515881602","long":"127.20131416","imageIndex":17,"items":[{"name":"주식회사 세경복층유리","tel":"031-793-5031","addr":"경기도 하남시 하사창동 320번지","indutype":"건축자재 - 유리","category":"other"}]},{"lat":"37.517130975","long":"127.20309335","imageIndex":17,"items":[{"name":"주식회사 엔터테인먼트그룹엠보트","tel":"070-7779-3389","addr":"경기도 하남시 하사창동 237-2번지","indutype":"용역 서비스 - 사무서비스","category":"other"}]},{"lat":"37.514627959","long":"127.19665071","imageIndex":17,"items":[{"name":"주식회사 한라볼트","tel":"031-794-2312","addr":"경기도 하남시 하사창동 295-2번지","indutype":"건축자재 - 기타건축자재","category":"other"}]},{"lat":"37.509047308","long":"127.20414623","imageIndex":17,"items":[{"name":"주식회사보성폴리텍","tel":"031-793-2644","addr":"경기도 하남시 하사창동 133번지","indutype":"기타 - 기타 전문점","category":"other"}]},{"lat":"37.511292394","long":"127.19780707","imageIndex":17,"items":[{"name":"지음","tel":"070-8804-9075","addr":"경기도 하남시 하사창동 400-2번지","indutype":"건축자재 - 인테리어전문","category":"other"}]},{"lat":"37.512992672","long":"127.19937238","imageIndex":17,"items":[{"name":"지컴퍼니(G.company)","tel":"031-795-4888","addr":"경기도 하남시 하사창동 387번지 2층","indutype":"레져용품 - 스포츠·레져용품","category":"other"}]},{"lat":"37.507402126","long":"127.20200424","imageIndex":17,"items":[{"name":"참한에프엔비 (F&B)","tel":"","addr":"경기도 하남시 하사창동 87번지","indutype":"신변잡화 - 기타잡화","category":"other"}]},{"lat":"37.513574084","long":"127.19647833","imageIndex":17,"items":[{"name":"천호벤딩산업","tel":"031-791-1601","addr":"경기도 하남시 하사창동 409-1","indutype":"기타 - 기계공구","category":"other"}]},{"lat":"37.51473526","long":"127.19714868","imageIndex":17,"items":[{"name":"태상유통","tel":"031-793-7710","addr":"경기도 하남시 하사창동 296-1번지","indutype":"신변잡화 - 신발","category":"other"}]},{"lat":"37.512735047","long":"127.20256132","imageIndex":17,"items":[{"name":"하남산업","tel":"031-792-1044","addr":"경기도 하남시 하사창동 165-4번지","indutype":"건축자재 - 기타건축자재","category":"other"}]},{"lat":"37.508847438","long":"127.19977999","imageIndex":17,"items":[{"name":"한국중앙렌탈","tel":"031-1566-2938","addr":"경기도 하남시 하사창동 54-1번지","indutype":"회원제형태 - 기타4","category":"other"}]},{"lat":"37.507876584","long":"127.2038151","imageIndex":17,"items":[{"name":"힐링독 아카데미","tel":"031-521-3315","addr":"경기도 하남시 하사창동 121-2번지","indutype":"문화.취미 - 애완동물","category":"other"}]}]