[{"lat":"37.897279252","long":"127.48855445","imageIndex":5,"items":[{"name":"OK PENSION","tel":"031-581-4209","addr":"경기도 가평군 북면 백둔리 92-4번지","indutype":"숙박업 - 여관/기타숙박업","category":"hotel"}]},{"lat":"37.904697895","long":"127.44882971","imageIndex":5,"items":[{"name":"가르텐하임","tel":"031-581-1530","addr":"경기도 가평군 북면 백둔리 579-9번지","indutype":"숙박업 - 여관/기타숙박업","category":"hotel"}]},{"lat":"37.901916662","long":"127.46680016","imageIndex":5,"items":[{"name":"가평백둔리관광펜션","tel":"031-581-1212","addr":"경기도 가평군 북면 백둔리 342-2","indutype":"숙박업 - 여관/기타숙박업","category":"hotel"}]},{"lat":"37.902891079","long":"127.45485632","imageIndex":5,"items":[{"name":"가평별장펜션","tel":"031-582-9649","addr":"경기도 가평군 북면 백둔리 481번지","indutype":"숙박업 - 여관/기타숙박업","category":"hotel"}]},{"lat":"37.915356823","long":"127.43894354","imageIndex":5,"items":[{"name":"가평전원별장펜션","tel":"","addr":"경기도 가평군 북면 백둔리 709-5번지","indutype":"숙박업 - 여관/기타숙박업","category":"hotel"}]},{"lat":"37.896583433","long":"127.48687863","imageIndex":5,"items":[{"name":"곰사냥을떠나자","tel":"031-582-4904","addr":"경기도 가평군 북면 백둔리 88-3","indutype":"숙박업 - 여관/기타숙박업","category":"hotel"}]},{"lat":"37.906833865","long":"127.45335676","imageIndex":5,"items":[{"name":"깊은사나래","tel":"031-581-3553","addr":"경기도 가평군 북면 백둔리 443-4번지","indutype":"숙박업 - 여관/기타숙박업","category":"hotel"}]},{"lat":"37.905501356","long":"127.4531326","imageIndex":5,"items":[{"name":"꿈과사랑","tel":"031-581-8634","addr":"경기도 가평군 북면 백둔리 443-12번지","indutype":"숙박업 - 여관/기타숙박업","category":"hotel"}]},{"lat":"37.904859974","long":"127.45358351","imageIndex":5,"items":[{"name":"끌레르키즈펜션","tel":"031-581-9177","addr":"경기도 가평군 북면 백둔리 455-15번지 2,3,4층","indutype":"숙박업 - 여관/기타숙박업","category":"hotel"},{"name":"끌레르펜션","tel":"031-581-9177","addr":"경기도 가평군 북면 백둔리 455-15번지","indutype":"숙박업 - 여관/기타숙박업","category":"hotel"}]},{"lat":"37.90178184","long":"127.46671972","imageIndex":5,"items":[{"name":"노팅힐펜션","tel":"031-581-1212","addr":"경기도 가평군 북면 백둔리 342-3","indutype":"숙박업 - 여관/기타숙박업","category":"hotel"}]},{"lat":"37.897502224","long":"127.48910164","imageIndex":5,"items":[{"name":"달빛풍경","tel":"031-582-3977","addr":"경기도 가평군 북면 백둔리 92-3번지","indutype":"숙박업 - 여관/기타숙박업","category":"hotel"}]},{"lat":"37.897754805","long":"127.48902372","imageIndex":5,"items":[{"name":"드림펜션","tel":"031-581-2077","addr":"경기도 가평군 북면 백둔리 92-1번지","indutype":"숙박업 - 여관/기타숙박업","category":"hotel"}]},{"lat":"37.899140369","long":"127.45325302","imageIndex":5,"items":[{"name":"로렌시아펜션","tel":"031-582-2356","addr":"경기도 가평군 북면 백둔리 495-6번지","indutype":"숙박업 - 여관/기타숙박업","category":"hotel"}]},{"lat":"37.902642026","long":"127.45869787","imageIndex":5,"items":[{"name":"로망스펜션","tel":"070-4686-9412","addr":"경기도 가평군 북면 백둔리 362-2번지","indutype":"숙박업 - 여관/기타숙박업","category":"hotel"}]},{"lat":"37.895840541","long":"127.48569139","imageIndex":5,"items":[{"name":"루안펜션","tel":"031-581-8529","addr":"경기도 가평군 북면 백둔리 88-10번지","indutype":"숙박업 - 여관/기타숙박업","category":"hotel"}]},{"lat":"37.901006425","long":"127.48260981","imageIndex":5,"items":[{"name":"미뇽의숲","tel":"031-582-8589","addr":"경기도 가평군 북면 백둔리 97-2번지","indutype":"숙박업 - 여관/기타숙박업","category":"hotel"}]},{"lat":"37.896864811","long":"127.49290611","imageIndex":5,"items":[{"name":"백낙제","tel":"031-581-0784","addr":"경기도 가평군 북면 백둔리 47-3번지","indutype":"숙박업 - 여관/기타숙박업","category":"hotel"}]},{"lat":"37.902055333","long":"127.45430545","imageIndex":5,"items":[{"name":"별을헤는마을","tel":"031-581-3801","addr":"경기도 가평군 북면 백둔리 482-11번지","indutype":"숙박업 - 여관/기타숙박업","category":"hotel"}]},{"lat":"37.904530892","long":"127.47546939","imageIndex":5,"items":[{"name":"산골이야기","tel":"031-000-0000","addr":"경기도 가평군 북면 백둔리 163번지","indutype":"숙박업 - 여관/기타숙박업","category":"hotel"},{"name":"산골이야기2","tel":"","addr":"경기도 가평군 북면 백둔리 163번지","indutype":"숙박업 - 여관/기타숙박업","category":"hotel"}]},{"lat":"37.897639677","long":"127.49504867","imageIndex":5,"items":[{"name":"세라프펜션","tel":"033-581-8177","addr":"경기도 가평군 북면 백둔리 15-1번지","indutype":"숙박업 - 여관/기타숙박업","category":"hotel"}]},{"lat":"37.907641909","long":"127.44935916","imageIndex":5,"items":[{"name":"솔랑구","tel":"031-581-3369","addr":"경기도 가평군 북면 백둔리 595번지","indutype":"숙박업 - 여관/기타숙박업","category":"hotel"}]},{"lat":"37.904084307","long":"127.47224875","imageIndex":5,"items":[{"name":"스토리벨리","tel":"031-582-0659","addr":"경기도 가평군 북면 백둔리 196-2","indutype":"숙박업 - 여관/기타숙박업","category":"hotel"}]},{"lat":"37.897165369","long":"127.48776923","imageIndex":5,"items":[{"name":"아이엠펜션","tel":"031-582-3900","addr":"경기도 가평군 북면 백둔리 89번지","indutype":"숙박업 - 여관/기타숙박업","category":"hotel"}]},{"lat":"37.90480348","long":"127.45421991","imageIndex":5,"items":[{"name":"아쿠아마린 온수수영장 펜션","tel":"031-582-7861","addr":"경기도 가평군 북면 백둔리 456-7번지","indutype":"숙박업 - 여관/기타숙박업","category":"hotel"}]},{"lat":"37.902032447","long":"127.45790959","imageIndex":5,"items":[{"name":"연인밸리","tel":"031-582-6568","addr":"경기도 가평군 북면 백둔리 364-8번지","indutype":"숙박업 - 여관/기타숙박업","category":"hotel"}]},{"lat":"37.896891218","long":"127.49521422","imageIndex":5,"items":[{"name":"연인산밸리(하늘소)","tel":"031-582-8122","addr":"경기도 가평군 북면 백둔리 45-5번지","indutype":"숙박업 - 여관/기타숙박업","category":"hotel"},{"name":"연인산밸리(하늘소)","tel":"031-582-8122","addr":"경기도 가평군 북면 백둔리 45-5번지 연인산벨리","indutype":"숙박업 - 여관/기타숙박업","category":"hotel"}]},{"lat":"37.89636363","long":"127.49426708","imageIndex":5,"items":[{"name":"오밸리펜션","tel":"031-582-8122","addr":"경기도 가평군 북면 백둔리 45-1번지 1,2층","indutype":"숙박업 - 여관/기타숙박업","category":"hotel"}]},{"lat":"37.903894325","long":"127.45869423","imageIndex":5,"items":[{"name":"오세르","tel":"031-581-6009","addr":"경기도 가평군 북면 백둔리 393-1","indutype":"숙박업 - 여관/기타숙박업","category":"hotel"}]},{"lat":"37.902891201","long":"127.47993871","imageIndex":5,"items":[{"name":"유스토리청소년수련원","tel":"031-582-9788","addr":"경기도 가평군 북면 백둔리 110-2번지","indutype":"숙박업 - 여관/기타숙박업","category":"hotel"}]},{"lat":"37.898834497","long":"127.45313747","imageIndex":5,"items":[{"name":"유앤아이펜션","tel":"031-581-7414","addr":"경기도 가평군 북면 백둔리 494","indutype":"숙박업 - 여관/기타숙박업","category":"hotel"}]},{"lat":"37.902060114","long":"127.48049047","imageIndex":5,"items":[{"name":"인 펜션","tel":"031-581-7011","addr":"경기도 가평군 북면 백둔리 106-7번지","indutype":"숙박업 - 여관/기타숙박업","category":"hotel"}]},{"lat":"37.901615928","long":"127.4789413","imageIndex":5,"items":[{"name":"조은별 계곡쉼터","tel":"031-582-2289","addr":"경기도 가평군 북면 백둔리 산200번지 조은별계곡쉼터","indutype":"숙박업 - 여관/기타숙박업","category":"hotel"}]},{"lat":"37.902250871","long":"127.48010513","imageIndex":5,"items":[{"name":"첫눈애","tel":"031-581-7474","addr":"경기도 가평군 북면 백둔리 107-6번지","indutype":"숙박업 - 여관/기타숙박업","category":"hotel"}]},{"lat":"37.906860333","long":"127.44638669","imageIndex":5,"items":[{"name":"코지테마펜션","tel":"031-582-8372","addr":"경기도 가평군 북면 백둔리 604","indutype":"숙박업 - 여관/기타숙박업","category":"hotel"}]},{"lat":"37.904552796","long":"127.45380904","imageIndex":5,"items":[{"name":"콩깍지","tel":"031-581-2515","addr":"경기도 가평군 북면 백둔리 455-16번지","indutype":"숙박업 - 여관/기타숙박업","category":"hotel"}]},{"lat":"37.908143647","long":"127.45480885","imageIndex":5,"items":[{"name":"탑클라우드펜션","tel":"","addr":"경기도 가평군 북면 백둔리 450-17번지","indutype":"숙박업 - 여관/기타숙박업","category":"hotel"}]},{"lat":"37.896726408","long":"127.48716379","imageIndex":5,"items":[{"name":"펜션곰","tel":"031-582-4904","addr":"경기도 가평군 북면 백둔리 88-4번지","indutype":"숙박업 - 여관/기타숙박업","category":"hotel"}]},{"lat":"37.901506499","long":"127.46571744","imageIndex":5,"items":[{"name":"포시즌밸리","tel":"031-582-0508","addr":"경기도 가평군 북면 백둔리 344-1","indutype":"숙박업 - 여관/기타숙박업","category":"hotel"}]},{"lat":"37.897588177","long":"127.4901027","imageIndex":5,"items":[{"name":"폴라리스","tel":"031-000-0000","addr":"경기도 가평군 북면 백둔리 30-1번지","indutype":"숙박업 - 여관/기타숙박업","category":"hotel"}]},{"lat":"37.904975306","long":"127.47697312","imageIndex":5,"items":[{"name":"푸른계곡","tel":"031-582-2133","addr":"경기도 가평군 북면 백둔리 165-1","indutype":"숙박업 - 여관/기타숙박업","category":"hotel"}]},{"lat":"37.900006106","long":"127.45303091","imageIndex":5,"items":[{"name":"피치코코펜션","tel":"031-582-1170","addr":"경기도 가평군 북면 백둔리 487번지 외 2필지","indutype":"숙박업 - 여관/기타숙박업","category":"hotel"}]},{"lat":"37.896393305","long":"127.48491053","imageIndex":5,"items":[{"name":"하늘과구름사이펜션","tel":"031-582-5553","addr":"경기도 가평군 북면 백둔리 63-10번지 ((백둔리63-10,63-19))","indutype":"숙박업 - 여관/기타숙박업","category":"hotel"}]},{"lat":"37.903061848","long":"127.45730194","imageIndex":5,"items":[{"name":"하늘다리","tel":"031-581-1088","addr":"경기도 가평군 북면 백둔리 384-4 10/4","indutype":"숙박업 - 여관/기타숙박업","category":"hotel"}]},{"lat":"37.89625723","long":"127.49385708","imageIndex":5,"items":[{"name":"하릅펜션","tel":"031-581-1821","addr":"경기도 가평군 북면 백둔리 45-11번지","indutype":"숙박업 - 여관/기타숙박업","category":"hotel"}]},{"lat":"37.904533514","long":"127.45413866","imageIndex":5,"items":[{"name":"핫도그펜션","tel":"","addr":"경기도 가평군 북면 백둔리 456-5번지 가,나,다,라동 1,2층","indutype":"숙박업 - 여관/기타숙박업","category":"hotel"}]},{"lat":"37.904058534","long":"127.46966754","imageIndex":5,"items":[{"name":"허수아비마을연수원","tel":"031-581-4477","addr":"경기도 가평군 북면 백둔리 194-1번지","indutype":"숙박업 - 여관/기타숙박업","category":"hotel"}]},{"lat":"37.904663777","long":"127.45305928","imageIndex":5,"items":[{"name":"휴블레스","tel":"031-581-4998","addr":"경기도 가평군 북면 백둔리 434번지","indutype":"숙박업 - 여관/기타숙박업","category":"hotel"}]},{"lat":"37.90466868","long":"127.47705075","imageIndex":13,"items":[{"name":"가원스포랜","tel":"031-582-2133","addr":"경기도 가평군 북면 백둔리 165-2번지","indutype":"레저업소 - 기타레져업소","category":"leisure"}]},{"lat":"37.90781011","long":"127.46872471","imageIndex":7,"items":[{"name":"가평우리농원","tel":"","addr":"경기도 가평군 북면 백둔리 208-1번지","indutype":"음료식품 - 농·축·수산품","category":"food"}]},{"lat":"37.896726408","long":"127.48716379","imageIndex":7,"items":[{"name":"마주본농장","tel":"","addr":"경기도 가평군 북면 백둔리 88-4번지","indutype":"음료식품 - 농·축·수산품","category":"food"}]},{"lat":"37.901169568","long":"127.45505045","imageIndex":7,"items":[{"name":"연인산촌농원","tel":"031-582-8272","addr":"경기도 가평군 북면 백둔리 486-4번지","indutype":"음료식품 - 농·축·수산품","category":"food"}]},{"lat":"37.902891201","long":"127.47993871","imageIndex":7,"items":[{"name":"유스토리 소매점","tel":"","addr":"경기도 가평군 북면 백둔리 110-2번지","indutype":"음료식품 - 기타음료식품","category":"food"}]},{"lat":"37.898478338","long":"127.44966763","imageIndex":7,"items":[{"name":"초우","tel":"031-582-0653","addr":"경기도 가평군 북면 백둔리 551","indutype":"음료식품 - 기타음료식품","category":"food"}]},{"lat":"37.902278774","long":"127.47988928","imageIndex":7,"items":[{"name":"초원민박","tel":"031-582-7747","addr":"경기도 가평군 북면 백둔리 106번지","indutype":"음료식품 - 기타음료식품","category":"food"}]},{"lat":"37.904445574","long":"127.47202364","imageIndex":17,"items":[{"name":"남송미술관","tel":"031-758-5577","addr":"경기도 가평군 북면 백둔리 198-9번지","indutype":"문화.취미 - 티켓","category":"other"}]},{"lat":"37.896223527","long":"127.44794864","imageIndex":17,"items":[{"name":"대원상사","tel":"031-581-8240","addr":"경기도 가평군 북면 백둔리 525번지","indutype":"회원제형태 - 기타4","category":"other"}]},{"lat":"37.906779326","long":"127.4487513","imageIndex":17,"items":[{"name":"명지사","tel":"02-2252-9191","addr":"경기도 가평군 북면 백둔리 593-2","indutype":"레져용품 - 스포츠·레져용품","category":"other"}]},{"lat":"37.903862788","long":"127.455192","imageIndex":17,"items":[{"name":"명지산장","tel":"031-582-0719","addr":"경기도 가평군 북면 백둔리 460번지 외1필지","indutype":"신변잡화 - 기타잡화","category":"other"}]},{"lat":"37.885863919","long":"127.55029559","imageIndex":17,"items":[{"name":"백둔리상신노인전문요양원","tel":"031-582-9080","addr":"경기도 가평군 북면 백둔리 340-1번지","indutype":"기타의료기관 - 기타의료기관 및 기타","category":"other"}]},{"lat":"37.904533514","long":"127.45413866","imageIndex":17,"items":[{"name":"엑티브코리아","tel":"033-263-4767","addr":"경기도 가평군 북면 백둔리 456-5번지","indutype":"용역 서비스 - 사무서비스","category":"other"}]},{"lat":"37.904142374","long":"127.45511412","imageIndex":7,"items":[{"name":"연인산마트","tel":"031-582-8767","addr":"경기도 가평군 북면 백둔리 458-4","indutype":"유통업 영리 - 슈퍼마켓","category":"mart"}]},{"lat":"37.901336087","long":"127.46552309","imageIndex":7,"items":[{"name":"파랑새","tel":"031-582-9800","addr":"경기도 가평군 북면 백둔리 344-9","indutype":"유통업 영리 - 슈퍼마켓","category":"mart"}]},{"lat":"37.904002996","long":"127.45621618","imageIndex":4,"items":[{"name":"정읍식당","tel":"031-582-0719","addr":"경기도 가평군 북면 백둔리 377-4","indutype":"일반휴게음식 - 일반한식","category":"restaurant"}]},{"lat":"37.906362607","long":"127.44697497","imageIndex":4,"items":[{"name":"초원의집","tel":"031-581-0753","addr":"경기도 가평군 북면 백둔리 603","indutype":"일반휴게음식 - 일반한식","category":"restaurant"}]},{"lat":"37.896223527","long":"127.44794864","imageIndex":4,"items":[{"name":"팝펜션식당","tel":"031-582-8240","addr":"경기도 가평군 북면 백둔리 525번지","indutype":"일반휴게음식 - 일반한식","category":"restaurant"},{"name":"팝펜션식당","tel":"070-4821-5146","addr":"경기도 가평군 북면 백둔리 525번지","indutype":"일반휴게음식 - 일반한식","category":"restaurant"}]},{"lat":"37.90155634","long":"127.4621931","imageIndex":4,"items":[{"name":"푸드원코리아","tel":"031-581-7740","addr":"경기도 가평군 북면 백둔리 349-5번지","indutype":"일반휴게음식 - 위탁급식업","category":"restaurant"}]}]