[{"lat":"37.43352318","long":"127.21087","imageIndex":7,"items":[{"name":"(주)트리플트리","tel":"031-768-7766","addr":"경기도 광주시 목현동 419-1번지 1층","indutype":"건강식품 - 기타건강식품","category":"food"},{"name":"장수 유통","tel":"031-798-5490","addr":"경기도 광주시 목현동 419-1번지","indutype":"음료식품 - 농·축·수산품","category":"food"}]},{"lat":"37.43208513","long":"127.2088436","imageIndex":7,"items":[{"name":"강한수산","tel":"","addr":"경기도 광주시 목현동 393-6번지","indutype":"음료식품 - 농·축·수산품","category":"food"},{"name":"대성수산","tel":"031-761-6435","addr":"경기도 광주시 목현동 393-6번지 1층","indutype":"음료식품 - 농·축·수산품","category":"food"},{"name":"대성할인마트정육","tel":"031-765-2465","addr":"경기도 광주시 목현동 393-6번지","indutype":"음료식품 - 정육점","category":"food"}]},{"lat":"37.43328092","long":"127.2050957","imageIndex":7,"items":[{"name":"광천어머니김","tel":"031-764-1544","addr":"경기도 광주시 목현동 679-13번지 3층","indutype":"음료식품 - 기타음료식품","category":"food"}]},{"lat":"37.42972637","long":"127.2368905","imageIndex":7,"items":[{"name":"꼬리치는장어","tel":"031-762-1192","addr":"경기도 광주시 목현동 7번지","indutype":"음료식품 - 농·축·수산품","category":"food"}]},{"lat":"37.42877712","long":"127.2385032","imageIndex":7,"items":[{"name":"대한미트정육점","tel":"031-761-2150","addr":"경기도 광주시 목현동 11-2번지 1층","indutype":"음료식품 - 정육점","category":"food"}]},{"lat":"37.42874754","long":"127.2397798","imageIndex":7,"items":[{"name":"도깨비","tel":"031-635-2900","addr":"경기도 광주시 목현동 1-4번지 1층","indutype":"음료식품 - 기타음료식품","category":"food"},{"name":"주원정육점","tel":"031-766-1570","addr":"경기도 광주시 목현동 1-4번지 1층","indutype":"음료식품 - 정육점","category":"food"}]},{"lat":"37.43561367","long":"127.2207851","imageIndex":7,"items":[{"name":"마이펫(삼익음료)","tel":"031-797-1243","addr":"경기도 광주시 목현동 249-15번지 1층","indutype":"음료식품 - 기타음료식품","category":"food"}]},{"lat":"37.42971951","long":"127.2311849","imageIndex":7,"items":[{"name":"모아식품","tel":"","addr":"경기도 광주시 목현동 169-18번지 한성그린힐스A 1동 B01호","indutype":"음료식품 - 농·축·수산품","category":"food"}]},{"lat":"37.43258473","long":"127.2116696","imageIndex":7,"items":[{"name":"무무빵집","tel":"","addr":"경기도 광주시 목현동 382-1번지","indutype":"음료식품 - 제과점","category":"food"}]},{"lat":"37.43265521","long":"127.2074328","imageIndex":7,"items":[{"name":"민수상회","tel":"02-401-2969","addr":"경기도 광주시 목현동 702번지 모개미마을빌라","indutype":"음료식품 - 농·축·수산품","category":"food"}]},{"lat":"37.43480358","long":"127.2203421","imageIndex":7,"items":[{"name":"버지니아담뱃잎공방","tel":"","addr":"경기도 광주시 목현동 271-68번지 러브하우스 102동 B01호","indutype":"음료식품 - 기타음료식품","category":"food"},{"name":"보니따","tel":"031-797-8886","addr":"경기도 광주시 목현동 271-68번지 레브하우스 102동 B01호","indutype":"음료식품 - 기타음료식품","category":"food"},{"name":"태림유통","tel":"031-798-0588","addr":"경기도 광주시 목현동 271-68번지 레브하우스 102동 B01호","indutype":"음료식품 - 기타음료식품","category":"food"}]},{"lat":"37.43461225","long":"127.2310303","imageIndex":7,"items":[{"name":"삼촌네과일","tel":"070-7604-9954","addr":"경기도 광주시 목현동 62-2","indutype":"음료식품 - 농·축·수산품","category":"food"}]},{"lat":"37.43047132","long":"127.2094267","imageIndex":7,"items":[{"name":"웃기는코끼리","tel":"","addr":"경기도 광주시 목현동 316-41번지 청운아름빌","indutype":"음료식품 - 기타음료식품","category":"food"}]},{"lat":"37.42839283","long":"127.2369203","imageIndex":7,"items":[{"name":"정관장홍삼음료성남(광주)대리점","tel":"031-746-2008","addr":"경기도 광주시 목현동 16-15번지","indutype":"건강식품 - 홍삼제품","category":"food"}]},{"lat":"37.43174664","long":"127.2358687","imageIndex":7,"items":[{"name":"조은청과","tel":"","addr":"경기도 광주시 목현동 39-1번지","indutype":"음료식품 - 농·축·수산품","category":"food"}]},{"lat":"37.4354681","long":"127.2263664","imageIndex":7,"items":[{"name":"주식회사 라원","tel":"","addr":"경기도 광주시 목현동 133-5번지 로얄팰리스 102동 101호","indutype":"음료식품 - 기타음료식품","category":"food"}]},{"lat":"37.43474702","long":"127.2216978","imageIndex":7,"items":[{"name":"주식회사 우리팜미트","tel":"031-634-9332","addr":"경기도 광주시 목현동 239-35번지 201호","indutype":"음료식품 - 정육점","category":"food"}]},{"lat":"37.42982194","long":"127.2341115","imageIndex":7,"items":[{"name":"파인커피","tel":"","addr":"경기도 광주시 목현동 25-68번지 소망그린빌","indutype":"음료식품 - 기타음료식품","category":"food"}]},{"lat":"37.43530702","long":"127.2209537","imageIndex":7,"items":[{"name":"한빛푸드","tel":"031-768-4790","addr":"경기도 광주시 목현동 247-6번지","indutype":"음료식품 - 정육점","category":"food"},{"name":"휘영청","tel":"031-762-0705","addr":"경기도 광주시 목현동 247-6번지","indutype":"음료식품 - 농·축·수산품","category":"food"}]},{"lat":"37.43149952","long":"127.2088194","imageIndex":7,"items":[{"name":"해바라기정육점","tel":"031-769-4466","addr":"경기도 광주시 목현동 362-4번지","indutype":"음료식품 - 정육점","category":"food"}]}]