[{"lat":"37.105062306","long":"126.86974038","imageIndex":17,"items":[{"name":"(주)알텍스코리아","tel":"031-611-0604","addr":"경기도 화성시 팔탄면 해창리 201-5번지","indutype":"건축자재 - 기타건축자재","category":"other"}]},{"lat":"37.108199623","long":"126.87121993","imageIndex":17,"items":[{"name":"GS25팔탄해창리점","tel":"","addr":"경기도 화성시 팔탄면 해창리 164-1번지 1층","indutype":"유통업 영리 - 편 의 점","category":"other"}]},{"lat":"37.108562704","long":"126.87363812","imageIndex":17,"items":[{"name":"대덕기획","tel":"031-354-5794","addr":"경기도 화성시 팔탄면 해창리 152-2, 152-15","indutype":"건축자재 - 인테리어전문","category":"other"}]},{"lat":"37.104671353","long":"126.86665863","imageIndex":17,"items":[{"name":"동진상공","tel":"031-355-4333","addr":"경기도 화성시 팔탄면 해창리 238-9번지","indutype":"기타 - 기계공구","category":"other"}]},{"lat":"37.107812233","long":"126.87127685","imageIndex":17,"items":[{"name":"미니스톱 화성장안대로점","tel":"031-1577-9621","addr":"경기도 화성시 팔탄면 해창리 166-6번지","indutype":"유통업 영리 - 편 의 점","category":"other"},{"name":"이쁜골프shop","tel":"031-354-5571","addr":"경기도 화성시 팔탄면 해창리 166-6번지","indutype":"레져용품 - 골프용품 전문점","category":"other"}]},{"lat":"37.112089515","long":"126.87707489","imageIndex":17,"items":[{"name":"선진종합상사","tel":"031-237-1923","addr":"경기도 화성시 팔탄면 해창리 10-4번지 8동 102호","indutype":"의류 - 기타의류","category":"other"}]},{"lat":"37.111585724","long":"126.87782952","imageIndex":17,"items":[{"name":"성현프라스틱몰","tel":"031-354-3002","addr":"경기도 화성시 팔탄면 해창리 13번지 101호 해천오일뱅크","indutype":"건축자재 - 기타건축자재","category":"other"}]},{"lat":"37.105781266","long":"126.86807413","imageIndex":17,"items":[{"name":"씨유화성퍼플점","tel":"031-8059-3369","addr":"경기도 화성시 팔탄면 해창리 244-3번지 1층","indutype":"유통업 영리 - 편 의 점","category":"other"}]},{"lat":"37.107895226","long":"126.87299799","imageIndex":17,"items":[{"name":"에이씨에스코리아","tel":"031-359-9067","addr":"경기도 화성시 팔탄면 해창리 156-1번지","indutype":"기타 - 기계공구","category":"other"},{"name":"현대사무용가구","tel":"031-357-7218","addr":"경기도 화성시 팔탄면 해창리 156-1번지","indutype":"가구 - 기타가구","category":"other"}]},{"lat":"37.112839906","long":"126.8794701","imageIndex":17,"items":[{"name":"우리글로벌","tel":"031-8047-0125","addr":"경기도 화성시 팔탄면 해창리 19번지","indutype":"기타 - 기계공구","category":"other"},{"name":"주식회사 우리그로벌","tel":"031-8047-0125","addr":"경기도 화성시 팔탄면 해창리 19번지","indutype":"기타 - 기계공구","category":"other"}]},{"lat":"37.108173301","long":"126.87186124","imageIndex":17,"items":[{"name":"일등천막사","tel":"031-352-4100","addr":"경기도 화성시 팔탄면 해창리 165-4번지","indutype":"직물 - 카페트,커튼,천막,지물","category":"other"}]},{"lat":"37.10712023","long":"126.8814144","imageIndex":17,"items":[{"name":"종이나라","tel":"031-354-5920","addr":"경기도 화성시 팔탄면 해창리 53-2번지","indutype":"회원제형태 - 기타4","category":"other"}]},{"lat":"37.103918601","long":"126.87030486","imageIndex":17,"items":[{"name":"주식회사경원엠에스","tel":"031-831-5650","addr":"경기도 화성시 팔탄면 해창리 373번지","indutype":"유통업 영리 - 기타유통업","category":"other"}]},{"lat":"37.111558835","long":"126.87796458","imageIndex":17,"items":[{"name":"피닉스경기지사","tel":"070-8760-8980","addr":"경기도 화성시 팔탄면 해창리 13-1","indutype":"주방용구 - 주방용구","category":"other"}]},{"lat":"37.10547742","long":"126.87030215","imageIndex":7,"items":[{"name":"(주)해광","tel":"070-8836-3975","addr":"경기도 화성시 팔탄면 해창리 203-8번지","indutype":"음료식품 - 농·축·수산품","category":"food"}]},{"lat":"37.104115709","long":"126.8693033","imageIndex":7,"items":[{"name":"(주)해당","tel":"070-8836-8921","addr":"경기도 화성시 팔탄면 해창리 201-10번지 2동","indutype":"음료식품 - 농·축·수산품","category":"food"}]},{"lat":"37.10953375","long":"126.86382605","imageIndex":7,"items":[{"name":"굿빈스 주식회사","tel":"031-355-0021","addr":"경기도 화성시 팔탄면 해창리 259-17번지","indutype":"음료식품 - 기타음료식품","category":"food"}]},{"lat":"37.111453093","long":"126.88024865","imageIndex":7,"items":[{"name":"미당","tel":"031-353-9928","addr":"경기도 화성시 팔탄면 해창리 32-3번지 1층","indutype":"음료식품 - 농·축·수산품","category":"food"}]},{"lat":"37.106786439","long":"126.87254988","imageIndex":7,"items":[{"name":"주식회사한가득","tel":"070-4243-9769","addr":"경기도 화성시 팔탄면 해창리 178번지 1.2.3동","indutype":"음료식품 - 기타음료식품","category":"food"}]},{"lat":"37.10547742","long":"126.87030215","imageIndex":0,"items":[{"name":"KRG F1 모터스","tel":"031-407-5936","addr":"경기도 화성시 팔탄면 해창리 203-8번지","indutype":"자동차정비 유지 - 자동차시트·타이어","category":"car"}]},{"lat":"37.113056555","long":"126.87985228","imageIndex":0,"items":[{"name":"남부카인테리어","tel":"02-857-3637","addr":"경기도 화성시 팔탄면 해창리 20-1번지","indutype":"자동차정비 유지 - 카인테리어","category":"car"}]},{"lat":"37.112839906","long":"126.8794701","imageIndex":0,"items":[{"name":"더케이카(The K car)","tel":"031-352-9663","addr":"경기도 화성시 팔탄면 해창리 19번지","indutype":"자동차정비 유지 - 자동차시트·타이어","category":"car"}]},{"lat":"37.104284314","long":"126.86701932","imageIndex":0,"items":[{"name":"성문카센타","tel":"031-353-2890","addr":"경기도 화성시 팔탄면 해창리 237-1번지","indutype":"자동차정비 유지 - 자동차정비","category":"car"}]},{"lat":"37.10547655","long":"126.86952591","imageIndex":0,"items":[{"name":"오산자동차","tel":"031-4840-8000","addr":"경기도 화성시 팔탄면 해창리 201-4번지 2층","indutype":"자동차정비 유지 - 자동차부품","category":"car"}]},{"lat":"37.107867118","long":"126.87201927","imageIndex":0,"items":[{"name":"해창카센타","tel":"031-353-5551","addr":"경기도 화성시 팔탄면 해창리 166-5번지","indutype":"자동차정비 유지 - 자동차정비","category":"car"}]},{"lat":"37.1110572","long":"126.88080058","imageIndex":4,"items":[{"name":"대부도","tel":"031-354-7478","addr":"경기도 화성시 팔탄면 해창리 32-2번지","indutype":"일반휴게음식 - 일반한식","category":"restaurant"},{"name":"통영형제복국","tel":"","addr":"경기도 화성시 팔탄면 해창리 32-2번지 1층","indutype":"일반휴게음식 - 일반한식","category":"restaurant"}]},{"lat":"37.10819931","long":"126.87093867","imageIndex":4,"items":[{"name":"대추골손두부","tel":"031-353-9390","addr":"경기도 화성시 팔탄면 해창리 163-5번지","indutype":"일반휴게음식 - 일반한식","category":"restaurant"}]},{"lat":"37.107812233","long":"126.87127685","imageIndex":4,"items":[{"name":"동남집","tel":"031-353-1522","addr":"경기도 화성시 팔탄면 해창리 166-6번지","indutype":"일반휴게음식 - 일반한식","category":"restaurant"}]},{"lat":"37.111453093","long":"126.88024865","imageIndex":4,"items":[{"name":"미당","tel":"031-353-9928","addr":"경기도 화성시 팔탄면 해창리 32-3번지 1층","indutype":"일반휴게음식 - 일반한식","category":"restaurant"}]},{"lat":"37.109724014","long":"126.88116273","imageIndex":4,"items":[{"name":"서해안밴댕이","tel":"031-353-5292","addr":"경기도 화성시 팔탄면 해창리 37-4","indutype":"일반휴게음식 - 일반한식","category":"restaurant"}]},{"lat":"37.112558882","long":"126.87785042","imageIndex":4,"items":[{"name":"야호만두","tel":"031-354-2229","addr":"경기도 화성시 팔탄면 해창리 10-8번지 101호","indutype":"일반휴게음식 - 일반한식","category":"restaurant"}]},{"lat":"37.112730319","long":"126.87807516","imageIndex":4,"items":[{"name":"어식백세 화덕 생선구이","tel":"031-354-9295","addr":"경기도 화성시 팔탄면 해창리 10번지 1동 1층","indutype":"일반휴게음식 - 일반한식","category":"restaurant"}]},{"lat":"37.104584724","long":"126.86971872","imageIndex":4,"items":[{"name":"이룸푸드","tel":"","addr":"경기도 화성시 팔탄면 해창리 201-17번지","indutype":"일반휴게음식 - 일반한식","category":"restaurant"}]},{"lat":"37.1076131","long":"126.87046718","imageIndex":4,"items":[{"name":"이포메밀마을","tel":"031-352-8939","addr":"경기도 화성시 팔탄면 해창리 168번지","indutype":"일반휴게음식 - 일반한식","category":"restaurant"},{"name":"커피프로그램","tel":"","addr":"경기도 화성시 팔탄면 해창리 168번지","indutype":"일반휴게음식 - 서양음식","category":"restaurant"}]},{"lat":"37.108425035","long":"126.87135454","imageIndex":4,"items":[{"name":"일미촌","tel":"031-353-8592","addr":"경기도 화성시 팔탄면 해창리 163-1번지","indutype":"일반휴게음식 - 일반한식","category":"restaurant"}]},{"lat":"37.107811607","long":"126.87071434","imageIndex":4,"items":[{"name":"일품짜장","tel":"031-352-2260","addr":"경기도 화성시 팔탄면 해창리 166-15번지 1층","indutype":"일반휴게음식 - 중국식","category":"restaurant"}]},{"lat":"37.112143995","long":"126.87746858","imageIndex":4,"items":[{"name":"청란계삼계장","tel":"031-354-1413","addr":"경기도 화성시 팔탄면 해창리 10-3번지 2동","indutype":"일반휴게음식 - 일반한식","category":"restaurant"}]},{"lat":"37.10953375","long":"126.86382605","imageIndex":4,"items":[{"name":"홍원한식뷔페","tel":"031-831-5674","addr":"경기도 화성시 팔탄면 해창리 259-17번지","indutype":"일반휴게음식 - 일반한식","category":"restaurant"}]}]