[{"lat":"37.402131842","long":"126.90673549","imageIndex":8,"items":[{"name":"NEW연세치과","tel":"031-443-2875","addr":"경기도 안양시 만안구 박달동 94-143번지","indutype":"의원 - 치과의원","category":"medical"}]},{"lat":"37.402332663","long":"126.90998794","imageIndex":8,"items":[{"name":"고려의원","tel":"031-446-8001","addr":"경기도 안양시 만안구 박달동 68-14번지","indutype":"의원 - 의원","category":"medical"}]},{"lat":"37.405441852","long":"126.91089896","imageIndex":8,"items":[{"name":"고려한의원","tel":"031-427-7577","addr":"경기도 안양시 만안구 박달동 56-19번지","indutype":"의원 - 한의원","category":"medical"}]},{"lat":"37.404494644","long":"126.90943184","imageIndex":8,"items":[{"name":"국왕표치과의원","tel":"031-448-0662","addr":"경기도 안양시 만안구 박달동 21-16번지","indutype":"의원 - 치과의원","category":"medical"}]},{"lat":"37.402360233","long":"126.91067684","imageIndex":8,"items":[{"name":"권치과의원","tel":"031-447-5844","addr":"경기도 안양시 만안구 박달동 68-21번지","indutype":"의원 - 치과의원","category":"medical"}]},{"lat":"37.403189379","long":"126.91095818","imageIndex":8,"items":[{"name":"금산약초","tel":"031-441-4472","addr":"경기도 안양시 만안구 박달동 65-2번지","indutype":"약국 - 한약방","category":"medical"}]},{"lat":"37.402332947","long":"126.91034935","imageIndex":8,"items":[{"name":"김상욱치과의원","tel":"031-445-3615","addr":"경기도 안양시 만안구 박달동 68-18번지","indutype":"의원 - 치과의원","category":"medical"}]},{"lat":"37.402331582","long":"126.90862135","imageIndex":8,"items":[{"name":"꾸러기소아과의원","tel":"031-466-9475","addr":"경기도 안양시 만안구 박달동 85-9번지","indutype":"의원 - 의원","category":"medical"}]},{"lat":"37.405412809","long":"126.90834642","imageIndex":8,"items":[{"name":"뉴새롬정형외과의원","tel":"031-451-3707","addr":"경기도 안양시 만안구 박달동 15-1번지","indutype":"의원 - 의원","category":"medical"}]},{"lat":"37.402694446","long":"126.91176067","imageIndex":8,"items":[{"name":"늘봄약국","tel":"031-465-0111","addr":"경기도 안양시 만안구 박달동 74-10번지","indutype":"약국 - 약국","category":"medical"}]},{"lat":"37.403048529","long":"126.90389947","imageIndex":8,"items":[{"name":"닥터장가정의학과","tel":"031-464-8777","addr":"경기도 안양시 만안구 박달동","indutype":"의원 - 의원","category":"medical"}]},{"lat":"37.402022536","long":"126.90528999","imageIndex":8,"items":[{"name":"동림한의원","tel":"031-464-6700","addr":"경기도 안양시 만안구 박달동 137-5번지","indutype":"의원 - 한의원","category":"medical"},{"name":"미소샘치과의원","tel":"031-441-2872","addr":"경기도 안양시 만안구 박달동 137-5번지","indutype":"의원 - 치과의원","category":"medical"}]},{"lat":"37.406080039","long":"126.90895549","imageIndex":8,"items":[{"name":"명인당약국","tel":"031-443-4500","addr":"경기도 안양시 만안구 박달동 23-20번지","indutype":"약국 - 약국","category":"medical"}]},{"lat":"37.402332263","long":"126.9094797","imageIndex":8,"items":[{"name":"바우동물병원","tel":"031-443-1280","addr":"경기도 안양시 만안구 박달동 68-8번지","indutype":"기타의료기관 - 동물병원","category":"medical"},{"name":"바우동물병원","tel":"031-443-1280","addr":"경기도 안양시 만안구 박달동 68-8번지","indutype":"기타의료기관 - 동물병원","category":"medical"}]},{"lat":"37.404665387","long":"126.9088669","imageIndex":8,"items":[{"name":"박달연세치과의원","tel":"031-445-6626","addr":"경기도 안양시 만안구 박달동 15-6번지","indutype":"의원 - 치과의원","category":"medical"}]},{"lat":"37.402331139","long":"126.90806794","imageIndex":8,"items":[{"name":"박달한의원","tel":"031-466-1075","addr":"경기도 안양시 만안구 박달동 85-1번지","indutype":"의원 - 한의원","category":"medical"},{"name":"행운치과의원","tel":"031-441-5526","addr":"경기도 안양시 만안구 박달동 85-1번지","indutype":"의원 - 치과의원","category":"medical"}]},{"lat":"37.404881898","long":"126.90920547","imageIndex":8,"items":[{"name":"백제한의원","tel":"031-448-0480","addr":"경기도 안양시 만안구 박달동 22-15번지","indutype":"의원 - 한의원","category":"medical"}]},{"lat":"37.402498327","long":"126.90319996","imageIndex":8,"items":[{"name":"비발디치과의원","tel":"031-464-2876","addr":"경기도 안양시 만안구 박달동 114-6번지","indutype":"의원 - 치과의원","category":"medical"}]},{"lat":"37.40302635","long":"126.90987414","imageIndex":8,"items":[{"name":"새봄한의원","tel":"031-442-0222","addr":"경기도 안양시 만안구 박달동 17-19번지","indutype":"의원 - 한의원","category":"medical"}]},{"lat":"37.405107194","long":"126.90926166","imageIndex":8,"items":[{"name":"서울하나재활의학과의원","tel":"031-441-7575","addr":"경기도 안양시 만안구 박달동 22-6번지","indutype":"의원 - 의원","category":"medical"},{"name":"서울현치과","tel":"031-466-2275","addr":"경기도 안양시 만안구 박달동 22-6번지","indutype":"의원 - 치과의원","category":"medical"}]},{"lat":"37.402693694","long":"126.91078937","imageIndex":8,"items":[{"name":"성수한의원","tel":"031-468-5574","addr":"경기도 안양시 만안구 박달동 19-9번지","indutype":"의원 - 한의원","category":"medical"},{"name":"정평귀이비인후과의원","tel":"031-442-6843","addr":"경기도 안양시 만안구 박달동 19-9번지","indutype":"의원 - 의원","category":"medical"}]},{"lat":"37.402913445","long":"126.90397871","imageIndex":8,"items":[{"name":"수성약국","tel":"031-464-7773","addr":"경기도 안양시 만안구 박달동 939번지 한양수자인에듀파크","indutype":"약국 - 약국","category":"medical"}]},{"lat":"37.40463876","long":"126.90937519","imageIndex":8,"items":[{"name":"연세내과의원","tel":"031-466-5575","addr":"경기도 안양시 만안구 박달동 21-1번지","indutype":"의원 - 의원","category":"medical"},{"name":"예김피부과의원","tel":"031-468-2109","addr":"경기도 안양시 만안구 박달동 21-1번지","indutype":"의원 - 의원","category":"medical"},{"name":"제일약국","tel":"031-441-3215","addr":"경기도 안양시 만안구 박달동 21-1번지","indutype":"약국 - 약국","category":"medical"}]},{"lat":"37.402693517","long":"126.91056349","imageIndex":8,"items":[{"name":"우리들이비인후과의원","tel":"031-689-4799","addr":"경기도 안양시 만안구 박달동 19-4번지","indutype":"의원 - 의원","category":"medical"},{"name":"원치과의원","tel":"031-469-2888","addr":"경기도 안양시 만안구 박달동 19-4번지","indutype":"의원 - 치과의원","category":"medical"}]},{"lat":"37.402331275","long":"126.90823735","imageIndex":8,"items":[{"name":"우성외과의원","tel":"031-446-5157","addr":"경기도 안양시 만안구 박달동 85-5번지","indutype":"의원 - 의원","category":"medical"}]},{"lat":"37.402332788","long":"126.91014605","imageIndex":8,"items":[{"name":"일약국","tel":"031-468-3354","addr":"경기도 안양시 만안구 박달동 68-16번지","indutype":"약국 - 약국","category":"medical"}]},{"lat":"37.40699858","long":"126.90834443","imageIndex":8,"items":[{"name":"자명본초원","tel":"031-449-0458","addr":"경기도 안양시 만안구 박달동 24-6번지","indutype":"약국 - 한약방","category":"medical"}]},{"lat":"37.404945192","long":"126.90948775","imageIndex":8,"items":[{"name":"정한의원","tel":"031-469-7583","addr":"경기도 안양시 만안구 박달동 22-20번지","indutype":"의원 - 한의원","category":"medical"}]},{"lat":"37.404466724","long":"126.90831373","imageIndex":8,"items":[{"name":"참사랑한약국","tel":"031-447-7119","addr":"경기도 안양시 만안구 박달동 45-3번지","indutype":"약국 - 약국","category":"medical"}]},{"lat":"37.402215626","long":"126.8992587","imageIndex":8,"items":[{"name":"태림내과의원","tel":"031-443-0250","addr":"경기도 안양시 만안구 박달동 158-1번지","indutype":"의원 - 의원","category":"medical"}]}]