[{"lat":"37.527783975","long":"126.81009732","imageIndex":8,"items":[{"name":"가원당한약방","tel":"032-671-0615","addr":"경기도 부천시 원종동 296-2번지","indutype":"약국 - 한약방","category":"medical"},{"name":"유준곤치과의원","tel":"032-678-0563","addr":"경기도 부천시 원종동 296-2번지","indutype":"의원 - 치과의원","category":"medical"}]},{"lat":"37.519566584","long":"126.80442866","imageIndex":8,"items":[{"name":"강남의원","tel":"032-675-6500","addr":"경기도 부천시 원종동 375-1번지 602호","indutype":"의원 - 의원","category":"medical"},{"name":"나눔약국","tel":"032-672-1177","addr":"경기도 부천시 원종동 375-1번지 스카이빌딩 108호","indutype":"약국 - 약국","category":"medical"},{"name":"부천드림안과의원","tel":"032-679-1001","addr":"경기도 부천시 원종동 375-1번지 5층 501~502호","indutype":"의원 - 의원","category":"medical"},{"name":"성곡부부한의원","tel":"032-673-1275","addr":"경기도 부천시 원종동 375-1번지 스카이빌딩 4층 1호","indutype":"의원 - 한의원","category":"medical"}]},{"lat":"37.524144126","long":"126.79943907","imageIndex":8,"items":[{"name":"강정호치과의원","tel":"032-675-7582","addr":"경기도 부천시 원종동 141-3번지 중앙프라자 201호","indutype":"의원 - 치과의원","category":"medical"},{"name":"이훈규메디칼의원","tel":"032-675-6177","addr":"경기도 부천시 원종동 141-3번지 중앙프라자 202호","indutype":"의원 - 의원","category":"medical"},{"name":"중앙약국","tel":"032-683-5222","addr":"경기도 부천시 원종동 141-3번지 중앙프라자 105호","indutype":"약국 - 약국","category":"medical"}]},{"lat":"37.523756181","long":"126.80442888","imageIndex":8,"items":[{"name":"경희남촌한의원","tel":"032-672-6151","addr":"경기도 부천시 원종동 227-1번지 2층","indutype":"의원 - 한의원","category":"medical"},{"name":"민동혁치과의원","tel":"032-678-2828","addr":"경기도 부천시 원종동 227-1번지 2층 2호","indutype":"의원 - 치과의원","category":"medical"}]},{"lat":"37.5265042","long":"126.80443291","imageIndex":8,"items":[{"name":"고려정형외과","tel":"032-673-0156","addr":"경기도 부천시 원종동 229-2번지","indutype":"의원 - 의원","category":"medical"}]},{"lat":"37.52412203","long":"126.8023238","imageIndex":8,"items":[{"name":"국산생약초","tel":"032-676-0078","addr":"경기도 부천시 원종동 211-2번지 1층","indutype":"약국 - 한약방","category":"medical"},{"name":"원강희치과","tel":"032-677-0965","addr":"경기도 부천시 원종동 211-2번지","indutype":"의원 - 치과의원","category":"medical"}]},{"lat":"37.51920619","long":"126.80442962","imageIndex":8,"items":[{"name":"그린메디약국","tel":"032-671-3448","addr":"경기도 부천시 원종동 375-3번지 그린메디칼프라자 103호","indutype":"약국 - 약국","category":"medical"},{"name":"뜰약국","tel":"032-7753-7518","addr":"경기도 부천시 원종동 375-3번지 그린메디칼프라자 201호","indutype":"약국 - 약국","category":"medical"},{"name":"수동물병원","tel":"032-675-8575","addr":"경기도 부천시 원종동 375-3번지 그린메디칼프라자 105호","indutype":"기타의료기관 - 동물병원","category":"medical"},{"name":"약손한의원","tel":"032-672-1075","addr":"경기도 부천시 원종동 375-3번지 그린메디칼프라자 405호","indutype":"의원 - 한의원","category":"medical"},{"name":"우리사랑이비인후과","tel":"032-675-7244","addr":"경기도 부천시 원종동 375-3번지 그린메디칼프라자 202호","indutype":"의원 - 의원","category":"medical"},{"name":"이종규치과의원","tel":"032-673-2828","addr":"경기도 부천시 원종동 375-3번지 그린메디칼","indutype":"의원 - 치과의원","category":"medical"},{"name":"전내과의원","tel":"032-674-0291","addr":"경기도 부천시 원종동 375-3번지 그린메디칼 303호","indutype":"의원 - 의원","category":"medical"},{"name":"참사랑약국","tel":"032-674-8100","addr":"경기도 부천시 원종동 375-3번지 그린메디칼프라자 4층 404호","indutype":"약국 - 약국","category":"medical"},{"name":"한명길소아과","tel":"032-684-8900","addr":"경기도 부천시 원종동 375-3번지 그린메디칼프라자 403호","indutype":"의원 - 의원","category":"medical"}]},{"lat":"37.528144239","long":"126.8100172","imageIndex":8,"items":[{"name":"금마약국","tel":"032-673-2803","addr":"경기도 부천시 원종동 300-3번지 삼오주택","indutype":"약국 - 약국","category":"medical"}]},{"lat":"37.526621423","long":"126.80448916","imageIndex":8,"items":[{"name":"김승주소아과의원","tel":"032-675-0307","addr":"경기도 부천시 원종동 229-1번지","indutype":"의원 - 의원","category":"medical"},{"name":"동아온누리약국","tel":"032-684-4747","addr":"경기도 부천시 원종동 229-1번지","indutype":"약국 - 약국","category":"medical"}]},{"lat":"37.527928931","long":"126.80513054","imageIndex":8,"items":[{"name":"남일송내과의원","tel":"032-683-0320","addr":"경기도 부천시 원종동 231번지 부원빌딩 2층 201호","indutype":"의원 - 의원","category":"medical"},{"name":"대은약국","tel":"032-681-0148","addr":"경기도 부천시 원종동 231번지 부원빌딩 102호","indutype":"약국 - 약국","category":"medical"}]},{"lat":"37.527567266","long":"126.80437353","imageIndex":8,"items":[{"name":"늘사랑약국","tel":"032-671-6005","addr":"경기도 부천시 원종동 230-17번지 2동 1층","indutype":"약국 - 약국","category":"medical"}]},{"lat":"37.523843377","long":"126.80270917","imageIndex":8,"items":[{"name":"대화약국","tel":"032-678-2459","addr":"경기도 부천시 원종동 217번지","indutype":"약국 - 약국","category":"medical"},{"name":"성모가정의학과의원","tel":"032-671-1123","addr":"경기도 부천시 원종동 217번지 2층","indutype":"의원 - 의원","category":"medical"}]},{"lat":"37.520450725","long":"126.80512766","imageIndex":8,"items":[{"name":"라임동물병원","tel":"032-684-7533","addr":"경기도 부천시 원종동 373-12번지 JD스카이빌 1층 101호","indutype":"기타의료기관 - 동물병원","category":"medical"}]},{"lat":"37.518729844","long":"126.8051322","imageIndex":8,"items":[{"name":"미-베스트치과의원","tel":"032-677-7034","addr":"경기도 부천시 원종동 372-5번지","indutype":"의원 - 치과의원","category":"medical"},{"name":"베스트가정의학과","tel":"032-677-7582","addr":"경기도 부천시 원종동 372-5번지 2층 4호","indutype":"의원 - 의원","category":"medical"},{"name":"정종합동물병원","tel":"032-682-1279","addr":"경기도 부천시 원종동 372-5번지","indutype":"기타의료기관 - 동물병원","category":"medical"}]},{"lat":"37.523171755","long":"126.80515441","imageIndex":8,"items":[{"name":"바다약국","tel":"032-674-2569","addr":"경기도 부천시 원종동 280-12번지 비제이빌딩 2층","indutype":"약국 - 약국","category":"medical"},{"name":"부천밝은안과","tel":"032-683-7787","addr":"경기도 부천시 원종동 280-12번지 비제이빌딩 2층","indutype":"의원 - 의원","category":"medical"},{"name":"부천코엔이비인후과","tel":"032-677-5075","addr":"경기도 부천시 원종동 280-12번지 3층","indutype":"의원 - 의원","category":"medical"},{"name":"아이튼튼소아과의원","tel":"032-672-8119","addr":"경기도 부천시 원종동 280-12번지 2층 202호","indutype":"의원 - 의원","category":"medical"},{"name":"원종이화약국","tel":"032-683-7133","addr":"경기도 부천시 원종동 280-12번지 3층","indutype":"약국 - 약국","category":"medical"}]},{"lat":"37.524179148","long":"126.80413363","imageIndex":8,"items":[{"name":"바른탑치과의원","tel":"032-235-2279","addr":"경기도 부천시 원종동 228-4번지 4층","indutype":"의원 - 치과의원","category":"medical"}]},{"lat":"37.527893401","long":"126.81090026","imageIndex":8,"items":[{"name":"밝은메디칼의원","tel":"032-682-0070","addr":"경기도 부천시 원종동 339-1번지","indutype":"의원 - 의원","category":"medical"}]},{"lat":"37.524702271","long":"126.80446031","imageIndex":8,"items":[{"name":"밝은빛한의원","tel":"032-681-7575","addr":"경기도 부천시 원종동 228-8번지 현대빌딩 2층","indutype":"의원 - 한의원","category":"medical"}]},{"lat":"37.52386985","long":"126.80238104","imageIndex":8,"items":[{"name":"보성한의원","tel":"032-671-0678","addr":"경기도 부천시 원종동 212-23번지 서명빌딩 2층","indutype":"의원 - 한의원","category":"medical"}]},{"lat":"37.517873852","long":"126.80510052","imageIndex":8,"items":[{"name":"봄빛온누리약국","tel":"032-664-3635","addr":"경기도 부천시 원종동 371-2번지 성진프라자 105호","indutype":"약국 - 약국","category":"medical"}]},{"lat":"37.524927479","long":"126.80443709","imageIndex":8,"items":[{"name":"부천삼대한의원","tel":"032-678-1075","addr":"경기도 부천시 원종동 228-2번지 한강빌딩 2층","indutype":"의원 - 한의원","category":"medical"}]},{"lat":"37.51945067","long":"126.80515292","imageIndex":8,"items":[{"name":"부천시카고치과의원","tel":"032-674-3960","addr":"경기도 부천시 원종동 372번지","indutype":"의원 - 치과의원","category":"medical"},{"name":"호산외과의원","tel":"032-677-8765","addr":"경기도 부천시 원종동 372번지","indutype":"의원 - 의원","category":"medical"}]},{"lat":"37.524173389","long":"126.80073992","imageIndex":8,"items":[{"name":"삼성내과의원","tel":"032-675-9177","addr":"경기도 부천시 원종동 206-3번지 충남상가 2층 일부","indutype":"의원 - 의원","category":"medical"},{"name":"좋은약국","tel":"032-676-1909","addr":"경기도 부천시 원종동 206-3번지 형남상가 1층","indutype":"약국 - 약국","category":"medical"}]},{"lat":"37.518845796","long":"126.80443057","imageIndex":8,"items":[{"name":"상하이한의원","tel":"032-682-2815","addr":"경기도 부천시 원종동 375-6번지","indutype":"의원 - 한의원","category":"medical"}]},{"lat":"37.528088773","long":"126.80915756","imageIndex":8,"items":[{"name":"샘물약국","tel":"032-677-7589","addr":"경기도 부천시 원종동 299-2번지 1층 가호 111","indutype":"약국 - 약국","category":"medical"},{"name":"우리메디의원","tel":"032-676-9050","addr":"경기도 부천시 원종동 299-2번지 201호","indutype":"의원 - 의원","category":"medical"},{"name":"이소아과의원","tel":"032-673-2326","addr":"경기도 부천시 원종동 299-2번지 금홍빌딩 205호","indutype":"의원 - 의원","category":"medical"}]},{"lat":"37.526900633","long":"126.80443186","imageIndex":8,"items":[{"name":"생명사랑약국","tel":"032-683-5720","addr":"경기도 부천시 원종동 230-4번지 1층 10호","indutype":"약국 - 약국","category":"medical"},{"name":"원종동물병원","tel":"032-679-5575","addr":"경기도 부천시 원종동 230-4번지 1층 8호","indutype":"기타의료기관 - 동물병원","category":"medical"},{"name":"원종치과의원","tel":"032-677-2875","addr":"경기도 부천시 원종동 230-4번지","indutype":"의원 - 치과의원","category":"medical"}]},{"lat":"37.524144685","long":"126.80507266","imageIndex":8,"items":[{"name":"서울이치과","tel":"032-673-5315","addr":"경기도 부천시 원종동 277-12번지","indutype":"의원 - 치과의원","category":"medical"},{"name":"정명균이비인후과의원","tel":"032-673-3837","addr":"경기도 부천시 원종동 277-12번지","indutype":"의원 - 의원","category":"medical"},{"name":"혜민약국","tel":"032-684-3393","addr":"경기도 부천시 원종동 277-12번지 1층","indutype":"약국 - 약국","category":"medical"},{"name":"혜민약국","tel":"032-684-3393","addr":"경기도 부천시 원종동 277-12번지 1층","indutype":"약국 - 약국","category":"medical"}]},{"lat":"37.5235048918","long":"126.8050177845","imageIndex":8,"items":[{"name":"성모안과의원","tel":"032-677-5853","addr":"경기도 부천시 원종동 280-15번지 한성빌딩 3층","indutype":"의원 - 의원","category":"medical"}]},{"lat":"37.523503905","long":"126.80442955","imageIndex":8,"items":[{"name":"성모편한마취통증의학과","tel":"032-678-7575","addr":"경기도 부천시 원종동 227-2번지 해오름빌딩 2층","indutype":"의원 - 의원","category":"medical"},{"name":"연세고운의원","tel":"032-682-8875","addr":"경기도 부천시 원종동 227-2번지 해리피아빌딩 4층","indutype":"의원 - 의원","category":"medical"},{"name":"이-클린치과","tel":"032-672-7528","addr":"경기도 부천시 원종동 227-2번지 해오름빌딩 3층","indutype":"의원 - 치과의원","category":"medical"}]},{"lat":"37.519926997","long":"126.80443902","imageIndex":8,"items":[{"name":"수플러스치과의원","tel":"032-674-7528","addr":"경기도 부천시 원종동 374-4번지 2층","indutype":"의원 - 치과의원","category":"medical"}]},{"lat":"37.52378201","long":"126.80371613","imageIndex":8,"items":[{"name":"신명한의원","tel":"032-676-1075","addr":"경기도 부천시 원종동 222-2번지 2층","indutype":"의원 - 한의원","category":"medical"}]},{"lat":"37.527844411","long":"126.80849072","imageIndex":8,"items":[{"name":"신치과의원","tel":"032-673-6046","addr":"경기도 부천시 원종동 237-15번지","indutype":"의원 - 치과의원","category":"medical"}]},{"lat":"37.522234674","long":"126.80512295","imageIndex":8,"items":[{"name":"아름다운미소치과의원","tel":"032-671-2820","addr":"경기도 부천시 원종동 281-6번지 세라메디컬센터 3층 302호","indutype":"의원 - 치과의원","category":"medical"},{"name":"월오한의원","tel":"032-678-0519","addr":"경기도 부천시 원종동 281-6번지 세라메디컬센터 303호","indutype":"의원 - 한의원","category":"medical"}]},{"lat":"37.522531961","long":"126.80509954","imageIndex":8,"items":[{"name":"아름정신건강의학과 의원","tel":"032-683-8275","addr":"경기도 부천시 원종동 281번지 성연빌딩 502호","indutype":"의원 - 의원","category":"medical"},{"name":"이철성마취통증의학과의원","tel":"032-683-7676","addr":"경기도 부천시 원종동 281번지","indutype":"의원 - 의원","category":"medical"},{"name":"주플란트치과의원","tel":"032-675-2872","addr":"경기도 부천시 원종동 281번지 성연빌딩 201호","indutype":"의원 - 치과의원","category":"medical"}]},{"lat":"37.523595218","long":"126.80515329","imageIndex":8,"items":[{"name":"아이비의원","tel":"032-675-4475","addr":"경기도 부천시 원종동 280-15번지","indutype":"의원 - 의원","category":"medical"},{"name":"연세이비인후과의원","tel":"032-683-7582","addr":"경기도 부천시 원종동 280-15번지","indutype":"의원 - 의원","category":"medical"},{"name":"정한의원","tel":"032-676-8930","addr":"경기도 부천시 원종동 280-15번지 한성빌딩 3층","indutype":"의원 - 한의원","category":"medical"},{"name":"하늘인재활의학과의원","tel":"032-673-7588","addr":"경기도 부천시 원종동 280-15번지 한성빌딩 4층 401호","indutype":"의원 - 의원","category":"medical"}]},{"lat":"37.523838483","long":"126.80515265","imageIndex":8,"items":[{"name":"연세부부치과의원","tel":"032-673-0157","addr":"경기도 부천시 원종동 280번지 4층","indutype":"의원 - 치과의원","category":"medical"},{"name":"이홍철산부인과","tel":"032-677-2264","addr":"경기도 부천시 원종동 280번지","indutype":"의원 - 의원","category":"medical"},{"name":"하늘봄한의원","tel":"032-674-5556","addr":"경기도 부천시 원종동 280번지 3층","indutype":"의원 - 한의원","category":"medical"}]},{"lat":"37.523036607","long":"126.80515477","imageIndex":8,"items":[{"name":"연세진안과","tel":"032-682-1075","addr":"경기도 부천시 원종동 280-11번지 3층","indutype":"의원 - 의원","category":"medical"},{"name":"이정길내과의원","tel":"032-677-8458","addr":"경기도 부천시 원종동 280-11번지","indutype":"의원 - 의원","category":"medical"}]},{"lat":"37.525370775","long":"126.81098592","imageIndex":8,"items":[{"name":"왕소영한의원","tel":"032-671-3027","addr":"경기도 부천시 원종동 340-39번지","indutype":"의원 - 한의원","category":"medical"}]},{"lat":"37.525006833","long":"126.80340743","imageIndex":8,"items":[{"name":"원종금맥한의원","tel":"032-677-3375","addr":"경기도 부천시 원종동 221번지 수성빌딩 106호","indutype":"의원 - 한의원","category":"medical"}]},{"lat":"37.525116723","long":"126.80445921","imageIndex":8,"items":[{"name":"원종백문약국(이미영)","tel":"032-677-9354","addr":"경기도 부천시 원종동 228-7번지","indutype":"약국 - 약국","category":"medical"},{"name":"한사랑패밀리의원","tel":"032-672-0777","addr":"경기도 부천시 원종동 228-7번지","indutype":"의원 - 의원","category":"medical"}]},{"lat":"37.527315086","long":"126.80443076","imageIndex":8,"items":[{"name":"원종센타약국","tel":"032-675-2663","addr":"경기도 부천시 원종동 230-2번지 1층","indutype":"약국 - 약국","category":"medical"}]},{"lat":"37.523839051","long":"126.80549202","imageIndex":8,"items":[{"name":"원종온누리약국","tel":"032-673-8705","addr":"경기도 부천시 원종동 280-1번지 한성연립","indutype":"약국 - 약국","category":"medical"}]},{"lat":"37.526866372","long":"126.81095946","imageIndex":8,"items":[{"name":"원종태평양약국","tel":"032-684-6737","addr":"경기도 부천시 원종동 339-20번지 대덕빌딩 1층","indutype":"약국 - 약국","category":"medical"}]},{"lat":"37.525756384","long":"126.80443489","imageIndex":8,"items":[{"name":"원종한의원","tel":"032-678-3114","addr":"경기도 부천시 원종동 229-7번지","indutype":"의원 - 한의원","category":"medical"}]},{"lat":"37.523288883","long":"126.8051541","imageIndex":8,"items":[{"name":"원중약국","tel":"032-213-7650","addr":"경기도 부천시 원종동 280-13번지 우진빌딩 1층","indutype":"약국 - 약국","category":"medical"},{"name":"중앙내과의원","tel":"032-682-8575","addr":"경기도 부천시 원종동 280-13번지 우진빌딩 2층 2호","indutype":"의원 - 의원","category":"medical"}]},{"lat":"37.522838296","long":"126.80509873","imageIndex":8,"items":[{"name":"차철주경희한의원","tel":"032-678-6044","addr":"경기도 부천시 원종동 280-9번지","indutype":"의원 - 한의원","category":"medical"},{"name":"프라우드치과의원","tel":"032-678-7528","addr":"경기도 부천시 원종동 280-9번지 토수프라자 4층","indutype":"의원 - 치과의원","category":"medical"},{"name":"한나약국","tel":"032-677-3747","addr":"경기도 부천시 원종동 280-9번지 토수프라자 106호","indutype":"약국 - 약국","category":"medical"}]},{"lat":"37.519955316","long":"126.80520815","imageIndex":8,"items":[{"name":"한강프라자약국","tel":"032-677-7843","addr":"경기도 부천시 원종동 373-10번지","indutype":"약국 - 약국","category":"medical"}]},{"lat":"37.522981334","long":"126.80443093","imageIndex":8,"items":[{"name":"한결치과의원","tel":"032-236-2828","addr":"경기도 부천시 원종동 227-4번지 3층","indutype":"의원 - 치과의원","category":"medical"}]},{"lat":"37.519593062","long":"126.80410055","imageIndex":8,"items":[{"name":"한명길소아과","tel":"032-684-8900","addr":"경기도 부천시 원종동 375","indutype":"의원 - 의원","category":"medical"}]}]