[{"lat":"37.001880104","long":"127.15958218","imageIndex":16,"items":[{"name":"경희대 국가대표 태권도장","tel":"031-652-0700","addr":"경기도 안성시 공도읍 용두리 238번지","indutype":"학원 - 예·체능계학원","category":"study"},{"name":"비엔나피아노학원","tel":"031-653-4754","addr":"경기도 안성시 공도읍 용두리 238번지 1층","indutype":"학원 - 예·체능계학원","category":"study"}]},{"lat":"37.00274088","long":"127.16932445","imageIndex":16,"items":[{"name":"공도외국어학원","tel":"031-651-2774","addr":"경기도 안성시 공도읍 용두리 138-5번지","indutype":"학원 - 외국어학원","category":"study"},{"name":"공도태권도장","tel":"031-653-2789","addr":"경기도 안성시 공도읍 용두리 138-5번지 302호","indutype":"학원 - 예·체능계학원","category":"study"},{"name":"더 쎈 중고등학원","tel":"031-653-6221","addr":"경기도 안성시 공도읍 용두리 138-5번지 2층","indutype":"학원 - 보습학원","category":"study"}]},{"lat":"36.999661742","long":"127.16752026","imageIndex":16,"items":[{"name":"공도초등학교","tel":"031-651-2004","addr":"경기도 안성시 공도읍 용두리 187-1번지 공도초등학교 1층","indutype":"학원 - 초중고교육기관","category":"study"}]},{"lat":"37.001331149","long":"127.15905304","imageIndex":16,"items":[{"name":"꿈키움음악미술학원","tel":"031-618-2362","addr":"경기도 안성시 공도읍 용두리 234-8번지 1층2,3호","indutype":"학원 - 예·체능계학원","category":"study"}]},{"lat":"37.000498063","long":"127.15527658","imageIndex":16,"items":[{"name":"리더스유치원[아이행복]","tel":"031-618-0236","addr":"경기도 안성시 공도읍 용두리 704-1번지","indutype":"학원 - 유치원","category":"study"}]},{"lat":"37.000689409","long":"127.16719667","imageIndex":16,"items":[{"name":"리버티 피아노 음악교습소","tel":"","addr":"경기도 안성시 공도읍 용두리 755번지 우미린단지 1동 203호 상가","indutype":"학원 - 예·체능계학원","category":"study"},{"name":"뮤엠영어우미린교습소","tel":"031-9094-0025","addr":"경기도 안성시 공도읍 용두리 755번지 3동 202호(우미린더퍼스트(상가))","indutype":"학원 - 외국어학원","category":"study"},{"name":"박수진음악학원","tel":"031-655-9541","addr":"경기도 안성시 공도읍 용두리 755번지 안성공도우미린퍼스트 상가 3동 204호","indutype":"학원 - 예·체능계학원","category":"study"},{"name":"성진ENG","tel":"031-654-8041","addr":"경기도 안성시 공도읍 용두리 755번지 우미린더퍼스트 102동 1303호","indutype":"학원 - 기타 교육기관","category":"study"},{"name":"칸 스피치심리교육센터","tel":"","addr":"경기도 안성시 공도읍 용두리 755번지 우미린더퍼스트 상가 203호","indutype":"학원 - 기타 교육기관","category":"study"}]},{"lat":"37.001137864","long":"127.16869182","imageIndex":16,"items":[{"name":"리브로아르츠 미술학원","tel":"031-654-0777","addr":"경기도 안성시 공도읍 용두리 158-8번지 청담비전파크 402호","indutype":"학원 - 예·체능계학원","category":"study"},{"name":"아이뮤직음악학원","tel":"031-655-0331","addr":"경기도 안성시 공도읍 용두리 158-8번지 청담비전파크 4층 401호","indutype":"학원 - 예·체능계학원","category":"study"},{"name":"지앤김학원","tel":"031-000-0000","addr":"경기도 안성시 공도읍 용두리 158-8번지 2층 청담비전파크 204호","indutype":"학원 - 보습학원","category":"study"},{"name":"페이스에듀","tel":"031-658-4199","addr":"경기도 안성시 공도읍 용두리 158-8번지 청담비전파크 301,302호","indutype":"학원 - 보습학원","category":"study"}]},{"lat":"37.000526063","long":"127.16802767","imageIndex":16,"items":[{"name":"모자속코끼리 비스튜디오(B STUDIO)미술학","tel":"031-655-4667","addr":"경기도 안성시 공도읍 용두리 755-8번지 2층 201호","indutype":"학원 - 예·체능계학원","category":"study"},{"name":"소리숲 음악학원3관","tel":"031-652-0110","addr":"경기도 안성시 공도읍 용두리 755-8번지 301호","indutype":"학원 - 예·체능계학원","category":"study"},{"name":"제니스 영어교습소","tel":"031-8075-9282","addr":"경기도 안성시 공도읍 용두리 755-8번지 401호","indutype":"학원 - 외국어학원","category":"study"}]},{"lat":"36.998967033","long":"127.16155342","imageIndex":16,"items":[{"name":"별하어린이집[아이행복]","tel":"031-618-6248","addr":"경기도 안성시 공도읍 용두리 231-21번지","indutype":"학원 - 유아원","category":"study"}]},{"lat":"36.999220214","long":"127.15397086","imageIndex":16,"items":[{"name":"사관유치원[아이행복]","tel":"031-651-9004","addr":"경기도 안성시 공도읍 용두리 682-9","indutype":"학원 - 유치원","category":"study"}]},{"lat":"36.999467502","long":"127.1578584","imageIndex":16,"items":[{"name":"사랑해어린이집[아이행복]","tel":"031-658-5766","addr":"경기도 안성시 공도읍 용두리 752번지 주은풍림아파트 107동 101호","indutype":"학원 - 유아원","category":"study"}]},{"lat":"37.001744721","long":"127.15975042","imageIndex":16,"items":[{"name":"소리나라 피아노","tel":"031-692-0078","addr":"경기도 안성시 공도읍 용두리 238-5번지 2층","indutype":"학원 - 예·체능계학원","category":"study"},{"name":"청록학원","tel":"031-692-0533","addr":"경기도 안성시 공도읍 용두리 238-5","indutype":"학원 - 보습학원","category":"study"},{"name":"피카소미술학원","tel":"070-7783-9670","addr":"경기도 안성시 공도읍 용두리 238-5번지","indutype":"학원 - 예·체능계학원","category":"study"}]},{"lat":"37.002074517","long":"127.16901966","imageIndex":16,"items":[{"name":"씨엔티테크 스터디센터 안성공도점","tel":"02-3152-5846","addr":"경기도 안성시 공도읍 용두리 157-3번지 씨엔티테크스터디센터","indutype":"학원 - 독서실","category":"study"}]},{"lat":"37.001158404","long":"127.16022107","imageIndex":16,"items":[{"name":"아이생각어린이집[아이행복]","tel":"031-657-5900","addr":"경기도 안성시 공도읍 용두리 238-3번지","indutype":"학원 - 유아원","category":"study"},{"name":"아이생각어린이집[아이행복]","tel":"031-657-5900","addr":"경기도 안성시 공도읍 용두리 238-3번지","indutype":"학원 - 유아원","category":"study"}]},{"lat":"37.01210801","long":"127.16569314","imageIndex":16,"items":[{"name":"안성보듬이나눔이어린이집[아이행복]","tel":"031-654-0067","addr":"경기도 안성시 공도읍 용두리 387-18","indutype":"학원 - 유아원","category":"study"}]},{"lat":"37.00391195","long":"127.1695517","imageIndex":16,"items":[{"name":"에스이엠 공도캠퍼스 학원","tel":"031-653-1448","addr":"경기도 안성시 공도읍 용두리 132-4번지 3층","indutype":"학원 - 보습학원","category":"study"},{"name":"하우스터디 안성공도센터 독서실","tel":"031-618-2557","addr":"경기도 안성시 공도읍 용두리 132-4번지 3층 일부","indutype":"학원 - 독서실","category":"study"}]},{"lat":"37.001385656","long":"127.15871611","imageIndex":16,"items":[{"name":"에이블 원탑 학원","tel":"031-0000-0000","addr":"경기도 안성시 공도읍 용두리 234-12번지","indutype":"학원 - 보습학원","category":"study"},{"name":"우리아이태권스쿨","tel":"031-652-5420","addr":"경기도 안성시 공도읍 용두리 234-12번지","indutype":"학원 - 예·체능계학원","category":"study"},{"name":"크레파스 미술학원","tel":"031-657-7172","addr":"경기도 안성시 공도읍 용두리 234-12번지 2층","indutype":"학원 - 예·체능계학원","category":"study"},{"name":"푸른뜰미술교습소","tel":"031-655-5584","addr":"경기도 안성시 공도읍 용두리 234-12번지 2층","indutype":"학원 - 예·체능계학원","category":"study"},{"name":"호산나음악학원","tel":"031-653-1350","addr":"경기도 안성시 공도읍 용두리 234-12번지 2층","indutype":"학원 - 예·체능계학원","category":"study"}]},{"lat":"37.006101539","long":"127.16955648","imageIndex":16,"items":[{"name":"예당음악학원","tel":"031-692-1388","addr":"경기도 안성시 공도읍 용두리 104-7","indutype":"학원 - 예·체능계학원","category":"study"}]},{"lat":"37.002358763","long":"127.1587518","imageIndex":16,"items":[{"name":"용머리초등학교","tel":"","addr":"경기도 안성시 공도읍 용두리 517-2번지 용머리초등학교","indutype":"학원 - 초중고교육기관","category":"study"},{"name":"용머리초등학교_수업료","tel":"","addr":"경기도 안성시 공도읍 용두리 517-2번지 용머리초등학교","indutype":"학원 - 초중고교육기관","category":"study"}]},{"lat":"37.001664618","long":"127.15899754","imageIndex":16,"items":[{"name":"윤선생우리집앞영어교실용머리교습소","tel":"031-618-0577","addr":"경기도 안성시 공도읍 용두리 518-2번지 1층","indutype":"학원 - 보습학원","category":"study"}]},{"lat":"37.007714035","long":"127.16985212","imageIndex":16,"items":[{"name":"죠지메이슨어학원","tel":"031-691-0502","addr":"경기도 안성시 공도읍 용두리 103-1번지","indutype":"회원제형태 - 학원","category":"study"}]},{"lat":"37.001024713","long":"127.15910858","imageIndex":16,"items":[{"name":"천리해동검도","tel":"031-655-5379","addr":"경기도 안성시 공도읍 용두리 234번지","indutype":"학원 - 예·체능계학원","category":"study"}]}]