[{"lat":"37.36027847","long":"126.92998534","imageIndex":13,"items":[{"name":"(주)광운골프아카데미","tel":"031-399-5011","addr":"경기도 군포시 산본동 1123-3마스타빌딩301,401,501,601,701","indutype":"레저업소 - 골프연습장","category":"leisure"}]},{"lat":"37.36009022","long":"126.93156581","imageIndex":13,"items":[{"name":"(주)보드게임카페레드버튼산본","tel":"031-399-3799","addr":"경기도 군포시 산본동 1133-1번지 성보빌딩 지층 1,2호","indutype":"레저업소 - 기타레져업소","category":"leisure"},{"name":"돌돌당구장","tel":"070-8944-7120","addr":"경기도 군포시 산본동 1133-1번지 성보빌딩 7층","indutype":"레저업소 - 당 구 장","category":"leisure"},{"name":"돌돌당구장","tel":"070-8944-7120","addr":"경기도 군포시 산본동 1133-1번지 7층 701,702,703,704,708,710호","indutype":"레저업소 - 당 구 장","category":"leisure"},{"name":"산본 주짓수","tel":"031-399-7052","addr":"경기도 군포시 산본동 1133-1번지 성보빌딩 405,406호","indutype":"레저업소 - 헬스클럽","category":"leisure"},{"name":"셜록홈즈 산본점","tel":"031-392-8650","addr":"경기도 군포시 산본동 1133-1번지 성보빌딩 502호 503호","indutype":"레저업소 - 기타레져업소","category":"leisure"}]},{"lat":"37.373918376","long":"126.94353124","imageIndex":13,"items":[{"name":"(주)비엘비에이젼시","tel":"031-384-3313","addr":"경기도 군포시 산본동 1026-10번지 금정삼성쉐르빌 제1-904호일부","indutype":"레저업소 - 기타레져업소","category":"leisure"},{"name":"금정스크린골프","tel":"031-457-2934","addr":"경기도 군포시 산본동 1026-10번지 금정삼성쉐르빌 2층 208,209,212,213,214호","indutype":"레저업소 - 스크린골프","category":"leisure"},{"name":"큐노래연습장","tel":"031-429-4321","addr":"경기도 군포시 산본동 1026-10번지 금정삼성쉐르빌 2층 211호","indutype":"레저업소 - 노 래 방","category":"leisure"}]},{"lat":"37.371781681","long":"126.94100407","imageIndex":13,"items":[{"name":"(주)에스바디워크필라테스 (금정점)","tel":"02-830-4184","addr":"경기도 군포시 산본동 92-4번지 3층","indutype":"레저업소 - 헬스클럽","category":"leisure"}]},{"lat":"37.358225521","long":"126.93223353","imageIndex":13,"items":[{"name":"(주)에스바디워크필라테스 (산본점)","tel":"02-830-4184","addr":"경기도 군포시 산본동 1142-5번지 금화프라자 607호","indutype":"레저업소 - 헬스클럽","category":"leisure"},{"name":"MC GYM(복싱)","tel":"031-391-7989","addr":"경기도 군포시 산본동 1142-5번지 금화프라자 301호","indutype":"레저업소 - 헬스클럽","category":"leisure"},{"name":"MISTER COIN 노래연습장","tel":"","addr":"경기도 군포시 산본동 1142-5번지 금화프라자 제지하층 101호,102호,102-1호","indutype":"레저업소 - 노 래 방","category":"leisure"},{"name":"에스바디워크필라테스(산본점)","tel":"031-399-9609","addr":"경기도 군포시 산본동 1142-5번지 금화프라자 607호","indutype":"레저업소 - 헬스클럽","category":"leisure"},{"name":"에이제이근력컨디셔닝재활아카데미","tel":"031-399-0902","addr":"경기도 군포시 산본동 1142-5번지 금화프라자 407호","indutype":"레저업소 - 헬스클럽","category":"leisure"}]},{"lat":"37.371471743","long":"126.93447901","imageIndex":13,"items":[{"name":"(주)포사이버더골프아카데미","tel":"02-711-7119","addr":"경기도 군포시 산본동 1061번지 7층 701,702,703호","indutype":"레저업소 - 스크린골프","category":"leisure"},{"name":"엔젤스 코인노래연습장업","tel":"","addr":"경기도 군포시 산본동 1061번지 지층 101호","indutype":"레저업소 - 노 래 방","category":"leisure"},{"name":"크로스핏산본","tel":"031-399-2481","addr":"경기도 군포시 산본동 1061번지 지하2층 201호","indutype":"레저업소 - 헬스클럽","category":"leisure"}]},{"lat":"37.370862696","long":"126.94109514","imageIndex":13,"items":[{"name":"21세기노래연습장","tel":"031-391-4134","addr":"경기도 군포시 산본동 238-9번지 지하1층","indutype":"레저업소 - 노 래 방","category":"leisure"}]},{"lat":"37.36002678","long":"126.93095633","imageIndex":13,"items":[{"name":"25시노래연습장","tel":"031-397-8852","addr":"경기도 군포시 산본동 1136번지 한솔프라자 702동 703호","indutype":"레저업소 - 노 래 방","category":"leisure"},{"name":"바나나짐휘트니스","tel":"031-394-4471","addr":"경기도 군포시 산본동 1136번지 한솔프라자 801,802호","indutype":"레저업소 - 헬스클럽","category":"leisure"}]},{"lat":"37.368644764","long":"126.93839888","imageIndex":13,"items":[{"name":"FM노래방","tel":"031-395-2885","addr":"경기도 군포시 산본동 225-1번지","indutype":"레저업소 - 노 래 방","category":"leisure"}]},{"lat":"37.359255406","long":"126.92240103","imageIndex":13,"items":[{"name":"GS스크린골프 지스윙","tel":"031-399-3135","addr":"경기도 군포시 산본동 1151번지 GS휘트니스클럽빌딩 202호","indutype":"레저업소 - 스크린골프","category":"leisure"},{"name":"GS스크린골프존","tel":"031-391-0759","addr":"경기도 군포시 산본동 1151번지 GS휘트니스클럽빌딩 301호","indutype":"레저업소 - 스크린골프","category":"leisure"},{"name":"헬로방방","tel":"031-398-8879","addr":"경기도 군포시 산본동 1151번지 GS휘트니스클럽빌딩 110호","indutype":"레저업소 - 기타레져업소","category":"leisure"}]},{"lat":"37.372475924","long":"126.94189538","imageIndex":13,"items":[{"name":"J노래연습장","tel":"031-394-2700","addr":"경기도 군포시 산본동 98-11번지 2층","indutype":"레저업소 - 노 래 방","category":"leisure"},{"name":"탑당구장","tel":"031-397-0970","addr":"경기도 군포시 산본동 98-11번지 금본빌딩 3층","indutype":"레저업소 - 당 구 장","category":"leisure"}]},{"lat":"37.357837664","long":"126.93153408","imageIndex":13,"items":[{"name":"J볼링장","tel":"031-000-0000","addr":"경기도 군포시 산본동 1142-7번지 중앙타워 6층 602호","indutype":"레저업소 - 볼 링 장","category":"leisure"},{"name":"더바른","tel":"031-000-0000","addr":"경기도 군포시 산본동 1142-7번지 중앙타워 3층 310호","indutype":"레저업소 - 헬스클럽","category":"leisure"},{"name":"제이스크린야구","tel":"031-000-0000","addr":"경기도 군포시 산본동 1142-7번지 중앙타워 6층 601호","indutype":"레저업소 - 기타레져업소","category":"leisure"},{"name":"채움필라테스","tel":"031-391-7033","addr":"경기도 군포시 산본동 1142-7번지 중앙타워 302호","indutype":"레저업소 - 헬스클럽","category":"leisure"}]},{"lat":"37.371025538","long":"126.94237071","imageIndex":13,"items":[{"name":"RG노래연습장","tel":"031-399-4878","addr":"경기도 군포시 산본동 259-13번지 지하1층","indutype":"레저업소 - 노 래 방","category":"leisure"}]},{"lat":"37.360811498","long":"126.93234399","imageIndex":13,"items":[{"name":"TWIN체대입시","tel":"031-398-7092","addr":"경기도 군포시 산본동 1125번지 현대코아텔 제지하1층 101호","indutype":"레저업소 - 헬스클럽","category":"leisure"}]},{"lat":"37.371309463","long":"126.93430982","imageIndex":13,"items":[{"name":"가자노래연습장","tel":"031-394-2015","addr":"경기도 군포시 산본동 1061-1번지","indutype":"레저업소 - 노 래 방","category":"leisure"},{"name":"샹떼PC방 산본점","tel":"031-392-1788","addr":"경기도 군포시 산본동 1061-1번지 현대아카데미센터 301,302호","indutype":"레저업소 - 기타레져업소","category":"leisure"},{"name":"오페라당구장","tel":"031-392-3949","addr":"경기도 군포시 산본동 1061-1번지 현대아카데미센타 203호","indutype":"레저업소 - 당 구 장","category":"leisure"},{"name":"피크오브필라테스 산본점","tel":"","addr":"경기도 군포시 산본동 1061-1번지 현대아카데미센타 501,502호","indutype":"레저업소 - 헬스클럽","category":"leisure"}]},{"lat":"37.370502736","long":"126.94195343","imageIndex":13,"items":[{"name":"고향노래연습장","tel":"031-393-7066","addr":"경기도 군포시 산본동 252-2번지 지하1층","indutype":"레저업소 - 노 래 방","category":"leisure"}]},{"lat":"37.358585377","long":"126.93131891","imageIndex":13,"items":[{"name":"골든키이스케이프","tel":"031-392-3386","addr":"경기도 군포시 산본동 1140-2번지 산수빌딩 4층 402호","indutype":"레저업소 - 기타레져업소","category":"leisure"},{"name":"무제한노래연습장","tel":"","addr":"경기도 군포시 산본동 1140-2번지 산수빌딩 4층 401호","indutype":"레저업소 - 노 래 방","category":"leisure"},{"name":"앤즐PC방","tel":"031-395-3001","addr":"경기도 군포시 산본동 1140-2번지 산수빌딩 지하층 101호","indutype":"레저업소 - 기타레져업소","category":"leisure"}]},{"lat":"37.358811835","long":"126.93333917","imageIndex":13,"items":[{"name":"골프존파크 산본 칼라힐골프","tel":"031-392-8420","addr":"경기도 군포시 산본동 1142-2번지 대우디오플러스 B102,B103호","indutype":"레저업소 - 스크린골프","category":"leisure"},{"name":"리반요가","tel":"031-393-8885","addr":"경기도 군포시 산본동 1142-2번지 대우디오플러스 308호","indutype":"레저업소 - 헬스클럽","category":"leisure"},{"name":"팀윤GYM(산본점)","tel":"031-393-8296","addr":"경기도 군포시 산본동 1142-2번지 대우디오플러스3층 3층 310호","indutype":"레저업소 - 헬스클럽","category":"leisure"}]},{"lat":"37.361645568","long":"126.92612352","imageIndex":13,"items":[{"name":"골프존파크 산본한숲골프존","tel":"031-396-7008","addr":"경기도 군포시 산본동 1146번지 한숲 스포츠센터 4층 401호","indutype":"레저업소 - 스크린골프","category":"leisure"}]},{"lat":"37.358784398","long":"126.93265065","imageIndex":13,"items":[{"name":"공간DVD영화관","tel":"031-396-9325","addr":"경기도 군포시 산본동 1142-12번지 군포상가 502호","indutype":"레저업소 - 기타레져업소","category":"leisure"},{"name":"신세대노래연습장","tel":"031-398-8002","addr":"경기도 군포시 산본동 1142-12 군포상가6층605호,606호","indutype":"레저업소 - 노 래 방","category":"leisure"},{"name":"원 펀치 쓰리 칼로리","tel":"031-392-2238","addr":"경기도 군포시 산본동 1142-12번지 6층 605,606호","indutype":"레저업소 - 헬스클럽","category":"leisure"},{"name":"카리스마당구클럽","tel":"","addr":"경기도 군포시 산본동 1142-12 404호,405호","indutype":"레저업소 - 당 구 장","category":"leisure"},{"name":"태극권","tel":"031-340-7772","addr":"경기도 군포시 산본동 1142-12번지 군포상가 603호","indutype":"레저업소 - 헬스클럽","category":"leisure"}]},{"lat":"37.371004482","long":"126.93670345","imageIndex":13,"items":[{"name":"군포복싱클럽","tel":"031-391-4048","addr":"경기도 군포시 산본동 213-11번지 지층","indutype":"레저업소 - 헬스클럽","category":"leisure"}]},{"lat":"37.358027095","long":"126.9318951","imageIndex":13,"items":[{"name":"굿모닝 골프존스크린","tel":"031-396-0733","addr":"경기도 군포시 산본동 1142-6번지 신명산빌딩 4층 402,403,404호","indutype":"레저업소 - 스크린골프","category":"leisure"}]},{"lat":"37.35991789","long":"126.92970349","imageIndex":13,"items":[{"name":"그녀의 피트니스 디얼핏(산본점)","tel":"031-393-4239","addr":"경기도 군포시 산본동 1123-4번지 유공프라자 8층 801호","indutype":"레저업소 - 헬스클럽","category":"leisure"},{"name":"김영희탁구교실","tel":"031-397-9277","addr":"경기도 군포시 산본동 1123-4번지 유공프라자 801호","indutype":"레저업소 - 기타레져업소","category":"leisure"},{"name":"샹떼PC방","tel":"","addr":"경기도 군포시 산본동 1123-4번지 유공프라자 제지하1층 1,2,3호","indutype":"레저업소 - 기타레져업소","category":"leisure"},{"name":"이젠 필라테스","tel":"","addr":"경기도 군포시 산본동 1123-4번지 유공프라자 601호","indutype":"레저업소 - 헬스클럽","category":"leisure"}]},{"lat":"37.358729689","long":"126.9315671","imageIndex":13,"items":[{"name":"그린당구장","tel":"031-443-0209","addr":"경기도 군포시 산본동 1140-1 계정빌딩 제5층 503호~504호","indutype":"레저업소 - 당 구 장","category":"leisure"},{"name":"제트(Z) PC방","tel":"070-4234-9218","addr":"경기도 군포시 산본동 1140-1번지 계정빌딩 4층","indutype":"레저업소 - 기타레져업소","category":"leisure"},{"name":"쩐다 (JJEONDA)","tel":"","addr":"경기도 군포시 산본동 1140-1번지 계정빌딩 3층 301~302호","indutype":"레저업소 - 기타레져업소","category":"leisure"}]},{"lat":"37.360197085","long":"126.92951133","imageIndex":13,"items":[{"name":"그린존스크린골프","tel":"031-397-7881","addr":"경기도 군포시 산본동 1123-5번지 신원타워빌딩 1101동 1102호","indutype":"레저업소 - 스크린골프","category":"leisure"},{"name":"로데오 스크린골프","tel":"031-397-7881","addr":"경기도 군포시 산본동 1123-5번지 신원타워빌딩 11층 1101호 일부,1102호 전부","indutype":"레저업소 - 스크린골프","category":"leisure"},{"name":"음성박씨사인공파청계동종중 산본2지점","tel":"031-395-0009","addr":"경기도 군포시 산본동 1123-5번지 신원타워빌딩 801호","indutype":"레저업소 - 헬스클럽","category":"leisure"},{"name":"점핑플레이","tel":"031-398-8825","addr":"경기도 군포시 산본동 1123-5번지 6층 602호~603호","indutype":"레저업소 - 기타레져업소","category":"leisure"},{"name":"캔디마운틴","tel":"031-396-3696","addr":"경기도 군포시 산본동 1123-5신원타워7층701-2","indutype":"레저업소 - 기타레져업소","category":"leisure"}]},{"lat":"37.371331598","long":"126.94181728","imageIndex":13,"items":[{"name":"금정테마노래연습장","tel":"031-394-5959","addr":"경기도 군포시 산본동 265-6번지 세환빌딩 7층","indutype":"레저업소 - 노 래 방","category":"leisure"},{"name":"시나브로2","tel":"031-392-7776","addr":"경기도 군포시 산본동 265-6번지 세환타워 2층 201호","indutype":"레저업소 - 헬스클럽","category":"leisure"},{"name":"엔피아PC방","tel":"070-2245-1677","addr":"경기도 군포시 산본동 265-6번지 세환타워 4층","indutype":"레저업소 - 기타레져업소","category":"leisure"}]},{"lat":"37.359144237","long":"126.93170215","imageIndex":13,"items":[{"name":"나나만화카페 (산본)","tel":"031-398-8833","addr":"경기도 군포시 산본동 1135-1번지 롯데프라자 304호 305호","indutype":"레저업소 - 기타레져업소","category":"leisure"},{"name":"모어스플레이","tel":"031-399-8130","addr":"경기도 군포시 산본동 1135-1번지 롯데프라자 301,302호","indutype":"레저업소 - 기타레져업소","category":"leisure"},{"name":"보드스쿨","tel":"031-393-8658","addr":"경기도 군포시 산본동 1135-1번지 롯데프라자 4층 404호","indutype":"레저업소 - 기타레져업소","category":"leisure"},{"name":"빌리아드 캠프","tel":"031-391-3949","addr":"경기도 군포시 산본동 1135-1번지 롯데프라자 6층","indutype":"레저업소 - 당 구 장","category":"leisure"},{"name":"캡슐노래빠","tel":"031-397-3313","addr":"경기도 군포시 산본동 1135-1번지 롯데프라자 403호","indutype":"레저업소 - 노 래 방","category":"leisure"},{"name":"캡슐노래연습장","tel":"031-395-1456","addr":"경기도 군포시 산본동 1135-1번지 롯데프라자 406호","indutype":"레저업소 - 노 래 방","category":"leisure"}]},{"lat":"37.358864759","long":"126.93143152","imageIndex":13,"items":[{"name":"나인피씨방","tel":"070-6332-5228","addr":"경기도 군포시 산본동 1140번지 동원프라자 지하1층","indutype":"레저업소 - 기타레져업소","category":"leisure"}]},{"lat":"37.371277879","long":"126.9424834","imageIndex":13,"items":[{"name":"놀러와게임랜드","tel":"031-111-1111","addr":"경기도 군포시 산본동 259-10번지 1층","indutype":"레저업소 - 기타레져업소","category":"leisure"},{"name":"빌리아드클럽","tel":"031-397-2334","addr":"경기도 군포시 산본동 259-10번지 2층","indutype":"레저업소 - 당 구 장","category":"leisure"},{"name":"와바TWO노래연습장","tel":"031-392-4379","addr":"경기도 군포시 산본동 259-10번지 2층","indutype":"레저업소 - 노 래 방","category":"leisure"}]},{"lat":"37.359585903","long":"126.93198393","imageIndex":13,"items":[{"name":"놀자낚시카페","tel":"070-4147-1122","addr":"경기도 군포시 산본동 1134번지 센타빌딩 701호","indutype":"레저업소 - 기타레져업소","category":"leisure"},{"name":"쥬얼리노래연습장","tel":"031-393-6879","addr":"경기도 군포시 산본동 1134번지 센타A동지층8호~20호","indutype":"레저업소 - 노 래 방","category":"leisure"},{"name":"히든코인싱어 노래연습장","tel":"070-5111-3323","addr":"경기도 군포시 산본동 1134번지 제비1층 8호~20호","indutype":"레저업소 - 노 래 방","category":"leisure"}]},{"lat":"37.372888625","long":"126.93856459","imageIndex":13,"items":[{"name":"달빛노래연습장","tel":"031-393-9070","addr":"경기도 군포시 산본동 80-5번지 지하1층","indutype":"레저업소 - 노 래 방","category":"leisure"},{"name":"달빛노래연습장","tel":"031-391-1964","addr":"경기도 군포시 산본동 80-5번지 G동 1층","indutype":"레저업소 - 노 래 방","category":"leisure"}]},{"lat":"37.359171633","long":"126.93231166","imageIndex":13,"items":[{"name":"대한민국 NO.1 PC방","tel":"","addr":"경기도 군포시 산본동 1134-2번지 신명타워 502~505호","indutype":"레저업소 - 기타레져업소","category":"leisure"},{"name":"슈가노래연습장","tel":"031-395-6474","addr":"경기도 군포시 산본동 1134-2번지 신명타워 3001호 3002호","indutype":"레저업소 - 노 래 방","category":"leisure"},{"name":"청춘노래연습장","tel":"031-391-1515","addr":"경기도 군포시 산본동 1134-2번지 신명빌딩지하B1002,B1003호","indutype":"레저업소 - 노 래 방","category":"leisure"}]},{"lat":"37.367887722","long":"126.93804957","imageIndex":13,"items":[{"name":"더 라인 필라테스 & 자이로토닉센터","tel":"031-393-3327","addr":"경기도 군포시 산본동 1240번지 래미안하이어스 147동 3204호","indutype":"레저업소 - 헬스클럽","category":"leisure"}]},{"lat":"37.371977213","long":"126.93605909","imageIndex":13,"items":[{"name":"더캠프PC방 산본점","tel":"","addr":"경기도 군포시 산본동 206-1번지 태림빌딩 지하1층","indutype":"레저업소 - 기타레져업소","category":"leisure"}]},{"lat":"37.373636113","long":"126.93792043","imageIndex":13,"items":[{"name":"도깨비노래연습장","tel":"031-395-3444","addr":"경기도 군포시 산본동 73-32번지 2층","indutype":"레저업소 - 노 래 방","category":"leisure"},{"name":"도깨비노래연습장","tel":"031-395-3444","addr":"경기도 군포시 산본동 73-32번지 2층","indutype":"레저업소 - 노 래 방","category":"leisure"}]},{"lat":"37.372112416","long":"126.93614928","imageIndex":13,"items":[{"name":"둘리당구장","tel":"031-423-4433","addr":"경기도 군포시 산본동 206-7번지 4층","indutype":"레저업소 - 당 구 장","category":"leisure"},{"name":"숨인컴퍼니","tel":"031-1688-2320","addr":"경기도 군포시 산본동 206-7번지 3층","indutype":"레저업소 - 헬스클럽","category":"leisure"}]},{"lat":"37.36519799","long":"126.929958","imageIndex":13,"items":[{"name":"드림골프스쿨","tel":"031-393-1149","addr":"경기도 군포시 산본동 1094번지 삼대빌딩 2층","indutype":"레저업소 - 골프연습장","category":"leisure"}]},{"lat":"37.374692127","long":"126.94134038","imageIndex":13,"items":[{"name":"라온","tel":"070-9144-7778","addr":"경기도 군포시 산본동 79-70번지 3층","indutype":"레저업소 - 헬스클럽","category":"leisure"}]},{"lat":"37.359387782","long":"126.93215343","imageIndex":13,"items":[{"name":"락휴노래연습장","tel":"031-392-7107","addr":"경기도 군포시 산본동 1134-1번지 센타빌딩 502호","indutype":"레저업소 - 노 래 방","category":"leisure"},{"name":"리치PC방","tel":"070-5130-8972","addr":"경기도 군포시 산본동 1134-1번지 센타빌딩 지층","indutype":"레저업소 - 기타레져업소","category":"leisure"},{"name":"바디케어운동센터","tel":"031-392-9685","addr":"경기도 군포시 산본동 1134-1번지 센타빌딩 404-1호","indutype":"레저업소 - 헬스클럽","category":"leisure"},{"name":"스트라이크존","tel":"031-398-0077","addr":"경기도 군포시 산본동 1134-1번지 센타빌딩 6층","indutype":"레저업소 - 기타레져업소","category":"leisure"},{"name":"준당구장","tel":"070-7804-2323","addr":"경기도 군포시 산본동 1134-1번지 센타빌딩","indutype":"레저업소 - 당 구 장","category":"leisure"},{"name":"준당구장","tel":"031-391-4939","addr":"경기도 군포시 산본동 1134-1번지 센터빌딩 504호","indutype":"레저업소 - 당 구 장","category":"leisure"},{"name":"준당구장","tel":"031-391-4939","addr":"경기도 군포시 산본동 1134-1번지 센타빌딩","indutype":"레저업소 - 당 구 장","category":"leisure"}]},{"lat":"37.359459903","long":"126.93222109","imageIndex":13,"items":[{"name":"락휴노래연습장","tel":"031-392-7107","addr":"경기도 군포시 산본동 1134-1번지 센타빌딩 B동 502호","indutype":"레저업소 - 노 래 방","category":"leisure"}]},{"lat":"37.358477507","long":"126.93173665","imageIndex":13,"items":[{"name":"레몬노래연습장","tel":"031-398-6024","addr":"경기도 군포시 산본동 1141-1번지 청진빌딩 지하1층 2호","indutype":"레저업소 - 노 래 방","category":"leisure"},{"name":"플라잉&서핑요가by cosery산본점","tel":"031-343-6561","addr":"경기도 군포시 산본동 1141-1번지 청진빌딩 6층 601-604호","indutype":"레저업소 - 헬스클럽","category":"leisure"}]},{"lat":"37.359001227","long":"126.93364376","imageIndex":13,"items":[{"name":"로라필라테스","tel":"","addr":"경기도 군포시 산본동 1142-1번지 유화프라자 7층 3-1호","indutype":"레저업소 - 헬스클럽","category":"leisure"}]},{"lat":"37.359450131","long":"126.93095688","imageIndex":13,"items":[{"name":"리얼배틀그라운드 산본벙커","tel":"070-4402-2747","addr":"경기도 군포시 산본동 1138-1번지 거성빌딩3차 1층 106호","indutype":"레저업소 - 기타레져업소","category":"leisure"},{"name":"프로방스노래연습장","tel":"031-393-3777","addr":"경기도 군포시 산본동 1138-1 거성3차빌딩지하1층","indutype":"레저업소 - 노 래 방","category":"leisure"}]},{"lat":"37.372331067","long":"126.94056333","imageIndex":13,"items":[{"name":"마돈나노래연습장","tel":"031-393-7066","addr":"경기도 군포시 산본동 93-11번지","indutype":"레저업소 - 노 래 방","category":"leisure"},{"name":"진주노래연습장","tel":"031-393-7066","addr":"경기도 군포시 산본동 93-11번지 지층","indutype":"레저업소 - 노 래 방","category":"leisure"}]},{"lat":"37.370222448","long":"126.94009092","imageIndex":13,"items":[{"name":"만남노래연습장","tel":"031-394-0924","addr":"경기도 군포시 산본동 236-9번지","indutype":"레저업소 - 노 래 방","category":"leisure"}]},{"lat":"37.358360239","long":"126.93151101","imageIndex":13,"items":[{"name":"매직앤PC방","tel":"070-5020-5323","addr":"경기도 군포시 산본동 1141번지 동선빌딩 지하1층 1,2호","indutype":"레저업소 - 기타레져업소","category":"leisure"}]},{"lat":"37.35911792","long":"126.93289867","imageIndex":13,"items":[{"name":"맥스노래연습장","tel":"031-457-2607","addr":"경기도 군포시 산본동 1128-1번지 동아프리자 지하1층 1","indutype":"레저업소 - 노 래 방","category":"leisure"},{"name":"조이프래닛","tel":"031-399-5780","addr":"경기도 군포시 산본동 1128-1번지 동아프라자 303동 304호","indutype":"레저업소 - 기타레져업소","category":"leisure"},{"name":"퍼펙트 당구장","tel":"070-4791-6663","addr":"경기도 군포시 산본동 1128-1번지 동아프라자빌딩 제601,602,603,604호","indutype":"레저업소 - 당 구 장","category":"leisure"}]},{"lat":"37.366026418","long":"126.92914442","imageIndex":13,"items":[{"name":"메모리휘트니스","tel":"031-391-4445","addr":"경기도 군포시 산본동 1098번지 대주빌딩 701호","indutype":"레저업소 - 헬스클럽","category":"leisure"},{"name":"점핑파크 산본점","tel":"031-392-8879","addr":"경기도 군포시 산본동 1098번지 대주빌딩 2층","indutype":"레저업소 - 기타레져업소","category":"leisure"}]},{"lat":"37.362812797","long":"126.92006058","imageIndex":13,"items":[{"name":"몸다운필라테스","tel":"","addr":"경기도 군포시 산본동 1148번지 묘향(롯데)아파트","indutype":"레저업소 - 헬스클럽","category":"leisure"}]},{"lat":"37.359333334","long":"126.93151009","imageIndex":13,"items":[{"name":"문정요가","tel":"031-2490-4244","addr":"경기도 군포시 산본동 1135번지 광림빌딩 604호","indutype":"레저업소 - 헬스클럽","category":"leisure"},{"name":"본스PC방","tel":"070-8816-1183","addr":"경기도 군포시 산본동 1135번지 광림빌딩 지하1층","indutype":"레저업소 - 기타레져업소","category":"leisure"},{"name":"킹콩당구장","tel":"","addr":"경기도 군포시 산본동 1135번지 광림빌딩 8층","indutype":"레저업소 - 당 구 장","category":"leisure"}]},{"lat":"37.359197964","long":"126.93114901","imageIndex":13,"items":[{"name":"뮤지션노래연습장","tel":"070-4214-3511","addr":"경기도 군포시 산본동 1139번지 거성빌딩2차 4층 401,405호","indutype":"레저업소 - 노 래 방","category":"leisure"},{"name":"반반노래연습장 산본점","tel":"031-399-4467","addr":"경기도 군포시 산본동 1139번지 거성2차빌딩 4층","indutype":"레저업소 - 노 래 방","category":"leisure"},{"name":"스카이당구장","tel":"070-4001-9159","addr":"경기도 군포시 산본동 1139번지 거성2차빌딩 7층 701호","indutype":"레저업소 - 당 구 장","category":"leisure"},{"name":"시네마노래연습장","tel":"031-394-4101","addr":"경기도 군포시 산본동 1139번지 거성빌딩2차 501동 502호","indutype":"레저업소 - 노 래 방","category":"leisure"},{"name":"우따노래연습장","tel":"031-399-4467","addr":"경기도 군포시 산본동 1139번지 거성빌딩2차 4층 401,405호","indutype":"레저업소 - 노 래 방","category":"leisure"},{"name":"작당 산본로데오점","tel":"031-391-2377","addr":"경기도 군포시 산본동 1139번지 거성빌딩2차 7층","indutype":"레저업소 - 당 구 장","category":"leisure"}]},{"lat":"37.359918404","long":"126.93053879","imageIndex":13,"items":[{"name":"뮤직박스노래연습장","tel":"031-392-8004","addr":"경기도 군포시 산본동 1137번지 동화프라자 지하1층","indutype":"레저업소 - 노 래 방","category":"leisure"}]},{"lat":"37.371002895","long":"126.93392625","imageIndex":13,"items":[{"name":"바디라인","tel":"031-393-1379","addr":"경기도 군포시 산본동 1061-3번지","indutype":"레저업소 - 헬스클럽","category":"leisure"},{"name":"산본탁구클럽","tel":"031-392-9875","addr":"경기도 군포시 산본동 1061-3번지","indutype":"레저업소 - 기타레져업소","category":"leisure"},{"name":"영노래연습장","tel":"031-397-2746","addr":"경기도 군포시 산본동 1061-3번지 미성프라자 지하 202호","indutype":"레저업소 - 노 래 방","category":"leisure"},{"name":"영노래연습장","tel":"031-4660-2351","addr":"경기도 군포시 산본동 1061-3번지 미성프라자 지층 202호","indutype":"레저업소 - 노 래 방","category":"leisure"},{"name":"제노 PC Zone","tel":"070-8816-1183","addr":"경기도 군포시 산본동 1061-3번지 미성프라자 지하층 101호","indutype":"레저업소 - 기타레져업소","category":"leisure"},{"name":"제노PC Zone","tel":"070-8668-3826","addr":"경기도 군포시 산본동 1061-3번지","indutype":"레저업소 - 기타레져업소","category":"leisure"}]},{"lat":"37.358558876","long":"126.93219936","imageIndex":13,"items":[{"name":"바디채널휘트니스","tel":"031-395-0061","addr":"경기도 군포시 산본동 1142-10번지 동산 상가 801호","indutype":"레저업소 - 헬스클럽","category":"leisure"},{"name":"퀸스애비뉴노래연습장","tel":"031-381-8899","addr":"경기도 군포시 산본동 1142-10번지 동산플라자 3층 301호~303호","indutype":"레저업소 - 노 래 방","category":"leisure"}]},{"lat":"37.359305818","long":"126.93070869","imageIndex":13,"items":[{"name":"바로피트니스 (VARO)산본점","tel":"031-399-7745","addr":"경기도 군포시 산본동 1138-2번지 6층 601호","indutype":"레저업소 - 헬스클럽","category":"leisure"},{"name":"일(1)%PC아레나","tel":"070-2992-0112","addr":"경기도 군포시 산본동 1138-2번지 성훈빌딩 지하 제비 01호","indutype":"레저업소 - 기타레져업소","category":"leisure"}]},{"lat":"37.359676052","long":"126.93206286","imageIndex":13,"items":[{"name":"박광열 당구클럽","tel":"031-398-8486","addr":"경기도 군포시 산본동 1134번지 센타빌딩A동 6층","indutype":"레저업소 - 당 구 장","category":"leisure"}]},{"lat":"37.370583541","long":"126.94140018","imageIndex":13,"items":[{"name":"붕붕노래연습장","tel":"031-393-1124","addr":"경기도 군포시 산본동 239-9번지 지층","indutype":"레저업소 - 노 래 방","category":"leisure"}]},{"lat":"37.37039379","long":"126.94037301","imageIndex":13,"items":[{"name":"블랙노래연습장","tel":"031-392-6972","addr":"경기도 군포시 산본동 238-2번지 지하1층","indutype":"레저업소 - 노 래 방","category":"leisure"}]},{"lat":"37.370611296","long":"126.94281133","imageIndex":13,"items":[{"name":"비앤에스복싱","tel":"031-394-7989","addr":"경기도 군포시 산본동 248-1번지 4층","indutype":"레저업소 - 헬스클럽","category":"leisure"},{"name":"에이스 당구장","tel":"031-399-5512","addr":"경기도 군포시 산본동 248-1번지 3층","indutype":"레저업소 - 당 구 장","category":"leisure"}]},{"lat":"37.372111897","long":"126.93523483","imageIndex":13,"items":[{"name":"산본당구장","tel":"031-393-3339","addr":"경기도 군포시 산본동 1060번지 산본타운 601호,602호","indutype":"레저업소 - 당 구 장","category":"leisure"}]},{"lat":"37.359451309","long":"126.93292093","imageIndex":13,"items":[{"name":"산본당구장","tel":"031-226-4025","addr":"경기도 군포시 산본동 1129-1번지 럭키빌딩 602동 603호","indutype":"레저업소 - 당 구 장","category":"leisure"},{"name":"옥소리노래방","tel":"031-393-7532","addr":"경기도 군포시 산본동 1129-1번지 럭키빌딩 지하층","indutype":"레저업소 - 노 래 방","category":"leisure"}]},{"lat":"37.373275653","long":"126.93781914","imageIndex":13,"items":[{"name":"산본볼링장","tel":"031-395-3456","addr":"경기도 군포시 산본동 71번지","indutype":"레저업소 - 볼 링 장","category":"leisure"},{"name":"주식회사 산본볼링장","tel":"031-395-3456","addr":"경기도 군포시 산본동 71번지","indutype":"레저업소 - 볼 링 장","category":"leisure"}]},{"lat":"37.360667086","long":"126.93192647","imageIndex":13,"items":[{"name":"산본천부경명상센타","tel":"031-393-2778","addr":"경기도 군포시 산본동 1132번지 창선빌딩 601호","indutype":"레저업소 - 헬스클럽","category":"leisure"}]},{"lat":"37.359613432","long":"126.93281919","imageIndex":13,"items":[{"name":"선학도","tel":"031-399-7749","addr":"경기도 군포시 산본동 1129번지 청우빌딩 5층 503호","indutype":"레저업소 - 헬스클럽","category":"leisure"}]},{"lat":"37.371526535","long":"126.93575467","imageIndex":13,"items":[{"name":"세계해동검도","tel":"031-441-1112","addr":"경기도 군포시 산본동 207-12번지 산본두성프라자 403호","indutype":"레저업소 - 기타레져업소","category":"leisure"}]},{"lat":"37.359639529","long":"126.93126147","imageIndex":13,"items":[{"name":"세븐당구장","tel":"070-7302-1945","addr":"경기도 군포시 산본동 1136-2번지 삼일빌딩 6층 601,602호","indutype":"레저업소 - 당 구 장","category":"leisure"},{"name":"신바람노래방","tel":"031-394-1619","addr":"경기도 군포시 산본동 1136-2번지 삼일빌딩 6층","indutype":"레저업소 - 노 래 방","category":"leisure"},{"name":"제노pc방","tel":"032-000-0000","addr":"경기도 군포시 산본동 1136-2번지 삼일빌딩 지하1층","indutype":"레저업소 - 기타레져업소","category":"leisure"}]},{"lat":"37.358089764","long":"126.93122908","imageIndex":13,"items":[{"name":"센트럴볼링센터","tel":"031-393-5200","addr":"경기도 군포시 산본동 1142-8번지 성원빌딩 지하 1호","indutype":"레저업소 - 볼 링 장","category":"leisure"}]},{"lat":"37.367554796","long":"126.93887394","imageIndex":13,"items":[{"name":"쇼킹노래연습장","tel":"031-394-2314","addr":"경기도 군포시 산본동 230-5번지","indutype":"레저업소 - 노 래 방","category":"leisure"}]},{"lat":"37.359089705","long":"126.93092336","imageIndex":13,"items":[{"name":"수노래연습장","tel":"031-399-8996","addr":"경기도 군포시 산본동 1139-3번지 거성1차 401호","indutype":"레저업소 - 노 래 방","category":"leisure"},{"name":"키키당구클럽","tel":"031-000-0000","addr":"경기도 군포시 산본동 1139-3번지 거성빌딩1차 7층 701호","indutype":"레저업소 - 당 구 장","category":"leisure"}]},{"lat":"37.349418991","long":"126.92642941","imageIndex":13,"items":[{"name":"수리산탁구클럽","tel":"031-391-5735","addr":"경기도 군포시 산본동 1156-8번지","indutype":"레저업소 - 기타레져업소","category":"leisure"}]},{"lat":"37.370836509","long":"126.94273212","imageIndex":13,"items":[{"name":"슈퍼스타노래연습장","tel":"031-391-6819","addr":"경기도 군포시 산본동 252-9번지 3층","indutype":"레저업소 - 노 래 방","category":"leisure"},{"name":"스타노래연습장","tel":"031-391-6817","addr":"경기도 군포시 산본동 252-9번지 2층","indutype":"레저업소 - 노 래 방","category":"leisure"}]},{"lat":"37.36969846","long":"126.93750613","imageIndex":13,"items":[{"name":"스마일노래연습장","tel":"","addr":"경기도 군포시 산본동 216-15번지 지층","indutype":"레저업소 - 노 래 방","category":"leisure"},{"name":"황금당구클럽","tel":"031-396-4939","addr":"경기도 군포시 산본동 216-15번지 3층","indutype":"레저업소 - 당 구 장","category":"leisure"}]},{"lat":"37.371141004","long":"126.93919829","imageIndex":13,"items":[{"name":"스타당구장","tel":"070-7139-0895","addr":"경기도 군포시 산본동 90-7번지 명지빌딩 지하1층","indutype":"레저업소 - 당 구 장","category":"leisure"}]},{"lat":"37.359811339","long":"126.93228849","imageIndex":13,"items":[{"name":"스타당구클럽","tel":"031-399-0286","addr":"경기도 군포시 산본동 1130-3번지 백운빌딩 3층","indutype":"레저업소 - 당 구 장","category":"leisure"}]},{"lat":"37.370806322","long":"126.93681651","imageIndex":13,"items":[{"name":"시나브로 기구필라테스","tel":"031-399-0507","addr":"경기도 군포시 산본동 213-9번지 4층 401호,402호","indutype":"레저업소 - 헬스클럽","category":"leisure"}]},{"lat":"37.371833115","long":"126.93617211","imageIndex":13,"items":[{"name":"시어드스포츠(seared sports)","tel":"070-8899-3333","addr":"경기도 군포시 산본동 206-2번지 도일빌딩 5층","indutype":"레저업소 - 헬스클럽","category":"leisure"},{"name":"아레나 피씨방","tel":"02-222-2222","addr":"경기도 군포시 산본동 206-2번지 도일빌딩 4층","indutype":"레저업소 - 기타레져업소","category":"leisure"},{"name":"엘지노래연습장","tel":"031-398-0062","addr":"경기도 군포시 산본동 206-2번지 도일빌딩 지하1층","indutype":"레저업소 - 노 래 방","category":"leisure"}]},{"lat":"37.372782286","long":"126.941929","imageIndex":13,"items":[{"name":"신바람노래연습장","tel":"031-393-4842","addr":"경기도 군포시 산본동 98-6번지 지층","indutype":"레저업소 - 노 래 방","category":"leisure"}]},{"lat":"37.370610365","long":"126.94100504","imageIndex":13,"items":[{"name":"신바람노래연습장","tel":"031-399-0900","addr":"경기도 군포시 산본동 238-12번지 지하1층","indutype":"레저업소 - 노 래 방","category":"leisure"}]},{"lat":"37.368698659","long":"126.93809403","imageIndex":13,"items":[{"name":"아센pc존","tel":"070-8098-9344","addr":"경기도 군포시 산본동 224-22번지 2층","indutype":"레저업소 - 기타레져업소","category":"leisure"}]},{"lat":"37.370087368","long":"126.94022651","imageIndex":13,"items":[{"name":"아싸노래연습장","tel":"031-393-2411","addr":"경기도 군포시 산본동 236-10번지","indutype":"레저업소 - 노 래 방","category":"leisure"}]},{"lat":"37.370636528","long":"126.93936806","imageIndex":13,"items":[{"name":"아이비스PC방","tel":"070-5020-5323","addr":"경기도 군포시 산본동 89-21번지 하나빌딩 지하1층 한나빌딩","indutype":"레저업소 - 기타레져업소","category":"leisure"}]},{"lat":"37.371580505","long":"126.93559657","imageIndex":13,"items":[{"name":"아이센스pc방 산본점","tel":"","addr":"경기도 군포시 산본동 207-10번지 지하1층","indutype":"레저업소 - 기타레져업소","category":"leisure"}]},{"lat":"37.360252321","long":"126.9314302","imageIndex":13,"items":[{"name":"아이센스리그 산본역점","tel":"070-5712-2466","addr":"경기도 군포시 산본동 1133번지 삼정빌딩 지하1층","indutype":"레저업소 - 기타레져업소","category":"leisure"}]},{"lat":"37.370944825","long":"126.94311588","imageIndex":13,"items":[{"name":"아지트 당구클럽","tel":"031-393-0089","addr":"경기도 군포시 산본동 266-9번지 3층","indutype":"레저업소 - 당 구 장","category":"leisure"}]},{"lat":"37.369500318","long":"126.93765306","imageIndex":13,"items":[{"name":"애플노래연습장","tel":"031-394-5002","addr":"경기도 군포시 산본동 216-13번지 지하1층","indutype":"레저업소 - 노 래 방","category":"leisure"}]},{"lat":"37.371332066","long":"126.94273173","imageIndex":13,"items":[{"name":"애플노래연습장","tel":"031-395-2628","addr":"경기도 군포시 산본동 266-14번지 지층","indutype":"레저업소 - 노 래 방","category":"leisure"}]},{"lat":"37.359415108","long":"126.93265006","imageIndex":13,"items":[{"name":"앵콜노래연습장","tel":"031-393-5607","addr":"경기도 군포시 산본동 1129-2번지 산본프라자 3층 307호","indutype":"레저업소 - 노 래 방","category":"leisure"}]},{"lat":"37.369699608","long":"126.93961721","imageIndex":13,"items":[{"name":"앵콜노래연습장","tel":"031-395-8694","addr":"경기도 군포시 산본동 236-16번지 지하1층","indutype":"레저업소 - 노 래 방","category":"leisure"}]},{"lat":"37.36030685","long":"126.93220901","imageIndex":13,"items":[{"name":"에스오에스(SOS)노래연습장","tel":"031-399-7233","addr":"경기도 군포시 산본동 1131 서련빌딩201.202호","indutype":"레저업소 - 노 래 방","category":"leisure"}]},{"lat":"37.373891807","long":"126.94445703","imageIndex":13,"items":[{"name":"에이스당구장","tel":"02-1111-1111","addr":"경기도 군포시 산본동 1026-52번지 L&C타워 305호","indutype":"레저업소 - 당 구 장","category":"leisure"},{"name":"짱럭셔리노래연습장","tel":"031-427-1750","addr":"경기도 군포시 산본동 1026-52 L&C타워지층101-2호","indutype":"레저업소 - 노 래 방","category":"leisure"}]},{"lat":"37.370142643","long":"126.94256334","imageIndex":13,"items":[{"name":"에코노래연습장","tel":"031-393-3341","addr":"경기도 군포시 산본동 246번지 지하1층","indutype":"레저업소 - 노 래 방","category":"leisure"}]},{"lat":"37.371503316","long":"126.94284449","imageIndex":13,"items":[{"name":"역전당구장","tel":"031-393-5452","addr":"경기도 군포시 산본동 266-4번지","indutype":"레저업소 - 당 구 장","category":"leisure"}]},{"lat":"37.35963902","long":"126.93042618","imageIndex":13,"items":[{"name":"연예인노래연습장","tel":"031-397-3847","addr":"경기도 군포시 산본동 1137-2번지 여명프라자 601호","indutype":"레저업소 - 노 래 방","category":"leisure"}]},{"lat":"37.371836547","long":"126.94256198","imageIndex":13,"items":[{"name":"열린헬스","tel":"031-395-0070","addr":"경기도 군포시 산본동 266-19번지 4,5층","indutype":"레저업소 - 헬스클럽","category":"leisure"},{"name":"짱노래연습장","tel":"031-394-3511","addr":"경기도 군포시 산본동 266-19번지 지하1층","indutype":"레저업소 - 노 래 방","category":"leisure"}]},{"lat":"37.359449911","long":"126.93059567","imageIndex":13,"items":[{"name":"오픈스페이스 산본점","tel":"031-399-0601","addr":"경기도 군포시 산본동 1138-3번지 씨티프라자 7층","indutype":"레저업소 - 당 구 장","category":"leisure"},{"name":"포시즌","tel":"02-222-2222","addr":"경기도 군포시 산본동 1138-3번지 지하1층","indutype":"레저업소 - 기타레져업소","category":"leisure"}]},{"lat":"37.358729471","long":"126.93120589","imageIndex":13,"items":[{"name":"와이요가근골격운동센터","tel":"031-391-6633","addr":"경기도 군포시 산본동 1140-3번지 백두빌딩 303호","indutype":"레저업소 - 헬스클럽","category":"leisure"}]},{"lat":"37.368978034","long":"126.93820668","imageIndex":13,"items":[{"name":"우정노래연습장","tel":"031-398-3400","addr":"경기도 군포시 산본동 224-3번지 지층","indutype":"레저업소 - 노 래 방","category":"leisure"}]},{"lat":"37.369338893","long":"126.93904177","imageIndex":13,"items":[{"name":"원 노래연습장","tel":"031-393-4543","addr":"경기도 군포시 산본동 224-13번지","indutype":"레저업소 - 노 래 방","category":"leisure"},{"name":"원노래방","tel":"031-395-8880","addr":"경기도 군포시 산본동 224-13번지 지층","indutype":"레저업소 - 노 래 방","category":"leisure"}]},{"lat":"37.367420503","long":"126.92525968","imageIndex":13,"items":[{"name":"원골프 아카데미","tel":"031-452-8811","addr":"경기도 군포시 산본동 1109-5번지 3층","indutype":"레저업소 - 골프연습장","category":"leisure"}]},{"lat":"37.364999864","long":"126.93011623","imageIndex":13,"items":[{"name":"제이디(JD)골프","tel":"031-398-5050","addr":"경기도 군포시 산본동 1094-1번지 신호프라자 B동 01호","indutype":"레저업소 - 골프연습장","category":"leisure"}]},{"lat":"37.358422954","long":"126.930924","imageIndex":13,"items":[{"name":"주식회사 스윔21","tel":"031-395-2121","addr":"경기도 군포시 산본동 1143-3번지 신산본빌딩 지하1층","indutype":"레저업소 - 수 영 장","category":"leisure"}]},{"lat":"37.367888036","long":"126.9386253","imageIndex":13,"items":[{"name":"청운당구장","tel":"031-391-6033","addr":"경기도 군포시 산본동 225-9번지 경모빌딩 지하 02호","indutype":"레저업소 - 당 구 장","category":"leisure"}]},{"lat":"37.370664485","long":"126.94111788","imageIndex":13,"items":[{"name":"쿨노래연습장","tel":"031-398-0191","addr":"경기도 군포시 산본동 238-11번지","indutype":"레저업소 - 노 래 방","category":"leisure"}]},{"lat":"37.370944573","long":"126.94261914","imageIndex":13,"items":[{"name":"큐당구클럽","tel":"031-393-0078","addr":"경기도 군포시 산본동 252-8번지 3층","indutype":"레저업소 - 당 구 장","category":"leisure"}]},{"lat":"37.371611391","long":"126.94275409","imageIndex":13,"items":[{"name":"타이탄PC","tel":"02-222-2222","addr":"경기도 군포시 산본동 266-3번지 4층","indutype":"레저업소 - 기타레져업소","category":"leisure"}]},{"lat":"37.359783334","long":"126.93067437","imageIndex":13,"items":[{"name":"팀에이치짐","tel":"031-391-0959","addr":"경기도 군포시 산본동 1137-1번지 대원프라자빌딩 501호","indutype":"레저업소 - 헬스클럽","category":"leisure"}]},{"lat":"37.368392431","long":"126.93830878","imageIndex":13,"items":[{"name":"팀윈드멀티짐","tel":"031-347-5775","addr":"경기도 군포시 산본동 225-13번지 3층","indutype":"레저업소 - 헬스클럽","category":"leisure"}]},{"lat":"37.370449143","long":"126.94286791","imageIndex":13,"items":[{"name":"팡팡노래방","tel":"031-399-0540","addr":"경기도 군포시 산본동 248-2번지 지하층","indutype":"레저업소 - 노 래 방","category":"leisure"}]},{"lat":"37.35983767","long":"126.93112583","imageIndex":13,"items":[{"name":"피에스타PC","tel":"","addr":"경기도 군포시 산본동 1136-1번지 청송프라자 8층 801,802,803호","indutype":"레저업소 - 기타레져업소","category":"leisure"}]},{"lat":"37.371755525","long":"126.94269752","imageIndex":13,"items":[{"name":"필노래연습장","tel":"031-399-1280","addr":"경기도 군포시 산본동 266-2번지 지하1층","indutype":"레저업소 - 노 래 방","category":"leisure"}]},{"lat":"37.360531799","long":"126.93170084","imageIndex":13,"items":[{"name":"필라테스:온(Pilates:ON)","tel":"070-7782-3133","addr":"경기도 군포시 산본동 1132-3번지 성진빌딩 1동 601호","indutype":"레저업소 - 헬스클럽","category":"leisure"},{"name":"호호큐","tel":"031-399-7444","addr":"경기도 군포시 산본동 1132-3번지 성진빌딩 401,402호","indutype":"레저업소 - 헬스클럽","category":"leisure"}]},{"lat":"37.367576237","long":"126.92926708","imageIndex":13,"items":[{"name":"하나로","tel":"","addr":"경기도 군포시 산본동 1091-1번지 우방목련아파트","indutype":"레저업소 - 기타레져업소","category":"leisure"}]},{"lat":"37.371165189","long":"126.93411803","imageIndex":13,"items":[{"name":"헬스타운","tel":"031-399-0155","addr":"경기도 군포시 산본동 1061-2번지 성원빌딩 7층","indutype":"레저업소 - 헬스클럽","category":"leisure"}]},{"lat":"37.35975408","long":"126.92711876","imageIndex":13,"items":[{"name":"현대그린 골프연습장","tel":"031-398-8359","addr":"경기도 군포시 산본동 1146-7번지 중앙교육센타 지층 제비1-1호, 제비2호","indutype":"레저업소 - 골프연습장","category":"leisure"}]},{"lat":"37.372250554","long":"126.94166977","imageIndex":13,"items":[{"name":"힐링","tel":"031-397-5587","addr":"경기도 군포시 산본동 98-21번지 3층","indutype":"레저업소 - 헬스클럽","category":"leisure"}]}]