[{"lat":"37.726867792","long":"126.7043858","imageIndex":7,"items":[{"name":"(주)급식도우미","tel":"031-983-8031","addr":"경기도 파주시 문발동 73-3번지","indutype":"음료식품 - 농·축·수산품","category":"food"}]},{"lat":"37.728755265","long":"126.70615915","imageIndex":7,"items":[{"name":"ALL바른","tel":"031-941-9741","addr":"경기도 파주시 문발동 32-7번지","indutype":"음료식품 - 정육점","category":"food"},{"name":"승승푸드","tel":"","addr":"경기도 파주시 문발동 32-7번지","indutype":"음료식품 - 기타음료식품","category":"food"}]},{"lat":"37.718844623","long":"126.70610794","imageIndex":7,"items":[{"name":"건강이있는마을","tel":"031-957-7424","addr":"경기도 파주시 문발동 619-1번지","indutype":"건강식품 - 기타건강식품","category":"food"}]},{"lat":"37.725983581","long":"126.70035123","imageIndex":7,"items":[{"name":"남양우유금촌가정대리점","tel":"031-941-4916","addr":"경기도 파주시 문발동 81-13번지","indutype":"음료식품 - 기타음료식품","category":"food"}]},{"lat":"37.725783537","long":"126.69963744","imageIndex":7,"items":[{"name":"뉴시즌커피","tel":"","addr":"경기도 파주시 문발동 81-9번지","indutype":"음료식품 - 기타음료식품","category":"food"}]},{"lat":"37.706396969","long":"126.68668673","imageIndex":7,"items":[{"name":"라본느베이커리(출판단지점)","tel":"070-7864-1177","addr":"경기도 파주시 문발동 531-4번지","indutype":"음료식품 - 제과점","category":"food"}]},{"lat":"37.719817181","long":"126.70951803","imageIndex":7,"items":[{"name":"로제뜨 케이크","tel":"031-939-8981","addr":"경기도 파주시 문발동 603-17번지","indutype":"음료식품 - 제과점","category":"food"}]},{"lat":"37.727257665","long":"126.70535975","imageIndex":7,"items":[{"name":"롤킹매점 (파주점)","tel":"031-948-5986","addr":"경기도 파주시 문발동 554-3번지","indutype":"음료식품 - 기타음료식품","category":"food"}]},{"lat":"37.720040892","long":"126.70890468","imageIndex":7,"items":[{"name":"매일우유일산서부유기농대리점","tel":"031-941-3573","addr":"경기도 파주시 문발동 604-9번지","indutype":"음료식품 - 기타음료식품","category":"food"}]},{"lat":"37.72956523","long":"126.70580427","imageIndex":7,"items":[{"name":"명삼인삼","tel":"031-000-0000","addr":"경기도 파주시 문발동 33-12번지","indutype":"건강식품 - 인삼제품","category":"food"}]},{"lat":"37.719173433","long":"126.70788733","imageIndex":7,"items":[{"name":"밥블리","tel":"031-943-8843","addr":"경기도 파주시 문발동 606-11번지","indutype":"음료식품 - 기타음료식품","category":"food"}]},{"lat":"37.719450834","long":"126.71074442","imageIndex":7,"items":[{"name":"베이커리카페 파스텔","tel":"070-7766-0494","addr":"경기도 파주시 문발동 610-2번지","indutype":"음료식품 - 제과점","category":"food"}]},{"lat":"37.724568889","long":"126.71099655","imageIndex":7,"items":[{"name":"소문난정육점교하","tel":"031-941-9096","addr":"경기도 파주시 문발동 561-3번지","indutype":"음료식품 - 정육점","category":"food"},{"name":"작은부엌","tel":"031-941-0225","addr":"경기도 파주시 문발동 561-3번지","indutype":"음료식품 - 기타음료식품","category":"food"},{"name":"파리바게트(교하점)","tel":"031-942-8235","addr":"경기도 파주시 문발동 561-3번지","indutype":"음료식품 - 제과점","category":"food"}]},{"lat":"37.727866263","long":"126.70733106","imageIndex":7,"items":[{"name":"송화잔기지떡","tel":"031-945-0775","addr":"경기도 파주시 문발동 551-2번지","indutype":"음료식품 - 제과점","category":"food"}]},{"lat":"37.727235316","long":"126.70722013","imageIndex":7,"items":[{"name":"오아시스 컴퍼니","tel":"031-943-8245","addr":"경기도 파주시 문발동 552-6번지","indutype":"음료식품 - 기타음료식품","category":"food"}]},{"lat":"37.719702621","long":"126.71055062","imageIndex":7,"items":[{"name":"옹고집건강촌","tel":"031-942-9917","addr":"경기도 파주시 문발동 603-11 101","indutype":"건강식품 - 기타건강식품","category":"food"}]},{"lat":"37.718848325","long":"126.70758238","imageIndex":7,"items":[{"name":"일동후디스파주대리점","tel":"031-941-7656","addr":"경기도 파주시 문발동 619-11번지","indutype":"음료식품 - 기타음료식품","category":"food"}]},{"lat":"37.725207194","long":"126.69974187","imageIndex":7,"items":[{"name":"작은쉼터","tel":"031-1566-0026","addr":"경기도 파주시 문발동 81-19","indutype":"음료식품 - 기타음료식품","category":"food"}]},{"lat":"37.724955734","long":"126.71076817","imageIndex":7,"items":[{"name":"주식회사 서울성모헬스케어","tel":"031-111-1111","addr":"경기도 파주시 문발동 561-1번지","indutype":"건강식품 - 기타건강식품","category":"food"},{"name":"홍시루","tel":"031-947-2030","addr":"경기도 파주시 문발동 561-1번지","indutype":"음료식품 - 제과점","category":"food"}]},{"lat":"37.725566745","long":"126.70293912","imageIndex":7,"items":[{"name":"주식회사 이레푸드","tel":"","addr":"경기도 파주시 문발동 69-6번지","indutype":"음료식품 - 기타음료식품","category":"food"}]},{"lat":"37.719123917","long":"126.70610683","imageIndex":7,"items":[{"name":"참진농산","tel":"031-943-9327","addr":"경기도 파주시 문발동 618-22번지","indutype":"음료식품 - 기타음료식품","category":"food"}]},{"lat":"37.72953462","long":"126.70438644","imageIndex":7,"items":[{"name":"초원농장","tel":"032-673-3799","addr":"경기도 파주시 문발동 33-4번지","indutype":"음료식품 - 농·축·수산품","category":"food"}]},{"lat":"37.719289363","long":"126.7074105","imageIndex":7,"items":[{"name":"커피마스터","tel":"","addr":"경기도 파주시 문발동 618-10번지","indutype":"음료식품 - 기타음료식품","category":"food"}]},{"lat":"37.723427306","long":"126.70130307","imageIndex":7,"items":[{"name":"푸른들","tel":"031-8071-1411","addr":"경기도 파주시 문발동 89-2번지","indutype":"음료식품 - 기타음료식품","category":"food"}]},{"lat":"37.726955169","long":"126.70688095","imageIndex":7,"items":[{"name":"한솔유통","tel":"031-948-6566","addr":"경기도 파주시 문발동 552-9번지","indutype":"음료식품 - 기타음료식품","category":"food"}]},{"lat":"37.72698521","long":"126.70808321","imageIndex":7,"items":[{"name":"황가유통","tel":"","addr":"경기도 파주시 문발동 547번지 노을빛마을주공아파트","indutype":"음료식품 - 농·축·수산품","category":"food"}]}]