[{"lat":"37.600746091","long":"126.82782381","imageIndex":4,"items":[{"name":"가나안 국수","tel":"031-979-8203","addr":"경기도 고양시 덕양구 행주내동 102-6번지","indutype":"일반휴게음식 - 일반한식","category":"restaurant"},{"name":"큰집가든","tel":"031-972-1906","addr":"경기도 고양시 덕양구 행주내동 102-6번지","indutype":"일반휴게음식 - 일반한식","category":"restaurant"}]},{"lat":"37.604689125","long":"126.82565157","imageIndex":4,"items":[{"name":"개성집","tel":"031-971-8123","addr":"경기도 고양시 덕양구 행주내동 183-1번지","indutype":"일반휴게음식 - 일반한식","category":"restaurant"}]},{"lat":"37.600526357","long":"126.82548026","imageIndex":4,"items":[{"name":"갤러리카페 트롤리","tel":"","addr":"경기도 고양시 덕양구 행주내동 154-1번지","indutype":"일반휴게음식 - 서양음식","category":"restaurant"}]},{"lat":"37.606857493","long":"126.82367588","imageIndex":4,"items":[{"name":"고씨네감자탕","tel":"031-974-5501","addr":"경기도 고양시 덕양구 행주내동 484-15번지","indutype":"일반휴게음식 - 일반한식","category":"restaurant"}]},{"lat":"37.600112538","long":"126.82590023","imageIndex":4,"items":[{"name":"기와","tel":"","addr":"경기도 고양시 덕양구 행주내동 151-1번지","indutype":"일반휴게음식 - 일반한식","category":"restaurant"},{"name":"촌가","tel":"031-972-6741","addr":"경기도 고양시 덕양구 행주내동","indutype":"일반휴게음식 - 일반한식","category":"restaurant"}]},{"lat":"37.602086805","long":"126.82665427","imageIndex":4,"items":[{"name":"다래가든","tel":"031-972-7556","addr":"경기도 고양시 덕양구 행주내동 132-2번지","indutype":"일반휴게음식 - 일식·회집","category":"restaurant"}]},{"lat":"37.598023398","long":"126.82665253","imageIndex":4,"items":[{"name":"다원","tel":"031-972-8315","addr":"경기도 고양시 덕양구 행주내동 72-3번지","indutype":"일반휴게음식 - 일반한식","category":"restaurant"}]},{"lat":"37.606197035","long":"126.82187682","imageIndex":4,"items":[{"name":"두울에프엔비","tel":"031-926-3350","addr":"경기도 고양시 덕양구 행주내동 500-7번지","indutype":"일반휴게음식 - 서양음식","category":"restaurant"}]},{"lat":"37.600328364","long":"126.82562794","imageIndex":4,"items":[{"name":"로즈가든","tel":"031-972-3001","addr":"경기도 고양시 덕양구 행주내동 153-3번지","indutype":"일반휴게음식 - 일반한식","category":"restaurant"}]},{"lat":"37.600476168","long":"126.82807357","imageIndex":4,"items":[{"name":"메밀랑행주산성점","tel":"031-962-2809","addr":"경기도 고양시 덕양구 행주내동 103-1번지","indutype":"일반휴게음식 - 일반한식","category":"restaurant"}]},{"lat":"37.600197636","long":"126.82859512","imageIndex":4,"items":[{"name":"명태세상","tel":"031-979-6480","addr":"경기도 고양시 덕양구 행주내동 108-3번지","indutype":"일반휴게음식 - 일반한식","category":"restaurant"}]},{"lat":"37.606135871","long":"126.8231227","imageIndex":4,"items":[{"name":"목콩방","tel":"031-972-6226","addr":"경기도 고양시 덕양구 행주내동 499-10번지","indutype":"일반휴게음식 - 서양음식","category":"restaurant"}]},{"lat":"37.59983708","long":"126.82848272","imageIndex":4,"items":[{"name":"뮤지엄오크","tel":"031-974-5599","addr":"경기도 고양시 덕양구 행주내동 85번지","indutype":"일반휴게음식 - 일반한식","category":"restaurant"}]},{"lat":"37.605858717","long":"126.82453896","imageIndex":4,"items":[{"name":"벌말기사부페","tel":"031-972-3619","addr":"경기도 고양시 덕양구 행주내동 192-1번지","indutype":"일반휴게음식 - 일반한식","category":"restaurant"}]},{"lat":"37.606470505","long":"126.82395993","imageIndex":4,"items":[{"name":"별미콩나물국밥","tel":"031-971-8298","addr":"경기도 고양시 덕양구 행주내동 488-1번지","indutype":"일반휴게음식 - 일반한식","category":"restaurant"}]},{"lat":"37.600889085","long":"126.82704211","imageIndex":4,"items":[{"name":"본가행주산국수","tel":"031-938-8293","addr":"경기도 고양시 덕양구 행주내동 139-5번지","indutype":"일반휴게음식 - 일반한식","category":"restaurant"}]},{"lat":"37.600024353","long":"126.82718004","imageIndex":4,"items":[{"name":"산골마을","tel":"031-970-0312","addr":"경기도 고양시 덕양구 행주내동 100-1번지","indutype":"일반휴게음식 - 일반한식","category":"restaurant"}]},{"lat":"37.600193337","long":"126.82570753","imageIndex":4,"items":[{"name":"산성이층집","tel":"031-972-8313","addr":"경기도 고양시 덕양구 행주내동 152-1번지","indutype":"일반휴게음식 - 일반한식","category":"restaurant"}]},{"lat":"37.601943274","long":"126.82707361","imageIndex":4,"items":[{"name":"산성회집","tel":"031-972-7556","addr":"경기도 고양시 덕양구 행주내동 136-3번지","indutype":"일반휴게음식 - 일식·회집","category":"restaurant"}]},{"lat":"37.604219067","long":"126.82462215","imageIndex":4,"items":[{"name":"소담찬","tel":"031-972-5515","addr":"경기도 고양시 덕양구 행주내동 180번지","indutype":"일반휴게음식 - 일반한식","category":"restaurant"}]},{"lat":"37.600301828","long":"126.8259564","imageIndex":4,"items":[{"name":"소풍","tel":"031-974-7415","addr":"경기도 고양시 덕양구 행주내동 151번지","indutype":"일반휴게음식 - 일반한식","category":"restaurant"}]},{"lat":"37.600943885","long":"126.82754024","imageIndex":4,"items":[{"name":"아이맛이야철판구이","tel":"031-979-5489","addr":"경기도 고양시 덕양구 행주내동 102-16번지","indutype":"일반휴게음식 - 일반한식","category":"restaurant"}]},{"lat":"37.604858724","long":"126.82459797","imageIndex":4,"items":[{"name":"양평신내서울해장국","tel":"031-938-1478","addr":"경기도 고양시 덕양구 행주내동","indutype":"일반휴게음식 - 일반한식","category":"restaurant"}]},{"lat":"37.600412024","long":"126.82734898","imageIndex":4,"items":[{"name":"에덴그린농원","tel":"031-970-0592","addr":"경기도 고양시 덕양구 행주내동 102-4번지","indutype":"일반휴게음식 - 일반한식","category":"restaurant"}]},{"lat":"37.607026814","long":"126.82245238","imageIndex":4,"items":[{"name":"열린마당","tel":"031-974-4334","addr":"경기도 고양시 덕양구 행주내동 495-11번지","indutype":"일반휴게음식 - 일반한식","category":"restaurant"}]},{"lat":"37.609385084","long":"126.82096306","imageIndex":4,"items":[{"name":"임진강매운탕","tel":"031-972-8858","addr":"경기도 고양시 덕양구 행주내동 437-7번지","indutype":"일반휴게음식 - 일반한식","category":"restaurant"}]},{"lat":"37.600364148","long":"126.825458","imageIndex":4,"items":[{"name":"장군집","tel":"031-972-6740","addr":"경기도 고양시 덕양구 행주내동 154번지","indutype":"일반휴게음식 - 일반한식","category":"restaurant"}]},{"lat":"37.60122364","long":"126.82784534","imageIndex":4,"items":[{"name":"전주콩나물국밥","tel":"031-979-7772","addr":"경기도 고양시 덕양구 행주내동 127-8번지","indutype":"일반휴게음식 - 일반한식","category":"restaurant"}]},{"lat":"37.602362052","long":"126.82395845","imageIndex":4,"items":[{"name":"정성가든","tel":"031-974-0939","addr":"경기도 고양시 덕양구 행주내동 174-2번지","indutype":"일반휴게음식 - 일반한식","category":"restaurant"}]},{"lat":"37.60508371","long":"126.82442757","imageIndex":4,"items":[{"name":"카페로드(cafe ROAD)","tel":"03-100-0000","addr":"경기도 고양시 덕양구 행주내동 186-1번지","indutype":"일반휴게음식 - 서양음식","category":"restaurant"}]},{"lat":"37.601052203","long":"126.82767588","imageIndex":4,"items":[{"name":"커피아저씨","tel":"031-971-1999","addr":"경기도 고양시 덕양구 행주내동 102-2번지","indutype":"일반휴게음식 - 서양음식","category":"restaurant"}]},{"lat":"37.605856742","long":"126.82323662","imageIndex":4,"items":[{"name":"토종아바이순대국","tel":"031-938-1919","addr":"경기도 고양시 덕양구 행주내동 741번지","indutype":"일반휴게음식 - 일반한식","category":"restaurant"}]},{"lat":"37.605586485","long":"126.82325992","imageIndex":4,"items":[{"name":"통메밀국수","tel":"031-974-0070","addr":"경기도 고양시 덕양구 행주내동 741-7번지","indutype":"일반휴게음식 - 일반한식","category":"restaurant"}]},{"lat":"37.601471851","long":"126.82512697","imageIndex":4,"items":[{"name":"파스토랄","tel":"031-978-0153","addr":"경기도 고양시 덕양구 행주내동 168번지","indutype":"일반휴게음식 - 일반한식","category":"restaurant"}]},{"lat":"37.601833652","long":"126.82606601","imageIndex":4,"items":[{"name":"푸드캐스팅","tel":"070-2699-0807","addr":"경기도 고양시 덕양구 행주내동 160-3번지","indutype":"일반휴게음식 - 일반한식","category":"restaurant"}]},{"lat":"37.605774168","long":"126.82226288","imageIndex":4,"items":[{"name":"하랑","tel":"031-979-6727","addr":"경기도 고양시 덕양구 행주내동 737-1번지","indutype":"일반휴게음식 - 일반한식","category":"restaurant"}]},{"lat":"37.601475055","long":"126.82726722","imageIndex":4,"items":[{"name":"해울돈까스","tel":"031-938-7272","addr":"경기도 고양시 덕양구 행주내동 157-3번지","indutype":"일반휴게음식 - 일반한식","category":"restaurant"}]},{"lat":"37.607334716","long":"126.82348221","imageIndex":4,"items":[{"name":"행주골 해장국","tel":"031-970-8544","addr":"경기도 고양시 덕양구 행주내동 480-6번지","indutype":"일반휴게음식 - 일반한식","category":"restaurant"}]},{"lat":"37.599753639","long":"126.82689758","imageIndex":4,"items":[{"name":"행주보리밥","tel":"031-971-8859","addr":"경기도 고양시 덕양구 행주내동 99번지","indutype":"일반휴게음식 - 일반한식","category":"restaurant"}]},{"lat":"37.605163837","long":"126.82379319","imageIndex":4,"items":[{"name":"행주여행밀면","tel":"031-938-3835","addr":"경기도 고양시 덕양구 행주내동 743-19번지","indutype":"일반휴게음식 - 일반한식","category":"restaurant"}]},{"lat":"37.604777892","long":"126.82476804","imageIndex":4,"items":[{"name":"행주휴게소카페","tel":"031-978-6883","addr":"경기도 고양시 덕양구 행주내동 201-4번지","indutype":"일반휴게음식 - 주점","category":"restaurant"}]}]