[{"lat":"37.855860687","long":"126.78445221","imageIndex":13,"items":[{"name":"3949당구장","tel":"031-9138-6253","addr":"경기도 파주시 문산읍 문산리 10-145번지","indutype":"레저업소 - 당 구 장","category":"leisure"}]},{"lat":"37.859188751","long":"126.77681753","imageIndex":13,"items":[{"name":"A짐","tel":"031-953-0044","addr":"경기도 파주시 문산읍 문산리 140-14번지","indutype":"레저업소 - 헬스클럽","category":"leisure"}]},{"lat":"37.858524347","long":"126.77801271","imageIndex":13,"items":[{"name":"G 노래연습장","tel":"031-954-8700","addr":"경기도 파주시 문산읍 문산리 98-16번지","indutype":"레저업소 - 노 래 방","category":"leisure"}]},{"lat":"37.856664576","long":"126.78556342","imageIndex":13,"items":[{"name":"K-1당구장","tel":"070-4222-1596","addr":"경기도 파주시 문산읍 문산리 10-47번지","indutype":"레저업소 - 당 구 장","category":"leisure"},{"name":"만화카페 북적북적","tel":"070-6847-6487","addr":"경기도 파주시 문산읍 문산리 10-47번지","indutype":"레저업소 - 기타레져업소","category":"leisure"},{"name":"퍼플펍PC방","tel":"","addr":"경기도 파주시 문산읍 문산리 10-47번지","indutype":"레저업소 - 기타레져업소","category":"leisure"}]},{"lat":"37.857274601","long":"126.7841526","imageIndex":13,"items":[{"name":"K2노래방","tel":"031-952-6833","addr":"경기도 파주시 문산읍 문산리 10-26번지","indutype":"레저업소 - 노 래 방","category":"leisure"}]},{"lat":"37.858829488","long":"126.78701157","imageIndex":13,"items":[{"name":"갤러리노래연습장","tel":"031-954-2010","addr":"경기도 파주시 문산읍 문산리 17-41번지","indutype":"레저업소 - 노 래 방","category":"leisure"}]},{"lat":"37.857851956","long":"126.78455997","imageIndex":13,"items":[{"name":"갤럭시노래연습장","tel":"031-952-2825","addr":"경기도 파주시 문산읍 문산리 61-51번지","indutype":"레저업소 - 노 래 방","category":"leisure"}]},{"lat":"37.858023912","long":"126.7849799","imageIndex":13,"items":[{"name":"그린당구장","tel":"031-952-8024","addr":"경기도 파주시 문산읍 문산리 6-28","indutype":"레저업소 - 당 구 장","category":"leisure"},{"name":"스트라이크팡 문산점","tel":"031-000-0000","addr":"경기도 파주시 문산읍 문산리 6-28번지","indutype":"레저업소 - 기타레져업소","category":"leisure"}]},{"lat":"37.858467382","long":"126.78606948","imageIndex":13,"items":[{"name":"뉴월드노래연습장","tel":"031-952-3696","addr":"경기도 파주시 문산읍 문산리 17-55","indutype":"레저업소 - 노 래 방","category":"leisure"}]},{"lat":"37.856636583","long":"126.7850408","imageIndex":13,"items":[{"name":"더본필라테스","tel":"031-954-2587","addr":"경기도 파주시 문산읍 문산리 10-15번지","indutype":"레저업소 - 헬스클럽","category":"leisure"}]},{"lat":"37.856605562","long":"126.78289328","imageIndex":13,"items":[{"name":"디에이치더블유 트레이딩(문산볼링)","tel":"031-9998-1250","addr":"경기도 파주시 문산읍 문산리 10-93번지 문산호수아파트","indutype":"레저업소 - 볼 링 장","category":"leisure"}]},{"lat":"37.856409854","long":"126.78423469","imageIndex":13,"items":[{"name":"또또와노래방","tel":"031-953-3122","addr":"경기도 파주시 문산읍 문산리 10-42번지","indutype":"레저업소 - 노 래 방","category":"leisure"},{"name":"라인헬스","tel":"","addr":"경기도 파주시 문산읍 문산리 10-42번지","indutype":"레저업소 - 헬스클럽","category":"leisure"},{"name":"문산 모아이 주짓수","tel":"","addr":"경기도 파주시 문산읍 문산리 10-42번지","indutype":"레저업소 - 헬스클럽","category":"leisure"}]},{"lat":"37.857192164","long":"126.7834256","imageIndex":13,"items":[{"name":"라이또 PC방 파주문산점","tel":"070-2351-9825","addr":"경기도 파주시 문산읍 문산리 39-2번지","indutype":"레저업소 - 기타레져업소","category":"leisure"}]},{"lat":"37.857164352","long":"126.78300525","imageIndex":13,"items":[{"name":"로또노래연습장","tel":"031-953-6222","addr":"경기도 파주시 문산읍 문산리 40-6번지","indutype":"레저업소 - 노 래 방","category":"leisure"}]},{"lat":"37.856464837","long":"126.7847345","imageIndex":13,"items":[{"name":"롤러몬 문산점","tel":"","addr":"경기도 파주시 문산읍 문산리 10-105번지 문산제일종합상가","indutype":"레저업소 - 기타레져업소","category":"leisure"}]},{"lat":"37.853160746","long":"126.78600548","imageIndex":13,"items":[{"name":"머스트 윈","tel":"031-947-3248","addr":"경기도 파주시 문산읍 문산리 25-5번지","indutype":"레저업소 - 헬스클럽","category":"leisure"}]},{"lat":"37.855492441","long":"126.78506689","imageIndex":13,"items":[{"name":"모아","tel":"070-7784-4107","addr":"경기도 파주시 문산읍 문산리 11-9번지","indutype":"레저업소 - 당 구 장","category":"leisure"}]},{"lat":"37.858276488","long":"126.78514961","imageIndex":13,"items":[{"name":"비인노래연습장","tel":"031-111-1111","addr":"경기도 파주시 문산읍 문산리 6-2번지 지하1층","indutype":"레저업소 - 노 래 방","category":"leisure"}]},{"lat":"37.857998228","long":"126.78570723","imageIndex":13,"items":[{"name":"스카이당구클럽","tel":"031-111-1111","addr":"경기도 파주시 문산읍 문산리 7-5번지","indutype":"레저업소 - 당 구 장","category":"leisure"},{"name":"준짐(JUN GYM) 문산점","tel":"070-8970-4016","addr":"경기도 파주시 문산읍 문산리 7-5번지","indutype":"레저업소 - 헬스클럽","category":"leisure"},{"name":"포텐PC방","tel":"","addr":"경기도 파주시 문산읍 문산리 7-5번지","indutype":"레저업소 - 기타레져업소","category":"leisure"}]},{"lat":"37.857105634","long":"126.78534622","imageIndex":13,"items":[{"name":"스타라이트","tel":"031-953-9866","addr":"경기도 파주시 문산읍 문산리 10-55번지","indutype":"레저업소 - 기타레져업소","category":"leisure"}]},{"lat":"37.853909503","long":"126.78653733","imageIndex":13,"items":[{"name":"에이스당구장","tel":"031-953-1230","addr":"경기도 파주시 문산읍 문산리 17-360","indutype":"레저업소 - 당 구 장","category":"leisure"}]},{"lat":"37.858305005","long":"126.78595632","imageIndex":13,"items":[{"name":"올레노래연습장","tel":"031-952-0161","addr":"경기도 파주시 문산읍 문산리 17-105번지","indutype":"레저업소 - 노 래 방","category":"leisure"}]},{"lat":"37.857136389","long":"126.78250535","imageIndex":13,"items":[{"name":"칸노래방","tel":"031-953-9680","addr":"경기도 파주시 문산읍 문산리 42-14번지","indutype":"레저업소 - 노 래 방","category":"leisure"}]},{"lat":"37.857247108","long":"126.78390269","imageIndex":13,"items":[{"name":"케이탑PC방(문산점)","tel":"031-000-0000","addr":"경기도 파주시 문산읍 문산리 10-61번지","indutype":"레저업소 - 기타레져업소","category":"leisure"}]},{"lat":"37.857384461","long":"126.78509542","imageIndex":13,"items":[{"name":"타워노래연습장","tel":"031-953-2379","addr":"경기도 파주시 문산읍 문산리 10-211번지 리틀브렌","indutype":"레저업소 - 노 래 방","category":"leisure"}]},{"lat":"37.854082379","long":"126.78259398","imageIndex":13,"items":[{"name":"파주스크린골프존","tel":"031-952-0520","addr":"경기도 파주시 문산읍 문산리 36-12번지","indutype":"레저업소 - 스크린골프","category":"leisure"}]}]