[{"lat":"38.09080752","long":"127.27101397","imageIndex":13,"items":[{"name":"FM노래연습장","tel":"031-534-2577","addr":"경기도 포천시 영북면 운천리 517-20번지","indutype":"레저업소 - 노 래 방","category":"leisure"},{"name":"에프엠(FM)노래연습장","tel":"031-534-2577","addr":"경기도 포천시 영북면 운천리 517-20번지","indutype":"레저업소 - 노 래 방","category":"leisure"}]},{"lat":"38.091027021","long":"127.2735112","imageIndex":13,"items":[{"name":"Q-BOX당구장","tel":"031-534-5988","addr":"경기도 포천시 영북면 운천리 506-8번지 2층","indutype":"레저업소 - 당 구 장","category":"leisure"}]},{"lat":"38.091417912","long":"127.27198514","imageIndex":13,"items":[{"name":"갤러리PC","tel":"070-6331-1148","addr":"경기도 포천시 영북면 운천리 513-6번지 1층","indutype":"레저업소 - 기타레져업소","category":"leisure"}]},{"lat":"38.091336388","long":"127.27217863","imageIndex":13,"items":[{"name":"나나노래연습장","tel":"031-534-9370","addr":"경기도 포천시 영북면 운천리 513-16번지","indutype":"레저업소 - 노 래 방","category":"leisure"},{"name":"나나노래연습장","tel":"031-534-9370","addr":"경기도 포천시 영북면 운천리 513-16번지 2층","indutype":"레저업소 - 노 래 방","category":"leisure"}]},{"lat":"38.090531924","long":"127.27333839","imageIndex":13,"items":[{"name":"럭스pc방","tel":"070-2556-6339","addr":"경기도 포천시 영북면 운천리 506-18번지 2층","indutype":"레저업소 - 기타레져업소","category":"leisure"}]},{"lat":"38.090779296","long":"127.27153823","imageIndex":13,"items":[{"name":"산정레져(SLT)","tel":"031-534-9967","addr":"경기도 포천시 영북면 운천리 516-14번지 2층","indutype":"레저업소 - 기타레져업소","category":"leisure"}]},{"lat":"38.082868804","long":"127.27570373","imageIndex":13,"items":[{"name":"선스포츠타운","tel":"031-533-3337","addr":"경기도 포천시 영북면 운천리 308-2번지","indutype":"레저업소 - 헬스클럽","category":"leisure"}]},{"lat":"38.091364302","long":"127.27179116","imageIndex":13,"items":[{"name":"스타노래연습장","tel":"031-533-3386","addr":"경기도 포천시 영북면 운천리 514-1번지 2층","indutype":"레저업소 - 노 래 방","category":"leisure"}]},{"lat":"38.090978819","long":"127.2709576","imageIndex":13,"items":[{"name":"스페이스당구장","tel":"031-534-7862","addr":"경기도 포천시 영북면 운천리 517-7번지","indutype":"레저업소 - 당 구 장","category":"leisure"}]},{"lat":"38.091057738","long":"127.27190403","imageIndex":13,"items":[{"name":"스포츠당구장","tel":"031-535-6464","addr":"경기도 포천시 영북면 운천리 514-7번지 2층","indutype":"레저업소 - 당 구 장","category":"leisure"}]},{"lat":"38.091004831","long":"127.27140227","imageIndex":13,"items":[{"name":"아이비스PC(포천운천점)","tel":"070-8745-3452","addr":"경기도 포천시 영북면 운천리 516-6번지 2층","indutype":"레저업소 - 기타레져업소","category":"leisure"}]},{"lat":"38.091114837","long":"127.27057053","imageIndex":13,"items":[{"name":"앵콜노래연습장","tel":"031-532-6164","addr":"경기도 포천시 영북면 운천리 517-1","indutype":"레저업소 - 노 래 방","category":"leisure"}]},{"lat":"38.091027729","long":"127.27320343","imageIndex":13,"items":[{"name":"치고박고 당구장","tel":"031-534-2220","addr":"경기도 포천시 영북면 운천리 506-43번지 2층","indutype":"레저업소 - 당 구 장","category":"leisure"}]},{"lat":"38.091171924","long":"127.27318116","imageIndex":13,"items":[{"name":"태평당구장","tel":"031-532-9624","addr":"경기도 포천시 영북면 운천리 506-12번지","indutype":"레저업소 - 당 구 장","category":"leisure"}]},{"lat":"38.090224923","long":"127.26970095","imageIndex":13,"items":[{"name":"현대노래연습장","tel":"031-533-2528","addr":"경기도 포천시 영북면 운천리 525-5번지","indutype":"레저업소 - 노 래 방","category":"leisure"}]}]