[{"lat":"37.261433846","long":"127.06433129","imageIndex":7,"items":[{"name":"(주)넥스프유통","tel":"031-212-9792","addr":"경기도 수원시 영통구 원천동 362-11 1,2층","indutype":"음료식품 - 기타음료식품","category":"food"}]},{"lat":"37.273932728","long":"127.06113938","imageIndex":7,"items":[{"name":"(주)동네정미소 광교","tel":"031-548-2826","addr":"경기도 수원시 영통구 원천동 593번지 광교아이파크 E동 B116호","indutype":"음료식품 - 미곡상","category":"food"},{"name":"게방식당","tel":"02-512-2580","addr":"경기도 수원시 영통구 원천동 593번지 광교아이파크 K동 1층 179호","indutype":"음료식품 - 기타음료식품","category":"food"},{"name":"바오담 광교엘리웨이점","tel":"","addr":"경기도 수원시 영통구 원천동 593번지 광교아이파크 K동 1층 170,168호일부","indutype":"음료식품 - 기타음료식품","category":"food"},{"name":"스트롤 리퀴르샵 엘리웨이광교","tel":"031-8009-0333","addr":"경기도 수원시 영통구 원천동 593번지 광교아이파크 124호","indutype":"음료식품 - 주류 판매점","category":"food"},{"name":"아오로","tel":"02-6959-0761","addr":"경기도 수원시 영통구 원천동 593번지 광교아이파크 160동 167호","indutype":"음료식품 - 기타음료식품","category":"food"},{"name":"앨리웨이 광교","tel":"02-6959-0750","addr":"경기도 수원시 영통구 원천동 593번지 광교아이파크 운영사무실","indutype":"음료식품 - 기타음료식품","category":"food"}]},{"lat":"37.273595173","long":"127.05030399","imageIndex":7,"items":[{"name":"(주)화인테크","tel":"031-214-1131","addr":"경기도 수원시 영통구 원천동 90-24번지 102호","indutype":"건강식품 - 기타건강식품","category":"food"}]},{"lat":"37.278433567","long":"127.05061146","imageIndex":7,"items":[{"name":"가족건강원","tel":"031-217-1500","addr":"경기도 수원시 영통구 원천동 573번지 1층","indutype":"건강식품 - 기타건강식품","category":"food"}]},{"lat":"37.262228431","long":"127.06100636","imageIndex":7,"items":[{"name":"남강떡집","tel":"","addr":"경기도 수원시 영통구 원천동 554번지 영통이노플렉스2단지 3동 102호","indutype":"음료식품 - 기타음료식품","category":"food"}]},{"lat":"37.2670402","long":"127.06044636","imageIndex":7,"items":[{"name":"달달한농부 원천점","tel":"031-212-5474","addr":"경기도 수원시 영통구 원천동 233번지 1층 101호","indutype":"음료식품 - 기타음료식품","category":"food"}]},{"lat":"37.276984923","long":"127.04533368","imageIndex":7,"items":[{"name":"달콤당","tel":"02-1111-1111","addr":"경기도 수원시 영통구 원천동 30-89번지 1층","indutype":"음료식품 - 기타음료식품","category":"food"}]},{"lat":"37.261406598","long":"127.06474837","imageIndex":7,"items":[{"name":"대아수산","tel":"031-213-6678","addr":"경기도 수원시 영통구 원천동 362-32번지 B동","indutype":"음료식품 - 농·축·수산품","category":"food"}]},{"lat":"37.266851176","long":"127.06005163","imageIndex":7,"items":[{"name":"동경축산","tel":"031-217-7747","addr":"경기도 수원시 영통구 원천동 468 1층102-1호","indutype":"음료식품 - 정육점","category":"food"}]},{"lat":"37.266797615","long":"127.05900312","imageIndex":7,"items":[{"name":"동서정육점","tel":"031-211-4343","addr":"경기도 수원시 영통구 원천동 550-4번지 원천주공종합상가 108호","indutype":"음료식품 - 정육점","category":"food"},{"name":"파워점프","tel":"031-204-6057","addr":"경기도 수원시 영통구 원천동 550-4번지 원천주공 종합상가 201호","indutype":"건강식품 - 기타건강식품","category":"food"}]},{"lat":"37.265543009","long":"127.06342146","imageIndex":7,"items":[{"name":"뚜레쥬르 수원원천삼성","tel":"031-243-5070","addr":"경기도 수원시 영통구 원천동 256-1번지 1,2층","indutype":"음료식품 - 제과점","category":"food"}]},{"lat":"37.279183879","long":"127.04406076","imageIndex":7,"items":[{"name":"마켓스토리","tel":"","addr":"경기도 수원시 영통구 원천동 13-4번지 아주대학교어학교육원 415호","indutype":"음료식품 - 농·축·수산품","category":"food"}]},{"lat":"37.275489185","long":"127.04542304","imageIndex":7,"items":[{"name":"미림상회,송오석공인중개사사무소","tel":"031-211-1233","addr":"경기도 수원시 영통구 원천동 32-20번지","indutype":"음료식품 - 미곡상","category":"food"}]},{"lat":"37.282431188","long":"127.05741351","imageIndex":7,"items":[{"name":"반찬샵 광교중흥점","tel":"","addr":"경기도 수원시 영통구 원천동 589번지 중흥S-클래스 B2층 154호","indutype":"음료식품 - 기타음료식품","category":"food"},{"name":"어뮤즈 스파 여성매점","tel":"031-8009-0600","addr":"경기도 수원시 영통구 원천동 589번지 중흥S-클래스 B1층 1호,B2층 1호","indutype":"음료식품 - 기타음료식품","category":"food"}]},{"lat":"37.25929803","long":"127.06505101","imageIndex":7,"items":[{"name":"생생직판장","tel":"070-7750-7577","addr":"경기도 수원시 영통구 원천동 417-5번지 1층","indutype":"음료식품 - 정육점","category":"food"}]},{"lat":"37.275656613","long":"127.05486044","imageIndex":7,"items":[{"name":"서준유통","tel":"070-7539-4810","addr":"경기도 수원시 영통구 원천동 111번지 국토지리정보원매점","indutype":"음료식품 - 기타음료식품","category":"food"}]},{"lat":"37.261073505","long":"127.06419572","imageIndex":7,"items":[{"name":"수성키즈","tel":"031-217-3302","addr":"경기도 수원시 영통구 원천동 362-8번지","indutype":"음료식품 - 기타음료식품","category":"food"}]},{"lat":"37.265624497","long":"127.06264365","imageIndex":7,"items":[{"name":"수원명당복권방","tel":"031-206-8896","addr":"경기도 수원시 영통구 원천동 250-3번지","indutype":"음료식품 - 기타음료식품","category":"food"}]},{"lat":"37.265822586","long":"127.06291437","imageIndex":7,"items":[{"name":"수원의료소비자생활협동조합","tel":"031-215-0396","addr":"경기도 수원시 영통구 원천동 250-9번지","indutype":"건강식품 - 기타건강식품","category":"food"}]},{"lat":"37.267040722","long":"127.05936407","imageIndex":7,"items":[{"name":"시루시루떡방","tel":"031-213-8003","addr":"경기도 수원시 영통구 원천동 549-2번지 늘푸른 상가 103호","indutype":"음료식품 - 제과점","category":"food"},{"name":"쿡1015 수원원천점","tel":"031-212-1017","addr":"경기도 수원시 영통구 원천동 549-2번지 교원유치원 107호","indutype":"음료식품 - 기타음료식품","category":"food"},{"name":"파리바게트 수원원천점","tel":"031-217-0485","addr":"경기도 수원시 영통구 원천동 549-2번지 교원유치원 106호","indutype":"음료식품 - 제과점","category":"food"}]},{"lat":"37.263021109","long":"127.06146917","imageIndex":7,"items":[{"name":"쌍용매점","tel":"031-211-5582","addr":"경기도 수원시 영통구 원천동 340-2번지 2층","indutype":"음료식품 - 기타음료식품","category":"food"}]},{"lat":"37.279984281","long":"127.04819942","imageIndex":7,"items":[{"name":"아주좋은과일","tel":"031-214-5949","addr":"경기도 수원시 영통구 원천동 산5번지 아주대학부속병원","indutype":"음료식품 - 농·축·수산품","category":"food"}]},{"lat":"37.265461475","long":"127.06427819","imageIndex":7,"items":[{"name":"앵두네","tel":"","addr":"경기도 수원시 영통구 원천동 332-2번지 수원팩토리월드 1층 123호","indutype":"건강식품 - 기타건강식품","category":"food"}]},{"lat":"37.273710528","long":"127.05455468","imageIndex":7,"items":[{"name":"오레시피 광교호수점","tel":"053-000-0000","addr":"경기도 수원시 영통구 원천동 607-1번지 1층 105호","indutype":"음료식품 - 기타음료식품","category":"food"}]},{"lat":"37.276958069","long":"127.04483755","imageIndex":7,"items":[{"name":"우리동네 앞담배가게","tel":"031-217-0470","addr":"경기도 수원시 영통구 원천동 29-3번지 다온 1층","indutype":"음료식품 - 기타음료식품","category":"food"}]},{"lat":"37.275434275","long":"127.04772314","imageIndex":7,"items":[{"name":"원천동제과점","tel":"070-5412-1429","addr":"경기도 수원시 영통구 원천동 77-11번지 103호","indutype":"음료식품 - 제과점","category":"food"}]},{"lat":"37.267354277","long":"127.06302833","imageIndex":7,"items":[{"name":"유니베라","tel":"031-216-6626","addr":"경기도 수원시 영통구 원천동 259-5번지 성훈빌딩 302호","indutype":"건강식품 - 기타건강식품","category":"food"}]},{"lat":"37.274930401","long":"127.04582863","imageIndex":7,"items":[{"name":"이솝베이커리","tel":"031-217-1213","addr":"경기도 수원시 영통구 원천동 72-82번지","indutype":"음료식품 - 제과점","category":"food"}]},{"lat":"37.272880602","long":"127.05675269","imageIndex":7,"items":[{"name":"정직한축산","tel":"031-275-3500","addr":"경기도 수원시 영통구 원천동 606번지 광교호반베르디움 1015동 102호","indutype":"음료식품 - 정육점","category":"food"}]},{"lat":"37.278624852","long":"127.04516547","imageIndex":7,"items":[{"name":"주식회사 더쉐어","tel":"031-215-3279","addr":"경기도 수원시 영통구 원천동 38-26번지 캠퍼스빌 301호","indutype":"음료식품 - 기타음료식품","category":"food"}]},{"lat":"37.268687215","long":"127.06416807","imageIndex":7,"items":[{"name":"주식회사 원천수산","tel":"031-214-4001","addr":"경기도 수원시 영통구 원천동 271-1번지 1층","indutype":"음료식품 - 농·축·수산품","category":"food"}]},{"lat":"37.278210781","long":"127.04402641","imageIndex":7,"items":[{"name":"파리바게뜨","tel":"031-216-5801","addr":"경기도 수원시 영통구 원천동 18-6번지","indutype":"음료식품 - 제과점","category":"food"}]},{"lat":"37.278489569","long":"127.04552621","imageIndex":7,"items":[{"name":"파티스리듀쿠플","tel":"031-215-3011","addr":"경기도 수원시 영통구 원천동 37-7번지 1층","indutype":"음료식품 - 제과점","category":"food"}]},{"lat":"37.274434164","long":"127.04764362","imageIndex":7,"items":[{"name":"폴인 디저트 (Fall in dessert)","tel":"","addr":"경기도 수원시 영통구 원천동 77-80번지 1층","indutype":"음료식품 - 기타음료식품","category":"food"}]},{"lat":"37.267715222","long":"127.06196886","imageIndex":7,"items":[{"name":"한세유통 (원천점)정육코너","tel":"031-216-0075","addr":"경기도 수원시 영통구 원천동 235-5번지","indutype":"음료식품 - 정육점","category":"food"}]}]