[{"lat":"37.349973434","long":"126.87893628","imageIndex":4,"items":[{"name":"감나무골","tel":"031--401-7453","addr":"경기도 안산시 상록구 장상동 329번지 1층","indutype":"일반휴게음식 - 일반한식","category":"restaurant"}]},{"lat":"37.358113986","long":"126.8745998","imageIndex":4,"items":[{"name":"노리울식당","tel":"070-8126-2710","addr":"경기도 안산시 상록구 장상동 71-1번지","indutype":"일반휴게음식 - 일반한식","category":"restaurant"}]},{"lat":"37.361529105","long":"126.87485361","imageIndex":4,"items":[{"name":"당충전소","tel":"031-402-5766","addr":"경기도 안산시 상록구 장상동 539-2번지 A동 102호","indutype":"일반휴게음식 - 서양음식","category":"restaurant"},{"name":"브로스팬딜리버리안산본점","tel":"031-475-2906","addr":"경기도 안산시 상록구 장상동 539-2번지 A동 108호","indutype":"일반휴게음식 - 일반한식","category":"restaurant"}]},{"lat":"37.3511099","long":"126.88007434","imageIndex":4,"items":[{"name":"동막골시골집","tel":"031-482-0229","addr":"경기도 안산시 상록구 장상동 305-2번지","indutype":"일반휴게음식 - 일반한식","category":"restaurant"}]},{"lat":"37.361089103","long":"126.87624277","imageIndex":4,"items":[{"name":"라인(Line)","tel":"031-410-4851","addr":"경기도 안산시 상록구 장상동 3-73번지","indutype":"일반휴게음식 - 스넥","category":"restaurant"}]},{"lat":"37.3611673","long":"126.8735674","imageIndex":4,"items":[{"name":"맛차림뷔페식당","tel":"02-1234-1234","addr":"경기도 안산시 상록구 장상동 538-7번지 1층 일부","indutype":"일반휴게음식 - 일반한식","category":"restaurant"}]},{"lat":"37.348279971","long":"126.8710163","imageIndex":4,"items":[{"name":"무봉리토종순대국","tel":"031-480-3041","addr":"경기도 안산시 상록구 장상동 436-2번지 1층","indutype":"일반휴게음식 - 일반한식","category":"restaurant"}]},{"lat":"37.351027786","long":"126.87076319","imageIndex":4,"items":[{"name":"바다가육지라면","tel":"031-411-5457","addr":"경기도 안산시 상록구 장상동 255번지 A동 1층","indutype":"일반휴게음식 - 일반한식","category":"restaurant"}]},{"lat":"37.351669298","long":"126.87237604","imageIndex":4,"items":[{"name":"백년가","tel":"031-483-9955","addr":"경기도 안산시 상록구 장상동 268-3번지 , 1,2층","indutype":"일반휴게음식 - 중국식","category":"restaurant"}]},{"lat":"37.359750196","long":"126.87128971","imageIndex":4,"items":[{"name":"번영식당","tel":"031-482-8148","addr":"경기도 안산시 상록구 장상동 530-3번지 1층","indutype":"일반휴게음식 - 일반한식","category":"restaurant"}]},{"lat":"37.361311005","long":"126.8731495","imageIndex":4,"items":[{"name":"복손순대국","tel":"031-402-2266","addr":"경기도 안산시 상록구 장상동 536-2번지 101호","indutype":"일반휴게음식 - 일반한식","category":"restaurant"}]},{"lat":"37.35011002","long":"126.87190471","imageIndex":4,"items":[{"name":"오리세상","tel":"031-414-6050","addr":"경기도 안산시 상록구 장상동 418번지 1층","indutype":"일반휴게음식 - 일반한식","category":"restaurant"}]},{"lat":"37.347558782","long":"126.87067898","imageIndex":4,"items":[{"name":"옹골찬설악추어탕","tel":"031-405-9933","addr":"경기도 안산시 상록구 장상동 437-1번지","indutype":"일반휴게음식 - 일반한식","category":"restaurant"}]},{"lat":"37.361582492","long":"126.87423268","imageIndex":4,"items":[{"name":"옹달샘식당","tel":"031-482-7562","addr":"경기도 안산시 상록구 장상동 538-4번지 1층","indutype":"일반휴게음식 - 일반한식","category":"restaurant"}]},{"lat":"37.361337886","long":"126.873014","imageIndex":4,"items":[{"name":"이가돈까스","tel":"031-410-3012","addr":"경기도 안산시 상록구 장상동 536-1번지 1층","indutype":"일반휴게음식 - 일반한식","category":"restaurant"}]},{"lat":"37.360886335","long":"126.87206659","imageIndex":4,"items":[{"name":"청정식당","tel":"031-482-3132","addr":"경기도 안산시 상록구 장상동 535-10번지","indutype":"일반휴게음식 - 일반한식","category":"restaurant"}]}]