[{"lat":"37.255827928","long":"127.12455408","imageIndex":4,"items":[{"name":"(주) 우미제","tel":"031-287-3683","addr":"경기도 용인시 기흥구 지곡동 610번지","indutype":"일반휴게음식 - 일반한식","category":"restaurant"}]},{"lat":"37.256098561","long":"127.1242389","imageIndex":4,"items":[{"name":"17마일","tel":"031-287-9522","addr":"경기도 용인시 기흥구 지곡동 611-1번지 1층 일부","indutype":"일반휴게음식 - 서양음식","category":"restaurant"}]},{"lat":"37.251904954","long":"127.12790672","imageIndex":4,"items":[{"name":"Remember (리멤버)","tel":"031-274-0234","addr":"경기도 용인시 기흥구 지곡동 474-4번지 호산빌딩 1층","indutype":"일반휴게음식 - 서양음식","category":"restaurant"}]},{"lat":"37.240969503","long":"127.13341094","imageIndex":4,"items":[{"name":"고페르(Gopher)","tel":"031-8005-7590","addr":"경기도 용인시 기흥구 지곡동 278-12번지 1층","indutype":"일반휴게음식 - 서양음식","category":"restaurant"}]},{"lat":"37.254827937","long":"127.12440594","imageIndex":4,"items":[{"name":"곰솔마루(민속촌점)","tel":"031-287-2279","addr":"경기도 용인시 기흥구 지곡동 607-26번지","indutype":"일반휴게음식 - 일반한식","category":"restaurant"},{"name":"쭈꾸미&순대국","tel":"031-287-2279","addr":"경기도 용인시 기흥구 지곡동 607-26번지 1층","indutype":"일반휴게음식 - 일반한식","category":"restaurant"}]},{"lat":"37.252129387","long":"127.12868483","imageIndex":4,"items":[{"name":"금성가든","tel":"031-693-6337","addr":"경기도 용인시 기흥구 지곡동 489-1번지","indutype":"일반휴게음식 - 일반한식","category":"restaurant"}]},{"lat":"37.240354145","long":"127.1357991","imageIndex":4,"items":[{"name":"노랑저고리","tel":"031-274-0388","addr":"경기도 용인시 기흥구 지곡동 253번지 노랑저고리음식점1층","indutype":"일반휴게음식 - 일반한식","category":"restaurant"}]},{"lat":"37.247713093","long":"127.12984967","imageIndex":4,"items":[{"name":"다가올 갤러리","tel":"070-4321-5115","addr":"경기도 용인시 기흥구 지곡동 551-3번지 102호","indutype":"일반휴게음식 - 일반한식","category":"restaurant"},{"name":"전주한식부페","tel":"031-286-2339","addr":"경기도 용인시 기흥구 지곡동 551-3번지 1층","indutype":"일반휴게음식 - 일반한식","category":"restaurant"}]},{"lat":"37.251517273","long":"127.12813151","imageIndex":4,"items":[{"name":"대찬낙지","tel":"031-283-5799","addr":"경기도 용인시 기흥구 지곡동 474-8번지 1층","indutype":"일반휴게음식 - 일반한식","category":"restaurant"}]},{"lat":"37.240128976","long":"127.13571982","imageIndex":4,"items":[{"name":"동해막국수","tel":"031-287-4439","addr":"경기도 용인시 기흥구 지곡동 290번지 1층","indutype":"일반휴게음식 - 일반한식","category":"restaurant"}]},{"lat":"37.24963362","long":"127.12860178","imageIndex":4,"items":[{"name":"두메산골","tel":"031-285-0577","addr":"경기도 용인시 기흥구 지곡동 564-1번지","indutype":"일반휴게음식 - 일반한식","category":"restaurant"}]},{"lat":"37.247911669","long":"127.12952315","imageIndex":4,"items":[{"name":"디미가 주식회사","tel":"031-274-7388","addr":"경기도 용인시 기흥구 지곡동 553번지 2층","indutype":"일반휴게음식 - 일반한식","category":"restaurant"}]},{"lat":"37.25182494","long":"127.12688087","imageIndex":4,"items":[{"name":"마당","tel":"031-287-1345","addr":"경기도 용인시 기흥구 지곡동 575-2번지","indutype":"일반휴게음식 - 일반한식","category":"restaurant"}]},{"lat":"37.239409121","long":"127.13485078","imageIndex":4,"items":[{"name":"마라커피로스터스","tel":"","addr":"경기도 용인시 기흥구 지곡동 288-10번지 1층","indutype":"일반휴게음식 - 서양음식","category":"restaurant"}]},{"lat":"37.251049924","long":"127.13532194","imageIndex":4,"items":[{"name":"매일치킨호프","tel":"031-287-2922","addr":"경기도 용인시 기흥구 지곡동 704 자봉마을써니밸리상가 112","indutype":"일반휴게음식 - 주점","category":"restaurant"},{"name":"수기김밥&카페","tel":"031-285-7980","addr":"경기도 용인시 기흥구 지곡동 704번지 자봉마을써니밸리 상가동 111호","indutype":"일반휴게음식 - 일반한식","category":"restaurant"}]},{"lat":"37.236272247","long":"127.13599478","imageIndex":4,"items":[{"name":"모리","tel":"070-8829-4862","addr":"경기도 용인시 기흥구 지곡동 96번지","indutype":"일반휴게음식 - 서양음식","category":"restaurant"}]},{"lat":"37.238551805","long":"127.13604387","imageIndex":4,"items":[{"name":"몽키그릴","tel":"031-274-2592","addr":"경기도 용인시 기흥구 지곡동 292-6번지 1층","indutype":"일반휴게음식 - 일반한식","category":"restaurant"},{"name":"함경도동치미국수","tel":"031-214-7993","addr":"경기도 용인시 기흥구 지곡동 292-6번지","indutype":"일반휴게음식 - 일반한식","category":"restaurant"}]},{"lat":"37.232714132","long":"127.1351321","imageIndex":4,"items":[{"name":"민들레","tel":"031-286-2724","addr":"경기도 용인시 기흥구 지곡동 76-1번지","indutype":"일반휴게음식 - 일반한식","category":"restaurant"}]},{"lat":"37.251905678","long":"127.12721915","imageIndex":4,"items":[{"name":"바소(VASO)","tel":"031-287-1404","addr":"경기도 용인시 기흥구 지곡동 576-4번지","indutype":"일반휴게음식 - 서양음식","category":"restaurant"}]},{"lat":"37.232104494","long":"127.1479097","imageIndex":4,"items":[{"name":"백합향기","tel":"031-286-2103","addr":"경기도 용인시 기흥구 지곡동 172-1번지 1층","indutype":"일반휴게음식 - 일반한식","category":"restaurant"},{"name":"아모테","tel":"031-286-2103","addr":"경기도 용인시 기흥구 지곡동 172-1번지","indutype":"일반휴게음식 - 서양음식","category":"restaurant"}]},{"lat":"37.253658268","long":"127.13135881","imageIndex":4,"items":[{"name":"블루도어","tel":"","addr":"경기도 용인시 기흥구 지곡동 501번지 나동 1층","indutype":"일반휴게음식 - 서양음식","category":"restaurant"},{"name":"카페501","tel":"","addr":"경기도 용인시 기흥구 지곡동 501번지 1층","indutype":"일반휴게음식 - 서양음식","category":"restaurant"},{"name":"토리커피로스터스","tel":"031-8005-8022","addr":"경기도 용인시 기흥구 지곡동 501번지","indutype":"일반휴게음식 - 서양음식","category":"restaurant"}]},{"lat":"37.2297405","long":"127.13532974","imageIndex":4,"items":[{"name":"산골짜기","tel":"031-286-4784","addr":"경기도 용인시 기흥구 지곡동 69번지","indutype":"일반휴게음식 - 일반한식","category":"restaurant"}]},{"lat":"37.243322688","long":"127.13205129","imageIndex":4,"items":[{"name":"소나무집가마솥곰탕","tel":"031-285-0414","addr":"경기도 용인시 기흥구 지곡동 308번지","indutype":"일반휴게음식 - 일반한식","category":"restaurant"}]},{"lat":"37.23391176","long":"127.13579906","imageIndex":4,"items":[{"name":"써니 포레스트","tel":"","addr":"경기도 용인시 기흥구 지곡동 80-2번지 1층","indutype":"일반휴게음식 - 서양음식","category":"restaurant"}]},{"lat":"37.255071642","long":"127.12398926","imageIndex":4,"items":[{"name":"안일옥","tel":"031-284-7808","addr":"경기도 용인시 기흥구 지곡동 609-2번지 1층","indutype":"일반휴게음식 - 일반한식","category":"restaurant"}]},{"lat":"37.253934021","long":"127.13460558","imageIndex":4,"items":[{"name":"연불국수 순대국밥","tel":"031-281-2199","addr":"경기도 용인시 기흥구 지곡동 446-3번지 1층일부,2층","indutype":"일반휴게음식 - 일반한식","category":"restaurant"},{"name":"연불국수 순대국밥","tel":"031-281-2199","addr":"경기도 용인시 기흥구 지곡동 446-3번지 1층일부,2층","indutype":"일반휴게음식 - 일반한식","category":"restaurant"}]},{"lat":"37.227911215","long":"127.13549556","imageIndex":4,"items":[{"name":"원정","tel":"031-287-9233","addr":"경기도 용인시 기흥구 지곡동 64번지 1,2층","indutype":"일반휴게음식 - 일반한식","category":"restaurant"}]},{"lat":"37.246604257","long":"127.13037754","imageIndex":4,"items":[{"name":"장어사냥","tel":"031-285-8588","addr":"경기도 용인시 기흥구 지곡동 359-2번지","indutype":"일반휴게음식 - 일반한식","category":"restaurant"}]},{"lat":"37.234358265","long":"127.13932704","imageIndex":4,"items":[{"name":"전라도집보신탕","tel":"031-282-8868","addr":"경기도 용인시 기흥구 지곡동 123-7번지","indutype":"일반휴게음식 - 일반한식","category":"restaurant"}]},{"lat":"37.250406905","long":"127.13010216","imageIndex":4,"items":[{"name":"지엘씨(GLC)키즈카페","tel":"070-6486-4874","addr":"경기도 용인시 기흥구 지곡동 534-7번지","indutype":"일반휴게음식 - 서양음식","category":"restaurant"}]},{"lat":"37.255880651","long":"127.12585047","imageIndex":4,"items":[{"name":"청사오리","tel":"031-283-5959","addr":"경기도 용인시 기흥구 지곡동 601-2번지","indutype":"일반휴게음식 - 일반한식","category":"restaurant"}]},{"lat":"37.243186868","long":"127.13265966","imageIndex":4,"items":[{"name":"초원마당","tel":"031-283-7667","addr":"경기도 용인시 기흥구 지곡동 306-4번지 외1필지","indutype":"일반휴게음식 - 일반한식","category":"restaurant"}]},{"lat":"37.245909465","long":"127.13130057","imageIndex":4,"items":[{"name":"카페노마드","tel":"031-4857-8999","addr":"경기도 용인시 기흥구 지곡동 361-4번지 1층 일부","indutype":"일반휴게음식 - 서양음식","category":"restaurant"}]},{"lat":"37.224324889","long":"127.14348921","imageIndex":4,"items":[{"name":"향미옻닭","tel":"031-286-8027","addr":"경기도 용인시 기흥구 지곡동 36번지","indutype":"일반휴게음식 - 일반한식","category":"restaurant"}]},{"lat":"37.23529907","long":"127.13604942","imageIndex":4,"items":[{"name":"황금누룽지돌판오리","tel":"031-8005-9252","addr":"경기도 용인시 기흥구 지곡동 98-2번지","indutype":"일반휴게음식 - 일반한식","category":"restaurant"}]}]