[{"lat":"37.656920968","long":"127.29990791","imageIndex":17,"items":[{"name":"(주)새마음씨앤에스","tel":"031-555-0222","addr":"경기도 남양주시 화도읍 마석우리 560-2번지 미진파크빌 1층 101호 상가","indutype":"용역 서비스 - 종합용역","category":"other"}]},{"lat":"37.652057596","long":"127.30974718","imageIndex":17,"items":[{"name":"(주)신세계렌트카","tel":"031-511-1870","addr":"경기도 남양주시 화도읍 마석우리 288-7번지 1층","indutype":"여행 - 렌터카","category":"other"}]},{"lat":"37.657309933","long":"127.30285593","imageIndex":17,"items":[{"name":"(주)예스코경기동부고객센터","tel":"031-522-5861","addr":"경기도 남양주시 화도읍 마석우리 383-5 메디칼프라자 503","indutype":"용역 서비스 - 종합용역","category":"other"},{"name":"라온통신","tel":"031-593-8322","addr":"경기도 남양주시 화도읍 마석우리 383-5번지 메디칼프라자 108호","indutype":"사무통신 - 통신기기","category":"other"},{"name":"라임이네 옷짱","tel":"","addr":"경기도 남양주시 화도읍 마석우리 383-5번지 메디칼프라자 107-1호","indutype":"의류 - 정장","category":"other"},{"name":"마석텔레콤","tel":"031-593-3017","addr":"경기도 남양주시 화도읍 마석우리 383-5번지 메디칼프라자 106호","indutype":"사무통신 - 통신기기","category":"other"},{"name":"블럭팡 남양주 마석점","tel":"031-625-1335","addr":"경기도 남양주시 화도읍 마석우리 383-5번지 메디칼프라자 305호","indutype":"서적문구 - 완구점","category":"other"},{"name":"이브몰","tel":"070-8621-1707","addr":"경기도 남양주시 화도읍 마석우리 383-5번지 메디칼프라자 506호","indutype":"신변잡화 - 기타잡화","category":"other"},{"name":"이브몰","tel":"070-8621-1707","addr":"경기도 남양주시 화도읍 마석우리 383-5번지 메디칼프라자 506호","indutype":"신변잡화 - 기타잡화","category":"other"}]},{"lat":"37.654445062","long":"127.3063007","imageIndex":17,"items":[{"name":"11번가","tel":"031-511-1045","addr":"경기도 남양주시 화도읍 마석우리 297-4","indutype":"의류 - 정장","category":"other"},{"name":"뚜버기","tel":"031-528-6263","addr":"경기도 남양주시 화도읍 마석우리 297-4번지","indutype":"신변잡화 - 신발","category":"other"}]},{"lat":"37.654921242","long":"127.29974129","imageIndex":17,"items":[{"name":"Dagyeomi 핸드메이드","tel":"031-000-0000","addr":"경기도 남양주시 화도읍 마석우리 520-25번지 해피하우스 501호","indutype":"신변잡화 - 기타잡화","category":"other"}]},{"lat":"37.661061403","long":"127.32213736","imageIndex":17,"items":[{"name":"DnS","tel":"070-8731-7828","addr":"경기도 남양주시 화도읍 마석우리 599번지 신마석서희스타힐스 102동 802호","indutype":"전기제품 - 기타전기제품","category":"other"}]},{"lat":"37.658024885","long":"127.30513667","imageIndex":17,"items":[{"name":"GS25남양주마석점","tel":"","addr":"경기도 남양주시 화도읍 마석우리 360-5번지 1층 103호","indutype":"유통업 영리 - 편 의 점","category":"other"},{"name":"더 스터디 북:킹","tel":"031-559-1032","addr":"경기도 남양주시 화도읍 마석우리 360-5번지 3층","indutype":"용역 서비스 - 사무서비스","category":"other"}]},{"lat":"37.651081727","long":"127.32101814","imageIndex":17,"items":[{"name":"GS25마석그랜드힐점","tel":"","addr":"경기도 남양주시 화도읍 마석우리 76-18번지 덕양프라자 108호","indutype":"유통업 영리 - 편 의 점","category":"other"},{"name":"은성가설","tel":"070-8201-8617","addr":"경기도 남양주시 화도읍 마석우리 76-18번지 덕양프라자 201호","indutype":"건축자재 - 기타건축자재","category":"other"}]},{"lat":"37.658947893","long":"127.32074571","imageIndex":17,"items":[{"name":"GS25마석서희점","tel":"","addr":"경기도 남양주시 화도읍 마석우리 10-22번지","indutype":"유통업 영리 - 편 의 점","category":"other"},{"name":"위드미서희점","tel":"02-1566-9902","addr":"경기도 남양주시 화도읍 마석우리 10-22번지","indutype":"유통업 영리 - 편 의 점","category":"other"}]},{"lat":"37.652054939","long":"127.31076703","imageIndex":17,"items":[{"name":"GS25마석역점","tel":"","addr":"경기도 남양주시 화도읍 마석우리 282-2번지","indutype":"유통업 영리 - 편 의 점","category":"other"}]},{"lat":"37.656226795","long":"127.3036335","imageIndex":17,"items":[{"name":"GS25마석우리점","tel":"02-2006-2485","addr":"경기도 남양주시 화도읍 마석우리 379-14","indutype":"유통업 영리 - 편 의 점","category":"other"}]},{"lat":"37.654610002","long":"127.29810822","imageIndex":17,"items":[{"name":"GS25마석푸르지오점","tel":"","addr":"경기도 남양주시 화도읍 마석우리 600번지","indutype":"유통업 영리 - 편 의 점","category":"other"},{"name":"백마크리닝 남양주13호점","tel":"","addr":"경기도 남양주시 화도읍 마석우리 600번지 마석힐즈파크푸르지오 상가동 104호","indutype":"수리서비스 - 세탁소","category":"other"},{"name":"씨클럽(C CLUB)","tel":"","addr":"경기도 남양주시 화도읍 마석우리 600번지 마석힐즈파크푸르지오 105동 1601호","indutype":"의류 - 정장","category":"other"}]},{"lat":"37.653949092","long":"127.29938613","imageIndex":17,"items":[{"name":"K전자","tel":"070-8871-4989","addr":"경기도 남양주시 화도읍 마석우리 525-20번지 103동 201호","indutype":"사무통신 - 컴퓨터","category":"other"}]},{"lat":"37.651477908","long":"127.31435679","imageIndex":17,"items":[{"name":"PAT마석점","tel":"031-511-9512","addr":"경기도 남양주시 화도읍 마석우리 84-5번지 6-8호","indutype":"레져용품 - 스포츠·레져용품","category":"other"},{"name":"가방팩토리","tel":"031-111-1111","addr":"경기도 남양주시 화도읍 마석우리 84-5번지 1층","indutype":"신변잡화 - 가방","category":"other"},{"name":"네파마석상설","tel":"031-593-7605","addr":"경기도 남양주시 화도읍 마석우리 84-5번지","indutype":"레져용품 - 스포츠·레져용품","category":"other"},{"name":"루이까스텔 남양주마석","tel":"031-513-7103","addr":"경기도 남양주시 화도읍 마석우리 84-5번지 가리온아울렛 C","indutype":"의류 - 스포츠의류","category":"other"},{"name":"엘레강스스포츠골프의류","tel":"031-592-5445","addr":"경기도 남양주시 화도읍 마석우리 84-5번지","indutype":"의류 - 정장","category":"other"},{"name":"주식회사 피앤비코리아","tel":"070-8279-5446","addr":"경기도 남양주시 화도읍 마석우리 84-5번지","indutype":"건축자재 - 조명기구","category":"other"}]},{"lat":"37.656360203","long":"127.30076694","imageIndex":17,"items":[{"name":"PC클리닉","tel":"031-593-2119","addr":"경기도 남양주시 화도읍 마석우리 557-7번지 103호","indutype":"수리서비스 - 사무·통신기기수리","category":"other"}]},{"lat":"37.656672171","long":"127.30562982","imageIndex":17,"items":[{"name":"Sweet berry 스위트베리","tel":"031-000-0000","addr":"경기도 남양주시 화도읍 마석우리 366-4번지 1층 102호","indutype":"의류 - 정장","category":"other"},{"name":"성진종합설비","tel":"031-592-3981","addr":"경기도 남양주시 화도읍 마석우리 366-4","indutype":"건축자재 - 보일러·펌프·샷시","category":"other"}]},{"lat":"37.654061543","long":"127.30828226","imageIndex":17,"items":[{"name":"가가하수구뚫음","tel":"070-8253-8695","addr":"경기도 남양주시 화도읍 마석우리 219-13번지 마석빌라 가동 107호","indutype":"용역 서비스 - 종합용역","category":"other"}]},{"lat":"37.658391139","long":"127.30283761","imageIndex":17,"items":[{"name":"가인 바이 아리(Gain by Ari)","tel":"02-6413-4312","addr":"경기도 남양주시 화도읍 마석우리 349번지 중흥S클래스 102동 205호","indutype":"회원제형태 - 기타4","category":"other"},{"name":"인섹트월드","tel":"031-591-2703","addr":"경기도 남양주시 화도읍 마석우리 349번지 중흥에스클래스 102동 806호","indutype":"회원제형태 - 기타4","category":"other"}]},{"lat":"37.657195075","long":"127.30549595","imageIndex":17,"items":[{"name":"강아지를 부탁해","tel":"031-593-6394","addr":"경기도 남양주시 화도읍 마석우리 363-9번지 1층 101호","indutype":"문화.취미 - 애완동물","category":"other"}]},{"lat":"37.656140374","long":"127.30571832","imageIndex":17,"items":[{"name":"개구리서적","tel":"031-511-4032","addr":"경기도 남양주시 화도읍 마석우리 299-10번지 103호","indutype":"서적문구 - 일반서적","category":"other"},{"name":"다움세무회계사무소","tel":"031-591-6029","addr":"경기도 남양주시 화도읍 마석우리 299-10번지","indutype":"용역 서비스 - 법률회계서비스(개인)","category":"other"},{"name":"마석 폰 월드","tel":"031-511-9144","addr":"경기도 남양주시 화도읍 마석우리 299-10번지 106호","indutype":"사무통신 - 통신기기","category":"other"},{"name":"마석복싱","tel":"031-591-8212","addr":"경기도 남양주시 화도읍 마석우리 299-10번지 우리빌딩 302호","indutype":"회원제형태 - 레져업소","category":"other"},{"name":"씨유마석심석점","tel":"031-511-4346","addr":"경기도 남양주시 화도읍 마석우리 299-10번지 101호","indutype":"유통업 영리 - 편 의 점","category":"other"},{"name":"킨텍스렌트","tel":"031-516-3434","addr":"경기도 남양주시 화도읍 마석우리 299-10번지 우리빌딩 503호","indutype":"가구 - 일반가구","category":"other"}]},{"lat":"37.657419471","long":"127.30582551","imageIndex":17,"items":[{"name":"갤러리오딘","tel":"031-559-1515","addr":"경기도 남양주시 화도읍 마석우리 404-7번지 2층","indutype":"문화.취미 - 화랑","category":"other"},{"name":"굿샵 마석점","tel":"031-524-9958","addr":"경기도 남양주시 화도읍 마석우리 404-7번지 1층","indutype":"유통업 영리 - 편 의 점","category":"other"}]},{"lat":"37.657141082","long":"127.30193731","imageIndex":17,"items":[{"name":"건축사사무소 모던아이","tel":"031-511-3354","addr":"경기도 남양주시 화도읍 마석우리 383-1번지 성훈프라자 6층 602호","indutype":"용역 서비스 - 사무서비스","category":"other"}]},{"lat":"37.654141699","long":"127.30160798","imageIndex":17,"items":[{"name":"경기마을교육공동체사회적협동조합 남양주","tel":"070-4111-0048","addr":"경기도 남양주시 화도읍 마석우리 590번지 송라초등학교","indutype":"서적문구 - 문구용품","category":"other"}]},{"lat":"37.657054083","long":"127.30071305","imageIndex":17,"items":[{"name":"경진당","tel":"031-593-0280","addr":"경기도 남양주시 화도읍 마석우리 556-4번지 101호","indutype":"건축자재 - 목재·석재·철물","category":"other"}]},{"lat":"37.660831577","long":"127.30330075","imageIndex":17,"items":[{"name":"경희대송라체육관","tel":"031-594-7370","addr":"경기도 남양주시 화도읍 마석우리 444-1번지","indutype":"회원제형태 - 기타4","category":"other"}]},{"lat":"37.655614086","long":"127.3036537","imageIndex":17,"items":[{"name":"곤 언니","tel":"","addr":"경기도 남양주시 화도읍 마석우리 326-1번지 1층","indutype":"의류 - 정장","category":"other"}]},{"lat":"37.657058943","long":"127.3058807","imageIndex":17,"items":[{"name":"골드 미","tel":"031-594-7177","addr":"경기도 남양주시 화도읍 마석우리 403-1번지 태영빌딩 1층 104호","indutype":"신변잡화 - 액세서리","category":"other"},{"name":"폰&통신","tel":"070-5111-2249","addr":"경기도 남양주시 화도읍 마석우리 403-1번지 태영빌딩","indutype":"사무통신 - 통신기기","category":"other"}]},{"lat":"37.653200166","long":"127.30690756","imageIndex":17,"items":[{"name":"골드샤인","tel":"031-511-9252","addr":"경기도 남양주시 화도읍 마석우리 220-17번지","indutype":"신변잡화 - 귀금속","category":"other"}]},{"lat":"37.654065333","long":"127.29973788","imageIndex":17,"items":[{"name":"공간미리미터","tel":"031-511-0628","addr":"경기도 남양주시 화도읍 마석우리 525-17번지 포스필하우스 102동 102호","indutype":"건축자재 - 인테리어전문","category":"other"}]},{"lat":"37.656948484","long":"127.30327377","imageIndex":17,"items":[{"name":"굿피플","tel":"031-595-1135","addr":"경기도 남양주시 화도읍 마석우리 383-8번지 별나라타워 704호","indutype":"용역 서비스 - 종합용역","category":"other"},{"name":"블럭블럭","tel":"031-511-5798","addr":"경기도 남양주시 화도읍 마석우리 383-8번지 별나라타워 4층 401호","indutype":"서적문구 - 완구점","category":"other"},{"name":"세븐일레븐마석별나라점","tel":"031-1577-0711","addr":"경기도 남양주시 화도읍 마석우리 383-8번지 별나라타워 1층 106호","indutype":"유통업 영리 - 편 의 점","category":"other"},{"name":"유스컴퍼니","tel":"031-595-4868","addr":"경기도 남양주시 화도읍 마석우리 383-8번지 별나라타워 501호","indutype":"의류 - 아동의류","category":"other"},{"name":"탑디자인","tel":"031-591-8827","addr":"경기도 남양주시 화도읍 마석우리 383-8번지 별나라타워 5층 501호내2호실","indutype":"건축자재 - 인테리어전문","category":"other"},{"name":"하바엔조이","tel":"02-1111-1111","addr":"경기도 남양주시 화도읍 마석우리 383-8번지 별나라타워 605호","indutype":"신변잡화 - 기타잡화","category":"other"}]},{"lat":"37.652808171","long":"127.30518352","imageIndex":17,"items":[{"name":"기분좋은날","tel":"031-511-7073","addr":"경기도 남양주시 화도읍 마석우리 310-6번지","indutype":"의류 - 정장","category":"other"}]},{"lat":"37.66033478","long":"127.3037974","imageIndex":17,"items":[{"name":"기쁨광고","tel":"031-595-8585","addr":"경기도 남양주시 화도읍 마석우리 441-1번지 동보플라자 101호","indutype":"용역 서비스 - 종합용역","category":"other"},{"name":"파더앤하우스","tel":"031-591-8203","addr":"경기도 남양주시 화도읍 마석우리 441-1번지 동보플라자 101호","indutype":"문화.취미 - 문화취미기타","category":"other"}]},{"lat":"37.652865147","long":"127.30049234","imageIndex":17,"items":[{"name":"기흥석재","tel":"031-511-2343","addr":"경기도 남양주시 화도읍 마석우리 527-12번지","indutype":"건축자재 - 목재·석재·철물","category":"other"}]},{"lat":"37.652054782","long":"127.30735617","imageIndex":17,"items":[{"name":"김영애뷰티테라피","tel":"031-512-5023","addr":"경기도 남양주시 화도읍 마석우리 271-3번지 상가 2층","indutype":"회원제형태 - 기타4","category":"other"},{"name":"레베카김","tel":"031-593-8143","addr":"경기도 남양주시 화도읍 마석우리 271-3번지","indutype":"의류 - 정장","category":"other"}]},{"lat":"37.655328923","long":"127.30241733","imageIndex":17,"items":[{"name":"꽃냥이샵","tel":"070-8128-3141","addr":"경기도 남양주시 화도읍 마석우리 396번지 신명스카이뷰그린 108동 102호","indutype":"의류 - 정장","category":"other"}]},{"lat":"37.66149964","long":"127.30277078","imageIndex":17,"items":[{"name":"꽃밭의사계","tel":"031-594-5445","addr":"경기도 남양주시 화도읍 마석우리 473-1번지","indutype":"문화.취미 - 화원","category":"other"}]},{"lat":"37.658252727","long":"127.30057051","imageIndex":17,"items":[{"name":"꽃이야기","tel":"031-591-2253","addr":"경기도 남양주시 화도읍 마석우리 541-1번지 102호","indutype":"문화.취미 - 화원","category":"other"},{"name":"식스그램(Six gram)","tel":"031-593-3342","addr":"경기도 남양주시 화도읍 마석우리 541-1번지 스타타워 101호","indutype":"의류 - 정장","category":"other"}]},{"lat":"37.661131572","long":"127.30224798","imageIndex":17,"items":[{"name":"꿈의숲","tel":"","addr":"경기도 남양주시 화도읍 마석우리 475번지 경춘빌라 5동 202호","indutype":"신변잡화 - 기타잡화","category":"other"}]},{"lat":"37.650283713","long":"127.30935461","imageIndex":17,"items":[{"name":"나눔통신","tel":"031-111-1111","addr":"경기도 남양주시 화도읍 마석우리 255-24번지 104호","indutype":"사무통신 - 통신기기","category":"other"},{"name":"미니치치","tel":"031-593-1277","addr":"경기도 남양주시 화도읍 마석우리 255-24번지 1층 106호","indutype":"의류 - 아동의류","category":"other"},{"name":"크린에이드롯데마트마석점","tel":"031-511-7645","addr":"경기도 남양주시 화도읍 마석우리 255-24번지 외3필지 301호","indutype":"수리서비스 - 세탁소","category":"other"},{"name":"휴페이스","tel":"031-511-5559","addr":"경기도 남양주시 화도읍 마석우리 255-24번지 205호","indutype":"회원제형태 - 기타4","category":"other"}]},{"lat":"37.656388775","long":"127.3001551","imageIndex":17,"items":[{"name":"나이스자동문","tel":"","addr":"경기도 남양주시 화도읍 마석우리 558-5번지","indutype":"건축자재 - 기타건축자재","category":"other"}]},{"lat":"37.652809882","long":"127.30451494","imageIndex":17,"items":[{"name":"늑대와여우컴퓨터마석점","tel":"031-529-0990","addr":"경기도 남양주시 화도읍 마석우리 312-5번지 상가 1층","indutype":"사무통신 - 사무용 OA기기","category":"other"},{"name":"법무사이기준사무소","tel":"031-593-1476","addr":"경기도 남양주시 화도읍 마석우리 312-5번지 202호","indutype":"용역 서비스 - 법률회계서비스(개인)","category":"other"},{"name":"에스오(SO)인터내셔널","tel":"031-511-6735","addr":"경기도 남양주시 화도읍 마석우리 312-5번지 301호","indutype":"용역 서비스 - 종합용역","category":"other"},{"name":"정애의류","tel":"031-559-6745","addr":"경기도 남양주시 화도읍 마석우리 312-5번지 1층","indutype":"의류 - 정장","category":"other"}]},{"lat":"37.658972484","long":"127.30451721","imageIndex":17,"items":[{"name":"늘기쁜우리옷","tel":"031-592-5080","addr":"경기도 남양주시 화도읍 마석우리 357-3번지 101호","indutype":"의류 - 맞춤복점","category":"other"},{"name":"덕소장어","tel":"031-521-2779","addr":"경기도 남양주시 화도읍 마석우리 357-3번지 대경플러스원 201호","indutype":"회원제형태 - 기타1","category":"other"},{"name":"미주철물건재","tel":"031-521-4648","addr":"경기도 남양주시 화도읍 마석우리 357-3번지","indutype":"건축자재 - 기타건축자재","category":"other"}]},{"lat":"37.659445232","long":"127.30985692","imageIndex":17,"items":[{"name":"늘푸른농장","tel":"070-7786-7888","addr":"경기도 남양주시 화도읍 마석우리 208-1번지","indutype":"주방용구 - 주방용식기","category":"other"}]},{"lat":"37.65316547","long":"127.30638615","imageIndex":17,"items":[{"name":"다모아정보통신","tel":"031-559-1188","addr":"경기도 남양주시 화도읍 마석우리 295-31번지 101호 민호상가","indutype":"사무통신 - 통신기기","category":"other"},{"name":"마석신발백화점","tel":"031-593-5780","addr":"경기도 남양주시 화도읍 마석우리 295-31번지 민호 상가 103호","indutype":"신변잡화 - 신발","category":"other"}]},{"lat":"37.655253125","long":"127.30387889","imageIndex":17,"items":[{"name":"다비치","tel":"031-559-3587","addr":"경기도 남양주시 화도읍 마석우리 326-5번지 광원빌라 1층 101호","indutype":"신변잡화 - 신발","category":"other"}]},{"lat":"37.66033804","long":"127.30251678","imageIndex":17,"items":[{"name":"단디(DanDi)","tel":"031-595-5077","addr":"경기도 남양주시 화도읍 마석우리 479번지","indutype":"의류 - 정장","category":"other"},{"name":"진성건축","tel":"031-591-6600","addr":"경기도 남양주시 화도읍 마석우리 479번지","indutype":"건축자재 - 인테리어전문","category":"other"}]},{"lat":"37.662199151","long":"127.30404293","imageIndex":17,"items":[{"name":"달인에어컨","tel":"031-795-7778","addr":"경기도 남양주시 화도읍 마석우리 466-8번지 106동 201호","indutype":"용역 서비스 - 기타용역서비스","category":"other"}]},{"lat":"37.657218915","long":"127.3032182","imageIndex":17,"items":[{"name":"대목","tel":"031-559-7008","addr":"경기도 남양주시 화도읍 마석우리 383-6번지 중흥프라자 405호","indutype":"기타 - 기타 전문점","category":"other"},{"name":"드림휘트니스","tel":"031-527-0737","addr":"경기도 남양주시 화도읍 마석우리 383-6번지 중흥프라자 501~503,505호","indutype":"회원제형태 - 레져업소","category":"other"},{"name":"마석중흥비와이씨","tel":"070-4176-4600","addr":"경기도 남양주시 화도읍 마석우리 383-6번지 중흥프라자 107호","indutype":"의류 - 내의판매","category":"other"},{"name":"메쓰메카","tel":"031-595-1745","addr":"경기도 남양주시 화도읍 마석우리 383-6번지 중흥프라자 604호","indutype":"용역 서비스 - 사무서비스","category":"other"},{"name":"쏭노래녹음실","tel":"031-559-7989","addr":"경기도 남양주시 화도읍 마석우리 383-6번지 중흥프라자 204호","indutype":"기타 - 기타 전문점","category":"other"},{"name":"씨유마석중흥점","tel":"031-511-1015","addr":"경기도 남양주시 화도읍 마석우리 383-6번지 중흥프라자 1층 106호","indutype":"유통업 영리 - 편 의 점","category":"other"},{"name":"토즈멤버십라운지 마석센터","tel":"031-595-0801","addr":"경기도 남양주시 화도읍 마석우리 383-6번지 중흥프라자 8층","indutype":"용역 서비스 - 사무서비스","category":"other"},{"name":"트인경영컨설팅사무소","tel":"031-515-9324","addr":"경기도 남양주시 화도읍 마석우리 383-6번지 중흥프라자 305호","indutype":"회원제형태 - 기타4","category":"other"},{"name":"하늘디자인","tel":"031-595-9597","addr":"경기도 남양주시 화도읍 마석우리 383-6번지 중흥프라자 405호","indutype":"용역 서비스 - 사무서비스","category":"other"}]},{"lat":"37.653468508","long":"127.30415498","imageIndex":17,"items":[{"name":"대목광고기획","tel":"031-591-3149","addr":"경기도 남양주시 화도읍 마석우리 314-12번지 광원빌라 B동 102호","indutype":"서적문구 - 출판 및 인쇄물","category":"other"}]},{"lat":"37.662057252","long":"127.30315836","imageIndex":17,"items":[{"name":"대박부동산 공인중개사사무소","tel":"031-594-4500","addr":"경기도 남양주시 화도읍 마석우리 470-33번지 G동 101호","indutype":"용역 서비스 - 부동산 중개·임대","category":"other"},{"name":"베라코스메틱","tel":"031-528-6263","addr":"경기도 남양주시 화도읍 마석우리 470-33번지 지하1층 105호 B","indutype":"회원제형태 - 기타4","category":"other"},{"name":"커즈펫","tel":"070-8784-6468","addr":"경기도 남양주시 화도읍 마석우리 470-33번지 103호","indutype":"문화.취미 - 애완동물","category":"other"}]},{"lat":"37.652837403","long":"127.30432241","imageIndex":17,"items":[{"name":"대상상사","tel":"031-594-3610","addr":"경기도 남양주시 화도읍 마석우리 312-4번지 1층","indutype":"건축자재 - 보일러·펌프·샷시","category":"other"}]},{"lat":"37.65552569","long":"127.3099881","imageIndex":17,"items":[{"name":"대영환경자원","tel":"031-000-0000","addr":"경기도 남양주시 화도읍 마석우리 234번지","indutype":"신변잡화 - 기타잡화","category":"other"}]},{"lat":"37.659862539","long":"127.31562711","imageIndex":17,"items":[{"name":"더랜덤","tel":"050-7445-6362","addr":"경기도 남양주시 화도읍 마석우리 193-77번지","indutype":"회원제형태 - 기타4","category":"other"}]},{"lat":"37.651890882","long":"127.30802407","imageIndex":17,"items":[{"name":"더샵","tel":"031-513-6359","addr":"경기도 남양주시 화도읍 마석우리 271-7번지","indutype":"의류 - 정장","category":"other"}]},{"lat":"37.659624014","long":"127.30692242","imageIndex":17,"items":[{"name":"더존","tel":"031-593-9732","addr":"경기도 남양주시 화도읍 마석우리 201-11번지 그린캐슬 B동 101호","indutype":"회원제형태 - 기타4","category":"other"}]},{"lat":"37.65744712","long":"127.30205186","imageIndex":17,"items":[{"name":"도담","tel":"031-559-1236","addr":"경기도 남양주시 화도읍 마석우리 383-2번지 중앙프라자","indutype":"주방용구 - 주방용구","category":"other"},{"name":"사랑해줄개","tel":"031-591-3280","addr":"경기도 남양주시 화도읍 마석우리 383-2번지 중앙프라자 403호","indutype":"문화.취미 - 애완동물","category":"other"},{"name":"씨유마석주공점","tel":"031-559-4924","addr":"경기도 남양주시 화도읍 마석우리 383-2번지 중앙프라자 103호","indutype":"유통업 영리 - 편 의 점","category":"other"}]},{"lat":"37.653636267","long":"127.30549284","imageIndex":17,"items":[{"name":"독스애견","tel":"031-595-4649","addr":"경기도 남양주시 화도읍 마석우리 306-4번지","indutype":"문화.취미 - 애완동물","category":"other"}]},{"lat":"37.651389213","long":"127.30691151","imageIndex":17,"items":[{"name":"동명씽크","tel":"031-594-0404","addr":"경기도 남양주시 화도읍 마석우리 267-7번지","indutype":"주방용구 - 주방용구","category":"other"}]},{"lat":"37.657612876","long":"127.30063595","imageIndex":17,"items":[{"name":"동부보건센터(보건지소)","tel":"031-590-4397","addr":"경기도 남양주시 화도읍 마석우리 548번지","indutype":"기타의료기관 - 기타의료기관 및 기타","category":"other"},{"name":"화도읍사무소","tel":"031-590-4865","addr":"경기도 남양주시 화도읍 마석우리 548번지 화도읍사무소","indutype":"용역 서비스 - 사무서비스","category":"other"}]},{"lat":"37.655085906","long":"127.30585002","imageIndex":17,"items":[{"name":"동승목공기계","tel":"031-593-4223","addr":"경기도 남양주시 화도읍 마석우리 297-9번지","indutype":"기타 - 기계공구","category":"other"},{"name":"이모자인기획","tel":"031-511-5907","addr":"경기도 남양주시 화도읍 마석우리 297-9번지 3층 2호","indutype":"용역 서비스 - 종합용역","category":"other"},{"name":"인디라벨","tel":"070-8612-9729","addr":"경기도 남양주시 화도읍 마석우리 297-9번지 1층","indutype":"의류 - 정장","category":"other"}]},{"lat":"37.655804398","long":"127.30673686","imageIndex":17,"items":[{"name":"동안얼굴만들기","tel":"031-591-4577","addr":"경기도 남양주시 화도읍 마석우리 215-9번지 명품하우스 101동 301호","indutype":"회원제형태 - 기타1","category":"other"}]},{"lat":"37.651665731","long":"127.30798915","imageIndex":17,"items":[{"name":"드림컴퍼니(Dream Company)","tel":"031-516-5511","addr":"경기도 남양주시 화도읍 마석우리 263-2번지","indutype":"전기제품 - 냉열기기","category":"other"}]},{"lat":"37.65675036","long":"127.30323898","imageIndex":17,"items":[{"name":"디바인","tel":"031-595-5981","addr":"경기도 남양주시 화도읍 마석우리 383-9번지 별나라프라자 1층 104호","indutype":"의류 - 정장","category":"other"},{"name":"속옷나라","tel":"031-511-3257","addr":"경기도 남양주시 화도읍 마석우리 383-9번지 별나라프라자 103호","indutype":"의류 - 내의판매","category":"other"},{"name":"아이폰수리센터 남양주 마석","tel":"031-595-2969","addr":"경기도 남양주시 화도읍 마석우리 383-9번지 별나라프라자 1층 101호","indutype":"수리서비스 - 사무·통신기기수리","category":"other"},{"name":"장원교육마석지점","tel":"031-593-7056","addr":"경기도 남양주시 화도읍 마석우리 383-9번지 별나라프라자 703호","indutype":"회원제형태 - 서적","category":"other"},{"name":"피부천사","tel":"031-591-9961","addr":"경기도 남양주시 화도읍 마석우리 383-9번지 별나라프라자 201호","indutype":"회원제형태 - 기타4","category":"other"}]},{"lat":"37.658664447","long":"127.3051846","imageIndex":17,"items":[{"name":"디자인앤클로즈","tel":"031-528-6263","addr":"경기도 남양주시 화도읍 마석우리 416-1번지 (신정빌딩지1층1호)","indutype":"의류 - 정장","category":"other"}]},{"lat":"37.6508398","long":"127.31032008","imageIndex":17,"items":[{"name":"땅박사부동산컨설팅공인중개사사무소","tel":"031-595-2322","addr":"경기도 남양주시 화도읍 마석우리 251-1번지","indutype":"용역 서비스 - 부동산 중개·임대","category":"other"},{"name":"수도배","tel":"031-595-1002","addr":"경기도 남양주시 화도읍 마석우리 251-1번지","indutype":"건축자재 - 인테리어전문","category":"other"}]},{"lat":"37.654391936","long":"127.30593786","imageIndex":17,"items":[{"name":"리바이크","tel":"031-592-2606","addr":"경기도 남양주시 화도읍 마석우리 297-10번지 1층 3호","indutype":"레져용품 - 스포츠·레져용품","category":"other"},{"name":"코지하우스(COZY HOUSE)","tel":"070-7553-3106","addr":"경기도 남양주시 화도읍 마석우리 297-10 1층2호","indutype":"가구 - 기타가구","category":"other"}]},{"lat":"37.658219767","long":"127.32013064","imageIndex":17,"items":[{"name":"리벳코리아","tel":"031-529-1384","addr":"경기도 남양주시 화도읍 마석우리 10-12번지 1동","indutype":"기타 - 기계공구","category":"other"}]},{"lat":"37.660945456","long":"127.314963","imageIndex":17,"items":[{"name":"리히트라움 스튜디오(LICHTRAUM STUDIO)","tel":"031-111-1111","addr":"경기도 남양주시 화도읍 마석우리 193-97번지","indutype":"광학제품 - 사진관","category":"other"}]},{"lat":"37.654003156","long":"127.30646889","imageIndex":17,"items":[{"name":"마마운동화이불빨래방","tel":"031-593-8482","addr":"경기도 남양주시 화도읍 마석우리 220-1번지","indutype":"수리서비스 - 세탁소","category":"other"}]},{"lat":"37.656027804","long":"127.30393868","imageIndex":17,"items":[{"name":"마법의 버블스토리","tel":"031-593-3348","addr":"경기도 남양주시 화도읍 마석우리 323번지 우성주택 5동 403호","indutype":"회원제형태 - 기타4","category":"other"}]},{"lat":"37.652058922","long":"127.30923726","imageIndex":17,"items":[{"name":"마서커","tel":"031-511-0026","addr":"경기도 남양주시 화도읍 마석우리 290-7번지","indutype":"의류 - 정장","category":"other"}]},{"lat":"37.651255303","long":"127.30991386","imageIndex":17,"items":[{"name":"마석볼트상사","tel":"031-595-5289","addr":"경기도 남양주시 화도읍 마석우리 258-10번지","indutype":"기타 - 기계공구","category":"other"},{"name":"북서원콤프레셔","tel":"031-511-2279","addr":"경기도 남양주시 화도읍 마석우리 258-10번지","indutype":"기타 - 기계공구","category":"other"},{"name":"우리설비","tel":"070-7435-3993","addr":"경기도 남양주시 화도읍 마석우리 258-10번지 2층","indutype":"용역 서비스 - 기타용역서비스","category":"other"},{"name":"주식회사 엔플러스이","tel":"031-559-8790","addr":"경기도 남양주시 화도읍 마석우리 258-10번지 2층","indutype":"용역 서비스 - 기타용역서비스","category":"other"}]},{"lat":"37.655833631","long":"127.30235136","imageIndex":17,"items":[{"name":"마석신명스카이뷰그린아파트입주자대표회의","tel":"031-559-1923","addr":"경기도 남양주시 화도읍 마석우리 396번지 신명스카이뷰그린아파트","indutype":"용역 서비스 - 종합용역","category":"other"},{"name":"씨유마석신명점","tel":"031-571-9189","addr":"경기도 남양주시 화도읍 마석우리 396번지 신명스카이뷰그린 상가동 101호","indutype":"유통업 영리 - 편 의 점","category":"other"}]},{"lat":"37.65269563","long":"127.30690551","imageIndex":17,"items":[{"name":"마석열쇠","tel":"031-511-1313","addr":"경기도 남양주시 화도읍 마석우리 292-12번지","indutype":"수리서비스 - 기타수리서비스","category":"other"},{"name":"천마유통","tel":"02-111-1111","addr":"경기도 남양주시 화도읍 마석우리 292-12번지","indutype":"의류 - 정장","category":"other"}]},{"lat":"37.653309623","long":"127.30638674","imageIndex":17,"items":[{"name":"마석이불","tel":"031-594-7087","addr":"경기도 남양주시 화도읍 마석우리 295-24번지","indutype":"직물 - 침구·수예점","category":"other"},{"name":"윤씨네옷가게","tel":"","addr":"경기도 남양주시 화도읍 마석우리 295-24번지","indutype":"수리서비스 - 세탁소","category":"other"}]},{"lat":"37.653589211","long":"127.30627456","imageIndex":17,"items":[{"name":"마이쭈","tel":"031-592-9001","addr":"경기도 남양주시 화도읍 마석우리 295-21번지","indutype":"의류 - 정장","category":"other"}]},{"lat":"37.651945467","long":"127.30782032","imageIndex":17,"items":[{"name":"만물전파사","tel":"031-593-0362","addr":"경기도 남양주시 화도읍 마석우리 271-8번지","indutype":"수리서비스 - 신변잡화수리","category":"other"},{"name":"베비랑스","tel":"031-594-1673","addr":"경기도 남양주시 화도읍 마석우리 271-8번지","indutype":"광학제품 - 사진관","category":"other"},{"name":"장현유통","tel":"031-595-8441","addr":"경기도 남양주시 화도읍 마석우리 271-8번지","indutype":"의류 - 정장","category":"other"},{"name":"제일사진관","tel":"031-594-1673","addr":"경기도 남양주시 화도읍 마석우리 271-8번지","indutype":"광학제품 - 사진관","category":"other"}]},{"lat":"37.654420557","long":"127.31568361","imageIndex":17,"items":[{"name":"명가퍼니처","tel":"031-511-1641","addr":"경기도 남양주시 화도읍 마석우리 153-2","indutype":"주방용구 - 주방용구","category":"other"}]},{"lat":"37.652837953","long":"127.30410711","imageIndex":17,"items":[{"name":"명품스토리","tel":"031-511-0288","addr":"경기도 남양주시 화도읍 마석우리 312-3번지 나동","indutype":"의류 - 정장","category":"other"},{"name":"진흥광고인쇄","tel":"031-593-3530","addr":"경기도 남양주시 화도읍 마석우리 312-3번지 가동","indutype":"서적문구 - 출판 및 인쇄물","category":"other"}]},{"lat":"37.652140919","long":"127.30888631","imageIndex":17,"items":[{"name":"문화기획온누리","tel":"031-593-0781","addr":"경기도 남양주시 화도읍 마석우리 290-6번지","indutype":"기타 - 기타 전문점","category":"other"}]},{"lat":"37.652164124","long":"127.30688068","imageIndex":17,"items":[{"name":"미성주얼리","tel":"031-594-0058","addr":"경기도 남양주시 화도읍 마석우리 270번지","indutype":"신변잡화 - 시계","category":"other"},{"name":"콤마","tel":"031-594-0258","addr":"경기도 남양주시 화도읍 마석우리 270번지","indutype":"신변잡화 - 액세서리","category":"other"}]},{"lat":"37.655923324","long":"127.30251038","imageIndex":17,"items":[{"name":"미송의상실","tel":"031-559-9113","addr":"경기도 남양주시 화도읍 마석우리 396번지 신명스카이뷰그린 105동 2003호","indutype":"수리서비스 - 세탁소","category":"other"},{"name":"해인기획","tel":"031-1111-1111","addr":"경기도 남양주시 화도읍 마석우리 396번지 신명스카이뷰그린 105동 1103호","indutype":"용역 서비스 - 종합용역","category":"other"}]},{"lat":"37.655889531","long":"127.30516201","imageIndex":17,"items":[{"name":"배경광고","tel":"031-595-4481","addr":"경기도 남양주시 화도읍 마석우리 304번지 마석상가 A-1호","indutype":"용역 서비스 - 종합용역","category":"other"}]},{"lat":"37.658365969","long":"127.30563669","imageIndex":17,"items":[{"name":"백년인테리어남양주창현점","tel":"","addr":"경기도 남양주시 화도읍 마석우리 410-1번지","indutype":"건축자재 - 인테리어전문","category":"other"},{"name":"엠디플래닝(MD PLANNING)","tel":"031-591-1885","addr":"경기도 남양주시 화도읍 마석우리 410-1번지","indutype":"의류 - 정장","category":"other"},{"name":"연후","tel":"031-594-9287","addr":"경기도 남양주시 화도읍 마석우리 410-1번지 1층 101호","indutype":"의류 - 맞춤복점","category":"other"}]},{"lat":"37.657333931","long":"127.30404594","imageIndex":17,"items":[{"name":"베이모가발연구소","tel":"031-594-0026","addr":"경기도 남양주시 화도읍 마석우리 379-3번지 송정빌","indutype":"용역 서비스 - 사무서비스","category":"other"}]},{"lat":"37.657055559","long":"127.30368218","imageIndex":17,"items":[{"name":"베이비뽀","tel":"031-511-9627","addr":"경기도 남양주시 화도읍 마석우리 379-7번지 103(1층상가)","indutype":"의류 - 정장","category":"other"},{"name":"쥬얼리 이응","tel":"031-528-6263","addr":"경기도 남양주시 화도읍 마석우리 379-7번지 1층 103호","indutype":"신변잡화 - 액세서리","category":"other"}]},{"lat":"37.650866031","long":"127.31062614","imageIndex":17,"items":[{"name":"부경종합인테리어","tel":"031-559-1749","addr":"경기도 남양주시 화도읍 마석우리 253-2번지 1층","indutype":"직물 - 카페트,커튼,천막,지물","category":"other"}]},{"lat":"37.657135855","long":"127.30044139","imageIndex":17,"items":[{"name":"부모사랑방문요양센터","tel":"031-511-2740","addr":"경기도 남양주시 화도읍 마석우리 556-2번지","indutype":"기타의료기관 - 기타의료기관 및 기타","category":"other"},{"name":"은하사진관","tel":"031-594-0024","addr":"경기도 남양주시 화도읍 마석우리 556-2번지 상가 1층 102호 일부","indutype":"광학제품 - 사진관","category":"other"},{"name":"화도열쇠도장","tel":"031-511-4111","addr":"경기도 남양주시 화도읍 마석우리 556-2번지 102호","indutype":"건축자재 - 목재·석재·철물","category":"other"}]},{"lat":"37.654808694","long":"127.30149733","imageIndex":17,"items":[{"name":"빨간지붕 마석점","tel":"031-592-9553","addr":"경기도 남양주시 화도읍 마석우리 586번지","indutype":"의류 - 정장","category":"other"}]},{"lat":"37.654250138","long":"127.30501938","imageIndex":17,"items":[{"name":"뽀대나","tel":"031-591-7586","addr":"경기도 남양주시 화도읍 마석우리 305-5번지","indutype":"의류 - 정장","category":"other"},{"name":"삼성종합설비","tel":"031-591-9696","addr":"경기도 남양주시 화도읍 마석우리 305-5번지","indutype":"용역 서비스 - 기타용역서비스","category":"other"}]},{"lat":"37.651665232","long":"127.30818179","imageIndex":17,"items":[{"name":"사랑에 꽃배달서비스","tel":"031-594-8979","addr":"경기도 남양주시 화도읍 마석우리 272-3.102","indutype":"문화.취미 - 화원","category":"other"},{"name":"화도골프존","tel":"031-592-0171","addr":"경기도 남양주시 화도읍 마석우리 272-3 대진빌딩2층","indutype":"회원제형태 - 레져업소","category":"other"}]},{"lat":"37.653783273","long":"127.3078845","imageIndex":17,"items":[{"name":"삼보합판","tel":"031-511-4836","addr":"경기도 남양주시 화도읍 마석우리 219-2번지","indutype":"건축자재 - 기타건축자재","category":"other"}]},{"lat":"37.651722964","long":"127.31707743","imageIndex":17,"items":[{"name":"삼성포장비니루","tel":"031-593-1008","addr":"경기도 남양주시 화도읍 마석우리 77-8","indutype":"기타 - 기타 전문점","category":"other"},{"name":"킴스(kim's)조각","tel":"031-511-5299","addr":"경기도 남양주시 화도읍 마석우리 77-8번지 마석윤활유","indutype":"가구 - 일반가구","category":"other"}]},{"lat":"37.65697208","long":"127.30107536","imageIndex":17,"items":[{"name":"상생정보","tel":"070-7744-5353","addr":"경기도 남양주시 화도읍 마석우리 557-2번지 306호","indutype":"가구 - 일반가구","category":"other"}]},{"lat":"37.65711299","long":"127.3023565","imageIndex":17,"items":[{"name":"색연필마석점","tel":"031-591-3912","addr":"경기도 남양주시 화도읍 마석우리 392-1번지 별나라타운1층106호~107호 106","indutype":"서적문구 - 문구용품","category":"other"}]},{"lat":"37.659780482","long":"127.30210656","imageIndex":17,"items":[{"name":"샤인전자담배할인매장","tel":"031-591-4811","addr":"경기도 남양주시 화도읍 마석우리 481-3번지 1층 101호","indutype":"기타 - 기타 전문점","category":"other"},{"name":"윤바이크","tel":"070-4028-3324","addr":"경기도 남양주시 화도읍 마석우리 481-3번지","indutype":"레져용품 - 스포츠·레져용품","category":"other"}]},{"lat":"37.651947153","long":"127.31407546","imageIndex":17,"items":[{"name":"샷다박사","tel":"031-594-6067","addr":"경기도 남양주시 화도읍 마석우리 96-2","indutype":"건축자재 - 보일러·펌프·샷시","category":"other"}]},{"lat":"37.655072373","long":"127.30760646","imageIndex":17,"items":[{"name":"성수 설비","tel":"031-511-5896","addr":"경기도 남양주시 화도읍 마석우리 219-105번지 가든시티빌 202동 401호","indutype":"용역 서비스 - 기타용역서비스","category":"other"}]},{"lat":"37.659442255","long":"127.30402046","imageIndex":17,"items":[{"name":"성원사","tel":"031-592-3933","addr":"경기도 남양주시 화도읍 마석우리 353-9","indutype":"수리서비스 - 세탁소","category":"other"}]},{"lat":"37.651361629","long":"127.3071267","imageIndex":17,"items":[{"name":"세무사윤우영사무소","tel":"031-595-6212","addr":"경기도 남양주시 화도읍 마석우리 265-3번지","indutype":"용역 서비스 - 법률회계서비스(개인)","category":"other"}]},{"lat":"37.655057945","long":"127.30621254","imageIndex":17,"items":[{"name":"세븐일레븐마석심석점","tel":"","addr":"경기도 남양주시 화도읍 마석우리 297-12번지 101호","indutype":"유통업 영리 - 편 의 점","category":"other"}]},{"lat":"37.652941997","long":"127.31605136","imageIndex":17,"items":[{"name":"세븐일레븐마석지산점","tel":"031-1577-0711","addr":"경기도 남양주시 화도읍 마석우리 117번지 103호 102호,103호","indutype":"유통업 영리 - 편 의 점","category":"other"}]},{"lat":"37.661833713","long":"127.3024888","imageIndex":17,"items":[{"name":"세븐일레븐마석희망점","tel":"","addr":"경기도 남양주시 화도읍 마석우리 472-4번지 지호프라자 1층 101호","indutype":"유통업 영리 - 편 의 점","category":"other"}]},{"lat":"37.652725283","long":"127.30588576","imageIndex":17,"items":[{"name":"세이(say)","tel":"031-595-4406","addr":"경기도 남양주시 화도읍 마석우리 309-1","indutype":"의류 - 정장","category":"other"},{"name":"치크마석점","tel":"070-5175-3426","addr":"경기도 남양주시 화도읍 마석우리 309-1","indutype":"의류 - 아동의류","category":"other"}]},{"lat":"37.654832706","long":"127.30621162","imageIndex":17,"items":[{"name":"세일설비","tel":"031-593-9881","addr":"경기도 남양주시 화도읍 마석우리 297-17","indutype":"건축자재 - 목재·석재·철물","category":"other"}]},{"lat":"37.651920719","long":"127.30693634","imageIndex":17,"items":[{"name":"세희네집","tel":"031-593-6653","addr":"경기도 남양주시 화도읍 마석우리 269-2번지 1층 102호","indutype":"의류 - 기타의류","category":"other"}]},{"lat":"37.655806962","long":"127.30573963","imageIndex":17,"items":[{"name":"수 토탈인테리어","tel":"031-591-0424","addr":"경기도 남양주시 화도읍 마석우리 300번지","indutype":"직물 - 카페트,커튼,천막,지물","category":"other"},{"name":"컴닥터A/S","tel":"031-511-3700","addr":"경기도 남양주시 화도읍 마석우리 300번지","indutype":"사무통신 - 컴퓨터","category":"other"}]},{"lat":"37.660416993","long":"127.30335575","imageIndex":17,"items":[{"name":"수동지물","tel":"031-593-3613","addr":"경기도 남양주시 화도읍 마석우리 442-1","indutype":"직물 - 카페트,커튼,천막,지물","category":"other"}]},{"lat":"37.652193752","long":"127.3162182","imageIndex":17,"items":[{"name":"수화원","tel":"031-594-5900","addr":"경기도 남양주시 화도읍 마석우리 106-3","indutype":"문화.취미 - 화원","category":"other"}]},{"lat":"37.658277385","long":"127.30504703","imageIndex":17,"items":[{"name":"슈즈크린(운동화빨래방)","tel":"031-511-0007","addr":"경기도 남양주시 화도읍 마석우리 360-2번지 헤렌하우스2차지하상가 1층 2호","indutype":"수리서비스 - 세탁소","category":"other"},{"name":"스텔라 (stella)","tel":"070-3966-1817","addr":"경기도 남양주시 화도읍 마석우리 360-2번지 G동 1층","indutype":"의류 - 정장","category":"other"},{"name":"영광지물","tel":"031-594-6036","addr":"경기도 남양주시 화도읍 마석우리 360-2번지 헤렌하우스2차 102호","indutype":"직물 - 카페트,커튼,천막,지물","category":"other"}]},{"lat":"37.65275481","long":"127.30491134","imageIndex":17,"items":[{"name":"시선집중","tel":"031-591-4127","addr":"경기도 남양주시 화도읍 마석우리 311-3","indutype":"의류 - 정장","category":"other"},{"name":"아코펫","tel":"031-593-8719","addr":"경기도 남양주시 화도읍 마석우리 311-3번지","indutype":"문화.취미 - 애완동물","category":"other"},{"name":"엘레강스","tel":"031-511-7715","addr":"경기도 남양주시 화도읍 마석우리 311-3번지 1층","indutype":"의류 - 정장","category":"other"}]},{"lat":"37.653497774","long":"127.30679546","imageIndex":17,"items":[{"name":"신나라미용실","tel":"031-593-1979","addr":"경기도 남양주시 화도읍 마석우리 220-7번지","indutype":"신변잡화 - 신발","category":"other"}]},{"lat":"37.65905386","long":"127.30440421","imageIndex":17,"items":[{"name":"신데렐라만들기","tel":"031-595-7847","addr":"경기도 남양주시 화도읍 마석우리 357-2번지 코스모스빌딩 상가-101","indutype":"회원제형태 - 기타4","category":"other"}]},{"lat":"37.656226717","long":"127.30010912","imageIndex":17,"items":[{"name":"신도네트O.A","tel":"031-582-9051","addr":"경기도 남양주시 화도읍 마석우리 565-1번지 비너스빌 102호","indutype":"사무통신 - 컴퓨터","category":"other"}]},{"lat":"37.655264185","long":"127.30307434","imageIndex":17,"items":[{"name":"신명테크","tel":"02-418-4188","addr":"경기도 남양주시 화도읍 마석우리 396번지 신명스카이뷰그린 109동 604호 63 11","indutype":"회원제형태 - 기타3","category":"other"}]},{"lat":"37.65319423","long":"127.31265284","imageIndex":17,"items":[{"name":"씨에스디자인","tel":"031-559-4938","addr":"경기도 남양주시 화도읍 마석우리 121번지 2층 제이에스타워","indutype":"가구 - 일반가구","category":"other"}]},{"lat":"37.660886753","long":"127.30638358","imageIndex":17,"items":[{"name":"아쿵(Akuung)","tel":"031-000-0000","addr":"경기도 남양주시 화도읍 마석우리 428번지 해오름파크빌 104동 202호","indutype":"의류 - 정장","category":"other"}]},{"lat":"37.652082618","long":"127.31051785","imageIndex":17,"items":[{"name":"알뜰구제","tel":"031-593-7642","addr":"경기도 남양주시 화도읍 마석우리 286-5번지 1층","indutype":"의류 - 기타의류","category":"other"}]},{"lat":"37.656281488","long":"127.29982603","imageIndex":17,"items":[{"name":"알오아이플래닝","tel":"070-8955-5555","addr":"경기도 남양주시 화도읍 마석우리 566-4번지 A동 1층 101호","indutype":"용역 서비스 - 종합용역","category":"other"}]},{"lat":"37.652056594","long":"127.31013246","imageIndex":17,"items":[{"name":"앤교육","tel":"02-454-0585","addr":"경기도 남양주시 화도읍 마석우리 288-5번지 우진빌딩 3층","indutype":"회원제형태 - 서적","category":"other"},{"name":"카카스","tel":"070-8718-7681","addr":"경기도 남양주시 화도읍 마석우리 288-5번지 1층","indutype":"사무통신 - 컴퓨터","category":"other"}]},{"lat":"37.654277456","long":"127.30490617","imageIndex":17,"items":[{"name":"앨렌슈","tel":"031-591-1135","addr":"경기도 남양주시 화도읍 마석우리 306-35번지","indutype":"의류 - 정장","category":"other"}]},{"lat":"37.653581673","long":"127.31943099","imageIndex":17,"items":[{"name":"어느오후","tel":"031-559-6623","addr":"경기도 남양주시 화도읍 마석우리 54-4번지 금환텐즈힐 1동 101호","indutype":"직물 - 침구·수예점","category":"other"}]},{"lat":"37.65552909","long":"127.30518322","imageIndex":17,"items":[{"name":"에스엔 타일","tel":"031-595-4722","addr":"경기도 남양주시 화도읍 마석우리 304-8번지","indutype":"건축자재 - 기타건축자재","category":"other"}]},{"lat":"37.659449788","long":"127.30459847","imageIndex":17,"items":[{"name":"엔쏘","tel":"031-528-6263","addr":"경기도 남양주시 화도읍 마석우리 384-8번지 103호","indutype":"의류 - 정장","category":"other"}]},{"lat":"37.6558337","long":"127.30585306","imageIndex":17,"items":[{"name":"엘로이피아노","tel":"031-592-0972","addr":"경기도 남양주시 화도읍 마석우리 298-10","indutype":"수리서비스 - 기타수리서비스","category":"other"}]},{"lat":"37.654081671","long":"127.30746643","imageIndex":17,"items":[{"name":"여우비","tel":"","addr":"경기도 남양주시 화도읍 마석우리 219-65번지 서울하이츠빌라 나동 101호","indutype":"문화.취미 - 민예·공예품","category":"other"}]},{"lat":"37.657419114","long":"127.30243706","imageIndex":17,"items":[{"name":"여우비","tel":"031-559-8313","addr":"경기도 남양주시 화도읍 마석우리 383-4번지 캠퍼스프라자 102호","indutype":"의류 - 정장","category":"other"},{"name":"열린부동산","tel":"031-559-8200","addr":"경기도 남양주시 화도읍 마석우리 383-4번지 캠퍼스프라자 104호","indutype":"용역 서비스 - 부동산 중개·임대","category":"other"},{"name":"프롬 엘","tel":"","addr":"경기도 남양주시 화도읍 마석우리 383-4번지 캠퍼스프라자 108호","indutype":"신변잡화 - 액세서리","category":"other"}]},{"lat":"37.656027515","long":"127.304052","imageIndex":17,"items":[{"name":"예린토랄인테리어","tel":"031-514-4751","addr":"경기도 남양주시 화도읍 마석우리 323-13번지 유성주택 4동 104호","indutype":"건축자재 - 인테리어전문","category":"other"}]},{"lat":"37.654753173","long":"127.30207505","imageIndex":17,"items":[{"name":"오내스","tel":"","addr":"경기도 남양주시 화도읍 마석우리 588번지 유일프라자 1층 103호 후면 일부","indutype":"의류 - 정장","category":"other"},{"name":"옷핀(ing)","tel":"031-594-2498","addr":"경기도 남양주시 화도읍 마석우리 588번지 유일프라자 108호","indutype":"의류 - 정장","category":"other"},{"name":"풀라워 연","tel":"031-591-5508","addr":"경기도 남양주시 화도읍 마석우리 588번지 유일프라자 109호","indutype":"문화.취미 - 화원","category":"other"}]},{"lat":"37.655306827","long":"127.30046809","imageIndex":17,"items":[{"name":"오름스터디카페","tel":"","addr":"경기도 남양주시 화도읍 마석우리 570-3번지 4층","indutype":"용역 서비스 - 사무서비스","category":"other"}]},{"lat":"37.651393625","long":"127.3086906","imageIndex":17,"items":[{"name":"옥플라워샵","tel":"031-594-0141","addr":"경기도 남양주시 화도읍 마석우리 273-4번지","indutype":"문화.취미 - 화원","category":"other"}]},{"lat":"37.654720143","long":"127.30443201","imageIndex":17,"items":[{"name":"우리세탁소","tel":"031-594-4210","addr":"경기도 남양주시 화도읍 마석우리 317-13번지","indutype":"수리서비스 - 세탁소","category":"other"},{"name":"푸른여우","tel":"031-593-9065","addr":"경기도 남양주시 화도읍 마석우리 317-13번지","indutype":"의류 - 정장","category":"other"}]},{"lat":"37.652942852","long":"127.30182982","imageIndex":17,"items":[{"name":"윈윈에어시스템","tel":"","addr":"경기도 남양주시 화도읍 마석우리 338-3번지 누리하우스 204호","indutype":"용역 서비스 - 기타용역서비스","category":"other"}]},{"lat":"37.658998889","long":"127.30121946","imageIndex":17,"items":[{"name":"유니토이","tel":"070-8261-0020","addr":"경기도 남양주시 화도읍 마석우리 535-3번지 블루캐슬 105호","indutype":"직물 - 침구·수예점","category":"other"}]},{"lat":"37.654338653","long":"127.31257827","imageIndex":17,"items":[{"name":"유비컴퍼니","tel":"02-2275-9394","addr":"경기도 남양주시 화도읍 마석우리 124-9번지 502호","indutype":"용역 서비스 - 보관및 창고업","category":"other"}]},{"lat":"37.651224772","long":"127.31468435","imageIndex":17,"items":[{"name":"윤하어패럴","tel":"031-592-5335","addr":"경기도 남양주시 화도읍 마석우리 84-5번지 가리온아울렛","indutype":"의류 - 스포츠의류","category":"other"},{"name":"컬럼비아마석점이지웰","tel":"031-592-0060","addr":"경기도 남양주시 화도읍 마석우리 84-5번지 가리온아울렛","indutype":"레져용품 - 스포츠·레져용품","category":"other"}]},{"lat":"37.655446347","long":"127.30582882","imageIndex":17,"items":[{"name":"은지네이불","tel":"031-594-3895","addr":"경기도 남양주시 화도읍 마석우리 298-12번지 광림빌딩 1층 6,7호","indutype":"직물 - 침구·수예점","category":"other"},{"name":"초코네 애견샵","tel":"031-594-3545","addr":"경기도 남양주시 화도읍 마석우리 298-12번지 1층","indutype":"문화.취미 - 애완동물","category":"other"}]},{"lat":"37.655803695","long":"127.29993745","imageIndex":17,"items":[{"name":"이레월드","tel":"031-514-7414","addr":"경기도 남양주시 화도읍 마석우리 565-5번지 101호","indutype":"사무통신 - 컴퓨터","category":"other"}]},{"lat":"37.656888546","long":"127.30557403","imageIndex":17,"items":[{"name":"이르러","tel":"031-593-4144","addr":"경기도 남양주시 화도읍 마석우리 366-2번지 102호","indutype":"문화.취미 - 화원","category":"other"}]},{"lat":"37.651755225","long":"127.31168366","imageIndex":17,"items":[{"name":"이마트24 마석역점","tel":"","addr":"경기도 남양주시 화도읍 마석우리 249-2번지 1층 101호","indutype":"유통업 영리 - 편 의 점","category":"other"}]},{"lat":"37.658143611","long":"127.30096672","imageIndex":17,"items":[{"name":"이마트24 마석우리","tel":"031-1111-1111","addr":"경기도 남양주시 화도읍 마석우리 541-3번지 로망스빌 1층 101호","indutype":"유통업 영리 - 편 의 점","category":"other"}]},{"lat":"37.652142652","long":"127.30821774","imageIndex":17,"items":[{"name":"이미지샷","tel":"031-511-5720","addr":"경기도 남양주시 화도읍 마석우리 292-16번지 동쪽2번째상가","indutype":"광학제품 - 사진관","category":"other"}]},{"lat":"37.658251139","long":"127.30474094","imageIndex":17,"items":[{"name":"정인하우징","tel":"","addr":"경기도 남양주시 화도읍 마석우리 359-10번지 803호","indutype":"용역 서비스 - 기타용역서비스","category":"other"}]},{"lat":"37.653639119","long":"127.30788391","imageIndex":17,"items":[{"name":"제이원(J1)","tel":"031-5022-1917","addr":"경기도 남양주시 화도읍 마석우리 219-11번지 지용아트빌라 6동 301호","indutype":"서적문구 - 출판 및 인쇄물","category":"other"}]},{"lat":"37.653894837","long":"127.30654777","imageIndex":17,"items":[{"name":"조은날","tel":"031-593-3203","addr":"경기도 남양주시 화도읍 마석우리 220-13","indutype":"의류 - 정장","category":"other"}]},{"lat":"37.652081465","long":"127.31095978","imageIndex":17,"items":[{"name":"주식회사 안티러스트 코리아","tel":"031-511-5695","addr":"경기도 남양주시 화도읍 마석우리 282번지 덕영빌딩 301호","indutype":"신변잡화 - 기타잡화","category":"other"}]},{"lat":"37.651781565","long":"127.30848822","imageIndex":17,"items":[{"name":"주식회사현서측량설계","tel":"031-511-1900","addr":"경기도 남양주시 화도읍 마석우리 271-21","indutype":"기타 - 기타 전문점","category":"other"}]},{"lat":"37.653642277","long":"127.30666006","imageIndex":17,"items":[{"name":"진보당","tel":"031-593-1355","addr":"경기도 남양주시 화도읍 마석우리 220-11번지","indutype":"신변잡화 - 귀금속","category":"other"}]},{"lat":"37.652305703","long":"127.30787845","imageIndex":17,"items":[{"name":"참좋은생활마트","tel":"031-594-2380","addr":"경기도 남양주시 화도읍 마석우리 292-18번지","indutype":"신변잡화 - 기타잡화","category":"other"}]},{"lat":"37.654806668","long":"127.30582622","imageIndex":17,"items":[{"name":"천마열쇠 도장","tel":"031-595-1195","addr":"경기도 남양주시 화도읍 마석우리 297-39번지","indutype":"건축자재 - 목재·석재·철물","category":"other"}]},{"lat":"37.650641214","long":"127.30698779","imageIndex":17,"items":[{"name":"천마페인트","tel":"031-594-7745","addr":"경기도 남양주시 화도읍 마석우리 267-8번지","indutype":"건축자재 - 페인트","category":"other"}]},{"lat":"37.660304913","long":"127.30490792","imageIndex":17,"items":[{"name":"청담 Jewelry","tel":"","addr":"경기도 남양주시 화도읍 마석우리 436-10번지 지산파크빌 105동 101호","indutype":"신변잡화 - 액세서리","category":"other"}]},{"lat":"37.659080835","long":"127.3008798","imageIndex":17,"items":[{"name":"체리","tel":"031-514-8661","addr":"경기도 남양주시 화도읍 마석우리 535-1번지 안성빌딩 3층 303호","indutype":"신변잡화 - 액세서리","category":"other"}]},{"lat":"37.656054221","long":"127.30062973","imageIndex":17,"items":[{"name":"크린토피아코인워시남양주화도읍점","tel":"031-593-3907","addr":"경기도 남양주시 화도읍 마석우리 564-1번지 윈윈빌 102호","indutype":"수리서비스 - 세탁소","category":"other"}]},{"lat":"37.653556952","long":"127.30480127","imageIndex":17,"items":[{"name":"태강전기","tel":"031-512-6138","addr":"경기도 남양주시 화도읍 마석우리 315-35번지 도신빌라 B동 202호","indutype":"전기제품 - 기타전기제품","category":"other"}]},{"lat":"37.654640318","long":"127.30038611","imageIndex":17,"items":[{"name":"태환이랑민철이스포츠","tel":"031-595-5577","addr":"경기도 남양주시 화도읍 마석우리 577-2","indutype":"레져용품 - 스포츠·레져용품","category":"other"}]},{"lat":"37.654778649","long":"127.3062114","imageIndex":17,"items":[{"name":"토탈빨래방","tel":"031-593-3993","addr":"경기도 남양주시 화도읍 마석우리 297-20","indutype":"수리서비스 - 세탁소","category":"other"}]},{"lat":"37.653417767","long":"127.30637585","imageIndex":17,"items":[{"name":"티파니귀금속.시계","tel":"031-511-9971","addr":"경기도 남양주시 화도읍 마석우리 295-7번지","indutype":"신변잡화 - 귀금속","category":"other"}]},{"lat":"37.658611077","long":"127.30137657","imageIndex":17,"items":[{"name":"파티마법사","tel":"031-591-9924","addr":"경기도 남양주시 화도읍 마석우리 538-8번지 준하하우스 305호","indutype":"의류 - 기타의류","category":"other"}]},{"lat":"37.657944466","long":"127.30487569","imageIndex":17,"items":[{"name":"포인트","tel":"031-559-5362","addr":"경기도 남양주시 화도읍 마석우리 360-6번지 102호","indutype":"의류 - 정장","category":"other"},{"name":"힐링타이","tel":"031-559-7775","addr":"경기도 남양주시 화도읍 마석우리 360-6번지 2층 전부","indutype":"회원제형태 - 기타4","category":"other"}]},{"lat":"37.658079913","long":"127.30121578","imageIndex":17,"items":[{"name":"푸들리(POODLY)","tel":"031-511-9873","addr":"경기도 남양주시 화도읍 마석우리 541-4번지 비02호(성원빌)","indutype":"문화.취미 - 애완동물","category":"other"}]},{"lat":"37.652891541","long":"127.31469132","imageIndex":17,"items":[{"name":"푸른나라","tel":"070-8241-2558","addr":"경기도 남양주시 화도읍 마석우리 131-3번지","indutype":"신변잡화 - 기타잡화","category":"other"}]},{"lat":"37.651392831","long":"127.30899656","imageIndex":17,"items":[{"name":"프랜즈유통","tel":"031-592-1606","addr":"경기도 남양주시 화도읍 마석우리 274-1번지 화도농협하나로마트 2층","indutype":"전기제품 - 가전제품","category":"other"}]},{"lat":"37.651836963","long":"127.3114347","imageIndex":17,"items":[{"name":"하나O.A","tel":"031-594-8256","addr":"경기도 남양주시 화도읍 마석우리 249-7번지","indutype":"사무통신 - 사무용 OA기기","category":"other"}]},{"lat":"37.6557273","long":"127.30518402","imageIndex":17,"items":[{"name":"한마루쥬얼리","tel":"031-594-1555","addr":"경기도 남양주시 화도읍 마석우리 304-2번지","indutype":"신변잡화 - 액세서리","category":"other"}]},{"lat":"37.652697701","long":"127.30610095","imageIndex":17,"items":[{"name":"행텐주니어 마석점","tel":"031-511-4468","addr":"경기도 남양주시 화도읍 마석우리 308-1번지","indutype":"레져용품 - 스포츠·레져용품","category":"other"}]},{"lat":"37.651726068","long":"127.30904325","imageIndex":17,"items":[{"name":"화도농약종묘사","tel":"031-594-3905","addr":"경기도 남양주시 화도읍 마석우리 275-2번지","indutype":"농업 - 비료,사료,종자","category":"other"}]},{"lat":"37.654583985","long":"127.30482809","imageIndex":17,"items":[{"name":"화도플라워","tel":"031-111-1111","addr":"경기도 남양주시 화도읍 마석우리 306-33번지","indutype":"문화.취미 - 화원","category":"other"}]},{"lat":"37.657637706","long":"127.30504444","imageIndex":17,"items":[{"name":"황후의외출","tel":"031-594-5179","addr":"경기도 남양주시 화도읍 마석우리 363-3번지 용호빌딩 2층","indutype":"의류 - 맞춤복점","category":"other"}]}]