[{"lat":"37.67948565","long":"126.7916019","imageIndex":0,"items":[{"name":"(주)바우통상","tel":"031-977-2233","addr":"경기도 고양시 일산동구 중산동 39-9번지","indutype":"자동차정비 유지 - 자동차시트·타이어","category":"car"}]},{"lat":"37.680374296","long":"126.78976293","imageIndex":0,"items":[{"name":"(주)타이어닥터","tel":"031-975-6648","addr":"경기도 고양시 일산동구 중산동 43-1번지","indutype":"자동차정비 유지 - 자동차시트·타이어","category":"car"},{"name":"타이어테크 중산점","tel":"031-905-9999","addr":"경기도 고양시 일산동구 중산동 43-1번지","indutype":"자동차정비 유지 - 자동차시트·타이어","category":"car"}]},{"lat":"37.68110206","long":"126.7886499","imageIndex":0,"items":[{"name":"BM덴트 서비스","tel":"031-964-1141","addr":"경기도 고양시 일산동구 중산동 71-7번지","indutype":"자동차정비 유지 - 카인테리어","category":"car"}]},{"lat":"37.683936104","long":"126.79143057","imageIndex":0,"items":[{"name":"e클레스","tel":"031-975-6005","addr":"경기도 고양시 일산동구 중산동 10번지","indutype":"자동차정비 유지 - 자동차정비","category":"car"},{"name":"에스씨모터스","tel":"031-975-0101","addr":"경기도 고양시 일산동구 중산동 10번지","indutype":"자동차정비 유지 - 자동차정비","category":"car"}]},{"lat":"37.683792803","long":"126.79190711","imageIndex":0,"items":[{"name":"가온모터스","tel":"031-976-0673","addr":"경기도 고양시 일산동구 중산동 14-4번지","indutype":"자동차정비 유지 - 자동차부품","category":"car"}]},{"lat":"37.681345587","long":"126.78879657","imageIndex":0,"items":[{"name":"글라스틴트 일산점","tel":"031-781-7001","addr":"경기도 고양시 일산동구 중산동 71번지","indutype":"자동차정비 유지 - 카인테리어","category":"car"},{"name":"글라스틴트일산점","tel":"031-975-9184","addr":"경기도 고양시 일산동구 중산동 71번지","indutype":"자동차정비 유지 - 카인테리어","category":"car"}]},{"lat":"37.67885056","long":"126.77942898","imageIndex":0,"items":[{"name":"대방트리플라온","tel":"031-926-7401","addr":"경기도 고양시 일산동구 중산동 1682번지","indutype":"자동차정비 유지 - 주차장","category":"car"},{"name":"주식회사 라이드온에이피","tel":"031-924-6802","addr":"경기도 고양시 일산동구 중산동 1682번지","indutype":"자동차정비 유지 - 자동차부품","category":"car"}]},{"lat":"37.687039431","long":"126.77896227","imageIndex":0,"items":[{"name":"만도프라자중산점","tel":"031-977-3008","addr":"경기도 고양시 일산동구 중산동 1579-3번지","indutype":"자동차정비 유지 - 자동차정비","category":"car"}]},{"lat":"37.683296077","long":"126.79123966","imageIndex":0,"items":[{"name":"서울상사","tel":"031-975-4457","addr":"경기도 고양시 일산동구 중산동 12-1번지","indutype":"자동차정비 유지 - 자동차부품","category":"car"},{"name":"아우토반 중산점","tel":"02-1234-1234","addr":"경기도 고양시 일산동구 중산동 12-1번지","indutype":"자동차정비 유지 - 세차장","category":"car"}]},{"lat":"37.682457348","long":"126.78098259","imageIndex":0,"items":[{"name":"성도빌딩 관리단","tel":"031-975-8780","addr":"경기도 고양시 일산동구 중산동 1696번지","indutype":"자동차정비 유지 - 주차장","category":"car"}]},{"lat":"37.674683193","long":"126.78645799","imageIndex":0,"items":[{"name":"성원프라자","tel":"02-393-5922","addr":"경기도 고양시 일산동구 중산동 1812번지","indutype":"자동차정비 유지 - 주차장","category":"car"}]},{"lat":"37.673819393","long":"126.78707259","imageIndex":0,"items":[{"name":"스피드메이트 이마트풍산점","tel":"031-976-9404","addr":"경기도 고양시 일산동구 중산동 1809번지","indutype":"자동차정비 유지 - 자동차정비","category":"car"},{"name":"스피드메이트 이마트풍산점","tel":"02-976-9404","addr":"경기도 고양시 일산동구 중산동 1809번지","indutype":"자동차정비 유지 - 자동차정비","category":"car"},{"name":"스피드메이트이마트풍산점(주)","tel":"031-976-9404","addr":"경기도 고양시 일산동구 중산동","indutype":"자동차정비 유지 - 자동차시트·타이어","category":"car"},{"name":"클린보이 코리아","tel":"031-975-3448","addr":"경기도 고양시 일산동구 중산동 1809번지","indutype":"자동차정비 유지 - 세차장","category":"car"}]},{"lat":"37.683957121","long":"126.77842737","imageIndex":0,"items":[{"name":"스피드세차장","tel":"031-975-0407","addr":"경기도 고양시 일산동구 중산동 1662-4번지","indutype":"자동차정비 유지 - 세차장","category":"car"},{"name":"현대오토정비센타","tel":"031-975-3775","addr":"경기도 고양시 일산동구 중산동 1662-4번지","indutype":"자동차정비 유지 - 자동차정비","category":"car"}]},{"lat":"37.678600694","long":"126.79048216","imageIndex":0,"items":[{"name":"에스스퀘어 지 모터스","tel":"031-1522-3459","addr":"경기도 고양시 일산동구 중산동 35-2번지","indutype":"자동차정비 유지 - 자동차정비","category":"car"}]},{"lat":"37.684352917","long":"126.77809741","imageIndex":0,"items":[{"name":"오토오아시스 일산그린점","tel":"031-976-0500","addr":"경기도 고양시 일산동구 중산동 1662-2번지","indutype":"자동차정비 유지 - 자동차시트·타이어","category":"car"}]},{"lat":"37.687011713","long":"126.77859956","imageIndex":0,"items":[{"name":"이엠에스멀티샵","tel":"","addr":"경기도 고양시 일산동구 중산동 1579-1번지","indutype":"자동차정비 유지 - 자동차부품","category":"car"}]},{"lat":"37.682825801","long":"126.78048268","imageIndex":0,"items":[{"name":"주식회사수홀딩스","tel":"031-975-1034","addr":"경기도 고양시 일산동구 중산동","indutype":"자동차정비 유지 - 세차장","category":"car"}]},{"lat":"37.684488751","long":"126.77845978","imageIndex":0,"items":[{"name":"채리(Cherry)","tel":"031-977-7976","addr":"경기도 고양시 일산동구 중산동 1663-8번지","indutype":"자동차정비 유지 - 카인테리어","category":"car"}]},{"lat":"37.680205186","long":"126.78111399","imageIndex":0,"items":[{"name":"출장세차","tel":"","addr":"경기도 고양시 일산동구 중산동 1680번지 하늘마을1단지아파트","indutype":"자동차정비 유지 - 세차장","category":"car"}]},{"lat":"37.685736345","long":"126.78071207","imageIndex":0,"items":[{"name":"타이어프로중산점","tel":"031-975-0052","addr":"경기도 고양시 일산동구 중산동 1657-1번지","indutype":"자동차정비 유지 - 자동차시트·타이어","category":"car"}]},{"lat":"37.686462969","long":"126.77904336","imageIndex":0,"items":[{"name":"태영카센타","tel":"031-975-8646","addr":"경기도 고양시 일산동구 중산동 1588-2번지","indutype":"자동차정비 유지 - 자동차정비","category":"car"}]},{"lat":"37.680241071","long":"126.78587504","imageIndex":0,"items":[{"name":"피터팬","tel":"031-963-4902","addr":"경기도 고양시 일산동구 중산동 1708-4번지","indutype":"자동차정비 유지 - 자동차부품","category":"car"}]},{"lat":"37.694179402","long":"126.78126513","imageIndex":0,"items":[{"name":"현대카써비스","tel":"031-975-8666","addr":"경기도 고양시 일산동구 중산동 1567번지","indutype":"자동차정비 유지 - 자동차정비","category":"car"}]},{"lat":"37.684625531","long":"126.77932096","imageIndex":0,"items":[{"name":"현진모터스","tel":"031-914-9717","addr":"경기도 고양시 일산동구 중산동 1661-7번지","indutype":"자동차정비 유지 - 자동차정비","category":"car"}]},{"lat":"37.682074746","long":"126.78845439","imageIndex":0,"items":[{"name":"히든카샵","tel":"031-947-6254","addr":"경기도 고양시 일산동구 중산동 105-2번지","indutype":"자동차정비 유지 - 자동차부품","category":"car"}]}]