[{"lat":"37.080289328","long":"126.94396336","imageIndex":4,"items":[{"name":"길림성","tel":"031-352-3205","addr":"경기도 화성시 양감면 신왕리 702-1번지 1층","indutype":"일반휴게음식 - 중국식","category":"restaurant"}]},{"lat":"37.080956914","long":"126.9456048","imageIndex":4,"items":[{"name":"김명자 낙지마당","tel":"031-354-7427","addr":"경기도 화성시 양감면 신왕리 632-3번지","indutype":"일반휴게음식 - 일반한식","category":"restaurant"},{"name":"커피베이 화성양감점","tel":"031-352-9087","addr":"경기도 화성시 양감면 신왕리 632-3번지","indutype":"일반휴게음식 - 서양음식","category":"restaurant"}]},{"lat":"37.083145939","long":"126.94448974","imageIndex":4,"items":[{"name":"뉴욕모퉁이","tel":"031-000-0000","addr":"경기도 화성시 양감면 신왕리 644-1번지","indutype":"일반휴게음식 - 서양음식","category":"restaurant"}]},{"lat":"37.083037674","long":"126.94420866","imageIndex":4,"items":[{"name":"또봉이통닭","tel":"031-8059-1404","addr":"경기도 화성시 양감면 신왕리 668-2번지 104호","indutype":"일반휴게음식 - 스넥","category":"restaurant"},{"name":"행운한식부페","tel":"031-8059-4581","addr":"경기도 화성시 양감면 신왕리 668-2번지","indutype":"일반휴게음식 - 일반한식","category":"restaurant"}]},{"lat":"37.083929322","long":"126.94340946","imageIndex":4,"items":[{"name":"미미향","tel":"031-8059-3108","addr":"경기도 화성시 양감면 신왕리 645-4번지 1동 1층","indutype":"일반휴게음식 - 중국식","category":"restaurant"}]},{"lat":"37.081254923","long":"126.94698787","imageIndex":4,"items":[{"name":"백제보신원","tel":"031-353-3352","addr":"경기도 화성시 양감면 신왕리 640-28번지","indutype":"일반휴게음식 - 일반한식","category":"restaurant"}]},{"lat":"37.080451265","long":"126.94345716","imageIndex":4,"items":[{"name":"병천토종순대","tel":"031-354-5956","addr":"경기도 화성시 양감면 신왕리 704-31번지","indutype":"일반휴게음식 - 일반한식","category":"restaurant"}]},{"lat":"37.082479317","long":"126.9448164","imageIndex":4,"items":[{"name":"서해안아구찜","tel":"031-356-3646","addr":"경기도 화성시 양감면 신왕리 637-1번지","indutype":"일반휴게음식 - 일반한식","category":"restaurant"}]},{"lat":"37.083596066","long":"126.94367964","imageIndex":4,"items":[{"name":"송탄참작부대찌개","tel":"031-353-7084","addr":"경기도 화성시 양감면 신왕리 645-8번지","indutype":"일반휴게음식 - 일반한식","category":"restaurant"}]},{"lat":"37.080036892","long":"126.9436824","imageIndex":4,"items":[{"name":"스프링투","tel":"","addr":"경기도 화성시 양감면 신왕리 700-1번지","indutype":"일반휴게음식 - 서양음식","category":"restaurant"},{"name":"해피홈","tel":"","addr":"경기도 화성시 양감면 신왕리 700-1번지","indutype":"일반휴게음식 - 서양음식","category":"restaurant"}]},{"lat":"37.080732532","long":"126.94746059","imageIndex":4,"items":[{"name":"양감반점","tel":"031-352-1272","addr":"경기도 화성시 양감면 신왕리 605-3","indutype":"일반휴게음식 - 중국식","category":"restaurant"},{"name":"해피윙","tel":"031-352-6542","addr":"경기도 화성시 양감면 신왕리 605-3번지","indutype":"일반휴게음식 - 일반한식","category":"restaurant"}]},{"lat":"37.075261931","long":"126.94499058","imageIndex":4,"items":[{"name":"올리비아델리","tel":"070-4102-7180","addr":"경기도 화성시 양감면 신왕리 859-5번지 1층 1호","indutype":"일반휴게음식 - 서양음식","category":"restaurant"}]},{"lat":"37.079316035","long":"126.94366047","imageIndex":4,"items":[{"name":"장군한식뷔페","tel":"070-8834-3332","addr":"경기도 화성시 양감면 신왕리 810-3번지 B층","indutype":"일반휴게음식 - 일반한식","category":"restaurant"}]},{"lat":"37.082010718","long":"126.94471554","imageIndex":4,"items":[{"name":"장충동비앤에프왕족발보쌈","tel":"031-354-6887","addr":"경기도 화성시 양감면 신왕리 679-1","indutype":"일반휴게음식 - 일반한식","category":"restaurant"}]},{"lat":"37.076896873","long":"126.95392964","imageIndex":4,"items":[{"name":"진주네옻닭,오리전문점","tel":"031-353-5522","addr":"경기도 화성시 양감면 신왕리 143-3번지","indutype":"일반휴게음식 - 일반한식","category":"restaurant"}]},{"lat":"37.076480412","long":"126.93215843","imageIndex":4,"items":[{"name":"큰집한식부페","tel":"031-366-0676","addr":"경기도 화성시 양감면 신왕리 770-5번지","indutype":"일반휴게음식 - 일반한식","category":"restaurant"}]},{"lat":"37.079540369","long":"126.94182719","imageIndex":4,"items":[{"name":"팔도강산한식뷔페","tel":"","addr":"경기도 화성시 양감면 신왕리 807-6번지","indutype":"일반휴게음식 - 일반한식","category":"restaurant"}]},{"lat":"37.08328983","long":"126.9439273","imageIndex":4,"items":[{"name":"한통식당","tel":"031-8059-3669","addr":"경기도 화성시 양감면 신왕리 645번지","indutype":"일반휴게음식 - 일반한식","category":"restaurant"}]},{"lat":"37.081398965","long":"126.94671785","imageIndex":4,"items":[{"name":"화성시니어클럽노노카페양감면사무소점","tel":"031-8059-4348","addr":"경기도 화성시 양감면 신왕리 1994번지 1층 일부","indutype":"일반휴게음식 - 서양음식","category":"restaurant"}]}]