[{"lat":"36.963329676","long":"127.06425937","imageIndex":17,"items":[{"name":"(주)싸파에프앤씨 평택점","tel":"031-000-0000","addr":"경기도 평택시 팽성읍 남산리 99-1번지","indutype":"레져용품 - 스포츠·레져용품","category":"other"},{"name":"미니스톱 평택싸파점","tel":"031-1577-9621","addr":"경기도 평택시 팽성읍 남산리 99-1번지","indutype":"유통업 영리 - 편 의 점","category":"other"}]},{"lat":"36.945835882","long":"127.05340066","imageIndex":17,"items":[{"name":"GS25팽성남산점","tel":"","addr":"경기도 평택시 팽성읍 남산리 317-69번지 1층 106, 107호","indutype":"유통업 영리 - 편 의 점","category":"other"},{"name":"뉴골드공인중개사","tel":"031-691-2835","addr":"경기도 평택시 팽성읍 남산리 317-69번지 105호","indutype":"서비스업 - 부동산","category":"other"}]},{"lat":"36.962383721","long":"127.06392175","imageIndex":17,"items":[{"name":"GS25팽성청담점","tel":"","addr":"경기도 평택시 팽성읍 남산리 98-8번지 1층","indutype":"유통업 영리 - 편 의 점","category":"other"},{"name":"GS편의점","tel":"031-691-8700","addr":"경기도 평택시 팽성읍 남산리 98-8번지","indutype":"소매업 - 편의점","category":"other"}]},{"lat":"36.955447355","long":"127.06006508","imageIndex":17,"items":[{"name":"광신유리","tel":"031-651-2556","addr":"경기도 평택시 팽성읍 남산리 223-7번지 외2필지","indutype":"건축자재 - 유리","category":"other"},{"name":"에몬스가구,명품갤러리","tel":"031-691-0025","addr":"경기도 평택시 팽성읍 남산리 223-7번지","indutype":"가구 - 일반가구","category":"other"},{"name":"장인가구","tel":"031-691-2011","addr":"경기도 평택시 팽성읍 남산리 223-7번지","indutype":"가구 - 일반가구","category":"other"}]},{"lat":"36.962617051","long":"127.065741","imageIndex":17,"items":[{"name":"닥터PC","tel":"070-4327-1609","addr":"경기도 평택시 팽성읍 남산리 산76-9번지 진양주택 1동 103호","indutype":"수리서비스 - 사무·통신기기수리","category":"other"}]},{"lat":"36.963717861","long":"127.06284483","imageIndex":17,"items":[{"name":"드림디포","tel":"031-691-0606","addr":"경기도 평택시 팽성읍 남산리 104-4번지","indutype":"소매업 - 문구","category":"other"},{"name":"드림디포팽성점","tel":"031-654-2110","addr":"경기도 평택시 팽성읍 남산리 104-4번지 103,104호","indutype":"서적문구 - 문구용품","category":"other"}]},{"lat":"36.96063951","long":"127.07320636","imageIndex":17,"items":[{"name":"드림오피스 팽성점","tel":"031-653-3094","addr":"경기도 평택시 팽성읍 남산리 55-2번지","indutype":"서적문구 - 문구용품","category":"other"}]},{"lat":"36.959691008","long":"127.06092161","imageIndex":17,"items":[{"name":"마이소잉노트(My sewing note)","tel":"031-111-2222","addr":"경기도 평택시 팽성읍 남산리 141번지","indutype":"문화.취미 - 문화취미기타","category":"other"}]},{"lat":"36.9635003","long":"127.06537117","imageIndex":17,"items":[{"name":"씨유팽성남산길점","tel":"070-5033-4317","addr":"경기도 평택시 팽성읍 남산리 98-70번지 103호","indutype":"유통업 영리 - 편 의 점","category":"other"}]},{"lat":"36.944890011","long":"127.0527826","imageIndex":17,"items":[{"name":"씨유팽성남산로점","tel":"031-653-0292","addr":"경기도 평택시 팽성읍 남산리 317-26번지","indutype":"유통업 영리 - 편 의 점","category":"other"}]},{"lat":"36.963194958","long":"127.06339463","imageIndex":17,"items":[{"name":"워시엔조이 팽성점","tel":"031-000-0000","addr":"경기도 평택시 팽성읍 남산리 103-4번지 1층","indutype":"수리서비스 - 세탁소","category":"other"}]},{"lat":"36.963275238","long":"127.06497798","imageIndex":17,"items":[{"name":"주식회사 오투여행만들기","tel":"031-658-6700","addr":"경기도 평택시 팽성읍 남산리 98-77번지","indutype":"여행 - 관광여행","category":"other"},{"name":"한빛법무사합동","tel":"031-691-0921","addr":"경기도 평택시 팽성읍 남산리 98-77번지 2층","indutype":"용역 서비스 - 법률회계서비스(개인)","category":"other"}]},{"lat":"36.954472615","long":"127.063253","imageIndex":17,"items":[{"name":"청호냉동공조","tel":"031-654-5560","addr":"경기도 평택시 팽성읍 남산리 561-2번지 지하","indutype":"수리서비스 - 가정용품수리","category":"other"}]},{"lat":"36.963330205","long":"127.06322631","imageIndex":17,"items":[{"name":"초코나무","tel":"031-655-7660","addr":"경기도 평택시 팽성읍 남산리 104-12번지 1층","indutype":"문화.취미 - 문화취미기타","category":"other"}]},{"lat":"36.963167482","long":"127.06425924","imageIndex":17,"items":[{"name":"한국전자담배천안화성지사","tel":"031-657-0209","addr":"경기도 평택시 팽성읍 남산리 98-68번지 1층","indutype":"기타 - 기타 전문점","category":"other"}]},{"lat":"36.959946224","long":"127.07228499","imageIndex":17,"items":[{"name":"현대디자인휀스","tel":"031-691-5880","addr":"경기도 평택시 팽성읍 남산리 42-1번지","indutype":"건축자재 - 기타건축자재","category":"other"}]},{"lat":"36.953108583","long":"127.06961788","imageIndex":17,"items":[{"name":"현성전력주식회사","tel":"031-499-1324","addr":"경기도 평택시 팽성읍 남산리 11-26","indutype":"용역 서비스 - 기타용역서비스","category":"other"}]},{"lat":"36.958863042","long":"127.05878761","imageIndex":17,"items":[{"name":"현일툴스","tel":"031-647-4409","addr":"경기도 평택시 팽성읍 남산리 138-10번지","indutype":"기타 - 기계공구","category":"other"}]},{"lat":"36.963194757","long":"127.06378765","imageIndex":17,"items":[{"name":"형제가설상사","tel":"031-691-6861","addr":"경기도 평택시 팽성읍 남산리 101","indutype":"건축자재 - 기타건축자재","category":"other"}]}]