[{"lat":"37.159033558","long":"127.10066735","imageIndex":4,"items":[{"name":"가든부페","tel":"","addr":"경기도 화성시 장지동 933-7번지 1층","indutype":"일반휴게음식 - 일반한식","category":"restaurant"},{"name":"정원아구찜","tel":"031-000-0000","addr":"경기도 화성시 장지동 933-11번지 1층","indutype":"일반휴게음식 - 일반한식","category":"restaurant"}]},{"lat":"37.157838742","long":"127.10704888","imageIndex":4,"items":[{"name":"가장맛있는족발 남동탄점","tel":"031-377-2932","addr":"경기도 화성시 장지동 961-3번지 1층","indutype":"일반휴게음식 - 일반한식","category":"restaurant"}]},{"lat":"37.157586103","long":"127.10744255","imageIndex":4,"items":[{"name":"갈비꽃","tel":"031-376-7172","addr":"경기도 화성시 장지동 1013-4번지 1층","indutype":"일반휴게음식 - 일반한식","category":"restaurant"}]},{"lat":"37.159559687","long":"127.10710753","imageIndex":4,"items":[{"name":"교동김밥","tel":"031-376-6226","addr":"경기도 화성시 장지동 960-6번지 1층 101호","indutype":"일반휴게음식 - 일반한식","category":"restaurant"},{"name":"꼬지사께 동탄장지점","tel":"031-372-7730","addr":"경기도 화성시 장지동 960-6번지 1층 103호, 104호","indutype":"일반휴게음식 - 일식·회집","category":"restaurant"},{"name":"도니 감자탕","tel":"031-374-3380","addr":"경기도 화성시 장지동 961-2번지 102호","indutype":"일반휴게음식 - 일반한식","category":"restaurant"},{"name":"마포화곱창","tel":"02-0000-0000","addr":"경기도 화성시 장지동 962-4번지 102,103호","indutype":"일반휴게음식 - 일반한식","category":"restaurant"},{"name":"자담치킨","tel":"031-372-9906","addr":"경기도 화성시 장지동 960-5번지 1층","indutype":"일반휴게음식 - 스넥","category":"restaurant"},{"name":"현지반점","tel":"031-378-3772","addr":"경기도 화성시 장지동 961-1번지 1층","indutype":"일반휴게음식 - 중국식","category":"restaurant"}]},{"lat":"37.160476954","long":"127.11874959","imageIndex":4,"items":[{"name":"국민건강식당","tel":"031-377-3782","addr":"경기도 화성시 장지동 1005-3번지 1층 101호","indutype":"일반휴게음식 - 일반한식","category":"restaurant"},{"name":"마지막회","tel":"","addr":"경기도 화성시 장지동 1005-4번지 1층 일부(103호)","indutype":"일반휴게음식 - 일식·회집","category":"restaurant"}]},{"lat":"37.15370234","long":"127.11746721","imageIndex":4,"items":[{"name":"권가네 갈비","tel":"031-374-9233","addr":"경기도 화성시 장지동 512-2번지 A","indutype":"일반휴게음식 - 일반한식","category":"restaurant"},{"name":"대궐숯불장어촌","tel":"031-377-1772","addr":"경기도 화성시 장지동 512-2번지 B동","indutype":"일반휴게음식 - 일반한식","category":"restaurant"}]},{"lat":"37.155250977","long":"127.11866281","imageIndex":4,"items":[{"name":"꿀돼지갈비찌개","tel":"031-376-0401","addr":"경기도 화성시 장지동 711-2번지","indutype":"일반휴게음식 - 일반한식","category":"restaurant"}]},{"lat":"37.158090219","long":"127.10797236","imageIndex":4,"items":[{"name":"노랑통닭 동탄장지점","tel":"031-377-2918","addr":"경기도 화성시 장지동 1016-1번지 1층","indutype":"일반휴게음식 - 스넥","category":"restaurant"},{"name":"이대감 전통육개장 동탄2신도시점","tel":"031-377-1463","addr":"경기도 화성시 장지동 1014-1번지 1층","indutype":"일반휴게음식 - 일반한식","category":"restaurant"},{"name":"카페 미네봉","tel":"","addr":"경기도 화성시 장지동 1014-2번지 1층 103호","indutype":"일반휴게음식 - 서양음식","category":"restaurant"}]},{"lat":"37.151202121","long":"127.12185353","imageIndex":4,"items":[{"name":"논두렁가든","tel":"031-375-2626","addr":"경기도 화성시 장지동 804번지","indutype":"일반휴게음식 - 일반한식","category":"restaurant"}]},{"lat":"37.14961176","long":"127.12627481","imageIndex":4,"items":[{"name":"대한민국짬뽕","tel":"031-377-7778","addr":"경기도 화성시 장지동 832-17번지","indutype":"일반휴게음식 - 중국식","category":"restaurant"}]},{"lat":"37.149005815","long":"127.12841252","imageIndex":4,"items":[{"name":"더로드865/주식회사 교육컨설팅그룹더와이","tel":"031-000-0000","addr":"경기도 화성시 장지동 865번지 1층","indutype":"일반휴게음식 - 서양음식","category":"restaurant"}]},{"lat":"37.151334997","long":"127.12410507","imageIndex":4,"items":[{"name":"동지기사식당","tel":"031-373-7967","addr":"경기도 화성시 장지동 808-3번지 A동","indutype":"일반휴게음식 - 일반한식","category":"restaurant"}]},{"lat":"37.152227227","long":"127.12391513","imageIndex":4,"items":[{"name":"동탄면옥","tel":"031-376-7072","addr":"경기도 화성시 장지동 814-1번지 1층","indutype":"일반휴게음식 - 일반한식","category":"restaurant"}]},{"lat":"37.157250912","long":"127.10946845","imageIndex":4,"items":[{"name":"두툼한 고깃집","tel":"031-374-1734","addr":"경기도 화성시 장지동 1017-4번지","indutype":"일반휴게음식 - 일반한식","category":"restaurant"},{"name":"블레스롤 남동탄2신도시점","tel":"031-377-1216","addr":"경기도 화성시 장지동 1015-1번지 1층 전부호","indutype":"일반휴게음식 - 서양음식","category":"restaurant"},{"name":"선굼터","tel":"031-376-9287","addr":"경기도 화성시 장지동 1015-4번지","indutype":"일반휴게음식 - 일반한식","category":"restaurant"},{"name":"선굼터","tel":"031-376-9287","addr":"경기도 화성시 장지동 1015-4번지 1층 전부호","indutype":"일반휴게음식 - 일반한식","category":"restaurant"},{"name":"펀비어킹 동탄장지점","tel":"","addr":"경기도 화성시 장지동 1017-3번지","indutype":"일반휴게음식 - 주점","category":"restaurant"}]},{"lat":"37.155889878","long":"127.10997312","imageIndex":4,"items":[{"name":"맨션1102 (MANSION1102)","tel":"02-1111-1111","addr":"경기도 화성시 장지동 1020-4번지 1층 1호","indutype":"일반휴게음식 - 서양음식","category":"restaurant"}]},{"lat":"37.158254646","long":"127.10541709","imageIndex":4,"items":[{"name":"멕시카나 동탄장지점","tel":"","addr":"경기도 화성시 장지동 959-5번지 1층 102호","indutype":"일반휴게음식 - 스넥","category":"restaurant"},{"name":"소담애","tel":"031-376-2912","addr":"경기도 화성시 장지동 958-5번지","indutype":"일반휴게음식 - 일반한식","category":"restaurant"},{"name":"포차1991","tel":"031-000-0000","addr":"경기도 화성시 장지동 959-5번지 1층 101호","indutype":"일반휴게음식 - 주점","category":"restaurant"}]},{"lat":"37.15755463","long":"127.11236208","imageIndex":4,"items":[{"name":"못난이꽈배기 동탄6호점","tel":"031-377-5847","addr":"경기도 화성시 장지동 977번지 동탄2신도시호반베르디움33단지 3321B동 지하1층 115호","indutype":"일반휴게음식 - 일반한식","category":"restaurant"},{"name":"박군치킨동탄장지점","tel":"031-378-0285","addr":"경기도 화성시 장지동 977번지 3321A동 지하1층 103,104호","indutype":"일반휴게음식 - 스넥","category":"restaurant"}]},{"lat":"37.159998947","long":"127.09911499","imageIndex":4,"items":[{"name":"문식당","tel":"031-377-3316","addr":"경기도 화성시 장지동 936-2번지","indutype":"일반휴게음식 - 일반한식","category":"restaurant"},{"name":"형인푸드","tel":"031-000-0000","addr":"경기도 화성시 장지동 936-1번지 1층","indutype":"일반휴게음식 - 일반한식","category":"restaurant"}]},{"lat":"37.154755479","long":"127.11858326","imageIndex":4,"items":[{"name":"밀크커피","tel":"031-376-8978","addr":"경기도 화성시 장지동 714-1번지 1층 2층","indutype":"일반휴게음식 - 서양음식","category":"restaurant"},{"name":"자연함바","tel":"031-376-6485","addr":"경기도 화성시 장지동 714-1번지 화성동탄 2택지개발사업조성공사내 A868L 블럭로트","indutype":"일반휴게음식 - 일반한식","category":"restaurant"}]},{"lat":"37.155839146","long":"127.11608578","imageIndex":4,"items":[{"name":"바다양푼이동태탕","tel":"031-372-0506","addr":"경기도 화성시 장지동 559-12번지 외1필지","indutype":"일반휴게음식 - 일반한식","category":"restaurant"}]},{"lat":"37.15475516","long":"127.11890972","imageIndex":4,"items":[{"name":"북한강쭈꾸미","tel":"031-376-9123","addr":"경기도 화성시 장지동 713-1번지 1층 101호","indutype":"일반휴게음식 - 일반한식","category":"restaurant"},{"name":"옹고집버섯샤브칼국수","tel":"031-373-1526","addr":"경기도 화성시 장지동 713-1번지 108호,109호,110호","indutype":"일반휴게음식 - 일반한식","category":"restaurant"}]},{"lat":"37.156421575","long":"127.10988381","imageIndex":4,"items":[{"name":"비에이치씨(BHC)동탄8동점","tel":"031-377-4381","addr":"경기도 화성시 장지동 1019-4번지 1층 101호","indutype":"일반휴게음식 - 스넥","category":"restaurant"}]},{"lat":"37.153809876","long":"127.11807525","imageIndex":4,"items":[{"name":"샘물매운탕","tel":"031-373-8424","addr":"경기도 화성시 장지동 513","indutype":"일반휴게음식 - 일반한식","category":"restaurant"}]},{"lat":"37.154221846","long":"127.12063124","imageIndex":4,"items":[{"name":"석가마솥","tel":"031-000-0000","addr":"경기도 화성시 장지동 717번지 1층","indutype":"일반휴게음식 - 일반한식","category":"restaurant"}]},{"lat":"37.154610386","long":"127.11952864","imageIndex":4,"items":[{"name":"송도갈비살","tel":"031-376-0166","addr":"경기도 화성시 장지동 712-10번지 1층","indutype":"일반휴게음식 - 일반한식","category":"restaurant"}]},{"lat":"37.156029711","long":"127.11466764","imageIndex":4,"items":[{"name":"수누리 뼈다귀 장지점","tel":"031-377-7147","addr":"경기도 화성시 장지동 477-3번지 (나동1층일부)","indutype":"일반휴게음식 - 일반한식","category":"restaurant"}]},{"lat":"37.15161364","long":"127.12476966","imageIndex":4,"items":[{"name":"신동태","tel":"031-378-4682","addr":"경기도 화성시 장지동 817-1","indutype":"일반휴게음식 - 일반한식","category":"restaurant"}]},{"lat":"37.156395414","long":"127.10891564","imageIndex":4,"items":[{"name":"아이킨예","tel":"","addr":"경기도 화성시 장지동 1021-13번지","indutype":"일반휴게음식 - 서양음식","category":"restaurant"}]},{"lat":"37.157391049","long":"127.1138591","imageIndex":4,"items":[{"name":"어반리/(주)어반리","tel":"031-281-0997","addr":"경기도 화성시 장지동 479번지","indutype":"일반휴게음식 - 서양음식","category":"restaurant"}]},{"lat":"37.158368307","long":"127.10935744","imageIndex":4,"items":[{"name":"여기에","tel":"031-374-5036","addr":"경기도 화성시 장지동 1014-7번지 1동 1층 103호","indutype":"일반휴게음식 - 서양음식","category":"restaurant"},{"name":"할매순대국","tel":"031-373-1288","addr":"경기도 화성시 장지동 1016-4번지","indutype":"일반휴게음식 - 일반한식","category":"restaurant"}]},{"lat":"37.159199831","long":"127.10646534","imageIndex":4,"items":[{"name":"예술회관","tel":"031-8058-2409","addr":"경기도 화성시 장지동 960-3번지 1층 102호","indutype":"일반휴게음식 - 일식·회집","category":"restaurant"}]},{"lat":"37.156308139","long":"127.11561367","imageIndex":4,"items":[{"name":"옛골영양갈비탕","tel":"031-376-1193","addr":"경기도 화성시 장지동 559-7번지 1층","indutype":"일반휴게음식 - 일반한식","category":"restaurant"}]},{"lat":"37.159696297","long":"127.10544155","imageIndex":4,"items":[{"name":"옛날통닭","tel":"","addr":"경기도 화성시 장지동 960-2번지 1층 일부호","indutype":"일반휴게음식 - 스넥","category":"restaurant"},{"name":"청년피자 장지점","tel":"031-374-3990","addr":"경기도 화성시 장지동 956-4번지 1층 일부호","indutype":"일반휴게음식 - 일반한식","category":"restaurant"},{"name":"피엠씨커피(PMC COFFEE)","tel":"031-373-9483","addr":"경기도 화성시 장지동 958-1번지 1층 101호","indutype":"일반휴게음식 - 서양음식","category":"restaurant"},{"name":"한끼분식","tel":"031-373-2770","addr":"경기도 화성시 장지동 960-2번지 102층","indutype":"일반휴게음식 - 스넥","category":"restaurant"}]},{"lat":"37.163805504","long":"127.09386209","imageIndex":4,"items":[{"name":"오!닭꼬치","tel":"031-372-8080","addr":"경기도 화성시 장지동 913번지 동탄2엘에이치행복주택28단지 상가동 104호","indutype":"일반휴게음식 - 주점","category":"restaurant"}]},{"lat":"37.160026543","long":"127.09841703","imageIndex":4,"items":[{"name":"요거프레소","tel":"031-233-1572","addr":"경기도 화성시 장지동 937-1번지","indutype":"일반휴게음식 - 서양음식","category":"restaurant"}]},{"lat":"37.158145551","long":"127.10653145","imageIndex":4,"items":[{"name":"윤's bake","tel":"","addr":"경기도 화성시 장지동 962-8번지 1층 102호","indutype":"일반휴게음식 - 일반한식","category":"restaurant"},{"name":"혼마참치","tel":"031-223-5214","addr":"경기도 화성시 장지동 962-2번지 1층 일부호","indutype":"일반휴게음식 - 일식·회집","category":"restaurant"}]},{"lat":"37.155117858","long":"127.11655751","imageIndex":4,"items":[{"name":"장강손짬뽕","tel":"031-377-8005","addr":"경기도 화성시 장지동 1028-6번지 1층 일부호","indutype":"일반휴게음식 - 중국식","category":"restaurant"}]},{"lat":"37.149944076","long":"127.12729968","imageIndex":4,"items":[{"name":"장지리칼국수","tel":"031-372-8882","addr":"경기도 화성시 장지동 860-1번지 1층","indutype":"일반휴게음식 - 일반한식","category":"restaurant"}]},{"lat":"37.158866071","long":"127.10689268","imageIndex":4,"items":[{"name":"장지보쌈.족발.칼국수","tel":"","addr":"경기도 화성시 장지동 960-4번지","indutype":"일반휴게음식 - 일반한식","category":"restaurant"}]},{"lat":"37.149501592","long":"127.12822198","imageIndex":4,"items":[{"name":"전라도한식뷔페","tel":"031-377-8055","addr":"경기도 화성시 장지동 862-1번지 1","indutype":"일반휴게음식 - 일반한식","category":"restaurant"}]},{"lat":"37.149114261","long":"127.12810878","imageIndex":4,"items":[{"name":"제주백년가야밀면","tel":"031-375-8537","addr":"경기도 화성시 장지동 864-6번지","indutype":"일반휴게음식 - 일반한식","category":"restaurant"},{"name":"큰집추어탕","tel":"031-373-9908","addr":"경기도 화성시 장지동 864-6번지","indutype":"일반휴게음식 - 일반한식","category":"restaurant"}]},{"lat":"37.150947571","long":"127.12408194","imageIndex":4,"items":[{"name":"주막보리밥(동탄)","tel":"031-374-3104","addr":"경기도 화성시 장지동 834-3번지","indutype":"일반휴게음식 - 일반한식","category":"restaurant"}]},{"lat":"37.153337258","long":"127.12219458","imageIndex":4,"items":[{"name":"지리산","tel":"031-378-0889","addr":"경기도 화성시 장지동 783-4번지","indutype":"일반휴게음식 - 일반한식","category":"restaurant"}]},{"lat":"37.162668193","long":"127.11699663","imageIndex":4,"items":[{"name":"처갓집양념치킨 남동탄점","tel":"031-000-0000","addr":"경기도 화성시 장지동 1009번지 레이크반도유보라아이비파크9.0 3417동 지하1층 B109호","indutype":"일반휴게음식 - 스넥","category":"restaurant"}]},{"lat":"37.162613319","long":"127.10813623","imageIndex":4,"items":[{"name":"카페이레","tel":"031-8077-2171","addr":"경기도 화성시 장지동 966번지 금호어울림레이크 111호","indutype":"일반휴게음식 - 서양음식","category":"restaurant"}]},{"lat":"37.153174741","long":"127.12252078","imageIndex":4,"items":[{"name":"카페피오레(CAFE FIORE)","tel":"031-8055-8807","addr":"경기도 화성시 장지동 782-6번지 1층","indutype":"일반휴게음식 - 서양음식","category":"restaurant"}]},{"lat":"37.150505378","long":"127.12474537","imageIndex":4,"items":[{"name":"코리안손짜장","tel":"031-375-0154","addr":"경기도 화성시 장지동 834-1","indutype":"일반휴게음식 - 중국식","category":"restaurant"}]},{"lat":"37.156502944","long":"127.10957997","imageIndex":4,"items":[{"name":"코페아803","tel":"031-376-0803","addr":"경기도 화성시 장지동 1019-3번지","indutype":"일반휴게음식 - 서양음식","category":"restaurant"}]},{"lat":"37.14867207","long":"127.12874966","imageIndex":4,"items":[{"name":"콩쥐네","tel":"031-374-1329","addr":"경기도 화성시 장지동 866-2번지","indutype":"일반휴게음식 - 일반한식","category":"restaurant"}]},{"lat":"37.158777134","long":"127.10555289","imageIndex":4,"items":[{"name":"큰집 닭발","tel":"","addr":"경기도 화성시 장지동 959-1번지 1층 일부호","indutype":"일반휴게음식 - 일반한식","category":"restaurant"}]},{"lat":"37.148952311","long":"127.12788339","imageIndex":4,"items":[{"name":"큰집한정식","tel":"031-375-8537","addr":"경기도 화성시 장지동 868-1번지","indutype":"일반휴게음식 - 일반한식","category":"restaurant"}]},{"lat":"37.16019709","long":"127.1193008","imageIndex":4,"items":[{"name":"피치랑","tel":"031-377-4247","addr":"경기도 화성시 장지동 1007-3번지 1층 일부호","indutype":"일반휴게음식 - 서양음식","category":"restaurant"}]},{"lat":"37.155251842","long":"127.11777349","imageIndex":4,"items":[{"name":"한우소머리국밥","tel":"031-377-1727","addr":"경기도 화성시 장지동 534-7번지","indutype":"일반휴게음식 - 일반한식","category":"restaurant"}]}]