[{"lat":"37.596315218","long":"127.14273672","imageIndex":7,"items":[{"name":"K마트","tel":"","addr":"경기도 구리시 수택동 471번지 반석블레스","indutype":"유통업 영리 - 슈퍼마켓","category":"mart"}]},{"lat":"37.596170282","long":"127.1433932","imageIndex":7,"items":[{"name":"고려슈퍼마켓","tel":"031-563-1145","addr":"경기도 구리시 수택동 472번지 상가","indutype":"유통업 영리 - 슈퍼마켓","category":"mart"}]},{"lat":"37.599584817","long":"127.14353551","imageIndex":7,"items":[{"name":"고향마트","tel":"031-562-5799","addr":"경기도 구리시 수택동 522-3번지 1층","indutype":"유통업 영리 - 슈퍼마켓","category":"mart"}]},{"lat":"37.594088055","long":"127.14420454","imageIndex":7,"items":[{"name":"고향마트","tel":"031-564-6366","addr":"경기도 구리시 수택동 456-85번지","indutype":"유통업 영리 - 슈퍼마켓","category":"mart"}]},{"lat":"37.602447963","long":"127.14517159","imageIndex":7,"items":[{"name":"구리마트","tel":"031-567-3559","addr":"경기도 구리시 수택동 534-2번지 성원메스티지 상가 108호","indutype":"유통업 영리 - 슈퍼마켓","category":"mart"}]},{"lat":"37.600508738","long":"127.14692312","imageIndex":7,"items":[{"name":"구리슈퍼","tel":"031-553-8207","addr":"경기도 구리시 수택동 541-24번지","indutype":"유통업 영리 - 슈퍼마켓","category":"mart"}]},{"lat":"37.598585287","long":"127.14306935","imageIndex":7,"items":[{"name":"금호마트","tel":"031-564-3008","addr":"경기도 구리시 수택동 515-6번지","indutype":"유통업 영리 - 슈퍼마켓","category":"mart"}]},{"lat":"37.597057706","long":"127.13959019","imageIndex":7,"items":[{"name":"늘푸른마트","tel":"031-564-9163","addr":"경기도 구리시 수택동 430-30번지","indutype":"유통업 영리 - 슈퍼마켓","category":"mart"}]},{"lat":"37.591841326","long":"127.14692906","imageIndex":7,"items":[{"name":"또율이네","tel":"031-569-5244","addr":"경기도 구리시 수택동 683번지 1층","indutype":"유통업 영리 - 슈퍼마켓","category":"mart"}]},{"lat":"37.598282901","long":"127.13970566","imageIndex":7,"items":[{"name":"마스터필리핀마트(MASTRE PHILIPPINE MART)","tel":"","addr":"경기도 구리시 수택동 418-1번지 내 제3호","indutype":"유통업 영리 - 슈퍼마켓","category":"mart"}]},{"lat":"37.598978506","long":"127.13809896","imageIndex":7,"items":[{"name":"미니슈퍼","tel":"031-111-1111","addr":"경기도 구리시 수택동 375-34번지","indutype":"유통업 영리 - 슈퍼마켓","category":"mart"}]},{"lat":"37.598390861","long":"127.13984174","imageIndex":7,"items":[{"name":"미보마트","tel":"031-551-1259","addr":"경기도 구리시 수택동 418-2번지 1층 지상1층","indutype":"유통업 영리 - 슈퍼마켓","category":"mart"},{"name":"햇님할인마트","tel":"031-558-4300","addr":"경기도 구리시 수택동 418-2번지 2, 3","indutype":"유통업 영리 - 슈퍼마켓","category":"mart"}]},{"lat":"37.592895825","long":"127.13903908","imageIndex":7,"items":[{"name":"바이올가 구리수택점/주식회사 푸름","tel":"031-551-6250","addr":"경기도 구리시 수택동 754-13번지 팔복빌라 1층 101호","indutype":"유통업 영리 - 슈퍼마켓","category":"mart"}]},{"lat":"37.599115241","long":"127.1444292","imageIndex":7,"items":[{"name":"보령마트","tel":"031-624-4208","addr":"경기도 구리시 수택동 522-86번지 1층","indutype":"유통업 영리 - 슈퍼마켓","category":"mart"},{"name":"보령종합유통","tel":"031-569-9704","addr":"경기도 구리시 수택동 522-86번지","indutype":"유통업 영리 - 슈퍼마켓","category":"mart"}]},{"lat":"37.592030006","long":"127.16139983","imageIndex":7,"items":[{"name":"상록마트","tel":"031-567-0850","addr":"경기도 구리시 수택동 89번지 공무원 상가 105호","indutype":"유통업 영리 - 슈퍼마켓","category":"mart"}]},{"lat":"37.596921038","long":"127.14839957","imageIndex":7,"items":[{"name":"설악마트","tel":"031-557-7200","addr":"경기도 구리시 수택동 496-2번지","indutype":"유통업 영리 - 슈퍼마켓","category":"mart"}]},{"lat":"37.600422926","long":"127.14336723","imageIndex":7,"items":[{"name":"수택슈퍼","tel":"031-568-8463","addr":"경기도 구리시 수택동 525-37번지 수택슈퍼","indutype":"유통업 영리 - 슈퍼마켓","category":"mart"}]},{"lat":"37.600171433","long":"127.14270996","imageIndex":7,"items":[{"name":"스마일슈퍼","tel":"031-551-2178","addr":"경기도 구리시 수택동 525-6번지","indutype":"유통업 영리 - 슈퍼마켓","category":"mart"}]},{"lat":"37.59739538","long":"127.143588","imageIndex":7,"items":[{"name":"엘마트구리점","tel":"031-556-0073","addr":"경기도 구리시 수택동 486-4번지 1층","indutype":"유통업 영리 - 슈퍼마켓","category":"mart"}]},{"lat":"37.599112832","long":"127.1388126","imageIndex":7,"items":[{"name":"여주상회","tel":"031-566-0069","addr":"경기도 구리시 수택동 381-6번지","indutype":"유통업 영리 - 슈퍼마켓","category":"mart"}]},{"lat":"37.6010855","long":"127.14681099","imageIndex":7,"items":[{"name":"여주이천쌀직매장","tel":"031-562-5712","addr":"경기도 구리시 수택동 554-18번지","indutype":"유통업 영리 - 슈퍼마켓","category":"mart"}]},{"lat":"37.594533802","long":"127.14059332","imageIndex":7,"items":[{"name":"영신마트","tel":"031-577-1257","addr":"경기도 구리시 수택동 462-33번지","indutype":"유통업 영리 - 슈퍼마켓","category":"mart"}]},{"lat":"37.599254862","long":"127.14064732","imageIndex":7,"items":[{"name":"우리슈퍼","tel":"031-551-8631","addr":"경기도 구리시 수택동 414-13번지","indutype":"유통업 영리 - 슈퍼마켓","category":"mart"}]},{"lat":"37.600335542","long":"127.1410683","imageIndex":7,"items":[{"name":"원영수퍼","tel":"031-569-6666","addr":"경기도 구리시 수택동 404-7","indutype":"유통업 영리 - 슈퍼마켓","category":"mart"}]},{"lat":"37.597895351","long":"127.13981819","imageIndex":7,"items":[{"name":"은혜슈퍼","tel":"","addr":"경기도 구리시 수택동 427번지","indutype":"유통업 영리 - 슈퍼마켓","category":"mart"}]},{"lat":"37.598868312","long":"127.13989924","imageIndex":7,"items":[{"name":"일등축산물도소매마트","tel":"031-555-0960","addr":"경기도 구리시 수택동 417-9번지 1층 지층","indutype":"유통업 영리 - 슈퍼마켓","category":"mart"}]},{"lat":"37.59450938","long":"127.13833999","imageIndex":7,"items":[{"name":"자매슈퍼","tel":"031-566-6207","addr":"경기도 구리시 수택동 438번지","indutype":"유통업 영리 - 슈퍼마켓","category":"mart"}]},{"lat":"37.596508422","long":"127.14690408","imageIndex":7,"items":[{"name":"중앙할인마트","tel":"031-559-7882","addr":"경기도 구리시 수택동 493-3번지","indutype":"유통업 영리 - 슈퍼마켓","category":"mart"}]},{"lat":"37.595253669","long":"127.14137595","imageIndex":7,"items":[{"name":"코사마트","tel":"031-568-0363","addr":"경기도 구리시 수택동 466-26번지","indutype":"유통업 영리 - 슈퍼마켓","category":"mart"}]},{"lat":"37.596363116","long":"127.14784364","imageIndex":7,"items":[{"name":"태양마트","tel":"031-562-4941","addr":"경기도 구리시 수택동 493-18번지 1층","indutype":"유통업 영리 - 슈퍼마켓","category":"mart"}]},{"lat":"37.594591909","long":"127.14478297","imageIndex":7,"items":[{"name":"평화슈퍼","tel":"031-566-4737","addr":"경기도 구리시 수택동 474-78번지","indutype":"유통업 영리 - 슈퍼마켓","category":"mart"}]},{"lat":"37.598364788","long":"127.13901507","imageIndex":7,"items":[{"name":"포천수퍼","tel":"031-563-3095","addr":"경기도 구리시 수택동 380-25번지","indutype":"유통업 영리 - 슈퍼마켓","category":"mart"}]},{"lat":"37.592866666","long":"127.14087332","imageIndex":7,"items":[{"name":"풍년할인마트","tel":"031-556-1590","addr":"경기도 구리시 수택동 444-12번지","indutype":"유통업 영리 - 슈퍼마켓","category":"mart"}]},{"lat":"37.593370635","long":"127.14884558","imageIndex":7,"items":[{"name":"플러스마트","tel":"031-563-8686","addr":"경기도 구리시 수택동 275-3번지 1층","indutype":"유통업 영리 - 슈퍼마켓","category":"mart"}]},{"lat":"37.598477103","long":"127.14312577","imageIndex":7,"items":[{"name":"한아름슈퍼","tel":"031-561-0850","addr":"경기도 구리시 수택동 515-7번지","indutype":"유통업 영리 - 슈퍼마켓","category":"mart"}]},{"lat":"37.598196842","long":"127.14392922","imageIndex":7,"items":[{"name":"행운슈퍼","tel":"031-565-3308","addr":"경기도 구리시 수택동 515-44번지","indutype":"유통업 영리 - 슈퍼마켓","category":"mart"}]}]