[{"lat":"37.281737321","long":"127.11024135","imageIndex":7,"items":[{"name":"deokcaron(덕카롱)","tel":"","addr":"경기도 용인시 기흥구 신갈동 733번지 기흥더샵프라임뷰 지하1층","indutype":"음료식품 - 제과점","category":"food"}]},{"lat":"37.270406778","long":"127.10529837","imageIndex":7,"items":[{"name":"경기수산","tel":"031-274-7033","addr":"경기도 용인시 기흥구 신갈동 71-14번지","indutype":"음료식품 - 농·축·수산품","category":"food"}]},{"lat":"37.273322575","long":"127.10930487","imageIndex":7,"items":[{"name":"공판장축산","tel":"031-284-0227","addr":"경기도 용인시 기흥구 신갈동 50-7","indutype":"음료식품 - 정육점","category":"food"}]},{"lat":"37.276657099","long":"127.10849774","imageIndex":7,"items":[{"name":"금산종합인삼","tel":"031-287-2353","addr":"경기도 용인시 기흥구 신갈동 33번지 희망 A동 103호","indutype":"건강식품 - 인삼제품","category":"food"}]},{"lat":"37.290343777","long":"127.09774701","imageIndex":7,"items":[{"name":"기원상사","tel":"031-202-1465","addr":"경기도 용인시 기흥구 신갈동 558-3번지 외3필지","indutype":"음료식품 - 기타음료식품","category":"food"}]},{"lat":"37.282234336","long":"127.10862957","imageIndex":7,"items":[{"name":"기흥고 교육경제공동체 사회적협동조합","tel":"031-679-1930","addr":"경기도 용인시 기흥구 신갈동 161번지","indutype":"음료식품 - 기타음료식품","category":"food"}]},{"lat":"37.286238151","long":"127.11488248","imageIndex":7,"items":[{"name":"기흥도서관매점","tel":"","addr":"경기도 용인시 기흥구 신갈동 산14번지 기흥도서관 3층","indutype":"음료식품 - 기타음료식품","category":"food"}]},{"lat":"37.286559757","long":"127.10807179","imageIndex":7,"items":[{"name":"깔끔유통","tel":"070-7018-5392","addr":"경기도 용인시 기흥구 신갈동 151-1번지 인성마을현대아파트","indutype":"음료식품 - 기타음료식품","category":"food"}]},{"lat":"37.292043971","long":"127.10110987","imageIndex":7,"items":[{"name":"단지상회","tel":"070-5133-9564","addr":"경기도 용인시 기흥구 신갈동 294-26번지","indutype":"음료식품 - 기타음료식품","category":"food"}]},{"lat":"37.277043823","long":"127.10929883","imageIndex":7,"items":[{"name":"달달한농부","tel":"031-274-7774","addr":"경기도 용인시 기흥구 신갈동 31-4번지 정훈빌딩 107호","indutype":"음료식품 - 기타음료식품","category":"food"}]},{"lat":"37.273488241","long":"127.10535892","imageIndex":7,"items":[{"name":"대명유통","tel":"031-274-0409","addr":"경기도 용인시 기흥구 신갈동 57-8번지","indutype":"음료식품 - 농·축·수산품","category":"food"}]},{"lat":"37.288268721","long":"127.11137834","imageIndex":7,"items":[{"name":"대문떡방","tel":"031-285-7787","addr":"경기도 용인시 기흥구 신갈동 725번지 새천년프라자 1층 109호","indutype":"음료식품 - 제과점","category":"food"},{"name":"이레반찬","tel":"031-274-9555","addr":"경기도 용인시 기흥구 신갈동 725번지 새천년프라자 112호","indutype":"음료식품 - 기타음료식품","category":"food"},{"name":"장가네 푸줏간","tel":"031-274-6466","addr":"경기도 용인시 기흥구 신갈동 725번지 새천년프라자 107호","indutype":"음료식품 - 정육점","category":"food"}]},{"lat":"37.276054938","long":"127.1067718","imageIndex":7,"items":[{"name":"대한식자재","tel":"","addr":"경기도 용인시 기흥구 신갈동 17-15번지 원대마을신갈한신아파트","indutype":"음료식품 - 기타음료식품","category":"food"}]},{"lat":"37.288962044","long":"127.1118868","imageIndex":7,"items":[{"name":"떡고을","tel":"031-275-0634","addr":"경기도 용인시 기흥구 신갈동 714번지 센타프라자 109호","indutype":"음료식품 - 제과점","category":"food"},{"name":"산지애","tel":"031-275-1233","addr":"경기도 용인시 기흥구 신갈동 714번지 센타프라자 106호","indutype":"음료식품 - 농·축·수산품","category":"food"},{"name":"신개념푸줏간","tel":"070-7768-7484","addr":"경기도 용인시 기흥구 신갈동 714번지 센터프라자 108호","indutype":"음료식품 - 정육점","category":"food"},{"name":"즉석반찬전문점맛깔","tel":"031-282-2567","addr":"경기도 용인시 기흥구 신갈동 714번지 센터프라자 102호","indutype":"음료식품 - 기타음료식품","category":"food"}]},{"lat":"37.270658988","long":"127.1053889","imageIndex":7,"items":[{"name":"로하스종합농산물","tel":"031-282-2266","addr":"경기도 용인시 기흥구 신갈동 71-12번지","indutype":"음료식품 - 농·축·수산품","category":"food"}]},{"lat":"37.274324938","long":"127.10680324","imageIndex":7,"items":[{"name":"무지개농산물","tel":"031-284-5135","addr":"경기도 용인시 기흥구 신갈동 40-19번지","indutype":"음료식품 - 농·축·수산품","category":"food"}]},{"lat":"37.288736788","long":"127.11188648","imageIndex":7,"items":[{"name":"미친 꽈배기 신갈점","tel":"031-281-9677","addr":"경기도 용인시 기흥구 신갈동 715번지 보은빌딩 1층 103호","indutype":"음료식품 - 기타음료식품","category":"food"}]},{"lat":"37.272845587","long":"127.10868409","imageIndex":7,"items":[{"name":"바삭김","tel":"","addr":"경기도 용인시 기흥구 신갈동 51-9번지 302호","indutype":"음료식품 - 기타음료식품","category":"food"},{"name":"샤모니","tel":"031-282-0455","addr":"경기도 용인시 기흥구 신갈동 51-9번지 1층 오른쪽코너","indutype":"음료식품 - 제과점","category":"food"}]},{"lat":"37.272658935","long":"127.10577496","imageIndex":7,"items":[{"name":"발안푸드","tel":"031-264-1173","addr":"경기도 용인시 기흥구 신갈동 56-1번지 1층","indutype":"음료식품 - 기타음료식품","category":"food"}]},{"lat":"37.271878216","long":"127.10205328","imageIndex":7,"items":[{"name":"백마 축산물 공판장","tel":"031-338-7774","addr":"경기도 용인시 기흥구 신갈동 441-22","indutype":"음료식품 - 정육점","category":"food"}]},{"lat":"37.289016767","long":"127.11116514","imageIndex":7,"items":[{"name":"보노과자점","tel":"031-294-2397","addr":"경기도 용인시 기흥구 신갈동 710스카이빌딩103호~104호","indutype":"음료식품 - 제과점","category":"food"}]},{"lat":"37.273071356","long":"127.10810939","imageIndex":7,"items":[{"name":"복권방","tel":"031-282-2545","addr":"경기도 용인시 기흥구 신갈동 51","indutype":"음료식품 - 기타음료식품","category":"food"}]},{"lat":"37.276656655","long":"127.10899386","imageIndex":7,"items":[{"name":"블루밍니담","tel":"","addr":"경기도 용인시 기흥구 신갈동 32번지 중앙타운 105호","indutype":"음료식품 - 제과점","category":"food"}]},{"lat":"37.27517872","long":"127.10927366","imageIndex":7,"items":[{"name":"삼일청과","tel":"031-283-2823","addr":"경기도 용인시 기흥구 신갈동 47-6번지","indutype":"음료식품 - 농·축·수산품","category":"food"}]},{"lat":"37.283931149","long":"127.10535052","imageIndex":7,"items":[{"name":"상미편의점","tel":"031-281-3880","addr":"경기도 용인시 기흥구 신갈동 388-126번지","indutype":"음료식품 - 기타음료식품","category":"food"}]},{"lat":"37.273152748","long":"127.10777126","imageIndex":7,"items":[{"name":"서울떡집","tel":"031-283-6763","addr":"경기도 용인시 기흥구 신갈동 52-19번지","indutype":"음료식품 - 제과점","category":"food"}]},{"lat":"37.272153928","long":"127.10627035","imageIndex":7,"items":[{"name":"소래포구 어시장","tel":"031-8005-8882","addr":"경기도 용인시 기흥구 신갈동 60-13번지 102-1호","indutype":"음료식품 - 기타음료식품","category":"food"}]},{"lat":"37.276155211","long":"127.10544146","imageIndex":7,"items":[{"name":"수복유통","tel":"031-286-2738","addr":"경기도 용인시 기흥구 신갈동 35-5번지","indutype":"음료식품 - 농·축·수산품","category":"food"},{"name":"중앙방앗간","tel":"031-282-4763","addr":"경기도 용인시 기흥구 신갈동 35-5,1","indutype":"음료식품 - 제과점","category":"food"}]},{"lat":"37.273984195","long":"127.10490859","imageIndex":7,"items":[{"name":"수정정육점","tel":"031-283-0219","addr":"경기도 용인시 기흥구 신갈동 57번지","indutype":"음료식품 - 정육점","category":"food"}]},{"lat":"37.288683089","long":"127.1114917","imageIndex":7,"items":[{"name":"스윗벨라","tel":"031-1111-1111","addr":"경기도 용인시 기흥구 신갈동 723번지 두원빌딩 302-1호","indutype":"음료식품 - 기타음료식품","category":"food"}]},{"lat":"37.288459581","long":"127.09905278","imageIndex":7,"items":[{"name":"신갈수산","tel":"031-281-2455","addr":"경기도 용인시 기흥구 신갈동 537-16번지 1층 일부","indutype":"음료식품 - 농·축·수산품","category":"food"}]},{"lat":"37.284904684","long":"127.10485567","imageIndex":7,"items":[{"name":"신기천농원","tel":"031-284-7764","addr":"경기도 용인시 기흥구 신갈동 388-107번지","indutype":"음료식품 - 정육점","category":"food"}]},{"lat":"37.279073907","long":"127.10616706","imageIndex":7,"items":[{"name":"와우아울렛","tel":"031-693-8179","addr":"경기도 용인시 기흥구 신갈동 1-6번지 한솔프라자 101호","indutype":"음료식품 - 기타음료식품","category":"food"},{"name":"쿠키앤허브다이어트클럽","tel":"031-891-1750","addr":"경기도 용인시 기흥구 신갈동 1-6번지 한솔프라자 109호","indutype":"회원제형태 - 건강식품","category":"food"}]},{"lat":"37.275020375","long":"127.10490999","imageIndex":7,"items":[{"name":"용샘코리아용인수원총판황제","tel":"031-263-7643","addr":"경기도 용인시 기흥구 신갈동 37번지 1층 101호","indutype":"음료식품 - 기타음료식품","category":"food"}]},{"lat":"37.271712474","long":"127.10621338","imageIndex":7,"items":[{"name":"용인왕꽈배기","tel":"031-282-7983","addr":"경기도 용인시 기흥구 신갈동 61번지 1층","indutype":"음료식품 - 기타음료식품","category":"food"}]},{"lat":"37.271350144","long":"127.10838886","imageIndex":7,"items":[{"name":"용인재능나눔봉사단","tel":"031-284-1144","addr":"경기도 용인시 기흥구 신갈동 68-1번지 3층","indutype":"음료식품 - 기타음료식품","category":"food"}]},{"lat":"37.288403409","long":"127.111886","imageIndex":7,"items":[{"name":"웰빙스토리","tel":"070-8247-7857","addr":"경기도 용인시 기흥구 신갈동 717번지 햇살프라자 101호","indutype":"음료식품 - 기타음료식품","category":"food"}]},{"lat":"37.271928936","long":"127.10596563","imageIndex":7,"items":[{"name":"이가떡방","tel":"031-281-0049","addr":"경기도 용인시 기흥구 신갈동 60-15번지 1층","indutype":"음료식품 - 제과점","category":"food"}]},{"lat":"37.288710399","long":"127.11118726","imageIndex":7,"items":[{"name":"인스토리(In Story)","tel":"031-286-1176","addr":"경기도 용인시 기흥구 신갈동 722번지 월드프라자","indutype":"음료식품 - 기타음료식품","category":"food"}]},{"lat":"37.286263008","long":"127.10740605","imageIndex":7,"items":[{"name":"인절미","tel":"","addr":"경기도 용인시 기흥구 신갈동 147번지 지하1층","indutype":"음료식품 - 제과점","category":"food"}]},{"lat":"37.286312814","long":"127.11211979","imageIndex":7,"items":[{"name":"자연이랑","tel":"","addr":"경기도 용인시 기흥구 신갈동 166번지 새릉골풍림아파트","indutype":"음료식품 - 기타음료식품","category":"food"}]},{"lat":"37.271990962","long":"127.10716082","imageIndex":7,"items":[{"name":"정축산","tel":"031-111-1111","addr":"경기도 용인시 기흥구 신갈동 61-6번지 1층","indutype":"음료식품 - 정육점","category":"food"}]},{"lat":"37.27635368","long":"127.10515984","imageIndex":7,"items":[{"name":"주식회사담운","tel":"031-282-3800","addr":"경기도 용인시 기흥구 신갈동 35-10번지","indutype":"음료식품 - 농·축·수산품","category":"food"}]},{"lat":"37.272765795","long":"127.10721827","imageIndex":7,"items":[{"name":"중국식품","tel":"031-283-8868","addr":"경기도 용인시 기흥구 신갈동 53번지","indutype":"음료식품 - 기타음료식품","category":"food"}]},{"lat":"37.271018604","long":"127.10630262","imageIndex":7,"items":[{"name":"중앙상회","tel":"031-283-2062","addr":"경기도 용인시 기흥구 신갈동 69-2번지 1층","indutype":"음료식품 - 기타음료식품","category":"food"}]},{"lat":"37.282803113","long":"127.10735616","imageIndex":7,"items":[{"name":"진미","tel":"","addr":"경기도 용인시 기흥구 신갈동 159번지 갈현마을현대홈타운","indutype":"음료식품 - 농·축·수산품","category":"food"}]},{"lat":"37.285483697","long":"127.1020824","imageIndex":7,"items":[{"name":"참미래","tel":"031-285-8674","addr":"경기도 용인시 기흥구 신갈동 349번지 삼진빌라 202호","indutype":"음료식품 - 미곡상","category":"food"}]},{"lat":"37.287710981","long":"127.11039644","imageIndex":7,"items":[{"name":"커피야고마워","tel":"070-4212-8819","addr":"경기도 용인시 기흥구 신갈동 707번지 녹원마을새천년그린빌3단지아파트","indutype":"음료식품 - 기타음료식품","category":"food"}]},{"lat":"37.272099669","long":"127.10649577","imageIndex":7,"items":[{"name":"콩마당즉석두부","tel":"031-284-1002","addr":"경기도 용인시 기흥구 신갈동 60-12번지 1층","indutype":"음료식품 - 기타음료식품","category":"food"}]},{"lat":"37.288233208","long":"127.10041701","imageIndex":7,"items":[{"name":"토종한우직거래장터","tel":"031-261-4445","addr":"경기도 용인시 기흥구 신갈동 537-22번지","indutype":"음료식품 - 정육점","category":"food"}]},{"lat":"37.289016592","long":"127.11135685","imageIndex":7,"items":[{"name":"파리바게뜨(신갈새천년점)","tel":"031-287-8205","addr":"경기도 용인시 기흥구 신갈동 711번지 그린프라자 105호 104","indutype":"음료식품 - 제과점","category":"food"}]},{"lat":"37.272988626","long":"127.10993579","imageIndex":7,"items":[{"name":"파리바게트 신갈점","tel":"031-8013-9611","addr":"경기도 용인시 기흥구 신갈동 64-5번지 이레빌 1층","indutype":"음료식품 - 제과점","category":"food"}]},{"lat":"37.285042364","long":"127.10187885","imageIndex":7,"items":[{"name":"파스퇴르유업신갈대리점","tel":"031-281-9400","addr":"경기도 용인시 기흥구 신갈동 351","indutype":"음료식품 - 기타음료식품","category":"food"}]},{"lat":"37.288512173","long":"127.11118697","imageIndex":7,"items":[{"name":"파워풀점핑다이어트","tel":"031-286-5757","addr":"경기도 용인시 기흥구 신갈동 726번지 경일프라자 2층 202호","indutype":"건강식품 - 기타건강식품","category":"food"}]},{"lat":"37.271100109","long":"127.10582921","imageIndex":7,"items":[{"name":"플러스건식","tel":"031-282-4990","addr":"경기도 용인시 기흥구 신갈동 70-9번지 동인빌딩 503호","indutype":"건강식품 - 기타건강식품","category":"food"}]},{"lat":"37.275242759","long":"127.10819134","imageIndex":7,"items":[{"name":"필라프에 빠지다","tel":"031-000-0000","addr":"경기도 용인시 기흥구 신갈동 42-41번지 1층 빛과결 102호","indutype":"음료식품 - 기타음료식품","category":"food"}]},{"lat":"37.275792735","long":"127.10779748","imageIndex":7,"items":[{"name":"하늘건강원","tel":"031-285-1004","addr":"경기도 용인시 기흥구 신갈동 42-18","indutype":"건강식품 - 기타건강식품","category":"food"}]},{"lat":"37.274097437","long":"127.10932851","imageIndex":7,"items":[{"name":"하란보신원","tel":"031-283-6678","addr":"경기도 용인시 기흥구 신갈동 49-20번지","indutype":"건강식품 - 기타건강식품","category":"food"}]},{"lat":"37.289955745","long":"127.11866588","imageIndex":7,"items":[{"name":"한국천연의학연구소","tel":"070-7818-3850","addr":"경기도 용인시 기흥구 신갈동 691번지 산양마을푸르지오","indutype":"회원제형태 - 건강식품","category":"food"}]},{"lat":"37.288350903","long":"127.11018309","imageIndex":7,"items":[{"name":"호웅유통","tel":"031-283-0325","addr":"경기도 용인시 기흥구 신갈동 707번지 새천년 상가 203호","indutype":"건강식품 - 기타건강식품","category":"food"}]},{"lat":"37.270514804","long":"127.10541126","imageIndex":7,"items":[{"name":"황금식품","tel":"031-334-9500","addr":"경기도 용인시 기흥구 신갈동 71-13번지 5층","indutype":"음료식품 - 기타음료식품","category":"food"}]},{"lat":"37.278126072","long":"127.10816153","imageIndex":7,"items":[{"name":"훈쿡","tel":"031-000-0000","addr":"경기도 용인시 기흥구 신갈동 14-17번지 316호","indutype":"음료식품 - 기타음료식품","category":"food"}]}]