[{"lat":"37.257353445","long":"127.09088581","imageIndex":7,"items":[{"name":"JS유통","tel":"031-226-4025","addr":"경기도 용인시 기흥구 하갈동 348-4번지","indutype":"음료식품 - 기타음료식품","category":"food"}]},{"lat":"37.254098721","long":"127.10463379","imageIndex":7,"items":[{"name":"SH컴퍼니","tel":"031-274-4179","addr":"경기도 용인시 기흥구 하갈동 143-4","indutype":"음료식품 - 농·축·수산품","category":"food"},{"name":"지지샵","tel":"031-282-1830","addr":"경기도 용인시 기흥구 하갈동 143-4 405","indutype":"건강식품 - 기타건강식품","category":"food"}]},{"lat":"37.238800539","long":"127.09177708","imageIndex":7,"items":[{"name":"가마골","tel":"031-206-0052","addr":"경기도 용인시 기흥구 하갈동 7-2번지","indutype":"음료식품 - 기타음료식품","category":"food"}]},{"lat":"37.24110735","long":"127.09155439","imageIndex":7,"items":[{"name":"경희대집","tel":"031-202-1135","addr":"경기도 용인시 기흥구 하갈동 20","indutype":"음료식품 - 기타음료식품","category":"food"}]},{"lat":"37.263600603","long":"127.09860405","imageIndex":7,"items":[{"name":"서울팜","tel":"","addr":"경기도 용인시 기흥구 하갈동 300-3번지 평강빌라 301호","indutype":"음료식품 - 농·축·수산품","category":"food"}]},{"lat":"37.256098514","long":"127.09418712","imageIndex":7,"items":[{"name":"성희식품","tel":"031-283-3787","addr":"경기도 용인시 기흥구 하갈동 255-9번지","indutype":"음료식품 - 농·축·수산품","category":"food"}]},{"lat":"37.265410697","long":"127.09980135","imageIndex":7,"items":[{"name":"청명","tel":"031-283-0857","addr":"경기도 용인시 기흥구 하갈동 296-2번지","indutype":"음료식품 - 기타음료식품","category":"food"}]},{"lat":"37.262213074","long":"127.08664149","imageIndex":7,"items":[{"name":"청명산농원","tel":"031-206-9105","addr":"경기도 용인시 기흥구 하갈동 323-2번지","indutype":"음료식품 - 기타음료식품","category":"food"}]},{"lat":"37.26137539","long":"127.09819541","imageIndex":7,"items":[{"name":"한방건강타운","tel":"031-282-2332","addr":"경기도 용인시 기흥구 하갈동 279-28번지","indutype":"음료식품 - 기타음료식품","category":"food"}]}]