[{"lat":"37.290883314","long":"127.44909475","imageIndex":13,"items":[{"name":"GTS 골프 아카데미","tel":"031-633-6241","addr":"경기도 이천시 증포동 362-6번지 4층","indutype":"레저업소 - 스크린골프","category":"leisure"},{"name":"아이센스리그PC 이천증포점","tel":"","addr":"경기도 이천시 증포동 362-6번지 2층","indutype":"레저업소 - 기타레져업소","category":"leisure"},{"name":"청춘핏피트니스","tel":"031-634-7717","addr":"경기도 이천시 증포동 362-6번지 외3필지","indutype":"레저업소 - 헬스클럽","category":"leisure"}]},{"lat":"37.286546152","long":"127.44996","imageIndex":13,"items":[{"name":"JDS GYM(제이디에스 짐)","tel":"031-635-1111","addr":"경기도 이천시 증포동 375-25번지 2층 202호","indutype":"레저업소 - 헬스클럽","category":"leisure"}]},{"lat":"37.293239524","long":"127.45501818","imageIndex":13,"items":[{"name":"더 스크린골프","tel":"031-633-3314","addr":"경기도 이천시 증포동 210-5번지","indutype":"레저업소 - 스크린골프","category":"leisure"}]},{"lat":"37.290241141","long":"127.45449276","imageIndex":13,"items":[{"name":"더 캠프 PC방 증포점","tel":"","addr":"경기도 이천시 증포동 177-5번지 2층","indutype":"레저업소 - 기타레져업소","category":"leisure"}]},{"lat":"37.296295313","long":"127.45702142","imageIndex":13,"items":[{"name":"뮤직노래연습장","tel":"031-637-7804","addr":"경기도 이천시 증포동 215-2번지 2층","indutype":"레저업소 - 노 래 방","category":"leisure"},{"name":"이천당구클럽","tel":"031-637-5599","addr":"경기도 이천시 증포동 215-2번지","indutype":"레저업소 - 당 구 장","category":"leisure"}]},{"lat":"37.289384972","long":"127.45690094","imageIndex":13,"items":[{"name":"민 당구클럽","tel":"","addr":"경기도 이천시 증포동 159-19번지 2층","indutype":"레저업소 - 당 구 장","category":"leisure"}]},{"lat":"37.28885585","long":"127.4586006","imageIndex":13,"items":[{"name":"선 필라테스","tel":"031-633-1051","addr":"경기도 이천시 증포동 93-1번지 3층","indutype":"레저업소 - 헬스클럽","category":"leisure"},{"name":"주식회사 유정","tel":"031-622-9879","addr":"경기도 이천시 증포동 93-1번지","indutype":"레저업소 - 당 구 장","category":"leisure"}]},{"lat":"37.289580724","long":"127.45754492","imageIndex":13,"items":[{"name":"스타덤PC이천본점","tel":"070-5476-6278","addr":"경기도 이천시 증포동 165-7번지 외1필지","indutype":"레저업소 - 기타레져업소","category":"leisure"}]},{"lat":"37.293822844","long":"127.45563067","imageIndex":13,"items":[{"name":"승혜계절요가","tel":"031-636-5327","addr":"경기도 이천시 증포동 210-1번지 흥인프라자 503호","indutype":"레저업소 - 헬스클럽","category":"leisure"},{"name":"승혜계절요가(증포점)","tel":"031-636-5327","addr":"경기도 이천시 증포동 210-1번지 흥인프라자 503호","indutype":"레저업소 - 헬스클럽","category":"leisure"},{"name":"탑 케이 짐","tel":"","addr":"경기도 이천시 증포동 210-1번지 흥인프라자 4층 401호 ,402,403호","indutype":"레저업소 - 헬스클럽","category":"leisure"}]},{"lat":"37.290663792","long":"127.45470955","imageIndex":13,"items":[{"name":"오아시스PC클럽","tel":"031-635-3843","addr":"경기도 이천시 증포동 177-9번지","indutype":"레저업소 - 기타레져업소","category":"leisure"}]},{"lat":"37.289880401","long":"127.45221261","imageIndex":13,"items":[{"name":"요가 나마스떼","tel":"031-632-6388","addr":"경기도 이천시 증포동 182-9번지","indutype":"레저업소 - 헬스클럽","category":"leisure"}]},{"lat":"37.295962594","long":"127.45685025","imageIndex":13,"items":[{"name":"우리당구클럽","tel":"02-1577-0000","addr":"경기도 이천시 증포동 215-7번지 2층 201호","indutype":"레저업소 - 당 구 장","category":"leisure"},{"name":"필라테스 율","tel":"070-8806-0513","addr":"경기도 이천시 증포동 215-7번지 3층 304호","indutype":"레저업소 - 헬스클럽","category":"leisure"},{"name":"힘찬gym","tel":"031-633-0177","addr":"경기도 이천시 증포동 215-7번지 우리타워 6층 602호","indutype":"레저업소 - 헬스클럽","category":"leisure"}]},{"lat":"37.28880076","long":"127.44701876","imageIndex":13,"items":[{"name":"점핑스타 이천점","tel":"031-1111-1111","addr":"경기도 이천시 증포동 351-9번지 3층 301호","indutype":"레저업소 - 헬스클럽","category":"leisure"},{"name":"큐리키즈카페","tel":"031-637-8899","addr":"경기도 이천시 증포동 351-9번지 401호","indutype":"레저업소 - 기타레져업소","category":"leisure"}]},{"lat":"37.287884523","long":"127.45342993","imageIndex":13,"items":[{"name":"제이스크린골프","tel":"031-635-0742","addr":"경기도 이천시 증포동 134-3번지","indutype":"레저업소 - 스크린골프","category":"leisure"}]},{"lat":"37.288322787","long":"127.45191015","imageIndex":13,"items":[{"name":"증포을태칸도장","tel":"031-637-0131","addr":"경기도 이천시 증포동 148-4번지 장미빌딩","indutype":"레저업소 - 헬스클럽","category":"leisure"},{"name":"파씨헬스클럽","tel":"031-638-8859","addr":"경기도 이천시 증포동 148-4번지","indutype":"레저업소 - 헬스클럽","category":"leisure"},{"name":"해피로PC방 이천증포점","tel":"","addr":"경기도 이천시 증포동 148-4번지 장미빌딩 3층 1호","indutype":"레저업소 - 기타레져업소","category":"leisure"}]},{"lat":"37.289437756","long":"127.45251446","imageIndex":13,"items":[{"name":"짱노래연습장","tel":"031-635-4706","addr":"경기도 이천시 증포동 149-1번지 2층","indutype":"레저업소 - 노 래 방","category":"leisure"}]},{"lat":"37.289767802","long":"127.45101656","imageIndex":13,"items":[{"name":"큐당구장","tel":"031-635-2000","addr":"경기도 이천시 증포동 367-7번지","indutype":"레저업소 - 당 구 장","category":"leisure"}]},{"lat":"37.289383385","long":"127.45496127","imageIndex":13,"items":[{"name":"하니당구클럽","tel":"031-633-0919","addr":"경기도 이천시 증포동 157-5번지 지하층","indutype":"레저업소 - 당 구 장","category":"leisure"}]}]