[{"lat":"36.991967683","long":"127.09002873","imageIndex":4,"items":[{"name":"79대포 평택역점","tel":"070-8882-2684","addr":"경기도 평택시 평택동 292-2번지 1층","indutype":"일반휴게음식 - 일반한식","category":"restaurant"},{"name":"미네뜨","tel":"031-663-0447","addr":"경기도 평택시 평택동 292-2번지","indutype":"일반휴게음식 - 일반한식","category":"restaurant"}]},{"lat":"36.994466922","long":"127.08544831","imageIndex":4,"items":[{"name":"Jun's 128 카페숍","tel":"031-657-5635","addr":"경기도 평택시 평택동 70-1번지","indutype":"음식점 - 카페","category":"restaurant"},{"name":"준스128 (Jun's)","tel":"031-618-3005","addr":"경기도 평택시 평택동 70-1번지","indutype":"일반휴게음식 - 일반한식","category":"restaurant"},{"name":"초원다방","tel":"031-653-3839","addr":"경기도 평택시 평택동 70-1번지","indutype":"음식점 - 카페","category":"restaurant"}]},{"lat":"36.989121209","long":"127.08877865","imageIndex":4,"items":[{"name":"Pizza Zip(피자집)","tel":"031-653-0886","addr":"경기도 평택시 평택동 316번지 롯데인벤스스카이 101동 108호","indutype":"일반휴게음식 - 서양음식","category":"restaurant"},{"name":"장군이네옛날통닭","tel":"031-654-1818","addr":"경기도 평택시 평택동 316번지 롯데인벤스스카이 상가 101동 107호","indutype":"일반휴게음식 - 스넥","category":"restaurant"}]},{"lat":"36.992907158","long":"127.08674968","imageIndex":4,"items":[{"name":"drippin","tel":"031-656-0147","addr":"경기도 평택시 평택동 62-8번지 1,2층","indutype":"일반휴게음식 - 주점","category":"restaurant"},{"name":"배스킨라빈스 평택역점","tel":"031-657-7538","addr":"경기도 평택시 평택동 62-8번지 1층","indutype":"일반휴게음식 - 서양음식","category":"restaurant"}]},{"lat":"36.993914625","long":"127.08916598","imageIndex":4,"items":[{"name":"e-참치세상","tel":"031-651-6588","addr":"경기도 평택시 평택동 33-10번지","indutype":"일반휴게음식 - 일식·회집","category":"restaurant"},{"name":"훌랄라바베큐치킨 평택중앙점","tel":"031-652-5858","addr":"경기도 평택시 평택동 33-10번지 1층","indutype":"일반휴게음식 - 일반한식","category":"restaurant"}]},{"lat":"36.993664326","long":"127.08636858","imageIndex":4,"items":[{"name":"가배식당","tel":"031-655-5384","addr":"경기도 평택시 평택동 64-38번지","indutype":"일반휴게음식 - 일반한식","category":"restaurant"}]},{"lat":"36.990657759","long":"127.08197321","imageIndex":4,"items":[{"name":"가볼래","tel":"031-652-8925","addr":"경기도 평택시 평택동 89-20번지","indutype":"일반휴게음식 - 일반한식","category":"restaurant"}]},{"lat":"36.992994289","long":"127.09086116","imageIndex":4,"items":[{"name":"가장맛있는족발","tel":"031-655-5596","addr":"경기도 평택시 평택동 286-7번지 1층","indutype":"일반휴게음식 - 일반한식","category":"restaurant"}]},{"lat":"36.990355935","long":"127.08842059","imageIndex":4,"items":[{"name":"갈매기식당","tel":"031-655-1321","addr":"경기도 평택시 평택동 296-2번지","indutype":"일반휴게음식 - 일반한식","category":"restaurant"}]},{"lat":"36.993942234","long":"127.08836843","imageIndex":4,"items":[{"name":"감성비어","tel":"","addr":"경기도 평택시 평택동 35-10번지 204호","indutype":"일반휴게음식 - 서양음식","category":"restaurant"},{"name":"밀리언","tel":"","addr":"경기도 평택시 평택동 35-10번지 평택코아루두드림 1층 104호","indutype":"일반휴게음식 - 서양음식","category":"restaurant"},{"name":"진참치고래","tel":"","addr":"경기도 평택시 평택동 35-10번지 2층 201호","indutype":"일반휴게음식 - 일식·회집","category":"restaurant"},{"name":"징기스칸치킨 평택동점","tel":"031-656-2244","addr":"경기도 평택시 평택동 35-10번지 1층","indutype":"일반휴게음식 - 스넥","category":"restaurant"},{"name":"차돌박사 평택점","tel":"031-618-8952","addr":"경기도 평택시 평택동 35-10번지 101-102호","indutype":"일반휴게음식 - 일반한식","category":"restaurant"}]},{"lat":"36.990049474","long":"127.08855504","imageIndex":4,"items":[{"name":"감자탕과 뼈해장국","tel":"031-654-9797","addr":"경기도 평택시 평택동 295-2번지","indutype":"일반휴게음식 - 일반한식","category":"restaurant"}]},{"lat":"36.993412725","long":"127.08536854","imageIndex":4,"items":[{"name":"강집식당","tel":"031-654-3559","addr":"경기도 평택시 평택동 60-37번지","indutype":"일반휴게음식 - 일반한식","category":"restaurant"}]},{"lat":"36.989998759","long":"127.08378102","imageIndex":4,"items":[{"name":"계룡숯불닭갈비","tel":"031-618-8633","addr":"경기도 평택시 평택동 164-17번지 1층","indutype":"일반휴게음식 - 일반한식","category":"restaurant"},{"name":"대경꼬치구이","tel":"031-655-6989","addr":"경기도 평택시 평택동 164-17번지 2층","indutype":"일반휴게음식 - 일반한식","category":"restaurant"},{"name":"카우카우플러스","tel":"031-692-5550","addr":"경기도 평택시 평택동 164-17번지 4층","indutype":"일반휴게음식 - 일반한식","category":"restaurant"}]},{"lat":"36.991964326","long":"127.0819521","imageIndex":4,"items":[{"name":"고가네해장국","tel":"031-657-5867","addr":"경기도 평택시 평택동 86-3번지 외3필지","indutype":"일반휴게음식 - 일반한식","category":"restaurant"}]},{"lat":"36.994602464","long":"127.08489801","imageIndex":4,"items":[{"name":"고고포차","tel":"031-654-5067","addr":"경기도 평택시 평택동 70-9번지","indutype":"일반휴게음식 - 주점","category":"restaurant"}]},{"lat":"36.993050851","long":"127.08742384","imageIndex":4,"items":[{"name":"고궁","tel":"031-651-1716","addr":"경기도 평택시 평택동 37-5번지","indutype":"일반휴게음식 - 일반한식","category":"restaurant"}]},{"lat":"36.994051707","long":"127.08648134","imageIndex":4,"items":[{"name":"고위층","tel":"031-658-4679","addr":"경기도 평택시 평택동 67-21번지","indutype":"일반휴게음식 - 칵테일바","category":"restaurant"},{"name":"알띠레스토랑","tel":"031-658-2548","addr":"경기도 평택시 평택동 67-21번지 2층","indutype":"일반휴게음식 - 서양음식","category":"restaurant"}]},{"lat":"36.993772066","long":"127.08691913","imageIndex":4,"items":[{"name":"골비어호프","tel":"031-656-8498","addr":"경기도 평택시 평택동 65-1번지 B동 1층","indutype":"일반휴게음식 - 주점","category":"restaurant"},{"name":"대장부 마라탕","tel":"031-8054-7887","addr":"경기도 평택시 평택동 65-1번지","indutype":"일반휴게음식 - 일반한식","category":"restaurant"},{"name":"마이띠가르레스토랑","tel":"031-652-9563","addr":"경기도 평택시 평택동 65-1번지 A동 2층","indutype":"일반휴게음식 - 일반한식","category":"restaurant"},{"name":"앙코르와트","tel":"","addr":"경기도 평택시 평택동 65-1번지 2층","indutype":"일반휴게음식 - 일반한식","category":"restaurant"}]},{"lat":"36.992994514","long":"127.09055787","imageIndex":4,"items":[{"name":"곱분이곱창 평택역점","tel":"070-5044-4567","addr":"경기도 평택시 평택동 287-22번지 외1필지","indutype":"일반휴게음식 - 일반한식","category":"restaurant"}]},{"lat":"36.993464327","long":"127.0888397","imageIndex":4,"items":[{"name":"공릉동 원조멸치국수","tel":"031-651-8990","addr":"경기도 평택시 평택동 39-6번지 1층","indutype":"음식점 - 한식","category":"restaurant"},{"name":"공릉동원조멸치국수평택점","tel":"031-653-5565","addr":"경기도 평택시 평택동 39-6번지 1층","indutype":"일반휴게음식 - 일반한식","category":"restaurant"}]},{"lat":"36.994186653","long":"127.08678479","imageIndex":4,"items":[{"name":"광장식당","tel":"031-657-1669","addr":"경기도 평택시 평택동 66-4번지 지하1층","indutype":"일반휴게음식 - 일반한식","category":"restaurant"}]},{"lat":"36.994575626","long":"127.08461715","imageIndex":4,"items":[{"name":"구구왕","tel":"070-8623-9993","addr":"경기도 평택시 평택동 71-16번지 1층","indutype":"일반휴게음식 - 중국식","category":"restaurant"}]},{"lat":"36.98974629","long":"127.08402787","imageIndex":4,"items":[{"name":"구노포차","tel":"","addr":"경기도 평택시 평택동 164-7번지 1층","indutype":"일반휴게음식 - 일반한식","category":"restaurant"}]},{"lat":"36.993021811","long":"127.09019843","imageIndex":4,"items":[{"name":"구라","tel":"031-111-1111","addr":"경기도 평택시 평택동 287-43번지 1층 106호","indutype":"일반휴게음식 - 일식·회집","category":"restaurant"},{"name":"보리밭","tel":"","addr":"경기도 평택시 평택동 287-43번지","indutype":"음식점 - 한식","category":"restaurant"},{"name":"청춘포자","tel":"031-653-2777","addr":"경기도 평택시 평택동 287-43번지 101호,102호","indutype":"일반휴게음식 - 일반한식","category":"restaurant"},{"name":"청춘푸드(평택점)","tel":"031-653-0327","addr":"경기도 평택시 평택동 287-43번지 104호","indutype":"일반휴게음식 - 일반한식","category":"restaurant"}]},{"lat":"36.992526527","long":"127.08978224","imageIndex":4,"items":[{"name":"구름에달가듯","tel":"031-651-9808","addr":"경기도 평택시 평택동 288-36번지","indutype":"일반휴게음식 - 일반한식","category":"restaurant"},{"name":"구름에달가듯","tel":"031-654-9778","addr":"경기도 평택시 평택동 288-36번지","indutype":"음식점 - 한식","category":"restaurant"},{"name":"새마을식당","tel":"031-658-9787","addr":"경기도 평택시 평택동 288-36번지","indutype":"음식점 - 한식","category":"restaurant"},{"name":"평택역점새마을식당","tel":"031-651-9392","addr":"경기도 평택시 평택동 288-36번지","indutype":"일반휴게음식 - 서양음식","category":"restaurant"}]},{"lat":"36.993827045","long":"127.08561612","imageIndex":4,"items":[{"name":"구리향","tel":"031-655-8486","addr":"경기도 평택시 평택동 64-12번지 1층","indutype":"일반휴게음식 - 중국식","category":"restaurant"},{"name":"더독","tel":"031-655-4702","addr":"경기도 평택시 평택동 64-12번지","indutype":"일반휴게음식 - 일반한식","category":"restaurant"},{"name":"더독애견카페","tel":"031-618-8275","addr":"경기도 평택시 평택동 64-12번지 2층","indutype":"음식점 - 커피","category":"restaurant"},{"name":"오비캠프","tel":"031-655-2263","addr":"경기도 평택시 평택동 64-12번지","indutype":"일반휴게음식 - 한정식","category":"restaurant"}]},{"lat":"36.993435379","long":"127.09144581","imageIndex":4,"items":[{"name":"구어스치킨평택점","tel":"031-652-0006","addr":"경기도 평택시 평택동 285-7번지 1층","indutype":"일반휴게음식 - 스넥","category":"restaurant"}]},{"lat":"36.994103358","long":"127.0898402","imageIndex":4,"items":[{"name":"국가대표야식","tel":"031-654-2857","addr":"경기도 평택시 평택동 33-6번지","indutype":"음식점 - 한식","category":"restaurant"},{"name":"국가대표야식","tel":"031-657-7998","addr":"경기도 평택시 평택동 33-6번지","indutype":"일반휴게음식 - 일반한식","category":"restaurant"}]},{"lat":"36.992796195","long":"127.09066997","imageIndex":4,"items":[{"name":"국물갈비찜","tel":"031-000-0000","addr":"경기도 평택시 평택동 287-25번지 2층","indutype":"일반휴게음식 - 일반한식","category":"restaurant"},{"name":"불난술집평택역점","tel":"","addr":"경기도 평택시 평택동 287-25번지 1층","indutype":"일반휴게음식 - 주점","category":"restaurant"}]},{"lat":"36.992157694","long":"127.08895056","imageIndex":4,"items":[{"name":"국수나무 평택2호점","tel":"031-652-8019","addr":"경기도 평택시 평택동 290-3번지","indutype":"일반휴게음식 - 일반한식","category":"restaurant"},{"name":"국수나무평택2호점","tel":"","addr":"경기도 평택시 평택동 290-3번지 1층","indutype":"음식점 - 한식","category":"restaurant"},{"name":"그라츠","tel":"","addr":"경기도 평택시 평택동 290-3번지 2,3층","indutype":"음식점 - 커피","category":"restaurant"},{"name":"뮤즈(MUSE)","tel":"031-655-4892","addr":"경기도 평택시 평택동 290-3번지","indutype":"일반휴게음식 - 일반한식","category":"restaurant"}]},{"lat":"36.994078936","long":"127.08620053","imageIndex":4,"items":[{"name":"국수랑면이랑","tel":"031-655-6776","addr":"경기도 평택시 평택동 67-13번지","indutype":"음식점 - 분식","category":"restaurant"}]},{"lat":"36.993273312","long":"127.09127712","imageIndex":4,"items":[{"name":"군계폐계닭","tel":"031-652-7430","addr":"경기도 평택시 평택동 285-9번지","indutype":"일반휴게음식 - 일반한식","category":"restaurant"}]},{"lat":"36.9936072","long":"127.09061474","imageIndex":4,"items":[{"name":"군계폐계닭별관","tel":"031-652-7359","addr":"경기도 평택시 평택동 286번지 1층","indutype":"일반휴게음식 - 일반한식","category":"restaurant"},{"name":"군계폐계닭별관","tel":"031-691-1877","addr":"경기도 평택시 평택동 286번지","indutype":"음식점 - 한식","category":"restaurant"}]},{"lat":"36.993131312","long":"127.08831136","imageIndex":4,"items":[{"name":"귀빈루","tel":"02-000-0000","addr":"경기도 평택시 평택동 44-18번지 ,1-2층","indutype":"일반휴게음식 - 중국식","category":"restaurant"},{"name":"귀빈루","tel":"031-657-7702","addr":"경기도 평택시 평택동 44-18번지","indutype":"음식점 - 중식","category":"restaurant"},{"name":"하와이야시장","tel":"031-655-2839","addr":"경기도 평택시 평택동 44-18번지 2,3층","indutype":"일반휴게음식 - 주점","category":"restaurant"}]},{"lat":"36.989824482","long":"127.08817287","imageIndex":4,"items":[{"name":"그램그램 (평택역점)","tel":"031-692-5592","addr":"경기도 평택시 평택동 263번지","indutype":"일반휴게음식 - 일반한식","category":"restaurant"}]},{"lat":"36.990879392","long":"127.08725294","imageIndex":4,"items":[{"name":"김가네 장어구이 매운탕","tel":"031-652-8117","addr":"경기도 평택시 평택동 55-1번지 2층","indutype":"일반휴게음식 - 일반한식","category":"restaurant"}]},{"lat":"36.98874543","long":"127.08500405","imageIndex":4,"items":[{"name":"김박사","tel":"031-686-9233","addr":"경기도 평택시 평택동 181-2번지 엘림빌딩","indutype":"일반휴게음식 - 일반한식","category":"restaurant"}]},{"lat":"36.987999278","long":"127.08245346","imageIndex":4,"items":[{"name":"김밥나라원평점","tel":"031-651-2722","addr":"경기도 평택시 평택동 141-1번지 체리빌 1층","indutype":"일반휴게음식 - 일반한식","category":"restaurant"}]},{"lat":"36.99222111","long":"127.08847884","imageIndex":4,"items":[{"name":"김치찌개미화식당/(주)미화에프앤비","tel":"031-000-0000","addr":"경기도 평택시 평택동 290-4번지 광천빌딩","indutype":"일반휴게음식 - 일반한식","category":"restaurant"},{"name":"알촌 평택점","tel":"031-654-2621","addr":"경기도 평택시 평택동 290-4번지 광천빌딩 1층 108호","indutype":"일반휴게음식 - 일반한식","category":"restaurant"},{"name":"오사카부루스","tel":"031-675-0677","addr":"경기도 평택시 평택동 290-4번지 광천빌딩 2층","indutype":"일반휴게음식 - 일반한식","category":"restaurant"},{"name":"전티마이베트남쌀국수","tel":"","addr":"경기도 평택시 평택동 290-4번지 2층","indutype":"일반휴게음식 - 일반한식","category":"restaurant"}]},{"lat":"36.990185248","long":"127.08770149","imageIndex":4,"items":[{"name":"까페드롭탑평택터미널점","tel":"031-655-5993","addr":"경기도 평택시 평택동 185-245번지 시외버스터미널 1층","indutype":"일반휴게음식 - 서양음식","category":"restaurant"},{"name":"최가네김밥","tel":"031-656-4248","addr":"경기도 평택시 평택동 185-245번지 1층","indutype":"일반휴게음식 - 스넥","category":"restaurant"}]},{"lat":"36.992581457","long":"127.08859158","imageIndex":4,"items":[{"name":"나폴리","tel":"031-655-4090","addr":"경기도 평택시 평택동 282-2번지","indutype":"일반휴게음식 - 서양음식","category":"restaurant"},{"name":"다락마을(평택점)","tel":"031-657-7082","addr":"경기도 평택시 평택동 282번지 , 2,3층","indutype":"일반휴게음식 - 서양음식","category":"restaurant"},{"name":"삼구포차","tel":"070-8112-3939","addr":"경기도 평택시 평택동 282-2번지 1동 3호","indutype":"일반휴게음식 - 일반한식","category":"restaurant"},{"name":"큐브트리","tel":"031-651-5841","addr":"경기도 평택시 평택동 282-2번지 2층","indutype":"일반휴게음식 - 일반한식","category":"restaurant"},{"name":"팔팔닭떡볶이 평택역점","tel":"031-618-8832","addr":"경기도 평택시 평택동 282-2번지 1층","indutype":"일반휴게음식 - 스넥","category":"restaurant"}]},{"lat":"36.98871965","long":"127.0831731","imageIndex":4,"items":[{"name":"난향","tel":"","addr":"경기도 평택시 평택동 120-4번지 B동 1층","indutype":"일반휴게음식 - 중국식","category":"restaurant"},{"name":"아름카페","tel":"031-652-8591","addr":"경기도 평택시 평택동 120-4번지","indutype":"일반휴게음식 - 서양음식","category":"restaurant"}]},{"lat":"36.994049459","long":"127.08961547","imageIndex":4,"items":[{"name":"너프커피","tel":"031-664-2674","addr":"경기도 평택시 평택동 33-2번지 1층","indutype":"일반휴게음식 - 서양음식","category":"restaurant"}]},{"lat":"36.993102501","long":"127.09074896","imageIndex":4,"items":[{"name":"노랑통닭평택점","tel":"031-653-7786","addr":"경기도 평택시 평택동 286-8번지 1층","indutype":"일반휴게음식 - 스넥","category":"restaurant"}]},{"lat":"36.992797029","long":"127.08953541","imageIndex":4,"items":[{"name":"노천드럼통 평택점","tel":"","addr":"경기도 평택시 평택동 288-39번지","indutype":"음식점 - 한식","category":"restaurant"},{"name":"노천드럼통평택점","tel":"031-618-3789","addr":"경기도 평택시 평택동 288-39번지 1층","indutype":"일반휴게음식 - 일반한식","category":"restaurant"}]},{"lat":"36.992796502","long":"127.09025434","imageIndex":4,"items":[{"name":"놀부전","tel":"031-654-0790","addr":"경기도 평택시 평택동 287-39번지","indutype":"일반휴게음식 - 일반한식","category":"restaurant"},{"name":"준포차","tel":"070-5035-5503","addr":"경기도 평택시 평택동 287-39번지","indutype":"일반휴게음식 - 일반한식","category":"restaurant"},{"name":"튜닝닭발","tel":"031-652-1217","addr":"경기도 평택시 평택동 287-39번지","indutype":"일반휴게음식 - 일반한식","category":"restaurant"}]},{"lat":"36.991914226","long":"127.08919742","imageIndex":4,"items":[{"name":"놀이터","tel":"031-691-6919","addr":"경기도 평택시 평택동 291-4번지","indutype":"일반휴게음식 - 스넥","category":"restaurant"},{"name":"니뽕내뽕 평택점","tel":"031-655-2848","addr":"경기도 평택시 평택동 291-4번지 108.109호","indutype":"일반휴게음식 - 서양음식","category":"restaurant"},{"name":"더키친델비노","tel":"031-658-2323","addr":"경기도 평택시 평택동 291-4번지 로데오스타 2층","indutype":"일반휴게음식 - 일반한식","category":"restaurant"},{"name":"맘마파스타","tel":"031-655-9945","addr":"경기도 평택시 평택동 291-4번지 로데오스타 106호","indutype":"일반휴게음식 - 서양음식","category":"restaurant"},{"name":"명인만두 평택 로데오점","tel":"","addr":"경기도 평택시 평택동 291-4번지 104호","indutype":"일반휴게음식 - 스넥","category":"restaurant"},{"name":"명인만두 평택로데오점","tel":"","addr":"경기도 평택시 평택동 291-4번지 로데오스타 104호","indutype":"음식점 - 분식","category":"restaurant"},{"name":"불닭발동대문엽기떡볶이평택역점","tel":"031-656-8591","addr":"경기도 평택시 평택동 291-4번지 203호","indutype":"일반휴게음식 - 일반한식","category":"restaurant"},{"name":"죠스떡볶이","tel":"031-618-1188","addr":"경기도 평택시 평택동 291-4번지 로데오스타 101호","indutype":"일반휴게음식 - 스넥","category":"restaurant"},{"name":"죠스떡볶이 평택역점","tel":"031-653-8915","addr":"경기도 평택시 평택동 291-4번지 로데오스타 101호","indutype":"음식점 - 분식","category":"restaurant"},{"name":"커피온","tel":"031-652-3536","addr":"경기도 평택시 평택동 291-4번지 외3필지 로데오스타 108호","indutype":"일반휴게음식 - 서양음식","category":"restaurant"},{"name":"평택로데오점 빽다방","tel":"031-651-7877","addr":"경기도 평택시 평택동 291-4번지 로데오스타 103호","indutype":"일반휴게음식 - 서양음식","category":"restaurant"},{"name":"하루","tel":"031-654-5779","addr":"경기도 평택시 평택동 291-4번지 로데오스타 3층 302호","indutype":"일반휴게음식 - 일반한식","category":"restaurant"},{"name":"한남동 그집 평택로데오점","tel":"031-657-6456","addr":"경기도 평택시 평택동 291-4번지 외3필지로데오스타 B01호","indutype":"일반휴게음식 - 주점","category":"restaurant"}]},{"lat":"36.994413092","long":"127.08511125","imageIndex":4,"items":[{"name":"누나가정요리","tel":"070-8860-0097","addr":"경기도 평택시 평택동 70-7번지 1층","indutype":"일반휴게음식 - 일반한식","category":"restaurant"}]},{"lat":"36.993800364","long":"127.08511059","imageIndex":4,"items":[{"name":"뉴명성호프","tel":"031-651-1863","addr":"경기도 평택시 평택동 71-27,28","indutype":"일반휴게음식 - 주점","category":"restaurant"},{"name":"프렌즈커피","tel":"031-651-0556","addr":"경기도 평택시 평택동 71-27번지","indutype":"일반휴게음식 - 서양음식","category":"restaurant"}]},{"lat":"36.99310615","long":"127.0856715","imageIndex":4,"items":[{"name":"뉴서울식당","tel":"031-655-2098","addr":"경기도 평택시 평택동 60-34번지 2층","indutype":"일반휴게음식 - 일반한식","category":"restaurant"},{"name":"뉴서울식당","tel":"","addr":"경기도 평택시 평택동 60-34번지","indutype":"음식점 - 한식","category":"restaurant"}]},{"lat":"36.994248937","long":"127.08789697","imageIndex":4,"items":[{"name":"뉴욕핫도그앤커피","tel":"","addr":"경기도 평택시 평택동 35-3번지 M - 프라자 6층","indutype":"음식점 - 휴게음식","category":"restaurant"},{"name":"뉴욕핫도그앤커피(메가박스점)","tel":"031-650-8248","addr":"경기도 평택시 평택동 35-3번지 엠프라자 6028호 6027","indutype":"일반휴게음식 - 스넥","category":"restaurant"},{"name":"맥반석오징어","tel":"031-650-8566","addr":"경기도 평택시 평택동 35-3번지 M-프라자 6037호","indutype":"일반휴게음식 - 스넥","category":"restaurant"},{"name":"아리엘뷔페","tel":"031-657-5500","addr":"경기도 평택시 평택동 35-3번지","indutype":"일반휴게음식 - 일반한식","category":"restaurant"},{"name":"토프레소 평택점","tel":"031-650-8213","addr":"경기도 평택시 평택동 35-3번지 M-프라자 6층 46호 6042호","indutype":"일반휴게음식 - 스넥","category":"restaurant"}]},{"lat":"36.990826302","long":"127.08587123","imageIndex":4,"items":[{"name":"닐니리맘보국수집(평택역사점)","tel":"031-646-6356","addr":"경기도 평택시 평택동 185-579번지 AK프라자 3층","indutype":"일반휴게음식 - 스넥","category":"restaurant"},{"name":"달콤커피(평택역사점)","tel":"031-646-6396","addr":"경기도 평택시 평택동 185-579번지 AK프라자 3층","indutype":"일반휴게음식 - 서양음식","category":"restaurant"},{"name":"리오평택역사점","tel":"031-646-6320","addr":"경기도 평택시 평택동 185-579번지 외32필지 평택역사 3층 13호","indutype":"일반휴게음식 - 스넥","category":"restaurant"},{"name":"속초코다리냉면","tel":"031-618-9887","addr":"경기도 평택시 평택동 185-579번지 3층 H호 AK PLAZA평택점","indutype":"일반휴게음식 - 일반한식","category":"restaurant"},{"name":"틈새라면평택점","tel":"031-646-6393","addr":"경기도 평택시 평택동 185-579번지 3층 AKPLAZA평택점","indutype":"일반휴게음식 - 일반한식","category":"restaurant"}]},{"lat":"36.994212474","long":"127.08848107","imageIndex":4,"items":[{"name":"다락","tel":"031-618-3377","addr":"경기도 평택시 평택동 35-8번지 1층","indutype":"일반휴게음식 - 일반한식","category":"restaurant"}]},{"lat":"36.992943454","long":"127.08639026","imageIndex":4,"items":[{"name":"다인아구마을","tel":"031-657-5919","addr":"경기도 평택시 평택동 62-3번지 2층","indutype":"일반휴게음식 - 일반한식","category":"restaurant"},{"name":"엑스오웨스턴라이브","tel":"031-654-0309","addr":"경기도 평택시 평택동 62-3번지","indutype":"일반휴게음식 - 서양음식","category":"restaurant"}]},{"lat":"36.991294266","long":"127.08671421","imageIndex":4,"items":[{"name":"달인즉석계란말이김밥","tel":"031-652-9881","addr":"경기도 평택시 평택동 55-7번지 평택아케이드 가동 1층 6호","indutype":"일반휴게음식 - 스넥","category":"restaurant"},{"name":"부원김밥","tel":"031-652-2767","addr":"경기도 평택시 평택동 55-7번지 가-8(1층)","indutype":"일반휴게음식 - 스넥","category":"restaurant"},{"name":"치앤강 평택역점","tel":"","addr":"경기도 평택시 평택동 55-7번지 평택아케이드 가동 1층 1호","indutype":"일반휴게음식 - 스넥","category":"restaurant"}]},{"lat":"36.992186199","long":"127.08689492","imageIndex":4,"items":[{"name":"달콤한닭강정 평택역점","tel":"031-655-3407","addr":"경기도 평택시 평택동 45-8번지","indutype":"음식점 - 치킨","category":"restaurant"},{"name":"달콤한닭강정평택역점","tel":"031-651-3308","addr":"경기도 평택시 평택동 45-8번지","indutype":"일반휴게음식 - 일반한식","category":"restaurant"},{"name":"메가커피평택역점","tel":"031-654-0788","addr":"경기도 평택시 평택동 45-8번지 1층","indutype":"일반휴게음식 - 서양음식","category":"restaurant"},{"name":"지지고평택역점","tel":"031-657-4832","addr":"경기도 평택시 평택동 45-8번지","indutype":"일반휴게음식 - 일반한식","category":"restaurant"}]},{"lat":"36.993574824","long":"127.08550351","imageIndex":4,"items":[{"name":"닭날개&양꼬치 (짱후코스)","tel":"031-657-6949","addr":"경기도 평택시 평택동 60-19번지 1층","indutype":"일반휴게음식 - 일반한식","category":"restaurant"}]},{"lat":"36.993609394","long":"127.08759296","imageIndex":4,"items":[{"name":"대박포차","tel":"031-658-9296","addr":"경기도 평택시 평택동 37-1번지","indutype":"일반휴게음식 - 일반한식","category":"restaurant"}]},{"lat":"36.988881355","long":"127.08389216","imageIndex":4,"items":[{"name":"대발이연탄구이","tel":"031-618-6556","addr":"경기도 평택시 평택동 146-1번지 1층","indutype":"일반휴게음식 - 일반한식","category":"restaurant"},{"name":"연탄공장","tel":"031-658-0021","addr":"경기도 평택시 평택동 146-1번지","indutype":"음식점 - 한식","category":"restaurant"}]},{"lat":"36.993134483","long":"127.08378434","imageIndex":4,"items":[{"name":"대우커피","tel":"","addr":"경기도 평택시 평택동 78-1번지","indutype":"일반휴게음식 - 서양음식","category":"restaurant"}]},{"lat":"36.993130449","long":"127.08950209","imageIndex":4,"items":[{"name":"대창통닭","tel":"031-652-9254","addr":"경기도 평택시 평택동 283-1번지","indutype":"일반휴게음식 - 스넥","category":"restaurant"}]},{"lat":"36.991995843","long":"127.08847859","imageIndex":4,"items":[{"name":"더 오니기리 플러스","tel":"031-655-5272","addr":"경기도 평택시 평택동 291번지 101호","indutype":"일반휴게음식 - 일식·회집","category":"restaurant"},{"name":"더마룸","tel":"031-652-2080","addr":"경기도 평택시 평택동 291번지 804호","indutype":"일반휴게음식 - 일반한식","category":"restaurant"},{"name":"도쿄라멘평택역점","tel":"070-8899-2621","addr":"경기도 평택시 평택동 291번지 복합상가 103호","indutype":"일반휴게음식 - 일반한식","category":"restaurant"},{"name":"소노야","tel":"031-653-6111","addr":"경기도 평택시 평택동 291번지","indutype":"음식점 - 일식","category":"restaurant"},{"name":"소노야","tel":"031-656-6546","addr":"경기도 평택시 평택동 291번지","indutype":"일반휴게음식 - 일반한식","category":"restaurant"},{"name":"카페303","tel":"031-651-9002","addr":"경기도 평택시 평택동 291번지 303호","indutype":"일반휴게음식 - 주점","category":"restaurant"}]},{"lat":"36.991637013","long":"127.08623157","imageIndex":4,"items":[{"name":"더리터평택역점","tel":"031-000-0000","addr":"경기도 평택시 평택동 55-7번지 평택아케이드 가동 1층 2,3,4호","indutype":"일반휴게음식 - 서양음식","category":"restaurant"},{"name":"역전우동 평택역점","tel":"031-656-0410","addr":"경기도 평택시 평택동 55-7번지 가동 1층 9-1호","indutype":"일반휴게음식 - 일반한식","category":"restaurant"}]},{"lat":"36.990941209","long":"127.08900536","imageIndex":4,"items":[{"name":"더비틀즈","tel":"031-652-7080","addr":"경기도 평택시 평택동 293-5번지 지하층","indutype":"일반휴게음식 - 주점","category":"restaurant"}]},{"lat":"36.988575312","long":"127.08342007","imageIndex":4,"items":[{"name":"동강추어탕서강짜글이","tel":"031-651-0634","addr":"경기도 평택시 평택동 142-1번지","indutype":"음식점 - 한식","category":"restaurant"},{"name":"동강추어탕서강짜글이","tel":"031-000-0000","addr":"경기도 평택시 평택동 142-1번지","indutype":"일반휴게음식 - 일반한식","category":"restaurant"}]},{"lat":"36.99313252","long":"127.08661513","imageIndex":4,"items":[{"name":"동궁2","tel":"031-658-2773","addr":"경기도 평택시 평택동 65-15번지 지하1층","indutype":"일반휴게음식 - 일반한식","category":"restaurant"},{"name":"모티마할","tel":"031-658-7393","addr":"경기도 평택시 평택동 65-15번지","indutype":"음식점 - 인도","category":"restaurant"},{"name":"모티마할(Moti Mahal)","tel":"031-616-3358","addr":"경기도 평택시 평택동 65-15번지","indutype":"일반휴게음식 - 서양음식","category":"restaurant"}]},{"lat":"36.993133588","long":"127.0850874","imageIndex":4,"items":[{"name":"동복양꼬치&신파마랄탕","tel":"031-691-7236","addr":"경기도 평택시 평택동 59-8번지","indutype":"일반휴게음식 - 일반한식","category":"restaurant"},{"name":"화인호프","tel":"031-691-7236","addr":"경기도 평택시 평택동 59-8번지 A동 2층","indutype":"일반휴게음식 - 주점","category":"restaurant"}]},{"lat":"36.994439111","long":"127.0865604","imageIndex":4,"items":[{"name":"동북목향대부엌","tel":"","addr":"경기도 평택시 평택동 68-3번지","indutype":"일반휴게음식 - 일반한식","category":"restaurant"},{"name":"잇또라멘 평택역점","tel":"031-657-2977","addr":"경기도 평택시 평택동 68-3번지","indutype":"일반휴게음식 - 일식·회집","category":"restaurant"}]},{"lat":"36.993520446","long":"127.08595279","imageIndex":4,"items":[{"name":"동원옥","tel":"031-2-6985","addr":"경기도 평택시 평택동 63-2번지","indutype":"일반휴게음식 - 일반한식","category":"restaurant"}]},{"lat":"36.993662326","long":"127.08916569","imageIndex":4,"items":[{"name":"돼지양념구이","tel":"031-692-1126","addr":"경기도 평택시 평택동 39-15번지","indutype":"일반휴게음식 - 일반한식","category":"restaurant"}]},{"lat":"36.989053198","long":"127.0829488","imageIndex":4,"items":[{"name":"두리맛감자탕","tel":"031-692-0303","addr":"경기도 평택시 평택동 121-24번지","indutype":"일반휴게음식 - 일반한식","category":"restaurant"},{"name":"원평김밥","tel":"031-653-1253","addr":"경기도 평택시 평택동 121-24번지","indutype":"음식점 - 분식","category":"restaurant"},{"name":"원평김밥","tel":"031-692-3344","addr":"경기도 평택시 평택동 121-24번지","indutype":"일반휴게음식 - 스넥","category":"restaurant"}]},{"lat":"36.993832059","long":"127.09116543","imageIndex":4,"items":[{"name":"두맛찜닭 평택점","tel":"","addr":"경기도 평택시 평택동 23-3번지 1층 / 우편발송: 비전로 37-5, 가동 202호","indutype":"음식점 - 한식","category":"restaurant"},{"name":"세인트 데빌","tel":"","addr":"경기도 평택시 평택동 23-3번지","indutype":"일반휴게음식 - 일반한식","category":"restaurant"}]},{"lat":"36.993408548","long":"127.09117617","imageIndex":4,"items":[{"name":"둥지","tel":"","addr":"경기도 평택시 평택동 285-10번지 2층","indutype":"일반휴게음식 - 주점","category":"restaurant"},{"name":"오츠카레 2호점","tel":"","addr":"경기도 평택시 평택동 285-10번지 1층","indutype":"일반휴게음식 - 일식·회집","category":"restaurant"}]},{"lat":"36.992607484","long":"127.08997329","imageIndex":4,"items":[{"name":"등대로","tel":"031-657-8857","addr":"경기도 평택시 평택동 288-24번지","indutype":"일반휴게음식 - 일반한식","category":"restaurant"},{"name":"태영생막창평택역점","tel":"031-0000-0000","addr":"경기도 평택시 평택동 288-24번지","indutype":"일반휴게음식 - 일반한식","category":"restaurant"}]},{"lat":"36.993715775","long":"127.09000826","imageIndex":4,"items":[{"name":"디어커피","tel":"031-111-1111","addr":"경기도 평택시 평택동 32-2번지 1층","indutype":"일반휴게음식 - 서양음식","category":"restaurant"},{"name":"디어커피","tel":"031-618-8001","addr":"경기도 평택시 평택동 32-2번지 삼성생명빌딩 1층","indutype":"음식점 - 카페","category":"restaurant"},{"name":"왕십리돌곱소곱창","tel":"031-653-6688","addr":"경기도 평택시 평택동 32-2번지 1층","indutype":"일반휴게음식 - 일반한식","category":"restaurant"}]},{"lat":"36.993130104","long":"127.08997389","imageIndex":4,"items":[{"name":"따꺼라 꺼꾸리","tel":"031-618-7742","addr":"경기도 평택시 평택동 287-51번지","indutype":"일반휴게음식 - 일반한식","category":"restaurant"},{"name":"명동찌개마을","tel":"031-652-7769","addr":"경기도 평택시 평택동 287-51번지 1,2층","indutype":"일반휴게음식 - 일반한식","category":"restaurant"},{"name":"오코지","tel":"031-656-6568","addr":"경기도 평택시 평택동 287-51번지","indutype":"일반휴게음식 - 일반한식","category":"restaurant"}]},{"lat":"36.992715768","long":"127.08975998","imageIndex":4,"items":[{"name":"딱! 걸렸어","tel":"031-656-2868","addr":"경기도 평택시 평택동 288-13번지","indutype":"일반휴게음식 - 일반한식","category":"restaurant"}]},{"lat":"36.991273941","long":"127.08991561","imageIndex":4,"items":[{"name":"딴또딴또","tel":"031-652-3582","addr":"경기도 평택시 평택동 293번지","indutype":"일반휴게음식 - 스넥","category":"restaurant"},{"name":"딴또딴또","tel":"031-658-9010","addr":"경기도 평택시 평택동 293번지","indutype":"음식점 - 분식","category":"restaurant"}]},{"lat":"36.992576963","long":"127.08208753","imageIndex":4,"items":[{"name":"땡구","tel":"031-666-5214","addr":"경기도 평택시 평택동 80번지","indutype":"일반휴게음식 - 서양음식","category":"restaurant"}]},{"lat":"36.99107713","long":"127.08794961","imageIndex":4,"items":[{"name":"떡볶이홀릭","tel":"031-691-1292","addr":"경기도 평택시 평택동 52-1번지","indutype":"일반휴게음식 - 스넥","category":"restaurant"},{"name":"육쌈냉면","tel":"031-658-1702","addr":"경기도 평택시 평택동 52-1번지 2층","indutype":"일반휴게음식 - 일반한식","category":"restaurant"}]},{"lat":"36.989493721","long":"127.08442075","imageIndex":4,"items":[{"name":"또또포차본점","tel":"031-652-6510","addr":"경기도 평택시 평택동 176-3번지 1층","indutype":"일반휴게음식 - 일반한식","category":"restaurant"},{"name":"또또포차본점","tel":"031-658-5581","addr":"경기도 평택시 평택동 176-3번지","indutype":"음식점 - 한식","category":"restaurant"}]},{"lat":"36.989520335","long":"127.08502735","imageIndex":4,"items":[{"name":"또또포차투","tel":"031-657-6510","addr":"경기도 평택시 평택동 185-29번지 외2필지","indutype":"일반휴게음식 - 일반한식","category":"restaurant"}]},{"lat":"36.993969926","long":"127.08744732","imageIndex":4,"items":[{"name":"똑순이우리집밥상","tel":"031-651-0526","addr":"경기도 평택시 평택동 35-24번지 1층","indutype":"일반휴게음식 - 일반한식","category":"restaurant"},{"name":"연변왕꼬치","tel":"031-8029-5888","addr":"경기도 평택시 평택동 35-24번지","indutype":"일반휴게음식 - 일반한식","category":"restaurant"}]},{"lat":"36.989106029","long":"127.08475732","imageIndex":4,"items":[{"name":"똘마니 양꼬치","tel":"031-000-0000","addr":"경기도 평택시 평택동 177-1번지 1층","indutype":"일반휴게음식 - 일반한식","category":"restaurant"},{"name":"아구형님","tel":"031-654-5979","addr":"경기도 평택시 평택동 177-1번지 102호","indutype":"일반휴게음식 - 일반한식","category":"restaurant"},{"name":"착한육회","tel":"031-618-6183","addr":"경기도 평택시 평택동 177-1번지","indutype":"음식점 - 한식","category":"restaurant"}]},{"lat":"36.99332731","long":"127.09136705","imageIndex":4,"items":[{"name":"뚱보집 평택역점","tel":"031-657-2555","addr":"경기도 평택시 평택동 285-8번지 1층","indutype":"일반휴게음식 - 일반한식","category":"restaurant"},{"name":"정든닭발","tel":"","addr":"경기도 평택시 평택동 285-8번지","indutype":"음식점 - 한식","category":"restaurant"}]},{"lat":"36.993185578","long":"127.08803059","imageIndex":4,"items":[{"name":"뚱언니네","tel":"031-691-1508","addr":"경기도 평택시 평택동 44-7번지 1층","indutype":"일반휴게음식 - 일반한식","category":"restaurant"}]},{"lat":"36.989826699","long":"127.08502768","imageIndex":4,"items":[{"name":"뜨끈이설렁탕","tel":"031-651-1251","addr":"경기도 평택시 평택동 185-27번지","indutype":"일반휴게음식 - 일반한식","category":"restaurant"},{"name":"아이포크","tel":"031-691-4194","addr":"경기도 평택시 평택동 185-27번지 1층","indutype":"일반휴게음식 - 일반한식","category":"restaurant"}]},{"lat":"36.993665142","long":"127.08520031","imageIndex":4,"items":[{"name":"뜨락다방","tel":"","addr":"경기도 평택시 평택동 60-9번지 2층","indutype":"음식점 - 카페","category":"restaurant"},{"name":"불타는오리목점","tel":"031-652-2871","addr":"경기도 평택시 평택동 60-9번지","indutype":"일반휴게음식 - 중국식","category":"restaurant"}]},{"lat":"36.992465966","long":"127.0862774","imageIndex":4,"items":[{"name":"라화쿵부","tel":"031-655-8868","addr":"경기도 평택시 평택동 62-11번지 1층","indutype":"일반휴게음식 - 일반한식","category":"restaurant"}]},{"lat":"36.990798868","long":"127.08644408","imageIndex":4,"items":[{"name":"레디앙마카롱","tel":"","addr":"경기도 평택시 평택동 185-259번지","indutype":"일반휴게음식 - 서양음식","category":"restaurant"},{"name":"카페9월3일","tel":"031-651-7576","addr":"경기도 평택시 평택동 185-259번지 1층","indutype":"음식점 - 카페","category":"restaurant"},{"name":"카페9월3일","tel":"","addr":"경기도 평택시 평택동 185-259번지 1층","indutype":"일반휴게음식 - 서양음식","category":"restaurant"}]},{"lat":"36.991969214","long":"127.0879169","imageIndex":4,"items":[{"name":"루밍아이리스","tel":"","addr":"경기도 평택시 평택동 46-3번지 2층","indutype":"일반휴게음식 - 일반한식","category":"restaurant"}]},{"lat":"36.993854537","long":"127.08495338","imageIndex":4,"items":[{"name":"르커피","tel":"031-656-3320","addr":"경기도 평택시 평택동 71-3번지 1층","indutype":"일반휴게음식 - 서양음식","category":"restaurant"},{"name":"르커피","tel":"031-657-9245","addr":"경기도 평택시 평택동 71-3번지 1층","indutype":"음식점 - 커피","category":"restaurant"}]},{"lat":"36.994772799","long":"127.08614512","imageIndex":4,"items":[{"name":"리얼짬뽕","tel":"031-000-0000","addr":"경기도 평택시 평택동 68-10번지 나동 1층","indutype":"일반휴게음식 - 중국식","category":"restaurant"}]},{"lat":"36.992409552","long":"127.08955744","imageIndex":4,"items":[{"name":"리얼파스타","tel":"","addr":"경기도 평택시 평택동 289-3번지 A동","indutype":"일반휴게음식 - 서양음식","category":"restaurant"},{"name":"미미사마라탕","tel":"031-658-3737","addr":"경기도 평택시 평택동 289-3번지 A동 1층","indutype":"일반휴게음식 - 일반한식","category":"restaurant"},{"name":"오른발왼발","tel":"031-651-9299","addr":"경기도 평택시 평택동 289-3번지","indutype":"음식점 - 한식","category":"restaurant"},{"name":"오른발왼발중앙점","tel":"031-618-9907","addr":"경기도 평택시 평택동 289-3","indutype":"일반휴게음식 - 스넥","category":"restaurant"},{"name":"장미식당","tel":"031-652-6965","addr":"경기도 평택시 평택동 289-3번지","indutype":"음식점 - 한식","category":"restaurant"},{"name":"장미식당","tel":"031-655-0700","addr":"경기도 평택시 평택동 289-3번지","indutype":"일반휴게음식 - 일반한식","category":"restaurant"}]},{"lat":"36.992301784","long":"127.08906306","imageIndex":4,"items":[{"name":"마미갸또","tel":"","addr":"경기도 평택시 평택동 290-1번지 1층","indutype":"음식점 - 제과점","category":"restaurant"},{"name":"죽마을","tel":"031-655-7791","addr":"경기도 평택시 평택동 290-1번지","indutype":"일반휴게음식 - 일반한식","category":"restaurant"},{"name":"죽마을","tel":"031-658-4989","addr":"경기도 평택시 평택동 290-1번지","indutype":"음식점 - 죽","category":"restaurant"}]},{"lat":"36.992329755","long":"127.08776004","imageIndex":4,"items":[{"name":"마운텐레스토랑 (Mountain Restaurant)","tel":"031-651-3612","addr":"경기도 평택시 평택동 46-1번지 2층","indutype":"일반휴게음식 - 서양음식","category":"restaurant"},{"name":"쇼부","tel":"031-652-3949","addr":"경기도 평택시 평택동 46-1번지 10동 3호","indutype":"일반휴게음식 - 스넥","category":"restaurant"}]},{"lat":"36.994241074","long":"127.08627934","imageIndex":4,"items":[{"name":"만남다방","tel":"031-654-2558","addr":"경기도 평택시 평택동 67-3번지 1층","indutype":"일반휴게음식 - 서양음식","category":"restaurant"},{"name":"미얀마마을","tel":"","addr":"경기도 평택시 평택동 67-3번지 1층","indutype":"일반휴게음식 - 서양음식","category":"restaurant"}]},{"lat":"36.991383615","long":"127.08778145","imageIndex":4,"items":[{"name":"맘스터치 평택역점","tel":"031-654-7756","addr":"경기도 평택시 평택동 51-1번지 1층 2층","indutype":"일반휴게음식 - 서양음식","category":"restaurant"},{"name":"미샤 & 팔공티 평택역점","tel":"031-618-3028","addr":"경기도 평택시 평택동 51-1번지 1층","indutype":"일반휴게음식 - 서양음식","category":"restaurant"},{"name":"신민당제물국수","tel":"031-655-6956","addr":"경기도 평택시 평택동 51-1번지","indutype":"일반휴게음식 - 일반한식","category":"restaurant"},{"name":"프리카페평택점","tel":"031-658-4077","addr":"경기도 평택시 평택동 51-1번지 2층","indutype":"일반휴게음식 - 일반한식","category":"restaurant"}]},{"lat":"36.993995942","long":"127.08886277","imageIndex":4,"items":[{"name":"맛삼평택점","tel":"031-691-2848","addr":"경기도 평택시 평택동 34-9번지","indutype":"음식점 - 한식","category":"restaurant"},{"name":"맛삼평택점","tel":"031-652-9362","addr":"경기도 평택시 평택동 34-9번지","indutype":"일반휴게음식 - 일반한식","category":"restaurant"},{"name":"서천사골순대국","tel":"031-655-8080","addr":"경기도 평택시 평택동 34-9번지 ,9(1층)","indutype":"일반휴게음식 - 일반한식","category":"restaurant"},{"name":"왕돼지","tel":"031-653-9292","addr":"경기도 평택시 평택동 34-9번지 외1필지","indutype":"일반휴게음식 - 일반한식","category":"restaurant"}]},{"lat":"36.993220491","long":"127.08959206","imageIndex":4,"items":[{"name":"맛짱","tel":"031-652-8280","addr":"경기도 평택시 평택동 283번지 1층","indutype":"일반휴게음식 - 스넥","category":"restaurant"},{"name":"배꼽시계","tel":"031-652-0996","addr":"경기도 평택시 평택동 283번지","indutype":"일반휴게음식 - 일반한식","category":"restaurant"}]},{"lat":"36.992102942","long":"127.08989409","imageIndex":4,"items":[{"name":"맥주왕","tel":"031-618-0935","addr":"경기도 평택시 평택동 292번지 2층","indutype":"일반휴게음식 - 주점","category":"restaurant"},{"name":"치킨is","tel":"031-652-9285","addr":"경기도 평택시 평택동 292번지","indutype":"일반휴게음식 - 스넥","category":"restaurant"},{"name":"학교종이땡땡땡분식","tel":"031-652-3273","addr":"경기도 평택시 평택동 292번지","indutype":"일반휴게음식 - 일반한식","category":"restaurant"}]},{"lat":"36.989187434","long":"127.0843081","imageIndex":4,"items":[{"name":"머꾸비어","tel":"031-656-7727","addr":"경기도 평택시 평택동 149-1번지","indutype":"음식점 - 일반","category":"restaurant"},{"name":"한방머꾸치킨","tel":"031-657-3131","addr":"경기도 평택시 평택동 149-1번지","indutype":"일반휴게음식 - 스넥","category":"restaurant"}]},{"lat":"36.9947193","long":"127.08533625","imageIndex":4,"items":[{"name":"메밀꽃쌈밥","tel":"031-655-8237","addr":"경기도 평택시 평택동 69-4번지","indutype":"일반휴게음식 - 일반한식","category":"restaurant"}]},{"lat":"36.991882786","long":"127.08261477","imageIndex":4,"items":[{"name":"멕시카나평택1점","tel":"031-658-9995","addr":"경기도 평택시 평택동 185-8번지","indutype":"일반휴게음식 - 칵테일바","category":"restaurant"},{"name":"신원부대찌개","tel":"031-652-4410","addr":"경기도 평택시 평택동 185-8번지","indutype":"일반휴게음식 - 일반한식","category":"restaurant"},{"name":"신원부대찌개","tel":"","addr":"경기도 평택시 평택동 185-8번지","indutype":"음식점 - 한식","category":"restaurant"}]},{"lat":"36.991715851","long":"127.08938816","imageIndex":4,"items":[{"name":"명동김밥","tel":"031-656-2530","addr":"경기도 평택시 평택동 291-6번지","indutype":"음식점 - 분식","category":"restaurant"},{"name":"명동김밥","tel":"031-651-7744","addr":"경기도 평택시 평택동 291-6번지 1층","indutype":"일반휴게음식 - 스넥","category":"restaurant"},{"name":"황소집","tel":"031-653-4861","addr":"경기도 평택시 평택동 291-6번지","indutype":"음식점 - 한식","category":"restaurant"},{"name":"황소집","tel":"031-652-4996","addr":"경기도 평택시 평택동 291-6번지","indutype":"일반휴게음식 - 일반한식","category":"restaurant"}]},{"lat":"36.992969554","long":"127.08770458","imageIndex":4,"items":[{"name":"명물곱창","tel":"031-653-0079","addr":"경기도 평택시 평택동 44-11번지","indutype":"일반휴게음식 - 일반한식","category":"restaurant"}]},{"lat":"36.993719128","long":"127.0853127","imageIndex":4,"items":[{"name":"명성갈비","tel":"031-652-0083","addr":"경기도 평택시 평택동 60-49번지","indutype":"음식점 - 한식","category":"restaurant"}]},{"lat":"36.993410587","long":"127.08839031","imageIndex":4,"items":[{"name":"명태어장","tel":"031-618-1240","addr":"경기도 평택시 평택동 39-7번지","indutype":"음식점 - 한식","category":"restaurant"},{"name":"양푼이막창평택점","tel":"031-654-7342","addr":"경기도 평택시 평택동 39-7번지 1층","indutype":"일반휴게음식 - 일반한식","category":"restaurant"},{"name":"청청몽원 숯불양다리구이","tel":"","addr":"경기도 평택시 평택동 39-7번지","indutype":"일반휴게음식 - 중국식","category":"restaurant"}]},{"lat":"36.992796807","long":"127.08983871","imageIndex":4,"items":[{"name":"모전자전","tel":"031-662-8129","addr":"경기도 평택시 평택동 288-14번지","indutype":"일반휴게음식 - 일반한식","category":"restaurant"}]},{"lat":"36.990522874","long":"127.08155745","imageIndex":4,"items":[{"name":"모퉁이집","tel":"031-692-0010","addr":"경기도 평택시 평택동 104-4번지","indutype":"음식점 - 분식","category":"restaurant"},{"name":"한상차림반찬","tel":"031-655-8555","addr":"경기도 평택시 평택동 104-4번지","indutype":"일반휴게음식 - 일반한식","category":"restaurant"},{"name":"한상차림반찬","tel":"031-652-7611","addr":"경기도 평택시 평택동 104-4번지","indutype":"음식점 - 한식","category":"restaurant"}]},{"lat":"36.99369097","long":"127.08691904","imageIndex":4,"items":[{"name":"무한닭갈비","tel":"031-656-9259","addr":"경기도 평택시 평택동 65-17번지 1층","indutype":"일반휴게음식 - 일반한식","category":"restaurant"}]},{"lat":"36.991356341","long":"127.08811841","imageIndex":4,"items":[{"name":"뮤지션7080","tel":"031-658-7088","addr":"경기도 평택시 평택동 49-2번지 2층","indutype":"일반휴게음식 - 주점","category":"restaurant"}]},{"lat":"36.994908368","long":"127.08556112","imageIndex":4,"items":[{"name":"미국가주우육면","tel":"031-652-8778","addr":"경기도 평택시 평택동 69-23번지","indutype":"일반휴게음식 - 일반한식","category":"restaurant"}]},{"lat":"36.98955408","long":"127.08828489","imageIndex":4,"items":[{"name":"미라클식당","tel":"031-657-4189","addr":"경기도 평택시 평택동 194-3번지 미라클 501호","indutype":"일반휴게음식 - 일반한식","category":"restaurant"},{"name":"센시빌리티","tel":"","addr":"경기도 평택시 평택동 194-3번지 108,109,110호","indutype":"일반휴게음식 - 서양음식","category":"restaurant"}]},{"lat":"36.991077803","long":"127.08700603","imageIndex":4,"items":[{"name":"미락식당","tel":"031-653-7985","addr":"경기도 평택시 평택동 55-3번지","indutype":"일반휴게음식 - 일반한식","category":"restaurant"}]},{"lat":"36.99304827","long":"127.09097356","imageIndex":4,"items":[{"name":"미술관술집평택역점","tel":"031-651-5355","addr":"경기도 평택시 평택동 286-6번지 1층","indutype":"일반휴게음식 - 일반한식","category":"restaurant"},{"name":"미술관술집평택역점","tel":"031-654-2111","addr":"경기도 평택시 평택동 286-6번지","indutype":"음식점 - 호프","category":"restaurant"}]},{"lat":"36.993274743","long":"127.08933375","imageIndex":4,"items":[{"name":"미스터피자평택역점","tel":"031-618-5772","addr":"경기도 평택시 평택동 41-5번지 1층","indutype":"음식점 - 피자","category":"restaurant"},{"name":"미스터피자평택역점","tel":"031-651-7077","addr":"경기도 평택시 평택동 41-5번지","indutype":"일반휴게음식 - 서양음식","category":"restaurant"},{"name":"엠피케이 치킨","tel":"031-111-1111","addr":"경기도 평택시 평택동 41-5번지 1층","indutype":"일반휴게음식 - 일반한식","category":"restaurant"},{"name":"청와삼대칼국수평택점","tel":"031-655-3211","addr":"경기도 평택시 평택동 41-5번지 2층","indutype":"일반휴게음식 - 일반한식","category":"restaurant"},{"name":"토프레소 로데오점","tel":"031-654-4984","addr":"경기도 평택시 평택동 41-5번지","indutype":"일반휴게음식 - 서양음식","category":"restaurant"}]},{"lat":"36.99313157","long":"127.08795189","imageIndex":4,"items":[{"name":"민족의부대찌개","tel":"031-618-7920","addr":"경기도 평택시 평택동 44-8번지","indutype":"일반휴게음식 - 일반한식","category":"restaurant"},{"name":"민족의부대찌개","tel":"031-651-1588","addr":"경기도 평택시 평택동 44-8번지","indutype":"음식점 - 한식","category":"restaurant"}]},{"lat":"36.989719671","long":"127.08342127","imageIndex":4,"items":[{"name":"바다양푼이동태탕 평택서부역점","tel":"031-618-8169","addr":"경기도 평택시 평택동 164-112번지 2층","indutype":"음식점 - 한식","category":"restaurant"},{"name":"바다양푼이동태탕 평택서부역점","tel":"031-651-6042","addr":"경기도 평택시 평택동 164-112번지 2층","indutype":"일반휴게음식 - 일반한식","category":"restaurant"},{"name":"클리어치닭 서부역점","tel":"031-651-5055","addr":"경기도 평택시 평택동 164-112번지 1층","indutype":"일반휴게음식 - 스넥","category":"restaurant"}]},{"lat":"36.993051811","long":"127.08606461","imageIndex":4,"items":[{"name":"발렌타인","tel":"070-4401-5651","addr":"경기도 평택시 평택동 60-1번지 2층","indutype":"일반휴게음식 - 일반한식","category":"restaurant"}]},{"lat":"36.992150828","long":"127.08594007","imageIndex":4,"items":[{"name":"배달의","tel":"","addr":"경기도 평택시 평택동 55-7번지 평택아케이드 나동 1층 8호","indutype":"일반휴게음식 - 일반한식","category":"restaurant"},{"name":"쉬즈돈까스","tel":"031-655-3222","addr":"경기도 평택시 평택동 55-7번지 평택아케이드 나동 201호","indutype":"일반휴게음식 - 서양음식","category":"restaurant"},{"name":"쉬즈돈까스","tel":"031-651-5975","addr":"경기도 평택시 평택동 55-7번지 아케이드 나동 2층","indutype":"음식점 - 양식","category":"restaurant"}]},{"lat":"36.993213482","long":"127.08680619","imageIndex":4,"items":[{"name":"백가면옥","tel":"031-616-3539","addr":"경기도 평택시 평택동 65-7번지","indutype":"일반휴게음식 - 일반한식","category":"restaurant"}]},{"lat":"36.993246481","long":"127.09100749","imageIndex":4,"items":[{"name":"백년미가","tel":"031-653-9295","addr":"경기도 평택시 평택동 286-4번지","indutype":"일반휴게음식 - 일반한식","category":"restaurant"},{"name":"새벽바다","tel":"031-656-9243","addr":"경기도 평택시 평택동 286-4번지","indutype":"일반휴게음식 - 일반한식","category":"restaurant"},{"name":"쌍용폐계닭","tel":"031-652-2646","addr":"경기도 평택시 평택동 286-4번지","indutype":"일반휴게음식 - 일반한식","category":"restaurant"}]},{"lat":"36.992048795","long":"127.09000636","imageIndex":4,"items":[{"name":"베이스캠프N","tel":"031-691-1879","addr":"경기도 평택시 평택동 292-1번지","indutype":"일반휴게음식 - 일반한식","category":"restaurant"},{"name":"청담동말자평택점","tel":"031-651-6534","addr":"경기도 평택시 평택동 292-1번지","indutype":"일반휴게음식 - 스넥","category":"restaurant"}]},{"lat":"36.994439718","long":"127.08569542","imageIndex":4,"items":[{"name":"베테랑","tel":"031-651-6771","addr":"경기도 평택시 평택동 67-7번지","indutype":"일반휴게음식 - 일반한식","category":"restaurant"},{"name":"별별국수","tel":"","addr":"경기도 평택시 평택동 67-7번지","indutype":"음식점 - 한식","category":"restaurant"}]},{"lat":"36.99274551","long":"127.08597441","imageIndex":4,"items":[{"name":"베트남 쌀국수 PHO-HA-NOI","tel":"031-618-2223","addr":"경기도 평택시 평택동 62-1번지 1층","indutype":"일반휴게음식 - 일반한식","category":"restaurant"}]},{"lat":"36.992357227","long":"127.08714224","imageIndex":4,"items":[{"name":"보영만두 평택점","tel":"","addr":"경기도 평택시 평택동 45-13번지","indutype":"음식점 - 한식","category":"restaurant"},{"name":"보영만두(평택점)","tel":"","addr":"경기도 평택시 평택동 45-13번지 1층","indutype":"일반휴게음식 - 일반한식","category":"restaurant"},{"name":"엔제리너스 평택점","tel":"","addr":"경기도 평택시 평택동 45-13번지","indutype":"일반휴게음식 - 서양음식","category":"restaurant"}]},{"lat":"36.991301113","long":"127.08972468","imageIndex":4,"items":[{"name":"본죽경기평택점","tel":"031-652-3582","addr":"경기도 평택시 평택동 293-1번지 1층","indutype":"음식점 - 한식","category":"restaurant"},{"name":"본죽경기평택점","tel":"031-655-9898","addr":"경기도 평택시 평택동 293-1번지 1층","indutype":"일반휴게음식 - 일반한식","category":"restaurant"},{"name":"원할머니보쌈","tel":"031-657-0303","addr":"경기도 평택시 평택동 293-1번지","indutype":"일반휴게음식 - 일반한식","category":"restaurant"}]},{"lat":"36.990689194","long":"127.08861192","imageIndex":4,"items":[{"name":"봉구스밥버거 평택역점","tel":"031-654-2890","addr":"경기도 평택시 평택동 293-8번지","indutype":"일반휴게음식 - 스넥","category":"restaurant"}]},{"lat":"36.990387728","long":"127.08153485","imageIndex":4,"items":[{"name":"봉길네밥상","tel":"031-651-6042","addr":"경기도 평택시 평택동 105-1번지 다동 1층","indutype":"음식점 - 한식","category":"restaurant"},{"name":"봉길네밥상","tel":"031-656-0120","addr":"경기도 평택시 평택동 105-1번지 다동 1층","indutype":"일반휴게음식 - 일반한식","category":"restaurant"},{"name":"할매국수","tel":"031-618-6669","addr":"경기도 평택시 평택동 105-1번지","indutype":"일반휴게음식 - 스넥","category":"restaurant"},{"name":"할매국수","tel":"031-651-7627","addr":"경기도 평택시 평택동 105-1번지","indutype":"음식점 - 한식","category":"restaurant"}]},{"lat":"36.993023562","long":"127.08778327","imageIndex":4,"items":[{"name":"봉추찜닭 평택점","tel":"031-656-6981","addr":"경기도 평택시 평택동 44-10번지 1층","indutype":"일반휴게음식 - 일반한식","category":"restaurant"},{"name":"봉추찜닭평택점","tel":"031-655-2224","addr":"경기도 평택시 평택동 44-10번지","indutype":"음식점 - 한식","category":"restaurant"}]},{"lat":"36.98896322","long":"127.08275775","imageIndex":4,"items":[{"name":"부어치킨(평택점)","tel":"031-654-4670","addr":"경기도 평택시 평택동 121-3번지 101호","indutype":"일반휴게음식 - 스넥","category":"restaurant"}]},{"lat":"36.993129258","long":"127.09111969","imageIndex":4,"items":[{"name":"부추곱창(평택점)","tel":"031-657-7641","addr":"경기도 평택시 평택동 286-5번지","indutype":"일반휴게음식 - 일반한식","category":"restaurant"},{"name":"선술집 모로미식당","tel":"031-658-3161","addr":"경기도 평택시 평택동 286-5번지","indutype":"일반휴게음식 - 일반한식","category":"restaurant"}]},{"lat":"36.991688508","long":"127.08981498","imageIndex":4,"items":[{"name":"북촌손만두","tel":"031-691-2007","addr":"경기도 평택시 평택동 292-6번지 강림빌딩","indutype":"일반휴게음식 - 일반한식","category":"restaurant"}]},{"lat":"36.988411378","long":"127.08594723","imageIndex":4,"items":[{"name":"불타는도야지","tel":"031-652-3643","addr":"경기도 평택시 평택동 185-310번지 1층","indutype":"일반휴게음식 - 일반한식","category":"restaurant"}]},{"lat":"36.992913351","long":"127.09064764","imageIndex":4,"items":[{"name":"비어사케","tel":"070-7521-6211","addr":"경기도 평택시 평택동 287-23번지","indutype":"일반휴게음식 - 주점","category":"restaurant"}]},{"lat":"36.992717615","long":"127.08719881","imageIndex":4,"items":[{"name":"빅다방","tel":"031-658-8828","addr":"경기도 평택시 평택동 45-1번지","indutype":"음식점 - 카페","category":"restaurant"},{"name":"파리바게뜨 중앙점","tel":"031-655-2878","addr":"경기도 평택시 평택동 45-1번지","indutype":"음식점 - 제과점","category":"restaurant"}]},{"lat":"36.992879552","long":"127.08755845","imageIndex":4,"items":[{"name":"빅토리아","tel":"","addr":"경기도 평택시 평택동 44-4번지 1층","indutype":"일반휴게음식 - 서양음식","category":"restaurant"}]},{"lat":"36.992357774","long":"127.08636715","imageIndex":4,"items":[{"name":"뽀코어터우 주식회사","tel":"031-000-0000","addr":"경기도 평택시 평택동 62-13번지","indutype":"일반휴게음식 - 일반한식","category":"restaurant"}]},{"lat":"36.989214196","long":"127.08470127","imageIndex":4,"items":[{"name":"사쿠사쿠군문점","tel":"031-618-0049","addr":"경기도 평택시 평택동 151-1번지 1층","indutype":"일반휴게음식 - 스넥","category":"restaurant"},{"name":"사쿠사쿠군문점","tel":"031-618-0599","addr":"경기도 평택시 평택동 151-1번지","indutype":"음식점 - 치킨","category":"restaurant"}]},{"lat":"36.987468133","long":"127.08172279","imageIndex":4,"items":[{"name":"산삼창평택점","tel":"031-656-5969","addr":"경기도 평택시 평택동 137-17번지","indutype":"일반휴게음식 - 주점","category":"restaurant"}]},{"lat":"36.99380086","long":"127.08439165","imageIndex":4,"items":[{"name":"산청자매훠궈","tel":"070-8812-6869","addr":"경기도 평택시 평택동 72-7번지 외1필지","indutype":"일반휴게음식 - 중국식","category":"restaurant"}]},{"lat":"36.993436079","long":"127.09050221","imageIndex":4,"items":[{"name":"생태마을","tel":"031-657-7790","addr":"경기도 평택시 평택동 286-13번지 1층 점포","indutype":"일반휴게음식 - 일반한식","category":"restaurant"}]},{"lat":"36.990914881","long":"127.08802806","imageIndex":4,"items":[{"name":"서부리감자탕해장국","tel":"031-653-8684","addr":"경기도 평택시 평택동 297번지 1층","indutype":"일반휴게음식 - 일반한식","category":"restaurant"}]},{"lat":"36.992052055","long":"127.0854457","imageIndex":4,"items":[{"name":"서울면옥","tel":"031-618-3452","addr":"경기도 평택시 평택동 55-24번지","indutype":"일반휴게음식 - 일반한식","category":"restaurant"}]},{"lat":"36.994184881","long":"127.08925615","imageIndex":4,"items":[{"name":"서천사골순대국","tel":"031-658-4022","addr":"경기도 평택시 평택동 34-12번지","indutype":"음식점 - 한식","category":"restaurant"}]},{"lat":"36.989304365","long":"127.08461151","imageIndex":4,"items":[{"name":"서해수산","tel":"031-652-7909","addr":"경기도 평택시 평택동 151-7번지","indutype":"음식점 - 일식","category":"restaurant"},{"name":"서해수산","tel":"031-652-3920","addr":"경기도 평택시 평택동 151-7번지","indutype":"일반휴게음식 - 일반한식","category":"restaurant"}]},{"lat":"36.992130458","long":"127.08923136","imageIndex":4,"items":[{"name":"설빙평택동점","tel":"031-691-3013","addr":"경기도 평택시 평택동 290-2번지 2층","indutype":"일반휴게음식 - 일반한식","category":"restaurant"},{"name":"웰브라운","tel":"031-657-3661","addr":"경기도 평택시 평택동 290-2번지","indutype":"음식점 - 커피","category":"restaurant"},{"name":"웰브라운(Well Brown)","tel":"","addr":"경기도 평택시 평택동 290-2번지","indutype":"일반휴게음식 - 일반한식","category":"restaurant"},{"name":"타코멘","tel":"","addr":"경기도 평택시 평택동 290-2번지 1층","indutype":"일반휴게음식 - 일반한식","category":"restaurant"},{"name":"타코멘","tel":"031-654-7045","addr":"경기도 평택시 평택동 290-2번지 1층","indutype":"음식점 - 일식","category":"restaurant"}]},{"lat":"36.991743039","long":"127.08917476","imageIndex":4,"items":[{"name":"섬레스토랑","tel":"031-653-6264","addr":"경기도 평택시 평택동 291-7번지","indutype":"음식점 - 양식","category":"restaurant"},{"name":"섬레스토랑","tel":"031-655-4857","addr":"경기도 평택시 평택동 291-7번지","indutype":"일반휴게음식 - 서양음식","category":"restaurant"}]},{"lat":"36.992490344","long":"127.08997316","imageIndex":4,"items":[{"name":"세비야카페","tel":"","addr":"경기도 평택시 평택동 288-35번지 2층","indutype":"일반휴게음식 - 서양음식","category":"restaurant"},{"name":"팔육상회","tel":"031-652-5608","addr":"경기도 평택시 평택동 288-35번지","indutype":"일반휴게음식 - 주점","category":"restaurant"}]},{"lat":"36.989548315","long":"127.08364575","imageIndex":4,"items":[{"name":"소문난집","tel":"031-652-7133","addr":"경기도 평택시 평택동 164-44번지","indutype":"일반휴게음식 - 일반한식","category":"restaurant"}]},{"lat":"36.991220841","long":"127.08859005","imageIndex":4,"items":[{"name":"소백양샤브","tel":"031-618-0992","addr":"경기도 평택시 평택동 298-3번지 해룡빌딩","indutype":"일반휴게음식 - 일반한식","category":"restaurant"}]},{"lat":"36.988880707","long":"127.08483571","imageIndex":4,"items":[{"name":"쇼부네조개구이","tel":"031-692-3959","addr":"경기도 평택시 평택동 177-6번지 1층","indutype":"일반휴게음식 - 일반한식","category":"restaurant"},{"name":"쑈부네조개구이","tel":"031-652-6510","addr":"경기도 평택시 평택동 177-6번지","indutype":"음식점 - 한식","category":"restaurant"},{"name":"정장군평택점","tel":"031-658-0103","addr":"경기도 평택시 평택동 177-6번지","indutype":"일반휴게음식 - 일반한식","category":"restaurant"}]},{"lat":"36.993490202","long":"127.09042363","imageIndex":4,"items":[{"name":"쇼워이오리목점","tel":"031-657-2512","addr":"경기도 평택시 평택동 286-14번지 1층","indutype":"일반휴게음식 - 일반한식","category":"restaurant"},{"name":"청해포차","tel":"031-657-1829","addr":"경기도 평택시 평택동 286-14번지","indutype":"일반휴게음식 - 일반한식","category":"restaurant"}]},{"lat":"36.992970911","long":"127.08578369","imageIndex":4,"items":[{"name":"쇼촬땐숯불꼬치구이","tel":"031-651-0955","addr":"경기도 평택시 평택동 60-29번지 1층","indutype":"일반휴게음식 - 일반한식","category":"restaurant"}]},{"lat":"36.993575399","long":"127.08467224","imageIndex":4,"items":[{"name":"수목토전통찻집","tel":"031-657-0947","addr":"경기도 평택시 평택동 72-39번지","indutype":"일반휴게음식 - 일반한식","category":"restaurant"}]},{"lat":"36.992411211","long":"127.08725463","imageIndex":4,"items":[{"name":"수엠부","tel":"031-652-3305","addr":"경기도 평택시 평택동 45-14번지 2층","indutype":"일반휴게음식 - 서양음식","category":"restaurant"}]},{"lat":"36.993795908","long":"127.09131142","imageIndex":4,"items":[{"name":"수제고로케집","tel":"031-653-3740","addr":"경기도 평택시 평택동 23-11번지","indutype":"음식점 - 휴게음식","category":"restaurant"}]},{"lat":"36.988854773","long":"127.08322941","imageIndex":4,"items":[{"name":"수호네가정식백반","tel":"031-683-2681","addr":"경기도 평택시 평택동 120-1번지 1층","indutype":"일반휴게음식 - 일반한식","category":"restaurant"}]},{"lat":"36.989385747","long":"127.08419598","imageIndex":4,"items":[{"name":"술이술이마술이","tel":"031-655-0008","addr":"경기도 평택시 평택동 153번지","indutype":"일반휴게음식 - 일반한식","category":"restaurant"}]},{"lat":"36.991886586","long":"127.09002864","imageIndex":4,"items":[{"name":"술익는마을","tel":"031-656-7457","addr":"경기도 평택시 평택동 292-3번지 2층","indutype":"일반휴게음식 - 일반한식","category":"restaurant"},{"name":"아웃닭평택역점","tel":"031-654-3013","addr":"경기도 평택시 평택동 292-3번지 1층","indutype":"일반휴게음식 - 스넥","category":"restaurant"}]},{"lat":"36.991468014","long":"127.08302996","imageIndex":4,"items":[{"name":"숯뎅이네꼬깃간","tel":"031-8094-2220","addr":"경기도 평택시 평택동 185-513번지 1층","indutype":"음식점 - 한식","category":"restaurant"},{"name":"숯뎅이네꼬깃간","tel":"031-653-1253","addr":"경기도 평택시 평택동 185-513번지 1층","indutype":"일반휴게음식 - 일반한식","category":"restaurant"}]},{"lat":"36.993859806","long":"127.09019939","imageIndex":4,"items":[{"name":"슈퍼후라이드","tel":"031-654-6677","addr":"경기도 평택시 평택동 32-4번지","indutype":"일반휴게음식 - 스넥","category":"restaurant"}]},{"lat":"36.992021887","long":"127.08983783","imageIndex":4,"items":[{"name":"스시도마","tel":"031-654-5676","addr":"경기도 평택시 평택동 292-8번지 2층","indutype":"일반휴게음식 - 일식·회집","category":"restaurant"}]},{"lat":"36.990968078","long":"127.08923005","imageIndex":4,"items":[{"name":"스시여행","tel":"031-654-1023","addr":"경기도 평택시 평택동 293-4번지 1층 104호","indutype":"일반휴게음식 - 일식·회집","category":"restaurant"}]},{"lat":"36.992050447","long":"127.08772603","imageIndex":4,"items":[{"name":"시골애 평택점","tel":"031-658-1323","addr":"경기도 평택시 평택동 46-8번지","indutype":"음식점 - 한식","category":"restaurant"},{"name":"시골애평택점","tel":"031-658-5656","addr":"경기도 평택시 평택동 46-8번지","indutype":"일반휴게음식 - 일반한식","category":"restaurant"}]},{"lat":"36.994466238","long":"127.08642562","imageIndex":4,"items":[{"name":"시골장국집","tel":"031-655-5004","addr":"경기도 평택시 평택동 68-26번지","indutype":"일반휴게음식 - 일반한식","category":"restaurant"}]},{"lat":"36.990527139","long":"127.08842078","imageIndex":4,"items":[{"name":"시골집얼큰한뼈해장국","tel":"031-652-9991","addr":"경기도 평택시 평택동 296-3번지","indutype":"일반휴게음식 - 일반한식","category":"restaurant"}]},{"lat":"36.989331759","long":"127.0840836","imageIndex":4,"items":[{"name":"신가네감자탕","tel":"031-652-0228","addr":"경기도 평택시 평택동 154-4번지 1층","indutype":"음식점 - 한식","category":"restaurant"},{"name":"신가네감자탕","tel":"031-657-5417","addr":"경기도 평택시 평택동 154-4번지 1층","indutype":"일반휴게음식 - 일반한식","category":"restaurant"}]},{"lat":"36.993076221","long":"127.08972669","imageIndex":4,"items":[{"name":"신서울식당","tel":"031-656-3244","addr":"경기도 평택시 평택동 288번지 1층","indutype":"일반휴게음식 - 일반한식","category":"restaurant"}]},{"lat":"36.989575629","long":"127.08323016","imageIndex":4,"items":[{"name":"신순천만","tel":"031-655-0992","addr":"경기도 평택시 평택동 164-61번지","indutype":"일반휴게음식 - 일반한식","category":"restaurant"}]},{"lat":"36.993628927","long":"127.0854474","imageIndex":4,"items":[{"name":"신포우리만두","tel":"","addr":"경기도 평택시 평택동 60-18번지","indutype":"음식점 - 분식","category":"restaurant"},{"name":"신포우리만두","tel":"031-656-5553","addr":"경기도 평택시 평택동 60-18번지","indutype":"일반휴게음식 - 일반한식","category":"restaurant"}]},{"lat":"36.990968704","long":"127.08836511","imageIndex":4,"items":[{"name":"심봉사도로케 평택터미널점","tel":"031-651-8383","addr":"경기도 평택시 평택동 298-5번지 1층","indutype":"일반휴게음식 - 서양음식","category":"restaurant"},{"name":"심봉사도로케평택터미널점","tel":"","addr":"경기도 평택시 평택동 298-5번지","indutype":"음식점 - 제과점","category":"restaurant"}]},{"lat":"36.991410025","long":"127.08864643","imageIndex":4,"items":[{"name":"써브웨이평택로데오점","tel":"031-655-1386","addr":"경기도 평택시 평택동 298-1번지 셀럽프라자 102호","indutype":"일반휴게음식 - 스넥","category":"restaurant"},{"name":"투썸플레이스 평택로데오점","tel":"031-651-0995","addr":"경기도 평택시 평택동 298-1번지 1층","indutype":"일반휴게음식 - 서양음식","category":"restaurant"}]},{"lat":"36.993909042","long":"127.08431313","imageIndex":4,"items":[{"name":"쓰담쓰담","tel":"","addr":"경기도 평택시 평택동 72-8번지","indutype":"일반휴게음식 - 서양음식","category":"restaurant"}]},{"lat":"36.990242162","long":"127.08361278","imageIndex":4,"items":[{"name":"아구대통령","tel":"031-658-3335","addr":"경기도 평택시 평택동 173번지 1층","indutype":"일반휴게음식 - 일반한식","category":"restaurant"},{"name":"코아출장뷔페","tel":"031-651-6328","addr":"경기도 평택시 평택동 173번지","indutype":"일반휴게음식 - 일반한식","category":"restaurant"}]},{"lat":"36.990770783","long":"127.0879268","imageIndex":4,"items":[{"name":"아모르","tel":"","addr":"경기도 평택시 평택동 297-2번지","indutype":"일반휴게음식 - 일반한식","category":"restaurant"}]},{"lat":"36.992383626","long":"127.08802969","imageIndex":4,"items":[{"name":"아오리의행방불명평택점","tel":"031-000-0000","addr":"경기도 평택시 평택동 43-8번지 2층","indutype":"일반휴게음식 - 일반한식","category":"restaurant"}]},{"lat":"36.993247119","long":"127.09014252","imageIndex":4,"items":[{"name":"아카렌가","tel":"031-683-5009","addr":"경기도 평택시 평택동 287-4번지","indutype":"음식점 - 한식","category":"restaurant"},{"name":"아카렌가","tel":"031-654-3559","addr":"경기도 평택시 평택동 287-4번지","indutype":"일반휴게음식 - 일반한식","category":"restaurant"}]},{"lat":"36.99349328","long":"127.08614373","imageIndex":4,"items":[{"name":"앨리스(Alleys)","tel":"031-655-9075","addr":"경기도 평택시 평택동 63-3번지","indutype":"일반휴게음식 - 일반한식","category":"restaurant"}]},{"lat":"36.993076508","long":"127.08933353","imageIndex":4,"items":[{"name":"양차돌 평택자유로점","tel":"031-652-9849","addr":"경기도 평택시 평택동 283-2번지 외2필지","indutype":"일반휴게음식 - 일반한식","category":"restaurant"},{"name":"커피바라기","tel":"031-652-9849","addr":"경기도 평택시 평택동 283-2번지 외 2필지 1층","indutype":"일반휴게음식 - 일반한식","category":"restaurant"}]},{"lat":"36.993439311","long":"127.08600887","imageIndex":4,"items":[{"name":"얼큰칼국수","tel":"031-654-1811","addr":"경기도 평택시 평택동 63-7번지 1층","indutype":"일반휴게음식 - 스넥","category":"restaurant"},{"name":"얼큰칼국수","tel":"","addr":"경기도 평택시 평택동 63-7번지 1층","indutype":"음식점 - 분식","category":"restaurant"},{"name":"와룽섬버르르제키","tel":"031-372-2655","addr":"경기도 평택시 평택동 63-7번지 2층","indutype":"일반휴게음식 - 서양음식","category":"restaurant"}]},{"lat":"36.994303776","long":"127.08680738","imageIndex":4,"items":[{"name":"엄마의밥상","tel":"031-653-1001","addr":"경기도 평택시 평택동 66-3번지","indutype":"음식점 - 한식","category":"restaurant"}]},{"lat":"36.988637169","long":"127.08519489","imageIndex":4,"items":[{"name":"에이케이(AK)생삼겹전문점","tel":"031-618-8169","addr":"경기도 평택시 평택동 181-5번지 1층","indutype":"일반휴게음식 - 일반한식","category":"restaurant"},{"name":"에이케이(AK)생삼겹전문점","tel":"031-692-3344","addr":"경기도 평택시 평택동 181-5번지 1층","indutype":"음식점 - 한식","category":"restaurant"}]},{"lat":"36.993275386","long":"127.08844632","imageIndex":4,"items":[{"name":"엘사(ELSA)","tel":"031-618-0005","addr":"경기도 평택시 평택동 39-12번지","indutype":"일반휴게음식 - 칵테일바","category":"restaurant"}]},{"lat":"36.991134352","long":"127.08342276","imageIndex":4,"items":[{"name":"역전숯불갈비","tel":"031-692-1892","addr":"경기도 평택시 평택동 185-204번지","indutype":"음식점 - 한식","category":"restaurant"},{"name":"평택역전갈비","tel":"031-692-0010","addr":"경기도 평택시 평택동 185-204번지 1층","indutype":"일반휴게음식 - 일반한식","category":"restaurant"}]},{"lat":"36.994492706","long":"127.08722323","imageIndex":4,"items":[{"name":"연길양꼬치본점","tel":"031-656-8763","addr":"경기도 평택시 평택동 66-24번지","indutype":"일반휴게음식 - 일반한식","category":"restaurant"}]},{"lat":"36.989412679","long":"127.08434204","imageIndex":4,"items":[{"name":"연식당","tel":"031-8029-1850","addr":"경기도 평택시 평택동 152번지 1층","indutype":"일반휴게음식 - 일반한식","category":"restaurant"}]},{"lat":"36.990717842","long":"127.08634289","imageIndex":4,"items":[{"name":"영동식당","tel":"031-618-2528","addr":"경기도 평택시 평택동 185-260번지","indutype":"일반휴게음식 - 일반한식","category":"restaurant"}]},{"lat":"36.992463189","long":"127.09014163","imageIndex":4,"items":[{"name":"영웅싸롱평택역점","tel":"031-658-9726","addr":"경기도 평택시 평택동 288-31번지","indutype":"일반휴게음식 - 주점","category":"restaurant"}]},{"lat":"36.992162171","long":"127.08253643","imageIndex":4,"items":[{"name":"영천찌개마당","tel":"031-655-7473","addr":"경기도 평택시 평택동 185-7번지","indutype":"일반휴게음식 - 일반한식","category":"restaurant"}]},{"lat":"36.994746425","long":"127.08520147","imageIndex":4,"items":[{"name":"영천칡냉면","tel":"031-655-3040","addr":"경기도 평택시 평택동 69-20번지","indutype":"일반휴게음식 - 일반한식","category":"restaurant"}]},{"lat":"36.99172048","long":"127.08278309","imageIndex":4,"items":[{"name":"예랑 닭갈비","tel":"031-656-0007","addr":"경기도 평택시 평택동 185-244번지 1층","indutype":"일반휴게음식 - 일반한식","category":"restaurant"},{"name":"춘하추동","tel":"031-653-4044","addr":"경기도 평택시 평택동 185-244번지 1층","indutype":"일반휴게음식 - 일반한식","category":"restaurant"}]},{"lat":"36.990886497","long":"127.0898927","imageIndex":4,"items":[{"name":"옛고향자연돌구이","tel":"031-657-4718","addr":"경기도 평택시 평택동 294번지","indutype":"일반휴게음식 - 일반한식","category":"restaurant"},{"name":"옛고향자연돌구이","tel":"","addr":"경기도 평택시 평택동 294번지","indutype":"음식점 - 한식","category":"restaurant"}]},{"lat":"36.992859229","long":"127.09072621","imageIndex":4,"items":[{"name":"옛날왕솥뚜껑삼겹살","tel":"031-652-7744","addr":"경기도 평택시 평택동 287-24번지","indutype":"일반휴게음식 - 일반한식","category":"restaurant"},{"name":"옛날왕솥뚜껑삼겹살","tel":"031-652-1561","addr":"경기도 평택시 평택동 287-24번지","indutype":"음식점 - 한식","category":"restaurant"}]},{"lat":"36.992607335","long":"127.09017549","imageIndex":4,"items":[{"name":"오감평택점","tel":"031-8717-6764","addr":"경기도 평택시 평택동 288-28번지","indutype":"일반휴게음식 - 일반한식","category":"restaurant"}]},{"lat":"36.993129774","long":"127.09042322","imageIndex":4,"items":[{"name":"오술차","tel":"031-655-0997","addr":"경기도 평택시 평택동 287-14번지","indutype":"일반휴게음식 - 일반한식","category":"restaurant"},{"name":"팔도실비집","tel":"","addr":"경기도 평택시 평택동 287-14번지 1층","indutype":"일반휴게음식 - 일반한식","category":"restaurant"}]},{"lat":"36.994440596","long":"127.08442603","imageIndex":4,"items":[{"name":"와이제이엔(YJN PHILIPPINE RESTAURANT)","tel":"031-5510-9499","addr":"경기도 평택시 평택동 71-17번지 2층","indutype":"일반휴게음식 - 서양음식","category":"restaurant"}]},{"lat":"36.989665683","long":"127.08330889","imageIndex":4,"items":[{"name":"우리디저트해요","tel":"031-000-0000","addr":"경기도 평택시 평택동 164-134번지 1층","indutype":"일반휴게음식 - 서양음식","category":"restaurant"}]},{"lat":"36.993247243","long":"127.08997402","imageIndex":4,"items":[{"name":"우리집밥","tel":"031-656-3003","addr":"경기도 평택시 평택동 287-54번지","indutype":"음식점 - 한식","category":"restaurant"},{"name":"우리집밥","tel":"031-658-6677","addr":"경기도 평택시 평택동 287-54번지 1층","indutype":"일반휴게음식 - 일반한식","category":"restaurant"}]},{"lat":"36.993968624","long":"127.0892559","imageIndex":4,"items":[{"name":"우리한양식당","tel":"031-618-4907","addr":"경기도 평택시 평택동 33-9번지","indutype":"일반휴게음식 - 일반한식","category":"restaurant"}]},{"lat":"36.989773223","long":"127.08417393","imageIndex":4,"items":[{"name":"원두야놀자","tel":"070-8991-9979","addr":"경기도 평택시 평택동 175-3번지 3층","indutype":"일반휴게음식 - 서양음식","category":"restaurant"}]},{"lat":"36.993525796","long":"127.09103028","imageIndex":4,"items":[{"name":"원조배불뚝집","tel":"031-655-6916","addr":"경기도 평택시 평택동 285-1번지","indutype":"일반휴게음식 - 일반한식","category":"restaurant"}]},{"lat":"36.991495454","long":"127.0824234","imageIndex":4,"items":[{"name":"원평동참숯화로구이","tel":"031-658-5581","addr":"경기도 평택시 평택동 91-24번지","indutype":"일반휴게음식 - 일반한식","category":"restaurant"}]},{"lat":"36.990575779","long":"127.08328738","imageIndex":4,"items":[{"name":"원평동참숯화로구이","tel":"031-618-4695","addr":"경기도 평택시 평택동 167-1번지","indutype":"음식점 - 한식","category":"restaurant"}]},{"lat":"36.990693501","long":"127.08242257","imageIndex":4,"items":[{"name":"원평식당","tel":"","addr":"경기도 평택시 평택동 95-4번지","indutype":"일반휴게음식 - 일반한식","category":"restaurant"}]},{"lat":"36.992247253","long":"127.08970329","imageIndex":4,"items":[{"name":"웨스턴펍","tel":"","addr":"경기도 평택시 평택동 289-4번지 지하1층","indutype":"일반휴게음식 - 주점","category":"restaurant"}]},{"lat":"36.993383336","long":"127.08869358","imageIndex":4,"items":[{"name":"웨이평택점","tel":"070-4488-9560","addr":"경기도 평택시 평택동 39-10번지","indutype":"일반휴게음식 - 서양음식","category":"restaurant"}]},{"lat":"36.989052328","long":"127.08422932","imageIndex":4,"items":[{"name":"유세이치킨(USAY치킨)","tel":"02-1111-1111","addr":"경기도 평택시 평택동 148-1번지","indutype":"일반휴게음식 - 스넥","category":"restaurant"}]},{"lat":"36.993275604","long":"127.08814302","imageIndex":4,"items":[{"name":"유어낫얼론","tel":"031-656-6981","addr":"경기도 평택시 평택동 44-1번지","indutype":"음식점 - 커피","category":"restaurant"},{"name":"유어낫얼론","tel":"031-651-1588","addr":"경기도 평택시 평택동 44-1번지 외필지 1층","indutype":"일반휴게음식 - 일반한식","category":"restaurant"},{"name":"제이씨포차(JC포차)","tel":"031-657-5934","addr":"경기도 평택시 평택동 44-1번지 1층","indutype":"일반휴게음식 - 주점","category":"restaurant"}]},{"lat":"36.993219715","long":"127.09064799","imageIndex":4,"items":[{"name":"육회본가평택역점","tel":"031-000-0000","addr":"경기도 평택시 평택동 286-11번지 1층","indutype":"일반휴게음식 - 일반한식","category":"restaurant"}]},{"lat":"36.989610326","long":"127.08519594","imageIndex":4,"items":[{"name":"윤가네불날개","tel":"031-618-6862","addr":"경기도 평택시 평택동 185-145번지","indutype":"일반휴게음식 - 일반한식","category":"restaurant"}]},{"lat":"36.991742432","long":"127.09000601","imageIndex":4,"items":[{"name":"윤셰프의해피박스 평택역점","tel":"031-657-8116","addr":"경기도 평택시 평택동 292-4번지","indutype":"일반휴게음식 - 일반한식","category":"restaurant"}]},{"lat":"36.994187629","long":"127.08539184","imageIndex":4,"items":[{"name":"윤이호프","tel":"031-655-1187","addr":"경기도 평택시 평택동 70-3번지","indutype":"일반휴게음식 - 주점","category":"restaurant"},{"name":"인도네시아평택","tel":"031-653-6369","addr":"경기도 평택시 평택동 70-3번지","indutype":"일반휴게음식 - 일반한식","category":"restaurant"}]},{"lat":"36.992969819","long":"127.08733388","imageIndex":4,"items":[{"name":"이디야커피","tel":"031-655-7058","addr":"경기도 평택시 평택동 37-23번지","indutype":"일반휴게음식 - 서양음식","category":"restaurant"},{"name":"이디야커피","tel":"","addr":"경기도 평택시 평택동 37-23번지","indutype":"음식점 - 카페","category":"restaurant"}]},{"lat":"36.993770568","long":"127.08900855","imageIndex":4,"items":[{"name":"이마시아","tel":"031-652-6288","addr":"경기도 평택시 평택동 39-1번지","indutype":"음식점 - 한식","category":"restaurant"},{"name":"이마시아","tel":"031-656-8388","addr":"경기도 평택시 평택동 39-1번지","indutype":"일반휴게음식 - 일반한식","category":"restaurant"},{"name":"향팔리우육수타면","tel":"031-618-9282","addr":"경기도 평택시 평택동 39-1번지","indutype":"일반휴게음식 - 일반한식","category":"restaurant"}]},{"lat":"36.994053314","long":"127.08416725","imageIndex":4,"items":[{"name":"인순이","tel":"031-618-8596","addr":"경기도 평택시 평택동 72-20번지","indutype":"일반휴게음식 - 일반한식","category":"restaurant"}]},{"lat":"36.994467016","long":"127.08531351","imageIndex":4,"items":[{"name":"일미식당","tel":"031-656-4847","addr":"경기도 평택시 평택동 70-4번지 1층","indutype":"일반휴게음식 - 중국식","category":"restaurant"},{"name":"채플린호프","tel":"031-618-8887","addr":"경기도 평택시 평택동 70-4번지 1층","indutype":"일반휴게음식 - 주점","category":"restaurant"}]},{"lat":"36.99163069","long":"127.08231121","imageIndex":4,"items":[{"name":"일번지식당","tel":"031-618-2196","addr":"경기도 평택시 평택동 91-6번지 1층","indutype":"일반휴게음식 - 일반한식","category":"restaurant"}]},{"lat":"36.9928598","long":"127.08995111","imageIndex":4,"items":[{"name":"일차로","tel":"031-657-8136","addr":"경기도 평택시 평택동 288-15번지","indutype":"일반휴게음식 - 일반한식","category":"restaurant"},{"name":"토담골식당","tel":"031-657-1777","addr":"경기도 평택시 평택동 288-15번지 1층","indutype":"일반휴게음식 - 일반한식","category":"restaurant"},{"name":"평택산청해물아구","tel":"031-655-6588","addr":"경기도 평택시 평택동 288-15번지 2층","indutype":"일반휴게음식 - 일반한식","category":"restaurant"}]},{"lat":"36.993662562","long":"127.08883992","imageIndex":4,"items":[{"name":"자글자글","tel":"031-654-3356","addr":"경기도 평택시 평택동 39-4번지 1층","indutype":"일반휴게음식 - 일반한식","category":"restaurant"}]},{"lat":"36.990440474","long":"127.08350066","imageIndex":4,"items":[{"name":"장똘뱅이옛날치킨","tel":"031-652-9272","addr":"경기도 평택시 평택동 169-3번지","indutype":"일반휴게음식 - 스넥","category":"restaurant"}]},{"lat":"36.989521664","long":"127.08308408","imageIndex":4,"items":[{"name":"장미막창 평택점","tel":"031-655-4499","addr":"경기도 평택시 평택동 163-6번지","indutype":"음식점 - 한식","category":"restaurant"},{"name":"장미막창 평택점","tel":"031-652-7878","addr":"경기도 평택시 평택동 163-6번지","indutype":"일반휴게음식 - 일반한식","category":"restaurant"}]},{"lat":"36.99402259","long":"127.08939077","imageIndex":4,"items":[{"name":"장수손칼국수","tel":"031-618-1240","addr":"경기도 평택시 평택동 33-3번지","indutype":"일반휴게음식 - 일반한식","category":"restaurant"},{"name":"장수손칼국수","tel":"031-662-6098","addr":"경기도 평택시 평택동 33-3번지","indutype":"음식점 - 한식","category":"restaurant"},{"name":"한울터 뼈해장국","tel":"031-655-7791","addr":"경기도 평택시 평택동 33-3번지","indutype":"음식점 - 한식","category":"restaurant"},{"name":"한울터뼈해장국","tel":"031-662-6098","addr":"경기도 평택시 평택동 33-3번지 금성빌딩 1층","indutype":"일반휴게음식 - 일반한식","category":"restaurant"}]},{"lat":"36.99085244","long":"127.08714058","imageIndex":4,"items":[{"name":"장터순대국밥","tel":"031-658-5833","addr":"경기도 평택시 평택동 55-2번지 103호","indutype":"일반휴게음식 - 일반한식","category":"restaurant"},{"name":"장터순대국밥","tel":"031-651-4444","addr":"경기도 평택시 평택동 55-2번지","indutype":"음식점 - 한식","category":"restaurant"}]},{"lat":"36.991464454","long":"127.088141","imageIndex":4,"items":[{"name":"저팔계나르샤","tel":"031-618-8877","addr":"경기도 평택시 평택동 49-1번지 2층","indutype":"일반휴게음식 - 일반한식","category":"restaurant"}]},{"lat":"36.99086021","long":"127.08887047","imageIndex":4,"items":[{"name":"전주명가콩나물국밥","tel":"","addr":"경기도 평택시 평택동 293-6번지 1층","indutype":"일반휴게음식 - 일반한식","category":"restaurant"}]},{"lat":"36.992491155","long":"127.08886107","imageIndex":4,"items":[{"name":"정진원의커피볶는집 로데오점","tel":"031-651-0336","addr":"경기도 평택시 평택동 290번지 2층","indutype":"일반휴게음식 - 서양음식","category":"restaurant"},{"name":"허수아비","tel":"031-655-3500","addr":"경기도 평택시 평택동 290번지 3층","indutype":"일반휴게음식 - 서양음식","category":"restaurant"}]},{"lat":"36.992491472","long":"127.08842298","imageIndex":4,"items":[{"name":"정태성닭발","tel":"031-653-9910","addr":"경기도 평택시 평택동 282-3번지 2층","indutype":"일반휴게음식 - 일반한식","category":"restaurant"}]},{"lat":"36.992827092","long":"127.08527804","imageIndex":4,"items":[{"name":"제일식당","tel":"031-654-3559","addr":"경기도 평택시 평택동 59-4 2층","indutype":"일반휴게음식 - 일반한식","category":"restaurant"}]},{"lat":"36.993714602","long":"127.09159216","imageIndex":4,"items":[{"name":"조이베이킹","tel":"031-655-1550","addr":"경기도 평택시 평택동 23-14번지 1층","indutype":"음식점 - 제과점","category":"restaurant"},{"name":"초원갈비","tel":"031-653-0022","addr":"경기도 평택시 평택동 23-14번지","indutype":"일반휴게음식 - 일반한식","category":"restaurant"}]},{"lat":"36.990908855","long":"127.08375952","imageIndex":4,"items":[{"name":"주)역전육회","tel":"031-652-4410","addr":"경기도 평택시 평택동 185-116번지","indutype":"음식점 - 한식","category":"restaurant"}]},{"lat":"36.993492279","long":"127.08755913","imageIndex":4,"items":[{"name":"준오뎅","tel":"031-618-2949","addr":"경기도 평택시 평택동 37-16번지","indutype":"일반휴게음식 - 일반한식","category":"restaurant"}]},{"lat":"36.988826542","long":"127.08498167","imageIndex":4,"items":[{"name":"줌마김밥","tel":"","addr":"경기도 평택시 평택동 181-1번지 1층","indutype":"일반휴게음식 - 스넥","category":"restaurant"}]},{"lat":"36.994521158","long":"127.08520123","imageIndex":4,"items":[{"name":"중국관","tel":"031-653-6288","addr":"경기도 평택시 평택동 70-12번지","indutype":"음식점 - 중식","category":"restaurant"},{"name":"중국관","tel":"031-656-7820","addr":"경기도 평택시 평택동 70-12번지","indutype":"일반휴게음식 - 중국식","category":"restaurant"}]},{"lat":"36.993887512","long":"127.08927828","imageIndex":4,"items":[{"name":"중화각","tel":"031-654-5665","addr":"경기도 평택시 평택동 33-11번지","indutype":"일반휴게음식 - 중국식","category":"restaurant"}]},{"lat":"36.994438873","long":"127.0868974","imageIndex":4,"items":[{"name":"쥬뚜숯불구이","tel":"031-505-7007","addr":"경기도 평택시 평택동 66-2번지","indutype":"일반휴게음식 - 일반한식","category":"restaurant"}]},{"lat":"36.99187938","long":"127.08753487","imageIndex":4,"items":[{"name":"짬뽕지존","tel":"031-653-5565","addr":"경기도 평택시 평택동 46-12번지","indutype":"음식점 - 중식","category":"restaurant"},{"name":"짬뽕지존평택점","tel":"031-653-6111","addr":"경기도 평택시 평택동 46-12번지","indutype":"일반휴게음식 - 중국식","category":"restaurant"}]},{"lat":"36.98954729","long":"127.08513971","imageIndex":4,"items":[{"name":"찌개와삼겹살이 맛있는집","tel":"031-651-4966","addr":"경기도 평택시 평택동 185-28번지","indutype":"일반휴게음식 - 일반한식","category":"restaurant"}]},{"lat":"36.993607448","long":"127.09027773","imageIndex":4,"items":[{"name":"착한양","tel":"031-618-1808","addr":"경기도 평택시 평택동 284-3번지","indutype":"일반휴게음식 - 일반한식","category":"restaurant"}]},{"lat":"36.988971653","long":"127.08361144","imageIndex":4,"items":[{"name":"참국시","tel":"031-654-3834","addr":"경기도 평택시 평택동 157-5번지 1층","indutype":"일반휴게음식 - 일반한식","category":"restaurant"}]},{"lat":"36.992439303","long":"127.08574941","imageIndex":4,"items":[{"name":"채박골육개달","tel":"031-654-3333","addr":"경기도 평택시 평택동 55-10번지 1층","indutype":"음식점 - 한식","category":"restaurant"},{"name":"채박골육개달","tel":"031-651-2269","addr":"경기도 평택시 평택동 55-10번지","indutype":"일반휴게음식 - 일반한식","category":"restaurant"}]},{"lat":"36.993462945","long":"127.0907269","imageIndex":4,"items":[{"name":"체리쉬(cherish)","tel":"031-657-1085","addr":"경기도 평택시 평택동 286-1번지 102,103호","indutype":"일반휴게음식 - 서양음식","category":"restaurant"}]},{"lat":"36.989439293","long":"127.08494863","imageIndex":4,"items":[{"name":"최강떡볶이","tel":"031-655-9928","addr":"경기도 평택시 평택동 185-198번지 1층","indutype":"일반휴게음식 - 스넥","category":"restaurant"}]},{"lat":"36.991247213","long":"127.08949995","imageIndex":4,"items":[{"name":"충만치킨","tel":"031-653-6423","addr":"경기도 평택시 평택동 293-2번지 2층","indutype":"일반휴게음식 - 스넥","category":"restaurant"}]},{"lat":"36.989160263","long":"127.08451026","imageIndex":4,"items":[{"name":"치청춘평택점","tel":"032-0000-0000","addr":"경기도 평택시 평택동 150번지 101호","indutype":"일반휴게음식 - 일반한식","category":"restaurant"}]},{"lat":"36.993049753","long":"127.08895157","imageIndex":4,"items":[{"name":"카페 404","tel":"","addr":"경기도 평택시 평택동 41-2번지 박애병원내 1층","indutype":"일반휴게음식 - 서양음식","category":"restaurant"}]},{"lat":"36.989657735","long":"127.08172505","imageIndex":4,"items":[{"name":"카페오레","tel":"031-652-7205","addr":"경기도 평택시 평택동 110-1번지 1층","indutype":"일반휴게음식 - 일반한식","category":"restaurant"}]},{"lat":"36.993851909","long":"127.08867164","imageIndex":4,"items":[{"name":"카페퍼즈/하이엔드플랜 주식회사","tel":"031-653-9969","addr":"경기도 평택시 평택동 34-10번지 1,2층","indutype":"일반휴게음식 - 서양음식","category":"restaurant"}]},{"lat":"36.989826947","long":"127.08466823","imageIndex":4,"items":[{"name":"커피베이","tel":"031-654-5312","addr":"경기도 평택시 평택동 185-629번지 1층","indutype":"일반휴게음식 - 서양음식","category":"restaurant"}]},{"lat":"36.990106826","long":"127.083871","imageIndex":4,"items":[{"name":"커피스퀘어","tel":"031-000-0000","addr":"경기도 평택시 평택동 164-2번지","indutype":"일반휴게음식 - 서양음식","category":"restaurant"}]},{"lat":"36.98924098","long":"127.08506075","imageIndex":4,"items":[{"name":"커피에반하다(원평로점)","tel":"","addr":"경기도 평택시 평택동 185-206번지 1층","indutype":"일반휴게음식 - 서양음식","category":"restaurant"}]},{"lat":"36.993330661","long":"127.08675015","imageIndex":4,"items":[{"name":"커피온","tel":"031-652-3536","addr":"경기도 평택시 평택동 65-23번지 부광빌딩","indutype":"일반휴게음식 - 서양음식","category":"restaurant"}]},{"lat":"36.994386285","long":"127.08478545","imageIndex":4,"items":[{"name":"커피콩샵","tel":"070-8821-3004","addr":"경기도 평택시 평택동 71-12번지","indutype":"일반휴게음식 - 서양음식","category":"restaurant"}]},{"lat":"36.991026543","long":"127.08295086","imageIndex":4,"items":[{"name":"케빈스커피하우스","tel":"031-654-3353","addr":"경기도 평택시 평택동 93-2번지","indutype":"일반휴게음식 - 서양음식","category":"restaurant"}]},{"lat":"36.993075627","long":"127.09053549","imageIndex":4,"items":[{"name":"쿄다이","tel":"031-652-7133","addr":"경기도 평택시 평택동 287-15번지","indutype":"일반휴게음식 - 일반한식","category":"restaurant"}]},{"lat":"36.990492425","long":"127.08655607","imageIndex":4,"items":[{"name":"쿠잉","tel":"031-655-1126","addr":"경기도 평택시 평택동 185-278번지 1층","indutype":"일반휴게음식 - 일반한식","category":"restaurant"}]},{"lat":"36.993411199","long":"127.08753657","imageIndex":4,"items":[{"name":"큰돌집","tel":"031-651-3359","addr":"경기도 평택시 평택동 37-25번지 1층","indutype":"일반휴게음식 - 일반한식","category":"restaurant"}]},{"lat":"36.991130799","long":"127.08850008","imageIndex":4,"items":[{"name":"큰맘할매순대국","tel":"031-655-4091","addr":"경기도 평택시 평택동 298-8번지","indutype":"일반휴게음식 - 일반한식","category":"restaurant"},{"name":"큰맘할매순대국(평택동)","tel":"031-657-6003","addr":"경기도 평택시 평택동 298-8번지","indutype":"음식점 - 한식","category":"restaurant"}]},{"lat":"36.992825311","long":"127.08780552","imageIndex":4,"items":[{"name":"키친이아","tel":"031-655-2594","addr":"경기도 평택시 평택동 44-13번지 1층","indutype":"일반휴게음식 - 서양음식","category":"restaurant"}]},{"lat":"36.992662756","long":"127.08831084","imageIndex":4,"items":[{"name":"탐앤탐스커피(평택역점)","tel":"031-653-0800","addr":"경기도 평택시 평택동 43-5번지 1층","indutype":"일반휴게음식 - 서양음식","category":"restaurant"}]},{"lat":"36.992610169","long":"127.08623263","imageIndex":4,"items":[{"name":"탕화쿵푸마라탕","tel":"","addr":"경기도 평택시 평택동 62-17번지 1층","indutype":"일반휴게음식 - 일반한식","category":"restaurant"}]},{"lat":"36.99060406","long":"127.08142274","imageIndex":4,"items":[{"name":"테이크하트","tel":"031-657-4117","addr":"경기도 평택시 평택동 103-3번지","indutype":"음식점 - 커피","category":"restaurant"},{"name":"테이크하트","tel":"","addr":"경기도 평택시 평택동 103-3번지 1층","indutype":"일반휴게음식 - 서양음식","category":"restaurant"}]},{"lat":"36.994628903","long":"127.08575179","imageIndex":4,"items":[{"name":"튀김방","tel":"","addr":"경기도 평택시 평택동 68-13번지 1층 102호","indutype":"일반휴게음식 - 일반한식","category":"restaurant"},{"name":"하하압목점","tel":"031-654-9562","addr":"경기도 평택시 평택동 68-13번지 1층","indutype":"일반휴게음식 - 일반한식","category":"restaurant"},{"name":"향교연운남쌀국수","tel":"070-4024-1227","addr":"경기도 평택시 평택동 68-13번지 1층 103호","indutype":"일반휴게음식 - 서양음식","category":"restaurant"}]},{"lat":"36.99266177","long":"127.08967006","imageIndex":4,"items":[{"name":"티바두마리치킨 평택1호점","tel":"031-655-7794","addr":"경기도 평택시 평택동 288-37번지","indutype":"일반휴게음식 - 일반한식","category":"restaurant"}]},{"lat":"36.989637645","long":"127.08478035","imageIndex":4,"items":[{"name":"파라디","tel":"031-651-1778","addr":"경기도 평택시 평택동 185-25번지 2층","indutype":"일반휴게음식 - 서양음식","category":"restaurant"},{"name":"파라디레스토랑","tel":"031-618-0049","addr":"경기도 평택시 평택동 185-25번지","indutype":"음식점 - 레스토랑","category":"restaurant"}]},{"lat":"36.991879444","long":"127.08744501","imageIndex":4,"items":[{"name":"파주옥","tel":"031-653-8192","addr":"경기도 평택시 평택동 46-13번지 1층","indutype":"음식점 - 한식","category":"restaurant"}]},{"lat":"36.988998325","long":"127.08413941","imageIndex":4,"items":[{"name":"팔육커피","tel":"","addr":"경기도 평택시 평택동 147-1번지","indutype":"일반휴게음식 - 서양음식","category":"restaurant"}]},{"lat":"36.993382239","long":"127.09019884","imageIndex":4,"items":[{"name":"퍼이쌀국수","tel":"031-618-5655","addr":"경기도 평택시 평택동 287번지 1층","indutype":"일반휴게음식 - 일반한식","category":"restaurant"},{"name":"퍼이쌀국수","tel":"031-656-3793","addr":"경기도 평택시 평택동 287번지","indutype":"음식점 - 한식","category":"restaurant"}]},{"lat":"36.991607296","long":"127.08997215","imageIndex":4,"items":[{"name":"평택맛찬들왕소금구이","tel":"","addr":"경기도 평택시 평택동 292-5번지 1층","indutype":"음식점 - 한식","category":"restaurant"},{"name":"평택맛찬들왕소금구이","tel":"031-653-9235","addr":"경기도 평택시 평택동 292-5번지 1층","indutype":"일반휴게음식 - 일반한식","category":"restaurant"}]},{"lat":"36.990879861","long":"127.0865902","imageIndex":4,"items":[{"name":"평택성수타손자장","tel":"031-655-8253","addr":"경기도 평택시 평택동 185-170번지 외1필지","indutype":"일반휴게음식 - 중국식","category":"restaurant"}]},{"lat":"36.994719182","long":"127.08550475","imageIndex":4,"items":[{"name":"평택왕족발","tel":"031-653-8833","addr":"경기도 평택시 평택동 69-3번지","indutype":"일반휴게음식 - 일반한식","category":"restaurant"}]},{"lat":"36.990133958","long":"127.083725","imageIndex":4,"items":[{"name":"평택육회","tel":"031-654-0745","addr":"경기도 평택시 평택동 164-1번지","indutype":"음식점 - 한식","category":"restaurant"},{"name":"평택육회","tel":"031-656-6412","addr":"경기도 평택시 평택동 164-1번지 1층","indutype":"일반휴게음식 - 일반한식","category":"restaurant"}]},{"lat":"36.994548322","long":"127.08501029","imageIndex":4,"items":[{"name":"평택주물럭식당","tel":"031-655-7375","addr":"경기도 평택시 평택동 70-21번지","indutype":"일반휴게음식 - 일반한식","category":"restaurant"},{"name":"평택주물럭식당","tel":"031-651-9392","addr":"경기도 평택시 평택동 70-21번지","indutype":"음식점 - 한식","category":"restaurant"}]},{"lat":"36.992382191","long":"127.09000674","imageIndex":4,"items":[{"name":"평택폐계닭","tel":"031-656-9564","addr":"경기도 평택시 평택동 288-34번지","indutype":"일반휴게음식 - 일반한식","category":"restaurant"}]},{"lat":"36.989935905","long":"127.0834552","imageIndex":4,"items":[{"name":"포도커피숍","tel":"","addr":"경기도 평택시 평택동 164-73번지 1층","indutype":"일반휴게음식 - 서양음식","category":"restaurant"}]},{"lat":"36.992131423","long":"127.08789461","imageIndex":4,"items":[{"name":"포차어게인 평택역점","tel":"031-654-3721","addr":"경기도 평택시 평택동 46-2번지","indutype":"일반휴게음식 - 주점","category":"restaurant"}]},{"lat":"36.992688233","long":"127.09044518","imageIndex":4,"items":[{"name":"포트오브모카평택점","tel":"031-616-7656","addr":"경기도 평택시 평택동 287-29번지","indutype":"일반휴게음식 - 일반한식","category":"restaurant"},{"name":"홍가불타는닭갈비","tel":"031-656-2599","addr":"경기도 평택시 평택동 287-29 외1필지 (1층)","indutype":"일반휴게음식 - 일반한식","category":"restaurant"},{"name":"홍가불타는닭갈비","tel":"031-692-1250","addr":"경기도 평택시 평택동 287-29번지","indutype":"음식점 - 한식","category":"restaurant"}]},{"lat":"36.988746324","long":"127.08370106","imageIndex":4,"items":[{"name":"피자스쿨평택원평점","tel":"031-652-3801","addr":"경기도 평택시 평택동 146-13번지 1층","indutype":"일반휴게음식 - 서양음식","category":"restaurant"},{"name":"피자스쿨평택원평점","tel":"031-651-1778","addr":"경기도 평택시 평택동 146-13번지 1층","indutype":"음식점 - 피자","category":"restaurant"}]},{"lat":"36.993935228","long":"127.0855376","imageIndex":4,"items":[{"name":"하노이쌀국수","tel":"070-8246-8005","addr":"경기도 평택시 평택동 64-28번지 2층","indutype":"일반휴게음식 - 서양음식","category":"restaurant"},{"name":"행운호프","tel":"","addr":"경기도 평택시 평택동 64-28번지 2층","indutype":"일반휴게음식 - 주점","category":"restaurant"}]},{"lat":"36.99488178","long":"127.08492078","imageIndex":4,"items":[{"name":"하룡양꼬치","tel":"031-618-9688","addr":"경기도 평택시 평택동 69-8번지","indutype":"일반휴게음식 - 서양음식","category":"restaurant"},{"name":"하룡양꼬치","tel":"031-655-3126","addr":"경기도 평택시 평택동 69-8번지","indutype":"음식점 - 중식","category":"restaurant"}]},{"lat":"36.992356392","long":"127.08831049","imageIndex":4,"items":[{"name":"하루네끼","tel":"031-618-3335","addr":"경기도 평택시 평택동 282-6번지 외2필지 2동","indutype":"일반휴게음식 - 일반한식","category":"restaurant"},{"name":"황금통닭","tel":"031-111-1111","addr":"경기도 평택시 평택동 282-6번지","indutype":"일반휴게음식 - 스넥","category":"restaurant"}]},{"lat":"36.99054972","long":"127.0818383","imageIndex":4,"items":[{"name":"하우드 수제돈까스","tel":"031-618-8778","addr":"경기도 평택시 평택동 89-27번지","indutype":"일반휴게음식 - 일반한식","category":"restaurant"}]},{"lat":"36.991996045","long":"127.08819776","imageIndex":4,"items":[{"name":"한스델리평택점","tel":"031-653-5212","addr":"경기도 평택시 평택동 48번지 외1필지 2층","indutype":"일반휴게음식 - 일반한식","category":"restaurant"}]},{"lat":"36.991743226","long":"127.0889164","imageIndex":4,"items":[{"name":"한신포차 평택역점","tel":"031-658-0410","addr":"경기도 평택시 평택동 291-9번지","indutype":"일반휴게음식 - 일반한식","category":"restaurant"}]},{"lat":"36.993105353","long":"127.08680607","imageIndex":4,"items":[{"name":"할리스커피","tel":"031-651-1223","addr":"경기도 평택시 평택동 65-10번지","indutype":"일반휴게음식 - 서양음식","category":"restaurant"}]},{"lat":"36.994691569","long":"127.086336","imageIndex":4,"items":[{"name":"할매순대국","tel":"031-657-5995","addr":"경기도 평택시 평택동 68-29번지 , 1,2층","indutype":"일반휴게음식 - 일반한식","category":"restaurant"}]},{"lat":"36.993022239","long":"127.0896143","imageIndex":4,"items":[{"name":"할머니손두부","tel":"031-692-0939","addr":"경기도 평택시 평택동 288-1번지","indutype":"일반휴게음식 - 일반한식","category":"restaurant"}]},{"lat":"36.992331097","long":"127.08586163","imageIndex":4,"items":[{"name":"핫오리","tel":"070-8623-5222","addr":"경기도 평택시 평택동 55-8번지 1층","indutype":"일반휴게음식 - 일반한식","category":"restaurant"}]},{"lat":"36.994908423","long":"127.08548249","imageIndex":4,"items":[{"name":"해남양꼬치","tel":"031-658-7787","addr":"경기도 평택시 평택동 69-24번지","indutype":"일반휴게음식 - 일반한식","category":"restaurant"}]},{"lat":"36.991130189","long":"127.08934256","imageIndex":4,"items":[{"name":"해도식당","tel":"031-691-1590","addr":"경기도 평택시 평택동 293-3번지 지하1층","indutype":"일반휴게음식 - 일반한식","category":"restaurant"}]},{"lat":"36.992913624","long":"127.09027694","imageIndex":4,"items":[{"name":"행복한밥집","tel":"031-655-2599","addr":"경기도 평택시 평택동 287-42번지 1층","indutype":"일반휴게음식 - 일반한식","category":"restaurant"}]},{"lat":"36.992077639","long":"127.08750139","imageIndex":4,"items":[{"name":"헤세드","tel":"031-654-7477","addr":"경기도 평택시 평택동 46-9번지","indutype":"일반휴게음식 - 서양음식","category":"restaurant"}]},{"lat":"36.988971385","long":"127.08400458","imageIndex":4,"items":[{"name":"호프데이","tel":"031-657-8707","addr":"경기도 평택시 평택동 147-2번지","indutype":"음식점 - 일반","category":"restaurant"},{"name":"호프데이","tel":"","addr":"경기도 평택시 평택동 147-2번지","indutype":"일반휴게음식 - 일반한식","category":"restaurant"}]},{"lat":"36.992276266","long":"127.08695119","imageIndex":4,"items":[{"name":"홍마반점0410평택역점","tel":"070-8861-0410","addr":"경기도 평택시 평택동 45-4번지","indutype":"일반휴게음식 - 중국식","category":"restaurant"}]},{"lat":"36.993301101","long":"127.09025492","imageIndex":4,"items":[{"name":"화로정","tel":"031-651-2333","addr":"경기도 평택시 평택동 287-6번지 1층","indutype":"일반휴게음식 - 일반한식","category":"restaurant"}]},{"lat":"36.994800005","long":"127.08589801","imageIndex":4,"items":[{"name":"훈춘대꼬치","tel":"031-691-5892","addr":"경기도 평택시 평택동 68-15번지","indutype":"일반휴게음식 - 일반한식","category":"restaurant"}]}]