[{"lat":"37.954349836","long":"127.24016054","imageIndex":4,"items":[{"name":"곰이 빠진탕","tel":"031-533-0208","addr":"경기도 포천시 신북면 만세교리 264-3번지","indutype":"일반휴게음식 - 일반한식","category":"restaurant"}]},{"lat":"37.958047174","long":"127.24284641","imageIndex":4,"items":[{"name":"만세식당","tel":"532-7227","addr":"경기도 포천시 신북면 만세교리 220번지","indutype":"음식 - 한식","category":"restaurant"},{"name":"만세식당","tel":"031-532-7227","addr":"경기도 포천시 신북면 만세교리 220번지","indutype":"일반휴게음식 - 일반한식","category":"restaurant"}]},{"lat":"37.964853757","long":"127.24932085","imageIndex":4,"items":[{"name":"만세치킨","tel":"031-534-5347","addr":"경기도 포천시 신북면 만세교리 48-2번지","indutype":"일반휴게음식 - 스넥","category":"restaurant"}]},{"lat":"37.951936596","long":"127.23954976","imageIndex":4,"items":[{"name":"목포가든","tel":"031-533-3309","addr":"경기도 포천시 신북면 만세교리 330번지","indutype":"일반휴게음식 - 일반한식","category":"restaurant"},{"name":"목포가든","tel":"533-3309","addr":"경기도 포천시 신북면 만세교리 330번지","indutype":"음식 - 한식","category":"restaurant"}]},{"lat":"37.950019039","long":"127.23884959","imageIndex":4,"items":[{"name":"무봉리토종순대국포천신북점","tel":"534-3357","addr":"경기도 포천시 신북면 만세교리 328-3번지 나동","indutype":"음식 - 한식","category":"restaurant"}]},{"lat":"37.949128839","long":"127.23799344","imageIndex":4,"items":[{"name":"솔로몬한식부페","tel":"031-532-5516","addr":"경기도 포천시 신북면 만세교리 326-3번지","indutype":"일반휴게음식 - 일반한식","category":"restaurant"}]},{"lat":"37.964494439","long":"127.24881894","imageIndex":4,"items":[{"name":"엄마손식당","tel":"031-543-2221","addr":"경기도 포천시 신북면 만세교리 45-6번지","indutype":"일반휴게음식 - 일반한식","category":"restaurant"}]},{"lat":"37.964074471","long":"127.24715612","imageIndex":4,"items":[{"name":"자유궁","tel":"031-542-8874","addr":"경기도 포천시 신북면 만세교리 47-14번지","indutype":"일반휴게음식 - 일반한식","category":"restaurant"}]},{"lat":"37.95893715","long":"127.24379375","imageIndex":4,"items":[{"name":"차이나","tel":"533-4293","addr":"경기도 포천시 신북면 만세교리 219-10번지","indutype":"음식 - 중식","category":"restaurant"}]},{"lat":"37.948768859","long":"127.23779888","imageIndex":4,"items":[{"name":"한방삼계탕","tel":"543-7507","addr":"경기도 포천시 신북면 만세교리 325번지","indutype":"음식 - 한식","category":"restaurant"},{"name":"한방삼계탕","tel":"031-543-7507","addr":"경기도 포천시 신북면 만세교리 325번지","indutype":"일반휴게음식 - 일반한식","category":"restaurant"}]}]