[{"lat":"37.220489974","long":"127.04605689","imageIndex":0,"items":[{"name":"(주)기산자동차서비스","tel":"031-223-1198","addr":"경기도 화성시 기산동 146-2번지","indutype":"자동차정비 유지 - 자동차정비","category":"car"}]},{"lat":"37.225156732","long":"127.04769336","imageIndex":0,"items":[{"name":"25시배터리","tel":"031-202-4649","addr":"경기도 화성시 기산동 222-2번지","indutype":"자동차정비 유지 - 자동차부품","category":"car"},{"name":"피크(peak)","tel":"031-222-0677","addr":"경기도 화성시 기산동 222-2번지 1층","indutype":"자동차정비 유지 - 자동차부품","category":"car"}]},{"lat":"37.220490295","long":"127.04516681","imageIndex":0,"items":[{"name":"건국오토","tel":"031-224-2973","addr":"경기도 화성시 기산동 296-2번지","indutype":"자동차정비 유지 - 자동차부품","category":"car"}]},{"lat":"37.22112982","long":"127.04575305","imageIndex":0,"items":[{"name":"그린모비스(주)","tel":"031-226-5788","addr":"경기도 화성시 기산동 288-3번지","indutype":"자동차정비 유지 - 자동차부품","category":"car"}]},{"lat":"37.21837959","long":"127.05113694","imageIndex":0,"items":[{"name":"네비마켓","tel":"031-222-3949","addr":"경기도 화성시 기산동 170-1번지","indutype":"자동차정비 유지 - 자동차부품","category":"car"},{"name":"네비마켓","tel":"031-222-4805","addr":"경기도 화성시 기산동 170-1번지","indutype":"자동차정비 유지 - 자동차부품","category":"car"}]},{"lat":"37.220192674","long":"127.04594406","imageIndex":0,"items":[{"name":"선진경정비카센타","tel":"031-235-9269","addr":"경기도 화성시 기산동 146-3번지","indutype":"자동차정비 유지 - 자동차정비","category":"car"}]},{"lat":"37.226106586","long":"127.03627967","imageIndex":0,"items":[{"name":"수원델코","tel":"031-203-1071","addr":"경기도 화성시 기산동 435-23번지 1층","indutype":"자동차정비 유지 - 자동차부품","category":"car"}]},{"lat":"37.227464078","long":"127.04581297","imageIndex":0,"items":[{"name":"시온핸디워크","tel":"","addr":"경기도 화성시 기산동 382-3번지 2동","indutype":"자동차정비 유지 - 자동차부품","category":"car"}]},{"lat":"37.215963309","long":"127.05469554","imageIndex":0,"items":[{"name":"에스에스원","tel":"031-232-6854","addr":"경기도 화성시 기산동 44-1번지 타이어프로","indutype":"자동차정비 유지 - 자동차정비","category":"car"}]},{"lat":"37.219018076","long":"127.05411176","imageIndex":0,"items":[{"name":"에스엠손세차","tel":"031-221-0951","addr":"경기도 화성시 기산동 13번지","indutype":"자동차정비 유지 - 세차장","category":"car"}]},{"lat":"37.227076493","long":"127.04619586","imageIndex":0,"items":[{"name":"자동차를좋아하는사람들","tel":"031-202-9876","addr":"경기도 화성시 기산동 461","indutype":"자동차정비 유지 - 자동차정비","category":"car"}]},{"lat":"37.224462573","long":"127.04863942","imageIndex":0,"items":[{"name":"주식회사윙윙시스템","tel":"02-1577-6975","addr":"경기도 화성시 기산동 220-3번지","indutype":"자동차판매 - 기타운송","category":"car"}]},{"lat":"37.224688535","long":"127.04678041","imageIndex":0,"items":[{"name":"한국타이어영통대리점","tel":"031-224-4984","addr":"경기도 화성시 기산동 247번지","indutype":"자동차정비 유지 - 자동차시트·타이어","category":"car"}]},{"lat":"37.223687468","long":"127.04919106","imageIndex":0,"items":[{"name":"한일에어쇼바","tel":"031-311-3341","addr":"경기도 화성시 기산동 212-14번지","indutype":"자동차정비 유지 - 자동차부품","category":"car"}]}]