[{"lat":"37.592058008","long":"127.13895829","imageIndex":16,"items":[{"name":"(주)고수수학","tel":"031-553-8816","addr":"경기도 구리시 수택동 847-4번지 동진타워 701호","indutype":"학원 - 보습학원","category":"study"},{"name":"맥스에듀학원","tel":"031-566-5565","addr":"경기도 구리시 수택동 847-4번지 동진타워 601호","indutype":"학원 - 보습학원","category":"study"},{"name":"수3큐이엠학원/(주)큐이엠","tel":"031-594-0579","addr":"경기도 구리시 수택동 847-4번지 동진타워 601호","indutype":"학원 - 보습학원","category":"study"},{"name":"씨앰에스수택영재관학원","tel":"031-553-8840","addr":"경기도 구리시 수택동 847-4번지 동진타워 501호","indutype":"학원 - 보습학원","category":"study"},{"name":"와이비엠잉글루구리수택제1학원","tel":"031-553-2965","addr":"경기도 구리시 수택동 847-4번지 동진타워 601호","indutype":"학원 - 보습학원","category":"study"},{"name":"잉글리쉬플레인영어학원","tel":"031-569-9913","addr":"경기도 구리시 수택동 847-4번지 동진타워 602호","indutype":"학원 - 외국어학원","category":"study"},{"name":"토피아어학원","tel":"031-564-0005","addr":"경기도 구리시 수택동 847-4번지 동진타워 701,702호","indutype":"회원제형태 - 학원","category":"study"}]},{"lat":"37.591282173","long":"127.1398174","imageIndex":16,"items":[{"name":"(주)구리정상어학원","tel":"031-555-5515","addr":"경기도 구리시 수택동 849-9번지","indutype":"회원제형태 - 학원","category":"study"},{"name":"구리정상어학원","tel":"031-555-5515","addr":"경기도 구리시 수택동 849-9번지 3층","indutype":"회원제형태 - 학원","category":"study"},{"name":"작심독서실","tel":"031-557-0910","addr":"경기도 구리시 수택동 849-9번지 4층 일부","indutype":"학원 - 독서실","category":"study"}]},{"lat":"37.600558799","long":"127.14275598","imageIndex":16,"items":[{"name":"(주)새이레","tel":"031-568-6767","addr":"경기도 구리시 수택동 526-28번지 3층","indutype":"회원제형태 - 학원","category":"study"}]},{"lat":"37.592003505","long":"127.13934316","imageIndex":16,"items":[{"name":"(주)스터디브로","tel":"031-512-8865","addr":"경기도 구리시 수택동 850번지 청림빌딩 401호","indutype":"학원 - 컴퓨터학원","category":"study"},{"name":"문수학학원","tel":"031-566-6427","addr":"경기도 구리시 수택동 850번지 청림빌딩 202호","indutype":"학원 - 보습학원","category":"study"},{"name":"주식회사스카이시드","tel":"070-7004-8855","addr":"경기도 구리시 수택동 850번지 청림빌딩 402호","indutype":"학원 - 보습학원","category":"study"},{"name":"트리플에이영어학원","tel":"","addr":"경기도 구리시 수택동 850번지 청림빌딩 5층 501호 일부","indutype":"학원 - 외국어학원","category":"study"},{"name":"해법중국어 강동지사","tel":"031-563-8870","addr":"경기도 구리시 수택동 850번지 청림빌딩 5층","indutype":"회원제형태 - 학원","category":"study"}]},{"lat":"37.591282436","long":"127.13959094","imageIndex":16,"items":[{"name":"(주)큐이엠 수택큐이엠학원","tel":"031-558-0579","addr":"경기도 구리시 수택동 849-10번지 명진빌딩 4층","indutype":"학원 - 보습학원","category":"study"},{"name":"자인학원","tel":"031-554-2468","addr":"경기도 구리시 수택동 849-10번지 명진빌딩 2층 4층","indutype":"학원 - 보습학원","category":"study"},{"name":"제우스학원","tel":"031-552-6032","addr":"경기도 구리시 수택동 849-10번지 명진빌딩 3층 301호","indutype":"회원제형태 - 학원","category":"study"}]},{"lat":"37.592085428","long":"127.13861866","imageIndex":16,"items":[{"name":"(주)현앤장","tel":"031-515-7115","addr":"경기도 구리시 수택동 847-2번지 202호~203호","indutype":"학원 - 보습학원","category":"study"}]},{"lat":"37.58675965","long":"127.13948078","imageIndex":16,"items":[{"name":"1318토평영어학원","tel":"031-551-1318","addr":"경기도 구리시 수택동 875-3번지 해웅빌딩 4층","indutype":"학원 - 외국어학원","category":"study"},{"name":"마마몽떼","tel":"","addr":"경기도 구리시 수택동 875-3번지 해웅빌딩 3층","indutype":"학원 - 기타 교육기관","category":"study"},{"name":"유투잉글리쉬토평학원","tel":"031-0000-0000","addr":"경기도 구리시 수택동 875-3번지 해웅빌딩 4층","indutype":"학원 - 보습학원","category":"study"},{"name":"제임스영어학원","tel":"031-565-2053","addr":"경기도 구리시 수택동 875-3번지 해웅빌딩 3층","indutype":"학원 - 외국어학원","category":"study"}]},{"lat":"37.587201547","long":"127.13911928","imageIndex":16,"items":[{"name":"BIC실용음악학원","tel":"031-567-5679","addr":"경기도 구리시 수택동 874-2번지 연성빌딩 4층","indutype":"회원제형태 - 학원","category":"study"},{"name":"수학사랑학원","tel":"031-562-9900","addr":"경기도 구리시 수택동 874-2번지 5층 일부","indutype":"학원 - 보습학원","category":"study"},{"name":"쿠도스고등영어학원","tel":"031-551-1523","addr":"경기도 구리시 수택동 874-2번지 2층","indutype":"학원 - 보습학원","category":"study"}]},{"lat":"37.592036305","long":"127.14211729","imageIndex":16,"items":[{"name":"C&C미술학원","tel":"031-568-6220","addr":"경기도 구리시 수택동 449-14번지 해원빌딩 302호","indutype":"학원 - 예·체능계학원","category":"study"},{"name":"본수학학원","tel":"070-8816-6636","addr":"경기도 구리시 수택동 449-14번지 해원빌딩 303호","indutype":"학원 - 보습학원","category":"study"},{"name":"한수학학원","tel":"070-4922-2356","addr":"경기도 구리시 수택동 449-14번지 해원빌딩 303호","indutype":"학원 - 보습학원","category":"study"}]},{"lat":"37.591506838","long":"127.140316","imageIndex":16,"items":[{"name":"CSE천하과학전문학원","tel":"031-000-0000","addr":"경기도 구리시 수택동 849-4번지 5층","indutype":"학원 - 보습학원","category":"study"},{"name":"이에스티어학원","tel":"031-567-1256","addr":"경기도 구리시 수택동 849-4번지 2층","indutype":"학원 - 보습학원","category":"study"},{"name":"이투스수학학원","tel":"031-567-1256","addr":"경기도 구리시 수택동 849-4번지","indutype":"학원 - 보습학원","category":"study"},{"name":"토마스 국제어학원","tel":"031-554-0598","addr":"경기도 구리시 수택동 849-4번지 4층","indutype":"학원 - 외국어학원","category":"study"}]},{"lat":"37.586562973","long":"127.13814444","imageIndex":16,"items":[{"name":"EM영수전문학원","tel":"031-554-2052","addr":"경기도 구리시 수택동 873-6번지 금호프라자 501동 502호","indutype":"회원제형태 - 학원","category":"study"},{"name":"가우스수학학원","tel":"031-551-4240","addr":"경기도 구리시 수택동 873-6번지 금호프라자 203호","indutype":"학원 - 보습학원","category":"study"},{"name":"금세안미술교습소","tel":"031-563-7900","addr":"경기도 구리시 수택동 873-6번지 금호프라자 202호","indutype":"학원 - 예·체능계학원","category":"study"},{"name":"꿈을그리는나무미술교습소","tel":"031-111-1111","addr":"경기도 구리시 수택동 873-6번지 금호프라자 503호","indutype":"학원 - 예·체능계학원","category":"study"},{"name":"보승학원","tel":"031-567-1318","addr":"경기도 구리시 수택동 873-6번지 외1필지 금호프라자 302호","indutype":"학원 - 보습학원","category":"study"},{"name":"신동 줄넘기 점프클럽","tel":"031-555-3325","addr":"경기도 구리시 수택동 873-6번지 금호프라자 404호","indutype":"학원 - 예·체능계학원","category":"study"},{"name":"아르케수학학원","tel":"","addr":"경기도 구리시 수택동 873-6번지 금호프라자 4층 401호","indutype":"학원 - 보습학원","category":"study"},{"name":"용인대 천일 태권도장","tel":"031-557-7933","addr":"경기도 구리시 수택동 873-6번지 금호프라자 403호","indutype":"회원제형태 - 학원","category":"study"},{"name":"주식회사 늘꿈","tel":"","addr":"경기도 구리시 수택동 873-6번지 금호프라자 301호","indutype":"학원 - 기타 교육기관","category":"study"},{"name":"한우리독서토론논술","tel":"031-696-5047","addr":"경기도 구리시 수택동 873-6번지 금호프라자 4층 402-3호","indutype":"학원 - 보습학원","category":"study"}]},{"lat":"37.58705851","long":"127.13814533","imageIndex":16,"items":[{"name":"E솔루션학원","tel":"031-557-6681","addr":"경기도 구리시 수택동 873-9번지 외1필지 고덕프라자 501호","indutype":"회원제형태 - 학원","category":"study"},{"name":"리딩잇츠어학원","tel":"031-567-2100","addr":"경기도 구리시 수택동 873-9번지 고덕프라자 201호","indutype":"학원 - 외국어학원","category":"study"},{"name":"빈팩토리바리스타학원","tel":"031-562-2852","addr":"경기도 구리시 수택동 873-9번지 고덕프라자 201호","indutype":"회원제형태 - 학원","category":"study"},{"name":"아마빌레음악학원","tel":"031-555-3333","addr":"경기도 구리시 수택동 873-9번지 고덕프라자","indutype":"학원 - 예·체능계학원","category":"study"},{"name":"튼튼영어 베이비리그 구리남양주남부센터","tel":"031-557-0911","addr":"경기도 구리시 수택동 873-9번지 고덕프라자 5층 501호","indutype":"학원 - 학습지 교육","category":"study"},{"name":"하오북경중국어학원","tel":"031-512-7060","addr":"경기도 구리시 수택동 873-9번지 고덕프라자 4층 401호","indutype":"회원제형태 - 학원","category":"study"}]},{"lat":"37.59731179","long":"127.14567137","imageIndex":16,"items":[{"name":"GGEC학원","tel":"031-515-3209","addr":"경기도 구리시 수택동 507-18번지 3층","indutype":"학원 - 보습학원","category":"study"}]},{"lat":"37.592116603","long":"127.14278548","imageIndex":16,"items":[{"name":"H2스포츠클럽","tel":"","addr":"경기도 구리시 수택동 656-2번지 2층","indutype":"학원 - 기타 교육기관","category":"study"}]},{"lat":"37.597864547","long":"127.14303403","imageIndex":16,"items":[{"name":"MBC아카데미뷰티미용학원","tel":"031-562-7779","addr":"경기도 구리시 수택동 424-28번지 현주Ifriend빌딩 11층","indutype":"회원제형태 - 학원","category":"study"}]},{"lat":"37.592142379","long":"127.14383854","imageIndex":16,"items":[{"name":"OK셈학원","tel":"031-515-6608","addr":"경기도 구리시 수택동 652-8번지","indutype":"학원 - 보습학원","category":"study"}]},{"lat":"37.59953217","long":"127.14234641","imageIndex":16,"items":[{"name":"S.B연기입시학원","tel":"070-7458-1686","addr":"경기도 구리시 수택동 524번지 삼화빌딩 4층","indutype":"회원제형태 - 학원","category":"study"}]},{"lat":"37.5918143","long":"127.13934282","imageIndex":16,"items":[{"name":"TMA실용음악학원","tel":"031-551-6090","addr":"경기도 구리시 수택동 850-8번지 5층 일부","indutype":"학원 - 예·체능계학원","category":"study"},{"name":"피티엠 수학학원","tel":"031-555-0969","addr":"경기도 구리시 수택동 850-8번지 3층","indutype":"학원 - 보습학원","category":"study"}]},{"lat":"37.586589","long":"127.13901627","imageIndex":16,"items":[{"name":"TM분석수학학원","tel":"031-564-1318","addr":"경기도 구리시 수택동 875-5번지 새롬프라자11차 3층 302호","indutype":"학원 - 보습학원","category":"study"},{"name":"에듀모아학원","tel":"031-567-5677","addr":"경기도 구리시 수택동 875-5번지 새롬프라자11차 202호","indutype":"학원 - 보습학원","category":"study"},{"name":"장자탁구클럽","tel":"031-565-3647","addr":"경기도 구리시 수택동 875-5번지 새롬프라자11차 402호","indutype":"학원 - 예·체능계학원","category":"study"}]},{"lat":"37.596230879","long":"127.14545416","imageIndex":16,"items":[{"name":"TOP스포츠","tel":"031-565-0336","addr":"경기도 구리시 수택동 488-4번지 지층","indutype":"학원 - 예·체능계학원","category":"study"},{"name":"하나고시원","tel":"031-552-5226","addr":"경기도 구리시 수택동 488-4번지 2층","indutype":"학원 - 독서실","category":"study"}]},{"lat":"37.587030583","long":"127.1389265","imageIndex":16,"items":[{"name":"강정아수학교습소","tel":"031-565-0050","addr":"경기도 구리시 수택동 874-10번지 태원빌딩 2층 일부호","indutype":"학원 - 보습학원","category":"study"},{"name":"문영영어학원","tel":"02-3285-0501","addr":"경기도 구리시 수택동 874-10번지 태원빌딩 3층 일부","indutype":"학원 - 보습학원","category":"study"},{"name":"세종이도국어교습소","tel":"031-556-8001","addr":"경기도 구리시 수택동 874-10번지 태원빌딩 3층","indutype":"학원 - 보습학원","category":"study"},{"name":"엠베스트SE 구리토평학원","tel":"031-568-0101","addr":"경기도 구리시 수택동 874-10번지 태원빌딩 3층 일부","indutype":"학원 - 보습학원","category":"study"},{"name":"카이로스수학교습소","tel":"031-568-5878","addr":"경기도 구리시 수택동 874-10번지 태원빌딩 4층 일부","indutype":"학원 - 보습학원","category":"study"},{"name":"프라임클래스학원","tel":"031-556-7580","addr":"경기도 구리시 수택동 874-10번지 태원빌딩 5층","indutype":"회원제형태 - 학원","category":"study"}]},{"lat":"37.591507417","long":"127.13981781","imageIndex":16,"items":[{"name":"강한영어학원","tel":"031-563-3777","addr":"경기도 구리시 수택동 849-2번지 골드프라자 4층 401호","indutype":"학원 - 보습학원","category":"study"},{"name":"리치컴퓨터학원","tel":"031-565-7755","addr":"경기도 구리시 수택동 849-2번지 502호505호","indutype":"학원 - 컴퓨터학원","category":"study"},{"name":"민쌤영어학원","tel":"031-554-2495","addr":"경기도 구리시 수택동 849-2번지 4층 일부","indutype":"학원 - 외국어학원","category":"study"},{"name":"민쌤영어학원","tel":"031-554-2495","addr":"경기도 구리시 수택동 849-2번지 4층 일부","indutype":"학원 - 외국어학원","category":"study"},{"name":"스탠다드하이학원","tel":"031-551-8638","addr":"경기도 구리시 수택동 849-2번지 3층","indutype":"학원 - 보습학원","category":"study"},{"name":"활기도교실","tel":"031-554-3836","addr":"경기도 구리시 수택동 849-2번지 골드프라자 3층","indutype":"회원제형태 - 학원","category":"study"}]},{"lat":"37.595727464","long":"127.14451337","imageIndex":16,"items":[{"name":"경희대태권도","tel":"031-569-1357","addr":"경기도 구리시 수택동 480-3번지","indutype":"회원제형태 - 학원","category":"study"},{"name":"명문필학원","tel":"031-569-7531","addr":"경기도 구리시 수택동 480-3번지 3층","indutype":"학원 - 보습학원","category":"study"}]},{"lat":"37.59247761","long":"127.1422653","imageIndex":16,"items":[{"name":"경희삼성태권도","tel":"031-568-9080","addr":"경기도 구리시 수택동 449-31번지","indutype":"학원 - 예·체능계학원","category":"study"},{"name":"해법프라임학원","tel":"031-556-0588","addr":"경기도 구리시 수택동 449-31번지 2층","indutype":"회원제형태 - 학원","category":"study"}]},{"lat":"37.591391768","long":"127.13853814","imageIndex":16,"items":[{"name":"고구려역사저널","tel":"031-569-2281","addr":"경기도 구리시 수택동 848번지 행정복지센터 509호","indutype":"회원제형태 - 학원","category":"study"},{"name":"구리지역사회교육협의회","tel":"031-567-8377","addr":"경기도 구리시 수택동 848번지 구리행정복지센터 6층","indutype":"학원 - 기타 교육기관","category":"study"},{"name":"사단법인구리시새마을회","tel":"031-551-2900","addr":"경기도 구리시 수택동 848번지 4층","indutype":"학원 - 기타 교육기관","category":"study"},{"name":"스터디클럽독서실","tel":"031-557-1006","addr":"경기도 구리시 수택동 848번지 4층","indutype":"학원 - 독서실","category":"study"}]},{"lat":"37.600559682","long":"127.1420086","imageIndex":16,"items":[{"name":"구리SBS아카데미 미용학원","tel":"031-555-9292","addr":"경기도 구리시 수택동 526-3번지 우진빌딩 3층 일부","indutype":"학원 - 기능학원","category":"study"},{"name":"이르키움 독학재수관리학원","tel":"031-566-2675","addr":"경기도 구리시 수택동 526-3번지 일부층우진빌딩 2동","indutype":"학원 - 보습학원","category":"study"}]},{"lat":"37.588452263","long":"127.14053683","imageIndex":16,"items":[{"name":"구리고등학교","tel":"031-556-3951","addr":"경기도 구리시 수택동 785번지 구리고등학교","indutype":"학원 - 초중고교육기관","category":"study"}]},{"lat":"37.587030361","long":"127.13911897","imageIndex":16,"items":[{"name":"구리레고어학원","tel":"031-566-7888","addr":"경기도 구리시 수택동 874-9번지 정우빌딩 5층","indutype":"회원제형태 - 학원","category":"study"},{"name":"동숭학원","tel":"031-568-0474","addr":"경기도 구리시 수택동 874-9번지 정우빌딩 3층","indutype":"회원제형태 - 학원","category":"study"},{"name":"디아이댄스학원","tel":"031-555-8383","addr":"경기도 구리시 수택동 874-9번지 정우빌딩 4층","indutype":"학원 - 예·체능계학원","category":"study"}]},{"lat":"37.591619312","long":"127.14425649","imageIndex":16,"items":[{"name":"구리서강에스엘피어학원","tel":"031-552-1230","addr":"경기도 구리시 수택동 660-16번지 송림빌딩 6층","indutype":"학원 - 외국어학원","category":"study"}]},{"lat":"37.600223977","long":"127.13623277","imageIndex":16,"items":[{"name":"구리소미창조의아침미술학원","tel":"031-566-7744","addr":"경기도 구리시 수택동 370번지 은산빌딩 2층","indutype":"학원 - 예·체능계학원","category":"study"}]},{"lat":"37.601175667","long":"127.14675454","imageIndex":16,"items":[{"name":"구리수택남양점해법수학교습소","tel":"031-512-3844","addr":"경기도 구리시 수택동 554-11번지 일부 1층","indutype":"회원제형태 - 학원","category":"study"}]},{"lat":"37.587038598","long":"127.13978698","imageIndex":16,"items":[{"name":"구리수택유투엠학원","tel":"031-568-8209","addr":"경기도 구리시 수택동 874-6번지 스페이스빌딩 4,5층","indutype":"학원 - 보습학원","category":"study"},{"name":"놀작마이아트와쿠와쿠미술학원","tel":"031-562-1222","addr":"경기도 구리시 수택동 874-6번지 스페이스빌딩 3층","indutype":"학원 - 예·체능계학원","category":"study"}]},{"lat":"37.59181288","long":"127.14056566","imageIndex":16,"items":[{"name":"구리숙명무용학원","tel":"031-557-9565","addr":"경기도 구리시 수택동 850-4번지 402호","indutype":"학원 - 예·체능계학원","category":"study"},{"name":"책과 그림숲","tel":"031-566-8930","addr":"경기도 구리시 수택동 850-4번지 4층","indutype":"학원 - 기타 교육기관","category":"study"}]},{"lat":"37.59792579","long":"127.14456283","imageIndex":16,"items":[{"name":"구리쉐르빌","tel":"031-551-9511","addr":"경기도 구리시 수택동 512-12번지","indutype":"학원 - 독서실","category":"study"},{"name":"아띠어린이집[아이행복]","tel":"031-566-7017","addr":"경기도 구리시 수택동 512-12번지","indutype":"학원 - 유아원","category":"study"},{"name":"용인대서울태권도장","tel":"031-569-6408","addr":"경기도 구리시 수택동 512-12번지 3층","indutype":"회원제형태 - 학원","category":"study"}]},{"lat":"37.591451974","long":"127.14100658","imageIndex":16,"items":[{"name":"구리시장애인종합복지관","tel":"031-562-0068","addr":"경기도 구리시 수택동 851-1번지 구리시장애인종합복지관","indutype":"학원 - 기타 교육기관","category":"study"}]},{"lat":"37.592621404","long":"127.14257129","imageIndex":16,"items":[{"name":"구리아이러브피아노","tel":"031-556-7669","addr":"경기도 구리시 수택동 453번지 2층 일부","indutype":"학원 - 예·체능계학원","category":"study"},{"name":"에이에스이어학원","tel":"031-522-5512","addr":"경기도 구리시 수택동 453번지 3층 일부","indutype":"학원 - 외국어학원","category":"study"}]},{"lat":"37.58722941","long":"127.13839473","imageIndex":16,"items":[{"name":"구리요미요미미술학원","tel":"031-551-4272","addr":"경기도 구리시 수택동 873-1번지 미림프라자 404호","indutype":"학원 - 예·체능계학원","category":"study"},{"name":"볼쇼이B&G","tel":"031-555-5747","addr":"경기도 구리시 수택동 873-1번지 외1필지 미림프라자 404호","indutype":"학원 - 예·체능계학원","category":"study"},{"name":"수학의일꾼들학원","tel":"031-565-1441","addr":"경기도 구리시 수택동 873-1번지 미림프라자 502호","indutype":"학원 - 보습학원","category":"study"},{"name":"제니스영어교습소","tel":"031-974-6296","addr":"경기도 구리시 수택동 873-1번지 미림프라자 305호","indutype":"회원제형태 - 학원","category":"study"},{"name":"최명훈 9단 바둑학원","tel":"031-514-3366","addr":"경기도 구리시 수택동 873-1번지 미림프라자 501호 일부, 502호 일부","indutype":"학원 - 기타 교육기관","category":"study"},{"name":"클루영어학원","tel":"031-565-5208","addr":"경기도 구리시 수택동 873-1번지 미림프라자 502호","indutype":"학원 - 보습학원","category":"study"},{"name":"키나쿠미미술학원","tel":"031-558-5559","addr":"경기도 구리시 수택동 873-1번지 미림프라자 404호","indutype":"학원 - 예·체능계학원","category":"study"}]},{"lat":"37.591480229","long":"127.14750582","imageIndex":16,"items":[{"name":"구리유도체육관","tel":"031-551-1650","addr":"경기도 구리시 수택동 684-9지하1층","indutype":"학원 - 예·체능계학원","category":"study"}]},{"lat":"37.58672485","long":"127.13840513","imageIndex":16,"items":[{"name":"구리제1차일드유어학원","tel":"031-555-3252","addr":"경기도 구리시 수택동 873-4번지 대림프라자 4층","indutype":"회원제형태 - 학원","category":"study"},{"name":"애플씨드영어교습소","tel":"031-555-1205","addr":"경기도 구리시 수택동 873-4번지 대림프라자 3층","indutype":"회원제형태 - 학원","category":"study"},{"name":"이엘음악학원","tel":"031-558-2008","addr":"경기도 구리시 수택동 873-4번지 대림빌딩3층일부","indutype":"학원 - 예·체능계학원","category":"study"},{"name":"합기도검무관성운도장","tel":"031-562-9927","addr":"경기도 구리시 수택동 873-4번지 대림프라자 5층","indutype":"회원제형태 - 학원","category":"study"}]},{"lat":"37.595338448","long":"127.14583745","imageIndex":16,"items":[{"name":"구리줄리어드음악학원","tel":"031-567-3323","addr":"경기도 구리시 수택동 479-27번지 2층","indutype":"학원 - 예·체능계학원","category":"study"},{"name":"피플평생교육원주식회사","tel":"031-569-0234","addr":"경기도 구리시 수택동 479-27번지 3층","indutype":"회원제형태 - 학원","category":"study"}]},{"lat":"37.589505599","long":"127.14122943","imageIndex":16,"items":[{"name":"구리중학교","tel":"031-551-4191","addr":"경기도 구리시 수택동 784번지 구리중학교","indutype":"학원 - 초중고교육기관","category":"study"}]},{"lat":"37.586760486","long":"127.13875618","imageIndex":16,"items":[{"name":"구리차수학학원","tel":"031-552-5312","addr":"경기도 구리시 수택동 875번지 금호프라자2차 402호 일부 403호전체","indutype":"학원 - 보습학원","category":"study"},{"name":"국빈수학교습소","tel":"031-565-5625","addr":"경기도 구리시 수택동 875번지 금호프라자2차401호~402호 401호","indutype":"회원제형태 - 학원","category":"study"},{"name":"책바라기독서토론논술학원","tel":"031-551-8898","addr":"경기도 구리시 수택동 875번지 금호프라자2 201호","indutype":"회원제형태 - 학원","category":"study"}]},{"lat":"37.600814086","long":"127.14772771","imageIndex":16,"items":[{"name":"구리초등학교","tel":"","addr":"경기도 구리시 수택동 553번지 구리초등학교","indutype":"학원 - 초중고교육기관","category":"study"},{"name":"구리초등학교병설유치원[아이행복]","tel":"031-555-7374","addr":"경기도 구리시 수택동 553번지 구리초등학교","indutype":"학원 - 유치원","category":"study"}]},{"lat":"37.591864289","long":"127.14281897","imageIndex":16,"items":[{"name":"국제태권도장","tel":"031-555-3663","addr":"경기도 구리시 수택동 657번지 4층","indutype":"학원 - 예·체능계학원","category":"study"},{"name":"윤선생영어교실","tel":"031-565-0501","addr":"경기도 구리시 수택동 657번지 외1필지 강학빌딩","indutype":"학원 - 학습지 교육","category":"study"}]},{"lat":"37.597171908","long":"127.14209288","imageIndex":16,"items":[{"name":"기쁨원룸텔","tel":"031-563-6333","addr":"경기도 구리시 수택동 433-49번지","indutype":"학원 - 독서실","category":"study"}]},{"lat":"37.598507567","long":"127.14020432","imageIndex":16,"items":[{"name":"김정남 댄스스포츠","tel":"070-8888-4653","addr":"경기도 구리시 수택동 418-11번지 4층","indutype":"학원 - 예·체능계학원","category":"study"}]},{"lat":"37.591898778","long":"127.14412114","imageIndex":16,"items":[{"name":"꼬마숲어린이집[아이행복]","tel":"031-552-9290","addr":"경기도 구리시 수택동 660-4번지","indutype":"학원 - 유아원","category":"study"}]},{"lat":"37.598230475","long":"127.13829011","imageIndex":16,"items":[{"name":"꿈나라어린이집[아이행복]","tel":"031-562-6427","addr":"경기도 구리시 수택동 380-12번지","indutype":"학원 - 유아원","category":"study"}]},{"lat":"37.596308305","long":"127.148455","imageIndex":16,"items":[{"name":"나눔애어린이집[아이행복]","tel":"031-567-5515","addr":"경기도 구리시 수택동 495-4번지 3층","indutype":"학원 - 유아원","category":"study"}]},{"lat":"37.596339937","long":"127.14467306","imageIndex":16,"items":[{"name":"나눔어린이집[아이행복]","tel":"031-553-6832","addr":"경기도 구리시 수택동 487-13번지 2층","indutype":"학원 - 유아원","category":"study"}]},{"lat":"37.599947124","long":"127.149368","imageIndex":16,"items":[{"name":"남양아이꿈어린이집[아이행복]","tel":"031-564-2255","addr":"경기도 구리시 수택동 550번지 남양아이-좋은집 상가201","indutype":"학원 - 유아원","category":"study"}]},{"lat":"37.591507128","long":"127.14006691","imageIndex":16,"items":[{"name":"뉴스터디학원","tel":"031-551-3332","addr":"경기도 구리시 수택동 849-3번지 2층","indutype":"학원 - 보습학원","category":"study"},{"name":"티스터디학원","tel":"031-551-3331","addr":"경기도 구리시 수택동 849-3번지 3층","indutype":"학원 - 보습학원","category":"study"}]},{"lat":"37.600130674","long":"127.14663929","imageIndex":16,"items":[{"name":"늘푸른어린이집[아이행복]","tel":"031-562-7719","addr":"경기도 구리시 수택동 542번지 수택동금호어울림 102동 102호","indutype":"학원 - 유아원","category":"study"}]},{"lat":"37.601644986","long":"127.14608732","imageIndex":16,"items":[{"name":"대건합기도","tel":"031-569-7990","addr":"경기도 구리시 수택동 537-8번지 2층","indutype":"학원 - 예·체능계학원","category":"study"}]},{"lat":"37.591282724","long":"127.13934185","imageIndex":16,"items":[{"name":"대성전문가학원","tel":"031-563-2121","addr":"경기도 구리시 수택동 849-11번지 삼화빌딩 4층","indutype":"학원 - 보습학원","category":"study"},{"name":"더블유 바이 써니","tel":"031-565-0597","addr":"경기도 구리시 수택동 849-11번지 삼화빌딩 4층","indutype":"학원 - 보습학원","category":"study"},{"name":"더블유바이써니","tel":"031-565-0597","addr":"경기도 구리시 수택동 849-11번지 삼화빌딩 4층","indutype":"학원 - 보습학원","category":"study"},{"name":"쇼팽의피아노학원","tel":"031-565-6667","addr":"경기도 구리시 수택동 849-11번지 삼회빌딩 2층 일부","indutype":"학원 - 예·체능계학원","category":"study"},{"name":"에스코트어학원","tel":"031-569-2588","addr":"경기도 구리시 수택동 849-11번지 1(6층일부)","indutype":"학원 - 보습학원","category":"study"},{"name":"영광태권도장","tel":"031-566-5587","addr":"경기도 구리시 수택동 849-11번지 삼화빌딩 2층","indutype":"학원 - 예·체능계학원","category":"study"},{"name":"형윤교육(주)","tel":"031-565-9407","addr":"경기도 구리시 수택동 849-11번지 삼화빌딩 5층","indutype":"회원제형태 - 학원","category":"study"}]},{"lat":"37.595979411","long":"127.14478561","imageIndex":16,"items":[{"name":"대원합기도&H2유소년스포츠클럽","tel":"031-565-3341","addr":"경기도 구리시 수택동 480번지 2층","indutype":"학원 - 예·체능계학원","category":"study"}]},{"lat":"37.598974032","long":"127.14194903","imageIndex":16,"items":[{"name":"돌다리 어린이집","tel":"031-554-9126","addr":"경기도 구리시 수택동 423-10번지","indutype":"학원 - 유아원","category":"study"},{"name":"돌다리어린이집[아이행복]","tel":"031-554-9126","addr":"경기도 구리시 수택동 423-10번지 돌다리교회","indutype":"학원 - 유아원","category":"study"}]},{"lat":"37.586759937","long":"127.1392317","imageIndex":16,"items":[{"name":"딥매쓰장자학원","tel":"070-4419-0988","addr":"경기도 구리시 수택동 875-2번지 그린빌딩 4층 401호 402호","indutype":"학원 - 보습학원","category":"study"},{"name":"지니영어학원","tel":"031-558-3035","addr":"경기도 구리시 수택동 875-2번지 그린빌딩 403호","indutype":"회원제형태 - 학원","category":"study"}]},{"lat":"37.600806364","long":"127.14667456","imageIndex":16,"items":[{"name":"라온음악학원","tel":"031-554-7949","addr":"경기도 구리시 수택동 541-9번지 3층","indutype":"학원 - 예·체능계학원","category":"study"},{"name":"뻔뻔한 영어교습소","tel":"","addr":"경기도 구리시 수택동 541-9번지","indutype":"학원 - 외국어학원","category":"study"}]},{"lat":"37.59877908","long":"127.13915171","imageIndex":16,"items":[{"name":"라이온스체육관","tel":"031-563-7017","addr":"경기도 구리시 수택동 381-19번지","indutype":"학원 - 예·체능계학원","category":"study"}]},{"lat":"37.592086026","long":"127.13809782","imageIndex":16,"items":[{"name":"레벨업학원","tel":"031-569-3005","addr":"경기도 구리시 수택동 847번지 타워클리닉 301호","indutype":"학원 - 보습학원","category":"study"}]},{"lat":"37.587229696","long":"127.13814564","imageIndex":16,"items":[{"name":"매쓰원수학서일영어학원","tel":"031-555-5855","addr":"경기도 구리시 수택동 873번지","indutype":"학원 - 보습학원","category":"study"}]},{"lat":"37.587228066","long":"127.13956089","imageIndex":16,"items":[{"name":"맥마이클학원","tel":"031-566-9871","addr":"경기도 구리시 수택동 874-4번지 우건빌딩 5층","indutype":"학원 - 보습학원","category":"study"},{"name":"아이엠에스학원","tel":"031-569-8572","addr":"경기도 구리시 수택동 874-4번지 우건빌딩 5층","indutype":"학원 - 보습학원","category":"study"},{"name":"하우스터디구리토평센터독서실","tel":"031-568-6366","addr":"경기도 구리시 수택동 874-4번지 우건빌딩 4층 일부","indutype":"학원 - 독서실","category":"study"}]},{"lat":"37.58720203","long":"127.13870037","imageIndex":16,"items":[{"name":"무지개를담은미술학원","tel":"031-553-5530","addr":"경기도 구리시 수택동 874번지 새롬프라자8차 2층 201호","indutype":"학원 - 예·체능계학원","category":"study"}]},{"lat":"37.587038861","long":"127.13956054","imageIndex":16,"items":[{"name":"미송음악학원","tel":"031-564-9318","addr":"경기도 구리시 수택동 874-7번지 진명빌딩 5층","indutype":"학원 - 예·체능계학원","category":"study"}]},{"lat":"37.598058626","long":"127.13886731","imageIndex":16,"items":[{"name":"미진원룸텔","tel":"031-555-1536","addr":"경기도 구리시 수택동 380-21번지","indutype":"학원 - 독서실","category":"study"}]},{"lat":"37.592648902","long":"127.14217504","imageIndex":16,"items":[{"name":"백합유치원[아이행복]","tel":"031-566-5064","addr":"경기도 구리시 수택동 449-6","indutype":"학원 - 유치원","category":"study"}]},{"lat":"37.594696033","long":"127.14806687","imageIndex":16,"items":[{"name":"베스트빌","tel":"031-515-7711","addr":"경기도 구리시 수택동 588-2번지 3층","indutype":"학원 - 독서실","category":"study"}]},{"lat":"37.592369238","long":"127.14248023","imageIndex":16,"items":[{"name":"베토벤음악학원","tel":"031-556-1741","addr":"경기도 구리시 수택동 453-28번지 2층","indutype":"회원제형태 - 학원","category":"study"}]},{"lat":"37.598781968","long":"127.13662652","imageIndex":16,"items":[{"name":"보람원룸텔","tel":"031-563-6315","addr":"경기도 구리시 수택동 376-23번지","indutype":"학원 - 독서실","category":"study"}]},{"lat":"37.600228719","long":"127.13995835","imageIndex":16,"items":[{"name":"보보헤어아카데미학원","tel":"031-556-6555","addr":"경기도 구리시 수택동 404-1번지 5층 일부","indutype":"학원 - 기능학원","category":"study"}]},{"lat":"37.590117278","long":"127.14206842","imageIndex":16,"items":[{"name":"부양초등학교","tel":"031-564-7907","addr":"경기도 구리시 수택동 784-2번지 부양초등학교","indutype":"학원 - 초중고교육기관","category":"study"},{"name":"부양초등학교병설유치원[아이행복]","tel":"031-564-5571","addr":"경기도 구리시 수택동 784-2번지","indutype":"학원 - 유치원","category":"study"}]},{"lat":"37.592588361","long":"127.14756457","imageIndex":16,"items":[{"name":"브람스음악학원","tel":"031-563-2616","addr":"경기도 구리시 수택동 276-79번지","indutype":"학원 - 예·체능계학원","category":"study"}]},{"lat":"37.596919408","long":"127.14228491","imageIndex":16,"items":[{"name":"비버하우스구리점","tel":"031-554-5663","addr":"경기도 구리시 수택동 469번지 명진빌딩 4층","indutype":"학원 - 독서실","category":"study"}]},{"lat":"37.600725166","long":"127.146765","imageIndex":16,"items":[{"name":"빨간펜 수학의달인 수학교습소","tel":"","addr":"경기도 구리시 수택동 541-10번지","indutype":"학원 - 보습학원","category":"study"}]},{"lat":"37.600729419","long":"127.14323191","imageIndex":16,"items":[{"name":"서문독서실","tel":"031-553-1395","addr":"경기도 구리시 수택동 527-5번지","indutype":"학원 - 기타 교육기관","category":"study"}]},{"lat":"37.591841748","long":"127.13898054","imageIndex":16,"items":[{"name":"서성민수학학원","tel":"031-111-1111","addr":"경기도 구리시 수택동 847-5번지 701호","indutype":"학원 - 보습학원","category":"study"},{"name":"수학마루학원","tel":"031-552-2134","addr":"경기도 구리시 수택동 847-5번지 801호 일부(도레미)","indutype":"학원 - 보습학원","category":"study"},{"name":"오름수학과학학원","tel":"031-555-2500","addr":"경기도 구리시 수택동 847-5번지 701호 일부","indutype":"학원 - 보습학원","category":"study"},{"name":"홍굼언어논술참조은학원","tel":"031-567-6757","addr":"경기도 구리시 수택동 847-5번지 701호","indutype":"회원제형태 - 학원","category":"study"}]},{"lat":"37.591281884","long":"127.14006649","imageIndex":16,"items":[{"name":"서진학원","tel":"031-558-8017","addr":"경기도 구리시 수택동 849-8번지 3층","indutype":"회원제형태 - 학원","category":"study"},{"name":"이즈수학학원","tel":"031-565-7537","addr":"경기도 구리시 수택동 849-8번지 3층 일부","indutype":"학원 - 보습학원","category":"study"}]},{"lat":"37.591728349","long":"127.14348675","imageIndex":16,"items":[{"name":"소월독서전문학원","tel":"031-563-6661","addr":"경기도 구리시 수택동 660-9번지","indutype":"학원 - 보습학원","category":"study"}]},{"lat":"37.594535078","long":"127.14707013","imageIndex":16,"items":[{"name":"솔빛고시텔","tel":"031-563-9321","addr":"경기도 구리시 수택동 584-3","indutype":"학원 - 독서실","category":"study"}]},{"lat":"37.594675856","long":"127.14981059","imageIndex":16,"items":[{"name":"솔빛원룸텔","tel":"031-551-4827","addr":"경기도 구리시 수택동 284번지 2층","indutype":"학원 - 독서실","category":"study"}]},{"lat":"37.592505466","long":"127.14156334","imageIndex":16,"items":[{"name":"수누피수학교습소","tel":"031-566-6453","addr":"경기도 구리시 수택동 449-2번지 무학수누피마을 101동 303호","indutype":"학원 - 기타 교육기관","category":"study"}]},{"lat":"37.594481275","long":"127.15406768","imageIndex":16,"items":[{"name":"수택고등학교","tel":"031-551-0673","addr":"경기도 구리시 수택동 881번지 수택고등학교","indutype":"학원 - 초중고교육기관","category":"study"},{"name":"수택고등학교_수업료","tel":"031-551-0673","addr":"경기도 구리시 수택동 881번지 수택고등학교","indutype":"학원 - 초중고교육기관","category":"study"}]},{"lat":"37.596336295","long":"127.14767374","imageIndex":16,"items":[{"name":"수택사임당어린이집[아이행복]","tel":"031-563-2595","addr":"경기도 구리시 수택동 493-19번지","indutype":"학원 - 유아원","category":"study"}]},{"lat":"37.591894351","long":"127.14023746","imageIndex":16,"items":[{"name":"수택에듀플렉스학원","tel":"031-569-1911","addr":"경기도 구리시 수택동 850-3번지 5층","indutype":"학원 - 보습학원","category":"study"},{"name":"토즈수택스마트독서실","tel":"031-165-1400","addr":"경기도 구리시 수택동 850-3번지","indutype":"학원 - 독서실","category":"study"}]},{"lat":"37.593533745","long":"127.14056883","imageIndex":16,"items":[{"name":"수택해법수학교습소","tel":"031-555-7909","addr":"경기도 구리시 수택동 442-9번지 일부 1층","indutype":"회원제형태 - 학원","category":"study"},{"name":"해빗영어교습소","tel":"031-555-7909","addr":"경기도 구리시 수택동 442-9번지 해법수학 1층 102호","indutype":"회원제형태 - 학원","category":"study"}]},{"lat":"37.591786233","long":"127.14023726","imageIndex":16,"items":[{"name":"스터디뱅크독서실","tel":"","addr":"경기도 구리시 수택동 850-5번지 신안빌딩 4층","indutype":"학원 - 독서실","category":"study"},{"name":"토마스국제어학원","tel":"031-554-0598","addr":"경기도 구리시 수택동 850-5번지 신안빌딩 2층","indutype":"학원 - 보습학원","category":"study"},{"name":"토마스앤에이블수학학원","tel":"031-554-0595","addr":"경기도 구리시 수택동 850-5번지 신안빌딩 3층","indutype":"학원 - 외국어학원","category":"study"}]},{"lat":"37.593673606","long":"127.14420376","imageIndex":16,"items":[{"name":"시립수누피어린이집[아이행복]","tel":"031-556-6438","addr":"경기도 구리시 수택동 626-41번지","indutype":"학원 - 유아원","category":"study"}]},{"lat":"37.5870301","long":"127.13934541","imageIndex":16,"items":[{"name":"시매쓰클럽학원","tel":"031-563-7942","addr":"경기도 구리시 수택동 874-8번지 알앤디빌딩 4층","indutype":"학원 - 보습학원","category":"study"},{"name":"장자플랜비어학원","tel":"031-555-2422","addr":"경기도 구리시 수택동 874-8번지 5층","indutype":"학원 - 외국어학원","category":"study"},{"name":"토평스카이학원","tel":"031-565-7774","addr":"경기도 구리시 수택동 874-8번지 3층","indutype":"학원 - 보습학원","category":"study"}]},{"lat":"37.59336472","long":"127.14632056","imageIndex":16,"items":[{"name":"아이세움어린이집[아이행복]","tel":"031-553-6802","addr":"경기도 구리시 수택동 276-145번지","indutype":"학원 - 유아원","category":"study"}]},{"lat":"37.596114258","long":"127.14503498","imageIndex":16,"items":[{"name":"아이와어린이집[아이행복]","tel":"031-562-1132","addr":"경기도 구리시 수택동 488-15번지","indutype":"학원 - 유아원","category":"study"}]},{"lat":"37.595426379","long":"127.14761536","imageIndex":16,"items":[{"name":"알고리즘연구소수능학원","tel":"031-563-3110","addr":"경기도 구리시 수택동 576-3번지 6층","indutype":"학원 - 보습학원","category":"study"}]},{"lat":"37.592009662","long":"127.14178888","imageIndex":16,"items":[{"name":"양샘국어논술교습소","tel":"031-555-3268","addr":"경기도 구리시 수택동 449-29번지","indutype":"회원제형태 - 학원","category":"study"}]},{"lat":"37.587201769","long":"127.13892681","imageIndex":16,"items":[{"name":"어썸팩토리구리수택독서실","tel":"031-558-1253","addr":"경기도 구리시 수택동 874-1번지 이우프라자 5층","indutype":"학원 - 독서실","category":"study"}]},{"lat":"37.599313774","long":"127.13642365","imageIndex":16,"items":[{"name":"엔젤하우스","tel":"031-567-4175","addr":"경기도 구리시 수택동 373-7번지 청기와빌딩 401호","indutype":"학원 - 독서실","category":"study"}]},{"lat":"37.593481433","long":"127.13906279","imageIndex":16,"items":[{"name":"영덕공부방","tel":"031-566-2221","addr":"경기도 구리시 수택동 438-58번지 꿈이있는마을 6층 705호","indutype":"학원 - 기타 교육기관","category":"study"}]},{"lat":"37.594840622","long":"127.14017493","imageIndex":16,"items":[{"name":"예쁜어린이집","tel":"031-555-2623","addr":"경기도 구리시 수택동 463-33번지","indutype":"학원 - 유치원","category":"study"},{"name":"예쁜어린이집[아이행복]","tel":"031-555-2623","addr":"경기도 구리시 수택동 463-33번지","indutype":"학원 - 유아원","category":"study"}]},{"lat":"37.593199868","long":"127.14100981","imageIndex":16,"items":[{"name":"예일예능어린이집[아이행복]","tel":"031-562-5572","addr":"경기도 구리시 수택동 444-28번지","indutype":"학원 - 유아원","category":"study"}]},{"lat":"37.591281304","long":"127.14056469","imageIndex":16,"items":[{"name":"온더데스크 구리 독서실","tel":"031-513-0979","addr":"경기도 구리시 수택동 849-6번지 지하1층","indutype":"학원 - 독서실","category":"study"},{"name":"위스터디학원","tel":"031-555-1909","addr":"경기도 구리시 수택동 849-6번지 4층 일부 클라우드타워","indutype":"학원 - 보습학원","category":"study"}]},{"lat":"37.596482041","long":"127.14637183","imageIndex":16,"items":[{"name":"우리아이학원","tel":"031-566-6399","addr":"경기도 구리시 수택동 504-8번지 4층","indutype":"회원제형태 - 학원","category":"study"}]},{"lat":"37.594946725","long":"127.14189625","imageIndex":16,"items":[{"name":"우리자리어린이집[아이행복]","tel":"031-552-0230","addr":"경기도 구리시 수택동 465-9번지 1층","indutype":"학원 - 유아원","category":"study"},{"name":"우리자리예능어린이집","tel":"031-552-0222","addr":"경기도 구리시 수택동 465-9번지","indutype":"학원 - 유치원","category":"study"},{"name":"우리자리예능어린이집[아이행복]","tel":"031-552-0230","addr":"경기도 구리시 수택동 465-9번지","indutype":"학원 - 유아원","category":"study"}]},{"lat":"37.597953045","long":"127.13664769","imageIndex":16,"items":[{"name":"원리빙텔","tel":"031-552-6669","addr":"경기도 구리시 수택동 376-8번지 외 1필지 해청빌딩","indutype":"학원 - 독서실","category":"study"}]},{"lat":"37.591147201","long":"127.14723343","imageIndex":16,"items":[{"name":"위드뮤직학원","tel":"031-564-1777","addr":"경기도 구리시 수택동 685-3번지 3층","indutype":"학원 - 예·체능계학원","category":"study"}]},{"lat":"37.6010855","long":"127.14681099","imageIndex":16,"items":[{"name":"윤피아노음악교습소","tel":"031-565-4660","addr":"경기도 구리시 수택동 554-18번지 1층","indutype":"학원 - 예·체능계학원","category":"study"}]},{"lat":"37.591814012","long":"127.13959192","imageIndex":16,"items":[{"name":"으뜸독서실","tel":"031-566-2886","addr":"경기도 구리시 수택동 850-7번지 성창빌딩 4층","indutype":"학원 - 독서실","category":"study"},{"name":"이투스247구리남양주학원","tel":"031-555-0247","addr":"경기도 구리시 수택동 850-7번지 성창빌딩 5층","indutype":"학원 - 보습학원","category":"study"},{"name":"자성보습학원","tel":"031-556-1369","addr":"경기도 구리시 수택동 850-7번지 성창빌딩 5층","indutype":"학원 - 보습학원","category":"study"}]},{"lat":"37.592839477","long":"127.14100915","imageIndex":16,"items":[{"name":"이삭피아노교습소","tel":"","addr":"경기도 구리시 수택동 444-13번지 1층","indutype":"학원 - 예·체능계학원","category":"study"}]},{"lat":"37.591842763","long":"127.13809738","imageIndex":16,"items":[{"name":"이스라엘음악학원","tel":"031-565-9116","addr":"경기도 구리시 수택동 847-9번지 타워클래스 2층 201호","indutype":"회원제형태 - 학원","category":"study"}]},{"lat":"37.591507968","long":"127.13934226","imageIndex":16,"items":[{"name":"이인진과학학원","tel":"031-551-7301","addr":"경기도 구리시 수택동 849번지 이화빌딩 3층 일부","indutype":"학원 - 보습학원","category":"study"},{"name":"파푸스수학학원","tel":"031-510-8100","addr":"경기도 구리시 수택동 849번지 이화빌딩 3층","indutype":"학원 - 보습학원","category":"study"}]},{"lat":"37.591523942","long":"127.14859287","imageIndex":16,"items":[{"name":"인더짐키즈포츠","tel":"","addr":"경기도 구리시 수택동 268-3번지 목화연립 A동 101호","indutype":"학원 - 기타 교육기관","category":"study"}]},{"lat":"37.593480595","long":"127.13978745","imageIndex":16,"items":[{"name":"작은숲어린이집[아이행복]","tel":"031-559-2207","addr":"경기도 구리시 수택동 440-12번지 유창뉴튼하우스 101호","indutype":"학원 - 유아원","category":"study"}]},{"lat":"37.591704247","long":"127.14100705","imageIndex":16,"items":[{"name":"장애아재활치료교육센터 (아이누리)","tel":"031-562-1101","addr":"경기도 구리시 수택동 851번지 수평빌딩 2층","indutype":"학원 - 기타 교육기관","category":"study"},{"name":"장애아재활치료교육센터(아이누리)","tel":"031-562-1101","addr":"경기도 구리시 수택동 851번지 2층","indutype":"학원 - 기타 교육기관","category":"study"}]},{"lat":"37.595198276","long":"127.14250817","imageIndex":16,"items":[{"name":"제자어린이집[아이행복]","tel":"031-555-1006","addr":"경기도 구리시 수택동 465-17번지","indutype":"학원 - 유아원","category":"study"}]},{"lat":"37.592976834","long":"127.13910716","imageIndex":16,"items":[{"name":"주식회사 담쟁이센터","tel":"031-567-1001","addr":"경기도 구리시 수택동 754-13번지 팔복빌라 6동 102호","indutype":"학원 - 기타 교육기관","category":"study"}]},{"lat":"37.596701885","long":"127.14337155","imageIndex":16,"items":[{"name":"주식회사 앤시스템 구리지점","tel":"031-566-5050","addr":"경기도 구리시 수택동 482-8번지 2층 300호 시장","indutype":"학원 - 독서실","category":"study"}]},{"lat":"37.596699223","long":"127.14559094","imageIndex":16,"items":[{"name":"주식회사본스타구리캠퍼스","tel":"031-516-8500","addr":"경기도 구리시 수택동 504-2번지 세진빌딩 3층","indutype":"회원제형태 - 학원","category":"study"}]},{"lat":"37.590953415","long":"127.14356455","imageIndex":16,"items":[{"name":"지현검도관","tel":"031-556-6341","addr":"경기도 구리시 수택동 853 3층","indutype":"회원제형태 - 학원","category":"study"}]},{"lat":"37.591863009","long":"127.14389462","imageIndex":16,"items":[{"name":"창의수업연구소","tel":"031-566-5539","addr":"경기도 구리시 수택동 660-3번지 1층","indutype":"학원 - 기타 교육기관","category":"study"},{"name":"한얼터전학원","tel":"031-512-8455","addr":"경기도 구리시 수택동 660-3번지 2층","indutype":"학원 - 보습학원","category":"study"}]},{"lat":"37.598561783","long":"127.14006853","imageIndex":16,"items":[{"name":"청솔고시텔","tel":"031-569-8804","addr":"경기도 구리시 수택동 418-9번지 3,4층","indutype":"학원 - 독서실","category":"study"}]},{"lat":"37.598592172","long":"127.13714707","imageIndex":16,"items":[{"name":"코코고시텔","tel":"031-565-4242","addr":"경기도 구리시 수택동 377-8번지 3층, 4층","indutype":"학원 - 독서실","category":"study"}]},{"lat":"37.592647951","long":"127.14297896","imageIndex":16,"items":[{"name":"크누아기타교습소","tel":"031-562-4178","addr":"경기도 구리시 수택동 453-5번지 1층","indutype":"학원 - 예·체능계학원","category":"study"}]},{"lat":"37.58909369","long":"127.13904347","imageIndex":16,"items":[{"name":"클애아어학원","tel":"031-565-3535","addr":"경기도 구리시 수택동 854-2","indutype":"회원제형태 - 학원","category":"study"},{"name":"해나라유치원","tel":"031-565-3535","addr":"경기도 구리시 수택동 854-2","indutype":"학원 - 유치원","category":"study"},{"name":"해나라유치원[아이행복]","tel":"031-565-3535","addr":"경기도 구리시 수택동 854-2","indutype":"학원 - 유치원","category":"study"}]},{"lat":"37.591976188","long":"127.13959221","imageIndex":16,"items":[{"name":"탑학원","tel":"031-563-9293","addr":"경기도 구리시 수택동 850-1번지 3층 일부","indutype":"학원 - 보습학원","category":"study"}]},{"lat":"37.592418334","long":"127.13901556","imageIndex":16,"items":[{"name":"파워영어학원","tel":"031-567-0166","addr":"경기도 구리시 수택동 757-4번지 3층전체","indutype":"학원 - 보습학원","category":"study"}]},{"lat":"37.598396619","long":"127.14261605","imageIndex":16,"items":[{"name":"파인하우스","tel":"031-552-1182","addr":"경기도 구리시 수택동 424-1번지 4층","indutype":"학원 - 독서실","category":"study"}]},{"lat":"37.594895992","long":"127.13904272","imageIndex":16,"items":[{"name":"하나어린이집[아이행복]","tel":"031-553-1315","addr":"경기도 구리시 수택동 437-31번지","indutype":"학원 - 유아원","category":"study"}]},{"lat":"37.601834356","long":"127.14595179","imageIndex":16,"items":[{"name":"하늘태권스쿨","tel":"031-569-6044","addr":"경기도 구리시 수택동 535-34번지 경일고기백화점 2층","indutype":"학원 - 예·체능계학원","category":"study"}]},{"lat":"37.596088503","long":"127.15131937","imageIndex":16,"items":[{"name":"한국무인항공교육원","tel":"031-551-0522","addr":"경기도 구리시 수택동 324-9번지 1층","indutype":"학원 - 기능학원","category":"study"}]},{"lat":"37.603229544","long":"127.14704161","imageIndex":16,"items":[{"name":"한양자동차정비학원","tel":"031-551-2020","addr":"경기도 구리시 수택동 561-1번지","indutype":"회원제형태 - 학원","category":"study"}]},{"lat":"37.600088357","long":"127.13665151","imageIndex":16,"items":[{"name":"한양호텔요리제빵학원","tel":"031-555-8688","addr":"경기도 구리시 수택동 370-1 9,10층","indutype":"회원제형태 - 학원","category":"study"}]},{"lat":"37.594477455","long":"127.14254079","imageIndex":16,"items":[{"name":"해피데이","tel":"031-000-0000","addr":"경기도 구리시 수택동 458-18번지 2층 호","indutype":"학원 - 기타 교육기관","category":"study"}]},{"lat":"37.591786628","long":"127.13989758","imageIndex":16,"items":[{"name":"헬퍼수학학원","tel":"031-516-0440","addr":"경기도 구리시 수택동 850-6번지 보령빌딩 501호","indutype":"학원 - 보습학원","category":"study"},{"name":"호크마보습학원","tel":"031-555-3936","addr":"경기도 구리시 수택동 850-6번지 보령빌딩 502호","indutype":"학원 - 보습학원","category":"study"}]},{"lat":"37.598640043","long":"127.14248062","imageIndex":16,"items":[{"name":"훼미리고시원","tel":"031-551-8334","addr":"경기도 구리시 수택동 423-17번지 은수빌딩 4,5층","indutype":"학원 - 독서실","category":"study"}]}]