[{"lat":"37.384887128","long":"126.93331509","imageIndex":4,"items":[{"name":"6번가","tel":"031-464-3539","addr":"경기도 안양시 만안구 안양로","indutype":"일반휴게음식 - 일반한식","category":"restaurant"}]},{"lat":"37.384725192","long":"126.93373303","imageIndex":4,"items":[{"name":"누나포차","tel":"070-4195-8092","addr":"경기도 안양시 만안구 안양로","indutype":"일반휴게음식 - 주점","category":"restaurant"}]},{"lat":"37.389137686","long":"126.92965252","imageIndex":4,"items":[{"name":"다모횟집","tel":"031-449-4969","addr":"경기도 안양시 만안구 안양로","indutype":"일반휴게음식 - 일반한식","category":"restaurant"}]},{"lat":"37.405832471","long":"126.91508879","imageIndex":4,"items":[{"name":"명성다방","tel":"031-444-6127","addr":"경기도 안양시 만안구 안양로","indutype":"일반휴게음식 - 서양음식","category":"restaurant"}]},{"lat":"37.403942045","long":"126.91739504","imageIndex":4,"items":[{"name":"소문난김밥","tel":"031-442-3371","addr":"경기도 안양시 만안구 안양로","indutype":"일반휴게음식 - 스넥","category":"restaurant"}]},{"lat":"37.416555264","long":"126.90467244","imageIndex":4,"items":[{"name":"신원사랑푸드","tel":"031-474-3335","addr":"경기도 안양시 만안구 안양로 525","indutype":"일반휴게음식 - 일반한식","category":"restaurant"}]},{"lat":"37.38567058","long":"126.93259171","imageIndex":4,"items":[{"name":"엔제리너스 만안구청점","tel":"031-442-7280","addr":"경기도 안양시 만안구 안양로","indutype":"일반휴게음식 - 서양음식","category":"restaurant"}]},{"lat":"37.411856388","long":"126.91008913","imageIndex":4,"items":[{"name":"이대조뼈다귀해장국","tel":"031-472-9060","addr":"경기도 안양시 만안구 안양로","indutype":"일반휴게음식 - 일반한식","category":"restaurant"}]},{"lat":"37.385246789","long":"126.9320614","imageIndex":4,"items":[{"name":"진부령동태찜탕전문점","tel":"031-465-8797","addr":"경기도 안양시 만안구 안양로","indutype":"일반휴게음식 - 일반한식","category":"restaurant"}]},{"lat":"37.384166855","long":"126.93423036","imageIndex":4,"items":[{"name":"카페보니또(안양만안점)","tel":"031-445-9600","addr":"경기도 안양시 만안구 안양로","indutype":"일반휴게음식 - 서양음식","category":"restaurant"}]}]