[{"lat":"37.129643646","long":"127.07183193","imageIndex":9,"items":[{"name":"(주)마봉 갈곶주유소","tel":"031-375-9718","addr":"경기도 오산시 갈곶동 254번지","indutype":"연료판매점 - 쌍용S-OIL","category":"oil"}]},{"lat":"37.130643909","long":"127.07166403","imageIndex":9,"items":[{"name":"(주)원창","tel":"031-376-3705","addr":"경기도 오산시 갈곶동 285번지","indutype":"연료판매점 - 쌍용S-OIL","category":"oil"}]},{"lat":"37.125893712","long":"127.07447296","imageIndex":9,"items":[{"name":"경기가스","tel":"031-374-4612","addr":"경기도 오산시 갈곶동 298-3번지","indutype":"연료판매점 - 기타연료","category":"oil"}]},{"lat":"37.13130689","long":"127.07792169","imageIndex":9,"items":[{"name":"동부대로(GS)주유소","tel":"031-373-5151","addr":"경기도 오산시 갈곶동 338번지","indutype":"연료판매점 - GS주유소","category":"oil"}]},{"lat":"37.134335057","long":"127.06069458","imageIndex":9,"items":[{"name":"동산에너지(주)","tel":"031-377-8228","addr":"경기도 오산시 갈곶동 3-1번지","indutype":"연료판매점 - SK가스충전소","category":"oil"},{"name":"동산충전소","tel":"031-377-8228","addr":"경기도 오산시 갈곶동 3-1번지","indutype":"연료판매점 - SK가스충전소","category":"oil"},{"name":"에스케이 동산충전소","tel":"031-377-8226","addr":"경기도 오산시 갈곶동 3-1번지","indutype":"연료판매점 - SK가스충전소","category":"oil"}]},{"lat":"37.134532934","long":"127.06141499","imageIndex":9,"items":[{"name":"동산주유소","tel":"031-378-8695","addr":"경기도 오산시 갈곶동 22번지","indutype":"연료판매점 - 현대정유(오일뱅크)","category":"oil"}]}]