[{"lat":"37.358864759","long":"126.93143152","imageIndex":5,"items":[{"name":"(W)모텔","tel":"031-397-5222","addr":"경기도 군포시 산본동 1140번지 동원프라자 7층 701호","indutype":"숙박업 - 여관/기타숙박업","category":"hotel"},{"name":"더블유(W)모텔","tel":"031-397-5222","addr":"경기도 군포시 산본동 1140번지 동원프라자 7층 701호","indutype":"숙박업 - 여관/기타숙박업","category":"hotel"}]},{"lat":"37.359226176","long":"126.93312432","imageIndex":5,"items":[{"name":"MUL 모텔","tel":"031-391-8126","addr":"경기도 군포시 산본동 1128번지 금성프라자","indutype":"숙박업 - 여관/기타숙박업","category":"hotel"}]},{"lat":"37.359415108","long":"126.93265006","imageIndex":5,"items":[{"name":"그러니모텔","tel":"031-398-8483","addr":"경기도 군포시 산본동 1129-2번지 산본플라자","indutype":"숙박업 - 여관/기타숙박업","category":"hotel"}]},{"lat":"37.374194716","long":"126.93787479","imageIndex":5,"items":[{"name":"그린파크","tel":"031-394-3825","addr":"경기도 군포시 산본동 49-14번지","indutype":"숙박업 - 여관/기타숙박업","category":"hotel"}]},{"lat":"37.37424882","long":"126.93795377","imageIndex":5,"items":[{"name":"금정얌호텔","tel":"031-391-3886","addr":"경기도 군포시 산본동 49-13번지","indutype":"숙박업 - 여관/기타숙박업","category":"hotel"}]},{"lat":"37.358225521","long":"126.93223353","imageIndex":5,"items":[{"name":"꿈의궁전모텔","tel":"031-396-2711","addr":"경기도 군포시 산본동 1142-5번지 금화프라자 1001호","indutype":"숙박업 - 여관/기타숙박업","category":"hotel"},{"name":"씨에프여관","tel":"031-391-0063","addr":"경기도 군포시 산본동 1142-5번지 금화프라자 801호","indutype":"숙박업 - 여관/기타숙박업","category":"hotel"}]},{"lat":"37.359001227","long":"126.93364376","imageIndex":5,"items":[{"name":"로망스모텔","tel":"031-399-8015","addr":"경기도 군포시 산본동 1142-1번지 유화프라자 9층","indutype":"숙박업 - 여관/기타숙박업","category":"hotel"},{"name":"호텔야자 산본역점","tel":"0503-5051-4822","addr":"경기도 군포시 산본동 1142-1번지 유화프라자빌딩 8층","indutype":"숙박업 - 여관/기타숙박업","category":"hotel"},{"name":"호텔인 카페 산본역점","tel":"070-4649-1101","addr":"경기도 군포시 산본동 1142-1번지 유화프라자빌딩 9층","indutype":"숙박업 - 여관/기타숙박업","category":"hotel"}]},{"lat":"37.359613432","long":"126.93281919","imageIndex":5,"items":[{"name":"모텔얌","tel":"031-399-8550","addr":"경기도 군포시 산본동 1129번지 청우빌딩 6-7층","indutype":"숙박업 - 여관/기타숙박업","category":"hotel"}]},{"lat":"37.370890667","long":"126.942924","imageIndex":5,"items":[{"name":"몰디브모텔","tel":"031-397-1247","addr":"경기도 군포시 산본동 266-10번지 청산빌딩","indutype":"숙박업 - 여관/기타숙박업","category":"hotel"}]},{"lat":"37.370728157","long":"126.94228064","imageIndex":5,"items":[{"name":"빠리몽모텔","tel":"031-399-2329","addr":"경기도 군포시 산본동 252-5번지","indutype":"숙박업 - 여관/기타숙박업","category":"hotel"}]},{"lat":"37.3732779","long":"126.9420415","imageIndex":5,"items":[{"name":"스카이모텔","tel":"031-394-9449","addr":"경기도 군포시 산본동 97-41번지","indutype":"숙박업 - 여관/기타숙박업","category":"hotel"},{"name":"스카이모텔","tel":"031-399-2664","addr":"경기도 군포시 산본동 97-41번지","indutype":"숙박업 - 여관/기타숙박업","category":"hotel"}]},{"lat":"37.343586945","long":"126.92269989","imageIndex":5,"items":[{"name":"신영하우스","tel":"031-477-2848","addr":"경기도 군포시 산본동 1155-7번지 가야(주공)아파트","indutype":"숙박업 - 여관/기타숙박업","category":"hotel"}]},{"lat":"37.374088607","long":"126.9416457","imageIndex":5,"items":[{"name":"알프스장모텔","tel":"031-399-8046","addr":"경기도 군포시 산본동 86-52번지 외6필지","indutype":"숙박업 - 여관/기타숙박업","category":"hotel"}]},{"lat":"37.360198593","long":"126.93198335","imageIndex":5,"items":[{"name":"짬모텔","tel":"031-399-1000","addr":"경기도 군포시 산본동 1131-3번지 다복빌딩 5,6,7층","indutype":"숙박업 - 여관/기타숙박업","category":"hotel"}]},{"lat":"37.359946639","long":"126.93253669","imageIndex":5,"items":[{"name":"타워모텔","tel":"031-397-7111","addr":"경기도 군포시 산본동 1130번지 군포프라자 9층","indutype":"숙박업 - 여관/기타숙박업","category":"hotel"}]},{"lat":"37.372941891","long":"126.93711946","imageIndex":5,"items":[{"name":"타워장여관","tel":"031-393-7336","addr":"경기도 군포시 산본동 71-6번지","indutype":"숙박업 - 여관/기타숙박업","category":"hotel"},{"name":"타워장여관","tel":"031-393-7336","addr":"경기도 군포시 산본동 71-6번지","indutype":"숙박업 - 여관/기타숙박업","category":"hotel"}]},{"lat":"37.374502956","long":"126.94141957","imageIndex":5,"items":[{"name":"타임모텔","tel":"031-395-1212","addr":"경기도 군포시 산본동 79-72번지","indutype":"숙박업 - 여관/기타숙박업","category":"hotel"}]},{"lat":"37.358558876","long":"126.93219936","imageIndex":5,"items":[{"name":"프라하","tel":"031-398-2297","addr":"경기도 군포시 산본동 1142-10번지 동산상가 7층 1호","indutype":"숙박업 - 여관/기타숙박업","category":"hotel"}]},{"lat":"37.374609797","long":"126.93900343","imageIndex":5,"items":[{"name":"호모텔","tel":"031-396-7711","addr":"경기도 군포시 산본동 74-9번지","indutype":"숙박업 - 여관/기타숙박업","category":"hotel"}]},{"lat":"37.360197085","long":"126.92951133","imageIndex":5,"items":[{"name":"호텔CC","tel":"031-796-2554","addr":"경기도 군포시 산본동 1123-5번지 신원타워빌딩 9층","indutype":"숙박업 - 여관/기타숙박업","category":"hotel"}]},{"lat":"37.370782276","long":"126.94239349","imageIndex":5,"items":[{"name":"호텔초콜릿","tel":"031-399-8383","addr":"경기도 군포시 산본동 252-6번지","indutype":"숙박업 - 여관/기타숙박업","category":"hotel"}]}]