[{"lat":"37.23480404","long":"127.21584473","imageIndex":7,"items":[{"name":"MEAT MART","tel":"","addr":"경기도 용인시 처인구 마평동 643번지 106호","indutype":"음료식품 - 정육점","category":"food"},{"name":"미트마트(MEAT MART)","tel":"031-333-9821","addr":"경기도 용인시 처인구 마평동 643번지 106호","indutype":"음료식품 - 정육점","category":"food"}]},{"lat":"37.234332784","long":"127.21231621","imageIndex":7,"items":[{"name":"The coffee man","tel":"031-323-6016","addr":"경기도 용인시 처인구 마평동 626-21번지 주안빌리지","indutype":"음료식품 - 기타음료식품","category":"food"}]},{"lat":"37.237319544","long":"127.21493898","imageIndex":7,"items":[{"name":"경기막걸리용인총판","tel":"031-332-9939","addr":"경기도 용인시 처인구 마평동 681번지 나동 1층","indutype":"음료식품 - 주류 판매점","category":"food"}]},{"lat":"37.226720111","long":"127.2167685","imageIndex":7,"items":[{"name":"고기사랑","tel":"031-321-1551","addr":"경기도 용인시 처인구 마평동 546-2번지 1층","indutype":"음료식품 - 정육점","category":"food"}]},{"lat":"37.234102674","long":"127.21504266","imageIndex":7,"items":[{"name":"과일나라","tel":"031-336-8868","addr":"경기도 용인시 처인구 마평동 634-1번지","indutype":"음료식품 - 농·축·수산품","category":"food"}]},{"lat":"37.234547694","long":"127.21307183","imageIndex":7,"items":[{"name":"광어 두마리","tel":"031-321-0370","addr":"경기도 용인시 처인구 마평동 627-3","indutype":"음료식품 - 농·축·수산품","category":"food"}]},{"lat":"37.236384969","long":"127.21353897","imageIndex":7,"items":[{"name":"궁중떡방","tel":"031-335-1595","addr":"경기도 용인시 처인구 마평동 671-19번지","indutype":"음료식품 - 제과점","category":"food"}]},{"lat":"37.234213498","long":"127.21853635","imageIndex":7,"items":[{"name":"그비가인","tel":"","addr":"경기도 용인시 처인구 마평동 957번지 푸른마을용인자이 상가동 102호","indutype":"음료식품 - 기타음료식품","category":"food"}]},{"lat":"37.234633189","long":"127.21565268","imageIndex":7,"items":[{"name":"꾀보반찬","tel":"02-1111-1111","addr":"경기도 용인시 처인구 마평동 644-1번지","indutype":"음료식품 - 기타음료식품","category":"food"}]},{"lat":"37.235829287","long":"127.21186958","imageIndex":7,"items":[{"name":"대박집","tel":"031-335-0724","addr":"경기도 용인시 처인구 마평동 657-9번지","indutype":"음료식품 - 기타음료식품","category":"food"}]},{"lat":"37.234997928","long":"127.21323085","imageIndex":7,"items":[{"name":"뚜레쥬르 용인마평","tel":"031-331-7894","addr":"경기도 용인시 처인구 마평동 652-4번지","indutype":"음료식품 - 제과점","category":"food"}]},{"lat":"37.234602055","long":"127.21290295","imageIndex":7,"items":[{"name":"롯데나뚜루용인마평점","tel":"031-339-3172","addr":"경기도 용인시 처인구 마평동 626-29번지","indutype":"음료식품 - 제과점","category":"food"}]},{"lat":"37.2368562","long":"127.21201892","imageIndex":7,"items":[{"name":"마니커닭직매장","tel":"031-336-0034","addr":"경기도 용인시 처인구 마평동 688-1번지","indutype":"음료식품 - 정육점","category":"food"}]},{"lat":"37.236148995","long":"127.2144962","imageIndex":7,"items":[{"name":"만세청과","tel":"","addr":"경기도 용인시 처인구 마평동 956번지 마평주공아파트","indutype":"음료식품 - 농·축·수산품","category":"food"}]},{"lat":"37.23488673","long":"127.21495471","imageIndex":7,"items":[{"name":"밀탑베이커리","tel":"031-337-0944","addr":"경기도 용인시 처인구 마평동 650-1번지 우성 상가 108동 109호","indutype":"음료식품 - 제과점","category":"food"},{"name":"우성떡집","tel":"031-338-8351","addr":"경기도 용인시 처인구 마평동 650-1","indutype":"음료식품 - 제과점","category":"food"}]},{"lat":"37.235743452","long":"127.21454015","imageIndex":7,"items":[{"name":"바다","tel":"070-7018-5392","addr":"경기도 용인시 처인구 마평동 956번지 마평주공아파트","indutype":"음료식품 - 기타음료식품","category":"food"}]},{"lat":"37.236298159","long":"127.2116793","imageIndex":7,"items":[{"name":"별4호","tel":"031-332-0281","addr":"경기도 용인시 처인구 마평동 722-6번지","indutype":"음료식품 - 기타음료식품","category":"food"}]},{"lat":"37.23349669","long":"127.22126137","imageIndex":7,"items":[{"name":"분도청과","tel":"","addr":"경기도 용인시 처인구 마평동 518-11번지","indutype":"음료식품 - 농·축·수산품","category":"food"}]},{"lat":"37.232106926","long":"127.21249036","imageIndex":7,"items":[{"name":"설악산건강원","tel":"031-336-0072","addr":"경기도 용인시 처인구 마평동 879번지","indutype":"건강식품 - 기타건강식품","category":"food"}]},{"lat":"37.229093623","long":"127.21465678","imageIndex":7,"items":[{"name":"순수당","tel":"070-7018-5392","addr":"경기도 용인시 처인구 마평동 573-39번지 석담빌 나동 1층 일부","indutype":"음료식품 - 제과점","category":"food"}]},{"lat":"37.2357469","long":"127.21260185","imageIndex":7,"items":[{"name":"알짜유통","tel":"031-322-2378","addr":"경기도 용인시 처인구 마평동 661-8번지 우량그린맨션 1동 403호","indutype":"음료식품 - 기타음료식품","category":"food"}]},{"lat":"37.234992106","long":"127.21142778","imageIndex":7,"items":[{"name":"열린매점","tel":"031-323-1118","addr":"경기도 용인시 처인구 마평동 740-1번지","indutype":"음료식품 - 기타음료식품","category":"food"},{"name":"열린정육점","tel":"031-323-1118","addr":"경기도 용인시 처인구 마평동 740-1번지","indutype":"음료식품 - 정육점","category":"food"}]},{"lat":"37.234438489","long":"127.21368005","imageIndex":7,"items":[{"name":"오복건강원","tel":"031-336-9966","addr":"경기도 용인시 처인구 마평동 627-12번지 성욱빌딩 1층","indutype":"건강식품 - 기타건강식품","category":"food"}]},{"lat":"37.234109138","long":"127.21140281","imageIndex":7,"items":[{"name":"용인처인행복식품","tel":"031-335-6274","addr":"경기도 용인시 처인구 마평동 740-33번지 101호","indutype":"음료식품 - 기타음료식품","category":"food"}]},{"lat":"37.230410572","long":"127.21384914","imageIndex":7,"items":[{"name":"우리정육점","tel":"031-333-5368","addr":"경기도 용인시 처인구 마평동 596-5번지","indutype":"음료식품 - 정육점","category":"food"},{"name":"의주유통","tel":"031-322-8893","addr":"경기도 용인시 처인구 마평동 596-5번지 102호","indutype":"음료식품 - 주류 판매점","category":"food"}]},{"lat":"37.232942622","long":"127.21376604","imageIndex":7,"items":[{"name":"유명청과마트","tel":"031-335-8021","addr":"경기도 용인시 처인구 마평동 618-31번지","indutype":"음료식품 - 농·축·수산품","category":"food"}]},{"lat":"37.232384426","long":"127.21351657","imageIndex":7,"items":[{"name":"인선건강원","tel":"031-336-3563","addr":"경기도 용인시 처인구 마평동 602-10번지","indutype":"건강식품 - 기타건강식품","category":"food"}]},{"lat":"37.234741422","long":"127.2105143","imageIndex":7,"items":[{"name":"제일청과","tel":"031-336-7849","addr":"경기도 용인시 처인구 마평동 858-7번지","indutype":"음료식품 - 농·축·수산품","category":"food"},{"name":"태경","tel":"031-334-5850","addr":"경기도 용인시 처인구 마평동 858-7번지 1층","indutype":"음료식품 - 기타음료식품","category":"food"}]},{"lat":"37.229833472","long":"127.21409543","imageIndex":7,"items":[{"name":"제일플러스축산","tel":"031-339-8062","addr":"경기도 용인시 처인구 마평동 573-4번지 제일플러스마트","indutype":"음료식품 - 정육점","category":"food"}]},{"lat":"37.234272591","long":"127.21068205","imageIndex":7,"items":[{"name":"참품한우","tel":"031-321-7896","addr":"경기도 용인시 처인구 마평동 894번지","indutype":"음료식품 - 정육점","category":"food"}]},{"lat":"37.235049338","long":"127.21471851","imageIndex":7,"items":[{"name":"청춘푸드","tel":"031-332-2621","addr":"경기도 용인시 처인구 마평동 650-1번지 마평우성아파트","indutype":"음료식품 - 기타음료식품","category":"food"}]},{"lat":"37.234214213","long":"127.21312725","imageIndex":7,"items":[{"name":"충북방앗간","tel":"031-332-1900","addr":"경기도 용인시 처인구 마평동 628-3번지","indutype":"음료식품 - 제과점","category":"food"}]},{"lat":"37.23538042","long":"127.21093301","imageIndex":7,"items":[{"name":"태창상사","tel":"031-339-2727","addr":"경기도 용인시 처인구 마평동 728-5번지","indutype":"음료식품 - 기타음료식품","category":"food"}]},{"lat":"37.23477207","long":"127.21356829","imageIndex":7,"items":[{"name":"파리바게뜨용인마평점","tel":"031-339-8204","addr":"경기도 용인시 처인구 마평동 649-7번지 1층","indutype":"음료식품 - 제과점","category":"food"}]},{"lat":"37.23271555","long":"127.21976038","imageIndex":7,"items":[{"name":"팜크로스 (Farm Cross)","tel":"031-335-0711","addr":"경기도 용인시 처인구 마평동 534-5번지","indutype":"음료식품 - 기타음료식품","category":"food"}]},{"lat":"37.231353431","long":"127.23020241","imageIndex":7,"items":[{"name":"한우정정육점","tel":"031-336-1666","addr":"경기도 용인시 처인구 마평동 249-2번지","indutype":"음료식품 - 정육점","category":"food"}]},{"lat":"37.237191505","long":"127.21092671","imageIndex":7,"items":[{"name":"효성식품","tel":"031-335-6484","addr":"경기도 용인시 처인구 마평동 717-6번지","indutype":"음료식품 - 기타음료식품","category":"food"}]}]