[{"lat":"37.468956713","long":"126.82051262","imageIndex":13,"items":[{"name":"JOES hair","tel":"070-7353-7057","addr":"경기도 부천시 옥길동 714-2번지","indutype":"보건위생 - 미용재료","category":"beauty"},{"name":"Joe's 헤어","tel":"070-7353-7057","addr":"경기도 부천시 옥길동 714-2번지 1층","indutype":"보건위생 - 미용원","category":"beauty"}]},{"lat":"37.467436673","long":"126.8222345","imageIndex":13,"items":[{"name":"가발프랜즈","tel":"032-347-7942","addr":"경기도 부천시 옥길동 726-3번지 제일프라자 3층 302호","indutype":"보건위생 - 미용재료","category":"beauty"},{"name":"디아르떼보스헤어 옥길점","tel":"032-347-5060","addr":"경기도 부천시 옥길동 726-3번지 제일프라자 203호","indutype":"보건위생 - 미용원","category":"beauty"},{"name":"버블스토리 (부천옥길점)","tel":"032-342-1300","addr":"경기도 부천시 옥길동 726-3번지 제일프라자 3층 302호","indutype":"보건위생 - 미용원","category":"beauty"},{"name":"살롱드윤스","tel":"032-347-3060","addr":"경기도 부천시 옥길동 726-3번지 제일프라자 1층 106호","indutype":"보건위생 - 미용원","category":"beauty"},{"name":"이니스프리 부천옥길점","tel":"070-4649-1101","addr":"경기도 부천시 옥길동 726-3번지 제일프라자 105호","indutype":"보건위생 - 화장품","category":"beauty"}]},{"lat":"37.469154513","long":"126.82024084","imageIndex":13,"items":[{"name":"글로시","tel":"031-000-0000","addr":"경기도 부천시 옥길동 713-8번지 1층 일부","indutype":"보건위생 - 화장품","category":"beauty"}]},{"lat":"37.468264791","long":"126.82171253","imageIndex":13,"items":[{"name":"나이스가이(부천옥길점)","tel":"032-343-8882","addr":"경기도 부천시 옥길동 722-5번지 1층 102호","indutype":"보건위생 - 미용원","category":"beauty"}]},{"lat":"37.469684382","long":"126.81913174","imageIndex":13,"items":[{"name":"네가꿈꾸는일상","tel":"","addr":"경기도 부천시 옥길동 705-1번지 110호","indutype":"보건위생 - 피부미용실","category":"beauty"}]},{"lat":"37.46370941","long":"126.81257914","imageIndex":13,"items":[{"name":"네일클로버","tel":"031-343-7333","addr":"경기도 부천시 옥길동 776-1번지 부천옥길자이 근린상가동 1층 105호","indutype":"보건위생 - 피부미용실","category":"beauty"},{"name":"더뉴헤어(The New Hair)","tel":"031-347-3470","addr":"경기도 부천시 옥길동 776-1번지 부천옥길자이 G동 2층 213호","indutype":"보건위생 - 미용원","category":"beauty"},{"name":"레아네일","tel":"032-344-6665","addr":"경기도 부천시 옥길동 776-1번지 부천옥길자이 상가 108호","indutype":"보건위생 - 피부미용실","category":"beauty"},{"name":"헤어슈슈","tel":"031-344-2177","addr":"경기도 부천시 옥길동 776-1번지 부천옥길자이 근린시설생활시설동 107호","indutype":"보건위생 - 미용원","category":"beauty"}]},{"lat":"37.467878678","long":"126.82257256","imageIndex":13,"items":[{"name":"뉴페이스안경원","tel":"032-342-8597","addr":"경기도 부천시 옥길동 726-1번지 101,102호","indutype":"보건위생 - 안경","category":"beauty"},{"name":"머리꾼헤어","tel":"032-347-4450","addr":"경기도 부천시 옥길동 726-1번지 센타프라자 2층","indutype":"보건위생 - 미용원","category":"beauty"},{"name":"머슬앤발란스","tel":"032-344-2798","addr":"경기도 부천시 옥길동 726-1번지 센타프라자 4층 401호","indutype":"보건위생 - 기타대인서비스","category":"beauty"},{"name":"제오헤어 부천옥길점","tel":"032-345-1220","addr":"경기도 부천시 옥길동 726-1번지 센타프라자 3층 301호","indutype":"보건위생 - 미용원","category":"beauty"}]},{"lat":"37.462069729","long":"126.81266241","imageIndex":13,"items":[{"name":"늘봄네일","tel":"","addr":"경기도 부천시 옥길동 777-4번지 서영아너시티1차 1층 107-1호","indutype":"보건위생 - 피부미용실","category":"beauty"},{"name":"더좋은피부","tel":"","addr":"경기도 부천시 옥길동 777-4번지 서영아너시티 3층 307호","indutype":"보건위생 - 피부미용실","category":"beauty"},{"name":"리안헤어 옥길아너시티점","tel":"032-347-1116","addr":"경기도 부천시 옥길동 777-4번지 서영아너시티 205호","indutype":"보건위생 - 미용원","category":"beauty"},{"name":"살롱트엠투엠(M2M)","tel":"032-348-4810","addr":"경기도 부천시 옥길동 777-4번지 서임아너시티 210호","indutype":"보건위생 - 미용원","category":"beauty"},{"name":"틴트(TINT)","tel":"","addr":"경기도 부천시 옥길동 777-4번지 서영아너시티 3층 315호","indutype":"보건위생 - 피부미용실","category":"beauty"}]},{"lat":"37.466017355","long":"126.82504123","imageIndex":13,"items":[{"name":"더나인뷰티","tel":"070-4922-1261","addr":"경기도 부천시 옥길동 742-1번지 제이드카운티1단지 상가동 2층 203호","indutype":"보건위생 - 피부미용실","category":"beauty"},{"name":"제나테라피","tel":"","addr":"경기도 부천시 옥길동 742-1번지 제이드카운티1단지 2층 202호","indutype":"보건위생 - 피부미용실","category":"beauty"}]},{"lat":"37.466293721","long":"126.82309634","imageIndex":13,"items":[{"name":"라움헤어뷰티","tel":"","addr":"경기도 부천시 옥길동 744-3번지 2층 206호","indutype":"보건위생 - 미용원","category":"beauty"},{"name":"토리헤어(옥길로점)","tel":"032-344-6766","addr":"경기도 부천시 옥길동 744-3번지 3층 303~305호","indutype":"보건위생 - 미용원","category":"beauty"}]},{"lat":"37.466483703","long":"126.82360455","imageIndex":13,"items":[{"name":"로뎀헤어","tel":"032-341-5205","addr":"경기도 부천시 옥길동 744-2번지 이에스타워 103호","indutype":"보건위생 - 미용원","category":"beauty"},{"name":"리본스킨앤바디","tel":"032-666-7106","addr":"경기도 부천시 옥길동 744-2번지 이에스타워 2층 205호","indutype":"보건위생 - 피부미용실","category":"beauty"},{"name":"아이누리 아동발달센터 부천옥길점","tel":"032-347-7369","addr":"경기도 부천시 옥길동 744-2번지 이에스타워 4층 401호","indutype":"보건위생 - 기타대인서비스","category":"beauty"}]},{"lat":"37.467184188","long":"126.82209947","imageIndex":13,"items":[{"name":"리안","tel":"032-345-6509","addr":"경기도 부천시 옥길동 726-4번지 상림프라자 202호","indutype":"보건위생 - 화장품","category":"beauty"},{"name":"퀸즈미","tel":"032-721-7775","addr":"경기도 부천시 옥길동 726-4번지 상림프라자 2층 201호","indutype":"보건위생 - 피부미용실","category":"beauty"}]},{"lat":"37.468765913","long":"126.81948441","imageIndex":13,"items":[{"name":"모모네일","tel":"","addr":"경기도 부천시 옥길동 713-3번지 1층 101-2호","indutype":"보건위생 - 피부미용실","category":"beauty"}]},{"lat":"37.467435583","long":"126.82152236","imageIndex":13,"items":[{"name":"무드네일","tel":"031-0000-0000","addr":"경기도 부천시 옥길동 724-7번지 1층 일부","indutype":"보건위생 - 피부미용실","category":"beauty"}]},{"lat":"37.469018892","long":"126.81993596","imageIndex":13,"items":[{"name":"박'S헤어","tel":"032-344-7179","addr":"경기도 부천시 옥길동 713-6번지 1층 102호","indutype":"보건위생 - 미용원","category":"beauty"}]},{"lat":"37.468489224","long":"126.8211807","imageIndex":13,"items":[{"name":"보람헤어","tel":"032-341-5646","addr":"경기도 부천시 옥길동 722-1번지","indutype":"보건위생 - 미용원","category":"beauty"}]},{"lat":"37.461904221","long":"126.81060568","imageIndex":13,"items":[{"name":"뷰티호텔260","tel":"02-123-1234","addr":"경기도 부천시 옥길동 780-1번지 옥길호반베르디움 제근린생활시설2동 제1층 110호","indutype":"보건위생 - 화장품","category":"beauty"},{"name":"헤어데몽","tel":"032-343-7778","addr":"경기도 부천시 옥길동 780-1번지 근린상가 2동 1층 106호","indutype":"보건위생 - 미용원","category":"beauty"}]},{"lat":"37.461764611","long":"126.81912852","imageIndex":13,"items":[{"name":"브리즈헤어","tel":"032-342-7782","addr":"경기도 부천시 옥길동 753-5번지 101호","indutype":"보건위생 - 미용원","category":"beauty"}]},{"lat":"37.466934114","long":"126.82354695","imageIndex":13,"items":[{"name":"블루클럽","tel":"032-347-9553","addr":"경기도 부천시 옥길동 744-1번지 부천옥길대우센트럴프라자 1층 110호","indutype":"보건위생 - 미용원","category":"beauty"}]},{"lat":"37.46959544","long":"126.81987803","imageIndex":13,"items":[{"name":"살롱드앰투엠(SALON DE M2M)","tel":"031-343-4810","addr":"경기도 부천시 옥길동 704-4번지 1층 103호","indutype":"보건위생 - 미용원","category":"beauty"}]},{"lat":"37.467986297","long":"126.82224449","imageIndex":13,"items":[{"name":"살롱디케이(Salon D.K)","tel":"070-7614-3579","addr":"경기도 부천시 옥길동 723-2번지 101호","indutype":"보건위생 - 미용원","category":"beauty"}]},{"lat":"37.464957462","long":"126.82723662","imageIndex":13,"items":[{"name":"어썸헤어","tel":"032-344-5401","addr":"경기도 부천시 옥길동 739-1번지 제이드카운티2단지 106호","indutype":"보건위생 - 미용원","category":"beauty"}]},{"lat":"37.46173603","long":"126.81813392","imageIndex":13,"items":[{"name":"프리미엄헤어살롱차차","tel":"032-344-8120","addr":"경기도 부천시 옥길동 756-1번지 1층","indutype":"보건위생 - 미용원","category":"beauty"}]},{"lat":"37.466958593","long":"126.82187393","imageIndex":13,"items":[{"name":"해밀아동발달센터2호점","tel":"032-345-4298","addr":"경기도 부천시 옥길동 726-5번지 드림탑프라자 6층 603호","indutype":"보건위생 - 기타대인서비스","category":"beauty"}]},{"lat":"37.467680287","long":"126.82246","imageIndex":13,"items":[{"name":"희(hee)스킨케어","tel":"032-341-9701","addr":"경기도 부천시 옥길동 726-2번지 씨티프라자 502호","indutype":"보건위생 - 피부미용실","category":"beauty"}]}]