[{"lat":"37.859746475","long":"126.79595199","imageIndex":16,"items":[{"name":"JS학원","tel":"031-953-5552","addr":"경기도 파주시 문산읍 선유리 1356번지 양우내안애아파트","indutype":"학원 - 보습학원","category":"study"}]},{"lat":"37.868521394","long":"126.80103028","imageIndex":16,"items":[{"name":"SKY어린이집[아이행복]","tel":"031-954-0790","addr":"경기도 파주시 문산읍 선유리 809-5번지","indutype":"학원 - 유아원","category":"study"}]},{"lat":"37.866547165","long":"126.80034242","imageIndex":16,"items":[{"name":"경희대튼튼태권도","tel":"031-952-9888","addr":"경기도 파주시 문산읍 선유리 1394번지 휴먼시아","indutype":"학원 - 예·체능계학원","category":"study"},{"name":"이룸수학뮤엠영어학원","tel":"031-953-0504","addr":"경기도 파주시 문산읍 선유리 1394번지 휴먼시아","indutype":"회원제형태 - 학원","category":"study"},{"name":"휴먼피아노 교습소","tel":"031-953-5387","addr":"경기도 파주시 문산읍 선유리 1394번지 휴먼시아","indutype":"학원 - 예·체능계학원","category":"study"}]},{"lat":"37.858243077","long":"126.79153587","imageIndex":16,"items":[{"name":"국제청소년로봇연맹 파주지부","tel":"031-952-3214","addr":"경기도 파주시 문산읍 선유리 664-27번지","indutype":"학원 - 기타 교육기관","category":"study"}]},{"lat":"37.864547605","long":"126.80064337","imageIndex":16,"items":[{"name":"늘예솜피아노교습소","tel":"031-953-6888","addr":"경기도 파주시 문산읍 선유리 1358번지 휴먼시아","indutype":"회원제형태 - 학원","category":"study"},{"name":"선유2단지어린이집[아이행복]","tel":"031-953-7958","addr":"경기도 파주시 문산읍 선유리 1358번지 휴먼시아","indutype":"학원 - 유아원","category":"study"}]},{"lat":"37.863795906","long":"126.79837259","imageIndex":16,"items":[{"name":"드림음악학원","tel":"031-948-8258","addr":"경기도 파주시 문산읍 선유리 776-11번지","indutype":"학원 - 예·체능계학원","category":"study"},{"name":"위드학원","tel":"031-953-1081","addr":"경기도 파주시 문산읍 선유리 776-11번지","indutype":"회원제형태 - 학원","category":"study"}]},{"lat":"37.864023573","long":"126.78958746","imageIndex":16,"items":[{"name":"리틀어울림어린이집[아이행복]","tel":"031-953-0095","addr":"경기도 파주시 문산읍 선유리 688-7번지 문산어울림","indutype":"학원 - 유아원","category":"study"},{"name":"어울림어린이집[아이행복]","tel":"031-952-0096","addr":"경기도 파주시 문산읍 선유리 688-7번지 문산어울림","indutype":"학원 - 유아원","category":"study"}]},{"lat":"37.865770263","long":"126.80440166","imageIndex":16,"items":[{"name":"문산 한울태권도장","tel":"031-953-8899","addr":"경기도 파주시 문산읍 선유리 420-1번지","indutype":"학원 - 예·체능계학원","category":"study"}]},{"lat":"37.865327253","long":"126.79823199","imageIndex":16,"items":[{"name":"문산동초등학교병설유치원[아이행복]","tel":"031-952-0276","addr":"경기도 파주시 문산읍 선유리 788-1번지","indutype":"학원 - 유치원","category":"study"}]},{"lat":"37.872462092","long":"126.80853211","imageIndex":16,"items":[{"name":"문산중앙유치원","tel":"031-952-9102","addr":"경기도 파주시 문산읍 선유리 297-10","indutype":"학원 - 유치원","category":"study"},{"name":"문산중앙유치원[아이행복]","tel":"031-953-2323","addr":"경기도 파주시 문산읍 선유리 297-10번지","indutype":"학원 - 유치원","category":"study"}]},{"lat":"37.856691162","long":"126.79025628","imageIndex":16,"items":[{"name":"문산행복센터어린이집[아이행복]","tel":"031-954-2090","addr":"경기도 파주시 문산읍 선유리 1402번지","indutype":"학원 - 유아원","category":"study"},{"name":"파주시문산종합사회복지관","tel":"031-934-2000","addr":"경기도 파주시 문산읍 선유리 1402번지","indutype":"학원 - 기타 교육기관","category":"study"}]},{"lat":"37.864802433","long":"126.80214276","imageIndex":16,"items":[{"name":"생각나무공부방","tel":"070-7574-0623","addr":"경기도 파주시 문산읍 선유리 1358번지 휴먼시아","indutype":"회원제형태 - 학원","category":"study"}]},{"lat":"37.86473204","long":"126.80313164","imageIndex":16,"items":[{"name":"셀파교실","tel":"031-954-0950","addr":"경기도 파주시 문산읍 선유리 1409번지 문산선유4단지","indutype":"회원제형태 - 학원","category":"study"}]},{"lat":"37.858006564","long":"126.79027523","imageIndex":16,"items":[{"name":"소슬어린이집[아이행복]","tel":"031-954-0566","addr":"경기도 파주시 문산읍 선유리 1357번지 진흥소슬마을","indutype":"학원 - 유아원","category":"study"},{"name":"아이린어린이집[아이행복]","tel":"031-953-0029","addr":"경기도 파주시 문산읍 선유리 1357번지 진흥소슬마을","indutype":"학원 - 유아원","category":"study"}]},{"lat":"37.868317958","long":"126.80324698","imageIndex":16,"items":[{"name":"아띠어린이집","tel":"031-953-1110","addr":"경기도 파주시 문산읍 선유리 1404 휴먼시아5단지505동","indutype":"학원 - 유아원","category":"study"}]},{"lat":"37.858217189","long":"126.79217229","imageIndex":16,"items":[{"name":"엘씨자동차운전전문학원","tel":"031-952-6400","addr":"경기도 파주시 문산읍 선유리 664-10번지","indutype":"회원제형태 - 학원","category":"study"}]},{"lat":"37.859388292","long":"126.79720297","imageIndex":16,"items":[{"name":"오즈잉글리쉬어학원","tel":"031-952-0775","addr":"경기도 파주시 문산읍 선유리 735-1번지","indutype":"학원 - 보습학원","category":"study"},{"name":"용인대 선유 청룡태권도","tel":"031-954-2573","addr":"경기도 파주시 문산읍 선유리 735-1번지","indutype":"학원 - 예·체능계학원","category":"study"}]},{"lat":"37.860802736","long":"126.78711946","imageIndex":16,"items":[{"name":"용인대문산유도체육관","tel":"031-952-5326","addr":"경기도 파주시 문산읍 선유리 951-4번지","indutype":"학원 - 예·체능계학원","category":"study"},{"name":"클릭컴퓨터학원","tel":"031-953-8700","addr":"경기도 파주시 문산읍 선유리 951-4번지","indutype":"학원 - 컴퓨터학원","category":"study"}]},{"lat":"37.86001903","long":"126.78717856","imageIndex":16,"items":[{"name":"우리동네미술학원","tel":"031-953-0250","addr":"경기도 파주시 문산읍 선유리 953-8번지","indutype":"학원 - 예·체능계학원","category":"study"}]},{"lat":"37.859054709","long":"126.79706754","imageIndex":16,"items":[{"name":"유리피아노학원","tel":"031-952-0234","addr":"경기도 파주시 문산읍 선유리 738-7번지","indutype":"학원 - 예·체능계학원","category":"study"}]},{"lat":"37.862824535","long":"126.79931849","imageIndex":16,"items":[{"name":"이(e)해법솔루션학원","tel":"","addr":"경기도 파주시 문산읍 선유리 779-11번지","indutype":"학원 - 보습학원","category":"study"}]},{"lat":"37.860054405","long":"126.79687158","imageIndex":16,"items":[{"name":"잉글리쉬무무에이스학원","tel":"031-952-1007","addr":"경기도 파주시 문산읍 선유리 724-20번지","indutype":"학원 - 외국어학원","category":"study"}]},{"lat":"37.858196518","long":"126.79069512","imageIndex":16,"items":[{"name":"잰둥이어린이집[아이행복]","tel":"031-952-7142","addr":"경기도 파주시 문산읍 선유리 1357번지 진흥소슬마을","indutype":"학원 - 유아원","category":"study"}]},{"lat":"37.867267682","long":"126.80551138","imageIndex":16,"items":[{"name":"전진타운 어린이집[아이행복]","tel":"031-952-5001","addr":"경기도 파주시 문산읍 선유리 1398번지 선유전진타운","indutype":"학원 - 유아원","category":"study"}]},{"lat":"37.866357035","long":"126.80509332","imageIndex":16,"items":[{"name":"제이(J)에벤에셀음악학원","tel":"031-953-7751","addr":"경기도 파주시 문산읍 선유리 419-4번지","indutype":"학원 - 예·체능계학원","category":"study"}]},{"lat":"37.858993877","long":"126.79322688","imageIndex":16,"items":[{"name":"쿠키어린이집[아이행복]","tel":"070-7558-7568","addr":"경기도 파주시 문산읍 선유리 1350번지 두산위브","indutype":"학원 - 유아원","category":"study"}]},{"lat":"37.86609123","long":"126.80241201","imageIndex":16,"items":[{"name":"토리맘어린이집[아이행복]","tel":"031-952-3285","addr":"경기도 파주시 문산읍 선유리 1409번지 문산선유4단지","indutype":"학원 - 유아원","category":"study"}]},{"lat":"37.862464962","long":"126.78959195","imageIndex":16,"items":[{"name":"프라임한신어린이집[아이행복]","tel":"031-954-2111","addr":"경기도 파주시 문산읍 선유리 935-1번지","indutype":"학원 - 유아원","category":"study"}]},{"lat":"37.859713123","long":"126.79748616","imageIndex":16,"items":[{"name":"학이유치원","tel":"031-954-1114","addr":"경기도 파주시 문산읍 선유리 735-5번지","indutype":"학원 - 유치원","category":"study"}]},{"lat":"37.859859485","long":"126.79875847","imageIndex":16,"items":[{"name":"해법중국어","tel":"031-952-3832","addr":"경기도 파주시 문산읍 선유리 750-3번지 우정빌라","indutype":"회원제형태 - 학원","category":"study"}]}]