[{"lat":"37.075877339","long":"127.42224849","imageIndex":16,"items":[{"name":"꿈나무음악학원","tel":"031-676-6044","addr":"경기도 안성시 죽산면 죽산리 442-9번지 2층","indutype":"학원 - 예·체능계학원","category":"study"}]},{"lat":"37.07698847","long":"127.42144493","imageIndex":16,"items":[{"name":"아이비학원","tel":"031-676-0208","addr":"경기도 안성시 죽산면 죽산리 448-10번지","indutype":"학원 - 보습학원","category":"study"}]},{"lat":"37.076712083","long":"127.42061124","imageIndex":16,"items":[{"name":"연세에듀학원","tel":"031-676-7789","addr":"경기도 안성시 죽산면 죽산리 413번지 2층 202호","indutype":"학원 - 보습학원","category":"study"},{"name":"연세에듀학원","tel":"031-676-7789","addr":"경기도 안성시 죽산면 죽산리 413번지","indutype":"학원 - 보습학원","category":"study"}]},{"lat":"37.082627156","long":"127.42452371","imageIndex":16,"items":[{"name":"죽산고등학교","tel":"031-8056-6600","addr":"경기도 안성시 죽산면 죽산리 321번지 죽산종합고등학교","indutype":"학원 - 초중고교육기관","category":"study"},{"name":"죽산고등학교_수업료","tel":"031-8056-6600","addr":"경기도 안성시 죽산면 죽산리 321번지 죽산종합고등학교","indutype":"학원 - 초중고교육기관","category":"study"}]},{"lat":"37.07687987","long":"127.42157928","imageIndex":16,"items":[{"name":"죽산모차르트음악학원","tel":"031-675-8898","addr":"경기도 안성시 죽산면 죽산리 448-8번지","indutype":"학원 - 예·체능계학원","category":"study"}]},{"lat":"37.081545396","long":"127.42466392","imageIndex":16,"items":[{"name":"죽산중학교","tel":"031-676-6321","addr":"경기도 안성시 죽산면 죽산리 318번지 죽산중학교","indutype":"학원 - 초중고교육기관","category":"study"}]},{"lat":"37.077350256","long":"127.42360608","imageIndex":16,"items":[{"name":"죽산체육관","tel":"031-677-8203","addr":"경기도 안성시 죽산면 죽산리 471-10번지","indutype":"학원 - 예·체능계학원","category":"study"}]},{"lat":"37.077793839","long":"127.42047098","imageIndex":16,"items":[{"name":"죽산초등학교","tel":"031-675-1127","addr":"경기도 안성시 죽산면 죽산리 405-2번지 죽산초등학교","indutype":"학원 - 초중고교육기관","category":"study"}]}]