[{"lat":"37.016045749","long":"127.03151308","imageIndex":4,"items":[{"name":"광어9900","tel":"031-611-1249","addr":"경기도 평택시 고덕면 궁리 84-12번지","indutype":"음식점 - 횟집","category":"restaurant"},{"name":"광어9900","tel":"031-611-1722","addr":"경기도 평택시 고덕면 궁리 84-12번지","indutype":"일반휴게음식 - 일식·회집","category":"restaurant"}]},{"lat":"37.01810019","long":"127.03148014","imageIndex":4,"items":[{"name":"궁리맥주","tel":"","addr":"경기도 평택시 고덕면 궁리 200-1번지 나동 1층","indutype":"일반휴게음식 - 일반한식","category":"restaurant"},{"name":"궁리토종닭백숙","tel":"031-662-3877","addr":"경기도 평택시 고덕면 궁리 200-1번지 가동 1층","indutype":"일반휴게음식 - 일반한식","category":"restaurant"},{"name":"궁리토종닭백숙","tel":"031-664-0012","addr":"경기도 평택시 고덕면 궁리 200-1번지 가동 1층","indutype":"음식점 - 한식","category":"restaurant"},{"name":"한상","tel":"031-611-0071","addr":"경기도 평택시 고덕면 궁리 200-1번지","indutype":"음식점 - 중식","category":"restaurant"}]},{"lat":"37.016486732","long":"127.0336707","imageIndex":4,"items":[{"name":"김밥천국","tel":"031-664-6903","addr":"경기도 평택시 고덕면 궁리 75번지 태평아파트 113호","indutype":"음식점 - 분식","category":"restaurant"},{"name":"꼬지꼬지","tel":"031-000-0000","addr":"경기도 평택시 고덕면 궁리 75번지 태평 상가 219호","indutype":"일반휴게음식 - 주점","category":"restaurant"},{"name":"도니와포차","tel":"031-667-0116","addr":"경기도 평택시 고덕면 궁리 75번지 태평아파트 103호","indutype":"음식점 - 한식","category":"restaurant"},{"name":"만나 분식","tel":"","addr":"경기도 평택시 고덕면 궁리 75번지 태평아파트 117호","indutype":"음식점 - 분식","category":"restaurant"},{"name":"먹골촌순대국밥","tel":"031-667-9220","addr":"경기도 평택시 고덕면 궁리 75번지 태평 상가 1층 121호","indutype":"일반휴게음식 - 일반한식","category":"restaurant"},{"name":"태평수닭갈비&부대찌개","tel":"070-4151-2290","addr":"경기도 평택시 고덕면 궁리 75번지 태평아파트 1층 127호","indutype":"일반휴게음식 - 일반한식","category":"restaurant"},{"name":"태평수닭갈비&부대찌개","tel":"031-611-3383","addr":"경기도 평택시 고덕면 궁리 75번지 태평아파트 127호","indutype":"음식점 - 한식","category":"restaurant"},{"name":"평송 돌삼겹","tel":"031-662-5557","addr":"경기도 평택시 고덕면 궁리 75번지 태평아파트 211호","indutype":"음식점 - 한식","category":"restaurant"},{"name":"한끼니","tel":"031-662-3656","addr":"경기도 평택시 고덕면 궁리 75번지 태평 상가 105호","indutype":"일반휴게음식 - 일반한식","category":"restaurant"},{"name":"훼미리푸드","tel":"031-611-2239","addr":"경기도 평택시 고덕면 궁리 75번지 태평상가 222호","indutype":"일반휴게음식 - 일반한식","category":"restaurant"},{"name":"훼미리푸드","tel":"031-611-1101","addr":"경기도 평택시 고덕면 궁리 75번지 태평 상가 222호","indutype":"음식점 - 한식","category":"restaurant"}]},{"lat":"37.019740105","long":"127.03159313","imageIndex":4,"items":[{"name":"농가숯불갈비","tel":"031-611-0071","addr":"경기도 평택시 고덕면 궁리 213-2번지 1층","indutype":"일반휴게음식 - 일반한식","category":"restaurant"},{"name":"농가숯불갈비","tel":"031-662-3350","addr":"경기도 평택시 고덕면 궁리 213-2번지","indutype":"음식점 - 한식","category":"restaurant"}]},{"lat":"37.016965242","long":"127.02978295","imageIndex":4,"items":[{"name":"다복추어탕","tel":"031-663-5453","addr":"경기도 평택시 고덕면 궁리 95-1번지","indutype":"음식점 - 한식","category":"restaurant"},{"name":"다복추어탕","tel":"031-668-1472","addr":"경기도 평택시 고덕면 궁리 95-1번지 1층","indutype":"일반휴게음식 - 일반한식","category":"restaurant"}]},{"lat":"37.019577972","long":"127.03134585","imageIndex":4,"items":[{"name":"만남","tel":"031-662-3350","addr":"경기도 평택시 고덕면 궁리 213-5번지","indutype":"일반휴게음식 - 주점","category":"restaurant"},{"name":"만남 호프","tel":"031-663-1985","addr":"경기도 평택시 고덕면 궁리 213-5번지","indutype":"음식점 - 호프","category":"restaurant"},{"name":"정석통바베큐족구이 고덕본점","tel":"031-684-1597","addr":"경기도 평택시 고덕면 궁리 213-5번지","indutype":"음식점 - 한식","category":"restaurant"},{"name":"정석통바베큐족구이고덕본점","tel":"031-663-1230","addr":"경기도 평택시 고덕면 궁리 213-5번지 가동","indutype":"일반휴게음식 - 일반한식","category":"restaurant"}]},{"lat":"37.013209571","long":"127.0202308","imageIndex":4,"items":[{"name":"바람새마을","tel":"031-663-5453","addr":"경기도 평택시 고덕면 궁리 505-2번지 1동 1층","indutype":"일반휴게음식 - 일반한식","category":"restaurant"}]},{"lat":"37.016018652","long":"127.03178275","imageIndex":4,"items":[{"name":"배다리감자탕 (고덕분점)","tel":"031-667-1008","addr":"경기도 평택시 고덕면 궁리 82-1번지 106호","indutype":"일반휴게음식 - 일반한식","category":"restaurant"},{"name":"배다리감자탕(고덕분점)","tel":"031-665-5569","addr":"경기도 평택시 고덕면 궁리 82-1번지 106호","indutype":"음식점 - 한식","category":"restaurant"},{"name":"커피상점","tel":"031-653-8940","addr":"경기도 평택시 고덕면 궁리 82-1번지 1동 102호","indutype":"일반휴게음식 - 서양음식","category":"restaurant"}]},{"lat":"37.017822838","long":"127.02153534","imageIndex":4,"items":[{"name":"봉이김선달","tel":"031-668-8425","addr":"경기도 평택시 고덕면 궁리 392번지","indutype":"일반휴게음식 - 일반한식","category":"restaurant"}]},{"lat":"37.01771192","long":"127.03467128","imageIndex":4,"items":[{"name":"비비큐태평점","tel":"031-668-1166","addr":"경기도 평택시 고덕면 궁리 72-1번지 외1필지","indutype":"일반휴게음식 - 스넥","category":"restaurant"},{"name":"포항이모네","tel":"031-662-8892","addr":"경기도 평택시 고덕면 궁리 72-1번지 A동","indutype":"일반휴게음식 - 일반한식","category":"restaurant"}]},{"lat":"37.016217176","long":"127.03056926","imageIndex":4,"items":[{"name":"수미정","tel":"031-668-5301","addr":"경기도 평택시 고덕면 궁리 101-1번지","indutype":"일반휴게음식 - 중국식","category":"restaurant"}]},{"lat":"37.021855637","long":"127.03884214","imageIndex":4,"items":[{"name":"오로지백반","tel":"","addr":"경기도 평택시 고덕면 궁리 34-4번지","indutype":"일반휴게음식 - 일반한식","category":"restaurant"}]},{"lat":"37.016216734","long":"127.03240084","imageIndex":4,"items":[{"name":"정겨운연탄구이","tel":"031-611-1249","addr":"경기도 평택시 고덕면 궁리 78-1번지 C동","indutype":"일반휴게음식 - 일반한식","category":"restaurant"},{"name":"정겨운연탄구이","tel":"031-611-2632","addr":"경기도 평택시 고덕면 궁리 78-1번지 C동","indutype":"음식점 - 일반","category":"restaurant"}]},{"lat":"37.016126971","long":"127.03098499","imageIndex":4,"items":[{"name":"짬뽕나무","tel":"031-611-1722","addr":"경기도 평택시 고덕면 궁리 85-8번지","indutype":"음식점 - 중식","category":"restaurant"},{"name":"짬뽕나무(태평각)","tel":"031-663-8480","addr":"경기도 평택시 고덕면 궁리 85-8번지","indutype":"일반휴게음식 - 중국식","category":"restaurant"}]},{"lat":"37.017522696","long":"127.0346712","imageIndex":4,"items":[{"name":"함지박","tel":"031-664-4828","addr":"경기도 평택시 고덕면 궁리 72-5번지","indutype":"일반휴게음식 - 일반한식","category":"restaurant"},{"name":"황금옻닭","tel":"031-692-7441","addr":"경기도 평택시 고덕면 궁리 72-5번지 1층 2호","indutype":"일반휴게음식 - 일반한식","category":"restaurant"}]}]