[{"lat":"37.178001645","long":"127.05664022","imageIndex":17,"items":[{"name":"(주)웰룩스","tel":"031-689-3997","addr":"경기도 오산시 내삼미동 466-5번지 2층","indutype":"건축자재 - 조명기구","category":"other"},{"name":"감성 플라워","tel":"031-376-1866","addr":"경기도 오산시 내삼미동 466-5번지","indutype":"문화.취미 - 화원","category":"other"},{"name":"갤러리희","tel":"031-373-8544","addr":"경기도 오산시 내삼미동 466-5번지","indutype":"가구 - 일반가구","category":"other"},{"name":"배스당","tel":"031-377-6066","addr":"경기도 오산시 내삼미동 466-5번지 2층","indutype":"레져용품 - 스포츠·레져용품","category":"other"},{"name":"삼천리자전거","tel":"031-736-4445","addr":"경기도 오산시 내삼미동 466-5번지","indutype":"레져용품 - 스포츠·레져용품","category":"other"},{"name":"중고가전알뜰이","tel":"","addr":"경기도 오산시 내삼미동 466-5번지 1층","indutype":"전기제품 - 가전제품","category":"other"}]},{"lat":"37.173224863","long":"127.05933922","imageIndex":17,"items":[{"name":"GS25오산대역점","tel":"02-2006-2485","addr":"경기도 오산시 내삼미동 861-16번지 세교프라자 17동 101호","indutype":"유통업 영리 - 편 의 점","category":"other"}]},{"lat":"37.181833213","long":"127.05169927","imageIndex":17,"items":[{"name":"LED 미","tel":"031-376-7732","addr":"경기도 오산시 내삼미동 573-30번지","indutype":"건축자재 - 조명기구","category":"other"}]},{"lat":"37.176028586","long":"127.05614337","imageIndex":17,"items":[{"name":"adonai","tel":"070-7704-6415","addr":"경기도 오산시 내삼미동 850-3번지 천하빌딩 1층","indutype":"신변잡화 - 기타잡화","category":"other"},{"name":"이레제이에스","tel":"031-377-3885","addr":"경기도 오산시 내삼미동 850-3번지 천하빌딩 1층","indutype":"용역 서비스 - 기타용역서비스","category":"other"}]},{"lat":"37.174524166","long":"127.05542166","imageIndex":17,"items":[{"name":"mini2mom","tel":"","addr":"경기도 오산시 내삼미동 883-2번지 1층 101호","indutype":"신변잡화 - 액세서리","category":"other"},{"name":"아임유_혜닝(IMU_henning)","tel":"","addr":"경기도 오산시 내삼미동 883-2번지 1층 102호","indutype":"의류 - 정장","category":"other"}]},{"lat":"37.175586999","long":"127.05631196","imageIndex":17,"items":[{"name":"골든벨에듀","tel":"031-223-2336","addr":"경기도 오산시 내삼미동 857-4번지 성운빌딩 2층","indutype":"서적문구 - 일반서적","category":"other"},{"name":"바른교육","tel":"031-223-2336","addr":"경기도 오산시 내삼미동 857-4번지 성운빌딩","indutype":"서적문구 - 일반서적","category":"other"}]},{"lat":"37.179776637","long":"127.05677661","imageIndex":17,"items":[{"name":"국제전기상사","tel":"031-373-9501","addr":"경기도 오산시 내삼미동 499번지","indutype":"전기제품 - 기타전기제품","category":"other"}]},{"lat":"37.179614408","long":"127.05686658","imageIndex":17,"items":[{"name":"국제케이블주식회사","tel":"031-373-9501","addr":"경기도 오산시 내삼미동 498","indutype":"전기제품 - 기타전기제품","category":"other"}]},{"lat":"37.181392056","long":"127.05083188","imageIndex":17,"items":[{"name":"네비원오산점","tel":"031-378-9916","addr":"경기도 오산시 내삼미동 575번지","indutype":"수리서비스 - 기타수리서비스","category":"other"},{"name":"두산오토컴","tel":"031-378-9616","addr":"경기도 오산시 내삼미동 575번지 1층","indutype":"전기제품 - 기타전기제품","category":"other"},{"name":"서진낚시","tel":"031-372-3508","addr":"경기도 오산시 내삼미동 575번지","indutype":"레져용품 - 스포츠·레져용품","category":"other"},{"name":"웅신아트기획","tel":"031-373-4481","addr":"경기도 오산시 내삼미동 575번지 1층","indutype":"건축자재 - 인테리어전문","category":"other"}]},{"lat":"37.177501709","long":"127.06552444","imageIndex":17,"items":[{"name":"뉴엠텍","tel":"031-372-9962","addr":"경기도 오산시 내삼미동 219-7번지 101동","indutype":"서적문구 - 출판 및 인쇄물","category":"other"}]},{"lat":"37.176501564","long":"127.06550109","imageIndex":17,"items":[{"name":"다온건축디자인","tel":"","addr":"경기도 오산시 내삼미동 125-1번지 1층","indutype":"건축자재 - 인테리어전문","category":"other"}]},{"lat":"37.182083062","long":"127.05730752","imageIndex":17,"items":[{"name":"다온산업","tel":"031-372-6555","addr":"경기도 오산시 내삼미동 508-3번지 전체 B동 1,2층","indutype":"기타 - 기계공구","category":"other"}]},{"lat":"37.173134893","long":"127.05905765","imageIndex":17,"items":[{"name":"대박공인중개사사무소","tel":"031-376-3795","addr":"경기도 오산시 내삼미동 861-14번지 백승 102호","indutype":"용역 서비스 - 부동산 중개·임대","category":"other"}]},{"lat":"37.180443367","long":"127.05686717","imageIndex":17,"items":[{"name":"대성리사이클","tel":"031-375-9225","addr":"경기도 오산시 내삼미동 500번지 외4필지","indutype":"용역 서비스 - 종합용역","category":"other"}]},{"lat":"37.174416041","long":"127.05542159","imageIndex":17,"items":[{"name":"대성정보시스템","tel":"031-373-3211","addr":"경기도 오산시 내삼미동 883-3번지 상가동 101호","indutype":"사무통신 - 사무용 OA기기","category":"other"}]},{"lat":"37.175833551","long":"127.0678089","imageIndex":17,"items":[{"name":"대한창호","tel":"031-373-6315","addr":"경기도 오산시 내삼미동 132-2번지 상호유리창호공사","indutype":"건축자재 - 인테리어전문","category":"other"},{"name":"민트라벨","tel":"","addr":"경기도 오산시 내삼미동 132-2번지 나동","indutype":"의류 - 정장","category":"other"},{"name":"삼오유리창호공사","tel":"031-372-3562","addr":"경기도 오산시 내삼미동 132-2번지 다동","indutype":"건축자재 - 기타건축자재","category":"other"}]},{"lat":"37.174026978","long":"127.05894571","imageIndex":17,"items":[{"name":"더존인테리어","tel":"","addr":"경기도 오산시 내삼미동 864-15번지 C동 3층 01호","indutype":"건축자재 - 인테리어전문","category":"other"}]},{"lat":"37.177082061","long":"127.05777688","imageIndex":17,"items":[{"name":"동문대우센타","tel":"031-239-2515","addr":"경기도 오산시 내삼미동 493-17번지","indutype":"기타 - 기계공구","category":"other"},{"name":"현대지게차","tel":"031-375-9008","addr":"경기도 오산시 내삼미동 493-17번지 2층","indutype":"기타 - 기계공구","category":"other"}]},{"lat":"37.175001483","long":"127.05595122","imageIndex":17,"items":[{"name":"동서타일아이엔씨","tel":"031-377-2003","addr":"경기도 오산시 내삼미동 858-2,858-3","indutype":"건축자재 - 건축용 요업제품","category":"other"}]},{"lat":"37.177775501","long":"127.05855436","imageIndex":17,"items":[{"name":"동서합판","tel":"031-373-4763","addr":"경기도 오산시 내삼미동 431-5번지","indutype":"건축자재 - 기타건축자재","category":"other"},{"name":"주식회사 비에스디(BSD Co.,Ltd)","tel":"031-000-0000","addr":"경기도 오산시 내삼미동 431-5번지 애경화학","indutype":"건축자재 - 기타건축자재","category":"other"},{"name":"주식회사 인테크","tel":"031-8003-6510","addr":"경기도 오산시 내삼미동 431-5번지 애경화학 C동 202호","indutype":"전기제품 - 기타전기제품","category":"other"}]},{"lat":"37.179442386","long":"127.05864567","imageIndex":17,"items":[{"name":"디에스하우징","tel":"031-375-2469","addr":"경기도 오산시 내삼미동 431-1번지 H동","indutype":"건축자재 - 기타건축자재","category":"other"}]},{"lat":"37.175830443","long":"127.0559518","imageIndex":17,"items":[{"name":"디자인마인","tel":"031-222-5244","addr":"경기도 오산시 내삼미동 850-11번지 광봉빌 B동 203호","indutype":"건축자재 - 인테리어전문","category":"other"}]},{"lat":"37.172364795","long":"127.06733303","imageIndex":17,"items":[{"name":"또또와","tel":"","addr":"경기도 오산시 내삼미동 898번지 세교쌍용예가NHF 1806동 1103호","indutype":"신변잡화 - 액세서리","category":"other"},{"name":"미니스톱 오산쌍용예가점","tel":"031-1577-9621","addr":"경기도 오산시 내삼미동 898번지 세교쌍용예가 상가동 104호","indutype":"유통업 영리 - 편 의 점","category":"other"},{"name":"스타에어컨","tel":"","addr":"경기도 오산시 내삼미동 898번지 세교쌍용예가NHF 1808동 701호","indutype":"용역 서비스 - 기타용역서비스","category":"other"}]},{"lat":"37.176694224","long":"127.05860987","imageIndex":17,"items":[{"name":"롯데하이마트(주)오산세교점","tel":"031-8055-7731","addr":"경기도 오산시 내삼미동 483-5번지","indutype":"전기제품 - 가전제품","category":"other"}]},{"lat":"37.176113745","long":"127.06619892","imageIndex":17,"items":[{"name":"뮤즈데(MUZDE)","tel":"070-4512-9311","addr":"경기도 오산시 내삼미동 126-3번지 1층 입구앞","indutype":"의류 - 정장","category":"other"}]},{"lat":"37.174302128","long":"127.06716577","imageIndex":17,"items":[{"name":"보빈앤니들","tel":"","addr":"경기도 오산시 내삼미동 899번지 세교신도시호반베르디움 109동 1304호","indutype":"신변잡화 - 가방","category":"other"},{"name":"상상디자인","tel":"032-567-4478","addr":"경기도 오산시 내삼미동 899번지 세교신도시호반베르디움 105동 1504호","indutype":"용역 서비스 - 종합용역","category":"other"},{"name":"씨유오산세교호반점","tel":"080-080-3663","addr":"경기도 오산시 내삼미동 899번지 호반베르디움 상가동 01호","indutype":"유통업 영리 - 편 의 점","category":"other"},{"name":"제이엠디자인","tel":"031-378-6466","addr":"경기도 오산시 내삼미동 899번지 세교신도시호반베르디움 109동 604호","indutype":"건축자재 - 인테리어전문","category":"other"}]},{"lat":"37.184776136","long":"127.059528","imageIndex":17,"items":[{"name":"빈이네 주","tel":"031-378-6678","addr":"경기도 오산시 내삼미동 389-11번지","indutype":"문화.취미 - 애완동물","category":"other"}]},{"lat":"37.182415606","long":"127.05910957","imageIndex":17,"items":[{"name":"서한도서","tel":"031-373-6402","addr":"경기도 오산시 내삼미동 412-1번지","indutype":"서적문구 - 일반서적","category":"other"}]},{"lat":"37.178140538","long":"127.06722533","imageIndex":17,"items":[{"name":"세라엔아트","tel":"070-8031-4038","addr":"경기도 오산시 내삼미동 207번지 405호","indutype":"문화.취미 - 문화취미기타","category":"other"}]},{"lat":"37.173865182","long":"127.05811235","imageIndex":17,"items":[{"name":"수청철물건재","tel":"031-377-5776","addr":"경기도 오산시 내삼미동 861-4번지","indutype":"건축자재 - 목재·석재·철물","category":"other"}]},{"lat":"37.176087085","long":"127.06550075","imageIndex":17,"items":[{"name":"신용철물건재","tel":"031-376-6041","addr":"경기도 오산시 내삼미동 124번지 1층","indutype":"건축자재 - 목재·석재·철물","category":"other"}]},{"lat":"37.175028139","long":"127.05678449","imageIndex":17,"items":[{"name":"씨앤비텍","tel":"031-8015-3980","addr":"경기도 오산시 내삼미동 859-24번지 1층","indutype":"레져용품 - 스포츠·레져용품","category":"other"}]},{"lat":"37.175001599","long":"127.05569224","imageIndex":17,"items":[{"name":"씨유내삼미원룸점","tel":"031-377-9085","addr":"경기도 오산시 내삼미동 858-1번지","indutype":"유통업 영리 - 편 의 점","category":"other"}]},{"lat":"37.174279724","long":"127.05797753","imageIndex":17,"items":[{"name":"씨유오산내삼미동점","tel":"031-375-8078","addr":"경기도 오산시 내삼미동 861-1번지 한창빌 1층","indutype":"유통업 영리 - 편 의 점","category":"other"}]},{"lat":"37.175586042","long":"127.05839511","imageIndex":17,"items":[{"name":"씨유오산내삼미스카이점","tel":"080-080-3663","addr":"경기도 오산시 내삼미동 853-14번지 소바빌 1층","indutype":"유통업 영리 - 편 의 점","category":"other"}]},{"lat":"37.17428097","long":"127.05523007","imageIndex":17,"items":[{"name":"아이돌슬라임","tel":"","addr":"경기도 오산시 내삼미동 883-8번지 1동","indutype":"서적문구 - 문구용품","category":"other"}]},{"lat":"37.174441522","long":"127.0588109","imageIndex":17,"items":[{"name":"아이앤아이","tel":"","addr":"경기도 오산시 내삼미동 864-18번지 포근한빌 305호","indutype":"주방용구 - 주방용구","category":"other"}]},{"lat":"37.175914509","long":"127.0680567","imageIndex":17,"items":[{"name":"에스씨(SC)인터내셔날(기가특판)","tel":"070-4204-0796","addr":"경기도 오산시 내삼미동 133번지","indutype":"레져용품 - 스포츠·레져용품","category":"other"},{"name":"에스씨(SC)인터내셔날(기가특판)","tel":"070-5017-5736","addr":"경기도 오산시 내삼미동 133번지","indutype":"레져용품 - 스포츠·레져용품","category":"other"}]},{"lat":"37.177749122","long":"127.05714677","imageIndex":17,"items":[{"name":"엘로이산업","tel":"031-377-2644","addr":"경기도 오산시 내삼미동 484-22번지","indutype":"기타 - 기계공구","category":"other"},{"name":"주식회사힐링캠프투어","tel":"031-378-4225","addr":"경기도 오산시 내삼미동 484-22번지 상가 4층","indutype":"여행 - 관광여행","category":"other"}]},{"lat":"37.176609306","long":"127.06622185","imageIndex":17,"items":[{"name":"엠텍","tel":"031-000-0000","addr":"경기도 오산시 내삼미동 213-1번지","indutype":"기타 - 기계공구","category":"other"}]},{"lat":"37.18247051","long":"127.0573078","imageIndex":17,"items":[{"name":"영화프린팅","tel":"031-255-5666","addr":"경기도 오산시 내삼미동 508-5번지","indutype":"사무통신 - 기타 사무용품","category":"other"}]},{"lat":"37.180885005","long":"127.05658596","imageIndex":17,"items":[{"name":"우드웰","tel":"031-378-5633","addr":"경기도 오산시 내삼미동 504번지 1층","indutype":"건축자재 - 기타건축자재","category":"other"},{"name":"하나플러스","tel":"031-376-5781","addr":"경기도 오산시 내삼미동 504번지 하나플러스","indutype":"신변잡화 - 기타잡화","category":"other"}]},{"lat":"37.181197831","long":"127.06192394","imageIndex":17,"items":[{"name":"우정광고기획","tel":"031-377-6345","addr":"경기도 오산시 내삼미동 350-3번지","indutype":"용역 서비스 - 종합용역","category":"other"}]},{"lat":"37.175414965","long":"127.058136","imageIndex":17,"items":[{"name":"으뜸교육","tel":"031-8043-9922","addr":"경기도 오산시 내삼미동 854-2번지 장미빌 상가 1층","indutype":"서적문구 - 기타서적문구","category":"other"}]},{"lat":"37.174718623","long":"127.06333768","imageIndex":17,"items":[{"name":"이마트24 오산세교자이점","tel":"031-000-0000","addr":"경기도 오산시 내삼미동 895번지 세교자이 상가 102호,103호","indutype":"유통업 영리 - 편 의 점","category":"other"},{"name":"하얀크리닝","tel":"031-377-3586","addr":"경기도 오산시 내삼미동 895번지 오산세교자이근린생활시설1 301동 1층 104호","indutype":"수리서비스 - 세탁소","category":"other"}]},{"lat":"37.181308929","long":"127.0556178","imageIndex":17,"items":[{"name":"제이에스테크","tel":"070-4411-5751","addr":"경기도 오산시 내삼미동 746-2번지","indutype":"전기제품 - 기타전기제품","category":"other"}]},{"lat":"37.179470694","long":"127.05586426","imageIndex":17,"items":[{"name":"좋은날들","tel":"031-373-3732","addr":"경기도 오산시 내삼미동 535-2번지","indutype":"신변잡화 - 기타잡화","category":"other"},{"name":"주식회사원미디어","tel":"031-377-2254","addr":"경기도 오산시 내삼미동 535-2번지","indutype":"용역 서비스 - 종합용역","category":"other"},{"name":"주식회사펫클럽/오산점","tel":"070-4675-2258","addr":"경기도 오산시 내삼미동 535-2","indutype":"문화.취미 - 애완동물","category":"other"},{"name":"트윈비즈","tel":"","addr":"경기도 오산시 내삼미동 535-2번지 2동 2층","indutype":"레져용품 - 스포츠·레져용품","category":"other"},{"name":"편의점사랑(내삼미동점)","tel":"031-378-5958","addr":"경기도 오산시 내삼미동 535-2번지 1동","indutype":"유통업 영리 - 편 의 점","category":"other"}]},{"lat":"37.181558482","long":"127.06145125","imageIndex":17,"items":[{"name":"주식회사 반석철강","tel":"031-204-3417","addr":"경기도 오산시 내삼미동 347-4번지 다동","indutype":"건축자재 - 기타건축자재","category":"other"}]},{"lat":"37.184640606","long":"127.06030495","imageIndex":17,"items":[{"name":"주식회사 오산별빛터널","tel":"031-271-6000","addr":"경기도 오산시 내삼미동 389-1번지","indutype":"문화.취미 - 티켓","category":"other"}]},{"lat":"37.17605955","long":"127.0664466","imageIndex":17,"items":[{"name":"주식회사 중앙정밀","tel":"031-377-8334","addr":"경기도 오산시 내삼미동 127-1번지","indutype":"기타 - 기계공구","category":"other"}]},{"lat":"37.177523888","long":"127.0570903","imageIndex":17,"items":[{"name":"주식회사에버","tel":"031-8003-8225","addr":"경기도 오산시 내삼미동 493-7번지","indutype":"여행 - 렌터카","category":"other"}]},{"lat":"37.176028763","long":"127.05574925","imageIndex":17,"items":[{"name":"지노","tel":"","addr":"경기도 오산시 내삼미동 850-1번지 현대공인중개사 1층 1호","indutype":"기타 - 기계공구","category":"other"}]},{"lat":"37.174775964","long":"127.05652533","imageIndex":17,"items":[{"name":"출장배관관리 욕실관리","tel":"","addr":"경기도 오산시 내삼미동 858-7번지 주현주택 101호","indutype":"용역 서비스 - 기타용역서비스","category":"other"}]},{"lat":"37.176001408","long":"127.0564699","imageIndex":17,"items":[{"name":"케이에스 광고기획","tel":"031-373-3641","addr":"경기도 오산시 내삼미동 850-5번지 신동아빌2차 1층","indutype":"용역 서비스 - 종합용역","category":"other"}]},{"lat":"37.177392807","long":"127.06697696","imageIndex":17,"items":[{"name":"킹콩반품마트","tel":"031-275-7497","addr":"경기도 오산시 내삼미동 210번지 상가A동 1층 101-104호","indutype":"신변잡화 - 기타잡화","category":"other"}]},{"lat":"37.182308374","long":"127.05719507","imageIndex":17,"items":[{"name":"태성건설","tel":"031-224-5115","addr":"경기도 오산시 내삼미동 508-1번지 1층","indutype":"용역 서비스 - 기타용역서비스","category":"other"}]},{"lat":"37.175830245","long":"127.05639095","imageIndex":17,"items":[{"name":"태웅공조시스템","tel":"032-377-1514","addr":"경기도 오산시 내삼미동 850-6번지 B블럭 2층 202호","indutype":"용역 서비스 - 기타용역서비스","category":"other"}]},{"lat":"37.175553087","long":"127.06985803","imageIndex":17,"items":[{"name":"토브","tel":"031-222-8848","addr":"경기도 오산시 내삼미동 145번지 4층","indutype":"건축자재 - 기타건축자재","category":"other"},{"name":"한지아이티","tel":"031-222-8424","addr":"경기도 오산시 내삼미동 145번지 4층","indutype":"사무통신 - 컴퓨터","category":"other"}]},{"lat":"37.181191082","long":"127.05719427","imageIndex":17,"items":[{"name":"토탈","tel":"","addr":"경기도 오산시 내삼미동 505-2번지 일부","indutype":"주방용구 - 주방용구","category":"other"}]},{"lat":"37.177441993","long":"127.05881311","imageIndex":17,"items":[{"name":"통큰낚시","tel":"031-378-2755","addr":"경기도 오산시 내삼미동 462-1번지","indutype":"레져용품 - 스포츠·레져용품","category":"other"}]},{"lat":"37.180722401","long":"127.05749798","imageIndex":17,"items":[{"name":"한울공조","tel":"031-378-8870","addr":"경기도 오산시 내삼미동 428-2번지","indutype":"용역 서비스 - 기타용역서비스","category":"other"}]},{"lat":"37.173108174","long":"127.0583933","imageIndex":17,"items":[{"name":"향수세탁소","tel":"031-0000-0000","addr":"경기도 오산시 내삼미동 861-9번지","indutype":"수리서비스 - 세탁소","category":"other"}]}]