[{"lat":"37.502075516","long":"127.42023251","imageIndex":17,"items":[{"name":"(주)알파칸코리아","tel":"1877-5259-0000","addr":"경기도 양평군 강하면 전수리 563-15번지","indutype":"건축자재 - 기타건축자재","category":"other"},{"name":"주식회사 에이엠코리아","tel":"031-771-6903","addr":"경기도 양평군 강하면 전수리 563-15번지 2층","indutype":"가구 - 일반가구","category":"other"}]},{"lat":"37.505967576","long":"127.43531858","imageIndex":17,"items":[{"name":"강가에쉼터","tel":"","addr":"경기도 양평군 강하면 전수리 470-7번지","indutype":"유통업 영리 - 편 의 점","category":"other"}]},{"lat":"37.50257704","long":"127.43114859","imageIndex":17,"items":[{"name":"나루치종합상사","tel":"","addr":"경기도 양평군 강하면 전수리 428-1번지","indutype":"서적문구 - 문구용품","category":"other"}]},{"lat":"37.493048266","long":"127.41749105","imageIndex":17,"items":[{"name":"남구이야기","tel":"031-000-0000","addr":"경기도 양평군 강하면 전수리 965-3번지","indutype":"문화.취미 - 민예·공예품","category":"other"}]},{"lat":"37.505517922","long":"127.43998683","imageIndex":17,"items":[{"name":"녹우조경","tel":"031-771-2767","addr":"경기도 양평군 강하면 전수리 17-3번지","indutype":"문화.취미 - 화원","category":"other"}]},{"lat":"37.483832557","long":"127.41451179","imageIndex":17,"items":[{"name":"대명교육사","tel":"070-8870-5782","addr":"경기도 양평군 강하면 전수리 823번지","indutype":"서적문구 - 기타서적문구","category":"other"}]},{"lat":"37.502272531","long":"127.42057288","imageIndex":17,"items":[{"name":"대진침대(주)","tel":"031-774-9715","addr":"경기도 양평군 강하면 전수리 563-7번지","indutype":"가구 - 일반가구","category":"other"},{"name":"지니버디","tel":"070-9258-8792","addr":"경기도 양평군 강하면 전수리 563-7번지","indutype":"서적문구 - 기타서적문구","category":"other"}]},{"lat":"37.485743441","long":"127.41942933","imageIndex":17,"items":[{"name":"데밀(DEMIL)","tel":"","addr":"경기도 양평군 강하면 전수리 704-1번지","indutype":"의류 - 정장","category":"other"}]},{"lat":"37.504630374","long":"127.43634003","imageIndex":17,"items":[{"name":"도예갤러리몬티첼로","tel":"031-774-9301","addr":"경기도 양평군 강하면 전수리 20-2번지","indutype":"문화.취미 - 민예·공예품","category":"other"}]},{"lat":"37.482332897","long":"127.41823457","imageIndex":17,"items":[{"name":"명문스포츠(주)","tel":"031-775-2542","addr":"경기도 양평군 강하면 전수리 805번지","indutype":"레져용품 - 스포츠·레져용품","category":"other"}]},{"lat":"37.497107346","long":"127.42634526","imageIndex":17,"items":[{"name":"바다디자인 앤 아틀리에","tel":"031-774-5342","addr":"경기도 양평군 강하면 전수리 331-9번지","indutype":"문화.취미 - 화랑","category":"other"}]},{"lat":"37.502721109","long":"127.42365146","imageIndex":17,"items":[{"name":"씨유양평전수리점","tel":"031-771-6704","addr":"경기도 양평군 강하면 전수리 555-1번지","indutype":"유통업 영리 - 편 의 점","category":"other"}]},{"lat":"37.503633274","long":"127.42556784","imageIndex":17,"items":[{"name":"아미원","tel":"","addr":"경기도 양평군 강하면 전수리 532-9번지","indutype":"신변잡화 - 기타잡화","category":"other"}]},{"lat":"37.501018248","long":"127.43365025","imageIndex":17,"items":[{"name":"양평북스","tel":"031-771-1516","addr":"경기도 양평군 강하면 전수리 450-3번지","indutype":"서적문구 - 일반서적","category":"other"}]},{"lat":"37.487602786","long":"127.41848988","imageIndex":17,"items":[{"name":"양평종합피아노","tel":"031-774-9002","addr":"경기도 양평군 강하면 전수리 874-1번지","indutype":"회원제형태 - 기타4","category":"other"}]},{"lat":"37.505406532","long":"127.43598261","imageIndex":17,"items":[{"name":"주식회사 카포레","tel":"031-000-0000","addr":"경기도 양평군 강하면 전수리 467-3번지","indutype":"문화.취미 - 화랑","category":"other"}]},{"lat":"37.504661842","long":"127.42767719","imageIndex":17,"items":[{"name":"토마토","tel":"031-774-7768","addr":"경기도 양평군 강하면 전수리 495-4","indutype":"레져용품 - 스포츠·레져용품","category":"other"}]},{"lat":"37.503386939","long":"127.423904","imageIndex":17,"items":[{"name":"파인아트","tel":"","addr":"경기도 양평군 강하면 전수리 548-7번지","indutype":"가구 - 일반가구","category":"other"}]}]