[{"lat":"37.312408816","long":"127.45379056","imageIndex":17,"items":[{"name":"누베스","tel":"","addr":"경기도 이천시 신둔면 도봉리 520-2번지","indutype":"신변잡화 - 가방","category":"other"},{"name":"삼성비앤비","tel":"070-7758-3366","addr":"경기도 이천시 신둔면 도봉리 520-2번지 1층","indutype":"전기제품 - 가전제품","category":"other"}]},{"lat":"37.313933944","long":"127.45315666","imageIndex":17,"items":[{"name":"로더월드","tel":"031-637-7020","addr":"경기도 이천시 신둔면 도봉리 546-1","indutype":"농업 - 농기계","category":"other"}]},{"lat":"37.309047419","long":"127.45865475","imageIndex":17,"items":[{"name":"세븐일레븐이천대신점","tel":"","addr":"경기도 이천시 신둔면 도봉리 1271-1번지","indutype":"유통업 영리 - 편 의 점","category":"other"}]},{"lat":"37.309182568","long":"127.45865556","imageIndex":17,"items":[{"name":"이랑 디자인","tel":"031-637-8204","addr":"경기도 이천시 신둔면 도봉리 385-31번지 A동 2호","indutype":"건축자재 - 인테리어전문","category":"other"}]},{"lat":"37.318987858","long":"127.45098691","imageIndex":17,"items":[{"name":"이천도재","tel":"031-633-2259","addr":"경기도 이천시 신둔면 도봉리 625-1번지","indutype":"문화.취미 - 민예·공예품","category":"other"}]},{"lat":"37.309129548","long":"127.45603827","imageIndex":17,"items":[{"name":"작은뜰공방","tel":"","addr":"경기도 이천시 신둔면 도봉리 415-6번지","indutype":"문화.취미 - 문화취미기타","category":"other"}]},{"lat":"37.307293408","long":"127.46254696","imageIndex":17,"items":[{"name":"코아원목고재가구","tel":"031-638-8700","addr":"경기도 이천시 신둔면 도봉리 95-1번지","indutype":"가구 - 일반가구","category":"other"}]},{"lat":"37.307048518","long":"127.46296282","imageIndex":17,"items":[{"name":"코아텔레콤","tel":"031-631-7900","addr":"경기도 이천시 신둔면 도봉리 95-7번지","indutype":"사무통신 - 통신기기","category":"other"}]},{"lat":"37.312903805","long":"127.45629781","imageIndex":17,"items":[{"name":"푸른조경농원","tel":"031-638-5532","addr":"경기도 이천시 신둔면 도봉리 432 외 1필지","indutype":"농업 - 비료,사료,종자","category":"other"}]},{"lat":"37.309380918","long":"127.45862292","imageIndex":13,"items":[{"name":"미래미용상사","tel":"031-638-2000","addr":"경기도 이천시 신둔면 도봉리 385-15번지","indutype":"보건위생 - 미용재료","category":"beauty"},{"name":"미래사","tel":"031-638-2002","addr":"경기도 이천시 신둔면 도봉리 385-15번지","indutype":"보건위생 - 미용재료","category":"beauty"},{"name":"미래사","tel":"031-638-2000","addr":"경기도 이천시 신둔면 도봉리 385-15번지","indutype":"보건위생 - 미용재료","category":"beauty"},{"name":"에스맘바디케어","tel":"031-000-0000","addr":"경기도 이천시 신둔면 도봉리 385-15번지","indutype":"보건위생 - 화장품","category":"beauty"}]},{"lat":"37.305410944","long":"127.46237759","imageIndex":4,"items":[{"name":"신갈미본가","tel":"031-637-1100","addr":"경기도 이천시 신둔면 도봉리 165-6번지","indutype":"일반휴게음식 - 일반한식","category":"restaurant"}]},{"lat":"37.308098444","long":"127.46173971","imageIndex":4,"items":[{"name":"장수옻닭","tel":"031-638-0909","addr":"경기도 이천시 신둔면 도봉리 92-1번지","indutype":"일반휴게음식 - 일반한식","category":"restaurant"}]},{"lat":"37.313576077","long":"127.45248897","imageIndex":0,"items":[{"name":"신화자동차공업사","tel":"031-637-5232","addr":"경기도 이천시 신둔면 도봉리 500-5번지","indutype":"자동차정비 유지 - 자동차정비","category":"car"},{"name":"신화자동차공업사","tel":"031-637-5232","addr":"경기도 이천시 신둔면 도봉리 500-5번지","indutype":"자동차정비 유지 - 자동차정비","category":"car"}]},{"lat":"37.304799318","long":"127.46210317","imageIndex":16,"items":[{"name":"엄마사랑어린이집[아이행복]","tel":"031-638-7911","addr":"경기도 이천시 신둔면 도봉리 165-8번지 엄마사랑어린이집","indutype":"학원 - 유아원","category":"study"}]},{"lat":"37.308711978","long":"127.45684792","imageIndex":16,"items":[{"name":"이화유치원[아이행복]","tel":"031-638-7001","addr":"경기도 이천시 신둔면 도봉리 401","indutype":"학원 - 유치원","category":"study"}]},{"lat":"37.313266565","long":"127.45332189","imageIndex":16,"items":[{"name":"하솜어린이집[아이행복]","tel":"031-637-5230","addr":"경기도 이천시 신둔면 도봉리 523-2번지","indutype":"학원 - 유아원","category":"study"}]}]