[{"lat":"37.219861656","long":"127.37424781","imageIndex":17,"items":[{"name":"GS25이천사랑점","tel":"","addr":"경기도 이천시 마장면 이평리 169-3번지","indutype":"유통업 영리 - 편 의 점","category":"other"}]},{"lat":"37.221891743","long":"127.37047203","imageIndex":17,"items":[{"name":"GS25이천이평점","tel":"080-555-2525","addr":"경기도 이천시 마장면 이평리 393-2번지","indutype":"유통업 영리 - 편 의 점","category":"other"},{"name":"이마트24 이천이평점","tel":"","addr":"경기도 이천시 마장면 이평리 393-2번지 1층","indutype":"유통업 영리 - 편 의 점","category":"other"}]},{"lat":"37.224582589","long":"127.39125105","imageIndex":17,"items":[{"name":"그린뜰농원","tel":"","addr":"경기도 이천시 마장면 이평리 1번지 1층","indutype":"문화.취미 - 화원","category":"other"}]},{"lat":"37.220861153","long":"127.36866432","imageIndex":17,"items":[{"name":"대관령스포츠","tel":"031-638-4146","addr":"경기도 이천시 마장면 이평리 372-5번지 1층","indutype":"레져용품 - 스포츠·레져용품","category":"other"}]},{"lat":"37.225167361","long":"127.39152447","imageIndex":17,"items":[{"name":"대한불교행불선원","tel":"02-732-9500","addr":"경기도 이천시 마장면 이평리 1-1번지","indutype":"서적문구 - 전문서적","category":"other"}]},{"lat":"37.215496969","long":"127.36378271","imageIndex":17,"items":[{"name":"몬스터","tel":"","addr":"경기도 이천시 마장면 이평리 462-1번지","indutype":"레져용품 - 스포츠·레져용품","category":"other"}]},{"lat":"37.218945899","long":"127.37319553","imageIndex":17,"items":[{"name":"보드존","tel":"031-638-1090","addr":"경기도 이천시 마장면 이평리 156-3번지","indutype":"레져용품 - 스포츠·레져용품","category":"other"}]},{"lat":"37.228470807","long":"127.36705593","imageIndex":17,"items":[{"name":"세븐일레븐이천덕평점","tel":"","addr":"경기도 이천시 마장면 이평리 267-5번지 1동 104호 103,104호","indutype":"유통업 영리 - 편 의 점","category":"other"}]},{"lat":"37.224390598","long":"127.36950388","imageIndex":17,"items":[{"name":"세븐일레븐이천마장최고점","tel":"","addr":"경기도 이천시 마장면 이평리 293-162번지","indutype":"유통업 영리 - 편 의 점","category":"other"},{"name":"이글루","tel":"031-638-4686","addr":"경기도 이천시 마장면 이평리 293-162번지","indutype":"레져용품 - 스포츠·레져용품","category":"other"}]},{"lat":"37.227940073","long":"127.36677168","imageIndex":17,"items":[{"name":"스키천국","tel":"031-638-1922","addr":"경기도 이천시 마장면 이평리 293-12","indutype":"레져용품 - 스포츠·레져용품","category":"other"}]},{"lat":"37.227695828","long":"127.36708601","imageIndex":17,"items":[{"name":"씨유이천이평점","tel":"031-637-2777","addr":"경기도 이천시 마장면 이평리 293-1번지","indutype":"유통업 영리 - 편 의 점","category":"other"}]},{"lat":"37.219082414","long":"127.36694319","imageIndex":17,"items":[{"name":"아리랑스키","tel":"031-638-1243","addr":"경기도 이천시 마장면 이평리 477-2번지","indutype":"레져용품 - 스포츠·레져용품","category":"other"}]},{"lat":"37.222333618","long":"127.37324589","imageIndex":17,"items":[{"name":"인옥상회","tel":"031-632-8727","addr":"경기도 이천시 마장면 이평리 213번지","indutype":"의류 - 내의판매","category":"other"}]},{"lat":"37.222777952","long":"127.36943974","imageIndex":4,"items":[{"name":"coffee it suda(커피잇수다)","tel":"031-637-0005","addr":"경기도 이천시 마장면 이평리 368-7번지","indutype":"일반휴게음식 - 서양음식","category":"restaurant"},{"name":"마루(본점)","tel":"031-637-0005","addr":"경기도 이천시 마장면 이평리 368-7번지","indutype":"일반휴게음식 - 일반한식","category":"restaurant"}]},{"lat":"37.228028095","long":"127.36744818","imageIndex":4,"items":[{"name":"곰작골나주곰탕(덕평점)","tel":"031-631-4672","addr":"경기도 이천시 마장면 이평리 267-6번지","indutype":"일반휴게음식 - 일반한식","category":"restaurant"}]},{"lat":"37.222668365","long":"127.36991243","imageIndex":4,"items":[{"name":"나고야","tel":"031-637-8042","addr":"경기도 이천시 마장면 이평리 396-7번지","indutype":"일반휴게음식 - 일식·회집","category":"restaurant"}]},{"lat":"37.222307434","long":"127.37007969","imageIndex":4,"items":[{"name":"늘봄","tel":"031-637-8228","addr":"경기도 이천시 마장면 이평리 395","indutype":"일반휴게음식 - 일반한식","category":"restaurant"}]},{"lat":"37.219607879","long":"127.37758153","imageIndex":4,"items":[{"name":"다오네","tel":"031-638-0577","addr":"경기도 이천시 마장면 이평리 146-1번지 1호","indutype":"일반휴게음식 - 일반한식","category":"restaurant"}]},{"lat":"37.22572131","long":"127.37041174","imageIndex":4,"items":[{"name":"도드람삼겹살","tel":"031-638-7977","addr":"경기도 이천시 마장면 이평리 267-24번지 1층","indutype":"일반휴게음식 - 일반한식","category":"restaurant"}]},{"lat":"37.221358938","long":"127.36794563","imageIndex":4,"items":[{"name":"마장들밥","tel":"031-637-6040","addr":"경기도 이천시 마장면 이평리 371-3번지","indutype":"일반휴게음식 - 일반한식","category":"restaurant"}]},{"lat":"37.225919883","long":"127.37030002","imageIndex":4,"items":[{"name":"맛내음터","tel":"031-638-9442","addr":"경기도 이천시 마장면 이평리 267-55","indutype":"일반휴게음식 - 일반한식","category":"restaurant"}]},{"lat":"37.218941382","long":"127.37463764","imageIndex":4,"items":[{"name":"서울가든","tel":"031-638-2523","addr":"경기도 이천시 마장면 이평리 154-2번지 1층","indutype":"일반휴게음식 - 일반한식","category":"restaurant"}]},{"lat":"37.226943367","long":"127.36858101","imageIndex":4,"items":[{"name":"소풍","tel":"031-635-2000","addr":"경기도 이천시 마장면 이평리 267-14번지","indutype":"일반휴게음식 - 일반한식","category":"restaurant"},{"name":"오복국밥","tel":"031-635-9191","addr":"경기도 이천시 마장면 이평리 267-14번지 2동 1층","indutype":"일반휴게음식 - 일반한식","category":"restaurant"},{"name":"이천뚝배기","tel":"031-634-3338","addr":"경기도 이천시 마장면 이평리 267-14번지","indutype":"일반휴게음식 - 일반한식","category":"restaurant"}]},{"lat":"37.221640161","long":"127.3673273","imageIndex":4,"items":[{"name":"수원배나무갈비식당","tel":"031-637-6030","addr":"경기도 이천시 마장면 이평리 371번지","indutype":"일반휴게음식 - 갈비전문점","category":"restaurant"}]},{"lat":"37.227669733","long":"127.36678165","imageIndex":4,"items":[{"name":"여기가좋겠네","tel":"031-638-9878","addr":"경기도 이천시 마장면 이평리 293-11번지","indutype":"일반휴게음식 - 일반한식","category":"restaurant"}]},{"lat":"37.228217829","long":"127.36728007","imageIndex":4,"items":[{"name":"오미가해오름","tel":"031-632-3253","addr":"경기도 이천시 마장면 이평리 267-95번지 1동 1층","indutype":"일반휴게음식 - 일반한식","category":"restaurant"},{"name":"토프레소 이천마장점","tel":"031-635-3867","addr":"경기도 이천시 마장면 이평리 267-95번지 1층","indutype":"일반휴게음식 - 서양음식","category":"restaurant"}]},{"lat":"37.222086781","long":"127.37149828","imageIndex":4,"items":[{"name":"오아시스한식뷔페","tel":"031-637-7974","addr":"경기도 이천시 마장면 이평리 400번지 1층","indutype":"일반휴게음식 - 일반한식","category":"restaurant"}]},{"lat":"37.224473084","long":"127.36905358","imageIndex":4,"items":[{"name":"올래한식부페","tel":"031-638-1235","addr":"경기도 이천시 마장면 이평리 293-161번지 1층","indutype":"일반휴게음식 - 일반한식","category":"restaurant"}]},{"lat":"37.228470807","long":"127.36705593","imageIndex":4,"items":[{"name":"육개장인","tel":"031-638-9200","addr":"경기도 이천시 마장면 이평리 267-5번지 2동 1층","indutype":"일반휴게음식 - 일반한식","category":"restaurant"}]},{"lat":"37.221444342","long":"127.36946709","imageIndex":4,"items":[{"name":"자매식당","tel":"031-635-7455","addr":"경기도 이천시 마장면 이평리 378-5번지 A동","indutype":"일반휴게음식 - 일반한식","category":"restaurant"}]},{"lat":"37.227695828","long":"127.36708601","imageIndex":4,"items":[{"name":"차이홍","tel":"031-634-4588","addr":"경기도 이천시 마장면 이평리 293-1번지","indutype":"일반휴게음식 - 중국식","category":"restaurant"}]},{"lat":"37.228084547","long":"127.36667096","imageIndex":4,"items":[{"name":"해천명가","tel":"031-634-1220","addr":"경기도 이천시 마장면 이평리 293-176번지","indutype":"일반휴게음식 - 일반한식","category":"restaurant"}]},{"lat":"37.218857921","long":"127.36669425","imageIndex":4,"items":[{"name":"향연정육점식당","tel":"031-638-7177","addr":"경기도 이천시 마장면 이평리 477-6번지","indutype":"일반휴게음식 - 일반한식","category":"restaurant"}]},{"lat":"37.226446241","long":"127.36908566","imageIndex":0,"items":[{"name":"대성카공업사","tel":"031-638-5003","addr":"경기도 이천시 마장면 이평리 267-52번지 1동","indutype":"자동차정비 유지 - 자동차정비","category":"car"}]},{"lat":"37.223028003","long":"127.37016206","imageIndex":0,"items":[{"name":"드림모터스","tel":"031-637-6888","addr":"경기도 이천시 마장면 이평리 396-13번지","indutype":"자동차정비 유지 - 자동차정비","category":"car"}]},{"lat":"37.22675304","long":"127.36894066","imageIndex":0,"items":[{"name":"이평대형자동차세차장","tel":"031-638-8474","addr":"경기도 이천시 마장면 이평리 267-17번지 1층","indutype":"자동차정비 유지 - 세차장","category":"car"}]},{"lat":"37.222833198","long":"127.36905692","imageIndex":5,"items":[{"name":"봄","tel":"031-637-1534","addr":"경기도 이천시 마장면 이평리 368-8번지","indutype":"숙박업 - 여관/기타숙박업","category":"hotel"}]},{"lat":"37.221082356","long":"127.36411353","imageIndex":13,"items":[{"name":"세븐당구장","tel":"031-631-3949","addr":"경기도 이천시 마장면 이평리 320번지 2층","indutype":"레저업소 - 당 구 장","category":"leisure"}]},{"lat":"37.220414153","long":"127.3675242","imageIndex":7,"items":[{"name":"송계화인삼센터","tel":"070-7760-7563","addr":"경기도 이천시 마장면 이평리 374-2번지","indutype":"건강식품 - 인삼제품","category":"food"}]},{"lat":"37.218584787","long":"127.37341909","imageIndex":7,"items":[{"name":"주식회사 시즌푸드","tel":"031-638-6769","addr":"경기도 이천시 마장면 이평리 156-10번지","indutype":"음료식품 - 기타음료식품","category":"food"}]},{"lat":"37.221358938","long":"127.36794563","imageIndex":7,"items":[{"name":"주식회사 제세","tel":"02-586-7573","addr":"경기도 이천시 마장면 이평리 371-3번지","indutype":"음료식품 - 농·축·수산품","category":"food"}]},{"lat":"37.218669122","long":"127.36655814","imageIndex":7,"items":[{"name":"향연용품판매소","tel":"","addr":"경기도 이천시 마장면 이평리 477-7번지","indutype":"음료식품 - 기타음료식품","category":"food"}]}]