[{"lat":"37.637024285","long":"127.13217455","imageIndex":0,"items":[{"name":"(csmoters) 씨에스모터스","tel":"070-4151-7983","addr":"경기도 구리시 사노동 539-6번지","indutype":"자동차정비 유지 - 카인테리어","category":"car"}]},{"lat":"37.630669079","long":"127.1351996","imageIndex":0,"items":[{"name":"(주)한우리","tel":"031-571-4184","addr":"경기도 구리시 사노동 573-22번지","indutype":"자동차정비 유지 - 자동차부품","category":"car"}]},{"lat":"37.632136065","long":"127.1366183","imageIndex":0,"items":[{"name":"골든오일","tel":"031-527-6433","addr":"경기도 구리시 사노동 287-10번지","indutype":"자동차정비 유지 - 윤활유 전문 판매","category":"car"}]},{"lat":"37.639754038","long":"127.14031418","imageIndex":0,"items":[{"name":"네바퀴진솔타이어(타이어프로사노IC점)","tel":"031-575-7177","addr":"경기도 구리시 사노동 391-14 101,102호","indutype":"자동차정비 유지 - 자동차시트·타이어","category":"car"}]},{"lat":"37.637557144","long":"127.13904122","imageIndex":0,"items":[{"name":"대륙상사","tel":"031-567-6631","addr":"경기도 구리시 사노동 332-14번지","indutype":"자동차정비 유지 - 자동차시트·타이어","category":"car"}]},{"lat":"37.630670778","long":"127.14156625","imageIndex":0,"items":[{"name":"대진사","tel":"031-573-5286","addr":"경기도 구리시 사노동 201번지","indutype":"자동차정비 유지 - 자동차정비","category":"car"}]},{"lat":"37.635500124","long":"127.1414506","imageIndex":0,"items":[{"name":"모터스테이션","tel":"070-4365-4720","addr":"경기도 구리시 사노동 344-2번지","indutype":"자동차정비 유지 - 자동차정비","category":"car"}]},{"lat":"37.642583252","long":"127.1401721","imageIndex":0,"items":[{"name":"복지모터스","tel":"031-566-5151","addr":"경기도 구리시 사노동 444-3번지","indutype":"자동차정비 유지 - 자동차부품","category":"car"}]},{"lat":"37.639420548","long":"127.14042686","imageIndex":0,"items":[{"name":"붕붕","tel":"031-562-2217","addr":"경기도 구리시 사노동 391-25번지","indutype":"자동차정비 유지 - 카인테리어","category":"car"},{"name":"붕붕모터스","tel":"031-1111-111","addr":"경기도 구리시 사노동 391-25번지","indutype":"자동차정비 유지 - 자동차부품","category":"car"}]},{"lat":"37.632721284","long":"127.13698187","imageIndex":0,"items":[{"name":"수상한카오디오","tel":"070-7725-0406","addr":"경기도 구리시 사노동 289-6번지 나동","indutype":"자동차정비 유지 - 자동차부품","category":"car"}]},{"lat":"37.633085751","long":"127.14125353","imageIndex":0,"items":[{"name":"신구리자동차공업사","tel":"031-567-1357","addr":"경기도 구리시 사노동 252-6번지 301호","indutype":"자동차정비 유지 - 자동차정비","category":"car"}]},{"lat":"37.635557188","long":"127.13886763","imageIndex":0,"items":[{"name":"오피에스(OPS)","tel":"031-527-0823","addr":"경기도 구리시 사노동 308번지 나동","indutype":"자동차정비 유지 - 자동차부품","category":"car"}]},{"lat":"37.639140081","long":"127.14142337","imageIndex":0,"items":[{"name":"원티드","tel":"031-572-0917","addr":"경기도 구리시 사노동 384-9번지","indutype":"자동차정비 유지 - 자동차정비","category":"car"}]},{"lat":"37.637914336","long":"127.14178365","imageIndex":0,"items":[{"name":"유경컴퍼니","tel":"031-554-2735","addr":"경기도 구리시 사노동 379번지","indutype":"자동차정비 유지 - 자동차정비","category":"car"}]},{"lat":"37.632363695","long":"127.14233976","imageIndex":0,"items":[{"name":"자동차밧데리 배터리출장마트","tel":"031-527-7110","addr":"경기도 구리시 사노동 211-7번지 2층","indutype":"자동차정비 유지 - 자동차부품","category":"car"}]},{"lat":"37.633637376","long":"127.13950988","imageIndex":0,"items":[{"name":"챔프카(champcar)","tel":"031-574-5563","addr":"경기도 구리시 사노동 244-8번지","indutype":"자동차정비 유지 - 자동차부품","category":"car"}]},{"lat":"37.644140178","long":"127.1416706","imageIndex":0,"items":[{"name":"카스토리 (CAR STORY)","tel":"","addr":"경기도 구리시 사노동 452-29번지 1층 2호","indutype":"자동차정비 유지 - 자동차부품","category":"car"}]},{"lat":"37.63255362","long":"127.14172835","imageIndex":0,"items":[{"name":"큐브","tel":"","addr":"경기도 구리시 사노동 209-19번지 1층","indutype":"자동차정비 유지 - 자동차부품","category":"car"}]},{"lat":"37.632139626","long":"127.14134241","imageIndex":0,"items":[{"name":"파비스케어 주식회사","tel":"031-572-8182","addr":"경기도 구리시 사노동 207-5번지","indutype":"자동차정비 유지 - 자동차부품","category":"car"}]},{"lat":"37.643662891","long":"127.14147709","imageIndex":0,"items":[{"name":"펄스코(PULSECO)","tel":"031-572-7329","addr":"경기도 구리시 사노동 452-12번지","indutype":"자동차정비 유지 - 자동차부품","category":"car"}]},{"lat":"37.635113384","long":"127.1408721","imageIndex":0,"items":[{"name":"평화카센타","tel":"031-572-1300","addr":"경기도 구리시 사노동 340-25번지 평화카센터","indutype":"자동차정비 유지 - 자동차정비","category":"car"}]},{"lat":"37.638449169","long":"127.1389862","imageIndex":0,"items":[{"name":"화승","tel":"031-529-6678","addr":"경기도 구리시 사노동 387-4번지","indutype":"자동차정비 유지 - 카인테리어","category":"car"}]}]