[{"lat":"37.597615955","long":"127.13190252","imageIndex":7,"items":[{"name":"201마트","tel":"031-556-5254","addr":"경기도 구리시 교문동 727-8번지","indutype":"유통업 영리 - 슈퍼마켓","category":"mart"}]},{"lat":"37.598309744","long":"127.13186974","imageIndex":7,"items":[{"name":"e-푸른마트","tel":"031-564-6833","addr":"경기도 구리시 교문동 727번지 1층","indutype":"유통업 영리 - 슈퍼마켓","category":"mart"}]},{"lat":"37.588948573","long":"127.13187623","imageIndex":7,"items":[{"name":"까치슈퍼","tel":"031-553-5872","addr":"경기도 구리시 교문동 806번지 까치마트","indutype":"유통업 영리 - 슈퍼마켓","category":"mart"}]},{"lat":"37.59581306","long":"127.13275997","imageIndex":7,"items":[{"name":"대한마트","tel":"031-554-8382","addr":"경기도 구리시 교문동 743-9번지","indutype":"유통업 영리 - 슈퍼마켓","category":"mart"}]},{"lat":"37.601231206","long":"127.1210716","imageIndex":7,"items":[{"name":"딸기원마트","tel":"031-566-3237","addr":"경기도 구리시 교문동 305-31번지","indutype":"유통업 영리 - 슈퍼마켓","category":"mart"}]},{"lat":"37.598314433","long":"127.13576509","imageIndex":7,"items":[{"name":"미니슈퍼","tel":"031-551-5887","addr":"경기도 구리시 교문동 229-23번지 102호","indutype":"유통업 영리 - 슈퍼마켓","category":"mart"}]},{"lat":"37.590281238","long":"127.13259185","imageIndex":7,"items":[{"name":"백문슈퍼","tel":"031-565-2832","addr":"경기도 구리시 교문동 800-9번지","indutype":"유통업 영리 - 슈퍼마켓","category":"mart"}]},{"lat":"37.599417585","long":"127.13220005","imageIndex":7,"items":[{"name":"성진슈퍼","tel":"031-556-5008","addr":"경기도 구리시 교문동 209-3번지","indutype":"유통업 영리 - 슈퍼마켓","category":"mart"}]},{"lat":"37.592921956","long":"127.13181515","imageIndex":7,"items":[{"name":"송림슈퍼","tel":"031-563-5787","addr":"경기도 구리시 교문동 761번지","indutype":"유통업 영리 - 슈퍼마켓","category":"mart"}]},{"lat":"37.595787184","long":"127.13170686","imageIndex":7,"items":[{"name":"슈퍼","tel":"031-567-4881","addr":"경기도 구리시 교문동 740-8번지","indutype":"유통업 영리 - 슈퍼마켓","category":"mart"}]},{"lat":"37.595001719","long":"127.13317752","imageIndex":7,"items":[{"name":"스마일마트","tel":"031-569-9296","addr":"경기도 구리시 교문동 751-7번지","indutype":"유통업 영리 - 슈퍼마켓","category":"mart"}]},{"lat":"37.596869598","long":"127.13056506","imageIndex":7,"items":[{"name":"신바람난 찐빵집","tel":"031-516-5619","addr":"경기도 구리시 교문동 361-7번지","indutype":"유통업 영리 - 슈퍼마켓","category":"mart"}]},{"lat":"37.596641471","long":"127.13320303","imageIndex":7,"items":[{"name":"신우마트","tel":"031-568-5536","addr":"경기도 구리시 교문동 744번지","indutype":"유통업 영리 - 슈퍼마켓","category":"mart"}]},{"lat":"37.593668487","long":"127.13298271","imageIndex":7,"items":[{"name":"유명마트","tel":"031-569-5040","addr":"경기도 구리시 교문동 758-17번지","indutype":"유통업 영리 - 슈퍼마켓","category":"mart"}]},{"lat":"37.599063777","long":"127.13439625","imageIndex":7,"items":[{"name":"인성","tel":"031-565-6993","addr":"경기도 구리시 교문동 225-3번지 1층","indutype":"유통업 영리 - 슈퍼마켓","category":"mart"}]},{"lat":"37.602584492","long":"127.1192392","imageIndex":7,"items":[{"name":"태호네가게","tel":"031-567-2185","addr":"경기도 구리시 교문동 328-69번지","indutype":"유통업 영리 - 슈퍼마켓","category":"mart"}]},{"lat":"37.581420133","long":"127.12839899","imageIndex":7,"items":[{"name":"한다리슈퍼","tel":"031-563-3842","addr":"경기도 구리시 교문동 671-1번지","indutype":"유통업 영리 - 슈퍼마켓","category":"mart"}]},{"lat":"37.592398234","long":"127.13286727","imageIndex":7,"items":[{"name":"한마음슈퍼","tel":"031-565-8766","addr":"경기도 구리시 교문동 763-6번지 1층","indutype":"유통업 영리 - 슈퍼마켓","category":"mart"}]},{"lat":"37.601643477","long":"127.13176226","imageIndex":7,"items":[{"name":"한양미니슈퍼","tel":"031-552-8312","addr":"경기도 구리시 교문동 256-13번지","indutype":"유통업 영리 - 슈퍼마켓","category":"mart"}]},{"lat":"37.595640459","long":"127.1340392","imageIndex":7,"items":[{"name":"행복마트","tel":"031-563-7523","addr":"경기도 구리시 교문동 748번지","indutype":"유통업 영리 - 슈퍼마켓","category":"mart"}]},{"lat":"37.602285268","long":"127.12115253","imageIndex":7,"items":[{"name":"행복마트","tel":"031-566-1607","addr":"경기도 구리시 교문동 317-2번지","indutype":"유통업 영리 - 슈퍼마켓","category":"mart"}]}]