[{"lat":"37.295849291","long":"127.15032143","imageIndex":8,"items":[{"name":"구성선약국","tel":"031-8013-4749","addr":"경기도 용인시 기흥구 청덕동 503번지 휴먼시아물푸레마을 상가동 B101호","indutype":"약국 - 약국","category":"medical"},{"name":"구성선약국","tel":"031-8013-4749","addr":"경기도 용인시 기흥구 청덕동 503번지 물푸레마을 상가 101호","indutype":"약국 - 약국","category":"medical"},{"name":"서울햇님소아청소년과","tel":"031-261-6288","addr":"경기도 용인시 기흥구 청덕동 503번지 휴먼시아물푸레마을5단지아파트 103호","indutype":"의원 - 의원","category":"medical"}]},{"lat":"37.296027305","long":"127.1520699","imageIndex":8,"items":[{"name":"늘푸른이비인후과","tel":"031-274-2577","addr":"경기도 용인시 기흥구 청덕동 502-2번지 구성프라자 301호","indutype":"의원 - 의원","category":"medical"},{"name":"사랑약국","tel":"031-275-5750","addr":"경기도 용인시 기흥구 청덕동 502-2번지 구성프라자 107호","indutype":"약국 - 약국","category":"medical"},{"name":"우리내과의원","tel":"031-281-3375","addr":"경기도 용인시 기흥구 청덕동 502-2번지 구성프라자 302호","indutype":"의원 - 의원","category":"medical"},{"name":"플란트치과","tel":"031-275-2890","addr":"경기도 용인시 기흥구 청덕동 502-2번지 구성프라자 303호","indutype":"의원 - 치과의원","category":"medical"}]},{"lat":"37.294184676","long":"127.15563008","imageIndex":8,"items":[{"name":"덕암물산 주식회사","tel":"031-281-2239","addr":"경기도 용인시 기흥구 청덕동 150-3번지 1층","indutype":"약국 - 제약회사","category":"medical"}]},{"lat":"37.291012909","long":"127.14109833","imageIndex":8,"items":[{"name":"따스한 동물병원","tel":"031-8013-0075","addr":"경기도 용인시 기흥구 청덕동 528-1번지 1층","indutype":"기타의료기관 - 동물병원","category":"medical"}]},{"lat":"37.29551368","long":"127.15210272","imageIndex":8,"items":[{"name":"물푸레단비한의원","tel":"031-693-6845","addr":"경기도 용인시 기흥구 청덕동 502-4번지 가나프라자1차 301호","indutype":"의원 - 한의원","category":"medical"},{"name":"연세물푸레소아청소년과","tel":"031-275-7848","addr":"경기도 용인시 기흥구 청덕동 502-4번지 가나프라자1차 303호","indutype":"의원 - 의원","category":"medical"}]},{"lat":"37.294712012","long":"127.15190941","imageIndex":8,"items":[{"name":"보스톤 아름다운 치과","tel":"031-274-2857","addr":"경기도 용인시 기흥구 청덕동 502-8번지 청덕프라자 401호","indutype":"의원 - 치과의원","category":"medical"},{"name":"보스톤아름다운치과","tel":"031-274-2857","addr":"경기도 용인시 기흥구 청덕동 502-8번지 청덕프라자 401호","indutype":"의원 - 치과의원","category":"medical"},{"name":"보스톤아름다운치과","tel":"031-274-2857","addr":"경기도 용인시 기흥구 청덕동 502-8번지 청덕프라자 401호","indutype":"의원 - 치과의원","category":"medical"}]},{"lat":"37.296288558","long":"127.15210425","imageIndex":8,"items":[{"name":"아이앤미가정의학과의원","tel":"031-286-5588","addr":"경기도 용인시 기흥구 청덕동 502-1번지 일월프라자 302호,303호","indutype":"의원 - 의원","category":"medical"},{"name":"아이앤미가정의학과의원","tel":"031-286-5588","addr":"경기도 용인시 기흥구 청덕동 502-1번지 일원프리지 302호","indutype":"의원 - 의원","category":"medical"}]}]