[{"lat":"37.363931135","long":"127.50462484","imageIndex":7,"items":[{"name":"(주)에이치에이엔","tel":"02-1577-8567","addr":"경기도 여주시 흥천면 문장리 398-2번지","indutype":"음료식품 - 기타음료식품","category":"food"},{"name":"주식회사 태안농원","tel":"031-705-5778","addr":"경기도 여주시 흥천면 문장리 398-2번지","indutype":"음료식품 - 농·축·수산품","category":"food"}]},{"lat":"37.363482219","long":"127.51684693","imageIndex":17,"items":[{"name":"LG에어컨설치점","tel":"031-883-3180","addr":"경기도 여주시 흥천면 문장리 287-3번지","indutype":"전기제품 - 냉열기기","category":"other"},{"name":"문장휴게소","tel":"031-883-1175","addr":"경기도 여주시 흥천면 문장리 287-3번지","indutype":"유통업 영리 - 편 의 점","category":"other"}]},{"lat":"37.361068278","long":"127.51459548","imageIndex":17,"items":[{"name":"여주원두막","tel":"031-774-1106","addr":"경기도 여주시 흥천면 문장리 362-10번지","indutype":"용역 서비스 - 기타용역서비스","category":"other"}]},{"lat":"37.35607205","long":"127.50517074","imageIndex":17,"items":[{"name":"토라갤러리공방","tel":"031-633-2086","addr":"경기도 여주시 흥천면 문장리 482-3번지","indutype":"문화.취미 - 민예·공예품","category":"other"}]},{"lat":"37.362536781","long":"127.51670503","imageIndex":17,"items":[{"name":"현대칼라강판","tel":"031-883-7804","addr":"경기도 여주시 흥천면 문장리 287-4번지","indutype":"건축자재 - 기타건축자재","category":"other"}]},{"lat":"37.363482219","long":"127.51684693","imageIndex":0,"items":[{"name":"금호타이어 북여주대리점(진영카)","tel":"031-883-8817","addr":"경기도 여주시 흥천면 문장리 287-3번지","indutype":"자동차정비 유지 - 자동차시트·타이어","category":"car"}]},{"lat":"37.360871477","long":"127.51217856","imageIndex":16,"items":[{"name":"문장초등학교","tel":"031-883-0404","addr":"경기도 여주시 흥천면 문장리 373-1번지 문장초등학교","indutype":"학원 - 초중고교육기관","category":"study"},{"name":"문장초등학교병설유치원[아이행복]","tel":"031-884-0682","addr":"경기도 여주시 흥천면 문장리 373-1번지 문장초등학교","indutype":"학원 - 유치원","category":"study"}]},{"lat":"37.361120274","long":"127.51089344","imageIndex":4,"items":[{"name":"물레방아","tel":"031-881-5262","addr":"경기도 여주시 흥천면 문장리 336번지","indutype":"일반휴게음식 - 일반한식","category":"restaurant"}]},{"lat":"37.363482219","long":"127.51684693","imageIndex":4,"items":[{"name":"사랑방 한식부페","tel":"031-882-2588","addr":"경기도 여주시 흥천면 문장리 287-3번지","indutype":"일반휴게음식 - 일반한식","category":"restaurant"}]},{"lat":"37.361010866","long":"127.51328571","imageIndex":4,"items":[{"name":"예향","tel":"031-882-3385","addr":"경기도 여주시 흥천면 문장리 319-4번지","indutype":"일반휴게음식 - 일반한식","category":"restaurant"}]},{"lat":"37.368372817","long":"127.51934127","imageIndex":4,"items":[{"name":"이태리회관","tel":"","addr":"경기도 여주시 흥천면 문장리 251-4번지 1층","indutype":"일반휴게음식 - 일반한식","category":"restaurant"}]},{"lat":"37.360986459","long":"127.50636613","imageIndex":4,"items":[{"name":"플러피펍 (fluffy pup)","tel":"031-4618-3979","addr":"경기도 여주시 흥천면 문장리 423-1번지","indutype":"일반휴게음식 - 서양음식","category":"restaurant"}]},{"lat":"37.367487003","long":"127.5179241","imageIndex":9,"items":[{"name":"백년종합가스상사","tel":"031-883-7797","addr":"경기도 여주시 흥천면 문장리 273-1번지","indutype":"연료판매점 - LPG 취급점","category":"oil"}]},{"lat":"37.365378193","long":"127.51595679","imageIndex":5,"items":[{"name":"삼봉파크","tel":"031-883-1596","addr":"경기도 여주시 흥천면 문장리 311번지","indutype":"숙박업 - 여관/기타숙박업","category":"hotel"}]},{"lat":"37.366404154","long":"127.52650732","imageIndex":13,"items":[{"name":"형원","tel":"070-8805-2422","addr":"경기도 여주시 흥천면 문장리 75번지","indutype":"보건위생 - 화장품","category":"beauty"}]}]