[{"lat":"37.649603692","long":"126.87531255","imageIndex":8,"items":[{"name":"고려삼송재활의학과의원","tel":"031-966-6688","addr":"경기도 고양시 덕양구 원흥동 629-1번지","indutype":"의원 - 의원","category":"medical"},{"name":"별약국","tel":"070-4232-5443","addr":"경기도 고양시 덕양구 원흥동 629-1번지","indutype":"약국 - 약국","category":"medical"},{"name":"서울성모안과","tel":"031-967-5354","addr":"경기도 고양시 덕양구 원흥동 629-1번지","indutype":"의원 - 의원","category":"medical"},{"name":"연세 하나 정신건강의학과의원","tel":"031-967-8678","addr":"경기도 고양시 덕양구 원흥동 629-1번지","indutype":"의원 - 의원","category":"medical"},{"name":"원흥서울치과의원","tel":"031-964-2275","addr":"경기도 고양시 덕양구 원흥동 629-1번지","indutype":"의원 - 치과의원","category":"medical"},{"name":"한마음약국","tel":"031-963-1771","addr":"경기도 고양시 덕양구 원흥동 629-1번지","indutype":"약국 - 약국","category":"medical"}]},{"lat":"37.635330381","long":"126.8735356","imageIndex":8,"items":[{"name":"메디클 주식회사","tel":"070-7725-0931","addr":"경기도 고양시 덕양구 원흥동 744-3번지","indutype":"약국 - 제약회사","category":"medical"}]},{"lat":"37.649800612","long":"126.87412241","imageIndex":8,"items":[{"name":"삼송서울치과","tel":"02-356-2835","addr":"경기도 고양시 덕양구 원흥동 627번지","indutype":"의원 - 치과의원","category":"medical"},{"name":"연세삼성의원","tel":"031-963-8868","addr":"경기도 고양시 덕양구 원흥동 627번지","indutype":"의원 - 의원","category":"medical"}]},{"lat":"37.649684361","long":"126.87492714","imageIndex":8,"items":[{"name":"원흥온누리약국","tel":"031-967-2265","addr":"경기도 고양시 덕양구 원흥동 629번지","indutype":"약국 - 약국","category":"medical"}]},{"lat":"37.641026444","long":"126.86722617","imageIndex":8,"items":[{"name":"혜영팜","tel":"031-979-0025","addr":"경기도 고양시 덕양구 원흥동 375번지","indutype":"약국 - 제약회사","category":"medical"}]}]