[{"lat":"37.658528161","long":"127.29124474","imageIndex":17,"items":[{"name":"(주)경기1339구급대","tel":"031-572-1336","addr":"경기도 남양주시 화도읍 묵현리 239-4번지 2층","indutype":"용역 서비스 - 종합용역","category":"other"},{"name":"(주)경기1339구급대","tel":"031-572-1336","addr":"경기도 남양주시 화도읍 묵현리 239-4번지 2층","indutype":"용역 서비스 - 종합용역","category":"other"},{"name":"도로시","tel":"031-594-7727","addr":"경기도 남양주시 화도읍 묵현리 239-4번지 101호","indutype":"의류 - 정장","category":"other"},{"name":"주식회사 경기1339구급대","tel":"031-571-1333","addr":"경기도 남양주시 화도읍 묵현리 239-4번지 2층","indutype":"용역 서비스 - 종합용역","category":"other"},{"name":"주식회사 경기1339구급대","tel":"031-571-1333","addr":"경기도 남양주시 화도읍 묵현리 239-4번지 2층","indutype":"용역 서비스 - 종합용역","category":"other"},{"name":"주식회사 경기1339구급대","tel":"031-572-1336","addr":"경기도 남양주시 화도읍 묵현리 239-4번지 2층","indutype":"용역 서비스 - 종합용역","category":"other"},{"name":"주식회사 경기1339구급대","tel":"031-572-1336","addr":"경기도 남양주시 화도읍 묵현리 239-4번지 2층","indutype":"용역 서비스 - 종합용역","category":"other"},{"name":"주식회사 경기1339구급대","tel":"031-571-1333","addr":"경기도 남양주시 화도읍 묵현리 239-4번지 2층","indutype":"용역 서비스 - 종합용역","category":"other"},{"name":"주식회사 경기1339구급대","tel":"031-572-1336","addr":"경기도 남양주시 화도읍 묵현리 239-4번지 2층","indutype":"용역 서비스 - 종합용역","category":"other"},{"name":"주식회사 경기1339구급대","tel":"031-572-1336","addr":"경기도 남양주시 화도읍 묵현리 239-4번지","indutype":"용역 서비스 - 종합용역","category":"other"},{"name":"주식회사경기1339구급대","tel":"031-572-1336","addr":"경기도 남양주시 화도읍 묵현리 239-4번지 2층","indutype":"용역 서비스 - 종합용역","category":"other"},{"name":"주식회사경기1339구급대","tel":"031-571-1333","addr":"경기도 남양주시 화도읍 묵현리 239-4번지 2층","indutype":"용역 서비스 - 종합용역","category":"other"},{"name":"주식회사경기1339구급대","tel":"02-1111-1111","addr":"경기도 남양주시 화도읍 묵현리 239-4번지 2층","indutype":"용역 서비스 - 종합용역","category":"other"}]},{"lat":"37.670945072","long":"127.30145996","imageIndex":17,"items":[{"name":"(주)수풀림우드","tel":"031-511-4845","addr":"경기도 남양주시 화도읍 묵현리 163-23번지 1층","indutype":"건축자재 - 목재·석재·철물","category":"other"},{"name":"베스트우드","tel":"031-511-2589","addr":"경기도 남양주시 화도읍 묵현리 163-23번지","indutype":"건축자재 - 기타건축자재","category":"other"}]},{"lat":"37.660527077","long":"127.27272291","imageIndex":17,"items":[{"name":"A-성림케어센터","tel":"031-555-2000","addr":"경기도 남양주시 화도읍 묵현리 508번지","indutype":"기타의료기관 - 기타의료기관 및 기타","category":"other"}]},{"lat":"37.66589017","long":"127.30165506","imageIndex":17,"items":[{"name":"F.TIGER짐","tel":"031-594-0598","addr":"경기도 남양주시 화도읍 묵현리 25-3번지 장미빌딩 201호","indutype":"회원제형태 - 레져업소","category":"other"},{"name":"씨유화도묵현점","tel":"031-593-5271","addr":"경기도 남양주시 화도읍 묵현리 25-3번지 102호","indutype":"유통업 영리 - 편 의 점","category":"other"}]},{"lat":"37.656469966","long":"127.28166086","imageIndex":17,"items":[{"name":"FRJ","tel":"031-591-1954","addr":"경기도 남양주시 화도읍 묵현리 368-2번지","indutype":"의류 - 정장","category":"other"},{"name":"NIX. NIX Kids","tel":"031-592-9068","addr":"경기도 남양주시 화도읍 묵현리 368-2번지 1층","indutype":"의류 - 아동의류","category":"other"},{"name":"TBJ남양주점","tel":"031-591-8155","addr":"경기도 남양주시 화도읍 묵현리 368-2번지","indutype":"의류 - 정장","category":"other"},{"name":"레스모아","tel":"031-591-4343","addr":"경기도 남양주시 화도읍 묵현리 368-2번지 S-4호","indutype":"의류 - 캐주얼의류","category":"other"},{"name":"세림유통","tel":"070-4229-0823","addr":"경기도 남양주시 화도읍 묵현리 368-2번지 1층 뉴발란스","indutype":"레져용품 - 스포츠·레져용품","category":"other"},{"name":"숲(SOUP)","tel":"031-511-4858","addr":"경기도 남양주시 화도읍 묵현리 368-2번지","indutype":"의류 - 정장","category":"other"},{"name":"아이잗바바상설점","tel":"031-555-0836","addr":"경기도 남양주시 화도읍 묵현리 368-2번지 오렌지아울렛","indutype":"레져용품 - 스포츠·레져용품","category":"other"},{"name":"앤디자인","tel":"031-559-8191","addr":"경기도 남양주시 화도읍 묵현리 368-2번지 1층","indutype":"의류 - 정장","category":"other"},{"name":"에어워크주니어","tel":"031-591-4418","addr":"경기도 남양주시 화도읍 묵현리 368-2번지 1층","indutype":"의류 - 정장","category":"other"},{"name":"지오다노평내점","tel":"031-511-1331","addr":"경기도 남양주시 화도읍 묵현리 368-2번지 C-3호","indutype":"의류 - 캐주얼의류","category":"other"},{"name":"클라이드 앤 오렌지 남양주점","tel":"031-592-4025","addr":"경기도 남양주시 화도읍 묵현리 368-2번지 1층","indutype":"의류 - 정장","category":"other"},{"name":"프로스펙스 남양주 오렌지","tel":"031-593-5332","addr":"경기도 남양주시 화도읍 묵현리 368-2번지","indutype":"레져용품 - 스포츠·레져용품","category":"other"}]},{"lat":"37.666086051","long":"127.30257389","imageIndex":17,"items":[{"name":"GS25마석으뜸점","tel":"","addr":"경기도 남양주시 화도읍 묵현리 31-11번지 1층","indutype":"유통업 영리 - 편 의 점","category":"other"}]},{"lat":"37.661496599","long":"127.30041346","imageIndex":17,"items":[{"name":"GS25마석타운점","tel":"","addr":"경기도 남양주시 화도읍 묵현리 86번지 1층","indutype":"유통업 영리 - 편 의 점","category":"other"}]},{"lat":"37.667857775","long":"127.30026884","imageIndex":17,"items":[{"name":"GS25묵현삼신점","tel":"","addr":"경기도 남양주시 화도읍 묵현리 147-3번지 삼신 상가 1층 105호","indutype":"유통업 영리 - 편 의 점","category":"other"},{"name":"그린종합사무기","tel":"031-595-2309","addr":"경기도 남양주시 화도읍 묵현리 147-3","indutype":"사무통신 - 기타 사무용품","category":"other"},{"name":"파인템플(PINETEMPPLE)","tel":"","addr":"경기도 남양주시 화도읍 묵현리 147-3번지 삼신푸른솔 상가동 지하층102-3호","indutype":"의류 - 정장","category":"other"}]},{"lat":"37.654386864","long":"127.27474047","imageIndex":17,"items":[{"name":"GS25화도경춘점","tel":"","addr":"경기도 남양주시 화도읍 묵현리 390-3번지","indutype":"유통업 영리 - 편 의 점","category":"other"},{"name":"잼모바일","tel":"031-595-9965","addr":"경기도 남양주시 화도읍 묵현리 390-3번지 106, 107호","indutype":"사무통신 - 통신기기","category":"other"}]},{"lat":"37.658775656","long":"127.27426916","imageIndex":17,"items":[{"name":"GS25화도먹갓로점","tel":"","addr":"경기도 남양주시 화도읍 묵현리 449-1번지","indutype":"유통업 영리 - 편 의 점","category":"other"},{"name":"한강레포츠","tel":"031-591-3376","addr":"경기도 남양주시 화도읍 묵현리 449-1번지 102호","indutype":"레져용품 - 스포츠·레져용품","category":"other"}]},{"lat":"37.660059019","long":"127.27252855","imageIndex":17,"items":[{"name":"SM에어컨","tel":"02-6010-6999","addr":"경기도 남양주시 화도읍 묵현리 566-4번지 청솔빌라 201동 202호","indutype":"용역 서비스 - 기타용역서비스","category":"other"}]},{"lat":"37.655364946","long":"127.27254557","imageIndex":17,"items":[{"name":"SU테크","tel":"031-553-3373","addr":"경기도 남양주시 화도읍 묵현리 588-2번지 5동 103호 (일부)","indutype":"건축자재 - 목재·석재·철물","category":"other"},{"name":"건강을지키는사람들","tel":"031-584-9955","addr":"경기도 남양주시 화도읍 묵현리 588-2번지 신LG빌라 5동 101호","indutype":"회원제형태 - 기타3","category":"other"}]},{"lat":"37.659641967","long":"127.28893713","imageIndex":17,"items":[{"name":"pc가 뭐길래","tel":"","addr":"경기도 남양주시 화도읍 묵현리 335-10번지 지층 101호","indutype":"수리서비스 - 사무·통신기기수리","category":"other"}]},{"lat":"37.664073819","long":"127.30023108","imageIndex":17,"items":[{"name":"가구찾기","tel":"031-592-7981","addr":"경기도 남양주시 화도읍 묵현리 74-1번지 씨엘타운 A동 1층 102호","indutype":"가구 - 일반가구","category":"other"},{"name":"라니아뜰리에","tel":"","addr":"경기도 남양주시 화도읍 묵현리 74-1번지 씨엘타운 A동 1층 102호","indutype":"문화.취미 - 문화취미기타","category":"other"},{"name":"헨디페어 묵현점","tel":"031-511-4912","addr":"경기도 남양주시 화도읍 묵현리 74-1번지 씨엘타운 A동 102호","indutype":"수리서비스 - 가정용품수리","category":"other"}]},{"lat":"37.653838036","long":"127.27829674","imageIndex":17,"items":[{"name":"가구카페뷰","tel":"031-559-9107","addr":"경기도 남양주시 화도읍 묵현리 383-4번지 3호","indutype":"가구 - 일반가구","category":"other"}]},{"lat":"37.668830549","long":"127.30743602","imageIndex":17,"items":[{"name":"가나누수하수구탐지수도설비","tel":"031-594-4834","addr":"경기도 남양주시 화도읍 묵현리 3-13번지 1층","indutype":"용역 서비스 - 기타용역서비스","category":"other"}]},{"lat":"37.664069281","long":"127.30555785","imageIndex":17,"items":[{"name":"건일자동문","tel":"02-6013-7773","addr":"경기도 남양주시 화도읍 묵현리 56번지 다산드림타운 103동 101호","indutype":"용역 서비스 - 기타용역서비스","category":"other"}]},{"lat":"37.656308122","long":"127.289049","imageIndex":17,"items":[{"name":"경기백산타월","tel":"070-4009-4101","addr":"경기도 남양주시 화도읍 묵현리 288번지 이조빌딩 104호","indutype":"직물 - 옷감·직물","category":"other"}]},{"lat":"37.662609887","long":"127.30195925","imageIndex":17,"items":[{"name":"경기자동문","tel":"031-592-2227","addr":"경기도 남양주시 화도읍 묵현리 74-64번지 한림골든팰리스4차 102동 202호","indutype":"건축자재 - 기타건축자재","category":"other"}]},{"lat":"37.65647312","long":"127.28788239","imageIndex":17,"items":[{"name":"경춘벽지할인매장","tel":"031-593-9570","addr":"경기도 남양주시 화도읍 묵현리 310-4","indutype":"직물 - 카페트,커튼,천막,지물","category":"other"}]},{"lat":"37.663024585","long":"127.30185891","imageIndex":17,"items":[{"name":"경춘세탁소","tel":"031-594-6667","addr":"경기도 남양주시 화도읍 묵현리 74-19번지 신신프라자 1층 일부","indutype":"수리서비스 - 세탁소","category":"other"},{"name":"한국드레스인형협회","tel":"031-511-6886","addr":"경기도 남양주시 화도읍 묵현리 74-19번지 신신프라자 3층","indutype":"문화.취미 - 문화취미기타","category":"other"}]},{"lat":"37.660250982","long":"127.27524917","imageIndex":17,"items":[{"name":"고롱고롱","tel":"","addr":"경기도 남양주시 화도읍 묵현리 514-2번지 다산빌라트 103동 501호","indutype":"문화.취미 - 애완동물","category":"other"}]},{"lat":"37.657752554","long":"127.28410218","imageIndex":17,"items":[{"name":"광고하우스","tel":"031-592-6885","addr":"경기도 남양주시 화도읍 묵현리 358","indutype":"건축자재 - 인테리어전문","category":"other"}]},{"lat":"37.665387383","long":"127.30096168","imageIndex":17,"items":[{"name":"구동민 불교용품","tel":"031-594-3580","addr":"경기도 남양주시 화도읍 묵현리 143-3번지","indutype":"신변잡화 - 기념품점","category":"other"}]},{"lat":"37.658579971","long":"127.2921629","imageIndex":17,"items":[{"name":"국가대표","tel":"031-594-3712","addr":"경기도 남양주시 화도읍 묵현리 266번지 1층","indutype":"직물 - 카페트,커튼,천막,지물","category":"other"}]},{"lat":"37.657115018","long":"127.2755097","imageIndex":17,"items":[{"name":"그린","tel":"031-6280-0037","addr":"경기도 남양주시 화도읍 묵현리 435-10번지 동명빌라 A동 301호","indutype":"회원제형태 - 기타4","category":"other"},{"name":"보보 크리스탈","tel":"031-577-1060","addr":"경기도 남양주시 화도읍 묵현리 435-10번지 동명빌라 A동 201호","indutype":"신변잡화 - 기념품점","category":"other"}]},{"lat":"37.658136601","long":"127.27399485","imageIndex":17,"items":[{"name":"꼬마펫","tel":"031-594-3666","addr":"경기도 남양주시 화도읍 묵현리 455-5번지 부남빌딩 105호","indutype":"문화.취미 - 애완동물","category":"other"},{"name":"스마트 시스템 공조","tel":"02-6083-0482","addr":"경기도 남양주시 화도읍 묵현리 455-5번지 모던빌 401호","indutype":"전기제품 - 냉열기기","category":"other"},{"name":"스타힐리조트 맥시멈 렌탈실","tel":"070-4488-4667","addr":"경기도 남양주시 화도읍 묵현리 455-5번지 모던빌 109호","indutype":"레져용품 - 스포츠·레져용품","category":"other"},{"name":"이엠(EM)텔레콤","tel":"031-511-7206","addr":"경기도 남양주시 화도읍 묵현리 455-5번지 모던빌 1층 102호","indutype":"사무통신 - 통신기기","category":"other"}]},{"lat":"37.661588322","long":"127.29976783","imageIndex":17,"items":[{"name":"나이스우드(NICE WOOD)","tel":"","addr":"경기도 남양주시 화도읍 묵현리 99-10번지 대림홈타운3단지 303동 402호","indutype":"건축자재 - 기타건축자재","category":"other"}]},{"lat":"37.658726041","long":"127.27233107","imageIndex":17,"items":[{"name":"남도수산","tel":"","addr":"경기도 남양주시 화도읍 묵현리 572-17번지 세륜빌라 10동 403호","indutype":"회원제형태 - 기타1","category":"other"}]},{"lat":"37.652719522","long":"127.2788592","imageIndex":17,"items":[{"name":"남양주 마석 에넥스","tel":"031-559-9211","addr":"경기도 남양주시 화도읍 묵현리 산190-7번지 1층","indutype":"가구 - 일반가구","category":"other"},{"name":"인스페이스비즈","tel":"031-594-7780","addr":"경기도 남양주시 화도읍 묵현리 산190-7번지 2층","indutype":"건축자재 - 인테리어전문","category":"other"}]},{"lat":"37.656553858","long":"127.28047127","imageIndex":17,"items":[{"name":"남양주벽화그림향기","tel":"031-528-0027","addr":"경기도 남양주시 화도읍 묵현리 367-12번지 신성빌라4차 302호","indutype":"회원제형태 - 기타4","category":"other"}]},{"lat":"37.655668964","long":"127.28883123","imageIndex":17,"items":[{"name":"남양주인테리어","tel":"031-591-7060","addr":"경기도 남양주시 화도읍 묵현리 286-2번지 나동 1층","indutype":"건축자재 - 인테리어전문","category":"other"},{"name":"다인아크릴","tel":"031-595-4068","addr":"경기도 남양주시 화도읍 묵현리 286-2번지 나동 1층","indutype":"건축자재 - 기타건축자재","category":"other"},{"name":"사부작","tel":"","addr":"경기도 남양주시 화도읍 묵현리 286-2번지 1층","indutype":"문화.취미 - 문화취미기타","category":"other"}]},{"lat":"37.661279597","long":"127.30071859","imageIndex":17,"items":[{"name":"네모난나무","tel":"070-8119-4048","addr":"경기도 남양주시 화도읍 묵현리 84번지 201호","indutype":"건축자재 - 인테리어전문","category":"other"}]},{"lat":"37.662032025","long":"127.29160963","imageIndex":17,"items":[{"name":"다산타일","tel":"031-594-5677","addr":"경기도 남양주시 화도읍 묵현리 217-26번지","indutype":"건축자재 - 건축용 요업제품","category":"other"}]},{"lat":"37.658525808","long":"127.2732143","imageIndex":17,"items":[{"name":"대건녹즙","tel":"031-551-9225","addr":"경기도 남양주시 화도읍 묵현리 451-5번지 송학빌라 402호","indutype":"회원제형태 - 기타4","category":"other"}]},{"lat":"37.656723059","long":"127.27746879","imageIndex":17,"items":[{"name":"동네문구","tel":"031-511-8880","addr":"경기도 남양주시 화도읍 묵현리 473-3번지 1동 3호","indutype":"서적문구 - 문구용품","category":"other"},{"name":"정복부동산","tel":"031-594-6545","addr":"경기도 남양주시 화도읍 묵현리 473-3번지 475-3","indutype":"용역 서비스 - 부동산 중개·임대","category":"other"},{"name":"태흥설비공사","tel":"031-511-1594","addr":"경기도 남양주시 화도읍 묵현리 473-3","indutype":"수리서비스 - 기타수리서비스","category":"other"}]},{"lat":"37.662836305","long":"127.29791412","imageIndex":17,"items":[{"name":"동우건업","tel":"031-594-5792","addr":"경기도 남양주시 화도읍 묵현리 96-7번지 바우빌라 2동 104호","indutype":"건축자재 - 인테리어전문","category":"other"}]},{"lat":"37.65577782","long":"127.28852568","imageIndex":17,"items":[{"name":"드림메드","tel":"031-511-8138","addr":"경기도 남양주시 화도읍 묵현리 286-7번지","indutype":"기타의료기관 - 기타의료기관 및 기타","category":"other"},{"name":"우진상사","tel":"031-594-0695","addr":"경기도 남양주시 화도읍 묵현리 286-7번지","indutype":"건축자재 - 페인트","category":"other"}]},{"lat":"37.656829611","long":"127.27425075","imageIndex":17,"items":[{"name":"디원스","tel":"031-594-7749","addr":"경기도 남양주시 화도읍 묵현리 458-4번지","indutype":"서적문구 - 문구용품","category":"other"},{"name":"창진설비","tel":"031-595-7504","addr":"경기도 남양주시 화도읍 묵현리 458-4번지","indutype":"건축자재 - 보일러·펌프·샷시","category":"other"},{"name":"천마문구","tel":"032-594-7749","addr":"경기도 남양주시 화도읍 묵현리 458-4번지","indutype":"서적문구 - 문구용품","category":"other"}]},{"lat":"37.652637339","long":"127.27152717","imageIndex":17,"items":[{"name":"라온누리 주식회사","tel":"070-7711-1312","addr":"경기도 남양주시 화도읍 묵현리 604-10번지 지하2층","indutype":"용역 서비스 - 종합용역","category":"other"},{"name":"에스포","tel":"031-5946-567","addr":"경기도 남양주시 화도읍 묵현리 604-10번지 1층","indutype":"전기제품 - 가전제품","category":"other"}]},{"lat":"37.662221268","long":"127.30243369","imageIndex":17,"items":[{"name":"라이블리플라워(Llverly Flower)","tel":"070-4187-7689","addr":"경기도 남양주시 화도읍 묵현리 70-3번지 105호","indutype":"문화.취미 - 화원","category":"other"}]},{"lat":"37.657024057","long":"127.27588334","imageIndex":17,"items":[{"name":"랑(RANG)인테리어 소품샵","tel":"031-1111-1111","addr":"경기도 남양주시 화도읍 묵현리 426-5번지","indutype":"가구 - 기타가구","category":"other"}]},{"lat":"37.661669357","long":"127.29618685","imageIndex":17,"items":[{"name":"로만홀딩도어","tel":"031-563-1900","addr":"경기도 남양주시 화도읍 묵현리 108-8","indutype":"직물 - 카페트,커튼,천막,지물","category":"other"}]},{"lat":"37.658420379","long":"127.29110833","imageIndex":17,"items":[{"name":"리라세탁소","tel":"031-595-7303","addr":"경기도 남양주시 화도읍 묵현리 239-18번지 리라빌라 103호","indutype":"수리서비스 - 세탁소","category":"other"}]},{"lat":"37.662781069","long":"127.30195993","imageIndex":17,"items":[{"name":"마석금장인테리어","tel":"031-559-6644","addr":"경기도 남양주시 화도읍 묵현리 74-8번지 외3필지","indutype":"건축자재 - 인테리어전문","category":"other"},{"name":"스피드텔레콤","tel":"070-8818-8355","addr":"경기도 남양주시 화도읍 묵현리 74-8번지 마석K마트 1층 102호","indutype":"사무통신 - 통신기기","category":"other"},{"name":"입고가","tel":"031-594-9937","addr":"경기도 남양주시 화도읍 묵현리 74-8번지","indutype":"의류 - 정장","category":"other"},{"name":"크린토피아","tel":"031-591-7337","addr":"경기도 남양주시 화도읍 묵현리 74-8","indutype":"수리서비스 - 세탁소","category":"other"}]},{"lat":"37.655891771","long":"127.28232731","imageIndex":17,"items":[{"name":"마석낚시슈퍼","tel":"031-594-7635","addr":"경기도 남양주시 화도읍 묵현리 372-46번지 B동 202호","indutype":"레져용품 - 스포츠·레져용품","category":"other"}]},{"lat":"37.658201437","long":"127.27322446","imageIndex":17,"items":[{"name":"마석신발마트","tel":"02-1688-8289","addr":"경기도 남양주시 화도읍 묵현리 455-1번지 하트빌리지 101동 302호","indutype":"신변잡화 - 신발","category":"other"}]},{"lat":"37.655251001","long":"127.27508359","imageIndex":17,"items":[{"name":"마실","tel":"031-528-6263","addr":"경기도 남양주시 화도읍 묵현리 422-5번지 102호","indutype":"의류 - 정장","category":"other"}]},{"lat":"37.654415614","long":"127.27399265","imageIndex":17,"items":[{"name":"마치좋은","tel":"031-592-5855","addr":"경기도 남양주시 화도읍 묵현리 410번지 C동 2층 우측앞면","indutype":"의류 - 정장","category":"other"},{"name":"케이엘 남양주화도점","tel":"031-000-0000","addr":"경기도 남양주시 화도읍 묵현리 410번지 C동 205호","indutype":"의류 - 정장","category":"other"}]},{"lat":"37.655524627","long":"127.27363405","imageIndex":17,"items":[{"name":"먹갓마을 운영위원회","tel":"031-511-2283","addr":"경기도 남양주시 화도읍 묵현리 408-4번지","indutype":"문화.취미 - 문화취미기타","category":"other"}]},{"lat":"37.664081742","long":"127.30066179","imageIndex":17,"items":[{"name":"멀티공조","tel":"","addr":"경기도 남양주시 화도읍 묵현리 74-58번지 씨엘타운 C동 202호","indutype":"용역 서비스 - 기타용역서비스","category":"other"},{"name":"유진판넬","tel":"031-521-8861","addr":"경기도 남양주시 화도읍 묵현리 74-58번지 씨엘타운 C동 402호","indutype":"회원제형태 - 기타4","category":"other"}]},{"lat":"37.656391644","long":"127.29174644","imageIndex":17,"items":[{"name":"멍멍이와야옹이","tel":"031-594-7879","addr":"경기도 남양주시 화도읍 묵현리 241-6번지 1층 103호","indutype":"문화.취미 - 애완동물","category":"other"},{"name":"이브자리마석점","tel":"031-591-7070","addr":"경기도 남양주시 화도읍 묵현리 241-6번지 1층 1호","indutype":"직물 - 침구·수예점","category":"other"}]},{"lat":"37.658108964","long":"127.28949789","imageIndex":17,"items":[{"name":"메이드제이","tel":"","addr":"경기도 남양주시 화도읍 묵현리 299-8번지 2층 1호","indutype":"신변잡화 - 기타잡화","category":"other"},{"name":"미누팩토리(MINU factory)","tel":"031-523-9491","addr":"경기도 남양주시 화도읍 묵현리 299-8번지 2층","indutype":"가구 - 일반가구","category":"other"},{"name":"올핏디자인(AllFit Design)","tel":"031-511-2869","addr":"경기도 남양주시 화도읍 묵현리 299-8번지 2호","indutype":"건축자재 - 인테리어전문","category":"other"}]},{"lat":"37.663773957","long":"127.30123857","imageIndex":17,"items":[{"name":"명지측량설계","tel":"031-511-2600","addr":"경기도 남양주시 화도읍 묵현리 72-7번지 태영빌딩 2층","indutype":"기타 - 기타 전문점","category":"other"},{"name":"부엉이숲","tel":"031-591-1664","addr":"경기도 남양주시 화도읍 묵현리 72-7번지 1층","indutype":"광학제품 - 사진관","category":"other"},{"name":"세기전기조명","tel":"031-594-1030","addr":"경기도 남양주시 화도읍 묵현리 72-7번지 태영 상가 1층 104호","indutype":"건축자재 - 조명기구","category":"other"}]},{"lat":"37.657553343","long":"127.28452073","imageIndex":17,"items":[{"name":"명품아이","tel":"070-4218-5120","addr":"경기도 남양주시 화도읍 묵현리 358-15번지 1층","indutype":"의류 - 아동의류","category":"other"}]},{"lat":"37.656166488","long":"127.27268446","imageIndex":17,"items":[{"name":"무적설비-분당용인누수탐지공사전문","tel":"","addr":"경기도 남양주시 화도읍 묵현리 586-8번지 대원빌리지 105동 301호","indutype":"수리서비스 - 기타수리서비스","category":"other"}]},{"lat":"37.657168735","long":"127.27565722","imageIndex":17,"items":[{"name":"미래컴퓨터","tel":"031-511-8212","addr":"경기도 남양주시 화도읍 묵현리 429-4번지 103호","indutype":"사무통신 - 컴퓨터","category":"other"},{"name":"자스민스킨케어","tel":"070-8160-9954","addr":"경기도 남양주시 화도읍 묵현리 429-4번지 1층","indutype":"회원제형태 - 기타4","category":"other"}]},{"lat":"37.65725163","long":"127.28635547","imageIndex":17,"items":[{"name":"바네사홈(vanessa home)","tel":"031-595-1688","addr":"경기도 남양주시 화도읍 묵현리 310-10번지","indutype":"직물 - 침구·수예점","category":"other"},{"name":"커튼명가창(마석점)","tel":"031-595-1688","addr":"경기도 남양주시 화도읍 묵현리 310-10번지 1층","indutype":"직물 - 카페트,커튼,천막,지물","category":"other"}]},{"lat":"37.662718216","long":"127.29829899","imageIndex":17,"items":[{"name":"백마크리닝(남양주12호점)","tel":"","addr":"경기도 남양주시 화도읍 묵현리 97번지 201호","indutype":"수리서비스 - 세탁소","category":"other"},{"name":"세븐일레븐마석대광점","tel":"","addr":"경기도 남양주시 화도읍 묵현리 97번지","indutype":"유통업 영리 - 편 의 점","category":"other"}]},{"lat":"37.657552205","long":"127.2849967","imageIndex":17,"items":[{"name":"버디스크린연습장","tel":"031-511-0038","addr":"경기도 남양주시 화도읍 묵현리 358-12번지 2층","indutype":"회원제형태 - 레져업소","category":"other"}]},{"lat":"37.657335763","long":"127.28882629","imageIndex":17,"items":[{"name":"베스트공인중개사사무소","tel":"031-559-9115","addr":"경기도 남양주시 화도읍 묵현리 290-19번지","indutype":"용역 서비스 - 부동산 중개·임대","category":"other"},{"name":"열린부동산 공인중개사사무소","tel":"031-559-8200","addr":"경기도 남양주시 화도읍 묵현리 290-19번지","indutype":"용역 서비스 - 부동산 중개·임대","category":"other"}]},{"lat":"37.655580917","long":"127.27265968","imageIndex":17,"items":[{"name":"베스팅","tel":"031-559-4428","addr":"경기도 남양주시 화도읍 묵현리 418-3번지 신LG빌라 1층 102호","indutype":"사무통신 - 컴퓨터","category":"other"}]},{"lat":"37.659806751","long":"127.27252764","imageIndex":17,"items":[{"name":"별내아쿠아아레나","tel":"031-555-3593","addr":"경기도 남양주시 화도읍 묵현리 566-8번지 청솔빌라 101동 403호","indutype":"레져용품 - 스포츠·레져용품","category":"other"}]},{"lat":"37.657574795","long":"127.27538672","imageIndex":17,"items":[{"name":"보은건축설비","tel":"031-591-8584","addr":"경기도 남양주시 화도읍 묵현리 436-6번지 조은맨션 102동 301호","indutype":"용역 서비스 - 기타용역서비스","category":"other"}]},{"lat":"37.658132239","long":"127.29103922","imageIndex":17,"items":[{"name":"뿌띠","tel":"02-434-4984","addr":"경기도 남양주시 화도읍 묵현리 242-31번지 강남주택 가동 102호","indutype":"수리서비스 - 세탁소","category":"other"}]},{"lat":"37.656917381","long":"127.27913538","imageIndex":17,"items":[{"name":"삼보장식","tel":"031-511-0616","addr":"경기도 남양주시 화도읍 묵현리 365-7번지 신성주택 상가 101호","indutype":"건축자재 - 인테리어전문","category":"other"},{"name":"씨유남양주묵현점","tel":"031-591-2585","addr":"경기도 남양주시 화도읍 묵현리 365-7번지 신성빌라3차 103호","indutype":"유통업 영리 - 편 의 점","category":"other"}]},{"lat":"37.664088086","long":"127.30171584","imageIndex":17,"items":[{"name":"삼성건재","tel":"031-595-8755","addr":"경기도 남양주시 화도읍 묵현리 34-1번지","indutype":"건축자재 - 기타건축자재","category":"other"}]},{"lat":"37.654138756","long":"127.28068892","imageIndex":17,"items":[{"name":"삼영LED","tel":"031-594-3085","addr":"경기도 남양주시 화도읍 묵현리 372-76번지","indutype":"건축자재 - 조명기구","category":"other"}]},{"lat":"37.658198537","long":"127.28971355","imageIndex":17,"items":[{"name":"삼원","tel":"031-591-3001","addr":"경기도 남양주시 화도읍 묵현리 299-7번지","indutype":"건축자재 - 인테리어전문","category":"other"}]},{"lat":"37.657341331","long":"127.29024289","imageIndex":17,"items":[{"name":"상아공조","tel":"031-555-5555","addr":"경기도 남양주시 화도읍 묵현리 242-19번지 창성주택 가동 305호","indutype":"전기제품 - 냉열기기","category":"other"}]},{"lat":"37.655720374","long":"127.28241733","imageIndex":17,"items":[{"name":"성우명품가구갤러리","tel":"070-7524-5780","addr":"경기도 남양주시 화도읍 묵현리 372-47번지 진우로얄빌라 나동 101호","indutype":"가구 - 일반가구","category":"other"},{"name":"오피스플랜","tel":"02-826-2986","addr":"경기도 남양주시 화도읍 묵현리 372-47번지 진우로얄빌라 나동 103호","indutype":"가구 - 기타가구","category":"other"}]},{"lat":"37.6589686","long":"127.27263794","imageIndex":17,"items":[{"name":"세경철물","tel":"031-592-7918","addr":"경기도 남양주시 화도읍 묵현리 573-2번지 세원빌라 103호","indutype":"건축자재 - 목재·석재·철물","category":"other"},{"name":"세경철물","tel":"","addr":"경기도 남양주시 화도읍 묵현리 573-2번지 세원빌라 103호","indutype":"건축자재 - 목재·석재·철물","category":"other"}]},{"lat":"37.657949774","long":"127.2919678","imageIndex":17,"items":[{"name":"세븐일레븐남양주묵현점","tel":"","addr":"경기도 남양주시 화도읍 묵현리 270-2번지 예일빌라","indutype":"유통업 영리 - 편 의 점","category":"other"},{"name":"세븐일레븐묵현점","tel":"","addr":"경기도 남양주시 화도읍 묵현리 270-2","indutype":"유통업 영리 - 편 의 점","category":"other"}]},{"lat":"37.655221853","long":"127.27208043","imageIndex":17,"items":[{"name":"세븐일레븐묵현행복점","tel":"","addr":"경기도 남양주시 화도읍 묵현리 588-1번지 외1필지 천마빌라트","indutype":"유통업 영리 - 편 의 점","category":"other"}]},{"lat":"37.659475823","long":"127.28685124","imageIndex":17,"items":[{"name":"세븐일레븐천마산역점","tel":"","addr":"경기도 남양주시 화도읍 묵현리 325-2번지 1층","indutype":"유통업 영리 - 편 의 점","category":"other"}]},{"lat":"37.656281011","long":"127.28908289","imageIndex":17,"items":[{"name":"세븐일레븐화도휴게소점","tel":"031-1577-0711","addr":"경기도 남양주시 화도읍 묵현리 241-22번지 105,106호","indutype":"유통업 영리 - 편 의 점","category":"other"}]},{"lat":"37.663277518","long":"127.29801787","imageIndex":17,"items":[{"name":"스마트","tel":"031-000-0000","addr":"경기도 남양주시 화도읍 묵현리 92-14번지 바2동 401호","indutype":"수리서비스 - 기타수리서비스","category":"other"}]},{"lat":"37.658969947","long":"127.27204863","imageIndex":17,"items":[{"name":"스마트에어컨","tel":"031-594-5126","addr":"경기도 남양주시 화도읍 묵현리 570-13번지 세륜빌리지 8동 403호","indutype":"용역 서비스 - 기타용역서비스","category":"other"}]},{"lat":"37.660419921","long":"127.27230319","imageIndex":17,"items":[{"name":"스피드","tel":"031-593-7330","addr":"경기도 남양주시 화도읍 묵현리 566-1번지 101호","indutype":"레져용품 - 스포츠·레져용품","category":"other"}]},{"lat":"37.655886775","long":"127.29188047","imageIndex":17,"items":[{"name":"시온텔레콤(마석점)","tel":"031-594-7753","addr":"경기도 남양주시 화도읍 묵현리 280-2번지","indutype":"사무통신 - 통신기기","category":"other"}]},{"lat":"37.656943364","long":"127.27571306","imageIndex":17,"items":[{"name":"씨유묵현성림점","tel":"031-595-8395","addr":"경기도 남양주시 화도읍 묵현리 426-6","indutype":"유통업 영리 - 편 의 점","category":"other"}]},{"lat":"37.654165944","long":"127.27285854","imageIndex":17,"items":[{"name":"씨제이올리브네트웍스(주)남양주화도점","tel":"031-511-0376","addr":"경기도 남양주시 화도읍 묵현리 412-6번지 D동 1-2층","indutype":"유통업 영리 - 편 의 점","category":"other"}]},{"lat":"37.660255077","long":"127.2734699","imageIndex":17,"items":[{"name":"아이엠베스트","tel":"031-568-7141","addr":"경기도 남양주시 화도읍 묵현리 508-4번지 더블링하우스 B동 102호","indutype":"사무통신 - 사무용 OA기기","category":"other"}]},{"lat":"37.663277284","long":"127.30168992","imageIndex":17,"items":[{"name":"아트광고기획","tel":"031-593-8886","addr":"경기도 남양주시 화도읍 묵현리 74-7","indutype":"건축자재 - 인테리어전문","category":"other"},{"name":"트리밍 마스터","tel":"031-511-1118","addr":"경기도 남양주시 화도읍 묵현리 74-7번지 103호","indutype":"문화.취미 - 애완동물","category":"other"}]},{"lat":"37.659947788","long":"127.27388811","imageIndex":17,"items":[{"name":"알파스포츠","tel":"031-511-2555","addr":"경기도 남양주시 화도읍 묵현리 506-5번지 탑주택 1동 101호","indutype":"레져용품 - 스포츠·레져용품","category":"other"}]},{"lat":"37.663971453","long":"127.29794128","imageIndex":17,"items":[{"name":"애니크린구리점","tel":"031-594-4245","addr":"경기도 남양주시 화도읍 묵현리 125번지 펠리스빌 101호","indutype":"회원제형태 - 기타4","category":"other"}]},{"lat":"37.660445314","long":"127.29202281","imageIndex":17,"items":[{"name":"야메토","tel":"","addr":"경기도 남양주시 화도읍 묵현리 627번지 한림미소가 301동 103호","indutype":"의류 - 정장","category":"other"}]},{"lat":"37.660336994","long":"127.27310754","imageIndex":17,"items":[{"name":"에어타임","tel":"031-511-9959","addr":"경기도 남양주시 화도읍 묵현리 508-8","indutype":"레져용품 - 스포츠·레져용품","category":"other"}]},{"lat":"37.657413748","long":"127.28637875","imageIndex":17,"items":[{"name":"엠디 세디아(MD SEDIA)","tel":"031-592-4436","addr":"경기도 남양주시 화도읍 묵현리 312-3번지","indutype":"가구 - 일반가구","category":"other"}]},{"lat":"37.657416321","long":"127.28151708","imageIndex":17,"items":[{"name":"엠비엠푸드","tel":"031-511-3201","addr":"경기도 남양주시 화도읍 묵현리 360-12번지","indutype":"신변잡화 - 기타잡화","category":"other"}]},{"lat":"37.655942385","long":"127.29124608","imageIndex":17,"items":[{"name":"연우사","tel":"031-511-0009","addr":"경기도 남양주시 화도읍 묵현리 280-9번지","indutype":"유통업 영리 - 기타유통업","category":"other"}]},{"lat":"37.655886291","long":"127.28837877","imageIndex":17,"items":[{"name":"옐로우하우스","tel":"031-511-0161","addr":"경기도 남양주시 화도읍 묵현리 286-9번지","indutype":"기타 - 기타 전문점","category":"other"},{"name":"태연철물","tel":"031-511-8138","addr":"경기도 남양주시 화도읍 묵현리 286-9번지","indutype":"건축자재 - 목재·석재·철물","category":"other"}]},{"lat":"37.657696588","long":"127.27335862","imageIndex":17,"items":[{"name":"오우","tel":"","addr":"경기도 남양주시 화도읍 묵현리 456-6번지 정일그린타운 나동 401호","indutype":"문화.취미 - 문화취미기타","category":"other"}]},{"lat":"37.657996122","long":"127.27630621","imageIndex":17,"items":[{"name":"올(ALL)보일러","tel":"031-511-3440","addr":"경기도 남양주시 화도읍 묵현리 496-4번지 로하스빌 102-1호","indutype":"건축자재 - 보일러·펌프·샷시","category":"other"}]},{"lat":"37.656198627","long":"127.27438444","imageIndex":17,"items":[{"name":"우드랜드","tel":"031-511-5715","addr":"경기도 남양주시 화도읍 묵현리 406-9번지","indutype":"가구 - 일반가구","category":"other"}]},{"lat":"37.664362612","long":"127.29279735","imageIndex":17,"items":[{"name":"우리LED","tel":"031-591-1177","addr":"경기도 남양주시 화도읍 묵현리 185-1번지","indutype":"건축자재 - 조명기구","category":"other"}]},{"lat":"37.659163564","long":"127.27405525","imageIndex":17,"items":[{"name":"월드레포츠","tel":"031-511-8684","addr":"경기도 남양주시 화도읍 묵현리 445-4 7/2","indutype":"레져용품 - 스포츠·레져용품","category":"other"},{"name":"청타스포츠","tel":"031-594-8253","addr":"경기도 남양주시 화도읍 묵현리 445-4번지","indutype":"레져용품 - 스포츠·레져용품","category":"other"}]},{"lat":"37.659719233","long":"127.27532656","imageIndex":17,"items":[{"name":"유니","tel":"031-564-5941","addr":"경기도 남양주시 화도읍 묵현리 493-8번지 샹그레빌 102동 402호","indutype":"신변잡화 - 기타잡화","category":"other"}]},{"lat":"37.655357659","long":"127.26780865","imageIndex":17,"items":[{"name":"은성스포츠","tel":"031-595-8307","addr":"경기도 남양주시 화도읍 묵현리 597번지 강동빌라 101동 201호","indutype":"레져용품 - 스포츠·레져용품","category":"other"}]},{"lat":"37.662113667","long":"127.29865926","imageIndex":17,"items":[{"name":"이래 인테리어","tel":"","addr":"경기도 남양주시 화도읍 묵현리 98-7번지 101호","indutype":"건축자재 - 인테리어전문","category":"other"}]},{"lat":"37.656781113","long":"127.28719229","imageIndex":17,"items":[{"name":"일신조명","tel":"031-594-2848","addr":"경기도 남양주시 화도읍 묵현리 310-5번지 나동 2층","indutype":"건축자재 - 조명기구","category":"other"}]},{"lat":"37.655444632","long":"127.27315781","imageIndex":17,"items":[{"name":"자연나라","tel":"070-4530-0939","addr":"경기도 남양주시 화도읍 묵현리 407-5번지 대영그린빌 B동 101호","indutype":"신변잡화 - 기타잡화","category":"other"}]},{"lat":"37.657777284","long":"127.2735289","imageIndex":17,"items":[{"name":"잡스에어컨","tel":"031-593-2473","addr":"경기도 남양주시 화도읍 묵현리 456-4번지 천마빌라 202호","indutype":"회원제형태 - 기타4","category":"other"}]},{"lat":"37.663642733","long":"127.29608128","imageIndex":17,"items":[{"name":"재단법인한국불교원광원원광사","tel":"031-593-9502","addr":"경기도 남양주시 화도읍 묵현리 118","indutype":"기타 - 비영리/대상","category":"other"}]},{"lat":"37.655337217","long":"127.27285144","imageIndex":17,"items":[{"name":"정일상사","tel":"031-594-8494","addr":"경기도 남양주시 화도읍 묵현리 418-4번지 신LG빌라 3동 301호","indutype":"건축자재 - 보일러·펌프·샷시","category":"other"}]},{"lat":"37.656109235","long":"127.27407814","imageIndex":17,"items":[{"name":"제제스토리","tel":"031-528-6263","addr":"경기도 남양주시 화도읍 묵현리 406-3번지 4호","indutype":"의류 - 정장","category":"other"},{"name":"타카슬라임 화도점","tel":"","addr":"경기도 남양주시 화도읍 묵현리 406-3번지 202호","indutype":"서적문구 - 완구점","category":"other"}]},{"lat":"37.663640476","long":"127.29698796","imageIndex":17,"items":[{"name":"조이앵글","tel":"031-000-0000","addr":"경기도 남양주시 화도읍 묵현리 124-5번지","indutype":"건축자재 - 목재·석재·철물","category":"other"}]},{"lat":"37.658859963","long":"127.29188067","imageIndex":17,"items":[{"name":"주식회사 시민방송","tel":"031-592-9148","addr":"경기도 남양주시 화도읍 묵현리 252번지 2층","indutype":"용역 서비스 - 종합용역","category":"other"}]},{"lat":"37.656414936","long":"127.27435123","imageIndex":17,"items":[{"name":"중고폰나라","tel":"031-111-1111","addr":"경기도 남양주시 화도읍 묵현리 406-1번지 해성빌딩","indutype":"사무통신 - 통신기기","category":"other"}]},{"lat":"37.6590016","long":"127.289218","imageIndex":17,"items":[{"name":"지앤티유통","tel":"","addr":"경기도 남양주시 화도읍 묵현리 300번지","indutype":"신변잡화 - 기타잡화","category":"other"}]},{"lat":"37.657889478","long":"127.28335474","imageIndex":17,"items":[{"name":"지엔","tel":"031-559-4123","addr":"경기도 남양주시 화도읍 묵현리 358-6번지","indutype":"건축자재 - 목재·석재·철물","category":"other"}]},{"lat":"37.659642737","long":"127.27333168","imageIndex":17,"items":[{"name":"진우탄성코트","tel":"02-1661-7054","addr":"경기도 남양주시 화도읍 묵현리 441-3번지 한림베스트빌 D동 401호","indutype":"용역 서비스 - 기타용역서비스","category":"other"}]},{"lat":"37.667139765","long":"127.3027368","imageIndex":17,"items":[{"name":"창성산업","tel":"031-594-7963","addr":"경기도 남양주시 화도읍 묵현리 24-5번지","indutype":"기타 - 기타 전문점","category":"other"}]},{"lat":"37.658483197","long":"127.29121057","imageIndex":17,"items":[{"name":"천년기획","tel":"031-594-2303","addr":"경기도 남양주시 화도읍 묵현리 239-18번지 리라빌라 C동 201호","indutype":"용역 서비스 - 종합용역","category":"other"}]},{"lat":"37.658691308","long":"127.28713157","imageIndex":17,"items":[{"name":"천마공인중개사사무소","tel":"031-511-8838","addr":"경기도 남양주시 화도읍 묵현리 327-9번지 103호","indutype":"용역 서비스 - 부동산 중개·임대","category":"other"}]},{"lat":"37.663503664","long":"127.29765609","imageIndex":17,"items":[{"name":"천마산금산요양원","tel":"031-591-1006","addr":"경기도 남양주시 화도읍 묵현리 124-8번지","indutype":"기타의료기관 - 기타의료기관 및 기타","category":"other"}]},{"lat":"37.655088388","long":"127.27134335","imageIndex":17,"items":[{"name":"청솔주택관리","tel":"031-594-0361","addr":"경기도 남양주시 화도읍 묵현리 591-22번지 경도아트빌라 4동 302호","indutype":"용역 서비스 - 종합용역","category":"other"}]},{"lat":"37.65758105","long":"127.27657667","imageIndex":17,"items":[{"name":"체험마당","tel":"070-8151-4678","addr":"경기도 남양주시 화도읍 묵현리 469-2번지 그랜드하우스 201호","indutype":"용역 서비스 - 기타용역서비스","category":"other"}]},{"lat":"37.67036077","long":"127.30093623","imageIndex":17,"items":[{"name":"친정엄마상일가구","tel":"031-591-7203","addr":"경기도 남양주시 화도읍 묵현리 166-6번지","indutype":"가구 - 일반가구","category":"other"}]},{"lat":"37.663746941","long":"127.30477453","imageIndex":17,"items":[{"name":"캐릭터문방구","tel":"031-594-4315","addr":"경기도 남양주시 화도읍 묵현리 59번지 파인힐하우스2차 상가 102호","indutype":"서적문구 - 문구용품","category":"other"}]},{"lat":"37.659911033","long":"127.28570827","imageIndex":17,"items":[{"name":"캡틴에어시스템","tel":"031-591-4891","addr":"경기도 남양주시 화도읍 묵현리 320-18번지 대영빌라 2동 203호","indutype":"용역 서비스 - 종합용역","category":"other"}]},{"lat":"37.664333025","long":"127.2974667","imageIndex":17,"items":[{"name":"컴퓨터특공대","tel":"070-4623-2039","addr":"경기도 남양주시 화도읍 묵현리 122-2번지 에스원빌 102동 403호","indutype":"수리서비스 - 사무·통신기기수리","category":"other"}]},{"lat":"37.666502676","long":"127.30171418","imageIndex":17,"items":[{"name":"케이엘엔","tel":"070-4189-9999","addr":"경기도 남양주시 화도읍 묵현리 24번지 2,3층","indutype":"수리서비스 - 사무·통신기기수리","category":"other"},{"name":"피엔아이티","tel":"02-1566-7178","addr":"경기도 남양주시 화도읍 묵현리 24번지","indutype":"사무통신 - 통신기기","category":"other"}]},{"lat":"37.663330154","long":"127.29496937","imageIndex":17,"items":[{"name":"코아씽크","tel":"031-512-4746","addr":"경기도 남양주시 화도읍 묵현리 119-4","indutype":"주방용구 - 주방용구","category":"other"}]},{"lat":"37.657133171","long":"127.29062739","imageIndex":17,"items":[{"name":"콜릭","tel":"070-0000-0000","addr":"경기도 남양주시 화도읍 묵현리 297-6번지 동부그린타운 라동 401호","indutype":"의류 - 정장","category":"other"}]},{"lat":"37.657163565","long":"127.27399131","imageIndex":17,"items":[{"name":"쿠쿠매트","tel":"031-573-0199","addr":"경기도 남양주시 화도읍 묵현리 457-7번지","indutype":"신변잡화 - 기타잡화","category":"other"},{"name":"크린월드","tel":"031-595-7399","addr":"경기도 남양주시 화도읍 묵현리 457-7번지","indutype":"신변잡화 - 기타잡화","category":"other"}]},{"lat":"37.662944788","long":"127.29776722","imageIndex":17,"items":[{"name":"퀸스라이프","tel":"031-591-6140","addr":"경기도 남양주시 화도읍 묵현리 96-1번지 1층 202호","indutype":"용역 서비스 - 소프트웨어","category":"other"}]},{"lat":"37.655756337","long":"127.27862113","imageIndex":17,"items":[{"name":"크린월드","tel":"031-1111-1111","addr":"경기도 남양주시 화도읍 묵현리 395-1번지 동명하우스 101동 401호","indutype":"신변잡화 - 기타잡화","category":"other"}]},{"lat":"37.657109442","long":"127.27791218","imageIndex":17,"items":[{"name":"크린토피아남양주묵현점","tel":"031-512-4070","addr":"경기도 남양주시 화도읍 묵현리 479-2번지","indutype":"수리서비스 - 세탁소","category":"other"}]},{"lat":"37.656610983","long":"127.27136017","imageIndex":17,"items":[{"name":"클레버토이즈","tel":"070-1111-1111","addr":"경기도 남양주시 화도읍 묵현리 584-30번지 이와빌 102동 401호","indutype":"서적문구 - 완구점","category":"other"}]},{"lat":"37.656585795","long":"127.28971868","imageIndex":17,"items":[{"name":"킹덤 타이","tel":"031-592-1995","addr":"경기도 남양주시 화도읍 묵현리 241-43번지 주 1동 202호","indutype":"가구 - 기타가구","category":"other"}]},{"lat":"37.670163619","long":"127.30051607","imageIndex":17,"items":[{"name":"타블로아카데미","tel":"031-594-6543","addr":"경기도 남양주시 화도읍 묵현리 162-3번지","indutype":"서적문구 - 기타서적문구","category":"other"}]},{"lat":"37.658886061","long":"127.27327227","imageIndex":17,"items":[{"name":"타임앤로우","tel":"02-942-5433","addr":"경기도 남양주시 화도읍 묵현리 444-5번지 청구빌라 가동 402호","indutype":"신변잡화 - 기타잡화","category":"other"}]},{"lat":"37.661582443","long":"127.29852116","imageIndex":17,"items":[{"name":"태금주식회사","tel":"070-4261-9891","addr":"경기도 남양주시 화도읍 묵현리 102번지","indutype":"전기제품 - 기타전기제품","category":"other"}]},{"lat":"37.657920314","long":"127.28927051","imageIndex":17,"items":[{"name":"태양세탁소","tel":"031-594-9596","addr":"경기도 남양주시 화도읍 묵현리 298-1번지","indutype":"수리서비스 - 세탁소","category":"other"}]},{"lat":"37.665690897","long":"127.30207361","imageIndex":17,"items":[{"name":"태현종합보수인테리어","tel":"031-591-8766","addr":"경기도 남양주시 화도읍 묵현리 31-10번지 101호","indutype":"건축자재 - 인테리어전문","category":"other"}]},{"lat":"37.657227044","long":"127.28907519","imageIndex":17,"items":[{"name":"투데이(today)","tel":"031-593-4643","addr":"경기도 남양주시 화도읍 묵현리 290-20번지 109,110호","indutype":"사무통신 - 통신기기","category":"other"}]},{"lat":"37.652692093","long":"127.27122141","imageIndex":17,"items":[{"name":"편무일프로골프스쿨","tel":"070-7538-2555","addr":"경기도 남양주시 화도읍 묵현리 604-9번지","indutype":"회원제형태 - 레져업소","category":"other"}]},{"lat":"37.657559022","long":"127.2933262","imageIndex":17,"items":[{"name":"푸딩힐","tel":"031-528-6263","addr":"경기도 남양주시 화도읍 묵현리 262-2번지 극동빌라 101동 203호","indutype":"신변잡화 - 가방","category":"other"}]},{"lat":"37.661697263","long":"127.2994396","imageIndex":17,"items":[{"name":"퓨어스튜디오","tel":"031-000-0000","addr":"경기도 남양주시 화도읍 묵현리 99-9번지 대림홈타운2단지 202동 4층 02호","indutype":"광학제품 - 사진관","category":"other"}]},{"lat":"37.65905204","long":"127.27160695","imageIndex":17,"items":[{"name":"하늘 영상","tel":"","addr":"경기도 남양주시 화도읍 묵현리 570-7번지 세륜빌리지 6동 402호","indutype":"광학제품 - 사진관","category":"other"}]},{"lat":"37.659392524","long":"127.28776889","imageIndex":17,"items":[{"name":"하움기독교서점","tel":"031-591-7500","addr":"경기도 남양주시 화도읍 묵현리 339-4번지 4층","indutype":"서적문구 - 전문서적","category":"other"}]},{"lat":"37.662527795","long":"127.30235558","imageIndex":17,"items":[{"name":"하통통신","tel":"031-594-8489","addr":"경기도 남양주시 화도읍 묵현리 70-7번지","indutype":"사무통신 - 통신기기","category":"other"}]},{"lat":"37.65719529","long":"127.27194023","imageIndex":17,"items":[{"name":"한백가구","tel":"070-7420-8423","addr":"경기도 남양주시 화도읍 묵현리 584-10번지 스타힐 302동 202호","indutype":"가구 - 일반가구","category":"other"}]},{"lat":"37.653528179","long":"127.27593853","imageIndex":17,"items":[{"name":"한빛LED","tel":"","addr":"경기도 남양주시 화도읍 묵현리 388-12번지 도시한아름빌라타운 109동 402호","indutype":"용역 서비스 - 기타용역서비스","category":"other"}]},{"lat":"37.656948197","long":"127.28135667","imageIndex":17,"items":[{"name":"한빛인테리어","tel":"031-591-5614","addr":"경기도 남양주시 화도읍 묵현리 367-17번지 신성빌라 나동 103호","indutype":"직물 - 카페트,커튼,천막,지물","category":"other"}]},{"lat":"37.653171247","long":"127.27832827","imageIndex":17,"items":[{"name":"한솔산업개발","tel":"070-4248-1345","addr":"경기도 남양주시 화도읍 묵현리 산190-4번지 성생공단 내","indutype":"신변잡화 - 기타잡화","category":"other"}]},{"lat":"37.658945863","long":"127.28990909","imageIndex":17,"items":[{"name":"한양종합상사","tel":"031-595-4343","addr":"경기도 남양주시 화도읍 묵현리 236-1,236-2번지","indutype":"건축자재 - 기타건축자재","category":"other"}]},{"lat":"37.656779302","long":"127.2765284","imageIndex":17,"items":[{"name":"한양종합장식","tel":"031-559-0944","addr":"경기도 남양주시 화도읍 묵현리 400-5번지","indutype":"직물 - 카페트,커튼,천막,지물","category":"other"}]},{"lat":"37.664114828","long":"127.30182928","imageIndex":17,"items":[{"name":"핫도그(Hot Dog)","tel":"031-591-3372","addr":"경기도 남양주시 화도읍 묵현리 33-1번지 3,4,5호(33-2)","indutype":"문화.취미 - 애완동물","category":"other"}]},{"lat":"37.658310989","long":"127.29162922","imageIndex":17,"items":[{"name":"해비치에너지","tel":"031-529-9441","addr":"경기도 남양주시 화도읍 묵현리 242-18번지 세진빌라 나동 302호","indutype":"용역 서비스 - 기타용역서비스","category":"other"}]},{"lat":"37.656863168","long":"127.27532746","imageIndex":17,"items":[{"name":"헬스매니아","tel":"031-595-6664","addr":"경기도 남양주시 화도읍 묵현리 435-6번지 2층 동명빌딩","indutype":"회원제형태 - 레져업소","category":"other"}]},{"lat":"37.655721171","long":"127.27436004","imageIndex":17,"items":[{"name":"현지물","tel":"031-593-3654","addr":"경기도 남양주시 화도읍 묵현리 419-1번지 105호","indutype":"직물 - 카페트,커튼,천막,지물","category":"other"}]},{"lat":"37.659446186","long":"127.27260566","imageIndex":17,"items":[{"name":"현테크컴퓨터","tel":"031-511-6115","addr":"경기도 남양주시 화도읍 묵현리 571번지 세원빌리지 상가 1동 111호","indutype":"수리서비스 - 사무·통신기기수리","category":"other"}]},{"lat":"37.656695744","long":"127.27369497","imageIndex":17,"items":[{"name":"화도노인전문요양원(화도재가노인복지센터)","tel":"031-559-9988","addr":"경기도 남양주시 화도읍 묵현리 458-9","indutype":"기타의료기관 - 기타의료기관 및 기타","category":"other"}]},{"lat":"37.658605021","long":"127.27403055","imageIndex":17,"items":[{"name":"화이트","tel":"031-511-2901","addr":"경기도 남양주시 화도읍 묵현리 454번지 천마주택 가동 101호","indutype":"신변잡화 - 기타잡화","category":"other"}]},{"lat":"37.655613877","long":"127.27005336","imageIndex":17,"items":[{"name":"효마을실버빌","tel":"031-511-0019","addr":"경기도 남양주시 화도읍 묵현리 597-21번지","indutype":"기타의료기관 - 기타의료기관 및 기타","category":"other"}]},{"lat":"37.654696534","long":"127.27718935","imageIndex":17,"items":[{"name":"희림화원","tel":"031-559-5600","addr":"경기도 남양주시 화도읍 묵현리 396-23,24","indutype":"문화.취미 - 화원","category":"other"}]}]