[{"lat":"37.657960265","long":"126.73346955","imageIndex":7,"items":[{"name":"그린빌슈퍼휴게음식점","tel":"031-912-2346","addr":"경기도 고양시 일산서구 대화동 1926-30번지","indutype":"유통업 영리 - 슈퍼마켓","category":"mart"}]},{"lat":"37.675185107","long":"126.75321007","imageIndex":7,"items":[{"name":"대화슈퍼","tel":"031-911-8355","addr":"경기도 고양시 일산서구 대화동 2176-6번지","indutype":"유통업 영리 - 슈퍼마켓","category":"mart"}]},{"lat":"37.671072791","long":"126.73499768","imageIndex":7,"items":[{"name":"더 싼 할인마트","tel":"031-911-9646","addr":"경기도 고양시 일산서구 대화동 751-3번지","indutype":"유통업 영리 - 슈퍼마켓","category":"mart"},{"name":"세상의모든야채","tel":"031-912-0066","addr":"경기도 고양시 일산서구 대화동 751-3번지","indutype":"유통업 영리 - 슈퍼마켓","category":"mart"}]},{"lat":"37.673429613","long":"126.74963407","imageIndex":7,"items":[{"name":"명동슈퍼","tel":"031-922-1220","addr":"경기도 고양시 일산서구 대화동 2253-6번지","indutype":"유통업 영리 - 슈퍼마켓","category":"mart"}]},{"lat":"37.678186326","long":"126.75368745","imageIndex":7,"items":[{"name":"새벽이슬","tel":"031-924-6676","addr":"경기도 고양시 일산서구 대화동 2154번지","indutype":"유통업 영리 - 슈퍼마켓","category":"mart"}]},{"lat":"37.68398664","long":"126.75279512","imageIndex":7,"items":[{"name":"성저1호점KOSA마트","tel":"031-918-4458","addr":"경기도 고양시 일산서구 대화동 2054번지","indutype":"유통업 영리 - 슈퍼마켓","category":"mart"}]},{"lat":"37.677458057","long":"126.75440403","imageIndex":7,"items":[{"name":"세이브마트","tel":"031-918-6887","addr":"경기도 고양시 일산서구 대화동 2152-3번지","indutype":"유통업 영리 - 슈퍼마켓","category":"mart"}]},{"lat":"37.664376117","long":"126.75443631","imageIndex":7,"items":[{"name":"스타박스","tel":"031-961-6749","addr":"경기도 고양시 일산서구 대화동 2606번지","indutype":"유통업 영리 - 슈퍼마켓","category":"mart"}]},{"lat":"37.683158774","long":"126.75757058","imageIndex":7,"items":[{"name":"오렌지마트","tel":"031-922-4963","addr":"경기도 고양시 일산서구 대화동 2024-8번지","indutype":"유통업 영리 - 슈퍼마켓","category":"mart"}]},{"lat":"37.665938914","long":"126.7564032","imageIndex":7,"items":[{"name":"우리동네 구멍가게","tel":"","addr":"경기도 고양시 일산서구 대화동 1050-185번지","indutype":"유통업 영리 - 슈퍼마켓","category":"mart"}]},{"lat":"37.669489881","long":"126.73227177","imageIndex":7,"items":[{"name":"우리홈마트","tel":"031-922-4989","addr":"경기도 고양시 일산서구 대화동 1464-7번지","indutype":"유통업 영리 - 슈퍼마켓","category":"mart"}]},{"lat":"37.664213631","long":"126.74587995","imageIndex":7,"items":[{"name":"이마트24 대화힐스테이트점","tel":"","addr":"경기도 고양시 일산서구 대화동 2701번지","indutype":"유통업 영리 - 슈퍼마켓","category":"mart"}]},{"lat":"37.676325977","long":"126.75163061","imageIndex":7,"items":[{"name":"이전유통","tel":"031-919-3595","addr":"경기도 고양시 일산서구 대화동 2190-7번지","indutype":"유통업 영리 - 슈퍼마켓","category":"mart"}]},{"lat":"37.676127477","long":"126.75149525","imageIndex":7,"items":[{"name":"정다운 마트","tel":"031-916-0050","addr":"경기도 고양시 일산서구 대화동 2189-6번지","indutype":"유통업 영리 - 슈퍼마켓","category":"mart"}]},{"lat":"37.684127866","long":"126.7600161","imageIndex":7,"items":[{"name":"코사마트(성저건영점)","tel":"031-915-5650","addr":"경기도 고양시 일산서구 대화동 2004-5번지","indutype":"유통업 영리 - 슈퍼마켓","category":"mart"}]},{"lat":"37.6725421","long":"126.75171138","imageIndex":7,"items":[{"name":"태평양마트","tel":"031-915-4963","addr":"경기도 고양시 일산서구 대화동 2258번지","indutype":"유통업 영리 - 슈퍼마켓","category":"mart"}]},{"lat":"37.671102209","long":"126.7360517","imageIndex":7,"items":[{"name":"팜스마트","tel":"031-919-0035","addr":"경기도 고양시 일산서구 대화동 770-13번지","indutype":"유통업 영리 - 슈퍼마켓","category":"mart"}]}]