[{"lat":"37.27757366","long":"127.03567096","imageIndex":17,"items":[{"name":"(사)한국주유소협회경기도지회","tel":"031-216-4141","addr":"경기도 수원시 팔달구 우만동 146번지 송림빌딩 202호","indutype":"기타 - 비영리/비대상","category":"other"},{"name":"(주)전문가닷컴","tel":"02-572-9200","addr":"경기도 수원시 팔달구 우만동 146번지 송림빌딩 304호","indutype":"용역 서비스 - 정보서비스","category":"other"},{"name":"동아문고","tel":"031-111-1111","addr":"경기도 수원시 팔달구 우만동 146번지 송림빌딩 7층 701호","indutype":"서적문구 - 일반서적","category":"other"},{"name":"송림골프","tel":"031-215-9200","addr":"경기도 수원시 팔달구 우만동 146번지 일부 지하2층","indutype":"회원제형태 - 레져업소","category":"other"},{"name":"알케이 빌리어즈 클럽(RK Billiards Club)","tel":"031-214-4448","addr":"경기도 수원시 팔달구 우만동 146번지 송림빌딩 지하1층138-1,140-1,140,141,142,145,151,155,157,160호","indutype":"레져용품 - 스포츠·레져용품","category":"other"},{"name":"요양원 마실","tel":"031-8002-8588","addr":"경기도 수원시 팔달구 우만동 146번지 송림빌딩 9층 901호","indutype":"기타의료기관 - 기타의료기관 및 기타","category":"other"},{"name":"토가동수원점","tel":"031-205-8802","addr":"경기도 수원시 팔달구 우만동 146번지 송림빌딩 702호","indutype":"전기제품 - 기타전기제품","category":"other"},{"name":"프린팅 25 (PRINTING 25)","tel":"031-216-8664","addr":"경기도 수원시 팔달구 우만동 146번지 송림빌딩 B111호","indutype":"용역 서비스 - 종합용역","category":"other"},{"name":"화단길요양원","tel":"031-302-7799","addr":"경기도 수원시 팔달구 우만동 146번지 송림빌딩 8층","indutype":"기타의료기관 - 기타의료기관 및 기타","category":"other"}]},{"lat":"37.287295209","long":"127.03752459","imageIndex":17,"items":[{"name":"(주)노블젠","tel":"031-278-6790","addr":"경기도 수원시 팔달구 우만동 228번지 수원월드컵경기장 4층","indutype":"농업 - 비료,사료,종자","category":"other"},{"name":"디자인티키","tel":"031-202-9252","addr":"경기도 수원시 팔달구 우만동 228번지 수원월드컵경기장 제3별관제 1층","indutype":"용역 서비스 - 종합용역","category":"other"},{"name":"로렌","tel":"031-243-5479","addr":"경기도 수원시 팔달구 우만동 228 코오롱스포렉스1층","indutype":"의류 - 정장","category":"other"},{"name":"수원시생활체육스킨수쿠버연합회","tel":"031-259-2154","addr":"경기도 수원시 팔달구 우만동 228번지 1층 유윤스포츠","indutype":"레져용품 - 스포츠·레져용품","category":"other"},{"name":"월드컵에스엔지","tel":"031-248-8282","addr":"경기도 수원시 팔달구 우만동 228수원월드컵경기장스포츠센타3층","indutype":"유통업 영리 - 복지매장","category":"other"},{"name":"월드컵편의점","tel":"031-258-9662","addr":"경기도 수원시 팔달구 우만동 228번지","indutype":"유통업 영리 - 편 의 점","category":"other"},{"name":"이노웨딩","tel":"031-241-7676","addr":"경기도 수원시 팔달구 우만동 228번지 수원월드컵경기장","indutype":"용역 서비스 - 혼례서비스","category":"other"},{"name":"지엠(GM)스포츠","tel":"031-207-0038","addr":"경기도 수원시 팔달구 우만동 228번지","indutype":"레져용품 - 스포츠·레져용품","category":"other"}]},{"lat":"37.281213233","long":"127.03769094","imageIndex":17,"items":[{"name":"(주)마이크로이미징/원격지","tel":"031-212-6280","addr":"경기도 수원시 팔달구 우만동 26-25번지 트레보 205호","indutype":"기타 - 기타 전문점","category":"other"},{"name":"김샘수학광교서적","tel":"031-8002-5599","addr":"경기도 수원시 팔달구 우만동 26-25번지 트레보 607호","indutype":"서적문구 - 일반서적","category":"other"},{"name":"나우교역","tel":"031-893-8228","addr":"경기도 수원시 팔달구 우만동 26-25번지 트레보오피스텔 104호","indutype":"서적문구 - 과학기자재","category":"other"},{"name":"디자인연","tel":"070-8682-5215","addr":"경기도 수원시 팔달구 우만동 26-25번지 트레보오피스텔 1116호","indutype":"용역 서비스 - 사무서비스","category":"other"},{"name":"리케이온 광교 서적","tel":"031-8081-1100","addr":"경기도 수원시 팔달구 우만동 26-25번지 트레보오피스텔 321호","indutype":"회원제형태 - 서적","category":"other"},{"name":"주식회사 마이크로이미징","tel":"031-212-6280","addr":"경기도 수원시 팔달구 우만동 26-25번지 트레보 205호","indutype":"광학제품 - 기타광학제품","category":"other"},{"name":"하나린텍","tel":"031-216-9380","addr":"경기도 수원시 팔달구 우만동 26-25번지 트레보오피스텔 1013호","indutype":"전기제품 - 기타전기제품","category":"other"}]},{"lat":"37.278601918","long":"127.03147688","imageIndex":17,"items":[{"name":"(주)미래법률경매정보","tel":"031-891-3300","addr":"경기도 수원시 팔달구 우만동 562-6번지 미래에셋빌딩 4층","indutype":"건축자재 - 부동산 분양","category":"other"}]},{"lat":"37.280926837","long":"127.03033889","imageIndex":17,"items":[{"name":"(주)미래플랫폼","tel":"031-305-8200","addr":"경기도 수원시 팔달구 우만동 549-10번지 아석빌딩 3층","indutype":"사무통신 - 통신기기","category":"other"},{"name":"중앙측기","tel":"031-225-4980","addr":"경기도 수원시 팔달구 우만동 549-10번지 아석빌딩 2302호","indutype":"사무통신 - 기타 사무용품","category":"other"}]},{"lat":"37.287152261","long":"127.03308143","imageIndex":17,"items":[{"name":"(주)미소항공여행사","tel":"031-243-3337","addr":"경기도 수원시 팔달구 우만동 499-3번지","indutype":"여행 - 관광여행","category":"other"},{"name":"리베오션","tel":"031-0000-0000","addr":"경기도 수원시 팔달구 우만동 499-3번지","indutype":"레져용품 - 스포츠·레져용품","category":"other"},{"name":"세무사최윤재사무소","tel":"031-244-3119","addr":"경기도 수원시 팔달구 우만동 499-3번지 2층","indutype":"용역 서비스 - 법률회계서비스(개인)","category":"other"},{"name":"원사진실","tel":"031-242-2563","addr":"경기도 수원시 팔달구 우만동 499-3번지","indutype":"광학제품 - 사진관","category":"other"},{"name":"제이워크 스포츠","tel":"031-258-4875","addr":"경기도 수원시 팔달구 우만동 499-3번지 상가 1층","indutype":"레져용품 - 스포츠·레져용품","category":"other"}]},{"lat":"37.284765651","long":"127.0283669","imageIndex":17,"items":[{"name":"(주)선진엔에스","tel":"031-236-3631","addr":"경기도 수원시 팔달구 우만동 508-14번지 청송빌딩 305호","indutype":"기타 - 기계공구","category":"other"},{"name":"고 프로 다이브(GO PRO DIVE)","tel":"031-244-3060","addr":"경기도 수원시 팔달구 우만동 508-14번지 402호","indutype":"레져용품 - 스포츠·레져용품","category":"other"},{"name":"주식회사 태진이엔씨","tel":"031-234-5454","addr":"경기도 수원시 팔달구 우만동 508-14번지 청송빌딩 304호","indutype":"용역 서비스 - 기타용역서비스","category":"other"}]},{"lat":"37.289370379","long":"127.02600024","imageIndex":17,"items":[{"name":"(주)소나무급식센터","tel":"031-251-4310","addr":"경기도 수원시 팔달구 우만동 472-1번지","indutype":"유통업 영리 - 기타유통업","category":"other"}]},{"lat":"37.284322744","long":"127.03421922","imageIndex":17,"items":[{"name":"(주)수원벤더","tel":"031-241-0992","addr":"경기도 수원시 팔달구 우만동 532-29번지","indutype":"회원제형태 - 기타4","category":"other"}]},{"lat":"37.288954737","long":"127.03136803","imageIndex":17,"items":[{"name":"(주)에코크린","tel":"031-255-5667","addr":"경기도 수원시 팔달구 우만동 481-2번지 1층","indutype":"용역 서비스 - 종합용역","category":"other"},{"name":"포토애드","tel":"031-245-0508","addr":"경기도 수원시 팔달구 우만동 481-2번지","indutype":"용역 서비스 - 종합용역","category":"other"}]},{"lat":"37.292008899","long":"127.03264355","imageIndex":17,"items":[{"name":"(주)엠피탑","tel":"070-8250-3481","addr":"경기도 수원시 팔달구 우만동 300-5번지 우만공단602호","indutype":"전기제품 - 가전제품","category":"other"},{"name":"내츄럴발란스강남점","tel":"031-400-4362","addr":"경기도 수원시 팔달구 우만동 300-5번지 우만공단B103","indutype":"문화.취미 - 애완동물","category":"other"},{"name":"마운틴리서치코리아","tel":"031-248-3446","addr":"경기도 수원시 팔달구 우만동 300-5번지 (701B)","indutype":"레져용품 - 스포츠·레져용품","category":"other"},{"name":"아웃도어트레일","tel":"02-955-4125","addr":"경기도 수원시 팔달구 우만동 300-5번지 우만공단 B동 204호","indutype":"의류 - 정장","category":"other"}]},{"lat":"37.280989865","long":"127.03053061","imageIndex":17,"items":[{"name":"(주)영재교육","tel":"031-216-3000","addr":"경기도 수원시 팔달구 우만동 549-5번지","indutype":"서적문구 - 전문서적","category":"other"}]},{"lat":"37.290928982","long":"127.0268578","imageIndex":17,"items":[{"name":"(주)올애드미디어","tel":"","addr":"경기도 수원시 팔달구 우만동 583-2번지 202호","indutype":"용역 서비스 - 종합용역","category":"other"}]},{"lat":"37.277267077","long":"127.0365052","imageIndex":17,"items":[{"name":"(주)윈드21여행사","tel":"031-217-6000","addr":"경기도 수원시 팔달구 우만동 140-4번지 송암빌딩 201호","indutype":"여행 - 관광여행","category":"other"},{"name":"더도그맨션","tel":"02-1111-1111","addr":"경기도 수원시 팔달구 우만동 140-4번지 송암빌딩 5층","indutype":"문화.취미 - 애완동물","category":"other"},{"name":"알레르망","tel":"031-213-2795","addr":"경기도 수원시 팔달구 우만동 140-4번지 송암빌딩 1층","indutype":"직물 - 침구·수예점","category":"other"}]},{"lat":"37.278546256","long":"127.03747547","imageIndex":17,"items":[{"name":"(주)한내중기","tel":"031-227-1637","addr":"경기도 수원시 팔달구 우만동 135-62번지","indutype":"기타 - 기계공구","category":"other"},{"name":"월드파워텔(주)","tel":"031-216-0130","addr":"경기도 수원시 팔달구 우만동 135-62번지","indutype":"사무통신 - 통신기기","category":"other"},{"name":"크로바통신","tel":"031-216-0130","addr":"경기도 수원시 팔달구 우만동 135-62번지","indutype":"사무통신 - 통신기기","category":"other"}]},{"lat":"37.277014566","long":"127.03728309","imageIndex":17,"items":[{"name":"(주)향남관광여행사","tel":"031-221-4037","addr":"경기도 수원시 팔달구 우만동 141-6번지 204호","indutype":"여행 - 관광여행","category":"other"},{"name":"(주)향남관광여행사","tel":"031-221-4037","addr":"경기도 수원시 팔달구 우만동 141-6번지 204호","indutype":"여행 - 관광여행","category":"other"},{"name":"아주꽃화원","tel":"031-215-3682","addr":"경기도 수원시 팔달구 우만동 141-6번지 보림 상가 101호","indutype":"문화.취미 - 화원","category":"other"}]},{"lat":"37.289433234","long":"127.02708287","imageIndex":17,"items":[{"name":"2`AN FlowerCoffee(이안플라워커피)","tel":"031-000-0000","addr":"경기도 수원시 팔달구 우만동 589-14번지 지층","indutype":"문화.취미 - 화원","category":"other"}]},{"lat":"37.286432441","long":"127.02886364","imageIndex":17,"items":[{"name":"365풀잎플라워","tel":"031-207-4151","addr":"경기도 수원시 팔달구 우만동 492-1번지 지하층","indutype":"문화.취미 - 화원","category":"other"},{"name":"더블유케이(WK)컨설팅","tel":"031-548-1919","addr":"경기도 수원시 팔달구 우만동 492-1번지 2층 201호","indutype":"용역 서비스 - 사무서비스","category":"other"},{"name":"미래 종합 건축","tel":"031-307-8384","addr":"경기도 수원시 팔달구 우만동 492-1번지","indutype":"건축자재 - 인테리어전문","category":"other"}]},{"lat":"37.287432801","long":"127.02783778","imageIndex":17,"items":[{"name":"Art Story","tel":"031-247-3559","addr":"경기도 수원시 팔달구 우만동 474-12번지","indutype":"문화.취미 - 문화취미기타","category":"other"}]},{"lat":"37.277490497","long":"127.04244746","imageIndex":17,"items":[{"name":"Bou Bou Works","tel":"070-7536-5293","addr":"경기도 수원시 팔달구 우만동 68-10번지 1층","indutype":"의류 - 정장","category":"other"},{"name":"불량워터와 잡동사니","tel":"031-211-7108","addr":"경기도 수원시 팔달구 우만동 68-10번지","indutype":"서적문구 - 완구점","category":"other"}]},{"lat":"37.279157116","long":"127.04328273","imageIndex":17,"items":[{"name":"GS25수원만석점","tel":"","addr":"경기도 수원시 팔달구 우만동 58-13번지 1층","indutype":"유통업 영리 - 편 의 점","category":"other"}]},{"lat":"37.27884508","long":"127.03195055","imageIndex":17,"items":[{"name":"GS25수원본점","tel":"080-555-2525","addr":"경기도 수원시 팔달구 우만동 561-13번지 103호","indutype":"유통업 영리 - 편 의 점","category":"other"},{"name":"유한회사한신관광","tel":"031-245-1177","addr":"경기도 수원시 팔달구 우만동 561-13번지 OK빌딩 3층 302호","indutype":"여행 - 관광여행","category":"other"}]},{"lat":"37.283178591","long":"127.03364366","imageIndex":17,"items":[{"name":"GS25수원우만점","tel":"","addr":"경기도 수원시 팔달구 우만동 530-24번지 1층","indutype":"유통업 영리 - 편 의 점","category":"other"}]},{"lat":"37.289622375","long":"127.0274438","imageIndex":17,"items":[{"name":"GS25우만1동점","tel":"02-2006-2485","addr":"경기도 수원시 팔달구 우만동 587-21번지","indutype":"유통업 영리 - 편 의 점","category":"other"}]},{"lat":"37.279239047","long":"127.04074574","imageIndex":17,"items":[{"name":"GS25우만빌리지점","tel":"","addr":"경기도 수원시 팔달구 우만동 47-4번지 1층 및 지하1층","indutype":"유통업 영리 - 편 의 점","category":"other"}]},{"lat":"37.28779299","long":"127.0288641","imageIndex":17,"items":[{"name":"GS25우만센트럴점","tel":"","addr":"경기도 수원시 팔달구 우만동 485-3번지 1층","indutype":"유통업 영리 - 편 의 점","category":"other"}]},{"lat":"37.285566853","long":"127.03147952","imageIndex":17,"items":[{"name":"GS25우만싱싱점","tel":"","addr":"경기도 수원시 팔달구 우만동 503-17번지 1층","indutype":"유통업 영리 - 편 의 점","category":"other"}]},{"lat":"37.278400546","long":"127.04241411","imageIndex":17,"items":[{"name":"GS25우만아주로점","tel":"","addr":"경기도 수원시 팔달구 우만동 57-2번지 1층","indutype":"유통업 영리 - 편 의 점","category":"other"}]},{"lat":"37.290567988","long":"127.02958681","imageIndex":17,"items":[{"name":"OH 텔레콤","tel":"031-256-2010","addr":"경기도 수원시 팔달구 우만동 466-1번지 남정빌딩 1층 4호","indutype":"사무통신 - 통신기기","category":"other"},{"name":"레전드 엔터테인먼트","tel":"031-256-2010","addr":"경기도 수원시 팔달구 우만동 466-1번지 남정빌딩 104호","indutype":"사무통신 - 통신기기","category":"other"},{"name":"정안건설주식회사","tel":"031-202-6781","addr":"경기도 수원시 팔달구 우만동 466-1번지 남정빌딩 202호","indutype":"용역 서비스 - 기타용역서비스","category":"other"},{"name":"주식회사아이디커뮤니케이션매리","tel":"02-552-7479","addr":"경기도 수원시 팔달구 우만동 466-1번지 남정빌딩 1층","indutype":"회원제형태 - 기타4","category":"other"}]},{"lat":"37.28129595","long":"127.03163577","imageIndex":17,"items":[{"name":"art studio 토요일","tel":"031-111-1111","addr":"경기도 수원시 팔달구 우만동 555-4번지 1층 101호","indutype":"문화.취미 - 문화취미기타","category":"other"}]},{"lat":"37.287703361","long":"127.02660868","imageIndex":17,"items":[{"name":"kim''s Komputer(킴스코퓨터)","tel":"031-257-8706","addr":"경기도 수원시 팔달구 우만동 473-3번지","indutype":"사무통신 - 컴퓨터","category":"other"}]},{"lat":"37.288315136","long":"127.03083777","imageIndex":17,"items":[{"name":"가나유통","tel":"031-241-4103","addr":"경기도 수원시 팔달구 우만동 482-12번지 2층","indutype":"사무통신 - 기타 사무용품","category":"other"}]},{"lat":"37.2893158746","long":"127.0281654406","imageIndex":17,"items":[{"name":"가브리엘","tel":"02-6499-3972","addr":"경기도 수원시 팔달구 우만동 469-7번지 1층","indutype":"의류 - 정장","category":"other"},{"name":"가브리엘","tel":"","addr":"경기도 수원시 팔달구 우만동 469-7번지","indutype":"의류 - 정장","category":"other"},{"name":"아트싸인","tel":"031-246-8501","addr":"경기도 수원시 팔달구 우만동 469-7번지 1층","indutype":"용역 서비스 - 종합용역","category":"other"}]},{"lat":"37.285484917","long":"127.03478354","imageIndex":17,"items":[{"name":"가자골프","tel":"031-207-3377","addr":"경기도 수원시 팔달구 우만동 519-1번지","indutype":"레져용품 - 골프용품 전문점","category":"other"}]},{"lat":"37.284351029","long":"127.02905462","imageIndex":17,"items":[{"name":"가현테크","tel":"031-244-8128","addr":"경기도 수원시 팔달구 우만동 508-4번지 3층","indutype":"용역 서비스 - 소프트웨어","category":"other"},{"name":"한국후지시스템","tel":"031-244-8026","addr":"경기도 수원시 팔달구 우만동 508-4번지","indutype":"전기제품 - 냉열기기","category":"other"}]},{"lat":"37.282404489","long":"127.03047474","imageIndex":17,"items":[{"name":"강성에이치엔","tel":"070-8835-4306","addr":"경기도 수원시 팔달구 우만동 527-33번지 조이빌라 1층 상가","indutype":"건축자재 - 인테리어전문","category":"other"}]},{"lat":"37.286315528","long":"127.02783741","imageIndex":17,"items":[{"name":"강원건업","tel":"070-7725-0406","addr":"경기도 수원시 팔달구 우만동 489-10번지 1층","indutype":"용역 서비스 - 기타용역서비스","category":"other"},{"name":"드림씨앤피","tel":"031-255-7234","addr":"경기도 수원시 팔달구 우만동 489-10번지 1층","indutype":"서적문구 - 출판 및 인쇄물","category":"other"}]},{"lat":"37.280962609","long":"127.03147778","imageIndex":17,"items":[{"name":"건화교역","tel":"031-244-4455","addr":"경기도 수원시 팔달구 우만동 555-6번지 좌측상가 1층","indutype":"주방용구 - 주방용구","category":"other"},{"name":"대일","tel":"031-212-8484","addr":"경기도 수원시 팔달구 우만동 555-6번지 동명빌리지 상가 102호","indutype":"의류 - 기타의류","category":"other"},{"name":"레인보우","tel":"031-213-7390","addr":"경기도 수원시 팔달구 우만동 555-6번지","indutype":"회원제형태 - 기타4","category":"other"},{"name":"수원동명사","tel":"031-217-8111","addr":"경기도 수원시 팔달구 우만동 555-6번지","indutype":"서적문구 - 출판 및 인쇄물","category":"other"}]},{"lat":"37.28389915","long":"127.03463627","imageIndex":17,"items":[{"name":"경기OA","tel":"031-1670-7802","addr":"경기도 수원시 팔달구 우만동 532-11번지 1층","indutype":"사무통신 - 사무용 OA기기","category":"other"}]},{"lat":"37.281710189","long":"127.03258311","imageIndex":17,"items":[{"name":"경기사무기","tel":"031-217-0018","addr":"경기도 수원시 팔달구 우만동 553-11번지","indutype":"사무통신 - 사무용 OA기기","category":"other"},{"name":"제일 건축 디자인","tel":"031-252-4042","addr":"경기도 수원시 팔달구 우만동 553-11번지 웰빙프라자 1층","indutype":"건축자재 - 인테리어전문","category":"other"},{"name":"주식회사버틀러시스템","tel":"031-213-9992","addr":"경기도 수원시 팔달구 우만동 553-11번지 201호","indutype":"건축자재 - 기타건축자재","category":"other"}]},{"lat":"37.275490198","long":"127.04250278","imageIndex":17,"items":[{"name":"경기의료기","tel":"031-244-2071","addr":"경기도 수원시 팔달구 우만동 85-1번지 동양빌딩내1층102호","indutype":"기타의료기관 - 기타의료기관 및 기타","category":"other"},{"name":"매표소","tel":"031-212-3673","addr":"경기도 수원시 팔달구 우만동 85-1번지","indutype":"신변잡화 - 기타잡화","category":"other"}]},{"lat":"37.279600611","long":"127.036946","imageIndex":17,"items":[{"name":"경기프린팅","tel":"031-267-0745","addr":"경기도 수원시 팔달구 우만동 131-4번지 월드캐슬 102호","indutype":"서적문구 - 출판 및 인쇄물","category":"other"},{"name":"나무늘보 공작소","tel":"031-212-7981","addr":"경기도 수원시 팔달구 우만동 131-4번지 월드캐슬 105호","indutype":"문화.취미 - 문화취미기타","category":"other"},{"name":"유니드","tel":"031-214-4493","addr":"경기도 수원시 팔달구 우만동 131-4번지 월드캐슬 105호","indutype":"신변잡화 - 기타잡화","category":"other"}]},{"lat":"37.283763966","long":"127.03474898","imageIndex":17,"items":[{"name":"고합상사","tel":"031-283-1370","addr":"경기도 수원시 팔달구 우만동 531-22번지","indutype":"용역 서비스 - 종합용역","category":"other"},{"name":"주식회사씨앤에프(Clean&Food System co.,L","tel":"031-283-1370","addr":"경기도 수원시 팔달구 우만동 531-22번지","indutype":"용역 서비스 - 종합용역","category":"other"}]},{"lat":"37.288513134","long":"127.03178511","imageIndex":17,"items":[{"name":"골프메인","tel":"031-242-0101","addr":"경기도 수원시 팔달구 우만동 481-6번지 지성빌딩 103-4호","indutype":"레져용품 - 스포츠·레져용품","category":"other"},{"name":"주식회사 탑기획","tel":"031-256-3004","addr":"경기도 수원시 팔달구 우만동 481-6번지 1층","indutype":"전기제품 - 냉열기기","category":"other"},{"name":"주식회사 탑기획","tel":"031-1800-1497","addr":"경기도 수원시 팔달구 우만동 481-6번지","indutype":"전기제품 - 냉열기기","category":"other"},{"name":"해송","tel":"070-7778-5769","addr":"경기도 수원시 팔달구 우만동 481-6번지 1층 101-102호","indutype":"의류 - 정장","category":"other"}]},{"lat":"37.28723395","long":"127.03064566","imageIndex":17,"items":[{"name":"광복페인트","tel":"031-244-9187","addr":"경기도 수원시 팔달구 우만동 495-1번지","indutype":"건축자재 - 페인트","category":"other"}]},{"lat":"37.287900965","long":"127.02952948","imageIndex":17,"items":[{"name":"굿타임","tel":"","addr":"경기도 수원시 팔달구 우만동 484-18","indutype":"회원제형태 - 기타1","category":"other"}]},{"lat":"37.289126623","long":"127.02833453","imageIndex":17,"items":[{"name":"귀뚜라미보일러철물","tel":"031-247-9200","addr":"경기도 수원시 팔달구 우만동 469-15번지 일부 1층","indutype":"건축자재 - 보일러·펌프·샷시","category":"other"},{"name":"귀뚜라미철물","tel":"031-247-9963","addr":"경기도 수원시 팔달구 우만동 469-15번지 1층","indutype":"건축자재 - 목재·석재·철물","category":"other"}]},{"lat":"37.284151879","long":"127.03294492","imageIndex":17,"items":[{"name":"귀여운여우","tel":"031-302-2789","addr":"경기도 수원시 팔달구 우만동 523-31번지 1층","indutype":"의류 - 정장","category":"other"}]},{"lat":"37.282043876","long":"127.0313316","imageIndex":17,"items":[{"name":"그린아트21","tel":"031-217-8006","addr":"경기도 수원시 팔달구 우만동 550-1번지 102호","indutype":"농업 - 기타농업관련","category":"other"},{"name":"디자인디비","tel":"031-211-0979","addr":"경기도 수원시 팔달구 우만동 550-1번지","indutype":"용역 서비스 - 종합용역","category":"other"}]},{"lat":"37.281430842","long":"127.03269576","imageIndex":17,"items":[{"name":"금강인테리어","tel":"031-212-8500","addr":"경기도 수원시 팔달구 우만동 553-16번지 1층 104호","indutype":"건축자재 - 인테리어전문","category":"other"},{"name":"비디정보통신","tel":"031-8001-0705","addr":"경기도 수원시 팔달구 우만동 553-16번지 103호","indutype":"사무통신 - 통신기기","category":"other"}]},{"lat":"37.28509787","long":"127.03328359","imageIndex":17,"items":[{"name":"금성상회","tel":"031-252-9170","addr":"경기도 수원시 팔달구 우만동 521-1번지","indutype":"신변잡화 - 기타잡화","category":"other"}]},{"lat":"37.285233777","long":"127.03019386","imageIndex":17,"items":[{"name":"금영냉난방","tel":"031-222-7872","addr":"경기도 수원시 팔달구 우만동 505-3번지","indutype":"전기제품 - 냉열기기","category":"other"},{"name":"보부상사","tel":"031-222-5905","addr":"경기도 수원시 팔달구 우만동 505-3번지 좌측동우측","indutype":"직물 - 카페트,커튼,천막,지물","category":"other"}]},{"lat":"37.290262126","long":"127.02733123","imageIndex":17,"items":[{"name":"길광고공사","tel":"031-242-5068","addr":"경기도 수원시 팔달구 우만동 583-9번지 102호","indutype":"용역 서비스 - 종합용역","category":"other"},{"name":"필즈(feelz)","tel":"070-8222-1501","addr":"경기도 수원시 팔달구 우만동 583-9번지 402호","indutype":"서적문구 - 과학기자재","category":"other"}]},{"lat":"37.285846488","long":"127.0301377","imageIndex":17,"items":[{"name":"꼬까방우만점","tel":"031-253-1773","addr":"경기도 수원시 팔달구 우만동 504-9번지","indutype":"의류 - 아동의류","category":"other"},{"name":"디디디모바일(DDD모바일)","tel":"031-241-6588","addr":"경기도 수원시 팔달구 우만동 504-9번지 1층","indutype":"사무통신 - 통신기기","category":"other"},{"name":"우성상사","tel":"031-248-1147","addr":"경기도 수원시 팔달구 우만동 504-9번지","indutype":"건축자재 - 페인트","category":"other"}]},{"lat":"37.285044321","long":"127.03121996","imageIndex":17,"items":[{"name":"꽃가람","tel":"","addr":"경기도 수원시 팔달구 우만동 513-1번지 302호","indutype":"신변잡화 - 기타잡화","category":"other"}]},{"lat":"37.289793598","long":"127.02730853","imageIndex":17,"items":[{"name":"꽃이불어와","tel":"031-252-3474","addr":"경기도 수원시 팔달구 우만동 587-18번지","indutype":"문화.취미 - 화원","category":"other"}]},{"lat":"37.279151465","long":"127.03180409","imageIndex":17,"items":[{"name":"꽃향기","tel":"031-211-3343","addr":"경기도 수원시 팔달구 우만동 561-7번지 1층","indutype":"문화.취미 - 화원","category":"other"}]},{"lat":"37.289487198","long":"127.02755653","imageIndex":17,"items":[{"name":"나사시스템","tel":"031-245-4204","addr":"경기도 수원시 팔달구 우만동 471번지","indutype":"용역 서비스 - 기타용역서비스","category":"other"}]},{"lat":"37.284179295","long":"127.03138878","imageIndex":17,"items":[{"name":"네오샵","tel":"","addr":"경기도 수원시 팔달구 우만동 512-8번지 401호","indutype":"서적문구 - 완구점","category":"other"}]},{"lat":"37.287712018","long":"127.0283115","imageIndex":17,"items":[{"name":"능인선원","tel":"031-892-7172","addr":"경기도 수원시 팔달구 우만동 475-16번지","indutype":"회원제형태 - 기타4","category":"other"}]},{"lat":"37.283539944","long":"127.02977602","imageIndex":17,"items":[{"name":"다니엘산업","tel":"031-241-5351","addr":"경기도 수원시 팔달구 우만동 511-8번지","indutype":"서적문구 - 문구용품","category":"other"}]},{"lat":"37.286955321","long":"127.02753315","imageIndex":17,"items":[{"name":"다인광고","tel":"031-243-0204","addr":"경기도 수원시 팔달구 우만동 489번지","indutype":"용역 서비스 - 종합용역","category":"other"},{"name":"크린토피아","tel":"031-255-1960","addr":"경기도 수원시 팔달구 우만동 489번지 1층","indutype":"수리서비스 - 세탁소","category":"other"}]},{"lat":"37.288261456","long":"127.02916874","imageIndex":17,"items":[{"name":"다인텔레콤","tel":"031-8627-0126","addr":"경기도 수원시 팔달구 우만동 477-14번지 1층","indutype":"사무통신 - 통신기기","category":"other"}]},{"lat":"37.286432045","long":"127.03061153","imageIndex":17,"items":[{"name":"다인텔레콤2호점","tel":"031-000-0000","addr":"경기도 수원시 팔달구 우만동 494-2번지 1층","indutype":"사무통신 - 통신기기","category":"other"},{"name":"데코마트","tel":"031-255-9962","addr":"경기도 수원시 팔달구 우만동 494-2번지 1층 103호","indutype":"건축자재 - 기타건축자재","category":"other"},{"name":"브렌드구제","tel":"070-785-8785","addr":"경기도 수원시 팔달구 우만동 494-2번지 1층","indutype":"의류 - 정장","category":"other"},{"name":"에스비","tel":"031-255-6203","addr":"경기도 수원시 팔달구 우만동 494-2번지 1층","indutype":"사무통신 - 통신기기","category":"other"},{"name":"주식회사엠티에프","tel":"031-242-6664","addr":"경기도 수원시 팔달구 우만동 494-2번지 1층","indutype":"사무통신 - 통신기기","category":"other"}]},{"lat":"37.282593209","long":"127.03252708","imageIndex":17,"items":[{"name":"달샵","tel":"070-7198-4577","addr":"경기도 수원시 팔달구 우만동 552-3번지 1층 101호","indutype":"신변잡화 - 기념품점","category":"other"}]},{"lat":"37.290261903","long":"127.0283913","imageIndex":17,"items":[{"name":"대산","tel":"031-243-0481","addr":"경기도 수원시 팔달구 우만동 585-1번지 다온하우스 1층","indutype":"유통업 영리 - 기타유통업","category":"other"}]},{"lat":"37.28843276","long":"127.02867261","imageIndex":17,"items":[{"name":"대아인테리어","tel":"031-255-0399","addr":"경기도 수원시 팔달구 우만동 476-13번지","indutype":"직물 - 카페트,커튼,천막,지물","category":"other"}]},{"lat":"37.286567922","long":"127.02733004","imageIndex":17,"items":[{"name":"대원종합주방","tel":"031-258-0070","addr":"경기도 수원시 팔달구 우만동 489-16번지 1,2층","indutype":"주방용구 - 주방용식기","category":"other"},{"name":"베틀한복 수원점","tel":"031-225-9880","addr":"경기도 수원시 팔달구 우만동 489-16번지","indutype":"의류 - 맞춤복점","category":"other"}]},{"lat":"37.282954194","long":"127.03013666","imageIndex":17,"items":[{"name":"대한 시스템","tel":"","addr":"경기도 수원시 팔달구 우만동 527-5번지 영창탑스빌 202호","indutype":"용역 서비스 - 기타용역서비스","category":"other"}]},{"lat":"37.290845109","long":"127.03799986","imageIndex":17,"items":[{"name":"대한불교조계종봉녕사","tel":"031-256-4127","addr":"경기도 수원시 팔달구 우만동 248번지 봉녕사","indutype":"기타 - 비영리/대상","category":"other"},{"name":"봉녕사문화원 금라","tel":"","addr":"경기도 수원시 팔달구 우만동 248번지","indutype":"기타 - 비영리/대상","category":"other"}]},{"lat":"37.289153484","long":"127.02911267","imageIndex":17,"items":[{"name":"대한오에이시스템가구","tel":"031-222-7644","addr":"경기도 수원시 팔달구 우만동 478-11번지 1층","indutype":"가구 - 일반가구","category":"other"}]},{"lat":"37.27890497","long":"127.04286539","imageIndex":17,"items":[{"name":"더블유 527","tel":"","addr":"경기도 수원시 팔달구 우만동 58-6번지 1층 102호","indutype":"의류 - 정장","category":"other"},{"name":"정보기획","tel":"031-212-0900","addr":"경기도 수원시 팔달구 우만동 58-6번지 101동 102호","indutype":"서적문구 - 출판 및 인쇄물","category":"other"}]},{"lat":"37.277122842","long":"127.0367532","imageIndex":17,"items":[{"name":"더샵(THE SHOP)","tel":"031-212-6817","addr":"경기도 수원시 팔달구 우만동 141-4번지 1층 101호","indutype":"의류 - 정장","category":"other"},{"name":"옥시주단","tel":"031-215-0120","addr":"경기도 수원시 팔달구 우만동 141-4번지 1층","indutype":"의류 - 맞춤복점","category":"other"},{"name":"이복구스튜디오","tel":"031-214-2054","addr":"경기도 수원시 팔달구 우만동 141-4번지","indutype":"광학제품 - 사진관","category":"other"}]},{"lat":"37.284044012","long":"127.03191872","imageIndex":17,"items":[{"name":"더존텍","tel":"031-236-0146","addr":"경기도 수원시 팔달구 우만동 524-22번지 305호","indutype":"수리서비스 - 사무·통신기기수리","category":"other"}]},{"lat":"37.275959235","long":"127.0409696","imageIndex":17,"items":[{"name":"더치아쿠아","tel":"031-215-7735","addr":"경기도 수원시 팔달구 우만동 92-1번지 블루하우스 112호","indutype":"문화.취미 - 수족관","category":"other"},{"name":"브이아이피(VIP) 리무진","tel":"031-308-4438","addr":"경기도 수원시 팔달구 우만동 92-1번지 블루하우스 6층 620호","indutype":"여행 - 관광여행","category":"other"},{"name":"삼일타일","tel":"031-215-3131","addr":"경기도 수원시 팔달구 우만동 92-1번지 블루하우스 114호","indutype":"건축자재 - 건축용 요업제품","category":"other"},{"name":"아주좋은이웃심리치유센터","tel":"031-8004-7676","addr":"경기도 수원시 팔달구 우만동 92-1번지 블루하우스 506호","indutype":"기타 - 비영리/대상","category":"other"},{"name":"엠씨엠휘트니스클럽","tel":"031-217-6788","addr":"경기도 수원시 팔달구 우만동 92-1번지 블루하우스 501호","indutype":"회원제형태 - 레져업소","category":"other"},{"name":"엠씨엠휘트니스클럽","tel":"031-217-6788","addr":"경기도 수원시 팔달구 우만동 92-1번지 블루하우스 501호","indutype":"회원제형태 - 레져업소","category":"other"},{"name":"이마트24아주대원룸점","tel":"031-212-2444","addr":"경기도 수원시 팔달구 우만동 92-1번지 101,102호 일부","indutype":"유통업 영리 - 편 의 점","category":"other"},{"name":"이씨엠(ECM)","tel":"070-7530-5999","addr":"경기도 수원시 팔달구 우만동 92-1번지 블루하우스 113호","indutype":"기타 - 기타 전문점","category":"other"},{"name":"자칭공주","tel":"","addr":"경기도 수원시 팔달구 우만동 92-1번지 블루하우스 605호","indutype":"의류 - 정장","category":"other"},{"name":"주식회사 오늘부동산중개법인","tel":"031-213-2525","addr":"경기도 수원시 팔달구 우만동 92-1번지 블루하우스 117호","indutype":"회원제형태 - 기타4","category":"other"},{"name":"참사랑꽃방","tel":"031-214-7388","addr":"경기도 수원시 팔달구 우만동 92-1번지 불루하우스 107호","indutype":"문화.취미 - 화원","category":"other"},{"name":"프리카페 아주대점","tel":"02-6951-3007","addr":"경기도 수원시 팔달구 우만동 92-1번지 블루하우스 3층 306호","indutype":"용역 서비스 - 사무서비스","category":"other"},{"name":"헤르본","tel":"031-214-3517","addr":"경기도 수원시 팔달구 우만동 92-1번지 블루하우스 719호","indutype":"회원제형태 - 기타4","category":"other"}]},{"lat":"37.285927974","long":"127.02836729","imageIndex":17,"items":[{"name":"덕수개발","tel":"","addr":"경기도 수원시 팔달구 우만동 491-26번지 1층 103호","indutype":"건축자재 - 페인트","category":"other"},{"name":"청완건축","tel":"031-254-7704","addr":"경기도 수원시 팔달구 우만동 491-26번지 1층 102호","indutype":"건축자재 - 페인트","category":"other"}]},{"lat":"37.278157269","long":"127.04241398","imageIndex":17,"items":[{"name":"동남문화사","tel":"031-211-1992","addr":"경기도 수원시 팔달구 우만동 67-4번지","indutype":"서적문구 - 출판 및 인쇄물","category":"other"},{"name":"종이랑 컴","tel":"031-212-3284","addr":"경기도 수원시 팔달구 우만동 67-4번지 107호","indutype":"용역 서비스 - 사무서비스","category":"other"}]},{"lat":"37.285287683","long":"127.0308592","imageIndex":17,"items":[{"name":"동서건축","tel":"031-255-7204","addr":"경기도 수원시 팔달구 우만동 504-4번지","indutype":"용역 서비스 - 기타용역서비스","category":"other"},{"name":"주식회사한울기획","tel":"031-253-6361","addr":"경기도 수원시 팔달구 우만동 504-4","indutype":"용역 서비스 - 사무서비스","category":"other"},{"name":"카마그래프","tel":"031-213-4253","addr":"경기도 수원시 팔달구 우만동 504-4번지","indutype":"서적문구 - 출판 및 인쇄물","category":"other"},{"name":"코지윈","tel":"070-7526-5088","addr":"경기도 수원시 팔달구 우만동 504-4번지","indutype":"용역 서비스 - 기타용역서비스","category":"other"}]},{"lat":"37.285982201","long":"127.02758921","imageIndex":17,"items":[{"name":"동수원냉동","tel":"031-268-3974","addr":"경기도 수원시 팔달구 우만동 489-13번지","indutype":"전기제품 - 냉열기기","category":"other"}]},{"lat":"37.284350966","long":"127.02933653","imageIndex":17,"items":[{"name":"동수원유리","tel":"031-241-6282","addr":"경기도 수원시 팔달구 우만동 507-23번지","indutype":"건축자재 - 유리","category":"other"}]},{"lat":"37.278574467","long":"127.03316821","imageIndex":17,"items":[{"name":"동수원장례식장","tel":"031-213-1640","addr":"경기도 수원시 팔달구 우만동 157-6번지 지하1층","indutype":"용역 서비스 - 가례서비스업","category":"other"}]},{"lat":"37.27506629","long":"127.04375409","imageIndex":17,"items":[{"name":"동싼집","tel":"070-7747-6339","addr":"경기도 수원시 팔달구 우만동 81-2번지","indutype":"의류 - 정장","category":"other"},{"name":"리스포토라","tel":"031-212-8298","addr":"경기도 수원시 팔달구 우만동 81-2번지 대학빌딩","indutype":"광학제품 - 사진관","category":"other"},{"name":"온에어 스터디라운지","tel":"031-217-9970","addr":"경기도 수원시 팔달구 우만동 81-2번지 대학빌딩 6층 2호","indutype":"용역 서비스 - 사무서비스","category":"other"}]},{"lat":"37.288712073","long":"127.02869526","imageIndex":17,"items":[{"name":"동아설비","tel":"031-253-2665","addr":"경기도 수원시 팔달구 우만동 477-1번지","indutype":"기타 - 기계공구","category":"other"}]},{"lat":"37.287982235","long":"127.02872884","imageIndex":17,"items":[{"name":"동양공업","tel":"031-244-6554","addr":"경기도 수원시 팔달구 우만동 476-22번지","indutype":"기타 - 기계공구","category":"other"}]},{"lat":"37.290009879","long":"127.02713944","imageIndex":17,"items":[{"name":"동양매직(팔달점)","tel":"031-217-7783","addr":"경기도 수원시 팔달구 우만동 587-15번지","indutype":"주방용구 - 정수기","category":"other"}]},{"lat":"37.28604524","long":"127.02774711","imageIndex":17,"items":[{"name":"동양철강","tel":"031-231-1249","addr":"경기도 수원시 팔달구 우만동 489-12번지","indutype":"건축자재 - 보일러·펌프·샷시","category":"other"}]},{"lat":"37.288486498","long":"127.0301161","imageIndex":17,"items":[{"name":"동의메디칼","tel":"031-247-2029","addr":"경기도 수원시 팔달구 우만동 483번지 1층","indutype":"기타의료기관 - 기타의료기관 및 기타","category":"other"}]},{"lat":"37.284593411","long":"127.03283233","imageIndex":17,"items":[{"name":"디디디모바일2","tel":"031-247-6588","addr":"경기도 수원시 팔달구 우만동 522-18번지 1층","indutype":"사무통신 - 통신기기","category":"other"}]},{"lat":"37.28804516","long":"127.02939421","imageIndex":17,"items":[{"name":"디디디모바일3(DDD모바일3)","tel":"031-241-6588","addr":"경기도 수원시 팔달구 우만동 484-17번지","indutype":"사무통신 - 통신기기","category":"other"}]},{"lat":"37.282819204","long":"127.02941493","imageIndex":17,"items":[{"name":"디아이디(DID)","tel":"031-245-7517","addr":"경기도 수원시 팔달구 우만동 528-10번지","indutype":"신변잡화 - 기타잡화","category":"other"}]},{"lat":"37.28587327","long":"127.03119772","imageIndex":17,"items":[{"name":"디어플로리(Dear.flori)","tel":"031-505-7007","addr":"경기도 수원시 팔달구 우만동 503-22번지 1층 좌측","indutype":"문화.취미 - 화원","category":"other"}]},{"lat":"37.287351157","long":"127.03032995","imageIndex":17,"items":[{"name":"디에스플라워","tel":"","addr":"경기도 수원시 팔달구 우만동 495-13번지 1층 101호","indutype":"문화.취미 - 화원","category":"other"}]},{"lat":"37.289541184","long":"127.02791742","imageIndex":17,"items":[{"name":"디자인광기기획","tel":"031-256-1444","addr":"경기도 수원시 팔달구 우만동 468-1","indutype":"용역 서비스 - 종합용역","category":"other"},{"name":"디자인길드","tel":"070-8737-8949","addr":"경기도 수원시 팔달구 우만동 468-1번지 삼성캐슬 101동 101호","indutype":"건축자재 - 인테리어전문","category":"other"}]},{"lat":"37.28940539","long":"127.03078178","imageIndex":17,"items":[{"name":"디지털도어락24시출장열쇠","tel":"070-4111-1119","addr":"경기도 수원시 팔달구 우만동 480-34번지 102호","indutype":"건축자재 - 목재·석재·철물","category":"other"}]},{"lat":"37.287594452","long":"127.0302511","imageIndex":17,"items":[{"name":"또박코문구점","tel":"031-241-3315","addr":"경기도 수원시 팔달구 우만동 484-6번지","indutype":"서적문구 - 문구용품","category":"other"},{"name":"성원건설","tel":"031-246-0771","addr":"경기도 수원시 팔달구 우만동 484-6번지 1층","indutype":"용역 서비스 - 기타용역서비스","category":"other"}]},{"lat":"37.279213105","long":"127.03717134","imageIndex":17,"items":[{"name":"뜨라레플라워공방","tel":"031-305-8755","addr":"경기도 수원시 팔달구 우만동 133번지 월드프라자 106호","indutype":"문화.취미 - 문화취미기타","category":"other"},{"name":"메르디앙세탁소","tel":"031-217-2225","addr":"경기도 수원시 팔달구 우만동 133번지 월드프라자 104호","indutype":"수리서비스 - 세탁소","category":"other"},{"name":"엠버악세사리","tel":"031-276-4076","addr":"경기도 수원시 팔달구 우만동 133번지 월드프라자 106호","indutype":"신변잡화 - 액세서리","category":"other"},{"name":"오르다코리아 수원지사","tel":"031-234-2191","addr":"경기도 수원시 팔달구 우만동 133번지 월드프라자 204호","indutype":"회원제형태 - 서적","category":"other"},{"name":"윤선생영어 수원팔달센터","tel":"031-233-4433","addr":"경기도 수원시 팔달구 우만동 133번지 월드프라자 602호","indutype":"서적문구 - 일반서적","category":"other"},{"name":"이롬황성주생식상록수지점","tel":"031-417-8933","addr":"경기도 수원시 팔달구 우만동 133번지 월드프라자 205호","indutype":"유통업 영리 - 통신판매업2","category":"other"},{"name":"튼튼영어수원팔달교육본부","tel":"031-217-3232","addr":"경기도 수원시 팔달구 우만동 133번지 월드프라자 403-2호","indutype":"서적문구 - 일반서적","category":"other"}]},{"lat":"37.277013339","long":"127.04127457","imageIndex":17,"items":[{"name":"라곰","tel":"031-259-0072","addr":"경기도 수원시 팔달구 우만동 102-1번지 드림타워 102호","indutype":"의류 - 정장","category":"other"},{"name":"민플라워","tel":"031-232-3431","addr":"경기도 수원시 팔달구 우만동 102-1번지 드림타워","indutype":"문화.취미 - 화원","category":"other"}]},{"lat":"37.2880718","long":"127.03108577","imageIndex":17,"items":[{"name":"라라패밀리","tel":"031-242-8853","addr":"경기도 수원시 팔달구 우만동 482-9번지 2층","indutype":"문화.취미 - 티켓","category":"other"},{"name":"컴퓨터서비스뱅크","tel":"031-241-0542","addr":"경기도 수원시 팔달구 우만동 482-9번지","indutype":"사무통신 - 컴퓨터","category":"other"}]},{"lat":"37.283818797","long":"127.03174949","imageIndex":17,"items":[{"name":"라이스케어","tel":"031-245-6619","addr":"경기도 수원시 팔달구 우만동 525-1번지 302호","indutype":"농업 - 농기계","category":"other"}]},{"lat":"37.288676159","long":"127.02810884","imageIndex":17,"items":[{"name":"라이프영상","tel":"031-241-2215","addr":"경기도 수원시 팔달구 우만동 476-2번지 1층 라이프스튜디오","indutype":"광학제품 - 사진관","category":"other"}]},{"lat":"37.27682424","long":"127.04091366","imageIndex":17,"items":[{"name":"라이프장식","tel":"031-892-5118","addr":"경기도 수원시 팔달구 우만동 101-2번지 1층","indutype":"건축자재 - 인테리어전문","category":"other"}]},{"lat":"37.286901004","long":"127.02872847","imageIndex":17,"items":[{"name":"러브인비쥬","tel":"","addr":"경기도 수원시 팔달구 우만동 488-24번지 미성빌라 가동 301호","indutype":"신변잡화 - 액세서리","category":"other"}]},{"lat":"37.289676141","long":"127.02883092","imageIndex":17,"items":[{"name":"러셀르노코리아(주)","tel":"031-211-6671","addr":"경기도 수원시 팔달구 우만동 469번지 다담하우스 101호","indutype":"레져용품 - 골프용품 전문점","category":"other"},{"name":"툰디자인","tel":"031-247-9943","addr":"경기도 수원시 팔달구 우만동 469번지 다담하우스 304호","indutype":"용역 서비스 - 사무서비스","category":"other"}]},{"lat":"37.289071898","long":"127.0312553","imageIndex":17,"items":[{"name":"렙타일 퀸","tel":"031-399-1021","addr":"경기도 수원시 팔달구 우만동 481-1번지 1층","indutype":"문화.취미 - 애완동물","category":"other"}]},{"lat":"37.279517461","long":"127.04347461","imageIndex":17,"items":[{"name":"렛츠(LET''S)","tel":"031-1111-1111","addr":"경기도 수원시 팔달구 우만동 571-1번지 3층","indutype":"용역 서비스 - 사무서비스","category":"other"},{"name":"영림문화사","tel":"031-215-3336","addr":"경기도 수원시 팔달구 우만동 571-1번지 지하층","indutype":"서적문구 - 출판 및 인쇄물","category":"other"}]},{"lat":"37.275679564","long":"127.04205188","imageIndex":17,"items":[{"name":"로체르비노","tel":"070-4046-1422","addr":"경기도 수원시 팔달구 우만동 85-3번지 우만동R타워 113호","indutype":"의류 - 정장","category":"other"},{"name":"비엔씨사이언스","tel":"","addr":"경기도 수원시 팔달구 우만동 85-3번지 우만동R타워 815호","indutype":"서적문구 - 과학기자재","category":"other"},{"name":"스핀","tel":"031-214-4805","addr":"경기도 수원시 팔달구 우만동 85-3번지 우만동R타워 108호","indutype":"신변잡화 - 액세서리","category":"other"},{"name":"지골드","tel":"031-222-3753","addr":"경기도 수원시 팔달구 우만동 85-3번지 우만동R타워 108호","indutype":"신변잡화 - 액세서리","category":"other"},{"name":"화이트미디어","tel":"031-258-0055","addr":"경기도 수원시 팔달구 우만동 85-3번지 아이타워 112호","indutype":"사무통신 - 컴퓨터","category":"other"}]},{"lat":"37.290036622","long":"127.028504","imageIndex":17,"items":[{"name":"롱라이프그린케어참사랑노인복지센터","tel":"031-241-6512","addr":"경기도 수원시 팔달구 우만동 468번지 1층","indutype":"기타의료기관 - 기타의료기관 및 기타","category":"other"}]},{"lat":"37.275102408","long":"127.04352861","imageIndex":17,"items":[{"name":"르하임스터디카페 수원아주대점","tel":"031-8067-5677","addr":"경기도 수원시 팔달구 우만동 81-7번지 3층","indutype":"용역 서비스 - 사무서비스","category":"other"},{"name":"하늘꿈산후조리원","tel":"031-307-0029","addr":"경기도 수원시 팔달구 우만동 81-7번지 우만빌딩 2층,6층","indutype":"기타의료기관 - 산후조리원","category":"other"}]},{"lat":"37.279402093","long":"127.03794945","imageIndex":17,"items":[{"name":"리폼하우스","tel":"070-8289-8851","addr":"경기도 수원시 팔달구 우만동 126-2번지 1층 3호,4호","indutype":"수리서비스 - 세탁소","category":"other"},{"name":"마이크로 엘","tel":"031-214-1542","addr":"경기도 수원시 팔달구 우만동 126-2번지 1층","indutype":"신변잡화 - 기타잡화","category":"other"}]},{"lat":"37.288622265","long":"127.02730815","imageIndex":17,"items":[{"name":"마일드브라운","tel":"032-000-0000","addr":"경기도 수원시 팔달구 우만동 470-32번지","indutype":"신변잡화 - 기타잡화","category":"other"}]},{"lat":"37.285151897","long":"127.03341893","imageIndex":17,"items":[{"name":"만물전기","tel":"031-241-1521","addr":"경기도 수원시 팔달구 우만동 521번지","indutype":"건축자재 - 조명기구","category":"other"}]},{"lat":"37.28120562","long":"127.03256036","imageIndex":17,"items":[{"name":"머슬캠프","tel":"031-216-3341","addr":"경기도 수원시 팔달구 우만동 553-15번지 4층","indutype":"회원제형태 - 레져업소","category":"other"}]},{"lat":"37.284044739","long":"127.02878388","imageIndex":17,"items":[{"name":"명정유통","tel":"031-244-9052","addr":"경기도 수원시 팔달구 우만동 508-7번지 오성플러스상가 A동 B03호","indutype":"서적문구 - 완구점","category":"other"}]},{"lat":"37.276851136","long":"127.04133086","imageIndex":17,"items":[{"name":"묵가필방","tel":"031-215-3032","addr":"경기도 수원시 팔달구 우만동 95-1번지","indutype":"문화.취미 - 화방·표구점","category":"other"},{"name":"유신고등학교총동문회","tel":"031-217-1973","addr":"경기도 수원시 팔달구 우만동 95-1번지 2층","indutype":"기타 - 비영리/비대상","category":"other"}]},{"lat":"37.279238677","long":"127.04188459","imageIndex":17,"items":[{"name":"미니스톱 아주대점","tel":"031-1577-9621","addr":"경기도 수원시 팔달구 우만동 45-1번지 플러스빌오피스텔 101호","indutype":"유통업 영리 - 편 의 점","category":"other"}]},{"lat":"37.278906544","long":"127.03789284","imageIndex":17,"items":[{"name":"미니스톱 우만현대점","tel":"031-1577-9621","addr":"경기도 수원시 팔달구 우만동 134-12번지 E.L.타워 1층 102호","indutype":"유통업 영리 - 편 의 점","category":"other"}]},{"lat":"37.280764309","long":"127.03178215","imageIndex":17,"items":[{"name":"미니스톱팔달우만점","tel":"031-1577-9621","addr":"경기도 수원시 팔달구 우만동 559번지 1층","indutype":"유통업 영리 - 편 의 점","category":"other"}]},{"lat":"37.282899578","long":"127.03244826","imageIndex":17,"items":[{"name":"미래세탁","tel":"031-245-5446","addr":"경기도 수원시 팔달구 우만동 529-2번지 반도빌라 102호","indutype":"수리서비스 - 세탁소","category":"other"}]},{"lat":"37.288207284","long":"127.02966491","imageIndex":17,"items":[{"name":"미래전자","tel":"031-236-4186","addr":"경기도 수원시 팔달구 우만동 484번지","indutype":"기타 - 기타 전문점","category":"other"},{"name":"철과나무이야기","tel":"031-257-6111","addr":"경기도 수원시 팔달구 우만동 484번지 1층","indutype":"건축자재 - 인테리어전문","category":"other"},{"name":"쿨독펫샵","tel":"031-269-1833","addr":"경기도 수원시 팔달구 우만동 484번지 삼익세라믹 상가 1동 3호","indutype":"문화.취미 - 애완동물","category":"other"}]},{"lat":"37.283458735","long":"127.03028343","imageIndex":17,"items":[{"name":"미르정비기기","tel":"031-221-0370","addr":"경기도 수원시 팔달구 우만동 511-37번지 105호","indutype":"기타 - 기계공구","category":"other"}]},{"lat":"37.285512083","long":"127.0342761","imageIndex":17,"items":[{"name":"미소공방","tel":"","addr":"경기도 수원시 팔달구 우만동 519-10번지 락토그빌라","indutype":"문화.취미 - 문화취미기타","category":"other"}]},{"lat":"37.288261906","long":"127.02705994","imageIndex":17,"items":[{"name":"민우조경","tel":"031-252-5971","addr":"경기도 수원시 팔달구 우만동 470-39번지","indutype":"건축자재 - 인테리어전문","category":"other"},{"name":"준바이오텍","tel":"031-111-1111","addr":"경기도 수원시 팔달구 우만동 470-39번지 1층 102호","indutype":"서적문구 - 과학기자재","category":"other"}]},{"lat":"37.290703205","long":"127.02930492","imageIndex":17,"items":[{"name":"바디아트","tel":"031-256-0327","addr":"경기도 수원시 팔달구 우만동 466-14번지 세진빌딩","indutype":"회원제형태 - 기타4","category":"other"},{"name":"주식회사제이엠키친","tel":"031-256-4102","addr":"경기도 수원시 팔달구 우만동 466-14번지","indutype":"주방용구 - 주방용구","category":"other"},{"name":"태진","tel":"031-484-9242","addr":"경기도 수원시 팔달구 우만동 466-14번지 세진빌딩 1층","indutype":"전기제품 - 가전제품","category":"other"}]},{"lat":"37.289983128","long":"127.02572977","imageIndex":17,"items":[{"name":"바른","tel":"031-241-7367","addr":"경기도 수원시 팔달구 우만동 598-12번지","indutype":"주방용구 - 정수기","category":"other"}]},{"lat":"37.284232617","long":"127.0343094","imageIndex":17,"items":[{"name":"바른손","tel":"031-248-0239","addr":"경기도 수원시 팔달구 우만동 532번지","indutype":"서적문구 - 문구용품","category":"other"}]},{"lat":"37.278761448","long":"127.04091464","imageIndex":17,"items":[{"name":"박광수공인중개사사무소","tel":"031-213-9400","addr":"경기도 수원시 팔달구 우만동 30-1번지","indutype":"용역 서비스 - 부동산 중개·임대","category":"other"},{"name":"형제통신","tel":"031-241-8950","addr":"경기도 수원시 팔달구 우만동 30-1번지 1층","indutype":"사무통신 - 통신기기","category":"other"}]},{"lat":"37.279430985","long":"127.03096979","imageIndex":17,"items":[{"name":"반스(BANS)","tel":"","addr":"경기도 수원시 팔달구 우만동 562-12번지 201호","indutype":"광학제품 - 사진관","category":"other"}]},{"lat":"37.278625464","long":"127.04341775","imageIndex":17,"items":[{"name":"백팩맨","tel":"031-990-1560","addr":"경기도 수원시 팔달구 우만동 573-7번지 지하","indutype":"신변잡화 - 가방","category":"other"}]},{"lat":"37.27570607","long":"127.04360786","imageIndex":17,"items":[{"name":"법무사 신인수 사무소","tel":"031-216-9370","addr":"경기도 수원시 팔달구 우만동 578-1번지 제1용성빌딩 5층 2호","indutype":"용역 서비스 - 법률회계서비스(개인)","category":"other"},{"name":"아주기획","tel":"031-217-0745","addr":"경기도 수원시 팔달구 우만동 578-1번지 용성빌딩 1층","indutype":"서적문구 - 출판 및 인쇄물","category":"other"},{"name":"유니온플라워서비스","tel":"031-214-0754","addr":"경기도 수원시 팔달구 우만동 578-1번지","indutype":"문화.취미 - 화원","category":"other"},{"name":"유스브릿지","tel":"02-1111-1111","addr":"경기도 수원시 팔달구 우만동 578-1번지 용성빌딩 4층 2호","indutype":"용역 서비스 - 사무서비스","category":"other"},{"name":"탑스","tel":"031-216-3180","addr":"경기도 수원시 팔달구 우만동 578-1번지","indutype":"유통업 영리 - 편 의 점","category":"other"}]},{"lat":"37.275183578","long":"127.04330315","imageIndex":17,"items":[{"name":"법무사박치우사무소","tel":"031-211-1668","addr":"경기도 수원시 팔달구 우만동 81-6번지 법전빌딩 107호","indutype":"용역 서비스 - 법률회계서비스(개인)","category":"other"},{"name":"올리브영 아주대삼거리점","tel":"031-215-0121","addr":"경기도 수원시 팔달구 우만동 81-6번지 1층","indutype":"유통업 영리 - 편 의 점","category":"other"}]},{"lat":"37.283152288","long":"127.03070054","imageIndex":17,"items":[{"name":"베이비키즈맘","tel":"","addr":"경기도 수원시 팔달구 우만동 526-12번지 한효우만타운아파트 230호","indutype":"신변잡화 - 기타잡화","category":"other"}]},{"lat":"37.279905928","long":"127.0403627","imageIndex":17,"items":[{"name":"벨리스플라워","tel":"","addr":"경기도 수원시 팔달구 우만동 39-4번지 1층 102호","indutype":"문화.취미 - 화원","category":"other"}]},{"lat":"37.287981729","long":"127.03095041","imageIndex":17,"items":[{"name":"보일러써비스","tel":"031-254-5807","addr":"경기도 수원시 팔달구 우만동 482-26번지 1층 3호","indutype":"수리서비스 - 기타수리서비스","category":"other"},{"name":"하나유통","tel":"031-243-8898","addr":"경기도 수원시 팔달구 우만동 482-26번지 점포 1층 2호","indutype":"신변잡화 - 기타잡화","category":"other"}]},{"lat":"37.289126125","long":"127.03055614","imageIndex":17,"items":[{"name":"보훈환경","tel":"031-245-7566","addr":"경기도 수원시 팔달구 우만동 480-36번지","indutype":"용역 서비스 - 종합용역","category":"other"}]},{"lat":"37.286232975","long":"127.03400576","imageIndex":17,"items":[{"name":"봄날플라워","tel":"031-254-0264","addr":"경기도 수원시 팔달구 우만동 518-2번지","indutype":"문화.취미 - 화원","category":"other"}]},{"lat":"37.28501751","long":"127.03028399","imageIndex":17,"items":[{"name":"부업하는오빠들 (Studio buO)","tel":"","addr":"경기도 수원시 팔달구 우만동 505-4번지 202호","indutype":"광학제품 - 사진관","category":"other"}]},{"lat":"37.290045247","long":"127.03022943","imageIndex":17,"items":[{"name":"블루홀(BLUEHOLE)","tel":"031-444-0752","addr":"경기도 수원시 팔달구 우만동 479번지","indutype":"회원제형태 - 레져업소","category":"other"}]},{"lat":"37.279878117","long":"127.04275315","imageIndex":17,"items":[{"name":"비츠(Beats)","tel":"031-234-9492","addr":"경기도 수원시 팔달구 우만동 58-27번지 1층","indutype":"전기제품 - 가전제품","category":"other"},{"name":"아이애드맥스","tel":"031-215-0745","addr":"경기도 수원시 팔달구 우만동 58-27번지 102호","indutype":"용역 서비스 - 사무서비스","category":"other"}]},{"lat":"37.289315268","long":"127.03086069","imageIndex":17,"items":[{"name":"사과나무스파","tel":"02-3280-3347","addr":"경기도 수원시 팔달구 우만동 480-32번지 3층","indutype":"신변잡화 - 액세서리","category":"other"},{"name":"주식회사사과나무","tel":"031-253-3347","addr":"경기도 수원시 팔달구 우만동 480-32번지 1층","indutype":"회원제형태 - 기타4","category":"other"}]},{"lat":"37.286098671","long":"127.03058886","imageIndex":17,"items":[{"name":"사단법인 도농문화콘텐츠연구회","tel":"070-4205-1233","addr":"경기도 수원시 팔달구 우만동 503-12번지 지하층","indutype":"용역 서비스 - 종합용역","category":"other"},{"name":"스튜디오하루","tel":"031-253-9405","addr":"경기도 수원시 팔달구 우만동 503-12번지 1층 2호","indutype":"광학제품 - 사진관","category":"other"}]},{"lat":"37.290649623","long":"127.0270607","imageIndex":17,"items":[{"name":"산내들","tel":"031-224-5007","addr":"경기도 수원시 팔달구 우만동 583-5번지","indutype":"용역 서비스 - 사무서비스","category":"other"}]},{"lat":"37.2825395","long":"127.03108371","imageIndex":17,"items":[{"name":"삼성디지탈OA","tel":"031-217-5858","addr":"경기도 수원시 팔달구 우만동 527-22 제에이동호1층","indutype":"사무통신 - 컴퓨터","category":"other"}]},{"lat":"37.286350979","long":"127.03049874","imageIndex":17,"items":[{"name":"삼성엘지보라에어컨설치판매","tel":"031-224-3071","addr":"경기도 수원시 팔달구 우만동 494-3번지 2층","indutype":"용역 서비스 - 기타용역서비스","category":"other"}]},{"lat":"37.2865947","long":"127.02852539","imageIndex":17,"items":[{"name":"삼오스포츠","tel":"031-1111-1111","addr":"경기도 수원시 팔달구 우만동 488-8번지 1층","indutype":"레져용품 - 골프용품 전문점","category":"other"}]},{"lat":"37.289514634","long":"127.02552664","imageIndex":17,"items":[{"name":"삼일애드컴","tel":"031-251-6032","addr":"경기도 수원시 팔달구 우만동 598-19 2층,지하1층","indutype":"용역 서비스 - 종합용역","category":"other"}]},{"lat":"37.286648687","long":"127.02886371","imageIndex":17,"items":[{"name":"상은컴퓨터","tel":"031-205-8072","addr":"경기도 수원시 팔달구 우만동 488-3번지","indutype":"사무통신 - 컴퓨터","category":"other"}]},{"lat":"37.276319866","long":"127.04028199","imageIndex":17,"items":[{"name":"샤인스킨케어","tel":"031-211-2338","addr":"경기도 수원시 팔달구 우만동 96-30번지 우신빌딩 201호","indutype":"회원제형태 - 기타4","category":"other"}]},{"lat":"37.290072888","long":"127.02744395","imageIndex":17,"items":[{"name":"서라벌아이씨씨 주식회사","tel":"031-217-0105","addr":"경기도 수원시 팔달구 우만동 585-19번지 2층","indutype":"사무통신 - 통신기기","category":"other"}]},{"lat":"37.284232914","long":"127.03317048","imageIndex":17,"items":[{"name":"서원철물(전기)","tel":"031-242-8722","addr":"경기도 수원시 팔달구 우만동 522-9번지","indutype":"건축자재 - 목재·석재·철물","category":"other"}]},{"lat":"37.277824153","long":"127.04161324","imageIndex":17,"items":[{"name":"선경종합인테리어","tel":"031-211-3777","addr":"경기도 수원시 팔달구 우만동 32번지 일반상가 2호","indutype":"건축자재 - 인테리어전문","category":"other"}]},{"lat":"37.283205787","long":"127.03300092","imageIndex":17,"items":[{"name":"선진기획","tel":"031-239-4890","addr":"경기도 수원시 팔달구 우만동 530-8번지","indutype":"기타 - 기타 전문점","category":"other"}]},{"lat":"37.28079167","long":"127.03039522","imageIndex":17,"items":[{"name":"선진토탈디자인","tel":"031-257-4813","addr":"경기도 수원시 팔달구 우만동 549-9번지 로즈빌","indutype":"유통업 영리 - 기타유통업","category":"other"}]},{"lat":"37.282737505","long":"127.03199715","imageIndex":17,"items":[{"name":"설치대마왕시스템에어컨","tel":"070-1833-5058","addr":"경기도 수원시 팔달구 우만동 529-16번지 1층","indutype":"용역 서비스 - 기타용역서비스","category":"other"}]},{"lat":"37.287567902","long":"127.02808592","imageIndex":17,"items":[{"name":"세이프존2호점","tel":"031-245-5056","addr":"경기도 수원시 팔달구 우만동 474-16번지 1층","indutype":"용역 서비스 - 종합용역","category":"other"},{"name":"주식회사현대환경개발","tel":"031-214-6667","addr":"경기도 수원시 팔달구 우만동 474-16번지 1층 가운데","indutype":"용역 서비스 - 종합용역","category":"other"}]},{"lat":"37.285566378","long":"127.03338527","imageIndex":17,"items":[{"name":"세종씽크","tel":"031-246-0480","addr":"경기도 수원시 팔달구 우만동 517-3번지 201호","indutype":"수리서비스 - 기타수리서비스","category":"other"}]},{"lat":"37.283152139","long":"127.03133201","imageIndex":17,"items":[{"name":"소규모 워크룸","tel":"","addr":"경기도 수원시 팔달구 우만동 526-8번지 지층 B04호","indutype":"문화.취미 - 민예·공예품","category":"other"}]},{"lat":"37.280683542","long":"127.03041774","imageIndex":17,"items":[{"name":"소리텔레콤","tel":"031-246-6744","addr":"경기도 수원시 팔달구 우만동 549-8번지 옥진빌딩 4층","indutype":"사무통신 - 통신기기","category":"other"}]},{"lat":"37.278156903","long":"127.04349643","imageIndex":17,"items":[{"name":"송쥬얼리","tel":"070-4102-7770","addr":"경기도 수원시 팔달구 우만동 575-1번지 아록빌딩 1층 104호","indutype":"신변잡화 - 귀금속","category":"other"}]},{"lat":"37.282457055","long":"127.03628199","imageIndex":17,"items":[{"name":"수원구치소","tel":"031-218-7774","addr":"경기도 수원시 팔달구 우만동 182번지","indutype":"유통업 비영리 - 구내매점(국가기관","category":"other"}]},{"lat":"37.284989973","long":"127.0323927","imageIndex":17,"items":[{"name":"수원로얄","tel":"031-252-2511","addr":"경기도 수원시 팔달구 우만동 515-21번지 1층","indutype":"의류 - 내의판매","category":"other"}]},{"lat":"37.278069755","long":"127.03369796","imageIndex":17,"items":[{"name":"수원삼일세무회계그룹","tel":"031-548-2266","addr":"경기도 수원시 팔달구 우만동 153-20번지 2층,3층","indutype":"용역 서비스 - 법률회계서비스(개인)","category":"other"}]},{"lat":"37.278348597","long":"127.03547961","imageIndex":17,"items":[{"name":"수원시의사회","tel":"031-213-5634","addr":"경기도 수원시 팔달구 우만동 147번지 롯데송림빌라 202호","indutype":"기타 - 비영리/대상","category":"other"}]},{"lat":"37.286819219","long":"127.03172808","imageIndex":17,"items":[{"name":"수원열쇠방","tel":"031-241-1398","addr":"경기도 수원시 팔달구 우만동 501번지","indutype":"건축자재 - 목재·석재·철물","category":"other"},{"name":"편의점 사랑","tel":"031-243-9671","addr":"경기도 수원시 팔달구 우만동 501번지 1층 1호","indutype":"유통업 영리 - 편 의 점","category":"other"},{"name":"하나로크리닝","tel":"031-248-5801","addr":"경기도 수원시 팔달구 우만동 501번지 101호","indutype":"수리서비스 - 세탁소","category":"other"}]},{"lat":"37.285071087","long":"127.03230252","imageIndex":17,"items":[{"name":"수원통큰통신","tel":"070-8888-1715","addr":"경기도 수원시 팔달구 우만동 515-20번지 정우주택 101호","indutype":"사무통신 - 통신기기","category":"other"},{"name":"악동클럽","tel":"031-248-6987","addr":"경기도 수원시 팔달구 우만동 515-20번지","indutype":"의류 - 아동의류","category":"other"}]},{"lat":"37.288648644","long":"127.03028531","imageIndex":17,"items":[{"name":"수정상사","tel":"031-256-0309","addr":"경기도 수원시 팔달구 우만동 482-25번지 중간상가","indutype":"신변잡화 - 기타잡화","category":"other"}]},{"lat":"37.288152964","long":"127.03078132","imageIndex":17,"items":[{"name":"순실사자재","tel":"","addr":"경기도 수원시 팔달구 우만동 482-23번지 1층","indutype":"기타 - 기계공구","category":"other"}]},{"lat":"37.286485401","long":"127.03347585","imageIndex":17,"items":[{"name":"슈가프리","tel":"","addr":"경기도 수원시 팔달구 우만동 518-11번지","indutype":"신변잡화 - 기타잡화","category":"other"}]},{"lat":"37.283430602","long":"127.03469246","imageIndex":17,"items":[{"name":"슈에뜨플라워","tel":"031-253-8984","addr":"경기도 수원시 팔달구 우만동 531-18번지 1층","indutype":"문화.취미 - 화원","category":"other"}]},{"lat":"37.285296012","long":"127.03361069","imageIndex":17,"items":[{"name":"스윗차일드오마인","tel":"070-8837-5022","addr":"경기도 수원시 팔달구 우만동 520-14번지","indutype":"문화.취미 - 애완동물","category":"other"}]},{"lat":"37.287901051","long":"127.02914606","imageIndex":17,"items":[{"name":"스타애견","tel":"031-268-0997","addr":"경기도 수원시 팔달구 우만동 485번지","indutype":"문화.취미 - 애완동물","category":"other"}]},{"lat":"37.280600614","long":"127.03742003","imageIndex":17,"items":[{"name":"스타전기조명","tel":"031-215-5966","addr":"경기도 수원시 팔달구 우만동 129번지 1층","indutype":"건축자재 - 조명기구","category":"other"}]},{"lat":"37.281016618","long":"127.03169204","imageIndex":17,"items":[{"name":"스탤론의울트라복싱체육관","tel":"031-213-7009","addr":"경기도 수원시 팔달구 우만동 555-14번지","indutype":"회원제형태 - 레져업소","category":"other"},{"name":"위니아대우24시크린샵 수원우만점","tel":"031-1522-0092","addr":"경기도 수원시 팔달구 우만동 555-14번지 1층","indutype":"수리서비스 - 세탁소","category":"other"}]},{"lat":"37.288540387","long":"127.0308604","imageIndex":17,"items":[{"name":"스팀&부스","tel":"031-252-9860","addr":"경기도 수원시 팔달구 우만동 482-3번지","indutype":"건축자재 - 기타건축자재","category":"other"}]},{"lat":"37.286260902","long":"127.03038594","imageIndex":17,"items":[{"name":"스포리더","tel":"031-222-7955","addr":"경기도 수원시 팔달구 우만동 494-4번지 2층","indutype":"용역 서비스 - 종합용역","category":"other"}]},{"lat":"37.284737141","long":"127.03450131","imageIndex":17,"items":[{"name":"슬로우더테이블 (Slow The Table)","tel":"","addr":"경기도 수원시 팔달구 우만동 520-6번지 1층","indutype":"의류 - 기타의류","category":"other"}]},{"lat":"37.286566946","long":"127.0316716","imageIndex":17,"items":[{"name":"승리테크","tel":"031-242-5240","addr":"경기도 수원시 팔달구 우만동 501-13번지","indutype":"회원제형태 - 기타4","category":"other"},{"name":"큰나무 작은도서관","tel":"031-892-9193","addr":"경기도 수원시 팔달구 우만동 501-13번지","indutype":"문화.취미 - 문화취미기타","category":"other"}]},{"lat":"37.290180426","long":"127.03011671","imageIndex":17,"items":[{"name":"시온디자인","tel":"031-242-3777","addr":"경기도 수원시 팔달구 우만동 466-5번지 1층","indutype":"용역 서비스 - 사무서비스","category":"other"}]},{"lat":"37.278402381","long":"127.03647188","imageIndex":17,"items":[{"name":"신일세탁소","tel":"031-898-5454","addr":"경기도 수원시 팔달구 우만동 606번지 신도브래뉴 상가 104호","indutype":"수리서비스 - 세탁소","category":"other"},{"name":"알앤씨뷰티라이프","tel":"031-213-2360","addr":"경기도 수원시 팔달구 우만동 606번지 동수원신도브랜뉴 상가 101,102호","indutype":"의류 - 내의판매","category":"other"}]},{"lat":"37.287377629","long":"127.03264172","imageIndex":17,"items":[{"name":"씨스페이스우만점","tel":"070-8823-7983","addr":"경기도 수원시 팔달구 우만동 499-20번지","indutype":"유통업 영리 - 편 의 점","category":"other"},{"name":"어울림종합인테리어","tel":"031-254-6075","addr":"경기도 수원시 팔달구 우만동 499-20번지","indutype":"건축자재 - 인테리어전문","category":"other"},{"name":"포토픽스 수원점","tel":"031-243-3966","addr":"경기도 수원시 팔달구 우만동 499-20번지","indutype":"광학제품 - 사진관","category":"other"}]},{"lat":"37.282016942","long":"127.03092565","imageIndex":17,"items":[{"name":"씨엔알(C&R)공조","tel":"","addr":"경기도 수원시 팔달구 우만동 550-10번지 신형빌라 가동 202호","indutype":"용역 서비스 - 기타용역서비스","category":"other"}]},{"lat":"37.281764179","long":"127.03286504","imageIndex":17,"items":[{"name":"씨유수원메르디앙점","tel":"080-080-3663","addr":"경기도 수원시 팔달구 우만동 552-21번지 1층","indutype":"유통업 영리 - 편 의 점","category":"other"}]},{"lat":"37.29079327","long":"127.02947411","imageIndex":17,"items":[{"name":"씨유수원연무점","tel":"031-242-8296","addr":"경기도 수원시 팔달구 우만동 466번지 1층","indutype":"유통업 영리 - 편 의 점","category":"other"}]},{"lat":"37.279177161","long":"127.03683305","imageIndex":17,"items":[{"name":"씨유수원우만은혜점","tel":"080-080-3663","addr":"경기도 수원시 팔달구 우만동 607번지 양우내안애애플아파트 상가동 1층 101호","indutype":"유통업 영리 - 편 의 점","category":"other"}]},{"lat":"37.278932076","long":"127.0426399","imageIndex":17,"items":[{"name":"씨유아주대플러스점","tel":"031-217-4727","addr":"경기도 수원시 팔달구 우만동 58-18번지 1층","indutype":"유통업 영리 - 편 의 점","category":"other"}]},{"lat":"37.28715357","long":"127.02742044","imageIndex":17,"items":[{"name":"씨유우만미래점","tel":"031-898-6568","addr":"경기도 수원시 팔달구 우만동 473-22번지 1층","indutype":"유통업 영리 - 편 의 점","category":"other"}]},{"lat":"37.284043649","long":"127.0333621","imageIndex":17,"items":[{"name":"씨유우만본점","tel":"080-080-3663","addr":"경기도 수원시 팔달구 우만동 522-26번지 1층","indutype":"유통업 영리 - 편 의 점","category":"other"}]},{"lat":"37.28723415","long":"127.02977734","imageIndex":17,"items":[{"name":"씨유우만삼익점","tel":"031-248-0403","addr":"경기도 수원시 팔달구 우만동 485-25번지","indutype":"유통업 영리 - 편 의 점","category":"other"}]},{"lat":"37.277292086","long":"127.04299985","imageIndex":17,"items":[{"name":"씨유우만원룸점","tel":"031-211-6425","addr":"경기도 수원시 팔달구 우만동 73-1번지","indutype":"유통업 영리 - 편 의 점","category":"other"}]},{"lat":"37.281843727","long":"127.03844673","imageIndex":17,"items":[{"name":"씨유우만주공스카이점","tel":"031-898-6656","addr":"경기도 수원시 팔달구 우만동 28번지 주공1단지아파트 상가동 101호","indutype":"유통업 영리 - 편 의 점","category":"other"}]},{"lat":"37.287567106","long":"127.03158177","imageIndex":17,"items":[{"name":"씨유우만풍림점","tel":"080-080-3663","addr":"경기도 수원시 팔달구 우만동 497번지 가동 1층 102,103,104,105호","indutype":"유통업 영리 - 편 의 점","category":"other"}]},{"lat":"37.285485256","long":"127.033498","imageIndex":17,"items":[{"name":"아띠랑스","tel":"","addr":"경기도 수원시 팔달구 우만동 517-7번지 1층","indutype":"의류 - 정장","category":"other"}]},{"lat":"37.285017813","long":"127.02894209","imageIndex":17,"items":[{"name":"아레나 피씨","tel":"070-9447-0240","addr":"경기도 수원시 팔달구 우만동 506-3번지 2층","indutype":"수리서비스 - 사무·통신기기수리","category":"other"}]},{"lat":"37.277039958","long":"127.04252615","imageIndex":17,"items":[{"name":"아르떼제이(ArteJ)","tel":"02-1111-1111","addr":"경기도 수원시 팔달구 우만동 75번지 1층 일부","indutype":"신변잡화 - 액세서리","category":"other"}]},{"lat":"37.277716915","long":"127.0388056","imageIndex":17,"items":[{"name":"아름다운세상","tel":"031-223-9210","addr":"경기도 수원시 팔달구 우만동 136-16번지 신세계하이츠빌라 B동 201호","indutype":"회원제형태 - 기타1","category":"other"}]},{"lat":"37.289126214","long":"127.03017271","imageIndex":17,"items":[{"name":"아이타이거","tel":"031-245-2600","addr":"경기도 수원시 팔달구 우만동 480-15번지","indutype":"주방용구 - 정수기","category":"other"}]},{"lat":"37.279373655","long":"127.04241461","imageIndex":17,"items":[{"name":"아이폰서비스코리아","tel":"050-4886-3966","addr":"경기도 수원시 팔달구 우만동 43-10번지","indutype":"신변잡화 - 기타잡화","category":"other"}]},{"lat":"37.279710282","long":"127.0310601","imageIndex":17,"items":[{"name":"아크로컬쳐","tel":"","addr":"경기도 수원시 팔달구 우만동 557-12번지 201호","indutype":"문화.취미 - 문화취미기타","category":"other"}]},{"lat":"37.278177302","long":"127.03584035","imageIndex":17,"items":[{"name":"안일상사","tel":"031-211-1373","addr":"경기도 수원시 팔달구 우만동 147-12 롯데송림빌라 309 6/1","indutype":"농업 - 농기계","category":"other"},{"name":"안일상사/원격지","tel":"031-211-1373","addr":"경기도 수원시 팔달구 우만동 147-12 롯데송림빌라 309 6/1","indutype":"기타 - 기타 전문점","category":"other"}]},{"lat":"37.289648886","long":"127.02983458","imageIndex":17,"items":[{"name":"에끌라 (eclat)","tel":"","addr":"경기도 수원시 팔달구 우만동 479-1번지 보은맨션 909호","indutype":"용역 서비스 - 혼례서비스","category":"other"}]},{"lat":"37.289370453","long":"127.02561681","imageIndex":17,"items":[{"name":"에스에이치웹커뮤니케이션","tel":"031-572-7625","addr":"경기도 수원시 팔달구 우만동 598-20번지","indutype":"회원제형태 - 사무서비스","category":"other"},{"name":"침대수원점","tel":"031-255-0063","addr":"경기도 수원시 팔달구 우만동 598-20번지","indutype":"가구 - 일반가구","category":"other"},{"name":"흙침대","tel":"031-255-0063","addr":"경기도 수원시 팔달구 우만동 598-20번지","indutype":"가구 - 일반가구","category":"other"}]},{"lat":"37.285296472","long":"127.03178388","imageIndex":17,"items":[{"name":"에어팡","tel":"031-3444-7884","addr":"경기도 수원시 팔달구 우만동 514-8번지 현대빌라 6동 201호","indutype":"수리서비스 - 기타수리서비스","category":"other"}]},{"lat":"37.288315488","long":"127.02930409","imageIndex":17,"items":[{"name":"에이스주방가구","tel":"031-242-5233","addr":"경기도 수원시 팔달구 우만동 477-17번지","indutype":"주방용구 - 주방용구","category":"other"}]},{"lat":"37.284124762","long":"127.0332832","imageIndex":17,"items":[{"name":"엘리스","tel":"","addr":"경기도 수원시 팔달구 우만동 522-27번지 1층","indutype":"의류 - 정장","category":"other"}]},{"lat":"37.286459128","long":"127.03038601","imageIndex":17,"items":[{"name":"엘엔에스이엔지","tel":"","addr":"경기도 수원시 팔달구 우만동 494-6번지","indutype":"용역 서비스 - 기타용역서비스","category":"other"}]},{"lat":"37.284873333","long":"127.03034033","imageIndex":17,"items":[{"name":"엠더블유","tel":"031-000-0000","addr":"경기도 수원시 팔달구 우만동 505-9번지","indutype":"의류 - 정장","category":"other"}]},{"lat":"37.282683105","long":"127.033339","imageIndex":17,"items":[{"name":"엠제이(M.J)디지털","tel":"070-7563-7337","addr":"경기도 수원시 팔달구 우만동 379-3번지","indutype":"전기제품 - 가전제품","category":"other"},{"name":"청림(푸른숲)인테리어","tel":"031-254-7428","addr":"경기도 수원시 팔달구 우만동 379-3번지 1층 4호","indutype":"건축자재 - 인테리어전문","category":"other"},{"name":"크린토피아수원우만월드메르디앙점","tel":"031-213-4561","addr":"경기도 수원시 팔달구 우만동 379-3번지 1층 103호","indutype":"수리서비스 - 세탁소","category":"other"}]},{"lat":"37.282818778","long":"127.03125295","imageIndex":17,"items":[{"name":"여송의 전통한국음식","tel":"","addr":"경기도 수원시 팔달구 우만동 529-10번지 3층","indutype":"문화.취미 - 문화취미기타","category":"other"}]},{"lat":"37.284070388","long":"127.03447848","imageIndex":17,"items":[{"name":"영월드문구점","tel":"031-244-1035","addr":"경기도 수원시 팔달구 우만동 532-9번지","indutype":"서적문구 - 문구용품","category":"other"}]},{"lat":"37.288847486","long":"127.02747738","imageIndex":17,"items":[{"name":"영진환경","tel":"031-243-4741","addr":"경기도 수원시 팔달구 우만동 470-29번지","indutype":"용역 서비스 - 기타용역서비스","category":"other"}]},{"lat":"37.284232786","long":"127.03366664","imageIndex":17,"items":[{"name":"예영건축사사무소","tel":"031-241-1906","addr":"경기도 수원시 팔달구 우만동 522-8번지","indutype":"용역 서비스 - 사무서비스","category":"other"}]},{"lat":"37.288432484","long":"127.02991309","imageIndex":17,"items":[{"name":"오성인테리어","tel":"031-256-1259","addr":"경기도 수원시 팔달구 우만동 483-15번지","indutype":"직물 - 카페트,커튼,천막,지물","category":"other"}]},{"lat":"37.28056613","long":"127.03159038","imageIndex":17,"items":[{"name":"오키스토리바느질공방","tel":"070-8283-8841","addr":"경기도 수원시 팔달구 우만동 559-12번지 1층","indutype":"수리서비스 - 세탁소","category":"other"}]},{"lat":"37.278340292","long":"127.0328073","imageIndex":17,"items":[{"name":"오피스디포 동수원점","tel":"031-213-1456","addr":"경기도 수원시 팔달구 우만동 436번지 뉴신아빌딩 B동 1층","indutype":"사무통신 - 기타 사무용품","category":"other"}]},{"lat":"37.278040934","long":"127.03994458","imageIndex":17,"items":[{"name":"온새미","tel":"031-293-0539","addr":"경기도 수원시 팔달구 우만동 100-17번지 4층","indutype":"신변잡화 - 기타잡화","category":"other"}]},{"lat":"37.2786559","long":"127.0318039","imageIndex":17,"items":[{"name":"올리브영 동수원사거리점","tel":"031-211-5290","addr":"경기도 수원시 팔달구 우만동 561-15번지 상안빌딩 1층","indutype":"유통업 영리 - 편 의 점","category":"other"}]},{"lat":"37.288594981","long":"127.02850351","imageIndex":17,"items":[{"name":"옷 카페","tel":"031-257-0821","addr":"경기도 수원시 팔달구 우만동 476-8번지","indutype":"의류 - 정장","category":"other"}]},{"lat":"37.28590065","long":"127.02969793","imageIndex":17,"items":[{"name":"옷걸이","tel":"031-246-1884","addr":"경기도 수원시 팔달구 우만동 492-15번지","indutype":"의류 - 정장","category":"other"}]},{"lat":"37.283872177","long":"127.03442201","imageIndex":17,"items":[{"name":"용성광고","tel":"031-253-4848","addr":"경기도 수원시 팔달구 우만동 532-12번지","indutype":"건축자재 - 인테리어전문","category":"other"},{"name":"한아름","tel":"031-255-8220","addr":"경기도 수원시 팔달구 우만동 532-12번지","indutype":"문화.취미 - 화원","category":"other"}]},{"lat":"37.288071853","long":"127.03086023","imageIndex":17,"items":[{"name":"용혁건설(주)","tel":"031-473-3828","addr":"경기도 수원시 팔달구 우만동 482-24번지","indutype":"용역 서비스 - 기타용역서비스","category":"other"}]},{"lat":"37.284017543","long":"127.02952811","imageIndex":17,"items":[{"name":"우리교육","tel":"070-8830-5881","addr":"경기도 수원시 팔달구 우만동 510-8번지 정진하이츠 1층 102호","indutype":"서적문구 - 기타서적문구","category":"other"}]},{"lat":"37.289486463","long":"127.03086075","imageIndex":17,"items":[{"name":"우만1동우편취급소","tel":"031-258-2000","addr":"경기도 수원시 팔달구 우만동 480-35번지","indutype":"용역 서비스 - 공공요금대행서비스/소","category":"other"},{"name":"험멜스포츠","tel":"031-251-2982","addr":"경기도 수원시 팔달구 우만동 480-35번지 1층","indutype":"레져용품 - 스포츠·레져용품","category":"other"}]},{"lat":"37.285260998","long":"127.0293594","imageIndex":17,"items":[{"name":"우만1동주민자치위원회","tel":"031-228-7892","addr":"경기도 수원시 팔달구 우만동 506 우민1길83","indutype":"문화.취미 - 문화취미기타","category":"other"}]},{"lat":"37.277878837","long":"127.03966261","imageIndex":17,"items":[{"name":"우만2동주민자치위원회","tel":"031-228-7907","addr":"경기도 수원시 팔달구 우만동 108-3중부대로207번길33","indutype":"문화.취미 - 문화취미기타","category":"other"}]},{"lat":"37.279565896","long":"127.03197338","imageIndex":17,"items":[{"name":"우암빌딩,블럭하우스","tel":"031-211-8182","addr":"경기도 수원시 팔달구 우만동 561-2번지","indutype":"서적문구 - 완구점","category":"other"},{"name":"코딩앤플레이","tel":"031-211-4131","addr":"경기도 수원시 팔달구 우만동 561-2번지 우암빌딩 302호 3층 302호,4층 402호","indutype":"서적문구 - 일반서적","category":"other"}]},{"lat":"37.282539243","long":"127.03214367","imageIndex":17,"items":[{"name":"우형상사","tel":"031-211-7351","addr":"경기도 수원시 팔달구 우만동 551-16번지","indutype":"신변잡화 - 기타잡화","category":"other"}]},{"lat":"37.289370301","long":"127.02639494","imageIndex":17,"items":[{"name":"원에어테크","tel":"031-252-0738","addr":"경기도 수원시 팔달구 우만동 593-3번지","indutype":"전기제품 - 냉열기기","category":"other"}]},{"lat":"37.287323491","long":"127.03294618","imageIndex":17,"items":[{"name":"월드골프","tel":"031-000-0000","addr":"경기도 수원시 팔달구 우만동 499-2번지 동명프라자 101호","indutype":"레져용품 - 골프용품 전문점","category":"other"},{"name":"플랜에이 수원월드컵센터","tel":"031-252-0979","addr":"경기도 수원시 팔달구 우만동 499-2번지 동명프라자 301호","indutype":"용역 서비스 - 사무서비스","category":"other"}]},{"lat":"37.28726053","long":"127.03250635","imageIndex":17,"items":[{"name":"월드바이크","tel":"031-243-7994","addr":"경기도 수원시 팔달구 우만동 499-21번지","indutype":"수리서비스 - 레져용품수리","category":"other"}]},{"lat":"37.285232563","long":"127.03503151","imageIndex":17,"items":[{"name":"월드컵","tel":"031-256-6883","addr":"경기도 수원시 팔달구 우만동 519-3번지","indutype":"유통업 영리 - 편 의 점","category":"other"}]},{"lat":"37.285486309","long":"127.0291114","imageIndex":17,"items":[{"name":"월드폰","tel":"031-305-7680","addr":"경기도 수원시 팔달구 우만동 491-42번지 1층","indutype":"사무통신 - 통신기기","category":"other"}]},{"lat":"37.278958947","long":"127.04311349","imageIndex":17,"items":[{"name":"월풀빨래방","tel":"031-212-8173","addr":"경기도 수원시 팔달구 우만동 59-1번지","indutype":"수리서비스 - 세탁소","category":"other"}]},{"lat":"37.28954095","long":"127.02900003","imageIndex":17,"items":[{"name":"위드미수원우만점","tel":"02-6916-1500","addr":"경기도 수원시 팔달구 우만동 469-17번지 누리하우스 1층","indutype":"유통업 영리 - 편 의 점","category":"other"}]},{"lat":"37.2887937","long":"127.02611283","imageIndex":17,"items":[{"name":"위생교육원동양주방인테리어","tel":"031-242-7799","addr":"경기도 수원시 팔달구 우만동 472-8번지 지하1층","indutype":"주방용구 - 주방용구","category":"other"}]},{"lat":"37.282593075","long":"127.03305706","imageIndex":17,"items":[{"name":"유영서란제리","tel":"070-8699-6992","addr":"경기도 수원시 팔달구 우만동 552-22번지","indutype":"의류 - 내의판매","category":"other"}]},{"lat":"37.290378691","long":"127.02994762","imageIndex":17,"items":[{"name":"윤하꽃직매장","tel":"031-252-5321","addr":"경기도 수원시 팔달구 우만동 466-13번지","indutype":"문화.취미 - 화원","category":"other"},{"name":"이지시스템","tel":"031-241-0119","addr":"경기도 수원시 팔달구 우만동 466-13번지 1층","indutype":"사무통신 - 컴퓨터","category":"other"}]},{"lat":"37.288369915","long":"127.02761255","imageIndex":17,"items":[{"name":"은성전력","tel":"031-892-6228","addr":"경기도 수원시 팔달구 우만동 475-4번지","indutype":"용역 서비스 - 기타용역서비스","category":"other"}]},{"lat":"37.285765005","long":"127.03178406","imageIndex":17,"items":[{"name":"이즈커뮤니케이션","tel":"070-4256-6737","addr":"경기도 수원시 팔달구 우만동 502-15번지 1층","indutype":"사무통신 - 컴퓨터","category":"other"}]},{"lat":"37.285260098","long":"127.03311451","imageIndex":17,"items":[{"name":"이화인테리어","tel":"031-246-5588","addr":"경기도 수원시 팔달구 우만동 516-8번지 1층","indutype":"직물 - 카페트,커튼,천막,지물","category":"other"}]},{"lat":"37.289514411","long":"127.02666564","imageIndex":17,"items":[{"name":"인천공항콜밴,VIP콜밴","tel":"031-307-5060","addr":"경기도 수원시 팔달구 우만동 593-6번지 2층","indutype":"여행 - 기타교통수단","category":"other"}]},{"lat":"37.287856187","long":"127.028289","imageIndex":17,"items":[{"name":"인포스","tel":"031-8015-5943","addr":"경기도 수원시 팔달구 우만동 475-26번지 대건빌라 A동 301호","indutype":"사무통신 - 통신기기","category":"other"}]},{"lat":"37.283377794","long":"127.0296181","imageIndex":17,"items":[{"name":"인피니다드(Infinidad)","tel":"031-225-3585","addr":"경기도 수원시 팔달구 우만동 509-7번지 1층","indutype":"사무통신 - 컴퓨터","category":"other"}]},{"lat":"37.286982472","long":"127.02694676","imageIndex":17,"items":[{"name":"일광전기조명","tel":"031-255-7971","addr":"경기도 수원시 팔달구 우만동 473-10번지","indutype":"건축자재 - 조명기구","category":"other"}]},{"lat":"37.287126151","long":"127.02922473","imageIndex":17,"items":[{"name":"임팩트유통","tel":"031-242-4827","addr":"경기도 수원시 팔달구 우만동 486-9번지 205호","indutype":"의류 - 스포츠의류","category":"other"}]},{"lat":"37.285620747","long":"127.03216741","imageIndex":17,"items":[{"name":"자연이주는선물들","tel":"031-248-1718","addr":"경기도 수원시 팔달구 우만동 515-1번지 송죽교회 1층","indutype":"신변잡화 - 기타잡화","category":"other"}]},{"lat":"37.289261894","long":"127.027782","imageIndex":17,"items":[{"name":"작은행복","tel":"02-111-1111","addr":"경기도 수원시 팔달구 우만동 471-3번지 1층","indutype":"의류 - 정장","category":"other"},{"name":"제일지물","tel":"031-257-5800","addr":"경기도 수원시 팔달구 우만동 471-3번지","indutype":"직물 - 카페트,커튼,천막,지물","category":"other"}]},{"lat":"37.289073073","long":"127.02583099","imageIndex":17,"items":[{"name":"장수구들옥돌침대","tel":"031-244-5997","addr":"경기도 수원시 팔달구 우만동 472-6번지 1층","indutype":"가구 - 일반가구","category":"other"}]},{"lat":"37.284322845","long":"127.03383582","imageIndex":17,"items":[{"name":"장안세탁소","tel":"031-256-0826","addr":"경기도 수원시 팔달구 우만동 521-21번지","indutype":"수리서비스 - 세탁소","category":"other"}]},{"lat":"37.289099955","long":"127.02658657","imageIndex":17,"items":[{"name":"장진주방냉동","tel":"031-296-3313","addr":"경기도 수원시 팔달구 우만동 595-6번지","indutype":"신변잡화 - 기타잡화","category":"other"}]},{"lat":"37.288738894","long":"127.02964255","imageIndex":17,"items":[{"name":"정광사","tel":"031-257-6343","addr":"경기도 수원시 팔달구 우만동 478-8번지","indutype":"기타 - 비영리/대상","category":"other"}]},{"lat":"37.289009543","long":"127.0280864","imageIndex":17,"items":[{"name":"제니스모바일","tel":"031-251-9993","addr":"경기도 수원시 팔달구 우만동 470-20번지 1층101","indutype":"사무통신 - 통신기기","category":"other"}]},{"lat":"37.290343032","long":"127.02822217","imageIndex":17,"items":[{"name":"제이블 (J-Bliss)","tel":"02-3472-4568","addr":"경기도 수원시 팔달구 우만동 585번지 501호","indutype":"의류 - 스포츠의류","category":"other"}]},{"lat":"37.287738742","long":"127.02969858","imageIndex":17,"items":[{"name":"제이앤비","tel":"031-248-6966","addr":"경기도 수원시 팔달구 우만동 484-20번지","indutype":"의류 - 기타의류","category":"other"}]},{"lat":"37.284178526","long":"127.03442214","imageIndex":17,"items":[{"name":"제이에스 어큐러티스(JS Accuratis)","tel":"031-252-3161","addr":"경기도 수원시 팔달구 우만동 532-7번지 2층","indutype":"신변잡화 - 기타잡화","category":"other"}]},{"lat":"37.283260661","long":"127.02961806","imageIndex":17,"items":[{"name":"제이엔(JN)스튜디오","tel":"031-254-3993","addr":"경기도 수원시 팔달구 우만동 509-9번지 성화빌라트 304호","indutype":"용역 서비스 - 종합용역","category":"other"}]},{"lat":"37.289180165","long":"127.03064637","imageIndex":17,"items":[{"name":"제이투피테크","tel":"070-8272-6698","addr":"경기도 수원시 팔달구 우만동 480-27번지","indutype":"사무통신 - 통신기기","category":"other"}]},{"lat":"37.288153265","long":"127.02947319","imageIndex":17,"items":[{"name":"제일상회","tel":"031-244-2797","addr":"경기도 수원시 팔달구 우만동 484-16번지","indutype":"의류 - 내의판매","category":"other"}]},{"lat":"37.282737259","long":"127.03297818","imageIndex":17,"items":[{"name":"조이애드","tel":"031-212-7479","addr":"경기도 수원시 팔달구 우만동 552-23번지","indutype":"용역 서비스 - 종합용역","category":"other"},{"name":"피부미인화장품","tel":"031-248-5003","addr":"경기도 수원시 팔달구 우만동 552-23번지","indutype":"회원제형태 - 기타4","category":"other"}]},{"lat":"37.282764762","long":"127.03106124","imageIndex":17,"items":[{"name":"주)한국복지라이프","tel":"031-251-1106","addr":"경기도 수원시 팔달구 우만동 527-21번지 센트럴하우스","indutype":"용역 서비스 - 가례서비스업","category":"other"},{"name":"효심코리아","tel":"","addr":"경기도 수원시 팔달구 우만동 527-21번지 센트럴하우스 1층","indutype":"용역 서비스 - 가례서비스업","category":"other"}]},{"lat":"37.278761332","long":"127.04127546","imageIndex":17,"items":[{"name":"주공보수","tel":"031-213-2434","addr":"경기도 수원시 팔달구 우만동 30-3번지 주공2단지아파트 복합상가 104호","indutype":"건축자재 - 목재·석재·철물","category":"other"},{"name":"크린토피아","tel":"031-211-5029","addr":"경기도 수원시 팔달구 우만동 30-3번지 101-1호","indutype":"수리서비스 - 세탁소","category":"other"},{"name":"하얀 세탁소","tel":"031-211-7679","addr":"경기도 수원시 팔달구 우만동 30-3번지","indutype":"수리서비스 - 세탁소","category":"other"}]},{"lat":"37.28782051","long":"127.02652978","imageIndex":17,"items":[{"name":"주식회사 귀뚜라미다올","tel":"031-202-8900","addr":"경기도 수원시 팔달구 우만동 473-2번지 201호","indutype":"전기제품 - 냉열기기","category":"other"},{"name":"창룡엔지니어링","tel":"031-221-6600","addr":"경기도 수원시 팔달구 우만동 473-2번지 101호","indutype":"수리서비스 - 가정용품수리","category":"other"}]},{"lat":"37.275237713","long":"127.04308896","imageIndex":17,"items":[{"name":"주식회사 아주대뮤즈","tel":"070-8612-9729","addr":"경기도 수원시 팔달구 우만동 81-5번지 마이온프라자 103호","indutype":"의류 - 정장","category":"other"}]},{"lat":"37.288954877","long":"127.03078162","imageIndex":17,"items":[{"name":"주식회사 이에이치아이","tel":"031-241-8580","addr":"경기도 수원시 팔달구 우만동 481-29번지 2층","indutype":"용역 서비스 - 소프트웨어","category":"other"}]},{"lat":"37.286234355","long":"127.02822079","imageIndex":17,"items":[{"name":"주식회사맑은세상건축인테리어","tel":"031-246-7997","addr":"경기도 수원시 팔달구 우만동 488-14번지 1층","indutype":"건축자재 - 인테리어전문","category":"other"}]},{"lat":"37.28662052","long":"127.03361123","imageIndex":17,"items":[{"name":"주식회사이엠씽크","tel":"031-782-5177","addr":"경기도 수원시 팔달구 우만동 518번지 유경프라자 B동 1505호","indutype":"용역 서비스 - 소프트웨어","category":"other"},{"name":"중부세무회계","tel":"031-243-3160","addr":"경기도 수원시 팔달구 우만동 518번지 유경빌딩 602호","indutype":"용역 서비스 - 법률회계서비스(개인)","category":"other"},{"name":"편의점사랑","tel":"031-837-5400","addr":"경기도 수원시 팔달구 우만동 518번지 유경프라자 1층","indutype":"유통업 영리 - 편 의 점","category":"other"}]},{"lat":"37.282430856","long":"127.03319231","imageIndex":17,"items":[{"name":"준골프","tel":"031-203-0880","addr":"경기도 수원시 팔달구 우만동 379-6번지 2층","indutype":"수리서비스 - 레져용품수리","category":"other"},{"name":"타샤의정원우만점","tel":"031-215-9611","addr":"경기도 수원시 팔달구 우만동 379-6번지 1층","indutype":"문화.취미 - 화원","category":"other"}]},{"lat":"37.288738723","long":"127.03038684","imageIndex":17,"items":[{"name":"준성가스프라자","tel":"031-247-3002","addr":"경기도 수원시 팔달구 우만동 482-17번지 1층 우측","indutype":"수리서비스 - 가정용품수리","category":"other"}]},{"lat":"37.27709574","long":"127.03700125","imageIndex":17,"items":[{"name":"준아트","tel":"031-216-7579","addr":"경기도 수원시 팔달구 우만동 139-5번지 1층 3호","indutype":"가구 - 기타가구","category":"other"}]},{"lat":"37.289153743","long":"127.02791729","imageIndex":17,"items":[{"name":"준포토","tel":"031-207-4880","addr":"경기도 수원시 팔달구 우만동 470번지","indutype":"광학제품 - 사진관","category":"other"},{"name":"충남열쇠","tel":"031-247-1600","addr":"경기도 수원시 팔달구 우만동 470번지","indutype":"기타 - 기계공구","category":"other"}]},{"lat":"37.288126345","long":"127.02897699","imageIndex":17,"items":[{"name":"중앙공인중개사사무소","tel":"031-247-4000","addr":"경기도 수원시 팔달구 우만동 476-20번지","indutype":"용역 서비스 - 부동산 중개·임대","category":"other"}]},{"lat":"37.289567574","long":"127.03078184","imageIndex":17,"items":[{"name":"중앙일보 연무센타","tel":"031-215-4887","addr":"경기도 수원시 팔달구 우만동 480-40번지 지하 좌측","indutype":"서적문구 - 정기간행물","category":"other"}]},{"lat":"37.278544363","long":"127.04344026","imageIndex":17,"items":[{"name":"쥬크라","tel":"031-217-1933","addr":"경기도 수원시 팔달구 우만동 573-8번지","indutype":"신변잡화 - 기타잡화","category":"other"}]},{"lat":"37.276571607","long":"127.04197341","imageIndex":17,"items":[{"name":"지저스 베베","tel":"031-216-0616","addr":"경기도 수원시 팔달구 우만동 89-1번지 101호","indutype":"의류 - 정장","category":"other"}]},{"lat":"37.283071262","long":"127.0304186","imageIndex":17,"items":[{"name":"진영","tel":"031-751-1577","addr":"경기도 수원시 팔달구 우만동 527-1번지","indutype":"문화.취미 - 화원","category":"other"}]},{"lat":"37.278517623","long":"127.0425833","imageIndex":17,"items":[{"name":"집현전정보센타","tel":"031-212-9203","addr":"경기도 수원시 팔달구 우만동 65-1번지 1층","indutype":"용역 서비스 - 사무서비스","category":"other"}]},{"lat":"37.279319247","long":"127.04344067","imageIndex":17,"items":[{"name":"찰칵스튜디오_수원본점","tel":"031-936-5299","addr":"경기도 수원시 팔달구 우만동 571-2번지 지하1층","indutype":"광학제품 - 사진관","category":"other"}]},{"lat":"37.288514031","long":"127.02783814","imageIndex":17,"items":[{"name":"참사랑 종합설비","tel":"031-111-1111","addr":"경기도 수원시 팔달구 우만동 475번지","indutype":"건축자재 - 인테리어전문","category":"other"}]},{"lat":"37.278932291","long":"127.04199718","imageIndex":17,"items":[{"name":"창고형핸드폰 수원아주대점","tel":"031-211-7444","addr":"경기도 수원시 팔달구 우만동 54번지 54오 2필지","indutype":"사무통신 - 통신기기","category":"other"}]},{"lat":"37.289261711","long":"127.02863906","imageIndex":17,"items":[{"name":"창조오토바이","tel":"031-252-2991","addr":"경기도 수원시 팔달구 우만동 469-13번지 상가","indutype":"수리서비스 - 기타수리서비스","category":"other"}]},{"lat":"37.283232573","long":"127.03394814","imageIndex":17,"items":[{"name":"책바라기","tel":"02-241-2582","addr":"경기도 수원시 팔달구 우만동 531-3번지 1층 2호","indutype":"서적문구 - 일반서적","category":"other"},{"name":"케이.앤.니트프로모숀","tel":"031-244-5195","addr":"경기도 수원시 팔달구 우만동 531-3번지","indutype":"의류 - 정장","category":"other"}]},{"lat":"37.288207462","long":"127.02886425","imageIndex":17,"items":[{"name":"천냥하우스","tel":"031-242-7118","addr":"경기도 수원시 팔달구 우만동 476-18번지 1층","indutype":"신변잡화 - 기타잡화","category":"other"}]},{"lat":"37.286260991","long":"127.03000253","imageIndex":17,"items":[{"name":"청명엔지니어링","tel":"031-255-7101","addr":"경기도 수원시 팔달구 우만동 493-19번지 해양빌딩 1층 104호","indutype":"기타 - 기타 전문점","category":"other"},{"name":"푸른교육센타","tel":"031-268-1337","addr":"경기도 수원시 팔달구 우만동 493-19번지","indutype":"용역 서비스 - 부동산 중개·임대","category":"other"}]},{"lat":"37.287378866","long":"127.02722881","imageIndex":17,"items":[{"name":"크리스탈샘물","tel":"031-241-1687","addr":"경기도 수원시 팔달구 우만동 473-20 현대쌍동이맨션 나 5/4","indutype":"유통업 영리 - 기타유통업","category":"other"}]},{"lat":"37.284485265","long":"127.0329225","imageIndex":17,"items":[{"name":"크린팡팡","tel":"031-268-9102","addr":"경기도 수원시 팔달구 우만동 522-16번지","indutype":"수리서비스 - 세탁소","category":"other"}]},{"lat":"37.279067822","long":"127.04083586","imageIndex":17,"items":[{"name":"클릭닷컴","tel":"031-216-8747","addr":"경기도 수원시 팔달구 우만동 47-2번지","indutype":"사무통신 - 컴퓨터","category":"other"}]},{"lat":"37.286017727","long":"127.02994606","imageIndex":17,"items":[{"name":"태영철물건재설비","tel":"031-252-0841","addr":"경기도 수원시 팔달구 우만동 493-12번지","indutype":"건축자재 - 목재·석재·철물","category":"other"}]},{"lat":"37.286793183","long":"127.02730756","imageIndex":17,"items":[{"name":"탱크아쿠아","tel":"031-1111-1111","addr":"경기도 수원시 팔달구 우만동 489-17번지 2층 좌측","indutype":"문화.취미 - 수족관","category":"other"}]},{"lat":"37.287846623","long":"127.03074738","imageIndex":17,"items":[{"name":"토이랜드","tel":"031-898-0333","addr":"경기도 수원시 팔달구 우만동 483-23번지 1층","indutype":"사무통신 - 기타 사무용품","category":"other"}]},{"lat":"37.275318901","long":"127.04280712","imageIndex":17,"items":[{"name":"토즈멤버십라운지 우만센터","tel":"031-216-7155","addr":"경기도 수원시 팔달구 우만동 88-3번지 용신빌딩 5층","indutype":"용역 서비스 - 사무서비스","category":"other"}]},{"lat":"37.277617826","long":"127.03872662","imageIndex":17,"items":[{"name":"투비","tel":"031-215-2174","addr":"경기도 수원시 팔달구 우만동 136-16번지 신세계빌라 A동 101호","indutype":"회원제형태 - 기타4","category":"other"}]},{"lat":"37.27876061","long":"127.04344037","imageIndex":17,"items":[{"name":"특별한사진관","tel":"031-212-3533","addr":"경기도 수원시 팔달구 우만동 573-6번지 2층","indutype":"광학제품 - 사진관","category":"other"}]},{"lat":"37.27978877","long":"127.04044157","imageIndex":17,"items":[{"name":"틈","tel":"","addr":"경기도 수원시 팔달구 우만동 39-5번지 101호","indutype":"문화.취미 - 민예·공예품","category":"other"}]},{"lat":"37.2795986","long":"127.04333934","imageIndex":17,"items":[{"name":"팝스스터디카페","tel":"02-1644-4529","addr":"경기도 수원시 팔달구 우만동 58-32번지 301호","indutype":"용역 서비스 - 사무서비스","category":"other"}]},{"lat":"37.285323136","long":"127.03324985","imageIndex":17,"items":[{"name":"퍼플하우스","tel":"031-245-7257","addr":"경기도 수원시 팔달구 우만동 516-7번지","indutype":"회원제형태 - 기타4","category":"other"}]},{"lat":"37.281899993","long":"127.03013628","imageIndex":17,"items":[{"name":"포레스트힐 스튜디오","tel":"070-5031-0327","addr":"경기도 수원시 팔달구 우만동 549번지 2층","indutype":"광학제품 - 사진관","category":"other"}]},{"lat":"37.287458679","long":"127.03281091","imageIndex":17,"items":[{"name":"포토픽스수원점","tel":"031-243-3996","addr":"경기도 수원시 팔달구 우만동 499번지","indutype":"광학제품 - 사진관","category":"other"}]},{"lat":"37.289262319","long":"127.02567316","imageIndex":17,"items":[{"name":"프리마웨딩","tel":"031-241-3003","addr":"경기도 수원시 팔달구 우만동 598-23번지","indutype":"회원제형태 - 기타4","category":"other"}]},{"lat":"37.283791248","long":"127.03380178","imageIndex":17,"items":[{"name":"프리저브드플라워 그니보니따","tel":"031-000-0000","addr":"경기도 수원시 팔달구 우만동 532-23번지 1층","indutype":"문화.취미 - 문화취미기타","category":"other"}]},{"lat":"37.279185681","long":"127.03850185","imageIndex":17,"items":[{"name":"피앤씨 이앤지","tel":"031-1111-1111","addr":"경기도 수원시 팔달구 우만동 120-5번지 소망빌라 A동 201호","indutype":"건축자재 - 인테리어전문","category":"other"}]},{"lat":"37.28268355","long":"127.03155736","imageIndex":17,"items":[{"name":"피앤씨종합상사","tel":"031-246-5237","addr":"경기도 수원시 팔달구 우만동 529-8번지","indutype":"신변잡화 - 기타잡화","category":"other"}]},{"lat":"37.283629157","long":"127.03344087","imageIndex":17,"items":[{"name":"핑크레이디","tel":"031-247-9097","addr":"경기도 수원시 팔달구 우만동 523-27번지","indutype":"의류 - 정장","category":"other"}]},{"lat":"37.284684001","long":"127.03083642","imageIndex":17,"items":[{"name":"하나건축설비","tel":"031-8002-4544","addr":"경기도 수원시 팔달구 우만동 512-2번지","indutype":"건축자재 - 인테리어전문","category":"other"}]},{"lat":"37.288234078","long":"127.03069113","imageIndex":17,"items":[{"name":"하나인테리어","tel":"031-253-3753","addr":"경기도 수원시 팔달구 우만동 482-22번지","indutype":"건축자재 - 인테리어전문","category":"other"}]},{"lat":"37.279322693","long":"127.03166884","imageIndex":17,"items":[{"name":"하우스터디월드센터모임공간","tel":"031-212-0903","addr":"경기도 수원시 팔달구 우만동 561-8번지 아이월드 가동 5층 503호","indutype":"용역 서비스 - 사무서비스","category":"other"}]},{"lat":"37.286738276","long":"127.03110783","imageIndex":17,"items":[{"name":"하이솔루션","tel":"031-244-1799","addr":"경기도 수원시 팔달구 우만동 495-23번지","indutype":"사무통신 - 컴퓨터","category":"other"}]},{"lat":"37.288982783","long":"127.02677824","imageIndex":17,"items":[{"name":"한결인테리어","tel":"031-247-7782","addr":"경기도 수원시 팔달구 우만동 471-27번지","indutype":"건축자재 - 인테리어전문","category":"other"}]},{"lat":"37.284872811","long":"127.03250542","imageIndex":17,"items":[{"name":"핫스타일도그샵","tel":"031-255-6075","addr":"경기도 수원시 팔달구 우만동 515-22번지","indutype":"문화.취미 - 애완동물","category":"other"}]},{"lat":"37.289261234","long":"127.0307479","imageIndex":17,"items":[{"name":"해담철물","tel":"031-306-9777","addr":"경기도 수원시 팔달구 우만동 480-31번지","indutype":"건축자재 - 목재·석재·철물","category":"other"}]},{"lat":"37.289342998","long":"127.02772564","imageIndex":17,"items":[{"name":"행복한 DC아울렛","tel":"031-254-7339","addr":"경기도 수원시 팔달구 우만동 471-2번지 1층","indutype":"신변잡화 - 기타잡화","category":"other"}]},{"lat":"37.278519069","long":"127.03800541","imageIndex":17,"items":[{"name":"헤펠레DIY목공방","tel":"031-890-0901","addr":"경기도 수원시 팔달구 우만동 134-5번지","indutype":"건축자재 - 인테리어전문","category":"other"}]},{"lat":"37.289955806","long":"127.02719581","imageIndex":17,"items":[{"name":"현대마린","tel":"031-251-5764","addr":"경기도 수원시 팔달구 우만동 587-16번지","indutype":"전기제품 - 냉열기기","category":"other"}]},{"lat":"37.2814583","long":"127.03094799","imageIndex":17,"items":[{"name":"현대살수","tel":"031-241-8143","addr":"경기도 수원시 팔달구 우만동 556-4번지 102호","indutype":"용역 서비스 - 기타용역서비스","category":"other"}]},{"lat":"37.284403902","long":"127.03397118","imageIndex":17,"items":[{"name":"현인테리어","tel":"031-241-5721","addr":"경기도 수원시 팔달구 우만동 521-14번지","indutype":"건축자재 - 인테리어전문","category":"other"}]},{"lat":"37.286017198","long":"127.03216757","imageIndex":17,"items":[{"name":"호우공방","tel":"","addr":"경기도 수원시 팔달구 우만동 501-12번지 1층","indutype":"문화.취미 - 민예·공예품","category":"other"}]},{"lat":"37.282287421","long":"127.0301928","imageIndex":17,"items":[{"name":"화홍플라워","tel":"031-224-7080","addr":"경기도 수원시 팔달구 우만동 528-17번지 1층","indutype":"문화.취미 - 화원","category":"other"}]},{"lat":"37.287405288","long":"127.03002549","imageIndex":17,"items":[{"name":"황금당","tel":"031-243-9622","addr":"경기도 수원시 팔달구 우만동 484-24번지","indutype":"신변잡화 - 시계","category":"other"}]},{"lat":"37.289676834","long":"127.02544774","imageIndex":17,"items":[{"name":"황토우드","tel":"031-245-1669","addr":"경기도 수원시 팔달구 우만동 598-17번지","indutype":"주방용구 - 주방용구","category":"other"}]},{"lat":"37.284097676","long":"127.03349744","imageIndex":17,"items":[{"name":"효원사진관","tel":"031-245-9126","addr":"경기도 수원시 팔달구 우만동 522-25번지","indutype":"광학제품 - 사진관","category":"other"}]},{"lat":"37.277012559","long":"127.04360857","imageIndex":17,"items":[{"name":"휘트니스클럽S아주대점","tel":"031-8031-9688","addr":"경기도 수원시 팔달구 우만동 577-1번지","indutype":"회원제형태 - 레져업소","category":"other"}]},{"lat":"37.293512934","long":"127.03522676","imageIndex":17,"items":[{"name":"희망가스/삼원(담배)","tel":"031-251-0707","addr":"경기도 수원시 팔달구 우만동 241-3","indutype":"기타 - 기타 전문점","category":"other"}]}]