[{"lat":"38.016818114","long":"127.3703069","imageIndex":4,"items":[{"name":"상록수한정식","tel":"535-9185","addr":"경기도 포천시 이동면 연곡리 860-7번지","indutype":"음식 - 한식","category":"restaurant"},{"name":"상록수한정식","tel":"031-595-9185","addr":"경기도 포천시 이동면 연곡리 860-7","indutype":"일반휴게음식 - 일반한식","category":"restaurant"}]},{"lat":"38.000597103","long":"127.36306468","imageIndex":4,"items":[{"name":"옛날식당","tel":"532-4647","addr":"경기도 포천시 이동면 연곡리 1121번지","indutype":"음식 - 한식","category":"restaurant"},{"name":"옛날식당","tel":"031-532-4647","addr":"경기도 포천시 이동면 연곡리 1121번지","indutype":"일반휴게음식 - 일반한식","category":"restaurant"}]},{"lat":"38.01673296","long":"127.36872359","imageIndex":4,"items":[{"name":"옛날짜장","tel":"031-533-4981","addr":"경기도 포천시 이동면 연곡리 878-10번지","indutype":"일반휴게음식 - 중국식","category":"restaurant"},{"name":"옛날짜장","tel":"533-4981","addr":"경기도 포천시 이동면 연곡리 878-10번지","indutype":"음식 - 중식","category":"restaurant"}]},{"lat":"38.019350518","long":"127.37003484","imageIndex":4,"items":[{"name":"전주가마솥곰탕","tel":"532-5392","addr":"경기도 포천시 이동면 연곡리 865-2번지","indutype":"음식 - 한식","category":"restaurant"},{"name":"전주가마솥곰탕","tel":"031-532-5392","addr":"경기도 포천시 이동면 연곡리 865-2번지","indutype":"일반휴게음식 - 일반한식","category":"restaurant"}]},{"lat":"38.023544991","long":"127.3881069","imageIndex":4,"items":[{"name":"제7862부대","tel":"","addr":"경기도 포천시 이동면 연곡리 20번지","indutype":"일반휴게음식 - 서양음식","category":"restaurant"},{"name":"제7862부대 일동회관","tel":"","addr":"경기도 포천시 이동면 연곡리 20번지","indutype":"일반휴게음식 - 서양음식","category":"restaurant"}]},{"lat":"38.015516645","long":"127.3687517","imageIndex":4,"items":[{"name":"짬뽕명가경복궁","tel":"","addr":"경기도 포천시 이동면 연곡리 847-19번지","indutype":"음식 - 중식","category":"restaurant"},{"name":"화궁","tel":"031-533-1661","addr":"경기도 포천시 이동면 연곡리 847-19번지 1층","indutype":"일반휴게음식 - 중국식","category":"restaurant"}]},{"lat":"38.014843274","long":"127.36800818","imageIndex":4,"items":[{"name":"참이맛","tel":"031-532-4678","addr":"경기도 포천시 이동면 연곡리 829-1번지 가동 1층","indutype":"일반휴게음식 - 일반한식","category":"restaurant"},{"name":"참이맛 감자탕","tel":"532-4678","addr":"경기도 포천시 이동면 연곡리 829-1번지","indutype":"음식 - 한식","category":"restaurant"}]}]