[{"lat":"36.996996588","long":"127.24957788","imageIndex":4,"items":[{"name":"(주)더에이더블유","tel":"031-667-7800","addr":"경기도 안성시 도기동 505-13번지","indutype":"일반휴게음식 - 일반한식","category":"restaurant"}]},{"lat":"37.003080393","long":"127.26562952","imageIndex":4,"items":[{"name":"가자춘천닭갈비","tel":"031-672-1692","addr":"경기도 안성시 도기동 544-265번지","indutype":"일반휴게음식 - 일반한식","category":"restaurant"}]},{"lat":"36.998774199","long":"127.26926579","imageIndex":4,"items":[{"name":"광수네","tel":"031-673-3565","addr":"경기도 안성시 도기동 42-6번지","indutype":"일반휴게음식 - 일반한식","category":"restaurant"},{"name":"와이탄","tel":"031-0000-0000","addr":"경기도 안성시 도기동 42-6번지 1층 2호","indutype":"일반휴게음식 - 중국식","category":"restaurant"}]},{"lat":"37.000551552","long":"127.2682609","imageIndex":4,"items":[{"name":"노걸대 위드유 안성점","tel":"031-677-2651","addr":"경기도 안성시 도기동 18-4번지 1층","indutype":"일반휴게음식 - 일반한식","category":"restaurant"}]},{"lat":"36.994583485","long":"127.26959942","imageIndex":4,"items":[{"name":"녹원","tel":"031-674-6202","addr":"경기도 안성시 도기동 205-1번지","indutype":"일반휴게음식 - 일반한식","category":"restaurant"}]},{"lat":"37.003882833","long":"127.26540759","imageIndex":4,"items":[{"name":"닻별","tel":"031-675-6725","addr":"경기도 안성시 도기동 140-2번지 1층","indutype":"일반휴게음식 - 서양음식","category":"restaurant"}]},{"lat":"36.999361147","long":"127.26870613","imageIndex":4,"items":[{"name":"대물림안성장터국밥","tel":"031-674-9494","addr":"경기도 안성시 도기동 20-2번지","indutype":"일반휴게음식 - 일반한식","category":"restaurant"}]},{"lat":"36.996607167","long":"127.25052027","imageIndex":4,"items":[{"name":"더에이더블유웨딩컨벤션","tel":"031-677-7800","addr":"경기도 안성시 도기동 505-29번지","indutype":"일반휴게음식 - 일반한식","category":"restaurant"},{"name":"하정가(  )","tel":"","addr":"경기도 안성시 도기동 505-29번지 1층","indutype":"일반휴게음식 - 일반한식","category":"restaurant"}]},{"lat":"37.003136863","long":"127.26453995","imageIndex":4,"items":[{"name":"도기동커피","tel":"","addr":"경기도 안성시 도기동 544-100번지","indutype":"일반휴게음식 - 서양음식","category":"restaurant"}]},{"lat":"37.000884617","long":"127.26840811","imageIndex":4,"items":[{"name":"맛대로한우방","tel":"031-674-9984","addr":"경기도 안성시 도기동 62번지 B동 1층","indutype":"일반휴게음식 - 일반한식","category":"restaurant"},{"name":"명성추어탕","tel":"031-671-3305","addr":"경기도 안성시 도기동 62번지","indutype":"일반휴게음식 - 일반한식","category":"restaurant"},{"name":"여수갈매기","tel":"031-675-2265","addr":"경기도 안성시 도기동 62번지 A동","indutype":"일반휴게음식 - 일반한식","category":"restaurant"},{"name":"조가네","tel":"031-674-0789","addr":"경기도 안성시 도기동 62번지","indutype":"일반휴게음식 - 일반한식","category":"restaurant"}]},{"lat":"37.003192213","long":"127.26395593","imageIndex":4,"items":[{"name":"명동배달횟집","tel":"031-671-8489","addr":"경기도 안성시 도기동 147-1번지","indutype":"일반휴게음식 - 일식·회집","category":"restaurant"},{"name":"안성양꼬치","tel":"031-8052-6288","addr":"경기도 안성시 도기동 147-1번지 C동 2층","indutype":"일반휴게음식 - 중국식","category":"restaurant"},{"name":"월남쌈자연향","tel":"031-676-3433","addr":"경기도 안성시 도기동 147-1번지","indutype":"일반휴게음식 - 일반한식","category":"restaurant"}]},{"lat":"36.996969554","long":"127.26226081","imageIndex":4,"items":[{"name":"모모치킨","tel":"031-676-3351","addr":"경기도 안성시 도기동 427-4번지","indutype":"일반휴게음식 - 스넥","category":"restaurant"}]},{"lat":"37.003247116","long":"127.26357413","imageIndex":4,"items":[{"name":"몽마르뜨","tel":"031-674-5854","addr":"경기도 안성시 도기동 147-7번지 가동 2층","indutype":"일반휴게음식 - 일반한식","category":"restaurant"},{"name":"몽마르뜨","tel":"031-677-4808","addr":"경기도 안성시 도기동 147-7번지","indutype":"일반휴게음식 - 일반한식","category":"restaurant"}]},{"lat":"36.99808076","long":"127.26909487","imageIndex":4,"items":[{"name":"백두산숯불갈비","tel":"031-675-7779","addr":"경기도 안성시 도기동 73-1번지","indutype":"일반휴게음식 - 일반한식","category":"restaurant"}]},{"lat":"37.00063636","long":"127.27062042","imageIndex":4,"items":[{"name":"백운동해매운탕","tel":"031-676-1668","addr":"경기도 안성시 도기동 58-6번지","indutype":"일반휴게음식 - 일반한식","category":"restaurant"}]},{"lat":"36.992025203","long":"127.26926472","imageIndex":4,"items":[{"name":"병천토종순대&수육국밥","tel":"031-676-4578","addr":"경기도 안성시 도기동 210번지 지하1층","indutype":"일반휴게음식 - 일반한식","category":"restaurant"}]},{"lat":"37.003722057","long":"127.26476665","imageIndex":4,"items":[{"name":"보나뻬띠","tel":"070-7077-8308","addr":"경기도 안성시 도기동 137-54번지 1층 101호","indutype":"일반휴게음식 - 서양음식","category":"restaurant"}]},{"lat":"37.000383988","long":"127.27065323","imageIndex":4,"items":[{"name":"본가장수촌","tel":"031-673-2732","addr":"경기도 안성시 도기동 58-10번지 A동","indutype":"일반휴게음식 - 일반한식","category":"restaurant"}]},{"lat":"37.000381779","long":"127.27163062","imageIndex":4,"items":[{"name":"산골염생이","tel":"031-675-2134","addr":"경기도 안성시 도기동 55-6번지 1층","indutype":"일반휴게음식 - 일반한식","category":"restaurant"}]},{"lat":"36.999555392","long":"127.27048182","imageIndex":4,"items":[{"name":"쇠전골","tel":"031-676-7872","addr":"경기도 안성시 도기동 216번지","indutype":"일반휴게음식 - 일반한식","category":"restaurant"}]},{"lat":"36.998250701","long":"127.26965716","imageIndex":4,"items":[{"name":"수가성","tel":"031-675-4980","addr":"경기도 안성시 도기동 52-3번지 1층 우측호","indutype":"일반휴게음식 - 일반한식","category":"restaurant"},{"name":"황금코다리","tel":"031-675-4980","addr":"경기도 안성시 도기동 52-3번지","indutype":"일반휴게음식 - 일반한식","category":"restaurant"}]},{"lat":"37.00349803","long":"127.26420414","imageIndex":4,"items":[{"name":"안성족발","tel":"031-674-5533","addr":"경기도 안성시 도기동 145번지","indutype":"일반휴게음식 - 일반한식","category":"restaurant"}]},{"lat":"36.998333687","long":"127.2688149","imageIndex":4,"items":[{"name":"알디라카페","tel":"031-674-0789","addr":"경기도 안성시 도기동 40-5번지 1층","indutype":"일반휴게음식 - 서양음식","category":"restaurant"}]},{"lat":"36.996632979","long":"127.25110451","imageIndex":4,"items":[{"name":"알미산식당","tel":"","addr":"경기도 안성시 도기동 502-3번지 1층","indutype":"일반휴게음식 - 일반한식","category":"restaurant"}]},{"lat":"37.004749042","long":"127.26487129","imageIndex":4,"items":[{"name":"알부자집","tel":"031-674-3566","addr":"경기도 안성시 도기동 544-72번지","indutype":"일반휴게음식 - 일반한식","category":"restaurant"}]},{"lat":"36.99671857","long":"127.26979785","imageIndex":4,"items":[{"name":"오!꼬마김밥","tel":"031-671-2555","addr":"경기도 안성시 도기동 92-4번지","indutype":"일반휴게음식 - 일반한식","category":"restaurant"},{"name":"전주콩나물해장국","tel":"031-674-0642","addr":"경기도 안성시 도기동 92-4번지","indutype":"일반휴게음식 - 일반한식","category":"restaurant"}]},{"lat":"36.998078166","long":"127.24943534","imageIndex":4,"items":[{"name":"오르세카페","tel":"031-677-0785","addr":"경기도 안성시 도기동 505-7번지 1층","indutype":"일반휴게음식 - 서양음식","category":"restaurant"}]},{"lat":"37.003414406","long":"127.2653498","imageIndex":4,"items":[{"name":"오리일번지","tel":"031-677-5282","addr":"경기도 안성시 도기동 137-37번지","indutype":"일반휴게음식 - 일반한식","category":"restaurant"},{"name":"정가네숯불소갈비살","tel":"031-671-2223","addr":"경기도 안성시 도기동 137-37번지 1층","indutype":"일반휴게음식 - 일반한식","category":"restaurant"},{"name":"희영식당","tel":"031-673-6633","addr":"경기도 안성시 도기동 137-37번지","indutype":"일반휴게음식 - 일반한식","category":"restaurant"}]},{"lat":"36.991495012","long":"127.26862259","imageIndex":4,"items":[{"name":"우리막창","tel":"031-677-9191","addr":"경기도 안성시 도기동 278-3번지 가동 1층","indutype":"일반휴게음식 - 일반한식","category":"restaurant"},{"name":"육대장","tel":"031-671-6670","addr":"경기도 안성시 도기동 278-3번지 나동 1층","indutype":"일반휴게음식 - 일반한식","category":"restaurant"}]},{"lat":"37.004270736","long":"127.26520669","imageIndex":4,"items":[{"name":"우미관","tel":"031-676-8803","addr":"경기도 안성시 도기동 139-14번지","indutype":"일반휴게음식 - 중국식","category":"restaurant"}]},{"lat":"36.998384065","long":"127.27045524","imageIndex":4,"items":[{"name":"우미옥","tel":"031-675-2377","addr":"경기도 안성시 도기동 222번지","indutype":"일반휴게음식 - 일반한식","category":"restaurant"}]},{"lat":"37.000748729","long":"127.26873343","imageIndex":4,"items":[{"name":"이모네닭칼국수사골손만두국","tel":"031-676-1337","addr":"경기도 안성시 도기동 62-1번지 B동 1층","indutype":"일반휴게음식 - 일반한식","category":"restaurant"}]},{"lat":"36.994826645","long":"127.26965643","imageIndex":4,"items":[{"name":"임희수맛집","tel":"031-642-8113","addr":"경기도 안성시 도기동 206-2번지","indutype":"일반휴게음식 - 일반한식","category":"restaurant"}]},{"lat":"37.003440767","long":"127.26565323","imageIndex":4,"items":[{"name":"처갓집양념치킨 안성점","tel":"031-671-9282","addr":"경기도 안성시 도기동 137-42번지","indutype":"일반휴게음식 - 스넥","category":"restaurant"},{"name":"처갓집양념치킨안성점","tel":"031-671-9282","addr":"경기도 안성시 도기동 137-42번지","indutype":"일반휴게음식 - 스넥","category":"restaurant"}]},{"lat":"37.000854739","long":"127.26967749","imageIndex":4,"items":[{"name":"촌장과시인","tel":"031-674-8225","addr":"경기도 안성시 도기동 59-11번지 2층","indutype":"일반휴게음식 - 일반한식","category":"restaurant"}]},{"lat":"36.998577401","long":"127.26862477","imageIndex":4,"items":[{"name":"큰대문집","tel":"031-674-4676","addr":"경기도 안성시 도기동 40-3번지 1층","indutype":"일반휴게음식 - 일반한식","category":"restaurant"}]},{"lat":"37.004243133","long":"127.265465","imageIndex":4,"items":[{"name":"팔팔해물아귀","tel":"031-675-5674","addr":"경기도 안성시 도기동 139-8번지 1층","indutype":"일반휴게음식 - 일반한식","category":"restaurant"}]}]