[{"lat":"37.09204563","long":"127.46727255","imageIndex":7,"items":[{"name":"동궁푸드","tel":"033-648-1112","addr":"경기도 안성시 일죽면 송천리 499번지 국영빌라 나동 1층 101호","indutype":"음료식품 - 정육점","category":"food"}]},{"lat":"37.094020598","long":"127.47596812","imageIndex":7,"items":[{"name":"명산건강원","tel":"031-673-6565","addr":"경기도 안성시 일죽면 송천리 42번지","indutype":"건강식품 - 기타건강식품","category":"food"},{"name":"픽스잇커피유통","tel":"","addr":"경기도 안성시 일죽면 송천리 42번지 명성빌딩 303호","indutype":"음료식품 - 기타음료식품","category":"food"}]},{"lat":"37.086851369","long":"127.46604867","imageIndex":7,"items":[{"name":"반석미트","tel":"031-677-9545","addr":"경기도 안성시 일죽면 송천리 447번지 1층","indutype":"음료식품 - 정육점","category":"food"}]},{"lat":"37.091824501","long":"127.47760789","imageIndex":7,"items":[{"name":"복떡집","tel":"070-4922-1261","addr":"경기도 안성시 일죽면 송천리 249-6번지 1층","indutype":"음료식품 - 제과점","category":"food"}]},{"lat":"37.093822974","long":"127.47807028","imageIndex":7,"items":[{"name":"삼성원정육점","tel":"031-672-5070","addr":"경기도 안성시 일죽면 송천리 28-12번지","indutype":"음료식품 - 정육점","category":"food"}]},{"lat":"37.091102443","long":"127.47565754","imageIndex":7,"items":[{"name":"시루떡방아간","tel":"031-677-8979","addr":"경기도 안성시 일죽면 송천리 240-3번지 1층","indutype":"음료식품 - 제과점","category":"food"}]},{"lat":"37.093460761","long":"127.47851794","imageIndex":7,"items":[{"name":"오산","tel":"031-674-7666","addr":"경기도 안성시 일죽면 송천리 20-10","indutype":"음료식품 - 정육점","category":"food"}]},{"lat":"37.089854989","long":"127.47666207","imageIndex":7,"items":[{"name":"일죽농협경제부","tel":"031-674-9684","addr":"경기도 안성시 일죽면 송천리 253-12","indutype":"음료식품 - 농·축·수산품","category":"food"}]},{"lat":"37.093875132","long":"127.47629341","imageIndex":7,"items":[{"name":"일죽양돈영농조합법인","tel":"031-674-1335","addr":"경기도 안성시 일죽면 송천리 23-6번지","indutype":"음료식품 - 정육점","category":"food"}]},{"lat":"37.094521187","long":"127.47243931","imageIndex":7,"items":[{"name":"조박사 농원","tel":"031-672-5338","addr":"경기도 안성시 일죽면 송천리 76-2","indutype":"음료식품 - 농·축·수산품","category":"food"}]},{"lat":"37.089681681","long":"127.47718962","imageIndex":7,"items":[{"name":"커피로스터스 짙은","tel":"","addr":"경기도 안성시 일죽면 송천리 256-16번지","indutype":"음료식품 - 기타음료식품","category":"food"}]},{"lat":"37.093627856","long":"127.47729295","imageIndex":7,"items":[{"name":"파리바게뜨","tel":"031-674-2599","addr":"경기도 안성시 일죽면 송천리 21-6번지","indutype":"음료식품 - 제과점","category":"food"}]},{"lat":"37.093020251","long":"127.47826773","imageIndex":7,"items":[{"name":"한우리축산","tel":"031-671-2054","addr":"경기도 안성시 일죽면 송천리 18-22번지","indutype":"음료식품 - 정육점","category":"food"}]}]