[{"lat":"37.225099522","long":"126.85469021","imageIndex":0,"items":[{"name":"SK네트웍스","tel":"031-357-9893","addr":"경기도 화성시 비봉면 양노리 637-7번지","indutype":"자동차정비 유지 - 자동차부품","category":"car"}]},{"lat":"37.21791018","long":"126.8706915","imageIndex":0,"items":[{"name":"경은기업","tel":"031-355-6928","addr":"경기도 화성시 비봉면 양노리 757-5번지","indutype":"자동차정비 유지 - 자동차부품","category":"car"}]},{"lat":"37.235573648","long":"126.86557827","imageIndex":0,"items":[{"name":"금강자동차유리","tel":"031-501-9494","addr":"경기도 화성시 비봉면 양노리 301-6번지","indutype":"자동차정비 유지 - 자동차부품","category":"car"}]},{"lat":"37.223853091","long":"126.85957144","imageIndex":0,"items":[{"name":"금호ENG","tel":"031-357-8468","addr":"경기도 화성시 비봉면 양노리 748-6번지","indutype":"자동차정비 유지 - 자동차시트·타이어","category":"car"}]},{"lat":"37.226048876","long":"126.857325","imageIndex":0,"items":[{"name":"배터리 총판","tel":"031-356-4422","addr":"경기도 화성시 비봉면 양노리 633-4번지","indutype":"자동차정비 유지 - 자동차부품","category":"car"}]},{"lat":"37.235210749","long":"126.87132618","imageIndex":0,"items":[{"name":"비봉현대카센타","tel":"031-366-8253","addr":"경기도 화성시 비봉면 양노리 277-1번지","indutype":"자동차정비 유지 - 자동차정비","category":"car"}]},{"lat":"37.220739011","long":"126.86249548","imageIndex":0,"items":[{"name":"에너지원플러스","tel":"070-7628-0827","addr":"경기도 화성시 비봉면 양노리 723-18번지 D동","indutype":"자동차정비 유지 - 윤활유 전문 판매","category":"car"}]},{"lat":"37.222381835","long":"126.85030131","imageIndex":0,"items":[{"name":"에스씨(SC)중공업","tel":"031-356-9639","addr":"경기도 화성시 비봉면 양노리 646-9번지","indutype":"자동차정비 유지 - 중장비수리","category":"car"}]},{"lat":"37.216099843","long":"126.85602597","imageIndex":0,"items":[{"name":"와이 (Y)특장","tel":"031-357-4487","addr":"경기도 화성시 비봉면 양노리 707-5번지","indutype":"자동차정비 유지 - 자동차정비","category":"car"}]},{"lat":"37.235326424","long":"126.87001876","imageIndex":0,"items":[{"name":"우리특수레카","tel":"031-356-0473","addr":"경기도 화성시 비봉면 양노리 280-39번지","indutype":"자동차정비 유지 - 견인서비스","category":"car"}]},{"lat":"37.216820481","long":"126.87118912","imageIndex":0,"items":[{"name":"월드모터스","tel":"031-357-6886","addr":"경기도 화성시 비봉면 양노리 760번지 1층","indutype":"자동차정비 유지 - 자동차정비","category":"car"},{"name":"현정상사","tel":"","addr":"경기도 화성시 비봉면 양노리 760번지","indutype":"자동차정비 유지 - 자동차부품","category":"car"}]},{"lat":"37.236213511","long":"126.8656898","imageIndex":0,"items":[{"name":"제이와이(JY)비봉카닥터","tel":"031-355-8753","addr":"경기도 화성시 비봉면 양노리 810-2번지 1층 101호","indutype":"자동차정비 유지 - 자동차정비","category":"car"}]},{"lat":"37.224767796","long":"126.85602043","imageIndex":0,"items":[{"name":"주식회사비봉대형공업사","tel":"031-355-3451","addr":"경기도 화성시 비봉면 양노리 679","indutype":"자동차정비 유지 - 자동차정비","category":"car"}]},{"lat":"37.222934303","long":"126.85251986","imageIndex":0,"items":[{"name":"중기짱","tel":"0502-088-8888","addr":"경기도 화성시 비봉면 양노리 656","indutype":"자동차정비 유지 - 자동차부품","category":"car"}]},{"lat":"37.237151356","long":"126.87441063","imageIndex":0,"items":[{"name":"카앤피플 화성6호점","tel":"","addr":"경기도 화성시 비봉면 양노리 256-6번지 진보상가빌라 403호","indutype":"자동차정비 유지 - 세차장","category":"car"},{"name":"카앤피플 화성6호지점","tel":"","addr":"경기도 화성시 비봉면 양노리 256-6번지 진보상가빌라 403호","indutype":"자동차정비 유지 - 세차장","category":"car"}]},{"lat":"37.230546205","long":"126.87388095","imageIndex":0,"items":[{"name":"플러스오일","tel":"031-356-3447","addr":"경기도 화성시 비봉면 양노리 155-15번지","indutype":"자동차정비 유지 - 윤활유 전문 판매","category":"car"}]},{"lat":"37.224632404","long":"126.85582914","imageIndex":0,"items":[{"name":"화성모터스","tel":"031-223-5214","addr":"경기도 화성시 비봉면 양노리 678번지","indutype":"자동차정비 유지 - 자동차정비","category":"car"},{"name":"화성모터스","tel":"031-356-3388","addr":"경기도 화성시 비봉면 양노리 678","indutype":"자동차정비 유지 - 자동차정비","category":"car"}]},{"lat":"37.225770205","long":"126.85785512","imageIndex":0,"items":[{"name":"화성트럭","tel":"031-8077-2220","addr":"경기도 화성시 비봉면 양노리 686번지","indutype":"자동차판매 - 중고자동차판매","category":"car"}]}]