[{"lat":"37.007520183","long":"127.26265619","imageIndex":4,"items":[{"name":"BBQ","tel":"031-675-8008","addr":"경기도 안성시 아양동 300-1아양주공상가103","indutype":"일반휴게음식 - 스넥","category":"restaurant"},{"name":"한라 회 수산","tel":"031-671-8509","addr":"경기도 안성시 아양동 300-1번지 아양1차아파트 108호","indutype":"일반휴게음식 - 일식·회집","category":"restaurant"}]},{"lat":"37.006830192","long":"127.26501325","imageIndex":4,"items":[{"name":"더만나스토리(The만나Story)","tel":"031-676-9279","addr":"경기도 안성시 아양동 278-2번지","indutype":"일반휴게음식 - 일반한식","category":"restaurant"}]},{"lat":"37.005497764","long":"127.26449186","imageIndex":4,"items":[{"name":"뚜뚜떡볶이","tel":"","addr":"경기도 안성시 아양동 294-7번지","indutype":"일반휴게음식 - 일반한식","category":"restaurant"}]},{"lat":"37.005187777","long":"127.26613112","imageIndex":4,"items":[{"name":"라니네 샤브칼국수","tel":"031-672-4408","addr":"경기도 안성시 아양동 288-4번지","indutype":"일반휴게음식 - 일반한식","category":"restaurant"},{"name":"용인백암순대국","tel":"031-676-0592","addr":"경기도 안성시 아양동 288-4번지 1층","indutype":"일반휴게음식 - 일반한식","category":"restaurant"}]},{"lat":"37.007020282","long":"127.26462067","imageIndex":4,"items":[{"name":"맛칼국수","tel":"031-675-9932","addr":"경기도 안성시 아양동 275-6번지","indutype":"일반휴게음식 - 일반한식","category":"restaurant"},{"name":"빅원치킨 안성점","tel":"031-671-3393","addr":"경기도 안성시 아양동 275-6번지","indutype":"일반휴게음식 - 스넥","category":"restaurant"}]},{"lat":"37.005610355","long":"127.26245869","imageIndex":4,"items":[{"name":"바보스","tel":"031-671-9507","addr":"경기도 안성시 아양동 304-2","indutype":"일반휴게음식 - 주점","category":"restaurant"},{"name":"바보스 아양점","tel":"031-671-9507","addr":"경기도 안성시 아양동 304-2번지 가동 1층","indutype":"일반휴게음식 - 주점","category":"restaurant"}]},{"lat":"37.004966881","long":"127.26415299","imageIndex":4,"items":[{"name":"삼성식당","tel":"031-676-0335","addr":"경기도 안성시 아양동 366-28번지","indutype":"일반휴게음식 - 일반한식","category":"restaurant"}]},{"lat":"37.006385962","long":"127.26623637","imageIndex":4,"items":[{"name":"상하이박","tel":"031-677-9234","addr":"경기도 안성시 아양동 280-3번지 가동 1층","indutype":"일반휴게음식 - 중국식","category":"restaurant"}]},{"lat":"37.004637014","long":"127.26254526","imageIndex":4,"items":[{"name":"새벽시장","tel":"031-676-8720","addr":"경기도 안성시 아양동 366-79번지","indutype":"일반휴게음식 - 일식·회집","category":"restaurant"}]},{"lat":"37.007439948","long":"127.26226267","imageIndex":4,"items":[{"name":"소담집","tel":"031-675-5345","addr":"경기도 안성시 아양동 300-2번지 1층","indutype":"일반휴게음식 - 일반한식","category":"restaurant"}]},{"lat":"37.007854804","long":"127.26209555","imageIndex":4,"items":[{"name":"신림동또순이순대보쌈","tel":"031-676-0090","addr":"경기도 안성시 아양동 385번지","indutype":"일반휴게음식 - 일반한식","category":"restaurant"}]},{"lat":"37.005134212","long":"127.26590623","imageIndex":4,"items":[{"name":"안방손님 코다리","tel":"031-616-2299","addr":"경기도 안성시 아양동 288-1번지 2층","indutype":"일반휴게음식 - 일반한식","category":"restaurant"}]},{"lat":"37.006721195","long":"127.26540611","imageIndex":4,"items":[{"name":"정석통족구이","tel":"031-671-3351","addr":"경기도 안성시 아양동 278-5번지","indutype":"일반휴게음식 - 일반한식","category":"restaurant"}]},{"lat":"37.005408647","long":"127.26404215","imageIndex":4,"items":[{"name":"제이스키친","tel":"031-672-1525","addr":"경기도 안성시 아양동 294-10번지 가동 1층","indutype":"일반휴게음식 - 서양음식","category":"restaurant"}]},{"lat":"37.007193239","long":"127.26382355","imageIndex":4,"items":[{"name":"한라산 숯불갈비","tel":"031-677-8211","addr":"경기도 안성시 아양동 270-2번지","indutype":"일반휴게음식 - 일반한식","category":"restaurant"}]},{"lat":"37.005888532","long":"127.26706605","imageIndex":4,"items":[{"name":"해정식당","tel":"031-673-8068","addr":"경기도 안성시 아양동 286-4번지 가동","indutype":"일반휴게음식 - 일반한식","category":"restaurant"}]}]