[{"lat":"37.261154448","long":"127.13974736","imageIndex":7,"items":[{"name":"가락농산","tel":"070-7018-5366","addr":"경기도 용인시 기흥구 상하동 213-11번지","indutype":"음료식품 - 농·축·수산품","category":"food"}]},{"lat":"37.272627382","long":"127.13726514","imageIndex":7,"items":[{"name":"강남꿀떡집","tel":"031-284-4266","addr":"경기도 용인시 기흥구 상하동 635-2번지 1층 102호","indutype":"음료식품 - 제과점","category":"food"}]},{"lat":"37.250102261","long":"127.15182152","imageIndex":7,"items":[{"name":"구내매점","tel":"031-288-0546","addr":"경기도 용인시 기흥구 상하동 32번지 효자병원","indutype":"음료식품 - 기타음료식품","category":"food"}]},{"lat":"37.26171665","long":"127.14438161","imageIndex":7,"items":[{"name":"금산건어물","tel":"","addr":"경기도 용인시 기흥구 상하동 272-7번지 아이앤캐슬 102동 201호","indutype":"음료식품 - 농·축·수산품","category":"food"}]},{"lat":"37.274020725","long":"127.14009762","imageIndex":7,"items":[{"name":"네이처시가","tel":"02-1111-1111","addr":"경기도 용인시 기흥구 상하동 462-6번지","indutype":"음료식품 - 기타음료식품","category":"food"},{"name":"풍성수산","tel":"031-309-6484","addr":"경기도 용인시 기흥구 상하동 462-6번지","indutype":"음료식품 - 농·축·수산품","category":"food"}]},{"lat":"37.265853053","long":"127.13602428","imageIndex":7,"items":[{"name":"더필레츠","tel":"031-000-0000","addr":"경기도 용인시 기흥구 상하동 351번지","indutype":"음료식품 - 기타음료식품","category":"food"}]},{"lat":"37.272681597","long":"127.13712994","imageIndex":7,"items":[{"name":"두리번","tel":"","addr":"경기도 용인시 기흥구 상하동 635-1번지 1층","indutype":"음료식품 - 기타음료식품","category":"food"}]},{"lat":"37.275818163","long":"127.14402464","imageIndex":7,"items":[{"name":"땅콩볶는집","tel":"","addr":"경기도 용인시 기흥구 상하동 483-1번지 어정프라자 115호","indutype":"음료식품 - 농·축·수산품","category":"food"}]},{"lat":"37.257765106","long":"127.14101502","imageIndex":7,"items":[{"name":"명진 찬","tel":"031-285-4652","addr":"경기도 용인시 기흥구 상하동 164-1번지","indutype":"음료식품 - 기타음료식품","category":"food"},{"name":"여의도떡","tel":"031-283-3153","addr":"경기도 용인시 기흥구 상하동 164-1번지 상하쟈일드아카데미 205호","indutype":"음료식품 - 제과점","category":"food"}]},{"lat":"37.276438834","long":"127.13717044","imageIndex":7,"items":[{"name":"백살공주","tel":"","addr":"경기도 용인시 기흥구 상하동 630번지 강남마을한라비발디","indutype":"음료식품 - 기타음료식품","category":"food"}]},{"lat":"37.257880415","long":"127.14257084","imageIndex":7,"items":[{"name":"빅마미식빵","tel":"031-284-8972","addr":"경기도 용인시 기흥구 상하동 163-9번지 신풍빌딩 105호","indutype":"음료식품 - 기타음료식품","category":"food"}]},{"lat":"37.255960332","long":"127.14332253","imageIndex":7,"items":[{"name":"소래포구직판포장","tel":"031-281-7458","addr":"경기도 용인시 기흥구 상하동 148-2번지 1층 101호 일부","indutype":"음료식품 - 기타음료식품","category":"food"}]},{"lat":"37.24991025","long":"127.14679414","imageIndex":7,"items":[{"name":"숲속숯가마매점","tel":"031-281-5252","addr":"경기도 용인시 기흥구 상하동 54-4번지","indutype":"음료식품 - 기타음료식품","category":"food"}]},{"lat":"37.273546619","long":"127.13709766","imageIndex":7,"items":[{"name":"아이사랑 아토","tel":"031-333-2136","addr":"경기도 용인시 기흥구 상하동 632-9번지 101호","indutype":"음료식품 - 기타음료식품","category":"food"}]},{"lat":"37.255773755","long":"127.14107902","imageIndex":7,"items":[{"name":"아이스토어(I-STORE)","tel":"","addr":"경기도 용인시 기흥구 상하동 652번지 수원동마을쌍용스윗닷홈 상가동 101호","indutype":"음료식품 - 기타음료식품","category":"food"}]},{"lat":"37.274820401","long":"127.14201583","imageIndex":7,"items":[{"name":"어수산","tel":"031-282-8887","addr":"경기도 용인시 기흥구 상하동 455-1번지 가동 일부 1층","indutype":"음료식품 - 농·축·수산품","category":"food"},{"name":"어수산","tel":"031-282-8887","addr":"경기도 용인시 기흥구 상하동 455-1번지 1층","indutype":"음료식품 - 기타음료식품","category":"food"}]},{"lat":"37.273267353","long":"127.13705206","imageIndex":7,"items":[{"name":"어정떡방앗간","tel":"031-275-0905","addr":"경기도 용인시 기흥구 상하동 633-1번지 가동","indutype":"음료식품 - 제과점","category":"food"}]},{"lat":"37.273015665","long":"127.1365217","imageIndex":7,"items":[{"name":"엄마손맛","tel":"031-286-2809","addr":"경기도 용인시 기흥구 상하동 631-2번지 101호","indutype":"음료식품 - 기타음료식품","category":"food"}]},{"lat":"37.266906797","long":"127.13643199","imageIndex":7,"items":[{"name":"용기천농산","tel":"031-287-5425","addr":"경기도 용인시 기흥구 상하동 388-3번지 1층","indutype":"음료식품 - 정육점","category":"food"}]},{"lat":"37.272934445","long":"127.1366343","imageIndex":7,"items":[{"name":"우리동네SELF정육코너","tel":"070-4112-1217","addr":"경기도 용인시 기흥구 상하동 631-3번지","indutype":"음료식품 - 정육점","category":"food"}]},{"lat":"37.273715041","long":"127.13952205","imageIndex":7,"items":[{"name":"위드아이스","tel":"031-676-1676","addr":"경기도 용인시 기흥구 상하동 462-3번지 전면좌 5호","indutype":"음료식품 - 기타음료식품","category":"food"}]},{"lat":"37.256573844","long":"127.14263606","imageIndex":7,"items":[{"name":"일등유통","tel":"031-282-0862","addr":"경기도 용인시 기흥구 상하동 147-5번지","indutype":"음료식품 - 미곡상","category":"food"},{"name":"일등유통종합식자재","tel":"031-282-0862","addr":"경기도 용인시 기흥구 상하동 147-5번지 가동","indutype":"음료식품 - 미곡상","category":"food"}]},{"lat":"37.273571137","long":"127.13929629","imageIndex":7,"items":[{"name":"조은유통","tel":"031-282-5385","addr":"경기도 용인시 기흥구 상하동 462-1번지 109호","indutype":"음료식품 - 농·축·수산품","category":"food"}]},{"lat":"37.257412332","long":"127.14218671","imageIndex":7,"items":[{"name":"주식회사 제이케이푸드","tel":"031-286-8864","addr":"경기도 용인시 기흥구 상하동 162번지","indutype":"음료식품 - 기타음료식품","category":"food"}]},{"lat":"37.258214153","long":"127.1422671","imageIndex":7,"items":[{"name":"파리바게뜨","tel":"031-284-0452","addr":"경기도 용인시 기흥구 상하동 241-3번지","indutype":"음료식품 - 제과점","category":"food"}]},{"lat":"37.272762817","long":"127.13701734","imageIndex":7,"items":[{"name":"파리바게트 지석초교점","tel":"031-275-2403","addr":"경기도 용인시 기흥구 상하동 635번지","indutype":"음료식품 - 제과점","category":"food"}]},{"lat":"37.273014784","long":"127.13729966","imageIndex":7,"items":[{"name":"파스퇴르우유기흥대리점","tel":"031-281-9400","addr":"경기도 용인시 기흥구 상하동 633-3번지 그린타워 103호","indutype":"음료식품 - 기타음료식품","category":"food"}]},{"lat":"37.261659089","long":"127.13969191","imageIndex":7,"items":[{"name":"파워점핑다이어트","tel":"070-4233-7719","addr":"경기도 용인시 기흥구 상하동 213-13번지 루벤스빌딩 2층 203호","indutype":"건강식품 - 기타건강식품","category":"food"}]}]