[{"lat":"37.879633226","long":"126.96068911","imageIndex":7,"items":[{"name":"CM다육농장","tel":"070-7612-0706","addr":"경기도 양주시 광적면 효촌리 319-5번지","indutype":"음료식품 - 농·축·수산품","category":"food"}]},{"lat":"37.873164361","long":"126.96027228","imageIndex":7,"items":[{"name":"마니아휴계점","tel":"","addr":"경기도 양주시 광적면 효촌리 49-12번지 1층","indutype":"음료식품 - 기타음료식품","category":"food"}]},{"lat":"37.87194419","long":"126.95057829","imageIndex":7,"items":[{"name":"안태울영농조합법인","tel":"031-871-1388","addr":"경기도 양주시 광적면 효촌리 230번지","indutype":"음료식품 - 농·축·수산품","category":"food"}]},{"lat":"37.859771486","long":"126.94826873","imageIndex":16,"items":[{"name":"농업회사법인 주식회사 비프","tel":"031-876-8500","addr":"경기도 양주시 광적면 효촌리 530-3번지","indutype":"학원 - 기타 교육기관","category":"study"}]},{"lat":"37.876519361","long":"126.94713112","imageIndex":16,"items":[{"name":"맑은물농원","tel":"031-876-8422","addr":"경기도 양주시 광적면 효촌리 436-2번지","indutype":"학원 - 기타 교육기관","category":"study"}]},{"lat":"37.87421789","long":"126.95873729","imageIndex":7,"items":[{"name":"수정","tel":"031-876-3901","addr":"경기도 양주시 광적면 효촌리 294-6","indutype":"유통업 영리 - 슈퍼마켓","category":"mart"}]},{"lat":"37.856220847","long":"126.94627146","imageIndex":17,"items":[{"name":"아름드리","tel":"031-876-5858","addr":"경기도 양주시 광적면 효촌리 556-2","indutype":"유통업 영리 - 편 의 점","category":"other"}]},{"lat":"37.859771486","long":"126.94826873","imageIndex":17,"items":[{"name":"주식회사 디케이팩토리","tel":"070-7175-5926","addr":"경기도 양주시 광적면 효촌리 530-3번지","indutype":"기타 - 기타 전문점","category":"other"}]},{"lat":"37.858194808","long":"126.94819035","imageIndex":17,"items":[{"name":"칼갈이타임","tel":"","addr":"경기도 양주시 광적면 효촌리 546-3번지","indutype":"수리서비스 - 기타수리서비스","category":"other"}]},{"lat":"37.874499537","long":"126.96554524","imageIndex":13,"items":[{"name":"효촌낚시터","tel":"031-867-4985","addr":"경기도 양주시 광적면 효촌리 산 11-3","indutype":"레저업소 - 기타레져업소","category":"leisure"}]}]