[{"lat":"37.486177903","long":"126.81113143","imageIndex":13,"items":[{"name":"25시노래연습장","tel":"032-341-2070","addr":"경기도 부천시 역곡동 77-5번지 3층","indutype":"레저업소 - 노 래 방","category":"leisure"},{"name":"삼구사구","tel":"","addr":"경기도 부천시 역곡동 77-5번지 2층 3호","indutype":"레저업소 - 당 구 장","category":"leisure"}]},{"lat":"37.4855453","long":"126.80451869","imageIndex":13,"items":[{"name":"Artis당구장","tel":"032-344-0610","addr":"경기도 부천시 역곡동 28-3번지 3층","indutype":"레저업소 - 당 구 장","category":"leisure"}]},{"lat":"37.485817103","long":"126.81088361","imageIndex":13,"items":[{"name":"FM노래연습장","tel":"032-344-5215","addr":"경기도 부천시 역곡동 77-8번지 3층 302호","indutype":"레저업소 - 노 래 방","category":"leisure"},{"name":"당구클럽","tel":"","addr":"경기도 부천시 역곡동 77-8번지 402호","indutype":"레저업소 - 당 구 장","category":"leisure"},{"name":"벨류PC방","tel":"","addr":"경기도 부천시 역곡동 77-8번지 2층","indutype":"레저업소 - 기타레져업소","category":"leisure"}]},{"lat":"37.488234009","long":"126.81226819","imageIndex":13,"items":[{"name":"PC채널","tel":"","addr":"경기도 부천시 역곡동 108번지 역곡시장 2층 2호","indutype":"레저업소 - 기타레져업소","category":"leisure"},{"name":"원진당구장","tel":"","addr":"경기도 부천시 역곡동 108번지 2층","indutype":"레저업소 - 당 구 장","category":"leisure"}]},{"lat":"37.485151229","long":"126.80593305","imageIndex":13,"items":[{"name":"RISING PC존","tel":"032-343-6717","addr":"경기도 부천시 역곡동 45번지","indutype":"레저업소 - 기타레져업소","category":"leisure"}]},{"lat":"37.485067679","long":"126.80990186","imageIndex":13,"items":[{"name":"STARDOM PC","tel":"070-4499-4921","addr":"경기도 부천시 역곡동 79-3번지 2층","indutype":"레저업소 - 기타레져업소","category":"leisure"},{"name":"토마토노래연습장","tel":"032-208-2110","addr":"경기도 부천시 역곡동 79-3번지 3층","indutype":"레저업소 - 노 래 방","category":"leisure"}]},{"lat":"37.484986238","long":"126.80968724","imageIndex":13,"items":[{"name":"고래고래노래연습장","tel":"032-341-4688","addr":"경기도 부천시 역곡동 79-2번지","indutype":"레저업소 - 노 래 방","category":"leisure"}]},{"lat":"37.486402967","long":"126.81101779","imageIndex":13,"items":[{"name":"궁노래연습장","tel":"032-345-3893","addr":"경기도 부천시 역곡동 76-6번지 2층","indutype":"레저업소 - 노 래 방","category":"leisure"}]},{"lat":"37.489014366","long":"126.81010654","imageIndex":13,"items":[{"name":"금메달당구장","tel":"","addr":"경기도 부천시 역곡동 86-9번지 이레빌딩 지하","indutype":"레저업소 - 당 구 장","category":"leisure"}]},{"lat":"37.486876183","long":"126.81393374","imageIndex":13,"items":[{"name":"나이스 당구장","tel":"032-000-0000","addr":"경기도 부천시 역곡동 111-5번지 2층","indutype":"레저업소 - 당 구 장","category":"leisure"}]},{"lat":"37.485735518","long":"126.81057854","imageIndex":13,"items":[{"name":"나이스당구장","tel":"070-7306-2961","addr":"경기도 부천시 역곡동 77-10번지 BNG2000빌딩 4층","indutype":"레저업소 - 당 구 장","category":"leisure"},{"name":"리얼핏다이어트","tel":"070-8273-5738","addr":"경기도 부천시 역곡동 77-10번지 5층 501호,502호","indutype":"레저업소 - 헬스클럽","category":"leisure"},{"name":"쓰리팝(3POP PC)","tel":"070-4709-7482","addr":"경기도 부천시 역곡동 77-10번지 비01,02호","indutype":"레저업소 - 기타레져업소","category":"leisure"},{"name":"역곡필스크린골프","tel":"032-345-0052","addr":"경기도 부천시 역곡동 77-10번지 BNG2000빌딩 8층 801호","indutype":"레저업소 - 스크린골프","category":"leisure"}]},{"lat":"37.48506873","long":"126.81054633","imageIndex":13,"items":[{"name":"동경노래방","tel":"032-341-0818","addr":"경기도 부천시 역곡동 80-15번지","indutype":"레저업소 - 노 래 방","category":"leisure"}]},{"lat":"37.488178963","long":"126.81165775","imageIndex":13,"items":[{"name":"동네노래연습장","tel":"070-7620-2665","addr":"경기도 부천시 역곡동 85-7번지 칠성빌라 지층","indutype":"레저업소 - 노 래 방","category":"leisure"}]},{"lat":"37.486043689","long":"126.81170842","imageIndex":13,"items":[{"name":"락 노래연습장","tel":"070-8815-0505","addr":"경기도 부천시 역곡동 82-10번지 6층","indutype":"레저업소 - 노 래 방","category":"leisure"}]},{"lat":"37.484931809","long":"126.80946125","imageIndex":13,"items":[{"name":"리코스타코인노래연습장","tel":"","addr":"경기도 부천시 역곡동 79-1번지 2층","indutype":"레저업소 - 노 래 방","category":"leisure"}]},{"lat":"37.485294106","long":"126.8106249","imageIndex":13,"items":[{"name":"뮤즈노래연습장","tel":"032-341-6767","addr":"경기도 부천시 역곡동 80-1번지 지층","indutype":"레저업소 - 노 래 방","category":"leisure"}]},{"lat":"37.487483346","long":"126.81051752","imageIndex":13,"items":[{"name":"벅스노래연습장","tel":"032-344-0917","addr":"경기도 부천시 역곡동 74-143번지 2층","indutype":"레저업소 - 노 래 방","category":"leisure"}]},{"lat":"37.488321856","long":"126.8108772","imageIndex":13,"items":[{"name":"부천현무관 (해동검도)","tel":"032-343-2272","addr":"경기도 부천시 역곡동 86-3번지 2층","indutype":"레저업소 - 기타레져업소","category":"leisure"},{"name":"스카이트램폴린","tel":"032-348-3314","addr":"경기도 부천시 역곡동 86-3번지 지하층","indutype":"레저업소 - 기타레져업소","category":"leisure"}]},{"lat":"37.487539229","long":"126.80615292","imageIndex":13,"items":[{"name":"비페 (B.pe)","tel":"070-4217-2819","addr":"경기도 부천시 역곡동 63-10번지 2층","indutype":"레저업소 - 기타레져업소","category":"leisure"}]},{"lat":"37.485427724","long":"126.80968611","imageIndex":13,"items":[{"name":"샵코인노래연습장","tel":"","addr":"경기도 부천시 역곡동 78-9번지 지하1층","indutype":"레저업소 - 노 래 방","category":"leisure"}]},{"lat":"37.485065455","long":"126.80854508","imageIndex":13,"items":[{"name":"세븐노래연습장","tel":"032-341-7359","addr":"경기도 부천시 역곡동 50-3번지 지층","indutype":"레저업소 - 노 래 방","category":"leisure"}]},{"lat":"37.484732627","long":"126.80887383","imageIndex":13,"items":[{"name":"소리쳐노래연습장","tel":"032-345-9952","addr":"경기도 부천시 역곡동 49-5번지 조양시티프라자 401호","indutype":"레저업소 - 노 래 방","category":"leisure"},{"name":"케이원(K-1)당구클럽","tel":"032-349-1323","addr":"경기도 부천시 역곡동 49-5번지 조양시티프라자 502호","indutype":"레저업소 - 당 구 장","category":"leisure"}]},{"lat":"37.486152082","long":"126.81187774","imageIndex":13,"items":[{"name":"스타킹노래연습장","tel":"032-345-2358","addr":"경기도 부천시 역곡동 82-9번지 지층 일부","indutype":"레저업소 - 노 래 방","category":"leisure"}]},{"lat":"37.485737718","long":"126.81193533","imageIndex":13,"items":[{"name":"아이엔지필라테스","tel":"032-343-9970","addr":"경기도 부천시 역곡동 81번지 3층","indutype":"레저업소 - 헬스클럽","category":"leisure"},{"name":"탑팀무에타이","tel":"032-343-3300","addr":"경기도 부천시 역곡동 81번지 4층","indutype":"레저업소 - 헬스클럽","category":"leisure"}]},{"lat":"37.484983956","long":"126.80829655","imageIndex":13,"items":[{"name":"애플당구장","tel":"032-1544-1731","addr":"경기도 부천시 역곡동 50-5번지 지층","indutype":"레저업소 - 당 구 장","category":"leisure"}]},{"lat":"37.48587142","long":"126.81104176","imageIndex":13,"items":[{"name":"앤노래연습장","tel":"032-345-8866","addr":"경기도 부천시 역곡동 77-7번지 2층","indutype":"레저업소 - 노 래 방","category":"leisure"}]},{"lat":"37.487987066","long":"126.81560437","imageIndex":13,"items":[{"name":"앵콜노래연습장","tel":"032-348-9777","addr":"경기도 부천시 역곡동 220-1번지 현대프라자 3층","indutype":"레저업소 - 노 래 방","category":"leisure"}]},{"lat":"37.485538604","long":"126.81138181","imageIndex":13,"items":[{"name":"에스비에스 당구클럽","tel":"032-000-0000","addr":"경기도 부천시 역곡동 80-5번지 덕지빌딩 8층 801호,802호","indutype":"레저업소 - 당 구 장","category":"leisure"}]},{"lat":"37.485375526","long":"126.81082821","imageIndex":13,"items":[{"name":"에스제이 노래연습장","tel":"","addr":"경기도 부천시 역곡동 80-2번지 동보빌딩 3층","indutype":"레저업소 - 노 래 방","category":"leisure"}]},{"lat":"37.486014917","long":"126.81063436","imageIndex":13,"items":[{"name":"역곡골프존","tel":"032-342-0333","addr":"경기도 부천시 역곡동 77-2번지 휴캐슬주상복합 103호","indutype":"레저업소 - 골프연습장","category":"leisure"}]},{"lat":"37.486288125","long":"126.81243142","imageIndex":13,"items":[{"name":"역곡트라이스톤","tel":"070-4223-2733","addr":"경기도 부천시 역곡동 82-7번지 3층","indutype":"레저업소 - 헬스클럽","category":"leisure"}]},{"lat":"37.484315899","long":"126.80749553","imageIndex":13,"items":[{"name":"올래노래연습장","tel":"","addr":"경기도 부천시 역곡동 48-6번지 코지타운 지층 B101호","indutype":"레저업소 - 노 래 방","category":"leisure"}]},{"lat":"37.487627376","long":"126.81043801","imageIndex":13,"items":[{"name":"월드컵노래연습장","tel":"032-342-5825","addr":"경기도 부천시 역곡동 74-147번지","indutype":"레저업소 - 노 래 방","category":"leisure"}]},{"lat":"37.488711168","long":"126.81204083","imageIndex":13,"items":[{"name":"웬노래연습장","tel":"032-345-8152","addr":"경기도 부천시 역곡동 107-7번지 지층","indutype":"레저업소 - 노 래 방","category":"leisure"}]},{"lat":"37.485789835","long":"126.81073669","imageIndex":13,"items":[{"name":"짝툰","tel":"070-4649-1101","addr":"경기도 부천시 역곡동 77-9번지 3층 일부","indutype":"레저업소 - 기타레져업소","category":"leisure"},{"name":"프로당구클럽","tel":"02-2695-1262","addr":"경기도 부천시 역곡동 77-9번지 4층","indutype":"레저업소 - 당 구 장","category":"leisure"}]},{"lat":"37.487322069","long":"126.81107198","imageIndex":13,"items":[{"name":"케이투당구장","tel":"032-000-0000","addr":"경기도 부천시 역곡동 84번지 덕산빌딩 지층","indutype":"레저업소 - 당 구 장","category":"leisure"}]},{"lat":"37.486233573","long":"126.81212628","imageIndex":13,"items":[{"name":"코리아노래방","tel":"032-347-2441","addr":"경기도 부천시 역곡동 82-8번지 지층","indutype":"레저업소 - 노 래 방","category":"leisure"}]},{"lat":"37.485319013","long":"126.80932458","imageIndex":13,"items":[{"name":"테마 노래연습장","tel":"032-665-3660","addr":"경기도 부천시 역곡동 78-11번지 역곡교회 B01호","indutype":"레저업소 - 노 래 방","category":"leisure"}]},{"lat":"37.488429441","long":"126.81054902","imageIndex":13,"items":[{"name":"텐션PC","tel":"070-9027-6655","addr":"경기도 부천시 역곡동 86-6번지 2층","indutype":"레저업소 - 기타레져업소","category":"leisure"}]},{"lat":"37.487790522","long":"126.80023873","imageIndex":13,"items":[{"name":"트러스트짐","tel":"032-342-5406","addr":"경기도 부천시 역곡동 산43-1번지 가톨릭대학교성심교정 1층 헬스장","indutype":"레저업소 - 헬스클럽","category":"leisure"}]},{"lat":"37.48559387","long":"126.81212791","imageIndex":13,"items":[{"name":"핑클노래연습장","tel":"032-347-1619","addr":"경기도 부천시 역곡동 81-6번지 지하층","indutype":"레저업소 - 노 래 방","category":"leisure"}]},{"lat":"37.486376799","long":"126.81154927","imageIndex":13,"items":[{"name":"혜성","tel":"032-341-3911","addr":"경기도 부천시 역곡동 82번지","indutype":"레저업소 - 노 래 방","category":"leisure"}]}]