[{"lat":"37.687959322","long":"126.82142887","imageIndex":13,"items":[{"name":"(주)셀라네추럴코스메틱","tel":"070-4323-2406","addr":"경기도 고양시 일산동구 식사동 249-11번지","indutype":"보건위생 - 화장품","category":"beauty"}]},{"lat":"37.674549491","long":"126.81348154","imageIndex":13,"items":[{"name":"(주)제이앤기획","tel":"031-922-0045","addr":"경기도 고양시 일산동구 식사동 1574-1번지","indutype":"보건위생 - 화장품","category":"beauty"}]},{"lat":"37.677656075","long":"126.80689894","imageIndex":13,"items":[{"name":"(주)태일","tel":"031-926-3320","addr":"경기도 고양시 일산동구 식사동 814-9번지","indutype":"보건위생 - 화장품","category":"beauty"},{"name":"바나미미 (BANAMIMI)","tel":"031-964-7597","addr":"경기도 고양시 일산동구 식사동 814-9번지","indutype":"보건위생 - 화장품","category":"beauty"},{"name":"스프라임(SPRIME)","tel":"031-904-2775","addr":"경기도 고양시 일산동구 식사동 814-9번지","indutype":"보건위생 - 미용재료","category":"beauty"},{"name":"아이투비씨(i2BC)","tel":"031-966-0529","addr":"경기도 고양시 일산동구 식사동 814-9번지","indutype":"보건위생 - 화장품","category":"beauty"},{"name":"알파벳","tel":"070-7717-0880","addr":"경기도 고양시 일산동구 식사동 814-9번지","indutype":"보건위생 - 미용재료","category":"beauty"},{"name":"와플케어","tel":"031-1544-3479","addr":"경기도 고양시 일산동구 식사동 814-9번지","indutype":"보건위생 - 의료용품","category":"beauty"},{"name":"주식회사 씨엠랩","tel":"070-8824-0641","addr":"경기도 고양시 일산동구 식사동 814-9번지","indutype":"보건위생 - 의료용품","category":"beauty"},{"name":"주식회사 지스테믹스","tel":"031-969-9722","addr":"경기도 고양시 일산동구 식사동 814-9번지","indutype":"보건위생 - 화장품","category":"beauty"},{"name":"주식회사 프로즈","tel":"031-962-9802","addr":"경기도 고양시 일산동구 식사동 814-9번지","indutype":"보건위생 - 의료용품","category":"beauty"},{"name":"주식회사이음코스메틱","tel":"031-966-4762","addr":"경기도 고양시 일산동구 식사동 814-9번지","indutype":"보건위생 - 화장품","category":"beauty"}]},{"lat":"37.66465479","long":"126.81218064","imageIndex":13,"items":[{"name":"153성민유통","tel":"031-966-3203","addr":"경기도 고양시 일산동구 식사동 550-1번지","indutype":"보건위생 - 미용재료","category":"beauty"}]},{"lat":"37.675739977","long":"126.81423798","imageIndex":13,"items":[{"name":"365바른척추","tel":"031-966-4478","addr":"경기도 고양시 일산동구 식사동 1557-2번지","indutype":"보건위생 - 기타대인서비스","category":"beauty"}]},{"lat":"37.676403737","long":"126.81239995","imageIndex":13,"items":[{"name":"B&B (비앤비)","tel":"","addr":"경기도 고양시 일산동구 식사동 1546-1번지","indutype":"보건위생 - 피부미용실","category":"beauty"},{"name":"NaBi(나비)","tel":"031-969-4656","addr":"경기도 고양시 일산동구 식사동 1546-1번지","indutype":"보건위생 - 미용원","category":"beauty"},{"name":"비앤비 (B&B)","tel":"031-000-0000","addr":"경기도 고양시 일산동구 식사동 1546-1번지","indutype":"보건위생 - 피부미용실","category":"beauty"}]},{"lat":"37.676101194","long":"126.8147585","imageIndex":13,"items":[{"name":"OWL153헤어디자인","tel":"031-905-5444","addr":"경기도 고양시 일산동구 식사동 1558번지","indutype":"보건위생 - 미용원","category":"beauty"}]},{"lat":"37.690459163","long":"126.83020946","imageIndex":13,"items":[{"name":"SG코스매틱","tel":"031-966-3589","addr":"경기도 고양시 일산동구 식사동 2-14번지","indutype":"보건위생 - 화장품","category":"beauty"}]},{"lat":"37.676908147","long":"126.81231931","imageIndex":13,"items":[{"name":"W네일","tel":"031-964-9888","addr":"경기도 고양시 일산동구 식사동 1543번지","indutype":"보건위생 - 피부미용실","category":"beauty"},{"name":"더트리니티스파바이김지하","tel":"031-962-8767","addr":"경기도 고양시 일산동구 식사동 1543번지","indutype":"보건위생 - 피부미용실","category":"beauty"}]},{"lat":"37.677824108","long":"126.81045791","imageIndex":13,"items":[{"name":"organic way/주식회사 보타니그림","tel":"031-1899-1236","addr":"경기도 고양시 일산동구 식사동 1521-5번지","indutype":"보건위생 - 화장품","category":"beauty"},{"name":"주식회사 킹덤뷰티","tel":"070-4454-3206","addr":"경기도 고양시 일산동구 식사동 1521-5번지","indutype":"보건위생 - 화장품","category":"beauty"},{"name":"주식회사 킹덤뷰티","tel":"070-4454-3206","addr":"경기도 고양시 일산동구 식사동 1521-5번지","indutype":"보건위생 - 화장품","category":"beauty"},{"name":"주식회사 킹덤뷰티","tel":"070-4454-3206","addr":"경기도 고양시 일산동구 식사동 1521-5번지","indutype":"보건위생 - 화장품","category":"beauty"}]},{"lat":"37.667049397","long":"126.80551007","imageIndex":13,"items":[{"name":"강창숙헤어","tel":"031-967-0390","addr":"경기도 고양시 일산동구 식사동 941-4번지","indutype":"보건위생 - 미용원","category":"beauty"}]},{"lat":"37.676576672","long":"126.81348772","imageIndex":13,"items":[{"name":"건강한척추/(주)지오씨컨설팅","tel":"031-963-5453","addr":"경기도 고양시 일산동구 식사동 1545-1번지","indutype":"보건위생 - 기타대인서비스","category":"beauty"}]},{"lat":"37.675569537","long":"126.81470317","imageIndex":13,"items":[{"name":"건강혜","tel":"","addr":"경기도 고양시 일산동구 식사동 1560-1번지","indutype":"보건위생 - 화장품","category":"beauty"}]},{"lat":"37.671799112","long":"126.80648362","imageIndex":13,"items":[{"name":"굿모닝건강랜드","tel":"031-964-7070","addr":"경기도 고양시 일산동구 식사동 861-3번지","indutype":"보건위생 - 사우나","category":"beauty"}]},{"lat":"37.679131867","long":"126.81129339","imageIndex":13,"items":[{"name":"글라스박스안경","tel":"031-968-4909","addr":"경기도 고양시 일산동구 식사동 670-27번지","indutype":"보건위생 - 안경","category":"beauty"}]},{"lat":"37.686791421","long":"126.82361978","imageIndex":13,"items":[{"name":"김천고주파산업","tel":"031-965-4360","addr":"경기도 고양시 일산동구 식사동 221-2번지","indutype":"보건위생 - 의료용품","category":"beauty"}]},{"lat":"37.675741297","long":"126.81506546","imageIndex":13,"items":[{"name":"노아헤어","tel":"031-969-1511","addr":"경기도 고양시 일산동구 식사동 1558-8번지","indutype":"보건위생 - 미용원","category":"beauty"}]},{"lat":"37.677382767","long":"126.8105384","imageIndex":13,"items":[{"name":"더맨즈(The Man's)식사점","tel":"070-8849-3457","addr":"경기도 고양시 일산동구 식사동 1525번지","indutype":"보건위생 - 미용원","category":"beauty"},{"name":"안경매니져렌즈매니져","tel":"031-969-6000","addr":"경기도 고양시 일산동구 식사동 1525번지","indutype":"보건위생 - 안경","category":"beauty"}]},{"lat":"37.684680078","long":"126.80479449","imageIndex":13,"items":[{"name":"더커브 바른척추","tel":"031-908-3506","addr":"경기도 고양시 일산동구 식사동 736-42번지","indutype":"보건위생 - 피부미용실","category":"beauty"}]},{"lat":"37.675429396","long":"126.81159763","imageIndex":13,"items":[{"name":"더힐링스헤어살롱","tel":"031-968-8088","addr":"경기도 고양시 일산동구 식사동 1565번지 위시티블루밍5단지아파트","indutype":"보건위생 - 미용원","category":"beauty"},{"name":"민트헤어샵","tel":"02-969-5664","addr":"경기도 고양시 일산동구 식사동 1565번지 위시티블루밍5단지아파트","indutype":"보건위생 - 미용원","category":"beauty"},{"name":"아이앤지","tel":"070-4202-2999","addr":"경기도 고양시 일산동구 식사동 1565번지 위시티블루밍5단지아파트","indutype":"보건위생 - 화장품","category":"beauty"}]},{"lat":"37.671294025","long":"126.80615624","imageIndex":13,"items":[{"name":"류헤어","tel":"031-978-8008","addr":"경기도 고양시 일산동구 식사동","indutype":"보건위생 - 미용원","category":"beauty"},{"name":"허브미","tel":"031-968-0777","addr":"경기도 고양시 일산동구 식사동 857번지","indutype":"보건위생 - 화장품","category":"beauty"}]},{"lat":"37.676408284","long":"126.80965675","imageIndex":13,"items":[{"name":"리본뷰티","tel":"031-915-8242","addr":"경기도 고양시 일산동구 식사동 662-5번지","indutype":"보건위생 - 화장품","category":"beauty"}]},{"lat":"37.678771114","long":"126.8110676","imageIndex":13,"items":[{"name":"리안헤어(위시티식사점)","tel":"031-904-0801","addr":"경기도 고양시 일산동구 식사동 670-28번지","indutype":"보건위생 - 미용원","category":"beauty"},{"name":"이주연스킨케어","tel":"031-967-2011","addr":"경기도 고양시 일산동구 식사동 670-28번지","indutype":"보건위생 - 피부미용실","category":"beauty"},{"name":"허즈블라썸(Hers Blossom) 식사점","tel":"031-965-7975","addr":"경기도 고양시 일산동구 식사동 670-28번지","indutype":"보건위생 - 피부미용실","category":"beauty"}]},{"lat":"37.666987257","long":"126.80606561","imageIndex":13,"items":[{"name":"머리못하는집","tel":"031-968-4622","addr":"경기도 고양시 일산동구 식사동 937-9번지","indutype":"보건위생 - 미용원","category":"beauty"}]},{"lat":"37.677908342","long":"126.8123961","imageIndex":13,"items":[{"name":"메종드아이디헤어","tel":"031-965-1654","addr":"경기도 고양시 일산동구 식사동 1531번지","indutype":"보건위생 - 미용원","category":"beauty"}]},{"lat":"37.672098498","long":"126.80772966","imageIndex":13,"items":[{"name":"보라미용실","tel":"031-965-8995","addr":"경기도 고양시 일산동구 식사동 619-6번지","indutype":"보건위생 - 미용원","category":"beauty"}]},{"lat":"37.686298716","long":"126.81959632","imageIndex":13,"items":[{"name":"뷰티앤뷰티","tel":"031-973-0900","addr":"경기도 고양시 일산동구 식사동 1161-5번지","indutype":"보건위생 - 화장품","category":"beauty"}]},{"lat":"37.67804093","long":"126.8108201","imageIndex":13,"items":[{"name":"비채","tel":"","addr":"경기도 고양시 일산동구 식사동 1522번지","indutype":"보건위생 - 화장품","category":"beauty"}]},{"lat":"37.676020559","long":"126.81504209","imageIndex":13,"items":[{"name":"비투알(B2R NAIL)","tel":"070-4789-2381","addr":"경기도 고양시 일산동구 식사동 1558-2번지","indutype":"보건위생 - 피부미용실","category":"beauty"}]},{"lat":"37.676351832","long":"126.81373767","imageIndex":13,"items":[{"name":"살롱 드 유티풀","tel":"031-747-3133","addr":"경기도 고양시 일산동구 식사동 1545-2번지","indutype":"보건위생 - 미용원","category":"beauty"}]},{"lat":"37.675576002","long":"126.80759587","imageIndex":13,"items":[{"name":"살롱드결(SARONde결)","tel":"031-962-2588","addr":"경기도 고양시 일산동구 식사동 662-20번지","indutype":"보건위생 - 미용원","category":"beauty"},{"name":"세종의료기","tel":"031-967-5339","addr":"경기도 고양시 일산동구 식사동 662-20번지","indutype":"보건위생 - 의료용품","category":"beauty"}]},{"lat":"37.677267357","long":"126.81159291","imageIndex":13,"items":[{"name":"살롱드디에쎄","tel":"031-966-1399","addr":"경기도 고양시 일산동구 식사동 1533번지 위시티휴먼빌","indutype":"보건위생 - 미용원","category":"beauty"},{"name":"온새미로#1","tel":"031-964-7753","addr":"경기도 고양시 일산동구 식사동 1533번지 위시티휴먼빌","indutype":"보건위생 - 미용원","category":"beauty"},{"name":"커트클럽","tel":"031-967-1245","addr":"경기도 고양시 일산동구 식사동 1533번지 위시티휴먼빌","indutype":"보건위생 - 미용원","category":"beauty"}]},{"lat":"37.676575505","long":"126.81276225","imageIndex":13,"items":[{"name":"삼손클리닉","tel":"031-916-3022","addr":"경기도 고양시 일산동구 식사동 1543-3번지","indutype":"보건위생 - 화장품","category":"beauty"},{"name":"에코네일","tel":"070-7724-3070","addr":"경기도 고양시 일산동구 식사동 1543-3번지","indutype":"보건위생 - 피부미용실","category":"beauty"}]},{"lat":"37.677878203","long":"126.81048044","imageIndex":13,"items":[{"name":"솜씨","tel":"031-965-4140","addr":"경기도 고양시 일산동구 식사동 1521-6번지","indutype":"보건위생 - 피부미용실","category":"beauty"}]},{"lat":"37.68256294","long":"126.81590984","imageIndex":13,"items":[{"name":"수피아(Supia)","tel":"031-962-7856","addr":"경기도 고양시 일산동구 식사동 1498번지 위시티일산자이2단지아파트","indutype":"보건위생 - 피부미용실","category":"beauty"}]},{"lat":"37.678458476","long":"126.81273477","imageIndex":13,"items":[{"name":"아리따움식사점","tel":"031-969-5432","addr":"경기도 고양시 일산동구 식사동","indutype":"보건위생 - 화장품","category":"beauty"},{"name":"오다헤어","tel":"02-2187-2858","addr":"경기도 고양시 일산동구 식사동 1529번지 위시티일산자이주상복합","indutype":"보건위생 - 미용원","category":"beauty"},{"name":"파코메리뷰티스테이","tel":"031-965-1255","addr":"경기도 고양시 일산동구 식사동 1529번지 위시티일산자이주상복합","indutype":"보건위생 - 미용원","category":"beauty"}]},{"lat":"37.681492604","long":"126.81142336","imageIndex":13,"items":[{"name":"앤써뷰티","tel":"","addr":"경기도 고양시 일산동구 식사동 1510번지 위시티블루밍3단지아파트","indutype":"보건위생 - 화장품","category":"beauty"}]},{"lat":"37.68093814","long":"126.81398676","imageIndex":13,"items":[{"name":"에카","tel":"031-969-7898","addr":"경기도 고양시 일산동구 식사동","indutype":"보건위생 - 화장품","category":"beauty"}]},{"lat":"37.663799314","long":"126.81245483","imageIndex":13,"items":[{"name":"엔젤베드","tel":"031-927-9968","addr":"경기도 고양시 일산동구 식사동 542-3번지","indutype":"보건위생 - 의료용품","category":"beauty"}]},{"lat":"37.676098798","long":"126.81326223","imageIndex":13,"items":[{"name":"연세아동발달연구소","tel":"02-4430-5760","addr":"경기도 고양시 일산동구 식사동 1548-1번지","indutype":"보건위생 - 기타대인서비스","category":"beauty"}]},{"lat":"37.672431404","long":"126.80745675","imageIndex":13,"items":[{"name":"이지헤어","tel":"031-965-9068","addr":"경기도 고양시 일산동구 식사동 619-7번지","indutype":"보건위생 - 미용원","category":"beauty"}]},{"lat":"37.68343956","long":"126.81196251","imageIndex":13,"items":[{"name":"정시아헤어비즈","tel":"031-904-3877","addr":"경기도 고양시 일산동구 식사동 1487번지 위시티일산자이1단지아파트","indutype":"보건위생 - 미용원","category":"beauty"}]},{"lat":"37.675350631","long":"126.80751711","imageIndex":13,"items":[{"name":"지성메디칼","tel":"031-968-0377","addr":"경기도 고양시 일산동구 식사동 815-2번지","indutype":"보건위생 - 의료용품","category":"beauty"}]},{"lat":"37.676931064","long":"126.80979142","imageIndex":13,"items":[{"name":"퀸즈헤나","tel":"031-969-3659","addr":"경기도 고양시 일산동구 식사동 814-78번지","indutype":"보건위생 - 미용원","category":"beauty"}]},{"lat":"37.686129065","long":"126.81484655","imageIndex":13,"items":[{"name":"톰의료기","tel":"070-4247-1807","addr":"경기도 고양시 일산동구 식사동 290-3번지","indutype":"보건위생 - 의료용품","category":"beauty"}]},{"lat":"37.676350045","long":"126.8126268","imageIndex":13,"items":[{"name":"풀어드림","tel":"031-965-2156","addr":"경기도 고양시 일산동구 식사동 1546-2번지","indutype":"보건위생 - 화장품","category":"beauty"}]},{"lat":"37.675632296","long":"126.81451031","imageIndex":13,"items":[{"name":"허브앤점핑핏","tel":"031-901-2235","addr":"경기도 고양시 일산동구 식사동 1560번지","indutype":"보건위생 - 화장품","category":"beauty"}]},{"lat":"37.667292011","long":"126.80512407","imageIndex":13,"items":[{"name":"헤어까사","tel":"031-966-1254","addr":"경기도 고양시 일산동구 식사동 942-13번지","indutype":"보건위생 - 미용원","category":"beauty"}]},{"lat":"37.667898645","long":"126.80691326","imageIndex":13,"items":[{"name":"현 화장품","tel":"031-000-0000","addr":"경기도 고양시 일산동구 식사동 910번지 은행마을2단지동문굿모닝힐아파트","indutype":"보건위생 - 화장품","category":"beauty"}]}]