[{"lat":"37.944802281","long":"127.2878774","imageIndex":17,"items":[{"name":"그라제이","tel":"","addr":"경기도 포천시 일동면 길명리 305-1번지 1층","indutype":"의류 - 내의판매","category":"other"}]},{"lat":"37.938605995","long":"127.2832691","imageIndex":17,"items":[{"name":"대흥상사","tel":"070-4241-4079","addr":"경기도 포천시 일동면 길명리 452-8","indutype":"용역 서비스 - 종합용역","category":"other"}]},{"lat":"37.928354131","long":"127.27140114","imageIndex":17,"items":[{"name":"비전광고기획","tel":"031-534-4884","addr":"경기도 포천시 일동면 길명리 679-2번지","indutype":"용역 서비스 - 종합용역","category":"other"}]},{"lat":"37.947162649","long":"127.26054769","imageIndex":17,"items":[{"name":"서준낚시","tel":"031-534-0460","addr":"경기도 포천시 일동면 길명리 798-2번지 1층","indutype":"레져용품 - 스포츠·레져용품","category":"other"}]},{"lat":"37.938243871","long":"127.28020769","imageIndex":17,"items":[{"name":"알파포장기","tel":"02-975-4253","addr":"경기도 포천시 일동면 길명리 430-1번지","indutype":"기타 - 기계공구","category":"other"}]},{"lat":"37.938466781","long":"127.26551123","imageIndex":17,"items":[{"name":"제이조경산업","tel":"02-6340-5385","addr":"경기도 포천시 일동면 길명리 782-2","indutype":"문화.취미 - 화원","category":"other"}]},{"lat":"37.951519498","long":"127.25807121","imageIndex":17,"items":[{"name":"주식회사진성건업","tel":"031-533-6533","addr":"경기도 포천시 일동면 길명리 808-8번지 101호","indutype":"건축자재 - 목재·석재·철물","category":"other"}]},{"lat":"37.93666294","long":"127.26640347","imageIndex":17,"items":[{"name":"창성기업","tel":"031-542-2001","addr":"경기도 포천시 일동면 길명리 778-46","indutype":"건축자재 - 목재·석재·철물","category":"other"}]},{"lat":"37.935462587","long":"127.28292728","imageIndex":17,"items":[{"name":"청룡두채","tel":"031-533-4579","addr":"경기도 포천시 일동면 길명리 472-1","indutype":"회원제형태 - 기타4","category":"other"}]},{"lat":"37.940851608","long":"127.28606474","imageIndex":17,"items":[{"name":"헬스코리아","tel":"","addr":"경기도 포천시 일동면 길명리 299-6번지","indutype":"레져용품 - 스포츠·레져용품","category":"other"}]},{"lat":"37.947300049","long":"127.25951287","imageIndex":4,"items":[{"name":"길명낚시가든","tel":"031-534-0460","addr":"경기도 포천시 일동면 길명리 798-8번지","indutype":"일반휴게음식 - 일반한식","category":"restaurant"}]},{"lat":"37.938496366","long":"127.28390571","imageIndex":4,"items":[{"name":"길명리참맛집","tel":"031-534-0266","addr":"경기도 포천시 일동면 길명리 457-4번지","indutype":"일반휴게음식 - 일반한식","category":"restaurant"}]},{"lat":"37.938325871","long":"127.28362068","imageIndex":4,"items":[{"name":"장안이동숯불갈비","tel":"031-533-9878","addr":"경기도 포천시 일동면 길명리 454-3번지","indutype":"일반휴게음식 - 일반한식","category":"restaurant"}]},{"lat":"37.938496366","long":"127.28390571","imageIndex":7,"items":[{"name":"길명마트","tel":"031-111-1111","addr":"경기도 포천시 일동면 길명리 457-4번지","indutype":"유통업 영리 - 슈퍼마켓","category":"mart"}]},{"lat":"37.937274698","long":"127.28239951","imageIndex":7,"items":[{"name":"길명정미소","tel":"031-536-3075","addr":"경기도 포천시 일동면 길명리 496-1번지","indutype":"음료식품 - 미곡상","category":"food"}]},{"lat":"37.938906985","long":"127.26607021","imageIndex":7,"items":[{"name":"신고구려식품","tel":"031-532-0080","addr":"경기도 포천시 일동면 길명리 778-42번지 C동,D동","indutype":"음료식품 - 기타음료식품","category":"food"}]},{"lat":"37.949940524","long":"127.25915798","imageIndex":5,"items":[{"name":"길펜션","tel":"031-532-3300","addr":"경기도 포천시 일동면 길명리 809-11번지","indutype":"숙박업 - 여관/기타숙박업","category":"hotel"}]}]