[{"lat":"37.339846834","long":"127.48742479","imageIndex":17,"items":[{"name":"가구쟁이","tel":"031-632-0635","addr":"경기도 이천시 백사면 송말리 68-4번지","indutype":"가구 - 일반가구","category":"other"}]},{"lat":"37.339545862","long":"127.481679","imageIndex":17,"items":[{"name":"대신축산기계","tel":"031-633-0378","addr":"경기도 이천시 백사면 송말리 158-3번지","indutype":"농업 - 기타농업관련","category":"other"}]},{"lat":"37.345206858","long":"127.46974108","imageIndex":17,"items":[{"name":"동대문 한미 싸카스포츠","tel":"031-633-5611","addr":"경기도 이천시 백사면 송말리 529-5번지 2층","indutype":"의류 - 스포츠의류","category":"other"}]},{"lat":"37.344790371","long":"127.48595559","imageIndex":17,"items":[{"name":"서우","tel":"","addr":"경기도 이천시 백사면 송말리 22-3번지","indutype":"문화.취미 - 민예·공예품","category":"other"}]},{"lat":"37.334459056","long":"127.48515598","imageIndex":17,"items":[{"name":"세븐일레븐이천이여로점","tel":"031-1577-0711","addr":"경기도 이천시 백사면 송말리 105-9번지","indutype":"유통업 영리 - 편 의 점","category":"other"},{"name":"중부기업","tel":"031-634-8550","addr":"경기도 이천시 백사면 송말리 105-9번지","indutype":"용역 서비스 - 법률회계서비스(개인)","category":"other"}]},{"lat":"37.334845698","long":"127.48535028","imageIndex":17,"items":[{"name":"슈리요가","tel":"031-634-5373","addr":"경기도 이천시 백사면 송말리 105-2번지","indutype":"회원제형태 - 레져업소","category":"other"}]},{"lat":"37.342181075","long":"127.48062365","imageIndex":17,"items":[{"name":"아크모형","tel":"031-632-1308","addr":"경기도 이천시 백사면 송말리 207-2번지","indutype":"서적문구 - 기타서적문구","category":"other"}]},{"lat":"37.348898777","long":"127.48156909","imageIndex":17,"items":[{"name":"통적골도예방","tel":"031-634-0370","addr":"경기도 이천시 백사면 송말리 292번지","indutype":"문화.취미 - 민예·공예품","category":"other"}]},{"lat":"37.338678917","long":"127.48879399","imageIndex":17,"items":[{"name":"한국산야농원","tel":"031-632-6790","addr":"경기도 이천시 백사면 송말리 71-10","indutype":"문화.취미 - 화원","category":"other"},{"name":"한국산야농원","tel":"031-632-6790","addr":"경기도 이천시 백사면 송말리 71-10번지","indutype":"문화.취미 - 화원","category":"other"}]},{"lat":"37.337624493","long":"127.48665446","imageIndex":17,"items":[{"name":"한양비니루종합상사","tel":"031-631-6786","addr":"경기도 이천시 백사면 송말리 93-21","indutype":"유통업 영리 - 기타유통업","category":"other"}]},{"lat":"37.335240015","long":"127.48587186","imageIndex":4,"items":[{"name":"달봉이부페.찐빵","tel":"031-638-2727","addr":"경기도 이천시 백사면 송말리 104-3번지","indutype":"일반휴게음식 - 일반한식","category":"restaurant"}]},{"lat":"37.338236518","long":"127.48681637","imageIndex":4,"items":[{"name":"마포갈비 백사점","tel":"031-634-5233","addr":"경기도 이천시 백사면 송말리 93-1번지","indutype":"일반휴게음식 - 일반한식","category":"restaurant"}]},{"lat":"37.334684211","long":"127.48517999","imageIndex":4,"items":[{"name":"바른나무","tel":"031-000-0000","addr":"경기도 이천시 백사면 송말리 105-10번지 1층","indutype":"일반휴게음식 - 서양음식","category":"restaurant"}]},{"lat":"37.33781957","long":"127.48742305","imageIndex":4,"items":[{"name":"백사기사님식당","tel":"031-631-0689","addr":"경기도 이천시 백사면 송말리 93-2번지","indutype":"일반휴게음식 - 일반한식","category":"restaurant"}]},{"lat":"37.336325227","long":"127.4870975","imageIndex":4,"items":[{"name":"양평해장국 (백사점)","tel":"031-631-5522","addr":"경기도 이천시 백사면 송말리 95-4번지 A동","indutype":"일반휴게음식 - 일반한식","category":"restaurant"}]},{"lat":"37.347513821","long":"127.48315159","imageIndex":4,"items":[{"name":"어메이징 이천 브루어리","tel":"02-464-5208","addr":"경기도 이천시 백사면 송말리 276-2번지","indutype":"일반휴게음식 - 서양음식","category":"restaurant"}]},{"lat":"37.335902456","long":"127.48692552","imageIndex":4,"items":[{"name":"옥계촌","tel":"031-634-0607","addr":"경기도 이천시 백사면 송말리 97-2번지","indutype":"일반휴게음식 - 일반한식","category":"restaurant"}]},{"lat":"37.335264186","long":"127.48657162","imageIndex":4,"items":[{"name":"재운방주","tel":"031-632-2799","addr":"경기도 이천시 백사면 송말리 104-9번지","indutype":"일반휴게음식 - 일반한식","category":"restaurant"},{"name":"카페 484","tel":"031-635-2000","addr":"경기도 이천시 백사면 송말리 104-9번지","indutype":"일반휴게음식 - 서양음식","category":"restaurant"}]},{"lat":"37.335713665","long":"127.48682275","imageIndex":4,"items":[{"name":"홍등","tel":"031-632-7047","addr":"경기도 이천시 백사면 송말리 98번지","indutype":"일반휴게음식 - 중국식","category":"restaurant"}]},{"lat":"37.334459056","long":"127.48515598","imageIndex":4,"items":[{"name":"흥부네찐빵만두","tel":"031-632-5860","addr":"경기도 이천시 백사면 송말리 105-9번지","indutype":"일반휴게음식 - 일반한식","category":"restaurant"}]},{"lat":"37.335543243","long":"127.48220651","imageIndex":5,"items":[{"name":"망고","tel":"031-631-3417","addr":"경기도 이천시 백사면 송말리 114번지","indutype":"숙박업 - 여관/기타숙박업","category":"hotel"}]},{"lat":"37.340011866","long":"127.48892671","imageIndex":16,"items":[{"name":"무지개유치원[아이행복]","tel":"031-632-4082","addr":"경기도 이천시 백사면 송말리 71-21번지","indutype":"학원 - 유치원","category":"study"}]},{"lat":"37.337488597","long":"127.48903458","imageIndex":16,"items":[{"name":"미소가득어린이집[아이행복]","tel":"031-634-4464","addr":"경기도 이천시 백사면 송말리 75번지","indutype":"학원 - 유아원","category":"study"}]},{"lat":"37.340067408","long":"127.48856596","imageIndex":16,"items":[{"name":"백사무지개어린이집[아이행복]","tel":"031-632-1813","addr":"경기도 이천시 백사면 송말리 71-7번지","indutype":"학원 - 유아원","category":"study"}]},{"lat":"37.335264186","long":"127.48657162","imageIndex":0,"items":[{"name":"송현세차장","tel":"031-635-2000","addr":"경기도 이천시 백사면 송말리 104-9번지","indutype":"자동차정비 유지 - 세차장","category":"car"}]},{"lat":"37.33781957","long":"127.48742305","imageIndex":0,"items":[{"name":"중앙자동차정비공업사","tel":"031-632-1333","addr":"경기도 이천시 백사면 송말리 93-2번지","indutype":"자동차정비 유지 - 자동차정비","category":"car"}]},{"lat":"37.337656469","long":"127.48764769","imageIndex":0,"items":[{"name":"중앙자동차정비공업사","tel":"031-632-1333","addr":"경기도 이천시 백사면 송말리 93-13번지","indutype":"자동차정비 유지 - 자동차정비","category":"car"}]}]