[{"lat":"37.47460612","long":"127.2408967","imageIndex":17,"items":[{"name":"JT채널","tel":"031-4493-3363","addr":"경기도 광주시 남한산성면 엄미리 241-4번지","indutype":"용역 서비스 - 종합용역","category":"other"}]},{"lat":"37.4741861","long":"127.2436424","imageIndex":17,"items":[{"name":"대윤창호","tel":"031-764-0095","addr":"경기도 광주시 남한산성면 엄미리 221-9번지 (221-2,221-25,221-26번지)","indutype":"건축자재 - 보일러·펌프·샷시","category":"other"}]},{"lat":"37.47452626","long":"127.2311403","imageIndex":17,"items":[{"name":"리피홀딩스","tel":"","addr":"경기도 광주시 남한산성면 엄미리 275-2번지 1층","indutype":"문화.취미 - 애완동물","category":"other"}]},{"lat":"37.47377045","long":"127.244229","imageIndex":17,"items":[{"name":"산성리마인드","tel":"031-7078-4499","addr":"경기도 광주시 남한산성면 엄미리 221-6번지","indutype":"전기제품 - 가전제품","category":"other"}]},{"lat":"37.47596651","long":"127.2223379","imageIndex":17,"items":[{"name":"유한회사 클로이론","tel":"","addr":"경기도 광주시 남한산성면 엄미리 650-1번지","indutype":"레져용품 - 스포츠·레져용품","category":"other"}]},{"lat":"37.47157944","long":"127.2267226","imageIndex":17,"items":[{"name":"이빠진동그라미","tel":"031-766-0981","addr":"경기도 광주시 남한산성면 엄미리 401-1번지","indutype":"회원제형태 - 기타4","category":"other"}]},{"lat":"37.47615712","long":"127.2402572","imageIndex":17,"items":[{"name":"주식회사 케이씨알","tel":"031-791-2100","addr":"경기도 광주시 남한산성면 엄미리 238-1번지 1층","indutype":"서적문구 - 정기간행물","category":"other"}]},{"lat":"37.4686323","long":"127.2497853","imageIndex":17,"items":[{"name":"주식회사코인즈이엔디","tel":"070-4128-0615","addr":"경기도 광주시 남한산성면 엄미리 163-6번지","indutype":"신변잡화 - 기타잡화","category":"other"}]},{"lat":"37.47421663","long":"127.2328351","imageIndex":17,"items":[{"name":"주식회사큰틀종합상사","tel":"02-475-1122","addr":"경기도 광주시 남한산성면 엄미리 276-1번지","indutype":"전기제품 - 가전제품","category":"other"}]},{"lat":"37.47335252","long":"127.2459233","imageIndex":17,"items":[{"name":"풍산산업개발","tel":"031-761-6178","addr":"경기도 광주시 남한산성면 엄미리 199-9번지","indutype":"건축자재 - 기타건축자재","category":"other"}]},{"lat":"37.47296343","long":"127.2510544","imageIndex":17,"items":[{"name":"한국펫타운","tel":"031-763-2005","addr":"경기도 광주시 남한산성면 엄미리 123번지 남한산성","indutype":"문화.취미 - 애완동물","category":"other"}]},{"lat":"37.47463265","long":"127.2411455","imageIndex":17,"items":[{"name":"현빈유통","tel":"0505-790-3376","addr":"경기도 광주시 남한산성면 엄미리 234-3","indutype":"문화.취미 - 애완동물","category":"other"}]}]