[{"lat":"37.852583856","long":"127.22476748","imageIndex":17,"items":[{"name":"SM씽크붙박이","tel":"031-542-0548","addr":"경기도 포천시 군내면 좌의리 208-8번지","indutype":"가구 - 일반가구","category":"other"}]},{"lat":"37.857060452","long":"127.21557678","imageIndex":17,"items":[{"name":"누리하나","tel":"031-536-5040","addr":"경기도 포천시 군내면 좌의리 307번지","indutype":"가구 - 일반가구","category":"other"}]},{"lat":"37.866113343","long":"127.21138656","imageIndex":17,"items":[{"name":"대흥탱크","tel":"031-536-4044","addr":"경기도 포천시 군내면 좌의리 449-1번지","indutype":"건축자재 - 기타건축자재","category":"other"}]},{"lat":"37.863059609","long":"127.21113932","imageIndex":17,"items":[{"name":"미랜","tel":"070-4018-2124","addr":"경기도 포천시 군내면 좌의리 408-1번지","indutype":"회원제형태 - 기타1","category":"other"}]},{"lat":"37.856084975","long":"127.21693753","imageIndex":17,"items":[{"name":"보드114","tel":"","addr":"경기도 포천시 군내면 좌의리 286번지","indutype":"사무통신 - 기타 사무용품","category":"other"}]},{"lat":"37.863581566","long":"127.21147034","imageIndex":17,"items":[{"name":"선진건설","tel":"031-536-9456","addr":"경기도 포천시 군내면 좌의리 410-1번지","indutype":"용역 서비스 - 기타용역서비스","category":"other"}]},{"lat":"37.869859429","long":"127.22229622","imageIndex":17,"items":[{"name":"신영산업","tel":"031-541-8589","addr":"경기도 포천시 군내면 좌의리 23-23번지","indutype":"가구 - 일반가구","category":"other"}]},{"lat":"37.853117797","long":"127.21863333","imageIndex":17,"items":[{"name":"태연이엔지","tel":"031-536-4271","addr":"경기도 포천시 군내면 좌의리 224-2번지","indutype":"기타 - 기계공구","category":"other"}]},{"lat":"37.859665804","long":"127.21466382","imageIndex":17,"items":[{"name":"파파스 퍼니처","tel":"031-536-2352","addr":"경기도 포천시 군내면 좌의리 352-3번지","indutype":"가구 - 일반가구","category":"other"}]}]