[{"lat":"37.199965911","long":"127.11318923","imageIndex":13,"items":[{"name":"3.4.5헤어살롱 동탄점","tel":"031-376-0354","addr":"경기도 화성시 청계동 535-2번지 센텀프라자 2층 205호","indutype":"보건위생 - 미용원","category":"beauty"},{"name":"아이벨르팜므제2동탄점","tel":"031-377-1201","addr":"경기도 화성시 청계동 535-2번지 203호","indutype":"보건위생 - 미용원","category":"beauty"}]},{"lat":"37.199108966","long":"127.11421299","imageIndex":13,"items":[{"name":"BLANCHE SKincare(블랑쉬스킨케어)","tel":"","addr":"경기도 화성시 청계동 536번지 시범반도유보라 아이비파크4.0 G동 1층 112호","indutype":"보건위생 - 피부미용실","category":"beauty"},{"name":"네일아침","tel":"031-373-2256","addr":"경기도 화성시 청계동 536번지 시범반도유보라아이비파크4.0 1층 1112호","indutype":"보건위생 - 피부미용실","category":"beauty"},{"name":"네일포유","tel":"031-234-1700","addr":"경기도 화성시 청계동 536번지 시범반도유보라아이비파크4.0 1층 70호","indutype":"보건위생 - 피부미용실","category":"beauty"},{"name":"더 반하다 헤어","tel":"031-372-9559","addr":"경기도 화성시 청계동 536번지 시범반도유보라아이비파크4.0 1층 1013호","indutype":"보건위생 - 미용원","category":"beauty"},{"name":"더리움테라피(The REUM Therapy)","tel":"031-373-7151","addr":"경기도 화성시 청계동 536번지 시범반도유보라아이비파크4.0 2층","indutype":"보건위생 - 피부미용실","category":"beauty"},{"name":"더쉼헤어살롱","tel":"031-8015-3666","addr":"경기도 화성시 청계동 536번지 시범반도유보라아이비파크4.0 판매시설 지1층 53호","indutype":"보건위생 - 미용원","category":"beauty"},{"name":"라임에스테틱","tel":"","addr":"경기도 화성시 청계동 536번지 시범반도유보라아이비파크4.0 1층 1004호","indutype":"보건위생 - 피부미용실","category":"beauty"},{"name":"란에스테틱&네일","tel":"031-8050-5404","addr":"경기도 화성시 청계동 536번지 시범반도4차 카림애비뉴 1층 1027호","indutype":"보건위생 - 피부미용실","category":"beauty"},{"name":"루체 스킨케어","tel":"031-831-5775","addr":"경기도 화성시 청계동 536번지 시범반도유보라아이비파크4.0 1006,1007호","indutype":"보건위생 - 피부미용실","category":"beauty"},{"name":"반해쓰 헤어","tel":"031-375-5802","addr":"경기도 화성시 청계동 536번지 시범반도유보라아이비파크4.0 판매시설 1층 101호","indutype":"보건위생 - 미용원","category":"beauty"},{"name":"뷰티살롱이엘","tel":"070-4383-2327","addr":"경기도 화성시 청계동 536번지 시범반도유보라 아이비파크4.0 B1층 0087호","indutype":"보건위생 - 화장품","category":"beauty"},{"name":"아이디어안경 동탄점","tel":"031-000-0000","addr":"경기도 화성시 청계동 536번지 시범 반도유보라 아이비파크4.0 G동 1층 28호","indutype":"보건위생 - 안경","category":"beauty"},{"name":"엔젤스킨 (ANGEL SKIN)","tel":"031-000-0000","addr":"경기도 화성시 청계동 536번지 시범반도유보라아이비파크4.0 판매시설 1층 1102호","indutype":"보건위생 - 피부미용실","category":"beauty"},{"name":"우리보청기센터","tel":"031-8055-8642","addr":"경기도 화성시 청계동 536번지 시범반도유보라아이비파크4.0 2층 2130호 일부","indutype":"보건위생 - 의료용품","category":"beauty"},{"name":"이디스헤어","tel":"031-372-6034","addr":"경기도 화성시 청계동 536번지 시범반도유보라아이비파크4.0 1층 1025호","indutype":"보건위생 - 미용원","category":"beauty"},{"name":"이철헤어커커 동탄애비뉴점","tel":"031-376-2327","addr":"경기도 화성시 청계동 536번지 시범반도유보라아이비파크4.0 1층 1018호","indutype":"보건위생 - 미용원","category":"beauty"},{"name":"정's 컬러","tel":"070-7607-0879","addr":"경기도 화성시 청계동 536번지 시범반도유보라아이비파크4.0 판매시설 지하1층 79호","indutype":"보건위생 - 미용원","category":"beauty"},{"name":"준오헤어","tel":"031-358-0605","addr":"경기도 화성시 청계동 536번지 시범반도유보라아이비파크4.0 2층 2151-2154호","indutype":"보건위생 - 미용원","category":"beauty"},{"name":"카림 네일","tel":"031-8055-8372","addr":"경기도 화성시 청계동 536번지 시범반도유보라아이비파크4.0 2층 2117호","indutype":"보건위생 - 피부미용실","category":"beauty"},{"name":"카림안경","tel":"031-372-9010","addr":"경기도 화성시 청계동 536번지 시범반도유보라아이비파크4.0 지하1층 92,93호","indutype":"보건위생 - 안경","category":"beauty"},{"name":"코지왁싱","tel":"","addr":"경기도 화성시 청계동 536번지 시범반도유보라아이비파크4.0 2층 2017호","indutype":"보건위생 - 피부미용실","category":"beauty"},{"name":"티나헤어","tel":"031-8058-2885","addr":"경기도 화성시 청계동 536번지 시범반도유보라아이비파크4.0 1층 1038호","indutype":"보건위생 - 미용원","category":"beauty"},{"name":"피움네일","tel":"031-8043-1870","addr":"경기도 화성시 청계동 536번지 시범반도유보라아이비파크4.0 1층 1037호","indutype":"보건위생 - 피부미용실","category":"beauty"}]},{"lat":"37.200776013","long":"127.11408027","imageIndex":13,"items":[{"name":"J.플로리스 안경","tel":"031-375-0260","addr":"경기도 화성시 청계동 534-2번지 피추프라자 113호 112~113호","indutype":"보건위생 - 안경","category":"beauty"},{"name":"보그헤어 동탄2신도시시범점","tel":"031-372-5925","addr":"경기도 화성시 청계동 534-2번지 201호","indutype":"보건위생 - 미용원","category":"beauty"}]},{"lat":"37.201245073","long":"127.10341388","imageIndex":13,"items":[{"name":"JK헤어","tel":"031-8003-7668","addr":"경기도 화성시 청계동 514번지 동탄역시범금강펜테리움센트럴파크아파트 215동 1층 105호","indutype":"보건위생 - 미용원","category":"beauty"},{"name":"케어셀라동탄","tel":"031-375-6570","addr":"경기도 화성시 청계동 514번지 동탄역시범금강펜테리움센트럴파크아파트 215동 108호","indutype":"보건위생 - 화장품","category":"beauty"}]},{"lat":"37.195613919","long":"127.11316037","imageIndex":13,"items":[{"name":"가위소리","tel":"031-378-9565","addr":"경기도 화성시 청계동 541번지 롯데캐슬알바트로스 101호 102호","indutype":"보건위생 - 미용원","category":"beauty"}]},{"lat":"37.200244062","long":"127.11443993","imageIndex":13,"items":[{"name":"나이스가이","tel":"031-374-3222","addr":"경기도 화성시 청계동 535-5번지 마추프라자 1층 115호","indutype":"보건위생 - 이용원","category":"beauty"},{"name":"네일스(NAILS)","tel":"031-377-7997","addr":"경기도 화성시 청계동 535-5번지 마추프라자 B103호","indutype":"보건위생 - 피부미용실","category":"beauty"},{"name":"라브리지(청계점)","tel":"031-373-2133","addr":"경기도 화성시 청계동 535-5번지 마추프라자 206호","indutype":"보건위생 - 미용원","category":"beauty"},{"name":"미스킨케어 (동탄점)","tel":"031-000-0000","addr":"경기도 화성시 청계동 535-5번지 103호","indutype":"보건위생 - 화장품","category":"beauty"},{"name":"시크릿","tel":"","addr":"경기도 화성시 청계동 535-5번지 마추프라자 108호","indutype":"보건위생 - 피부미용실","category":"beauty"},{"name":"클럽밸런스5 동탄청계점","tel":"031-373-6905","addr":"경기도 화성시 청계동 535-5번지 마추프라자 3층 308호","indutype":"보건위생 - 의료용품","category":"beauty"},{"name":"토리헤어 청계점","tel":"031-377-2335","addr":"경기도 화성시 청계동 535-5번지 마추프라자 201호","indutype":"보건위생 - 미용원","category":"beauty"},{"name":"헤어아밀리","tel":"031-373-5335","addr":"경기도 화성시 청계동 535-5번지 307호","indutype":"보건위생 - 미용원","category":"beauty"}]},{"lat":"37.200109298","long":"127.11402297","imageIndex":13,"items":[{"name":"눈길안경","tel":"031-372-5439","addr":"경기도 화성시 청계동 535-4번지 112,113호","indutype":"보건위생 - 안경","category":"beauty"},{"name":"동탄청계에듀플렉스심리상담연구소","tel":"031-8043-2038","addr":"경기도 화성시 청계동 535-4번지 2층 203호","indutype":"보건위생 - 기타대인서비스","category":"beauty"},{"name":"봉선화","tel":"031-376-8222","addr":"경기도 화성시 청계동 535-4번지 106호","indutype":"보건위생 - 화장품","category":"beauty"},{"name":"프리미엄더풋샵(PREMIUM THE FOOT SHOP)","tel":"031-376-0071","addr":"경기도 화성시 청계동 535-4번지","indutype":"보건위생 - 화장품","category":"beauty"}]},{"lat":"37.198246852","long":"127.12055314","imageIndex":13,"items":[{"name":"늘헤어","tel":"031-372-7907","addr":"경기도 화성시 청계동 556번지 청계숲사랑으로부영 1동 1층 104호","indutype":"보건위생 - 미용원","category":"beauty"},{"name":"올가뷰티","tel":"","addr":"경기도 화성시 청계동 556번지 청계숲사랑으로부영 1동 109호","indutype":"보건위생 - 화장품","category":"beauty"}]},{"lat":"37.200109604","long":"127.11369632","imageIndex":13,"items":[{"name":"델라 에스테틱","tel":"031-377-0520","addr":"경기도 화성시 청계동 535-3번지 인터프라임 1동 4층 408호","indutype":"보건위생 - 피부미용실","category":"beauty"},{"name":"리안헤어 동탄시범2호점","tel":"031-376-6133","addr":"경기도 화성시 청계동 535-3번지 202호","indutype":"보건위생 - 미용원","category":"beauty"},{"name":"살롱K(salon K)","tel":"","addr":"경기도 화성시 청계동 535-3번지 206호","indutype":"보건위생 - 미용원","category":"beauty"},{"name":"스킨앤수","tel":"031-487-8879","addr":"경기도 화성시 청계동 535-3번지 인터프라임 1동 207호일부호","indutype":"보건위생 - 피부미용실","category":"beauty"},{"name":"토니모리 동탄청계점","tel":"02-593-3191","addr":"경기도 화성시 청계동 535-3번지 107호","indutype":"보건위생 - 화장품","category":"beauty"},{"name":"헬로우컷","tel":"031-0000-0000","addr":"경기도 화성시 청계동 535-3번지 103호","indutype":"보건위생 - 미용원","category":"beauty"}]},{"lat":"37.200218254","long":"127.11313328","imageIndex":13,"items":[{"name":"라비앙헤어","tel":"031-372-3062","addr":"경기도 화성시 청계동 535-1번지 포트센트럴시티 101호","indutype":"보건위생 - 미용원","category":"beauty"},{"name":"퍼스트안경","tel":"031-372-6677","addr":"경기도 화성시 청계동 535-1번지 106호","indutype":"보건위생 - 안경","category":"beauty"}]},{"lat":"37.19683106","long":"127.10213526","imageIndex":13,"items":[{"name":"라움헤어","tel":"031-372-1360","addr":"경기도 화성시 청계동 520번지 동탄꿈에그린프레스티지 101호","indutype":"보건위생 - 미용원","category":"beauty"},{"name":"헤어라운지","tel":"031-376-0377","addr":"경기도 화성시 청계동 520번지 동탄꿈에그린프레스티지 그린생활시설3 제122-1호","indutype":"보건위생 - 미용원","category":"beauty"}]},{"lat":"37.201465288","long":"127.10919266","imageIndex":13,"items":[{"name":"라인하나뷰티샵(Linehana beauty shop)","tel":"","addr":"경기도 화성시 청계동 531-2번지 중앙프라자 5층 507호 일부","indutype":"보건위생 - 피부미용실","category":"beauty"},{"name":"아르떼헤어","tel":"","addr":"경기도 화성시 청계동 531-2번지 중앙프라자 203호","indutype":"보건위생 - 미용원","category":"beauty"}]},{"lat":"37.19394261","long":"127.11777577","imageIndex":13,"items":[{"name":"류 헤어(Hair)","tel":"031-378-1352","addr":"경기도 화성시 청계동 545번지 동탄2신도시신안인스빌 201호","indutype":"보건위생 - 미용원","category":"beauty"},{"name":"엠 제이 헤어살롱","tel":"","addr":"경기도 화성시 청계동 545번지 동탄2신도시신안인스빌 상가동 108호","indutype":"보건위생 - 미용원","category":"beauty"},{"name":"올가스킨","tel":"070-7848-9306","addr":"경기도 화성시 청계동 545번지 동탄2신도시신안인스빌 상가동 1층 107호","indutype":"보건위생 - 피부미용실","category":"beauty"},{"name":"펌앤컷","tel":"031-377-2030","addr":"경기도 화성시 청계동 545번지 신안인스빌리베라 상가동 1층 103호","indutype":"보건위생 - 미용원","category":"beauty"}]},{"lat":"37.20216563","long":"127.11190831","imageIndex":13,"items":[{"name":"미장원 by.u","tel":"031-372-0864","addr":"경기도 화성시 청계동 533번지 상가동 지하1층 108호","indutype":"보건위생 - 미용원","category":"beauty"},{"name":"올가스킨","tel":"031-000-0000","addr":"경기도 화성시 청계동 533번지 반도유보라아이비파크 상가 109호","indutype":"보건위생 - 화장품","category":"beauty"}]},{"lat":"37.202995181","long":"127.10091551","imageIndex":13,"items":[{"name":"보떼헤어","tel":"031-377-9875","addr":"경기도 화성시 청계동 512번지 시범우남퍼스트빌 상가1동 302,303호","indutype":"보건위생 - 미용원","category":"beauty"}]},{"lat":"37.200414887","long":"127.11483442","imageIndex":13,"items":[{"name":"아이시스","tel":"031-375-7678","addr":"경기도 화성시 청계동 535-6번지 디스퀘어 104호","indutype":"보건위생 - 안경","category":"beauty"}]},{"lat":"37.198445488","long":"127.10024508","imageIndex":13,"items":[{"name":"알즈너 평안 대리점","tel":"","addr":"경기도 화성시 청계동 519번지 센트럴시티 1401동 202호","indutype":"보건위생 - 의료용품","category":"beauty"},{"name":"헤어모델","tel":"031-8003-2402","addr":"경기도 화성시 청계동 519번지 동탄역시범더샵센트럴시티 109호 일부호","indutype":"보건위생 - 미용원","category":"beauty"}]},{"lat":"37.202083676","long":"127.10266029","imageIndex":13,"items":[{"name":"예린헤어","tel":"031-377-4686","addr":"경기도 화성시 청계동 514-2번지 2층 202호","indutype":"보건위생 - 미용원","category":"beauty"}]},{"lat":"37.195633069","long":"127.12132625","imageIndex":13,"items":[{"name":"이끌림헤어","tel":"031-376-3110","addr":"경기도 화성시 청계동 558번지 대원칸타빌포레지움 1층 115호","indutype":"보건위생 - 미용원","category":"beauty"}]},{"lat":"37.197053065","long":"127.1158319","imageIndex":13,"items":[{"name":"이루리코스메틱","tel":"","addr":"경기도 화성시 청계동 538번지 동탄2신도시센트럴푸르지오 1326동 2106호","indutype":"보건위생 - 화장품","category":"beauty"}]},{"lat":"37.201303726","long":"127.10849406","imageIndex":13,"items":[{"name":"제이미네일","tel":"031-000-0000","addr":"경기도 화성시 청계동 531-4번지 201호","indutype":"보건위생 - 피부미용실","category":"beauty"},{"name":"제이미스타일동탄3호점","tel":"031-214-5525","addr":"경기도 화성시 청계동 531-4번지 201호","indutype":"보건위생 - 미용원","category":"beauty"}]},{"lat":"37.197779588","long":"127.10969435","imageIndex":13,"items":[{"name":"체리헤어","tel":"031-372-0115","addr":"경기도 화성시 청계동 525번지 시범호반베르디움 상가-2동 106호","indutype":"보건위생 - 미용원","category":"beauty"}]},{"lat":"37.201501653","long":"127.10883225","imageIndex":13,"items":[{"name":"촉감헤어","tel":"","addr":"경기도 화성시 청계동 531-3번지 103호","indutype":"보건위생 - 미용원","category":"beauty"}]},{"lat":"37.200667316","long":"127.11468836","imageIndex":13,"items":[{"name":"하바나헤어","tel":"031-1111-1111","addr":"경기도 화성시 청계동 535-7번지 범환프라자 1층 108호","indutype":"보건위생 - 미용원","category":"beauty"}]}]