[{"lat":"37.029577786","long":"127.16041453","imageIndex":17,"items":[{"name":"(주)고려도장기산업","tel":"031-804-8683","addr":"경기도 안성시 원곡면 반제리 257번지","indutype":"기타 - 기계공구","category":"other"}]},{"lat":"37.009635678","long":"127.15466561","imageIndex":17,"items":[{"name":"(주)신양안성제2공장","tel":"031-652-3508","addr":"경기도 안성시 원곡면 반제리 547번지","indutype":"유통업 영리 - 기타유통업","category":"other"}]},{"lat":"37.017659532","long":"127.16499706","imageIndex":17,"items":[{"name":"(주)은준","tel":"031-652-0361","addr":"경기도 안성시 원곡면 반제리 441-30","indutype":"농업 - 농기계","category":"other"}]},{"lat":"37.016129802","long":"127.16346562","imageIndex":17,"items":[{"name":"공도 영화원 장례식장","tel":"031-652-2100","addr":"경기도 안성시 원곡면 반제리 441번지","indutype":"용역 서비스 - 가례서비스업","category":"other"},{"name":"뉴천지 특수여객","tel":"","addr":"경기도 안성시 원곡면 반제리 441번지","indutype":"용역 서비스 - 가례서비스업","category":"other"},{"name":"영화원 아름플라워","tel":"031-651-6577","addr":"경기도 안성시 원곡면 반제리 441번지 1층","indutype":"문화.취미 - 화원","category":"other"}]},{"lat":"37.020439619","long":"127.16804828","imageIndex":17,"items":[{"name":"명예브리스","tel":"031-653-2295","addr":"경기도 안성시 원곡면 반제리 86-1번지","indutype":"의류 - 내의판매","category":"other"}]},{"lat":"37.013414133","long":"127.14497621","imageIndex":17,"items":[{"name":"선일통산주식회사","tel":"031-655-0531","addr":"경기도 안성시 원곡면 반제리 642-6번지","indutype":"유통업 영리 - 인터넷 Mall","category":"other"}]},{"lat":"37.02360542","long":"127.1722693","imageIndex":17,"items":[{"name":"옛이야기","tel":"031-8003-4225","addr":"경기도 안성시 원곡면 반제리 41-20번지","indutype":"가구 - 일반가구","category":"other"}]},{"lat":"37.017908163","long":"127.16766074","imageIndex":13,"items":[{"name":"(주)아이썸","tel":"031-651-7007","addr":"경기도 안성시 원곡면 반제리 441-19번지","indutype":"보건위생 - 화장품","category":"beauty"}]},{"lat":"37.023406351","long":"127.17285322","imageIndex":9,"items":[{"name":"공항에너지","tel":"031-658-7500","addr":"경기도 안성시 원곡면 반제리 40-2번지","indutype":"연료판매점 - 유류판매","category":"oil"},{"name":"공항에너지","tel":"031-618-7500","addr":"경기도 안성시 원곡면 반제리 40-2번지","indutype":"연료판매점 - 유류판매","category":"oil"}]},{"lat":"37.028687236","long":"127.1592776","imageIndex":9,"items":[{"name":"디제이 주식회사","tel":"070-8730-5624","addr":"경기도 안성시 원곡면 반제리 265-2번지","indutype":"연료판매점 - 기타연료","category":"oil"}]},{"lat":"37.012683637","long":"127.14550295","imageIndex":9,"items":[{"name":"한국도로공사안성 (부산)주유소","tel":"031-651-5385","addr":"경기도 안성시 원곡면 반제리 642-5번지","indutype":"연료판매점 - 기타연료","category":"oil"}]},{"lat":"37.014239203","long":"127.16224811","imageIndex":4,"items":[{"name":"남도한정식부폐","tel":"031-658-8840","addr":"경기도 안성시 원곡면 반제리 442-9번지","indutype":"일반휴게음식 - 일반한식","category":"restaurant"},{"name":"미소한식밥상","tel":"","addr":"경기도 안성시 원곡면 반제리 442-9번지","indutype":"일반휴게음식 - 일반한식","category":"restaurant"}]},{"lat":"37.016657177","long":"127.16657931","imageIndex":4,"items":[{"name":"동산식당","tel":"031-653-6131","addr":"경기도 안성시 원곡면 반제리 441-36번지","indutype":"일반휴게음식 - 일반한식","category":"restaurant"}]},{"lat":"37.023856915","long":"127.17283175","imageIndex":4,"items":[{"name":"들꽃","tel":"031-652-3715","addr":"경기도 안성시 원곡면 반제리 39-2번지 나동 1층","indutype":"일반휴게음식 - 일반한식","category":"restaurant"},{"name":"장모님뷔페","tel":"031-673-9870","addr":"경기도 안성시 원곡면 반제리 39-2번지 1층","indutype":"일반휴게음식 - 일반한식","category":"restaurant"},{"name":"포에버","tel":"031-692-1159","addr":"경기도 안성시 원곡면 반제리 39-2번지 2층","indutype":"일반휴게음식 - 서양음식","category":"restaurant"}]},{"lat":"37.024824284","long":"127.16405705","imageIndex":4,"items":[{"name":"라에리","tel":"031-674-0789","addr":"경기도 안성시 원곡면 반제리 107-2번지 2층","indutype":"일반휴게음식 - 서양음식","category":"restaurant"},{"name":"반제골","tel":"031-651-4805","addr":"경기도 안성시 원곡면 반제리 107-2번지","indutype":"일반휴게음식 - 일반한식","category":"restaurant"}]},{"lat":"37.033549218","long":"127.16210862","imageIndex":4,"items":[{"name":"무진장","tel":"031-657-6340","addr":"경기도 안성시 원곡면 반제리 199-1번지","indutype":"일반휴게음식 - 일반한식","category":"restaurant"}]},{"lat":"37.027744199","long":"127.16371483","imageIndex":4,"items":[{"name":"봄날","tel":"031-657-7816","addr":"경기도 안성시 원곡면 반제리 161번지","indutype":"일반휴게음식 - 서양음식","category":"restaurant"}]},{"lat":"37.02715831","long":"127.16385969","imageIndex":4,"items":[{"name":"봉가네손두부","tel":"031-653-2745","addr":"경기도 안성시 원곡면 반제리 162-2번지","indutype":"일반휴게음식 - 일반한식","category":"restaurant"}]},{"lat":"37.013414133","long":"127.14497621","imageIndex":4,"items":[{"name":"선일통산주식회사","tel":"031-655-0531","addr":"경기도 안성시 원곡면 반제리 642-6번지","indutype":"일반휴게음식 - 일반한식","category":"restaurant"},{"name":"선일통산주식회사","tel":"031-655-0531","addr":"경기도 안성시 원곡면 반제리 642-6번지","indutype":"일반휴게음식 - 일반한식","category":"restaurant"},{"name":"선일통산주식회사 드롭탑","tel":"031-655-0531","addr":"경기도 안성시 원곡면 반제리 642-6번지","indutype":"일반휴게음식 - 서양음식","category":"restaurant"}]},{"lat":"37.02360542","long":"127.1722693","imageIndex":4,"items":[{"name":"소담마루","tel":"031-335-8417","addr":"경기도 안성시 원곡면 반제리 41-20번지 1층","indutype":"일반휴게음식 - 일반한식","category":"restaurant"}]},{"lat":"37.011243132","long":"127.15185982","imageIndex":4,"items":[{"name":"염소보신마을","tel":"031-657-8665","addr":"경기도 안성시 원곡면 반제리 622-2번지","indutype":"일반휴게음식 - 일반한식","category":"restaurant"}]},{"lat":"37.027022846","long":"127.16408417","imageIndex":4,"items":[{"name":"예궁김치찌개","tel":"031-652-3788","addr":"경기도 안성시 원곡면 반제리 162-1번지 1층","indutype":"일반휴게음식 - 일반한식","category":"restaurant"}]},{"lat":"37.020016198","long":"127.16799117","imageIndex":4,"items":[{"name":"짱맛버거","tel":"","addr":"경기도 안성시 원곡면 반제리 86-8번지","indutype":"일반휴게음식 - 서양음식","category":"restaurant"}]},{"lat":"37.026544273","long":"127.16482488","imageIndex":4,"items":[{"name":"카페오지","tel":"031-656-5285","addr":"경기도 안성시 원곡면 반제리 168-1번지 다동 2층(명품관)","indutype":"일반휴게음식 - 서양음식","category":"restaurant"}]},{"lat":"37.026660196","long":"127.16571295","imageIndex":4,"items":[{"name":"커피누리","tel":"","addr":"경기도 안성시 원곡면 반제리 115-1번지 1-3호","indutype":"일반휴게음식 - 서양음식","category":"restaurant"}]},{"lat":"37.016522822","long":"127.16599471","imageIndex":0,"items":[{"name":"대원종합건설기계","tel":"031-654-6573","addr":"경기도 안성시 원곡면 반제리 441-8번지","indutype":"자동차정비 유지 - 중장비수리","category":"car"}]},{"lat":"37.024849639","long":"127.17174388","imageIndex":0,"items":[{"name":"디프코리아 본점","tel":"","addr":"경기도 안성시 원곡면 반제리 37-12번지","indutype":"자동차정비 유지 - 자동차부품","category":"car"}]},{"lat":"37.010524731","long":"127.14989214","imageIndex":0,"items":[{"name":"후지노테크(주)","tel":"031-654-2031","addr":"경기도 안성시 원곡면 반제리 620-8번지","indutype":"자동차정비 유지 - 자동차부품","category":"car"}]},{"lat":"37.024266159","long":"127.16366255","imageIndex":5,"items":[{"name":"모텔드라마","tel":"031-618-1588","addr":"경기도 안성시 원곡면 반제리 305번지","indutype":"숙박업 - 여관/기타숙박업","category":"hotel"}]},{"lat":"37.02115555","long":"127.16508315","imageIndex":7,"items":[{"name":"반제낚시터","tel":"031-652-6369","addr":"경기도 안성시 원곡면 반제리 378-4번지","indutype":"음료식품 - 기타음료식품","category":"food"}]},{"lat":"37.024322735","long":"127.16179718","imageIndex":7,"items":[{"name":"반제농장","tel":"031-651-6920","addr":"경기도 안성시 원곡면 반제리 312-2번지","indutype":"음료식품 - 농·축·수산품","category":"food"}]},{"lat":"37.016963043","long":"127.16693955","imageIndex":7,"items":[{"name":"주식회사 청산식품","tel":"031-654-5200","addr":"경기도 안성시 원곡면 반제리 441-17번지","indutype":"음료식품 - 정육점","category":"food"},{"name":"주식회사꼬꼬베리덕","tel":"031-654-5200","addr":"경기도 안성시 원곡면 반제리 441-17번지","indutype":"음료식품 - 기타음료식품","category":"food"},{"name":"청산식품","tel":"031-654-5200","addr":"경기도 안성시 원곡면 반제리 441-17 82/2","indutype":"음료식품 - 기타음료식품","category":"food"}]},{"lat":"37.021519601","long":"127.1624094","imageIndex":7,"items":[{"name":"호수양봉원","tel":"031-000-0000","addr":"경기도 안성시 원곡면 반제리 379-1번지","indutype":"건강식품 - 기타건강식품","category":"food"}]},{"lat":"37.017883462","long":"127.15927793","imageIndex":16,"items":[{"name":"이든어린이집[아이행복]","tel":"070-8854-5045","addr":"경기도 안성시 원곡면 반제리 산67-3번지","indutype":"학원 - 유아원","category":"study"}]},{"lat":"37.024742453","long":"127.1710806","imageIndex":8,"items":[{"name":"주식회사 레고켐제약","tel":"02-421-7266","addr":"경기도 안성시 원곡면 반제리 40-8번지","indutype":"약국 - 약국","category":"medical"}]}]