[{"lat":"37.671408421","long":"126.75671382","imageIndex":13,"items":[{"name":"김연실헤어토크","tel":"031-917-8337","addr":"경기도 고양시 일산서구 중앙로","indutype":"보건위생 - 미용원","category":"beauty"}]},{"lat":"37.668543152","long":"126.76540535","imageIndex":13,"items":[{"name":"머릿결사랑","tel":"031-925-9015","addr":"경기도 고양시 일산서구 중앙로","indutype":"보건위생 - 미용재료","category":"beauty"}]},{"lat":"37.668988285","long":"126.76276303","imageIndex":13,"items":[{"name":"미로걸헤어","tel":"070-4115-7603","addr":"경기도 고양시 일산서구 중앙로","indutype":"보건위생 - 미용원","category":"beauty"}]},{"lat":"37.675542685","long":"126.74768855","imageIndex":13,"items":[{"name":"벨리시마헤어","tel":"031-925-4634","addr":"경기도 고양시 일산서구 중앙로","indutype":"보건위생 - 미용원","category":"beauty"}]},{"lat":"37.675130203","long":"126.74859678","imageIndex":13,"items":[{"name":"보스헤어","tel":"031-904-2210","addr":"경기도 고양시 일산서구 중앙로","indutype":"보건위생 - 미용원","category":"beauty"}]},{"lat":"37.671458085","long":"126.75893526","imageIndex":13,"items":[{"name":"서은바디라인","tel":"031-923-4670","addr":"경기도 고양시 일산서구 중앙로","indutype":"보건위생 - 화장품","category":"beauty"},{"name":"한양JY심리발달센터","tel":"031-911-2266","addr":"경기도 고양시 일산서구 중앙로","indutype":"보건위생 - 기타대인서비스","category":"beauty"}]},{"lat":"37.670826499","long":"126.75849528","imageIndex":13,"items":[{"name":"아모레카운셀러","tel":"031-914-4725","addr":"경기도 고양시 일산서구 중앙로","indutype":"보건위생 - 화장품","category":"beauty"},{"name":"아모레카운셀러","tel":"031-914-4725","addr":"경기도 고양시 일산서구 중앙로","indutype":"보건위생 - 화장품","category":"beauty"},{"name":"아모레카운셀러","tel":"031-914-4725","addr":"경기도 고양시 일산서구 중앙로","indutype":"보건위생 - 화장품","category":"beauty"},{"name":"아모레카운셀러","tel":"031-924-4725","addr":"경기도 고양시 일산서구 중앙로","indutype":"보건위생 - 화장품","category":"beauty"},{"name":"아모레카운셀러","tel":"031-914-4725","addr":"경기도 고양시 일산서구 중앙로","indutype":"보건위생 - 화장품","category":"beauty"},{"name":"아모레카운셀러","tel":"031-914-4725","addr":"경기도 고양시 일산서구 중앙로","indutype":"보건위생 - 화장품","category":"beauty"}]},{"lat":"37.672346741","long":"126.75734547","imageIndex":13,"items":[{"name":"일섬","tel":"031-911-5964","addr":"경기도 고양시 일산서구 중앙로","indutype":"보건위생 - 화장품","category":"beauty"}]},{"lat":"37.667321077","long":"126.76701869","imageIndex":13,"items":[{"name":"탐라랜드사우나","tel":"031-922-7336","addr":"경기도 고양시 일산서구 중앙로","indutype":"보건위생 - 사우나","category":"beauty"}]}]