[{"lat":"37.179522406","long":"126.70853489","imageIndex":7,"items":[{"name":"굿아로니아베리코리아","tel":"031-356-5300","addr":"경기도 화성시 서신면 상안리 274-2번지","indutype":"음료식품 - 기타음료식품","category":"food"}]},{"lat":"37.176914192","long":"126.70684468","imageIndex":7,"items":[{"name":"농업회사법인 선비촌(주)","tel":"031-355-0132","addr":"경기도 화성시 서신면 상안리 566-1번지 101호","indutype":"음료식품 - 농·축·수산품","category":"food"}]},{"lat":"37.182827305","long":"126.70061663","imageIndex":7,"items":[{"name":"농업회사법인 유한회사 승만","tel":"","addr":"경기도 화성시 서신면 상안리 469번지","indutype":"음료식품 - 농·축·수산품","category":"food"}]},{"lat":"37.190435806","long":"126.71292993","imageIndex":7,"items":[{"name":"만나농원","tel":"031-356-7233","addr":"경기도 화성시 서신면 상안리 62","indutype":"음료식품 - 농·축·수산품","category":"food"}]},{"lat":"37.168049831","long":"126.70045031","imageIndex":7,"items":[{"name":"바다뜰건강원","tel":"031-357-0170","addr":"경기도 화성시 서신면 상안리 882-5번지 1층","indutype":"건강식품 - 기타건강식품","category":"food"}]},{"lat":"37.170664346","long":"126.70819768","imageIndex":7,"items":[{"name":"봄비농원","tel":"031-357-2129","addr":"경기도 화성시 서신면 상안리 768-3번지","indutype":"음료식품 - 농·축·수산품","category":"food"}]},{"lat":"37.168604901","long":"126.70258734","imageIndex":7,"items":[{"name":"서신방앗간","tel":"031-357-0052","addr":"경기도 화성시 서신면 상안리 877-7 5","indutype":"음료식품 - 제과점","category":"food"}]},{"lat":"37.172215603","long":"126.70878843","imageIndex":7,"items":[{"name":"솔향기농원","tel":"031-357-3315","addr":"경기도 화성시 서신면 상안리 746번지","indutype":"음료식품 - 농·축·수산품","category":"food"}]},{"lat":"37.174025075","long":"126.70453639","imageIndex":7,"items":[{"name":"화성농산","tel":"031-355-3331","addr":"경기도 화성시 서신면 상안리 713-1","indutype":"음료식품 - 기타음료식품","category":"food"}]}]