[{"lat":"37.760507696","long":"126.77645998","imageIndex":4,"items":[{"name":"ITALY&ITALY","tel":"031-949-7896","addr":"경기도 파주시 아동동 334-4번지","indutype":"일반휴게음식 - 서양음식","category":"restaurant"}]},{"lat":"37.765395247","long":"126.77876029","imageIndex":4,"items":[{"name":"가랑가랑","tel":"","addr":"경기도 파주시 아동동 324-1번지","indutype":"일반휴게음식 - 일반한식","category":"restaurant"}]},{"lat":"37.762644225","long":"126.78187812","imageIndex":4,"items":[{"name":"계륵장군 금촌점","tel":"031-944-6632","addr":"경기도 파주시 아동동 228-5번지","indutype":"일반휴게음식 - 일반한식","category":"restaurant"},{"name":"제주야","tel":"031-8071-6666","addr":"경기도 파주시 아동동 228-5번지","indutype":"일반휴게음식 - 일반한식","category":"restaurant"}]},{"lat":"37.76958798","long":"126.77578536","imageIndex":4,"items":[{"name":"곱창집","tel":"031-947-8588","addr":"경기도 파주시 아동동 294-3번지","indutype":"일반휴게음식 - 일반한식","category":"restaurant"},{"name":"쿡(COOK)한접시","tel":"","addr":"경기도 파주시 아동동 294-3번지","indutype":"일반휴게음식 - 일반한식","category":"restaurant"}]},{"lat":"37.766313001","long":"126.77812196","imageIndex":4,"items":[{"name":"국보갈비","tel":"031-944-0399","addr":"경기도 파주시 아동동 354-8","indutype":"일반휴게음식 - 갈비전문점","category":"restaurant"},{"name":"무정집","tel":"031-943-0183","addr":"경기도 파주시 아동동 354-8번지","indutype":"일반휴게음식 - 일반한식","category":"restaurant"}]},{"lat":"37.768646838","long":"126.77831919","imageIndex":4,"items":[{"name":"굽네치킨 금촌3동점","tel":"031-949-9998","addr":"경기도 파주시 아동동 299-33번지","indutype":"일반휴게음식 - 스넥","category":"restaurant"}]},{"lat":"37.766725309","long":"126.77700848","imageIndex":4,"items":[{"name":"금촌민물집","tel":"031-944-9866","addr":"경기도 파주시 아동동 352-2번지","indutype":"일반휴게음식 - 일반한식","category":"restaurant"}]},{"lat":"37.765786626","long":"126.77612611","imageIndex":4,"items":[{"name":"금촌수산","tel":"031-957-7748","addr":"경기도 파주시 아동동 356-4번지","indutype":"일반휴게음식 - 일반한식","category":"restaurant"}]},{"lat":"37.769671116","long":"126.77685198","imageIndex":4,"items":[{"name":"김밥나라","tel":"031-945-4112","addr":"경기도 파주시 아동동 275-28번지","indutype":"일반휴게음식 - 일반한식","category":"restaurant"},{"name":"바라도스","tel":"031-945-9677","addr":"경기도 파주시 아동동 275-28번지","indutype":"일반휴게음식 - 주점","category":"restaurant"}]},{"lat":"37.760947346","long":"126.77551672","imageIndex":4,"items":[{"name":"김밥천국","tel":"031-948-6540","addr":"경기도 파주시 아동동 332-8번지","indutype":"일반휴게음식 - 일반한식","category":"restaurant"}]},{"lat":"37.770453608","long":"126.77615726","imageIndex":4,"items":[{"name":"김밥천국","tel":"031-946-4124","addr":"경기도 파주시 아동동 292-15번지","indutype":"일반휴게음식 - 일반한식","category":"restaurant"},{"name":"소문난왕족발순대","tel":"031-949-2255","addr":"경기도 파주시 아동동 292-15번지","indutype":"일반휴게음식 - 일반한식","category":"restaurant"}]},{"lat":"37.766092314","long":"126.77579605","imageIndex":4,"items":[{"name":"꽃랑","tel":"031-8071-1111","addr":"경기도 파주시 아동동 351-8번지","indutype":"일반휴게음식 - 서양음식","category":"restaurant"}]},{"lat":"37.770533928","long":"126.77575977","imageIndex":4,"items":[{"name":"끼니","tel":"031-8035-5155","addr":"경기도 파주시 아동동 286-28번지","indutype":"일반휴게음식 - 스넥","category":"restaurant"}]},{"lat":"37.768057662","long":"126.77645966","imageIndex":4,"items":[{"name":"남도시골밥상","tel":"031-944-4722","addr":"경기도 파주시 아동동 305-29번지","indutype":"일반휴게음식 - 일반한식","category":"restaurant"}]},{"lat":"37.76589323","long":"126.77534269","imageIndex":4,"items":[{"name":"낫폽","tel":"031-000-0000","addr":"경기도 파주시 아동동 351-13번지","indutype":"일반휴게음식 - 서양음식","category":"restaurant"},{"name":"아시안레스토랑","tel":"031-944-9128","addr":"경기도 파주시 아동동 351-13번지","indutype":"일반휴게음식 - 서양음식","category":"restaurant"}]},{"lat":"37.760899031","long":"126.77851284","imageIndex":4,"items":[{"name":"노모어슬립커피(nomoresleepcoffee)","tel":"","addr":"경기도 파주시 아동동 339번지 장안5차미우아파트","indutype":"일반휴게음식 - 서양음식","category":"restaurant"},{"name":"진미","tel":"031-947-3989","addr":"경기도 파주시 아동동 339번지","indutype":"일반휴게음식 - 일반한식","category":"restaurant"}]},{"lat":"37.760398993","long":"126.7761539","imageIndex":4,"items":[{"name":"다모여","tel":"070-8249-8824","addr":"경기도 파주시 아동동 334-14번지","indutype":"일반휴게음식 - 일반한식","category":"restaurant"}]},{"lat":"37.764476647","long":"126.78864797","imageIndex":4,"items":[{"name":"도토미마을","tel":"031-943-0431","addr":"경기도 파주시 아동동 172-4번지","indutype":"일반휴게음식 - 일반한식","category":"restaurant"}]},{"lat":"37.76081446","long":"126.79631868","imageIndex":4,"items":[{"name":"돈돈","tel":"031-947-5131","addr":"경기도 파주시 아동동 61-5","indutype":"일반휴게음식 - 일반한식","category":"restaurant"}]},{"lat":"37.770058087","long":"126.7766238","imageIndex":4,"items":[{"name":"돈장군","tel":"031-941-5090","addr":"경기도 파주시 아동동 275-16번지 영창빌딩 나동","indutype":"일반휴게음식 - 일반한식","category":"restaurant"},{"name":"서울갈비장","tel":"","addr":"경기도 파주시 아동동 275-16번지","indutype":"일반휴게음식 - 일반한식","category":"restaurant"},{"name":"서울오겹집","tel":"031-945-8896","addr":"경기도 파주시 아동동 275-16번지","indutype":"일반휴게음식 - 일반한식","category":"restaurant"},{"name":"썬더치킨 아동동점","tel":"","addr":"경기도 파주시 아동동 275-16번지","indutype":"일반휴게음식 - 스넥","category":"restaurant"},{"name":"카페마마","tel":"031-942-0363","addr":"경기도 파주시 아동동 275-16번지 외1필지","indutype":"일반휴게음식 - 서양음식","category":"restaurant"},{"name":"흥부네빈대떡옛날통닭","tel":"031-945-0500","addr":"경기도 파주시 아동동 275-16번지","indutype":"일반휴게음식 - 주점","category":"restaurant"}]},{"lat":"37.769175793","long":"126.77695563","imageIndex":4,"items":[{"name":"동네맛집","tel":"031-945-8820","addr":"경기도 파주시 아동동 275-18번지","indutype":"일반휴게음식 - 일반한식","category":"restaurant"},{"name":"또래오래아동점","tel":"031-957-9994","addr":"경기도 파주시 아동동 275-18외1","indutype":"일반휴게음식 - 서양음식","category":"restaurant"},{"name":"명품순대국","tel":"031-952-5428","addr":"경기도 파주시 아동동 275-18번지","indutype":"일반휴게음식 - 일반한식","category":"restaurant"}]},{"lat":"37.768284379","long":"126.77723073","imageIndex":4,"items":[{"name":"드림 플라이(키즈카페)","tel":"031-942-7145","addr":"경기도 파주시 아동동 298-2번지","indutype":"일반휴게음식 - 서양음식","category":"restaurant"},{"name":"수피자금촌점","tel":"031-941-8078","addr":"경기도 파주시 아동동 298-2번지","indutype":"일반휴게음식 - 서양음식","category":"restaurant"},{"name":"페리카나치킨","tel":"031-943-2924","addr":"경기도 파주시 아동동 298-2번지","indutype":"일반휴게음식 - 스넥","category":"restaurant"}]},{"lat":"37.768980231","long":"126.77834088","imageIndex":4,"items":[{"name":"마루","tel":"031-943-9298","addr":"경기도 파주시 아동동 299-20번지","indutype":"일반휴게음식 - 일반한식","category":"restaurant"}]},{"lat":"37.769445924","long":"126.77687536","imageIndex":4,"items":[{"name":"마포생주먹고기","tel":"031-000-0000","addr":"경기도 파주시 아동동 275-17번지","indutype":"일반휴게음식 - 일반한식","category":"restaurant"},{"name":"별빛포차","tel":"031-411-4441","addr":"경기도 파주시 아동동 275-17번지","indutype":"일반휴게음식 - 일반한식","category":"restaurant"},{"name":"청춘호프","tel":"031-945-0078","addr":"경기도 파주시 아동동 275-17번지","indutype":"일반휴게음식 - 일반한식","category":"restaurant"},{"name":"호사촌","tel":"031-949-1873","addr":"경기도 파주시 아동동 275-17번지","indutype":"일반휴게음식 - 일반한식","category":"restaurant"},{"name":"홍도수산","tel":"031-949-1511","addr":"경기도 파주시 아동동 275-17번지","indutype":"일반휴게음식 - 일반한식","category":"restaurant"},{"name":"홍스쭈꾸미","tel":"031-949-9976","addr":"경기도 파주시 아동동 275-17번지","indutype":"일반휴게음식 - 일반한식","category":"restaurant"}]},{"lat":"37.766758686","long":"126.78034507","imageIndex":4,"items":[{"name":"명가오리주물럭","tel":"031-943-2033","addr":"경기도 파주시 아동동 322-63번지","indutype":"일반휴게음식 - 일반한식","category":"restaurant"}]},{"lat":"37.761615287","long":"126.79573768","imageIndex":4,"items":[{"name":"무진장매운갈비","tel":"031-943-1856","addr":"경기도 파주시 아동동 87-8번지","indutype":"일반휴게음식 - 일반한식","category":"restaurant"}]},{"lat":"37.769204146","long":"126.77764787","imageIndex":4,"items":[{"name":"박장군집","tel":"031-946-3326","addr":"경기도 파주시 아동동 275-9번지","indutype":"일반휴게음식 - 일반한식","category":"restaurant"},{"name":"숙이네힐링포차","tel":"","addr":"경기도 파주시 아동동 275-9번지","indutype":"일반휴게음식 - 일반한식","category":"restaurant"}]},{"lat":"37.766946145","long":"126.77942521","imageIndex":4,"items":[{"name":"백년식당서서갈비/주식회사구정산업개발 (","tel":"031-948-9291","addr":"경기도 파주시 아동동 322-12번지","indutype":"일반휴게음식 - 일반한식","category":"restaurant"}]},{"lat":"37.769509621","long":"126.77720431","imageIndex":4,"items":[{"name":"비비큐금촌새말행운점","tel":"031-943-6694","addr":"경기도 파주시 아동동 275-14번지","indutype":"일반휴게음식 - 스넥","category":"restaurant"}]},{"lat":"37.769008016","long":"126.77873803","imageIndex":4,"items":[{"name":"빠씨오네","tel":"031-943-9873","addr":"경기도 파주시 아동동 299-23번지","indutype":"일반휴게음식 - 일반한식","category":"restaurant"}]},{"lat":"37.761121558","long":"126.77709362","imageIndex":4,"items":[{"name":"삼천국수","tel":"070-5022-4846","addr":"경기도 파주시 아동동 329-6번지 장안초원아파트","indutype":"일반휴게음식 - 일반한식","category":"restaurant"}]},{"lat":"37.766891312","long":"126.7790168","imageIndex":4,"items":[{"name":"성지식당","tel":"031-941-0705","addr":"경기도 파주시 아동동 354-5번지","indutype":"일반휴게음식 - 일반한식","category":"restaurant"}]},{"lat":"37.772897085","long":"126.77714861","imageIndex":4,"items":[{"name":"스마일","tel":"","addr":"경기도 파주시 아동동 283번지 팜스프링아파트","indutype":"일반휴게음식 - 일반한식","category":"restaurant"},{"name":"콩순이네분식","tel":"031-944-9788","addr":"경기도 파주시 아동동 283번지 팜스프링아파트","indutype":"일반휴게음식 - 스넥","category":"restaurant"}]},{"lat":"37.766564681","long":"126.77781477","imageIndex":4,"items":[{"name":"스톤 (STONE)","tel":"070-4616-0781","addr":"경기도 파주시 아동동 354-1번지","indutype":"일반휴게음식 - 서양음식","category":"restaurant"}]},{"lat":"37.758758865","long":"126.79550734","imageIndex":4,"items":[{"name":"시골순대국","tel":"031-941-1581","addr":"경기도 파주시 아동동 47-2번지","indutype":"일반휴게음식 - 일반한식","category":"restaurant"}]},{"lat":"37.762925959","long":"126.78318238","imageIndex":4,"items":[{"name":"시청로100","tel":"031-946-9297","addr":"경기도 파주시 아동동 231번지","indutype":"일반휴게음식 - 일반한식","category":"restaurant"},{"name":"카페 미쁘다/(주)천용파주지점","tel":"031-942-9197","addr":"경기도 파주시 아동동 231번지","indutype":"일반휴게음식 - 서양음식","category":"restaurant"},{"name":"카페미쁘다","tel":"031-942-9197","addr":"경기도 파주시 아동동 231번지","indutype":"일반휴게음식 - 서양음식","category":"restaurant"},{"name":"파주장어타운&매운탕","tel":"031-946-9297","addr":"경기도 파주시 아동동 231번지 1층","indutype":"일반휴게음식 - 일반한식","category":"restaurant"},{"name":"파주장어타운&매운탕/주식회사 천용","tel":"031-946-9297","addr":"경기도 파주시 아동동 231번지","indutype":"일반휴게음식 - 일반한식","category":"restaurant"},{"name":"홍리마라탕","tel":"031-111-1111","addr":"경기도 파주시 아동동 231번지","indutype":"일반휴게음식 - 일반한식","category":"restaurant"}]},{"lat":"37.770618868","long":"126.77776843","imageIndex":4,"items":[{"name":"신통치킨","tel":"031-941-2299","addr":"경기도 파주시 아동동 275-6번지","indutype":"일반휴게음식 - 일반한식","category":"restaurant"},{"name":"커피팜","tel":"031-944-1520","addr":"경기도 파주시 아동동 275-6번지","indutype":"일반휴게음식 - 서양음식","category":"restaurant"}]},{"lat":"37.768950665","long":"126.77701307","imageIndex":4,"items":[{"name":"아리랑","tel":"031-944-0999","addr":"경기도 파주시 아동동 297번지","indutype":"일반휴게음식 - 일반한식","category":"restaurant"},{"name":"안군비어","tel":"070-7623-2425","addr":"경기도 파주시 아동동 297번지","indutype":"일반휴게음식 - 일반한식","category":"restaurant"},{"name":"통큰아구찜","tel":"031-948-3998","addr":"경기도 파주시 아동동 297번지","indutype":"일반휴게음식 - 일반한식","category":"restaurant"}]},{"lat":"37.769142898","long":"126.77860143","imageIndex":4,"items":[{"name":"양자강","tel":"031-943-9547","addr":"경기도 파주시 아동동 299-109번지","indutype":"일반휴게음식 - 중국식","category":"restaurant"}]},{"lat":"37.765335301","long":"126.77568487","imageIndex":4,"items":[{"name":"양평해장국","tel":"031-941-7277","addr":"경기도 파주시 아동동 356-12번지","indutype":"일반휴게음식 - 일반한식","category":"restaurant"}]},{"lat":"37.761173807","long":"126.77615154","imageIndex":4,"items":[{"name":"엉터리연탄갈비","tel":"031-941-5633","addr":"경기도 파주시 아동동 330-2번지","indutype":"일반휴게음식 - 일반한식","category":"restaurant"}]},{"lat":"37.760894077","long":"126.77592542","imageIndex":4,"items":[{"name":"옛날집","tel":"031-945-6677","addr":"경기도 파주시 아동동 331-4번지","indutype":"일반휴게음식 - 일반한식","category":"restaurant"}]},{"lat":"37.758065734","long":"126.79584971","imageIndex":4,"items":[{"name":"옛날통닭","tel":"031-944-9998","addr":"경기도 파주시 아동동 44-3번지","indutype":"일반휴게음식 - 스넥","category":"restaurant"}]},{"lat":"37.770281729","long":"126.77579459","imageIndex":4,"items":[{"name":"올리브포차","tel":"031-946-9411","addr":"경기도 파주시 아동동 293-4번지","indutype":"일반휴게음식 - 주점","category":"restaurant"}]},{"lat":"37.760676637","long":"126.78001149","imageIndex":4,"items":[{"name":"외가집","tel":"031-943-1753","addr":"경기도 파주시 아동동 217-1번지","indutype":"일반휴게음식 - 일반한식","category":"restaurant"}]},{"lat":"37.770867278","long":"126.77575875","imageIndex":4,"items":[{"name":"원샷호프","tel":"031-945-0719","addr":"경기도 파주시 아동동 286-25번지","indutype":"일반휴게음식 - 주점","category":"restaurant"},{"name":"해초과메기","tel":"070-8141-7000","addr":"경기도 파주시 아동동 286-25번지","indutype":"일반휴게음식 - 일반한식","category":"restaurant"}]},{"lat":"37.765535321","long":"126.77662623","imageIndex":4,"items":[{"name":"원조서울추어탕","tel":"031-943-3797","addr":"경기도 파주시 아동동 356-7번지","indutype":"일반휴게음식 - 일반한식","category":"restaurant"}]},{"lat":"37.771398531","long":"126.78031981","imageIndex":4,"items":[{"name":"은행나무집","tel":"031-942-1514","addr":"경기도 파주시 아동동 276-1번지","indutype":"일반휴게음식 - 일반한식","category":"restaurant"}]},{"lat":"37.758308691","long":"126.79567882","imageIndex":4,"items":[{"name":"이모네밥집","tel":"031-941-4626","addr":"경기도 파주시 아동동 45-7번지","indutype":"일반휴게음식 - 일반한식","category":"restaurant"}]},{"lat":"37.766176102","long":"126.77720309","imageIndex":4,"items":[{"name":"일호집","tel":"031-944-5263","addr":"경기도 파주시 아동동 355-2번지","indutype":"일반휴게음식 - 일반한식","category":"restaurant"},{"name":"파주능이백숙","tel":"031-946-5579","addr":"경기도 파주시 아동동 355-2번지","indutype":"일반휴게음식 - 일반한식","category":"restaurant"},{"name":"황가네부대찌개(본점)","tel":"031-944-4610","addr":"경기도 파주시 아동동 355-2번지","indutype":"일반휴게음식 - 일반한식","category":"restaurant"}]},{"lat":"37.765784744","long":"126.77515009","imageIndex":4,"items":[{"name":"작은공간","tel":"031-949-5902","addr":"경기도 파주시 아동동 351-15번지","indutype":"일반휴게음식 - 주점","category":"restaurant"},{"name":"지프","tel":"031-944-5999","addr":"경기도 파주시 아동동 351-15번지","indutype":"일반휴게음식 - 주점","category":"restaurant"},{"name":"콩밭뜰 금촌직영1호점","tel":"031-944-0868","addr":"경기도 파주시 아동동 351-15번지","indutype":"일반휴게음식 - 일반한식","category":"restaurant"}]},{"lat":"37.761370615","long":"126.77542464","imageIndex":4,"items":[{"name":"전통설렁탕","tel":"031-946-0006","addr":"경기도 파주시 아동동 328-29번지","indutype":"일반휴게음식 - 일반한식","category":"restaurant"}]},{"lat":"37.767035183","long":"126.77886883","imageIndex":4,"items":[{"name":"절대만족 금촌점","tel":"031-948-6666","addr":"경기도 파주시 아동동 354-3번지","indutype":"일반휴게음식 - 일반한식","category":"restaurant"}]},{"lat":"37.765868082","long":"126.77631879","imageIndex":4,"items":[{"name":"착한낙지","tel":"031-946-5570","addr":"경기도 파주시 아동동 356-21번지","indutype":"일반휴게음식 - 일반한식","category":"restaurant"}]},{"lat":"37.765920587","long":"126.77551284","imageIndex":4,"items":[{"name":"참나무누룽지장작구이","tel":"070-7614-3579","addr":"경기도 파주시 아동동 351-12번지","indutype":"일반휴게음식 - 일반한식","category":"restaurant"}]},{"lat":"37.76509198","long":"126.77565157","imageIndex":4,"items":[{"name":"청진동해장국","tel":"031-948-8931","addr":"경기도 파주시 아동동 356-14번지","indutype":"일반휴게음식 - 일반한식","category":"restaurant"},{"name":"통마루","tel":"031-8071-1013","addr":"경기도 파주시 아동동 356-14번지","indutype":"일반휴게음식 - 서양음식","category":"restaurant"}]},{"lat":"37.7700580868","long":"126.7766238045","imageIndex":4,"items":[{"name":"추사랑","tel":"031-942-7008","addr":"경기도 파주시 아동동 275-16번지","indutype":"일반휴게음식 - 일반한식","category":"restaurant"}]},{"lat":"37.765168432","long":"126.77793249","imageIndex":4,"items":[{"name":"친정집","tel":"031-941-9181","addr":"경기도 파주시 아동동 326-2번지","indutype":"일반휴게음식 - 일반한식","category":"restaurant"}]},{"lat":"37.7650905","long":"126.79434341","imageIndex":4,"items":[{"name":"카페더빈스(Cafe the bean's)","tel":"031-943-2715","addr":"경기도 파주시 아동동 96-4번지","indutype":"일반휴게음식 - 서양음식","category":"restaurant"}]},{"lat":"37.759341171","long":"126.77892608","imageIndex":4,"items":[{"name":"칼디","tel":"031-946-8909","addr":"경기도 파주시 아동동 349-20번지","indutype":"일반휴게음식 - 서양음식","category":"restaurant"}]},{"lat":"37.768947317","long":"126.77998667","imageIndex":4,"items":[{"name":"쿠시나","tel":"031-944-8878","addr":"경기도 파주시 아동동 274-37번지","indutype":"일반휴게음식 - 일반한식","category":"restaurant"}]},{"lat":"37.760863752","long":"126.79361763","imageIndex":4,"items":[{"name":"파라다이스","tel":"","addr":"경기도 파주시 아동동 58-2번지","indutype":"일반휴게음식 - 일반한식","category":"restaurant"}]},{"lat":"37.760367747","long":"126.79334667","imageIndex":4,"items":[{"name":"파주민물매운탕","tel":"031-943-3366","addr":"경기도 파주시 아동동 57-5번지 나동","indutype":"일반휴게음식 - 일반한식","category":"restaurant"}]},{"lat":"37.761255088","long":"126.79584082","imageIndex":4,"items":[{"name":"파주한뚝배기순대국","tel":"031-948-8811","addr":"경기도 파주시 아동동 62-16번지","indutype":"일반휴게음식 - 일반한식","category":"restaurant"}]},{"lat":"37.767842746","long":"126.78189669","imageIndex":4,"items":[{"name":"풍미진해장국","tel":"031-949-1117","addr":"경기도 파주시 아동동 322-18번지","indutype":"일반휴게음식 - 일반한식","category":"restaurant"}]},{"lat":"37.766038039","long":"126.77568272","imageIndex":4,"items":[{"name":"하우돈곱창금촌점","tel":"031-947-9777","addr":"경기도 파주시 아동동 351-9번지","indutype":"일반휴게음식 - 일반한식","category":"restaurant"}]},{"lat":"37.760588519","long":"126.77632355","imageIndex":4,"items":[{"name":"한우회관","tel":"031-943-3392","addr":"경기도 파주시 아동동 334-39번지","indutype":"일반휴게음식 - 일반한식","category":"restaurant"}]},{"lat":"37.766676334","long":"126.77967571","imageIndex":4,"items":[{"name":"할매순대국(대객풍)","tel":"031-957-3400","addr":"경기도 파주시 아동동 322-13번지","indutype":"일반휴게음식 - 일반한식","category":"restaurant"}]},{"lat":"37.767006057","long":"126.77776803","imageIndex":4,"items":[{"name":"홍삼한방장어","tel":"031-941-0969","addr":"경기도 파주시 아동동 353-11번지","indutype":"일반휴게음식 - 일반한식","category":"restaurant"}]},{"lat":"37.768419629","long":"126.77728707","imageIndex":4,"items":[{"name":"회생각 새말점","tel":"031-947-2127","addr":"경기도 파주시 아동동 298-1번지","indutype":"일반휴게음식 - 일식·회집","category":"restaurant"}]}]