[{"lat":"37.706818039","long":"126.68580041","imageIndex":17,"items":[{"name":"(주) 보스포루스","tel":"031-955-3663","addr":"경기도 파주시 문발동 530-2번지","indutype":"건축자재 - 기타건축자재","category":"other"},{"name":"디자인 투비","tel":"031-945-7013","addr":"경기도 파주시 문발동 530-2번지","indutype":"용역 서비스 - 종합용역","category":"other"},{"name":"라일라 스튜디오","tel":"","addr":"경기도 파주시 문발동 530-2번지","indutype":"문화.취미 - 문화취미기타","category":"other"}]},{"lat":"37.715008775","long":"126.68618514","imageIndex":17,"items":[{"name":"(주)YSP","tel":"031-955-0150","addr":"경기도 파주시 문발동 500-6","indutype":"서적문구 - 출판 및 인쇄물","category":"other"},{"name":"독일인쇄","tel":"02-862-5717","addr":"경기도 파주시 문발동 500-6번지","indutype":"서적문구 - 출판 및 인쇄물","category":"other"},{"name":"이보","tel":"031-948-1491","addr":"경기도 파주시 문발동 500-6번지","indutype":"서적문구 - 출판 및 인쇄물","category":"other"}]},{"lat":"37.711175995","long":"126.68816341","imageIndex":17,"items":[{"name":"(주)교유당","tel":"031-955-3583","addr":"경기도 파주시 문발동 513-8번지","indutype":"서적문구 - 일반서적","category":"other"},{"name":"(주)북노마드","tel":"031-995-8886","addr":"경기도 파주시 문발동 513-8번지","indutype":"회원제형태 - 서적","category":"other"},{"name":"(주)아트북스","tel":"031-955-3582","addr":"경기도 파주시 문발동 513-8번지","indutype":"서적문구 - 일반서적","category":"other"},{"name":"(주)아트북스","tel":"031-955-3578","addr":"경기도 파주시 문발동 513-8번지","indutype":"서적문구 - 출판 및 인쇄물","category":"other"}]},{"lat":"37.710815313","long":"126.68805152","imageIndex":17,"items":[{"name":"(주)느림보","tel":"031-955-7391","addr":"경기도 파주시 문발동 513-9","indutype":"서적문구 - 출판 및 인쇄물","category":"other"},{"name":"(주)더블유갤러리","tel":"031-946-4008","addr":"경기도 파주시 문발동 513-9번지","indutype":"가구 - 일반가구","category":"other"}]},{"lat":"37.705569738","long":"126.6873026","imageIndex":17,"items":[{"name":"(주)도레미미디어","tel":"031-944-5600","addr":"경기도 파주시 문발동 536-1번지","indutype":"기타 - 기타 전문점","category":"other"}]},{"lat":"37.711123713","long":"126.68546453","imageIndex":17,"items":[{"name":"(주)도서출판청년사","tel":"031-955-4888","addr":"경기도 파주시 문발동 514-6","indutype":"서적문구 - 출판 및 인쇄물","category":"other"}]},{"lat":"37.706482582","long":"126.68501938","imageIndex":17,"items":[{"name":"(주)럭스피트","tel":"031-111-1111","addr":"경기도 파주시 문발동 527-5번지","indutype":"레져용품 - 스포츠·레져용품","category":"other"},{"name":"(주)한국슈바이처","tel":"031-947-1612","addr":"경기도 파주시 문발동 527-5번지 2층","indutype":"서적문구 - 전문서적","category":"other"},{"name":"사단법인 한국현대문화포럼","tel":"031-943-5097","addr":"경기도 파주시 문발동 527-5번지","indutype":"용역 서비스 - 종합용역","category":"other"},{"name":"이육이칠디자인(2627디자인)","tel":"070-7722-2627","addr":"경기도 파주시 문발동 527-5번지","indutype":"가구 - 일반가구","category":"other"},{"name":"한국슈바이처","tel":"031-947-1612","addr":"경기도 파주시 문발동 527-5번지","indutype":"서적문구 - 일반서적","category":"other"}]},{"lat":"37.70565371","long":"126.68502292","imageIndex":17,"items":[{"name":"(주)몽솔레","tel":"031-918-7321","addr":"경기도 파주시 문발동 529-1번지","indutype":"서적문구 - 출판 및 인쇄물","category":"other"}]},{"lat":"37.727117669","long":"126.70344331","imageIndex":17,"items":[{"name":"(주)미도시 다이브","tel":"031-000-0000","addr":"경기도 파주시 문발동 72-4번지","indutype":"레져용품 - 스포츠·레져용품","category":"other"}]},{"lat":"37.707012826","long":"126.68452949","imageIndex":17,"items":[{"name":"(주)소닉티어","tel":"02-2135-9577","addr":"경기도 파주시 문발동 526-2번지","indutype":"전기제품 - 기타전기제품","category":"other"}]},{"lat":"37.720425848","long":"126.69385208","imageIndex":17,"items":[{"name":"(주)순공무역","tel":"031-942-3322","addr":"경기도 파주시 문발동 638-4번지","indutype":"가구 - 기타가구","category":"other"},{"name":"에이엔피리질리언트 주식회사","tel":"031-955-9202","addr":"경기도 파주시 문발동 638-4번지","indutype":"서적문구 - 일반서적","category":"other"}]},{"lat":"37.724757654","long":"126.70010667","imageIndex":17,"items":[{"name":"(주)씨앤월","tel":"031-8071-3335","addr":"경기도 파주시 문발동 84-24번지","indutype":"건축자재 - 기타건축자재","category":"other"}]},{"lat":"37.711509557","long":"126.68824138","imageIndex":17,"items":[{"name":"(주)아이에스컴퍼니","tel":"031-830-3950","addr":"경기도 파주시 문발동 513-7번지","indutype":"신변잡화 - 기타잡화","category":"other"},{"name":"(주)체인지컬러","tel":"02-6731-9885","addr":"경기도 파주시 문발동 513-7번지","indutype":"광학제품 - 사진관","category":"other"},{"name":"나인씨에스커뮤니케이션즈주식회사","tel":"070-4107-1479","addr":"경기도 파주시 문발동 513-7번지","indutype":"서적문구 - 정기간행물","category":"other"}]},{"lat":"37.714425857","long":"126.69057669","imageIndex":17,"items":[{"name":"(주)아이엠그리너 (I amgreener Co,.Ltd.)","tel":"","addr":"경기도 파주시 문발동 506-2번지 헤르만하우스","indutype":"신변잡화 - 기타잡화","category":"other"},{"name":"계수나무","tel":"031-948-8765","addr":"경기도 파주시 문발동 506-2번지 헤르만하우스","indutype":"서적문구 - 출판 및 인쇄물","category":"other"},{"name":"클로이스홈","tel":"070-4118-4207","addr":"경기도 파주시 문발동 506-2번지 헤르만하우스","indutype":"건축자재 - 인테리어전문","category":"other"},{"name":"프리마","tel":"070-8951-9508","addr":"경기도 파주시 문발동 506-2,헤르만하우스204-5 1/4","indutype":"회원제형태 - 기타4","category":"other"}]},{"lat":"37.70626371","long":"126.68739038","imageIndex":17,"items":[{"name":"(주)에프엘시스템","tel":"070-4400-0114","addr":"경기도 파주시 문발동 534-4번지","indutype":"건축자재 - 조명기구","category":"other"},{"name":"맥&모스","tel":"070-8820-8288","addr":"경기도 파주시 문발동 534-4번지","indutype":"의류 - 기타의류","category":"other"}]},{"lat":"37.708896111","long":"126.68463483","imageIndex":17,"items":[{"name":"(주)열화당","tel":"031-955-7000","addr":"경기도 파주시 문발동 520-10번지 4층","indutype":"서적문구 - 출판 및 인쇄물","category":"other"},{"name":"열화당","tel":"031-955-7000","addr":"경기도 파주시 문발동 520-10","indutype":"서적문구 - 출판 및 인쇄물","category":"other"}]},{"lat":"37.710844205","long":"126.68538633","imageIndex":17,"items":[{"name":"(주)영교출판","tel":"031-955-1515","addr":"경기도 파주시 문발동 514-5번지","indutype":"서적문구 - 전문서적","category":"other"}]},{"lat":"37.706678249","long":"126.68407731","imageIndex":17,"items":[{"name":"(주)요미요미","tel":"031-955-6251","addr":"경기도 파주시 문발동 526-3번지","indutype":"회원제형태 - 서적","category":"other"}]},{"lat":"37.704482081","long":"126.6848805","imageIndex":17,"items":[{"name":"(주)웅진씽크빅","tel":"02-1577-1500","addr":"경기도 파주시 문발동 535-1번지","indutype":"서적문구 - 일반서적","category":"other"},{"name":"(주)웅진씽크빅","tel":"","addr":"경기도 파주시 문발동 535-1번지","indutype":"서적문구 - 일반서적","category":"other"}]},{"lat":"37.725566745","long":"126.70293912","imageIndex":17,"items":[{"name":"(주)유니온특수벨트","tel":"031-943-7071","addr":"경기도 파주시 문발동 69-6번지","indutype":"기타 - 기계공구","category":"other"},{"name":"(주)피엠피테크","tel":"031-978-9520","addr":"경기도 파주시 문발동 69-6번지","indutype":"전기제품 - 기타전기제품","category":"other"}]},{"lat":"37.706481634","long":"126.68466784","imageIndex":17,"items":[{"name":"(주)이음샘","tel":"070-0428-2205","addr":"경기도 파주시 문발동 527-1번지","indutype":"서적문구 - 출판 및 인쇄물","category":"other"}]},{"lat":"37.705207414","long":"126.68657838","imageIndex":17,"items":[{"name":"(주)작은숲","tel":"070-4067-8560","addr":"경기도 파주시 문발동 535-14번지 모퉁이돌 306호","indutype":"서적문구 - 출판 및 인쇄물","category":"other"},{"name":"주식회사 뉴트로롤러스포츠","tel":"031-994-5966","addr":"경기도 파주시 문발동 535-14번지","indutype":"레져용품 - 스포츠·레져용품","category":"other"},{"name":"주식회사씨엠와이피앤피","tel":"02-2275-6193","addr":"경기도 파주시 문발동 535-14번지","indutype":"서적문구 - 출판 및 인쇄물","category":"other"}]},{"lat":"37.711376283","long":"126.68557686","imageIndex":17,"items":[{"name":"(주)커뮤니케이션열림","tel":"031-955-0123","addr":"경기도 파주시 문발동 514-7","indutype":"서적문구 - 출판 및 인쇄물","category":"other"}]},{"lat":"37.722870998","long":"126.69868519","imageIndex":17,"items":[{"name":"(주)태주","tel":"031-945-2926","addr":"경기도 파주시 문발동 256번지","indutype":"용역 서비스 - 기타용역서비스","category":"other"}]},{"lat":"37.708180724","long":"126.68663379","imageIndex":17,"items":[{"name":"(주)파이브모바일","tel":"031-935-4770","addr":"경기도 파주시 문발동 524-3번지","indutype":"용역 서비스 - 사무서비스","category":"other"},{"name":"콘텐츠랩","tel":"070-7815-7300","addr":"경기도 파주시 문발동 524-3번지","indutype":"여행 - 관광여행","category":"other"},{"name":"파주출판문화산업단지사업협동","tel":"031-955-0106","addr":"경기도 파주시 문발동 524-3","indutype":"서적문구 - 출판 및 인쇄물","category":"other"},{"name":"푸른북스","tel":"02-338-1405","addr":"경기도 파주시 문발동 524-3번지","indutype":"서적문구 - 출판 및 인쇄물","category":"other"}]},{"lat":"37.704594465","long":"126.68646759","imageIndex":17,"items":[{"name":"(주)퍼스트북","tel":"070-4408-8393","addr":"경기도 파주시 문발동 535-7번지","indutype":"회원제형태 - 서적","category":"other"},{"name":"도서출판노란돼지","tel":"031-942-5379","addr":"경기도 파주시 문발동 535-7번지","indutype":"서적문구 - 출판 및 인쇄물","category":"other"},{"name":"도서출판느낌이있는책","tel":"031-943-5931","addr":"경기도 파주시 문발동 535-7 세종출판벤처타운 107","indutype":"서적문구 - 출판 및 인쇄물","category":"other"},{"name":"도서출판수막새","tel":"031-955-4270","addr":"경기도 파주시 문발동 535-7번지","indutype":"서적문구 - 출판 및 인쇄물","category":"other"},{"name":"도서출판청년정신","tel":"031-955-4923","addr":"경기도 파주시 문발동 535-7번지","indutype":"서적문구 - 출판 및 인쇄물","category":"other"},{"name":"오크프린팅","tel":"031-955-0297","addr":"경기도 파주시 문발동 535-7번지","indutype":"서적문구 - 출판 및 인쇄물","category":"other"},{"name":"잉글리쉬헤븐","tel":"02-1670-5121","addr":"경기도 파주시 문발동 535-7번지","indutype":"서적문구 - 일반서적","category":"other"},{"name":"천개의바람","tel":"031-955-5243","addr":"경기도 파주시 문발동 535-7번지 세종출판벤처타운 401호","indutype":"서적문구 - 출판 및 인쇄물","category":"other"}]},{"lat":"37.704875802","long":"126.68388092","imageIndex":17,"items":[{"name":"(주)피앤제이글로벌(P&J Global Co., Ltd)","tel":"070-8146-1580","addr":"경기도 파주시 문발동 526-8번지","indutype":"서적문구 - 출판 및 인쇄물","category":"other"},{"name":"주식회사팔플레이","tel":"031-955-1791","addr":"경기도 파주시 문발동 526-8번지","indutype":"서적문구 - 출판 및 인쇄물","category":"other"},{"name":"학이시습지","tel":"031-362-3721","addr":"경기도 파주시 문발동 526-8번지","indutype":"서적문구 - 출판 및 인쇄물","category":"other"}]},{"lat":"37.705618711","long":"126.68540862","imageIndex":17,"items":[{"name":"(주)환경과조경","tel":"031-955-4966","addr":"경기도 파주시 문발동 529-5번지 3층","indutype":"회원제형태 - 서적","category":"other"}]},{"lat":"37.711040855","long":"126.68480712","imageIndex":17,"items":[{"name":"Everlasting Gospel","tel":"031-955-1293","addr":"경기도 파주시 문발동 514-2 보진재별관","indutype":"서적문구 - 출판 및 인쇄물","category":"other"},{"name":"주식회사 나래씨앤피","tel":"02-2664-7117","addr":"경기도 파주시 문발동 514-2번지","indutype":"서적문구 - 출판 및 인쇄물","category":"other"}]},{"lat":"37.717707404","long":"126.68796565","imageIndex":17,"items":[{"name":"FOTO 101","tel":"031-955-4240","addr":"경기도 파주시 문발동 498-9번지","indutype":"광학제품 - 사진관","category":"other"}]},{"lat":"37.71717902","long":"126.68915877","imageIndex":17,"items":[{"name":"GEMS KOREA","tel":"031-946-4367","addr":"경기도 파주시 문발동 499-4번지","indutype":"서적문구 - 출판 및 인쇄물","category":"other"}]},{"lat":"37.724037667","long":"126.71113474","imageIndex":17,"items":[{"name":"GS25교하도서관점","tel":"","addr":"경기도 파주시 문발동 562-2번지","indutype":"유통업 영리 - 편 의 점","category":"other"},{"name":"GS25교하도서관점","tel":"","addr":"경기도 파주시 문발동 562-2번지","indutype":"유통업 영리 - 편 의 점","category":"other"},{"name":"Lani(라니)","tel":"070-8813-3579","addr":"경기도 파주시 문발동 562-2번지 토우프라자 104호","indutype":"의류 - 아동의류","category":"other"},{"name":"라니부띠끄","tel":"070-8813-3579","addr":"경기도 파주시 문발동 562-2번지","indutype":"의류 - 정장","category":"other"},{"name":"샤나(SHANA)","tel":"031-000-0000","addr":"경기도 파주시 문발동 562-2번지","indutype":"의류 - 정장","category":"other"},{"name":"예사랑요양원","tel":"031-946-8428","addr":"경기도 파주시 문발동 562-2번지 토우프라자 5층","indutype":"기타의료기관 - 기타의료기관 및 기타","category":"other"},{"name":"크린토피아교하숲속마을점","tel":"","addr":"경기도 파주시 문발동 562-2번지","indutype":"수리서비스 - 세탁소","category":"other"},{"name":"헤브론(HEBRON)","tel":"031-948-5933","addr":"경기도 파주시 문발동 562-2번지","indutype":"신변잡화 - 기타잡화","category":"other"}]},{"lat":"37.726846771","long":"126.70676795","imageIndex":17,"items":[{"name":"GS25문발초교점","tel":"","addr":"경기도 파주시 문발동 552-10번지","indutype":"유통업 영리 - 편 의 점","category":"other"}]},{"lat":"37.719175558","long":"126.70873797","imageIndex":17,"items":[{"name":"GS25문밭꽃길점","tel":"","addr":"경기도 파주시 문발동 607-9번지","indutype":"유통업 영리 - 편 의 점","category":"other"}]},{"lat":"37.729370264","long":"126.70352499","imageIndex":17,"items":[{"name":"GS25파주문발점","tel":"","addr":"경기도 파주시 문발동 33-15번지","indutype":"유통업 영리 - 편 의 점","category":"other"},{"name":"한주유통","tel":"02-1111-1111","addr":"경기도 파주시 문발동 33-15번지","indutype":"의류 - 정장","category":"other"}]},{"lat":"37.726756418","long":"126.71027334","imageIndex":17,"items":[{"name":"HK상사","tel":"070-7523-6492","addr":"경기도 파주시 문발동 546번지 노을빛마을주공아파트","indutype":"회원제형태 - 기타3","category":"other"}]},{"lat":"37.712792202","long":"126.68610385","imageIndex":17,"items":[{"name":"IMC인더스트리","tel":"","addr":"경기도 파주시 문발동 507-8번지","indutype":"서적문구 - 출판 및 인쇄물","category":"other"},{"name":"도서출판 위","tel":"031-955-5117","addr":"경기도 파주시 문발동 507-8번지","indutype":"서적문구 - 출판 및 인쇄물","category":"other"},{"name":"아이 이음","tel":"070-7770-1555","addr":"경기도 파주시 문발동 507-8번지","indutype":"서적문구 - 완구점","category":"other"},{"name":"엠프린테크","tel":"","addr":"경기도 파주시 문발동 507-8번지","indutype":"서적문구 - 출판 및 인쇄물","category":"other"},{"name":"주식회사위","tel":"070-7730-2641","addr":"경기도 파주시 문발동 507-8번지","indutype":"용역 서비스 - 종합용역","category":"other"}]},{"lat":"37.725735479","long":"126.6984693","imageIndex":17,"items":[{"name":"J&J","tel":"031-956-9900","addr":"경기도 파주시 문발동 263-5 파주파비뇽아울렛빌리지 A-116","indutype":"레져용품 - 스포츠·레져용품","category":"other"},{"name":"브라보마이라이프 미술영상","tel":"","addr":"경기도 파주시 문발동 263-5번지","indutype":"용역 서비스 - 종합용역","category":"other"},{"name":"삼성냉난방시스템","tel":"","addr":"경기도 파주시 문발동 263-5번지","indutype":"용역 서비스 - 기타용역서비스","category":"other"},{"name":"올리비아로렌파주파비뇽점","tel":"031-956-9177","addr":"경기도 파주시 문발동 263-5 파주파비뇽아울렛 G-103","indutype":"레져용품 - 스포츠·레져용품","category":"other"}]},{"lat":"37.700847337","long":"126.68344461","imageIndex":17,"items":[{"name":"J아트","tel":"031-946-4988","addr":"경기도 파주시 문발동 495-122번지","indutype":"신변잡화 - 기타잡화","category":"other"},{"name":"선물코너","tel":"031-943-1441","addr":"경기도 파주시 문발동 495-122번지","indutype":"신변잡화 - 기념품점","category":"other"},{"name":"파주의류","tel":"031-941-4585","addr":"경기도 파주시 문발동 495-122번지","indutype":"의류 - 정장","category":"other"},{"name":"현대매니아","tel":"031-946-8595","addr":"경기도 파주시 문발동 495-122번지","indutype":"회원제형태 - 기타4","category":"other"}]},{"lat":"37.720040892","long":"126.70890468","imageIndex":17,"items":[{"name":"M Books (엠북스) 한국음악사","tel":"031-943-4347","addr":"경기도 파주시 문발동 604-9번지","indutype":"서적문구 - 일반서적","category":"other"}]},{"lat":"37.722650898","long":"126.69718888","imageIndex":17,"items":[{"name":"NFA (엔에프에이)","tel":"070-7728-1980","addr":"경기도 파주시 문발동 222-9번지","indutype":"용역 서비스 - 종합용역","category":"other"}]},{"lat":"37.718847188","long":"126.70712871","imageIndex":17,"items":[{"name":"OK기전","tel":"031-943-9278","addr":"경기도 파주시 문발동 619-8번지 (1층A호)","indutype":"기타 - 기계공구","category":"other"}]},{"lat":"37.729622909","long":"126.70724467","imageIndex":17,"items":[{"name":"SC테크","tel":"","addr":"경기도 파주시 문발동 29-21번지 105호","indutype":"전기제품 - 가전제품","category":"other"},{"name":"지물포","tel":"031-947-8807","addr":"경기도 파주시 문발동 29-21번지 201호","indutype":"직물 - 카페트,커튼,천막,지물","category":"other"}]},{"lat":"37.708454341","long":"126.68452332","imageIndex":17,"items":[{"name":"eNom","tel":"070-3481-6477","addr":"경기도 파주시 문발동 520-9번지","indutype":"의류 - 정장","category":"other"},{"name":"스튜디오 오자 (STUDIO OJA)","tel":"070-8844-5474","addr":"경기도 파주시 문발동 520-9번지","indutype":"가구 - 기타가구","category":"other"},{"name":"웬즈데이(주)","tel":"031-955-4095","addr":"경기도 파주시 문발동 520-9 좋은생각에이동1층","indutype":"용역 서비스 - 사무서비스","category":"other"},{"name":"재웅플러스","tel":"031-955-1030","addr":"경기도 파주시 문발동 520-9번지","indutype":"서적문구 - 출판 및 인쇄물","category":"other"}]},{"lat":"37.705427127","long":"126.68452493","imageIndex":17,"items":[{"name":"가나여행협동조합","tel":"031-941-0085","addr":"경기도 파주시 문발동 526-7번지","indutype":"여행 - 관광여행","category":"other"},{"name":"대우필름","tel":"031-955-6108","addr":"경기도 파주시 문발동 526-7 204호","indutype":"서적문구 - 출판 및 인쇄물","category":"other"},{"name":"북어국닷컴(Book a Cook)","tel":"070-8119-9196","addr":"경기도 파주시 문발동 526-7번지","indutype":"회원제형태 - 서적","category":"other"},{"name":"서원프린테크","tel":"031-943-5632","addr":"경기도 파주시 문발동 526-7번지","indutype":"서적문구 - 출판 및 인쇄물","category":"other"},{"name":"에스 엔지니어링","tel":"070-4124-0608","addr":"경기도 파주시 문발동 526-7번지","indutype":"기타 - 기계공구","category":"other"}]},{"lat":"37.72720033","long":"126.70763997","imageIndex":17,"items":[{"name":"강북지사(디비)","tel":"070-8150-2520","addr":"경기도 파주시 문발동 547번지 노을빛마을주공아파트","indutype":"회원제형태 - 기타1","category":"other"}]},{"lat":"37.718707914","long":"126.70908007","imageIndex":17,"items":[{"name":"광고놀일터","tel":"031-944-6575","addr":"경기도 파주시 문발동 616-5번지","indutype":"서적문구 - 출판 및 인쇄물","category":"other"}]},{"lat":"37.724715335","long":"126.70829638","imageIndex":17,"items":[{"name":"광고마트","tel":"031-947-1684","addr":"경기도 파주시 문발동 547","indutype":"서적문구 - 출판 및 인쇄물","category":"other"}]},{"lat":"37.72284498","long":"126.69216333","imageIndex":17,"items":[{"name":"광스튜디오","tel":"070-7720-1059","addr":"경기도 파주시 문발동 632-5번지","indutype":"광학제품 - 사진관","category":"other"}]},{"lat":"37.725286672","long":"126.70263399","imageIndex":17,"items":[{"name":"교하종합주방","tel":"031-943-0277","addr":"경기도 파주시 문발동 58-1번지","indutype":"주방용구 - 주방용구","category":"other"},{"name":"신교하 종합주방","tel":"031-943-0277","addr":"경기도 파주시 문발동 58-1번지","indutype":"주방용구 - 주방용구","category":"other"}]},{"lat":"37.72606362","long":"126.70347024","imageIndex":17,"items":[{"name":"국기기업","tel":"031-957-5955","addr":"경기도 파주시 문발동 70-7","indutype":"유통업 영리 - 기타유통업","category":"other"}]},{"lat":"37.723907594","long":"126.70954727","imageIndex":17,"items":[{"name":"극단\"아시안조이\"","tel":"031-969-2518","addr":"경기도 파주시 문발동 560","indutype":"문화.취미 - 티켓","category":"other"},{"name":"도서출판 유유","tel":"031-111-1111","addr":"경기도 파주시 문발동 560번지 숲속길마을동문굿모닝힐","indutype":"서적문구 - 출판 및 인쇄물","category":"other"}]},{"lat":"37.710592978","long":"126.68577299","imageIndex":17,"items":[{"name":"꿈의지도","tel":"070-7733-9114","addr":"경기도 파주시 문발동 516-2번지","indutype":"서적문구 - 출판 및 인쇄물","category":"other"},{"name":"주식회사 아보코리아","tel":"02-1661-9976","addr":"경기도 파주시 문발동 516-2번지","indutype":"용역 서비스 - 종합용역","category":"other"}]},{"lat":"37.725783537","long":"126.69963744","imageIndex":17,"items":[{"name":"낭만실험실","tel":"031-000-0000","addr":"경기도 파주시 문발동 81-9번지","indutype":"신변잡화 - 기타잡화","category":"other"},{"name":"씨아이아이씨(CIIC)","tel":"031-943-5707","addr":"경기도 파주시 문발동 81-9번지","indutype":"레져용품 - 스포츠·레져용품","category":"other"},{"name":"주식회사 디아이티솔루션","tel":"070-4116-2034","addr":"경기도 파주시 문발동 81-9번지","indutype":"사무통신 - 컴퓨터","category":"other"}]},{"lat":"37.71850993","long":"126.70557621","imageIndex":17,"items":[{"name":"네이처코튼","tel":"","addr":"경기도 파주시 문발동 598-5번지","indutype":"직물 - 침구·수예점","category":"other"}]},{"lat":"37.712512604","long":"126.68599163","imageIndex":17,"items":[{"name":"느릅나무","tel":"031-8035-4412","addr":"경기도 파주시 문발동 507-7번지","indutype":"신변잡화 - 기타잡화","category":"other"},{"name":"주식회사 카우앤래빗코리아(Cow&Rabbit Kor","tel":"031-944-0631","addr":"경기도 파주시 문발동 507-7번지","indutype":"서적문구 - 문구용품","category":"other"}]},{"lat":"37.725873721","long":"126.69618879","imageIndex":17,"items":[{"name":"다농마트","tel":"031-111-1111","addr":"경기도 파주시 문발동 278-8","indutype":"유통업 영리 - 편 의 점","category":"other"},{"name":"정다운 우리들","tel":"031-947-8785","addr":"경기도 파주시 문발동 278-8번지","indutype":"서적문구 - 출판 및 인쇄물","category":"other"}]},{"lat":"37.709870205","long":"126.68502759","imageIndex":17,"items":[{"name":"달라에듀테인먼트","tel":"02-2050-0335","addr":"경기도 파주시 문발동 520-12 지식산업사 2층,3층","indutype":"문화.취미 - 문화취미기타","category":"other"},{"name":"에이블 밤부 (Able-BamBoo)","tel":"031-955-4234","addr":"경기도 파주시 문발동 520-12번지","indutype":"가구 - 기타가구","category":"other"}]},{"lat":"37.708320698","long":"126.68507957","imageIndex":17,"items":[{"name":"대명시스템","tel":"031-947-3236","addr":"경기도 파주시 문발동 522-3번지","indutype":"용역 서비스 - 사무서비스","category":"other"},{"name":"손승희스튜디오","tel":"","addr":"경기도 파주시 문발동 522-3번지","indutype":"건축자재 - 인테리어전문","category":"other"},{"name":"아르떼루체(Arte luce)","tel":"031-955-5761","addr":"경기도 파주시 문발동 522-3번지","indutype":"건축자재 - 유리","category":"other"},{"name":"주식회사 미래한국미디어","tel":"02-3446-4111","addr":"경기도 파주시 문발동 522-3번지","indutype":"서적문구 - 정기간행물","category":"other"}]},{"lat":"37.722757175","long":"126.69996736","imageIndex":17,"items":[{"name":"대명종합상사","tel":"031-946-1633","addr":"경기도 파주시 문발동 94-7번지","indutype":"가구 - 기타가구","category":"other"},{"name":"대명종합상사","tel":"031-946-1633","addr":"경기도 파주시 문발동 94-7번지","indutype":"신변잡화 - 기타잡화","category":"other"},{"name":"케치벳(catchbat)","tel":"031-949-4842","addr":"경기도 파주시 문발동 94-7번지","indutype":"레져용품 - 스포츠·레져용품","category":"other"}]},{"lat":"37.719701777","long":"126.71021036","imageIndex":17,"items":[{"name":"대성종합철물공구","tel":"031-944-9688","addr":"경기도 파주시 문발동 603-13번지","indutype":"건축자재 - 목재·석재·철물","category":"other"}]},{"lat":"37.726867792","long":"126.7043858","imageIndex":17,"items":[{"name":"대성포장상사","tel":"031-942-8174","addr":"경기도 파주시 문발동 73-3","indutype":"유통업 영리 - 기타유통업","category":"other"},{"name":"해피바스","tel":"031-943-8270","addr":"경기도 파주시 문발동 73-3번지","indutype":"건축자재 - 건축용 요업제품","category":"other"}]},{"lat":"37.708813786","long":"126.68752699","imageIndex":17,"items":[{"name":"도도갤러리","tel":"031-955-6173","addr":"경기도 파주시 문발동 513-15번지","indutype":"회원제형태 - 서적","category":"other"},{"name":"주식회사 피노키오뮤지엄","tel":"031-955-6173","addr":"경기도 파주시 문발동 513-15번지 2층 3층","indutype":"문화.취미 - 티켓","category":"other"},{"name":"주식회사일루앤코(ILOO and Co. INC.)","tel":"070-4143-7333","addr":"경기도 파주시 문발동 513-15번지 열림원 4층 2호","indutype":"의류 - 정장","category":"other"}]},{"lat":"37.711733098","long":"126.68760535","imageIndex":17,"items":[{"name":"도서출판 낮잠이후","tel":"","addr":"경기도 파주시 문발동 518-1번지","indutype":"서적문구 - 출판 및 인쇄물","category":"other"}]},{"lat":"37.71873194","long":"126.70787773","imageIndex":17,"items":[{"name":"도서출판고인돌","tel":"031-948-2152","addr":"경기도 파주시 문발동 617-12번지","indutype":"서적문구 - 출판 및 인쇄물","category":"other"},{"name":"장수하늘소","tel":"031-957-1342","addr":"경기도 파주시 문발동 617-12번지","indutype":"서적문구 - 출판 및 인쇄물","category":"other"}]},{"lat":"37.716120101","long":"126.68735993","imageIndex":17,"items":[{"name":"도서출판다섯수레","tel":"02-3142-6611","addr":"경기도 파주시 문발동 500-12 출판문화산업단지","indutype":"서적문구 - 출판 및 인쇄물","category":"other"}]},{"lat":"37.707146335","long":"126.68727323","imageIndex":17,"items":[{"name":"도서출판돌베개","tel":"031-955-5025","addr":"경기도 파주시 문발동 532-4번지","indutype":"서적문구 - 출판 및 인쇄물","category":"other"}]},{"lat":"37.710257979","long":"126.68516202","imageIndex":17,"items":[{"name":"도서출판서문당","tel":"031-955-8255","addr":"경기도 파주시 문발동 514-3번지 출판문화정보산업단지","indutype":"서적문구 - 출판 및 인쇄물","category":"other"}]},{"lat":"37.704732675","long":"126.68761232","imageIndex":17,"items":[{"name":"도서출판재미마주","tel":"031-955-0880","addr":"경기도 파주시 문발동 536-3 파주출판단지","indutype":"서적문구 - 출판 및 인쇄물","category":"other"}]},{"lat":"37.721145325","long":"126.69336137","imageIndex":17,"items":[{"name":"도서출판해솔","tel":"031-8071-8698","addr":"경기도 파주시 문발동 638번지","indutype":"서적문구 - 일반서적","category":"other"}]},{"lat":"37.719481767","long":"126.70869139","imageIndex":17,"items":[{"name":"도예공방작","tel":"031-813-8268","addr":"경기도 파주시 문발동 606-5번지","indutype":"문화.취미 - 문화취미기타","category":"other"},{"name":"짝작협동조합","tel":"070-8823-0086","addr":"경기도 파주시 문발동 606-5번지","indutype":"문화.취미 - 민예·공예품","category":"other"}]},{"lat":"37.725900873","long":"126.70324404","imageIndex":17,"items":[{"name":"도원상사","tel":"031-947-0907","addr":"경기도 파주시 문발동 70-6번지","indutype":"건축자재 - 기타건축자재","category":"other"}]},{"lat":"37.707064278","long":"126.6869107","imageIndex":17,"items":[{"name":"동녘라이프","tel":"031-955-3000","addr":"경기도 파주시 문발동 532-5파주출판문화정보산업단지","indutype":"서적문구 - 출판 및 인쇄물","category":"other"}]},{"lat":"37.723978766","long":"126.70918403","imageIndex":17,"items":[{"name":"동문힐세탁소","tel":"031-957-7770","addr":"경기도 파주시 문발동 560번지 숲속길마을동문굿모닝힐","indutype":"수리서비스 - 세탁소","category":"other"},{"name":"에이치케이(H.K)통상","tel":"000-0000-0000","addr":"경기도 파주시 문발동 560번지","indutype":"의류 - 정장","category":"other"},{"name":"에이치케이(H.K)통상","tel":"070-5121-6771","addr":"경기도 파주시 문발동 560번지","indutype":"의류 - 정장","category":"other"},{"name":"에이치케이(H.K)통상/올리브","tel":"032-564-5334","addr":"경기도 파주시 문발동 560번지","indutype":"별도관리 - 자체물품대금","category":"other"},{"name":"파주아이폰수리","tel":"02-2678-7789","addr":"경기도 파주시 문발동 560번지 숲속길마을동문굿모닝힐","indutype":"수리서비스 - 사무·통신기기수리","category":"other"}]},{"lat":"37.727477803","long":"126.7069129","imageIndex":17,"items":[{"name":"두보애드","tel":"070-4333-0075","addr":"경기도 파주시 문발동 551-6번지","indutype":"서적문구 - 출판 및 인쇄물","category":"other"},{"name":"수기획","tel":"031-948-2199","addr":"경기도 파주시 문발동 551-6번지","indutype":"의류 - 정장","category":"other"}]},{"lat":"37.720508225","long":"126.7084378","imageIndex":17,"items":[{"name":"두빛나래","tel":"","addr":"경기도 파주시 문발동 600-3번지","indutype":"문화.취미 - 민예·공예품","category":"other"}]},{"lat":"37.717398473","long":"126.68699157","imageIndex":17,"items":[{"name":"디자인원","tel":"031-941-0991","addr":"경기도 파주시 문발동 498-5번지","indutype":"서적문구 - 출판 및 인쇄물","category":"other"}]},{"lat":"37.715096717","long":"126.68874791","imageIndex":17,"items":[{"name":"뚜비상자","tel":"031-946-2319","addr":"경기도 파주시 문발동 504-4번지","indutype":"용역 서비스 - 사무서비스","category":"other"}]},{"lat":"37.725791174","long":"126.69910428","imageIndex":17,"items":[{"name":"뜰안에 편의점 뜰안에분식식당","tel":"031-942-8487","addr":"경기도 파주시 문발동 263-22번지","indutype":"유통업 영리 - 편 의 점","category":"other"}]},{"lat":"37.706206126","long":"126.68607518","imageIndex":17,"items":[{"name":"라오메뜨파주","tel":"031-941-4769","addr":"경기도 파주시 문발동 530-5번지","indutype":"가구 - 일반가구","category":"other"}]},{"lat":"37.706396969","long":"126.68668673","imageIndex":17,"items":[{"name":"라이프스타일","tel":"031-947-6048","addr":"경기도 파주시 문발동 531-4번지","indutype":"신변잡화 - 가방","category":"other"},{"name":"태성솔루션","tel":"031-948-7928","addr":"경기도 파주시 문발동 531-4번지","indutype":"사무통신 - 사무용 OA기기","category":"other"}]},{"lat":"37.719451452","long":"126.71099394","imageIndex":17,"items":[{"name":"런드리존","tel":"","addr":"경기도 파주시 문발동 611-1번지","indutype":"수리서비스 - 세탁소","category":"other"}]},{"lat":"37.705870701","long":"126.68530549","imageIndex":17,"items":[{"name":"레더블라썸","tel":"031-0000-0000","addr":"경기도 파주시 문발동 529-2번지","indutype":"문화.취미 - 문화취미기타","category":"other"},{"name":"작가세계","tel":"031-955-8077","addr":"경기도 파주시 문발동 529-2","indutype":"서적문구 - 출판 및 인쇄물","category":"other"},{"name":"주식회사 디엔","tel":"031-955-4235","addr":"경기도 파주시 문발동 529-2번지","indutype":"서적문구 - 출판 및 인쇄물","category":"other"},{"name":"주식회사러닝폼","tel":"031-946-0609","addr":"경기도 파주시 문발동 529-2번지","indutype":"서적문구 - 출판 및 인쇄물","category":"other"}]},{"lat":"37.72281248","long":"126.69696136","imageIndex":17,"items":[{"name":"레보 인터내셔널(Revo International)","tel":"031-427-1468","addr":"경기도 파주시 문발동 222-4번지","indutype":"서적문구 - 과학기자재","category":"other"}]},{"lat":"37.715645992","long":"126.68863218","imageIndex":17,"items":[{"name":"로케이션 JJoo","tel":"070-4499-3875","addr":"경기도 파주시 문발동 504-3번지","indutype":"용역 서비스 - 사무서비스","category":"other"},{"name":"지콜론","tel":"031-955-4955","addr":"경기도 파주시 문발동 504-3번지","indutype":"서적문구 - 출판 및 인쇄물","category":"other"}]},{"lat":"37.727235316","long":"126.70722013","imageIndex":17,"items":[{"name":"리치 베네","tel":"070-2699-0807","addr":"경기도 파주시 문발동 552-6번지","indutype":"의류 - 내의판매","category":"other"}]},{"lat":"37.704984546","long":"126.68746384","imageIndex":17,"items":[{"name":"린쓰","tel":"070-4680-6690","addr":"경기도 파주시 문발동 536-2번지","indutype":"서적문구 - 출판 및 인쇄물","category":"other"}]},{"lat":"37.719095488","long":"126.70555119","imageIndex":17,"items":[{"name":"링트리","tel":"031-942-1751","addr":"경기도 파주시 문발동 595-6번지","indutype":"용역 서비스 - 사무서비스","category":"other"},{"name":"지유명차","tel":"070-9632-2563","addr":"경기도 파주시 문발동 595-6번지","indutype":"주방용구 - 주방용식기","category":"other"}]},{"lat":"37.723286223","long":"126.69898974","imageIndex":17,"items":[{"name":"마랑","tel":"031-957-2240","addr":"경기도 파주시 문발동 259-7번지","indutype":"광학제품 - 사진관","category":"other"}]},{"lat":"37.706900922","long":"126.68646913","imageIndex":17,"items":[{"name":"마이다스 공인중개사사무소","tel":"070-8290-6612","addr":"경기도 파주시 문발동 531-2번지","indutype":"용역 서비스 - 부동산 중개·임대","category":"other"},{"name":"북프린테크","tel":"031-955-7676","addr":"경기도 파주시 문발동 531-2번지 점프존상가 304호","indutype":"서적문구 - 출판 및 인쇄물","category":"other"},{"name":"아하기프트","tel":"031-955-8289","addr":"경기도 파주시 문발동 531-2 점프존 상가-203","indutype":"유통업 영리 - 기타유통업","category":"other"},{"name":"알파문구(출판단지)","tel":"031-955-8281","addr":"경기도 파주시 문발동 531-2번지107호","indutype":"서적문구 - 문구용품","category":"other"},{"name":"영은문화","tel":"070-4495-5200","addr":"경기도 파주시 문발동 531-2 점프존상가401호,402호,502호","indutype":"서적문구 - 출판 및 인쇄물","category":"other"},{"name":"이마트24 파주공방거리점","tel":"","addr":"경기도 파주시 문발동 531-2번지","indutype":"유통업 영리 - 편 의 점","category":"other"},{"name":"이마트24 파주공방거리점","tel":"","addr":"경기도 파주시 문발동 531-2번지","indutype":"유통업 영리 - 편 의 점","category":"other"},{"name":"태양H&C","tel":"031-946-3002","addr":"경기도 파주시 문발동 531-2번지","indutype":"사무통신 - 통신기기","category":"other"},{"name":"현대25시편의점","tel":"031-955-4949","addr":"경기도 파주시 문발동 531-2번지","indutype":"유통업 영리 - 편 의 점","category":"other"}]},{"lat":"37.724568055","long":"126.69301819","imageIndex":17,"items":[{"name":"매직에어바운스","tel":"031-924-0225","addr":"경기도 파주시 문발동 284-6 외2필지","indutype":"서적문구 - 완구점","category":"other"}]},{"lat":"37.724979533","long":"126.69880134","imageIndex":17,"items":[{"name":"메트로시티파주파비뇽","tel":"031-956-9800","addr":"경기도 파주시 문발동 263-19 1필지","indutype":"레져용품 - 스포츠·레져용품","category":"other"}]},{"lat":"37.707152822","long":"126.68633197","imageIndex":17,"items":[{"name":"명장면","tel":"031-0000-0000","addr":"경기도 파주시 문발동 531-1번지","indutype":"용역 서비스 - 사무서비스","category":"other"},{"name":"베이프몬스터(Vape monster)","tel":"032-546-5101","addr":"경기도 파주시 문발동 531-1번지","indutype":"신변잡화 - 기타잡화","category":"other"},{"name":"아쿠아릭","tel":"031-947-7906","addr":"경기도 파주시 문발동 531-1번지","indutype":"가구 - 일반가구","category":"other"}]},{"lat":"37.727454099","long":"126.70824016","imageIndex":17,"items":[{"name":"모바일정보","tel":"","addr":"경기도 파주시 문발동 547번지 노을빛마을주공아파트","indutype":"용역 서비스 - 사무서비스","category":"other"}]},{"lat":"37.727117282","long":"126.70685762","imageIndex":17,"items":[{"name":"목요일","tel":"031-948-6126","addr":"경기도 파주시 문발동 552-13","indutype":"가구 - 기타가구","category":"other"}]},{"lat":"37.709174165","long":"126.68752546","imageIndex":17,"items":[{"name":"문공사","tel":"031-955-4123","addr":"경기도 파주시 문발동 513-14번지","indutype":"회원제형태 - 서적","category":"other"}]},{"lat":"37.714736096","long":"126.68865871","imageIndex":17,"items":[{"name":"문발리헌책방골목","tel":"031-955-7440","addr":"경기도 파주시 문발동 504-5번지","indutype":"서적문구 - 일반서적","category":"other"}]},{"lat":"37.728176916","long":"126.70546951","imageIndex":17,"items":[{"name":"문발스크린골프","tel":"031-944-0700","addr":"경기도 파주시 문발동 45-1","indutype":"회원제형태 - 레져업소","category":"other"}]},{"lat":"37.717121182","long":"126.6877413","imageIndex":17,"items":[{"name":"문화공간모임","tel":"031-955-7466","addr":"경기도 파주시 문발동 498-7 파주출판단지","indutype":"서적문구 - 출판 및 인쇄물","category":"other"},{"name":"북앤이벤트","tel":"031-955-7570","addr":"경기도 파주시 문발동 498-7번지","indutype":"서적문구 - 출판 및 인쇄물","category":"other"}]},{"lat":"37.719645606","long":"126.70935992","imageIndex":17,"items":[{"name":"미니스톱교하빌리지점","tel":"031-1577-9621","addr":"경기도 파주시 문발동 607-1번지","indutype":"유통업 영리 - 편 의 점","category":"other"}]},{"lat":"37.707372331","long":"126.68755578","imageIndex":17,"items":[{"name":"밀크북","tel":"031-944-3966","addr":"경기도 파주시 문발동 532-3번지","indutype":"서적문구 - 일반서적","category":"other"},{"name":"비전드림교육연구소","tel":"050-5299-5299","addr":"경기도 파주시 문발동 532-3번지","indutype":"서적문구 - 출판 및 인쇄물","category":"other"},{"name":"선버리리빙","tel":"031-945-6777","addr":"경기도 파주시 문발동 532-3번지","indutype":"가구 - 일반가구","category":"other"},{"name":"주식회사 이오리빙","tel":"031-949-0630","addr":"경기도 파주시 문발동 532-3번지","indutype":"가구 - 일반가구","category":"other"},{"name":"주식회사 자바소프트","tel":"070-7019-1713","addr":"경기도 파주시 문발동 532-3번지","indutype":"서적문구 - 출판 및 인쇄물","category":"other"}]},{"lat":"37.70565169","long":"126.68427449","imageIndex":17,"items":[{"name":"박영사","tel":"031-955-4071","addr":"경기도 파주시 문발동 526-6번지","indutype":"서적문구 - 출판 및 인쇄물","category":"other"}]},{"lat":"37.718876035","long":"126.70785448","imageIndex":17,"items":[{"name":"발전소책방5협동조합","tel":"031-111-1111","addr":"경기도 파주시 문발동 617-1번지","indutype":"서적문구 - 일반서적","category":"other"}]},{"lat":"37.708924485","long":"126.68513369","imageIndex":17,"items":[{"name":"백년동안","tel":"031-941-8988","addr":"경기도 파주시 문발동 522-1번지","indutype":"서적문구 - 출판 및 인쇄물","category":"other"}]},{"lat":"37.728452645","long":"126.707635","imageIndex":17,"items":[{"name":"번개열쇠","tel":"031-948-8553","addr":"경기도 파주시 문발동 545-3번지","indutype":"건축자재 - 목재·석재·철물","category":"other"}]},{"lat":"37.707570494","long":"126.68418689","imageIndex":17,"items":[{"name":"범우사","tel":"031-955-6900","addr":"경기도 파주시 문발동 525-2","indutype":"서적문구 - 출판 및 인쇄물","category":"other"}]},{"lat":"37.718150501","long":"126.68857624","imageIndex":17,"items":[{"name":"보리책방 개똥이네책놀이터","tel":"031-950-9590","addr":"경기도 파주시 문발동 498-11번지","indutype":"회원제형태 - 서적","category":"other"}]},{"lat":"37.719478817","long":"126.71112994","imageIndex":17,"items":[{"name":"부자도배장판","tel":"031-912-0388","addr":"경기도 파주시 문발동 611-2 102","indutype":"직물 - 카페트,커튼,천막,지물","category":"other"},{"name":"세븐일레븐파주두일점","tel":"","addr":"경기도 파주시 문발동 611-2번지","indutype":"유통업 영리 - 편 의 점","category":"other"}]},{"lat":"37.711646872","long":"126.68568911","imageIndex":17,"items":[{"name":"북스토어(BOOK-STORE)","tel":"031-955-1606","addr":"경기도 파주시 문발동 514-8번지","indutype":"회원제형태 - 서적","category":"other"},{"name":"주식회사 아미커스","tel":"031-943-3012","addr":"경기도 파주시 문발동 514-8번지","indutype":"가구 - 일반가구","category":"other"}]},{"lat":"37.721595709","long":"126.69332547","imageIndex":17,"items":[{"name":"블루홀식스(Blueholesix)","tel":"","addr":"경기도 파주시 문발동 635-3번지","indutype":"서적문구 - 출판 및 인쇄물","category":"other"}]},{"lat":"37.729035813","long":"126.70665714","imageIndex":17,"items":[{"name":"비젼공인중개사사무소","tel":"031-816-3366","addr":"경기도 파주시 문발동 29-5","indutype":"용역 서비스 - 부동산 중개·임대","category":"other"},{"name":"애플디자인","tel":"031-945-7304","addr":"경기도 파주시 문발동 29-5번지","indutype":"서적문구 - 출판 및 인쇄물","category":"other"}]},{"lat":"37.730175211","long":"126.70833147","imageIndex":17,"items":[{"name":"삼광사","tel":"","addr":"경기도 파주시 문발동 468번지","indutype":"서적문구 - 출판 및 인쇄물","category":"other"}]},{"lat":"37.72663245","long":"126.70752879","imageIndex":17,"items":[{"name":"삼성SVC에어컨","tel":"","addr":"경기도 파주시 문발동 547번지 노을빛마을주공아파트","indutype":"용역 서비스 - 기타용역서비스","category":"other"}]},{"lat":"37.725872865","long":"126.69585985","imageIndex":17,"items":[{"name":"삼진기업","tel":"031-949-4031","addr":"경기도 파주시 문발동 278-3번지","indutype":"기타 - 기계공구","category":"other"}]},{"lat":"37.708065279","long":"126.68391261","imageIndex":17,"items":[{"name":"삼화폴리텍","tel":"031-955-3312","addr":"경기도 파주시 문발동 520-6번지","indutype":"유통업 영리 - 기타유통업","category":"other"}]},{"lat":"37.725983581","long":"126.70035123","imageIndex":17,"items":[{"name":"서포툴(SUPPORTOOL)","tel":"031-945-5313","addr":"경기도 파주시 문발동 81-13번지","indutype":"기타 - 기계공구","category":"other"},{"name":"서포툴(SUPPORTOOL)","tel":"031-944-1461","addr":"경기도 파주시 문발동 81-13번지","indutype":"기타 - 기계공구","category":"other"},{"name":"주식회사 엔탑","tel":"031-941-8118","addr":"경기도 파주시 문발동 81-13번지","indutype":"용역 서비스 - 사무서비스","category":"other"},{"name":"헤세드","tel":"031-943-8195","addr":"경기도 파주시 문발동 81-13번지","indutype":"의류 - 정장","category":"other"}]},{"lat":"37.729450533","long":"126.70676893","imageIndex":17,"items":[{"name":"성원닥트","tel":"070-4649-1101","addr":"경기도 파주시 문발동 29-14번지","indutype":"건축자재 - 기타건축자재","category":"other"}]},{"lat":"37.723981706","long":"126.69618525","imageIndex":17,"items":[{"name":"세경골프","tel":"031-948-5556","addr":"경기도 파주시 문발동 232-5번지","indutype":"레져용품 - 스포츠·레져용품","category":"other"}]},{"lat":"37.719094085","long":"126.70499544","imageIndex":17,"items":[{"name":"세번째돼지 우드스토리 (3RD Pig Wood Stor","tel":"","addr":"경기도 파주시 문발동 594-7번지","indutype":"가구 - 기타가구","category":"other"}]},{"lat":"37.706037046","long":"126.68685836","imageIndex":17,"items":[{"name":"세연 피엔피","tel":"031-948-2850","addr":"경기도 파주시 문발동 531-6번지","indutype":"서적문구 - 출판 및 인쇄물","category":"other"},{"name":"씨유이채실크빌점","tel":"031-948-2284","addr":"경기도 파주시 문발동 531-6","indutype":"유통업 영리 - 편 의 점","category":"other"}]},{"lat":"37.720202101","long":"126.70851841","imageIndex":17,"items":[{"name":"숨테라피 연구소","tel":"031-946-8535","addr":"경기도 파주시 문발동 604-12번지","indutype":"신변잡화 - 기타잡화","category":"other"},{"name":"펫멍","tel":"031-947-3988","addr":"경기도 파주시 문발동 604-12번지","indutype":"문화.취미 - 애완동물","category":"other"}]},{"lat":"37.725928534","long":"126.69996579","imageIndex":17,"items":[{"name":"스테이지세븐(주)","tel":"","addr":"경기도 파주시 문발동 81-11번지","indutype":"의류 - 정장","category":"other"}]},{"lat":"37.720121278","long":"126.69452253","imageIndex":17,"items":[{"name":"스튜디오 에녹","tel":"031-955-9920","addr":"경기도 파주시 문발동 626-15번지","indutype":"가구 - 일반가구","category":"other"}]},{"lat":"37.719817181","long":"126.70951803","imageIndex":17,"items":[{"name":"스틸레더웍스","tel":"","addr":"경기도 파주시 문발동 603-17번지","indutype":"신변잡화 - 가방","category":"other"},{"name":"커피콩","tel":"","addr":"경기도 파주시 문발동 603-17번지","indutype":"주방용구 - 주방용구","category":"other"}]},{"lat":"37.709235136","long":"126.68674271","imageIndex":17,"items":[{"name":"시샵미디어","tel":"031-955-5473","addr":"경기도 파주시 문발동 524-2번지","indutype":"레져용품 - 음반/영상물","category":"other"},{"name":"주식회사 시샵코리아","tel":"031-955-5478","addr":"경기도 파주시 문발동 524-2번지","indutype":"레져용품 - 음반/영상물","category":"other"},{"name":"주식회사 제이펍","tel":"070-8201-9010","addr":"경기도 파주시 문발동 524-2번지","indutype":"서적문구 - 출판 및 인쇄물","category":"other"}]},{"lat":"37.708148233","long":"126.68460401","imageIndex":17,"items":[{"name":"시월","tel":"031-955-0085","addr":"경기도 파주시 문발동 520-8번지","indutype":"서적문구 - 출판 및 인쇄물","category":"other"}]},{"lat":"37.72586883","long":"126.70840524","imageIndex":17,"items":[{"name":"씨유교하주공점","tel":"080-080-3663","addr":"경기도 파주시 문발동 547번지","indutype":"유통업 영리 - 편 의 점","category":"other"},{"name":"주공세탁","tel":"031-943-3989","addr":"경기도 파주시 문발동 547주공상가202","indutype":"수리서비스 - 세탁소","category":"other"}]},{"lat":"37.706979996","long":"126.68572034","imageIndex":17,"items":[{"name":"씨유출판문화점","tel":"031-955-7909","addr":"경기도 파주시 문발동 530-1번지","indutype":"유통업 영리 - 편 의 점","category":"other"},{"name":"주식회사 더나루","tel":"031-945-2375","addr":"경기도 파주시 문발동 530-1번지","indutype":"수리서비스 - 기타수리서비스","category":"other"},{"name":"하나뮤직&북스","tel":"031-955-1973","addr":"경기도 파주시 문발동 530-1번지","indutype":"서적문구 - 일반서적","category":"other"}]},{"lat":"37.728755265","long":"126.70615915","imageIndex":17,"items":[{"name":"씨유파주문발점","tel":"031-942-4831","addr":"경기도 파주시 문발동 32-7번지","indutype":"유통업 영리 - 편 의 점","category":"other"}]},{"lat":"37.718846078","long":"126.70668638","imageIndex":17,"items":[{"name":"씨제이공조","tel":"031-943-3169","addr":"경기도 파주시 문발동 619-5번지","indutype":"용역 서비스 - 기타용역서비스","category":"other"}]},{"lat":"37.722701761","long":"126.70652357","imageIndex":17,"items":[{"name":"아틀리에 다소니","tel":"","addr":"경기도 파주시 문발동 559번지 파주교하월드메르디앙타운하우스","indutype":"문화.취미 - 문화취미기타","category":"other"},{"name":"이티비티리틀스타(ittybittylittlestar)","tel":"","addr":"경기도 파주시 문발동 559번지 파주교하월드메르디앙타운하우스","indutype":"신변잡화 - 기타잡화","category":"other"}]},{"lat":"37.706679026","long":"126.68771748","imageIndex":17,"items":[{"name":"앰앤에이치써미트","tel":"031-955-6363","addr":"경기도 파주시 문발동 534-2번지","indutype":"레져용품 - 악기점","category":"other"},{"name":"주현디자인","tel":"070-8878-4943","addr":"경기도 파주시 문발동 534-2번지","indutype":"직물 - 침구·수예점","category":"other"}]},{"lat":"37.718479675","long":"126.70787874","imageIndex":17,"items":[{"name":"야나통상","tel":"031-6623-2046","addr":"경기도 파주시 문발동 620-14번지","indutype":"기타 - 기계공구","category":"other"}]},{"lat":"37.725312093","long":"126.69849372","imageIndex":17,"items":[{"name":"에이더블유북스(AWBooks)/슈퍼애니(superan","tel":"02-444-1631","addr":"경기도 파주시 문발동 263-14번지","indutype":"서적문구 - 일반서적","category":"other"},{"name":"유니크학생복","tel":"","addr":"경기도 파주시 문발동 263-14번지","indutype":"의류 - 단체복","category":"other"},{"name":"주식회사 탑클래스여행사","tel":"031-1688-2162","addr":"경기도 파주시 문발동 263-14번지","indutype":"여행 - 관광여행","category":"other"}]},{"lat":"37.725289854","long":"126.69341218","imageIndex":17,"items":[{"name":"에코존(ECO ZONE)","tel":"031-942-8007","addr":"경기도 파주시 문발동 282-2번지","indutype":"전기제품 - 냉열기기","category":"other"}]},{"lat":"37.718424312","long":"126.70735723","imageIndex":17,"items":[{"name":"에프라임트리(flimetree)","tel":"031-000-0000","addr":"경기도 파주시 문발동 620-10번지","indutype":"가구 - 일반가구","category":"other"}]},{"lat":"37.718869765","long":"126.70535928","imageIndex":17,"items":[{"name":"에프터텐이어그린","tel":"","addr":"경기도 파주시 문발동 597-3번지","indutype":"문화.취미 - 화원","category":"other"}]},{"lat":"37.714472285","long":"126.69109819","imageIndex":17,"items":[{"name":"엑스트라볼드","tel":"","addr":"경기도 파주시 문발동 506-2번지 헤르만하우스","indutype":"용역 서비스 - 사무서비스","category":"other"}]},{"lat":"37.706480817","long":"126.68771832","imageIndex":17,"items":[{"name":"엘디자인","tel":"031-955-5545","addr":"경기도 파주시 문발동 534-3번지","indutype":"용역 서비스 - 사무서비스","category":"other"},{"name":"주식회사 이담","tel":"031-946-0705","addr":"경기도 파주시 문발동 534-3번지","indutype":"건축자재 - 인테리어전문","category":"other"}]},{"lat":"37.719846351","long":"126.71037992","imageIndex":17,"items":[{"name":"엘리트공인중개사사무소","tel":"031-957-8955","addr":"경기도 파주시 문발동 603-6","indutype":"용역 서비스 - 부동산 중개·임대","category":"other"}]},{"lat":"37.714896936","long":"126.68815901","imageIndex":17,"items":[{"name":"여미지 마코070자루점","tel":"","addr":"경기도 파주시 문발동 503-1번지 자루아울렛","indutype":"의류 - 스포츠의류","category":"other"}]},{"lat":"37.718922953","long":"126.70860286","imageIndex":17,"items":[{"name":"연가","tel":"031-1111-1111","addr":"경기도 파주시 문발동 617-7번지","indutype":"신변잡화 - 귀금속","category":"other"},{"name":"제이케이프로모션","tel":"031-946-7455","addr":"경기도 파주시 문발동 617-7번지","indutype":"유통업 영리 - 기타유통업","category":"other"}]},{"lat":"37.727206123","long":"126.70635816","imageIndex":17,"items":[{"name":"예뿌개","tel":"031-943-8270","addr":"경기도 파주시 문발동 551-11번지","indutype":"문화.취미 - 애완동물","category":"other"}]},{"lat":"37.727044101","long":"126.71002266","imageIndex":17,"items":[{"name":"오토시스템","tel":"031-0000-0000","addr":"경기도 파주시 문발동 546번지 노을빛마을주공아파트","indutype":"용역 서비스 - 기타용역서비스","category":"other"}]},{"lat":"37.725039393","long":"126.70818166","imageIndex":17,"items":[{"name":"와이포스(Y-pos)","tel":"031-947-4825","addr":"경기도 파주시 문발동 547번지 노을빛마을주공아파트","indutype":"회원제형태 - 기타4","category":"other"}]},{"lat":"37.719374353","long":"126.70537994","imageIndex":17,"items":[{"name":"용성유통","tel":"031-944-7251","addr":"경기도 파주시 문발동 595-9번지","indutype":"의류 - 기타의류","category":"other"}]},{"lat":"37.725317668","long":"126.69716658","imageIndex":17,"items":[{"name":"우리들유통","tel":"031-941-9272","addr":"경기도 파주시 문발동 269-1 2동 1층","indutype":"회원제형태 - 기타3","category":"other"}]},{"lat":"37.728789559","long":"126.70546706","imageIndex":17,"items":[{"name":"우리시스템","tel":"031-918-4319","addr":"경기도 파주시 문발동 32-2","indutype":"서적문구 - 과학기자재","category":"other"}]},{"lat":"37.728367287","long":"126.70593383","imageIndex":17,"items":[{"name":"우리전기","tel":"031-948-9790","addr":"경기도 파주시 문발동 30-2","indutype":"전기제품 - 기타전기제품","category":"other"},{"name":"청운법무사사무소","tel":"031-945-3670","addr":"경기도 파주시 문발동 30-2번지 2층","indutype":"용역 서비스 - 법률회계서비스(개인)","category":"other"}]},{"lat":"37.711426624","long":"126.68754994","imageIndex":17,"items":[{"name":"월북","tel":"031-955-3777","addr":"경기도 파주시 문발동 518-2 파주출판도시","indutype":"서적문구 - 출판 및 인쇄물","category":"other"},{"name":"주식회사 지구문화","tel":"031-955-7566","addr":"경기도 파주시 문발동 518-2번지","indutype":"서적문구 - 출판 및 인쇄물","category":"other"}]},{"lat":"37.719511959","long":"126.70996158","imageIndex":17,"items":[{"name":"유어페이스","tel":"031-882-7106","addr":"경기도 파주시 문발동 608-2번지","indutype":"문화.취미 - 애완동물","category":"other"}]},{"lat":"37.715813476","long":"126.68724781","imageIndex":17,"items":[{"name":"이가고서점","tel":"031-955-1499","addr":"경기도 파주시 문발동 500-11번지","indutype":"회원제형태 - 서적","category":"other"}]},{"lat":"37.719065475","long":"126.7115739","imageIndex":17,"items":[{"name":"이마트24 파주교하타운점","tel":"","addr":"경기도 파주시 문발동 612-5번지","indutype":"유통업 영리 - 편 의 점","category":"other"},{"name":"이마트24 파주교하타운점","tel":"031-1111-1111","addr":"경기도 파주시 문발동 612-5번지","indutype":"유통업 영리 - 편 의 점","category":"other"}]},{"lat":"37.718870166","long":"126.70551806","imageIndex":17,"items":[{"name":"이마트24 파주지원점","tel":"","addr":"경기도 파주시 문발동 597-4번지","indutype":"유통업 영리 - 편 의 점","category":"other"}]},{"lat":"37.721371871","long":"126.69385949","imageIndex":17,"items":[{"name":"이콘출판 (주)","tel":"031-8071-8698","addr":"경기도 파주시 문발동 639번지","indutype":"서적문구 - 일반서적","category":"other"},{"name":"이콘출판(주)","tel":"031-985-3578","addr":"경기도 파주시 문발동 639번지","indutype":"서적문구 - 출판 및 인쇄물","category":"other"}]},{"lat":"37.720345505","long":"126.69413597","imageIndex":17,"items":[{"name":"이피에이치커뮤니케이션즈(주)","tel":"070-4171-5053","addr":"경기도 파주시 문발동 638-5번지","indutype":"레져용품 - 음반/영상물","category":"other"}]},{"lat":"37.724290094","long":"126.70047155","imageIndex":17,"items":[{"name":"일렉홀","tel":"","addr":"경기도 파주시 문발동 84-10 외1필지","indutype":"전기제품 - 기타전기제품","category":"other"}]},{"lat":"37.719373723","long":"126.70513042","imageIndex":17,"items":[{"name":"작은사람들","tel":"031-111-1111","addr":"경기도 파주시 문발동 594-4번지","indutype":"서적문구 - 출판 및 인쇄물","category":"other"}]},{"lat":"37.726034167","long":"126.709675","imageIndex":17,"items":[{"name":"장미패션","tel":"031-946-4692","addr":"경기도 파주시 문발동 547번지 노을빛마을주공아파트","indutype":"의류 - 내의판매","category":"other"}]},{"lat":"37.714402685","long":"126.68863743","imageIndex":17,"items":[{"name":"정아인쇄","tel":"031-957-0991","addr":"경기도 파주시 문발동 504-6번지","indutype":"서적문구 - 출판 및 인쇄물","category":"other"}]},{"lat":"37.719149237","long":"126.70902162","imageIndex":17,"items":[{"name":"제이제이 (JJ)파트너스","tel":"031-000-0000","addr":"경기도 파주시 문발동 607-7번지","indutype":"용역 서비스 - 사무서비스","category":"other"}]},{"lat":"37.720230176","long":"126.70893796","imageIndex":17,"items":[{"name":"제이콥(JACOB)","tel":"","addr":"경기도 파주시 문발동 604-3번지","indutype":"의류 - 정장","category":"other"}]},{"lat":"37.714459563","long":"126.68632357","imageIndex":17,"items":[{"name":"조은패키지","tel":"031-946-7134","addr":"경기도 파주시 문발동 507-2번지","indutype":"유통업 영리 - 기타유통업","category":"other"}]},{"lat":"37.705979792","long":"126.6856679","imageIndex":17,"items":[{"name":"주식회사 깊이와넓이","tel":"031-955-7281","addr":"경기도 파주시 문발동 529-3번지","indutype":"서적문구 - 출판 및 인쇄물","category":"other"},{"name":"주식회사라임","tel":"031-955-1820","addr":"경기도 파주시 문발동 529-3번지","indutype":"서적문구 - 출판 및 인쇄물","category":"other"}]},{"lat":"37.712513944","long":"126.68649062","imageIndex":17,"items":[{"name":"주식회사 디와이미디어그룹","tel":"02-562-0430","addr":"경기도 파주시 문발동 509-3번지","indutype":"서적문구 - 정기간행물","category":"other"},{"name":"주식회사 스노우폭스북스","tel":"031-927-9965","addr":"경기도 파주시 문발동 509-3번지","indutype":"서적문구 - 출판 및 인쇄물","category":"other"}]},{"lat":"37.721119606","long":"126.69386054","imageIndex":17,"items":[{"name":"주식회사 봄풀출판","tel":"031-955-9850","addr":"경기도 파주시 문발동 639-2번지","indutype":"서적문구 - 출판 및 인쇄물","category":"other"}]},{"lat":"37.72953462","long":"126.70438644","imageIndex":17,"items":[{"name":"주식회사 비전공구","tel":"031-944-7601","addr":"경기도 파주시 문발동 33-4번지","indutype":"건축자재 - 목재·석재·철물","category":"other"}]},{"lat":"37.713320279","long":"126.68816568","imageIndex":17,"items":[{"name":"주식회사 새움아트","tel":"070-7733-5388","addr":"경기도 파주시 문발동 511-2번지","indutype":"문화.취미 - 문화취미기타","category":"other"}]},{"lat":"37.70945531","long":"126.68485925","imageIndex":17,"items":[{"name":"주식회사 선데이홈디자인","tel":"02-111-1111","addr":"경기도 파주시 문발동 520-11번지","indutype":"서적문구 - 출판 및 인쇄물","category":"other"},{"name":"한길아트","tel":"031-955-2001","addr":"경기도 파주시 문발동 520-11번지","indutype":"서적문구 - 출판 및 인쇄물","category":"other"}]},{"lat":"37.726676811","long":"126.70368329","imageIndex":17,"items":[{"name":"주식회사 스완리빙","tel":"031-906-1530","addr":"경기도 파주시 문발동 73-1번지","indutype":"직물 - 침구·수예점","category":"other"}]},{"lat":"37.724997991","long":"126.69897141","imageIndex":17,"items":[{"name":"주식회사 알스팀","tel":"","addr":"경기도 파주시 문발동 263-31번지","indutype":"용역 서비스 - 사무서비스","category":"other"}]},{"lat":"37.716426787","long":"126.68749473","imageIndex":17,"items":[{"name":"주식회사 에이블스퀘어","tel":"031-955-4234","addr":"경기도 파주시 문발동 500-13번지","indutype":"서적문구 - 출판 및 인쇄물","category":"other"}]},{"lat":"37.721398004","long":"126.71119047","imageIndex":17,"items":[{"name":"주식회사 엔씨엠","tel":"02-6953-3340","addr":"경기도 파주시 문발동 567-2번지","indutype":"용역 서비스 - 소프트웨어","category":"other"}]},{"lat":"37.722758673","long":"126.69360419","imageIndex":17,"items":[{"name":"주식회사 휴먼아이디","tel":"031-949-0773","addr":"경기도 파주시 문발동 627-3번지","indutype":"서적문구 - 출판 및 인쇄물","category":"other"}]},{"lat":"37.711539948","long":"126.68613186","imageIndex":17,"items":[{"name":"주식회사씨스톤컨설팅","tel":"031-955-3434","addr":"경기도 파주시 문발동 515-2 보림출판사 3층","indutype":"회원제형태 - 기타4","category":"other"}]},{"lat":"37.70898492","long":"126.68415816","imageIndex":17,"items":[{"name":"주식회사애드플랫홈","tel":"02-2273-6961","addr":"경기도 파주시 문발동 520-4번지","indutype":"용역 서비스 - 사무서비스","category":"other"},{"name":"천일씨티피필름프린팅","tel":"031-955-5091","addr":"경기도 파주시 문발동 520-4번지","indutype":"서적문구 - 출판 및 인쇄물","category":"other"}]},{"lat":"37.719200859","long":"126.70804601","imageIndex":17,"items":[{"name":"준토스 (Juntos)","tel":"","addr":"경기도 파주시 문발동 606-10번지","indutype":"용역 서비스 - 종합용역","category":"other"}]},{"lat":"37.727646187","long":"126.70580059","imageIndex":17,"items":[{"name":"지니프로세스","tel":"070-8846-7780","addr":"경기도 파주시 문발동 549-5번지","indutype":"기타 - 기계공구","category":"other"}]},{"lat":"37.719563136","long":"126.70880449","imageIndex":17,"items":[{"name":"진성에어컨","tel":"","addr":"경기도 파주시 문발동 606-4번지","indutype":"용역 서비스 - 기타용역서비스","category":"other"}]},{"lat":"37.718735109","long":"126.70555263","imageIndex":17,"items":[{"name":"진성철물열쇠","tel":"031-948-0949","addr":"경기도 파주시 문발동 597-5","indutype":"건축자재 - 목재·석재·철물","category":"other"}]},{"lat":"37.72508231","long":"126.70733078","imageIndex":17,"items":[{"name":"창앤문","tel":"031-957-6217","addr":"경기도 파주시 문발동 547","indutype":"건축자재 - 보일러·펌프·샷시","category":"other"}]},{"lat":"37.713901494","long":"126.68651875","imageIndex":17,"items":[{"name":"창의팩토리","tel":"031-944-8920","addr":"경기도 파주시 문발동 507-12번지","indutype":"서적문구 - 기타서적문구","category":"other"}]},{"lat":"37.724568889","long":"126.71099655","imageIndex":17,"items":[{"name":"책향","tel":"031-957-7725","addr":"경기도 파주시 문발동 561-3번지","indutype":"회원제형태 - 서적","category":"other"}]},{"lat":"37.723572153","long":"126.70870924","imageIndex":17,"items":[{"name":"청계출판사","tel":"031-922-5880","addr":"경기도 파주시 문발동 560 301-501","indutype":"서적문구 - 출판 및 인쇄물","category":"other"}]},{"lat":"37.706591673","long":"126.68538179","imageIndex":17,"items":[{"name":"커뮤니케이션박스(Communication Box)","tel":"070-4365-8893","addr":"경기도 파주시 문발동 527-4번지 양서원 406호","indutype":"서적문구 - 문구용품","category":"other"},{"name":"파주아트벙커 협동조합","tel":"031-949-9456","addr":"경기도 파주시 문발동 527-4번지","indutype":"문화.취미 - 화랑","category":"other"}]},{"lat":"37.72426282","long":"126.71109983","imageIndex":17,"items":[{"name":"커즈펫","tel":"070-7766-2732","addr":"경기도 파주시 문발동 562-1번지","indutype":"문화.취미 - 애완동물","category":"other"}]},{"lat":"37.719064718","long":"126.71126767","imageIndex":17,"items":[{"name":"컴장군","tel":"031-948-4399","addr":"경기도 파주시 문발동 611-5번지","indutype":"사무통신 - 컴퓨터","category":"other"}]},{"lat":"37.729424075","long":"126.7069959","imageIndex":17,"items":[{"name":"코아스틸","tel":"031-946-1461","addr":"경기도 파주시 문발동 29-17","indutype":"건축자재 - 목재·석재·철물","category":"other"}]},{"lat":"37.71959702","long":"126.70794236","imageIndex":17,"items":[{"name":"코코밍크","tel":"031-941-7903","addr":"경기도 파주시 문발동 605-7번지 102호 단독주택","indutype":"의류 - 정장","category":"other"},{"name":"행복한책방 파주","tel":"031-945-8922","addr":"경기도 파주시 문발동 605-7번지","indutype":"서적문구 - 일반서적","category":"other"}]},{"lat":"37.720148384","long":"126.70865473","imageIndex":17,"items":[{"name":"콜119","tel":"070-0000-0000","addr":"경기도 파주시 문발동 604-11번지","indutype":"용역 서비스 - 기타용역서비스","category":"other"}]},{"lat":"37.726084359","long":"126.71175058","imageIndex":17,"items":[{"name":"쿨영일냉동","tel":"031-8279-4495","addr":"경기도 파주시 문발동 546번지 노을빛마을주공아파트","indutype":"용역 서비스 - 기타용역서비스","category":"other"}]},{"lat":"37.719173433","long":"126.70788733","imageIndex":17,"items":[{"name":"크래프트반(CraftBarn)","tel":"031-957-7106","addr":"경기도 파주시 문발동 606-11번지","indutype":"문화.취미 - 문화취미기타","category":"other"}]},{"lat":"37.726648021","long":"126.70655322","imageIndex":17,"items":[{"name":"크린에이드 문발초교점","tel":"031-943-0336","addr":"경기도 파주시 문발동 553-8번지","indutype":"수리서비스 - 세탁소","category":"other"}]},{"lat":"37.727535697","long":"126.70485954","imageIndex":17,"items":[{"name":"탑설비인테리어","tel":"031-944-3088","addr":"경기도 파주시 문발동 45-8번지","indutype":"건축자재 - 인테리어전문","category":"other"}]},{"lat":"37.725788305","long":"126.69799268","imageIndex":17,"items":[{"name":"태림상사","tel":"031-942-8948","addr":"경기도 파주시 문발동 263-11번지","indutype":"사무통신 - 기타 사무용품","category":"other"}]},{"lat":"37.721729987","long":"126.69299598","imageIndex":17,"items":[{"name":"티피에이코리아 (주)","tel":"031-932-2398","addr":"경기도 파주시 문발동 635번지","indutype":"서적문구 - 출판 및 인쇄물","category":"other"}]},{"lat":"37.714848491","long":"126.68688898","imageIndex":17,"items":[{"name":"파주나비나라박물관","tel":"031-955-3727","addr":"경기도 파주시 문발동 500-8번지","indutype":"문화.취미 - 티켓","category":"other"},{"name":"파주나비나라박물관 문화비","tel":"031-955-3727","addr":"경기도 파주시 문발동 500-8번지","indutype":"문화.취미 - 티켓","category":"other"}]},{"lat":"37.725201822","long":"126.70115976","imageIndex":17,"items":[{"name":"퍼스트아크","tel":"031-1899-0767","addr":"경기도 파주시 문발동 60-3번지","indutype":"신변잡화 - 가방","category":"other"}]},{"lat":"37.71284769","long":"126.68663664","imageIndex":17,"items":[{"name":"페이퍼쿠키(PAPERCOOKIE)","tel":"031-955-7992","addr":"경기도 파주시 문발동 509-2파주출판단지내글로벌출판사사옥","indutype":"가구 - 일반가구","category":"other"}]},{"lat":"37.709375417","long":"126.68530187","imageIndex":17,"items":[{"name":"플럼라인","tel":"031-955-0153","addr":"경기도 파주시 문발동 521-2번지","indutype":"서적문구 - 출판 및 인쇄물","category":"other"}]},{"lat":"37.718930473","long":"126.71163114","imageIndex":17,"items":[{"name":"플립","tel":"","addr":"경기도 파주시 문발동 612-6번지","indutype":"문화.취미 - 화원","category":"other"}]},{"lat":"37.713451","long":"126.68988897","imageIndex":17,"items":[{"name":"한국 헤밍웨이","tel":"070-4314-4104","addr":"경기도 파주시 문발동 513-1번지","indutype":"서적문구 - 출판 및 인쇄물","category":"other"}]},{"lat":"37.718761222","long":"126.70518958","imageIndex":17,"items":[{"name":"한스 디지테인먼트 빔플 파주지점","tel":"031-1599-0728","addr":"경기도 파주시 문발동 597-7번지","indutype":"사무통신 - 사무용 OA기기","category":"other"}]},{"lat":"37.723901859","long":"126.69666197","imageIndex":17,"items":[{"name":"한지소재연구소","tel":"","addr":"경기도 파주시 문발동 234번지","indutype":"용역 서비스 - 사무서비스","category":"other"}]},{"lat":"37.71928979","long":"126.70758063","imageIndex":17,"items":[{"name":"허니대디","tel":"02-479-3296","addr":"경기도 파주시 문발동 618-11번지","indutype":"직물 - 침구·수예점","category":"other"}]},{"lat":"37.720094695","long":"126.70880239","imageIndex":17,"items":[{"name":"허브인루다(HUB IN LUDA)","tel":"031-942-5343","addr":"경기도 파주시 문발동 604-10번지","indutype":"문화.취미 - 민예·공예품","category":"other"}]},{"lat":"37.707398297","long":"126.68715876","imageIndex":17,"items":[{"name":"효형출판","tel":"031-955-7600","addr":"경기도 파주시 문발동 532-2번지 1층 효형출판사 북카페 눈","indutype":"서적문구 - 출판 및 인쇄물","category":"other"},{"name":"효형츨판","tel":"031-955-7600","addr":"경기도 파주시 문발동 532-2번지","indutype":"서적문구 - 출판 및 인쇄물","category":"other"}]},{"lat":"37.727729213","long":"126.7065716","imageIndex":17,"items":[{"name":"휴먼플라이","tel":"070-7524-0974","addr":"경기도 파주시 문발동 550-6 1층","indutype":"신변잡화 - 신발","category":"other"}]}]