[{"lat":"37.269715134","long":"127.15382186","imageIndex":0,"items":[{"name":"(주)드림스페이스","tel":"031-283-3015","addr":"경기도 용인시 기흥구 중동 853-2번지 제일프라자 901호","indutype":"자동차정비 유지 - 주차장","category":"car"}]},{"lat":"37.281931112","long":"127.14817438","imageIndex":0,"items":[{"name":"금강모터스","tel":"031-893-2969","addr":"경기도 용인시 기흥구 중동 1101번지 신동백롯데캐슬에코2단지","indutype":"자동차정비 유지 - 자동차부품","category":"car"}]},{"lat":"37.270797596","long":"127.15285442","imageIndex":0,"items":[{"name":"노블카케어","tel":"070-8869-2694","addr":"경기도 용인시 기흥구 중동 849-2번지 씨티프라자 8층 C838호","indutype":"자동차정비 유지 - 자동차부품","category":"car"},{"name":"씨티프라자관리단","tel":"031-287-0677","addr":"경기도 용인시 기흥구 중동 849-2번지 씨티프라자","indutype":"자동차정비 유지 - 주차장","category":"car"},{"name":"인테크","tel":"","addr":"경기도 용인시 기흥구 중동 849-2번지 씨티프라자 8층 805호","indutype":"자동차정비 유지 - 자동차부품","category":"car"}]},{"lat":"37.274653145","long":"127.14626619","imageIndex":0,"items":[{"name":"동백 스팀 세차장","tel":"031-283-3007","addr":"경기도 용인시 기흥구 중동 705번지 라온포렉스A A동 지하1층","indutype":"자동차정비 유지 - 세차장","category":"car"}]},{"lat":"37.27693296","long":"127.15335143","imageIndex":0,"items":[{"name":"동백 훼미리프라자2 상가관리단","tel":"031-8005-7857","addr":"경기도 용인시 기흥구 중동 830-2번지","indutype":"자동차정비 유지 - 주차장","category":"car"},{"name":"동백훼미리프라자2 상가관리단","tel":"031-8005-7857","addr":"경기도 용인시 기흥구 중동 830-2번지 동백훼미리프라자2","indutype":"자동차정비 유지 - 주차장","category":"car"}]},{"lat":"37.267319252","long":"127.15315192","imageIndex":0,"items":[{"name":"동백세차장","tel":"031-8005-8885","addr":"경기도 용인시 기흥구 중동 436번지","indutype":"자동차정비 유지 - 세차장","category":"car"}]},{"lat":"37.265470914","long":"127.15411778","imageIndex":0,"items":[{"name":"메트로세차","tel":"070-8285-5143","addr":"경기도 용인시 기흥구 중동 819번지 참솔마을월드메르디앙 106동 1801호","indutype":"자동차정비 유지 - 세차장","category":"car"}]},{"lat":"37.25871335","long":"127.16090166","imageIndex":0,"items":[{"name":"스피드메이트 초당점","tel":"031-693-8980","addr":"경기도 용인시 기흥구 중동 1039번지","indutype":"자동차정비 유지 - 자동차정비","category":"car"}]},{"lat":"37.274878728","long":"127.14599602","imageIndex":0,"items":[{"name":"쌍용자동차용인서비스프라자","tel":"031-283-5586","addr":"경기도 용인시 기흥구 중동 705-3번지","indutype":"자동차정비 유지 - 자동차정비","category":"car"}]},{"lat":"37.256410123","long":"127.16504504","imageIndex":0,"items":[{"name":"에이스동백타워관리위원회","tel":"031-8060-7700","addr":"경기도 용인시 기흥구 중동 1033번지 에이스동백타워","indutype":"자동차정비 유지 - 주차장","category":"car"}]},{"lat":"37.278936874","long":"127.14304949","imageIndex":0,"items":[{"name":"우리들세차장","tel":"031-284-4433","addr":"경기도 용인시 기흥구 중동 634-3번지","indutype":"자동차정비 유지 - 세차장","category":"car"}]},{"lat":"37.284012974","long":"127.14777243","imageIndex":0,"items":[{"name":"이동타이어","tel":"031-262-8443","addr":"경기도 용인시 기흥구 중동 1101번지 신동백롯데캐슬에코2단지","indutype":"자동차정비 유지 - 자동차시트·타이어","category":"car"}]},{"lat":"37.256877356","long":"127.16599292","imageIndex":0,"items":[{"name":"이효자산관리 주식회사","tel":"031-8021-1976","addr":"경기도 용인시 기흥구 중동 1028번지 이호지식산업센터 8101호","indutype":"자동차정비 유지 - 주차장","category":"car"}]},{"lat":"37.27013048","long":"127.15313495","imageIndex":0,"items":[{"name":"주식회사 더에스아이","tel":"031-281-5948","addr":"경기도 용인시 기흥구 중동 852-3번지 브릭스타워 3층 301호","indutype":"자동차정비 유지 - 주차장","category":"car"},{"name":"주식회사 더에스아이","tel":"02-582-1024","addr":"경기도 용인시 기흥구 중동 852-3번지 브릭스타워 3층 301호","indutype":"자동차정비 유지 - 주차장","category":"car"}]},{"lat":"37.277735115","long":"127.15316134","imageIndex":0,"items":[{"name":"주식회사 동백골드프라자","tel":"031-8006-2110","addr":"경기도 용인시 기흥구 중동 829번지 골드프라자 D동 6층","indutype":"자동차정비 유지 - 주차장","category":"car"}]},{"lat":"37.276519937","long":"127.14488287","imageIndex":0,"items":[{"name":"중리카센타","tel":"031-2883-1031","addr":"경기도 용인시 기흥구 중동 625-3번지","indutype":"자동차정비 유지 - 자동차정비","category":"car"}]},{"lat":"37.276987651","long":"127.15285542","imageIndex":0,"items":[{"name":"지스타주차장","tel":"","addr":"경기도 용인시 기흥구 중동 830-1번지 지스타프라자지하 (중동101,지하201,301,401호)","indutype":"자동차정비 유지 - 주차장","category":"car"}]},{"lat":"37.281874746","long":"127.14260389","imageIndex":0,"items":[{"name":"티투(T2)","tel":"031-304-2222","addr":"경기도 용인시 기흥구 중동 1110번지 외1필지","indutype":"자동차정비 유지 - 세차장","category":"car"}]},{"lat":"37.27746538","long":"127.15270979","imageIndex":0,"items":[{"name":"훼미리프라자1 관리단","tel":"031-283-3015","addr":"경기도 용인시 기흥구 중동 832-1번지 동백훼미리프라자1 지하2층","indutype":"자동차정비 유지 - 주차장","category":"car"}]}]