[{"lat":"37.645860802","long":"127.12561796","imageIndex":13,"items":[{"name":"&풋샵","tel":"031-575-5671","addr":"경기도 남양주시 별내동 1006-1번지 2층 202호","indutype":"보건위생 - 화장품","category":"beauty"},{"name":"공간","tel":"02-000-0000","addr":"경기도 남양주시 별내동 1006-1번지","indutype":"보건위생 - 화장품","category":"beauty"},{"name":"네일리아","tel":"031-572-0964","addr":"경기도 남양주시 별내동 1006-1번지 301-2호","indutype":"보건위생 - 피부미용실","category":"beauty"},{"name":"로데오유황24시사우나","tel":"031-528-4310","addr":"경기도 남양주시 별내동 1006-1번지 별내로데오몰 801호 901호","indutype":"보건위생 - 사우나","category":"beauty"},{"name":"청담","tel":"","addr":"경기도 남양주시 별내동 1006-1번지 별내로데오몰 402호","indutype":"보건위생 - 화장품","category":"beauty"},{"name":"피케이(PK)","tel":"031-574-6662","addr":"경기도 남양주시 별내동 1006-1번지 803호","indutype":"보건위생 - 화장품","category":"beauty"},{"name":"헤어까뮈","tel":"031-573-9911","addr":"경기도 남양주시 별내동 1006-1번지 202호","indutype":"보건위생 - 미용원","category":"beauty"},{"name":"훈즈(HOONZ)","tel":"070-8879-7441","addr":"경기도 남양주시 별내동 1006-1번지 별내로데오몰 705호","indutype":"보건위생 - 화장품","category":"beauty"}]},{"lat":"37.657835087","long":"127.12522969","imageIndex":13,"items":[{"name":"1%by민.J","tel":"031-571-4666","addr":"경기도 남양주시 별내동 931-2번지 삼광프라자 401호","indutype":"보건위생 - 미용원","category":"beauty"}]},{"lat":"37.646086303","long":"127.12536905","imageIndex":13,"items":[{"name":"J에스테틱","tel":"070-7119-7771","addr":"경기도 남양주시 별내동 1006번지 로뎀타워 601호","indutype":"보건위생 - 피부미용실","category":"beauty"},{"name":"국제미용백화점","tel":"031-575-0737","addr":"경기도 남양주시 별내동 1006번지 로뎀타워 1층 101호","indutype":"보건위생 - 미용재료","category":"beauty"},{"name":"더-뷰티","tel":"070-9148-3338","addr":"경기도 남양주시 별내동 1006번지 로뎀타워 304호","indutype":"보건위생 - 미용재료","category":"beauty"},{"name":"라겐스타일","tel":"031-573-1199","addr":"경기도 남양주시 별내동 1006번지 3층 303호","indutype":"보건위생 - 미용원","category":"beauty"},{"name":"바바라뷰티","tel":"031-572-4242","addr":"경기도 남양주시 별내동 1006번지 로뎀타워 2층 205호","indutype":"보건위생 - 미용재료","category":"beauty"},{"name":"아이엠안경","tel":"031-571-1414","addr":"경기도 남양주시 별내동 1006번지 106호","indutype":"보건위생 - 안경","category":"beauty"},{"name":"쿤","tel":"031-573-2299","addr":"경기도 남양주시 별내동 1006번지 로뎀타워 2층 207호","indutype":"보건위생 - 화장품","category":"beauty"},{"name":"헤어아떼","tel":"031-572-7856","addr":"경기도 남양주시 별내동 1006번지 2층 204호","indutype":"보건위생 - 미용원","category":"beauty"}]},{"lat":"37.64536469","long":"127.12617235","imageIndex":13,"items":[{"name":"Salon 다름","tel":"031-514-0344","addr":"경기도 남양주시 별내동 1006-3번지 이레타워 114호","indutype":"보건위생 - 미용원","category":"beauty"},{"name":"와이뷰티클래스","tel":"","addr":"경기도 남양주시 별내동 1006-3번지 117호","indutype":"보건위생 - 피부미용실","category":"beauty"},{"name":"유니뷰티","tel":"031-574-0022","addr":"경기도 남양주시 별내동 1006-3번지 이레타워 110호","indutype":"보건위생 - 피부미용실","category":"beauty"},{"name":"이철헤어커커 별내역점","tel":"031-568-2326","addr":"경기도 남양주시 별내동 1006-3번지 이레타워 202호","indutype":"보건위생 - 미용원","category":"beauty"},{"name":"이화심리상담센터","tel":"031-574-2907","addr":"경기도 남양주시 별내동 1006-3번지 이레타워 603호","indutype":"보건위생 - 기타대인서비스","category":"beauty"},{"name":"피부이야기","tel":"031-211-4616","addr":"경기도 남양주시 별내동 1006-3번지 제6층604호이레타워","indutype":"보건위생 - 피부미용실","category":"beauty"},{"name":"휴타이","tel":"","addr":"경기도 남양주시 별내동 1006-3번지 1동 305호","indutype":"보건위생 - 화장품","category":"beauty"}]},{"lat":"37.652529364","long":"127.11518094","imageIndex":13,"items":[{"name":"THE NAIL","tel":"070-8745-9856","addr":"경기도 남양주시 별내동 1079번지 102호","indutype":"보건위생 - 피부미용실","category":"beauty"}]},{"lat":"37.64527925","long":"127.11231467","imageIndex":13,"items":[{"name":"가미헤어","tel":"031-528-7997","addr":"경기도 남양주시 별내동 556-4번지 미리내마을 4-3단지 1층 101호","indutype":"보건위생 - 미용원","category":"beauty"}]},{"lat":"37.651079042","long":"127.11492946","imageIndex":13,"items":[{"name":"가쯔헤어","tel":"031-111-1111","addr":"경기도 남양주시 별내동 1084-6번지 파인빌 103호","indutype":"보건위생 - 미용원","category":"beauty"}]},{"lat":"37.645608236","long":"127.12590082","imageIndex":13,"items":[{"name":"거울보기미용실","tel":"031-511-1182","addr":"경기도 남양주시 별내동 1006-2번지 202호","indutype":"보건위생 - 미용원","category":"beauty"}]},{"lat":"37.667610191","long":"127.11662043","imageIndex":13,"items":[{"name":"굿안경원","tel":"031-572-9996","addr":"경기도 남양주시 별내동 826번지 천보프라자 106호","indutype":"보건위생 - 안경","category":"beauty"},{"name":"글램바이준","tel":"031-528-7717","addr":"경기도 남양주시 별내동 826번지 202-1호","indutype":"보건위생 - 미용원","category":"beauty"},{"name":"라베다 (RAVEDA)","tel":"031-572-2510","addr":"경기도 남양주시 별내동 826번지 102호","indutype":"보건위생 - 미용원","category":"beauty"}]},{"lat":"37.649557763","long":"127.11348808","imageIndex":13,"items":[{"name":"그랑프리안경 별내점","tel":"02-2677-1001","addr":"경기도 남양주시 별내동 1097-7번지 1층 105호","indutype":"보건위생 - 안경","category":"beauty"},{"name":"브리에헤어","tel":"031-571-1030","addr":"경기도 남양주시 별내동 1097-7번지 오션타워 301호","indutype":"보건위생 - 미용원","category":"beauty"}]},{"lat":"37.666275895","long":"127.11751377","imageIndex":13,"items":[{"name":"글라스셰프","tel":"031-529-2244","addr":"경기도 남양주시 별내동 826-7번지 7층 701호","indutype":"보건위생 - 안경","category":"beauty"},{"name":"별가람","tel":"031-111-1111","addr":"경기도 남양주시 별내동 826-7번지 2층 205호","indutype":"보건위생 - 피부미용실","category":"beauty"},{"name":"스킨스토리","tel":"031-000-0000","addr":"경기도 남양주시 별내동 826-7번지 서울프라자 3층303 일부호","indutype":"보건위생 - 피부미용실","category":"beauty"},{"name":"스킨스토리","tel":"031-000-0000","addr":"경기도 남양주시 별내동 826-7번지 303호","indutype":"보건위생 - 피부미용실","category":"beauty"},{"name":"앤즈헤어","tel":"031-527-6720","addr":"경기도 남양주시 별내동 826-7번지 서울프라자 1층 108호","indutype":"보건위생 - 미용원","category":"beauty"}]},{"lat":"37.664132616","long":"127.11645645","imageIndex":13,"items":[{"name":"글라스스토리","tel":"031-528-3324","addr":"경기도 남양주시 별내동 852번지 별내아이파크2차 상가 100동 1005호","indutype":"보건위생 - 안경","category":"beauty"},{"name":"우리헤어","tel":"031-574-9220","addr":"경기도 남양주시 별내동 852번지 별내아이파크2차 110호","indutype":"보건위생 - 미용원","category":"beauty"},{"name":"천사","tel":"031-573-7462","addr":"경기도 남양주시 별내동 852번지 별내아이파크2차 1507동 1004호","indutype":"보건위생 - 화장품","category":"beauty"}]},{"lat":"37.666104602","long":"127.11762685","imageIndex":13,"items":[{"name":"김수진헤어","tel":"031-571-9253","addr":"경기도 남양주시 별내동 826-8번지 105호","indutype":"보건위생 - 미용원","category":"beauty"},{"name":"별가람","tel":"031-527-9696","addr":"경기도 남양주시 별내동 826-8번지 스카이프라자 504호","indutype":"보건위생 - 기타대인서비스","category":"beauty"},{"name":"조은염색","tel":"031-574-2533","addr":"경기도 남양주시 별내동 826-8번지 스카이프라자 2층 204호","indutype":"보건위생 - 미용원","category":"beauty"}]},{"lat":"37.65793993","long":"127.12834636","imageIndex":13,"items":[{"name":"김은미장","tel":"031-573-8077","addr":"경기도 남양주시 별내동 962-1번지 1층","indutype":"보건위생 - 미용원","category":"beauty"}]},{"lat":"37.659579828","long":"127.11943008","imageIndex":13,"items":[{"name":"까미헤어","tel":"031-528-6612","addr":"경기도 남양주시 별내동 913번지 별사랑마을2-10단지상가동 105,106호","indutype":"보건위생 - 미용원","category":"beauty"}]},{"lat":"37.647386937","long":"127.12220981","imageIndex":13,"items":[{"name":"깜장머리","tel":"031-572-1872","addr":"경기도 남양주시 별내동 1023-3번지","indutype":"보건위생 - 미용원","category":"beauty"}]},{"lat":"37.665134098","long":"127.11498458","imageIndex":13,"items":[{"name":"끌림헤어","tel":"031-527-2707","addr":"경기도 남양주시 별내동 850-3번지 1층","indutype":"보건위생 - 미용원","category":"beauty"}]},{"lat":"37.651916154","long":"127.11575794","imageIndex":13,"items":[{"name":"남자의품격","tel":"031-529-9757","addr":"경기도 남양주시 별내동 1080-1번지 103호","indutype":"보건위생 - 미용원","category":"beauty"}]},{"lat":"37.662473785","long":"127.11754193","imageIndex":13,"items":[{"name":"네일라떼","tel":"031-841-4405","addr":"경기도 남양주시 별내동 116-3 103호","indutype":"보건위생 - 피부미용실","category":"beauty"}]},{"lat":"37.651801334","long":"127.11332143","imageIndex":13,"items":[{"name":"네일하라","tel":"","addr":"경기도 남양주시 별내동 1087-6번지 1층 좌측호","indutype":"보건위생 - 피부미용실","category":"beauty"},{"name":"파리미용실","tel":"031-527-2435","addr":"경기도 남양주시 별내동 1087-6번지 1층","indutype":"보건위생 - 미용원","category":"beauty"}]},{"lat":"37.666718584","long":"127.11625638","imageIndex":13,"items":[{"name":"놈 헤어(NOM HAIR)","tel":"031-529-2679","addr":"경기도 남양주시 별내동 830-7번지 103호","indutype":"보건위생 - 미용원","category":"beauty"}]},{"lat":"37.658744025","long":"127.12622847","imageIndex":13,"items":[{"name":"누디뷰티 (NUDEBeauty)","tel":"","addr":"경기도 남양주시 별내동 947-7번지 1동 102층 1층 누디뷰티 (NUDEBeauty)(1)","indutype":"보건위생 - 미용원","category":"beauty"}]},{"lat":"37.649585621","long":"127.12189605","imageIndex":13,"items":[{"name":"늘솜","tel":"031-528-6263","addr":"경기도 남양주시 별내동 1060번지 별내동익미라벨 3903동 11-1호","indutype":"보건위생 - 화장품","category":"beauty"},{"name":"해어인","tel":"031-572-8777","addr":"경기도 남양주시 별내동 1060번지 동익미라벨 3904동 1층 17-2호","indutype":"보건위생 - 미용원","category":"beauty"}]},{"lat":"37.650999758","long":"127.11301429","imageIndex":13,"items":[{"name":"다비드유즈주식회사","tel":"031-573-5770","addr":"경기도 남양주시 별내동 1090-10번지 101호","indutype":"보건위생 - 화장품","category":"beauty"}]},{"lat":"37.647475547","long":"127.12367167","imageIndex":13,"items":[{"name":"다예라인","tel":"","addr":"경기도 남양주시 별내동 1016번지 메인프라자 301호","indutype":"보건위생 - 미용재료","category":"beauty"},{"name":"포스타","tel":"070-7717-3073","addr":"경기도 남양주시 별내동 1016번지 메인프라자 3층 302호","indutype":"보건위생 - 안경","category":"beauty"}]},{"lat":"37.643972307","long":"127.11289061","imageIndex":13,"items":[{"name":"다필로르","tel":"","addr":"경기도 남양주시 별내동 1041번지 별내한화꿈에그린더스타 4603동 1201호","indutype":"보건위생 - 기타대인서비스","category":"beauty"}]},{"lat":"37.651411872","long":"127.11548521","imageIndex":13,"items":[{"name":"단아한헤어","tel":"031-529-2969","addr":"경기도 남양주시 별내동 1080-5번지 103호","indutype":"보건위생 - 미용원","category":"beauty"},{"name":"풀(Full)별내이발소","tel":"031-551-4344","addr":"경기도 남양주시 별내동 1080-5번지 1층","indutype":"보건위생 - 이용원","category":"beauty"}]},{"lat":"37.651945393","long":"127.11342363","imageIndex":13,"items":[{"name":"더(THE) 예뻐지다","tel":"","addr":"경기도 남양주시 별내동 1087-5번지 101호","indutype":"보건위생 - 화장품","category":"beauty"}]},{"lat":"37.666195347","long":"127.11695829","imageIndex":13,"items":[{"name":"더(The)헤어","tel":"031-527-5152","addr":"경기도 남양주시 별내동 841-1번지 103호","indutype":"보건위생 - 미용원","category":"beauty"}]},{"lat":"37.642725135","long":"127.12589606","imageIndex":13,"items":[{"name":"두쏠뷰티(Du Sol Beauty)","tel":"031-573-6388","addr":"경기도 남양주시 별내동 989번지 3층 이마트별내점","indutype":"보건위생 - 미용원","category":"beauty"},{"name":"뷰옵티컬 (View Optical)","tel":"031-572-0770","addr":"경기도 남양주시 별내동 989번지 이마트남양주별내점","indutype":"보건위생 - 안경","category":"beauty"}]},{"lat":"37.666718954","long":"127.11587102","imageIndex":13,"items":[{"name":"라라네일","tel":"","addr":"경기도 남양주시 별내동 830-4번지 1층 일부","indutype":"보건위생 - 피부미용실","category":"beauty"}]},{"lat":"37.651890621","long":"127.11418278","imageIndex":13,"items":[{"name":"라벤더네일","tel":"031-572-4847","addr":"경기도 남양주시 별내동 1085-10번지","indutype":"보건위생 - 피부미용실","category":"beauty"}]},{"lat":"37.647223635","long":"127.12332","imageIndex":13,"items":[{"name":"라스캔듈","tel":"031-529-5580","addr":"경기도 남양주시 별내동 1019 예스프라자갤럭시 301","indutype":"보건위생 - 미용원","category":"beauty"},{"name":"오네일","tel":"031-572-0058","addr":"경기도 남양주시 별내동 1019번지 에스프라자갤럭시주제1동 105호","indutype":"보건위생 - 피부미용실","category":"beauty"}]},{"lat":"37.668020004","long":"127.12998412","imageIndex":13,"items":[{"name":"라인스케치","tel":"","addr":"경기도 남양주시 별내동 871번지 별내푸르지오 5205동 902호","indutype":"보건위생 - 화장품","category":"beauty"},{"name":"아기네임즈(aginames)","tel":"","addr":"경기도 남양주시 별내동 871번지 별내푸르지오 5207동 205호","indutype":"보건위생 - 기타대인서비스","category":"beauty"}]},{"lat":"37.646835448","long":"127.11495708","imageIndex":13,"items":[{"name":"란헤어","tel":"031-529-5969","addr":"경기도 남양주시 별내동 483번지 미리내마을4-2단지 상가동 1층 106호","indutype":"보건위생 - 미용원","category":"beauty"}]},{"lat":"37.646554288","long":"127.12586838","imageIndex":13,"items":[{"name":"러블리","tel":"031-593-6026","addr":"경기도 남양주시 별내동 1007번지 스마트리치안오피스텔 2층 204호","indutype":"보건위생 - 화장품","category":"beauty"}]},{"lat":"37.665608728","long":"127.11797744","imageIndex":13,"items":[{"name":"럭셔리뷰티 별내점","tel":"031-527-6696","addr":"경기도 남양주시 별내동 826-11번지 별내현대프라자 2층 202호","indutype":"보건위생 - 화장품","category":"beauty"},{"name":"블링블링네일샵","tel":"031-574-2253","addr":"경기도 남양주시 별내동 826-11번지 별내현대프라자 105호","indutype":"보건위생 - 피부미용실","category":"beauty"}]},{"lat":"37.665582613","long":"127.11703669","imageIndex":13,"items":[{"name":"럽스위치","tel":"031-573-8663","addr":"경기도 남양주시 별내동 843-4번지 1층","indutype":"보건위생 - 미용재료","category":"beauty"}]},{"lat":"37.665304698","long":"127.11559686","imageIndex":13,"items":[{"name":"루디아","tel":"070-4236-4141","addr":"경기도 남양주시 별내동 847-3번지 1층","indutype":"보건위생 - 피부미용실","category":"beauty"}]},{"lat":"37.649555448","long":"127.10609998","imageIndex":13,"items":[{"name":"루디아 헤어샵","tel":"031-852-0330","addr":"경기도 남양주시 별내동 653-3번지","indutype":"보건위생 - 미용원","category":"beauty"}]},{"lat":"37.666744133","long":"127.11778651","imageIndex":13,"items":[{"name":"르네셀 별내점","tel":"070-4649-1101","addr":"경기도 남양주시 별내동 824-4번지 별내프라자3 403호","indutype":"보건위생 - 화장품","category":"beauty"},{"name":"소울브로우","tel":"02-3844-5587","addr":"경기도 남양주시 별내동 824-4번지 별내프라자-3 408호","indutype":"보건위생 - 화장품","category":"beauty"}]},{"lat":"37.657807044","long":"127.12620426","imageIndex":13,"items":[{"name":"마리뷰티라운지","tel":"070-7576-1447","addr":"경기도 남양주시 별내동 944-5번지 1층","indutype":"보건위생 - 피부미용실","category":"beauty"}]},{"lat":"37.665249223","long":"127.11707018","imageIndex":13,"items":[{"name":"마이프레셔스헤어(My Precious Hair)","tel":"031-575-0825","addr":"경기도 남양주시 별내동 846-6번지 101호","indutype":"보건위생 - 미용원","category":"beauty"}]},{"lat":"37.660384599","long":"127.1254492","imageIndex":13,"items":[{"name":"맥시헤어","tel":"031-575-0071","addr":"경기도 남양주시 별내동 905번지 101호","indutype":"보건위생 - 미용원","category":"beauty"}]},{"lat":"37.643913008","long":"127.11837452","imageIndex":13,"items":[{"name":"머리미인","tel":"02-3421-2440","addr":"경기도 남양주시 별내동 1035번지 별내택지개발지구A18우미린단지내 상가 205호","indutype":"보건위생 - 미용원","category":"beauty"}]},{"lat":"37.646112293","long":"127.12636622","imageIndex":13,"items":[{"name":"멋진남자","tel":"031-528-6337","addr":"경기도 남양주시 별내동 1007-2번지 별내백상앨리츠오피스텔2차 1층 102호","indutype":"보건위생 - 미용원","category":"beauty"},{"name":"아가가 머리하는곳","tel":"02-0000-0000","addr":"경기도 남양주시 별내동 1007-2번지 206,207호","indutype":"보건위생 - 미용원","category":"beauty"}]},{"lat":"37.656858118","long":"127.12895649","imageIndex":13,"items":[{"name":"메이뷰티","tel":"","addr":"경기도 남양주시 별내동 965-1번지 1층 일부","indutype":"보건위생 - 피부미용실","category":"beauty"},{"name":"지니네일(JINI Nail)","tel":"","addr":"경기도 남양주시 별내동 965-1번지 101호 일부","indutype":"보건위생 - 피부미용실","category":"beauty"}]},{"lat":"37.66630355","long":"127.11686778","imageIndex":13,"items":[{"name":"모다(MoDa)헤어","tel":"070-6740-6223","addr":"경기도 남양주시 별내동 841번지 1층","indutype":"보건위생 - 미용원","category":"beauty"}]},{"lat":"37.647332155","long":"127.12292358","imageIndex":13,"items":[{"name":"모란헤어","tel":"031-572-1733","addr":"경기도 남양주시 별내동 1022-1번지 101호","indutype":"보건위생 - 미용원","category":"beauty"}]},{"lat":"37.66694305","long":"127.11706144","imageIndex":13,"items":[{"name":"몸사랑발사랑별내점","tel":"031-527-9889","addr":"경기도 남양주시 별내동 826-3번지 다우프라자 4층 401호","indutype":"보건위생 - 화장품","category":"beauty"}]},{"lat":"37.658663258","long":"127.12592235","imageIndex":13,"items":[{"name":"몽 헤어","tel":"031-555-1220","addr":"경기도 남양주시 별내동 947-9번지 1층 2호","indutype":"보건위생 - 미용원","category":"beauty"}]},{"lat":"37.665825709","long":"127.11720707","imageIndex":13,"items":[{"name":"미스터네일","tel":"031-527-4410","addr":"경기도 남양주시 별내동 841-4번지 104호","indutype":"보건위생 - 피부미용실","category":"beauty"},{"name":"왁싱스토리","tel":"031-528-6263","addr":"경기도 남양주시 별내동 841-4번지 1층 2호","indutype":"보건위생 - 피부미용실","category":"beauty"}]},{"lat":"37.646772873","long":"127.12359121","imageIndex":13,"items":[{"name":"미쓰리헤어","tel":"070-4114-5499","addr":"경기도 남양주시 별내동 1019-2번지 101호","indutype":"보건위생 - 미용원","category":"beauty"},{"name":"바바헤어","tel":"031-573-2598","addr":"경기도 남양주시 별내동 1019-2번지 202호","indutype":"보건위생 - 미용원","category":"beauty"}]},{"lat":"37.66199603","long":"127.11779053","imageIndex":13,"items":[{"name":"미앤미헤어","tel":"031-527-3025","addr":"경기도 남양주시 별내동 854번지 남양주별내아이파크 상가 1층 107호","indutype":"보건위생 - 미용원","category":"beauty"},{"name":"올가스킨<스킨앤바디>","tel":"031-528-5890","addr":"경기도 남양주시 별내동 854번지 현대아이파크 근린생활시설 1층 101호,102호","indutype":"보건위생 - 피부미용실","category":"beauty"}]},{"lat":"37.657137804","long":"127.12859432","imageIndex":13,"items":[{"name":"미앤정헤어","tel":"031-573-7711","addr":"경기도 남양주시 별내동 964번지 낭암빌딩 101호","indutype":"보건위생 - 미용원","category":"beauty"}]},{"lat":"37.648887931","long":"127.11676184","imageIndex":13,"items":[{"name":"미인사랑","tel":"","addr":"경기도 남양주시 별내동 1050번지 별내신일유토빌 3408동 204호","indutype":"보건위생 - 화장품","category":"beauty"},{"name":"수헤어카페","tel":"031-571-4544","addr":"경기도 남양주시 별내동 1050번지 신일유토빌 상가동 2층 201호 별내신일유토빌","indutype":"보건위생 - 미용원","category":"beauty"}]},{"lat":"37.6654129","long":"127.11550636","imageIndex":13,"items":[{"name":"반하다","tel":"031-528-1052","addr":"경기도 남양주시 별내동 847-2번지 1층 101호","indutype":"보건위생 - 미용원","category":"beauty"}]},{"lat":"37.651027072","long":"127.11270838","imageIndex":13,"items":[{"name":"배배네일바","tel":"031-528-6263","addr":"경기도 남양주시 별내동 1088-4번지","indutype":"보건위생 - 피부미용실","category":"beauty"}]},{"lat":"37.658470703","long":"127.12909521","imageIndex":13,"items":[{"name":"벨라비네일(Bella B nail)","tel":"070-7607-6776","addr":"경기도 남양주시 별내동 958-5번지 1층","indutype":"보건위생 - 피부미용실","category":"beauty"}]},{"lat":"37.649808127","long":"127.11550545","imageIndex":13,"items":[{"name":"별내동미장원","tel":"031-575-4865","addr":"경기도 남양주시 별내동 1049번지 별빛마을3단지 상가동 1층 101호","indutype":"보건위생 - 미용원","category":"beauty"}]},{"lat":"37.665942295","long":"127.11776261","imageIndex":13,"items":[{"name":"별내마리메디컬","tel":"031-564-7373","addr":"경기도 남양주시 별내동 826-9번지 센트럴프라자 2층 204호","indutype":"보건위생 - 의료용품","category":"beauty"},{"name":"유니헤어테크","tel":"","addr":"경기도 남양주시 별내동 826-9번지 센트럴프라자 1층 102호","indutype":"보건위생 - 미용원","category":"beauty"}]},{"lat":"37.665745824","long":"127.11596022","imageIndex":13,"items":[{"name":"별내뷰티","tel":"031-524-9498","addr":"경기도 남양주시 별내동 840-12번지 1층 일부","indutype":"보건위생 - 피부미용실","category":"beauty"}]},{"lat":"37.658525027","long":"127.12884598","imageIndex":13,"items":[{"name":"별내살롱","tel":"","addr":"경기도 남양주시 별내동 960-6번지 1층 일부","indutype":"보건위생 - 미용원","category":"beauty"}]},{"lat":"37.647225015","long":"127.12196027","imageIndex":13,"items":[{"name":"별네일","tel":"070-4404-1700","addr":"경기도 남양주시 별내동 1023-5번지 B101호","indutype":"보건위생 - 피부미용실","category":"beauty"}]},{"lat":"37.649828425","long":"127.11309188","imageIndex":13,"items":[{"name":"별빛안경","tel":"031-571-7709","addr":"경기도 남양주시 별내동 1097-5번지 지앤지프라자 101호","indutype":"보건위생 - 안경","category":"beauty"}]},{"lat":"37.655716444","long":"127.12654077","imageIndex":13,"items":[{"name":"보그헤어","tel":"031-574-0717","addr":"경기도 남양주시 별내동 936-4번지 2층","indutype":"보건위생 - 미용원","category":"beauty"}]},{"lat":"37.666467268","long":"127.1152586","imageIndex":13,"items":[{"name":"보르미네일","tel":"","addr":"경기도 남양주시 별내동 830번지 1층 일부","indutype":"보건위생 - 피부미용실","category":"beauty"}]},{"lat":"37.646613199","long":"127.1211208","imageIndex":13,"items":[{"name":"봄안경","tel":"031-575-6006","addr":"경기도 남양주시 별내동 1026번지 오션타워 106호","indutype":"보건위생 - 안경","category":"beauty"},{"name":"비바헤어","tel":"031-571-9898","addr":"경기도 남양주시 별내동 1026번지 오션타워 2층 204호","indutype":"보건위생 - 미용원","category":"beauty"}]},{"lat":"37.647303735","long":"127.12428327","imageIndex":13,"items":[{"name":"부헤어","tel":"031-528-1127","addr":"경기도 남양주시 별내동 1010-3번지 102호","indutype":"보건위생 - 미용원","category":"beauty"}]},{"lat":"37.656084935","long":"127.12740265","imageIndex":13,"items":[{"name":"뷰티스토리","tel":"031-571-7913","addr":"경기도 남양주시 별내동 942-4번지 102호","indutype":"보건위생 - 화장품","category":"beauty"}]},{"lat":"37.666438179","long":"127.11740068","imageIndex":13,"items":[{"name":"뷰티시크릿","tel":"031-575-0615","addr":"경기도 남양주시 별내동 826-6번지 불암타워 3층 305호","indutype":"보건위생 - 피부미용실","category":"beauty"},{"name":"유&영 뷰티","tel":"031-528-6065","addr":"경기도 남양주시 별내동 826-6번지 불암타워 202호 일부호","indutype":"보건위생 - 피부미용실","category":"beauty"}]},{"lat":"37.646328786","long":"127.12611729","imageIndex":13,"items":[{"name":"빌라(VILLA)105","tel":"031-513-2822","addr":"경기도 남양주시 별내동 1007-1번지 백상앨리츠1차 1층 105호","indutype":"보건위생 - 미용원","category":"beauty"},{"name":"아이니스킨","tel":"031-529-0159","addr":"경기도 남양주시 별내동 1007-1번지 백삼앨리츠오피스텔 714호","indutype":"보건위생 - 화장품","category":"beauty"},{"name":"캥거루케어 산후도우미 구리남양주지점","tel":"031-529-9037","addr":"경기도 남양주시 별내동 1007-1번지 백상엘리츠오피스텔 1동 1101호","indutype":"보건위생 - 기타대인서비스","category":"beauty"}]},{"lat":"37.646357134","long":"127.12484827","imageIndex":13,"items":[{"name":"쁘띠블랑네일","tel":"031-528-6263","addr":"경기도 남양주시 별내동 1008번지 센타프라자 6층 605호","indutype":"보건위생 - 피부미용실","category":"beauty"},{"name":"스노위준(SnowyJune)","tel":"070-7743-1243","addr":"경기도 남양주시 별내동 1008번지 6층 605-1호","indutype":"보건위생 - 화장품","category":"beauty"},{"name":"안경카페","tel":"031-574-0033","addr":"경기도 남양주시 별내동 1008번지 쎈타프라자 1층 107호","indutype":"보건위생 - 안경","category":"beauty"},{"name":"클럽밸런스5남양주별내점","tel":"031-575-8850","addr":"경기도 남양주시 별내동 1008번지 센터프라자 9층 905-1호","indutype":"보건위생 - 의료용품","category":"beauty"},{"name":"파리스헤어","tel":"031-575-0934","addr":"경기도 남양주시 별내동 1008번지 쎈타프라자 301호","indutype":"보건위생 - 미용원","category":"beauty"},{"name":"피부샵(#)네일샵(#)","tel":"031-529-0075","addr":"경기도 남양주시 별내동 1008번지 센터프라자 6층 605호","indutype":"보건위생 - 화장품","category":"beauty"}]},{"lat":"37.648721693","long":"127.12089751","imageIndex":13,"items":[{"name":"쁘띠헤어","tel":"031-574-7775","addr":"경기도 남양주시 별내동 1058번지 별내동익미라벨 3804동 18-2호","indutype":"보건위생 - 미용원","category":"beauty"},{"name":"아리따움 남양주 별내점","tel":"031-574-7882","addr":"경기도 남양주시 별내동 1058번지 동익미라벨 3804호","indutype":"보건위생 - 화장품","category":"beauty"},{"name":"올가","tel":"070-7750-6522","addr":"경기도 남양주시 별내동 1058번지 동익미라벨 제3801동 제1층 제5-1호","indutype":"보건위생 - 화장품","category":"beauty"}]},{"lat":"37.648025589","long":"127.12323064","imageIndex":13,"items":[{"name":"살롱드C","tel":"070-8973-6037","addr":"경기도 남양주시 별내동 1015번지 오션일레븐4타워 204호","indutype":"보건위생 - 미용원","category":"beauty"},{"name":"이니스프리 별내점","tel":"031-571-1090","addr":"경기도 남양주시 별내동 1015번지 오션일레븐4타워 1동 103호","indutype":"보건위생 - 화장품","category":"beauty"},{"name":"이라겸헤어시크릿","tel":"031-571-5679","addr":"경기도 남양주시 별내동 1015번지 오션일레븐4타워 주제1동 3층 306,307호","indutype":"보건위생 - 미용원","category":"beauty"}]},{"lat":"37.665413612","long":"127.11475832","imageIndex":13,"items":[{"name":"새론이발관","tel":"","addr":"경기도 남양주시 별내동 848-2번지 1층 정면좌호","indutype":"보건위생 - 미용원","category":"beauty"},{"name":"퀸즈헤나","tel":"031-527-6503","addr":"경기도 남양주시 별내동 848-2번지 1층 101호","indutype":"보건위생 - 미용원","category":"beauty"}]},{"lat":"37.642946244","long":"127.12112632","imageIndex":13,"items":[{"name":"세윤대리점","tel":"","addr":"경기도 남양주시 별내동 998번지 203-1","indutype":"보건위생 - 의료용품","category":"beauty"},{"name":"청솔","tel":"031-527-8332","addr":"경기도 남양주시 별내동 998번지 노블레스스파사우나내 공용실","indutype":"보건위생 - 화장품","category":"beauty"}]},{"lat":"37.656050856","long":"127.1165348","imageIndex":13,"items":[{"name":"센스","tel":"031-575-5753","addr":"경기도 남양주시 별내동 1072번지 남양주별내스위첸 1동 106호","indutype":"보건위생 - 미용원","category":"beauty"},{"name":"신비네일","tel":"031-528-4571","addr":"경기도 남양주시 별내동 1072번지 남양주별내스위첸 1동 102호","indutype":"보건위생 - 피부미용실","category":"beauty"}]},{"lat":"37.652890728","long":"127.11415028","imageIndex":13,"items":[{"name":"션이뷰티","tel":"","addr":"경기도 남양주시 별내동 1078번지 1층 101호","indutype":"보건위생 - 화장품","category":"beauty"}]},{"lat":"37.651051701","long":"127.11525804","imageIndex":13,"items":[{"name":"손이 빛나다","tel":"031-529-0407","addr":"경기도 남양주시 별내동 1080-8번지 1층 101호","indutype":"보건위생 - 피부미용실","category":"beauty"}]},{"lat":"37.645913842","long":"127.1265925","imageIndex":13,"items":[{"name":"순수","tel":"031-3231-2132","addr":"경기도 남양주시 별내동 1007-3번지 별내메트로망오피스텔 714호","indutype":"보건위생 - 화장품","category":"beauty"}]},{"lat":"37.665799752","long":"127.1160963","imageIndex":13,"items":[{"name":"스킨갤러리(SKIN Gallery)","tel":"","addr":"경기도 남양주시 별내동 840-11번지 101호","indutype":"보건위생 - 화장품","category":"beauty"}]},{"lat":"37.666081588","long":"127.11342192","imageIndex":13,"items":[{"name":"시목라움","tel":"031-571-1174","addr":"경기도 남양주시 별내동 835-2번지 103호","indutype":"보건위생 - 피부미용실","category":"beauty"}]},{"lat":"37.6496931","long":"127.11328432","imageIndex":13,"items":[{"name":"심리발달 크는 나무","tel":"031-527-3231","addr":"경기도 남양주시 별내동 1097-6번지 별내마들프라자 403호","indutype":"보건위생 - 기타대인서비스","category":"beauty"}]},{"lat":"37.667078938","long":"127.11629093","imageIndex":13,"items":[{"name":"아담","tel":"031-595-0989","addr":"경기도 남양주시 별내동 827-3번지 의명팰리스 103호","indutype":"보건위생 - 미용원","category":"beauty"},{"name":"안경셰프","tel":"070-7710-4751","addr":"경기도 남양주시 별내동 827-3번지 의명팰리스 102호","indutype":"보건위생 - 안경","category":"beauty"}]},{"lat":"37.644395127","long":"127.11357107","imageIndex":13,"items":[{"name":"아이엠네일","tel":"070-7728-3328","addr":"경기도 남양주시 별내동 1041번지 별내한화꿈에그린더스타 상가동 105호","indutype":"보건위생 - 피부미용실","category":"beauty"},{"name":"헤어(Hair)작","tel":"031-529-0312","addr":"경기도 남양주시 별내동 1041번지 별내한화꿈에그린더스타 116호 상가","indutype":"보건위생 - 미용원","category":"beauty"}]},{"lat":"37.647584875","long":"127.12248207","imageIndex":13,"items":[{"name":"안경매니져별내점","tel":"031-574-2100","addr":"경기도 남양주시 별내동 1023-1번지 1층","indutype":"보건위생 - 안경","category":"beauty"}]},{"lat":"37.658132629","long":"127.12501486","imageIndex":13,"items":[{"name":"압구미장","tel":"031-572-4740","addr":"경기도 남양주시 별내동 931번지 E드림타워 1층","indutype":"보건위생 - 미용원","category":"beauty"}]},{"lat":"37.651277599","long":"127.11456714","imageIndex":13,"items":[{"name":"앨래쉬 속눈썹","tel":"031-528-6263","addr":"경기도 남양주시 별내동 1084-9번지 1층 101호","indutype":"보건위생 - 화장품","category":"beauty"}]},{"lat":"37.659273722","long":"127.12800861","imageIndex":13,"items":[{"name":"어반스테레오","tel":"","addr":"경기도 남양주시 별내동 956-1번지 1층 전부호","indutype":"보건위생 - 미용원","category":"beauty"}]},{"lat":"37.665222818","long":"127.11642411","imageIndex":13,"items":[{"name":"어썸스킨","tel":"031-522-5222","addr":"경기도 남양주시 별내동 846-2번지 1층 일부호","indutype":"보건위생 - 피부미용실","category":"beauty"},{"name":"윤헤어","tel":"031-574-3527","addr":"경기도 남양주시 별내동 846-2번지 1층 102호","indutype":"보건위생 - 미용원","category":"beauty"}]},{"lat":"37.667194936","long":"127.11745852","imageIndex":13,"items":[{"name":"에스네일","tel":"031-551-2127","addr":"경기도 남양주시 별내동 824-2번지 별내프라자-2 5층 2호","indutype":"보건위생 - 피부미용실","category":"beauty"}]},{"lat":"37.650053921","long":"127.11282026","imageIndex":13,"items":[{"name":"에이치스타일(H.Style)","tel":"031-571-1117","addr":"경기도 남양주시 별내동 1097-3번지 영주프라자 203호","indutype":"보건위생 - 미용원","category":"beauty"}]},{"lat":"37.658660354","long":"127.12867622","imageIndex":13,"items":[{"name":"엔게디(En Gedi)","tel":"031-575-8068","addr":"경기도 남양주시 별내동 960-4번지 1층 101호","indutype":"보건위생 - 피부미용실","category":"beauty"}]},{"lat":"37.651665379","long":"127.11418244","imageIndex":13,"items":[{"name":"오가닉뷰티","tel":"031-527-5845","addr":"경기도 남양주시 별내동 1085-6번지 101호","indutype":"보건위생 - 화장품","category":"beauty"}]},{"lat":"37.657966525","long":"127.12875438","imageIndex":13,"items":[{"name":"오늘","tel":"031-528-8130","addr":"경기도 남양주시 별내동 962-4번지 101호","indutype":"보건위생 - 미용원","category":"beauty"}]},{"lat":"37.665717539","long":"127.11726357","imageIndex":13,"items":[{"name":"오땡큐머리염색방별내점","tel":"031-575-2120","addr":"경기도 남양주시 별내동 841-5번지 1층 3호","indutype":"보건위생 - 미용원","category":"beauty"}]},{"lat":"37.650189277","long":"127.11259383","imageIndex":13,"items":[{"name":"오렌즈 별내점","tel":"031-575-5961","addr":"경기도 남양주시 별내동 1097-2번지 성산메디컬타워 104호 일부","indutype":"보건위생 - 안경","category":"beauty"}]},{"lat":"37.671998981","long":"127.13300597","imageIndex":13,"items":[{"name":"옴므","tel":"031-528-0848","addr":"경기도 남양주시 별내동 881-3번지 1층 102호","indutype":"보건위생 - 미용원","category":"beauty"}]},{"lat":"37.666106373","long":"127.11579075","imageIndex":13,"items":[{"name":"와이뷰라인","tel":"031-514-7499","addr":"경기도 남양주시 별내동 839-1번지 1층 일부호","indutype":"보건위생 - 피부미용실","category":"beauty"}]},{"lat":"37.656860351","long":"127.12684865","imageIndex":13,"items":[{"name":"와이제이(Y.J)토모헤어","tel":"070-8840-9350","addr":"경기도 남양주시 별내동 943-5번지","indutype":"보건위생 - 미용원","category":"beauty"}]},{"lat":"37.667358857","long":"127.11564531","imageIndex":13,"items":[{"name":"유진에비뉴헤어","tel":"031-595-3408","addr":"경기도 남양주시 별내동 828-6번지 102호","indutype":"보건위생 - 미용원","category":"beauty"}]},{"lat":"37.644833758","long":"127.11656303","imageIndex":13,"items":[{"name":"윤'S헤어","tel":"031-571-5595","addr":"경기도 남양주시 별내동 1037번지 미리내마을4-4단지 상가동 1층 108호","indutype":"보건위생 - 미용원","category":"beauty"}]},{"lat":"37.668242645","long":"127.11476257","imageIndex":13,"items":[{"name":"은비헤어","tel":"031-573-2174","addr":"경기도 남양주시 별내동 807번지 별가람마을 1-3단지 상가동 102호","indutype":"보건위생 - 미용원","category":"beauty"}]},{"lat":"37.65082994","long":"127.11154093","imageIndex":13,"items":[{"name":"인성교역","tel":"031-529-9944","addr":"경기도 남양주시 별내동 1100-3번지 302, 303호","indutype":"보건위생 - 화장품","category":"beauty"}]},{"lat":"37.656635929","long":"127.12606633","imageIndex":13,"items":[{"name":"자연건강나라","tel":"","addr":"경기도 남양주시 별내동 931-10번지","indutype":"보건위생 - 미용재료","category":"beauty"}]},{"lat":"37.662274743","long":"127.12725432","imageIndex":13,"items":[{"name":"정라희헤어","tel":"031-529-2220","addr":"경기도 남양주시 별내동 899번지 102호","indutype":"보건위생 - 미용원","category":"beauty"}]},{"lat":"37.651278857","long":"127.11323","imageIndex":13,"items":[{"name":"제이 별 헤어","tel":"070-7675-0014","addr":"경기도 남양주시 별내동 1090번지 1층 103호","indutype":"보건위생 - 미용원","category":"beauty"}]},{"lat":"37.65102614","long":"127.11370556","imageIndex":13,"items":[{"name":"제이 스킨&바디케어","tel":"031-574-6686","addr":"경기도 남양주시 별내동 1091-1번지 1층 102호","indutype":"보건위생 - 피부미용실","category":"beauty"}]},{"lat":"37.658831089","long":"127.12909582","imageIndex":13,"items":[{"name":"제이엔헤어","tel":"070-7543-1386","addr":"경기도 남양주시 별내동 958-3번지 1층 102호","indutype":"보건위생 - 미용원","category":"beauty"}]},{"lat":"37.648475587","long":"127.12370728","imageIndex":13,"items":[{"name":"제이헤어","tel":"031-572-4242","addr":"경기도 남양주시 별내동 1014-1번지","indutype":"보건위생 - 미용원","category":"beauty"}]},{"lat":"37.650305886","long":"127.11314924","imageIndex":13,"items":[{"name":"젠틀맨","tel":"031-573-2780","addr":"경기도 남양주시 별내동 1091-6번지 1층 102호","indutype":"보건위생 - 미용원","category":"beauty"}]},{"lat":"37.646831145","long":"127.11939883","imageIndex":13,"items":[{"name":"지오디미용실","tel":"031-529-9767","addr":"경기도 남양주시 별내동 1056번지 별내신도시쌍용예가 G동 1층 11호","indutype":"보건위생 - 미용원","category":"beauty"}]},{"lat":"37.656164046","long":"127.1292613","imageIndex":13,"items":[{"name":"차앤미","tel":"031-511-3284","addr":"경기도 남양주시 별내동 968번지 113호","indutype":"보건위생 - 피부미용실","category":"beauty"}]},{"lat":"37.650107333","long":"127.11351156","imageIndex":13,"items":[{"name":"찰스황헤어","tel":"031-528-2882","addr":"경기도 남양주시 별내동 1095번지 1층","indutype":"보건위생 - 미용원","category":"beauty"}]},{"lat":"37.65685836","long":"127.12872984","imageIndex":13,"items":[{"name":"케어셀라","tel":"","addr":"경기도 남양주시 별내동 965번지 케어셀라 1층층101호","indutype":"보건위생 - 화장품","category":"beauty"}]},{"lat":"37.64999877","long":"127.11398732","imageIndex":13,"items":[{"name":"코지헤어","tel":"031-528-2207","addr":"경기도 남양주시 별내동 1096-2번지 1층 일부 101호","indutype":"보건위생 - 미용원","category":"beauty"}]},{"lat":"37.650440925","long":"127.11326276","imageIndex":13,"items":[{"name":"코코 코스메틱","tel":"031-572-4104","addr":"경기도 남양주시 별내동 1091-5번지 101호","indutype":"보건위생 - 화장품","category":"beauty"}]},{"lat":"37.646971259","long":"127.12342157","imageIndex":13,"items":[{"name":"토리헤어","tel":"031-571-6765","addr":"경기도 남양주시 별내동 1019-1번지 202,203호","indutype":"보건위생 - 미용원","category":"beauty"}]},{"lat":"37.647024796","long":"127.12393155","imageIndex":13,"items":[{"name":"트리샤에스테틱","tel":"070-7576-1128","addr":"경기도 남양주시 별내동 1016-2번지 청운프라자 3층 303호","indutype":"보건위생 - 피부미용실","category":"beauty"},{"name":"힐링","tel":"031-575-2020","addr":"경기도 남양주시 별내동 1016-2번지 4층 401호","indutype":"보건위생 - 기타대인서비스","category":"beauty"}]},{"lat":"37.667132384","long":"127.11692572","imageIndex":13,"items":[{"name":"팜스스파라헬피부샵","tel":"031-573-0130","addr":"경기도 남양주시 별내동 826-2번지 별내프라자 401호","indutype":"보건위생 - 피부미용실","category":"beauty"}]},{"lat":"37.651664854","long":"127.1147377","imageIndex":13,"items":[{"name":"편백하우스","tel":"","addr":"경기도 남양주시 별내동 1083-8번지 상가동 102호","indutype":"보건위생 - 화장품","category":"beauty"}]},{"lat":"37.667689383","long":"127.11857003","imageIndex":13,"items":[{"name":"피케이상사","tel":"","addr":"경기도 남양주시 별내동 823-2번지 608-2호","indutype":"보건위생 - 의료용품","category":"beauty"}]},{"lat":"37.65816711","long":"127.12651084","imageIndex":13,"items":[{"name":"햄s네일","tel":"031-528-6263","addr":"경기도 남양주시 별내동 949-1번지 101호","indutype":"보건위생 - 피부미용실","category":"beauty"},{"name":"헤어옵타움","tel":"031-529-2583","addr":"경기도 남양주시 별내동 949-1번지 102호","indutype":"보건위생 - 미용원","category":"beauty"}]},{"lat":"37.647665824","long":"127.12261818","imageIndex":13,"items":[{"name":"헤나카페","tel":"031-571-0905","addr":"경기도 남양주시 별내동 1023번지 102호","indutype":"보건위생 - 화장품","category":"beauty"}]},{"lat":"37.666799911","long":"127.11600715","imageIndex":13,"items":[{"name":"헤바헤어","tel":"031-528-1096","addr":"경기도 남양주시 별내동 830-5번지 상가동 101호","indutype":"보건위생 - 미용원","category":"beauty"}]},{"lat":"37.669910532","long":"127.11359762","imageIndex":13,"items":[{"name":"헤어 JIJIMA","tel":"","addr":"경기도 남양주시 별내동 806번지 상가동 1층 103호","indutype":"보건위생 - 미용원","category":"beauty"}]},{"lat":"37.666747203","long":"127.11459032","imageIndex":13,"items":[{"name":"헤어 르 마레","tel":"031-527-2818","addr":"경기도 남양주시 별내동 831-1번지 1층 103호","indutype":"보건위생 - 미용원","category":"beauty"}]},{"lat":"37.65647425","long":"127.1255901","imageIndex":13,"items":[{"name":"헤어그리기","tel":"031-572-9173","addr":"경기도 남양주시 별내동 932-8번지 2층 202호","indutype":"보건위생 - 미용원","category":"beauty"}]},{"lat":"37.650495374","long":"127.11284357","imageIndex":13,"items":[{"name":"헤어댄디","tel":"031-574-2525","addr":"경기도 남양주시 별내동 1090-6번지","indutype":"보건위생 - 미용원","category":"beauty"}]},{"lat":"37.651584506","long":"127.11395569","imageIndex":13,"items":[{"name":"헤어수","tel":"031-574-8503","addr":"경기도 남양주시 별내동 1085-8번지 1층 102호","indutype":"보건위생 - 미용원","category":"beauty"}]},{"lat":"37.665943612","long":"127.11640254","imageIndex":13,"items":[{"name":"헤어조","tel":"031-575-7577","addr":"경기도 남양주시 별내동 840-9번지 101호","indutype":"보건위생 - 미용원","category":"beauty"}]},{"lat":"37.648360711","long":"127.11216055","imageIndex":13,"items":[{"name":"헤어팝","tel":"031-527-1372","addr":"경기도 남양주시 별내동 1047번지 신안인스빌 102호","indutype":"보건위생 - 미용원","category":"beauty"}]},{"lat":"37.646441822","long":"127.12131315","imageIndex":13,"items":[{"name":"희헤어살롱","tel":"031-529-5223","addr":"경기도 남양주시 별내동 1026-1번지 플레티넘예스 402호","indutype":"보건위생 - 미용원","category":"beauty"}]}]