[{"lat":"37.279439582","long":"127.3904728","imageIndex":17,"items":[{"name":"(주) 아리아펫","tel":"031-635-2266","addr":"경기도 이천시 마장면 장암리 525-1번지","indutype":"문화.취미 - 애완동물","category":"other"},{"name":"(주)아리아펫","tel":"031-635-2266","addr":"경기도 이천시 마장면 장암리 525-1번지 (주)아리아","indutype":"문화.취미 - 애완동물","category":"other"},{"name":"블랙피디","tel":"031-635-2266","addr":"경기도 이천시 마장면 장암리 525-1번지 2층","indutype":"문화.취미 - 애완동물","category":"other"}]},{"lat":"37.279245937","long":"127.39996588","imageIndex":17,"items":[{"name":"더이진","tel":"031-631-6464","addr":"경기도 이천시 마장면 장암리 325번지","indutype":"주방용구 - 주방용식기","category":"other"}]},{"lat":"37.282825854","long":"127.39641014","imageIndex":17,"items":[{"name":"맑은흙도예","tel":"","addr":"경기도 이천시 마장면 장암리 389-1번지","indutype":"문화.취미 - 민예·공예품","category":"other"}]},{"lat":"37.276602166","long":"127.40641269","imageIndex":17,"items":[{"name":"묵전요","tel":"070-8882-7023","addr":"경기도 이천시 마장면 장암리 121-2번지","indutype":"문화.취미 - 민예·공예품","category":"other"}]},{"lat":"37.272606113","long":"127.40243397","imageIndex":17,"items":[{"name":"성불조각원","tel":"031-638-9150","addr":"경기도 이천시 마장면 장암리 144-4번지","indutype":"신변잡화 - 기념품점","category":"other"}]},{"lat":"37.285079333","long":"127.40151885","imageIndex":17,"items":[{"name":"씨에스텍주식회사","tel":"031-479-5025","addr":"경기도 이천시 마장면 장암리 405-3번지","indutype":"기타 - 기계공구","category":"other"}]},{"lat":"37.27249282","long":"127.40129464","imageIndex":17,"items":[{"name":"씨유이천장암점","tel":"031-637-2621","addr":"경기도 이천시 마장면 장암리 139번지 B동","indutype":"유통업 영리 - 편 의 점","category":"other"}]},{"lat":"37.284324897","long":"127.3981094","imageIndex":17,"items":[{"name":"아이지에이마트 이천장암점","tel":"031-768-0708","addr":"경기도 이천시 마장면 장암리 397-1번지 1동","indutype":"유통업 영리 - 편 의 점","category":"other"}]},{"lat":"37.282328654","long":"127.39418617","imageIndex":17,"items":[{"name":"언제나봄날","tel":"031-111-1111","addr":"경기도 이천시 마장면 장암리 388-102번지 1층 동연재마을(B)","indutype":"문화.취미 - 화원","category":"other"}]},{"lat":"37.282211784","long":"127.39410663","imageIndex":17,"items":[{"name":"예림샤시동부영업소","tel":"031-634-1327","addr":"경기도 이천시 마장면 장암리 388-25번지 C동 2호","indutype":"건축자재 - 기타건축자재","category":"other"}]},{"lat":"37.273243276","long":"127.40319274","imageIndex":17,"items":[{"name":"장훈성공방","tel":"031-637-7019","addr":"경기도 이천시 마장면 장암리 132-1","indutype":"문화.취미 - 민예·공예품","category":"other"}]},{"lat":"37.272824142","long":"127.40190521","imageIndex":17,"items":[{"name":"주식회사이조공예","tel":"031-636-7701","addr":"경기도 이천시 마장면 장암리 140-1번지","indutype":"가구 - 일반가구","category":"other"}]},{"lat":"37.283572676","long":"127.39671849","imageIndex":17,"items":[{"name":"히아브종합특장","tel":"031-638-1818","addr":"경기도 이천시 마장면 장암리 396-1","indutype":"기타 - 기계공구","category":"other"}]}]