[{"lat":"37.773005532","long":"126.75490184","imageIndex":0,"items":[{"name":"(주)1급하나자동차공업사","tel":"031-944-7735","addr":"경기도 파주시 야동동 815번지","indutype":"자동차정비 유지 - 자동차부품","category":"car"},{"name":"하나자동차공업사","tel":"031-944-7735","addr":"경기도 파주시 야동동 815번지","indutype":"자동차정비 유지 - 자동차정비","category":"car"}]},{"lat":"37.778777842","long":"126.76671041","imageIndex":0,"items":[{"name":"(주)한빛자동차공업사","tel":"031-949-4882","addr":"경기도 파주시 야동동 225-3번지","indutype":"자동차정비 유지 - 자동차정비","category":"car"}]},{"lat":"37.772673427","long":"126.76423279","imageIndex":0,"items":[{"name":"JN자동차공업사","tel":"031-943-5575","addr":"경기도 파주시 야동동 151-3번지","indutype":"자동차정비 유지 - 자동차정비","category":"car"},{"name":"신일산디젤","tel":"070-4131-1382","addr":"경기도 파주시 야동동 151-3번지","indutype":"자동차정비 유지 - 자동차정비","category":"car"}]},{"lat":"37.77120194","long":"126.75840365","imageIndex":0,"items":[{"name":"마이온게러지","tel":"031-944-1070","addr":"경기도 파주시 야동동 369-4번지","indutype":"자동차정비 유지 - 세차장","category":"car"}]},{"lat":"37.773425043","long":"126.75303899","imageIndex":0,"items":[{"name":"블루카모터스","tel":"031-944-0982","addr":"경기도 파주시 야동동 622번지","indutype":"자동차정비 유지 - 자동차정비","category":"car"}]},{"lat":"37.777480144","long":"126.76654428","imageIndex":0,"items":[{"name":"삼성라디에터","tel":"031-945-1515","addr":"경기도 파주시 야동동 201-2 외1","indutype":"자동차정비 유지 - 자동차부품","category":"car"}]},{"lat":"37.777751972","long":"126.76731528","imageIndex":0,"items":[{"name":"상록카센타","tel":"031-943-3331","addr":"경기도 파주시 야동동 199-1번지","indutype":"자동차정비 유지 - 자동차정비","category":"car"}]},{"lat":"37.773265686","long":"126.75013386","imageIndex":0,"items":[{"name":"스팀닥터 금촌 출장세차","tel":"","addr":"경기도 파주시 야동동 587번지 대방아파트","indutype":"자동차정비 유지 - 세차장","category":"car"}]},{"lat":"37.76855756","long":"126.76496104","imageIndex":0,"items":[{"name":"쌍용달인공업사","tel":"031-947-1417","addr":"경기도 파주시 야동동 96-4번지","indutype":"자동차정비 유지 - 자동차정비","category":"car"}]},{"lat":"37.779778548","long":"126.76703642","imageIndex":0,"items":[{"name":"제이앤케이","tel":"070-7775-1628","addr":"경기도 파주시 야동동 239-1번지","indutype":"자동차정비 유지 - 자동차부품","category":"car"}]},{"lat":"37.768783529","long":"126.7653235","imageIndex":0,"items":[{"name":"주식회사 타이어컴퍼니","tel":"031-945-0580","addr":"경기도 파주시 야동동 94-20번지","indutype":"자동차정비 유지 - 자동차시트·타이어","category":"car"}]},{"lat":"37.773258327","long":"126.76387906","imageIndex":0,"items":[{"name":"카스토리자동차공업사","tel":"031-946-2962","addr":"경기도 파주시 야동동 138-8번지","indutype":"자동차정비 유지 - 자동차정비","category":"car"}]},{"lat":"37.776202463","long":"126.77192859","imageIndex":0,"items":[{"name":"평화자동차공업사 (파주점)","tel":"031-941-1837","addr":"경기도 파주시 야동동 44-15번지","indutype":"자동차정비 유지 - 자동차부품","category":"car"}]},{"lat":"37.783363343","long":"126.76209834","imageIndex":0,"items":[{"name":"희망MOTORS","tel":"031-944-5109","addr":"경기도 파주시 야동동 276-15번지","indutype":"자동차정비 유지 - 카인테리어","category":"car"}]}]