[{"lat":"37.495802928","long":"127.491201","imageIndex":4,"items":[{"name":"2000년","tel":"031-771-7769","addr":"경기도 양평군 양평읍 양근리 137-12번지","indutype":"일반휴게음식 - 일반한식","category":"restaurant"}]},{"lat":"37.491220816","long":"127.49025528","imageIndex":4,"items":[{"name":"2도비어 양평점","tel":"031-0000-0000","addr":"경기도 양평군 양평읍 양근리 404-14번지","indutype":"일반휴게음식 - 서양음식","category":"restaurant"}]},{"lat":"37.48827522","long":"127.49228269","imageIndex":4,"items":[{"name":"Annata 안나타","tel":"031-774-7160","addr":"경기도 양평군 양평읍 양근리 299-11번지","indutype":"일반휴게음식 - 일반한식","category":"restaurant"},{"name":"엄지족발","tel":"031-774-6020","addr":"경기도 양평군 양평읍 양근리 299-11번지","indutype":"일반휴게음식 - 일반한식","category":"restaurant"}]},{"lat":"37.494495225","long":"127.49150911","imageIndex":4,"items":[{"name":"BBQ치킨","tel":"031-774-9282","addr":"경기도 양평군 양평읍 양근리 130-29번지","indutype":"일반휴게음식 - 스넥","category":"restaurant"},{"name":"매니아","tel":"031-775-0776","addr":"경기도 양평군 양평읍 양근리 130-29번지 101호","indutype":"일반휴게음식 - 일반한식","category":"restaurant"},{"name":"이가순대","tel":"031-775-3338","addr":"경기도 양평군 양평읍 양근리 130-29번지","indutype":"일반휴게음식 - 일반한식","category":"restaurant"}]},{"lat":"37.49118776","long":"127.48953139","imageIndex":4,"items":[{"name":"Rock&Club(락앤클럽)","tel":"031-771-3400","addr":"경기도 양평군 양평읍 양근리 422-23번지 지하1층","indutype":"일반휴게음식 - 주점","category":"restaurant"}]},{"lat":"37.488584352","long":"127.48942405","imageIndex":4,"items":[{"name":"YP푸드존","tel":"070-7864-1177","addr":"경기도 양평군 양평읍 양근리 328-10번지 2층 2호","indutype":"일반휴게음식 - 일반한식","category":"restaurant"},{"name":"불통족발","tel":"031-773-5571","addr":"경기도 양평군 양평읍 양근리 328-10번지 2층 2호","indutype":"일반휴게음식 - 일반한식","category":"restaurant"},{"name":"피자나라치킨공주","tel":"031-773-1962","addr":"경기도 양평군 양평읍 양근리 328-10번지","indutype":"일반휴게음식 - 일반한식","category":"restaurant"}]},{"lat":"37.489437602","long":"127.49225636","imageIndex":4,"items":[{"name":"간이역","tel":"031-771-2555","addr":"경기도 양평군 양평읍 양근리 354-4번지","indutype":"일반휴게음식 - 일반한식","category":"restaurant"},{"name":"드렁큰엘리스","tel":"070-8823-4865","addr":"경기도 양평군 양평읍 양근리 354-4번지","indutype":"일반휴게음식 - 일반한식","category":"restaurant"},{"name":"앨리스","tel":"","addr":"경기도 양평군 양평읍 양근리 354-4번지","indutype":"일반휴게음식 - 주점","category":"restaurant"}]},{"lat":"37.487357836","long":"127.49406318","imageIndex":4,"items":[{"name":"감투식당","tel":"","addr":"경기도 양평군 양평읍 양근리 222-7번지","indutype":"일반휴게음식 - 일반한식","category":"restaurant"}]},{"lat":"37.492417442","long":"127.48847646","imageIndex":4,"items":[{"name":"강남동태찜","tel":"031-773-5640","addr":"경기도 양평군 양평읍 양근리 396-28번지","indutype":"일반휴게음식 - 일반한식","category":"restaurant"}]},{"lat":"37.49921813","long":"127.49108754","imageIndex":4,"items":[{"name":"강산애","tel":"031-774-1904","addr":"경기도 양평군 양평읍 양근리 52-6번지 2층","indutype":"일반휴게음식 - 일반한식","category":"restaurant"},{"name":"세프이직화쭈꾸미한방보쌈","tel":"031-771-6799","addr":"경기도 양평군 양평읍 양근리 52-6번지","indutype":"일반휴게음식 - 일반한식","category":"restaurant"},{"name":"천복가든","tel":"031-775-5887","addr":"경기도 양평군 양평읍 양근리 52-6번지","indutype":"일반휴게음식 - 일반한식","category":"restaurant"}]},{"lat":"37.490217989","long":"127.49741754","imageIndex":4,"items":[{"name":"강상푸드","tel":"031-774-0800","addr":"경기도 양평군 양평읍 양근리 192-17번지 5층","indutype":"일반휴게음식 - 위탁급식업","category":"restaurant"}]},{"lat":"37.489638808","long":"127.49153401","imageIndex":4,"items":[{"name":"강원도아지매","tel":"031-774-2118","addr":"경기도 양평군 양평읍 양근리 306-1번지","indutype":"일반휴게음식 - 일반한식","category":"restaurant"},{"name":"꼬꼬시","tel":"031-775-9253","addr":"경기도 양평군 양평읍 양근리 306-1번지","indutype":"일반휴게음식 - 일반한식","category":"restaurant"}]},{"lat":"37.498329417","long":"127.47925312","imageIndex":4,"items":[{"name":"거북이","tel":"","addr":"경기도 양평군 양평읍 양근리 504-112번지 1층","indutype":"일반휴게음식 - 일반한식","category":"restaurant"}]},{"lat":"37.498331058","long":"127.47884603","imageIndex":4,"items":[{"name":"거북이","tel":"031-775-7792","addr":"경기도 양평군 양평읍 양근리 504-40번지 1층","indutype":"일반휴게음식 - 일반한식","category":"restaurant"}]},{"lat":"37.489410105","long":"127.49236925","imageIndex":4,"items":[{"name":"겐조","tel":"031-774-7071","addr":"경기도 양평군 양평읍 양근리 355-10번지","indutype":"일반휴게음식 - 일반한식","category":"restaurant"}]},{"lat":"37.494464779","long":"127.49233438","imageIndex":4,"items":[{"name":"고바우","tel":"031-775-3392","addr":"경기도 양평군 양평읍 양근리 140-8번지 양평현대아파트 103,104호","indutype":"일반휴게음식 - 일반한식","category":"restaurant"}]},{"lat":"37.491195978","long":"127.48972367","imageIndex":4,"items":[{"name":"고봉민 김밥인 양평중앙점","tel":"031-772-3456","addr":"경기도 양평군 양평읍 양근리 422-25번지","indutype":"일반휴게음식 - 일반한식","category":"restaurant"},{"name":"우리집양평우동","tel":"031-773-5058","addr":"경기도 양평군 양평읍 양근리 422-25번지 1층","indutype":"일반휴게음식 - 일반한식","category":"restaurant"}]},{"lat":"37.496193121","long":"127.48834259","imageIndex":4,"items":[{"name":"고향어탕","tel":"031-771-5775","addr":"경기도 양평군 양평읍 양근리 100-2번지 1층","indutype":"일반휴게음식 - 일반한식","category":"restaurant"},{"name":"장골가든","tel":"031-774-0799","addr":"경기도 양평군 양평읍 양근리 100-2번지","indutype":"일반휴게음식 - 일반한식","category":"restaurant"},{"name":"청춘극장","tel":"031-774-2929","addr":"경기도 양평군 양평읍 양근리 100-2번지","indutype":"일반휴게음식 - 일반한식","category":"restaurant"}]},{"lat":"37.489610048","long":"127.49195219","imageIndex":4,"items":[{"name":"골목길","tel":"031-775-3330","addr":"경기도 양평군 양평읍 양근리 353-9번지 1층","indutype":"일반휴게음식 - 일반한식","category":"restaurant"},{"name":"딱,한잔만더","tel":"","addr":"경기도 양평군 양평읍 양근리 353-9번지","indutype":"일반휴게음식 - 일반한식","category":"restaurant"}]},{"lat":"37.490939678","long":"127.48851212","imageIndex":4,"items":[{"name":"골목길","tel":"031-775-2780","addr":"경기도 양평군 양평읍 양근리 444-7번지 1층","indutype":"일반휴게음식 - 일반한식","category":"restaurant"},{"name":"진대감","tel":"031-772-4751","addr":"경기도 양평군 양평읍 양근리 444-7번지","indutype":"일반휴게음식 - 일반한식","category":"restaurant"}]},{"lat":"37.489465152","long":"127.48994989","imageIndex":4,"items":[{"name":"구이촌","tel":"031-775-4521","addr":"경기도 양평군 양평읍 양근리 340-3번지","indutype":"일반휴게음식 - 일반한식","category":"restaurant"}]},{"lat":"37.490611754","long":"127.49156296","imageIndex":4,"items":[{"name":"국수나무양평점","tel":"031-774-0302","addr":"경기도 양평군 양평읍 양근리 409-6번지 1층","indutype":"일반휴게음식 - 일반한식","category":"restaurant"}]},{"lat":"37.491386205","long":"127.48947614","imageIndex":4,"items":[{"name":"국수평천하 양평점","tel":"031-772-9986","addr":"경기도 양평군 양평읍 양근리 445-7번지","indutype":"일반휴게음식 - 일반한식","category":"restaurant"},{"name":"나들목","tel":"031-774-2993","addr":"경기도 양평군 양평읍 양근리 445-7번지 외3필지","indutype":"일반휴게음식 - 일반한식","category":"restaurant"},{"name":"대포항횟집","tel":"031-775-8282","addr":"경기도 양평군 양평읍 양근리 445-7번지 1층","indutype":"일반휴게음식 - 일반한식","category":"restaurant"}]},{"lat":"37.487385663","long":"127.49387115","imageIndex":4,"items":[{"name":"굽네치킨","tel":"031-771-9299","addr":"경기도 양평군 양평읍 양근리 222-22번지","indutype":"일반휴게음식 - 스넥","category":"restaurant"}]},{"lat":"37.494387905","long":"127.49131618","imageIndex":4,"items":[{"name":"그레잇카롱","tel":"070-8844-1021","addr":"경기도 양평군 양평읍 양근리 130-26번지 105호","indutype":"일반휴게음식 - 서양음식","category":"restaurant"},{"name":"우리동네","tel":"031-774-8655","addr":"경기도 양평군 양평읍 양근리 130-26번지","indutype":"일반휴게음식 - 일반한식","category":"restaurant"}]},{"lat":"37.490582676","long":"127.49639098","imageIndex":4,"items":[{"name":"금동이네","tel":"031-775-3252","addr":"경기도 양평군 양평읍 양근리 172-34","indutype":"일반휴게음식 - 서양음식","category":"restaurant"},{"name":"좋은친구","tel":"070-8818-1244","addr":"경기도 양평군 양평읍 양근리 172-34번지","indutype":"일반휴게음식 - 주점","category":"restaurant"}]},{"lat":"37.489221137","long":"127.49231148","imageIndex":4,"items":[{"name":"금학","tel":"031-774-4047","addr":"경기도 양평군 양평읍 양근리 301-6번지","indutype":"일반휴게음식 - 일반한식","category":"restaurant"}]},{"lat":"37.490438005","long":"127.49000143","imageIndex":4,"items":[{"name":"기린","tel":"070-8151-3311","addr":"경기도 양평군 양평읍 양근리 420-20번지","indutype":"일반휴게음식 - 일반한식","category":"restaurant"},{"name":"비스트로쿡","tel":"031-772-2275","addr":"경기도 양평군 양평읍 양근리 420-20번지","indutype":"일반휴게음식 - 서양음식","category":"restaurant"},{"name":"친구찾기","tel":"031-771-6512","addr":"경기도 양평군 양평읍 양근리 420-20번지","indutype":"일반휴게음식 - 주점","category":"restaurant"}]},{"lat":"37.489078341","long":"127.49198264","imageIndex":4,"items":[{"name":"길손조개구이","tel":"031-774-6360","addr":"경기도 양평군 양평읍 양근리 303-1번지","indutype":"일반휴게음식 - 일반한식","category":"restaurant"}]},{"lat":"37.489687809","long":"127.4927555","imageIndex":4,"items":[{"name":"김밥나라","tel":"031-772-9482","addr":"경기도 양평군 양평읍 양근리 167-28","indutype":"일반휴게음식 - 스넥","category":"restaurant"}]},{"lat":"37.491244043","long":"127.49767306","imageIndex":4,"items":[{"name":"꼬치꼬치 물어밥","tel":"031-774-1625","addr":"경기도 양평군 양평읍 양근리 170-77번지","indutype":"일반휴게음식 - 일반한식","category":"restaurant"}]},{"lat":"37.490250154","long":"127.4896723","imageIndex":4,"items":[{"name":"꾸러기식당","tel":"031-771-2150","addr":"경기도 양평군 양평읍 양근리 415번지","indutype":"일반휴게음식 - 일반한식","category":"restaurant"},{"name":"브라더 오향족발","tel":"031-774-0076","addr":"경기도 양평군 양평읍 양근리 415번지","indutype":"일반휴게음식 - 일반한식","category":"restaurant"},{"name":"오누(onoo)","tel":"031-771-8757","addr":"경기도 양평군 양평읍 양근리 415번지","indutype":"일반휴게음식 - 일반한식","category":"restaurant"}]},{"lat":"37.491465894","long":"127.48981588","imageIndex":4,"items":[{"name":"꾸이꾸이","tel":"031-775-5755","addr":"경기도 양평군 양평읍 양근리 403-9번지 1층","indutype":"일반휴게음식 - 일반한식","category":"restaurant"},{"name":"양평족발","tel":"031-774-5198","addr":"경기도 양평군 양평읍 양근리 403-9번지 1층","indutype":"일반휴게음식 - 일반한식","category":"restaurant"}]},{"lat":"37.49010422","long":"127.49228332","imageIndex":4,"items":[{"name":"꿀같은 밤","tel":"031-1111-1111","addr":"경기도 양평군 양평읍 양근리 359-5번지 2층","indutype":"일반휴게음식 - 일반한식","category":"restaurant"},{"name":"벌집삼겹살","tel":"031-773-8599","addr":"경기도 양평군 양평읍 양근리 359-5번지","indutype":"일반휴게음식 - 일반한식","category":"restaurant"},{"name":"쥬씨 경기양평점","tel":"031-774-5592","addr":"경기도 양평군 양평읍 양근리 359-5번지","indutype":"일반휴게음식 - 서양음식","category":"restaurant"},{"name":"청년다방 양평점","tel":"031-771-4954","addr":"경기도 양평군 양평읍 양근리 359-5번지 1층,2층","indutype":"일반휴게음식 - 스넥","category":"restaurant"}]},{"lat":"37.491638015","long":"127.48739721","imageIndex":4,"items":[{"name":"꿈앤카페담소","tel":"","addr":"경기도 양평군 양평읍 양근리 448-8번지 양평군청 1층","indutype":"일반휴게음식 - 서양음식","category":"restaurant"},{"name":"흥미반점","tel":"02-1111-1111","addr":"경기도 양평군 양평읍 양근리 448-8번지","indutype":"일반휴게음식 - 일반한식","category":"restaurant"}]},{"lat":"37.489917683","long":"127.48945531","imageIndex":4,"items":[{"name":"남원골추어탕","tel":"031-773-8182","addr":"경기도 양평군 양평읍 양근리 340-1번지 2층","indutype":"일반휴게음식 - 일반한식","category":"restaurant"},{"name":"또래오래 양평양근점","tel":"031-773-5838","addr":"경기도 양평군 양평읍 양근리 340-1번지","indutype":"일반휴게음식 - 스넥","category":"restaurant"},{"name":"앤디앤가비","tel":"031-000-0000","addr":"경기도 양평군 양평읍 양근리 340-1번지","indutype":"일반휴게음식 - 일반한식","category":"restaurant"}]},{"lat":"37.49458228","long":"127.48567481","imageIndex":4,"items":[{"name":"네네치킨","tel":"031-775-3372","addr":"경기도 양평군 양평읍 양근리 528-19번지","indutype":"일반휴게음식 - 스넥","category":"restaurant"}]},{"lat":"37.489303019","long":"127.49211979","imageIndex":4,"items":[{"name":"네박자","tel":"031-771-1029","addr":"경기도 양평군 양평읍 양근리 302-1번지 1층","indutype":"일반휴게음식 - 일반한식","category":"restaurant"}]},{"lat":"37.491077067","long":"127.4945059","imageIndex":4,"items":[{"name":"노가리&호프","tel":"031-1111-1111","addr":"경기도 양평군 양평읍 양근리 170-8번지","indutype":"일반휴게음식 - 주점","category":"restaurant"}]},{"lat":"37.489611312","long":"127.4916469","imageIndex":4,"items":[{"name":"누나홀닭양평점","tel":"03-771-5501","addr":"경기도 양평군 양평읍 양근리 305-1번지","indutype":"일반휴게음식 - 스넥","category":"restaurant"}]},{"lat":"37.492745781","long":"127.48750613","imageIndex":4,"items":[{"name":"누리마을남도맛집","tel":"031-773-9219","addr":"경기도 양평군 양평읍 양근리 528-18번지","indutype":"일반휴게음식 - 일반한식","category":"restaurant"}]},{"lat":"37.49750033","long":"127.49034131","imageIndex":4,"items":[{"name":"능이네 능이버섯백숙","tel":"031-772-7074","addr":"경기도 양평군 양평읍 양근리 49-35번지","indutype":"일반휴게음식 - 일반한식","category":"restaurant"}]},{"lat":"37.491052476","long":"127.48956443","imageIndex":4,"items":[{"name":"다락","tel":"031-772-3894","addr":"경기도 양평군 양평읍 양근리 422-29번지 스마트빌 101호","indutype":"일반휴게음식 - 일반한식","category":"restaurant"}]},{"lat":"37.490992681","long":"127.49095485","imageIndex":4,"items":[{"name":"다사랑즉석곱창순대국","tel":"031-774-8852","addr":"경기도 양평군 양평읍 양근리 405-1번지","indutype":"일반휴게음식 - 일반한식","category":"restaurant"},{"name":"동해야 놀자","tel":"031-000-0000","addr":"경기도 양평군 양평읍 양근리 405-1번지 2층","indutype":"일반휴게음식 - 일반한식","category":"restaurant"},{"name":"한솥양평점","tel":"031-775-1112","addr":"경기도 양평군 양평읍 양근리 405-1번지 1층","indutype":"일반휴게음식 - 일반한식","category":"restaurant"}]},{"lat":"37.492000325","long":"127.49348297","imageIndex":4,"items":[{"name":"다섯번째토마토","tel":"031-771-0401","addr":"경기도 양평군 양평읍 양근리 160-12번지 1층","indutype":"일반휴게음식 - 스넥","category":"restaurant"}]},{"lat":"37.489525074","long":"127.49289012","imageIndex":4,"items":[{"name":"다올곱창","tel":"031-775-1325","addr":"경기도 양평군 양평읍 양근리 167-22번지","indutype":"일반휴게음식 - 일반한식","category":"restaurant"}]},{"lat":"37.490583134","long":"127.49194722","imageIndex":4,"items":[{"name":"닭만보치킨","tel":"031-772-9855","addr":"경기도 양평군 양평읍 양근리 361-4번지","indutype":"일반휴게음식 - 스넥","category":"restaurant"},{"name":"호야네","tel":"031-774-9720","addr":"경기도 양평군 양평읍 양근리 361-4번지","indutype":"일반휴게음식 - 일반한식","category":"restaurant"}]},{"lat":"37.48952826","long":"127.49212126","imageIndex":4,"items":[{"name":"대명치킨","tel":"031-771-4078","addr":"경기도 양평군 양평읍 양근리 353-12번지","indutype":"일반휴게음식 - 스넥","category":"restaurant"},{"name":"백운정육점식당","tel":"031-774-0788","addr":"경기도 양평군 양평읍 양근리 353-12","indutype":"일반휴게음식 - 일반한식","category":"restaurant"}]},{"lat":"37.491939298","long":"127.49081401","imageIndex":4,"items":[{"name":"더벨리타웨딩컨벤션","tel":"031-775-5800","addr":"경기도 양평군 양평읍 양근리 376-8번지 현대성우오스타코아루 지하1층","indutype":"일반휴게음식 - 일반한식","category":"restaurant"}]},{"lat":"37.492273706","long":"127.48837376","imageIndex":4,"items":[{"name":"도마족발","tel":"031-775-8899","addr":"경기도 양평군 양평읍 양근리 396-29번지 1층","indutype":"일반휴게음식 - 일반한식","category":"restaurant"}]},{"lat":"37.485743938","long":"127.49433528","imageIndex":4,"items":[{"name":"도서관구내식당","tel":"031-774-6941","addr":"경기도 양평군 양평읍 양근리 257-3번지 지하1층","indutype":"일반휴게음식 - 일반한식","category":"restaurant"}]},{"lat":"37.489245936","long":"127.49067211","imageIndex":4,"items":[{"name":"도쿄라멘3900","tel":"070-7867-3900","addr":"경기도 양평군 양평읍 양근리 311-1번지 1층","indutype":"일반휴게음식 - 일반한식","category":"restaurant"},{"name":"루이비통닭","tel":"031-771-2800","addr":"경기도 양평군 양평읍 양근리 311-1번지 1층","indutype":"일반휴게음식 - 스넥","category":"restaurant"}]},{"lat":"37.490774628","long":"127.49139442","imageIndex":4,"items":[{"name":"도쿄스테이크양평점","tel":"031-775-5088","addr":"경기도 양평군 양평읍 양근리 409-2번지","indutype":"일반휴게음식 - 일식·회집","category":"restaurant"}]},{"lat":"37.489802477","long":"127.49117325","imageIndex":4,"items":[{"name":"돈돈","tel":"031-773-8881","addr":"경기도 양평군 양평읍 양근리 351-5번지 1층","indutype":"일반휴게음식 - 일반한식","category":"restaurant"},{"name":"원조만리양꼬치숯불구이","tel":"031-775-9289","addr":"경기도 양평군 양평읍 양근리 351-5번지 1층","indutype":"일반휴게음식 - 일반한식","category":"restaurant"},{"name":"포차천국","tel":"031-772-1991","addr":"경기도 양평군 양평읍 양근리 351-5번지 1층","indutype":"일반휴게음식 - 일반한식","category":"restaurant"}]},{"lat":"37.489554399","long":"127.49233627","imageIndex":4,"items":[{"name":"돈탑양평점","tel":"031-771-2223","addr":"경기도 양평군 양평읍 양근리 355-7번지 1-2층","indutype":"일반휴게음식 - 일반한식","category":"restaurant"},{"name":"와일드캣츠","tel":"031-773-5496","addr":"경기도 양평군 양평읍 양근리 355-7번지","indutype":"일반휴게음식 - 일반한식","category":"restaurant"}]},{"lat":"37.491246031","long":"127.49719817","imageIndex":4,"items":[{"name":"동네포차","tel":"031-773-8953","addr":"경기도 양평군 양평읍 양근리 170-33번지","indutype":"일반휴게음식 - 일반한식","category":"restaurant"}]},{"lat":"37.490940282","long":"127.48836513","imageIndex":4,"items":[{"name":"동현식당","tel":"031-773-5760","addr":"경기도 양평군 양평읍 양근리 444-3번지","indutype":"일반휴게음식 - 일반한식","category":"restaurant"}]},{"lat":"37.489773485","long":"127.49164796","imageIndex":4,"items":[{"name":"돼지목","tel":"031-774-7989","addr":"경기도 양평군 양평읍 양근리 352-8번지","indutype":"일반휴게음식 - 일반한식","category":"restaurant"},{"name":"또미의 집","tel":"031-771-2997","addr":"경기도 양평군 양평읍 양근리 352-8번지","indutype":"일반휴게음식 - 일반한식","category":"restaurant"},{"name":"순옥이네","tel":"031-775-1189","addr":"경기도 양평군 양평읍 양근리 352-8번지 1층","indutype":"일반휴게음식 - 일반한식","category":"restaurant"},{"name":"장수돌구이","tel":"031-771-9289","addr":"경기도 양평군 양평읍 양근리 352-8번지","indutype":"일반휴게음식 - 일반한식","category":"restaurant"},{"name":"청해식당","tel":"031-772-4784","addr":"경기도 양평군 양평읍 양근리 352-8","indutype":"일반휴게음식 - 일반한식","category":"restaurant"}]},{"lat":"37.48985564","long":"127.48920615","imageIndex":4,"items":[{"name":"돼지야","tel":"031-775-2430","addr":"경기도 양평군 양평읍 양근리 339-5번지","indutype":"일반휴게음식 - 일반한식","category":"restaurant"}]},{"lat":"37.489886724","long":"127.49258719","imageIndex":4,"items":[{"name":"두스팜","tel":"031-772-4644","addr":"경기도 양평군 양평읍 양근리 360-7 2층","indutype":"일반휴게음식 - 일반한식","category":"restaurant"}]},{"lat":"37.490049537","long":"127.48806538","imageIndex":4,"items":[{"name":"드립니다","tel":"031-775-7942","addr":"경기도 양평군 양평읍 양근리 435-22번지","indutype":"일반휴게음식 - 서양음식","category":"restaurant"}]},{"lat":"37.495023844","long":"127.49222495","imageIndex":4,"items":[{"name":"떡신","tel":"031-774-3677","addr":"경기도 양평군 양평읍 양근리 141-2번지","indutype":"일반휴게음식 - 일반한식","category":"restaurant"},{"name":"욜로","tel":"031-772-5279","addr":"경기도 양평군 양평읍 양근리 141-2번지 101호","indutype":"일반휴게음식 - 일반한식","category":"restaurant"}]},{"lat":"37.488022248","long":"127.49245065","imageIndex":4,"items":[{"name":"또래오래치킨양평점","tel":"031-774-7293","addr":"경기도 양평군 양평읍 양근리 298-1","indutype":"일반휴게음식 - 스넥","category":"restaurant"}]},{"lat":"37.490275637","long":"127.4922279","imageIndex":4,"items":[{"name":"또치네","tel":"070-8806-4047","addr":"경기도 양평군 양평읍 양근리 358-4번지 1층","indutype":"일반휴게음식 - 일반한식","category":"restaurant"},{"name":"에라이쿠마","tel":"","addr":"경기도 양평군 양평읍 양근리 358-4번지 1층","indutype":"일반휴게음식 - 일반한식","category":"restaurant"},{"name":"캔커피","tel":"070-8841-3322","addr":"경기도 양평군 양평읍 양근리 358-4번지","indutype":"일반휴게음식 - 서양음식","category":"restaurant"}]},{"lat":"37.49027484","long":"127.49242012","imageIndex":4,"items":[{"name":"똥광까페","tel":"031-773-8939","addr":"경기도 양평군 양평읍 양근리 360-1번지","indutype":"일반휴게음식 - 서양음식","category":"restaurant"},{"name":"똥광이네","tel":"031-775-5021","addr":"경기도 양평군 양평읍 양근리 360-1","indutype":"일반휴게음식 - 일반한식","category":"restaurant"},{"name":"허브","tel":"031-774-9423","addr":"경기도 양평군 양평읍 양근리 360-1번지","indutype":"일반휴게음식 - 일반한식","category":"restaurant"}]},{"lat":"37.49622273","long":"127.49208577","imageIndex":4,"items":[{"name":"레드도어커피","tel":"02-1577-0000","addr":"경기도 양평군 양평읍 양근리 137-70번지 1층","indutype":"일반휴게음식 - 서양음식","category":"restaurant"},{"name":"처갓집양념통닭양평점","tel":"031-773-9592","addr":"경기도 양평군 양평읍 양근리 137-70번지 1층","indutype":"일반휴게음식 - 스넥","category":"restaurant"}]},{"lat":"37.490637772","long":"127.49614258","imageIndex":4,"items":[{"name":"레이트커피","tel":"031-111-1111","addr":"경기도 양평군 양평읍 양근리 176-7번지","indutype":"일반휴게음식 - 서양음식","category":"restaurant"}]},{"lat":"37.489582786","long":"127.49200855","imageIndex":4,"items":[{"name":"로즈","tel":"031-772-6855","addr":"경기도 양평군 양평읍 양근리 353-10번지 2층","indutype":"일반휴게음식 - 일반한식","category":"restaurant"},{"name":"키세키 (KISEKI)","tel":"031-000-0000","addr":"경기도 양평군 양평읍 양근리 353-10번지","indutype":"일반휴게음식 - 일식·회집","category":"restaurant"}]},{"lat":"37.491722632","long":"127.48873203","imageIndex":4,"items":[{"name":"롯데리아","tel":"031-771-7937","addr":"경기도 양평군 양평읍 양근리 446-7번지 1층","indutype":"일반휴게음식 - 서양음식","category":"restaurant"}]},{"lat":"37.489859828","long":"127.49472407","imageIndex":4,"items":[{"name":"르브레드","tel":"031-771-1238","addr":"경기도 양평군 양평읍 양근리 195-9번지 1층","indutype":"일반휴게음식 - 일반한식","category":"restaurant"},{"name":"명랑핫도그양평점","tel":"031-1111-1111","addr":"경기도 양평군 양평읍 양근리 195-9번지","indutype":"일반휴게음식 - 일반한식","category":"restaurant"}]},{"lat":"37.48652901","long":"127.49620602","imageIndex":4,"items":[{"name":"마끼아또","tel":"031-771-7382","addr":"경기도 양평군 양평읍 양근리 192-109번지 1층","indutype":"일반휴게음식 - 일반한식","category":"restaurant"}]},{"lat":"37.491136165","long":"127.49761581","imageIndex":4,"items":[{"name":"마니스시루","tel":"031-774-9977","addr":"경기도 양평군 양평읍 양근리 170-38번지 1층","indutype":"일반휴게음식 - 일식·회집","category":"restaurant"}]},{"lat":"37.491079179","long":"127.48964376","imageIndex":4,"items":[{"name":"마라양꼬치","tel":"031-773-1888","addr":"경기도 양평군 양평읍 양근리 422-27번지 1층","indutype":"일반휴게음식 - 중국식","category":"restaurant"},{"name":"양평양고기전문점","tel":"031-771-9244","addr":"경기도 양평군 양평읍 양근리 422-27번지","indutype":"일반휴게음식 - 일반한식","category":"restaurant"}]},{"lat":"37.496332344","long":"127.49172462","imageIndex":4,"items":[{"name":"마우네통영산꼼장어아나고제주흑돼지","tel":"031-774-3774","addr":"경기도 양평군 양평읍 양근리 137-38번지","indutype":"일반휴게음식 - 일반한식","category":"restaurant"}]},{"lat":"37.488078182","long":"127.49416966","imageIndex":4,"items":[{"name":"만나도시락","tel":"","addr":"경기도 양평군 양평읍 양근리 218-6번지 1층 103호","indutype":"일반휴게음식 - 일반한식","category":"restaurant"},{"name":"한식당","tel":"031-774-0104","addr":"경기도 양평군 양평읍 양근리 218-6번지","indutype":"일반휴게음식 - 일반한식","category":"restaurant"}]},{"lat":"37.491165965","long":"127.49044715","imageIndex":4,"items":[{"name":"맘스터치","tel":"031-775-5900","addr":"경기도 양평군 양평읍 양근리 404-9번지","indutype":"일반휴게음식 - 서양음식","category":"restaurant"}]},{"lat":"37.488939777","long":"127.49280715","imageIndex":4,"items":[{"name":"맘스푸드","tel":"070-1111-1111","addr":"경기도 양평군 양평읍 양근리 200-2번지","indutype":"일반휴게음식 - 서양음식","category":"restaurant"}]},{"lat":"37.488080097","long":"127.49153517","imageIndex":4,"items":[{"name":"맥시칸치킨 양평점","tel":"031-771-8938","addr":"경기도 양평군 양평읍 양근리 282-7번지","indutype":"일반휴게음식 - 일반한식","category":"restaurant"},{"name":"빡과장생고깃집","tel":"031-774-9296","addr":"경기도 양평군 양평읍 양근리 282-7번지 1층","indutype":"일반휴게음식 - 일반한식","category":"restaurant"}]},{"lat":"37.489770864","long":"127.49228114","imageIndex":4,"items":[{"name":"메가엠지씨커피양평물맑은시장점","tel":"","addr":"경기도 양평군 양평읍 양근리 356-3번지 1층","indutype":"일반휴게음식 - 서양음식","category":"restaurant"},{"name":"방실이파전","tel":"031-773-0030","addr":"경기도 양평군 양평읍 양근리 356-3번지 1층","indutype":"일반휴게음식 - 일반한식","category":"restaurant"}]},{"lat":"37.491331774","long":"127.48956625","imageIndex":4,"items":[{"name":"명가춘천닭갈비","tel":"031-774-0125","addr":"경기도 양평군 양평읍 양근리 401-14번지","indutype":"일반휴게음식 - 일반한식","category":"restaurant"}]},{"lat":"37.490414103","long":"127.49142599","imageIndex":4,"items":[{"name":"명동만두분식","tel":"031-774-6306","addr":"경기도 양평군 양평읍 양근리 410-17","indutype":"일반휴게음식 - 스넥","category":"restaurant"},{"name":"모모스테이크 양평점","tel":"031-772-3050","addr":"경기도 양평군 양평읍 양근리 410-17번지","indutype":"일반휴게음식 - 일반한식","category":"restaurant"},{"name":"여울","tel":"031-772-3050","addr":"경기도 양평군 양평읍 양근리 410-17번지 2층","indutype":"일반휴게음식 - 일반한식","category":"restaurant"},{"name":"진가네김밥","tel":"031-771-2375","addr":"경기도 양평군 양평읍 양근리 410-17번지","indutype":"일반휴게음식 - 스넥","category":"restaurant"},{"name":"파파도나스","tel":"","addr":"경기도 양평군 양평읍 양근리 410-17번지 1층","indutype":"일반휴게음식 - 서양음식","category":"restaurant"}]},{"lat":"37.491188785","long":"127.48928263","imageIndex":4,"items":[{"name":"명물삼합","tel":"031-775-8810","addr":"경기도 양평군 양평읍 양근리 422-20번지","indutype":"일반휴게음식 - 일반한식","category":"restaurant"}]},{"lat":"37.490583976","long":"127.4895614","imageIndex":4,"items":[{"name":"목화부페웨딩홀","tel":"031-774-1555","addr":"경기도 양평군 양평읍 양근리 417-1번지","indutype":"일반휴게음식 - 일반한식","category":"restaurant"}]},{"lat":"37.490218814","long":"127.49289466","imageIndex":4,"items":[{"name":"몽실식당","tel":"031-771-9296","addr":"경기도 양평군 양평읍 양근리 167-27번지","indutype":"일반휴게음식 - 일반한식","category":"restaurant"}]},{"lat":"37.487495751","long":"127.49339698","imageIndex":4,"items":[{"name":"미가","tel":"","addr":"경기도 양평군 양평읍 양근리 222-10번지 1층","indutype":"일반휴게음식 - 일반한식","category":"restaurant"},{"name":"이준돈까스","tel":"031-772-7666","addr":"경기도 양평군 양평읍 양근리 222-10번지 1층","indutype":"일반휴게음식 - 서양음식","category":"restaurant"}]},{"lat":"37.490722953","long":"127.49081741","imageIndex":4,"items":[{"name":"미스사이공 양평점","tel":"031-773-3420","addr":"경기도 양평군 양평읍 양근리 410-14번지","indutype":"일반휴게음식 - 스넥","category":"restaurant"},{"name":"민들레카페","tel":"031-772-2900","addr":"경기도 양평군 양평읍 양근리 410-14번지","indutype":"일반휴게음식 - 서양음식","category":"restaurant"}]},{"lat":"37.491111534","long":"127.49053725","imageIndex":4,"items":[{"name":"밀러타임","tel":"031-775-2996","addr":"경기도 양평군 양평읍 양근리 404-8번지 1층","indutype":"일반휴게음식 - 주점","category":"restaurant"},{"name":"정안보리밥","tel":"","addr":"경기도 양평군 양평읍 양근리 404-8번지 2층","indutype":"일반휴게음식 - 일반한식","category":"restaurant"}]},{"lat":"37.49152535","long":"127.48850461","imageIndex":4,"items":[{"name":"백운봉","tel":"031-775-2929","addr":"경기도 양평군 양평읍 양근리 446-15번지","indutype":"일반휴게음식 - 일반한식","category":"restaurant"}]},{"lat":"37.490584491","long":"127.49161932","imageIndex":4,"items":[{"name":"버거킹경기양평점","tel":"031-771-0092","addr":"경기도 양평군 양평읍 양근리 409-7번지","indutype":"일반휴게음식 - 서양음식","category":"restaurant"}]},{"lat":"37.4901338","long":"127.49600358","imageIndex":4,"items":[{"name":"버무리떡볶이","tel":"031-771-5511","addr":"경기도 양평군 양평읍 양근리 183-11번지 1층","indutype":"일반휴게음식 - 일반한식","category":"restaurant"},{"name":"양평반점","tel":"031-772-0404","addr":"경기도 양평군 양평읍 양근리 183-11번지","indutype":"일반휴게음식 - 중국식","category":"restaurant"}]},{"lat":"37.490719869","long":"127.49156367","imageIndex":4,"items":[{"name":"벧엘떡카페","tel":"031-774-5090","addr":"경기도 양평군 양평읍 양근리 409-9번지","indutype":"일반휴게음식 - 서양음식","category":"restaurant"}]},{"lat":"37.491050659","long":"127.49000541","imageIndex":4,"items":[{"name":"보드람치킨","tel":"031-775-8007","addr":"경기도 양평군 양평읍 양근리 421-1번지","indutype":"일반휴게음식 - 스넥","category":"restaurant"}]},{"lat":"37.489694755","long":"127.49325306","imageIndex":4,"items":[{"name":"본죽","tel":"031-775-6288","addr":"경기도 양평군 양평읍 양근리 206-5번지 외2필지","indutype":"일반휴게음식 - 일반한식","category":"restaurant"}]},{"lat":"37.489251021","long":"127.49162194","imageIndex":4,"items":[{"name":"봉구비어경기양평역점","tel":"031-771-8040","addr":"경기도 양평군 양평읍 양근리 304-5번지 2층","indutype":"일반휴게음식 - 주점","category":"restaurant"}]},{"lat":"37.4884457","long":"127.49245341","imageIndex":4,"items":[{"name":"봉구스밥버거 양평양근점","tel":"031-772-9778","addr":"경기도 양평군 양평읍 양근리 299-18번지 104호","indutype":"일반휴게음식 - 일반한식","category":"restaurant"},{"name":"홍춘관","tel":"031-774-7359","addr":"경기도 양평군 양평읍 양근리 299-18","indutype":"일반휴게음식 - 중국식","category":"restaurant"}]},{"lat":"37.495826167","long":"127.49211711","imageIndex":4,"items":[{"name":"부뚜막치킨","tel":"031-774-7741","addr":"경기도 양평군 양평읍 양근리 137-61번지","indutype":"일반휴게음식 - 일반한식","category":"restaurant"},{"name":"치킨뱅이","tel":"031-774-7741","addr":"경기도 양평군 양평읍 양근리 137-61번지","indutype":"일반휴게음식 - 스넥","category":"restaurant"}]},{"lat":"37.491910698","long":"127.49336931","imageIndex":4,"items":[{"name":"부어치킨","tel":"031-771-2500","addr":"경기도 양평군 양평읍 양근리 162-1 외3필지1층","indutype":"일반휴게음식 - 주점","category":"restaurant"}]},{"lat":"37.489166376","long":"127.49248073","imageIndex":4,"items":[{"name":"불닭발동대문엽기떡볶이","tel":"031-775-8593","addr":"경기도 양평군 양평읍 양근리 301-4번지","indutype":"일반휴게음식 - 일반한식","category":"restaurant"}]},{"lat":"37.488746851","long":"127.48934595","imageIndex":4,"items":[{"name":"브이아이피(VIP)카페","tel":"031-771-1979","addr":"경기도 양평군 양평읍 양근리 328-2번지","indutype":"일반휴게음식 - 서양음식","category":"restaurant"},{"name":"브이아이피밥상(VIP밥상)","tel":"031-771-5332","addr":"경기도 양평군 양평읍 양근리 328-2번지 1층","indutype":"일반휴게음식 - 일반한식","category":"restaurant"}]},{"lat":"37.490777295","long":"127.49725161","imageIndex":4,"items":[{"name":"블랙앤화이트","tel":"031-774-4050","addr":"경기도 양평군 양평읍 양근리 174-4번지 2층","indutype":"일반휴게음식 - 일반한식","category":"restaurant"}]},{"lat":"37.491134245","long":"127.4959197","imageIndex":4,"items":[{"name":"비에이치씨(BHC)양평점","tel":"031-774-3445","addr":"경기도 양평군 양평읍 양근리 172-8번지 1층","indutype":"일반휴게음식 - 스넥","category":"restaurant"}]},{"lat":"37.492136622","long":"127.49103014","imageIndex":4,"items":[{"name":"빨라쪼","tel":"070-7727-5559","addr":"경기도 양평군 양평읍 양근리 376-4번지 101호","indutype":"일반휴게음식 - 서양음식","category":"restaurant"},{"name":"카페다다","tel":"","addr":"경기도 양평군 양평읍 양근리 376-4번지 103,203호","indutype":"일반휴게음식 - 서양음식","category":"restaurant"}]},{"lat":"37.490276573","long":"127.49200176","imageIndex":4,"items":[{"name":"빽다방","tel":"031-774-8886","addr":"경기도 양평군 양평읍 양근리 358-5번지 1층","indutype":"일반휴게음식 - 서양음식","category":"restaurant"}]},{"lat":"37.489993734","long":"127.49067698","imageIndex":4,"items":[{"name":"사랑채","tel":"031-775-2764","addr":"경기도 양평군 양평읍 양근리 412번지","indutype":"일반휴게음식 - 일반한식","category":"restaurant"},{"name":"수원신닭발","tel":"031-774-2988","addr":"경기도 양평군 양평읍 양근리 412","indutype":"일반휴게음식 - 일반한식","category":"restaurant"},{"name":"스마일분식","tel":"031-773-2944","addr":"경기도 양평군 양평읍 양근리 412","indutype":"일반휴게음식 - 스넥","category":"restaurant"},{"name":"이모네","tel":"031-775-2764","addr":"경기도 양평군 양평읍 양근리 412번지","indutype":"일반휴게음식 - 일반한식","category":"restaurant"}]},{"lat":"37.490221914","long":"127.49647906","imageIndex":4,"items":[{"name":"사와라 해물","tel":"031-773-7854","addr":"경기도 양평군 양평읍 양근리 183-4번지 오황한의원 1층 6호","indutype":"일반휴게음식 - 일반한식","category":"restaurant"},{"name":"춘천꼬꼬닭갈비","tel":"031-775-4445","addr":"경기도 양평군 양평읍 양근리 183-4번지","indutype":"일반휴게음식 - 일반한식","category":"restaurant"},{"name":"투다리","tel":"031-771-4689","addr":"경기도 양평군 양평읍 양근리 183-4번지","indutype":"일반휴게음식 - 일반한식","category":"restaurant"}]},{"lat":"37.489493859","long":"127.49172529","imageIndex":4,"items":[{"name":"삼대칡냉면","tel":"031-773-5516","addr":"경기도 양평군 양평읍 양근리 304-1번지","indutype":"일반휴게음식 - 일반한식","category":"restaurant"},{"name":"이지비네","tel":"031-773-8828","addr":"경기도 양평군 양평읍 양근리 304-1번지 1층","indutype":"일반휴게음식 - 일반한식","category":"restaurant"}]},{"lat":"37.490939027","long":"127.48867042","imageIndex":4,"items":[{"name":"삼시세끼","tel":"031-774-4552","addr":"경기도 양평군 양평읍 양근리 444-2번지","indutype":"일반휴게음식 - 일반한식","category":"restaurant"}]},{"lat":"37.490723354","long":"127.48853334","imageIndex":4,"items":[{"name":"새벽해장국","tel":"031-772-1161","addr":"경기도 양평군 양평읍 양근리 443-1번지 1층","indutype":"일반휴게음식 - 일반한식","category":"restaurant"}]},{"lat":"37.490416097","long":"127.48875749","imageIndex":4,"items":[{"name":"선우돼지갈비","tel":"031-772-8723","addr":"경기도 양평군 양평읍 양근리 443-3","indutype":"일반휴게음식 - 일반한식","category":"restaurant"}]},{"lat":"37.489221605","long":"127.49219841","imageIndex":4,"items":[{"name":"선일이네감자탕","tel":"031-772-1544","addr":"경기도 양평군 양평읍 양근리 302-6번지","indutype":"일반휴게음식 - 일반한식","category":"restaurant"}]},{"lat":"37.489355016","long":"127.49261764","imageIndex":4,"items":[{"name":"설빙","tel":"031-771-2264","addr":"경기도 양평군 양평읍 양근리 355-3번지 2층","indutype":"일반휴게음식 - 서양음식","category":"restaurant"}]},{"lat":"37.490020837","long":"127.49283683","imageIndex":4,"items":[{"name":"센스카페","tel":"","addr":"경기도 양평군 양평읍 양근리 167-10번지 지하1층","indutype":"일반휴게음식 - 일반한식","category":"restaurant"},{"name":"진고개집","tel":"031-775-0878","addr":"경기도 양평군 양평읍 양근리 167-10번지","indutype":"일반휴게음식 - 일반한식","category":"restaurant"}]},{"lat":"37.49002524","long":"127.48959169","imageIndex":4,"items":[{"name":"소나무","tel":"031-773-6565","addr":"경기도 양평군 양평읍 양근리 345-9번지","indutype":"일반휴게음식 - 서양음식","category":"restaurant"}]},{"lat":"37.492270871","long":"127.49558794","imageIndex":4,"items":[{"name":"손문대구막창","tel":"031-774-8686","addr":"경기도 양평군 양평읍 양근리 170-5번지 1층","indutype":"일반휴게음식 - 일반한식","category":"restaurant"},{"name":"장다리","tel":"031-774-7775","addr":"경기도 양평군 양평읍 양근리 170-5","indutype":"일반휴게음식 - 일반한식","category":"restaurant"},{"name":"정동진","tel":"031-774-7775","addr":"경기도 양평군 양평읍 양근리 170-5번지 1층","indutype":"일반휴게음식 - 일식·회집","category":"restaurant"}]},{"lat":"37.487915124","long":"127.49003028","imageIndex":4,"items":[{"name":"송향밥집","tel":"031-772-7882","addr":"경기도 양평군 양평읍 양근리 273-3번지 1층","indutype":"일반휴게음식 - 일반한식","category":"restaurant"}]},{"lat":"37.488939935","long":"127.49059098","imageIndex":4,"items":[{"name":"수복정육점식당","tel":"031-771-2210","addr":"경기도 양평군 양평읍 양근리 314-8번지 1층","indutype":"일반휴게음식 - 일반한식","category":"restaurant"}]},{"lat":"37.492771557","long":"127.4878116","imageIndex":4,"items":[{"name":"수산한횟집","tel":"031-1111-1111","addr":"경기도 양평군 양평읍 양근리 528-17번지 1층","indutype":"일반휴게음식 - 일반한식","category":"restaurant"},{"name":"수산한횟집양평점","tel":"","addr":"경기도 양평군 양평읍 양근리 528-17번지 1층","indutype":"일반휴게음식 - 일식·회집","category":"restaurant"},{"name":"양평칼국수","tel":"031-771-1390","addr":"경기도 양평군 양평읍 양근리 528-17번지","indutype":"일반휴게음식 - 일반한식","category":"restaurant"}]},{"lat":"37.489889863","long":"127.48964735","imageIndex":4,"items":[{"name":"순이네홍어","tel":"031-774-8879","addr":"경기도 양평군 양평읍 양근리 345-8번지 순이네홍어","indutype":"일반휴게음식 - 일반한식","category":"restaurant"}]},{"lat":"37.49047338","long":"127.49234226","imageIndex":4,"items":[{"name":"순이비어","tel":"","addr":"경기도 양평군 양평읍 양근리 361-8번지 1층","indutype":"일반휴게음식 - 주점","category":"restaurant"}]},{"lat":"37.490247637","long":"127.49028288","imageIndex":4,"items":[{"name":"술독","tel":"070-7791-0267","addr":"경기도 양평군 양평읍 양근리 413-1번지 술독","indutype":"일반휴게음식 - 일반한식","category":"restaurant"},{"name":"연희포차","tel":"02-771-1445","addr":"경기도 양평군 양평읍 양근리 413-1번지","indutype":"일반휴게음식 - 일반한식","category":"restaurant"},{"name":"풍뎅이호프","tel":"031-774-2162","addr":"경기도 양평군 양평읍 양근리 413-1번지","indutype":"일반휴게음식 - 주점","category":"restaurant"}]},{"lat":"37.489109391","long":"127.49101044","imageIndex":4,"items":[{"name":"스마일꽈배기","tel":"031-761-3049","addr":"경기도 양평군 양평읍 양근리 290-1번지 1층","indutype":"일반휴게음식 - 서양음식","category":"restaurant"}]},{"lat":"37.489748887","long":"127.49105983","imageIndex":4,"items":[{"name":"시바라스시","tel":"031-774-2818","addr":"경기도 양평군 양평읍 양근리 351-2번지 2층","indutype":"일반휴게음식 - 서양음식","category":"restaurant"},{"name":"차돌풍","tel":"031-771-9293","addr":"경기도 양평군 양평읍 양근리 351-2번지 1층","indutype":"일반휴게음식 - 일반한식","category":"restaurant"}]},{"lat":"37.489973567","long":"127.49119698","imageIndex":4,"items":[{"name":"신(  )통큰소곱창","tel":"031-775-6789","addr":"경기도 양평군 양평읍 양근리 410-22번지","indutype":"일반휴게음식 - 일반한식","category":"restaurant"}]},{"lat":"37.497243177","long":"127.48272917","imageIndex":4,"items":[{"name":"신라한정식부페","tel":"031-774-1116","addr":"경기도 양평군 양평읍 양근리 504-15번지 1층","indutype":"일반휴게음식 - 일반한식","category":"restaurant"}]},{"lat":"37.490687755","long":"127.49061365","imageIndex":4,"items":[{"name":"신전떡볶이 양평점","tel":"070-1111-1111","addr":"경기도 양평군 양평읍 양근리 410-23번지","indutype":"일반휴게음식 - 스넥","category":"restaurant"},{"name":"정통춘천닭갈비","tel":"031-774-5222","addr":"경기도 양평군 양평읍 양근리 410-23번지","indutype":"일반휴게음식 - 일반한식","category":"restaurant"},{"name":"정통춘천닭갈비","tel":"031-774-5222","addr":"경기도 양평군 양평읍 양근리 410-23번지","indutype":"일반휴게음식 - 일반한식","category":"restaurant"}]},{"lat":"37.487444133","long":"127.49280869","imageIndex":4,"items":[{"name":"심마니약초백숙","tel":"031-773-2775","addr":"경기도 양평군 양평읍 양근리 229-2번지","indutype":"일반휴게음식 - 일반한식","category":"restaurant"}]},{"lat":"37.491744625","long":"127.49430675","imageIndex":4,"items":[{"name":"아다모커피","tel":"031-775-6648","addr":"경기도 양평군 양평읍 양근리 170-63번지","indutype":"일반휴게음식 - 서양음식","category":"restaurant"}]},{"lat":"37.494967323","long":"127.49064147","imageIndex":4,"items":[{"name":"아이엠돈까스","tel":"031-774-3110","addr":"경기도 양평군 양평읍 양근리 139-12번지","indutype":"일반휴게음식 - 서양음식","category":"restaurant"}]},{"lat":"37.495997093","long":"127.48780984","imageIndex":4,"items":[{"name":"알찬만두","tel":"031-775-5656","addr":"경기도 양평군 양평읍 양근리 100-11번지 (주)엔오에스","indutype":"일반휴게음식 - 일반한식","category":"restaurant"}]},{"lat":"37.489720456","long":"127.49139886","imageIndex":4,"items":[{"name":"야식대학","tel":"031-775-8886","addr":"경기도 양평군 양평읍 양근리 306-3번지","indutype":"일반휴게음식 - 일반한식","category":"restaurant"},{"name":"야식포차","tel":"031-771-6869","addr":"경기도 양평군 양평읍 양근리 306-3번지 1층","indutype":"일반휴게음식 - 일반한식","category":"restaurant"},{"name":"중앙정육점식당","tel":"031-771-2838","addr":"경기도 양평군 양평읍 양근리 306-3번지","indutype":"일반휴게음식 - 일반한식","category":"restaurant"}]},{"lat":"37.490719308","long":"127.49169935","imageIndex":4,"items":[{"name":"양평38닭강정","tel":"031-774-5008","addr":"경기도 양평군 양평읍 양근리 409-1번지 1층","indutype":"일반휴게음식 - 일반한식","category":"restaurant"}]},{"lat":"37.490972647","long":"127.48925862","imageIndex":4,"items":[{"name":"양평갈매기집","tel":"031-771-6100","addr":"경기도 양평군 양평읍 양근리 422-18번지","indutype":"일반휴게음식 - 일반한식","category":"restaurant"}]},{"lat":"37.48811147","long":"127.49048383","imageIndex":4,"items":[{"name":"양평경찰서복지위원회","tel":"031-770-9394","addr":"경기도 양평군 양평읍 양근리 280번지 양평경찰서 구내식당","indutype":"일반휴게음식 - 위탁급식업","category":"restaurant"}]},{"lat":"37.490304959","long":"127.49167404","imageIndex":4,"items":[{"name":"양평김밥","tel":"031-771-0109","addr":"경기도 양평군 양평읍 양근리 357-1번지","indutype":"일반휴게음식 - 스넥","category":"restaurant"}]},{"lat":"37.490167436","long":"127.49006752","imageIndex":4,"items":[{"name":"양평냉삼1977","tel":"","addr":"경기도 양평군 양평읍 양근리 414-3번지 1층","indutype":"일반휴게음식 - 일반한식","category":"restaurant"},{"name":"화닭","tel":"031-773-9492","addr":"경기도 양평군 양평읍 양근리 414-3번지","indutype":"일반휴게음식 - 일반한식","category":"restaurant"}]},{"lat":"37.487112742","long":"127.49450254","imageIndex":4,"items":[{"name":"양평도서관가는길","tel":"031-772-8595","addr":"경기도 양평군 양평읍 양근리 192-129번지 1층","indutype":"일반휴게음식 - 일반한식","category":"restaurant"}]},{"lat":"37.495825306","long":"127.48795573","imageIndex":4,"items":[{"name":"양평돈사돈","tel":"031-775-9545","addr":"경기도 양평군 양평읍 양근리 98-16번지","indutype":"일반휴게음식 - 일반한식","category":"restaurant"},{"name":"양평돈사돈","tel":"031-775-9545","addr":"경기도 양평군 양평읍 양근리 98-16번지","indutype":"일반휴게음식 - 일반한식","category":"restaurant"}]},{"lat":"37.496853145","long":"127.48778145","imageIndex":4,"items":[{"name":"양평마유산갈비","tel":"031-775-6664","addr":"경기도 양평군 양평읍 양근리 95-2번지","indutype":"일반휴게음식 - 일반한식","category":"restaurant"}]},{"lat":"37.49011156","long":"127.49050814","imageIndex":4,"items":[{"name":"양평매코미통닭발","tel":"031-775-1306","addr":"경기도 양평군 양평읍 양근리 413-3번지","indutype":"일반휴게음식 - 일반한식","category":"restaurant"}]},{"lat":"37.489938109","long":"127.49323204","imageIndex":4,"items":[{"name":"양평명품한우","tel":"031-775-6282","addr":"경기도 양평군 양평읍 양근리 167-6번지","indutype":"일반휴게음식 - 일반한식","category":"restaurant"}]},{"lat":"37.49247345","long":"127.4880019","imageIndex":4,"items":[{"name":"양평소곱창","tel":"031-775-3548","addr":"경기도 양평군 양평읍 양근리 396-17번지","indutype":"일반휴게음식 - 일반한식","category":"restaurant"}]},{"lat":"37.490803511","long":"127.48876","imageIndex":4,"items":[{"name":"양평콩나물밥","tel":"031-773-0390","addr":"경기도 양평군 양평읍 양근리 424-3번지","indutype":"일반휴게음식 - 일반한식","category":"restaurant"}]},{"lat":"37.488160389","long":"127.49172791","imageIndex":4,"items":[{"name":"어가별미","tel":"031-771-7379","addr":"경기도 양평군 양평읍 양근리 283번지","indutype":"일반휴게음식 - 일반한식","category":"restaurant"}]},{"lat":"37.49632873","long":"127.48823039","imageIndex":4,"items":[{"name":"어무이맛양평해장국","tel":"031-772-5557","addr":"경기도 양평군 양평읍 양근리 100-8번지 1층","indutype":"일반휴게음식 - 일반한식","category":"restaurant"}]},{"lat":"37.490524648","long":"127.49083873","imageIndex":4,"items":[{"name":"어울림호프 (카페)","tel":"031-771-2629","addr":"경기도 양평군 양평읍 양근리 410-6번지 2층","indutype":"일반휴게음식 - 주점","category":"restaurant"}]},{"lat":"37.490584753","long":"127.49589347","imageIndex":4,"items":[{"name":"언니닭발","tel":"031-772-5790","addr":"경기도 양평군 양평읍 양근리 176-8번지 1호","indutype":"일반휴게음식 - 일반한식","category":"restaurant"}]},{"lat":"37.491193414","long":"127.49034556","imageIndex":4,"items":[{"name":"엉클존스","tel":"","addr":"경기도 양평군 양평읍 양근리 404-10번지 1층","indutype":"일반휴게음식 - 서양음식","category":"restaurant"},{"name":"푸줏간뒷고기","tel":"070-7781-4272","addr":"경기도 양평군 양평읍 양근리 404-10번지","indutype":"일반휴게음식 - 일반한식","category":"restaurant"}]},{"lat":"37.490081542","long":"127.4912316","imageIndex":4,"items":[{"name":"에이엔티 193","tel":"031-771-1734","addr":"경기도 양평군 양평읍 양근리 410-27번지","indutype":"일반휴게음식 - 서양음식","category":"restaurant"}]},{"lat":"37.489500903","long":"127.49220023","imageIndex":4,"items":[{"name":"연지네불고기","tel":"031-775-5737","addr":"경기도 양평군 양평읍 양근리 354-3번지","indutype":"일반휴게음식 - 일반한식","category":"restaurant"}]},{"lat":"37.490437949","long":"127.49436603","imageIndex":4,"items":[{"name":"예지현","tel":"031-773-0988","addr":"경기도 양평군 양평읍 양근리 169-8번지 1층","indutype":"일반휴게음식 - 일반한식","category":"restaurant"},{"name":"케이팝","tel":"031-775-7087","addr":"경기도 양평군 양평읍 양근리 169-8번지 지하1층","indutype":"일반휴게음식 - 주점","category":"restaurant"},{"name":"하루","tel":"031-775-6966","addr":"경기도 양평군 양평읍 양근리 169-8","indutype":"일반휴게음식 - 일반한식","category":"restaurant"}]},{"lat":"37.487744776","long":"127.49200787","imageIndex":4,"items":[{"name":"옛날잔치국수","tel":"031-774-2075","addr":"경기도 양평군 양평읍 양근리 262-1","indutype":"일반휴게음식 - 일반한식","category":"restaurant"},{"name":"조반식당","tel":"","addr":"경기도 양평군 양평읍 양근리 262-1번지 1층","indutype":"일반휴게음식 - 일반한식","category":"restaurant"}]},{"lat":"37.491329864","long":"127.49002984","imageIndex":4,"items":[{"name":"옛날통닭","tel":"031-774-0511","addr":"경기도 양평군 양평읍 양근리 403-6번지","indutype":"일반휴게음식 - 스넥","category":"restaurant"}]},{"lat":"37.490439167","long":"127.49190106","imageIndex":4,"items":[{"name":"오늘도떡볶이","tel":"031-772-3300","addr":"경기도 양평군 양평읍 양근리 358-1번지 2층","indutype":"일반휴게음식 - 일반한식","category":"restaurant"}]},{"lat":"37.489915307","long":"127.49003196","imageIndex":4,"items":[{"name":"오늘한판","tel":"031-771-9918","addr":"경기도 양평군 양평읍 양근리 346-3번지 1층","indutype":"일반휴게음식 - 일반한식","category":"restaurant"}]},{"lat":"37.492778368","long":"127.48614943","imageIndex":4,"items":[{"name":"오미가","tel":"031-771-2334","addr":"경기도 양평군 양평읍 양근리 450-9번지 1층","indutype":"일반휴게음식 - 스넥","category":"restaurant"}]},{"lat":"37.490744839","long":"127.49206135","imageIndex":4,"items":[{"name":"오일장순대국","tel":"031-775-5050","addr":"경기도 양평군 양평읍 양근리 361-10번지","indutype":"일반휴게음식 - 일반한식","category":"restaurant"}]},{"lat":"37.489882395","long":"127.49145645","imageIndex":4,"items":[{"name":"오투닭갈비부대찌개","tel":"031-774-0205","addr":"경기도 양평군 양평읍 양근리 352-3번지 1층","indutype":"일반휴게음식 - 일반한식","category":"restaurant"},{"name":"주만금호프","tel":"031-771-5788","addr":"경기도 양평군 양평읍 양근리 352-3번지 2층","indutype":"일반휴게음식 - 주점","category":"restaurant"}]},{"lat":"37.489609253","long":"127.4921444","imageIndex":4,"items":[{"name":"옥이네양꼬치","tel":"031-773-0227","addr":"경기도 양평군 양평읍 양근리 353-4번지","indutype":"일반휴게음식 - 일반한식","category":"restaurant"},{"name":"풍년야식","tel":"031-771-3523","addr":"경기도 양평군 양평읍 양근리 353-4","indutype":"일반휴게음식 - 일반한식","category":"restaurant"}]},{"lat":"37.48785509","long":"127.49147717","imageIndex":4,"items":[{"name":"우동전문점","tel":"031-771-0052","addr":"경기도 양평군 양평읍 양근리 269-13","indutype":"일반휴게음식 - 스넥","category":"restaurant"}]},{"lat":"37.490856509","long":"127.49120272","imageIndex":4,"items":[{"name":"우드스탁","tel":"031-775-7665","addr":"경기도 양평군 양평읍 양근리 406-1번지 2층","indutype":"일반휴게음식 - 일반한식","category":"restaurant"},{"name":"카페멜","tel":"031-772-6000","addr":"경기도 양평군 양평읍 양근리 406-1번지","indutype":"일반휴게음식 - 서양음식","category":"restaurant"}]},{"lat":"37.490445709","long":"127.49031808","imageIndex":4,"items":[{"name":"우리한잔할래","tel":"","addr":"경기도 양평군 양평읍 양근리 411-10번지 1층","indutype":"일반휴게음식 - 주점","category":"restaurant"},{"name":"전곱 양평점","tel":"031-774-9292","addr":"경기도 양평군 양평읍 양근리 411-10번지 1층","indutype":"일반휴게음식 - 일반한식","category":"restaurant"}]},{"lat":"37.49030163","long":"127.4968075","imageIndex":4,"items":[{"name":"육감만족경기양평점","tel":"031-772-9212","addr":"경기도 양평군 양평읍 양근리 184-7번지 1층","indutype":"일반휴게음식 - 일반한식","category":"restaurant"}]},{"lat":"37.491439516","long":"127.49183973","imageIndex":4,"items":[{"name":"윤정쭈꾸미","tel":"031-771-2048","addr":"경기도 양평군 양평읍 양근리 363번지","indutype":"일반휴게음식 - 일반한식","category":"restaurant"}]},{"lat":"37.487326933","long":"127.49064833","imageIndex":4,"items":[{"name":"이도갈비&이어도활어회","tel":"031-775-8488","addr":"경기도 양평군 양평읍 양근리 274-5번지 1층","indutype":"일반휴게음식 - 일반한식","category":"restaurant"}]},{"lat":"37.488638133","long":"127.49167448","imageIndex":4,"items":[{"name":"이디야 양평점","tel":"031-773-5073","addr":"경기도 양평군 양평읍 양근리 293-2번지 1층","indutype":"일반휴게음식 - 서양음식","category":"restaurant"},{"name":"피자메카","tel":"031-771-8823","addr":"경기도 양평군 양평읍 양근리 293-2번지 2층","indutype":"일반휴게음식 - 서양음식","category":"restaurant"}]},{"lat":"37.491024329","long":"127.48983563","imageIndex":4,"items":[{"name":"이즈모","tel":"031-774-2056","addr":"경기도 양평군 양평읍 양근리 422-15번지 1-2층","indutype":"일반휴게음식 - 일식·회집","category":"restaurant"}]},{"lat":"37.490109505","long":"127.49100564","imageIndex":4,"items":[{"name":"이층밥상","tel":"031-774-2784","addr":"경기도 양평군 양평읍 양근리 410-11번지 1층","indutype":"일반휴게음식 - 일반한식","category":"restaurant"}]},{"lat":"37.487942192","long":"127.49220137","imageIndex":4,"items":[{"name":"인사동청국장","tel":"031-773-8608","addr":"경기도 양평군 양평읍 양근리 295-1번지","indutype":"일반휴게음식 - 일반한식","category":"restaurant"}]},{"lat":"37.488773651","long":"127.49158491","imageIndex":4,"items":[{"name":"인화반점","tel":"031-771-2424","addr":"경기도 양평군 양평읍 양근리 292-6번지","indutype":"일반휴게음식 - 일반한식","category":"restaurant"},{"name":"인화반점","tel":"031-771-2069","addr":"경기도 양평군 양평읍 양근리 292-6번지","indutype":"일반휴게음식 - 중국식","category":"restaurant"}]},{"lat":"37.490493599","long":"127.49181095","imageIndex":4,"items":[{"name":"임실치즈스낵","tel":"031-699-3649","addr":"경기도 양평군 양평읍 양근리 358-10번지 1층 2호","indutype":"일반휴게음식 - 서양음식","category":"restaurant"}]},{"lat":"37.489160457","long":"127.49173442","imageIndex":4,"items":[{"name":"잔비어스","tel":"031-775-9322","addr":"경기도 양평군 양평읍 양근리 304-4번지 2층","indutype":"일반휴게음식 - 주점","category":"restaurant"},{"name":"평북식당","tel":"031-771-3629","addr":"경기도 양평군 양평읍 양근리 304-4","indutype":"일반휴게음식 - 일반한식","category":"restaurant"},{"name":"평북식당","tel":"031-771-3629","addr":"경기도 양평군 양평읍 양근리 304-4번지","indutype":"일반휴게음식 - 일반한식","category":"restaurant"}]},{"lat":"37.489411743","long":"127.49197351","imageIndex":4,"items":[{"name":"장수돌구이","tel":"031-771-9289","addr":"경기도 양평군 양평읍 양근리 304-6번지 1층","indutype":"일반휴게음식 - 일반한식","category":"restaurant"}]},{"lat":"37.486692599","long":"127.4958679","imageIndex":4,"items":[{"name":"장수흑돼지","tel":"031-772-5285","addr":"경기도 양평군 양평읍 양근리 192-120번지","indutype":"일반휴게음식 - 일반한식","category":"restaurant"}]},{"lat":"37.49093797","long":"127.4911128","imageIndex":4,"items":[{"name":"장호덕 손만두","tel":"070-895-9347","addr":"경기도 양평군 양평읍 양근리 406-3번지","indutype":"일반휴게음식 - 일반한식","category":"restaurant"}]},{"lat":"37.489554456","long":"127.49014269","imageIndex":4,"items":[{"name":"정가네","tel":"031-000-0000","addr":"경기도 양평군 양평읍 양근리 342-2번지","indutype":"일반휴게음식 - 일반한식","category":"restaurant"}]},{"lat":"37.489940957","long":"127.48817775","imageIndex":4,"items":[{"name":"정찬","tel":"031-5176-9996","addr":"경기도 양평군 양평읍 양근리 435-15번지 1층","indutype":"일반휴게음식 - 일식·회집","category":"restaurant"}]},{"lat":"37.488778822","long":"127.49251212","imageIndex":4,"items":[{"name":"조르쥬상드","tel":"031-771-2271","addr":"경기도 양평군 양평읍 양근리 299-8번지 2층","indutype":"일반휴게음식 - 서양음식","category":"restaurant"}]},{"lat":"37.493193895","long":"127.48808572","imageIndex":4,"items":[{"name":"조몰락조몰락","tel":"","addr":"경기도 양평군 양평읍 양근리 393-22번지 3층 301호","indutype":"일반휴게음식 - 스넥","category":"restaurant"}]},{"lat":"37.490578735","long":"127.48864547","imageIndex":4,"items":[{"name":"종현네","tel":"031-772-0386","addr":"경기도 양평군 양평읍 양근리 443-2번지","indutype":"일반휴게음식 - 일반한식","category":"restaurant"}]},{"lat":"37.49108146","long":"127.48908971","imageIndex":4,"items":[{"name":"좋은친구","tel":"031-774-4121","addr":"경기도 양평군 양평읍 양근리 422-2번지 태강빌딩 2층 201호","indutype":"일반휴게음식 - 일반한식","category":"restaurant"},{"name":"하프문","tel":"031-775-6668","addr":"경기도 양평군 양평읍 양근리 422-2번지 2층","indutype":"일반휴게음식 - 일반한식","category":"restaurant"}]},{"lat":"37.487607572","long":"127.49250447","imageIndex":4,"items":[{"name":"주막집","tel":"031-771-7792","addr":"경기도 양평군 양평읍 양근리 229-1번지","indutype":"일반휴게음식 - 일반한식","category":"restaurant"}]},{"lat":"37.488938675","long":"127.49089626","imageIndex":4,"items":[{"name":"주막집밥상","tel":"031-775-6611","addr":"경기도 양평군 양평읍 양근리 287-1번지 1층","indutype":"일반휴게음식 - 일반한식","category":"restaurant"}]},{"lat":"37.493299097","long":"127.49098116","imageIndex":4,"items":[{"name":"주식회사 양평역까페","tel":"031-771-5959","addr":"경기도 양평군 양평읍 양근리 130-37번지 1층","indutype":"일반휴게음식 - 서양음식","category":"restaurant"}]},{"lat":"37.48993935","long":"127.49075577","imageIndex":4,"items":[{"name":"주인장","tel":"031-1111-1111","addr":"경기도 양평군 양평읍 양근리 412-1번지","indutype":"일반휴게음식 - 일반한식","category":"restaurant"}]},{"lat":"37.490467722","long":"127.49587009","imageIndex":4,"items":[{"name":"죽이야기 양평점","tel":"031-772-6588","addr":"경기도 양평군 양평읍 양근리 176-14번지","indutype":"일반휴게음식 - 일반한식","category":"restaurant"}]},{"lat":"37.48797315","long":"127.4912518","imageIndex":4,"items":[{"name":"중화루","tel":"031-775-6623","addr":"경기도 양평군 양평읍 양근리 271-1번지","indutype":"일반휴게음식 - 중국식","category":"restaurant"},{"name":"중화루","tel":"031-775-6621","addr":"경기도 양평군 양평읍 양근리 271-1번지","indutype":"일반휴게음식 - 중국식","category":"restaurant"}]},{"lat":"37.490444939","long":"127.4883167","imageIndex":4,"items":[{"name":"진영관","tel":"031-774-8519","addr":"경기도 양평군 양평읍 양근리 442-4번지 외 1층","indutype":"일반휴게음식 - 중국식","category":"restaurant"}]},{"lat":"37.490746848","long":"127.48939284","imageIndex":4,"items":[{"name":"진이네부대찌개","tel":"","addr":"경기도 양평군 양평읍 양근리 420-6번지","indutype":"일반휴게음식 - 일반한식","category":"restaurant"},{"name":"캣츠","tel":"031-774-7887","addr":"경기도 양평군 양평읍 양근리 420-6번지 2층","indutype":"일반휴게음식 - 일반한식","category":"restaurant"}]},{"lat":"37.497968259","long":"127.48167082","imageIndex":4,"items":[{"name":"짬뽕의달인","tel":"031-771-6101","addr":"경기도 양평군 양평읍 양근리 504-9번지","indutype":"일반휴게음식 - 일반한식","category":"restaurant"}]},{"lat":"37.496578221","long":"127.49109297","imageIndex":4,"items":[{"name":"청정해","tel":"031-773-6767","addr":"경기도 양평군 양평읍 양근리 91-15번지","indutype":"일반휴게음식 - 일식·회집","category":"restaurant"}]},{"lat":"37.490773389","long":"127.4960304","imageIndex":4,"items":[{"name":"청춘포차","tel":"031-771-7725","addr":"경기도 양평군 양평읍 양근리 176-5번지 1층","indutype":"일반휴게음식 - 일반한식","category":"restaurant"}]},{"lat":"37.489194957","long":"127.48992552","imageIndex":4,"items":[{"name":"청해진","tel":"031-773-2597","addr":"경기도 양평군 양평읍 양근리 316-1번지 1층","indutype":"일반휴게음식 - 일반한식","category":"restaurant"}]},{"lat":"37.490944133","long":"127.49397359","imageIndex":4,"items":[{"name":"최동민 양푼갈비","tel":"031-775-6487","addr":"경기도 양평군 양평읍 양근리 170-28번지 1층","indutype":"일반휴게음식 - 일반한식","category":"restaurant"}]},{"lat":"37.491084038","long":"127.49065015","imageIndex":4,"items":[{"name":"춘천미정닭갈비양평본점","tel":"031-771-2963","addr":"경기도 양평군 양평읍 양근리 404-7번지","indutype":"일반휴게음식 - 일반한식","category":"restaurant"}]},{"lat":"37.488942869","long":"127.49206091","imageIndex":4,"items":[{"name":"치킨신드롬","tel":"031-772-9245","addr":"경기도 양평군 양평읍 양근리 302-8번지","indutype":"일반휴게음식 - 스넥","category":"restaurant"}]},{"lat":"37.490914256","long":"127.49030982","imageIndex":4,"items":[{"name":"칠공팔공","tel":"031-771-2694","addr":"경기도 양평군 양평읍 양근리 421-3번지","indutype":"일반휴게음식 - 일반한식","category":"restaurant"}]},{"lat":"37.490772903","long":"127.49398378","imageIndex":4,"items":[{"name":"카페비엣","tel":"031-773-4312","addr":"경기도 양평군 양평읍 양근리 168-1번지 1층","indutype":"일반휴게음식 - 서양음식","category":"restaurant"}]},{"lat":"37.492969211","long":"127.48794857","imageIndex":4,"items":[{"name":"카페카리스","tel":"","addr":"경기도 양평군 양평읍 양근리 393-24번지 1층","indutype":"일반휴게음식 - 서양음식","category":"restaurant"}]},{"lat":"37.494945051","long":"127.49167035","imageIndex":4,"items":[{"name":"카페파이 (CAFFE PIE)","tel":"031-774-8295","addr":"경기도 양평군 양평읍 양근리 139-15번지 1층 101호","indutype":"일반휴게음식 - 서양음식","category":"restaurant"}]},{"lat":"37.489136816","long":"127.49309112","imageIndex":4,"items":[{"name":"커피베이양평시내점","tel":"031-775-6688","addr":"경기도 양평군 양평읍 양근리 201-13번지","indutype":"일반휴게음식 - 서양음식","category":"restaurant"}]},{"lat":"37.493438408","long":"127.48778199","imageIndex":4,"items":[{"name":"커피앤쿡","tel":"031-1111-1111","addr":"경기도 양평군 양평읍 양근리 393-17번지","indutype":"일반휴게음식 - 서양음식","category":"restaurant"}]},{"lat":"37.490862715","long":"127.48969889","imageIndex":4,"items":[{"name":"커피에반하다","tel":"031-771-2999","addr":"경기도 양평군 양평읍 양근리 420-13번지 1층","indutype":"일반휴게음식 - 서양음식","category":"restaurant"}]},{"lat":"37.489191411","long":"127.49078483","imageIndex":4,"items":[{"name":"커피에반하다 양평삼거리점","tel":"","addr":"경기도 양평군 양평읍 양근리 310번지 1층 1호","indutype":"일반휴게음식 - 서양음식","category":"restaurant"}]},{"lat":"37.492411404","long":"127.48775274","imageIndex":4,"items":[{"name":"컵스앤컵스","tel":"031-773-6358","addr":"경기도 양평군 양평읍 양근리 396-19번지 101호","indutype":"일반휴게음식 - 스넥","category":"restaurant"}]},{"lat":"37.496078504","long":"127.48773121","imageIndex":4,"items":[{"name":"코너","tel":"","addr":"경기도 양평군 양평읍 양근리 100-12번지 1층","indutype":"일반휴게음식 - 서양음식","category":"restaurant"}]},{"lat":"37.489805872","long":"127.49253013","imageIndex":4,"items":[{"name":"코마 (COMA)","tel":"031-772-4644","addr":"경기도 양평군 양평읍 양근리 359-4번지 2층","indutype":"일반휴게음식 - 주점","category":"restaurant"}]},{"lat":"37.48794266","long":"127.49208831","imageIndex":4,"items":[{"name":"키친217","tel":"031-774-5212","addr":"경기도 양평군 양평읍 양근리 295-3번지","indutype":"일반휴게음식 - 서양음식","category":"restaurant"}]},{"lat":"37.489056594","long":"127.4907048","imageIndex":4,"items":[{"name":"토담카페","tel":"","addr":"경기도 양평군 양평읍 양근리 314-3번지","indutype":"일반휴게음식 - 일반한식","category":"restaurant"}]},{"lat":"37.498132402","long":"127.49000617","imageIndex":4,"items":[{"name":"트러스트커피 (TRUST COFFEE)","tel":"031-772-5347","addr":"경기도 양평군 양평읍 양근리 76-14번지","indutype":"일반휴게음식 - 서양음식","category":"restaurant"}]},{"lat":"37.497387641","long":"127.48486736","imageIndex":4,"items":[{"name":"평생학습쎈터 식당","tel":"031-774-2248","addr":"경기도 양평군 양평읍 양근리 542번지 평생학습센터 4층,5층","indutype":"일반휴게음식 - 일반한식","category":"restaurant"}]},{"lat":"37.487805877","long":"127.49248316","imageIndex":4,"items":[{"name":"평촌","tel":"031-774-0896","addr":"경기도 양평군 양평읍 양근리 297번지","indutype":"일반휴게음식 - 일반한식","category":"restaurant"}]},{"lat":"37.490330542","long":"127.48984243","imageIndex":4,"items":[{"name":"퓨전까페퀸","tel":"031-773-5624","addr":"경기도 양평군 양평읍 양근리 420-21번지","indutype":"일반휴게음식 - 서양음식","category":"restaurant"}]},{"lat":"37.49013233","long":"127.48984115","imageIndex":4,"items":[{"name":"피자스쿨","tel":"031-774-7757","addr":"경기도 양평군 양평읍 양근리 414-4번지","indutype":"일반휴게음식 - 서양음식","category":"restaurant"}]},{"lat":"37.489306341","long":"127.49131701","imageIndex":4,"items":[{"name":"피자에땅","tel":"031-774-8236","addr":"경기도 양평군 양평읍 양근리 309-5번지","indutype":"일반휴게음식 - 서양음식","category":"restaurant"}]},{"lat":"37.496994491","long":"127.48406195","imageIndex":4,"items":[{"name":"하바별시","tel":"031-773-8772","addr":"경기도 양평군 양평읍 양근리 543번지","indutype":"일반휴게음식 - 서양음식","category":"restaurant"}]},{"lat":"37.490889138","long":"127.48984606","imageIndex":4,"items":[{"name":"하와이옥카","tel":"031-771-2558","addr":"경기도 양평군 양평읍 양근리 420-14번지 1층","indutype":"일반휴게음식 - 서양음식","category":"restaurant"},{"name":"하와이옥카","tel":"","addr":"경기도 양평군 양평읍 양근리 420-14번지 1층","indutype":"일반휴게음식 - 일반한식","category":"restaurant"}]},{"lat":"37.489553696","long":"127.49250587","imageIndex":4,"items":[{"name":"한스델리 양평점","tel":"031-772-7677","addr":"경기도 양평군 양평읍 양근리 355-2번지 2층","indutype":"일반휴게음식 - 일반한식","category":"restaurant"}]},{"lat":"37.490022196","long":"127.49250893","imageIndex":4,"items":[{"name":"한옥숯불갈비","tel":"031-774-9957","addr":"경기도 양평군 양평읍 양근리 359-7번지","indutype":"일반휴게음식 - 일반한식","category":"restaurant"}]},{"lat":"37.491244331","long":"127.48892116","imageIndex":4,"items":[{"name":"함께라면","tel":"031-772-1221","addr":"경기도 양평군 양평읍 양근리 445-16번지","indutype":"일반휴게음식 - 일반한식","category":"restaurant"},{"name":"호이차경기양평점","tel":"","addr":"경기도 양평군 양평읍 양근리 445-16번지","indutype":"일반휴게음식 - 서양음식","category":"restaurant"},{"name":"황금반점","tel":"031-775-9235","addr":"경기도 양평군 양평읍 양근리 445-16번지 지하1층","indutype":"일반휴게음식 - 일반한식","category":"restaurant"}]},{"lat":"37.487248873","long":"127.49209509","imageIndex":4,"items":[{"name":"함지박추어탕전문","tel":"031-771-1888","addr":"경기도 양평군 양평읍 양근리 264-1번지","indutype":"일반휴게음식 - 일반한식","category":"restaurant"}]},{"lat":"37.490219752","long":"127.49266852","imageIndex":4,"items":[{"name":"항방양육관양평점","tel":"031-774-0720","addr":"경기도 양평군 양평읍 양근리 167-25번지 1층","indutype":"일반휴게음식 - 일반한식","category":"restaurant"}]},{"lat":"37.490689808","long":"127.49011614","imageIndex":4,"items":[{"name":"해순이네","tel":"031-775-8889","addr":"경기도 양평군 양평읍 양근리 411-3번지","indutype":"일반휴게음식 - 일반한식","category":"restaurant"}]},{"lat":"37.489806665","long":"127.49450889","imageIndex":4,"items":[{"name":"행복분식","tel":"031-771-6502","addr":"경기도 양평군 양평읍 양근리 195-6번지 1층","indutype":"일반휴게음식 - 일반한식","category":"restaurant"}]},{"lat":"37.487944626","long":"127.49161343","imageIndex":4,"items":[{"name":"호야옛날통닭양평점","tel":"031-775-9965","addr":"경기도 양평군 양평읍 양근리 269-1번지","indutype":"일반휴게음식 - 일반한식","category":"restaurant"}]},{"lat":"37.498882109","long":"127.49172994","imageIndex":4,"items":[{"name":"홍가네바지락칼국수","tel":"031-773-9717","addr":"경기도 양평군 양평읍 양근리 50","indutype":"일반휴게음식 - 일반한식","category":"restaurant"}]},{"lat":"37.488050595","long":"127.48995201","imageIndex":4,"items":[{"name":"화랑","tel":"031-774-2944","addr":"경기도 양평군 양평읍 양근리 278번지 2층","indutype":"일반휴게음식 - 일반한식","category":"restaurant"}]},{"lat":"37.492137679","long":"127.48858772","imageIndex":4,"items":[{"name":"화천갈비","tel":"031-771-2487","addr":"경기도 양평군 양평읍 양근리 397-15번지","indutype":"일반휴게음식 - 일반한식","category":"restaurant"}]},{"lat":"37.492048233","long":"127.48842884","imageIndex":4,"items":[{"name":"화천갈비(주)재선","tel":"031-771-2487","addr":"경기도 양평군 양평읍 양근리 397-6번지","indutype":"일반휴게음식 - 일반한식","category":"restaurant"}]},{"lat":"37.490579266","long":"127.4907034","imageIndex":4,"items":[{"name":"훠궈양꼬치","tel":"031-8488-1341","addr":"경기도 양평군 양평읍 양근리 410-24번지 2층","indutype":"일반휴게음식 - 중국식","category":"restaurant"},{"name":"훠궈양꼬치","tel":"032-767-3487","addr":"경기도 양평군 양평읍 양근리 410-24번지 2층","indutype":"일반휴게음식 - 중국식","category":"restaurant"}]},{"lat":"37.489884031","long":"127.49106071","imageIndex":4,"items":[{"name":"힘찬갯벌낙지","tel":"031-771-4733","addr":"경기도 양평군 양평읍 양근리 351-8번지","indutype":"일반휴게음식 - 일반한식","category":"restaurant"}]}]