[{"lat":"37.527651362","long":"127.21014681","imageIndex":7,"items":[{"name":"(주)교산축산","tel":"031-794-6464","addr":"경기도 하남시 교산동 7-6번지","indutype":"음료식품 - 정육점","category":"food"},{"name":"고골떳방앗간","tel":"031-793-2954","addr":"경기도 하남시 교산동 7-6번지 102,103호","indutype":"음료식품 - 기타음료식품","category":"food"},{"name":"교산축산","tel":"031-794-6464","addr":"경기도 하남시 교산동 7-6번지","indutype":"음료식품 - 정육점","category":"food"}]},{"lat":"37.520740881","long":"127.20489028","imageIndex":7,"items":[{"name":"(주)태인유통","tel":"031-795-5759","addr":"경기도 하남시 교산동 87-7번지","indutype":"음료식품 - 기타음료식품","category":"food"}]},{"lat":"37.52182154","long":"127.20519862","imageIndex":7,"items":[{"name":"(주)하림종합축산물유통센터","tel":"031-796-7141","addr":"경기도 하남시 교산동 110-2번지","indutype":"음료식품 - 정육점","category":"food"}]},{"lat":"37.519712227","long":"127.20578114","imageIndex":7,"items":[{"name":"고래식품","tel":"070-0000-0000","addr":"경기도 하남시 교산동 88-8번지 나동","indutype":"음료식품 - 기타음료식품","category":"food"},{"name":"농업회사법인 고래식품주식회사","tel":"031-796-1967","addr":"경기도 하남시 교산동 88-8번지 가동,나동","indutype":"음료식품 - 정육점","category":"food"}]},{"lat":"37.528207005","long":"127.20667524","imageIndex":7,"items":[{"name":"누리상사","tel":"031-795-7520","addr":"경기도 하남시 교산동 170-2번지","indutype":"음료식품 - 기타음료식품","category":"food"},{"name":"서광유통","tel":"031-794-1577","addr":"경기도 하남시 교산동 170-2번지 1층","indutype":"음료식품 - 기타음료식품","category":"food"}]},{"lat":"37.522794932","long":"127.20500894","imageIndex":7,"items":[{"name":"대광식품","tel":"031-794-8845","addr":"경기도 하남시 교산동 113-1번지","indutype":"음료식품 - 기타음료식품","category":"food"}]},{"lat":"37.524491192","long":"127.19822603","imageIndex":7,"items":[{"name":"대원정육점","tel":"031-792-7006","addr":"경기도 하남시 교산동 219-2번지","indutype":"음료식품 - 정육점","category":"food"}]},{"lat":"37.521903383","long":"127.20475767","imageIndex":7,"items":[{"name":"샘재축산수입축산물전문판매점","tel":"031-796-0092","addr":"경기도 하남시 교산동 114-7번지 1층","indutype":"음료식품 - 정육점","category":"food"}]},{"lat":"37.527790674","long":"127.20776016","imageIndex":7,"items":[{"name":"주시회사 비트윈푸드","tel":"031-795-1999","addr":"경기도 하남시 교산동 11-2번지","indutype":"음료식품 - 기타음료식품","category":"food"}]},{"lat":"37.527322141","long":"127.20250969","imageIndex":7,"items":[{"name":"주식회사 한일에프엔에스","tel":"070-4143-1300","addr":"경기도 하남시 교산동 195-4번지","indutype":"음료식품 - 정육점","category":"food"}]},{"lat":"37.51993361","long":"127.19736576","imageIndex":7,"items":[{"name":"천희정육점","tel":"02-476-5949","addr":"경기도 하남시 교산동 293-4번지","indutype":"음료식품 - 정육점","category":"food"}]},{"lat":"37.525069842","long":"127.20767353","imageIndex":7,"items":[{"name":"하빈미트","tel":"070-4220-1314","addr":"경기도 하남시 교산동 160-1번지 1층","indutype":"음료식품 - 정육점","category":"food"}]},{"lat":"37.523851399","long":"127.19828092","imageIndex":7,"items":[{"name":"황굼벵이","tel":"","addr":"경기도 하남시 교산동 220-1번지","indutype":"음료식품 - 기타음료식품","category":"food"}]}]