[{"lat":"37.892221365","long":"127.09036272","imageIndex":17,"items":[{"name":"가야상회","tel":"031-836-0031","addr":"경기도 동두천시 광암동 170-3 2","indutype":"건축자재 - 목재·석재·철물","category":"other"},{"name":"세븐일레븐동두천광암점","tel":"031-1577-0711","addr":"경기도 동두천시 광암동 170-3번지 1호","indutype":"유통업 영리 - 편 의 점","category":"other"},{"name":"입혀입혀","tel":"070-2699-0807","addr":"경기도 동두천시 광암동 170-3번지","indutype":"의류 - 내의판매","category":"other"}]},{"lat":"37.895829336","long":"127.08445506","imageIndex":17,"items":[{"name":"극단 피사체","tel":"","addr":"경기도 동두천시 광암동 494-74번지","indutype":"문화.취미 - 티켓","category":"other"}]},{"lat":"37.892104648","long":"127.08981689","imageIndex":17,"items":[{"name":"방범창방충망","tel":"031-123-4567","addr":"경기도 동두천시 광암동 174-7번지","indutype":"건축자재 - 기타건축자재","category":"other"}]},{"lat":"37.894775935","long":"127.08345344","imageIndex":17,"items":[{"name":"삼거리상회","tel":"031-867-8454","addr":"경기도 동두천시 광암동 496","indutype":"신변잡화 - 기타잡화","category":"other"}]},{"lat":"37.897658744","long":"127.08370671","imageIndex":17,"items":[{"name":"주식회사 서북환경산업","tel":"031-863-3448","addr":"경기도 동두천시 광암동 487-15","indutype":"용역 서비스 - 종합용역","category":"other"}]},{"lat":"37.90399525","long":"127.11333336","imageIndex":17,"items":[{"name":"호림공방","tel":"031-868-1100","addr":"경기도 동두천시 광암동 23번지","indutype":"문화.취미 - 문화취미기타","category":"other"}]},{"lat":"37.899471275","long":"127.08125284","imageIndex":17,"items":[{"name":"호비카츄샤편의점","tel":"031-869-5636","addr":"경기도 동두천시 광암동 469 미군부대내","indutype":"유통업 영리 - 편 의 점","category":"other"}]},{"lat":"37.908601848","long":"127.11025869","imageIndex":4,"items":[{"name":"감성주의","tel":"070-4652-2275","addr":"경기도 동두천시 광암동 51번지","indutype":"일반휴게음식 - 일반한식","category":"restaurant"}]},{"lat":"37.896244243","long":"127.083762","imageIndex":4,"items":[{"name":"경원식당","tel":"031-821-1911","addr":"경기도 동두천시 광암동 487-36번지","indutype":"일반휴게음식 - 일반한식","category":"restaurant"}]},{"lat":"37.896109033","long":"127.08386418","imageIndex":4,"items":[{"name":"꾸어스","tel":"070-7529-8843","addr":"경기도 동두천시 광암동 486-21번지 1층","indutype":"일반휴게음식 - 스넥","category":"restaurant"}]},{"lat":"37.89536126","long":"127.08386336","imageIndex":4,"items":[{"name":"또래또래","tel":"031-865-3318","addr":"경기도 동두천시 광암동 494-32번지 1,2층","indutype":"일반휴게음식 - 스넥","category":"restaurant"}]},{"lat":"37.892357444","long":"127.0890896","imageIndex":4,"items":[{"name":"라르고경양식","tel":"031-868-1433","addr":"경기도 동두천시 광암동 175-11번지","indutype":"일반휴게음식 - 서양음식","category":"restaurant"}]},{"lat":"37.908407595","long":"127.10583508","imageIndex":4,"items":[{"name":"모닥불","tel":"031-867-2275","addr":"경기도 동두천시 광암동 67번지 1층","indutype":"일반휴게음식 - 일반한식","category":"restaurant"}]},{"lat":"37.908879399","long":"127.11214669","imageIndex":4,"items":[{"name":"사랑방농원","tel":"031-867-3992","addr":"경기도 동두천시 광암동 48-2번지","indutype":"일반휴게음식 - 일반한식","category":"restaurant"}]},{"lat":"37.906240805","long":"127.10061292","imageIndex":4,"items":[{"name":"산골메기탕","tel":"070-7715-9290","addr":"경기도 동두천시 광암동 86","indutype":"일반휴게음식 - 일반한식","category":"restaurant"}]},{"lat":"37.909491469","long":"127.11275027","imageIndex":4,"items":[{"name":"산속비버스","tel":"031-867-0005","addr":"경기도 동두천시 광암동 56-2번지","indutype":"일반휴게음식 - 일반한식","category":"restaurant"}]},{"lat":"37.905638139","long":"127.09945232","imageIndex":4,"items":[{"name":"산촌농원","tel":"031-868-0546","addr":"경기도 동두천시 광암동 83-1번지","indutype":"일반휴게음식 - 일반한식","category":"restaurant"}]},{"lat":"37.895440926","long":"127.0858985","imageIndex":4,"items":[{"name":"삼원식당","tel":"031-857-0123","addr":"경기도 동두천시 광암동 198-12번지","indutype":"일반휴게음식 - 일반한식","category":"restaurant"}]},{"lat":"37.893992974","long":"127.08220202","imageIndex":4,"items":[{"name":"손칼국수","tel":"031-867-2059","addr":"경기도 동두천시 광암동 519번지","indutype":"일반휴게음식 - 일반한식","category":"restaurant"}]},{"lat":"37.898297444","long":"127.08509448","imageIndex":4,"items":[{"name":"쇠목길54","tel":"031-866-5250","addr":"경기도 동두천시 광암동 449번지 1층","indutype":"일반휴게음식 - 일반한식","category":"restaurant"}]},{"lat":"37.895325488","long":"127.08347677","imageIndex":4,"items":[{"name":"실비촌","tel":"031-867-8429","addr":"경기도 동두천시 광암동 485-12번지 1층","indutype":"일반휴게음식 - 일반한식","category":"restaurant"}]},{"lat":"37.893966396","long":"127.08153123","imageIndex":4,"items":[{"name":"약수산장","tel":"031-867-3341","addr":"경기도 동두천시 광암동 520-3번지","indutype":"일반휴게음식 - 일반한식","category":"restaurant"}]},{"lat":"37.895685915","long":"127.08339758","imageIndex":4,"items":[{"name":"일미정","tel":"031-858-0406","addr":"경기도 동두천시 광암동 485-15번지","indutype":"일반휴게음식 - 일반한식","category":"restaurant"}]},{"lat":"37.894935913","long":"127.08659144","imageIndex":4,"items":[{"name":"초롱이네","tel":"031-858-3131","addr":"경기도 동두천시 광암동 193-36번지","indutype":"일반휴게음식 - 일반한식","category":"restaurant"}]},{"lat":"37.892249191","long":"127.08928274","imageIndex":4,"items":[{"name":"피자 아리오소","tel":"031-867-2212","addr":"경기도 동두천시 광암동 175-5번지","indutype":"일반휴게음식 - 서양음식","category":"restaurant"}]},{"lat":"37.89574898","long":"127.08339765","imageIndex":4,"items":[{"name":"형제관","tel":"031-867-7614","addr":"경기도 동두천시 광암동 485-3번지 1층","indutype":"일반휴게음식 - 중국식","category":"restaurant"}]},{"lat":"37.895550798","long":"127.08336333","imageIndex":7,"items":[{"name":"광암마트","tel":"031-867-6951","addr":"경기도 동두천시 광암동 485-8번지","indutype":"유통업 영리 - 슈퍼마켓","category":"mart"}]},{"lat":"37.895997655","long":"127.08847991","imageIndex":16,"items":[{"name":"광암어린이집[아이행복]","tel":"031-867-3113","addr":"경기도 동두천시 광암동 218-8번지","indutype":"학원 - 유아원","category":"study"},{"name":"광암어린이집[아이행복]","tel":"031-867-3113","addr":"경기도 동두천시 광암동 218-8번지","indutype":"학원 - 유아원","category":"study"}]},{"lat":"37.912047211","long":"127.11581302","imageIndex":16,"items":[{"name":"두레자연마을농업회사법인유한회사","tel":"031-859-6200","addr":"경기도 동두천시 광암동 10-2번지","indutype":"학원 - 기타 교육기관","category":"study"}]},{"lat":"37.893662381","long":"127.09100107","imageIndex":16,"items":[{"name":"생연 어린이집[아이행복]","tel":"031-868-8973","addr":"경기도 동두천시 광암동 155-1번지","indutype":"학원 - 유아원","category":"study"},{"name":"생연어린이집","tel":"031-867-8973","addr":"경기도 동두천시 광암동 155-1번지","indutype":"학원 - 유아원","category":"study"}]},{"lat":"37.911605439","long":"127.11614212","imageIndex":16,"items":[{"name":"재단법인 두레문화마을","tel":"031-866-3434","addr":"경기도 동두천시 광암동 10번지","indutype":"학원 - 기타 교육기관","category":"study"}]},{"lat":"37.89429731","long":"127.08509003","imageIndex":16,"items":[{"name":"턱거리사람들협동조합","tel":"031-867-1030","addr":"경기도 동두천시 광암동 510-10번지","indutype":"학원 - 기타 교육기관","category":"study"}]},{"lat":"37.894935913","long":"127.08659144","imageIndex":9,"items":[{"name":"광암에너지","tel":"031-000-0000","addr":"경기도 동두천시 광암동 193-36번지","indutype":"연료판매점 - 유류판매","category":"oil"}]},{"lat":"37.912047211","long":"127.11581302","imageIndex":7,"items":[{"name":"두레자연마을농업회사법인유한회사","tel":"031-859-6200","addr":"경기도 동두천시 광암동 10-2번지","indutype":"음료식품 - 농·축·수산품","category":"food"}]},{"lat":"37.905135353","long":"127.09731401","imageIndex":7,"items":[{"name":"산들바람","tel":"031-862-2100","addr":"경기도 동두천시 광암동 103-1번지 1층","indutype":"음료식품 - 기타음료식품","category":"food"}]},{"lat":"37.89536097","long":"127.08428401","imageIndex":7,"items":[{"name":"월성상회","tel":"031-867-2098","addr":"경기도 동두천시 광암동 494-26번지","indutype":"음료식품 - 미곡상","category":"food"}]},{"lat":"37.894884674","long":"127.08253267","imageIndex":7,"items":[{"name":"제일편의점","tel":"031-860-8888","addr":"경기도 동두천시 광암동 481-3번지","indutype":"음료식품 - 기타음료식품","category":"food"}]},{"lat":"37.895360409","long":"127.08509121","imageIndex":7,"items":[{"name":"턱거리구판장","tel":"031-867-6991","addr":"경기도 동두천시 광암동 494-57번지","indutype":"음료식품 - 기타음료식품","category":"food"}]},{"lat":"37.893194414","long":"127.09030702","imageIndex":13,"items":[{"name":"생명샘전인치유사역연구원","tel":"031-861-0955","addr":"경기도 동두천시 광암동 168번지","indutype":"보건위생 - 기타대인서비스","category":"beauty"}]},{"lat":"37.895631843","long":"127.08342026","imageIndex":13,"items":[{"name":"수지미용실","tel":"031-867-0411","addr":"경기도 동두천시 광암동 485-7번지 1층","indutype":"보건위생 - 미용원","category":"beauty"}]},{"lat":"37.896027058","long":"127.0851488","imageIndex":13,"items":[{"name":"신지미헤어라인","tel":"031-867-2951","addr":"경기도 동두천시 광암동 494-61번지","indutype":"보건위생 - 미용원","category":"beauty"}]},{"lat":"37.910412725","long":"127.11024995","imageIndex":13,"items":[{"name":"퍼품그라스","tel":"02-1111-1111","addr":"경기도 동두천시 광암동 65번지","indutype":"보건위생 - 화장품","category":"beauty"}]},{"lat":"37.897027787","long":"127.08414942","imageIndex":5,"items":[{"name":"진성여관","tel":"031-868-3288","addr":"경기도 동두천시 광암동 486-19번지","indutype":"숙박업 - 여관/기타숙박업","category":"hotel"}]},{"lat":"37.896019072","long":"127.08367081","imageIndex":5,"items":[{"name":"티에스모텔","tel":"031-868-2333","addr":"경기도 동두천시 광암동 485-24번지","indutype":"숙박업 - 콘도","category":"hotel"}]}]