[{"lat":"37.40522712","long":"127.2590871","imageIndex":7,"items":[{"name":"(주)엠엠엠트레이딩","tel":"070-4219-0063","addr":"경기도 광주시 역동 27-38번지","indutype":"음료식품 - 기타음료식품","category":"food"}]},{"lat":"37.40614555","long":"127.2593613","imageIndex":7,"items":[{"name":"(주)오닉스무역","tel":"031-767-6521","addr":"경기도 광주시 역동 27-98번지","indutype":"음료식품 - 기타음료식품","category":"food"}]},{"lat":"37.39294753","long":"127.2500902","imageIndex":7,"items":[{"name":"SY조아축산","tel":"031-766-8488","addr":"경기도 광주시 역동 216-57번지","indutype":"음료식품 - 농·축·수산품","category":"food"},{"name":"과일장터 광주역동점","tel":"031-764-7474","addr":"경기도 광주시 역동 216-57번지 1층 1호","indutype":"음료식품 - 농·축·수산품","category":"food"}]},{"lat":"37.40794346","long":"127.2570859","imageIndex":7,"items":[{"name":"경안축산도매센터","tel":"031-761-2178","addr":"경기도 광주시 역동 7-4번지","indutype":"음료식품 - 정육점","category":"food"},{"name":"김정문알로에 광주점","tel":"031-764-1991","addr":"경기도 광주시 역동 7-4번지 2층","indutype":"건강식품 - 기타건강식품","category":"food"}]},{"lat":"37.40619795","long":"127.2559505","imageIndex":7,"items":[{"name":"경희홍삼","tel":"031-764-3520","addr":"경기도 광주시 역동 2-7번지","indutype":"건강식품 - 홍삼제품","category":"food"}]},{"lat":"37.40647702","long":"127.2560644","imageIndex":7,"items":[{"name":"과일의숲","tel":"","addr":"경기도 광주시 역동 2-5번지 1층","indutype":"음료식품 - 농·축·수산품","category":"food"},{"name":"과일의숲","tel":"031-797-0831","addr":"경기도 광주시 역동 2-5번지 1층","indutype":"음료식품 - 농·축·수산품","category":"food"}]},{"lat":"37.39933691","long":"127.2537817","imageIndex":7,"items":[{"name":"광주역점(천운당)","tel":"031-768-9404","addr":"경기도 광주시 역동 (역동로 107, 1층)","indutype":"음료식품 - 기타음료식품","category":"food"}]},{"lat":"37.4029757","long":"127.2585825","imageIndex":7,"items":[{"name":"광주중앙고등학교매점","tel":"031-799-7306","addr":"경기도 광주시 역동 30-1번지 광주중앙고등학교","indutype":"음료식품 - 기타음료식품","category":"food"}]},{"lat":"37.40649242","long":"127.2572843","imageIndex":7,"items":[{"name":"광주청과","tel":"070-2560-0930","addr":"경기도 광주시 역동 역동로34번길 19-3, 나-102","indutype":"음료식품 - 농·축·수산품","category":"food"}]},{"lat":"37.40808191","long":"127.2597294","imageIndex":7,"items":[{"name":"녹산(한약)건강","tel":"031-764-6600","addr":"경기도 광주시 역동 23-35번지","indutype":"건강식품 - 기타건강식품","category":"food"}]},{"lat":"37.40763819","long":"127.2565879","imageIndex":7,"items":[{"name":"대영비니루","tel":"031-762-1050","addr":"경기도 광주시 역동 5-4번지","indutype":"음료식품 - 기타음료식품","category":"food"}]},{"lat":"37.4007496","long":"127.2546673","imageIndex":7,"items":[{"name":"동네빵집","tel":"031-763-0045","addr":"경기도 광주시 역동 134-36번지 1층","indutype":"음료식품 - 제과점","category":"food"}]},{"lat":"37.40786308","long":"127.2567581","imageIndex":7,"items":[{"name":"뚝딱김","tel":"","addr":"경기도 광주시 역동 5-3번지 1층 101호","indutype":"음료식품 - 기타음료식품","category":"food"}]},{"lat":"37.40825696","long":"127.2579454","imageIndex":7,"items":[{"name":"만리장성","tel":"031-769-7408","addr":"경기도 광주시 역동 20-1번지 한미빌딩 A동 1층","indutype":"음료식품 - 기타음료식품","category":"food"},{"name":"한빛건강원.한약공판장","tel":"031-768-0139","addr":"경기도 광주시 역동 20-1번지","indutype":"건강식품 - 기타건강식품","category":"food"}]},{"lat":"37.4076663","long":"127.2602588","imageIndex":7,"items":[{"name":"백옥생광주지사","tel":"031-763-6404","addr":"경기도 광주시 역동 26-13번지","indutype":"건강식품 - 기타건강식품","category":"food"}]},{"lat":"37.40655922","long":"127.2597242","imageIndex":7,"items":[{"name":"비아야에프엔디","tel":"031-791-4559","addr":"경기도 광주시 역동 27-28번지 1층","indutype":"음료식품 - 기타음료식품","category":"food"},{"name":"친정엄마손맛","tel":"031-798-1312","addr":"경기도 광주시 역동 27-28번지 일부","indutype":"음료식품 - 기타음료식품","category":"food"}]},{"lat":"37.40539541","long":"127.2562528","imageIndex":7,"items":[{"name":"송화잔기지떡 경기광주점","tel":"","addr":"경기도 광주시 역동 51-2번지 1층 일부호","indutype":"음료식품 - 제과점","category":"food"}]},{"lat":"37.40678502","long":"127.2552861","imageIndex":7,"items":[{"name":"얌얌디저트","tel":"031-797-9033","addr":"경기도 광주시 역동 1-165번지 명장빌딩 1층","indutype":"음료식품 - 제과점","category":"food"}]},{"lat":"37.4062817","long":"127.2588987","imageIndex":7,"items":[{"name":"역동건강원","tel":"031-764-0644","addr":"경기도 광주시 역동 24-5번지 해원빌라","indutype":"건강식품 - 기타건강식품","category":"food"}]},{"lat":"37.40599883","long":"127.2563677","imageIndex":7,"items":[{"name":"영광수산","tel":"031-766-3716","addr":"경기도 광주시 역동 50-4번지 OK마트내","indutype":"음료식품 - 농·축·수산품","category":"food"}]},{"lat":"37.39911201","long":"127.2536115","imageIndex":7,"items":[{"name":"오디너리 케이크 샵","tel":"031-000-0000","addr":"경기도 광주시 역동 213-1번지 107호","indutype":"음료식품 - 제과점","category":"food"}]},{"lat":"37.39836657","long":"127.2481769","imageIndex":7,"items":[{"name":"오케이 (ok) 점핑다이어트","tel":"","addr":"경기도 광주시 역동 190-5번지 2층 일부호","indutype":"건강식품 - 기타건강식품","category":"food"}]},{"lat":"37.40836411","long":"127.2583975","imageIndex":7,"items":[{"name":"오포축산","tel":"031-761-0337","addr":"경기도 광주시 역동 20-15번지","indutype":"음료식품 - 정육점","category":"food"}]},{"lat":"37.40022706","long":"127.2460371","imageIndex":7,"items":[{"name":"원이네과일가게","tel":"031-1111-1111","addr":"경기도 광주시 역동 243번지 이편한세상광주역1단지","indutype":"음료식품 - 농·축·수산품","category":"food"}]},{"lat":"37.40792237","long":"127.258509","imageIndex":7,"items":[{"name":"유닉N&F","tel":"031-798-0900","addr":"경기도 광주시 역동 8-20번지 서울클리닉센터 5층","indutype":"건강식품 - 기타건강식품","category":"food"}]},{"lat":"37.40708954","long":"127.2603133","imageIndex":7,"items":[{"name":"정관장경안점","tel":"031-798-2304","addr":"경기도 광주시 역동 27-92번지","indutype":"건강식품 - 홍삼제품","category":"food"},{"name":"정관장경안점","tel":"031-798-2304","addr":"경기도 광주시 역동 27-92번지","indutype":"건강식품 - 홍삼제품","category":"food"}]},{"lat":"37.4043408","long":"127.2564525","imageIndex":7,"items":[{"name":"제이에스(JS)글로벌(GLOBAL)","tel":"","addr":"경기도 광주시 역동 55-3번지 102호","indutype":"음료식품 - 농·축·수산품","category":"food"}]},{"lat":"37.40263886","long":"127.2560063","imageIndex":7,"items":[{"name":"주식회사 대창","tel":"070-5143-8862","addr":"경기도 광주시 역동 68-20번지 1층","indutype":"음료식품 - 기타음료식품","category":"food"}]},{"lat":"37.40034107","long":"127.2561115","imageIndex":7,"items":[{"name":"진로광주석수","tel":"031-761-0700","addr":"경기도 광주시 역동 141-20번지","indutype":"음료식품 - 기타음료식품","category":"food"}]},{"lat":"37.40697199","long":"127.2605049","imageIndex":7,"items":[{"name":"한우판매장","tel":"031-762-3349","addr":"경기도 광주시 역동 27-63번지 삼원빌딩 1층","indutype":"음료식품 - 정육점","category":"food"}]}]