[{"lat":"37.649305964","long":"127.29704474","imageIndex":16,"items":[{"name":"(시립)라온프라이빗어린이집[아이행복]","tel":"031-592-3100","addr":"경기도 남양주시 화도읍 녹촌리 567번지 5단지 라온프라이빗 4-1BL /","indutype":"학원 - 유아원","category":"study"},{"name":"더드림 영어&수학(The Dream Math&English)","tel":"","addr":"경기도 남양주시 화도읍 녹촌리 567번지 라온프라이빗5단지 507동 101호","indutype":"학원 - 기타 교육기관","category":"study"},{"name":"라온공부방","tel":"","addr":"경기도 남양주시 화도읍 녹촌리 567번지 남양주라온프라이빗5단지 502동 502호","indutype":"학원 - 기타 교육기관","category":"study"},{"name":"라온도담어린이집[아이행복]","tel":"031-595-7567","addr":"경기도 남양주시 화도읍 녹촌리 567번지 라온프라이빗5단지 506동 102호","indutype":"학원 - 유아원","category":"study"}]},{"lat":"37.651580745","long":"127.2952973","imageIndex":16,"items":[{"name":"GMT수학","tel":"","addr":"경기도 남양주시 화도읍 녹촌리 564번지 남양주라온프라이빗2단지 201동 502호","indutype":"학원 - 기타 교육기관","category":"study"},{"name":"꼬마라온어린이집[아이행복]","tel":"031-511-7921","addr":"경기도 남양주시 화도읍 녹촌리 564번지 남양주라온프라이빗2단지 207동 103호","indutype":"학원 - 유아원","category":"study"},{"name":"라온누리어린이집[아이행복]","tel":"031-594-2300","addr":"경기도 남양주시 화도읍 녹촌리 564번지 남양주 라온 프라이빗 2단지 (라온프라이빗1-2BL)","indutype":"학원 - 유아원","category":"study"}]},{"lat":"37.648698214","long":"127.29868538","imageIndex":16,"items":[{"name":"i행복어린이집[아이행복]","tel":"031-595-9766","addr":"경기도 남양주시 화도읍 녹촌리 556번지 마석역우방아이유쉘 107동 101호","indutype":"학원 - 유아원","category":"study"},{"name":"시립아이유쉘어린이집[아이행복]","tel":"031-594-7655","addr":"경기도 남양주시 화도읍 녹촌리 556번지 화도센트럴우방아이유쉘","indutype":"학원 - 유아원","category":"study"},{"name":"키움어린이집[아이행복]","tel":"031-595-0647","addr":"경기도 남양주시 화도읍 녹촌리 556번지 마석역우방아이유쉘 103동 103호","indutype":"학원 - 유아원","category":"study"}]},{"lat":"37.652386704","long":"127.29727219","imageIndex":16,"items":[{"name":"라온 퍼스트 태권도","tel":"031-595-0013","addr":"경기도 남양주시 화도읍 녹촌리 10-3번지 301호","indutype":"학원 - 예·체능계학원","category":"study"},{"name":"뿌리학원","tel":"031-593-8820","addr":"경기도 남양주시 화도읍 녹촌리 10-3번지 303-2 일부호","indutype":"학원 - 보습학원","category":"study"}]},{"lat":"37.653089211","long":"127.2937394","imageIndex":16,"items":[{"name":"마석소리샘음악학원","tel":"031-594-5095","addr":"경기도 남양주시 화도읍 녹촌리 239번지 제1호 2층 일부","indutype":"학원 - 예·체능계학원","category":"study"}]},{"lat":"37.644359842","long":"127.29696858","imageIndex":16,"items":[{"name":"스카이학원","tel":"031-595-9777","addr":"경기도 남양주시 화도읍 녹촌리 83번지 3층 301호,302호,303호","indutype":"학원 - 보습학원","category":"study"}]},{"lat":"37.644097546","long":"127.29737545","imageIndex":16,"items":[{"name":"아기파랑새어린이집[아이행복]","tel":"031-513-7665","addr":"경기도 남양주시 화도읍 녹촌리 555번지 신창현두산위브 101동 101호","indutype":"학원 - 유아원","category":"study"}]},{"lat":"37.644503686","long":"127.28604642","imageIndex":16,"items":[{"name":"윌리윌리어린이집[아이행복]","tel":"031-511-5164","addr":"경기도 남양주시 화도읍 녹촌리 323-4번지 윌리윌리어린이집","indutype":"학원 - 유아원","category":"study"}]},{"lat":"37.650783677","long":"127.29699391","imageIndex":16,"items":[{"name":"유니팝","tel":"","addr":"경기도 남양주시 화도읍 녹촌리 566번지 남양주라온프라이빗4단지 401동 1803호","indutype":"학원 - 기타 교육기관","category":"study"}]},{"lat":"37.650166718","long":"127.29509912","imageIndex":16,"items":[{"name":"은솔초등학교 병설유치원[아이행복]","tel":"031-524-6270","addr":"경기도 남양주시 화도읍 녹촌리 210-5번지 (녹촌2지구초등학교)","indutype":"학원 - 유치원","category":"study"}]},{"lat":"37.644339333","long":"127.29796559","imageIndex":16,"items":[{"name":"한양대 륜 태권도장","tel":"031-591-8441","addr":"경기도 남양주시 화도읍 녹촌리 82-10번지 201호","indutype":"학원 - 예·체능계학원","category":"study"}]}]