[{"lat":"37.056684109","long":"127.05647583","imageIndex":0,"items":[{"name":"(주)사파자동차부품점송탄","tel":"031-63-0048","addr":"경기도 평택시 이충동 463-9번지 17통1반","indutype":"자동차정비 유지 - 자동차부품","category":"car"}]},{"lat":"37.056290535","long":"127.06864007","imageIndex":0,"items":[{"name":"CnC모터스","tel":"031-667-9636","addr":"경기도 평택시 이충동 359-10번지 1층","indutype":"자동차정비 유지 - 자동차정비","category":"car"}]},{"lat":"37.056294723","long":"127.06059036","imageIndex":0,"items":[{"name":"LK모터스","tel":"031-664-0914","addr":"경기도 평택시 이충동 405-12번지 2호","indutype":"자동차정비 유지 - 자동차정비","category":"car"},{"name":"오렌지자동차외형복원전문점","tel":"031-611-7752","addr":"경기도 평택시 이충동 405-12번지","indutype":"자동차정비 유지 - 카인테리어","category":"car"}]},{"lat":"37.053015768","long":"127.07536004","imageIndex":0,"items":[{"name":"MOS자동차외형복원","tel":"031-664-7738","addr":"경기도 평택시 이충동 65-8번지","indutype":"자동차정비 유지 - 카인테리어","category":"car"},{"name":"지프니","tel":"031-662-9275","addr":"경기도 평택시 이충동 65-8번지","indutype":"소매업 - 자동차용품","category":"car"},{"name":"지프니","tel":"031-665-6238","addr":"경기도 평택시 이충동 65-8번지","indutype":"자동차정비 유지 - 자동차부품","category":"car"}]},{"lat":"37.055125302","long":"127.07361947","imageIndex":0,"items":[{"name":"극성카서비스","tel":"031-662-9907","addr":"경기도 평택시 이충동 581-33번지","indutype":"서비스업 - 자동차정비","category":"car"},{"name":"금성카서비스","tel":"031-665-3374","addr":"경기도 평택시 이충동 581-33번지","indutype":"자동차정비 유지 - 자동차정비","category":"car"}]},{"lat":"37.056149313","long":"127.0630861","imageIndex":0,"items":[{"name":"금호타이어송탄대리점","tel":"031-662-1919","addr":"경기도 평택시 이충동 414-2번지","indutype":"자동차정비 유지 - 자동차시트·타이어","category":"car"},{"name":"카사랑자동차공업사","tel":"031-611-1972","addr":"경기도 평택시 이충동 414-2번지","indutype":"자동차정비 유지 - 자동차정비","category":"car"},{"name":"현대셀프세차장","tel":"031-000-0000","addr":"경기도 평택시 이충동 414-2번지","indutype":"자동차정비 유지 - 세차장","category":"car"}]},{"lat":"37.054990143","long":"127.07361934","imageIndex":0,"items":[{"name":"기쁨셀프세차장","tel":"","addr":"경기도 평택시 이충동 581-24번지","indutype":"자동차정비 유지 - 세차장","category":"car"},{"name":"기쁨셀프세차장","tel":"031-691-1316","addr":"경기도 평택시 이충동 581-24번지","indutype":"자동차정비 유지 - 세차장","category":"car"},{"name":"원업","tel":"02-111-1111","addr":"경기도 평택시 이충동 581-24번지 1동 1호","indutype":"자동차정비 유지 - 자동차부품","category":"car"}]},{"lat":"37.054845792","long":"127.05681181","imageIndex":0,"items":[{"name":"뉴현대공업사","tel":"031-611-7118","addr":"경기도 평택시 이충동 491번지","indutype":"자동차정비 유지 - 자동차정비","category":"car"}]},{"lat":"37.056567052","long":"127.07353086","imageIndex":0,"items":[{"name":"레이노썬팅","tel":"031-668-8721","addr":"경기도 평택시 이충동 151-6번지 101호","indutype":"자동차정비 유지 - 자동차부품","category":"car"}]},{"lat":"37.058295228","long":"127.07659054","imageIndex":0,"items":[{"name":"몬토카넷","tel":"","addr":"경기도 평택시 이충동 22번지 이충빌딩 102호","indutype":"자동차정비 유지 - 자동차부품","category":"car"}]},{"lat":"37.055544321","long":"127.06555898","imageIndex":0,"items":[{"name":"브로모터스","tel":"031-665-3374","addr":"경기도 평택시 이충동 367-22번지","indutype":"서비스업 - 자동차정비","category":"car"},{"name":"브로모터스(BRO MOTORS)","tel":"031-663-7224","addr":"경기도 평택시 이충동 367-22번지 101호","indutype":"자동차정비 유지 - 자동차정비","category":"car"}]},{"lat":"37.058539118","long":"127.07561264","imageIndex":0,"items":[{"name":"세븐카세차장","tel":"031-668-7426","addr":"경기도 평택시 이충동 19-8번지","indutype":"자동차정비 유지 - 세차장","category":"car"}]},{"lat":"37.052294885","long":"127.07541556","imageIndex":0,"items":[{"name":"스피드메이트 이충점","tel":"031-664-0333","addr":"경기도 평택시 이충동 72번지","indutype":"자동차정비 유지 - 자동차부품","category":"car"}]},{"lat":"37.059123164","long":"127.06239139","imageIndex":0,"items":[{"name":"애니카랜드이충점","tel":"031-662-5656","addr":"경기도 평택시 이충동 431-2번지 제1동전체","indutype":"자동차정비 유지 - 자동차정비","category":"car"}]},{"lat":"37.056430246","long":"127.0598372","imageIndex":0,"items":[{"name":"오너","tel":"031-667-8444","addr":"경기도 평택시 이충동 401-5번지","indutype":"자동차정비 유지 - 카인테리어","category":"car"}]},{"lat":"37.05329533","long":"127.07497807","imageIndex":0,"items":[{"name":"장안광택","tel":"031-666-5131","addr":"경기도 평택시 이충동 65-19번지","indutype":"자동차정비 유지 - 카인테리어","category":"car"},{"name":"장안광택","tel":"031-668-8850","addr":"경기도 평택시 이충동 65-19번지","indutype":"자동차정비 유지 - 카인테리어","category":"car"},{"name":"장안토탈카센타","tel":"031-662-9275","addr":"경기도 평택시 이충동 65-19번지","indutype":"자동차정비 유지 - 자동차정비","category":"car"},{"name":"장안토탈카센타","tel":"","addr":"경기도 평택시 이충동 65-19번지","indutype":"서비스업 - 자동차정비","category":"car"}]},{"lat":"37.058402496","long":"127.06203105","imageIndex":0,"items":[{"name":"중앙그린세차장","tel":"031-664-0023","addr":"경기도 평택시 이충동 433-16번지","indutype":"자동차정비 유지 - 세차장","category":"car"},{"name":"티스테이션 이충점","tel":"031-663-7020","addr":"경기도 평택시 이충동 433-16번지","indutype":"도소매업 - 자동차수리","category":"car"}]},{"lat":"37.056405108","long":"127.07311474","imageIndex":0,"items":[{"name":"카시스","tel":"031-662-1294","addr":"경기도 평택시 이충동 151-1번지","indutype":"자동차정비 유지 - 카인테리어","category":"car"}]},{"lat":"37.059707499","long":"127.06503397","imageIndex":0,"items":[{"name":"테크원","tel":"","addr":"경기도 평택시 이충동 664-1번지 406호 내 484호","indutype":"자동차판매 - 기타운송","category":"car"}]},{"lat":"37.054963219","long":"127.05617108","imageIndex":0,"items":[{"name":"황금카센터","tel":"031-663-1760","addr":"경기도 평택시 이충동 495-23번지","indutype":"자동차정비 유지 - 자동차정비","category":"car"}]}]