[{"lat":"37.35994943","long":"127.1561019","imageIndex":7,"items":[{"name":"고깃간유통","tel":"031-786-0222","addr":"경기도 광주시 오포읍 신현리 672-9번지","indutype":"음료식품 - 정육점","category":"food"},{"name":"뚜레쥬르 광주신현리(4)","tel":"031-714-8587","addr":"경기도 광주시 오포읍 신현리 672-9번지","indutype":"음료식품 - 제과점","category":"food"}]},{"lat":"37.36775334","long":"127.162067","imageIndex":7,"items":[{"name":"그녀의부엌","tel":"070-4406-7823","addr":"경기도 광주시 오포읍 신현리 586-7번지 1층 일부","indutype":"음료식품 - 기타음료식품","category":"food"}]},{"lat":"37.36017027","long":"127.1525128","imageIndex":7,"items":[{"name":"기천한우직판장","tel":"031-763-6339","addr":"경기도 광주시 오포읍 신현리 696-13번지 4","indutype":"음료식품 - 정육점","category":"food"}]},{"lat":"37.37833527","long":"127.1721266","imageIndex":7,"items":[{"name":"꼬마루","tel":"031-8022-6649","addr":"경기도 광주시 오포읍 신현리 477-77번지 루반타운 106동 303호","indutype":"음료식품 - 기타음료식품","category":"food"}]},{"lat":"37.37181408","long":"127.1641529","imageIndex":7,"items":[{"name":"녹미","tel":"070-4335-5441","addr":"경기도 광주시 오포읍 신현리 437-2번지","indutype":"음료식품 - 기타음료식품","category":"food"}]},{"lat":"37.35378487","long":"127.1428725","imageIndex":7,"items":[{"name":"다솜유통","tel":"031-657-6269","addr":"경기도 광주시 오포읍 신현리 992-3번지","indutype":"음료식품 - 농·축·수산품","category":"food"}]},{"lat":"37.36131076","long":"127.1554838","imageIndex":7,"items":[{"name":"더테라스(THE TERRACE)","tel":"070-4286-8399","addr":"경기도 광주시 오포읍 신현리 679-6번지","indutype":"음료식품 - 기타음료식품","category":"food"}]},{"lat":"37.3637568","long":"127.159101","imageIndex":7,"items":[{"name":"떡대감","tel":"031-726-2630","addr":"경기도 광주시 오포읍 신현리 648-4번지 101호","indutype":"음료식품 - 제과점","category":"food"}]},{"lat":"37.36345317","long":"127.1637963","imageIndex":7,"items":[{"name":"뚜레쥬르 이마트오포신현점","tel":"031-726-3600","addr":"경기도 광주시 오포읍 신현리 338-6번지 전주최씨성관공파종중 1층","indutype":"음료식품 - 제과점","category":"food"}]},{"lat":"37.37247516","long":"127.1616818","imageIndex":7,"items":[{"name":"라망도르 LA main d'or","tel":"031-8232-2356","addr":"경기도 광주시 오포읍 신현리 570-74번지 해오름타운 103동 103호","indutype":"음료식품 - 제과점","category":"food"}]},{"lat":"37.35967707","long":"127.1576816","imageIndex":7,"items":[{"name":"맘마멤버스","tel":"","addr":"경기도 광주시 오포읍 신현리 380-6번지 1동","indutype":"음료식품 - 기타음료식품","category":"food"}]},{"lat":"37.37239837","long":"127.171594","imageIndex":7,"items":[{"name":"맛사랑 에프엔브이(F&V)","tel":"","addr":"경기도 광주시 오포읍 신현리 108-20번지 숲속마을 102동 2층 201호","indutype":"음료식품 - 기타음료식품","category":"food"}]},{"lat":"37.35872756","long":"127.1602984","imageIndex":7,"items":[{"name":"미소당","tel":"031-712-8575","addr":"경기도 광주시 오포읍 신현리 367-9번지 C동 2층","indutype":"건강식품 - 기타건강식품","category":"food"}]},{"lat":"37.37836785","long":"127.1682089","imageIndex":7,"items":[{"name":"배영미반찬","tel":"031-717-7789","addr":"경기도 광주시 오포읍 신현리 523-22번지 타운앤","indutype":"음료식품 - 기타음료식품","category":"food"}]},{"lat":"37.37080807","long":"127.1618477","imageIndex":7,"items":[{"name":"베베밥","tel":"031-712-2040","addr":"경기도 광주시 오포읍 신현리 405-1번지 1층","indutype":"음료식품 - 기타음료식품","category":"food"}]},{"lat":"37.36031177","long":"127.1546013","imageIndex":7,"items":[{"name":"베스킨라빈스 광주신현점","tel":"031-726-9851","addr":"경기도 광주시 오포읍 신현리 697-4번지","indutype":"음료식품 - 제과점","category":"food"},{"name":"파리바게뜨 신현점","tel":"031-726-3982","addr":"경기도 광주시 오포읍 신현리 697-4번지","indutype":"음료식품 - 제과점","category":"food"}]},{"lat":"37.36033905","long":"127.1544095","imageIndex":7,"items":[{"name":"산들애반찬","tel":"031-714-4955","addr":"경기도 광주시 오포읍 신현리 697-3번지 102호","indutype":"음료식품 - 기타음료식품","category":"food"}]},{"lat":"37.36444721","long":"127.1682122","imageIndex":7,"items":[{"name":"산에산에 들에들에","tel":"031-714-2379","addr":"경기도 광주시 오포읍 신현리 317-7번지","indutype":"음료식품 - 농·축·수산품","category":"food"}]},{"lat":"37.36522446","long":"127.1598491","imageIndex":7,"items":[{"name":"어썸브레드","tel":"031-711-0250","addr":"경기도 광주시 오포읍 신현리 591-45번지 A동 102호","indutype":"음료식품 - 제과점","category":"food"}]},{"lat":"37.36048204","long":"127.1553241","imageIndex":7,"items":[{"name":"얼음나라","tel":"","addr":"경기도 광주시 오포읍 신현리 677-1번지 삼우빌딩 103호","indutype":"음료식품 - 기타음료식품","category":"food"}]},{"lat":"37.37908446","long":"127.1711799","imageIndex":7,"items":[{"name":"에코팜스푸드","tel":"02-407-9939","addr":"경기도 광주시 오포읍 신현리 477-1번지 백산오페라하우스 101동 401호","indutype":"음료식품 - 기타음료식품","category":"food"}]},{"lat":"37.37056464","long":"127.1619601","imageIndex":7,"items":[{"name":"오포 찹쌀 누룽지","tel":"031-714-9555","addr":"경기도 광주시 오포읍 신현리 405-10번지 1층","indutype":"음료식품 - 기타음료식품","category":"food"}]},{"lat":"37.36811362","long":"127.1621581","imageIndex":7,"items":[{"name":"오포다축산","tel":"031-717-9482","addr":"경기도 광주시 오포읍 신현리 586-11번지","indutype":"음료식품 - 정육점","category":"food"}]},{"lat":"37.35820552","long":"127.1456574","imageIndex":7,"items":[{"name":"우렁각시","tel":"031-223-5214","addr":"경기도 광주시 오포읍 신현리 732-5번지 1층","indutype":"음료식품 - 기타음료식품","category":"food"}]},{"lat":"37.36017634","long":"127.1616785","imageIndex":7,"items":[{"name":"우리 정육점","tel":"031-716-0577","addr":"경기도 광주시 오포읍 신현리 362-4번지 B동 103호","indutype":"음료식품 - 정육점","category":"food"}]},{"lat":"37.36606277","long":"127.1595686","imageIndex":7,"items":[{"name":"울엄니손맛","tel":"031-718-0827","addr":"경기도 광주시 오포읍 신현리 591-20번지 1층","indutype":"음료식품 - 기타음료식품","category":"food"}]},{"lat":"37.36511762","long":"127.1655722","imageIndex":7,"items":[{"name":"원창근","tel":"","addr":"경기도 광주시 오포읍 신현리 291번지 롯데파크빌라 101호","indutype":"음료식품 - 농·축·수산품","category":"food"}]},{"lat":"37.36436437","long":"127.1629291","imageIndex":7,"items":[{"name":"이한씨푸드","tel":"070-7779-5568","addr":"경기도 광주시 오포읍 신현리 349-10번지 원진빌 202호","indutype":"음료식품 - 농·축·수산품","category":"food"}]},{"lat":"37.36078829","long":"127.1622329","imageIndex":7,"items":[{"name":"정반찬","tel":"","addr":"경기도 광주시 오포읍 신현리 362-12번지 1층","indutype":"음료식품 - 기타음료식품","category":"food"}]},{"lat":"37.34975983","long":"127.1407432","imageIndex":7,"items":[{"name":"조은","tel":"031-726-3710","addr":"경기도 광주시 오포읍 신현리 1078-2","indutype":"음료식품 - 기타음료식품","category":"food"}]},{"lat":"37.37719862","long":"127.1667047","imageIndex":7,"items":[{"name":"주식회사 린디자인하우스 오포점","tel":"02-501-7003","addr":"경기도 광주시 오포읍 신현리 527번지","indutype":"음료식품 - 주류 판매점","category":"food"}]},{"lat":"37.38043127","long":"127.1744572","imageIndex":7,"items":[{"name":"주식회사 솔미채","tel":"02-3402-1256","addr":"경기도 광주시 오포읍 신현리 500-17번지 아델리오빌","indutype":"음료식품 - 제과점","category":"food"}]},{"lat":"37.3720589","long":"127.1630131","imageIndex":7,"items":[{"name":"지엘비전","tel":"031-713-8173","addr":"경기도 광주시 오포읍 신현리 447번지","indutype":"음료식품 - 기타음료식품","category":"food"}]},{"lat":"37.37078155","long":"127.1614638","imageIndex":7,"items":[{"name":"찡오야","tel":"031-718-1122","addr":"경기도 광주시 오포읍 신현리 576-3번지","indutype":"음료식품 - 농·축·수산품","category":"food"}]},{"lat":"37.36986439","long":"127.160062","imageIndex":7,"items":[{"name":"케이푸드","tel":"","addr":"경기도 광주시 오포읍 신현리 581-26번지 아트리움 102동 202호","indutype":"음료식품 - 기타음료식품","category":"food"}]},{"lat":"37.36020364","long":"127.1474108","imageIndex":7,"items":[{"name":"크베마다","tel":"031-8017-8815","addr":"경기도 광주시 오포읍 신현리 724-3번지 2층 우측","indutype":"음료식품 - 기타음료식품","category":"food"}]},{"lat":"37.36689303","long":"127.1585657","imageIndex":7,"items":[{"name":"태경유통","tel":"031-000-0000","addr":"경기도 광주시 오포읍 신현리 599-15번지 이리스빌 201호","indutype":"음료식품 - 기타음료식품","category":"food"}]},{"lat":"37.37081514","long":"127.1697954","imageIndex":7,"items":[{"name":"팜스마켓","tel":"070-3569-7269","addr":"경기도 광주시 오포읍 신현리 133-6번지 1동 202호, 203호","indutype":"음료식품 - 미곡상","category":"food"}]},{"lat":"37.3771757","long":"127.1637127","imageIndex":7,"items":[{"name":"하나식품","tel":"","addr":"경기도 광주시 오포읍 신현리 548-3번지","indutype":"음료식품 - 기타음료식품","category":"food"}]},{"lat":"37.36954937","long":"127.159813","imageIndex":7,"items":[{"name":"하엽유통","tel":"","addr":"경기도 광주시 오포읍 신현리 581-17번지 아트리움 104동 402호","indutype":"음료식품 - 기타음료식품","category":"food"}]},{"lat":"37.35844844","long":"127.1601511","imageIndex":7,"items":[{"name":"한우외양간","tel":"031-718-7404","addr":"경기도 광주시 오포읍 신현리 370-3번지","indutype":"음료식품 - 정육점","category":"food"}]},{"lat":"37.3762233","long":"127.1617349","imageIndex":7,"items":[{"name":"해강참치","tel":"031-714-7844","addr":"경기도 광주시 오포읍 신현리 556-1번지 C동","indutype":"음료식품 - 농·축·수산품","category":"food"}]},{"lat":"37.3737281","long":"127.1612893","imageIndex":7,"items":[{"name":"현진 F&S","tel":"","addr":"경기도 광주시 오포읍 신현리 566-1번지 현대그린빌","indutype":"음료식품 - 농·축·수산품","category":"food"}]},{"lat":"37.37364604","long":"127.1620117","imageIndex":7,"items":[{"name":"형제야채","tel":"031-714-2481","addr":"경기도 광주시 오포읍 신현리 568-5번지 레이나빌 201호","indutype":"음료식품 - 기타음료식품","category":"food"}]},{"lat":"37.35744934","long":"127.1451029","imageIndex":7,"items":[{"name":"화돌농장 물류 정육점","tel":"031-711-5003","addr":"경기도 광주시 오포읍 신현리 731-1번지 103호","indutype":"음료식품 - 정육점","category":"food"}]}]