[{"lat":"37.223685277","long":"126.95128848","imageIndex":4,"items":[{"name":"가마치 통닭 봉담수영점","tel":"031-227-8280","addr":"경기도 화성시 봉담읍 수영리 647-11번지 1층 104호","indutype":"일반휴게음식 - 스넥","category":"restaurant"},{"name":"경성술집","tel":"031-298-6394","addr":"경기도 화성시 봉담읍 수영리 647-11번지 201, 202","indutype":"일반휴게음식 - 일반한식","category":"restaurant"},{"name":"도도프레소","tel":"","addr":"경기도 화성시 봉담읍 수영리 647-11번지 대호프라자 1동 1층 105호","indutype":"일반휴게음식 - 일반한식","category":"restaurant"},{"name":"도도프레소","tel":"031-000-0000","addr":"경기도 화성시 봉담읍 수영리 647-11번지 대호프라자 1동 105호","indutype":"일반휴게음식 - 서양음식","category":"restaurant"},{"name":"생고기전문점 진선미식당","tel":"031-227-7480","addr":"경기도 화성시 봉담읍 수영리 647-11번지 101,102호","indutype":"일반휴게음식 - 일반한식","category":"restaurant"}]},{"lat":"37.220881827","long":"126.94854125","imageIndex":4,"items":[{"name":"공주식당","tel":"031-227-7719","addr":"경기도 화성시 봉담읍 수영리 651-9번지 1층","indutype":"일반휴게음식 - 일반한식","category":"restaurant"},{"name":"미소다방","tel":"031-227-0056","addr":"경기도 화성시 봉담읍 수영리 651-9번지","indutype":"일반휴게음식 - 일반한식","category":"restaurant"},{"name":"윤가짬뽕","tel":"031-227-5259","addr":"경기도 화성시 봉담읍 수영리 651-9번지","indutype":"일반휴게음식 - 중국식","category":"restaurant"}]},{"lat":"37.220935874","long":"126.94850741","imageIndex":4,"items":[{"name":"국민닭갈비","tel":"","addr":"경기도 화성시 봉담읍 수영리 651-9번지 나동 103호","indutype":"일반휴게음식 - 일반한식","category":"restaurant"}]},{"lat":"37.220494174","long":"126.94809085","imageIndex":4,"items":[{"name":"까페디에스(cafe DS)","tel":"031-297-8945","addr":"경기도 화성시 봉담읍 수영리 653-3번지 4층","indutype":"일반휴게음식 - 서양음식","category":"restaurant"}]},{"lat":"37.241193256","long":"126.95336151","imageIndex":4,"items":[{"name":"꼬기꼬기","tel":"","addr":"경기도 화성시 봉담읍 수영리 671번지 쌍용예가 109동 104호","indutype":"일반휴게음식 - 일반한식","category":"restaurant"}]},{"lat":"37.220908703","long":"126.94820322","imageIndex":4,"items":[{"name":"꽃길족발","tel":"031-278-7882","addr":"경기도 화성시 봉담읍 수영리 651-8번지 1층","indutype":"일반휴게음식 - 일반한식","category":"restaurant"}]},{"lat":"37.223162603","long":"126.95111983","imageIndex":4,"items":[{"name":"내가그린기린","tel":"02-111-1111","addr":"경기도 화성시 봉담읍 수영리 647-72번지 101호","indutype":"일반휴게음식 - 서양음식","category":"restaurant"}]},{"lat":"37.223440576","long":"126.94812252","imageIndex":4,"items":[{"name":"농부네식당","tel":"031-292-0906","addr":"경기도 화성시 봉담읍 수영리 650-3번지","indutype":"일반휴게음식 - 일반한식","category":"restaurant"}]},{"lat":"37.235464196","long":"126.95711789","imageIndex":4,"items":[{"name":"도이첸 봉담점","tel":"031-238-5270","addr":"경기도 화성시 봉담읍 수영리 158-1번지 선형프라자 1층 102호","indutype":"일반휴게음식 - 일반한식","category":"restaurant"},{"name":"라트레페 봉담점","tel":"070-7797-0150","addr":"경기도 화성시 봉담읍 수영리 158-1번지 선형프라자 1층 101호","indutype":"일반휴게음식 - 서양음식","category":"restaurant"}]},{"lat":"37.222856359","long":"126.95136792","imageIndex":4,"items":[{"name":"디디치킨","tel":"","addr":"경기도 화성시 봉담읍 수영리 647-39번지 103호","indutype":"일반휴게음식 - 스넥","category":"restaurant"}]},{"lat":"37.241823856","long":"126.95306807","imageIndex":4,"items":[{"name":"미니한정식","tel":"031-397-3358","addr":"경기도 화성시 봉담읍 수영리 671번지 양지마을쌍용예가아파트 1층 105호","indutype":"일반휴게음식 - 일반한식","category":"restaurant"}]},{"lat":"37.226767201","long":"126.95217655","imageIndex":4,"items":[{"name":"봉담식당","tel":"031-227-4520","addr":"경기도 화성시 봉담읍 수영리 616-18호 3동","indutype":"일반휴게음식 - 일반한식","category":"restaurant"}]},{"lat":"37.221522341","long":"126.95026465","imageIndex":4,"items":[{"name":"봉담칼국수","tel":"031-227-7673","addr":"경기도 화성시 봉담읍 수영리 648-13번지 1층","indutype":"일반휴게음식 - 일반한식","category":"restaurant"}]},{"lat":"37.220963121","long":"126.9489806","imageIndex":4,"items":[{"name":"봉담페리카나","tel":"031-298-9966","addr":"경기도 화성시 봉담읍 수영리 651-1번지 2층","indutype":"일반휴게음식 - 일반한식","category":"restaurant"},{"name":"초원사랑방","tel":"031-297-7135","addr":"경기도 화성시 봉담읍 수영리 651-1번지","indutype":"일반휴게음식 - 일반한식","category":"restaurant"}]},{"lat":"37.221827889","long":"126.94848423","imageIndex":4,"items":[{"name":"산천이모네","tel":"031-227-2036","addr":"경기도 화성시 봉담읍 수영리 649-12번지 1층","indutype":"일반휴게음식 - 일반한식","category":"restaurant"}]},{"lat":"37.221215055","long":"126.948203","imageIndex":4,"items":[{"name":"상촌한식","tel":"031-227-6500","addr":"경기도 화성시 봉담읍 수영리 651-22번지","indutype":"일반휴게음식 - 일반한식","category":"restaurant"}]},{"lat":"37.220656543","long":"126.94848507","imageIndex":4,"items":[{"name":"순자네생선요리전문","tel":"031-297-5280","addr":"경기도 화성시 봉담읍 수영리 651-17번지 1층","indutype":"일반휴게음식 - 일반한식","category":"restaurant"}]},{"lat":"37.234799317","long":"126.96229079","imageIndex":4,"items":[{"name":"신동태","tel":"031-296-8488","addr":"경기도 화성시 봉담읍 수영리 212번지","indutype":"일반휴게음식 - 일반한식","category":"restaurant"}]},{"lat":"37.221187961","long":"126.94806781","imageIndex":4,"items":[{"name":"어느날","tel":"070-4763-5091","addr":"경기도 화성시 봉담읍 수영리 651-7번지 2층","indutype":"일반휴게음식 - 서양음식","category":"restaurant"}]},{"lat":"37.22149522","long":"126.95006186","imageIndex":4,"items":[{"name":"우리네집밥","tel":"031-227-3868","addr":"경기도 화성시 봉담읍 수영리 648-1번지","indutype":"일반휴게음식 - 일반한식","category":"restaurant"}]},{"lat":"37.221827785","long":"126.94825889","imageIndex":4,"items":[{"name":"이지돈돈까스","tel":"031-227-3265","addr":"경기도 화성시 봉담읍 수영리 649-114번지","indutype":"일반휴게음식 - 일반한식","category":"restaurant"}]},{"lat":"37.228937337","long":"126.94909888","imageIndex":4,"items":[{"name":"재원푸드","tel":"031-292-4292","addr":"경기도 화성시 봉담읍 수영리 576-1번지","indutype":"일반휴게음식 - 일반한식","category":"restaurant"}]},{"lat":"37.235851217","long":"126.95603581","imageIndex":4,"items":[{"name":"전주 생삼겹살","tel":"031-296-5757","addr":"경기도 화성시 봉담읍 수영리 679번지 우방아이유쉘2단지 상가동 102호","indutype":"일반휴게음식 - 일반한식","category":"restaurant"},{"name":"청년다방","tel":"031-297-0607","addr":"경기도 화성시 봉담읍 수영리 679번지 우방아이유쉘2단지 상가동 104,105호","indutype":"일반휴게음식 - 일반한식","category":"restaurant"},{"name":"충무공스시","tel":"031-278-7161","addr":"경기도 화성시 봉담읍 수영리 679번지 우방아이유쉘2단지 상가동 1층 101호","indutype":"일반휴게음식 - 일식·회집","category":"restaurant"},{"name":"테임커피","tel":"031-293-1905","addr":"경기도 화성시 봉담읍 수영리 679번지 우방아이유쉘2단지 상가동 1층 106호","indutype":"일반휴게음식 - 서양음식","category":"restaurant"}]},{"lat":"37.220800479","long":"126.94798922","imageIndex":4,"items":[{"name":"정자식당","tel":"031-297-5828","addr":"경기도 화성시 봉담읍 수영리 651-12","indutype":"일반휴게음식 - 일반한식","category":"restaurant"}]},{"lat":"37.223801285","long":"126.9487645","imageIndex":4,"items":[{"name":"조은식당","tel":"031-227-8789","addr":"경기도 화성시 봉담읍 수영리 650-14번지","indutype":"일반휴게음식 - 일반한식","category":"restaurant"}]},{"lat":"37.220746724","long":"126.94865401","imageIndex":4,"items":[{"name":"진아 커피와 맥주","tel":"031-227-2525","addr":"경기도 화성시 봉담읍 수영리 651-29번지 지하1층","indutype":"일반휴게음식 - 일반한식","category":"restaurant"}]},{"lat":"37.220800848","long":"126.94878918","imageIndex":4,"items":[{"name":"쭌이네김밥","tel":"","addr":"경기도 화성시 봉담읍 수영리 651-20번지 1층 2호","indutype":"일반휴게음식 - 일반한식","category":"restaurant"}]},{"lat":"37.240903128","long":"126.94923688","imageIndex":4,"items":[{"name":"채원","tel":"031-253-5292","addr":"경기도 화성시 봉담읍 수영리 474번지","indutype":"일반휴게음식 - 일반한식","category":"restaurant"}]},{"lat":"37.220629303","long":"126.94803442","imageIndex":4,"items":[{"name":"처갓집치킨봉담점","tel":"031-227-0052","addr":"경기도 화성시 봉담읍 수영리 651-18번지","indutype":"일반휴게음식 - 스넥","category":"restaurant"}]},{"lat":"37.227632873","long":"126.95378729","imageIndex":4,"items":[{"name":"초원가든","tel":"","addr":"경기도 화성시 봉담읍 수영리 617-3번지","indutype":"일반휴게음식 - 일반한식","category":"restaurant"}]},{"lat":"37.222099332","long":"126.95100789","imageIndex":4,"items":[{"name":"피자헐","tel":"031-111-1111","addr":"경기도 화성시 봉담읍 수영리 647-6번지 103호","indutype":"일반휴게음식 - 서양음식","category":"restaurant"}]},{"lat":"37.220602377","long":"126.94825977","imageIndex":4,"items":[{"name":"햇살포차","tel":"070-4086-6189","addr":"경기도 화성시 봉담읍 수영리 653-1번지","indutype":"일반휴게음식 - 주점","category":"restaurant"}]}]