[{"lat":"37.649358803","long":"126.87381722","imageIndex":4,"items":[{"name":"(주)제이앤유인터허브-아스타리스토","tel":"02-2039-7811","addr":"경기도 고양시 덕양구 원흥동 628번지","indutype":"일반휴게음식 - 일반한식","category":"restaurant"},{"name":"강순자옛맛김치찌개 원흥역점","tel":"031-962-0505","addr":"경기도 고양시 덕양구 원흥동 628번지","indutype":"일반휴게음식 - 일반한식","category":"restaurant"},{"name":"꼬치에꼬치닭","tel":"","addr":"경기도 고양시 덕양구 원흥동 628번지","indutype":"일반휴게음식 - 일반한식","category":"restaurant"},{"name":"메고지고 원흥점","tel":"","addr":"경기도 고양시 덕양구 원흥동 628번지","indutype":"일반휴게음식 - 서양음식","category":"restaurant"},{"name":"산카이 원흥점","tel":"031-963-5553","addr":"경기도 고양시 덕양구 원흥동 628번지","indutype":"일반휴게음식 - 일반한식","category":"restaurant"},{"name":"설빙 원흥역점","tel":"031-966-3123","addr":"경기도 고양시 덕양구 원흥동 628번지","indutype":"일반휴게음식 - 서양음식","category":"restaurant"},{"name":"슈가브릿지","tel":"070-7729-0335","addr":"경기도 고양시 덕양구 원흥동 628번지","indutype":"일반휴게음식 - 서양음식","category":"restaurant"},{"name":"스마일찹쌀꽈배기","tel":"","addr":"경기도 고양시 덕양구 원흥동 628번지","indutype":"일반휴게음식 - 일반한식","category":"restaurant"},{"name":"이바돔감자탕 원흥점","tel":"031-964-2222","addr":"경기도 고양시 덕양구 원흥동 628번지","indutype":"일반휴게음식 - 일반한식","category":"restaurant"},{"name":"투썸플레이스 원흥역점","tel":"031-968-5472","addr":"경기도 고양시 덕양구 원흥동 628번지","indutype":"일반휴게음식 - 서양음식","category":"restaurant"}]},{"lat":"37.65055364","long":"126.87069897","imageIndex":4,"items":[{"name":"(주)코리아푸드 백반하우스 원흥점","tel":"031-965-3739","addr":"경기도 고양시 덕양구 원흥동 621-4번지","indutype":"일반휴게음식 - 일반한식","category":"restaurant"}]},{"lat":"37.637663108","long":"126.87281779","imageIndex":4,"items":[{"name":"BBQ 원흥점","tel":"031-966-9285","addr":"경기도 고양시 덕양구 원흥동 717번지 엘에이치원흥도래울마을1단지","indutype":"일반휴게음식 - 스넥","category":"restaurant"}]},{"lat":"37.653080072","long":"126.87406009","imageIndex":4,"items":[{"name":"Ruumeen 루민","tel":"","addr":"경기도 고양시 덕양구 원흥동 645-5번지","indutype":"일반휴게음식 - 일반한식","category":"restaurant"}]},{"lat":"37.649603692","long":"126.87531255","imageIndex":4,"items":[{"name":"강성원김밥","tel":"031-963-5233","addr":"경기도 고양시 덕양구 원흥동 629-1번지","indutype":"일반휴게음식 - 일반한식","category":"restaurant"},{"name":"고봉민김밥인고양원흥역점","tel":"031-969-3579","addr":"경기도 고양시 덕양구 원흥동 629-1번지","indutype":"일반휴게음식 - 일반한식","category":"restaurant"},{"name":"비스트로광수","tel":"02-723-7811","addr":"경기도 고양시 덕양구 원흥동 629-1번지","indutype":"일반휴게음식 - 일식·회집","category":"restaurant"},{"name":"비어캠프","tel":"031-1111-1111","addr":"경기도 고양시 덕양구 원흥동 629-1번지","indutype":"일반휴게음식 - 주점","category":"restaurant"},{"name":"빽다방 고양원흥역점","tel":"031-963-1947","addr":"경기도 고양시 덕양구 원흥동 629-1번지","indutype":"일반휴게음식 - 서양음식","category":"restaurant"},{"name":"사이야 원흥점","tel":"031-969-0204","addr":"경기도 고양시 덕양구 원흥동 629-1번지","indutype":"일반휴게음식 - 일반한식","category":"restaurant"},{"name":"생선구이집 원흥점","tel":"","addr":"경기도 고양시 덕양구 원흥동 629-1번지","indutype":"일반휴게음식 - 일반한식","category":"restaurant"},{"name":"신식짬뽕","tel":"031-967-1970","addr":"경기도 고양시 덕양구 원흥동 629-1번지","indutype":"일반휴게음식 - 중국식","category":"restaurant"},{"name":"신화불닭","tel":"031-963-4082","addr":"경기도 고양시 덕양구 원흥동 629-1번지","indutype":"일반휴게음식 - 일반한식","category":"restaurant"},{"name":"양에반하다 원흥점","tel":"031-967-7005","addr":"경기도 고양시 덕양구 원흥동 629-1번지","indutype":"일반휴게음식 - 일반한식","category":"restaurant"},{"name":"어닭오닭","tel":"070-9807-2913","addr":"경기도 고양시 덕양구 원흥동 629-1번지","indutype":"일반휴게음식 - 일반한식","category":"restaurant"},{"name":"요거프레소 원흥역점","tel":"031-123-1234","addr":"경기도 고양시 덕양구 원흥동 629-1번지","indutype":"일반휴게음식 - 서양음식","category":"restaurant"},{"name":"원흥옛날치킨","tel":"031-967-3533","addr":"경기도 고양시 덕양구 원흥동 629-1번지","indutype":"일반휴게음식 - 스넥","category":"restaurant"},{"name":"초심 스터디카페 원흥역점","tel":"","addr":"경기도 고양시 덕양구 원흥동 629-1번지","indutype":"일반휴게음식 - 서양음식","category":"restaurant"},{"name":"카페케시코","tel":"031-528-6263","addr":"경기도 고양시 덕양구 원흥동 629-1번지","indutype":"일반휴게음식 - 서양음식","category":"restaurant"},{"name":"피프","tel":"031-969-7414","addr":"경기도 고양시 덕양구 원흥동 629-1번지","indutype":"일반휴게음식 - 서양음식","category":"restaurant"},{"name":"홍루이젠고양원흥점","tel":"070-7600-1511","addr":"경기도 고양시 덕양구 원흥동 629-1번지","indutype":"일반휴게음식 - 서양음식","category":"restaurant"}]},{"lat":"37.64916164","long":"126.87478073","imageIndex":4,"items":[{"name":"고고포차","tel":"","addr":"경기도 고양시 덕양구 원흥동 631번지","indutype":"일반휴게음식 - 일반한식","category":"restaurant"},{"name":"곱창이야기 (원흥점)","tel":"031-111-1111","addr":"경기도 고양시 덕양구 원흥동 631번지","indutype":"일반휴게음식 - 일반한식","category":"restaurant"},{"name":"공룡식당","tel":"031-966-2423","addr":"경기도 고양시 덕양구 원흥동 631번지","indutype":"일반휴게음식 - 일반한식","category":"restaurant"},{"name":"북청수제본만두","tel":"031-966-2343","addr":"경기도 고양시 덕양구 원흥동 631번지","indutype":"일반휴게음식 - 일반한식","category":"restaurant"},{"name":"비엔나커피하우스","tel":"031-000-0000","addr":"경기도 고양시 덕양구 원흥동 631번지","indutype":"일반휴게음식 - 서양음식","category":"restaurant"},{"name":"스타호프","tel":"070-7420-0999","addr":"경기도 고양시 덕양구 원흥동 631번지","indutype":"일반휴게음식 - 주점","category":"restaurant"},{"name":"신김밥천국","tel":"031-965-0688","addr":"경기도 고양시 덕양구 원흥동 631번지","indutype":"일반휴게음식 - 일반한식","category":"restaurant"},{"name":"에일쌤스","tel":"031-963-5286","addr":"경기도 고양시 덕양구 원흥동 631번지","indutype":"일반휴게음식 - 주점","category":"restaurant"},{"name":"이대감전통육개장원흥역점","tel":"031-967-2030","addr":"경기도 고양시 덕양구 원흥동 631번지","indutype":"일반휴게음식 - 일반한식","category":"restaurant"},{"name":"이삭토스트&커피 원흥역점","tel":"031-964-7787","addr":"경기도 고양시 덕양구 원흥동 631번지","indutype":"일반휴게음식 - 스넥","category":"restaurant"},{"name":"차돌육미","tel":"031-966-1888","addr":"경기도 고양시 덕양구 원흥동 631번지","indutype":"일반휴게음식 - 일반한식","category":"restaurant"},{"name":"타워삼겹살","tel":"031-905-6792","addr":"경기도 고양시 덕양구 원흥동 631번지","indutype":"일반휴게음식 - 일반한식","category":"restaurant"},{"name":"팬브레드 원흥점","tel":"031-966-9555","addr":"경기도 고양시 덕양구 원흥동 631번지","indutype":"일반휴게음식 - 서양음식","category":"restaurant"}]},{"lat":"37.652801081","long":"126.87434387","imageIndex":4,"items":[{"name":"고양스타족발","tel":"031-968-5777","addr":"경기도 고양시 덕양구 원흥동 646-6번지","indutype":"일반휴게음식 - 일반한식","category":"restaurant"}]},{"lat":"37.65002273","long":"126.86344775","imageIndex":4,"items":[{"name":"그집쭈꾸미","tel":"031-965-2761","addr":"경기도 고양시 덕양구 원흥동 491-1번지","indutype":"일반휴게음식 - 일반한식","category":"restaurant"}]},{"lat":"37.648938086","long":"126.87634484","imageIndex":4,"items":[{"name":"긴죠문","tel":"031-968-8255","addr":"경기도 고양시 덕양구 원흥동 630번지","indutype":"일반휴게음식 - 일식·회집","category":"restaurant"},{"name":"스시엔참치아지","tel":"031-967-3001","addr":"경기도 고양시 덕양구 원흥동 630번지","indutype":"일반휴게음식 - 일식·회집","category":"restaurant"},{"name":"청년다방(원흥역점)","tel":"031-969-7779","addr":"경기도 고양시 덕양구 원흥동 630번지","indutype":"일반휴게음식 - 스넥","category":"restaurant"},{"name":"코뚜레","tel":"031-964-7564","addr":"경기도 고양시 덕양구 원흥동 630번지","indutype":"일반휴게음식 - 일반한식","category":"restaurant"}]},{"lat":"37.649684361","long":"126.87492714","imageIndex":4,"items":[{"name":"김밥나라","tel":"031-967-3360","addr":"경기도 고양시 덕양구 원흥동 629번지","indutype":"일반휴게음식 - 스넥","category":"restaurant"},{"name":"꼬지사께","tel":"031-966-6201","addr":"경기도 고양시 덕양구 원흥동 629번지","indutype":"일반휴게음식 - 일반한식","category":"restaurant"},{"name":"복순대감자탕 테이크아웃 전문점","tel":"031-968-8863","addr":"경기도 고양시 덕양구 원흥동 629번지","indutype":"일반휴게음식 - 일반한식","category":"restaurant"},{"name":"삼호숯불갈비","tel":"","addr":"경기도 고양시 덕양구 원흥동 629번지","indutype":"일반휴게음식 - 일반한식","category":"restaurant"},{"name":"앳머스피어","tel":"031-963-2060","addr":"경기도 고양시 덕양구 원흥동 629번지","indutype":"일반휴게음식 - 일반한식","category":"restaurant"},{"name":"이디야커피원흥역점","tel":"031-965-3951","addr":"경기도 고양시 덕양구 원흥동 629번지","indutype":"일반휴게음식 - 서양음식","category":"restaurant"},{"name":"카페게이트(CAFE GATE)원흥역점","tel":"070-7576-3968","addr":"경기도 고양시 덕양구 원흥동 629번지","indutype":"일반휴게음식 - 서양음식","category":"restaurant"}]},{"lat":"37.651440336","long":"126.87408558","imageIndex":4,"items":[{"name":"김밥천국(원흥점)","tel":"031-969-1211","addr":"경기도 고양시 덕양구 원흥동 639-2번지","indutype":"일반휴게음식 - 일반한식","category":"restaurant"}]},{"lat":"37.653938614","long":"126.87648367","imageIndex":4,"items":[{"name":"꼬뜨블렁쉬","tel":"02-1111-1111","addr":"경기도 고양시 덕양구 원흥동 658번지","indutype":"일반휴게음식 - 서양음식","category":"restaurant"}]},{"lat":"37.653660403","long":"126.87750403","imageIndex":4,"items":[{"name":"난다요","tel":"031-969-9253","addr":"경기도 고양시 덕양구 원흥동 663-1번지","indutype":"일반휴게음식 - 일반한식","category":"restaurant"}]},{"lat":"37.64674723","long":"126.87495484","imageIndex":4,"items":[{"name":"남원추어탕","tel":"031-963-1253","addr":"경기도 고양시 덕양구 원흥동 189-4번지","indutype":"일반휴게음식 - 일반한식","category":"restaurant"}]},{"lat":"37.652911414","long":"126.87639476","imageIndex":4,"items":[{"name":"달빛오광원흥점","tel":"031-963-5055","addr":"경기도 고양시 덕양구 원흥동 654-3번지","indutype":"일반휴게음식 - 일식·회집","category":"restaurant"}]},{"lat":"37.65449742","long":"126.87667537","imageIndex":4,"items":[{"name":"닭발집","tel":"031-965-1578","addr":"경기도 고양시 덕양구 원흥동 659-2번지","indutype":"일반휴게음식 - 일반한식","category":"restaurant"}]},{"lat":"37.652714061","long":"126.87719966","imageIndex":4,"items":[{"name":"닭싸고피자","tel":"031-965-8881","addr":"경기도 고양시 덕양구 원흥동 657-8번지","indutype":"일반휴게음식 - 서양음식","category":"restaurant"}]},{"lat":"37.652245474","long":"126.87712113","imageIndex":4,"items":[{"name":"대장갈비","tel":"031-965-6962","addr":"경기도 고양시 덕양구 원흥동 655번지","indutype":"일반휴게음식 - 일반한식","category":"restaurant"}]},{"lat":"37.636749089","long":"126.86920528","imageIndex":4,"items":[{"name":"도래울갈비탕","tel":"031-967-0501","addr":"경기도 고양시 덕양구 원흥동 332-1번지","indutype":"일반휴게음식 - 일반한식","category":"restaurant"}]},{"lat":"37.648026752","long":"126.87508862","imageIndex":4,"items":[{"name":"돈돈아우지마라","tel":"","addr":"경기도 고양시 덕양구 원흥동 633-4번지","indutype":"일반휴게음식 - 일반한식","category":"restaurant"},{"name":"커피니 원흥점","tel":"031-966-6900","addr":"경기도 고양시 덕양구 원흥동 633-4번지","indutype":"일반휴게음식 - 서양음식","category":"restaurant"}]},{"lat":"37.653685954","long":"126.87612148","imageIndex":4,"items":[{"name":"동대문닭한마리","tel":"070-7010-9301","addr":"경기도 고양시 덕양구 원흥동 652번지","indutype":"일반휴게음식 - 일반한식","category":"restaurant"}]},{"lat":"37.649800612","long":"126.87412241","imageIndex":4,"items":[{"name":"두찜원흥역점","tel":"","addr":"경기도 고양시 덕양구 원흥동 627번지","indutype":"일반휴게음식 - 일반한식","category":"restaurant"},{"name":"아로이타이","tel":"031-966-0371","addr":"경기도 고양시 덕양구 원흥동 627번지","indutype":"일반휴게음식 - 서양음식","category":"restaurant"},{"name":"옛날통닭","tel":"","addr":"경기도 고양시 덕양구 원흥동 627번지","indutype":"일반휴게음식 - 스넥","category":"restaurant"},{"name":"월남선생원흥역점","tel":"","addr":"경기도 고양시 덕양구 원흥동 627번지","indutype":"일반휴게음식 - 서양음식","category":"restaurant"},{"name":"치뽁","tel":"031-000-0000","addr":"경기도 고양시 덕양구 원흥동 627번지","indutype":"일반휴게음식 - 스넥","category":"restaurant"},{"name":"카페지그시봄","tel":"","addr":"경기도 고양시 덕양구 원흥동 627번지","indutype":"일반휴게음식 - 서양음식","category":"restaurant"},{"name":"커피에반하다원흥역점","tel":"","addr":"경기도 고양시 덕양구 원흥동 627번지","indutype":"일반휴게음식 - 서양음식","category":"restaurant"},{"name":"큰맘할매순대국 원흥점","tel":"031-967-1361","addr":"경기도 고양시 덕양구 원흥동 627번지","indutype":"일반휴게음식 - 일반한식","category":"restaurant"}]},{"lat":"37.652714423","long":"126.87753962","imageIndex":4,"items":[{"name":"뚱보아저씨","tel":"031-965-8482","addr":"경기도 고양시 덕양구 원흥동 656-8번지","indutype":"일반휴게음식 - 일반한식","category":"restaurant"}]},{"lat":"37.654605476","long":"126.87661853","imageIndex":4,"items":[{"name":"라 마리에","tel":"031-966-9307","addr":"경기도 고양시 덕양구 원흥동","indutype":"일반휴게음식 - 일반한식","category":"restaurant"}]},{"lat":"37.651828419","long":"126.87469683","imageIndex":4,"items":[{"name":"레드컵스/주식회사 에스에이씨솔루션","tel":"031-000-0000","addr":"경기도 고양시 덕양구 원흥동 648-9번지","indutype":"일반휴게음식 - 서양음식","category":"restaurant"},{"name":"커피작법","tel":"070-7862-1510","addr":"경기도 고양시 덕양구 원흥동","indutype":"일반휴게음식 - 스넥","category":"restaurant"}]},{"lat":"37.654581362","long":"126.87937229","imageIndex":4,"items":[{"name":"리스토어","tel":"","addr":"경기도 고양시 덕양구 원흥동 90-4번지","indutype":"일반휴게음식 - 서양음식","category":"restaurant"}]},{"lat":"37.636132219","long":"126.87351155","imageIndex":4,"items":[{"name":"명동돈까스국물떡볶이","tel":"031-965-1196","addr":"경기도 고양시 덕양구 원흥동 735-1번지","indutype":"일반휴게음식 - 서양음식","category":"restaurant"}]},{"lat":"37.652795715","long":"126.87773212","imageIndex":4,"items":[{"name":"미스티블루","tel":"031-962-4377","addr":"경기도 고양시 덕양구 원흥동 656-7번지","indutype":"일반휴게음식 - 서양음식","category":"restaurant"}]},{"lat":"37.646162679","long":"126.86784003","imageIndex":4,"items":[{"name":"방아간영양탕","tel":"031-965-2400","addr":"경기도 고양시 덕양구 원흥동 448-5번지","indutype":"일반휴게음식 - 일반한식","category":"restaurant"}]},{"lat":"37.654049993","long":"126.87956582","imageIndex":4,"items":[{"name":"백금당","tel":"02-111-1111","addr":"경기도 고양시 덕양구 원흥동 664-4번지","indutype":"일반휴게음식 - 서양음식","category":"restaurant"}]},{"lat":"37.635825939","long":"126.8735574","imageIndex":4,"items":[{"name":"백년순대","tel":"031-969-3762","addr":"경기도 고양시 덕양구 원흥동 741-5번지","indutype":"일반휴게음식 - 일반한식","category":"restaurant"}]},{"lat":"37.648134598","long":"126.87483915","imageIndex":4,"items":[{"name":"복순대감자탕","tel":"031-968-8864","addr":"경기도 고양시 덕양구 원흥동 633-3번지","indutype":"일반휴게음식 - 일반한식","category":"restaurant"},{"name":"영금정","tel":"031-968-8865","addr":"경기도 고양시 덕양구 원흥동 633-3번지","indutype":"일반휴게음식 - 일반한식","category":"restaurant"}]},{"lat":"37.636547483","long":"126.87425858","imageIndex":4,"items":[{"name":"봉평메밀촌","tel":"031-968-1965","addr":"경기도 고양시 덕양구 원흥동 737-8번지","indutype":"일반휴게음식 - 일반한식","category":"restaurant"}]},{"lat":"37.651629811","long":"126.87433455","imageIndex":4,"items":[{"name":"부대찌개724","tel":"031-966-2477","addr":"경기도 고양시 덕양구 원흥동 647-7번지","indutype":"일반휴게음식 - 일반한식","category":"restaurant"}]},{"lat":"37.653217598","long":"126.87625826","imageIndex":4,"items":[{"name":"부영닭갈비막국수","tel":"031-968-5256","addr":"경기도 고양시 덕양구 원흥동 654번지","indutype":"일반휴게음식 - 일반한식","category":"restaurant"}]},{"lat":"37.651990174","long":"126.87431127","imageIndex":4,"items":[{"name":"불타는꿀꿀이 원흥직영점","tel":"070-4157-1111","addr":"경기도 고양시 덕양구 원흥동 647-4번지","indutype":"일반휴게음식 - 일반한식","category":"restaurant"}]},{"lat":"37.652657099","long":"126.87450276","imageIndex":4,"items":[{"name":"블루아일","tel":"070-4221-4868","addr":"경기도 고양시 덕양구 원흥동 648-1번지","indutype":"일반휴게음식 - 서양음식","category":"restaurant"}]},{"lat":"37.653219338","long":"126.87789006","imageIndex":4,"items":[{"name":"비어펍","tel":"","addr":"경기도 고양시 덕양구 원흥동 663-6번지","indutype":"일반휴게음식 - 주점","category":"restaurant"}]},{"lat":"37.652051141","long":"126.88081562","imageIndex":4,"items":[{"name":"비에이치씨(BHC)치킨","tel":"031-963-0090","addr":"경기도 고양시 덕양구 원흥동 670번지 삼송마을15단지계룡리슈빌","indutype":"일반휴게음식 - 스넥","category":"restaurant"},{"name":"에스오치킨","tel":"031-965-9898","addr":"경기도 고양시 덕양구 원흥동 670번지 삼송마을15단지계룡리슈빌","indutype":"일반휴게음식 - 스넥","category":"restaurant"},{"name":"오구쌀피자","tel":"031-968-5949","addr":"경기도 고양시 덕양구 원흥동 670번지 삼송마을15단지계룡리슈빌","indutype":"일반휴게음식 - 서양음식","category":"restaurant"}]},{"lat":"37.641328374","long":"126.86345267","imageIndex":4,"items":[{"name":"비토니","tel":"031-965-2149","addr":"경기도 고양시 덕양구 원흥동 547번지","indutype":"일반휴게음식 - 서양음식","category":"restaurant"}]},{"lat":"37.649081155","long":"126.87533611","imageIndex":4,"items":[{"name":"빌리엔젤 삼송원흥점","tel":"031-969-8338","addr":"경기도 고양시 덕양구 원흥동 631-1번지","indutype":"일반휴게음식 - 서양음식","category":"restaurant"}]},{"lat":"37.65471341","long":"126.87644836","imageIndex":4,"items":[{"name":"살롱드비키","tel":"031-241-9732","addr":"경기도 고양시 덕양구 원흥동 659번지","indutype":"일반휴게음식 - 서양음식","category":"restaurant"}]},{"lat":"37.653939498","long":"126.87731091","imageIndex":4,"items":[{"name":"삼송점해두리치킨","tel":"031-963-2292","addr":"경기도 고양시 덕양구 원흥동 662-4번지","indutype":"일반휴게음식 - 스넥","category":"restaurant"}]},{"lat":"37.654857892","long":"126.87675409","imageIndex":4,"items":[{"name":"삼쩜일사(3.14)","tel":"","addr":"경기도 고양시 덕양구 원흥동 660-4번지","indutype":"일반휴게음식 - 서양음식","category":"restaurant"}]},{"lat":"37.65319184","long":"126.87744816","imageIndex":4,"items":[{"name":"세솔족발","tel":"031-966-3349","addr":"경기도 고양시 덕양구 원흥동 656-4번지","indutype":"일반휴게음식 - 일반한식","category":"restaurant"}]},{"lat":"37.654136438","long":"126.87612071","imageIndex":4,"items":[{"name":"솔개","tel":"031-967-0926","addr":"경기도 고양시 덕양구 원흥동 651-1번지","indutype":"일반휴게음식 - 일반한식","category":"restaurant"}]},{"lat":"37.652215082","long":"126.87400492","imageIndex":4,"items":[{"name":"솔개소머리국밥","tel":"031-963-5980","addr":"경기도 고양시 덕양구 원흥동 647-11번지","indutype":"일반휴게음식 - 일반한식","category":"restaurant"}]},{"lat":"37.639777323","long":"126.86228859","imageIndex":4,"items":[{"name":"솔밭마루","tel":"031-963-0323","addr":"경기도 고양시 덕양구 원흥동 563-17번지","indutype":"일반휴게음식 - 일반한식","category":"restaurant"}]},{"lat":"37.652435207","long":"126.87761941","imageIndex":4,"items":[{"name":"순대상회","tel":"031-913-1848","addr":"경기도 고양시 덕양구 원흥동 655-3번지","indutype":"일반휴게음식 - 일반한식","category":"restaurant"}]},{"lat":"37.653047805","long":"126.87756172","imageIndex":4,"items":[{"name":"술친구가 생각날때","tel":"031-970-1565","addr":"경기도 고양시 덕양구 원흥동 656-5번지","indutype":"일반휴게음식 - 주점","category":"restaurant"}]},{"lat":"37.640330986","long":"126.87373087","imageIndex":4,"items":[{"name":"신세계푸드 쿠팡고양센터/(주)신세계푸드","tel":"02-3397-6176","addr":"경기도 고양시 덕양구 원흥동 701번지","indutype":"일반휴게음식 - 위탁급식업","category":"restaurant"}]},{"lat":"37.652882341","long":"126.87450237","imageIndex":4,"items":[{"name":"양동이","tel":"031-963-9635","addr":"경기도 고양시 덕양구 원흥동 646-5번지","indutype":"일반휴게음식 - 서양음식","category":"restaurant"}]},{"lat":"37.645547945","long":"126.86603954","imageIndex":4,"items":[{"name":"엔뮤즈","tel":"070-4140-5262","addr":"경기도 고양시 덕양구 원흥동 440-4번지","indutype":"일반휴게음식 - 서양음식","category":"restaurant"}]},{"lat":"37.651359038","long":"126.87389309","imageIndex":4,"items":[{"name":"오늘스시","tel":"031-965-9525","addr":"경기도 고양시 덕양구 원흥동 639-3번지","indutype":"일반휴게음식 - 일식·회집","category":"restaurant"}]},{"lat":"37.650661324","long":"126.87031351","imageIndex":4,"items":[{"name":"오복뷔페","tel":"031-964-0992","addr":"경기도 고양시 덕양구 원흥동 621-2번지","indutype":"일반휴게음식 - 일반한식","category":"restaurant"}]},{"lat":"37.640330454","long":"126.86529","imageIndex":4,"items":[{"name":"완백부대찌개","tel":"031-812-3995","addr":"경기도 고양시 덕양구 원흥동 370-8번지","indutype":"일반휴게음식 - 일반한식","category":"restaurant"}]},{"lat":"37.652939773","long":"126.87764122","imageIndex":4,"items":[{"name":"요거프레소 삼송농협대점","tel":"031-966-2369","addr":"경기도 고양시 덕양구 원흥동 656-6번지","indutype":"일반휴게음식 - 서양음식","category":"restaurant"},{"name":"요거프레소 삼송농협대점","tel":"031-966-2369","addr":"경기도 고양시 덕양구 원흥동 656-6번지","indutype":"일반휴게음식 - 서양음식","category":"restaurant"},{"name":"요거프레소삼송농협대점","tel":"070-7404-1465","addr":"경기도 고양시 덕양구 원흥동 656-6번지","indutype":"일반휴게음식 - 서양음식","category":"restaurant"}]},{"lat":"37.652742149","long":"126.87819682","imageIndex":4,"items":[{"name":"용구비어 원흥점","tel":"031-965-0925","addr":"경기도 고양시 덕양구 원흥동 663-10번지","indutype":"일반휴게음식 - 주점","category":"restaurant"}]},{"lat":"37.654074583","long":"126.87725403","imageIndex":4,"items":[{"name":"우리소 육회마왕","tel":"070-7543-3040","addr":"경기도 고양시 덕양구 원흥동 662-3번지","indutype":"일반휴게음식 - 일반한식","category":"restaurant"}]},{"lat":"37.651219388","long":"126.86983658","imageIndex":4,"items":[{"name":"원흥갬성떡볶이","tel":"031-967-1160","addr":"경기도 고양시 덕양구 원흥동 620번지","indutype":"일반휴게음식 - 스넥","category":"restaurant"},{"name":"청기와감자탕 원흥점","tel":"070-5214-0920","addr":"경기도 고양시 덕양구 원흥동 620-1번지","indutype":"일반휴게음식 - 일반한식","category":"restaurant"}]},{"lat":"37.65260603","long":"126.87727916","imageIndex":4,"items":[{"name":"원흥해물칼국수","tel":"070-4300-0957","addr":"경기도 고양시 덕양구 원흥동 657-9번지","indutype":"일반휴게음식 - 일반한식","category":"restaurant"},{"name":"주가","tel":"031-962-0729","addr":"경기도 고양시 덕양구 원흥동 657-9번지","indutype":"일반휴게음식 - 일반한식","category":"restaurant"}]},{"lat":"37.653824538","long":"126.87936221","imageIndex":4,"items":[{"name":"웰카페","tel":"031-967-7977","addr":"경기도 고양시 덕양구 원흥동 666-1번지","indutype":"일반휴게음식 - 서양음식","category":"restaurant"}]},{"lat":"37.652299701","long":"126.87727968","imageIndex":4,"items":[{"name":"육대장(삼송점)","tel":"031-966-6962","addr":"경기도 고양시 덕양구 원흥동 655-1번지","indutype":"일반휴게음식 - 일반한식","category":"restaurant"}]},{"lat":"37.650940904","long":"126.87056231","imageIndex":4,"items":[{"name":"이모네","tel":"031-966-5955","addr":"경기도 고양시 덕양구 원흥동 620-4번지","indutype":"일반휴게음식 - 일반한식","category":"restaurant"},{"name":"이모네","tel":"031-000-0000","addr":"경기도 고양시 덕양구 원흥동 620-4번지","indutype":"일반휴게음식 - 일반한식","category":"restaurant"}]},{"lat":"37.654632917","long":"126.87700378","imageIndex":4,"items":[{"name":"자금성","tel":"031-964-3396","addr":"경기도 고양시 덕양구 원흥동 661번지","indutype":"일반휴게음식 - 중국식","category":"restaurant"}]},{"lat":"37.651134954","long":"126.86690183","imageIndex":4,"items":[{"name":"잔칫집","tel":"","addr":"경기도 고양시 덕양구 원흥동 615번지 고양삼송엘에이치원흥마을11단지","indutype":"일반휴게음식 - 일반한식","category":"restaurant"}]},{"lat":"37.6542723","long":"126.87678908","imageIndex":4,"items":[{"name":"장고깃집","tel":"031-963-2266","addr":"경기도 고양시 덕양구 원흥동 659-4번지","indutype":"일반휴게음식 - 일반한식","category":"restaurant"}]},{"lat":"37.64821895","long":"126.86189875","imageIndex":4,"items":[{"name":"정읍토종한우직거래장터","tel":"031-968-9633","addr":"경기도 고양시 덕양구 원흥동 543-16번지","indutype":"일반휴게음식 - 일반한식","category":"restaurant"}]},{"lat":"37.651773879","long":"126.87425498","imageIndex":4,"items":[{"name":"조이순대국밥","tel":"031-969-6794","addr":"경기도 고양시 덕양구 원흥동 647-8번지","indutype":"일반휴게음식 - 일반한식","category":"restaurant"}]},{"lat":"37.65360579","long":"126.87698285","imageIndex":4,"items":[{"name":"족의발견","tel":"070-4038-2192","addr":"경기도 고양시 덕양구 원흥동 656번지","indutype":"일반휴게음식 - 일반한식","category":"restaurant"}]},{"lat":"37.635528259","long":"126.87322937","imageIndex":4,"items":[{"name":"종가대박집","tel":"031-967-7080","addr":"경기도 고양시 덕양구 원흥동 744-5번지","indutype":"일반휴게음식 - 일반한식","category":"restaurant"}]},{"lat":"37.640882575","long":"126.8674757","imageIndex":4,"items":[{"name":"종이비행기","tel":"070-7774-8994","addr":"경기도 고양시 덕양구 원흥동 375-7번지","indutype":"일반휴게음식 - 서양음식","category":"restaurant"}]},{"lat":"37.636718791","long":"126.87437158","imageIndex":4,"items":[{"name":"집밥대장","tel":"031-969-4262","addr":"경기도 고양시 덕양구 원흥동 737번지","indutype":"일반휴게음식 - 일반한식","category":"restaurant"}]},{"lat":"37.652498456","long":"126.87778928","imageIndex":4,"items":[{"name":"처갓집치킨","tel":"031-965-9292","addr":"경기도 고양시 덕양구 원흥동 655-4번지","indutype":"일반휴게음식 - 스넥","category":"restaurant"},{"name":"홍쌤떡볶이 원흥점","tel":"031-967-6767","addr":"경기도 고양시 덕양구 원흥동 655-4번지","indutype":"일반휴게음식 - 스넥","category":"restaurant"}]},{"lat":"37.636637271","long":"126.87397519","imageIndex":4,"items":[{"name":"청래화","tel":"","addr":"경기도 고양시 덕양구 원흥동 733-1번지","indutype":"일반휴게음식 - 중국식","category":"restaurant"}]},{"lat":"37.653662197","long":"126.87920383","imageIndex":4,"items":[{"name":"카츠와","tel":"031-966-2552","addr":"경기도 고양시 덕양구 원흥동 667-1번지","indutype":"일반휴게음식 - 일반한식","category":"restaurant"}]},{"lat":"37.653467402","long":"126.87398009","imageIndex":4,"items":[{"name":"카페날씨","tel":"","addr":"경기도 고양시 덕양구 원흥동 644번지","indutype":"일반휴게음식 - 서양음식","category":"restaurant"}]},{"lat":"37.650024886","long":"126.86528345","imageIndex":4,"items":[{"name":"카페포시즌","tel":"031-967-5128","addr":"경기도 고양시 덕양구 원흥동 462-7번지 원흥마을12단지","indutype":"일반휴게음식 - 서양음식","category":"restaurant"}]},{"lat":"37.654578265","long":"126.87644859","imageIndex":4,"items":[{"name":"쿵차이","tel":"031-967-1008","addr":"경기도 고양시 덕양구 원흥동 659-9번지","indutype":"일반휴게음식 - 중국식","category":"restaurant"}]},{"lat":"37.647079886","long":"126.8743084","imageIndex":4,"items":[{"name":"텐파이프","tel":"","addr":"경기도 고양시 덕양구 원흥동 186-1번지","indutype":"일반휴게음식 - 서양음식","category":"restaurant"}]},{"lat":"37.652470207","long":"126.87664481","imageIndex":4,"items":[{"name":"퍼시픽","tel":"031-965-7080","addr":"경기도 고양시 덕양구 원흥동 654-7번지","indutype":"일반휴게음식 - 서양음식","category":"restaurant"}]},{"lat":"37.636492967","long":"126.87383948","imageIndex":4,"items":[{"name":"풍산숯불갈비","tel":"070-8945-3313","addr":"경기도 고양시 덕양구 원흥동 733-2번지","indutype":"일반휴게음식 - 일반한식","category":"restaurant"}]},{"lat":"37.653100532","long":"126.87631511","imageIndex":4,"items":[{"name":"피겨쓰리","tel":"031-962-1333","addr":"경기도 고양시 덕양구 원흥동 654-1번지","indutype":"일반휴게음식 - 서양음식","category":"restaurant"}]},{"lat":"37.635826793","long":"126.87433913","imageIndex":4,"items":[{"name":"하늘식당","tel":"031-979-3434","addr":"경기도 고양시 덕양구 원흥동 739-3번지","indutype":"일반휴게음식 - 일반한식","category":"restaurant"}]},{"lat":"37.650436947","long":"126.86325434","imageIndex":4,"items":[{"name":"한양산장","tel":"031-968-7788","addr":"경기도 고양시 덕양구 원흥동 491-16번지","indutype":"일반휴게음식 - 일반한식","category":"restaurant"}]},{"lat":"37.6506882","long":"126.87017748","imageIndex":4,"items":[{"name":"행복한식부페","tel":"031-963-1788","addr":"경기도 고양시 덕양구 원흥동 621-1번지","indutype":"일반휴게음식 - 일반한식","category":"restaurant"}]},{"lat":"37.652440694","long":"126.87434449","imageIndex":4,"items":[{"name":"화덕피자빵떼용","tel":"070-4955-5072","addr":"경기도 고양시 덕양구 원흥동 648-4번지","indutype":"일반휴게음식 - 서양음식","category":"restaurant"}]},{"lat":"37.64160583","long":"126.86189992","imageIndex":4,"items":[{"name":"황제칼국수","tel":"031-111-1111","addr":"경기도 고양시 덕양구 원흥동 546-2번지","indutype":"일반휴게음식 - 일반한식","category":"restaurant"}]}]