[{"lat":"37.016717207","long":"127.26395724","imageIndex":0,"items":[{"name":"(주)유동","tel":"031-674-2683","addr":"경기도 안성시 당왕동 207-1번지","indutype":"자동차정비 유지 - 자동차부품","category":"car"}]},{"lat":"37.020386534","long":"127.26712747","imageIndex":0,"items":[{"name":"T.M오토밋션","tel":"031-671-8540","addr":"경기도 안성시 당왕동 262-3번지","indutype":"자동차정비 유지 - 자동차정비","category":"car"}]},{"lat":"37.022080045","long":"127.26734685","imageIndex":0,"items":[{"name":"TP안성현대","tel":"031-675-1009","addr":"경기도 안성시 당왕동 282번지","indutype":"자동차정비 유지 - 자동차정비","category":"car"}]},{"lat":"37.022938024","long":"127.26646205","imageIndex":0,"items":[{"name":"거성카공업사","tel":"031-675-3440","addr":"경기도 안성시 당왕동 278-1번지","indutype":"자동차정비 유지 - 카인테리어","category":"car"},{"name":"드림카오디오","tel":"031-671-0822","addr":"경기도 안성시 당왕동 278-1번지","indutype":"자동차정비 유지 - 자동차부품","category":"car"}]},{"lat":"37.022297299","long":"127.2668981","imageIndex":0,"items":[{"name":"금광자동차공업사","tel":"031-675-5714","addr":"경기도 안성시 당왕동 276-14번지","indutype":"자동차정비 유지 - 자동차정비","category":"car"}]},{"lat":"37.02177331","long":"127.26751435","imageIndex":0,"items":[{"name":"당왕모터스","tel":"031-676-9925","addr":"경기도 안성시 당왕동 259-1번지","indutype":"자동차정비 유지 - 자동차정비","category":"car"}]},{"lat":"37.022522814","long":"127.2667865","imageIndex":0,"items":[{"name":"대강카센타","tel":"031-674-3756","addr":"경기도 안성시 당왕동 276-1번지","indutype":"자동차정비 유지 - 자동차정비","category":"car"}]},{"lat":"37.024994177","long":"127.26568249","imageIndex":0,"items":[{"name":"대명카센타","tel":"031-672-1858","addr":"경기도 안성시 당왕동 347-1번지","indutype":"자동차정비 유지 - 카인테리어","category":"car"}]},{"lat":"37.026463472","long":"127.26542908","imageIndex":0,"items":[{"name":"대성모터스","tel":"031-676-7007","addr":"경기도 안성시 당왕동 367-3번지","indutype":"자동차정비 유지 - 자동차정비","category":"car"}]},{"lat":"37.021907273","long":"127.26398623","imageIndex":0,"items":[{"name":"부산자동차정비공업사","tel":"031-677-3837","addr":"경기도 안성시 당왕동 412번지","indutype":"자동차정비 유지 - 자동차정비","category":"car"}]},{"lat":"37.016470861","long":"127.26123711","imageIndex":0,"items":[{"name":"삼인자동차용품점","tel":"031-674-6133","addr":"경기도 안성시 당왕동 437번지","indutype":"자동차정비 유지 - 자동차부품","category":"car"}]},{"lat":"37.01754665","long":"127.26781433","imageIndex":0,"items":[{"name":"세덴(안성점)","tel":"031-675-0550","addr":"경기도 안성시 당왕동 164-1번지","indutype":"자동차정비 유지 - 자동차정비","category":"car"},{"name":"한길모터샵","tel":"031-677-3844","addr":"경기도 안성시 당왕동 164-1번지","indutype":"자동차정비 유지 - 가타자동차서비스","category":"car"}]},{"lat":"37.023912661","long":"127.26579115","imageIndex":0,"items":[{"name":"스피드메이트안성점","tel":"031-677-5656","addr":"경기도 안성시 당왕동 302-6","indutype":"자동차정비 유지 - 자동차정비","category":"car"}]},{"lat":"37.016410373","long":"127.26004582","imageIndex":0,"items":[{"name":"신석정카","tel":"031-672-6979","addr":"경기도 안성시 당왕동 470번지","indutype":"자동차정비 유지 - 자동차정비","category":"car"}]},{"lat":"37.015692849","long":"127.26674041","imageIndex":0,"items":[{"name":"신일부품","tel":"031-675-8510","addr":"경기도 안성시 당왕동 538-5번지","indutype":"자동차정비 유지 - 자동차부품","category":"car"}]},{"lat":"37.020881264","long":"127.26751126","imageIndex":0,"items":[{"name":"쌍용모터스","tel":"031-677-0334","addr":"경기도 안성시 당왕동 261-1","indutype":"자동차정비 유지 - 자동차정비","category":"car"},{"name":"쌍용정비서비스","tel":"031-675-1009","addr":"경기도 안성시 당왕동 261-1","indutype":"자동차정비 유지 - 자동차정비","category":"car"},{"name":"애니카랜드당왕점","tel":"031-674-2442","addr":"경기도 안성시 당왕동 261-1번지","indutype":"자동차정비 유지 - 자동차정비","category":"car"}]},{"lat":"37.024517413","long":"127.26532124","imageIndex":0,"items":[{"name":"쌍용자동차 안성부품대리점","tel":"031-676-5578","addr":"경기도 안성시 당왕동 348-9번지","indutype":"자동차정비 유지 - 자동차부품","category":"car"}]},{"lat":"37.0250228","long":"127.26496336","imageIndex":0,"items":[{"name":"썬테크모터스","tel":"031-672-2347","addr":"경기도 안성시 당왕동 375-5번지","indutype":"자동차정비 유지 - 자동차정비","category":"car"}]},{"lat":"37.019547072","long":"127.26778756","imageIndex":0,"items":[{"name":"안성코리아모터스 주식회사","tel":"031-675-6584","addr":"경기도 안성시 당왕동 231-1번지","indutype":"자동차정비 유지 - 자동차정비","category":"car"},{"name":"코리아모터스 (주)","tel":"031-675-6584","addr":"경기도 안성시 당왕동 231-1번지","indutype":"자동차정비 유지 - 자동차정비","category":"car"}]},{"lat":"37.024219443","long":"127.26560116","imageIndex":0,"items":[{"name":"안일자동차공업사","tel":"031-676-2727","addr":"경기도 안성시 당왕동 302-3번지","indutype":"자동차정비 유지 - 자동차정비","category":"car"}]},{"lat":"37.016716712","long":"127.26418197","imageIndex":0,"items":[{"name":"엔카모터스","tel":"031-673-2395","addr":"경기도 안성시 당왕동 210-9번지","indutype":"자동차정비 유지 - 자동차정비","category":"car"}]},{"lat":"37.023604756","long":"127.26648683","imageIndex":0,"items":[{"name":"유일모터스","tel":"031-674-7955","addr":"경기도 안성시 당왕동 303-9번지","indutype":"자동차정비 유지 - 자동차정비","category":"car"}]},{"lat":"37.01679639","long":"127.26071009","imageIndex":0,"items":[{"name":"지에스파크24 (주)경기도의료원안성병원주","tel":"02-3272-3500","addr":"경기도 안성시 당왕동 436번지","indutype":"자동차정비 유지 - 주차장","category":"car"}]},{"lat":"37.022244385","long":"127.26638099","imageIndex":0,"items":[{"name":"카카오버블셀프세차장","tel":"031-672-7644","addr":"경기도 안성시 당왕동 273-15번지","indutype":"자동차정비 유지 - 세차장","category":"car"}]},{"lat":"37.025968139","long":"127.26531499","imageIndex":0,"items":[{"name":"카프라자","tel":"031-674-5539","addr":"경기도 안성시 당왕동 348-13번지","indutype":"자동차정비 유지 - 자동차정비","category":"car"}]},{"lat":"37.014830082","long":"127.2574561","imageIndex":0,"items":[{"name":"코레일네트웍스(주)안성병원","tel":"031-666-1237","addr":"경기도 안성시 당왕동 455번지","indutype":"자동차정비 유지 - 주차장","category":"car"}]},{"lat":"37.017880041","long":"127.26781548","imageIndex":0,"items":[{"name":"큐빅카오디오","tel":"031-671-5949","addr":"경기도 안성시 당왕동 158-1번지","indutype":"자동차정비 유지 - 카인테리어","category":"car"}]},{"lat":"37.018131584","long":"127.26815347","imageIndex":0,"items":[{"name":"하나로모터스","tel":"031-677-3366","addr":"경기도 안성시 당왕동 156번지","indutype":"자동차정비 유지 - 자동차정비","category":"car"}]}]