[{"lat":"37.4009449504","long":"126.9908313688","imageIndex":13,"items":[{"name":"(주)스카이메디칼","tel":"","addr":"경기도 의왕시 포일동 653번지 인덕원IT밸리 C동 1004호","indutype":"보건위생 - 의료용품","category":"beauty"},{"name":"(주)스카이바이오메디칼","tel":"070-0000-0000","addr":"경기도 의왕시 포일동 653번지 인덕원IT밸리 C동 1004호","indutype":"보건위생 - 의료용품","category":"beauty"},{"name":"가라사대주식회사","tel":"031-424-5875","addr":"경기도 의왕시 포일동 653번지 인덕원IT밸리 710-2호","indutype":"보건위생 - 화장품","category":"beauty"},{"name":"나비테라피(NAABI Therapy)","tel":"031-8084-3327","addr":"경기도 의왕시 포일동 653번지 인덕원IT밸리 B동 103호","indutype":"보건위생 - 화장품","category":"beauty"},{"name":"리엔케이 의왕포일지사","tel":"031-8069-8650","addr":"경기도 의왕시 포일동 653번지 인덕원IT밸리 D동 606-2호","indutype":"보건위생 - 화장품","category":"beauty"},{"name":"메디팜","tel":"02-599-8663","addr":"경기도 의왕시 포일동 653번지 인덕원IT밸리 B동 5층 501호","indutype":"보건위생 - 의료용품","category":"beauty"},{"name":"뷰티에이아","tel":"","addr":"경기도 의왕시 포일동 653번지 인덕원IT밸리 D동 112호","indutype":"보건위생 - 미용재료","category":"beauty"},{"name":"엔비베베","tel":"070-8689-4310","addr":"경기도 의왕시 포일동 653번지 인덕원IT밸리 8층 804호","indutype":"보건위생 - 화장품","category":"beauty"},{"name":"엔지페(NZIPEH)","tel":"031-8084-3301","addr":"경기도 의왕시 포일동 653번지 인덕원IT밸리 C동 212호","indutype":"보건위생 - 화장품","category":"beauty"},{"name":"오비스텍 주식회사","tel":"031-8069-7702","addr":"경기도 의왕시 포일동 653번지 인덕원아이티밸리 B동 1층 102호","indutype":"보건위생 - 의료용품","category":"beauty"},{"name":"이경하 마음테라피<맘숨>","tel":"031-8069-8299","addr":"경기도 의왕시 포일동 653번지 인덕원IT밸리 B동 202호","indutype":"보건위생 - 기타대인서비스","category":"beauty"},{"name":"주식회사 메디에스팜","tel":"02-599-8663","addr":"경기도 의왕시 포일동 653번지 인덕원IT밸리 B동 501호","indutype":"보건위생 - 의료용품","category":"beauty"},{"name":"주식회사 셀니스","tel":"070-5096-7911","addr":"경기도 의왕시 포일동 653번지 인덕원IT밸리 A동 406호","indutype":"보건위생 - 화장품","category":"beauty"},{"name":"주식회사 옥토퍼스","tel":"02-3461-5240","addr":"경기도 의왕시 포일동 653번지 인덕원IT밸리 C동 510호","indutype":"보건위생 - 화장품","category":"beauty"},{"name":"주식회사예스미라클","tel":"031-462-5032","addr":"경기도 의왕시 포일동 653번지 씨동 인덕원IT밸리 314호","indutype":"보건위생 - 화장품","category":"beauty"}]},{"lat":"37.3974756657","long":"126.9873874441","imageIndex":13,"items":[{"name":"(주)체리센스","tel":"","addr":"경기도 의왕시 포일동 657-2번지 에이스청계타워 814호","indutype":"보건위생 - 의료용품","category":"beauty"}]},{"lat":"37.3952228774","long":"126.9854793842","imageIndex":13,"items":[{"name":"007안경","tel":"031-421-9071","addr":"경기도 의왕시 포일동 661-2번지 포레스타타워 101-2호","indutype":"보건위생 - 안경","category":"beauty"},{"name":"굿모닝보청기 (의왕점)","tel":"031-423-2227","addr":"경기도 의왕시 포일동 661-2번지 포레스타타워 101-2호","indutype":"보건위생 - 의료용품","category":"beauty"},{"name":"스마트보청기난청연구소","tel":"031-423-2227","addr":"경기도 의왕시 포일동 661-2번지 포레스타타워 101-1호","indutype":"보건위생 - 의료용품","category":"beauty"}]},{"lat":"37.3959707464","long":"126.9856937811","imageIndex":13,"items":[{"name":"N nature (앤 네이처)","tel":"031-423-7416","addr":"경기도 의왕시 포일동 660번지 포일프라임타워 1층 103호","indutype":"보건위생 - 미용원","category":"beauty"},{"name":"네일이오","tel":"031-423-0952","addr":"경기도 의왕시 포일동 660번지 포일프라임타워 1층 106호","indutype":"보건위생 - 피부미용실","category":"beauty"},{"name":"더하우스","tel":"031-421-9870","addr":"경기도 의왕시 포일동 660번지 포일프라임타워 203호","indutype":"보건위생 - 미용원","category":"beauty"},{"name":"위드제이뷰티","tel":"031-424-5007","addr":"경기도 의왕시 포일동 660번지 포일프라임타워 2층 206호","indutype":"보건위생 - 피부미용실","category":"beauty"}]},{"lat":"37.3978083123","long":"126.9825876685","imageIndex":13,"items":[{"name":"가위&손헤어샵","tel":"031-422-2130","addr":"경기도 의왕시 포일동 671-1번지 102호","indutype":"보건위생 - 미용원","category":"beauty"}]},{"lat":"37.3968085187","long":"126.9845868485","imageIndex":13,"items":[{"name":"고양이발톱","tel":"031-381-5128","addr":"경기도 의왕시 포일동 663-1번지 포일디오네 2층 206호","indutype":"보건위생 - 피부미용실","category":"beauty"},{"name":"상상모리 뷰티헤어살롱","tel":"031-423-9011","addr":"경기도 의왕시 포일동 663-1번지 포일디오네 2층 203호","indutype":"보건위생 - 미용원","category":"beauty"}]},{"lat":"37.3980243878","long":"126.9816389595","imageIndex":13,"items":[{"name":"라솜 에스테틱","tel":"031-422-2328","addr":"경기도 의왕시 포일동 675번지 1층 101호","indutype":"보건위생 - 피부미용실","category":"beauty"}]},{"lat":"37.3955291617","long":"126.9850840553","imageIndex":13,"items":[{"name":"리안헤어","tel":"","addr":"경기도 의왕시 포일동 661번지 203,204호","indutype":"보건위생 - 미용원","category":"beauty"},{"name":"리안헤어","tel":"031-422-4021","addr":"경기도 의왕시 포일동 661번지 스마일타워 203,204호","indutype":"보건위생 - 미용원","category":"beauty"},{"name":"봄봄 아동청소년발달센타","tel":"031-424-3650","addr":"경기도 의왕시 포일동 661번지 스마일타워 3층 305호","indutype":"보건위생 - 기타대인서비스","category":"beauty"},{"name":"숲속안경원","tel":"031-421-3335","addr":"경기도 의왕시 포일동 661번지 스마일타워 107호","indutype":"보건위생 - 안경","category":"beauty"}]},{"lat":"37.3958895069","long":"126.9847000033","imageIndex":13,"items":[{"name":"미오백아동발달상담센터","tel":"031-421-0525","addr":"경기도 의왕시 포일동 662번지 파레사타워 408호","indutype":"보건위생 - 기타대인서비스","category":"beauty"}]},{"lat":"37.3912756283","long":"126.9805567896","imageIndex":13,"items":[{"name":"바른자세 스포츠 크리닉","tel":"","addr":"경기도 의왕시 포일동 643번지 위브호수마을2단지","indutype":"보건위생 - 기타대인서비스","category":"beauty"}]},{"lat":"37.3974478796","long":"126.9824183651","imageIndex":13,"items":[{"name":"살롱드엠","tel":"031-423-7663","addr":"경기도 의왕시 포일동 674-1번지 102호","indutype":"보건위생 - 미용원","category":"beauty"}]},{"lat":"37.4038906113","long":"126.9856919715","imageIndex":13,"items":[{"name":"숲 헤어","tel":"031-424-7326","addr":"경기도 의왕시 포일동 645번지 포일숲속마을아파트 상가동 101호","indutype":"보건위생 - 미용원","category":"beauty"}]},{"lat":"37.4011332967","long":"126.9841792153","imageIndex":13,"items":[{"name":"시연헤어","tel":"031-421-7787","addr":"경기도 의왕시 포일동 646번지 포일숲속마을 상가동 105호","indutype":"보건위생 - 미용원","category":"beauty"}]},{"lat":"37.3911132702","long":"126.9796421514","imageIndex":13,"items":[{"name":"아임네일","tel":"031-422-5008","addr":"경기도 의왕시 포일동 643번지 위브호수마을2단지 상가동 110호","indutype":"보건위생 - 피부미용실","category":"beauty"},{"name":"예스유통","tel":"","addr":"경기도 의왕시 포일동 643번지 위브호수마을2단지 상가동 3층 303호","indutype":"보건위생 - 화장품","category":"beauty"},{"name":"호수미용실","tel":"031-426-8877","addr":"경기도 의왕시 포일동 643번지 두산위브호수2단지 상가 103,104호","indutype":"보건위생 - 미용원","category":"beauty"}]},{"lat":"37.3971686288","long":"126.9827798277","imageIndex":13,"items":[{"name":"안경마루","tel":"031-387-2004","addr":"경기도 의왕시 포일동 674-4번지","indutype":"보건위생 - 안경","category":"beauty"}]},{"lat":"37.3923571908","long":"126.9824987978","imageIndex":13,"items":[{"name":"앤씨헤어필","tel":"031-424-9771","addr":"경기도 의왕시 포일동 518동아에코빌상가101","indutype":"보건위생 - 미용원","category":"beauty"}]},{"lat":"37.3980520755","long":"126.9856820122","imageIndex":13,"items":[{"name":"엘림","tel":"031-424-2901","addr":"경기도 의왕시 포일동 658번지 포일숲속마을휴먼시아","indutype":"보건위생 - 기타대인서비스","category":"beauty"}]},{"lat":"37.3905004780","long":"126.9791116010","imageIndex":13,"items":[{"name":"오드리햅번","tel":"070-8945-3313","addr":"경기도 의왕시 포일동 546번지 2층","indutype":"보건위생 - 미용원","category":"beauty"}]},{"lat":"37.3918885490","long":"126.9818326648","imageIndex":13,"items":[{"name":"유영미헤어스케치","tel":"031-423-9985","addr":"경기도 의왕시 포일동 519-4번지 E동 201호","indutype":"보건위생 - 미용원","category":"beauty"}]},{"lat":"37.3916903669","long":"126.9820585704","imageIndex":13,"items":[{"name":"일점영안경","tel":"031-421-9010","addr":"경기도 의왕시 포일동 519-3번지","indutype":"보건위생 - 안경","category":"beauty"}]},{"lat":"37.3978894263","long":"126.9827231679","imageIndex":13,"items":[{"name":"큐미","tel":"031-425-7594","addr":"경기도 의왕시 포일동 671-2번지","indutype":"보건위생 - 화장품","category":"beauty"}]},{"lat":"37.3981146417","long":"126.9825085315","imageIndex":13,"items":[{"name":"헤어보떼","tel":"031-422-3037","addr":"경기도 의왕시 포일동 670-2번지 102호","indutype":"보건위생 - 미용원","category":"beauty"}]},{"lat":"37.3981688415","long":"126.9833329411","imageIndex":13,"items":[{"name":"헤어에스","tel":"031-425-2441","addr":"경기도 의왕시 포일동 670-7번지","indutype":"보건위생 - 미용원","category":"beauty"}]}]