[{"lat":"37.714427173","long":"126.76001931","imageIndex":8,"items":[{"name":"강산약국","tel":"031-8035-7102","addr":"경기도 파주시 야당동 1072-1번지","indutype":"약국 - 약국","category":"medical"},{"name":"야당연세정형외과","tel":"031-937-8675","addr":"경기도 파주시 야당동 1072-1번지","indutype":"의원 - 의원","category":"medical"},{"name":"연세미소치과","tel":"031-945-2807","addr":"경기도 파주시 야당동 1072-1번지","indutype":"의원 - 치과의원","category":"medical"},{"name":"파주맑은이비인후과의원","tel":"031-946-5255","addr":"경기도 파주시 야당동 1072-1번지","indutype":"의원 - 의원","category":"medical"}]},{"lat":"37.713733253","long":"126.75993085","imageIndex":8,"items":[{"name":"경원한의원","tel":"031-1644-7535","addr":"경기도 파주시 야당동 1070번지","indutype":"의원 - 한의원","category":"medical"},{"name":"바른고은이치과","tel":"031-947-4748","addr":"경기도 파주시 야당동 1070번지","indutype":"의원 - 치과의원","category":"medical"},{"name":"야당연세내과","tel":"031-946-9875","addr":"경기도 파주시 야당동 1070번지","indutype":"의원 - 의원","category":"medical"}]},{"lat":"37.711235548","long":"126.75037871","imageIndex":8,"items":[{"name":"김앤김치과의원","tel":"031-8071-2500","addr":"경기도 파주시 야당동 1006-1번지","indutype":"의원 - 치과의원","category":"medical"}]},{"lat":"37.711370327","long":"126.75020814","imageIndex":8,"items":[{"name":"다정동물병원","tel":"031-944-5077","addr":"경기도 파주시 야당동 1006번지","indutype":"기타의료기관 - 동물병원","category":"medical"},{"name":"연세오복치과","tel":"031-941-3833","addr":"경기도 파주시 야당동 1006번지","indutype":"의원 - 치과의원","category":"medical"},{"name":"우주한의원","tel":"031-947-7975","addr":"경기도 파주시 야당동 1006번지","indutype":"의원 - 한의원","category":"medical"},{"name":"퀸산부인과의원","tel":"031-947-8820","addr":"경기도 파주시 야당동 1006번지 지앤지프라자 301호","indutype":"의원 - 의원","category":"medical"},{"name":"한그루약국","tel":"031-948-7727","addr":"경기도 파주시 야당동 1006번지","indutype":"약국 - 약국","category":"medical"}]},{"lat":"37.714787601","long":"126.76004082","imageIndex":8,"items":[{"name":"미래아이연합의원","tel":"031-948-1275","addr":"경기도 파주시 야당동 1072번지","indutype":"의원 - 의원","category":"medical"},{"name":"운정문항외과의원","tel":"031-943-0210","addr":"경기도 파주시 야당동 1072번지","indutype":"의원 - 의원","category":"medical"},{"name":"운정스마일약국","tel":"031-941-3578","addr":"경기도 파주시 야당동 1072번지","indutype":"약국 - 약국","category":"medical"}]},{"lat":"37.710570735","long":"126.75126554","imageIndex":8,"items":[{"name":"미소준치과","tel":"031-8071-3113","addr":"경기도 파주시 야당동 1006-6번지","indutype":"의원 - 치과의원","category":"medical"}]},{"lat":"37.710345322","long":"126.7597718","imageIndex":8,"items":[{"name":"베스트원 치과","tel":"031-949-1526","addr":"경기도 파주시 야당동 1054번지","indutype":"의원 - 치과의원","category":"medical"}]},{"lat":"37.712480298","long":"126.75962873","imageIndex":8,"items":[{"name":"새창조약국","tel":"031-941-4334","addr":"경기도 파주시 야당동 1066-2번지","indutype":"약국 - 약국","category":"medical"},{"name":"야당열린치과의원","tel":"031-8035-6320","addr":"경기도 파주시 야당동 1066-2번지","indutype":"의원 - 치과의원","category":"medical"},{"name":"운정한빛동물병원","tel":"031-944-7179","addr":"경기도 파주시 야당동 1066-2번지","indutype":"기타의료기관 - 동물병원","category":"medical"}]},{"lat":"37.712209896","long":"126.75957291","imageIndex":8,"items":[{"name":"서울365외과의원","tel":"031-947-7277","addr":"경기도 파주시 야당동 1066-3번지","indutype":"의원 - 의원","category":"medical"},{"name":"서울365외과의원","tel":"031-947-7277","addr":"경기도 파주시 야당동 1066-3번지","indutype":"의원 - 의원","category":"medical"},{"name":"우리들약국","tel":"031-937-8855","addr":"경기도 파주시 야당동 1066-3번지","indutype":"약국 - 약국","category":"medical"}]},{"lat":"37.712786669","long":"126.75965041","imageIndex":8,"items":[{"name":"서울호수치과","tel":"031-944-2279","addr":"경기도 파주시 야당동 1066-1번지","indutype":"의원 - 치과의원","category":"medical"}]},{"lat":"37.715265222","long":"126.76009597","imageIndex":8,"items":[{"name":"야당동물병원","tel":"031-948-7579","addr":"경기도 파주시 야당동 1074-2번지","indutype":"기타의료기관 - 동물병원","category":"medical"}]},{"lat":"37.716094215","long":"126.76014997","imageIndex":8,"items":[{"name":"연세나을암요양병원","tel":"031-949-4188","addr":"경기도 파주시 야당동 1074번지","indutype":"병원 - 병원","category":"medical"}]},{"lat":"37.71047209","long":"126.75148135","imageIndex":8,"items":[{"name":"우리내과의원","tel":"031-957-5966","addr":"경기도 파주시 야당동 1006-7번지","indutype":"의원 - 의원","category":"medical"},{"name":"운정힐링동물병원","tel":"031-8071-0075","addr":"경기도 파주시 야당동 1006-7번지","indutype":"기타의료기관 - 동물병원","category":"medical"},{"name":"한사랑약국","tel":"031-949-2365","addr":"경기도 파주시 야당동 1006-7번지","indutype":"약국 - 약국","category":"medical"},{"name":"한주한의원","tel":"031-935-5610","addr":"경기도 파주시 야당동 1006-7번지","indutype":"의원 - 한의원","category":"medical"}]},{"lat":"37.713898857","long":"126.74873654","imageIndex":8,"items":[{"name":"우리소아청소년과의원","tel":"031-970-1352","addr":"경기도 파주시 야당동 1000-5번지","indutype":"의원 - 의원","category":"medical"},{"name":"운정디스플레이치과","tel":"031-948-2874","addr":"경기도 파주시 야당동 1000-5번지","indutype":"의원 - 치과의원","category":"medical"},{"name":"한빛중앙약국","tel":"031-945-3010","addr":"경기도 파주시 야당동 1000-5번지","indutype":"약국 - 약국","category":"medical"}]},{"lat":"37.710265354","long":"126.75170886","imageIndex":8,"items":[{"name":"운정부부한의원","tel":"031-944-9131","addr":"경기도 파주시 야당동 1006-8번지","indutype":"의원 - 한의원","category":"medical"}]},{"lat":"37.716536031","long":"126.76031865","imageIndex":8,"items":[{"name":"운정호수동물메디컬센터","tel":"031-937-8225","addr":"경기도 파주시 야당동 1076번지","indutype":"기타의료기관 - 동물병원","category":"medical"}]},{"lat":"37.713932862","long":"126.74779511","imageIndex":8,"items":[{"name":"한빛한의원","tel":"031-945-7433","addr":"경기도 파주시 야당동 1000-1번지","indutype":"의원 - 한의원","category":"medical"}]}]