[{"lat":"37.257737343","long":"127.00978074","imageIndex":17,"items":[{"name":"(YMC)에어컨","tel":"","addr":"경기도 수원시 권선구 세류동 463-13번지 301호","indutype":"용역 서비스 - 기타용역서비스","category":"other"}]},{"lat":"37.25401525","long":"127.01856123","imageIndex":17,"items":[{"name":"(주)광전방재","tel":"031-222-6119","addr":"경기도 수원시 권선구 세류동 1097번지","indutype":"용역 서비스 - 기타용역서비스","category":"other"},{"name":"(주)삼광개발","tel":"031-224-3484","addr":"경기도 수원시 권선구 세류동 1097번지 신수원종합시장 6호","indutype":"용역 서비스 - 기타용역서비스","category":"other"},{"name":"경기소방","tel":"031-232-7747","addr":"경기도 수원시 권선구 세류동 1097번지 신수원 종합시장 1층 32호","indutype":"용역 서비스 - 기타용역서비스","category":"other"},{"name":"다댄다","tel":"070-4045-5649","addr":"경기도 수원시 권선구 세류동 1097번지 2층 23-1호","indutype":"건축자재 - 인테리어전문","category":"other"},{"name":"두진정보통신","tel":"031-232-0482","addr":"경기도 수원시 권선구 세류동 1097번지 신수원 종합시장 2층 43호","indutype":"사무통신 - 통신기기","category":"other"},{"name":"미래컴퓨터","tel":"031-235-5989","addr":"경기도 수원시 권선구 세류동 1097번지 신수원 종합시장 1층 7호","indutype":"사무통신 - 컴퓨터","category":"other"},{"name":"씨티엠","tel":"031-225-6619","addr":"경기도 수원시 권선구 세류동 1097번지 1층 6-2호","indutype":"전기제품 - 기타전기제품","category":"other"},{"name":"에너지제로 협동조합","tel":"031-232-2664","addr":"경기도 수원시 권선구 세류동 1097번지 2층","indutype":"건축자재 - 조명기구","category":"other"},{"name":"장미정원","tel":"031-232-2774","addr":"경기도 수원시 권선구 세류동 1097번지 신수원 종합시장 6-2","indutype":"문화.취미 - 화원","category":"other"},{"name":"주식회사 에코이엔지","tel":"","addr":"경기도 수원시 권선구 세류동 1097번지 신수원 종합시장 2층 12호","indutype":"용역 서비스 - 기타용역서비스","category":"other"},{"name":"주식회사비즈","tel":"031-236-8124","addr":"경기도 수원시 권선구 세류동 1097번지 신수원 종합시장 2층 4호","indutype":"기타 - 기타 전문점","category":"other"},{"name":"중원전기조명 주식회사","tel":"031-221-7491","addr":"경기도 수원시 권선구 세류동 1097번지 신수원종합시장 102호","indutype":"전기제품 - 기타전기제품","category":"other"},{"name":"프리맥","tel":"","addr":"경기도 수원시 권선구 세류동 1097번지 1층 6-1호","indutype":"용역 서비스 - 종합용역","category":"other"},{"name":"화신","tel":"","addr":"경기도 수원시 권선구 세류동 1097번지 신수원 종합시장 2층 37호","indutype":"주방용구 - 주방용식기","category":"other"}]},{"lat":"37.258323152","long":"127.00670338","imageIndex":17,"items":[{"name":"(주)국도건설","tel":"031-225-1825","addr":"경기도 수원시 권선구 세류동 211-10번지 1층","indutype":"용역 서비스 - 기타용역서비스","category":"other"}]},{"lat":"37.25973763","long":"127.00978092","imageIndex":17,"items":[{"name":"(주)모바일팩토리","tel":"031-222-4667","addr":"경기도 수원시 권선구 세류동 1255번지 수원권선어울림 207호","indutype":"사무통신 - 통신기기","category":"other"},{"name":"꽃들리에","tel":"031-8002-5228","addr":"경기도 수원시 권선구 세류동 1255번지 수원권선어울림 122호","indutype":"문화.취미 - 문화취미기타","category":"other"},{"name":"대동열쇠","tel":"031-223-1304","addr":"경기도 수원시 권선구 세류동 1255번지 수원권선어울림 1층 132호","indutype":"건축자재 - 목재·석재·철물","category":"other"},{"name":"로라펫살롱","tel":"031-239-7809","addr":"경기도 수원시 권선구 세류동 1255번지 수원권선어울림 상가 121호","indutype":"문화.취미 - 애완동물","category":"other"},{"name":"모찌네방앗간","tel":"","addr":"경기도 수원시 권선구 세류동 1255번지 수원권선어울림 1층 101호","indutype":"문화.취미 - 애완동물","category":"other"},{"name":"미앤단","tel":"031-216-8100","addr":"경기도 수원시 권선구 세류동 1255번지 수원권선어울림 131호","indutype":"회원제형태 - 기타4","category":"other"},{"name":"소울인테리어","tel":"031-221-1457","addr":"경기도 수원시 권선구 세류동 1255번지 수원권선어울림 1층 102호 외1필지","indutype":"건축자재 - 인테리어전문","category":"other"},{"name":"썬테크","tel":"031-267-3300","addr":"경기도 수원시 권선구 세류동 1255번지 수원권선어울림3동지하상가101-1호","indutype":"레져용품 - 악기점","category":"other"},{"name":"우리기술미래푸드텍","tel":"","addr":"경기도 수원시 권선구 세류동 1255번지 수원권선어울림 상가 145호","indutype":"기타 - 기계공구","category":"other"},{"name":"운동화이불빨래방","tel":"031-225-0788","addr":"경기도 수원시 권선구 세류동 1255번지 수원권선어울림 110호","indutype":"수리서비스 - 세탁소","category":"other"},{"name":"주텍스타일","tel":"031-226-8777","addr":"경기도 수원시 권선구 세류동 1255번지 외1필지수원권선어울림지하1층102호,103호","indutype":"직물 - 카페트,커튼,천막,지물","category":"other"},{"name":"줌마스타일","tel":"070-7765-7982","addr":"경기도 수원시 권선구 세류동 1255번지 수원권선어울림 116호","indutype":"의류 - 정장","category":"other"},{"name":"컴매니아","tel":"031-898-7784","addr":"경기도 수원시 권선구 세류동 1255번지 수원권선어울림 상가 116호","indutype":"수리서비스 - 사무·통신기기수리","category":"other"},{"name":"케이스넷","tel":"070-7796-7800","addr":"경기도 수원시 권선구 세류동 1255번지 수원권선어울림 2층 207,207호","indutype":"사무통신 - 통신기기","category":"other"},{"name":"호박통신","tel":"031-223-1668","addr":"경기도 수원시 권선구 세류동 1255번지 수원권선 어울림 상가동 112호","indutype":"사무통신 - 통신기기","category":"other"}]},{"lat":"37.260548544","long":"127.01000645","imageIndex":17,"items":[{"name":"(주)베스트원","tel":"031-236-4111","addr":"경기도 수원시 권선구 세류동 349-2번지 1층","indutype":"수리서비스 - 사무·통신기기수리","category":"other"}]},{"lat":"37.252574617","long":"127.00505742","imageIndex":17,"items":[{"name":"(주)비젼이십일투어","tel":"031-254-1000","addr":"경기도 수원시 권선구 세류동 420-1번지","indutype":"여행 - 관광여행","category":"other"}]},{"lat":"37.25249242","long":"127.0192034","imageIndex":17,"items":[{"name":"(주)유원","tel":"031-212-1712","addr":"경기도 수원시 권선구 세류동 1102-9번지","indutype":"건축자재 - 기타건축자재","category":"other"}]},{"lat":"37.256240478","long":"127.02080487","imageIndex":17,"items":[{"name":"(주)장수로365","tel":"031-293-6365","addr":"경기도 수원시 권선구 세류동 1077-2번지 A동 202호","indutype":"주방용구 - 정수기","category":"other"},{"name":"미래케미칼","tel":"031-232-8866","addr":"경기도 수원시 권선구 세류동 1077-2번지 제에이동 1층","indutype":"건축자재 - 기타건축자재","category":"other"},{"name":"주식회사 더포디움","tel":"031-237-0086","addr":"경기도 수원시 권선구 세류동 1077-2번지 대동빌딩 401호","indutype":"건축자재 - 조명기구","category":"other"}]},{"lat":"37.254654923","long":"127.01900097","imageIndex":17,"items":[{"name":"(주)한국창조 경영컨설팅","tel":"031-235-7022","addr":"경기도 수원시 권선구 세류동 1096-3번지","indutype":"회원제형태 - 기타4","category":"other"},{"name":"라온","tel":"031-234-4720","addr":"경기도 수원시 권선구 세류동 1096-3번지 1층","indutype":"건축자재 - 기타건축자재","category":"other"}]},{"lat":"37.263269755","long":"127.00803388","imageIndex":17,"items":[{"name":"1984컴퍼니","tel":"070-8245-1984","addr":"경기도 수원시 권선구 세류동 227-7번지 1층","indutype":"사무통신 - 통신기기","category":"other"}]},{"lat":"37.262485546","long":"127.01292639","imageIndex":17,"items":[{"name":"1번지냉난방재활용나라","tel":"031-255-1064","addr":"경기도 수원시 권선구 세류동 485-13번지","indutype":"전기제품 - 냉열기기","category":"other"}]},{"lat":"37.252934997","long":"127.00639877","imageIndex":17,"items":[{"name":"AM산업개발","tel":"031-273-2802","addr":"경기도 수원시 권선구 세류동 670-4번지 1층","indutype":"용역 서비스 - 기타용역서비스","category":"other"},{"name":"에스엠테크","tel":"031-000-0000","addr":"경기도 수원시 권선구 세류동 670-4번지 1층","indutype":"용역 서비스 - 기타용역서비스","category":"other"},{"name":"하영냉난방","tel":"031-237-8287","addr":"경기도 수원시 권선구 세류동 670-4번지 101호","indutype":"건축자재 - 보일러·펌프·샷시","category":"other"}]},{"lat":"37.255429817","long":"127.01894478","imageIndex":17,"items":[{"name":"COOL랜드","tel":"070-8940-7269","addr":"경기도 수원시 권선구 세류동 1083-22번지","indutype":"용역 서비스 - 기타용역서비스","category":"other"}]},{"lat":"37.249546852","long":"127.01158339","imageIndex":17,"items":[{"name":"DK시스템","tel":"","addr":"경기도 수원시 권선구 세류동 585-1번지 엘림피렌체 나동 202호","indutype":"용역 서비스 - 기타용역서비스","category":"other"},{"name":"장선기획","tel":"031-223-1080","addr":"경기도 수원시 권선구 세류동 585-1번지 엘림피렌체 나동 101호","indutype":"서적문구 - 출판 및 인쇄물","category":"other"}]},{"lat":"37.259179037","long":"127.00894669","imageIndex":17,"items":[{"name":"GS25권선세권로점","tel":"","addr":"경기도 수원시 권선구 세류동 443-1번지 1층","indutype":"유통업 영리 - 편 의 점","category":"other"}]},{"lat":"37.262765236","long":"127.00647814","imageIndex":17,"items":[{"name":"GS25권선세류로점","tel":"","addr":"경기도 수원시 권선구 세류동 1270번지 LH수원센트럴타운 106호단지내상가","indutype":"유통업 영리 - 편 의 점","category":"other"},{"name":"대성공조","tel":"","addr":"경기도 수원시 권선구 세류동 1270번지 LH수원센트럴타운2단지 204동 108호","indutype":"용역 서비스 - 기타용역서비스","category":"other"},{"name":"명품세탁","tel":"031-237-2128","addr":"경기도 수원시 권선구 세류동 1270번지 LH수원센트럴타운2단지상가동 103호","indutype":"수리서비스 - 세탁소","category":"other"},{"name":"모노클(MONOCLE)","tel":"","addr":"경기도 수원시 권선구 세류동 1270번지 LH수원센트럴타운2단지 208동 103호","indutype":"신변잡화 - 액세서리","category":"other"}]},{"lat":"37.250960929","long":"127.01717421","imageIndex":17,"items":[{"name":"GS25권선장다리점","tel":"","addr":"경기도 수원시 권선구 세류동 1124-3번지 101호","indutype":"유통업 영리 - 편 의 점","category":"other"}]},{"lat":"37.260350074","long":"127.01328684","imageIndex":17,"items":[{"name":"GS25세류3동점","tel":"02-2006-2485","addr":"경기도 수원시 권선구 세류동 162-14번지","indutype":"유통업 영리 - 편 의 점","category":"other"}]},{"lat":"37.260125231","long":"127.00606092","imageIndex":17,"items":[{"name":"GS25세류덕영점","tel":"","addr":"경기도 수원시 권선구 세류동 1280번지 LH수원센트럴타운3단지 상가동 101호","indutype":"유통업 영리 - 편 의 점","category":"other"},{"name":"가치에같이를더하다","tel":"031-000-0000","addr":"경기도 수원시 권선구 세류동 1280번지 LH수원센트럴타운3단지 310동 102호","indutype":"신변잡화 - 기타잡화","category":"other"},{"name":"경원","tel":"","addr":"경기도 수원시 권선구 세류동 1280번지 LH수원센트럴타운3단지 310동 1502호","indutype":"용역 서비스 - 기타용역서비스","category":"other"},{"name":"센트럴세탁소","tel":"031-234-5965","addr":"경기도 수원시 권선구 세류동 1280번지 LH수원센트럴타운3단지 상가동 106호","indutype":"수리서비스 - 세탁소","category":"other"},{"name":"수원센트럴공인중개사사무소","tel":"031-226-4545","addr":"경기도 수원시 권선구 세류동 1280번지 LH수원센트럴타운3단지 상가동 106호","indutype":"용역 서비스 - 부동산 중개·임대","category":"other"}]},{"lat":"37.255880148","long":"127.02025245","imageIndex":17,"items":[{"name":"GS25세류시티점","tel":"","addr":"경기도 수원시 권선구 세류동 1081번지 청솔오피스텔 102호","indutype":"유통업 영리 - 편 의 점","category":"other"}]},{"lat":"37.259404077","long":"127.01228343","imageIndex":17,"items":[{"name":"GS25세류유천점","tel":"","addr":"경기도 수원시 권선구 세류동 476-9번지","indutype":"유통업 영리 - 편 의 점","category":"other"}]},{"lat":"37.254466032","long":"127.0163971","imageIndex":17,"items":[{"name":"GS25수원그랜드점","tel":"080-555-2525","addr":"경기도 수원시 권선구 세류동 1091-10번지","indutype":"유통업 영리 - 편 의 점","category":"other"}]},{"lat":"37.253294237","long":"127.01992497","imageIndex":17,"items":[{"name":"GS25수원문화점","tel":"","addr":"경기도 수원시 권선구 세류동 1100-4번지 1층","indutype":"유통업 영리 - 편 의 점","category":"other"}]},{"lat":"37.257818059","long":"127.01458283","imageIndex":17,"items":[{"name":"GS25수원신곡점","tel":"","addr":"경기도 수원시 권선구 세류동 508-44번지","indutype":"유통업 영리 - 편 의 점","category":"other"}]},{"lat":"37.249853069","long":"127.01325158","imageIndex":17,"items":[{"name":"GS25수원신흥점","tel":"","addr":"경기도 수원시 권선구 세류동 1139-21번지","indutype":"유통업 영리 - 편 의 점","category":"other"}]},{"lat":"37.25571009","long":"127.00852934","imageIndex":17,"items":[{"name":"GS25수원천로점","tel":"","addr":"경기도 수원시 권선구 세류동 454-7번지","indutype":"유통업 영리 - 편 의 점","category":"other"},{"name":"유선풍력","tel":"031-234-3288","addr":"경기도 수원시 권선구 세류동 454-7번지 104호","indutype":"건축자재 - 기타건축자재","category":"other"},{"name":"재미샵","tel":"031-236-5199","addr":"경기도 수원시 권선구 세류동 454-7번지 1층 104호","indutype":"건축자재 - 조명기구","category":"other"}]},{"lat":"37.263819403","long":"127.00756043","imageIndex":17,"items":[{"name":"GS25신세류점","tel":"02-2006-2118","addr":"경기도 수원시 권선구 세류동 230-42번지 1층","indutype":"유통업 영리 - 편 의 점","category":"other"}]},{"lat":"37.252375555","long":"127.01711812","imageIndex":17,"items":[{"name":"JH수선","tel":"031-000-0000","addr":"경기도 수원시 권선구 세류동 1117번지 304호","indutype":"수리서비스 - 신변잡화수리","category":"other"}]},{"lat":"37.249708935","long":"127.01289088","imageIndex":17,"items":[{"name":"JY통신","tel":"031-236-4533","addr":"경기도 수원시 권선구 세류동 975-9번지 1층","indutype":"사무통신 - 통신기기","category":"other"}]},{"lat":"37.253430116","long":"127.01378185","imageIndex":17,"items":[{"name":"KC MUSIC","tel":"031-236-1882","addr":"경기도 수원시 권선구 세류동 1005-38번지","indutype":"용역 서비스 - 종합용역","category":"other"}]},{"lat":"37.255429673","long":"127.01997054","imageIndex":17,"items":[{"name":"KT7788경기지사","tel":"031-267-0140","addr":"경기도 수원시 권선구 세류동 1081-9번지","indutype":"용역 서비스 - 통신서비스/소득공제대","category":"other"}]},{"lat":"37.250988126","long":"127.01573146","imageIndex":17,"items":[{"name":"Li Design(리 디자인)","tel":"031-223-7655","addr":"경기도 수원시 권선구 세류동 1127번지 네오에스티엠빌딩 3층 일부","indutype":"건축자재 - 인테리어전문","category":"other"},{"name":"극단환 주식회사","tel":"070-4681-0410","addr":"경기도 수원시 권선구 세류동 1127번지","indutype":"문화.취미 - 티켓","category":"other"},{"name":"대한불교불선종","tel":"031-287-1233","addr":"경기도 수원시 권선구 세류동 1127번지","indutype":"기타 - 비영리/대상","category":"other"}]},{"lat":"37.255799247","long":"127.01888849","imageIndex":17,"items":[{"name":"MatePC","tel":"031-225-8311","addr":"경기도 수원시 권선구 세류동 1083-2번지 103호","indutype":"사무통신 - 컴퓨터","category":"other"},{"name":"다모아구제","tel":"031-239-4679","addr":"경기도 수원시 권선구 세류동 1083-2번지 외1필지","indutype":"의류 - 정장","category":"other"}]},{"lat":"37.243185174","long":"127.01586538","imageIndex":17,"items":[{"name":"NAMEKOREA","tel":"031-296-7006","addr":"경기도 수원시 권선구 세류동 1167-8번지","indutype":"사무통신 - 통신기기","category":"other"}]},{"lat":"37.253546866","long":"127.01736632","imageIndex":17,"items":[{"name":"Only K","tel":"070-8883-9210","addr":"경기도 수원시 권선구 세류동 1107-21번지 1층","indutype":"의류 - 정장","category":"other"},{"name":"호동세탁","tel":"031-223-0239","addr":"경기도 수원시 권선구 세류동 1107-21번지","indutype":"수리서비스 - 세탁소","category":"other"}]},{"lat":"37.258520566","long":"127.01727709","imageIndex":17,"items":[{"name":"R&C휘트니스","tel":"031-226-4693","addr":"경기도 수원시 권선구 세류동 862번지 웰빙프라자 301,305,306호","indutype":"회원제형태 - 레져업소","category":"other"},{"name":"경기도화물자동차운송주선사업","tel":"031-221-7121","addr":"경기도 수원시 권선구 세류동 862번지 웰빙프라자 402호","indutype":"기타 - 비영리/대상","category":"other"},{"name":"올리브","tel":"","addr":"경기도 수원시 권선구 세류동 862번지 웰빙프라자 202호","indutype":"신변잡화 - 기타잡화","category":"other"}]},{"lat":"37.252294669","long":"127.01528082","imageIndex":17,"items":[{"name":"SJ A&D","tel":"031-237-8449","addr":"경기도 수원시 권선구 세류동 1113-4번지 지하1층","indutype":"건축자재 - 인테리어전문","category":"other"},{"name":"늘푸른 홈인테리어","tel":"031-221-8283","addr":"경기도 수원시 권선구 세류동 1113-4번지 1층","indutype":"건축자재 - 인테리어전문","category":"other"}]},{"lat":"37.262179602","long":"127.00505769","imageIndex":17,"items":[{"name":"가누다","tel":"031-234-1572","addr":"경기도 수원시 권선구 세류동 250-9번지 1층","indutype":"기타의료기관 - 기타의료기관 및 기타","category":"other"}]},{"lat":"37.261404334","long":"127.01264442","imageIndex":17,"items":[{"name":"가더샵","tel":"","addr":"경기도 수원시 권선구 세류동 495번지 1st House 1층 101호","indutype":"신변잡화 - 기타잡화","category":"other"}]},{"lat":"37.258791108","long":"127.01520297","imageIndex":17,"items":[{"name":"가람 OA","tel":"031-234-7748","addr":"경기도 수원시 권선구 세류동 868-10번지 1층","indutype":"사무통신 - 사무용 OA기기","category":"other"},{"name":"주식회사 가람오에이","tel":"031-234-7748","addr":"경기도 수원시 권선구 세류동 868-10번지 1층 101호","indutype":"사무통신 - 사무용 OA기기","category":"other"}]},{"lat":"37.262098526","long":"127.00367109","imageIndex":17,"items":[{"name":"가보아트산업","tel":"031-226-2872","addr":"경기도 수원시 권선구 세류동 195-10번지 남양빌딩 지하층 103호,104호","indutype":"용역 서비스 - 종합용역","category":"other"},{"name":"경기아트산업","tel":"031-226-2871","addr":"경기도 수원시 권선구 세류동 195-10번지","indutype":"기타 - 기계공구","category":"other"},{"name":"서울산업기계","tel":"031-221-6597","addr":"경기도 수원시 권선구 세류동 195-10번지 104호","indutype":"기타 - 기계공구","category":"other"},{"name":"수성공조기건","tel":"031-205-7113","addr":"경기도 수원시 권선구 세류동 195-10번지","indutype":"기타 - 기타 전문점","category":"other"},{"name":"한국지앤피","tel":"031-226-5780","addr":"경기도 수원시 권선구 세류동 195-10번지","indutype":"신변잡화 - 기타잡화","category":"other"}]},{"lat":"37.254880961","long":"127.01152765","imageIndex":17,"items":[{"name":"가빈영상기획","tel":"031-236-6662","addr":"경기도 수원시 권선구 세류동 1023-4번지","indutype":"용역 서비스 - 종합용역","category":"other"},{"name":"대박통신 세류점","tel":"031-223-3012","addr":"경기도 수원시 권선구 세류동 1023-4번지","indutype":"사무통신 - 통신기기","category":"other"},{"name":"침구알뜰할인매장","tel":"031-236-0205","addr":"경기도 수원시 권선구 세류동 1023-4번지","indutype":"직물 - 침구·수예점","category":"other"}]},{"lat":"37.26184578","long":"127.01333214","imageIndex":17,"items":[{"name":"가온모바일","tel":"","addr":"경기도 수원시 권선구 세류동 173-1번지 동원블루밍 102동 301호","indutype":"사무통신 - 통신기기","category":"other"}]},{"lat":"37.258431013","long":"127.01164078","imageIndex":17,"items":[{"name":"가우","tel":"031-212-9080","addr":"경기도 수원시 권선구 세류동 467-15번지","indutype":"용역 서비스 - 종합용역","category":"other"},{"name":"세민","tel":"031-239-5356","addr":"경기도 수원시 권선구 세류동 467-15번지 105호","indutype":"기타 - 기계공구","category":"other"},{"name":"예스","tel":"070-5133-6977","addr":"경기도 수원시 권선구 세류동 467-15번지 2층 202호","indutype":"용역 서비스 - 사무서비스","category":"other"}]},{"lat":"37.263179721","long":"127.00608359","imageIndex":17,"items":[{"name":"가우텔","tel":"031-226-7773","addr":"경기도 수원시 권선구 세류동 246-1","indutype":"회원제형태 - 기타4","category":"other"}]},{"lat":"37.256070023","long":"127.01494327","imageIndex":17,"items":[{"name":"가화장식","tel":"031-235-3596","addr":"경기도 수원시 권선구 세류동 1015-4상가4호4","indutype":"직물 - 카페트,커튼,천막,지물","category":"other"}]},{"lat":"37.261873265","long":"127.00406565","imageIndex":17,"items":[{"name":"감각디자인애플","tel":"031-238-7779","addr":"경기도 수원시 권선구 세류동 195-9번지 1층","indutype":"건축자재 - 인테리어전문","category":"other"}]},{"lat":"37.262683938","long":"127.01072814","imageIndex":17,"items":[{"name":"감성시간","tel":"031-232-3314","addr":"경기도 수원시 권선구 세류동 324-5번지","indutype":"광학제품 - 사진관","category":"other"}]},{"lat":"37.261404736","long":"127.00306234","imageIndex":17,"items":[{"name":"강경렌트카 (주)","tel":"031-401-2525","addr":"경기도 수원시 권선구 세류동 285-6번지 1층","indutype":"여행 - 렌터카","category":"other"},{"name":"금남인테리어","tel":"031-234-9188","addr":"경기도 수원시 권선구 세류동 285-6번지","indutype":"주방용구 - 주방용구","category":"other"}]},{"lat":"37.263125535","long":"127.00919502","imageIndex":17,"items":[{"name":"강우인터내셔널","tel":"","addr":"경기도 수원시 권선구 세류동 229-46번지","indutype":"의류 - 정장","category":"other"}]},{"lat":"37.254709663","long":"127.01283518","imageIndex":17,"items":[{"name":"건설창호","tel":"031-221-7537","addr":"경기도 수원시 권선구 세류동 1021-4 1층 102,103호","indutype":"용역 서비스 - 기타용역서비스","category":"other"}]},{"lat":"37.255187317","long":"127.01144878","imageIndex":17,"items":[{"name":"건일토탈인테리어","tel":"031-224-5058","addr":"경기도 수원시 권선구 세류동 537-19번지 신아빌딩 1층","indutype":"건축자재 - 인테리어전문","category":"other"},{"name":"롯데전자써비스","tel":"031-235-4566","addr":"경기도 수원시 권선구 세류동 537-19번지","indutype":"수리서비스 - 가정용품수리","category":"other"}]},{"lat":"37.258485113","long":"127.01111097","imageIndex":17,"items":[{"name":"겸안전자","tel":"031-232-7817","addr":"경기도 수원시 권선구 세류동 467-28번지","indutype":"전기제품 - 가전제품","category":"other"}]},{"lat":"37.253826416","long":"127.01533743","imageIndex":17,"items":[{"name":"경기ENG","tel":"031-246-7547","addr":"경기도 수원시 권선구 세류동 1111-3번지 지하층","indutype":"수리서비스 - 기타수리서비스","category":"other"}]},{"lat":"37.262575682","long":"127.01253184","imageIndex":17,"items":[{"name":"경기건설인테리어","tel":"031-235-6969","addr":"경기도 수원시 권선구 세류동 486-1번지","indutype":"건축자재 - 기타건축자재","category":"other"}]},{"lat":"37.252627734","long":"127.01800863","imageIndex":17,"items":[{"name":"경기상사","tel":"031-236-6826","addr":"경기도 수원시 권선구 세류동 1104-13번지","indutype":"기타 - 기계공구","category":"other"}]},{"lat":"37.263242708","long":"127.00839462","imageIndex":17,"items":[{"name":"경기상사","tel":"031-234-1139","addr":"경기도 수원시 권선구 세류동 229-64번지 1층","indutype":"건축자재 - 인테리어전문","category":"other"},{"name":"애드플랜","tel":"031-237-6203","addr":"경기도 수원시 권선구 세류동 229-64번지","indutype":"용역 서비스 - 종합용역","category":"other"}]},{"lat":"37.253403465","long":"127.00822483","imageIndex":17,"items":[{"name":"경기시공애드컴","tel":"031-236-5387","addr":"경기도 수원시 권선구 세류동 558-3번지","indutype":"용역 서비스 - 기타용역서비스","category":"other"}]},{"lat":"37.249213424","long":"127.01220327","imageIndex":17,"items":[{"name":"경기알뜰매장","tel":"031-225-8948","addr":"경기도 수원시 권선구 세류동 587번지","indutype":"전기제품 - 가전제품","category":"other"},{"name":"세진상사","tel":"031-211-2989","addr":"경기도 수원시 권선구 세류동 587번지","indutype":"주방용구 - 주방용식기","category":"other"}]},{"lat":"37.26462972","long":"127.01577887","imageIndex":17,"items":[{"name":"경기임업사","tel":"031-233-6679","addr":"경기도 수원시 권선구 세류동 135-1번지","indutype":"건축자재 - 목재·석재·철물","category":"other"}]},{"lat":"37.256962192","long":"127.01338782","imageIndex":17,"items":[{"name":"경기종합제지","tel":"070-8264-2612","addr":"경기도 수원시 권선구 세류동 510-8번지 3층","indutype":"신변잡화 - 기타잡화","category":"other"}]},{"lat":"37.262125187","long":"127.01228377","imageIndex":17,"items":[{"name":"경동ENG","tel":"","addr":"경기도 수원시 권선구 세류동 486-14번지 105동 502호","indutype":"수리서비스 - 기타수리서비스","category":"other"}]},{"lat":"37.253348443","long":"127.01888798","imageIndex":17,"items":[{"name":"경수Info","tel":"031-221-9200","addr":"경기도 수원시 권선구 세류동 1103번지 명성빌딩 4층","indutype":"사무통신 - 통신기기","category":"other"},{"name":"경수정보","tel":"031-221-9200","addr":"경기도 수원시 권선구 세류동 1103번지 명성빌딩 4층","indutype":"사무통신 - 통신기기","category":"other"}]},{"lat":"37.253934216","long":"127.01811034","imageIndex":17,"items":[{"name":"경수중량","tel":"031-222-5556","addr":"경기도 수원시 권선구 세류동 1095-10번지 1층 6호","indutype":"용역 서비스 - 기타용역서비스","category":"other"}]},{"lat":"37.242076943","long":"127.01550455","imageIndex":17,"items":[{"name":"경수천막사","tel":"031-221-8669","addr":"경기도 수원시 권선구 세류동 1174-40번지","indutype":"직물 - 카페트,커튼,천막,지물","category":"other"}]},{"lat":"37.256295637","long":"127.01069366","imageIndex":17,"items":[{"name":"경원에어라인","tel":"031-267-2218","addr":"경기도 수원시 권선구 세류동 460-24번지","indutype":"용역 서비스 - 기타용역서비스","category":"other"}]},{"lat":"37.260764568","long":"127.01306144","imageIndex":17,"items":[{"name":"경일타이루","tel":"031-232-0487","addr":"경기도 수원시 권선구 세류동 170번지","indutype":"건축자재 - 건축용 요업제품","category":"other"},{"name":"세광상사","tel":"031-236-0409","addr":"경기도 수원시 권선구 세류동 170번지","indutype":"건축자재 - 페인트","category":"other"}]},{"lat":"37.25443061","long":"127.0088674","imageIndex":17,"items":[{"name":"경향세탁전문점","tel":"031-232-9477","addr":"경기도 수원시 권선구 세류동 548-53번지","indutype":"수리서비스 - 세탁소","category":"other"}]},{"lat":"37.255321401","long":"127.02097374","imageIndex":17,"items":[{"name":"고려세무회계사무소","tel":"031-233-1615","addr":"경기도 수원시 권선구 세류동 1079-4번지","indutype":"용역 서비스 - 법률회계서비스(개인)","category":"other"}]},{"lat":"37.252988765","long":"127.01194448","imageIndex":17,"items":[{"name":"고전가구수리","tel":"031-295-0296","addr":"경기도 수원시 권선구 세류동 1002-22번지","indutype":"수리서비스 - 가정용품수리","category":"other"}]},{"lat":"37.255709329","long":"127.01745691","imageIndex":17,"items":[{"name":"골드매직","tel":"031-267-1120","addr":"경기도 수원시 권선구 세류동 1087-15번지 중앙하이츠빌라 9동 302호","indutype":"사무통신 - 통신기기","category":"other"}]},{"lat":"37.257907888","long":"127.01708534","imageIndex":17,"items":[{"name":"골드앤","tel":"031-267-2640","addr":"경기도 수원시 권선구 세류동 881번지 1층","indutype":"신변잡화 - 귀금속","category":"other"}]},{"lat":"37.245546091","long":"127.01375817","imageIndex":17,"items":[{"name":"공군제10전투비행단(연무관간이매점)","tel":"031-220-6681","addr":"경기도 수원시 권선구 세류동 1145번지","indutype":"유통업 비영리 - 구내매점(국가기관","category":"other"}]},{"lat":"37.254880677","long":"127.01480781","imageIndex":17,"items":[{"name":"공조시스템","tel":"","addr":"경기도 수원시 권선구 세류동 1012-7번지","indutype":"용역 서비스 - 기타용역서비스","category":"other"}]},{"lat":"37.249132019","long":"127.01556208","imageIndex":17,"items":[{"name":"관인현대어린이집","tel":"031-221-6916","addr":"경기도 수원시 권선구 세류동 1131-42번지","indutype":"기타 - 비영리/비대상","category":"other"}]},{"lat":"37.242797795","long":"127.01525672","imageIndex":17,"items":[{"name":"광명","tel":"","addr":"경기도 수원시 권선구 세류동 1167-26번지","indutype":"용역 서비스 - 기타용역서비스","category":"other"}]},{"lat":"37.25879147","long":"127.01100955","imageIndex":17,"items":[{"name":"광미조경","tel":"031-898-6428","addr":"경기도 수원시 권선구 세류동 470-3번지 102호","indutype":"건축자재 - 인테리어전문","category":"other"}]},{"lat":"37.265017476","long":"127.01247578","imageIndex":17,"items":[{"name":"광우설비","tel":"031-233-6003","addr":"경기도 수원시 권선구 세류동 97-56번지","indutype":"용역 서비스 - 기타용역서비스","category":"other"}]},{"lat":"37.264322782","long":"127.02036712","imageIndex":17,"items":[{"name":"광운오토바이","tel":"031-236-7714","addr":"경기도 수원시 권선구 세류동 805-2번지","indutype":"수리서비스 - 레져용품수리","category":"other"},{"name":"삼성앵글대리점","tel":"031-234-1122","addr":"경기도 수원시 권선구 세류동 805-2번지","indutype":"기타 - 기계공구","category":"other"}]},{"lat":"37.255764012","long":"127.01095286","imageIndex":17,"items":[{"name":"구구구샵","tel":"070-4649-1103","addr":"경기도 수원시 권선구 세류동 459-5번지 1층","indutype":"의류 - 내의판매","category":"other"},{"name":"우정스포츠","tel":"031-222-8684","addr":"경기도 수원시 권선구 세류동 459-5번지","indutype":"레져용품 - 스포츠·레져용품","category":"other"},{"name":"은행당","tel":"031-296-2663","addr":"경기도 수원시 권선구 세류동 459-5번지","indutype":"신변잡화 - 시계","category":"other"}]},{"lat":"37.256097322","long":"127.01194486","imageIndex":17,"items":[{"name":"구제박스","tel":"031-235-0970","addr":"경기도 수원시 권선구 세류동 533-3번지 1층","indutype":"의류 - 정장","category":"other"}]},{"lat":"37.251961643","long":"127.01122298","imageIndex":17,"items":[{"name":"국제타일","tel":"031-246-5566","addr":"경기도 수원시 권선구 세류동 569-34번지 1층","indutype":"용역 서비스 - 기타용역서비스","category":"other"},{"name":"바른산업","tel":"031-222-8850","addr":"경기도 수원시 권선구 세류동 569-34번지 지하","indutype":"신변잡화 - 가방","category":"other"},{"name":"은밀하개 위대하개","tel":"031-308-3636","addr":"경기도 수원시 권선구 세류동 569-34번지 1층 3호","indutype":"문화.취미 - 애완동물","category":"other"}]},{"lat":"37.255240622","long":"127.01878693","imageIndex":17,"items":[{"name":"굿 프린터","tel":"031-222-8645","addr":"경기도 수원시 권선구 세류동 1083-5번지 지하","indutype":"사무통신 - 컴퓨터","category":"other"},{"name":"바오아크릴시스템","tel":"031-226-3877","addr":"경기도 수원시 권선구 세류동 1083-5번지","indutype":"건축자재 - 인테리어전문","category":"other"}]},{"lat":"37.254520555","long":"127.0114487","imageIndex":17,"items":[{"name":"그린꽃식물원","tel":"031-236-5622","addr":"경기도 수원시 권선구 세류동 1030-3번지","indutype":"문화.취미 - 화원","category":"other"}]},{"lat":"37.250933821","long":"127.0178054","imageIndex":17,"items":[{"name":"그린산업","tel":"031-233-9725","addr":"경기도 수원시 권선구 세류동 1119-29번지","indutype":"유통업 영리 - 기타유통업","category":"other"},{"name":"대신썬","tel":"031-234-1597","addr":"경기도 수원시 권선구 세류동 1119-29번지","indutype":"전기제품 - 기타전기제품","category":"other"},{"name":"엘엔씨디자인","tel":"031-235-9966","addr":"경기도 수원시 권선구 세류동 1119-29번지 101호","indutype":"가구 - 일반가구","category":"other"}]},{"lat":"37.251348449","long":"127.0165318","imageIndex":17,"items":[{"name":"그린유니폼","tel":"","addr":"경기도 수원시 권선구 세류동 1124번지","indutype":"의류 - 단체복","category":"other"},{"name":"수원목재","tel":"031-234-5635","addr":"경기도 수원시 권선구 세류동 1124번지","indutype":"건축자재 - 기타건축자재","category":"other"}]},{"lat":"37.249880473","long":"127.0072327","imageIndex":17,"items":[{"name":"극동기전","tel":"031-251-2021","addr":"경기도 수원시 권선구 세류동 633-1번지","indutype":"기타 - 기계공구","category":"other"}]},{"lat":"37.257736811","long":"127.01605951","imageIndex":17,"items":[{"name":"글씨와그림","tel":"0505-364-6363","addr":"경기도 수원시 권선구 세류동 870-28번지 1층","indutype":"서적문구 - 출판 및 인쇄물","category":"other"}]},{"lat":"37.262791794","long":"127.01406503","imageIndex":17,"items":[{"name":"금강아크릴","tel":"031-267-2090","addr":"경기도 수원시 권선구 세류동 145-5번지","indutype":"기타 - 기타 전문점","category":"other"}]},{"lat":"37.261989475","long":"127.01772867","imageIndex":17,"items":[{"name":"금광전기","tel":"031-238-2248","addr":"경기도 수원시 권선구 세류동 832-7번지","indutype":"전기제품 - 기타전기제품","category":"other"}]},{"lat":"37.260214383","long":"127.01822433","imageIndex":17,"items":[{"name":"금산과일직매장","tel":"031-232-3825","addr":"경기도 수원시 권선구 세류동 845번지","indutype":"회원제형태 - 기타1","category":"other"}]},{"lat":"37.248375433","long":"127.01258639","imageIndex":17,"items":[{"name":"금성상사","tel":"031-236-5623","addr":"경기도 수원시 권선구 세류동 1142-1번지","indutype":"건축자재 - 페인트","category":"other"},{"name":"용천종합목재","tel":"031-224-1233","addr":"경기도 수원시 권선구 세류동 1142-1번지","indutype":"건축자재 - 목재·석재·철물","category":"other"}]},{"lat":"37.248825656","long":"127.01567474","imageIndex":17,"items":[{"name":"금성세탁소","tel":"031-233-7008","addr":"경기도 수원시 권선구 세류동 1148-3번지 1층","indutype":"수리서비스 - 세탁소","category":"other"}]},{"lat":"37.251321892","long":"127.01148215","imageIndex":17,"items":[{"name":"금성전기조명","tel":"031-234-1822","addr":"경기도 수원시 권선구 세류동 580-31번지 영성빌딩","indutype":"건축자재 - 조명기구","category":"other"}]},{"lat":"37.263044192","long":"127.01283628","imageIndex":17,"items":[{"name":"금아타일위생기상사","tel":"031-235-3466","addr":"경기도 수원시 권선구 세류동 124번지","indutype":"건축자재 - 건축용 요업제품","category":"other"},{"name":"델타애드","tel":"031-235-3200","addr":"경기도 수원시 권선구 세류동 124번지","indutype":"건축자재 - 인테리어전문","category":"other"}]},{"lat":"37.256880778","long":"127.0165328","imageIndex":17,"items":[{"name":"금은동통신","tel":"070-7869-7420","addr":"경기도 수원시 권선구 세류동 875-10번지 1층","indutype":"사무통신 - 통신기기","category":"other"},{"name":"지음 모바일","tel":"031-223-1206","addr":"경기도 수원시 권선구 세류동 875-10번지 1층","indutype":"사무통신 - 통신기기","category":"other"}]},{"lat":"37.254962098","long":"127.01089642","imageIndex":17,"items":[{"name":"금진철물","tel":"031-222-7141","addr":"경기도 수원시 권선구 세류동 544-10번지 1층","indutype":"건축자재 - 목재·석재·철물","category":"other"}]},{"lat":"37.252321895","long":"127.01325192","imageIndex":17,"items":[{"name":"금호냉열기","tel":"031-237-7470","addr":"경기도 수원시 권선구 세류동 989-1번지","indutype":"전기제품 - 냉열기기","category":"other"}]},{"lat":"37.256989375","long":"127.01150534","imageIndex":17,"items":[{"name":"금화당","tel":"031-238-0901","addr":"경기도 수원시 권선구 세류동 531-2번지 1층","indutype":"신변잡화 - 귀금속","category":"other"},{"name":"밝은디자인","tel":"031-222-2824","addr":"경기도 수원시 권선구 세류동 531-2번지 1층","indutype":"용역 서비스 - 사무서비스","category":"other"},{"name":"아리움(arium)","tel":"031-223-5214","addr":"경기도 수원시 권선구 세류동 531-2번지","indutype":"문화.취미 - 화방·표구점","category":"other"}]},{"lat":"37.265765289","long":"127.01297192","imageIndex":17,"items":[{"name":"길쌈","tel":"031-898-8801","addr":"경기도 수원시 권선구 세류동 97-63번지 2층","indutype":"의류 - 맞춤복점","category":"other"}]},{"lat":"37.257322778","long":"127.01120102","imageIndex":17,"items":[{"name":"김미령우리옷","tel":"031-222-0123","addr":"경기도 수원시 권선구 세류동 466-15번지","indutype":"의류 - 맞춤복점","category":"other"}]},{"lat":"37.248960843","long":"127.01537044","imageIndex":17,"items":[{"name":"끈노리매듭공방","tel":"031-745-3142","addr":"경기도 수원시 권선구 세류동 1148-63번지","indutype":"문화.취미 - 문화취미기타","category":"other"},{"name":"미야 놀자","tel":"031-223-5214","addr":"경기도 수원시 권선구 세류동 1148-63번지 1","indutype":"의류 - 정장","category":"other"}]},{"lat":"37.266405142","long":"127.01141622","imageIndex":17,"items":[{"name":"남부지도","tel":"031-221-0973","addr":"경기도 수원시 권선구 세류동 75-26,1,2층","indutype":"기타 - 기타 전문점","category":"other"}]},{"lat":"37.2621521","long":"127.01367037","imageIndex":17,"items":[{"name":"남수공업사","tel":"031-233-9566","addr":"경기도 수원시 권선구 세류동 148-5번지 1층","indutype":"기타 - 기계공구","category":"other"}]},{"lat":"37.262377163","long":"127.01562066","imageIndex":17,"items":[{"name":"남원목기","tel":"031-238-5737","addr":"경기도 수원시 권선구 세류동 147-17번지","indutype":"문화.취미 - 민예·공예품","category":"other"}]},{"lat":"37.265738341","long":"127.01194601","imageIndex":17,"items":[{"name":"냉난방프라자","tel":"031-238-8388","addr":"경기도 수원시 권선구 세류동 97-5번지","indutype":"전기제품 - 가전제품","category":"other"}]},{"lat":"37.257547628","long":"127.01575512","imageIndex":17,"items":[{"name":"노란고무줄","tel":"031-225-1616","addr":"경기도 수원시 권선구 세류동 870-22번지 1층","indutype":"의류 - 정장","category":"other"},{"name":"수원컴퓨터수리","tel":"031-223-2119","addr":"경기도 수원시 권선구 세류동 870-22번지 101호","indutype":"사무통신 - 컴퓨터","category":"other"},{"name":"행복한하루","tel":"","addr":"경기도 수원시 권선구 세류동 870-22번지 1층","indutype":"의류 - 정장","category":"other"}]},{"lat":"37.263071451","long":"127.00958958","imageIndex":17,"items":[{"name":"노루페인트수원팔달점","tel":"031-242-2619","addr":"경기도 수원시 권선구 세류동 90-9번지 2호","indutype":"건축자재 - 페인트","category":"other"}]},{"lat":"37.262016942","long":"127.01370417","imageIndex":17,"items":[{"name":"노마진알뜰매장","tel":"031-222-0486","addr":"경기도 수원시 권선구 세류동 148-7번지","indutype":"신변잡화 - 기타잡화","category":"other"},{"name":"우성타일","tel":"031-236-3564","addr":"경기도 수원시 권선구 세류동 148-7번지 1층","indutype":"건축자재 - 건축용 요업제품","category":"other"}]},{"lat":"37.258629232","long":"127.01175353","imageIndex":17,"items":[{"name":"노아의상실","tel":"031-36-2474","addr":"경기도 수원시 권선구 세류동 467-20번지","indutype":"의류 - 맞춤복점","category":"other"}]},{"lat":"37.254574692","long":"127.01033278","imageIndex":17,"items":[{"name":"누네띠네이불방","tel":"031-269-4585","addr":"경기도 수원시 권선구 세류동 541-5번지","indutype":"직물 - 침구·수예점","category":"other"},{"name":"이불개는남자","tel":"","addr":"경기도 수원시 권선구 세류동 541-5번지 1층","indutype":"직물 - 침구·수예점","category":"other"}]},{"lat":"37.252042594","long":"127.01303772","imageIndex":17,"items":[{"name":"누리교육센타","tel":"031-297-9594","addr":"경기도 수원시 권선구 세류동 980-57번지","indutype":"서적문구 - 기타서적문구","category":"other"}]},{"lat":"37.256321716","long":"127.01981293","imageIndex":17,"items":[{"name":"누리텔","tel":"031-223-2101","addr":"경기도 수원시 권선구 세류동 1076-3번지 메디컬센터 101호","indutype":"사무통신 - 통신기기","category":"other"},{"name":"주식회사엘리","tel":"031-221-5622","addr":"경기도 수원시 권선구 세류동 1076-3번지 평화빌딩 8층 801호","indutype":"문화.취미 - 애완동물","category":"other"}]},{"lat":"37.253736618","long":"127.01197839","imageIndex":17,"items":[{"name":"뉴모던 인테리어 팩토리","tel":"","addr":"경기도 수원시 권선구 세류동 1001-2번지 301호","indutype":"건축자재 - 인테리어전문","category":"other"}]},{"lat":"37.253906893","long":"127.02022945","imageIndex":17,"items":[{"name":"뉴에이스주식회사","tel":"031-267-1861","addr":"경기도 수원시 권선구 세류동 1100-5번지 성림빌딩 6층","indutype":"기타 - 기타 전문점","category":"other"}]},{"lat":"37.254375992","long":"127.01583349","imageIndex":17,"items":[{"name":"니꼴","tel":"031-226-6004","addr":"경기도 수원시 권선구 세류동 1111-21번지","indutype":"의류 - 정장","category":"other"}]},{"lat":"37.255853809","long":"127.01461634","imageIndex":17,"items":[{"name":"다락방","tel":"031-223-9579","addr":"경기도 수원시 권선구 세류동 1011-13번지 1층","indutype":"의류 - 정장","category":"other"}]},{"lat":"37.258016274","long":"127.01469558","imageIndex":17,"items":[{"name":"다람정보통신","tel":"031-224-9669","addr":"경기도 수원시 권선구 세류동 501-27번지","indutype":"사무통신 - 통신기기","category":"other"},{"name":"비비드진스","tel":"","addr":"경기도 수원시 권선구 세류동 501-27번지","indutype":"의류 - 정장","category":"other"}]},{"lat":"37.255880077","long":"127.02072588","imageIndex":17,"items":[{"name":"다반","tel":"","addr":"경기도 수원시 권선구 세류동 1080번지 102호","indutype":"주방용구 - 주방용구","category":"other"}]},{"lat":"37.258512161","long":"127.01086298","imageIndex":17,"items":[{"name":"다솜컴퍼니","tel":"031-1111-1111","addr":"경기도 수원시 권선구 세류동 469-2번지 101호","indutype":"유통업 영리 - 편 의 점","category":"other"}]},{"lat":"37.25573647","long":"127.01653259","imageIndex":17,"items":[{"name":"다송 ENG","tel":"031-8013-8833","addr":"경기도 수원시 권선구 세류동 1090-21번지 1층","indutype":"용역 서비스 - 기타용역서비스","category":"other"}]},{"lat":"37.259151743","long":"127.01283577","imageIndex":17,"items":[{"name":"다온유통","tel":"031-898-8972","addr":"경기도 수원시 권선구 세류동 524번지 1층","indutype":"주방용구 - 주방용구","category":"other"},{"name":"주식회사모바일마트","tel":"031-233-9711","addr":"경기도 수원시 권선구 세류동 524번지","indutype":"사무통신 - 통신기기","category":"other"},{"name":"주식회사모바일마트_PS","tel":"031-438-2811","addr":"경기도 수원시 권선구 세류동 524번지","indutype":"사무통신 - 통신기기","category":"other"},{"name":"풍경인테리어","tel":"031-222-6789","addr":"경기도 수원시 권선구 세류동 524번지","indutype":"건축자재 - 인테리어전문","category":"other"}]},{"lat":"37.262630136","long":"127.00325399","imageIndex":17,"items":[{"name":"다온프로덕션","tel":"031-215-2301","addr":"경기도 수원시 권선구 세류동 186-2번지","indutype":"용역 서비스 - 종합용역","category":"other"}]},{"lat":"37.255159842","long":"127.01625069","imageIndex":17,"items":[{"name":"다이렉트택배","tel":"","addr":"경기도 수원시 권선구 세류동 1090-13번지 501호","indutype":"용역 서비스 - 종합용역","category":"other"}]},{"lat":"37.248321385","long":"127.01241731","imageIndex":17,"items":[{"name":"다인 인테리어","tel":"031-226-3651","addr":"경기도 수원시 권선구 세류동 1142-11번지","indutype":"건축자재 - 인테리어전문","category":"other"}]},{"lat":"37.26584639","long":"127.01287047","imageIndex":17,"items":[{"name":"단한복","tel":"031-267-2500","addr":"경기도 수원시 권선구 세류동 97-64번지","indutype":"의류 - 맞춤복점","category":"other"},{"name":"프라임쥬얼리","tel":"031-224-4759","addr":"경기도 수원시 권선구 세류동 97-64번지","indutype":"신변잡화 - 귀금속","category":"other"}]},{"lat":"37.251015767","long":"127.00739057","imageIndex":17,"items":[{"name":"당당한 그녀","tel":"070-2699-0807","addr":"경기도 수원시 권선구 세류동 648-1번지 탑캐슬 303호","indutype":"의류 - 내의판매","category":"other"}]},{"lat":"37.246681022","long":"127.01722975","imageIndex":17,"items":[{"name":"대동스텐공업(주)수원대리점","tel":"031-267-2008","addr":"경기도 수원시 권선구 세류동 1151-11번지","indutype":"건축자재 - 기타건축자재","category":"other"},{"name":"미스터바이크","tel":"031-305-0414","addr":"경기도 수원시 권선구 세류동 1151-11번지 1층","indutype":"레져용품 - 스포츠·레져용품","category":"other"}]},{"lat":"37.258484653","long":"127.01617237","imageIndex":17,"items":[{"name":"대림ENG","tel":"031-237-1191","addr":"경기도 수원시 권선구 세류동 868-58번지 지하1층","indutype":"기타 - 기계공구","category":"other"}]},{"lat":"37.261818471","long":"127.01611659","imageIndex":17,"items":[{"name":"대박광고디자인","tel":"031-233-2018","addr":"경기도 수원시 권선구 세류동 155-12번지 1층","indutype":"용역 서비스 - 종합용역","category":"other"},{"name":"세기냉동공조","tel":"031-233-8681","addr":"경기도 수원시 권선구 세류동 155-12번지","indutype":"전기제품 - 냉열기기","category":"other"}]},{"lat":"37.257547496","long":"127.01691618","imageIndex":17,"items":[{"name":"대박통신세류점","tel":"031-234-2522","addr":"경기도 수원시 권선구 세류동 881-8번지 1층","indutype":"사무통신 - 통신기기","category":"other"}]},{"lat":"37.256186485","long":"127.0203427","imageIndex":17,"items":[{"name":"대상전기","tel":"031-8002-7730","addr":"경기도 수원시 권선구 세류동 1077-11번지 1층 101호","indutype":"전기제품 - 기타전기제품","category":"other"}]},{"lat":"37.248077612","long":"127.01730892","imageIndex":17,"items":[{"name":"대상폴리텍","tel":"","addr":"경기도 수원시 권선구 세류동 1150-20번지","indutype":"건축자재 - 기타건축자재","category":"other"}]},{"lat":"37.25493483","long":"127.01386097","imageIndex":17,"items":[{"name":"대성ENG","tel":"031-221-9617","addr":"경기도 수원시 권선구 세류동 1018-63번지","indutype":"건축자재 - 인테리어전문","category":"other"}]},{"lat":"37.248411037","long":"127.0169483","imageIndex":17,"items":[{"name":"대성전자","tel":"031-234-1591","addr":"경기도 수원시 권선구 세류동 1150-15번지","indutype":"수리서비스 - 가정용품수리","category":"other"}]},{"lat":"37.259935623","long":"127.01302751","imageIndex":17,"items":[{"name":"대성조명","tel":"031-237-7181","addr":"경기도 수원시 권선구 세류동 497-16번지","indutype":"건축자재 - 조명기구","category":"other"}]},{"lat":"37.251682052","long":"127.01444662","imageIndex":17,"items":[{"name":"대영종합주방","tel":"031-890-7599","addr":"경기도 수원시 권선구 세류동 1126-23번지","indutype":"주방용구 - 주방용구","category":"other"},{"name":"수원종합전기","tel":"031-233-0284","addr":"경기도 수원시 권선구 세류동 1126-23번지 1층 101호","indutype":"전기제품 - 기타전기제품","category":"other"}]},{"lat":"37.257520579","long":"127.0159242","imageIndex":17,"items":[{"name":"대오종합인테리어","tel":"031-221-2610","addr":"경기도 수원시 권선구 세류동 870-23번지","indutype":"직물 - 카페트,커튼,천막,지물","category":"other"}]},{"lat":"37.252654957","long":"127.01641932","imageIndex":17,"items":[{"name":"대우냉동엔지니어링","tel":"031-222-6876","addr":"경기도 수원시 권선구 세류동 1115-16번지","indutype":"수리서비스 - 기타수리서비스","category":"other"},{"name":"혜원공사","tel":"031-257-0104","addr":"경기도 수원시 권선구 세류동 1115-16번지","indutype":"용역 서비스 - 기타용역서비스","category":"other"}]},{"lat":"37.258457911","long":"127.01328658","imageIndex":17,"items":[{"name":"대우에어컨","tel":"031-234-6674","addr":"경기도 수원시 권선구 세류동 522-5","indutype":"전기제품 - 가전제품","category":"other"}]},{"lat":"37.259935761","long":"127.01125767","imageIndex":17,"items":[{"name":"대우지게차","tel":"031-336-2600","addr":"경기도 수원시 권선구 세류동 479-7번지","indutype":"기타 - 기계공구","category":"other"},{"name":"독도미니포크레인","tel":"031-000-0000","addr":"경기도 수원시 권선구 세류동 479-7번지","indutype":"기타 - 기계공구","category":"other"},{"name":"뻐꾸기중기(성심중기)","tel":"031-000-0000","addr":"경기도 수원시 권선구 세류동 479-7번지","indutype":"기타 - 기계공구","category":"other"},{"name":"성심중기","tel":"031-1522-5633","addr":"경기도 수원시 권선구 세류동 479-7번지 1층","indutype":"기타 - 기계공구","category":"other"},{"name":"성심중기","tel":"031-296-8882","addr":"경기도 수원시 권선구 세류동 479-7번지","indutype":"기타 - 기계공구","category":"other"},{"name":"성심중기","tel":"031-635-8150","addr":"경기도 수원시 권선구 세류동 479-7번지","indutype":"기타 - 기계공구","category":"other"},{"name":"성심중기","tel":"031-677-9090","addr":"경기도 수원시 권선구 세류동 479-7번지","indutype":"기타 - 기계공구","category":"other"},{"name":"성심중기","tel":"031-502-5550","addr":"경기도 수원시 권선구 세류동 479-7번지","indutype":"기타 - 기계공구","category":"other"},{"name":"중앙미니중기","tel":"","addr":"경기도 수원시 권선구 세류동 479-7번지","indutype":"기타 - 기계공구","category":"other"},{"name":"철마미니중기(성심중기)","tel":"031-546-5811","addr":"경기도 수원시 권선구 세류동 479-7번지","indutype":"기타 - 기계공구","category":"other"},{"name":"협성중기","tel":"031-255-5574","addr":"경기도 수원시 권선구 세류동 479-7번지","indutype":"기타 - 기계공구","category":"other"}]},{"lat":"37.262458482","long":"127.01330967","imageIndex":17,"items":[{"name":"대원주방","tel":"031-238-8481","addr":"경기도 수원시 권선구 세류동 494번지 1층","indutype":"주방용구 - 주방용구","category":"other"}]},{"lat":"37.265963552","long":"127.01253227","imageIndex":17,"items":[{"name":"대일방재산업","tel":"031-267-1994","addr":"경기도 수원시 권선구 세류동 97-117번지","indutype":"건축자재 - 건축용 요업제품","category":"other"},{"name":"도기도기","tel":"031-223-7222","addr":"경기도 수원시 권선구 세류동 97-117번지 1층 1호","indutype":"문화.취미 - 애완동물","category":"other"}]},{"lat":"37.263513114","long":"127.00558758","imageIndex":17,"items":[{"name":"대주물산","tel":"031-236-6691","addr":"경기도 수원시 권선구 세류동 244-8,1","indutype":"농업 - 비료,사료,종자","category":"other"}]},{"lat":"37.252736011","long":"127.01675749","imageIndex":17,"items":[{"name":"대주환경","tel":"031-232-8586","addr":"경기도 수원시 권선구 세류동 1107-10번지 지하","indutype":"용역 서비스 - 종합용역","category":"other"}]},{"lat":"37.252187076","long":"127.00816838","imageIndex":17,"items":[{"name":"대진산업","tel":"031-6863-9966","addr":"경기도 수원시 권선구 세류동 654-6번지","indutype":"주방용구 - 주방용구","category":"other"}]},{"lat":"37.251213288","long":"127.01658814","imageIndex":17,"items":[{"name":"대창종합건재","tel":"031-222-5559","addr":"경기도 수원시 권선구 세류동 1124-1번지","indutype":"건축자재 - 기타건축자재","category":"other"}]},{"lat":"37.261269333","long":"127.0105589","imageIndex":17,"items":[{"name":"대한공조","tel":"031-000-0000","addr":"경기도 수원시 권선구 세류동 342-19번지","indutype":"용역 서비스 - 기타용역서비스","category":"other"}]},{"lat":"37.251492806","long":"127.01475092","imageIndex":17,"items":[{"name":"대현전기조명","tel":"031-235-0040","addr":"경기도 수원시 권선구 세류동 1126-4번지","indutype":"건축자재 - 조명기구","category":"other"},{"name":"아트LED전광판","tel":"031-239-0105","addr":"경기도 수원시 권선구 세류동 1126-4번지","indutype":"건축자재 - 인테리어전문","category":"other"}]},{"lat":"37.246464781","long":"127.01717336","imageIndex":17,"items":[{"name":"대흥CNC","tel":"031-232-7704","addr":"경기도 수원시 권선구 세류동 1151-23번지","indutype":"건축자재 - 페인트","category":"other"},{"name":"주식회사 삼선","tel":"031-233-4971","addr":"경기도 수원시 권선구 세류동 1151-23번지 2층","indutype":"기타 - 기계공구","category":"other"}]},{"lat":"37.263179613","long":"127.00886809","imageIndex":17,"items":[{"name":"더 포슬린 스튜디오","tel":"031-224-0709","addr":"경기도 수원시 권선구 세류동 229-50번지","indutype":"문화.취미 - 문화취미기타","category":"other"}]},{"lat":"37.257601616","long":"127.01642021","imageIndex":17,"items":[{"name":"더바람","tel":"031-555-0802","addr":"경기도 수원시 권선구 세류동 873-2번지 1층 바람공방","indutype":"신변잡화 - 액세서리","category":"other"}]},{"lat":"37.264459038","long":"127.00955588","imageIndex":17,"items":[{"name":"더벤즈빈커피","tel":"070-8715-8326","addr":"경기도 수원시 권선구 세류동 1260번지 LH수원센트럴타운1단지 112동 1002호","indutype":"주방용구 - 주방용구","category":"other"},{"name":"별사탕리본","tel":"","addr":"경기도 수원시 권선구 세류동 1260번지 LH수원센트럴타운1단지 102동 101호","indutype":"신변잡화 - 액세서리","category":"other"},{"name":"이리터","tel":"031-000-0000","addr":"경기도 수원시 권선구 세류동 1260번지 LH수원센트럴타운1단지 101동 301호","indutype":"전기제품 - 가전제품","category":"other"},{"name":"크린토피아 수원세류센트럴타운1단지점","tel":"031-111-1111","addr":"경기도 수원시 권선구 세류동 1260번지 LH수원센트럴타운1단지 상가동 204호","indutype":"수리서비스 - 세탁소","category":"other"}]},{"lat":"37.248961133","long":"127.01222578","imageIndex":17,"items":[{"name":"더수원어르신종합돌봄센터","tel":"031-1666-8853","addr":"경기도 수원시 권선구 세류동 587-3번지 2층","indutype":"기타의료기관 - 기타의료기관 및 기타","category":"other"}]},{"lat":"37.251547119","long":"127.01189923","imageIndex":17,"items":[{"name":"더콤","tel":"","addr":"경기도 수원시 권선구 세류동 981-3번지 1층","indutype":"신변잡화 - 액세서리","category":"other"}]},{"lat":"37.259124212","long":"127.01763793","imageIndex":17,"items":[{"name":"덕인철물열쇠","tel":"031-233-8226","addr":"경기도 수원시 권선구 세류동 854-12번지","indutype":"기타 - 기계공구","category":"other"}]},{"lat":"37.254186614","long":"127.01723118","imageIndex":17,"items":[{"name":"도도","tel":"","addr":"경기도 수원시 권선구 세류동 1093-9번지 1층","indutype":"의류 - 정장","category":"other"}]},{"lat":"37.254186514","long":"127.01803148","imageIndex":17,"items":[{"name":"도서출판 뜨락에","tel":"031-223-1880","addr":"경기도 수원시 권선구 세류동 1095-7번지 2층","indutype":"서적문구 - 출판 및 인쇄물","category":"other"},{"name":"실과바늘","tel":"031-217-2825","addr":"경기도 수원시 권선구 세류동 1095-7번지 1층","indutype":"수리서비스 - 세탁소","category":"other"}]},{"lat":"37.252546805","long":"127.01666728","imageIndex":17,"items":[{"name":"동그라미교육","tel":"070-5089-3726","addr":"경기도 수원시 권선구 세류동 1116번지 2층","indutype":"서적문구 - 일반서적","category":"other"},{"name":"유신종합상사","tel":"031-252-6431","addr":"경기도 수원시 권선구 세류동 1116번지 지하층","indutype":"신변잡화 - 기타잡화","category":"other"}]},{"lat":"37.258629012","long":"127.01431241","imageIndex":17,"items":[{"name":"동남사","tel":"031-232-3641","addr":"경기도 수원시 권선구 세류동 520-16번지","indutype":"기타 - 기계공구","category":"other"}]},{"lat":"37.250213389","long":"127.01425478","imageIndex":17,"items":[{"name":"동서유통","tel":"031-221-8406","addr":"경기도 수원시 권선구 세류동 1136-2번지 삼화맨션 1층","indutype":"기타 - 기타 전문점","category":"other"}]},{"lat":"37.26221508","long":"127.01463987","imageIndex":17,"items":[{"name":"동서타이루","tel":"031-339-5033","addr":"경기도 수원시 권선구 세류동 147-44번지","indutype":"건축자재 - 건축용 요업제품","category":"other"},{"name":"한국광고공사","tel":"031-267-0821","addr":"경기도 수원시 권선구 세류동 147-44번지","indutype":"용역 서비스 - 종합용역","category":"other"}]},{"lat":"37.255069129","long":"127.02086096","imageIndex":17,"items":[{"name":"동성합판목재상사","tel":"031-237-1039","addr":"경기도 수원시 권선구 세류동 1079-5번지","indutype":"건축자재 - 기타건축자재","category":"other"}]},{"lat":"37.258656188","long":"127.01270043","imageIndex":17,"items":[{"name":"동아타일","tel":"031-232-1294","addr":"경기도 수원시 권선구 세류동 524-20번지 1층 상가","indutype":"건축자재 - 기타건축자재","category":"other"}]},{"lat":"37.254349363","long":"127.01139232","imageIndex":17,"items":[{"name":"동양","tel":"031-238-6004","addr":"경기도 수원시 권선구 세류동 1028-1번지","indutype":"신변잡화 - 기타잡화","category":"other"}]},{"lat":"37.253429697","long":"127.01764809","imageIndex":17,"items":[{"name":"동탄스파클","tel":"031-202-8209","addr":"경기도 수원시 권선구 세류동 1105-1번지 1층","indutype":"유통업 영리 - 기타유통업","category":"other"}]},{"lat":"37.255160251","long":"127.0119222","imageIndex":17,"items":[{"name":"동탄페인트","tel":"031-205-0477","addr":"경기도 수원시 권선구 세류동 537-23번지 1층","indutype":"건축자재 - 페인트","category":"other"}]},{"lat":"37.263872492","long":"127.01876619","imageIndex":17,"items":[{"name":"동흥 ENG","tel":"00-0000-0000","addr":"경기도 수원시 권선구 세류동 817-154번지 굿모닝위너스빌 101동 502호","indutype":"수리서비스 - 기타수리서비스","category":"other"}]},{"lat":"37.261845709","long":"127.01410998","imageIndex":17,"items":[{"name":"두리애견용품","tel":"031-225-7533","addr":"경기도 수원시 권선구 세류동 150-8번지","indutype":"문화.취미 - 애완동물","category":"other"},{"name":"오오열쇠도장금고","tel":"031-232-5513","addr":"경기도 수원시 권선구 세류동 150-8번지","indutype":"기타 - 기계공구","category":"other"}]},{"lat":"37.263575749","long":"127.01342256","imageIndex":17,"items":[{"name":"두산중부유압","tel":"031-223-5214","addr":"경기도 수원시 권선구 세류동 126-3번지","indutype":"수리서비스 - 기타수리서비스","category":"other"}]},{"lat":"37.252069998","long":"127.00670306","imageIndex":17,"items":[{"name":"두상개발(주)","tel":"031-225-3010","addr":"경기도 수원시 권선구 세류동 677-2번지 신영빌 101호","indutype":"용역 서비스 - 기타용역서비스","category":"other"}]},{"lat":"37.263737862","long":"127.01420045","imageIndex":17,"items":[{"name":"드림","tel":"031-223-7536","addr":"경기도 수원시 권선구 세류동 130번지","indutype":"사무통신 - 통신기기","category":"other"}]},{"lat":"37.262377306","long":"127.01422279","imageIndex":17,"items":[{"name":"드림주얼리","tel":"031-222-1474","addr":"경기도 수원시 권선구 세류동 147-2번지 1층","indutype":"신변잡화 - 귀금속","category":"other"}]},{"lat":"37.253961698","long":"127.01406372","imageIndex":17,"items":[{"name":"드림테크","tel":"031-221-1405","addr":"경기도 수원시 권선구 세류동 1019-11번지","indutype":"전기제품 - 가전제품","category":"other"}]},{"lat":"37.253961895","long":"127.01173043","imageIndex":17,"items":[{"name":"디에스컴퍼니","tel":"","addr":"경기도 수원시 권선구 세류동 1029-3번지 802호","indutype":"용역 서비스 - 종합용역","category":"other"},{"name":"엠앤에스(M&S)","tel":"031-0000-0000","addr":"경기도 수원시 권선구 세류동 1029-3번지 가림빌딩 902호","indutype":"의류 - 정장","category":"other"}]},{"lat":"37.24804204","long":"127.01272159","imageIndex":17,"items":[{"name":"디와이(D.Y)샤링","tel":"031-239-6822","addr":"경기도 수원시 권선구 세류동 1142-3번지","indutype":"건축자재 - 기타건축자재","category":"other"}]},{"lat":"37.251492642","long":"127.01628385","imageIndex":17,"items":[{"name":"디자인 정담","tel":"031-267-3555","addr":"경기도 수원시 권선구 세류동 1125-5번지 101호","indutype":"건축자재 - 인테리어전문","category":"other"}]},{"lat":"37.254628502","long":"127.01361294","imageIndex":17,"items":[{"name":"디자인피플","tel":"031-234-0479","addr":"경기도 수원시 권선구 세류동 1019-32번지","indutype":"건축자재 - 인테리어전문","category":"other"}]},{"lat":"37.252375471","long":"127.01780569","imageIndex":17,"items":[{"name":"라브리","tel":"031-239-4480","addr":"경기도 수원시 권선구 세류동 1104-17번지","indutype":"용역 서비스 - 종합용역","category":"other"}]},{"lat":"37.258151464","long":"127.01433488","imageIndex":17,"items":[{"name":"라온건축","tel":"070-8232-4042","addr":"경기도 수원시 권선구 세류동 501-29번지 1층","indutype":"용역 서비스 - 기타용역서비스","category":"other"}]},{"lat":"37.26617987","long":"127.01161913","imageIndex":17,"items":[{"name":"라온바이크","tel":"02-1111-1111","addr":"경기도 수원시 권선구 세류동 1258-2번지 탑메디칼프라자 1층 106호","indutype":"레져용품 - 스포츠·레져용품","category":"other"},{"name":"젠틀맨쿼터스","tel":"031-233-3577","addr":"경기도 수원시 권선구 세류동 1258-2번지 105호","indutype":"의류 - 정장","category":"other"},{"name":"주식회사 잭쓰리(JACK THREE)","tel":"031-237-0718","addr":"경기도 수원시 권선구 세류동 1258-2번지 107호","indutype":"신변잡화 - 기타잡화","category":"other"}]},{"lat":"37.25442968","long":"127.0188882","imageIndex":17,"items":[{"name":"라이프금속","tel":"031-238-9219","addr":"경기도 수원시 권선구 세류동 1096-6번지","indutype":"건축자재 - 유리","category":"other"}]},{"lat":"37.244681013","long":"127.01467096","imageIndex":17,"items":[{"name":"라인유통 꾼","tel":"031-222-9110","addr":"경기도 수원시 권선구 세류동 1146-31번지","indutype":"의류 - 정장","category":"other"},{"name":"조아공인중개사사무소","tel":"031-221-3303","addr":"경기도 수원시 권선구 세류동 1146-31번지","indutype":"용역 서비스 - 부동산 중개·임대","category":"other"},{"name":"타이페이","tel":"031-890-1121","addr":"경기도 수원시 권선구 세류동 1146-31번지 2층","indutype":"신변잡화 - 기타잡화","category":"other"},{"name":"효성정보통신","tel":"031-225-3457","addr":"경기도 수원시 권선구 세류동 1146-31번지 1층","indutype":"사무통신 - 통신기기","category":"other"}]},{"lat":"37.254430074","long":"127.01564187","imageIndex":17,"items":[{"name":"럭셔리","tel":"","addr":"경기도 수원시 권선구 세류동 1111번지 1층","indutype":"의류 - 정장","category":"other"},{"name":"부일사","tel":"031-224-6885","addr":"경기도 수원시 권선구 세류동 1111번지 1층","indutype":"신변잡화 - 귀금속","category":"other"},{"name":"촌놈세류","tel":"070-8210-0071","addr":"경기도 수원시 권선구 세류동 1111번지 1층","indutype":"사무통신 - 통신기기","category":"other"}]},{"lat":"37.251159703","long":"127.01152722","imageIndex":17,"items":[{"name":"레몬디자인연구소","tel":"031-225-9882","addr":"경기도 수원시 권선구 세류동 580-28번지","indutype":"용역 서비스 - 종합용역","category":"other"}]},{"lat":"37.249348513","long":"127.01300355","imageIndex":17,"items":[{"name":"레인보우텔레콤(세류점)","tel":"031-303-9689","addr":"경기도 수원시 권선구 세류동 1141-14번지","indutype":"사무통신 - 통신기기","category":"other"}]},{"lat":"37.2596835","long":"127.0108631","imageIndex":17,"items":[{"name":"로고스기연","tel":"031-214-1661","addr":"경기도 수원시 권선구 세류동 474-2 101","indutype":"전기제품 - 기타전기제품","category":"other"}]},{"lat":"37.249240299","long":"127.01400667","imageIndex":17,"items":[{"name":"루디아","tel":"031-222-1726","addr":"경기도 수원시 권선구 세류동 1140-6번지","indutype":"의류 - 정장","category":"other"}]},{"lat":"37.254294792","long":"127.01678032","imageIndex":17,"items":[{"name":"루비보석","tel":"031-238-3780","addr":"경기도 수원시 권선구 세류동 1092-21번지","indutype":"신변잡화 - 시계","category":"other"},{"name":"명신주얼리","tel":"031-233-8912","addr":"경기도 수원시 권선구 세류동 1092-21번지","indutype":"신변잡화 - 귀금속","category":"other"}]},{"lat":"37.252520307","long":"127.01086234","imageIndex":17,"items":[{"name":"루월타투","tel":"031-232-6092","addr":"경기도 수원시 권선구 세류동 564-17번지","indutype":"용역 서비스 - 사무서비스","category":"other"}]},{"lat":"37.258710627","long":"127.0055085","imageIndex":17,"items":[{"name":"류아로마","tel":"031-226-9088","addr":"경기도 수원시 권선구 세류동 212번지 102,103호","indutype":"신변잡화 - 기타잡화","category":"other"}]},{"lat":"37.253546624","long":"127.01922617","imageIndex":17,"items":[{"name":"류이건축사사무소","tel":"031-267-0187","addr":"경기도 수원시 권선구 세류동 1098-15번지 한희빌딩 2층","indutype":"용역 서비스 - 사무서비스","category":"other"},{"name":"신공구","tel":"031-224-4147","addr":"경기도 수원시 권선구 세류동 1098-15번지","indutype":"기타 - 기계공구","category":"other"}]},{"lat":"37.248933798","long":"127.01550569","imageIndex":17,"items":[{"name":"리더스기획","tel":"031-235-0357","addr":"경기도 수원시 권선구 세류동 1148-64번지","indutype":"용역 서비스 - 종합용역","category":"other"},{"name":"수원재활용센터","tel":"031-212-9080","addr":"경기도 수원시 권선구 세류동 1148-64번지 1층 수원재활용","indutype":"전기제품 - 가전제품","category":"other"}]},{"lat":"37.252600638","long":"127.01850458","imageIndex":17,"items":[{"name":"리더스시공","tel":"031-000-0000","addr":"경기도 수원시 권선구 세류동 1103-8번지 101호","indutype":"용역 서비스 - 기타용역서비스","category":"other"}]},{"lat":"37.257241413","long":"127.01444747","imageIndex":17,"items":[{"name":"리브로스","tel":"","addr":"경기도 수원시 권선구 세류동 507-10번지","indutype":"의류 - 정장","category":"other"}]},{"lat":"37.262575671","long":"127.01266712","imageIndex":17,"items":[{"name":"리빙홈케어","tel":"02-451-3997","addr":"경기도 수원시 권선구 세류동 485번지 3층","indutype":"용역 서비스 - 종합용역","category":"other"},{"name":"파이프팜","tel":"031-242-7991","addr":"경기도 수원시 권선구 세류동 485번지 지하1층","indutype":"신변잡화 - 기타잡화","category":"other"}]},{"lat":"37.252547328","long":"127.01100888","imageIndex":17,"items":[{"name":"린나이건축설비공사","tel":"031-239-6556","addr":"경기도 수원시 권선구 세류동 566-5번지","indutype":"용역 서비스 - 기타용역서비스","category":"other"}]},{"lat":"37.254430453","long":"127.01142615","imageIndex":17,"items":[{"name":"마더스몰","tel":"031-236-5736","addr":"경기도 수원시 권선구 세류동 1030-6번지 1층","indutype":"의류 - 정장","category":"other"}]},{"lat":"37.255853682","long":"127.01583374","imageIndex":17,"items":[{"name":"마스타정보통신","tel":"031-269-1888","addr":"경기도 수원시 권선구 세류동 879-28번지 2층","indutype":"사무통신 - 통신기기","category":"other"}]},{"lat":"37.255574233","long":"127.01697218","imageIndex":17,"items":[{"name":"마실(masil)","tel":"","addr":"경기도 수원시 권선구 세류동 1091-18번지","indutype":"의류 - 정장","category":"other"},{"name":"예일건축디자인","tel":"031-225-4117","addr":"경기도 수원시 권선구 세류동 1091-18번지 코너 1층","indutype":"용역 서비스 - 기타용역서비스","category":"other"}]},{"lat":"37.256492955","long":"127.01950862","imageIndex":17,"items":[{"name":"마운틴아울렛 1","tel":"031-221-8910","addr":"경기도 수원시 권선구 세류동 1076-1번지 해피하임아파트 1층 102호","indutype":"의류 - 스포츠의류","category":"other"}]},{"lat":"37.251628251","long":"127.01136947","imageIndex":17,"items":[{"name":"만부수도","tel":"031-35-2790","addr":"경기도 수원시 권선구 세류동 580-17번지","indutype":"건축자재 - 건축용 요업제품","category":"other"}]},{"lat":"37.250627377","long":"127.01852672","imageIndex":17,"items":[{"name":"만수무강 한복대여점 수원본점","tel":"031-226-5233","addr":"경기도 수원시 권선구 세류동 1121-4번지 리치타워 102~103호","indutype":"의류 - 맞춤복점","category":"other"},{"name":"예서","tel":"031-898-5733","addr":"경기도 수원시 권선구 세류동 1121-4번지 리치타워101-B호","indutype":"의류 - 기타의류","category":"other"},{"name":"예원스튜디오","tel":"031-234-4789","addr":"경기도 수원시 권선구 세류동 1121-4번지 리치타워 601호","indutype":"광학제품 - 사진관","category":"other"},{"name":"트레저하우스(Treasure House)","tel":"070-4696-0288","addr":"경기도 수원시 권선구 세류동 1121-4번지 리치타워 501호","indutype":"의류 - 정장","category":"other"}]},{"lat":"37.257403402","long":"127.01630745","imageIndex":17,"items":[{"name":"맥스","tel":"031-234-6126","addr":"경기도 수원시 권선구 세류동 870-20번지","indutype":"회원제형태 - 기타1","category":"other"},{"name":"수원정보통신","tel":"031-235-2711","addr":"경기도 수원시 권선구 세류동 870-20번지","indutype":"사무통신 - 통신기기","category":"other"},{"name":"오케이에드","tel":"070-4797-9596","addr":"경기도 수원시 권선구 세류동 870-20번지","indutype":"용역 서비스 - 종합용역","category":"other"}]},{"lat":"37.254069388","long":"127.0179751","imageIndex":17,"items":[{"name":"멋쟁이옷장","tel":"","addr":"경기도 수원시 권선구 세류동 1095-8번지 1층","indutype":"의류 - 정장","category":"other"}]},{"lat":"37.255042338","long":"127.01920395","imageIndex":17,"items":[{"name":"메카스포츠","tel":"031-236-7993","addr":"경기도 수원시 권선구 세류동 1082-10번지","indutype":"레져용품 - 스포츠·레져용품","category":"other"}]},{"lat":"37.25337537","long":"127.01964319","imageIndex":17,"items":[{"name":"명가사","tel":"031-223-0433","addr":"경기도 수원시 권선구 세류동 1099-7번지 금강주택 상가 101호","indutype":"용역 서비스 - 종합용역","category":"other"}]},{"lat":"37.254908177","long":"127.00845037","imageIndex":17,"items":[{"name":"명성공조닥트","tel":"031-239-6979","addr":"경기도 수원시 권선구 세류동 440-8번지 1층 102호","indutype":"용역 서비스 - 기타용역서비스","category":"other"},{"name":"한국금형정밀","tel":"031-225-0365","addr":"경기도 수원시 권선구 세류동 440-8번지","indutype":"기타 - 기계공구","category":"other"}]},{"lat":"37.261593731","long":"127.01013055","imageIndex":17,"items":[{"name":"명성그린시스템","tel":"031-232-2220","addr":"경기도 수원시 권선구 세류동 344-5번지 심우연립 9동 201호","indutype":"사무통신 - 컴퓨터","category":"other"}]},{"lat":"37.260791557","long":"127.0135349","imageIndex":17,"items":[{"name":"명성인테리어","tel":"031-8013-9840","addr":"경기도 수원시 권선구 세류동 167-5번지","indutype":"건축자재 - 인테리어전문","category":"other"}]},{"lat":"37.254655713","long":"127.01139236","imageIndex":17,"items":[{"name":"명신당","tel":"031-236-9401","addr":"경기도 수원시 권선구 세류동 1030-1번지","indutype":"신변잡화 - 귀금속","category":"other"},{"name":"명품사","tel":"031-291-5739","addr":"경기도 수원시 권선구 세류동 1030-1번지 1층","indutype":"신변잡화 - 제화","category":"other"}]},{"lat":"37.252988261","long":"127.01708442","imageIndex":17,"items":[{"name":"명인사","tel":"031-248-6432","addr":"경기도 수원시 권선구 세류동 1107-19번지 1층","indutype":"수리서비스 - 신변잡화수리","category":"other"}]},{"lat":"37.250708795","long":"127.01583286","imageIndex":17,"items":[{"name":"명진에어컨","tel":"","addr":"경기도 수원시 권선구 세류동 1127-8번지","indutype":"용역 서비스 - 기타용역서비스","category":"other"}]},{"lat":"37.263152217","long":"127.01395235","imageIndex":17,"items":[{"name":"명창철강","tel":"031-232-4438","addr":"경기도 수원시 권선구 세류동 129-2번지","indutype":"건축자재 - 기타건축자재","category":"other"},{"name":"에스엠테크(SM 테크)","tel":"031-234-7032","addr":"경기도 수원시 권선구 세류동 129-2번지","indutype":"기타 - 기계공구","category":"other"}]},{"lat":"37.262602728","long":"127.0123402","imageIndex":17,"items":[{"name":"명품구제","tel":"031-3145-9329","addr":"경기도 수원시 권선구 세류동 486번지","indutype":"의류 - 정장","category":"other"}]},{"lat":"37.256151489","long":"127.01044565","imageIndex":17,"items":[{"name":"명품한빛세탁","tel":"031-238-3487","addr":"경기도 수원시 권선구 세류동 460-31번지 1층 101호","indutype":"수리서비스 - 세탁소","category":"other"}]},{"lat":"37.261792115","long":"127.00675992","imageIndex":17,"items":[{"name":"모노스터디카페","tel":"031-222-5400","addr":"경기도 수원시 권선구 세류동 1277번지 센트럴타운프라자 에이동 401,402호","indutype":"용역 서비스 - 사무서비스","category":"other"}]},{"lat":"37.254042483","long":"127.01694935","imageIndex":17,"items":[{"name":"모든패션","tel":"031-225-2840","addr":"경기도 수원시 권선구 세류동 1108번지","indutype":"의류 - 정장","category":"other"}]},{"lat":"37.256042554","long":"127.01867437","imageIndex":17,"items":[{"name":"모바일멀티샵","tel":"031-233-0414","addr":"경기도 수원시 권선구 세류동 1084-17번지","indutype":"수리서비스 - 사무·통신기기수리","category":"other"},{"name":"신영사무기","tel":"031-239-3412","addr":"경기도 수원시 권선구 세류동 1084-17번지","indutype":"사무통신 - 사무용 OA기기","category":"other"}]},{"lat":"37.25290765","long":"127.01222627","imageIndex":17,"items":[{"name":"무진집수리전기철물","tel":"031-238-8640","addr":"경기도 수원시 권선구 세류동 1002-5번지","indutype":"건축자재 - 목재·석재·철물","category":"other"}]},{"lat":"37.253213295","long":"127.01884286","imageIndex":17,"items":[{"name":"무한프린터","tel":"031-222-8645","addr":"경기도 수원시 권선구 세류동 1103-1번지 제마빌 1층","indutype":"사무통신 - 기타 사무용품","category":"other"}]},{"lat":"37.2548266","long":"127.01495434","imageIndex":17,"items":[{"name":"문영겔러리","tel":"070-8173-5529","addr":"경기도 수원시 권선구 세류동 1012-9번지","indutype":"의류 - 정장","category":"other"}]},{"lat":"37.25004246","long":"127.01100861","imageIndex":17,"items":[{"name":"미니스톱 세류베스트점","tel":"031-1577-9621","addr":"경기도 수원시 권선구 세류동 579-16번지","indutype":"유통업 영리 - 편 의 점","category":"other"},{"name":"케이우드(KWOOD)","tel":"031-226-3131","addr":"경기도 수원시 권선구 세류동 579-16번지","indutype":"건축자재 - 기타건축자재","category":"other"},{"name":"크린위드 세류베스트점","tel":"031-226-6498","addr":"경기도 수원시 권선구 세류동 579-16번지","indutype":"수리서비스 - 세탁소","category":"other"}]},{"lat":"37.259736942","long":"127.01739005","imageIndex":17,"items":[{"name":"미니스톱세류제일점","tel":"031-1577-9621","addr":"경기도 수원시 권선구 세류동 853번지","indutype":"유통업 영리 - 편 의 점","category":"other"}]},{"lat":"37.259845912","long":"127.00603836","imageIndex":17,"items":[{"name":"미니스톱세류주공점","tel":"031-232-3760","addr":"경기도 수원시 권선구 세류동 253-4번지 1층","indutype":"유통업 영리 - 편 의 점","category":"other"}]},{"lat":"37.255881146","long":"127.01095288","imageIndex":17,"items":[{"name":"미니스톱세류중앙점","tel":"031-1577-9621","addr":"경기도 수원시 권선구 세류동 459-3번지 1층 일부","indutype":"유통업 영리 - 편 의 점","category":"other"}]},{"lat":"37.261269078","long":"127.01380552","imageIndex":17,"items":[{"name":"미니스톱수원세류2점","tel":"031-1577-9621","addr":"경기도 수원시 권선구 세류동 167-1번지 1층상가","indutype":"유통업 영리 - 편 의 점","category":"other"}]},{"lat":"37.255069463","long":"127.01850509","imageIndex":17,"items":[{"name":"미도사세탁소","tel":"031-235-6031","addr":"경기도 수원시 권선구 세류동 1095번지","indutype":"수리서비스 - 세탁소","category":"other"}]},{"lat":"37.255961736","long":"127.01645373","imageIndex":17,"items":[{"name":"미들장식","tel":"031-236-7708","addr":"경기도 수원시 권선구 세류동 1089-20번지","indutype":"직물 - 카페트,커튼,천막,지물","category":"other"}]},{"lat":"37.253438469","long":"127.01945159","imageIndex":17,"items":[{"name":"미래냉열산업","tel":"031-234-4500","addr":"경기도 수원시 권선구 세류동 1099-6번지","indutype":"전기제품 - 냉열기기","category":"other"}]},{"lat":"37.264295812","long":"127.01995","imageIndex":17,"items":[{"name":"미래싸인","tel":"031-224-6303","addr":"경기도 수원시 권선구 세류동 821-9번지","indutype":"용역 서비스 - 종합용역","category":"other"}]},{"lat":"37.251294679","long":"127.01370264","imageIndex":17,"items":[{"name":"미래엔지니어링","tel":"031-234-8242","addr":"경기도 수원시 권선구 세류동 984-7번지","indutype":"용역 서비스 - 기타용역서비스","category":"other"}]},{"lat":"37.249159262","long":"127.01339801","imageIndex":17,"items":[{"name":"미성건설주식회사","tel":"031-237-1153","addr":"경기도 수원시 권선구 세류동 1140-14번지","indutype":"용역 서비스 - 기타용역서비스","category":"other"}]},{"lat":"37.250934407","long":"127.01203441","imageIndex":17,"items":[{"name":"미소유통","tel":"031-222-4268","addr":"경기도 수원시 권선구 세류동 980-72번지","indutype":"신변잡화 - 액세서리","category":"other"}]},{"lat":"37.256655488","long":"127.01681457","imageIndex":17,"items":[{"name":"민앤빈뷰티","tel":"031-203-8238","addr":"경기도 수원시 권선구 세류동 1089-1번지","indutype":"회원제형태 - 기타1","category":"other"}]},{"lat":"37.262819088","long":"127.01080706","imageIndex":17,"items":[{"name":"민화원","tel":"031-233-6688","addr":"경기도 수원시 권선구 세류동 324-6번지","indutype":"문화.취미 - 화원","category":"other"}]},{"lat":"37.254736104","long":"127.01833594","imageIndex":17,"items":[{"name":"바쓰(BATH)타일 인테리어","tel":"031-233-1461","addr":"경기도 수원시 권선구 세류동 1095-2번지","indutype":"건축자재 - 인테리어전문","category":"other"}]},{"lat":"37.259323229","long":"127.00839434","imageIndex":17,"items":[{"name":"바이더라인","tel":"031-223-9971","addr":"경기도 수원시 권선구 세류동 444번지 1층 101호","indutype":"사무통신 - 통신기기","category":"other"},{"name":"영광세탁소","tel":"031-257-6241","addr":"경기도 수원시 권선구 세류동 444","indutype":"수리서비스 - 세탁소","category":"other"}]},{"lat":"37.257015884","long":"127.0169499","imageIndex":17,"items":[{"name":"바이더웨이(세류3점)","tel":"031-233-1242","addr":"경기도 수원시 권선구 세류동 1075-26번지","indutype":"유통업 영리 - 편 의 점","category":"other"},{"name":"세븐일레븐수원세류3점","tel":"","addr":"경기도 수원시 권선구 세류동 1075-26번지","indutype":"유통업 영리 - 편 의 점","category":"other"}]},{"lat":"37.242545486","long":"127.01544827","imageIndex":17,"items":[{"name":"밝은빛","tel":"031-111-1111","addr":"경기도 수원시 권선구 세류동 1167-35번지 지하층","indutype":"용역 서비스 - 사무서비스","category":"other"}]},{"lat":"37.254348873","long":"127.01661125","imageIndex":17,"items":[{"name":"배미례홈패션","tel":"031-217-2840","addr":"경기도 수원시 권선구 세류동 1092-25번지 상가 1층","indutype":"직물 - 침구·수예점","category":"other"}]},{"lat":"37.26237696","long":"127.01739055","imageIndex":17,"items":[{"name":"버구피 에어컨","tel":"","addr":"경기도 수원시 권선구 세류동 831-19번지 1층","indutype":"용역 서비스 - 기타용역서비스","category":"other"}]},{"lat":"37.243437528","long":"127.01525683","imageIndex":17,"items":[{"name":"버드네 토탈 패션","tel":"031-232-9490","addr":"경기도 수원시 권선구 세류동 1166-15번지","indutype":"의류 - 정장","category":"other"}]},{"lat":"37.264017447","long":"127.01095374","imageIndex":17,"items":[{"name":"범양공조산업","tel":"031-267-4141","addr":"경기도 수원시 권선구 세류동 83-7번지","indutype":"전기제품 - 냉열기기","category":"other"},{"name":"해피프린세스","tel":"070-7018-5392","addr":"경기도 수원시 권선구 세류동 83-7번지 2층 일부","indutype":"가구 - 기타가구","category":"other"}]},{"lat":"37.249960733","long":"127.01759106","imageIndex":17,"items":[{"name":"베리독","tel":"031-225-0523","addr":"경기도 수원시 권선구 세류동 1129-3번지 101호","indutype":"문화.취미 - 애완동물","category":"other"}]},{"lat":"37.25204194","long":"127.01894406","imageIndex":17,"items":[{"name":"베틀","tel":"031-221-3749","addr":"경기도 수원시 권선구 세류동 1102-5번지 1층","indutype":"의류 - 정장","category":"other"}]},{"lat":"37.25609735","long":"127.0115616","imageIndex":17,"items":[{"name":"벼룩시장","tel":"031-233-8127","addr":"경기도 수원시 권선구 세류동 533-1번지 1층","indutype":"의류 - 정장","category":"other"}]},{"lat":"37.255547767","long":"127.01091902","imageIndex":17,"items":[{"name":"별나라","tel":"031-231-0908","addr":"경기도 수원시 권선구 세류동 459-8번지","indutype":"의류 - 정장","category":"other"}]},{"lat":"37.25904364","long":"127.01258775","imageIndex":17,"items":[{"name":"보금당","tel":"031-237-9546","addr":"경기도 수원시 권선구 세류동 524-3번지","indutype":"신변잡화 - 시계","category":"other"},{"name":"이티문구","tel":"031-232-4609","addr":"경기도 수원시 권선구 세류동 524-3번지","indutype":"서적문구 - 문구용품","category":"other"}]},{"lat":"37.262151993","long":"127.01478641","imageIndex":17,"items":[{"name":"보브 인테리어 조명","tel":"031-221-5411","addr":"경기도 수원시 권선구 세류동 147-43번지 1층","indutype":"건축자재 - 조명기구","category":"other"},{"name":"양근목세무회계사무소","tel":"031-223-1888","addr":"경기도 수원시 권선구 세류동 147-43번지","indutype":"용역 서비스 - 법률회계서비스(개인)","category":"other"},{"name":"주식회사광명씨앤피","tel":"031-258-8271","addr":"경기도 수원시 권선구 세류동 147-43번지","indutype":"사무통신 - 컴퓨터","category":"other"}]},{"lat":"37.25573694","long":"127.01152774","imageIndex":17,"items":[{"name":"봄빛요양원","tel":"031-224-7576","addr":"경기도 수원시 권선구 세류동 537-15번지 3~5층","indutype":"기타의료기관 - 기타의료기관 및 기타","category":"other"}]},{"lat":"37.265071596","long":"127.01173173","imageIndex":17,"items":[{"name":"봄이다","tel":"031-235-1229","addr":"경기도 수원시 권선구 세류동 97-20번지","indutype":"신변잡화 - 기타잡화","category":"other"}]},{"lat":"37.250682365","long":"127.00789776","imageIndex":17,"items":[{"name":"부광상사","tel":"","addr":"경기도 수원시 권선구 세류동 641-3번지 101호","indutype":"신변잡화 - 기타잡화","category":"other"}]},{"lat":"37.255214446","long":"127.00997213","imageIndex":17,"items":[{"name":"부성세탁소","tel":"031-237-2132","addr":"경기도 수원시 권선구 세류동 456-12번지 그린내빌 101호","indutype":"수리서비스 - 세탁소","category":"other"}]},{"lat":"37.262575819","long":"127.01067176","imageIndex":17,"items":[{"name":"불어라에어컨","tel":"","addr":"경기도 수원시 권선구 세류동 324-4번지","indutype":"용역 서비스 - 기타용역서비스","category":"other"}]},{"lat":"37.262016782","long":"127.01533878","imageIndex":17,"items":[{"name":"브이티브이","tel":"031-226-6342","addr":"경기도 수원시 권선구 세류동 147-22번지","indutype":"광학제품 - 카메라","category":"other"}]},{"lat":"37.26029615","long":"127.01158463","imageIndex":17,"items":[{"name":"블랙베어경호 (주)","tel":"031-235-1340","addr":"경기도 수원시 권선구 세류동 481-4번지","indutype":"용역 서비스 - 종합용역","category":"other"}]},{"lat":"37.256159342","long":"127.02108666","imageIndex":17,"items":[{"name":"블랙베어경호주식회사","tel":"031-235-1340","addr":"경기도 수원시 권선구 세류동 1077-3번지 동신빌딩 401호","indutype":"용역 서비스 - 종합용역","category":"other"},{"name":"수원종합앵글호스","tel":"031-235-6278","addr":"경기도 수원시 권선구 세류동 1077-3번지","indutype":"건축자재 - 기타건축자재","category":"other"},{"name":"엠비존","tel":"","addr":"경기도 수원시 권선구 세류동 1077-3번지 동신빌딩 102호","indutype":"의류 - 정장","category":"other"}]},{"lat":"37.265738231","long":"127.01328758","imageIndex":17,"items":[{"name":"비바쥬얼리","tel":"031-236-1599","addr":"경기도 수원시 권선구 세류동 97-65번지 윤빌딩 1층","indutype":"신변잡화 - 귀금속","category":"other"}]},{"lat":"37.258629041","long":"127.01400805","imageIndex":17,"items":[{"name":"비전","tel":"","addr":"경기도 수원시 권선구 세류동 520-2번지 301호","indutype":"건축자재 - 인테리어전문","category":"other"}]},{"lat":"37.256961718","long":"127.01780659","imageIndex":17,"items":[{"name":"빈티지행거","tel":"031-211-9407","addr":"경기도 수원시 권선구 세류동 1075-4번지 1층","indutype":"의류 - 기타의류","category":"other"}]},{"lat":"37.259215086","long":"127.0087776","imageIndex":17,"items":[{"name":"빛의정원 엘이디플라워","tel":"070-4045-2451","addr":"경기도 수원시 권선구 세류동 443-27번지","indutype":"가구 - 기타가구","category":"other"}]},{"lat":"37.259125045","long":"127.00736851","imageIndex":17,"items":[{"name":"뽀인트","tel":"","addr":"경기도 수원시 권선구 세류동 256-7번지 삼성힐하우스 2층 201호","indutype":"의류 - 정장","category":"other"},{"name":"신세계냉동","tel":"031-223-3972","addr":"경기도 수원시 권선구 세류동 256-7번지 1층 101호","indutype":"전기제품 - 냉열기기","category":"other"}]},{"lat":"37.25576392","long":"127.01220408","imageIndex":17,"items":[{"name":"사단법인국제피플투피플수원화성챕터","tel":"031-214-6336","addr":"경기도 수원시 권선구 세류동 536-5번지","indutype":"기타 - 비영리/비대상","category":"other"}]},{"lat":"37.253655511","long":"127.01217","imageIndex":17,"items":[{"name":"사단법인쎄마밸리댄스","tel":"031-223-0373","addr":"경기도 수원시 권선구 세류동 1001-1번지 2층","indutype":"회원제형태 - 레져업소","category":"other"},{"name":"사단법인쎄마밸리댄스협회","tel":"031-223-0373","addr":"경기도 수원시 권선구 세류동 1001-1번지 2층","indutype":"회원제형태 - 레져업소","category":"other"}]},{"lat":"37.248744527","long":"127.01600159","imageIndex":17,"items":[{"name":"사랑방이야기","tel":"","addr":"경기도 수원시 권선구 세류동 1148-5번지 101호","indutype":"신변잡화 - 기타잡화","category":"other"}]},{"lat":"37.251907768","long":"127.00789785","imageIndex":17,"items":[{"name":"사운드그래비티","tel":"","addr":"경기도 수원시 권선구 세류동 656-1번지 1층 101호","indutype":"전기제품 - 기타전기제품","category":"other"}]},{"lat":"37.252763806","long":"127.00622968","imageIndex":17,"items":[{"name":"사회복지법인구세군장애인재활작업장","tel":"031-258-4580","addr":"경기도 수원시 권선구 세류동 675-9번지","indutype":"신변잡화 - 기타잡화","category":"other"}]},{"lat":"37.250880639","long":"127.00664664","imageIndex":17,"items":[{"name":"삼두복층유리","tel":"031-226-6204","addr":"경기도 수원시 권선구 세류동 680-12번지","indutype":"건축자재 - 유리","category":"other"}]},{"lat":"37.258097388","long":"127.01448142","imageIndex":17,"items":[{"name":"삼보열쇠","tel":"031-235-1132","addr":"경기도 수원시 권선구 세류동 501-25번지","indutype":"용역 서비스 - 기타용역서비스","category":"other"}]},{"lat":"37.252213903","long":"127.01161751","imageIndex":17,"items":[{"name":"삼성광고기획","tel":"031-221-6886","addr":"경기도 수원시 권선구 세류동 993-15번지","indutype":"용역 서비스 - 종합용역","category":"other"}]},{"lat":"37.254628673","long":"127.01152762","imageIndex":17,"items":[{"name":"삼성냉동","tel":"031-239-3601","addr":"경기도 수원시 권선구 세류동 1030-2번지 102호","indutype":"용역 서비스 - 기타용역서비스","category":"other"}]},{"lat":"37.254601681","long":"127.01097528","imageIndex":17,"items":[{"name":"삼성위드COM","tel":"031-225-3257","addr":"경기도 수원시 권선구 세류동 544-8번지","indutype":"사무통신 - 컴퓨터","category":"other"},{"name":"인쇄나라","tel":"031-224-1650","addr":"경기도 수원시 권선구 세류동 544-8번지","indutype":"서적문구 - 출판 및 인쇄물","category":"other"}]},{"lat":"37.252574219","long":"127.0128349","imageIndex":17,"items":[{"name":"삼성유통","tel":"031-239-5552","addr":"경기도 수원시 권선구 세류동 980-46번지 102호","indutype":"의류 - 내의판매","category":"other"}]},{"lat":"37.259070194","long":"127.01727719","imageIndex":17,"items":[{"name":"삼성정보통신","tel":"031-222-5244","addr":"경기도 수원시 권선구 세류동 855-24번지","indutype":"사무통신 - 통신기기","category":"other"}]},{"lat":"37.254042398","long":"127.01764821","imageIndex":17,"items":[{"name":"삼영지업사","tel":"031-234-9927","addr":"경기도 수원시 권선구 세류동 1094-10번지","indutype":"직물 - 카페트,커튼,천막,지물","category":"other"},{"name":"씨유수원세류3동점","tel":"031-236-5005","addr":"경기도 수원시 권선구 세류동 1094-10번지 1층","indutype":"유통업 영리 - 편 의 점","category":"other"}]},{"lat":"37.254709968","long":"127.00805584","imageIndex":17,"items":[{"name":"삼원디자인","tel":"031-251-2226","addr":"경기도 수원시 권선구 세류동 553-10번지","indutype":"용역 서비스 - 종합용역","category":"other"}]},{"lat":"37.252069561","long":"127.01375911","imageIndex":17,"items":[{"name":"삼익목재동수원대리점","tel":"031-221-8034","addr":"경기도 수원시 권선구 세류동 987-11번지","indutype":"건축자재 - 목재·석재·철물","category":"other"},{"name":"서울종합건재","tel":"031-226-2036","addr":"경기도 수원시 권선구 세류동 987-11번지","indutype":"건축자재 - 목재·석재·철물","category":"other"}]},{"lat":"37.263683092","long":"127.02008514","imageIndex":17,"items":[{"name":"삼정침구방","tel":"031-237-3757","addr":"경기도 수원시 권선구 세류동 820-5번지","indutype":"직물 - 침구·수예점","category":"other"}]},{"lat":"37.256908328","long":"127.01084026","imageIndex":17,"items":[{"name":"삼천리자전거세류지점","tel":"031-232-2441","addr":"경기도 수원시 권선구 세류동 460-20번지","indutype":"레져용품 - 스포츠·레져용품","category":"other"},{"name":"안전샷시","tel":"031-292-1400","addr":"경기도 수원시 권선구 세류동 460-4번지","indutype":"건축자재 - 목재·석재·철물","category":"other"},{"name":"하린인테리어","tel":"031-223-7739","addr":"경기도 수원시 권선구 세류동 460-20번지","indutype":"건축자재 - 인테리어전문","category":"other"}]},{"lat":"37.258269096","long":"127.00650047","imageIndex":17,"items":[{"name":"삼촌네텐트/종합렌탈/판매","tel":"031-8005-8588","addr":"경기도 수원시 권선구 세류동 211-13번지","indutype":"직물 - 카페트,커튼,천막,지물","category":"other"}]},{"lat":"37.261764197","long":"127.01789772","imageIndex":17,"items":[{"name":"삼화종합상사","tel":"031-239-2448","addr":"경기도 수원시 권선구 세류동 832-23번지 외1필지","indutype":"건축자재 - 기타건축자재","category":"other"}]},{"lat":"37.248627359","long":"127.01630589","imageIndex":17,"items":[{"name":"상록수문구","tel":"031-000-0000","addr":"경기도 수원시 권선구 세류동 1149-9번지 1층","indutype":"서적문구 - 문구용품","category":"other"}]},{"lat":"37.258602426","long":"127.00789829","imageIndex":17,"items":[{"name":"생각더하기","tel":"031-295-2666","addr":"경기도 수원시 권선구 세류동 283-2번지 101호","indutype":"건축자재 - 조명기구","category":"other"}]},{"lat":"37.25301583","long":"127.01148235","imageIndex":17,"items":[{"name":"서현인테리어","tel":"031-232-2011","addr":"경기도 수원시 권선구 세류동 994-6번지","indutype":"건축자재 - 인테리어전문","category":"other"}]},{"lat":"37.255790973","long":"127.01192228","imageIndex":17,"items":[{"name":"선인산업","tel":"070-8918-4685","addr":"경기도 수원시 권선구 세류동 537-13번지","indutype":"건축자재 - 조명기구","category":"other"}]},{"lat":"37.243356224","long":"127.01713896","imageIndex":17,"items":[{"name":"성도건축","tel":"031-234-7446","addr":"경기도 수원시 권선구 세류동 1170-1번지","indutype":"건축자재 - 기타건축자재","category":"other"}]},{"lat":"37.26029591","long":"127.01439157","imageIndex":17,"items":[{"name":"성수인터내셔널","tel":"031-233-0180","addr":"경기도 수원시 권선구 세류동 159-18번지 1층","indutype":"광학제품 - 카메라","category":"other"}]},{"lat":"37.262908977","long":"127.0135352","imageIndex":17,"items":[{"name":"성신기계","tel":"031-223-3048","addr":"경기도 수원시 권선구 세류동 128-2번지","indutype":"건축자재 - 기타건축자재","category":"other"},{"name":"한국전지주식회사","tel":"031-232-0077","addr":"경기도 수원시 권선구 세류동 128-2번지","indutype":"전기제품 - 기타전기제품","category":"other"}]},{"lat":"37.254430115","long":"127.01525862","imageIndex":17,"items":[{"name":"성신꽃마을","tel":"031-239-0025","addr":"경기도 수원시 권선구 세류동 1010-6번지 1층","indutype":"문화.취미 - 화원","category":"other"}]},{"lat":"37.250492793","long":"127.01334184","imageIndex":17,"items":[{"name":"성실칸막이","tel":"","addr":"경기도 수원시 권선구 세류동 974-3번지","indutype":"건축자재 - 인테리어전문","category":"other"}]},{"lat":"37.262629129","long":"127.01833755","imageIndex":17,"items":[{"name":"성아우구스티누스복음회","tel":"031-221-9881","addr":"경기도 수원시 권선구 세류동 825-12번지 2층 202호","indutype":"기타 - 비영리/대상","category":"other"}]},{"lat":"37.256322199","long":"127.0160029","imageIndex":17,"items":[{"name":"성일에어컨","tel":"031-225-8270","addr":"경기도 수원시 권선구 세류동 876-8번지","indutype":"용역 서비스 - 기타용역서비스","category":"other"}]},{"lat":"37.254376565","long":"127.00852924","imageIndex":17,"items":[{"name":"성일조경","tel":"","addr":"경기도 수원시 권선구 세류동 548-11번지","indutype":"건축자재 - 인테리어전문","category":"other"}]},{"lat":"37.258989781","long":"127.00966812","imageIndex":17,"items":[{"name":"성진소방안전공사","tel":"031-223-1190","addr":"경기도 수원시 권선구 세류동 360-2번지","indutype":"용역 서비스 - 기타용역서비스","category":"other"}]},{"lat":"37.259764432","long":"127.01297112","imageIndex":17,"items":[{"name":"성진유통","tel":"031-233-9494","addr":"경기도 수원시 권선구 세류동 498-1번지","indutype":"기타 - 기타 전문점","category":"other"}]},{"lat":"37.250267673","long":"127.01163983","imageIndex":17,"items":[{"name":"세계유리","tel":"031-255-9773","addr":"경기도 수원시 권선구 세류동 579-32번지","indutype":"건축자재 - 유리","category":"other"}]},{"lat":"37.242878679","long":"127.01711633","imageIndex":17,"items":[{"name":"세나 냉동기","tel":"031-898-6800","addr":"경기도 수원시 권선구 세류동 1171-1번지","indutype":"전기제품 - 냉열기기","category":"other"}]},{"lat":"37.262152479","long":"127.0080338","imageIndex":17,"items":[{"name":"세류1동주민자치위원회","tel":"031-228-6642","addr":"경기도 수원시 권선구 세류동 223-2번지","indutype":"문화.취미 - 문화취미기타","category":"other"}]},{"lat":"37.253213927","long":"127.01311678","imageIndex":17,"items":[{"name":"세류2동주민자치위원회","tel":"031-228-6603","addr":"경기도 수원시 권선구 세류동 980-1번지","indutype":"문화.취미 - 문화취미기타","category":"other"}]},{"lat":"37.259097753","long":"127.01194522","imageIndex":17,"items":[{"name":"세류3동주민자치위원회","tel":"031-228-6153","addr":"경기도 수원시 권선구 세류동 476-11","indutype":"문화.취미 - 문화취미기타","category":"other"}]},{"lat":"37.253961098","long":"127.01922626","imageIndex":17,"items":[{"name":"세류금광당","tel":"031-236-7717","addr":"경기도 수원시 권선구 세류동 1098-7번지","indutype":"신변잡화 - 시계","category":"other"}]},{"lat":"37.256736617","long":"127.01649896","imageIndex":17,"items":[{"name":"세류동휴대폰","tel":"070-7799-1030","addr":"경기도 수원시 권선구 세류동 875-7번지 1층","indutype":"사무통신 - 통신기기","category":"other"},{"name":"피부미인","tel":"031-225-1479","addr":"경기도 수원시 권선구 세류동 875-7번지","indutype":"회원제형태 - 기타4","category":"other"}]},{"lat":"37.254132637","long":"127.01650976","imageIndex":17,"items":[{"name":"세류만물사","tel":"","addr":"경기도 수원시 권선구 세류동 1109번지 1층","indutype":"건축자재 - 목재·석재·철물","category":"other"}]},{"lat":"37.254790466","long":"127.01583356","imageIndex":17,"items":[{"name":"세류보석.복권방","tel":"031-238-5763","addr":"경기도 수원시 권선구 세류동 1090-7번지","indutype":"신변잡화 - 시계","category":"other"}]},{"lat":"37.261431258","long":"127.01386191","imageIndex":17,"items":[{"name":"세류종합알뜰매장","tel":"031-239-8885","addr":"경기도 수원시 권선구 세류동 149-3번지","indutype":"전기제품 - 가전제품","category":"other"},{"name":"수원 슬라임","tel":"070-5135-6253","addr":"경기도 수원시 권선구 세류동 149-3번지 3층","indutype":"문화.취미 - 문화취미기타","category":"other"},{"name":"신앙촌상회","tel":"031-234-7188","addr":"경기도 수원시 권선구 세류동 149-3번지 1층 북쪽2번째 상가","indutype":"신변잡화 - 기타잡화","category":"other"}]},{"lat":"37.256097206","long":"127.01334261","imageIndex":17,"items":[{"name":"세류종합장식","tel":"031-238-0359","addr":"경기도 수원시 권선구 세류동 1018-10번지","indutype":"직물 - 옷감·직물","category":"other"}]},{"lat":"37.258989688","long":"127.01114484","imageIndex":17,"items":[{"name":"세류철물타일디씨마트","tel":"031-227-5676","addr":"경기도 수원시 권선구 세류동 473-6번지","indutype":"건축자재 - 목재·석재·철물","category":"other"}]},{"lat":"37.256376711","long":"127.01097547","imageIndex":17,"items":[{"name":"세류효원알뜰매장","tel":"031-221-0844","addr":"경기도 수원시 권선구 세류동 460-40번지","indutype":"신변잡화 - 기타잡화","category":"other"}]},{"lat":"37.264431065","long":"127.01925107","imageIndex":17,"items":[{"name":"세븐엠알오","tel":"031-224-9006","addr":"경기도 수원시 권선구 세류동 824-7번지 102호","indutype":"수리서비스 - 사무·통신기기수리","category":"other"}]},{"lat":"37.25724183","long":"127.00877745","imageIndex":17,"items":[{"name":"세븐일레븐수원세류공원점","tel":"","addr":"경기도 수원시 권선구 세류동 449-11번지 1층 코너 다사랑 마트","indutype":"유통업 영리 - 편 의 점","category":"other"}]},{"lat":"37.253268163","long":"127.01086242","imageIndex":17,"items":[{"name":"세븐일레븐수원세류사거리점","tel":"031-1577-0711","addr":"경기도 수원시 권선구 세류동 565-2번지 1층","indutype":"유통업 영리 - 편 의 점","category":"other"}]},{"lat":"37.248627393","long":"127.01600157","imageIndex":17,"items":[{"name":"세븐일레븐수원세류사랑점","tel":"","addr":"경기도 수원시 권선구 세류동 1148-7번지","indutype":"유통업 영리 - 편 의 점","category":"other"}]},{"lat":"37.245798165","long":"127.01588837","imageIndex":17,"items":[{"name":"세븐일레븐수원세류은정점","tel":"031-1577-0711","addr":"경기도 수원시 권선구 세류동 1147-3번지 나동 1층","indutype":"유통업 영리 - 편 의 점","category":"other"}]},{"lat":"37.25585377","long":"127.0149996","imageIndex":17,"items":[{"name":"세븐일레븐수원세지로점","tel":"031-1577-0711","addr":"경기도 수원시 권선구 세류동 1011-31번지 1층","indutype":"유통업 영리 - 편 의 점","category":"other"}]},{"lat":"37.252655424","long":"127.01139213","imageIndex":17,"items":[{"name":"세웅종합상사","tel":"031-224-8132","addr":"경기도 수원시 권선구 세류동 994-9번지","indutype":"기타 - 기계공구","category":"other"}]},{"lat":"37.249627907","long":"127.01209061","imageIndex":17,"items":[{"name":"세일냉동","tel":"031-234-3553","addr":"경기도 수원시 권선구 세류동 586-24번지","indutype":"유통업 영리 - 기타유통업","category":"other"}]},{"lat":"37.263512849","long":"127.01125807","imageIndex":17,"items":[{"name":"세화종합설비","tel":"031-223-4222","addr":"경기도 수원시 권선구 세류동 97-38번지","indutype":"용역 서비스 - 기타용역서비스","category":"other"}]},{"lat":"37.255627777","long":"127.02080473","imageIndex":17,"items":[{"name":"센스플라워","tel":"031-233-0406","addr":"경기도 수원시 권선구 세류동 1080-14번지","indutype":"문화.취미 - 화원","category":"other"}]},{"lat":"37.262909331","long":"127.00831568","imageIndex":17,"items":[{"name":"센트럴플라워","tel":"031-8019-9283","addr":"경기도 수원시 권선구 세류동 1058-28","indutype":"문화.취미 - 화원","category":"other"}]},{"lat":"37.255295232","long":"127.01397374","imageIndex":17,"items":[{"name":"소희공조","tel":"","addr":"경기도 수원시 권선구 세류동 1018-54번지 201호","indutype":"용역 서비스 - 기타용역서비스","category":"other"}]},{"lat":"37.253519523","long":"127.01972213","imageIndex":17,"items":[{"name":"수리오케이컴퓨터","tel":"031-226-5119","addr":"경기도 수원시 권선구 세류동 1099-8번지","indutype":"사무통신 - 컴퓨터","category":"other"}]},{"lat":"37.259431376","long":"127.00786453","imageIndex":17,"items":[{"name":"수빈숙녀복","tel":"031-233-7083","addr":"경기도 수원시 권선구 세류동 256-15번지","indutype":"의류 - 정장","category":"other"}]},{"lat":"37.261512739","long":"127.0082254","imageIndex":17,"items":[{"name":"수연정보통신","tel":"031-225-8256","addr":"경기도 수원시 권선구 세류동 218-6번지","indutype":"사무통신 - 통신기기","category":"other"}]},{"lat":"37.256124424","long":"127.0109529","imageIndex":17,"items":[{"name":"수영어페럴(주)","tel":"031-269-4957","addr":"경기도 수원시 권선구 세류동 460-10번지","indutype":"레져용품 - 스포츠·레져용품","category":"other"},{"name":"장미타운(인디안)","tel":"031-233-4955","addr":"경기도 수원시 권선구 세류동 460-10번지","indutype":"의류 - 정장","category":"other"},{"name":"현대DC아울렛백화점","tel":"031-239-8994","addr":"경기도 수원시 권선구 세류동 460-10번지","indutype":"신변잡화 - 기타잡화","category":"other"}]},{"lat":"37.250186566","long":"127.01184271","imageIndex":17,"items":[{"name":"수용건재","tel":"031-236-3943","addr":"경기도 수원시 권선구 세류동 583번지","indutype":"건축자재 - 기타건축자재","category":"other"}]},{"lat":"37.252961721","long":"127.01211356","imageIndex":17,"items":[{"name":"수원고가구","tel":"031-235-4559","addr":"경기도 수원시 권선구 세류동 1002-8번지","indutype":"가구 - 일반가구","category":"other"}]},{"lat":"37.252763577","long":"127.01097509","imageIndex":17,"items":[{"name":"수원고양이분양나비캣","tel":"","addr":"경기도 수원시 권선구 세류동 566-1번지 THE BEIGE 201호","indutype":"문화.취미 - 애완동물","category":"other"},{"name":"씨엘데코","tel":"031-237-0122","addr":"경기도 수원시 권선구 세류동 566-1번지","indutype":"직물 - 카페트,커튼,천막,지물","category":"other"}]},{"lat":"37.247410862","long":"127.01719608","imageIndex":17,"items":[{"name":"수원버팔로","tel":"031-898-6584","addr":"경기도 수원시 권선구 세류동 1150-23번지","indutype":"레져용품 - 스포츠·레져용품","category":"other"}]},{"lat":"37.251493298","long":"127.0077851","imageIndex":17,"items":[{"name":"수원보자기","tel":"031-239-1285","addr":"경기도 수원시 권선구 세류동 652-4번지","indutype":"직물 - 침구·수예점","category":"other"}]},{"lat":"37.253573686","long":"127.01900074","imageIndex":17,"items":[{"name":"수원상사","tel":"031-222-9037","addr":"경기도 수원시 권선구 세류동 1098-14번지","indutype":"건축자재 - 페인트","category":"other"}]},{"lat":"37.253989034","long":"127.0101411","imageIndex":17,"items":[{"name":"수원세류2동우체국","tel":"031-232-2004","addr":"경기도 수원시 권선구 세류동 543-2번지","indutype":"용역 서비스 - 공공요금대행서비스/소","category":"other"}]},{"lat":"37.25493436","long":"127.01811054","imageIndex":17,"items":[{"name":"수원신도판매(주)권선지점","tel":"031-235-3455","addr":"경기도 수원시 권선구 세류동 1094-16번지 1층","indutype":"사무통신 - 사무용 OA기기","category":"other"},{"name":"썬벼룩시장","tel":"031-226-8860","addr":"경기도 수원시 권선구 세류동 1094-16번지 1층","indutype":"의류 - 정장","category":"other"}]},{"lat":"37.251492521","long":"127.01730957","imageIndex":17,"items":[{"name":"수원에어컨설치이전","tel":"031-236-0408","addr":"경기도 수원시 권선구 세류동 1118-18번지","indutype":"용역 서비스 - 기타용역서비스","category":"other"}]},{"lat":"37.262764693","long":"127.01478651","imageIndex":17,"items":[{"name":"수원정밀","tel":"070-5118-2236","addr":"경기도 수원시 권선구 세류동 145-12번지","indutype":"기타 - 기계공구","category":"other"}]},{"lat":"37.252096462","long":"127.01508917","imageIndex":17,"items":[{"name":"수원종로로타리클럽","tel":"031-236-3759","addr":"경기도 수원시 권선구 세류동 1125-27번지","indutype":"기타 - 비영리/비대상","category":"other"}]},{"lat":"37.253241087","long":"127.01150491","imageIndex":17,"items":[{"name":"수원종합공사","tel":"031-239-4210","addr":"경기도 수원시 권선구 세류동 998-2번지","indutype":"건축자재 - 인테리어전문","category":"other"}]},{"lat":"37.261629003","long":"127.01820207","imageIndex":17,"items":[{"name":"수원중고컴퓨터","tel":"031-294-4788","addr":"경기도 수원시 권선구 세류동 832-32번지","indutype":"사무통신 - 컴퓨터","category":"other"}]},{"lat":"37.256493287","long":"127.01694981","imageIndex":17,"items":[{"name":"수원콜밴114","tel":"031-222-7300","addr":"경기도 수원시 권선구 세류동 1089-14번지","indutype":"용역 서비스 - 기타용역서비스","category":"other"}]},{"lat":"37.254160144","long":"127.01142612","imageIndex":17,"items":[{"name":"수원통신","tel":"031-225-4012","addr":"경기도 수원시 권선구 세류동 1028-6번지","indutype":"사무통신 - 통신기기","category":"other"}]},{"lat":"37.255881107","long":"127.01150521","imageIndex":17,"items":[{"name":"수지애견","tel":"031-223-5880","addr":"경기도 수원시 권선구 세류동 537번지 1층","indutype":"문화.취미 - 애완동물","category":"other"},{"name":"화성유통","tel":"031-225-4372","addr":"경기도 수원시 권선구 세류동 537번지","indutype":"의류 - 내의판매","category":"other"}]},{"lat":"37.263233798","long":"127.00547483","imageIndex":17,"items":[{"name":"스마일공조","tel":"031-898-7184","addr":"경기도 수원시 권선구 세류동 244-112번지","indutype":"용역 서비스 - 기타용역서비스","category":"other"}]},{"lat":"37.249042154","long":"127.01309367","imageIndex":17,"items":[{"name":"스미스상사","tel":"031-33-0915","addr":"경기도 수원시 권선구 세류동 1141-2번지","indutype":"가구 - 일반가구","category":"other"}]},{"lat":"37.249294476","long":"127.01269922","imageIndex":17,"items":[{"name":"스타일","tel":"000-000-0000","addr":"경기도 수원시 권선구 세류동 968-4번지","indutype":"의류 - 기타의류","category":"other"},{"name":"언니네옷방","tel":"031-273-7881","addr":"경기도 수원시 권선구 세류동 968-4번지 1층","indutype":"의류 - 정장","category":"other"},{"name":"오복공인중개사사무소","tel":"031-222-8779","addr":"경기도 수원시 권선구 세류동 968-4번지","indutype":"용역 서비스 - 부동산 중개·임대","category":"other"},{"name":"짱구열쇠.도장","tel":"031-235-7386","addr":"경기도 수원시 권선구 세류동 968-4번지","indutype":"건축자재 - 목재·석재·철물","category":"other"},{"name":"하수구,누수탐지(두루설비)","tel":"031-252-0336","addr":"경기도 수원시 권선구 세류동 968-4번지","indutype":"용역 서비스 - 기타용역서비스","category":"other"},{"name":"하수구,누수탐지(두루설비)","tel":"031-252-0336","addr":"경기도 수원시 권선구 세류동 968-4번지","indutype":"용역 서비스 - 기타용역서비스","category":"other"}]},{"lat":"37.265377881","long":"127.01255474","imageIndex":17,"items":[{"name":"스타일 종합 페인트","tel":"","addr":"경기도 수원시 권선구 세류동 97-60번지 1층","indutype":"용역 서비스 - 기타용역서비스","category":"other"}]},{"lat":"37.260575151","long":"127.01516944","imageIndex":17,"items":[{"name":"시스템에어컨프라자","tel":"000-1833-6033","addr":"경기도 수원시 권선구 세류동 156-19번지 청보빌라 202호","indutype":"전기제품 - 냉열기기","category":"other"}]},{"lat":"37.256069432","long":"127.01977906","imageIndex":17,"items":[{"name":"신곡건철,안전","tel":"031-233-3710","addr":"경기도 수원시 권선구 세류동 1082-34번지","indutype":"건축자재 - 기타건축자재","category":"other"}]},{"lat":"37.254735825","long":"127.02034236","imageIndex":17,"items":[{"name":"신공구주식회사","tel":"031-222-4148","addr":"경기도 수원시 권선구 세류동 1080-8번지","indutype":"건축자재 - 기타건축자재","category":"other"}]},{"lat":"37.247014404","long":"127.01722982","imageIndex":17,"items":[{"name":"신도네트수원중앙점","tel":"031-235-6377","addr":"경기도 수원시 권선구 세류동 1151-3번지 탑빌딩 101호","indutype":"사무통신 - 사무용 OA기기","category":"other"}]},{"lat":"37.257989091","long":"127.01613846","imageIndex":17,"items":[{"name":"신도수원OA","tel":"031-224-2004","addr":"경기도 수원시 권선구 세류동 870-9번지 이성리치빌 1층 101호","indutype":"사무통신 - 사무용 OA기기","category":"other"}]},{"lat":"37.263179631","long":"127.00850735","imageIndex":17,"items":[{"name":"신도수원OA(특별할부)","tel":"031-224-2004","addr":"경기도 수원시 권선구 세류동 229-53번지","indutype":"사무통신 - 사무용 OA기기","category":"other"}]},{"lat":"37.251601443","long":"127.00725535","imageIndex":17,"items":[{"name":"신동ENG","tel":"031-341-8960","addr":"경기도 수원시 권선구 세류동 649-1번지 지층","indutype":"용역 서비스 - 기타용역서비스","category":"other"},{"name":"에스온","tel":"","addr":"경기도 수원시 권선구 세류동 649-1번지 101호","indutype":"기타 - 기계공구","category":"other"}]},{"lat":"37.259881027","long":"127.01803262","imageIndex":17,"items":[{"name":"신발총판","tel":"031-215-3988","addr":"경기도 수원시 권선구 세류동 845-4번지 승주빌딩 1층","indutype":"신변잡화 - 신발","category":"other"},{"name":"정댄스스포츠","tel":"031-238-0068","addr":"경기도 수원시 권선구 세류동 845-4번지 승주빌딩 3층","indutype":"회원제형태 - 레져업소","category":"other"},{"name":"황실좌훈방","tel":"031-236-4110","addr":"경기도 수원시 권선구 세류동 845-4번지 승주빌딩 5호","indutype":"회원제형태 - 기타4","category":"other"}]},{"lat":"37.250186457","long":"127.01317273","imageIndex":17,"items":[{"name":"신성D.C생활용품점","tel":"031-257-2998","addr":"경기도 수원시 권선구 세류동 975-2번지 1층","indutype":"신변잡화 - 기타잡화","category":"other"}]},{"lat":"37.259404031","long":"127.0128358","imageIndex":17,"items":[{"name":"신성철물","tel":"031-235-8470","addr":"경기도 수원시 권선구 세류동 513-7번지 1층","indutype":"기타 - 기계공구","category":"other"},{"name":"주식회사 비케이모바일","tel":"02-000-0000","addr":"경기도 수원시 권선구 세류동 513-7번지 102호","indutype":"사무통신 - 통신기기","category":"other"},{"name":"청솔스튜디오","tel":"031-235-6271","addr":"경기도 수원시 권선구 세류동 513-7번지","indutype":"광학제품 - 사진관","category":"other"}]},{"lat":"37.24371663","long":"127.01719538","imageIndex":17,"items":[{"name":"신성철물안전","tel":"031-221-0734","addr":"경기도 수원시 권선구 세류동 1163-2번지","indutype":"기타 - 기계공구","category":"other"}]},{"lat":"37.245771106","long":"127.01614759","imageIndex":17,"items":[{"name":"신수원스파클","tel":"031-212-4580","addr":"경기도 수원시 권선구 세류동 1153-1번지","indutype":"유통업 영리 - 기타유통업","category":"other"}]},{"lat":"37.26404382","long":"127.01775162","imageIndex":17,"items":[{"name":"신양테크","tel":"","addr":"경기도 수원시 권선구 세류동 829-5번지","indutype":"전기제품 - 기타전기제품","category":"other"}]},{"lat":"37.263431181","long":"127.01725547","imageIndex":17,"items":[{"name":"신영건축","tel":"031-236-4751","addr":"경기도 수원시 권선구 세류동 830-16번지","indutype":"건축자재 - 인테리어전문","category":"other"}]},{"lat":"37.252186583","long":"127.01492011","imageIndex":17,"items":[{"name":"신우상사","tel":"031-238-7720","addr":"경기도 수원시 권선구 세류동 1125-29번지","indutype":"건축자재 - 목재·석재·철물","category":"other"}]},{"lat":"37.263098174","long":"127.01374942","imageIndex":17,"items":[{"name":"신원샤링","tel":"031-239-2558","addr":"경기도 수원시 권선구 세류동 128-6번지","indutype":"건축자재 - 목재·석재·철물","category":"other"}]},{"lat":"37.258431304","long":"127.0056663","imageIndex":17,"items":[{"name":"신원쇼파","tel":"031-237-2395","addr":"경기도 수원시 권선구 세류동 212-14번지","indutype":"가구 - 일반가구","category":"other"}]},{"lat":"37.26293625","long":"127.01036742","imageIndex":17,"items":[{"name":"신한광학","tel":"031-233-2535","addr":"경기도 수원시 권선구 세류동 324번지","indutype":"회원제형태 - 기타4","category":"other"}]},{"lat":"37.251213591","long":"127.01364627","imageIndex":17,"items":[{"name":"신한기획","tel":"031-222-9972","addr":"경기도 수원시 권선구 세류동 984-8번지 1층","indutype":"용역 서비스 - 종합용역","category":"other"}]},{"lat":"37.243158158","long":"127.01573013","imageIndex":17,"items":[{"name":"신호냉열엔지니어링","tel":"031-221-6785","addr":"경기도 수원시 권선구 세류동 1167-7번지","indutype":"전기제품 - 냉열기기","category":"other"}]},{"lat":"37.241824529","long":"127.01662025","imageIndex":17,"items":[{"name":"쌍용샤링","tel":"031-224-3831","addr":"경기도 수원시 권선구 세류동 1178-1번지","indutype":"건축자재 - 기타건축자재","category":"other"}]},{"lat":"37.262017043","long":"127.01253177","imageIndex":17,"items":[{"name":"썬그린","tel":"031-222-4499","addr":"경기도 수원시 권선구 세류동 485-17번지","indutype":"용역 서비스 - 기타용역서비스","category":"other"}]},{"lat":"37.243545693","long":"127.01486238","imageIndex":17,"items":[{"name":"씨앤에이치닷제이디(CNH. JD)","tel":"070-4236-1945","addr":"경기도 수원시 권선구 세류동 1166번지 1층","indutype":"전기제품 - 기타전기제품","category":"other"}]},{"lat":"37.255656076","long":"127.00742466","imageIndex":17,"items":[{"name":"씨앤피테크","tel":"031-000-0000","addr":"경기도 수원시 권선구 세류동 437-2번지","indutype":"사무통신 - 통신기기","category":"other"}]},{"lat":"37.253132662","long":"127.01495407","imageIndex":17,"items":[{"name":"씨유세류2동점","tel":"031-224-9673","addr":"경기도 수원시 권선구 세류동 1112번지","indutype":"유통업 영리 - 편 의 점","category":"other"}]},{"lat":"37.244933315","long":"127.01453575","imageIndex":17,"items":[{"name":"씨유세류역점","tel":"031-234-7231","addr":"경기도 수원시 권선구 세류동 1146-7번지 1층","indutype":"유통업 영리 - 편 의 점","category":"other"},{"name":"행운당","tel":"031-237-9354","addr":"경기도 수원시 권선구 세류동 1146-7번지","indutype":"신변잡화 - 귀금속","category":"other"}]},{"lat":"37.260349807","long":"127.01598105","imageIndex":17,"items":[{"name":"씨유세류현대점","tel":"031-898-6568","addr":"경기도 수원시 권선구 세류동 849-2번지 1층","indutype":"유통업 영리 - 편 의 점","category":"other"}]},{"lat":"37.265657097","long":"127.01374979","imageIndex":17,"items":[{"name":"씨유수원매교역점","tel":"031-267-0592","addr":"경기도 수원시 권선구 세류동 97-192번지","indutype":"유통업 영리 - 편 의 점","category":"other"}]},{"lat":"37.256070075","long":"127.01442475","imageIndex":17,"items":[{"name":"씨유수원버드내점","tel":"02-1577-8007","addr":"경기도 수원시 권선구 세류동 1018-27번지 1층","indutype":"유통업 영리 - 편 의 점","category":"other"}]},{"lat":"37.244347418","long":"127.01664325","imageIndex":17,"items":[{"name":"씨유수원세류사랑점","tel":"031-893-8964","addr":"경기도 수원시 권선구 세류동 1155-3번지","indutype":"유통업 영리 - 편 의 점","category":"other"}]},{"lat":"37.252042036","long":"127.01822267","imageIndex":17,"items":[{"name":"씨유수원세류은혜점","tel":"031-223-7126","addr":"경기도 수원시 권선구 세류동 1119번지 1층","indutype":"유통업 영리 - 편 의 점","category":"other"}]},{"lat":"37.256097437","long":"127.01028784","imageIndex":17,"items":[{"name":"씨유수원세류타운점","tel":"031-898-6567","addr":"경기도 수원시 권선구 세류동 460-33번지 1층","indutype":"유통업 영리 - 편 의 점","category":"other"}]},{"lat":"37.257817958","long":"127.01556353","imageIndex":17,"items":[{"name":"씨유수원신곡점","tel":"031-897-6958","addr":"경기도 수원시 권선구 세류동 870-1번지 1층","indutype":"유통업 영리 - 편 의 점","category":"other"}]},{"lat":"37.251429722","long":"127.01486363","imageIndex":17,"items":[{"name":"아름다운세상","tel":"031-234-5911","addr":"경기도 수원시 권선구 세류동 1126-5번지 2층","indutype":"용역 서비스 - 기타용역서비스","category":"other"}]},{"lat":"37.242266141","long":"127.01567363","imageIndex":17,"items":[{"name":"아리랑에어컨","tel":"031-233-2011","addr":"경기도 수원시 권선구 세류동 1174-11번지 101호","indutype":"수리서비스 - 기타수리서비스","category":"other"}]},{"lat":"37.257123992","long":"127.01708519","imageIndex":17,"items":[{"name":"아울렛D.C백화점","tel":"031-222-0840","addr":"경기도 수원시 권선구 세류동 1075번지","indutype":"신변잡화 - 기타잡화","category":"other"}]},{"lat":"37.253214204","long":"127.0091491","imageIndex":17,"items":[{"name":"아이지에이마트 세류중앙점","tel":"031-768-0708","addr":"경기도 수원시 권선구 세류동 546-11번지 1층","indutype":"유통업 영리 - 편 의 점","category":"other"}]},{"lat":"37.25549323","long":"127.01619439","imageIndex":17,"items":[{"name":"아이펫","tel":"031-000-0000","addr":"경기도 수원시 권선구 세류동 1090-3번지","indutype":"문화.취미 - 애완동물","category":"other"}]},{"lat":"37.259151909","long":"127.01061504","imageIndex":17,"items":[{"name":"아카데미광고","tel":"031-234-8828","addr":"경기도 수원시 권선구 세류동 473-1번지 104호","indutype":"용역 서비스 - 종합용역","category":"other"}]},{"lat":"37.252294509","long":"127.01672359","imageIndex":17,"items":[{"name":"아쿠아정수기서울소독","tel":"031-235-0247","addr":"경기도 수원시 권선구 세류동 1116-10번지","indutype":"주방용구 - 정수기","category":"other"}]},{"lat":"37.261990151","long":"127.01064915","imageIndex":17,"items":[{"name":"안양사","tel":"070-4388-8712","addr":"경기도 수원시 권선구 세류동 343-1번지 1층","indutype":"신변잡화 - 기타잡화","category":"other"}]},{"lat":"37.266873754","long":"127.01027762","imageIndex":17,"items":[{"name":"애드굿","tel":"031-711-6855","addr":"경기도 수원시 권선구 세류동 70-4","indutype":"용역 서비스 - 종합용역","category":"other"}]},{"lat":"37.252159494","long":"127.01547241","imageIndex":17,"items":[{"name":"애드원","tel":"031-268-0933","addr":"경기도 수원시 권선구 세류동 1114-7번지","indutype":"용역 서비스 - 종합용역","category":"other"},{"name":"한음에이브이","tel":"031-221-7761","addr":"경기도 수원시 권선구 세류동 1114-7번지","indutype":"사무통신 - 통신기기","category":"other"}]},{"lat":"37.261017087","long":"127.00987122","imageIndex":17,"items":[{"name":"액자나라","tel":"031-851-0202","addr":"경기도 수원시 권선구 세류동 346-5번지 에코","indutype":"문화.취미 - 화방·표구점","category":"other"}]},{"lat":"37.251186952","long":"127.00767237","imageIndex":17,"items":[{"name":"앵프라멘스","tel":"031-236-7230","addr":"경기도 수원시 권선구 세류동 651-7번지","indutype":"가구 - 일반가구","category":"other"}]},{"lat":"37.256321633","long":"127.02038782","imageIndex":17,"items":[{"name":"양말싸대기","tel":"","addr":"경기도 수원시 권선구 세류동 1077번지 이원빌딩","indutype":"의류 - 기타의류","category":"other"}]},{"lat":"37.253961271","long":"127.01791872","imageIndex":17,"items":[{"name":"언니옷장","tel":"","addr":"경기도 수원시 권선구 세류동 1095-9번지 1층","indutype":"의류 - 정장","category":"other"}]},{"lat":"37.255881043","long":"127.01233936","imageIndex":17,"items":[{"name":"엄마랑♡아이랑","tel":"031-238-8283","addr":"경기도 수원시 권선구 세류동 536-6번지","indutype":"의류 - 정장","category":"other"}]},{"lat":"37.250240145","long":"127.01683593","imageIndex":17,"items":[{"name":"에덴메디여성병원 산후조리원2호점","tel":"031-236-2000","addr":"경기도 수원시 권선구 세류동 1128-2번지 중앙산부인과 중앙산부인과 5,6층","indutype":"기타의료기관 - 산후조리원","category":"other"}]},{"lat":"37.256376186","long":"127.01666798","imageIndex":17,"items":[{"name":"에바다","tel":"031-225-6476","addr":"경기도 수원시 권선구 세류동 1089-3번지","indutype":"의류 - 정장","category":"other"}]},{"lat":"37.265431959","long":"127.0123631","imageIndex":17,"items":[{"name":"에버모터스전자","tel":"","addr":"경기도 수원시 권선구 세류동 97-89번지 401호","indutype":"용역 서비스 - 기타용역서비스","category":"other"}]},{"lat":"37.26193633","long":"127.00469695","imageIndex":17,"items":[{"name":"에스알(SR)","tel":"","addr":"경기도 수원시 권선구 세류동 189-7번지 1 2","indutype":"의류 - 정장","category":"other"}]},{"lat":"37.255015379","long":"127.01867416","imageIndex":17,"items":[{"name":"에스와이색소폰(SY색소폰)","tel":"031-297-7958","addr":"경기도 수원시 권선구 세류동 1095-21번지 신원빌딩 지층","indutype":"레져용품 - 악기점","category":"other"}]},{"lat":"37.260512473","long":"127.01047991","imageIndex":17,"items":[{"name":"에어컨1004","tel":"031-1644-7481","addr":"경기도 수원시 권선구 세류동 350-7번지","indutype":"용역 서비스 - 기타용역서비스","category":"other"}]},{"lat":"37.263179626","long":"127.00862008","imageIndex":17,"items":[{"name":"에은상사","tel":"031-232-6374","addr":"경기도 수원시 권선구 세류동 229-52번지","indutype":"유통업 영리 - 기타유통업","category":"other"}]},{"lat":"37.265792368","long":"127.01239696","imageIndex":17,"items":[{"name":"에이스환경","tel":"031-236-7370","addr":"경기도 수원시 권선구 세류동 97-109번지","indutype":"용역 서비스 - 종합용역","category":"other"}]},{"lat":"37.247347875","long":"127.01647473","imageIndex":17,"items":[{"name":"에이치에스건축 주식회사","tel":"","addr":"경기도 수원시 권선구 세류동 1149-6번지 104호","indutype":"용역 서비스 - 기타용역서비스","category":"other"}]},{"lat":"37.259908871","long":"127.00894675","imageIndex":17,"items":[{"name":"에코렌트카 주식회사","tel":"031-278-5462","addr":"경기도 수원시 권선구 세류동 352-3번지","indutype":"여행 - 렌터카","category":"other"}]},{"lat":"37.246465169","long":"127.01347653","imageIndex":17,"items":[{"name":"에코전기온돌판넬.필름난방","tel":"031-234-8890","addr":"경기도 수원시 권선구 세류동 1144-5번지 1층","indutype":"건축자재 - 기타건축자재","category":"other"}]},{"lat":"37.2471856","long":"127.01722985","imageIndex":17,"items":[{"name":"엑스트론(X-TRON)","tel":"1588-9856-0000","addr":"경기도 수원시 권선구 세류동 1151-2번지 우신빌딩 2층","indutype":"전기제품 - 기타전기제품","category":"other"}]},{"lat":"37.257881555","long":"127.00891277","imageIndex":17,"items":[{"name":"엘렌스토리","tel":"031-000-0000","addr":"경기도 수원시 권선구 세류동 1249번지 수원권선데시앙 102동 403호","indutype":"문화.취미 - 문화취미기타","category":"other"}]},{"lat":"37.261683091","long":"127.01799917","imageIndex":17,"items":[{"name":"엘이디 나무","tel":"031-232-3312","addr":"경기도 수원시 권선구 세류동 832-25번지 2층","indutype":"건축자재 - 조명기구","category":"other"},{"name":"우리안전공사","tel":"032-1661-1321","addr":"경기도 수원시 권선구 세류동 832-25번지 1층","indutype":"용역 서비스 - 기타용역서비스","category":"other"},{"name":"창작아이","tel":"031-236-9224","addr":"경기도 수원시 권선구 세류동 832-25번지 1층","indutype":"용역 서비스 - 종합용역","category":"other"}]},{"lat":"37.253709902","long":"127.00572249","imageIndex":17,"items":[{"name":"엘지 에어컨","tel":"070-4376-4741","addr":"경기도 수원시 권선구 세류동 419-9번지 삼성아트빌2차 B동 201호","indutype":"용역 서비스 - 기타용역서비스","category":"other"}]},{"lat":"37.251321123","long":"127.01888755","imageIndex":17,"items":[{"name":"엘지전자(주) 남수원서비스센터","tel":"031-233-3168","addr":"경기도 수원시 권선구 세류동 1121-5번지 LG하이프라자 LGBESTSH오피스텔 3층","indutype":"수리서비스 - 가정용품수리","category":"other"}]},{"lat":"37.254737018","long":"127.00759369","imageIndex":17,"items":[{"name":"엠에스시스템에어컨","tel":"","addr":"경기도 수원시 권선구 세류동 430-30번지","indutype":"용역 서비스 - 기타용역서비스","category":"other"}]},{"lat":"37.256709547","long":"127.01683712","imageIndex":17,"items":[{"name":"여자","tel":"031-224-7369","addr":"경기도 수원시 권선구 세류동 1089-18번지 1층","indutype":"의류 - 정장","category":"other"}]},{"lat":"37.255160203","long":"127.01253089","imageIndex":17,"items":[{"name":"연기획","tel":"031-234-4501","addr":"경기도 수원시 권선구 세류동 1021-58번지 201호","indutype":"용역 서비스 - 종합용역","category":"other"}]},{"lat":"37.248654713","long":"127.01305981","imageIndex":17,"items":[{"name":"연일종합상사","tel":"031-241-3017","addr":"경기도 수원시 권선구 세류동 1141-7번지 1층","indutype":"의류 - 기타의류","category":"other"}]},{"lat":"37.255402822","long":"127.01867424","imageIndex":17,"items":[{"name":"연텔레콤","tel":"031-304-6638","addr":"경기도 수원시 권선구 세류동 1083-18번지 1층","indutype":"사무통신 - 통신기기","category":"other"}]},{"lat":"37.261016699","long":"127.01475242","imageIndex":17,"items":[{"name":"열쇠클럽","tel":"031-238-0603","addr":"경기도 수원시 권선구 세류동 152-8번지","indutype":"건축자재 - 목재·석재·철물","category":"other"}]},{"lat":"37.252601117","long":"127.0143115","imageIndex":17,"items":[{"name":"영광광고기획","tel":"031-298-0005","addr":"경기도 수원시 권선구 세류동 987-33번지 1층","indutype":"서적문구 - 출판 및 인쇄물","category":"other"}]},{"lat":"37.258908492","long":"127.01250883","imageIndex":17,"items":[{"name":"영신암","tel":"031-232-8087","addr":"경기도 수원시 권선구 세류동 524-5번지 2층","indutype":"기타 - 비영리/대상","category":"other"}]},{"lat":"37.259296192","long":"127.00850706","imageIndex":17,"items":[{"name":"영천전파사","tel":"031-232-0734","addr":"경기도 수원시 권선구 세류동 444-15번지","indutype":"수리서비스 - 가정용품수리","category":"other"}]},{"lat":"37.260017144","long":"127.00408817","imageIndex":17,"items":[{"name":"영화종합유통","tel":"031-232-8276","addr":"경기도 수원시 권선구 세류동 202-11번지","indutype":"유통업 영리 - 기타유통업","category":"other"}]},{"lat":"37.2604042","long":"127.01253156","imageIndex":17,"items":[{"name":"예랑인테리어","tel":"031-233-6532","addr":"경기도 수원시 권선구 세류동 477-16번지 1층","indutype":"직물 - 카페트,커튼,천막,지물","category":"other"}]},{"lat":"37.249988294","long":"127.01241752","imageIndex":17,"items":[{"name":"예스세라믹","tel":"031-221-7101","addr":"경기도 수원시 권선구 세류동 976-20번지","indutype":"건축자재 - 건축용 요업제품","category":"other"}]},{"lat":"37.253429739","long":"127.01730994","imageIndex":17,"items":[{"name":"예지피부샵","tel":"070-8945-3116","addr":"경기도 수원시 권선구 세류동 1107-15번지","indutype":"회원제형태 - 기타4","category":"other"}]},{"lat":"37.250826279","long":"127.01209076","imageIndex":17,"items":[{"name":"옥연사","tel":"031-222-2401","addr":"경기도 수원시 권선구 세류동 980-73번지","indutype":"기타 - 비영리/대상","category":"other"}]},{"lat":"37.258791482","long":"127.01084046","imageIndex":17,"items":[{"name":"올리브옷방","tel":"031-223-5578","addr":"경기도 수원시 권선구 세류동 470-9번지","indutype":"의류 - 정장","category":"other"}]},{"lat":"37.255322507","long":"127.01095282","imageIndex":17,"items":[{"name":"올포유","tel":"031-235-1644","addr":"경기도 수원시 권선구 세류동 459-12번지","indutype":"레져용품 - 스포츠·레져용품","category":"other"}]},{"lat":"37.254042037","long":"127.02030839","imageIndex":17,"items":[{"name":"와당우리옷","tel":"031-223-6788","addr":"경기도 수원시 권선구 세류동 1100-1번지 2층","indutype":"의류 - 맞춤복점","category":"other"}]},{"lat":"37.253574513","long":"127.01086246","imageIndex":17,"items":[{"name":"와우노래뮤비방","tel":"031-241-1665","addr":"경기도 수원시 권선구 세류동 544-35번지","indutype":"용역 서비스 - 종합용역","category":"other"}]},{"lat":"37.260178933","long":"127.01264426","imageIndex":17,"items":[{"name":"왼발오른발","tel":"031-892-8143","addr":"경기도 수원시 권선구 세류동 477-19번지","indutype":"신변잡화 - 신발","category":"other"}]},{"lat":"37.252799509","long":"127.01245169","imageIndex":17,"items":[{"name":"용수타일상사","tel":"031-226-6761","addr":"경기도 수원시 권선구 세류동 991-7번지","indutype":"건축자재 - 건축용 요업제품","category":"other"}]},{"lat":"37.252213945","long":"127.01103139","imageIndex":17,"items":[{"name":"우광전기","tel":"031-233-0071","addr":"경기도 수원시 권선구 세류동 566-4번지","indutype":"전기제품 - 기타전기제품","category":"other"},{"name":"한국종합목재","tel":"031-222-3849","addr":"경기도 수원시 권선구 세류동 566-4번지","indutype":"건축자재 - 인테리어전문","category":"other"}]},{"lat":"37.251132315","long":"127.01550606","imageIndex":17,"items":[{"name":"우드앤사인","tel":"031-225-7050","addr":"경기도 수원시 권선구 세류동 1126-9번지","indutype":"건축자재 - 인테리어전문","category":"other"}]},{"lat":"37.248988114","long":"127.01283443","imageIndex":17,"items":[{"name":"우먼로드우리수예","tel":"031-234-2159","addr":"경기도 수원시 권선구 세류동 1141-3","indutype":"직물 - 침구·수예점","category":"other"}]},{"lat":"37.248519554","long":"127.01311615","imageIndex":17,"items":[{"name":"우성목재","tel":"031-232-7258","addr":"경기도 수원시 권선구 세류동 1141-8번지","indutype":"건축자재 - 기타건축자재","category":"other"}]},{"lat":"37.252627569","long":"127.01924852","imageIndex":17,"items":[{"name":"우성실업","tel":"070-8119-5516","addr":"경기도 수원시 권선구 세류동 1102-10번지","indutype":"의류 - 정장","category":"other"}]},{"lat":"37.261656796","long":"127.01023202","imageIndex":17,"items":[{"name":"우진","tel":"031-226-8284","addr":"경기도 수원시 권선구 세류동 344-18번지","indutype":"용역 서비스 - 종합용역","category":"other"}]},{"lat":"37.263179467","long":"127.01128058","imageIndex":17,"items":[{"name":"우진설비","tel":"031-235-6238","addr":"경기도 수원시 권선구 세류동 320번지","indutype":"건축자재 - 보일러·펌프·샷시","category":"other"}]},{"lat":"37.260016754","long":"127.01256533","imageIndex":17,"items":[{"name":"원금당","tel":"031-233-3465","addr":"경기도 수원시 권선구 세류동 477-5번지","indutype":"신변잡화 - 귀금속","category":"other"},{"name":"제이패션","tel":"031-224-5976","addr":"경기도 수원시 권선구 세류동 477-5번지","indutype":"의류 - 정장","category":"other"},{"name":"피터래빗","tel":"031-239-8816","addr":"경기도 수원시 권선구 세류동 477-5번지","indutype":"의류 - 아동의류","category":"other"}]},{"lat":"37.252375294","long":"127.01914702","imageIndex":17,"items":[{"name":"원시스템공조","tel":"","addr":"경기도 수원시 권선구 세류동 1102-8번지 503호","indutype":"용역 서비스 - 기타용역서비스","category":"other"}]},{"lat":"37.252933896","long":"127.01941766","imageIndex":17,"items":[{"name":"위니아24크린샵세류점","tel":"","addr":"경기도 수원시 권선구 세류동 1102-12번지 1층","indutype":"수리서비스 - 세탁소","category":"other"}]},{"lat":"37.263657309","long":"127.00334418","imageIndex":17,"items":[{"name":"위드미수원세류점","tel":"031-273-7778","addr":"경기도 수원시 권선구 세류동 180-5번지 101호","indutype":"유통업 영리 - 편 의 점","category":"other"}]},{"lat":"37.256097358","long":"127.01144888","imageIndex":17,"items":[{"name":"윈정보통신","tel":"031-224-4010","addr":"경기도 수원시 권선구 세류동 533번지","indutype":"사무통신 - 통신기기","category":"other"}]},{"lat":"37.262575482","long":"127.01473011","imageIndex":17,"items":[{"name":"윌로펌프","tel":"031-278-5793","addr":"경기도 수원시 권선구 세류동 146-10번지","indutype":"건축자재 - 보일러·펌프·샷시","category":"other"},{"name":"주방박사","tel":"031-255-2003","addr":"경기도 수원시 권선구 세류동 146-10번지","indutype":"주방용구 - 주방용구","category":"other"}]},{"lat":"37.252763494","long":"127.01211353","imageIndex":17,"items":[{"name":"윌로펌프","tel":"031-225-5558","addr":"경기도 수원시 권선구 세류동 992-3번지","indutype":"건축자재 - 보일러·펌프·샷시","category":"other"}]},{"lat":"37.243022844","long":"127.01711636","imageIndex":17,"items":[{"name":"유성공사","tel":"031-232-3119","addr":"경기도 수원시 권선구 세류동 1171번지","indutype":"건축자재 - 목재·석재·철물","category":"other"}]},{"lat":"37.252466074","long":"127.01308286","imageIndex":17,"items":[{"name":"유용광고","tel":"031-234-8587","addr":"경기도 수원시 권선구 세류동 990-29번지","indutype":"용역 서비스 - 종합용역","category":"other"},{"name":"한동시스템크린 주식회사","tel":"031-267-0731","addr":"경기도 수원시 권선구 세류동 990-29번지 3층","indutype":"회원제형태 - 기타2","category":"other"}]},{"lat":"37.252402626","long":"127.01677997","imageIndex":17,"items":[{"name":"유진 에스앤에프","tel":"031-226-5742","addr":"경기도 수원시 권선구 세류동 1116-11번지 101호","indutype":"용역 서비스 - 종합용역","category":"other"}]},{"lat":"37.264350999","long":"127.0078423","imageIndex":17,"items":[{"name":"유진컴퓨터","tel":"031-236-8870","addr":"경기도 수원시 권선구 세류동 230-58번지 우측점포 1층","indutype":"사무통신 - 컴퓨터","category":"other"}]},{"lat":"37.254186808","long":"127.01552911","imageIndex":17,"items":[{"name":"유진패션","tel":"031-239-6679","addr":"경기도 수원시 권선구 세류동 1111-24번지","indutype":"의류 - 정장","category":"other"}]},{"lat":"37.256132649","long":"127.01873075","imageIndex":17,"items":[{"name":"유한주택건설","tel":"031-000-0000","addr":"경기도 수원시 권선구 세류동 1084-16번지 1층 101호","indutype":"용역 서비스 - 기타용역서비스","category":"other"}]},{"lat":"37.244960333","long":"127.01467101","imageIndex":17,"items":[{"name":"윤그래픽","tel":"031-239-3715","addr":"경기도 수원시 권선구 세류동 1146-8번지","indutype":"용역 서비스 - 종합용역","category":"other"}]},{"lat":"37.255376342","long":"127.01378213","imageIndex":17,"items":[{"name":"은성공조","tel":"070-5531-2729","addr":"경기도 수원시 권선구 세류동 1018-52번지","indutype":"용역 서비스 - 기타용역서비스","category":"other"}]},{"lat":"37.25815198","long":"127.0058692","imageIndex":17,"items":[{"name":"은성도어테크","tel":"031-222-9808","addr":"경기도 수원시 권선구 세류동 210-17번지 1층","indutype":"건축자재 - 기타건축자재","category":"other"}]},{"lat":"37.25682648","long":"127.01844909","imageIndex":17,"items":[{"name":"이  솜씨 아크릴","tel":"031-232-6100","addr":"경기도 수원시 권선구 세류동 1075-9번지 102-103호","indutype":"신변잡화 - 기타잡화","category":"other"}]},{"lat":"37.257457928","long":"127.0112574","imageIndex":17,"items":[{"name":"이레홈패션","tel":"031-221-1376","addr":"경기도 수원시 권선구 세류동 466-13번지","indutype":"직물 - 침구·수예점","category":"other"},{"name":"현대철물","tel":"031-233-1732","addr":"경기도 수원시 권선구 세류동 466-13번지","indutype":"건축자재 - 목재·석재·철물","category":"other"},{"name":"현대철물","tel":"031-233-1732","addr":"경기도 수원시 권선구 세류동 466-13번지","indutype":"건축자재 - 목재·석재·철물","category":"other"}]},{"lat":"37.251015373","long":"127.01355607","imageIndex":17,"items":[{"name":"이마트24 권선세류점","tel":"","addr":"경기도 수원시 권선구 세류동 984-3번지 1층 103호","indutype":"유통업 영리 - 편 의 점","category":"other"}]},{"lat":"37.255826531","long":"127.01689332","imageIndex":17,"items":[{"name":"이마트24 수원세지로점","tel":"031-000-0000","addr":"경기도 수원시 권선구 세류동 1088-10번지","indutype":"유통업 영리 - 편 의 점","category":"other"},{"name":"이마트24 수원세지로점","tel":"031-000-0000","addr":"경기도 수원시 권선구 세류동 1088-10번지","indutype":"유통업 영리 - 편 의 점","category":"other"}]},{"lat":"37.25673712","long":"127.01103187","imageIndex":17,"items":[{"name":"이마트24 수원정조로점","tel":"","addr":"경기도 수원시 권선구 세류동 460-7번지","indutype":"유통업 영리 - 편 의 점","category":"other"}]},{"lat":"37.254907734","long":"127.01453729","imageIndex":17,"items":[{"name":"이쁜집꾸미기","tel":"031-234-6126","addr":"경기도 수원시 권선구 세류동 1011-45번지","indutype":"직물 - 침구·수예점","category":"other"}]},{"lat":"37.242158038","long":"127.01548202","imageIndex":17,"items":[{"name":"이에이에스와이냉난방","tel":"031-239-7919","addr":"경기도 수원시 권선구 세류동 1174-13번지 영동빌라 102호","indutype":"용역 서비스 - 기타용역서비스","category":"other"}]},{"lat":"37.250321486","long":"127.01453658","imageIndex":17,"items":[{"name":"이화냉난방","tel":"031-238-8944","addr":"경기도 수원시 권선구 세류동 1133-7번지","indutype":"수리서비스 - 가정용품수리","category":"other"},{"name":"한누리편의점","tel":"031-236-3264","addr":"경기도 수원시 권선구 세류동 1133-7번지","indutype":"유통업 영리 - 편 의 점","category":"other"}]},{"lat":"37.255186497","long":"127.01924907","imageIndex":17,"items":[{"name":"인성샷시부속","tel":"031-236-8383","addr":"경기도 수원시 권선구 세류동 1082-28번지","indutype":"건축자재 - 기타건축자재","category":"other"}]},{"lat":"37.251628499","long":"127.00650015","imageIndex":17,"items":[{"name":"인카페인","tel":"070-8031-4038","addr":"경기도 수원시 권선구 세류동 679-16번지 1층","indutype":"주방용구 - 주방용구","category":"other"}]},{"lat":"37.261908356","long":"127.01794285","imageIndex":17,"items":[{"name":"일광이엔지","tel":"031-235-1650","addr":"경기도 수원시 권선구 세류동 832-22번지","indutype":"건축자재 - 인테리어전문","category":"other"}]},{"lat":"37.263963346","long":"127.01150614","imageIndex":17,"items":[{"name":"일광전기통신","tel":"031-224-0455","addr":"경기도 수원시 권선구 세류동 97-35번지 삼성하이빌 1층 101호","indutype":"용역 서비스 - 기타용역서비스","category":"other"}]},{"lat":"37.253457244","long":"127.01266594","imageIndex":17,"items":[{"name":"장안종합알뜰매장","tel":"031-234-7743","addr":"경기도 수원시 권선구 세류동 1003-1번지","indutype":"전기제품 - 가전제품","category":"other"},{"name":"주식회사동방씨앤에스","tel":"031-211-5680","addr":"경기도 수원시 권선구 세류동 1003-1 302","indutype":"용역 서비스 - 종합용역","category":"other"}]},{"lat":"37.249402432","long":"127.01455898","imageIndex":17,"items":[{"name":"장원설비","tel":"","addr":"경기도 수원시 권선구 세류동 1132-29번지 1층 102호","indutype":"용역 서비스 - 기타용역서비스","category":"other"}]},{"lat":"37.257908091","long":"127.01528174","imageIndex":17,"items":[{"name":"장원타일 인테리어","tel":"031-238-0438","addr":"경기도 수원시 권선구 세류동 502-5번지 101호","indutype":"건축자재 - 건축용 요업제품","category":"other"}]},{"lat":"37.241878703","long":"127.01561722","imageIndex":17,"items":[{"name":"재우천막산업","tel":"031-238-3670","addr":"경기도 수원시 권선구 세류동 1174-29번지","indutype":"직물 - 카페트,커튼,천막,지물","category":"other"}]},{"lat":"37.241464208","long":"127.01580874","imageIndex":17,"items":[{"name":"전국기계공구","tel":"031-233-0902","addr":"경기도 수원시 권선구 세류동 1178-23번지","indutype":"기타 - 기계공구","category":"other"},{"name":"화성공작기계","tel":"031-225-3313","addr":"경기도 수원시 권선구 세류동 1178-23번지","indutype":"기타 - 기계공구","category":"other"}]},{"lat":"37.25582695","long":"127.01272261","imageIndex":17,"items":[{"name":"전통한복 하영","tel":"031-234-3282","addr":"경기도 수원시 권선구 세류동 1021-36번지 105호","indutype":"의류 - 맞춤복점","category":"other"}]},{"lat":"37.254321564","long":"127.01883182","imageIndex":17,"items":[{"name":"정기종합공사","tel":"031-237-2992","addr":"경기도 수원시 권선구 세류동 1096-11번지","indutype":"용역 서비스 - 기타용역서비스","category":"other"}]},{"lat":"37.249600827","long":"127.01269925","imageIndex":17,"items":[{"name":"정든사진관","tel":"031-236-6256","addr":"경기도 수원시 권선구 세류동 975-11번지","indutype":"광학제품 - 사진관","category":"other"}]},{"lat":"37.255294706","long":"127.01861786","imageIndex":17,"items":[{"name":"정원자동문","tel":"031-233-4148","addr":"경기도 수원시 권선구 세류동 1083-4번지 선진빌딩 106호","indutype":"건축자재 - 기타건축자재","category":"other"},{"name":"지수컬렉션","tel":"031-235-8577","addr":"경기도 수원시 권선구 세류동 1083-4번지 선진빌딩 103호","indutype":"의류 - 정장","category":"other"}]},{"lat":"37.256826674","long":"127.01689351","imageIndex":17,"items":[{"name":"제이골드","tel":"031-222-4862","addr":"경기도 수원시 권선구 세류동 1089번지","indutype":"신변잡화 - 귀금속","category":"other"}]},{"lat":"37.264071143","long":"127.01520383","imageIndex":17,"items":[{"name":"제이드 포토라인","tel":"031-245-7640","addr":"경기도 수원시 권선구 세류동 134-4번지 4층","indutype":"광학제품 - 사진관","category":"other"}]},{"lat":"37.264765212","long":"127.01217137","imageIndex":17,"items":[{"name":"제이앤비워터","tel":"031-8059-7790","addr":"경기도 수원시 권선구 세류동 97-48번지 101호","indutype":"주방용구 - 정수기","category":"other"}]},{"lat":"37.246014321","long":"127.0166999","imageIndex":17,"items":[{"name":"제이앤제이시스템","tel":"031-225-8950","addr":"경기도 수원시 권선구 세류동 1154번지","indutype":"전기제품 - 냉열기기","category":"other"}]},{"lat":"37.250763263","long":"127.01133556","imageIndex":17,"items":[{"name":"제이에스이엔지(J.S ENG)","tel":"","addr":"경기도 수원시 권선구 세류동 579-52번지 베스트타운 102동 302호","indutype":"용역 서비스 - 기타용역서비스","category":"other"}]},{"lat":"37.252799053","long":"127.01700548","imageIndex":17,"items":[{"name":"제이에프(JF)디자인","tel":"031-235-7215","addr":"경기도 수원시 권선구 세류동 1107-11번지","indutype":"용역 서비스 - 종합용역","category":"other"}]},{"lat":"37.259547802","long":"127.01675874","imageIndex":17,"items":[{"name":"제이피와이렌탈","tel":"031-294-0019","addr":"경기도 수원시 권선구 세류동 854-2번지 202호","indutype":"사무통신 - 컴퓨터","category":"other"}]},{"lat":"37.250069391","long":"127.01236118","imageIndex":17,"items":[{"name":"제일목재","tel":"031-232-0573","addr":"경기도 수원시 권선구 세류동 976-21번지","indutype":"건축자재 - 목재·석재·철물","category":"other"}]},{"lat":"37.254799278","long":"127.01753564","imageIndex":17,"items":[{"name":"제일종합개발","tel":"031-236-9760","addr":"경기도 수원시 권선구 세류동 1093-13번지","indutype":"기타 - 기타 전문점","category":"other"}]},{"lat":"37.262296029","long":"127.01600394","imageIndex":17,"items":[{"name":"제일타일","tel":"031-233-2176","addr":"경기도 수원시 권선구 세류동 138-4번지","indutype":"건축자재 - 건축용 요업제품","category":"other"}]},{"lat":"37.252186093","long":"127.01903426","imageIndex":17,"items":[{"name":"조양건철산업","tel":"031-235-9975","addr":"경기도 수원시 권선구 세류동 1102-6번지","indutype":"건축자재 - 기타건축자재","category":"other"}]},{"lat":"37.24849215","long":"127.01677925","imageIndex":17,"items":[{"name":"종합집수리","tel":"031-225-5760","addr":"경기도 수원시 권선구 세류동 1150번지","indutype":"수리서비스 - 기타수리서비스","category":"other"}]},{"lat":"37.259845568","long":"127.01245258","imageIndex":17,"items":[{"name":"좋은생각","tel":"031-893-8804","addr":"경기도 수원시 권선구 세류동 478-1번지","indutype":"사무통신 - 통신기기","category":"other"}]},{"lat":"37.263846441","long":"127.00736879","imageIndex":17,"items":[{"name":"주식회사 디앤비하우징","tel":"070-8955-3440","addr":"경기도 수원시 권선구 세류동 230-45번지","indutype":"건축자재 - 인테리어전문","category":"other"},{"name":"해피하우스","tel":"031-216-5368","addr":"경기도 수원시 권선구 세류동 230-45번지","indutype":"건축자재 - 인테리어전문","category":"other"}]},{"lat":"37.250879987","long":"127.0158667","imageIndex":17,"items":[{"name":"주식회사 루맨","tel":"031-235-8877","addr":"경기도 수원시 권선구 세류동 1127-13번지","indutype":"사무통신 - 기타 사무용품","category":"other"}]},{"lat":"37.253826827","long":"127.01047924","imageIndex":17,"items":[{"name":"주식회사 몬스터","tel":"","addr":"경기도 수원시 권선구 세류동 544-31번지 태영빌딩 3층","indutype":"여행 - 렌터카","category":"other"}]},{"lat":"37.251466125","long":"127.010479","imageIndex":17,"items":[{"name":"주식회사 아시아공조산업","tel":"070-4686-9412","addr":"경기도 수원시 권선구 세류동 572-1번지 1층","indutype":"전기제품 - 기타전기제품","category":"other"}]},{"lat":"37.251015272","long":"127.01461559","imageIndex":17,"items":[{"name":"주식회사 와이비테크","tel":"031-8490-0521","addr":"경기도 수원시 권선구 세류동 1137-13번지 1층","indutype":"기타 - 기계공구","category":"other"}]},{"lat":"37.24407705","long":"127.0171391","imageIndex":17,"items":[{"name":"주식회사 캐리어수원총판","tel":"031-212-0004","addr":"경기도 수원시 권선구 세류동 1162-2번지 3층","indutype":"전기제품 - 냉열기기","category":"other"}]},{"lat":"37.26420681","long":"127.00839469","imageIndex":17,"items":[{"name":"주식회사 쿡시스템","tel":"031-223-2038","addr":"경기도 수원시 권선구 세류동 88-1","indutype":"주방용구 - 주방용식기","category":"other"}]},{"lat":"37.253322284","long":"127.00992687","imageIndex":17,"items":[{"name":"주식회사늘푸른조경산업","tel":"031-267-2244","addr":"경기도 수원시 권선구 세류동 545-15번지","indutype":"기타 - 기타 전문점","category":"other"}]},{"lat":"37.263458575","long":"127.01386221","imageIndex":17,"items":[{"name":"주식회사더플러스","tel":"031-222-3670","addr":"경기도 수원시 권선구 세류동 128-15번지","indutype":"건축자재 - 기타건축자재","category":"other"}]},{"lat":"37.263269611","long":"127.01067183","imageIndex":17,"items":[{"name":"주식회사동양이플러스","tel":"031-224-4345","addr":"경기도 수원시 권선구 세류동 318-3번지 1층","indutype":"주방용구 - 주방용구","category":"other"},{"name":"코맥스(서인점)","tel":"031-239-0117","addr":"경기도 수원시 권선구 세류동 318-3번지","indutype":"사무통신 - 통신기기","category":"other"}]},{"lat":"37.256764156","long":"127.01095297","imageIndex":17,"items":[{"name":"준인테리어","tel":"031-236-4757","addr":"경기도 수원시 권선구 세류동 460-5","indutype":"직물 - 카페트,커튼,천막,지물","category":"other"}]},{"lat":"37.25768314","long":"127.01188868","imageIndex":17,"items":[{"name":"중앙모터샵","tel":"031-388-5547","addr":"경기도 수원시 권선구 세류동 526-6번지 1층","indutype":"수리서비스 - 레져용품수리","category":"other"}]},{"lat":"37.253042279","long":"127.01744512","imageIndex":17,"items":[{"name":"중앙환경방역","tel":"031-225-5444","addr":"경기도 수원시 권선구 세류동 1105-5번지","indutype":"용역 서비스 - 기타용역서비스","category":"other"}]},{"lat":"37.260043624","long":"127.01436899","imageIndex":17,"items":[{"name":"지니","tel":"","addr":"경기도 수원시 권선구 세류동 156-11번지 1층","indutype":"용역 서비스 - 기타용역서비스","category":"other"}]},{"lat":"37.253268126","long":"127.0113922","imageIndex":17,"items":[{"name":"지엔에이치(G&H)정보통신","tel":"031-233-5011","addr":"경기도 수원시 권선구 세류동 998-3번지","indutype":"사무통신 - 통신기기","category":"other"}]},{"lat":"37.254547243","long":"127.015315","imageIndex":17,"items":[{"name":"지호텔레콤","tel":"031-232-4533","addr":"경기도 수원시 권선구 세류동 1012-23번지","indutype":"사무통신 - 통신기기","category":"other"}]},{"lat":"37.25645709","long":"127.01820102","imageIndex":17,"items":[{"name":"진경에어컨","tel":"031-234-2435","addr":"경기도 수원시 권선구 세류동 1085번지 삼화그린빌라 2층","indutype":"용역 서비스 - 기타용역서비스","category":"other"}]},{"lat":"37.256628846","long":"127.01298197","imageIndex":17,"items":[{"name":"진형설비","tel":"031-237-7589","addr":"경기도 수원시 권선구 세류동 512-1번지","indutype":"용역 서비스 - 기타용역서비스","category":"other"}]},{"lat":"37.257791552","long":"127.00642154","imageIndex":17,"items":[{"name":"차차블박","tel":"","addr":"경기도 수원시 권선구 세류동 210-33번지 탑캐슬 101호","indutype":"회원제형태 - 기타3","category":"other"}]},{"lat":"37.256294572","long":"127.02059071","imageIndex":17,"items":[{"name":"찬스펫(Chance Pet)","tel":"031-222-8249","addr":"경기도 수원시 권선구 세류동 1077-1번지 1층","indutype":"문화.취미 - 애완동물","category":"other"}]},{"lat":"37.258124256","long":"127.01603703","imageIndex":17,"items":[{"name":"창대 에어컨","tel":"","addr":"경기도 수원시 권선구 세류동 869-6번지","indutype":"수리서비스 - 가정용품수리","category":"other"}]},{"lat":"37.254240787","long":"127.01628434","imageIndex":17,"items":[{"name":"창희종합","tel":"031-233-3166","addr":"경기도 수원시 권선구 세류동 1110-16번지","indutype":"건축자재 - 목재·석재·철물","category":"other"},{"name":"채영통신","tel":"031-221-6010","addr":"경기도 수원시 권선구 세류동 1110-16번지 1층","indutype":"사무통신 - 통신기기","category":"other"}]},{"lat":"37.257656145","long":"127.01139269","imageIndex":17,"items":[{"name":"천혜플라워","tel":"031-237-5508","addr":"경기도 수원시 권선구 세류동 466-2번지","indutype":"문화.취미 - 화원","category":"other"}]},{"lat":"37.262512242","long":"127.01630835","imageIndex":17,"items":[{"name":"청로교역","tel":"","addr":"경기도 수원시 권선구 세류동 139-14번지 201,202호","indutype":"문화.취미 - 민예·공예품","category":"other"}]},{"lat":"37.242293024","long":"127.01698098","imageIndex":17,"items":[{"name":"청송창호","tel":"031-305-3058","addr":"경기도 수원시 권선구 세류동 1177-3번지","indutype":"건축자재 - 유리","category":"other"}]},{"lat":"37.251042533","long":"127.01200061","imageIndex":17,"items":[{"name":"청아산업","tel":"031-222-4225","addr":"경기도 수원시 권선구 세류동 980-12번지 1층 102호","indutype":"용역 서비스 - 종합용역","category":"other"}]},{"lat":"37.254826271","long":"127.01783999","imageIndex":17,"items":[{"name":"청우CS환경","tel":"","addr":"경기도 수원시 권선구 세류동 1094-3번지 1층 101호","indutype":"용역 서비스 - 종합용역","category":"other"}]},{"lat":"37.252105038","long":"127.01875245","imageIndex":17,"items":[{"name":"촌놈텔레콤","tel":"031-222-8474","addr":"경기도 수원시 권선구 세류동 1102-4번지 101호","indutype":"사무통신 - 통신기기","category":"other"}]},{"lat":"37.254042516","long":"127.01666755","imageIndex":17,"items":[{"name":"춘천옥 & 공예방","tel":"070-8236-8230","addr":"경기도 수원시 권선구 세류동 1109-27번지","indutype":"문화.취미 - 민예·공예품","category":"other"}]},{"lat":"37.25696244","long":"127.01006247","imageIndex":17,"items":[{"name":"충남창호","tel":"031-307-4242","addr":"경기도 수원시 권선구 세류동 461-16번지 103호","indutype":"건축자재 - 유리","category":"other"}]},{"lat":"37.258764334","long":"127.01241863","imageIndex":17,"items":[{"name":"카와이(Kawai)","tel":"031-893-8804","addr":"경기도 수원시 권선구 세류동 524-25번지","indutype":"의류 - 정장","category":"other"}]},{"lat":"37.261286812","long":"127.01656741","imageIndex":17,"items":[{"name":"칼의부활수원영통점","tel":"000-1599-8826","addr":"경기도 수원시 권선구 세류동 840번지 삼익아파트 104동 306호","indutype":"수리서비스 - 기타수리서비스","category":"other"}]},{"lat":"37.250961472","long":"127.01158356","imageIndex":17,"items":[{"name":"캐리어냉난방프라자","tel":"031-222-8282","addr":"경기도 수원시 권선구 세류동 581-1번지","indutype":"전기제품 - 냉열기기","category":"other"}]},{"lat":"37.262071401","long":"127.00767306","imageIndex":17,"items":[{"name":"캔들모바일","tel":"031-233-2177","addr":"경기도 수원시 권선구 세류동 217-7번지 1층","indutype":"사무통신 - 통신기기","category":"other"}]},{"lat":"37.251600718","long":"127.01670092","imageIndex":17,"items":[{"name":"컴포스(COMPOS)","tel":"070-8815-8816","addr":"경기도 수원시 권선구 세류동 1117-16번지 1층","indutype":"수리서비스 - 세탁소","category":"other"}]},{"lat":"37.252402711","long":"127.01603604","imageIndex":17,"items":[{"name":"케이티공조","tel":"","addr":"경기도 수원시 권선구 세류동 1115-6번지","indutype":"용역 서비스 - 기타용역서비스","category":"other"}]},{"lat":"37.25385322","long":"127.01733256","imageIndex":17,"items":[{"name":"코리아I&C","tel":"031-239-3435","addr":"경기도 수원시 권선구 세류동 1107번지","indutype":"사무통신 - 통신기기","category":"other"}]},{"lat":"37.257709675","long":"127.01697258","imageIndex":17,"items":[{"name":"코코","tel":"070-4407-2532","addr":"경기도 수원시 권선구 세류동 881-7번지","indutype":"의류 - 정장","category":"other"}]},{"lat":"37.262963111","long":"127.01270099","imageIndex":17,"items":[{"name":"코콤코리아주식회사","tel":"031-239-6334","addr":"경기도 수원시 권선구 세류동 491-4번지","indutype":"사무통신 - 통신기기","category":"other"}]},{"lat":"37.244050198","long":"127.01556123","imageIndex":17,"items":[{"name":"크린스피드","tel":"070-4895-3777","addr":"경기도 수원시 권선구 세류동 1159-5번지","indutype":"수리서비스 - 세탁소","category":"other"}]},{"lat":"37.26101626","long":"127.01852886","imageIndex":17,"items":[{"name":"크린에이드 노스마트 세류점","tel":"031-221-1368","addr":"경기도 수원시 권선구 세류동 841-3번지 1층","indutype":"수리서비스 - 세탁소","category":"other"}]},{"lat":"37.247906873","long":"127.0128681","imageIndex":17,"items":[{"name":"크린토피아 세류점","tel":"031-8002-0110","addr":"경기도 수원시 권선구 세류동 1142-7번지 1층","indutype":"수리서비스 - 세탁소","category":"other"}]},{"lat":"37.257791333","long":"127.01091926","imageIndex":17,"items":[{"name":"키즈마을","tel":"070-7516-4116","addr":"경기도 수원시 권선구 세류동 466-10번지 1동","indutype":"광학제품 - 사진관","category":"other"}]},{"lat":"37.262098063","long":"127.01338854","imageIndex":17,"items":[{"name":"킹스포츠","tel":"031-237-0810","addr":"경기도 수원시 권선구 세류동 174-19번지","indutype":"의류 - 스포츠의류","category":"other"}]},{"lat":"37.255519949","long":"127.01873062","imageIndex":17,"items":[{"name":"태강디지탈사무기","tel":"031-237-9494","addr":"경기도 수원시 권선구 세류동 1083-17번지 1층","indutype":"사무통신 - 사무용 OA기기","category":"other"}]},{"lat":"37.256880579","long":"127.01816729","imageIndex":17,"items":[{"name":"태광전기조명","tel":"031-235-4872","addr":"경기도 수원시 권선구 세류동 1075-7번지","indutype":"건축자재 - 조명기구","category":"other"}]},{"lat":"37.25573584","long":"127.02119928","imageIndex":17,"items":[{"name":"태복상사","tel":"031-223-7401","addr":"경기도 수원시 권선구 세류동 1079번지","indutype":"유통업 영리 - 기타유통업","category":"other"}]},{"lat":"37.251321857","long":"127.01194429","imageIndex":17,"items":[{"name":"태양기전","tel":"031-239-4608","addr":"경기도 수원시 권선구 세류동 981-10번지","indutype":"기타 - 기타 전문점","category":"other"}]},{"lat":"37.254881072","long":"127.00983684","imageIndex":17,"items":[{"name":"태양목재(방문박사)","tel":"031-236-0984","addr":"경기도 수원시 권선구 세류동 528-21번지 광민빌딩 102호","indutype":"건축자재 - 기타건축자재","category":"other"}]},{"lat":"37.243212054","long":"127.01717274","imageIndex":17,"items":[{"name":"태영종합목재상사","tel":"031-235-3033","addr":"경기도 수원시 권선구 세류동 1170-2번지","indutype":"건축자재 - 목재·석재·철물","category":"other"}]},{"lat":"37.249997164","long":"127.01401805","imageIndex":17,"items":[{"name":"태풍에어컨","tel":"011-***-****","addr":"경기도 수원시 권선구 세류동 1136-10번지 삼화맨션 3동 102호","indutype":"용역 서비스 - 기타용역서비스","category":"other"}]},{"lat":"37.251267336","long":"127.01670086","imageIndex":17,"items":[{"name":"태화물산","tel":"031-237-6319","addr":"경기도 수원시 권선구 세류동 1124-4번지","indutype":"건축자재 - 보일러·펌프·샷시","category":"other"}]},{"lat":"37.260935817","long":"127.0124189","imageIndex":17,"items":[{"name":"태후이엔티","tel":"031-225-1182","addr":"경기도 수원시 권선구 세류동 495-3번지 402호","indutype":"용역 서비스 - 종합용역","category":"other"}]},{"lat":"37.261873263","long":"127.00427984","imageIndex":17,"items":[{"name":"튐메이드","tel":"070-8962-7603","addr":"경기도 수원시 권선구 세류동 189-4번지 지하층","indutype":"문화.취미 - 문화취미기타","category":"other"}]},{"lat":"37.263269745","long":"127.00825934","imageIndex":17,"items":[{"name":"파아란정보통신","tel":"031-226-7008","addr":"경기도 수원시 권선구 세류동 229-62번지 1층","indutype":"사무통신 - 컴퓨터","category":"other"}]},{"lat":"37.251763409","long":"127.01131313","imageIndex":17,"items":[{"name":"팔팔공사","tel":"031-235-8803","addr":"경기도 수원시 권선구 세류동 580-35번지","indutype":"용역 서비스 - 기타용역서비스","category":"other"}]},{"lat":"37.257268199","long":"127.0167245","imageIndex":17,"items":[{"name":"패션스타","tel":"031-225-0487","addr":"경기도 수원시 권선구 세류동 874-4번지 1층","indutype":"신변잡화 - 액세서리","category":"other"}]},{"lat":"37.260323034","long":"127.01338829","imageIndex":17,"items":[{"name":"패션스타일","tel":"031-234-0993","addr":"경기도 수원시 권선구 세류동 162-15번지 (1층우층상가)","indutype":"의류 - 정장","category":"other"}]},{"lat":"37.263629486","long":"127.01659038","imageIndex":17,"items":[{"name":"퍼펙트그린","tel":"031-111-1111","addr":"경기도 수원시 권선구 세류동 138-96번지 1층 101호","indutype":"용역 서비스 - 종합용역","category":"other"}]},{"lat":"37.259683343","long":"127.01292602","imageIndex":17,"items":[{"name":"펫츠랑","tel":"031-226-1515","addr":"경기도 수원시 권선구 세류동 498-2번지 1층","indutype":"문화.취미 - 애완동물","category":"other"}]},{"lat":"37.245437907","long":"127.01438931","imageIndex":17,"items":[{"name":"폰24","tel":"070-7622-1016","addr":"경기도 수원시 권선구 세류동 1146-5번지 1층","indutype":"사무통신 - 통신기기","category":"other"}]},{"lat":"37.244185431","long":"127.01480613","imageIndex":17,"items":[{"name":"폰마당","tel":"031-225-3010","addr":"경기도 수원시 권선구 세류동 1146-12번지","indutype":"사무통신 - 통신기기","category":"other"},{"name":"폰마당","tel":"070-7578-8980","addr":"경기도 수원시 권선구 세류동 1146-12번지 102호","indutype":"사무통신 - 통신기기","category":"other"}]},{"lat":"37.256214054","long":"127.01619451","imageIndex":17,"items":[{"name":"폴펫","tel":"031-221-9996","addr":"경기도 수원시 권선구 세류동 876-12번지 1층","indutype":"문화.취미 - 애완동물","category":"other"}]},{"lat":"37.254880083","long":"127.01969989","imageIndex":17,"items":[{"name":"푸르미플라워","tel":"031-233-3611","addr":"경기도 수원시 권선구 세류동 1081-22번지","indutype":"문화.취미 - 화원","category":"other"}]},{"lat":"37.255627875","long":"127.02013967","imageIndex":17,"items":[{"name":"플러스나인","tel":"031-222-2582","addr":"경기도 수원시 권선구 세류동 1081-8번지 영락빌딩 201호","indutype":"건축자재 - 인테리어전문","category":"other"}]},{"lat":"37.262097906","long":"127.01503441","imageIndex":17,"items":[{"name":"필름세상","tel":"031-222-8872","addr":"경기도 수원시 권선구 세류동 147-37번지","indutype":"직물 - 카페트,커튼,천막,지물","category":"other"}]},{"lat":"37.256907627","long":"127.01803203","imageIndex":17,"items":[{"name":"하나종합알뜰매장","tel":"031-233-2720","addr":"경기도 수원시 권선구 세류동 1075-6. 7105호~107호","indutype":"전기제품 - 가전제품","category":"other"}]},{"lat":"37.259656363","long":"127.01230601","imageIndex":17,"items":[{"name":"하늘 노래 기획","tel":"031-221-6752","addr":"경기도 수원시 권선구 세류동 478-2번지 2층","indutype":"용역 서비스 - 종합용역","category":"other"}]},{"lat":"37.252159321","long":"127.01700536","imageIndex":17,"items":[{"name":"하늘스포츠","tel":"02-3280-0901","addr":"경기도 수원시 권선구 세류동 1117-2번지","indutype":"의류 - 스포츠의류","category":"other"}]},{"lat":"37.257935522","long":"127.01055856","imageIndex":17,"items":[{"name":"하얀얼굴","tel":"031-232-3687","addr":"경기도 수원시 권선구 세류동 464-1번지","indutype":"회원제형태 - 기타4","category":"other"}]},{"lat":"37.259043521","long":"127.01395175","imageIndex":17,"items":[{"name":"하이냉동","tel":"070-4896-1118","addr":"경기도 수원시 권선구 세류동 515-6번지 101호","indutype":"용역 서비스 - 기타용역서비스","category":"other"}]},{"lat":"37.256728145","long":"127.01050207","imageIndex":17,"items":[{"name":"하이독 펫푸드 멍밥","tel":"031-352-1673","addr":"경기도 수원시 권선구 세류동 460-1번지 해피하우스 B동 201호","indutype":"문화.취미 - 애완동물","category":"other"}]},{"lat":"37.261485482","long":"127.0119455","imageIndex":17,"items":[{"name":"하이플러스공조","tel":"031-233-2510","addr":"경기도 수원시 권선구 세류동 484-5번지","indutype":"전기제품 - 냉열기기","category":"other"}]},{"lat":"37.26284592","long":"127.01336609","imageIndex":17,"items":[{"name":"한국닥트","tel":"031-234-2963","addr":"경기도 수원시 권선구 세류동 493-1","indutype":"건축자재 - 보일러·펌프·샷시","category":"other"}]},{"lat":"37.256097336","long":"127.01175323","imageIndex":17,"items":[{"name":"한국지그","tel":"070-4143-8766","addr":"경기도 수원시 권선구 세류동 533-2번지","indutype":"기타 - 기계공구","category":"other"}]},{"lat":"37.254349169","long":"127.01375944","imageIndex":17,"items":[{"name":"한국지그/원격지","tel":"070-4143-8766","addr":"경기도 수원시 권선구 세류동 1019-31번지","indutype":"기타 - 기타 전문점","category":"other"}]},{"lat":"37.242905942","long":"127.01503133","imageIndex":17,"items":[{"name":"한국후지공업수원총판","tel":"031-237-3978","addr":"경기도 수원시 권선구 세류동 1167-54번지","indutype":"기타 - 기계공구","category":"other"}]},{"lat":"37.253430392","long":"127.01017486","imageIndex":17,"items":[{"name":"한동건재합판","tel":"031-225-4841","addr":"경기도 수원시 권선구 세류동 545-9번지","indutype":"건축자재 - 건축용 요업제품","category":"other"}]},{"lat":"37.252988503","long":"127.01489769","imageIndex":17,"items":[{"name":"한라꽃직매장","tel":"031-224-1213","addr":"경기도 수원시 권선구 세류동 1112-8번지","indutype":"문화.취미 - 화원","category":"other"}]},{"lat":"37.262457863","long":"127.01886736","imageIndex":17,"items":[{"name":"한반도","tel":"","addr":"경기도 수원시 권선구 세류동 817-161번지 2층","indutype":"의류 - 스포츠의류","category":"other"}]},{"lat":"37.255402892","long":"127.01814445","imageIndex":17,"items":[{"name":"한샘종합설비","tel":"031-235-8502","addr":"경기도 수원시 권선구 세류동 1084-5번지","indutype":"용역 서비스 - 기타용역서비스","category":"other"}]},{"lat":"37.251600985","long":"127.01417609","imageIndex":17,"items":[{"name":"한솔합판","tel":"031-239-2620","addr":"경기도 수원시 권선구 세류동 1126-20","indutype":"건축자재 - 목재·석재·철물","category":"other"}]},{"lat":"37.254908048","long":"127.01072733","imageIndex":17,"items":[{"name":"한아름기획","tel":"070-8879-1133","addr":"경기도 수원시 권선구 세류동 544-3번지 대환빌딩 6층 606호","indutype":"유통업 영리 - 기타유통업","category":"other"}]},{"lat":"37.251493348","long":"127.00636489","imageIndex":17,"items":[{"name":"한일알미늄","tel":"031-267-2281","addr":"경기도 수원시 권선구 세류동 679-3번지","indutype":"기타 - 기타 전문점","category":"other"}]},{"lat":"37.249492743","long":"127.01220331","imageIndex":17,"items":[{"name":"한일전기","tel":"031-247-0771","addr":"경기도 수원시 권선구 세류동 586-11번지 1층","indutype":"건축자재 - 보일러·펌프·샷시","category":"other"}]},{"lat":"37.257430448","long":"127.01617218","imageIndex":17,"items":[{"name":"해남전기종합상사","tel":"031-236-8257","addr":"경기도 수원시 권선구 세류동 870-11번지 101호","indutype":"전기제품 - 기타전기제품","category":"other"}]},{"lat":"37.254934819","long":"127.01397369","imageIndex":17,"items":[{"name":"해피인테리어","tel":"031-237-5245","addr":"경기도 수원시 권선구 세류동 1018-62번지","indutype":"건축자재 - 인테리어전문","category":"other"}]},{"lat":"37.259574767","long":"127.01731111","imageIndex":17,"items":[{"name":"향남천막판넬공사","tel":"031-358-5086","addr":"경기도 수원시 권선구 세류동 853-5번지 2층","indutype":"건축자재 - 기타건축자재","category":"other"}]},{"lat":"37.256547222","long":"127.0179756","imageIndex":17,"items":[{"name":"현대가구중고수리","tel":"031-237-0808","addr":"경기도 수원시 권선구 세류동 1087-6번지","indutype":"가구 - 일반가구","category":"other"}]},{"lat":"37.25190735","long":"127.0140296","imageIndex":17,"items":[{"name":"현대유통","tel":"02-1577-0000","addr":"경기도 수원시 권선구 세류동 987-31번지 1층","indutype":"의류 - 정장","category":"other"}]},{"lat":"37.261574924","long":"127.01833734","imageIndex":17,"items":[{"name":"현대인테리어","tel":"031-235-9723","addr":"경기도 수원시 권선구 세류동 832-33번지","indutype":"건축자재 - 인테리어전문","category":"other"}]},{"lat":"37.254574206","long":"127.01594624","imageIndex":17,"items":[{"name":"현대종합인테리어","tel":"031-223-5214","addr":"경기도 수원시 권선구 세류동 1090-9번지","indutype":"직물 - 카페트,커튼,천막,지물","category":"other"}]},{"lat":"37.2547089","long":"127.01960967","imageIndex":17,"items":[{"name":"현대타일상사","tel":"031-237-8895","addr":"경기도 수원시 권선구 세류동 1098번지","indutype":"건축자재 - 건축용 요업제품","category":"other"}]},{"lat":"37.249879614","long":"127.0178052","imageIndex":17,"items":[{"name":"현일도장","tel":"031-223-1004","addr":"경기도 수원시 권선구 세류동 1129-4번지","indutype":"회원제형태 - 레져업소","category":"other"}]},{"lat":"37.255457841","long":"127.00763882","imageIndex":17,"items":[{"name":"형제강화도어","tel":"031-232-0563","addr":"경기도 수원시 권선구 세류동 437-8번지","indutype":"건축자재 - 유리","category":"other"}]},{"lat":"37.260962507","long":"127.01598116","imageIndex":17,"items":[{"name":"혜정자동판매기","tel":"031-221-7500","addr":"경기도 수원시 권선구 세류동 156-46번지","indutype":"회원제형태 - 기타4","category":"other"}]},{"lat":"37.257818373","long":"127.010784","imageIndex":17,"items":[{"name":"화니컴퓨터","tel":"031-8002-8177","addr":"경기도 수원시 권선구 세류동 466번지 101호","indutype":"수리서비스 - 사무·통신기기수리","category":"other"}]},{"lat":"37.259548313","long":"127.01133654","imageIndex":17,"items":[{"name":"화랑기획","tel":"031-236-1301","addr":"경기도 수원시 권선구 세류동 475-2번지","indutype":"건축자재 - 기타건축자재","category":"other"}]},{"lat":"37.253132209","long":"127.01878648","imageIndex":17,"items":[{"name":"화인PMP","tel":"031-222-3528","addr":"경기도 수원시 권선구 세류동 1103-2번지 401호","indutype":"수리서비스 - 기타수리서비스","category":"other"}]},{"lat":"37.251520123","long":"127.01142582","imageIndex":17,"items":[{"name":"화홍","tel":"031-238-6898","addr":"경기도 수원시 권선구 세류동 580-22번지","indutype":"건축자재 - 유리","category":"other"}]},{"lat":"37.25532247","long":"127.01148261","imageIndex":17,"items":[{"name":"황금장식","tel":"031-232-5435","addr":"경기도 수원시 권선구 세류동 537-4번지","indutype":"직물 - 카페트,커튼,천막,지물","category":"other"}]},{"lat":"37.261547804","long":"127.01900244","imageIndex":17,"items":[{"name":"황소중고알뜰가전","tel":"031-222-1245","addr":"경기도 수원시 권선구 세류동 816-4번지","indutype":"전기제품 - 가전제품","category":"other"}]},{"lat":"37.260178813","long":"127.01400828","imageIndex":17,"items":[{"name":"횃불종합공사","tel":"031-234-7990","addr":"경기도 수원시 권선구 세류동 162-4번지","indutype":"용역 서비스 - 기타용역서비스","category":"other"}]},{"lat":"37.252465968","long":"127.01425512","imageIndex":17,"items":[{"name":"효원상사","tel":"031-239-5071","addr":"경기도 수원시 권선구 세류동 987-32번지","indutype":"건축자재 - 보일러·펌프·샷시","category":"other"}]}]