[{"lat":"36.995187582","long":"127.08572993","imageIndex":8,"items":[{"name":"경기약국","tel":"031-655-5466","addr":"경기도 평택시 통복동 85-27번지","indutype":"약국 - 약국","category":"medical"},{"name":"경기약국(통복동)","tel":"031-652-3359","addr":"경기도 평택시 통복동 85-27번지","indutype":"소매업 - 약국","category":"medical"}]},{"lat":"36.997215952","long":"127.08433912","imageIndex":8,"items":[{"name":"경희당한약국","tel":"0031-656-8004","addr":"경기도 평택시 통복동 95-21번지","indutype":"약국 - 약국","category":"medical"}]},{"lat":"36.997468252","long":"127.08433939","imageIndex":8,"items":[{"name":"고려당한약방","tel":"031-655-5854","addr":"경기도 평택시 통복동 69-4번지","indutype":"약국 - 한약방","category":"medical"}]},{"lat":"36.997441412","long":"127.08405851","imageIndex":8,"items":[{"name":"고려인삼한약방","tel":"031-651-5623","addr":"경기도 평택시 통복동 67-6번지","indutype":"약국 - 한약방","category":"medical"}]},{"lat":"36.995297204","long":"127.08356196","imageIndex":8,"items":[{"name":"굿모닝내과","tel":"031-654-9990","addr":"경기도 평택시 통복동 111-15번지 2층","indutype":"의원 - 의원","category":"medical"},{"name":"녹십자 약국","tel":"031-656-6117","addr":"경기도 평택시 통복동 111-15번지 1층","indutype":"소매업 - 약국","category":"medical"},{"name":"녹십자약국 통복","tel":"031-652-8484","addr":"경기도 평택시 통복동 111-15번지 1층","indutype":"도소매업 - 약국","category":"medical"}]},{"lat":"36.995467684","long":"127.0846181","imageIndex":8,"items":[{"name":"굿모닝치과의원","tel":"031-618-3070","addr":"경기도 평택시 통복동 86-26번지 2층","indutype":"의원 - 치과의원","category":"medical"}]},{"lat":"36.995465646","long":"127.08752761","imageIndex":8,"items":[{"name":"김재훈한의원","tel":"031-692-3450","addr":"경기도 평택시 통복동 83-6번지","indutype":"의원 - 한의원","category":"medical"}]},{"lat":"36.996243745","long":"127.0829451","imageIndex":8,"items":[{"name":"동서약국","tel":"031-652-7600","addr":"경기도 평택시 통복동 100-1번지","indutype":"소매업 - 약국","category":"medical"},{"name":"아나픈마취통증의학과의원","tel":"031-692-1981","addr":"경기도 평택시 통복동 100-1번지","indutype":"의원 - 의원","category":"medical"}]},{"lat":"36.995548858","long":"127.08450585","imageIndex":8,"items":[{"name":"메디칼세계로약국","tel":"031-652-4573","addr":"경기도 평택시 통복동 86-25번지","indutype":"소매업 - 약국","category":"medical"},{"name":"최윤건내과","tel":"031-655-3232","addr":"경기도 평택시 통복동 86-25번지","indutype":"서비스업 - 병원","category":"medical"},{"name":"최윤건내과의원","tel":"031-652-9779","addr":"경기도 평택시 통복동 86-25번지","indutype":"의원 - 의원","category":"medical"}]},{"lat":"36.995801879","long":"127.08345015","imageIndex":8,"items":[{"name":"민중약국","tel":"031-654-1430","addr":"경기도 평택시 통복동 98-5번지","indutype":"소매업 - 약국","category":"medical"},{"name":"민중약국","tel":"031-655-2870","addr":"경기도 평택시 통복동 98-5번지","indutype":"약국 - 약국","category":"medical"},{"name":"보람의원","tel":"031-652-1024","addr":"경기도 평택시 통복동 98-5번지","indutype":"의원 - 의원","category":"medical"},{"name":"한울치과","tel":"031-692-0028","addr":"경기도 평택시 통복동 98-5번지","indutype":"의원 - 치과의원","category":"medical"}]},{"lat":"36.995576275","long":"127.0839442","imageIndex":8,"items":[{"name":"박순규치과의원","tel":"031-658-8540","addr":"경기도 평택시 통복동 86-15번지","indutype":"의원 - 치과의원","category":"medical"}]},{"lat":"36.998856527","long":"127.08341967","imageIndex":8,"items":[{"name":"사랑을심는치과","tel":"031-656-7528","addr":"경기도 평택시 통복동 62-5,2층","indutype":"의원 - 치과의원","category":"medical"}]},{"lat":"36.995187409","long":"127.08597707","imageIndex":8,"items":[{"name":"서울본치과의원","tel":"","addr":"경기도 평택시 통복동 84-11번지 2층","indutype":"의원 - 치과의원","category":"medical"}]},{"lat":"36.994135257","long":"127.08292042","imageIndex":8,"items":[{"name":"서울한의원","tel":"031-655-2804","addr":"경기도 평택시 통복동 156-1번지","indutype":"서비스업 - 병원","category":"medical"},{"name":"서울한의원","tel":"031-653-0996","addr":"경기도 평택시 통복동 156-1번지","indutype":"의원 - 한의원","category":"medical"}]},{"lat":"36.998657855","long":"127.08405981","imageIndex":8,"items":[{"name":"소나무한의원","tel":"031-652-3307","addr":"경기도 평택시 통복동 61-19번지 2층","indutype":"서비스업 - 한의원","category":"medical"},{"name":"소나무한의원","tel":"031-656-3959","addr":"경기도 평택시 통복동 61-19번지","indutype":"의원 - 한의원","category":"medical"}]},{"lat":"36.996160604","long":"127.08592196","imageIndex":8,"items":[{"name":"시민의원","tel":"","addr":"경기도 평택시 통복동 94-2번지 1층","indutype":"서비스업 - 병원","category":"medical"},{"name":"연세약국","tel":"031-654-1430","addr":"경기도 평택시 통복동 94-2번지 1층","indutype":"약국 - 약국","category":"medical"},{"name":"연세약국","tel":"031-655-2787","addr":"경기도 평택시 통복동 94-2번지","indutype":"소매업 - 약국","category":"medical"}]},{"lat":"36.995910349","long":"127.08294475","imageIndex":8,"items":[{"name":"시장약국","tel":"031-653-7666","addr":"경기도 평택시 통복동 100-5번지","indutype":"소매업 - 약국","category":"medical"},{"name":"참편한내과","tel":"031-618-9876","addr":"경기도 평택시 통복동 100-5번지 2층","indutype":"의원 - 의원","category":"medical"}]},{"lat":"36.995188999","long":"127.08367418","imageIndex":8,"items":[{"name":"신통한의원","tel":"031-656-5001","addr":"경기도 평택시 통복동 111-13,14","indutype":"의원 - 한의원","category":"medical"}]},{"lat":"36.99596411","long":"127.08339415","imageIndex":8,"items":[{"name":"연세원내과의원","tel":"031-651-9866","addr":"경기도 평택시 통복동 98-23번지 2,3층","indutype":"의원 - 의원","category":"medical"},{"name":"연세원내과의원","tel":"031-657-8078","addr":"경기도 평택시 통복동 98-23번지 2층","indutype":"서비스업 - 병원","category":"medical"}]},{"lat":"36.997495553","long":"127.08394623","imageIndex":8,"items":[{"name":"영광약초","tel":"031-654-1459","addr":"경기도 평택시 통복동 67-7번지","indutype":"약국 - 한약방","category":"medical"},{"name":"영광한약방","tel":"031-654-1359","addr":"경기도 평택시 통복동 67-7번지","indutype":"약국 - 한약방","category":"medical"}]},{"lat":"36.995522057","long":"127.08416881","imageIndex":8,"items":[{"name":"영제의원","tel":"031-653-0119","addr":"경기도 평택시 통복동 86-5번지","indutype":"서비스업 - 병원","category":"medical"},{"name":"영제의원","tel":"031-652-8401","addr":"경기도 평택시 통복동 86-5번지","indutype":"의원 - 의원","category":"medical"},{"name":"한남약국","tel":"031-655-2787","addr":"경기도 평택시 통복동 86-5번지","indutype":"약국 - 약국","category":"medical"},{"name":"한남약국","tel":"031-652-3467","addr":"경기도 평택시 통복동 86-5번지","indutype":"소매업 - 약국","category":"medical"}]},{"lat":"36.995241198","long":"127.0863703","imageIndex":8,"items":[{"name":"우리신경외과의원","tel":"031-651-9866","addr":"경기도 평택시 통복동 84-3번지","indutype":"서비스업 - 병원","category":"medical"},{"name":"중앙한의원","tel":"","addr":"경기도 평택시 통복동 84-3번지 1층","indutype":"서비스업 - 한의원","category":"medical"},{"name":"중앙한의원","tel":"031-657-7533","addr":"경기도 평택시 통복동 84-3번지 스마일빌딩 1층","indutype":"의원 - 한의원","category":"medical"},{"name":"평택 무지개 약국","tel":"031-655-5107","addr":"경기도 평택시 통복동 84-3번지 스마일빌딩 1층","indutype":"약국 - 약국","category":"medical"},{"name":"평택사이좋은치과의원","tel":"031-618-2842","addr":"경기도 평택시 통복동 84-3번지 6층","indutype":"의원 - 치과의원","category":"medical"},{"name":"평택중앙내과의원","tel":"031-651-9107","addr":"경기도 평택시 통복동 84-3번지 스마일빌딩 1층","indutype":"의원 - 의원","category":"medical"}]},{"lat":"36.995574006","long":"127.08720196","imageIndex":8,"items":[{"name":"우리약국","tel":"031-655-6252","addr":"경기도 평택시 통복동 83-2번지","indutype":"소매업 - 약국","category":"medical"}]},{"lat":"36.995134743","long":"127.08395496","imageIndex":8,"items":[{"name":"정다운약국","tel":"031-655-2870","addr":"경기도 평택시 통복동 111-29번지","indutype":"소매업 - 약국","category":"medical"}]},{"lat":"36.997414095","long":"127.08447414","imageIndex":8,"items":[{"name":"중앙한약방","tel":"031-656-1993","addr":"경기도 평택시 통복동 69-33번지","indutype":"약국 - 한약방","category":"medical"},{"name":"푸른농산","tel":"031-656-1999","addr":"경기도 평택시 통복동 69-33번지","indutype":"약국 - 한약방","category":"medical"}]},{"lat":"36.995658269","long":"127.08261871","imageIndex":8,"items":[{"name":"참송한의원","tel":"031-618-1145","addr":"경기도 평택시 통복동 109-3번지","indutype":"의원 - 한의원","category":"medical"},{"name":"참송한의원","tel":"031-654-1359","addr":"경기도 평택시 통복동 109-3번지","indutype":"서비스업 - 병원","category":"medical"}]},{"lat":"36.996773987","long":"127.08497898","imageIndex":8,"items":[{"name":"참조은한의원","tel":"031-654-0011","addr":"경기도 평택시 통복동 95-32번지","indutype":"서비스업 - 병원","category":"medical"},{"name":"참조은한의원","tel":"031-655-3232","addr":"경기도 평택시 통복동 95-32번지 1층","indutype":"의원 - 한의원","category":"medical"}]},{"lat":"36.994720763","long":"127.08320187","imageIndex":8,"items":[{"name":"평택외과","tel":"031-653-0119","addr":"경기도 평택시 통복동 112-8번지 9,25","indutype":"의원 - 의원","category":"medical"},{"name":"평택외과의원","tel":"031-653-0996","addr":"경기도 평택시 통복동 112-8번지","indutype":"서비스업 - 병원","category":"medical"},{"name":"현대약국","tel":"031-652-8484","addr":"경기도 평택시 통복동 112-8번지","indutype":"약국 - 약국","category":"medical"},{"name":"현대약국","tel":"","addr":"경기도 평택시 통복동 112-8번지","indutype":"소매업 - 약국","category":"medical"}]},{"lat":"36.995829025","long":"127.08328168","imageIndex":8,"items":[{"name":"한영약국","tel":"","addr":"경기도 평택시 통복동 98-19번지","indutype":"소매업 - 약국","category":"medical"}]},{"lat":"36.994801638","long":"127.08352773","imageIndex":8,"items":[{"name":"해뜸한의원","tel":"031-654-6016","addr":"경기도 평택시 통복동 112-10번지 1층","indutype":"서비스업 - 병원","category":"medical"},{"name":"해뜸한의원","tel":"031-653-1025","addr":"경기도 평택시 통복동 112-10번지","indutype":"의원 - 한의원","category":"medical"}]}]