[{"lat":"37.3518631517","long":"126.9710652008","imageIndex":4,"items":[{"name":"194*F","tel":"031-458-4466","addr":"경기도 의왕시 고천동 317번지","indutype":"일반휴게음식 - 서양음식","category":"restaurant"}]},{"lat":"37.3471159584","long":"126.9757282530","imageIndex":4,"items":[{"name":"502철판요리","tel":"031-455-7755","addr":"경기도 의왕시 고천동 261-3번지 1층","indutype":"일반휴게음식 - 일반한식","category":"restaurant"},{"name":"뮤지컬","tel":"031-451-0479","addr":"경기도 의왕시 고천동 261-3번지","indutype":"일반휴게음식 - 칵테일바","category":"restaurant"},{"name":"쉼표","tel":"","addr":"경기도 의왕시 고천동 261-3번지","indutype":"일반휴게음식 - 일반한식","category":"restaurant"},{"name":"풍덩순대","tel":"031-459-4459","addr":"경기도 의왕시 고천동 261-3번지","indutype":"일반휴게음식 - 일반한식","category":"restaurant"}]},{"lat":"37.3471972437","long":"126.9765859479","imageIndex":4,"items":[{"name":"강남","tel":"031-452-3124","addr":"경기도 의왕시 고천동 266-4번지 1층","indutype":"일반휴게음식 - 일반한식","category":"restaurant"}]},{"lat":"37.3476744020","long":"126.9749267519","imageIndex":4,"items":[{"name":"경임이분식","tel":"031-453-8802","addr":"경기도 의왕시 고천동 275-1번지","indutype":"일반휴게음식 - 스넥","category":"restaurant"}]},{"lat":"37.3485301727","long":"126.9741138394","imageIndex":4,"items":[{"name":"고천24우동 짜장","tel":"","addr":"경기도 의왕시 고천동 294-3번지 보왕빌딩","indutype":"일반휴게음식 - 스넥","category":"restaurant"}]},{"lat":"37.3490350844","long":"126.9755582699","imageIndex":4,"items":[{"name":"구영탄푸드","tel":"031-405-4404","addr":"경기도 의왕시 고천동 303-44번지 1층 5호","indutype":"일반휴게음식 - 일반한식","category":"restaurant"}]},{"lat":"37.3496752747","long":"126.9776685601","imageIndex":4,"items":[{"name":"구워묵세","tel":"031-427-8592","addr":"경기도 의왕시 고천동 484-4번지","indutype":"일반휴게음식 - 일반한식","category":"restaurant"}]},{"lat":"37.3488096425","long":"126.9747570396","imageIndex":4,"items":[{"name":"까치분식","tel":"031-458-2975","addr":"경기도 의왕시 고천동 295-51번지","indutype":"일반휴게음식 - 스넥","category":"restaurant"},{"name":"동우분식","tel":"031-53-7857","addr":"경기도 의왕시 고천동 295-51번지","indutype":"일반휴게음식 - 일반한식","category":"restaurant"},{"name":"정읍순대국","tel":"031-427-3065","addr":"경기도 의왕시 고천동 295-51번지 의왕종합쇼핑센터 105호","indutype":"일반휴게음식 - 일반한식","category":"restaurant"},{"name":"포도나무카페(청소년카페)","tel":"031-456-3007","addr":"경기도 의왕시 고천동 295-51번지 의왕종합쇼핑센터 2층 201호","indutype":"일반휴게음식 - 서양음식","category":"restaurant"}]},{"lat":"37.3471429499","long":"126.9755589557","imageIndex":4,"items":[{"name":"꼬꼬리치 옛날통닭","tel":"070-7760-5527","addr":"경기도 의왕시 고천동 260-10번지 102호","indutype":"일반휴게음식 - 스넥","category":"restaurant"},{"name":"청솔영양탕","tel":"031-453-4321","addr":"경기도 의왕시 고천동 260-10번지","indutype":"일반휴게음식 - 일반한식","category":"restaurant"}]},{"lat":"37.3487555005","long":"126.9744184774","imageIndex":4,"items":[{"name":"닭 튀기는 공장","tel":"031-429-7049","addr":"경기도 의왕시 고천동 295-11번지 102호","indutype":"일반휴게음식 - 일반한식","category":"restaurant"}]},{"lat":"37.3491424834","long":"126.9725899774","imageIndex":4,"items":[{"name":"대영삼겹살","tel":"031-450-6588","addr":"경기도 의왕시 고천동 290-2번지 대영골든밸리 1층 105호","indutype":"일반휴게음식 - 일반한식","category":"restaurant"},{"name":"만나푸드","tel":"031-450-6664","addr":"경기도 의왕시 고천동 290-2번지 B109호","indutype":"일반휴게음식 - 일반한식","category":"restaurant"},{"name":"만나해물칼국수","tel":"031-450-6820","addr":"경기도 의왕시 고천동 290-2번지 대영빌딩 126호","indutype":"일반휴게음식 - 일반한식","category":"restaurant"},{"name":"만나해물칼국수","tel":"031-450-6820","addr":"경기도 의왕시 고천동 290-2번지 대영골든밸리 126호","indutype":"일반휴게음식 - 일반한식","category":"restaurant"},{"name":"밥사모한식부페","tel":"031-450-6664","addr":"경기도 의왕시 고천동 290-2번지 제지 1층 109호 비","indutype":"일반휴게음식 - 일반한식","category":"restaurant"},{"name":"블랙골드","tel":"031-450-6555","addr":"경기도 의왕시 고천동 290-2번지 대영골든밸리 1층 114호","indutype":"일반휴게음식 - 서양음식","category":"restaurant"},{"name":"장수촌","tel":"031-450-6886","addr":"경기도 의왕시 고천동 290-2.123.124호","indutype":"일반휴게음식 - 일반한식","category":"restaurant"},{"name":"한식당수라","tel":"031-450-6614","addr":"경기도 의왕시 고천동 290-2번지 대영골든밸리 119,120호","indutype":"일반휴게음식 - 일반한식","category":"restaurant"},{"name":"해마루","tel":"031-450-6979","addr":"경기도 의왕시 고천동 290-2번지 대영골든밸리 1동 213호","indutype":"일반휴게음식 - 일식·회집","category":"restaurant"}]},{"lat":"37.3490077606","long":"126.9743168072","imageIndex":4,"items":[{"name":"댓잎왕갈비","tel":"031-459-1757","addr":"경기도 의왕시 고천동 295-27번지","indutype":"일반휴게음식 - 일반한식","category":"restaurant"}]},{"lat":"37.3530595933","long":"126.9646199778","imageIndex":4,"items":[{"name":"롯데푸드(주)카페칸타타","tel":"02-3469-3595","addr":"경기도 의왕시 고천동 332-2번지","indutype":"일반휴게음식 - 서양음식","category":"restaurant"}]},{"lat":"37.3497019756","long":"126.9761674840","imageIndex":4,"items":[{"name":"만수쌈밥","tel":"031-459-2111","addr":"경기도 의왕시 고천동 299-11번지","indutype":"일반휴게음식 - 일반한식","category":"restaurant"},{"name":"치킨호프포장마차","tel":"031-427-3565","addr":"경기도 의왕시 고천동 299-11번지","indutype":"일반휴게음식 - 주점","category":"restaurant"}]},{"lat":"37.3489538639","long":"126.9750052801","imageIndex":4,"items":[{"name":"먹고삽시다","tel":"031-1566-5675","addr":"경기도 의왕시 고천동 295-1","indutype":"일반휴게음식 - 일반한식","category":"restaurant"}]},{"lat":"37.3483958316","long":"126.9776689880","imageIndex":4,"items":[{"name":"메타로드(Metalord)","tel":"070-4842-7580","addr":"경기도 의왕시 고천동 503번지 바른보습학원 102호","indutype":"일반휴게음식 - 서양음식","category":"restaurant"}]},{"lat":"37.3509521731","long":"126.9677022364","imageIndex":4,"items":[{"name":"명가 교동짬뽕 (의왕점)","tel":"031-427-3559","addr":"경기도 의왕시 고천동 328-7번지","indutype":"일반휴게음식 - 중국식","category":"restaurant"},{"name":"이조삼계탕","tel":"031-427-8533","addr":"경기도 의왕시 고천동 328-7번지 1층","indutype":"일반휴게음식 - 일반한식","category":"restaurant"}]},{"lat":"37.3496440495","long":"126.9625337626","imageIndex":4,"items":[{"name":"민속두부마을","tel":"031-429-5429","addr":"경기도 의왕시 고천동 424번지","indutype":"일반휴게음식 - 일반한식","category":"restaurant"}]},{"lat":"37.3495312193","long":"126.9781764870","imageIndex":4,"items":[{"name":"밥먹고술먹고","tel":"031-427-9576","addr":"경기도 의왕시 고천동 494번지","indutype":"일반휴게음식 - 스넥","category":"restaurant"}]},{"lat":"37.3474222258","long":"126.9753895664","imageIndex":4,"items":[{"name":"별천지주막","tel":"031-349-8086","addr":"경기도 의왕시 고천동 276-1번지 1층","indutype":"일반휴게음식 - 일반한식","category":"restaurant"}]},{"lat":"37.3509775992","long":"126.9626684858","imageIndex":4,"items":[{"name":"본가추어탕","tel":"031-458-1818","addr":"경기도 의왕시 고천동 420-5번지","indutype":"일반휴게음식 - 일반한식","category":"restaurant"}]},{"lat":"37.3443133403","long":"126.9738107423","imageIndex":4,"items":[{"name":"봉덕칼국수","tel":"031-456-8464","addr":"경기도 의왕시 고천동 84-2번지","indutype":"일반휴게음식 - 일반한식","category":"restaurant"},{"name":"주식회사봉덕","tel":"031-456-8464","addr":"경기도 의왕시 고천동 84-2번지","indutype":"일반휴게음식 - 일반한식","category":"restaurant"}]},{"lat":"37.3387530672","long":"126.9700099824","imageIndex":4,"items":[{"name":"부연설렁탕","tel":"031-455-8300","addr":"경기도 의왕시 고천동 123번지 , 1,2층","indutype":"일반휴게음식 - 일반한식","category":"restaurant"}]},{"lat":"37.3491699544","long":"126.9743618903","imageIndex":4,"items":[{"name":"블루제이","tel":"031-454-6607","addr":"경기도 의왕시 고천동 295-26번지","indutype":"일반휴게음식 - 주점","category":"restaurant"}]},{"lat":"37.3471429055","long":"126.9753670966","imageIndex":4,"items":[{"name":"뼈다귀전문점도마다리","tel":"031-429-3197","addr":"경기도 의왕시 고천동 260-1 276-8","indutype":"일반휴게음식 - 일반한식","category":"restaurant"}]},{"lat":"37.3494223201","long":"126.9747003801","imageIndex":4,"items":[{"name":"사거리곱창","tel":"031-454-3097","addr":"경기도 의왕시 고천동 305-8번지","indutype":"일반휴게음식 - 일반한식","category":"restaurant"}]},{"lat":"37.3397533121","long":"126.9704270814","imageIndex":4,"items":[{"name":"산아래샤브샤브","tel":"031-452-9300","addr":"경기도 의왕시 고천동 125번지","indutype":"일반휴게음식 - 일반한식","category":"restaurant"}]},{"lat":"37.3453137304","long":"126.9748937705","imageIndex":4,"items":[{"name":"서울집","tel":"031-388-1080","addr":"경기도 의왕시 고천동 234-6번지 의왕월드비젼 102호","indutype":"일반휴게음식 - 일반한식","category":"restaurant"},{"name":"월드비젼식당","tel":"031-453-6697","addr":"경기도 의왕시 고천동 234-6번지 월드비젼 301호","indutype":"일반휴게음식 - 일반한식","category":"restaurant"},{"name":"한우리","tel":"031-477-9298","addr":"경기도 의왕시 고천동 234-6번지 월드비젼 104호","indutype":"일반휴게음식 - 일반한식","category":"restaurant"}]},{"lat":"37.3493141982","long":"126.9747004205","imageIndex":4,"items":[{"name":"순천밥상","tel":"031-457-4109","addr":"경기도 의왕시 고천동 305-4번지","indutype":"일반휴게음식 - 일반한식","category":"restaurant"},{"name":"아디닥스치킨","tel":"031-454-3378","addr":"경기도 의왕시 고천동 305-4번지 1층","indutype":"일반휴게음식 - 서양음식","category":"restaurant"}]},{"lat":"37.3537523383","long":"126.9615383230","imageIndex":4,"items":[{"name":"순천한식뷔페","tel":"031-457-1141","addr":"경기도 의왕시 고천동 396-5번지 대윤빌딩","indutype":"일반휴게음식 - 일반한식","category":"restaurant"}]},{"lat":"37.3472510406","long":"126.9754234863","imageIndex":4,"items":[{"name":"시골밥상","tel":"031-452-7778","addr":"경기도 의왕시 고천동 276-2번지","indutype":"일반휴게음식 - 일반한식","category":"restaurant"}]},{"lat":"37.3530058495","long":"126.9656132359","imageIndex":4,"items":[{"name":"아름다운세상성우점","tel":"031-477-1418","addr":"경기도 의왕시 고천동 332-33번지 A동 지하층","indutype":"일반휴게음식 - 위탁급식업","category":"restaurant"}]},{"lat":"37.3495846913","long":"126.9755016397","imageIndex":4,"items":[{"name":"양평해장국","tel":"031-453-4800","addr":"경기도 의왕시 고천동 304-2번지","indutype":"일반휴게음식 - 일반한식","category":"restaurant"}]},{"lat":"37.3495582072","long":"126.9779733266","imageIndex":4,"items":[{"name":"오!전","tel":"031-457-5215","addr":"경기도 의왕시 고천동 493-1번지 101호","indutype":"일반휴게음식 - 일반한식","category":"restaurant"}]},{"lat":"37.3496748837","long":"126.9758966244","imageIndex":4,"items":[{"name":"오꼬삼","tel":"031-427-1999","addr":"경기도 의왕시 고천동 303-1번지 1층 일부","indutype":"일반휴게음식 - 일반한식","category":"restaurant"},{"name":"제이트윙스(J.Twings)","tel":"031-429-5237","addr":"경기도 의왕시 고천동 303-1번지 1층","indutype":"일반휴게음식 - 일반한식","category":"restaurant"}]},{"lat":"37.3492837848","long":"126.9629515432","imageIndex":4,"items":[{"name":"오봉산장","tel":"031-457-5650","addr":"경기도 의왕시 고천동 425-2번지","indutype":"일반휴게음식 - 일반한식","category":"restaurant"}]},{"lat":"37.3490348831","long":"126.9747005249","imageIndex":4,"items":[{"name":"외할배보쌈 순대국","tel":"031-429-0088","addr":"경기도 의왕시 고천동 295-4번지 1층 3호","indutype":"일반휴게음식 - 일반한식","category":"restaurant"},{"name":"커피콩","tel":"02-1111-1111","addr":"경기도 의왕시 고천동 295-4번지 104호","indutype":"일반휴게음식 - 서양음식","category":"restaurant"}]},{"lat":"37.3415925163","long":"126.9748387269","imageIndex":4,"items":[{"name":"우보푸드","tel":"070-4282-2467","addr":"경기도 의왕시 고천동 71-1번지","indutype":"일반휴게음식 - 일반한식","category":"restaurant"}]},{"lat":"37.3422038856","long":"126.9697263506","imageIndex":4,"items":[{"name":"의왕시 중앙도서관","tel":"031-345-3643","addr":"경기도 의왕시 고천동 159번지","indutype":"일반휴게음식 - 위탁급식업","category":"restaurant"}]},{"lat":"37.3475573283","long":"126.9751750850","imageIndex":4,"items":[{"name":"이가네즉석칼국수","tel":"031-452-1990","addr":"경기도 의왕시 고천동 275-2번지","indutype":"일반휴게음식 - 일반한식","category":"restaurant"}]},{"lat":"37.3418974155","long":"126.9692863684","imageIndex":4,"items":[{"name":"일품향가든","tel":"031-458-5666","addr":"경기도 의왕시 고천동 160번지","indutype":"일반휴게음식 - 일반한식","category":"restaurant"}]},{"lat":"37.3495576241","long":"126.9753436428","imageIndex":4,"items":[{"name":"장강","tel":"031-458-3332","addr":"경기도 의왕시 고천동 304-4번지","indutype":"일반휴게음식 - 중국식","category":"restaurant"}]},{"lat":"37.3538336295","long":"126.9621139071","imageIndex":4,"items":[{"name":"정다운식당","tel":"031-429-0712","addr":"경기도 의왕시 고천동 395번지","indutype":"일반휴게음식 - 일반한식","category":"restaurant"}]},{"lat":"37.3536996669","long":"126.9657257610","imageIndex":4,"items":[{"name":"정원푸드","tel":"031-427-1418","addr":"경기도 의왕시 고천동 332-34번지 씬시어빌딩 2층","indutype":"일반휴게음식 - 일반한식","category":"restaurant"}]},{"lat":"37.3490083789","long":"126.9770029023","imageIndex":4,"items":[{"name":"정현이네분식","tel":"031-427-9544","addr":"경기도 의왕시 고천동 521번지","indutype":"일반휴게음식 - 스넥","category":"restaurant"}]},{"lat":"37.3513916062","long":"126.9613364613","imageIndex":4,"items":[{"name":"종가집돼지국밥","tel":"031-464-4606","addr":"경기도 의왕시 고천동 414번지 1층 111~114호","indutype":"일반휴게음식 - 일반한식","category":"restaurant"},{"name":"커피여여","tel":"031-429-8113","addr":"경기도 의왕시 고천동 414번지 1층","indutype":"일반휴게음식 - 서양음식","category":"restaurant"}]},{"lat":"37.3497291621","long":"126.9768672202","imageIndex":4,"items":[{"name":"종점순대국","tel":"031-453-7389","addr":"경기도 의왕시 고천동 301-1번지","indutype":"일반휴게음식 - 일반한식","category":"restaurant"}]},{"lat":"37.3478364774","long":"126.9744752542","imageIndex":4,"items":[{"name":"찬란한 새참","tel":"02-1111-1111","addr":"경기도 의왕시 고천동 279-3번지 1층 102,103호","indutype":"일반휴게음식 - 일반한식","category":"restaurant"}]},{"lat":"37.3493953937","long":"126.9751405509","imageIndex":4,"items":[{"name":"청기와집뼈감자탕","tel":"031-451-8111","addr":"경기도 의왕시 고천동 305-1번지 덕은빌딩 1층","indutype":"일반휴게음식 - 일반한식","category":"restaurant"}]},{"lat":"37.3496752215","long":"126.9774202634","imageIndex":4,"items":[{"name":"카와커피","tel":"031-427-2688","addr":"경기도 의왕시 고천동 484-2번지 1층","indutype":"일반휴게음식 - 서양음식","category":"restaurant"},{"name":"팬더","tel":"031-427-2557","addr":"경기도 의왕시 고천동 484-2번지 주화상가 102호","indutype":"일반휴게음식 - 중국식","category":"restaurant"}]},{"lat":"37.3474223222","long":"126.9758071438","imageIndex":4,"items":[{"name":"커피로드","tel":"031-293-2742","addr":"경기도 의왕시 고천동 264번지 1층","indutype":"일반휴게음식 - 서양음식","category":"restaurant"}]},{"lat":"37.3395100590","long":"126.9705061789","imageIndex":4,"items":[{"name":"코나헤이븐 고천점","tel":"031-424-3356","addr":"경기도 의왕시 고천동 124번지","indutype":"일반휴게음식 - 서양음식","category":"restaurant"}]},{"lat":"37.3447265061","long":"126.9689239726","imageIndex":4,"items":[{"name":"하이브","tel":"","addr":"경기도 의왕시 고천동 171번지 의왕시청","indutype":"일반휴게음식 - 서양음식","category":"restaurant"}]},{"lat":"37.3492516902","long":"126.9771721111","imageIndex":4,"items":[{"name":"한미정육식당","tel":"031-451-9293","addr":"경기도 의왕시 고천동 490번지","indutype":"일반휴게음식 - 일반한식","category":"restaurant"},{"name":"후루룩국수","tel":"031-341-5048","addr":"경기도 의왕시 고천동 490번지","indutype":"일반휴게음식 - 스넥","category":"restaurant"}]},{"lat":"37.3485900214","long":"126.9630083410","imageIndex":4,"items":[{"name":"해담쭈꾸미","tel":"031-477-2323","addr":"경기도 의왕시 고천동 426-1번지","indutype":"일반휴게음식 - 일반한식","category":"restaurant"}]},{"lat":"37.3485842802","long":"126.9743056816","imageIndex":4,"items":[{"name":"호식이두마리치킨","tel":"031-451-9696","addr":"경기도 의왕시 고천동 295-8번지 오성빌딩 101호","indutype":"일반휴게음식 - 스넥","category":"restaurant"}]}]