[{"lat":"37.72570397","long":"126.90933598","imageIndex":17,"items":[{"name":"(고양)서울요양원","tel":"031-964-3020","addr":"경기도 고양시 덕양구 벽제동 543-21번지","indutype":"","category":"other"},{"name":"(고양)서울요양원","tel":"031-964-3020","addr":"경기도 고양시 덕양구 벽제동 543-21번지","indutype":"기타의료기관 - 기타의료기관 및 기타","category":"other"}]},{"lat":"37.730651278","long":"126.91066832","imageIndex":17,"items":[{"name":"(주)뉴대산특수","tel":"031-905-9430","addr":"경기도 고양시 덕양구 벽제동 564-1번지","indutype":"용역 서비스 - 가례서비스업","category":"other"},{"name":"(주)뉴대산특수","tel":"031-905-9430","addr":"경기도 고양시 덕양구 벽제동 564-1번지","indutype":"","category":"other"}]},{"lat":"37.721538619","long":"126.90572299","imageIndex":17,"items":[{"name":"(주)임가네한우마을고양","tel":"031-964-0092","addr":"경기도 고양시 덕양구 벽제동 509-7번지","indutype":"","category":"other"},{"name":"골타72","tel":"070-4335-7607","addr":"경기도 고양시 덕양구 벽제동 509-7번지","indutype":"","category":"other"},{"name":"농업회사법인 우리팜미트 주식회사","tel":"070-4335-7608","addr":"경기도 고양시 덕양구 벽제동 509-7번지","indutype":"","category":"other"},{"name":"청풍명월(주)","tel":"070-4232-1571","addr":"경기도 고양시 덕양구 벽제동 509-7번지","indutype":"","category":"other"}]},{"lat":"37.711457135","long":"126.90603102","imageIndex":17,"items":[{"name":"(주)제이아이비","tel":"052-266-0533","addr":"경기도 고양시 덕양구 벽제동 734 201","indutype":"","category":"other"}]},{"lat":"37.719568235","long":"126.89836455","imageIndex":17,"items":[{"name":"78motors(78모터스)","tel":"031-964-6372","addr":"경기도 고양시 덕양구 벽제동 447-1번지","indutype":"","category":"other"},{"name":"YD카케어","tel":"031-962-2412","addr":"경기도 고양시 덕양구 벽제동 447-1번지","indutype":"","category":"other"},{"name":"다오짬뽕","tel":"031-963-2929","addr":"경기도 고양시 덕양구 벽제동 447-1번지","indutype":"","category":"other"}]},{"lat":"37.722250628","long":"126.90602831","imageIndex":17,"items":[{"name":"DODAM(도담)","tel":"","addr":"경기도 고양시 덕양구 벽제동 512-68번지 늘푸른마을2차","indutype":"","category":"other"},{"name":"DODAM(도담)","tel":"","addr":"경기도 고양시 덕양구 벽제동 512-68번지 늘푸른마을2차","indutype":"직물 - 침구·수예점","category":"other"}]},{"lat":"37.710310275","long":"126.90286846","imageIndex":17,"items":[{"name":"GS25고양동익점","tel":"02-2006-2485","addr":"경기도 고양시 덕양구 벽제동","indutype":"유통업 영리 - 편 의 점","category":"other"}]},{"lat":"37.729182086","long":"126.90986475","imageIndex":17,"items":[{"name":"GS25벽제점","tel":"","addr":"경기도 고양시 덕양구 벽제동 565-14번지","indutype":"","category":"other"},{"name":"GS25벽제점","tel":"","addr":"경기도 고양시 덕양구 벽제동 565-14번지","indutype":"","category":"other"},{"name":"GS25벽제점","tel":"","addr":"경기도 고양시 덕양구 벽제동 565-14번지","indutype":"유통업 영리 - 편 의 점","category":"other"},{"name":"GS25벽제점","tel":"","addr":"경기도 고양시 덕양구 벽제동 565-14번지","indutype":"","category":"other"}]},{"lat":"37.699102502","long":"126.90308763","imageIndex":17,"items":[{"name":"J.J 화훼총판","tel":"031-967-1736","addr":"경기도 고양시 덕양구 벽제동 243-1번지","indutype":"","category":"other"},{"name":"고양보물창고","tel":"","addr":"경기도 고양시 덕양구 벽제동 243-1번지","indutype":"","category":"other"},{"name":"김포장갑","tel":"031-963-3635","addr":"경기도 고양시 덕양구 벽제동 243-1번지","indutype":"","category":"other"},{"name":"김포장갑","tel":"031-963-3635","addr":"경기도 고양시 덕양구 벽제동 243-1번지","indutype":"기타 - 기타 전문점","category":"other"},{"name":"러브플라워","tel":"031-962-2415","addr":"경기도 고양시 덕양구 벽제동 243-1번지","indutype":"","category":"other"},{"name":"러브플라워","tel":"031-962-2415","addr":"경기도 고양시 덕양구 벽제동 243-1번지","indutype":"문화.취미 - 화원","category":"other"},{"name":"물빛고운뜰","tel":"070-8159-4322","addr":"경기도 고양시 덕양구 벽제동 243-1번지","indutype":"","category":"other"},{"name":"이현정다육갤러리","tel":"02-733-3228","addr":"경기도 고양시 덕양구 벽제동 243-1번지","indutype":"문화.취미 - 화원","category":"other"},{"name":"이현정다육갤러리","tel":"02-733-3228","addr":"경기도 고양시 덕양구 벽제동 243-1번지","indutype":"","category":"other"},{"name":"자연분재","tel":"031-964-9346","addr":"경기도 고양시 덕양구 벽제동 243-1번지","indutype":"문화.취미 - 화원","category":"other"},{"name":"자연분재","tel":"031-964-9346","addr":"경기도 고양시 덕양구 벽제동 243-1번지","indutype":"","category":"other"},{"name":"준플라워","tel":"","addr":"경기도 고양시 덕양구 벽제동 243-1번지","indutype":"","category":"other"},{"name":"한양민속품","tel":"031-964-6648","addr":"경기도 고양시 덕양구 벽제동 243-1번지","indutype":"","category":"other"}]},{"lat":"37.704266867","long":"126.90530329","imageIndex":17,"items":[{"name":"JDX 고양벽제점","tel":"","addr":"경기도 고양시 덕양구 벽제동 208-5번지","indutype":"레져용품 - 스포츠·레져용품","category":"other"},{"name":"JDX 고양벽제점","tel":"","addr":"경기도 고양시 덕양구 벽제동 208-5번지","indutype":"","category":"other"},{"name":"아비앙또","tel":"031-962-0074","addr":"경기도 고양시 덕양구 벽제동 208-5번지","indutype":"","category":"other"},{"name":"아비앙또","tel":"031-962-0074","addr":"경기도 고양시 덕양구 벽제동 208-5번지","indutype":"직물 - 침구·수예점","category":"other"}]},{"lat":"37.702824803","long":"126.90467017","imageIndex":17,"items":[{"name":"K2벽제MS","tel":"031-962-3777","addr":"경기도 고양시 덕양구 벽제동 212-7번지","indutype":"","category":"other"},{"name":"에프에스스포츠(FS SPORTS)","tel":"070-8888-3499","addr":"경기도 고양시 덕양구 벽제동 212-7번지","indutype":"","category":"other"}]},{"lat":"37.721094423","long":"126.89239635","imageIndex":17,"items":[{"name":"MADOVA","tel":"031-963-8077","addr":"경기도 고양시 덕양구 벽제동 467-1번지","indutype":"","category":"other"},{"name":"마도바(올림픽골프샵)","tel":"031-963-8077","addr":"경기도 고양시 덕양구 벽제동 467-1번지","indutype":"레져용품 - 스포츠·레져용품","category":"other"},{"name":"마도바(올림픽골프샵)","tel":"031-963-8077","addr":"경기도 고양시 덕양구 벽제동 467-1번지","indutype":"","category":"other"}]},{"lat":"37.704211704","long":"126.90397662","imageIndex":17,"items":[{"name":"NS편의점","tel":"031-964-7220","addr":"경기도 고양시 덕양구 벽제동 208-51번지","indutype":"","category":"other"}]},{"lat":"37.721015998","long":"126.90564428","imageIndex":17,"items":[{"name":"가교전자","tel":"031-963-4982","addr":"경기도 고양시 덕양구 벽제동 393-1번지","indutype":"","category":"other"}]},{"lat":"37.72060137","long":"126.90541798","imageIndex":17,"items":[{"name":"감로정장수오리","tel":"031-963-5585","addr":"경기도 고양시 덕양구 벽제동 394-1번지","indutype":"","category":"other"},{"name":"신기한토르마린(찜질방)","tel":"031-962-0279","addr":"경기도 고양시 덕양구 벽제동 394-1번지","indutype":"","category":"other"},{"name":"풍경","tel":"031-962-2504","addr":"경기도 고양시 덕양구 벽제동 394-1번지","indutype":"","category":"other"}]},{"lat":"37.711019495","long":"126.89991891","imageIndex":17,"items":[{"name":"강릉해변메밀막국수","tel":"031-963-0038","addr":"경기도 고양시 덕양구 벽제동 312-3번지","indutype":"","category":"other"}]},{"lat":"37.715848357","long":"126.9104485","imageIndex":17,"items":[{"name":"경기모터스","tel":"031-964-5501","addr":"경기도 고양시 덕양구 벽제동 104번지","indutype":"","category":"other"}]},{"lat":"37.718208734","long":"126.9225587","imageIndex":17,"items":[{"name":"고갯마루쉼터","tel":"031-963-6373","addr":"경기도 고양시 덕양구 벽제동 4-4번지","indutype":"","category":"other"}]},{"lat":"37.699346373","long":"126.90381299","imageIndex":17,"items":[{"name":"고양꽃조경","tel":"070-8954-9721","addr":"경기도 고양시 덕양구 벽제동 246번지","indutype":"","category":"other"}]},{"lat":"37.706627252","long":"126.90514144","imageIndex":17,"items":[{"name":"고양옹기","tel":"031-962-3430","addr":"경기도 고양시 덕양구 벽제동 196-5번지","indutype":"","category":"other"},{"name":"동진상사","tel":"","addr":"경기도 고양시 덕양구 벽제동 196-5번지","indutype":"","category":"other"},{"name":"동진상사","tel":"031-969-5344","addr":"경기도 고양시 덕양구 벽제동 196-5번지","indutype":"","category":"other"},{"name":"트윈모터스","tel":"031-964-7040","addr":"경기도 고양시 덕양구 벽제동 196-5번지","indutype":"","category":"other"}]},{"lat":"37.704734147","long":"126.90383984","imageIndex":17,"items":[{"name":"고양현대부란자","tel":"031-963-4605","addr":"경기도 고양시 덕양구 벽제동 207-6번지","indutype":"","category":"other"},{"name":"노스페이스 벽제점","tel":"031-966-0172","addr":"경기도 고양시 덕양구 벽제동 207-6번지","indutype":"","category":"other"},{"name":"다르마 조명","tel":"031-962-1739","addr":"경기도 고양시 덕양구 벽제동 207-6번지","indutype":"","category":"other"},{"name":"미덕황토참숯불생고기","tel":"031-963-5295","addr":"경기도 고양시 덕양구 벽제동 207-6번지","indutype":"","category":"other"},{"name":"서해안칼국수","tel":"031-978-7119","addr":"경기도 고양시 덕양구 벽제동 207-6번지","indutype":"","category":"other"},{"name":"쉐프의부대찌개 고양벽제점","tel":"031-962-5937","addr":"경기도 고양시 덕양구 벽제동 207-6번지","indutype":"","category":"other"}]},{"lat":"37.698651762","long":"126.90278208","imageIndex":17,"items":[{"name":"고향옥얼큰순대국","tel":"031-964-6325","addr":"경기도 고양시 덕양구 벽제동 243-11번지","indutype":"","category":"other"}]},{"lat":"37.718819174","long":"126.89694786","imageIndex":17,"items":[{"name":"국군벽제병원","tel":"031-963-6657","addr":"경기도 고양시 덕양구 벽제동 335-1번지","indutype":"","category":"other"},{"name":"데일리피자치킨","tel":"031-965-8952","addr":"경기도 고양시 덕양구 벽제동 335-1번지","indutype":"","category":"other"}]},{"lat":"37.736815049","long":"126.91224894","imageIndex":17,"items":[{"name":"그담푸드","tel":"070-7788-3600","addr":"경기도 고양시 덕양구 벽제동 610-8번지","indutype":"","category":"other"}]},{"lat":"37.727758726","long":"126.91005937","imageIndex":17,"items":[{"name":"그린빌","tel":"031-962-3699","addr":"경기도 고양시 덕양구 벽제동 542번지","indutype":"","category":"other"}]},{"lat":"37.721009596","long":"126.89816971","imageIndex":17,"items":[{"name":"금강산","tel":"031-969-4241","addr":"경기도 고양시 덕양구 벽제동 441-4번지","indutype":"","category":"other"},{"name":"육마루","tel":"031-963-8299","addr":"경기도 고양시 덕양구 벽제동 441-4번지 2동","indutype":"","category":"other"},{"name":"한우명가","tel":"031-964-5024","addr":"경기도 고양시 덕양구 벽제동 441-4번지","indutype":"","category":"other"},{"name":"한우명가","tel":"031-964-5023","addr":"경기도 고양시 덕양구 벽제동 441-4번지","indutype":"","category":"other"}]},{"lat":"37.700436326","long":"126.90356208","imageIndex":17,"items":[{"name":"기와집삼계탕","tel":"031-962-2882","addr":"경기도 고양시 덕양구 벽제동 253-1번지","indutype":"","category":"other"}]},{"lat":"37.704401531","long":"126.90472479","imageIndex":17,"items":[{"name":"까스텔바쟉 고양점","tel":"031-964-0513","addr":"경기도 고양시 덕양구 벽제동 208-26번지","indutype":"","category":"other"},{"name":"까스텔바쟉 고양점","tel":"031-964-0513","addr":"경기도 고양시 덕양구 벽제동 208-26번지","indutype":"레져용품 - 스포츠·레져용품","category":"other"}]},{"lat":"37.731516479","long":"126.91103025","imageIndex":17,"items":[{"name":"나노가구","tel":"031-964-0649","addr":"경기도 고양시 덕양구 벽제동 562-3번지","indutype":"","category":"other"},{"name":"미니스톱 고양벽제점","tel":"031-1577-9621","addr":"경기도 고양시 덕양구 벽제동 562-3번지","indutype":"","category":"other"},{"name":"미니스톱 고양벽제점","tel":"031-1577-9621","addr":"경기도 고양시 덕양구 벽제동 562-3번지","indutype":"유통업 영리 - 편 의 점","category":"other"}]},{"lat":"37.728265079","long":"126.91239548","imageIndex":17,"items":[{"name":"나눔중고가전가구","tel":"070-8809-5060","addr":"경기도 고양시 덕양구 벽제동 535-1번지","indutype":"","category":"other"}]},{"lat":"37.70413076","long":"126.90414682","imageIndex":17,"items":[{"name":"남서울꽃","tel":"031-963-7220","addr":"경기도 고양시 덕양구 벽제동 208-54번지","indutype":"","category":"other"},{"name":"남서울꽃","tel":"031-963-7220","addr":"경기도 고양시 덕양구 벽제동 208-54번지","indutype":"문화.취미 - 화원","category":"other"},{"name":"용천수산","tel":"031-963-1441","addr":"경기도 고양시 덕양구 벽제동 208-54번지","indutype":"","category":"other"}]},{"lat":"37.703041335","long":"126.90503275","imageIndex":17,"items":[{"name":"네파 벽제점","tel":"031-967-8460","addr":"경기도 고양시 덕양구 벽제동 213-6번지","indutype":"의류 - 정장","category":"other"},{"name":"네파 벽제점","tel":"031-967-8460","addr":"경기도 고양시 덕양구 벽제동 213-6번지","indutype":"","category":"other"}]},{"lat":"37.720622255","long":"126.89824965","imageIndex":17,"items":[{"name":"농가","tel":"031-962-2428","addr":"경기도 고양시 덕양구 벽제동 440-1번지","indutype":"","category":"other"}]},{"lat":"37.7193775","long":"126.91899603","imageIndex":17,"items":[{"name":"농산물","tel":"031-963-2315","addr":"경기도 고양시 덕양구 벽제동 46-4번지","indutype":"","category":"other"}]},{"lat":"37.721736671","long":"126.90552991","imageIndex":17,"items":[{"name":"늘푸른할인마트","tel":"070-4134-3466","addr":"경기도 고양시 덕양구 벽제동 508-1번지","indutype":"","category":"other"},{"name":"늘푸른할인마트","tel":"031-964-3466","addr":"경기도 고양시 덕양구 벽제동 508-1번지","indutype":"","category":"other"},{"name":"늘푸른할인마트","tel":"031-964-3466","addr":"경기도 고양시 덕양구 벽제동 508-1번지","indutype":"","category":"other"},{"name":"늘푸른할인마트","tel":"031-964-3466","addr":"경기도 고양시 덕양구 벽제동 508-1번지","indutype":"","category":"other"},{"name":"씨유고양상곡마을점","tel":"02-1577-8007","addr":"경기도 고양시 덕양구 벽제동 508-1번지","indutype":"유통업 영리 - 편 의 점","category":"other"}]},{"lat":"37.724342436","long":"126.90797655","imageIndex":17,"items":[{"name":"다리건너","tel":"031-996-5679","addr":"경기도 고양시 덕양구 벽제동 523-5번지","indutype":"","category":"other"},{"name":"다리건너","tel":"031-996-5679","addr":"경기도 고양시 덕양구 벽제동 523-5번지","indutype":"가구 - 일반가구","category":"other"},{"name":"캠핑월드","tel":"031-963-3149","addr":"경기도 고양시 덕양구 벽제동 523-5번지","indutype":"","category":"other"},{"name":"캠핑월드","tel":"031-963-3149","addr":"경기도 고양시 덕양구 벽제동 523-5번지","indutype":"","category":"other"}]},{"lat":"37.699490317","long":"126.90356334","imageIndex":17,"items":[{"name":"대경석재산업","tel":"031-964-6569","addr":"경기도 고양시 덕양구 벽제동 245-16","indutype":"","category":"other"},{"name":"대경석재산업","tel":"031-964-6569","addr":"경기도 고양시 덕양구 벽제동","indutype":"건축자재 - 목재·석재·철물","category":"other"}]},{"lat":"37.726261137","long":"126.90755441","imageIndex":17,"items":[{"name":"대성원","tel":"031-963-6473","addr":"경기도 고양시 덕양구 벽제동 547-3번지","indutype":"","category":"other"},{"name":"희망슈퍼","tel":"031-962-9555","addr":"경기도 고양시 덕양구 벽제동 547-3번지","indutype":"","category":"other"}]},{"lat":"37.729677504","long":"126.90972801","imageIndex":17,"items":[{"name":"대원식당","tel":"031-381-7217","addr":"경기도 고양시 덕양구 벽제동 554-5번지","indutype":"","category":"other"},{"name":"묘지장례이벤트","tel":"","addr":"경기도 고양시 덕양구 벽제동 554-5번지","indutype":"용역 서비스 - 가례서비스업","category":"other"},{"name":"장단상회","tel":"031-963-9805","addr":"경기도 고양시 덕양구 벽제동 554-5번지","indutype":"","category":"other"}]},{"lat":"37.718791061","long":"126.90616892","imageIndex":17,"items":[{"name":"대은정보통신(주)","tel":"02-557-4331","addr":"경기도 고양시 덕양구 벽제동 389-33번지","indutype":"사무통신 - 컴퓨터","category":"other"},{"name":"대은정보통신(주)","tel":"02-557-4331","addr":"경기도 고양시 덕양구 벽제동 389-33번지","indutype":"","category":"other"}]},{"lat":"37.726848428","long":"126.9096408","imageIndex":17,"items":[{"name":"더 블레싱(THE BLESSING)","tel":"031-969-6251","addr":"경기도 고양시 덕양구 벽제동 542-20번지","indutype":"전기제품 - 가전제품","category":"other"},{"name":"더 블레싱(THE BLESSING)","tel":"031-969-6251","addr":"경기도 고양시 덕양구 벽제동 542-20번지","indutype":"","category":"other"}]},{"lat":"37.722926671","long":"126.89597789","imageIndex":17,"items":[{"name":"더퀸즈","tel":"031-3473-4123","addr":"경기도 고양시 덕양구 벽제동 493번지","indutype":"","category":"other"}]},{"lat":"37.698961011","long":"126.9062854","imageIndex":17,"items":[{"name":"도원","tel":"","addr":"경기도 고양시 덕양구 벽제동 산76-1번지","indutype":"","category":"other"},{"name":"도원","tel":"","addr":"경기도 고양시 덕양구 벽제동 산76-1번지","indutype":"문화.취미 - 민예·공예품","category":"other"}]},{"lat":"37.737040314","long":"126.9122827","imageIndex":17,"items":[{"name":"도일인트도어","tel":"031-963-7157","addr":"경기도 고양시 덕양구 벽제동 610-4번지","indutype":"건축자재 - 기타건축자재","category":"other"},{"name":"도일인트도어","tel":"031-963-7157","addr":"경기도 고양시 덕양구 벽제동 610-4번지","indutype":"","category":"other"},{"name":"주식회사 티에스","tel":"031-963-7123","addr":"경기도 고양시 덕양구 벽제동 610-4번지","indutype":"용역 서비스 - 기타용역서비스","category":"other"},{"name":"주식회사 티에스","tel":"031-963-7123","addr":"경기도 고양시 덕양구 벽제동 610-4번지","indutype":"","category":"other"}]},{"lat":"37.702707631","long":"126.90461363","imageIndex":17,"items":[{"name":"돈까스클럽 벽제점","tel":"031-965-8803","addr":"경기도 고양시 덕양구 벽제동 212-5번지","indutype":"","category":"other"}]},{"lat":"37.735986021","long":"126.91205709","imageIndex":17,"items":[{"name":"동광","tel":"031-966-4444","addr":"경기도 고양시 덕양구 벽제동 624-7번지","indutype":"용역 서비스 - 가례서비스업","category":"other"},{"name":"동광","tel":"031-966-4444","addr":"경기도 고양시 덕양구 벽제동 624-7번지","indutype":"","category":"other"}]},{"lat":"37.728733183","long":"126.91188445","imageIndex":17,"items":[{"name":"동아금속","tel":"031-963-0753","addr":"경기도 고양시 덕양구 벽제동 571-1번지","indutype":"","category":"other"},{"name":"동아금속","tel":"031-963-0753","addr":"경기도 고양시 덕양구 벽제동 571-1번지","indutype":"건축자재 - 기타건축자재","category":"other"}]},{"lat":"37.708769625","long":"126.90285919","imageIndex":17,"items":[{"name":"드림휘트니스클럽","tel":"031-969-1551","addr":"경기도 고양시 덕양구 벽제동","indutype":"회원제형태 - 레져업소","category":"other"}]},{"lat":"37.704653781","long":"126.90470178","imageIndex":17,"items":[{"name":"디즈니골프 고양벽제점","tel":"031-966-2017","addr":"경기도 고양시 덕양구 벽제동 207-3번지","indutype":"의류 - 스포츠의류","category":"other"},{"name":"볼빅브이닷 고양벽제점","tel":"031-966-2017","addr":"경기도 고양시 덕양구 벽제동 207-3번지","indutype":"","category":"other"},{"name":"캘러웨이 고양벽제점","tel":"031-962-0778","addr":"경기도 고양시 덕양구 벽제동 207-3번지","indutype":"","category":"other"},{"name":"캘러웨이 벽제점","tel":"031-962-0778","addr":"경기도 고양시 덕양구 벽제동 207-3번지","indutype":"레져용품 - 스포츠·레져용품","category":"other"},{"name":"캘러웨이 벽제점","tel":"031-962-0778","addr":"경기도 고양시 덕양구 벽제동 207-3번지","indutype":"","category":"other"},{"name":"캘러웨이(고양벽제점)","tel":"031-962-0778","addr":"경기도 고양시 덕양구 벽제동 207-3번지","indutype":"","category":"other"}]},{"lat":"37.722989646","long":"126.90631091","imageIndex":17,"items":[{"name":"리얼(REAR)팜","tel":"031-964-0085","addr":"경기도 고양시 덕양구 벽제동 512-49번지 상곡마을다세대주택","indutype":"","category":"other"}]},{"lat":"37.703878974","long":"126.90472548","imageIndex":17,"items":[{"name":"링스골프 고양점","tel":"070-8289-7123","addr":"경기도 고양시 덕양구 벽제동 209-15번지","indutype":"","category":"other"},{"name":"핑벽제점","tel":"031-964-3223","addr":"경기도 고양시 덕양구 벽제동 209-15번지","indutype":"의류 - 정장","category":"other"},{"name":"핑벽제점","tel":"031-964-3223","addr":"경기도 고양시 덕양구 벽제동 209-15번지","indutype":"","category":"other"}]},{"lat":"37.703545591","long":"126.9046919","imageIndex":17,"items":[{"name":"링스골프고양점","tel":"031-964-3017","addr":"경기도 고양시 덕양구 벽제동 208-4외21필지 B동2호","indutype":"","category":"other"}]},{"lat":"37.699651636","long":"126.90255395","imageIndex":17,"items":[{"name":"마당쇠네집","tel":"031-964-9841","addr":"경기도 고양시 덕양구 벽제동 244번지","indutype":"","category":"other"},{"name":"마당쇠네집","tel":"031-964-9841","addr":"경기도 고양시 덕양구 벽제동 244번지","indutype":"건축자재 - 보일러·펌프·샷시","category":"other"},{"name":"큐종합인테리어","tel":"031-964-0849","addr":"경기도 고양시 덕양구 벽제동 244번지","indutype":"","category":"other"}]},{"lat":"37.741068201","long":"126.91308331","imageIndex":17,"items":[{"name":"만성제재소","tel":"031-964-1909","addr":"경기도 고양시 덕양구 벽제동 658-1번지","indutype":"","category":"other"},{"name":"만성제재소","tel":"031-964-1909","addr":"경기도 고양시 덕양구 벽제동 658-1번지","indutype":"건축자재 - 목재·석재·철물","category":"other"}]},{"lat":"37.699849944","long":"126.90266708","imageIndex":17,"items":[{"name":"명성","tel":"031-964-4808","addr":"경기도 고양시 덕양구 벽제동 243-3번지","indutype":"","category":"other"},{"name":"명성카크리닉","tel":"031-964-4808","addr":"경기도 고양시 덕양구 벽제동 243-3번지","indutype":"","category":"other"},{"name":"부부경정비","tel":"031-964-4808","addr":"경기도 고양시 덕양구 벽제동 243-3번지","indutype":"","category":"other"}]},{"lat":"37.718684084","long":"126.91945049","imageIndex":17,"items":[{"name":"명인부동산컨설팅","tel":"031-969-2807","addr":"경기도 고양시 덕양구 벽제동 34-2번지","indutype":"용역 서비스 - 부동산 중개·임대","category":"other"},{"name":"명인부동산컨설팅","tel":"031-969-2807","addr":"경기도 고양시 덕양구 벽제동 34-2번지","indutype":"","category":"other"}]},{"lat":"37.696101867","long":"126.90258141","imageIndex":17,"items":[{"name":"모종시장","tel":"031-964-0889","addr":"경기도 고양시 덕양구 벽제동 228-7번지","indutype":"","category":"other"},{"name":"베스트플라워","tel":"031-969-5733","addr":"경기도 고양시 덕양구 벽제동 228-7번지","indutype":"","category":"other"},{"name":"베스트플라워","tel":"031-969-5733","addr":"경기도 고양시 덕양구 벽제동 228-7번지","indutype":"문화.취미 - 화원","category":"other"},{"name":"영진농원","tel":"031-964-9980","addr":"경기도 고양시 덕양구 벽제동 228-7번지","indutype":"","category":"other"}]},{"lat":"37.717401051","long":"126.91441619","imageIndex":17,"items":[{"name":"무봉리토종순대국 벽제점","tel":"031-964-5988","addr":"경기도 고양시 덕양구 벽제동 112-5번지","indutype":"","category":"other"}]},{"lat":"37.722898935","long":"126.90556242","imageIndex":17,"items":[{"name":"문구팬시","tel":"031-123-4567","addr":"경기도 고양시 덕양구 벽제동 512-17번지","indutype":"서적문구 - 문구용품","category":"other"}]},{"lat":"37.737680902","long":"126.91347312","imageIndex":17,"items":[{"name":"미엘","tel":"031-964-4799","addr":"경기도 고양시 덕양구 벽제동 621-2번지","indutype":"","category":"other"},{"name":"미엘 2호점","tel":"031-964-4799","addr":"경기도 고양시 덕양구 벽제동 621-2번지","indutype":"","category":"other"}]},{"lat":"37.719599189","long":"126.90289","imageIndex":17,"items":[{"name":"박가네오리돌판구이","tel":"031-963-0224","addr":"경기도 고양시 덕양구 벽제동 419-3번지","indutype":"","category":"other"}]},{"lat":"37.704518845","long":"126.90495143","imageIndex":17,"items":[{"name":"백세장어마을","tel":"031-969-3554","addr":"경기도 고양시 덕양구 벽제동 207-7번지","indutype":"","category":"other"}]},{"lat":"37.731011793","long":"126.91083803","imageIndex":17,"items":[{"name":"벽제칼국시","tel":"031-963-8151","addr":"경기도 고양시 덕양구 벽제동 563-3번지","indutype":"","category":"other"},{"name":"벽제칼국시","tel":"031-963-8151","addr":"경기도 고양시 덕양구 벽제동 563-3번지","indutype":"","category":"other"},{"name":"원두막국수 춘천숯불닭갈비","tel":"031-962-9914","addr":"경기도 고양시 덕양구 벽제동 563-3번지","indutype":"","category":"other"},{"name":"원향생고기듬뿍넣은통김치찌개","tel":"02-980-0386","addr":"경기도 고양시 덕양구 벽제동 563-3번지","indutype":"","category":"other"}]},{"lat":"37.704320586","long":"126.90489499","imageIndex":17,"items":[{"name":"벽제흑염소","tel":"031-927-9921","addr":"경기도 고양시 덕양구 벽제동 208-6번지","indutype":"","category":"other"},{"name":"우리한우","tel":"","addr":"경기도 고양시 덕양구 벽제동 208-6번지","indutype":"","category":"other"},{"name":"참한우촌","tel":"031-962-6692","addr":"경기도 고양시 덕양구 벽제동 208-6번지","indutype":"","category":"other"}]},{"lat":"37.717629146","long":"126.91830615","imageIndex":17,"items":[{"name":"별카페","tel":"070-8805-8137","addr":"경기도 고양시 덕양구 벽제동 22-2번지","indutype":"","category":"other"}]},{"lat":"37.723403621","long":"126.8953647","imageIndex":17,"items":[{"name":"사회복지법인위캔","tel":"031-969-3535","addr":"경기도 고양시 덕양구 벽제동 489-2번지","indutype":"","category":"other"},{"name":"위캔센터","tel":"031-969-3535","addr":"경기도 고양시 덕양구 벽제동 489-2번지","indutype":"","category":"other"}]},{"lat":"37.71831732","long":"126.89997686","imageIndex":17,"items":[{"name":"산들풀꽃","tel":"031-963-9854","addr":"경기도 고양시 덕양구 벽제동 434-2번지","indutype":"","category":"other"},{"name":"초가본국수","tel":"031-963-2501","addr":"경기도 고양시 덕양구 벽제동 434-2번지","indutype":"","category":"other"}]},{"lat":"37.735319567","long":"126.91238689","imageIndex":17,"items":[{"name":"산촌","tel":"031-969-9865","addr":"경기도 고양시 덕양구 벽제동 582-1번지","indutype":"","category":"other"}]},{"lat":"37.737737583","long":"126.91700131","imageIndex":17,"items":[{"name":"샬롬의집","tel":"031-966-1422","addr":"경기도 고양시 덕양구 벽제동 639번지","indutype":"","category":"other"}]},{"lat":"37.7131545","long":"126.89960974","imageIndex":17,"items":[{"name":"선우푸드시스템","tel":"031-963-6401","addr":"경기도 고양시 덕양구 벽제동 316-6번지","indutype":"","category":"other"}]},{"lat":"37.731154983","long":"126.90961272","imageIndex":17,"items":[{"name":"성부금속","tel":"031-962-2243","addr":"경기도 고양시 덕양구 벽제동 558번지","indutype":"건축자재 - 기타건축자재","category":"other"},{"name":"성부금속","tel":"031-962-2243","addr":"경기도 고양시 덕양구 벽제동 558번지","indutype":"","category":"other"},{"name":"쉘리가구","tel":"031-963-1312","addr":"경기도 고양시 덕양구 벽제동 558번지","indutype":"","category":"other"},{"name":"쉘리가구","tel":"031-963-1312","addr":"경기도 고양시 덕양구 벽제동 558번지","indutype":"수리서비스 - 기타수리서비스","category":"other"}]},{"lat":"37.706961178","long":"126.90583275","imageIndex":17,"items":[{"name":"솔향토속촌","tel":"031-968-5093","addr":"경기도 고양시 덕양구 벽제동 194번지","indutype":"","category":"other"}]},{"lat":"37.704518173","long":"126.90414631","imageIndex":17,"items":[{"name":"수정원예","tel":"031-962-4491","addr":"경기도 고양시 덕양구 벽제동 208-9","indutype":"","category":"other"}]},{"lat":"37.70104108","long":"126.90488797","imageIndex":17,"items":[{"name":"숲으로","tel":"031-964-8880","addr":"경기도 고양시 덕양구 벽제동 219-2,4,5,7","indutype":"","category":"other"}]},{"lat":"37.701958969","long":"126.90358273","imageIndex":17,"items":[{"name":"시내건설산업","tel":"031-964-2022","addr":"경기도 고양시 덕양구 벽제동 262-6번지","indutype":"","category":"other"}]},{"lat":"37.701012731","long":"126.90331185","imageIndex":17,"items":[{"name":"신일방수설비","tel":"031-962-9114","addr":"경기도 고양시 덕양구 벽제동 679-4번지","indutype":"건축자재 - 보일러·펌프·샷시","category":"other"}]},{"lat":"37.700129501","long":"126.90297286","imageIndex":17,"items":[{"name":"신일설비","tel":"031-962-9114","addr":"경기도 고양시 덕양구 벽제동 253-2","indutype":"","category":"other"}]},{"lat":"37.719433753","long":"126.89911332","imageIndex":17,"items":[{"name":"씨유벽제국군병원점","tel":"031-962-5180","addr":"경기도 고양시 덕양구 벽제동 438-1번지","indutype":"유통업 영리 - 편 의 점","category":"other"},{"name":"씨유벽제국군병원점","tel":"031-962-5180","addr":"경기도 고양시 덕양구 벽제동 438-1번지","indutype":"","category":"other"}]},{"lat":"37.704014184","long":"126.90480468","imageIndex":17,"items":[{"name":"아디다스테일러메이드","tel":"031-962-9605","addr":"경기도 고양시 덕양구 벽제동 208-35번지","indutype":"","category":"other"}]},{"lat":"37.728984871","long":"126.91113547","imageIndex":17,"items":[{"name":"아르니아","tel":"031-964-4432","addr":"경기도 고양시 덕양구 벽제동 571-2번지","indutype":"","category":"other"},{"name":"아르니아","tel":"031-964-4432","addr":"경기도 고양시 덕양구 벽제동 571-2번지","indutype":"신변잡화 - 기타잡화","category":"other"}]},{"lat":"37.717683881","long":"126.90739527","imageIndex":17,"items":[{"name":"아이맘에듀","tel":"070-7518-8518","addr":"경기도 고양시 덕양구 벽제동 산43-32번지","indutype":"","category":"other"}]},{"lat":"37.724592916","long":"126.89539701","imageIndex":17,"items":[{"name":"애덕의집보호작업장(소울베이커리)","tel":"031-962-5802","addr":"경기도 고양시 덕양구 벽제동 486번지","indutype":"","category":"other"}]},{"lat":"37.731210004","long":"126.91083779","imageIndex":17,"items":[{"name":"에디스푸드","tel":"031-962-9240","addr":"경기도 고양시 덕양구 벽제동 563-1번지","indutype":"","category":"other"}]},{"lat":"37.717487653","long":"126.89908201","imageIndex":17,"items":[{"name":"엔도게러지","tel":"070-2924-9020","addr":"경기도 고양시 덕양구 벽제동 335번지 오앤씨블루힐","indutype":"","category":"other"}]},{"lat":"37.735733728","long":"126.91202336","imageIndex":17,"items":[{"name":"예옥영양탕","tel":"031-962-1792","addr":"경기도 고양시 덕양구 벽제동 624-4번지","indutype":"","category":"other"}]},{"lat":"37.701517384","long":"126.90344725","imageIndex":17,"items":[{"name":"옛날민속품","tel":"031-964-2649","addr":"경기도 고양시 덕양구 벽제동 257번지","indutype":"","category":"other"},{"name":"옥돌게장","tel":"031-969-2190","addr":"경기도 고양시 덕양구 벽제동 257번지","indutype":"","category":"other"}]},{"lat":"37.706790294","long":"126.90619586","imageIndex":17,"items":[{"name":"옛날보신탕","tel":"031-962-8616","addr":"경기도 고양시 덕양구 벽제동 192-1번지","indutype":"","category":"other"}]},{"lat":"37.7243497","long":"126.90583275","imageIndex":17,"items":[{"name":"오복이네집","tel":"031-966-4196","addr":"경기도 고양시 덕양구 벽제동 517-4번지","indutype":"","category":"other"},{"name":"카페테라스","tel":"031-966-4196","addr":"경기도 고양시 덕양구 벽제동 517-4번지","indutype":"","category":"other"}]},{"lat":"37.736959715","long":"126.9129181","imageIndex":17,"items":[{"name":"우목(    )","tel":"031-976-3028","addr":"경기도 고양시 덕양구 벽제동 621-3번지","indutype":"건축자재 - 기타건축자재","category":"other"}]},{"lat":"37.701212882","long":"126.90563614","imageIndex":17,"items":[{"name":"우보농장","tel":"031-969-7885","addr":"경기도 고양시 덕양구 벽제동 219-1번지","indutype":"","category":"other"}]},{"lat":"37.704095638","long":"126.90524682","imageIndex":17,"items":[{"name":"원스톱","tel":"031-962-4905","addr":"경기도 고양시 덕양구 벽제동 208-13번지","indutype":"건축자재 - 보일러·펌프·샷시","category":"other"},{"name":"원스톱","tel":"031-962-4905","addr":"경기도 고양시 덕양구 벽제동 208-13번지","indutype":"","category":"other"}]},{"lat":"37.722232841","long":"126.9063119","imageIndex":17,"items":[{"name":"일이환경주식회사","tel":"031-979-1251","addr":"경기도 고양시 덕양구 벽제동 512-19번지","indutype":"","category":"other"},{"name":"일이환경주식회사","tel":"031-979-1251","addr":"경기도 고양시 덕양구 벽제동 512-19번지","indutype":"용역 서비스 - 기타용역서비스","category":"other"}]},{"lat":"37.737230131","long":"126.91308794","imageIndex":17,"items":[{"name":"일진현대정비공장","tel":"031-964-6868","addr":"경기도 고양시 덕양구 벽제동 621-11번지","indutype":"","category":"other"}]},{"lat":"37.745871573","long":"126.91477942","imageIndex":17,"items":[{"name":"임애견훈련학교","tel":"031-962-0821","addr":"경기도 고양시 덕양구 벽제동","indutype":"문화.취미 - 애완동물","category":"other"},{"name":"임애견훈련학교","tel":"031-962-0821","addr":"경기도 고양시 덕양구 벽제동 산2-27","indutype":"","category":"other"}]},{"lat":"37.702879068","long":"126.90491957","imageIndex":17,"items":[{"name":"장보는강아지와 고양이 (벽제점)","tel":"070-8830-5286","addr":"경기도 고양시 덕양구 벽제동 213-4번지","indutype":"","category":"other"},{"name":"장보는강아지와 고양이 (벽제점)","tel":"070-8830-5286","addr":"경기도 고양시 덕양구 벽제동 213-4번지","indutype":"문화.취미 - 애완동물","category":"other"}]},{"lat":"37.724620174","long":"126.90605925","imageIndex":17,"items":[{"name":"정인국수","tel":"070-4205-3851","addr":"경기도 고양시 덕양구 벽제동 517-5번지","indutype":"","category":"other"},{"name":"정인국수","tel":"070-4205-3851","addr":"경기도 고양시 덕양구 벽제동 517-5번지","indutype":"","category":"other"}]},{"lat":"37.742959972","long":"126.91277469","imageIndex":17,"items":[{"name":"주식회사우보생활건강","tel":"02-991-4065","addr":"경기도 고양시 덕양구 벽제동 660번지","indutype":"","category":"other"}]},{"lat":"37.725847925","long":"126.90908625","imageIndex":17,"items":[{"name":"참사랑노인고양요양센터","tel":"031-963-3100","addr":"경기도 고양시 덕양구 벽제동 543-27번지","indutype":"","category":"other"},{"name":"참사랑노인고양요양센터","tel":"031-963-3100","addr":"경기도 고양시 덕양구 벽제동 543-27번지","indutype":"기타의료기관 - 기타의료기관 및 기타","category":"other"}]},{"lat":"37.734121357","long":"126.91246776","imageIndex":17,"items":[{"name":"채은주칼국수","tel":"031-969-9963","addr":"경기도 고양시 덕양구 벽제동 582-23번지","indutype":"","category":"other"}]},{"lat":"37.702239245","long":"126.90475032","imageIndex":17,"items":[{"name":"청곡 돌,풀원","tel":"031-962-4747","addr":"경기도 고양시 덕양구 벽제동 212-6번지","indutype":"","category":"other"},{"name":"청곡 돌,풀원","tel":"031-962-4747","addr":"경기도 고양시 덕양구 벽제동 212-6번지","indutype":"문화.취미 - 화원","category":"other"}]},{"lat":"37.719181704","long":"126.89936319","imageIndex":17,"items":[{"name":"청솔","tel":"031-962-0992","addr":"경기도 고양시 덕양구 벽제동 438-3번지","indutype":"","category":"other"},{"name":"청솔","tel":"031-962-0992","addr":"경기도 고양시 덕양구 벽제동 438-3번지","indutype":"","category":"other"}]},{"lat":"37.73439991","long":"126.91150315","imageIndex":17,"items":[{"name":"청우종합상사","tel":"031-962-9959","addr":"경기도 고양시 덕양구 벽제동 588번지","indutype":"","category":"other"},{"name":"청우종합상사","tel":"031-962-9959","addr":"경기도 고양시 덕양구 벽제동 588번지","indutype":"신변잡화 - 기타잡화","category":"other"}]},{"lat":"37.737509505","long":"126.91318971","imageIndex":17,"items":[{"name":"카사블랑카","tel":"031-969-1735","addr":"경기도 고양시 덕양구 벽제동 621번지","indutype":"","category":"other"},{"name":"카사블랑카","tel":"031-969-1735","addr":"경기도 고양시 덕양구 벽제동 621번지","indutype":"","category":"other"}]},{"lat":"37.718289245","long":"126.92171931","imageIndex":17,"items":[{"name":"키스톤","tel":"031-946-1242","addr":"경기도 고양시 덕양구 벽제동 4-3번지","indutype":"","category":"other"}]},{"lat":"37.718289284","long":"126.92177602","imageIndex":17,"items":[{"name":"키스톤","tel":"031-946-1242","addr":"경기도 고양시 덕양구 벽제동 4-3번지","indutype":"가구 - 기타가구","category":"other"}]},{"lat":"37.718400069","long":"126.91303128","imageIndex":17,"items":[{"name":"태성하우징","tel":"031-969-4980","addr":"경기도 고양시 덕양구 벽제동 62-31번지","indutype":"용역 서비스 - 기타용역서비스","category":"other"},{"name":"태성하우징","tel":"031-969-4980","addr":"경기도 고양시 덕양구 벽제동 62-31번지","indutype":"","category":"other"}]},{"lat":"37.713657988","long":"126.89841822","imageIndex":17,"items":[{"name":"트윈스골프","tel":"031-969-6633","addr":"경기도 고양시 덕양구 벽제동 316-7번지","indutype":"","category":"other"},{"name":"한별레저주식회사","tel":"031-963-7707","addr":"경기도 고양시 덕양구 벽제동 316-7번지","indutype":"","category":"other"}]},{"lat":"37.713738652","long":"126.89794178","imageIndex":17,"items":[{"name":"트윈스골프","tel":"031-969-6633","addr":"경기도 고양시 덕양구 벽제동 316-7번지","indutype":"레져용품 - 골프용품 전문점","category":"other"}]},{"lat":"37.70487904","long":"126.90472416","imageIndex":17,"items":[{"name":"티마트","tel":"031-967-9191","addr":"경기도 고양시 덕양구 벽제동 207-1번지","indutype":"","category":"other"}]},{"lat":"37.717765202","long":"126.91958762","imageIndex":17,"items":[{"name":"편진충전소","tel":"031-969-9604","addr":"경기도 고양시 덕양구 벽제동 159-1번지","indutype":"","category":"other"}]},{"lat":"37.718650506","long":"126.89978359","imageIndex":17,"items":[{"name":"프라자여관","tel":"031-964-6970","addr":"경기도 고양시 덕양구 벽제동 433-1번지","indutype":"","category":"other"},{"name":"호텔 린","tel":"031-964-0988","addr":"경기도 고양시 덕양구 벽제동 433-1번지","indutype":"","category":"other"}]},{"lat":"37.724406546","long":"126.9092809","imageIndex":17,"items":[{"name":"하늘꽃","tel":"031-909-1009","addr":"경기도 고양시 덕양구 벽제동 523-24번지","indutype":"","category":"other"},{"name":"하늘꽃","tel":"031-968-9830","addr":"경기도 고양시 덕양구 벽제동 523-24번지","indutype":"문화.취미 - 화방·표구점","category":"other"},{"name":"하늘꽃","tel":"031-968-9830","addr":"경기도 고양시 덕양구 벽제동 523-24번지","indutype":"","category":"other"}]},{"lat":"37.705184837","long":"126.90408872","imageIndex":17,"items":[{"name":"한마음문구도매센터","tel":"031-969-0891","addr":"경기도 고양시 덕양구 벽제동 207-21번지","indutype":"서적문구 - 문구용품","category":"other"}]},{"lat":"37.703852106","long":"126.90491829","imageIndex":17,"items":[{"name":"한영유통","tel":"031-962-3778","addr":"경기도 고양시 덕양구 벽제동","indutype":"레져용품 - 스포츠·레져용품","category":"other"},{"name":"한영유통","tel":"031-962-3778","addr":"경기도 고양시 덕양구 벽제동 209-7,신축상가B동1호","indutype":"","category":"other"}]},{"lat":"37.717011354","long":"126.91142244","imageIndex":17,"items":[{"name":"형제가든","tel":"031-962-1911","addr":"경기도 고양시 덕양구 벽제동 102-3번지","indutype":"","category":"other"}]},{"lat":"37.724788973","long":"126.89306009","imageIndex":17,"items":[{"name":"혜음가든","tel":"031-964-5253","addr":"경기도 고양시 덕양구 벽제동 485-4번지","indutype":"","category":"other"}]},{"lat":"37.721538619","long":"126.90572299","imageIndex":4,"items":[{"name":"(주)임가네한우마을고양","tel":"031-964-0092","addr":"경기도 고양시 덕양구 벽제동 509-7번지","indutype":"일반휴게음식 - 일반한식","category":"restaurant"}]},{"lat":"37.711019495","long":"126.89991891","imageIndex":4,"items":[{"name":"강릉해변메밀막국수","tel":"031-963-0038","addr":"경기도 고양시 덕양구 벽제동 312-3번지","indutype":"일반휴게음식 - 일반한식","category":"restaurant"}]},{"lat":"37.698651762","long":"126.90278208","imageIndex":4,"items":[{"name":"고향옥얼큰순대국","tel":"031-964-6325","addr":"경기도 고양시 덕양구 벽제동 243-11번지","indutype":"일반휴게음식 - 일반한식","category":"restaurant"}]},{"lat":"37.736815049","long":"126.91224894","imageIndex":4,"items":[{"name":"그담푸드","tel":"070-7788-3600","addr":"경기도 고양시 덕양구 벽제동 610-8번지","indutype":"일반휴게음식 - 서양음식","category":"restaurant"}]},{"lat":"37.700436326","long":"126.90356208","imageIndex":4,"items":[{"name":"기와집삼계탕","tel":"031-962-2882","addr":"경기도 고양시 덕양구 벽제동 253-1번지","indutype":"일반휴게음식 - 일반한식","category":"restaurant"}]},{"lat":"37.732987042","long":"126.91363759","imageIndex":4,"items":[{"name":"나무하나","tel":"","addr":"경기도 고양시 덕양구 벽제동 576-3번지","indutype":"일반휴게음식 - 서양음식","category":"restaurant"},{"name":"숲속장작구이","tel":"031-1111-1111","addr":"경기도 고양시 덕양구 벽제동 576-3번지","indutype":"일반휴게음식 - 스넥","category":"restaurant"}]},{"lat":"37.720622255","long":"126.89824965","imageIndex":4,"items":[{"name":"농가","tel":"031-962-2428","addr":"경기도 고양시 덕양구 벽제동 440-1번지","indutype":"일반휴게음식 - 일반한식","category":"restaurant"}]},{"lat":"37.719568235","long":"126.89836455","imageIndex":4,"items":[{"name":"다오짬뽕","tel":"031-963-2929","addr":"경기도 고양시 덕양구 벽제동 447-1번지","indutype":"일반휴게음식 - 중국식","category":"restaurant"}]},{"lat":"37.729677504","long":"126.90972801","imageIndex":4,"items":[{"name":"대원식당","tel":"031-381-7217","addr":"경기도 고양시 덕양구 벽제동 554-5번지","indutype":"일반휴게음식 - 일반한식","category":"restaurant"}]},{"lat":"37.722926671","long":"126.89597789","imageIndex":4,"items":[{"name":"더퀸즈","tel":"031-3473-4123","addr":"경기도 고양시 덕양구 벽제동 493번지","indutype":"일반휴게음식 - 서양음식","category":"restaurant"}]},{"lat":"37.718819174","long":"126.89694786","imageIndex":4,"items":[{"name":"데일리피자치킨","tel":"031-965-8952","addr":"경기도 고양시 덕양구 벽제동 335-1번지","indutype":"일반휴게음식 - 일반한식","category":"restaurant"}]},{"lat":"37.717401051","long":"126.91441619","imageIndex":4,"items":[{"name":"무봉리토종순대국 벽제점","tel":"031-964-5988","addr":"경기도 고양시 덕양구 벽제동 112-5번지","indutype":"일반휴게음식 - 일반한식","category":"restaurant"}]},{"lat":"37.704518845","long":"126.90495143","imageIndex":4,"items":[{"name":"백세장어마을","tel":"031-969-3554","addr":"경기도 고양시 덕양구 벽제동 207-7번지","indutype":"일반휴게음식 - 일반한식","category":"restaurant"}]},{"lat":"37.731011793","long":"126.91083803","imageIndex":4,"items":[{"name":"벽제칼국시","tel":"031-963-8151","addr":"경기도 고양시 덕양구 벽제동 563-3번지","indutype":"일반휴게음식 - 일반한식","category":"restaurant"}]},{"lat":"37.704320586","long":"126.90489499","imageIndex":4,"items":[{"name":"벽제흑염소","tel":"031-927-9921","addr":"경기도 고양시 덕양구 벽제동 208-6번지","indutype":"일반휴게음식 - 일반한식","category":"restaurant"}]},{"lat":"37.717629146","long":"126.91830615","imageIndex":4,"items":[{"name":"별카페","tel":"070-8805-8137","addr":"경기도 고양시 덕양구 벽제동 22-2번지","indutype":"일반휴게음식 - 서양음식","category":"restaurant"}]},{"lat":"37.735319567","long":"126.91238689","imageIndex":4,"items":[{"name":"산촌","tel":"031-969-9865","addr":"경기도 고양시 덕양구 벽제동 582-1번지","indutype":"일반휴게음식 - 일반한식","category":"restaurant"}]},{"lat":"37.704734147","long":"126.90383984","imageIndex":4,"items":[{"name":"서해안칼국수","tel":"031-978-7119","addr":"경기도 고양시 덕양구 벽제동 207-6번지","indutype":"일반휴게음식 - 일반한식","category":"restaurant"},{"name":"쉐프의부대찌개 고양벽제점","tel":"031-962-5937","addr":"경기도 고양시 덕양구 벽제동 207-6번지","indutype":"일반휴게음식 - 일반한식","category":"restaurant"}]},{"lat":"37.717902453","long":"126.91033253","imageIndex":4,"items":[{"name":"신안함바식당","tel":"031-963-7161","addr":"경기도 고양시 덕양구 벽제동","indutype":"일반휴게음식 - 일반한식","category":"restaurant"}]},{"lat":"37.735733728","long":"126.91202336","imageIndex":4,"items":[{"name":"예옥영양탕","tel":"031-962-1792","addr":"경기도 고양시 덕양구 벽제동 624-4번지","indutype":"일반휴게음식 - 일반한식","category":"restaurant"}]},{"lat":"37.706790294","long":"126.90619586","imageIndex":4,"items":[{"name":"옛날보신탕","tel":"031-962-8616","addr":"경기도 고양시 덕양구 벽제동 192-1번지","indutype":"일반휴게음식 - 일반한식","category":"restaurant"}]},{"lat":"37.7243497","long":"126.90583275","imageIndex":4,"items":[{"name":"오복이네집","tel":"031-966-4196","addr":"경기도 고양시 덕양구 벽제동 517-4번지","indutype":"일반휴게음식 - 일반한식","category":"restaurant"},{"name":"카페테라스","tel":"031-966-4196","addr":"경기도 고양시 덕양구 벽제동 517-4번지","indutype":"일반휴게음식 - 서양음식","category":"restaurant"}]},{"lat":"37.724620174","long":"126.90605925","imageIndex":4,"items":[{"name":"정인국수","tel":"070-4205-3851","addr":"경기도 고양시 덕양구 벽제동 517-5번지","indutype":"일반휴게음식 - 일반한식","category":"restaurant"}]},{"lat":"37.719181704","long":"126.89936319","imageIndex":4,"items":[{"name":"청솔","tel":"031-962-0992","addr":"경기도 고양시 덕양구 벽제동 438-3번지","indutype":"일반휴게음식 - 일반한식","category":"restaurant"}]},{"lat":"37.71831732","long":"126.89997686","imageIndex":4,"items":[{"name":"초가본국수","tel":"031-963-2501","addr":"경기도 고양시 덕양구 벽제동 434-2번지","indutype":"일반휴게음식 - 일반한식","category":"restaurant"}]},{"lat":"37.737509505","long":"126.91318971","imageIndex":4,"items":[{"name":"카사블랑카","tel":"031-969-1735","addr":"경기도 고양시 덕양구 벽제동 621번지","indutype":"일반휴게음식 - 일반한식","category":"restaurant"}]},{"lat":"37.72060137","long":"126.90541798","imageIndex":4,"items":[{"name":"풍경","tel":"031-962-2504","addr":"경기도 고양시 덕양구 벽제동 394-1번지","indutype":"일반휴게음식 - 일반한식","category":"restaurant"}]},{"lat":"37.702797149","long":"126.9039218","imageIndex":4,"items":[{"name":"한국맥도날드 (유) 고양맥드라이브점","tel":"02-0000-0000","addr":"경기도 고양시 덕양구 벽제동 262-1번지","indutype":"일반휴게음식 - 서양음식","category":"restaurant"}]},{"lat":"37.726261137","long":"126.90755441","imageIndex":4,"items":[{"name":"한식당","tel":"031-964-2259","addr":"경기도 고양시 덕양구 벽제동 547-3번지","indutype":"일반휴게음식 - 일반한식","category":"restaurant"}]},{"lat":"37.712980461","long":"126.90689096","imageIndex":4,"items":[{"name":"해오름정육점","tel":"031-962-8012","addr":"경기도 고양시 덕양구 벽제동","indutype":"일반휴게음식 - 일반한식","category":"restaurant"}]},{"lat":"37.724788973","long":"126.89306009","imageIndex":4,"items":[{"name":"혜음가든","tel":"031-964-5253","addr":"경기도 고양시 덕양구 벽제동 485-4번지","indutype":"일반휴게음식 - 일반한식","category":"restaurant"}]},{"lat":"37.710310275","long":"126.90286846","imageIndex":4,"items":[{"name":"호미불닭발","tel":"031-963-3779","addr":"경기도 고양시 덕양구 벽제동","indutype":"일반휴게음식 - 일반한식","category":"restaurant"}]},{"lat":"37.719568235","long":"126.89836455","imageIndex":0,"items":[{"name":"78motors(78모터스)","tel":"031-964-6372","addr":"경기도 고양시 덕양구 벽제동 447-1번지","indutype":"자동차정비 유지 - 자동차부품","category":"car"},{"name":"더블유카케어","tel":"031-963-4747","addr":"경기도 고양시 덕양구 벽제동 447-1번지","indutype":"자동차정비 유지 - 세차장","category":"car"}]},{"lat":"37.704734147","long":"126.90383984","imageIndex":0,"items":[{"name":"고양현대부란자","tel":"031-963-4605","addr":"경기도 고양시 덕양구 벽제동 207-6번지","indutype":"자동차정비 유지 - 자동차정비","category":"car"}]},{"lat":"37.706627252","long":"126.90514144","imageIndex":0,"items":[{"name":"동진상사","tel":"031-969-5344","addr":"경기도 고양시 덕양구 벽제동 196-5번지","indutype":"자동차정비 유지 - 카인테리어","category":"car"},{"name":"트윈모터스","tel":"031-964-7040","addr":"경기도 고양시 덕양구 벽제동 196-5번지","indutype":"자동차정비 유지 - 자동차정비","category":"car"}]},{"lat":"37.699849944","long":"126.90266708","imageIndex":0,"items":[{"name":"명성카크리닉","tel":"031-964-4808","addr":"경기도 고양시 덕양구 벽제동 243-3번지","indutype":"자동차정비 유지 - 자동차부품","category":"car"},{"name":"부부경정비","tel":"031-964-4808","addr":"경기도 고양시 덕양구 벽제동 243-3번지","indutype":"자동차정비 유지 - 자동차정비","category":"car"}]},{"lat":"37.70487904","long":"126.90472416","imageIndex":0,"items":[{"name":"에프원(F1)타이어","tel":"031-000-0000","addr":"경기도 고양시 덕양구 벽제동 207-1번지","indutype":"자동차정비 유지 - 자동차시트·타이어","category":"car"}]},{"lat":"37.717487653","long":"126.89908201","imageIndex":0,"items":[{"name":"엔도게러지","tel":"070-2924-9020","addr":"경기도 고양시 덕양구 벽제동 335번지 오앤씨블루힐","indutype":"자동차정비 유지 - 자동차부품","category":"car"}]},{"lat":"37.74706788","long":"126.91219105","imageIndex":7,"items":[{"name":"고갯마루쉼터","tel":"031-963-6373","addr":"경기도 고양시 덕양구 벽제동 4-4번지","indutype":"음료식품 - 농·축·수산품","category":"food"}]},{"lat":"37.732987042","long":"126.91363759","imageIndex":7,"items":[{"name":"고양레저타운","tel":"031-968-4600","addr":"경기도 고양시 덕양구 벽제동 576-3번지","indutype":"음료식품 - 기타음료식품","category":"food"}]},{"lat":"37.721009596","long":"126.89816971","imageIndex":7,"items":[{"name":"금강산","tel":"031-969-4241","addr":"경기도 고양시 덕양구 벽제동 441-4번지","indutype":"음료식품 - 정육점","category":"food"}]},{"lat":"37.721538619","long":"126.90572299","imageIndex":7,"items":[{"name":"농업회사법인 우리팜미트 주식회사","tel":"070-4335-7608","addr":"경기도 고양시 덕양구 벽제동 509-7번지","indutype":"음료식품 - 정육점","category":"food"},{"name":"청풍명월(주)","tel":"070-4232-1571","addr":"경기도 고양시 덕양구 벽제동 509-7번지","indutype":"음료식품 - 정육점","category":"food"}]},{"lat":"37.711048792","long":"126.90254993","imageIndex":7,"items":[{"name":"미래통상","tel":"031-962-0609","addr":"경기도 고양시 덕양구 벽제동","indutype":"음료식품 - 기타음료식품","category":"food"}]},{"lat":"37.723403621","long":"126.8953647","imageIndex":7,"items":[{"name":"사회복지법인위캔","tel":"031-969-3535","addr":"경기도 고양시 덕양구 벽제동 489-2번지","indutype":"음료식품 - 기타음료식품","category":"food"},{"name":"위캔센터","tel":"031-969-3535","addr":"경기도 고양시 덕양구 벽제동 489-2번지","indutype":"음료식품 - 제과점","category":"food"}]},{"lat":"37.7131545","long":"126.89960974","imageIndex":7,"items":[{"name":"선우푸드시스템","tel":"031-963-6401","addr":"경기도 고양시 덕양구 벽제동 316-6번지","indutype":"음료식품 - 기타음료식품","category":"food"}]},{"lat":"37.724592916","long":"126.89539701","imageIndex":7,"items":[{"name":"애덕의집보호작업장(소울베이커리)","tel":"031-962-5802","addr":"경기도 고양시 덕양구 벽제동 486번지","indutype":"음료식품 - 제과점","category":"food"}]},{"lat":"37.731210004","long":"126.91083779","imageIndex":7,"items":[{"name":"에디스푸드","tel":"031-962-9240","addr":"경기도 고양시 덕양구 벽제동 563-1번지","indutype":"음료식품 - 기타음료식품","category":"food"}]},{"lat":"37.70413076","long":"126.90414682","imageIndex":7,"items":[{"name":"용천수산","tel":"031-963-1441","addr":"경기도 고양시 덕양구 벽제동 208-54번지","indutype":"음료식품 - 농·축·수산품","category":"food"}]},{"lat":"37.718819174","long":"126.89694786","imageIndex":8,"items":[{"name":"국군벽제병원","tel":"031-963-6657","addr":"경기도 고양시 덕양구 벽제동","indutype":"병원 - 종합병원","category":"medical"}]},{"lat":"37.708769625","long":"126.90285919","imageIndex":8,"items":[{"name":"그린약국","tel":"031-962-6819","addr":"경기도 고양시 덕양구 벽제동","indutype":"약국 - 약국","category":"medical"},{"name":"자연한의원","tel":"031-969-9797","addr":"경기도 고양시 덕양구 벽제동","indutype":"의원 - 한의원","category":"medical"},{"name":"하나소아청소년과","tel":"031-969-4685","addr":"경기도 고양시 덕양구 벽제동","indutype":"의원 - 의원","category":"medical"}]},{"lat":"37.715328771","long":"126.90304318","imageIndex":16,"items":[{"name":"꿈의요정어린이집[아이행복]","tel":"031-818-8080","addr":"경기도 고양시 덕양구 벽제동","indutype":"학원 - 유아원","category":"study"}]},{"lat":"37.708914459","long":"126.90366417","imageIndex":16,"items":[{"name":"꿈이크는어린이집[아이행복]","tel":"031-969-5242","addr":"경기도 고양시 덕양구 벽제동","indutype":"학원 - 유아원","category":"study"}]},{"lat":"37.709365727","long":"126.90460484","imageIndex":16,"items":[{"name":"도담어린이집[아이행복]","tel":"031-963-0301","addr":"경기도 고양시 덕양구 벽제동","indutype":"학원 - 유아원","category":"study"}]},{"lat":"37.719124416","long":"126.90616849","imageIndex":16,"items":[{"name":"별생각어린이집[아이행복]","tel":"031-962-9096","addr":"경기도 고양시 덕양구 벽제동","indutype":"학원 - 유아원","category":"study"}]},{"lat":"37.715041248","long":"126.90397356","imageIndex":16,"items":[{"name":"숲속삼성 어린이집[아이행복]","tel":"031-969-9455","addr":"경기도 고양시 덕양구 벽제동 363-25번지","indutype":"학원 - 유아원","category":"study"}]},{"lat":"37.716434268","long":"126.89992276","imageIndex":16,"items":[{"name":"파란별어린이집[아이행복]","tel":"031-964-4425","addr":"경기도 고양시 덕양구 벽제동 328-3번지","indutype":"학원 - 유아원","category":"study"}]},{"lat":"37.708769625","long":"126.90285919","imageIndex":16,"items":[{"name":"해동검도","tel":"031-962-4573","addr":"경기도 고양시 덕양구 벽제동","indutype":"회원제형태 - 학원","category":"study"}]},{"lat":"37.706627252","long":"126.90514144","imageIndex":13,"items":[{"name":"동진상사","tel":"","addr":"경기도 고양시 덕양구 벽제동 196-5번지","indutype":"보건위생 - 미용재료","category":"beauty"}]},{"lat":"37.722989646","long":"126.90631091","imageIndex":13,"items":[{"name":"리얼(REAR)팜","tel":"031-964-0085","addr":"경기도 고양시 덕양구 벽제동 512-49번지 상곡마을다세대주택","indutype":"보건위생 - 의료용품","category":"beauty"}]},{"lat":"37.72060137","long":"126.90541798","imageIndex":13,"items":[{"name":"신기한토르마린(찜질방)","tel":"031-962-0279","addr":"경기도 고양시 덕양구 벽제동 394-1번지","indutype":"보건위생 - 사우나","category":"beauty"}]},{"lat":"37.708769625","long":"126.90285919","imageIndex":13,"items":[{"name":"아이모드안경원","tel":"031-969-2580","addr":"경기도 고양시 덕양구 벽제동","indutype":"보건위생 - 안경","category":"beauty"}]},{"lat":"37.712980461","long":"126.90689096","imageIndex":13,"items":[{"name":"이즈헤어","tel":"031-962-1868","addr":"경기도 고양시 덕양구 벽제동","indutype":"보건위생 - 미용원","category":"beauty"}]},{"lat":"37.701212882","long":"126.90563614","imageIndex":13,"items":[{"name":"우보농장","tel":"031-969-7885","addr":"경기도 고양시 덕양구 벽제동 219-1번지","indutype":"레저업소 - 기타레져업소","category":"leisure"}]},{"lat":"37.713738652","long":"126.89794178","imageIndex":13,"items":[{"name":"한별레저주식회사","tel":"031-963-7707","addr":"경기도 고양시 덕양구 벽제동 316-7번지","indutype":"레저업소 - 골프연습장","category":"leisure"}]},{"lat":"37.729677504","long":"126.90972801","imageIndex":7,"items":[{"name":"장단상회","tel":"031-963-9805","addr":"경기도 고양시 덕양구 벽제동","indutype":"유통업 영리 - 슈퍼마켓","category":"mart"}]},{"lat":"37.712980461","long":"126.90689096","imageIndex":7,"items":[{"name":"풍림아이원마트","tel":"031-962-9712","addr":"경기도 고양시 덕양구 벽제동","indutype":"유통업 영리 - 슈퍼마켓","category":"mart"}]},{"lat":"37.726261137","long":"126.90755441","imageIndex":7,"items":[{"name":"희망슈퍼","tel":"031-962-9555","addr":"경기도 고양시 덕양구 벽제동 547-3번지","indutype":"유통업 영리 - 슈퍼마켓","category":"mart"}]},{"lat":"37.718650506","long":"126.89978359","imageIndex":5,"items":[{"name":"호텔 린","tel":"031-964-0988","addr":"경기도 고양시 덕양구 벽제동 433-1번지","indutype":"숙박업 - 여관/기타숙박업","category":"hotel"}]}]