[{"lat":"37.816806799","long":"126.80062604","imageIndex":4,"items":[{"name":"그라찌에파주두원공대파주캠퍼스점","tel":"031-1111-1111","addr":"경기도 파주시 파주읍 봉암리 산114-1번지","indutype":"일반휴게음식 - 서양음식","category":"restaurant"}]},{"lat":"37.817085744","long":"126.80573592","imageIndex":4,"items":[{"name":"다담다어시장","tel":"031-000-0000","addr":"경기도 파주시 파주읍 봉암리 63-12번지","indutype":"일반휴게음식 - 일반한식","category":"restaurant"}]},{"lat":"37.82099949","long":"126.79223271","imageIndex":4,"items":[{"name":"도담한식뷔페","tel":"031-952-8546","addr":"경기도 파주시 파주읍 봉암리 439-12번지","indutype":"일반휴게음식 - 일반한식","category":"restaurant"},{"name":"풍년식당","tel":"031-111-1111","addr":"경기도 파주시 파주읍 봉암리 439-12번지","indutype":"일반휴게음식 - 일반한식","category":"restaurant"}]},{"lat":"37.815334031","long":"126.79817701","imageIndex":4,"items":[{"name":"두원식당","tel":"031-952-8782","addr":"경기도 파주시 파주읍 봉암리 224-5번지","indutype":"일반휴게음식 - 일반한식","category":"restaurant"},{"name":"신미불닭","tel":"031-953-1201","addr":"경기도 파주시 파주읍 봉암리 224-5번지","indutype":"일반휴게음식 - 스넥","category":"restaurant"}]},{"lat":"37.832389293","long":"126.79842524","imageIndex":4,"items":[{"name":"보리내음","tel":"031-952-5751","addr":"경기도 파주시 파주읍 봉암리 319번지","indutype":"일반휴게음식 - 일반한식","category":"restaurant"}]},{"lat":"37.815414543","long":"126.79784744","imageIndex":4,"items":[{"name":"잇팅","tel":"031-952-5020","addr":"경기도 파주시 파주읍 봉암리 222-2번지","indutype":"일반휴게음식 - 서양음식","category":"restaurant"}]},{"lat":"37.831891471","long":"126.79200864","imageIndex":4,"items":[{"name":"장가네 파주콩 향토손두부","tel":"031-947-6254","addr":"경기도 파주시 파주읍 봉암리 1269-4번지","indutype":"일반휴게음식 - 일반한식","category":"restaurant"}]},{"lat":"37.814472691","long":"126.79506768","imageIndex":4,"items":[{"name":"조세핀(Josephine)","tel":"031-123-4567","addr":"경기도 파주시 파주읍 봉암리 519-2번지","indutype":"일반휴게음식 - 서양음식","category":"restaurant"}]},{"lat":"37.814388791","long":"126.793478","imageIndex":4,"items":[{"name":"카페 퐁당","tel":"031-0000-0000","addr":"경기도 파주시 파주읍 봉암리 519-39번지","indutype":"일반휴게음식 - 서양음식","category":"restaurant"}]},{"lat":"37.833002015","long":"126.79334589","imageIndex":4,"items":[{"name":"파주석갈비","tel":"031-953-5813","addr":"경기도 파주시 파주읍 봉암리 332-2번지","indutype":"일반휴게음식 - 일반한식","category":"restaurant"}]},{"lat":"37.8309701123","long":"126.7857296749","imageIndex":4,"items":[{"name":"한화호텔앤드리조트 (주) 파주에너지서비스","tel":"","addr":"경기도 파주시 파주읍 봉암리 1338번지","indutype":"일반휴게음식 - 위탁급식업","category":"restaurant"}]},{"lat":"37.81522101","long":"126.79537222","imageIndex":4,"items":[{"name":"행복칼국수","tel":"031-8035-5669","addr":"경기도 파주시 파주읍 봉암리 516-2번지","indutype":"일반휴게음식 - 일반한식","category":"restaurant"}]}]