[{"lat":"37.239272837","long":"127.05525243","imageIndex":8,"items":[{"name":"경희두드림한의원 수원점","tel":"031-202-0365","addr":"경기도 수원시 영통구 망포동 380-1번지 엘지프라자 203호","indutype":"의원 - 한의원","category":"medical"},{"name":"아이사랑의원","tel":"031-273-2114","addr":"경기도 수원시 영통구 망포동 380-1번지 엘지프라자 3층","indutype":"의원 - 의원","category":"medical"},{"name":"엘지약국","tel":"031-202-1207","addr":"경기도 수원시 영통구 망포동 380-1번지 엘지프라자 106호","indutype":"약국 - 약국","category":"medical"},{"name":"이향주내과","tel":"031-273-7445","addr":"경기도 수원시 영통구 망포동 380-1번지 LG프라자 3층","indutype":"의원 - 의원","category":"medical"}]},{"lat":"37.238325952","long":"127.05703238","imageIndex":8,"items":[{"name":"경희온담한의원","tel":"031-205-0310","addr":"경기도 수원시 영통구 망포동 559-5번지 델타빌딩 3층","indutype":"의원 - 한의원","category":"medical"},{"name":"참사랑동물병원","tel":"031-205-0078","addr":"경기도 수원시 영통구 망포동 559-5번지 델타빌딩 104동 105호","indutype":"기타의료기관 - 동물병원","category":"medical"}]},{"lat":"37.237432428","long":"127.06022099","imageIndex":8,"items":[{"name":"금당한약국","tel":"031-202-5426","addr":"경기도 수원시 영통구 망포동 483번지 2층","indutype":"약국 - 약국","category":"medical"}]},{"lat":"37.241329428","long":"127.04992313","imageIndex":8,"items":[{"name":"기린약국","tel":"031-204-3336","addr":"경기도 수원시 영통구 망포동 255-2번지 국제프라자 103호","indutype":"약국 - 약국","category":"medical"},{"name":"블리스치과의원","tel":"031-205-7522","addr":"경기도 수원시 영통구 망포동 255-2번지 국제프라자 202, 203호","indutype":"의원 - 치과의원","category":"medical"},{"name":"연세마리소아청소년과의원","tel":"031-204-5705","addr":"경기도 수원시 영통구 망포동 255-2번지 국제프라자 303호","indutype":"의원 - 의원","category":"medical"},{"name":"튼튼모아한의원","tel":"031-204-1191","addr":"경기도 수원시 영통구 망포동 255-2번지 국제프라자 3층 301,302호","indutype":"의원 - 한의원","category":"medical"}]},{"lat":"37.239578705","long":"127.05633454","imageIndex":8,"items":[{"name":"김경희산부인과","tel":"031-203-3585","addr":"경기도 수원시 영통구 망포동 386번지 센트럴타워 403호","indutype":"의원 - 의원","category":"medical"},{"name":"동수원종합동물병원","tel":"031-206-7579","addr":"경기도 수원시 영통구 망포동 386번지 센트럴타워 110호","indutype":"기타의료기관 - 동물병원","category":"medical"},{"name":"숨쉬는한의원","tel":"031-548-2350","addr":"경기도 수원시 영통구 망포동 386번지 센트럴타워 301호","indutype":"의원 - 한의원","category":"medical"},{"name":"신영통 웰빙약국","tel":"031-204-1159","addr":"경기도 수원시 영통구 망포동 386번지 센트럴타워 4층 402-2호","indutype":"약국 - 약국","category":"medical"},{"name":"신영통삼성내과","tel":"031-273-0012","addr":"경기도 수원시 영통구 망포동 386번지 신영통센트럴타워 401호","indutype":"의원 - 의원","category":"medical"},{"name":"신영통웰빙약국","tel":"031-204-1159","addr":"경기도 수원시 영통구 망포동 386번지 센트럴타워 402-2","indutype":"약국 - 약국","category":"medical"},{"name":"연세꿈스의원","tel":"031-203-8278","addr":"경기도 수원시 영통구 망포동 386번지 센트럴타워 405호","indutype":"의원 - 의원","category":"medical"},{"name":"영통주니어치과의원","tel":"031-204-0061","addr":"경기도 수원시 영통구 망포동 386번지 센트럴타워 2층 207호","indutype":"의원 - 치과의원","category":"medical"},{"name":"웰치과의원","tel":"031-204-2835","addr":"경기도 수원시 영통구 망포동 386번지 센트럴타워 4층 404호","indutype":"의원 - 치과의원","category":"medical"},{"name":"필한의원","tel":"031-203-0120","addr":"경기도 수원시 영통구 망포동 386번지 신영통센트럴타워 408호","indutype":"의원 - 한의원","category":"medical"}]},{"lat":"37.237630856","long":"127.05980417","imageIndex":8,"items":[{"name":"늘푸른치과","tel":"031-206-2885","addr":"경기도 수원시 영통구 망포동 485-16번지 남도빌딩 301호","indutype":"의원 - 치과의원","category":"medical"}]},{"lat":"37.241154266","long":"127.05902919","imageIndex":8,"items":[{"name":"닥터에이스","tel":"031-203-7501","addr":"경기도 수원시 영통구 망포동 417-2번지","indutype":"기타의료기관 - 동물병원","category":"medical"},{"name":"서울미소치과의원","tel":"031-203-2858","addr":"경기도 수원시 영통구 망포동 417-2번지 301호","indutype":"의원 - 치과의원","category":"medical"}]},{"lat":"37.245048158","long":"127.05592139","imageIndex":8,"items":[{"name":"든든한약국","tel":"031-203-3830","addr":"경기도 수원시 영통구 망포동 322-3번지 골든스퀘어 114호","indutype":"약국 - 약국","category":"medical"},{"name":"마루약국","tel":"031-206-1118","addr":"경기도 수원시 영통구 망포동 322-3번지 골든스퀘어 408호","indutype":"약국 - 약국","category":"medical"},{"name":"마법의손에스테틱의원","tel":"031-5766-6012","addr":"경기도 수원시 영통구 망포동 322-3번지 골든스퀘어 3층 309,310,310-1,311호","indutype":"의원 - 의원","category":"medical"},{"name":"마법의손의원","tel":"070-4495-7175","addr":"경기도 수원시 영통구 망포동 322-3번지 골든스퀘어 301호","indutype":"의원 - 의원","category":"medical"},{"name":"봄소아청소년과","tel":"031-204-0365","addr":"경기도 수원시 영통구 망포동 322-3번지 골든스퀘어 505호","indutype":"의원 - 의원","category":"medical"},{"name":"새마음정신겅강의학과의원","tel":"031-203-0675","addr":"경기도 수원시 영통구 망포동 322-3번지 골든스퀘어 502호","indutype":"의원 - 의원","category":"medical"},{"name":"서울연치과","tel":"031-206-2804","addr":"경기도 수원시 영통구 망포동 322-3번지 골든스퀘어 205호","indutype":"의원 - 치과의원","category":"medical"},{"name":"연세씨앤에스(C&S)재활의학과의원","tel":"031-202-3875","addr":"경기도 수원시 영통구 망포동 322-3번지 골든스퀘어 501호","indutype":"의원 - 의원","category":"medical"},{"name":"정마루약국","tel":"031-0000-0000","addr":"경기도 수원시 영통구 망포동 덕영대로1502골든스퀘어403호","indutype":"약국 - 약국","category":"medical"},{"name":"지성플러스치과의원","tel":"031-202-2879","addr":"경기도 수원시 영통구 망포동 322-3번지 골든스퀘어 503호","indutype":"의원 - 치과의원","category":"medical"},{"name":"차앤박산부인과의원","tel":"031-273-7575","addr":"경기도 수원시 영통구 망포동 322-3번지 골든스퀘어 409,410호","indutype":"의원 - 의원","category":"medical"},{"name":"최안과의원","tel":"031-238-3484","addr":"경기도 수원시 영통구 망포동 322-3번지 골든스케어 4층 404호","indutype":"의원 - 의원","category":"medical"},{"name":"한스클리닉(의원)","tel":"031-206-1212","addr":"경기도 수원시 영통구 망포동 322-3번지 골든스퀘어 410-1,411호","indutype":"의원 - 의원","category":"medical"}]},{"lat":"37.238020181","long":"127.05574743","imageIndex":8,"items":[{"name":"바른뿌리한의원","tel":"031-273-1075","addr":"경기도 수원시 영통구 망포동 556-6번지 망포중학교 402호","indutype":"의원 - 한의원","category":"medical"}]},{"lat":"37.241217048","long":"127.05963782","imageIndex":8,"items":[{"name":"봄빛약국","tel":"031-204-7996","addr":"경기도 수원시 영통구 망포동 417-26번지 비층 3호","indutype":"약국 - 약국","category":"medical"},{"name":"영통아이언소아청소년과의원","tel":"031-548-2925","addr":"경기도 수원시 영통구 망포동 417-26번지 201호","indutype":"의원 - 의원","category":"medical"}]},{"lat":"37.241849939","long":"127.05491611","imageIndex":8,"items":[{"name":"새수원의원","tel":"031-204-0018","addr":"경기도 수원시 영통구 망포동 369-3,2층","indutype":"의원 - 의원","category":"medical"}]},{"lat":"37.237857579","long":"127.05667142","imageIndex":8,"items":[{"name":"서울다온치과","tel":"031-206-7527","addr":"경기도 수원시 영통구 망포동 558번지 신영통알파빌딩","indutype":"의원 - 치과의원","category":"medical"},{"name":"연세참빛안과의원","tel":"031-273-7892","addr":"경기도 수원시 영통구 망포동 558번지 알파빌딩 301호","indutype":"의원 - 의원","category":"medical"}]},{"lat":"37.240822653","long":"127.05516335","imageIndex":8,"items":[{"name":"서울예인치과의원","tel":"031-204-7928","addr":"경기도 수원시 영통구 망포동 399-4번지 3층","indutype":"의원 - 치과의원","category":"medical"}]},{"lat":"37.238885293","long":"127.05547756","imageIndex":8,"items":[{"name":"솔이비인후과의원","tel":"031-202-0079","addr":"경기도 수원시 영통구 망포동 544-11번지 망포프라자 303호","indutype":"의원 - 의원","category":"medical"},{"name":"슬림약국","tel":"031-206-2330","addr":"경기도 수원시 영통구 망포동 544-11번지 망포프라자 111동 112호","indutype":"약국 - 약국","category":"medical"},{"name":"신영통부부한의원","tel":"031-273-0061","addr":"경기도 수원시 영통구 망포동 544-11번지 망포프라자 2층","indutype":"의원 - 한의원","category":"medical"},{"name":"유엘의원","tel":"031-203-0037","addr":"경기도 수원시 영통구 망포동 544-11번지 망포프라자 3층 302호","indutype":"의원 - 의원","category":"medical"},{"name":"행복을주는치과의원","tel":"031-206-7227","addr":"경기도 수원시 영통구 망포동 544-11번지 망포프라자 301호","indutype":"의원 - 치과의원","category":"medical"}]},{"lat":"37.237244176","long":"127.05819235","imageIndex":8,"items":[{"name":"신영통동물병원","tel":"031-204-9006","addr":"경기도 수원시 영통구 망포동 570-5번지","indutype":"기타의료기관 - 동물병원","category":"medical"}]},{"lat":"37.239326754","long":"127.05557929","imageIndex":8,"items":[{"name":"압구정스마일치과의원","tel":"031-205-7528","addr":"경기도 수원시 영통구 망포동 383-1번지 3층","indutype":"의원 - 치과의원","category":"medical"},{"name":"햇살나무한의원","tel":"031-202-8575","addr":"경기도 수원시 영통구 망포동 383-1번지 2층 201호","indutype":"의원 - 한의원","category":"medical"}]},{"lat":"37.237270351","long":"127.05999548","imageIndex":8,"items":[{"name":"연세가정의학과","tel":"031-206-7510","addr":"경기도 수원시 영통구 망포동 483-2번지 2층 사무실 2층","indutype":"의원 - 의원","category":"medical"}]},{"lat":"37.237765542","long":"127.06077345","imageIndex":8,"items":[{"name":"영통효요양병원","tel":"031-205-0011","addr":"경기도 수원시 영통구 망포동 484번지","indutype":"병원 - 병원","category":"medical"},{"name":"영통효요양병원","tel":"031-205-0011","addr":"경기도 수원시 영통구 망포동 484번지","indutype":"병원 - 병원","category":"medical"}]},{"lat":"37.237487737","long":"127.05758398","imageIndex":8,"items":[{"name":"와이치과","tel":"031-205-2070","addr":"경기도 수원시 영통구 망포동 569-3번지 유림프라자 201호","indutype":"의원 - 치과의원","category":"medical"}]},{"lat":"37.239300307","long":"127.05424945","imageIndex":8,"items":[{"name":"정약국","tel":"031-206-8929","addr":"경기도 수원시 영통구 망포동 378번지 정석그린프라자 106호","indutype":"약국 - 약국","category":"medical"},{"name":"차소아청소년과의원","tel":"031-273-3033","addr":"경기도 수원시 영통구 망포동 378번지 정석그린프라자 404호","indutype":"의원 - 의원","category":"medical"}]},{"lat":"37.238632782","long":"127.05597325","imageIndex":8,"items":[{"name":"참도움한의원","tel":"031-203-8875","addr":"경기도 수원시 영통구 망포동 542-5번지 2층","indutype":"의원 - 한의원","category":"medical"}]},{"lat":"37.242936065","long":"127.04224907","imageIndex":8,"items":[{"name":"캐슬약국","tel":"031-204-5949","addr":"경기도 수원시 영통구 망포동 760번지 영통아이파크캐슬2단지 상가동 108호","indutype":"약국 - 약국","category":"medical"}]},{"lat":"37.239300086","long":"127.05475658","imageIndex":8,"items":[{"name":"푸른솔약국","tel":"031-273-7557","addr":"경기도 수원시 영통구 망포동 381-2번지 1층","indutype":"약국 - 약국","category":"medical"}]},{"lat":"37.243016221","long":"127.04497652","imageIndex":8,"items":[{"name":"한성규치과의원","tel":"031-206-2875","addr":"경기도 수원시 영통구 망포동 766번지 영통아이파크캐슬1단지 상가 A동 2층 204-206호","indutype":"의원 - 치과의원","category":"medical"}]},{"lat":"37.238578333","long":"127.0568297","imageIndex":8,"items":[{"name":"해맑은치과","tel":"031-224-0028","addr":"경기도 수원시 영통구 망포동 557-1번지 효성빌딩 301호","indutype":"의원 - 치과의원","category":"medical"}]},{"lat":"37.237883883","long":"127.05824917","imageIndex":8,"items":[{"name":"현대정형외과","tel":"031-202-7522","addr":"경기도 수원시 영통구 망포동 534-1번지 1층","indutype":"의원 - 의원","category":"medical"}]}]