[{"lat":"37.293235846","long":"127.02564053","imageIndex":0,"items":[{"name":"금탑오토바이","tel":"031-253-0417","addr":"경기도 수원시 장안구 연무동 258-13번지","indutype":"자동차판매 - 이륜차판매","category":"car"}]},{"lat":"37.292711707","long":"127.03260999","imageIndex":0,"items":[{"name":"동신카센타","tel":"031-251-5800","addr":"경기도 수원시 장안구 연무동 245-17번지","indutype":"자동차정비 유지 - 자동차정비","category":"car"}]},{"lat":"37.29987537","long":"127.03046984","imageIndex":0,"items":[{"name":"에코파킹","tel":"","addr":"경기도 수원시 장안구 연무동 6-4번지","indutype":"자동차정비 유지 - 주차장","category":"car"},{"name":"에코파킹","tel":"031-0000-0000","addr":"경기도 수원시 장안구 연무동 6-4번지","indutype":"자동차정비 유지 - 주차장","category":"car"},{"name":"에코파킹","tel":"02-0000-0000","addr":"경기도 수원시 장안구 연무동 6-4번지","indutype":"자동차정비 유지 - 주차장","category":"car"}]},{"lat":"37.294037759","long":"127.02564077","imageIndex":0,"items":[{"name":"연무주차장","tel":"031-247-8269","addr":"경기도 수원시 장안구 연무동 250-18,19","indutype":"자동차정비 유지 - 주차장","category":"car"}]},{"lat":"37.293794706","long":"127.02444524","imageIndex":0,"items":[{"name":"오토카서비스","tel":"031-245-5782","addr":"경기도 수원시 장안구 연무동 251-10번지","indutype":"자동차정비 유지 - 자동차정비","category":"car"}]},{"lat":"37.294432918","long":"127.03158437","imageIndex":0,"items":[{"name":"제이티에스엠","tel":"070-5022-4846","addr":"경기도 수원시 장안구 연무동 225-8번지 1층","indutype":"자동차정비 유지 - 자동차부품","category":"car"}]},{"lat":"37.29248724","long":"127.02928299","imageIndex":0,"items":[{"name":"차사랑카센타","tel":"031-257-2131","addr":"경기도 수원시 장안구 연무동 247-13번지","indutype":"자동차정비 유지 - 자동차정비","category":"car"}]},{"lat":"37.294128002","long":"127.02489646","imageIndex":0,"items":[{"name":"팀75","tel":"","addr":"경기도 수원시 장안구 연무동 250-25번지 1층","indutype":"자동차정비 유지 - 카인테리어","category":"car"}]},{"lat":"37.294010828","long":"127.0251107","imageIndex":0,"items":[{"name":"퍼펙트오토클럽","tel":"031-242-4972","addr":"경기도 수원시 장안구 연무동 250-23번지","indutype":"자동차정비 유지 - 자동차정비","category":"car"}]},{"lat":"37.293677496","long":"127.02486249","imageIndex":0,"items":[{"name":"현대오토바이","tel":"031-254-5911","addr":"경기도 수원시 장안구 연무동 251-15번지","indutype":"자동차판매 - 이륜차판매","category":"car"}]}]