[{"lat":"37.246133959","long":"127.29800639","imageIndex":4,"items":[{"name":"(주)신세계푸드 총신대신학대학원","tel":"02-3397-6176","addr":"경기도 용인시 처인구 양지면 제일리 산41-11번지 1층","indutype":"일반휴게음식 - 위탁급식업","category":"restaurant"},{"name":"준푸드트럭","tel":"","addr":"경기도 용인시 처인구 양지면 제일리 산41-11번지 (총신대학교제3생활관앞)","indutype":"일반휴게음식 - 일반한식","category":"restaurant"}]},{"lat":"37.216585388","long":"127.32036755","imageIndex":4,"items":[{"name":"(주)조이에프앤비항아리보쌈","tel":"031-323-3236","addr":"경기도 용인시 처인구 양지면 평창리 642-1번지 1층","indutype":"일반휴게음식 - 일반한식","category":"restaurant"}]},{"lat":"37.259268356","long":"127.25633744","imageIndex":4,"items":[{"name":"(주)케이아이엔통상-용인랜드","tel":"031-334-2009","addr":"경기도 용인시 처인구 양지면 대대리 294","indutype":"일반휴게음식 - 일반한식","category":"restaurant"}]},{"lat":"37.235715009","long":"127.28445404","imageIndex":4,"items":[{"name":"B.H.C","tel":"031-335-9983","addr":"경기도 용인시 처인구 양지면 양지리598-10","indutype":"일반휴게음식 - 일반한식","category":"restaurant"}]},{"lat":"37.234356096","long":"127.28376158","imageIndex":4,"items":[{"name":"BBQ치킨","tel":"031-338-9292","addr":"경기도 용인시 처인구 양지면 양지리 573-5번지","indutype":"일반휴게음식 - 스넥","category":"restaurant"}]},{"lat":"37.235522087","long":"127.28600846","imageIndex":4,"items":[{"name":"Caffe푸른나래","tel":"031-338-2035","addr":"경기도 용인시 처인구 양지면 양지리 456-6번지 1층","indutype":"일반휴게음식 - 서양음식","category":"restaurant"}]},{"lat":"37.262159006","long":"127.26536561","imageIndex":4,"items":[{"name":"가배소","tel":"","addr":"경기도 용인시 처인구 양지면 대대리 409-15번지","indutype":"일반휴게음식 - 서양음식","category":"restaurant"}]},{"lat":"37.233326542","long":"127.27708662","imageIndex":4,"items":[{"name":"갈릴리마을(오복닭한마리)","tel":"031-338-1236","addr":"경기도 용인시 처인구 양지면 양지리 648번지 1층","indutype":"일반휴게음식 - 일반한식","category":"restaurant"}]},{"lat":"37.234638639","long":"127.28239908","imageIndex":4,"items":[{"name":"개런티","tel":"031-328-2888","addr":"경기도 용인시 처인구 양지면 양지리 630-8번지","indutype":"일반휴게음식 - 서양음식","category":"restaurant"}]},{"lat":"37.232520521","long":"127.2864818","imageIndex":4,"items":[{"name":"개성집","tel":"031-333-9237","addr":"경기도 용인시 처인구 양지면 남곡리 130-1번지","indutype":"일반휴게음식 - 일반한식","category":"restaurant"}]},{"lat":"37.226249379","long":"127.29389503","imageIndex":4,"items":[{"name":"거농회집2호점","tel":"031-335-2425","addr":"경기도 용인시 처인구 양지면 남곡리 103-2번지 1층","indutype":"일반휴게음식 - 일식·회집","category":"restaurant"}]},{"lat":"37.232387038","long":"127.28578264","imageIndex":4,"items":[{"name":"거래처","tel":"031-338-1101","addr":"경기도 용인시 처인구 양지면 남곡리 133-6번지 2층","indutype":"일반휴게음식 - 스넥","category":"restaurant"}]},{"lat":"37.225527659","long":"127.28683871","imageIndex":4,"items":[{"name":"고구마","tel":"031-338-9291","addr":"경기도 용인시 처인구 양지면 남곡리 524-8번지 1층","indutype":"일반휴게음식 - 일반한식","category":"restaurant"}]},{"lat":"37.228889473","long":"127.29017542","imageIndex":4,"items":[{"name":"고기소풍","tel":"031-322-4569","addr":"경기도 용인시 처인구 양지면 남곡리 123-3번지 1층","indutype":"일반휴게음식 - 일반한식","category":"restaurant"}]},{"lat":"37.235798184","long":"127.27586723","imageIndex":4,"items":[{"name":"고기언덕","tel":"031-334-5253","addr":"경기도 용인시 처인구 양지면 양지리 695번지","indutype":"일반휴게음식 - 일반한식","category":"restaurant"}]},{"lat":"37.227220446","long":"127.27189255","imageIndex":4,"items":[{"name":"고덕칡냉면,전주콩나물국밥","tel":"031-333-9979","addr":"경기도 용인시 처인구 양지면 남곡리 242-3번지","indutype":"일반휴게음식 - 일반한식","category":"restaurant"},{"name":"시골집밥","tel":"031-335-3752","addr":"경기도 용인시 처인구 양지면 남곡리 242-3번지","indutype":"일반휴게음식 - 일반한식","category":"restaurant"}]},{"lat":"37.232528532","long":"127.27539343","imageIndex":4,"items":[{"name":"고래실만두","tel":"031-332-4707","addr":"경기도 용인시 처인구 양지면 양지리 545번지 양지고속관광 A동","indutype":"일반휴게음식 - 일반한식","category":"restaurant"}]},{"lat":"37.224801896","long":"127.25729248","imageIndex":4,"items":[{"name":"고박사냉면","tel":"031-332-1423","addr":"경기도 용인시 처인구 양지면 송문리 151번지","indutype":"일반휴게음식 - 일반한식","category":"restaurant"}]},{"lat":"37.228886384","long":"127.29875047","imageIndex":4,"items":[{"name":"고향보리밥","tel":"031-336-0250","addr":"경기도 용인시 처인구 양지면 제일리 662-1번지","indutype":"일반휴게음식 - 일반한식","category":"restaurant"}]},{"lat":"37.247325617","long":"127.262395","imageIndex":4,"items":[{"name":"고향식당","tel":"031-322-7030","addr":"경기도 용인시 처인구 양지면 주북리89-4","indutype":"일반휴게음식 - 일반한식","category":"restaurant"}]},{"lat":"37.229193329","long":"127.29120198","imageIndex":4,"items":[{"name":"광주리들밥","tel":"031-321-6500","addr":"경기도 용인시 처인구 양지면 양지리 138-63번지","indutype":"일반휴게음식 - 일반한식","category":"restaurant"},{"name":"흥남커피","tel":"031-339-1366","addr":"경기도 용인시 처인구 양지면 양지리 138-63번지 3층","indutype":"일반휴게음식 - 서양음식","category":"restaurant"}]},{"lat":"37.236276084","long":"127.28720583","imageIndex":4,"items":[{"name":"교동두부","tel":"031-321-3332","addr":"경기도 용인시 처인구 양지면 양지리 451-1번지","indutype":"일반휴게음식 - 일반한식","category":"restaurant"}]},{"lat":"37.234777865","long":"127.28448436","imageIndex":4,"items":[{"name":"국수나무양지점","tel":"031-338-9229","addr":"경기도 용인시 처인구 양지면 양지리 590-1번지 지니Plus 나동 1층","indutype":"일반휴게음식 - 일반한식","category":"restaurant"},{"name":"불타는깡통","tel":"031-321-9259","addr":"경기도 용인시 처인구 양지면 양지리 590-1번지","indutype":"일반휴게음식 - 일반한식","category":"restaurant"},{"name":"신전떡볶이","tel":"031-0000-0000","addr":"경기도 용인시 처인구 양지면 양지리 590-1번지","indutype":"일반휴게음식 - 스넥","category":"restaurant"},{"name":"요거프레소 용인양지점","tel":"031-333-0046","addr":"경기도 용인시 처인구 양지면 양지리 590-1번지","indutype":"일반휴게음식 - 서양음식","category":"restaurant"}]},{"lat":"37.234941975","long":"127.2836736","imageIndex":4,"items":[{"name":"굽네치킨 용인양지점","tel":"031-338-8595","addr":"경기도 용인시 처인구 양지면 양지리 592-7번지 1층 1,2호","indutype":"일반휴게음식 - 스넥","category":"restaurant"},{"name":"부흥식당","tel":"031-335-5435","addr":"경기도 용인시 처인구 양지면 양지리 592-7","indutype":"일반휴게음식 - 일반한식","category":"restaurant"}]},{"lat":"37.228413348","long":"127.31455773","imageIndex":4,"items":[{"name":"굿루쓰(Good Luz)","tel":"031-322-1328","addr":"경기도 용인시 처인구 양지면 평창리 391번지 1층","indutype":"일반휴게음식 - 서양음식","category":"restaurant"}]},{"lat":"37.244025402","long":"127.28323394","imageIndex":4,"items":[{"name":"금륜사가는길","tel":"031-338-1101","addr":"경기도 용인시 처인구 양지면 양지리 314-4번지 3층","indutype":"일반휴게음식 - 서양음식","category":"restaurant"}]},{"lat":"37.234715596","long":"127.28414606","imageIndex":4,"items":[{"name":"김가네","tel":"031-321-9468","addr":"경기도 용인시 처인구 양지면 양지리 591-3","indutype":"일반휴게음식 - 스넥","category":"restaurant"},{"name":"커피자루","tel":"031-323-7509","addr":"경기도 용인시 처인구 양지면 양지리 591-3번지 1층","indutype":"일반휴게음식 - 일반한식","category":"restaurant"}]},{"lat":"37.254881409","long":"127.23836639","imageIndex":4,"items":[{"name":"김가네숯불닭갈비","tel":"031-332-9990","addr":"경기도 용인시 처인구 양지면 주북리 1110-9번지","indutype":"일반휴게음식 - 일반한식","category":"restaurant"},{"name":"수정장어","tel":"031-332-0092","addr":"경기도 용인시 처인구 양지면 주북리 1110-9번지 1층","indutype":"일반휴게음식 - 일반한식","category":"restaurant"},{"name":"수정장어","tel":"031-332-0092","addr":"경기도 용인시 처인구 양지면 주북리 1110-9번지","indutype":"일반휴게음식 - 일반한식","category":"restaurant"},{"name":"아모아(AMOIR)","tel":"031-000-0000","addr":"경기도 용인시 처인구 양지면 주북리 1110-9번지 1층 103호,104호","indutype":"일반휴게음식 - 서양음식","category":"restaurant"},{"name":"추억속으로","tel":"","addr":"경기도 용인시 처인구 양지면 주북리 1110-9번지 3층 306- 309호","indutype":"일반휴게음식 - 일반한식","category":"restaurant"}]},{"lat":"37.229718687","long":"127.29006588","imageIndex":4,"items":[{"name":"김명자소머리국밥","tel":"031-336-3377","addr":"경기도 용인시 처인구 양지면 양지리 138-18번지 밥향","indutype":"일반휴게음식 - 일반한식","category":"restaurant"}]},{"lat":"37.231076424","long":"127.28750182","imageIndex":4,"items":[{"name":"김밥마을만두나라","tel":"031-336-3150","addr":"경기도 용인시 처인구 양지면 남곡리 124-5번지 1층","indutype":"일반휴게음식 - 일반한식","category":"restaurant"}]},{"lat":"37.230969686","long":"127.29798109","imageIndex":4,"items":[{"name":"김순남청국장","tel":"031-333-1243","addr":"경기도 용인시 처인구 양지면 양지리 120-27번지 A동","indutype":"일반휴게음식 - 일반한식","category":"restaurant"},{"name":"양평해장국양지점","tel":"031-321-3533","addr":"경기도 용인시 처인구 양지면 양지리 120-27번지 A동","indutype":"일반휴게음식 - 일반한식","category":"restaurant"},{"name":"콩나물향기","tel":"031-338-0069","addr":"경기도 용인시 처인구 양지면 양지리 120-27번지","indutype":"일반휴게음식 - 일반한식","category":"restaurant"}]},{"lat":"37.233746657","long":"127.29725943","imageIndex":4,"items":[{"name":"김할머니원조국수집","tel":"031-321-7486","addr":"경기도 용인시 처인구 양지면 양지리 110-3","indutype":"일반휴게음식 - 일반한식","category":"restaurant"}]},{"lat":"37.23418709","long":"127.2828369","imageIndex":4,"items":[{"name":"깨순이김밥","tel":"031-322-4630","addr":"경기도 용인시 처인구 양지면 양지리 568-1번지 1층","indutype":"일반휴게음식 - 일반한식","category":"restaurant"},{"name":"맘스터치 용인양지점","tel":"031-333-7970","addr":"경기도 용인시 처인구 양지면 양지리 568-1번지 106호 105호,106호","indutype":"일반휴게음식 - 서양음식","category":"restaurant"}]},{"lat":"37.233387578","long":"127.28561734","imageIndex":4,"items":[{"name":"꼬꼬씨(C)참숯불닭갈비","tel":"031-338-5592","addr":"경기도 용인시 처인구 양지면 양지리 471-6번지 오성산낙지 가동 1층","indutype":"일반휴게음식 - 일반한식","category":"restaurant"},{"name":"양지상회","tel":"031-322-2202","addr":"경기도 용인시 처인구 양지면 양지리 471-6번지 다,라동 1층","indutype":"일반휴게음식 - 일반한식","category":"restaurant"}]},{"lat":"37.235689958","long":"127.28362003","imageIndex":4,"items":[{"name":"꼬봉이네","tel":"031-338-4496","addr":"경기도 용인시 처인구 양지면 양지리 596-3번지 1층","indutype":"일반휴게음식 - 스넥","category":"restaurant"}]},{"lat":"37.235133164","long":"127.2828404","imageIndex":4,"items":[{"name":"꽈배기마법사","tel":"031-339-6767","addr":"경기도 용인시 처인구 양지면 양지리 619-7번지 금빛마을주택 1층","indutype":"일반휴게음식 - 스넥","category":"restaurant"}]},{"lat":"37.236382663","long":"127.29886992","imageIndex":4,"items":[{"name":"나고야","tel":"031-333-8042","addr":"경기도 용인시 처인구 양지면 양지리 102-1번지","indutype":"일반휴게음식 - 일반한식","category":"restaurant"},{"name":"씨엘로","tel":"031-287-8663","addr":"경기도 용인시 처인구 양지면 양지리 102-1번지","indutype":"일반휴게음식 - 서양음식","category":"restaurant"}]},{"lat":"37.237083455","long":"127.27333626","imageIndex":4,"items":[{"name":"나서방샤브샤브칼국수","tel":"031-335-0312","addr":"경기도 용인시 처인구 양지면 양지리 734-2번지","indutype":"일반휴게음식 - 일반한식","category":"restaurant"}]},{"lat":"37.231862484","long":"127.29766904","imageIndex":4,"items":[{"name":"남도한뷔페","tel":"031-336-5535","addr":"경기도 용인시 처인구 양지면 양지리 120-19번지","indutype":"일반휴게음식 - 일반한식","category":"restaurant"},{"name":"소야","tel":"031-338-4050","addr":"경기도 용인시 처인구 양지면 양지리 120-19번지","indutype":"일반휴게음식 - 일반한식","category":"restaurant"}]},{"lat":"37.23466041","long":"127.28461915","imageIndex":4,"items":[{"name":"내가사케","tel":"031-321-8969","addr":"경기도 용인시 처인구 양지면 양지리 589","indutype":"일반휴게음식 - 스넥","category":"restaurant"},{"name":"만지작","tel":"","addr":"경기도 용인시 처인구 양지면 양지리 589번지 1층","indutype":"일반휴게음식 - 일반한식","category":"restaurant"},{"name":"호야","tel":"031-322-0877","addr":"경기도 용인시 처인구 양지면 양지리 589번지 1층","indutype":"일반휴게음식 - 스넥","category":"restaurant"}]},{"lat":"37.230275422","long":"127.28334078","imageIndex":4,"items":[{"name":"네네치킨","tel":"031-322-2570","addr":"경기도 용인시 처인구 양지면 남곡리 156-11번지 1층 102호","indutype":"일반휴게음식 - 스넥","category":"restaurant"}]},{"lat":"37.225136364","long":"127.25678656","imageIndex":4,"items":[{"name":"누나","tel":"031-335-7429","addr":"경기도 용인시 처인구 양지면 송문리405-1","indutype":"일반휴게음식 - 일반한식","category":"restaurant"}]},{"lat":"37.248887018","long":"127.23964392","imageIndex":4,"items":[{"name":"다복식당","tel":"031-332-9969","addr":"경기도 용인시 처인구 양지면 주북리 895-1번지 1층","indutype":"일반휴게음식 - 일반한식","category":"restaurant"}]},{"lat":"37.234915612","long":"127.28339178","imageIndex":4,"items":[{"name":"달나라 허니","tel":"031-328-7676","addr":"경기도 용인시 처인구 양지면 양지리 627-1번지 1층","indutype":"일반휴게음식 - 서양음식","category":"restaurant"}]},{"lat":"37.234162213","long":"127.28192402","imageIndex":4,"items":[{"name":"닭발CLUB","tel":"031-339-2225","addr":"경기도 용인시 처인구 양지면 양지리 566-1번지 1층 일부","indutype":"일반휴게음식 - 일반한식","category":"restaurant"}]},{"lat":"37.234855903","long":"127.27811764","imageIndex":4,"items":[{"name":"담소카페","tel":"031-336-4790","addr":"경기도 용인시 처인구 양지면 양지리 702-2번지","indutype":"일반휴게음식 - 일반한식","category":"restaurant"}]},{"lat":"37.259020164","long":"127.24578541","imageIndex":4,"items":[{"name":"담장너머찻집","tel":"031-718-3488","addr":"경기도 용인시 처인구 양지면 주북리 652번지","indutype":"일반휴게음식 - 서양음식","category":"restaurant"},{"name":"도담도담두부국수","tel":"031-338-2658","addr":"경기도 용인시 처인구 양지면 주북리 652번지 1층","indutype":"일반휴게음식 - 일반한식","category":"restaurant"}]},{"lat":"37.233498278","long":"127.28453595","imageIndex":4,"items":[{"name":"대감집","tel":"031-333-3888","addr":"경기도 용인시 처인구 양지면 양지리 582-3번지","indutype":"일반휴게음식 - 일반한식","category":"restaurant"},{"name":"양지황소곱창","tel":"031-339-3477","addr":"경기도 용인시 처인구 양지면 양지리 582-3번지","indutype":"일반휴게음식 - 일반한식","category":"restaurant"}]},{"lat":"37.234164043","long":"127.28495538","imageIndex":4,"items":[{"name":"대광식당","tel":"031-321-5768","addr":"경기도 용인시 처인구 양지면 양지리 585번지","indutype":"일반휴게음식 - 일반한식","category":"restaurant"},{"name":"왕고집","tel":"031-338-7397","addr":"경기도 용인시 처인구 양지면 양지리 585번지","indutype":"일반휴게음식 - 일반한식","category":"restaurant"}]},{"lat":"37.266850574","long":"127.26254089","imageIndex":4,"items":[{"name":"대대리150","tel":"","addr":"경기도 용인시 처인구 양지면 대대리 150번지 1층","indutype":"일반휴게음식 - 서양음식","category":"restaurant"}]},{"lat":"37.231888076","long":"127.28720062","imageIndex":4,"items":[{"name":"대덕골보쌈칼국수","tel":"031-323-0206","addr":"경기도 용인시 처인구 양지면 남곡리 128-5번지 금복토속음식점 1동 1층","indutype":"일반휴게음식 - 일반한식","category":"restaurant"},{"name":"로커피(RhoCoffee)","tel":"031-000-0000","addr":"경기도 용인시 처인구 양지면 남곡리 128-5번지 1,2층","indutype":"일반휴게음식 - 서양음식","category":"restaurant"}]},{"lat":"37.234553043","long":"127.28048303","imageIndex":4,"items":[{"name":"대박김밥","tel":"031-321-9007","addr":"경기도 용인시 처인구 양지면 양지리 633-1번지 상가","indutype":"일반휴게음식 - 일반한식","category":"restaurant"},{"name":"딱그집","tel":"031-339-9987","addr":"경기도 용인시 처인구 양지면 양지리 633-1번지","indutype":"일반휴게음식 - 일반한식","category":"restaurant"},{"name":"만나식당","tel":"031-338-7025","addr":"경기도 용인시 처인구 양지면 양지리 633-1번지 양지학원 1층 7호","indutype":"일반휴게음식 - 일반한식","category":"restaurant"},{"name":"우리식당","tel":"031-338-2037","addr":"경기도 용인시 처인구 양지면 양지리 633-1번지 1층","indutype":"일반휴게음식 - 일반한식","category":"restaurant"},{"name":"인정국물떡볶이","tel":"031-339-1333","addr":"경기도 용인시 처인구 양지면 양지리 633-1번지 1층","indutype":"일반휴게음식 - 일반한식","category":"restaurant"},{"name":"진마포","tel":"031-338-3971","addr":"경기도 용인시 처인구 양지면 양지리 633-1번지","indutype":"일반휴게음식 - 일반한식","category":"restaurant"},{"name":"큰손돼지국밥","tel":"031-338-4298","addr":"경기도 용인시 처인구 양지면 양지리 633-1번지 양지학원 1층 5호","indutype":"일반휴게음식 - 일반한식","category":"restaurant"}]},{"lat":"37.228499141","long":"127.29867008","imageIndex":4,"items":[{"name":"대흥갈비","tel":"031-338-7628","addr":"경기도 용인시 처인구 양지면 제일리 662-6번지 대흥갈비","indutype":"일반휴게음식 - 일반한식","category":"restaurant"}]},{"lat":"37.230751575","long":"127.28392851","imageIndex":4,"items":[{"name":"더팬(THE PAN)","tel":"031-337-1550","addr":"경기도 용인시 처인구 양지면 남곡리 151-2번지 1층","indutype":"일반휴게음식 - 일반한식","category":"restaurant"}]},{"lat":"37.227472509","long":"127.29845198","imageIndex":4,"items":[{"name":"덕석과구들장","tel":"031-321-3390","addr":"경기도 용인시 처인구 양지면 제일리675-1","indutype":"일반휴게음식 - 일반한식","category":"restaurant"}]},{"lat":"37.234164042","long":"127.28114647","imageIndex":4,"items":[{"name":"도야지껍데기","tel":"031-333-8484","addr":"경기도 용인시 처인구 양지면 양지리 564-1번지","indutype":"일반휴게음식 - 일반한식","category":"restaurant"}]},{"lat":"37.215301741","long":"127.32525167","imageIndex":4,"items":[{"name":"도창골","tel":"031-336-9285","addr":"경기도 용인시 처인구 양지면 평창리 620-4번지","indutype":"일반휴게음식 - 일반한식","category":"restaurant"}]},{"lat":"37.231971436","long":"127.28625437","imageIndex":4,"items":[{"name":"돈가네 양지점","tel":"031-335-2185","addr":"경기도 용인시 처인구 양지면 남곡리 127-14번지 1층","indutype":"일반휴게음식 - 일반한식","category":"restaurant"}]},{"lat":"37.248245615","long":"127.24492804","imageIndex":4,"items":[{"name":"동해바다동태탕용인직영점&한도니왕돌판구","tel":"031-321-0415","addr":"경기도 용인시 처인구 양지면 주북리 939-1번지","indutype":"일반휴게음식 - 일반한식","category":"restaurant"}]},{"lat":"37.234912686","long":"127.28081115","imageIndex":4,"items":[{"name":"동현맛집","tel":"031-338-4388","addr":"경기도 용인시 처인구 양지면 양지리 617-1번지 1층","indutype":"일반휴게음식 - 일반한식","category":"restaurant"}]},{"lat":"37.214557845","long":"127.32044919","imageIndex":4,"items":[{"name":"동화가든","tel":"031-337-2550","addr":"경기도 용인시 처인구 양지면 평창리 650-2번지","indutype":"일반휴게음식 - 일반한식","category":"restaurant"}]},{"lat":"37.235327515","long":"127.28447514","imageIndex":4,"items":[{"name":"둥지만두","tel":"031-338-4147","addr":"경기도 용인시 처인구 양지면 양지리 595-1번지","indutype":"일반휴게음식 - 스넥","category":"restaurant"},{"name":"모듬생찌게방","tel":"031-338-0909","addr":"경기도 용인시 처인구 양지면 양지리 595-1","indutype":"일반휴게음식 - 일반한식","category":"restaurant"}]},{"lat":"37.2355758","long":"127.26256883","imageIndex":4,"items":[{"name":"뒷골농장","tel":"031-323-3727","addr":"경기도 용인시 처인구 양지면 주북리 170-4번지","indutype":"일반휴게음식 - 일반한식","category":"restaurant"}]},{"lat":"37.233803848","long":"127.28486388","imageIndex":4,"items":[{"name":"드루와","tel":"031-338-1101","addr":"경기도 용인시 처인구 양지면 양지리 582번지","indutype":"일반휴게음식 - 일반한식","category":"restaurant"},{"name":"멕시카나치킨","tel":"031-338-2056","addr":"경기도 용인시 처인구 양지면 양지리 582번지","indutype":"일반휴게음식 - 주점","category":"restaurant"},{"name":"양치기소년","tel":"031-332-5552","addr":"경기도 용인시 처인구 양지면 양지리 582번지","indutype":"일반휴게음식 - 일반한식","category":"restaurant"},{"name":"왕돌판고기집","tel":"031-338-0057","addr":"경기도 용인시 처인구 양지면 양지리 582번지","indutype":"일반휴게음식 - 일반한식","category":"restaurant"},{"name":"천지뒷고기","tel":"031-336-8330","addr":"경기도 용인시 처인구 양지면 양지리 582번지","indutype":"일반휴게음식 - 일반한식","category":"restaurant"},{"name":"회롱회롱이자카야","tel":"070-4808-0518","addr":"경기도 용인시 처인구 양지면 양지리 582번지","indutype":"일반휴게음식 - 주점","category":"restaurant"}]},{"lat":"37.226746131","long":"127.2970632","imageIndex":4,"items":[{"name":"들밥","tel":"031-321-6000","addr":"경기도 용인시 처인구 양지면 제일리 670-7번지","indutype":"일반휴게음식 - 일반한식","category":"restaurant"}]},{"lat":"37.23549871","long":"127.28447578","imageIndex":4,"items":[{"name":"또봉이통닭용인양지점","tel":"031-321-7942","addr":"경기도 용인시 처인구 양지면 양지리 596-1번지 1층","indutype":"일반휴게음식 - 일반한식","category":"restaurant"},{"name":"조마루뼈다귀","tel":"031-338-4916","addr":"경기도 용인시 처인구 양지면 양지리 596-1번지","indutype":"일반휴게음식 - 일반한식","category":"restaurant"}]},{"lat":"37.232188867","long":"127.28575936","imageIndex":4,"items":[{"name":"러브레터","tel":"031-338-0337","addr":"경기도 용인시 처인구 양지면 남곡리 133-7번지","indutype":"일반휴게음식 - 서양음식","category":"restaurant"},{"name":"양지석쇠불고기","tel":"031-339-0285","addr":"경기도 용인시 처인구 양지면 남곡리 133-7번지 1층","indutype":"일반휴게음식 - 일반한식","category":"restaurant"}]},{"lat":"37.260185816","long":"127.25284594","imageIndex":4,"items":[{"name":"로뎀숲","tel":"031-338-8389","addr":"경기도 용인시 처인구 양지면 대대리 299번지 용인로뎀파크교회 가동 1층","indutype":"일반휴게음식 - 일반한식","category":"restaurant"}]},{"lat":"37.217829708","long":"127.31322981","imageIndex":4,"items":[{"name":"로드47식당","tel":"031-322-6800","addr":"경기도 용인시 처인구 양지면 평창리 681-10번지 1층 지하","indutype":"일반휴게음식 - 일반한식","category":"restaurant"}]},{"lat":"37.219470034","long":"127.31648135","imageIndex":4,"items":[{"name":"마당","tel":"031-336-4715","addr":"경기도 용인시 처인구 양지면 평창리667-1","indutype":"일반휴게음식 - 일반한식","category":"restaurant"},{"name":"바다향왕코다리","tel":"","addr":"경기도 용인시 처인구 양지면 평창리 667-1번지 외5필지","indutype":"일반휴게음식 - 일반한식","category":"restaurant"}]},{"lat":"37.234217782","long":"127.2850908","imageIndex":4,"items":[{"name":"마초족발","tel":"031-338-8880","addr":"경기도 용인시 처인구 양지면 양지리 586-1번지 2층","indutype":"일반휴게음식 - 일반한식","category":"restaurant"},{"name":"사랑방","tel":"","addr":"경기도 용인시 처인구 양지면 양지리 586-1번지 2층","indutype":"일반휴게음식 - 일반한식","category":"restaurant"},{"name":"야간포차불닭발","tel":"070-7450-4956","addr":"경기도 용인시 처인구 양지면 양지리 586-1번지 2층","indutype":"일반휴게음식 - 일반한식","category":"restaurant"}]},{"lat":"37.259186311","long":"127.29213915","imageIndex":4,"items":[{"name":"만미정","tel":"031-323-2088","addr":"경기도 용인시 처인구 양지면 정수리 36-3번지","indutype":"일반휴게음식 - 일반한식","category":"restaurant"}]},{"lat":"37.266823436","long":"127.33472693","imageIndex":4,"items":[{"name":"맘보카페","tel":"031-337-2429","addr":"경기도 용인시 처인구 양지면 식금리 169-3번지","indutype":"일반휴게음식 - 서양음식","category":"restaurant"}]},{"lat":"37.245992489","long":"127.32131363","imageIndex":4,"items":[{"name":"맛나한식뷔페","tel":"031-337-3976","addr":"경기도 용인시 처인구 양지면 제일리 49-2번지 A동","indutype":"일반휴게음식 - 일반한식","category":"restaurant"}]},{"lat":"37.233884858","long":"127.2810891","imageIndex":4,"items":[{"name":"맛뜨락","tel":"070-7190-0535","addr":"경기도 용인시 처인구 양지면 양지리 563-2번지 거농송암플러스마트 가동 1층","indutype":"일반휴게음식 - 일반한식","category":"restaurant"},{"name":"이모네식당","tel":"","addr":"경기도 용인시 처인구 양지면 양지리 563-2번지 거농송암플러스마트 가동 1층","indutype":"일반휴게음식 - 일반한식","category":"restaurant"}]},{"lat":"37.226662582","long":"127.26348477","imageIndex":4,"items":[{"name":"맛집신코다리네","tel":"031-333-8775","addr":"경기도 용인시 처인구 양지면 송문리 114-1번지","indutype":"일반휴게음식 - 일반한식","category":"restaurant"},{"name":"양지골","tel":"031-337-2717","addr":"경기도 용인시 처인구 양지면 송문리 114-1번지","indutype":"일반휴게음식 - 일반한식","category":"restaurant"}]},{"lat":"37.234135965","long":"127.28539476","imageIndex":4,"items":[{"name":"맥주세일용인양지점","tel":"031-321-8989","addr":"경기도 용인시 처인구 양지면 양지리 469-2번지","indutype":"일반휴게음식 - 주점","category":"restaurant"},{"name":"본죽","tel":"031-334-6287","addr":"경기도 용인시 처인구 양지면 양지리 469-2번지 외1필지","indutype":"일반휴게음식 - 일반한식","category":"restaurant"},{"name":"홍가네순대","tel":"031-338-4559","addr":"경기도 용인시 처인구 양지면 양지리 469-2번지","indutype":"일반휴게음식 - 일반한식","category":"restaurant"}]},{"lat":"37.215780271","long":"127.3215584","imageIndex":4,"items":[{"name":"메밀꽃필무렵","tel":"031-335-7431","addr":"경기도 용인시 처인구 양지면 평창리 646-15번지","indutype":"일반휴게음식 - 일반한식","category":"restaurant"}]},{"lat":"37.261268878","long":"127.28034431","imageIndex":4,"items":[{"name":"메이홍","tel":"031-339-0018","addr":"경기도 용인시 처인구 양지면 대대리 765번지 A동 1-2층","indutype":"일반휴게음식 - 중국식","category":"restaurant"}]},{"lat":"37.234914141","long":"127.27631481","imageIndex":4,"items":[{"name":"명가한식뷔페","tel":"031-336-3797","addr":"경기도 용인시 처인구 양지면 양지리 693-3번지 1층일부","indutype":"일반휴게음식 - 일반한식","category":"restaurant"}]},{"lat":"37.227529194","long":"127.30455943","imageIndex":4,"items":[{"name":"명진농원","tel":"031-337-0515","addr":"경기도 용인시 처인구 양지면 제일리 308번지","indutype":"일반휴게음식 - 일반한식","category":"restaurant"}]},{"lat":"37.26043569","long":"127.24970163","imageIndex":4,"items":[{"name":"명품손칼국수","tel":"031-322-4148","addr":"경기도 용인시 처인구 양지면 주북리 618-2번지","indutype":"일반휴게음식 - 일반한식","category":"restaurant"}]},{"lat":"37.234187488","long":"127.29019552","imageIndex":4,"items":[{"name":"모모샵","tel":"031-335-7744","addr":"경기도 용인시 처인구 양지면 양지리 428번지 3호","indutype":"일반휴게음식 - 서양음식","category":"restaurant"}]},{"lat":"37.216142618","long":"127.32083888","imageIndex":4,"items":[{"name":"무봉리토종순대","tel":"031-322-4304","addr":"경기도 용인시 처인구 양지면 평창리 644-1번지 1층","indutype":"일반휴게음식 - 일반한식","category":"restaurant"}]},{"lat":"37.225826922","long":"127.29347651","imageIndex":4,"items":[{"name":"무쏘양지점","tel":"031-338-1449","addr":"경기도 용인시 처인구 양지면 남곡리 90-3번지 1층","indutype":"일반휴게음식 - 일반한식","category":"restaurant"}]},{"lat":"37.262717841","long":"127.25701411","imageIndex":4,"items":[{"name":"무지개농원","tel":"031-333-3362","addr":"경기도 용인시 처인구 양지면 대대리 333번지","indutype":"일반휴게음식 - 일반한식","category":"restaurant"}]},{"lat":"37.214248097","long":"127.29000724","imageIndex":4,"items":[{"name":"문토스트","tel":"031-338-1101","addr":"경기도 용인시 처인구 양지면 남곡리 34-1번지 파인스키밸리 A동","indutype":"일반휴게음식 - 서양음식","category":"restaurant"}]},{"lat":"37.216245743","long":"127.3193409","imageIndex":4,"items":[{"name":"미림","tel":"070-7728-2291","addr":"경기도 용인시 처인구 양지면 평창리 641-33번지 101호","indutype":"일반휴게음식 - 일반한식","category":"restaurant"},{"name":"원영루","tel":"031-322-3455","addr":"경기도 용인시 처인구 양지면 평창리641-33","indutype":"일반휴게음식 - 중국식","category":"restaurant"}]},{"lat":"37.227194709","long":"127.29784243","imageIndex":4,"items":[{"name":"미소한근","tel":"031-339-1193","addr":"경기도 용인시 처인구 양지면 제일리 673-3번지 1층","indutype":"일반휴게음식 - 일반한식","category":"restaurant"}]},{"lat":"37.234305248","long":"127.28619549","imageIndex":4,"items":[{"name":"바삭돌이","tel":"031-321-7006","addr":"경기도 용인시 처인구 양지면 양지리 447번지","indutype":"일반휴게음식 - 일반한식","category":"restaurant"},{"name":"우리집손만두","tel":"031-322-3332","addr":"경기도 용인시 처인구 양지면 양지리 447번지 상가","indutype":"일반휴게음식 - 일반한식","category":"restaurant"}]},{"lat":"37.216942205","long":"127.3183411","imageIndex":4,"items":[{"name":"박가네옛날김치찌개","tel":"031-322-3233","addr":"경기도 용인시 처인구 양지면 평창리 653-29번지 1층","indutype":"일반휴게음식 - 일반한식","category":"restaurant"},{"name":"한상","tel":"031-321-8485","addr":"경기도 용인시 처인구 양지면 평창리 653-29번지","indutype":"일반휴게음식 - 일반한식","category":"restaurant"}]},{"lat":"37.23438401","long":"127.27955836","imageIndex":4,"items":[{"name":"박광덕의 천하장사족발","tel":"070-8289-4190","addr":"경기도 용인시 처인구 양지면 양지리 636-2번지 1층","indutype":"일반휴게음식 - 일반한식","category":"restaurant"}]},{"lat":"37.235355323","long":"127.28414844","imageIndex":4,"items":[{"name":"반달커피양지점","tel":"","addr":"경기도 용인시 처인구 양지면 양지리 595-9번지 2층","indutype":"일반휴게음식 - 서양음식","category":"restaurant"}]},{"lat":"37.26093621","long":"127.25589211","imageIndex":4,"items":[{"name":"밥내음술내음","tel":"031-336-0715","addr":"경기도 용인시 처인구 양지면 대대리 288번지 1층","indutype":"일반휴게음식 - 일반한식","category":"restaurant"},{"name":"용인랜드","tel":"031-336-3838","addr":"경기도 용인시 처인구 양지면 대대리 288번지","indutype":"일반휴게음식 - 일반한식","category":"restaurant"}]},{"lat":"37.235748742","long":"127.28542332","imageIndex":4,"items":[{"name":"배꼽시계","tel":"031-338-9894","addr":"경기도 용인시 처인구 양지면 양지리 464-2번지","indutype":"일반휴게음식 - 일반한식","category":"restaurant"},{"name":"복끄미","tel":"031-337-3863","addr":"경기도 용인시 처인구 양지면 양지리 464-2번지","indutype":"일반휴게음식 - 일반한식","category":"restaurant"},{"name":"피자어셈블양지점","tel":"031-333-0164","addr":"경기도 용인시 처인구 양지면 양지리 464-2번지 1층","indutype":"일반휴게음식 - 서양음식","category":"restaurant"}]},{"lat":"37.236944867","long":"127.28636314","imageIndex":4,"items":[{"name":"봄카페","tel":"031-000-0000","addr":"경기도 용인시 처인구 양지면 양지리 372번지 1층","indutype":"일반휴게음식 - 서양음식","category":"restaurant"}]},{"lat":"37.234053069","long":"127.28614947","imageIndex":4,"items":[{"name":"봉구스밥버거 용인양지점","tel":"031-332-5949","addr":"경기도 용인시 처인구 양지면 양지리 477-2번지","indutype":"일반휴게음식 - 일반한식","category":"restaurant"},{"name":"서울식당","tel":"031-338-8832","addr":"경기도 용인시 처인구 양지면 양지리477-2","indutype":"일반휴게음식 - 일반한식","category":"restaurant"},{"name":"피자스쿨용인양지점","tel":"031-323-0203","addr":"경기도 용인시 처인구 양지면 양지리 477-2번지 1층","indutype":"일반휴게음식 - 서양음식","category":"restaurant"}]},{"lat":"37.244132096","long":"127.31954762","imageIndex":4,"items":[{"name":"봉평전통막국수","tel":"031-338-2390","addr":"경기도 용인시 처인구 양지면 제일리 51번지 B동 1층","indutype":"일반휴게음식 - 일반한식","category":"restaurant"}]},{"lat":"37.235526597","long":"127.28411527","imageIndex":4,"items":[{"name":"봉피자","tel":"031-338-1414","addr":"경기도 용인시 처인구 양지면 양지리 596-4번지 2층","indutype":"일반휴게음식 - 서양음식","category":"restaurant"}]},{"lat":"37.255798183","long":"127.23950774","imageIndex":4,"items":[{"name":"부지깽이","tel":"031-333-3001","addr":"경기도 용인시 처인구 양지면 주북리 715-1번지 정석빌딩 101호","indutype":"일반휴게음식 - 일반한식","category":"restaurant"},{"name":"한금돌판오리구이","tel":"031-339-6120","addr":"경기도 용인시 처인구 양지면 주북리 715-1번지","indutype":"일반휴게음식 - 일반한식","category":"restaurant"}]},{"lat":"37.232998332","long":"127.29744809","imageIndex":4,"items":[{"name":"블리스","tel":"","addr":"경기도 용인시 처인구 양지면 양지리 115-1번지 1층","indutype":"일반휴게음식 - 일반한식","category":"restaurant"}]},{"lat":"37.235133617","long":"127.28264883","imageIndex":4,"items":[{"name":"사랑이네","tel":"031-332-7785","addr":"경기도 용인시 처인구 양지면 양지리 619-12번지","indutype":"일반휴게음식 - 일반한식","category":"restaurant"}]},{"lat":"37.236468471","long":"127.29697701","imageIndex":4,"items":[{"name":"산너머남촌","tel":"031-338-5005","addr":"경기도 용인시 처인구 양지면 양지리 93","indutype":"일반휴게음식 - 일반한식","category":"restaurant"}]},{"lat":"37.230552014","long":"127.28825483","imageIndex":4,"items":[{"name":"산마루","tel":"031-338-5775","addr":"경기도 용인시 처인구 양지면 남곡리 124-3번지","indutype":"일반휴게음식 - 일반한식","category":"restaurant"}]},{"lat":"37.228694935","long":"127.30675009","imageIndex":4,"items":[{"name":"산매동식당","tel":"031-336-6470","addr":"경기도 용인시 처인구 양지면 제일리 340-3번지","indutype":"일반휴게음식 - 일반한식","category":"restaurant"}]},{"lat":"37.226108043","long":"127.32083564","imageIndex":4,"items":[{"name":"산장하담","tel":"031-336-4759","addr":"경기도 용인시 처인구 양지면 평창리 423-28","indutype":"일반휴게음식 - 일반한식","category":"restaurant"}]},{"lat":"37.217249662","long":"127.31792553","imageIndex":4,"items":[{"name":"생태랑동태랑","tel":"031-321-0807","addr":"경기도 용인시 처인구 양지면 평창리 653-3번지 C동 1층","indutype":"일반휴게음식 - 일반한식","category":"restaurant"}]},{"lat":"37.239935892","long":"127.25884221","imageIndex":4,"items":[{"name":"샬롬푸드","tel":"","addr":"경기도 용인시 처인구 양지면 주북리 201번지 2층","indutype":"일반휴게음식 - 위탁급식업","category":"restaurant"}]},{"lat":"37.228334505","long":"127.29964976","imageIndex":4,"items":[{"name":"서울회관","tel":"031-338-3655","addr":"경기도 용인시 처인구 양지면 제일리 663-7번지","indutype":"일반휴게음식 - 일반한식","category":"restaurant"}]},{"lat":"37.240188596","long":"127.29009433","imageIndex":4,"items":[{"name":"석송령","tel":"031-338-4242","addr":"경기도 용인시 처인구 양지면 양지리 391-10번지","indutype":"일반휴게음식 - 일반한식","category":"restaurant"}]},{"lat":"37.232104862","long":"127.28697606","imageIndex":4,"items":[{"name":"설이봉설렁탕 양지점","tel":"031-321-2500","addr":"경기도 용인시 처인구 양지면 남곡리 128-9번지","indutype":"일반휴게음식 - 일반한식","category":"restaurant"}]},{"lat":"37.238581948","long":"127.31608718","imageIndex":4,"items":[{"name":"세븐틴레인","tel":"031-339-7912","addr":"경기도 용인시 처인구 양지면 제일리 118-3번지 1층","indutype":"일반휴게음식 - 서양음식","category":"restaurant"}]},{"lat":"37.218357969","long":"127.3145051","imageIndex":4,"items":[{"name":"소나무숲","tel":"02-1111-1111","addr":"경기도 용인시 처인구 양지면 평창리 666-4번지","indutype":"일반휴게음식 - 일반한식","category":"restaurant"},{"name":"소나무숲","tel":"031-336-3390","addr":"경기도 용인시 처인구 양지면 평창리666-4","indutype":"일반휴게음식 - 일반한식","category":"restaurant"}]},{"lat":"37.225222792","long":"127.25428544","imageIndex":4,"items":[{"name":"속초코다리막국수&국밥","tel":"031-321-5909","addr":"경기도 용인시 처인구 양지면 송문리 418-1번지 1층","indutype":"일반휴게음식 - 일반한식","category":"restaurant"}]},{"lat":"37.218142613","long":"127.31416621","imageIndex":4,"items":[{"name":"솔체","tel":"031-334-9788","addr":"경기도 용인시 처인구 양지면 평창리666-5","indutype":"일반휴게음식 - 칵테일바","category":"restaurant"}]},{"lat":"37.234942963","long":"127.28325665","imageIndex":4,"items":[{"name":"송죽","tel":"031-338-3775","addr":"경기도 용인시 처인구 양지면 양지리 627-7번지","indutype":"일반휴게음식 - 일반한식","category":"restaurant"}]},{"lat":"37.235132445","long":"127.28314466","imageIndex":4,"items":[{"name":"솥뚜껑삼겹살","tel":"031-332-5532","addr":"경기도 용인시 처인구 양지면 양지리 626-3번지 중앙하이츠빌라 102호","indutype":"일반휴게음식 - 일반한식","category":"restaurant"},{"name":"제육우렁쌈밥","tel":"031-323-2385","addr":"경기도 용인시 처인구 양지면 양지리 626-3번지 중앙하이츠빌라","indutype":"일반휴게음식 - 일반한식","category":"restaurant"}]},{"lat":"37.233334188","long":"127.28533542","imageIndex":4,"items":[{"name":"수누리","tel":"031-336-9024","addr":"경기도 용인시 처인구 양지면 양지리 471-8","indutype":"일반휴게음식 - 일반한식","category":"restaurant"}]},{"lat":"37.249994022","long":"127.23573624","imageIndex":4,"items":[{"name":"숙이손만두","tel":"031-335-6500","addr":"경기도 용인시 처인구 양지면 주북리 859-4번지","indutype":"일반휴게음식 - 스넥","category":"restaurant"}]},{"lat":"37.231945133","long":"127.28595002","imageIndex":4,"items":[{"name":"스마일 찰진 꽈배기","tel":"031-338-1101","addr":"경기도 용인시 처인구 양지면 남곡리 135-1번지 1층 102호","indutype":"일반휴게음식 - 일반한식","category":"restaurant"}]},{"lat":"37.217888933","long":"127.3146947","imageIndex":4,"items":[{"name":"시골밥상","tel":"031-323-2232","addr":"경기도 용인시 처인구 양지면 평창리 664번지","indutype":"일반휴게음식 - 일반한식","category":"restaurant"}]},{"lat":"37.23372348","long":"127.28455932","imageIndex":4,"items":[{"name":"식객포차","tel":"031-321-9134","addr":"경기도 용인시 처인구 양지면 양지리 868-7번지","indutype":"일반휴게음식 - 일반한식","category":"restaurant"}]},{"lat":"37.232439129","long":"127.27508885","imageIndex":4,"items":[{"name":"신성관","tel":"031-323-1102","addr":"경기도 용인시 처인구 양지면 양지리 544-2번지 1층","indutype":"일반휴게음식 - 중국식","category":"restaurant"}]},{"lat":"37.234137549","long":"127.2847299","imageIndex":4,"items":[{"name":"신통치킨","tel":"031-338-1101","addr":"경기도 용인시 처인구 양지면 양지리 584-1번지 1층","indutype":"일반휴게음식 - 스넥","category":"restaurant"},{"name":"처인양꼬치","tel":"031-338-1101","addr":"경기도 용인시 처인구 양지면 양지리 584-1번지","indutype":"일반휴게음식 - 일반한식","category":"restaurant"}]},{"lat":"37.233858634","long":"127.28455983","imageIndex":4,"items":[{"name":"아랑이","tel":"","addr":"경기도 용인시 처인구 양지면 양지리 584-5번지","indutype":"일반휴게음식 - 일반한식","category":"restaurant"},{"name":"왕서방치킨피자","tel":"031-336-9959","addr":"경기도 용인시 처인구 양지면 양지리 584-5번지","indutype":"일반휴게음식 - 스넥","category":"restaurant"}]},{"lat":"37.261102602","long":"127.33125232","imageIndex":4,"items":[{"name":"아모스","tel":"031-8999-1798","addr":"경기도 용인시 처인구 양지면 식금리 82-2번지","indutype":"일반휴게음식 - 일반한식","category":"restaurant"}]},{"lat":"37.235665604","long":"127.28627946","imageIndex":4,"items":[{"name":"야간열차","tel":"031-332-3634","addr":"경기도 용인시 처인구 양지면 양지리 454-2번지 외2필지 지하","indutype":"일반휴게음식 - 주점","category":"restaurant"},{"name":"해마루","tel":"031-322-5811","addr":"경기도 용인시 처인구 양지면 양지리 454-2번지 세신빌딩 1층","indutype":"일반휴게음식 - 일반한식","category":"restaurant"}]},{"lat":"37.225913208","long":"127.31275588","imageIndex":4,"items":[{"name":"약산흑염소","tel":"031-338-5155","addr":"경기도 용인시 처인구 양지면 평창리 319번지 1,2층","indutype":"일반휴게음식 - 일반한식","category":"restaurant"}]},{"lat":"37.233887968","long":"127.28736589","imageIndex":4,"items":[{"name":"양지     양꼬치","tel":"031-333-3332","addr":"경기도 용인시 처인구 양지면 양지리 478-3번지 1층","indutype":"일반휴게음식 - 중국식","category":"restaurant"}]},{"lat":"37.227218259","long":"127.2806477","imageIndex":4,"items":[{"name":"양지고메","tel":"031-638-2065","addr":"경기도 용인시 처인구 양지면 남곡리 435번지","indutype":"일반휴게음식 - 서양음식","category":"restaurant"}]},{"lat":"37.215030996","long":"127.32208475","imageIndex":4,"items":[{"name":"양지돈가","tel":"031-339-4466","addr":"경기도 용인시 처인구 양지면 평창리 627-40번지","indutype":"일반휴게음식 - 일반한식","category":"restaurant"}]},{"lat":"37.236132921","long":"127.28678833","imageIndex":4,"items":[{"name":"양지동태탕","tel":"031-333-3321","addr":"경기도 용인시 처인구 양지면 양지리 453-1번지 소노펠리체 상가B동103,104호","indutype":"일반휴게음식 - 일반한식","category":"restaurant"}]},{"lat":"37.236388334","long":"127.28548205","imageIndex":4,"items":[{"name":"양지돼지집","tel":"031-323-3595","addr":"경기도 용인시 처인구 양지면 양지리 461-3번지","indutype":"일반휴게음식 - 일반한식","category":"restaurant"}]},{"lat":"37.232384774","long":"127.2867292","imageIndex":4,"items":[{"name":"양지두루치기","tel":"031-338-4848","addr":"경기도 용인시 처인구 양지면 남곡리 128-3번지","indutype":"일반휴게음식 - 일반한식","category":"restaurant"}]},{"lat":"37.215835302","long":"127.32119811","imageIndex":4,"items":[{"name":"양지비빔국수","tel":"031-335-7431","addr":"경기도 용인시 처인구 양지면 평창리 646-21번지","indutype":"일반휴게음식 - 일반한식","category":"restaurant"}]},{"lat":"37.233188443","long":"127.29708823","imageIndex":4,"items":[{"name":"양지식당","tel":"031-334-9006","addr":"경기도 용인시 처인구 양지면 양지리 115-5번지","indutype":"일반휴게음식 - 일반한식","category":"restaurant"}]},{"lat":"37.234275405","long":"127.28359225","imageIndex":4,"items":[{"name":"양지전.빈대떡","tel":"031-328-2811","addr":"경기도 용인시 처인구 양지면 양지리 573-10번지 1층","indutype":"일반휴게음식 - 일반한식","category":"restaurant"}]},{"lat":"37.234938332","long":"127.28520618","imageIndex":4,"items":[{"name":"양지주점","tel":"031-335-6226","addr":"경기도 용인시 처인구 양지면 양지리 907번지 신원아침도시 상가동 103호","indutype":"일반휴게음식 - 스넥","category":"restaurant"}]},{"lat":"37.246468654","long":"127.25870651","imageIndex":4,"items":[{"name":"양지한식뷔페","tel":"031-332-8086","addr":"경기도 용인시 처인구 양지면 주북리 285-4번지","indutype":"일반휴게음식 - 일반한식","category":"restaurant"}]},{"lat":"37.230411508","long":"127.28294689","imageIndex":4,"items":[{"name":"엄마손식당","tel":"070-4763-5091","addr":"경기도 용인시 처인구 양지면 남곡리 161-9번지 1층","indutype":"일반휴게음식 - 일반한식","category":"restaurant"}]},{"lat":"37.232278512","long":"127.28595126","imageIndex":4,"items":[{"name":"에그앤커피(EGGSNCOFFEE)","tel":"","addr":"경기도 용인시 처인구 양지면 남곡리 134-2번지","indutype":"일반휴게음식 - 서양음식","category":"restaurant"}]},{"lat":"37.227890288","long":"127.30072975","imageIndex":4,"items":[{"name":"에이원(Aone)","tel":"031-322-1890","addr":"경기도 용인시 처인구 양지면 제일리 667-9번지 나동 1층","indutype":"일반휴게음식 - 일반한식","category":"restaurant"}]},{"lat":"37.218613687","long":"127.31319922","imageIndex":4,"items":[{"name":"에코그린타운","tel":"031-338-6610","addr":"경기도 용인시 처인구 양지면 평창리 680번지 지하1층","indutype":"일반휴게음식 - 일반한식","category":"restaurant"}]},{"lat":"37.230554018","long":"127.28364606","imageIndex":4,"items":[{"name":"엘에이(LA)김밥,한식뷔페","tel":"031-321-5253","addr":"경기도 용인시 처인구 양지면 남곡리 152-11번지 201호","indutype":"일반휴게음식 - 일반한식","category":"restaurant"}]},{"lat":"37.234492265","long":"127.27950241","imageIndex":4,"items":[{"name":"여수밤바다","tel":"031-333-5501","addr":"경기도 용인시 처인구 양지면 양지리 636-1번지 일부 나동 1층","indutype":"일반휴게음식 - 일식·회집","category":"restaurant"}]},{"lat":"37.249741203","long":"127.23600597","imageIndex":4,"items":[{"name":"열두달(YEOLDUDAL)","tel":"","addr":"경기도 용인시 처인구 양지면 주북리 856-2번지","indutype":"일반휴게음식 - 서양음식","category":"restaurant"}]},{"lat":"37.23591735","long":"127.28650579","imageIndex":4,"items":[{"name":"영어카페 시나브로","tel":"","addr":"경기도 용인시 처인구 양지면 양지리 453-9번지 104호","indutype":"일반휴게음식 - 서양음식","category":"restaurant"},{"name":"인싸 소&돼지","tel":"031-335-0393","addr":"경기도 용인시 처인구 양지면 양지리 453-9번지 소노팰리체 A동 B102호","indutype":"일반휴게음식 - 일반한식","category":"restaurant"}]},{"lat":"37.233722691","long":"127.28864992","imageIndex":4,"items":[{"name":"예지현","tel":"031-333-1477","addr":"경기도 용인시 처인구 양지면 양지리 486-9번지","indutype":"일반휴게음식 - 중국식","category":"restaurant"}]},{"lat":"37.233278244","long":"127.29356144","imageIndex":4,"items":[{"name":"옛집","tel":"031-111-1111","addr":"경기도 용인시 처인구 양지면 양지리 171-2번지 1층","indutype":"일반휴게음식 - 일반한식","category":"restaurant"}]},{"lat":"37.240914156","long":"127.31663778","imageIndex":4,"items":[{"name":"오대양짬뽕","tel":"031-337-2588","addr":"경기도 용인시 처인구 양지면 제일리 111-1번지 1층","indutype":"일반휴게음식 - 중국식","category":"restaurant"}]},{"lat":"37.233971842","long":"127.28620551","imageIndex":4,"items":[{"name":"오딧세이","tel":"031-338-3440","addr":"경기도 용인시 처인구 양지면 양지리 477-3번지","indutype":"일반휴게음식 - 일반한식","category":"restaurant"}]},{"lat":"37.279072286","long":"127.27292262","imageIndex":4,"items":[{"name":"오렌지향기","tel":"031-337-1035","addr":"경기도 용인시 처인구 양지면 대대리 56번지","indutype":"일반휴게음식 - 일반한식","category":"restaurant"}]},{"lat":"37.262383283","long":"127.2815659","imageIndex":4,"items":[{"name":"오케이농장","tel":"031-338-5948","addr":"경기도 용인시 처인구 양지면 대대리 819번지 1층","indutype":"일반휴게음식 - 일반한식","category":"restaurant"}]},{"lat":"37.228028583","long":"127.30658966","imageIndex":4,"items":[{"name":"오케이다이어트도시락&카페","tel":"","addr":"경기도 용인시 처인구 양지면 제일리 331-5번지 1층","indutype":"일반휴게음식 - 서양음식","category":"restaurant"}]},{"lat":"37.235914037","long":"127.28411671","imageIndex":4,"items":[{"name":"오키도키","tel":"","addr":"경기도 용인시 처인구 양지면 양지리 598-11번지 1층","indutype":"일반휴게음식 - 스넥","category":"restaurant"}]},{"lat":"37.227973759","long":"127.29250443","imageIndex":4,"items":[{"name":"옹골순두부","tel":"031-338-0100","addr":"경기도 용인시 처인구 양지면 양지리 129-8","indutype":"일반휴게음식 - 일반한식","category":"restaurant"}]},{"lat":"37.230634381","long":"127.28772553","imageIndex":4,"items":[{"name":"와플바니","tel":"031-338-5508","addr":"경기도 용인시 처인구 양지면 남곡리 124-7번지 보현판넬 다동 101호","indutype":"일반휴게음식 - 일반한식","category":"restaurant"},{"name":"전주한식부페","tel":"031-334-3395","addr":"경기도 용인시 처인구 양지면 남곡리 124-7번지","indutype":"일반휴게음식 - 일반한식","category":"restaurant"}]},{"lat":"37.242106459","long":"127.31891929","imageIndex":4,"items":[{"name":"외할머니집","tel":"031-322-7270","addr":"경기도 용인시 처인구 양지면 제일리 34-1번지","indutype":"일반휴게음식 - 일반한식","category":"restaurant"}]},{"lat":"37.225273007","long":"127.25184053","imageIndex":4,"items":[{"name":"용인백암순대","tel":"031-321-5034","addr":"경기도 용인시 처인구 양지면 송문리 428-4번지","indutype":"일반휴게음식 - 일반한식","category":"restaurant"}]},{"lat":"37.237024161","long":"127.308812","imageIndex":4,"items":[{"name":"우진밥집","tel":"031-339-9608","addr":"경기도 용인시 처인구 양지면 제일리 436번지 나동 1층 양지면","indutype":"일반휴게음식 - 일반한식","category":"restaurant"}]},{"lat":"37.22633155","long":"127.29345591","imageIndex":4,"items":[{"name":"원조해장국","tel":"031-336-3827","addr":"경기도 용인시 처인구 양지면 남곡리 105번지","indutype":"일반휴게음식 - 일반한식","category":"restaurant"},{"name":"원쭈꾸미","tel":"070-8802-4524","addr":"경기도 용인시 처인구 양지면 남곡리 105번지 1층","indutype":"일반휴게음식 - 일반한식","category":"restaurant"}]},{"lat":"37.234188208","long":"127.28236361","imageIndex":4,"items":[{"name":"육감만족","tel":"031-338-9212","addr":"경기도 용인시 처인구 양지면 양지리 568-17번지 103호 102호,103호","indutype":"일반휴게음식 - 일반한식","category":"restaurant"},{"name":"전설의곱창","tel":"031-334-9500","addr":"경기도 용인시 처인구 양지면 양지리 568-17번지 현대파크","indutype":"일반휴게음식 - 일반한식","category":"restaurant"},{"name":"킴스(Kim's)김밥","tel":"031-336-7678","addr":"경기도 용인시 처인구 양지면 양지리 568-17번지 현대파크 101호","indutype":"일반휴게음식 - 스넥","category":"restaurant"},{"name":"템프터케이","tel":"111-111-1111","addr":"경기도 용인시 처인구 양지면 양지리 568-17번지 현대파크 105호","indutype":"일반휴게음식 - 일반한식","category":"restaurant"},{"name":"훌랄라 천족","tel":"031-334-1192","addr":"경기도 용인시 처인구 양지면 양지리 568-17번지 현대파크 상가동 1,2,3호","indutype":"일반휴게음식 - 일반한식","category":"restaurant"}]},{"lat":"37.249881827","long":"127.23321113","imageIndex":4,"items":[{"name":"육앤장 숯불구이","tel":"031-332-9294","addr":"경기도 용인시 처인구 양지면 주북리 852-2번지 (장어)","indutype":"일반휴게음식 - 일반한식","category":"restaurant"},{"name":"임진강장어","tel":"031-334-8980","addr":"경기도 용인시 처인구 양지면 주북리 852-2번지 외2필지","indutype":"일반휴게음식 - 일반한식","category":"restaurant"}]},{"lat":"37.261910685","long":"127.27945609","imageIndex":4,"items":[{"name":"이다의숲","tel":"031-322-3355","addr":"경기도 용인시 처인구 양지면 대대리 621번지","indutype":"일반휴게음식 - 일반한식","category":"restaurant"}]},{"lat":"37.225833276","long":"127.2510649","imageIndex":4,"items":[{"name":"일산면옥","tel":"02-0000-0000","addr":"경기도 용인시 처인구 양지면 송문리 455-4번지","indutype":"일반휴게음식 - 일반한식","category":"restaurant"},{"name":"청담수산","tel":"","addr":"경기도 용인시 처인구 양지면 송문리 455-4번지","indutype":"일반휴게음식 - 일반한식","category":"restaurant"},{"name":"카페예가초이스","tel":"","addr":"경기도 용인시 처인구 양지면 송문리 455-4번지 1층","indutype":"일반휴게음식 - 서양음식","category":"restaurant"}]},{"lat":"37.28357684","long":"127.2770884","imageIndex":4,"items":[{"name":"자작나무이야기","tel":"031-332-3928","addr":"경기도 용인시 처인구 양지면 대대리 20번지","indutype":"일반휴게음식 - 일반한식","category":"restaurant"}]},{"lat":"37.229582468","long":"127.29050483","imageIndex":4,"items":[{"name":"장강","tel":"031-321-6984","addr":"경기도 용인시 처인구 양지면 양지리 138-20","indutype":"일반휴게음식 - 중국식","category":"restaurant"},{"name":"전주콩뿌리콩나물국밥","tel":"031-337-0100","addr":"경기도 용인시 처인구 양지면 양지리 138-20번지","indutype":"일반휴게음식 - 일반한식","category":"restaurant"}]},{"lat":"37.217113939","long":"127.31813902","imageIndex":4,"items":[{"name":"장수토종해장국","tel":"031-336-3255","addr":"경기도 용인시 처인구 양지면 평창리 653-28번지 1층 일부","indutype":"일반휴게음식 - 일반한식","category":"restaurant"},{"name":"형님짬뽕","tel":"031-332-0888","addr":"경기도 용인시 처인구 양지면 평창리 653-28번지","indutype":"일반휴게음식 - 중국식","category":"restaurant"}]},{"lat":"37.255073523","long":"127.27875478","imageIndex":4,"items":[{"name":"전원일기","tel":"031-323-2022","addr":"경기도 용인시 처인구 양지면 대대리679","indutype":"일반휴게음식 - 일반한식","category":"restaurant"}]},{"lat":"37.233469611","long":"127.28522324","imageIndex":4,"items":[{"name":"점프노리양지점","tel":"031-322-9767","addr":"경기도 용인시 처인구 양지면 양지리 471-4번지 2층","indutype":"일반휴게음식 - 일반한식","category":"restaurant"}]},{"lat":"37.21547271","long":"127.32200775","imageIndex":4,"items":[{"name":"정담은남원추어탕","tel":"070-8841-5578","addr":"경기도 용인시 처인구 양지면 평창리 627-8번지 1층","indutype":"일반휴게음식 - 일반한식","category":"restaurant"}]},{"lat":"37.268517471","long":"127.28986366","imageIndex":4,"items":[{"name":"정수리휴게소국수","tel":"031-333-7794","addr":"경기도 용인시 처인구 양지면 정수리 242번지 정수리새마을회관 1층 일부","indutype":"일반휴게음식 - 일반한식","category":"restaurant"}]},{"lat":"37.23811074","long":"127.30320417","imageIndex":4,"items":[{"name":"제이씨컨설팅(주)","tel":"02-533-9336","addr":"경기도 용인시 처인구 양지면 제일리 587-59번지 루아르밸리 43호","indutype":"일반휴게음식 - 서양음식","category":"restaurant"}]},{"lat":"37.226272858","long":"127.2953374","imageIndex":4,"items":[{"name":"제이앤제이카페앤바(J&Jcafe&bar)","tel":"031-0000-0000","addr":"경기도 용인시 처인구 양지면 남곡리 99-8번지","indutype":"일반휴게음식 - 서양음식","category":"restaurant"}]},{"lat":"37.231137918","long":"127.28439195","imageIndex":4,"items":[{"name":"제이제이(JJ)카페","tel":"031-111-1111","addr":"경기도 용인시 처인구 양지면 남곡리 142-3번지 C동 2층 201호 상가 (센텀빌)","indutype":"일반휴게음식 - 서양음식","category":"restaurant"}]},{"lat":"37.234551747","long":"127.28103521","imageIndex":4,"items":[{"name":"제일손칼국수","tel":"031-321-8010","addr":"경기도 용인시 처인구 양지면 양지리 633번지 102호","indutype":"일반휴게음식 - 일반한식","category":"restaurant"},{"name":"참숯불오리구이","tel":"031-333-9299","addr":"경기도 용인시 처인구 양지면 양지리 633번지","indutype":"일반휴게음식 - 일반한식","category":"restaurant"},{"name":"커피마마","tel":"031-323-0999","addr":"경기도 용인시 처인구 양지면 양지리 633번지 1층","indutype":"일반휴게음식 - 서양음식","category":"restaurant"}]},{"lat":"37.228083488","long":"127.29914171","imageIndex":4,"items":[{"name":"제주마을","tel":"031-336-5532","addr":"경기도 용인시 처인구 양지면 제일리 666-4번지","indutype":"일반휴게음식 - 일반한식","category":"restaurant"}]},{"lat":"37.217330484","long":"127.31802726","imageIndex":4,"items":[{"name":"제주이야기","tel":"031-322-6589","addr":"경기도 용인시 처인구 양지면 평창리 654-1번지 외2필지 C동 4.5~9호","indutype":"일반휴게음식 - 일반한식","category":"restaurant"}]},{"lat":"37.215329972","long":"127.32147764","imageIndex":4,"items":[{"name":"조 엔더 커피(Joe&the Coffee)","tel":"031-333-6498","addr":"경기도 용인시 처인구 양지면 평창리 646-6 외 3필지","indutype":"일반휴게음식 - 서양음식","category":"restaurant"},{"name":"커피1온스","tel":"031-333-5328","addr":"경기도 용인시 처인구 양지면 평창리 646-6 외3필지","indutype":"일반휴게음식 - 서양음식","category":"restaurant"}]},{"lat":"37.234274015","long":"127.28417823","imageIndex":4,"items":[{"name":"주당","tel":"031-338-1101","addr":"경기도 용인시 처인구 양지면 양지리 575-4번지","indutype":"일반휴게음식 - 일반한식","category":"restaurant"},{"name":"한솥도시락","tel":"031-332-8118","addr":"경기도 용인시 처인구 양지면 양지리 575-4번지 위지상건물 101호","indutype":"일반휴게음식 - 스넥","category":"restaurant"}]},{"lat":"37.237024359","long":"127.2715893","imageIndex":4,"items":[{"name":"주문진동치미막국수","tel":"031-338-7040","addr":"경기도 용인시 처인구 양지면 양지리 736","indutype":"일반휴게음식 - 일반한식","category":"restaurant"}]},{"lat":"37.261964518","long":"127.26367398","imageIndex":4,"items":[{"name":"주식회사 로송","tel":"031-338-3389","addr":"경기도 용인시 처인구 양지면 대대리 470번지","indutype":"일반휴게음식 - 일반한식","category":"restaurant"}]},{"lat":"37.215473548","long":"127.32502708","imageIndex":4,"items":[{"name":"지산골","tel":"031-322-9292","addr":"경기도 용인시 처인구 양지면 평창리 620-3번지","indutype":"일반휴게음식 - 일반한식","category":"restaurant"}]},{"lat":"37.212002914","long":"127.2793189","imageIndex":4,"items":[{"name":"지영갤러리카페","tel":"","addr":"경기도 용인시 처인구 양지면 남곡리 722-2번지 1층","indutype":"일반휴게음식 - 서양음식","category":"restaurant"}]},{"lat":"37.267183418","long":"127.29008407","imageIndex":4,"items":[{"name":"지혜네토종닭","tel":"031-321-3126","addr":"경기도 용인시 처인구 양지면 정수리 249-11번지","indutype":"일반휴게음식 - 일반한식","category":"restaurant"}]},{"lat":"37.233915004","long":"127.27975948","imageIndex":4,"items":[{"name":"진가네추어탕","tel":"031-321-4811","addr":"경기도 용인시 처인구 양지면 양지리 637-4번지","indutype":"일반휴게음식 - 일반한식","category":"restaurant"}]},{"lat":"37.234611103","long":"127.28261309","imageIndex":4,"items":[{"name":"진주식당","tel":"031-338-3177","addr":"경기도 용인시 처인구 양지면 양지리629","indutype":"일반휴게음식 - 일반한식","category":"restaurant"}]},{"lat":"37.235134548","long":"127.28225441","imageIndex":4,"items":[{"name":"찌찌닭발","tel":"031-333-1436","addr":"경기도 용인시 처인구 양지면 양지리 628-7번지","indutype":"일반휴게음식 - 일반한식","category":"restaurant"},{"name":"피자컴퍼니","tel":"","addr":"경기도 용인시 처인구 양지면 양지리 628-7번지 1층 일부","indutype":"일반휴게음식 - 서양음식","category":"restaurant"}]},{"lat":"37.228362905","long":"127.29180729","imageIndex":4,"items":[{"name":"착한밥상","tel":"031-323-6168","addr":"경기도 용인시 처인구 양지면 양지리 138-32번지","indutype":"일반휴게음식 - 일반한식","category":"restaurant"}]},{"lat":"37.244249409","long":"127.31948049","imageIndex":4,"items":[{"name":"참새미한식부페","tel":"031-338-1101","addr":"경기도 용인시 처인구 양지면 제일리 51번지 1층 일부","indutype":"일반휴게음식 - 일반한식","category":"restaurant"}]},{"lat":"37.229912871","long":"127.27262328","imageIndex":4,"items":[{"name":"천향 샤브샤브","tel":"031-338-1101","addr":"경기도 용인시 처인구 양지면 양지리 756-4번지 2층","indutype":"일반휴게음식 - 일반한식","category":"restaurant"}]},{"lat":"37.234548883","long":"127.28225225","imageIndex":4,"items":[{"name":"최고봉갈매기살","tel":"031-321-8827","addr":"경기도 용인시 처인구 양지면 양지리 630-10번지","indutype":"일반휴게음식 - 일반한식","category":"restaurant"}]},{"lat":"37.23394164","long":"127.27992862","imageIndex":4,"items":[{"name":"충무수산","tel":"031-338-5456","addr":"경기도 용인시 처인구 양지면 양지리 637-6","indutype":"일반휴게음식 - 일식·회집","category":"restaurant"}]},{"lat":"37.23252904","long":"127.31872155","imageIndex":4,"items":[{"name":"치즈버프","tel":"070-7423-6603","addr":"경기도 용인시 처인구 양지면 평창리 237번지 1층","indutype":"일반휴게음식 - 서양음식","category":"restaurant"}]},{"lat":"37.234022076","long":"127.2840308","imageIndex":4,"items":[{"name":"친구네","tel":"031-321-7774","addr":"경기도 용인시 처인구 양지면 양지리575-2","indutype":"일반휴게음식 - 일반한식","category":"restaurant"}]},{"lat":"37.263381128","long":"127.28253908","imageIndex":4,"items":[{"name":"카페801너에게말을걸다/주식회사 고도","tel":"031-326-0811","addr":"경기도 용인시 처인구 양지면 대대리 801번지 1-2층","indutype":"일반휴게음식 - 서양음식","category":"restaurant"}]},{"lat":"37.269936153","long":"127.2647838","imageIndex":4,"items":[{"name":"카페소소","tel":"031-321-9427","addr":"경기도 용인시 처인구 양지면 대대리 105번지","indutype":"일반휴게음식 - 서양음식","category":"restaurant"}]},{"lat":"37.233994989","long":"127.28023307","imageIndex":4,"items":[{"name":"카페코아","tel":"031-336-8958","addr":"경기도 용인시 처인구 양지면 양지리 560-1번지 1층","indutype":"일반휴게음식 - 서양음식","category":"restaurant"}]},{"lat":"37.223724262","long":"127.27978983","imageIndex":4,"items":[{"name":"카페포레","tel":"","addr":"경기도 용인시 처인구 양지면 남곡리 898번지 양지포레스토리 상가동 401호","indutype":"일반휴게음식 - 서양음식","category":"restaurant"}]},{"lat":"37.23382916","long":"127.28558519","imageIndex":4,"items":[{"name":"커피아일랜드","tel":"031-321-0791","addr":"경기도 용인시 처인구 양지면 양지리 474-3번지","indutype":"일반휴게음식 - 서양음식","category":"restaurant"}]},{"lat":"37.262742041","long":"127.278422","imageIndex":4,"items":[{"name":"코드라인(Code line)","tel":"031-211-9033","addr":"경기도 용인시 처인구 양지면 대대리 620번지","indutype":"일반휴게음식 - 일반한식","category":"restaurant"}]},{"lat":"37.230688904","long":"127.28375925","imageIndex":4,"items":[{"name":"코모도01","tel":"111-1111-111","addr":"경기도 용인시 처인구 양지면 남곡리 152-12번지 1층","indutype":"일반휴게음식 - 일반한식","category":"restaurant"}]},{"lat":"37.231582593","long":"127.28683888","imageIndex":4,"items":[{"name":"콩마당","tel":"031-338-0821","addr":"경기도 용인시 처인구 양지면 남곡리 127-18번지 2층","indutype":"일반휴게음식 - 일반한식","category":"restaurant"}]},{"lat":"37.247438205","long":"127.243201","imageIndex":4,"items":[{"name":"쿠데타","tel":"031-321-3307","addr":"경기도 용인시 처인구 양지면 주북리 947-1번지","indutype":"일반휴게음식 - 서양음식","category":"restaurant"}]},{"lat":"37.230303625","long":"127.28284508","imageIndex":4,"items":[{"name":"쿠키에 반하다 르방","tel":"02-000-0000","addr":"경기도 용인시 처인구 양지면 남곡리 160-14번지 1층 101호","indutype":"일반휴게음식 - 일반한식","category":"restaurant"}]},{"lat":"37.236078211","long":"127.28705858","imageIndex":4,"items":[{"name":"크로키","tel":"031-336-3199","addr":"경기도 용인시 처인구 양지면 양지리 450-1번지 1층","indutype":"일반휴게음식 - 일반한식","category":"restaurant"}]},{"lat":"37.242747603","long":"127.28253045","imageIndex":4,"items":[{"name":"키즈카페플로레스타","tel":"031-111-1111","addr":"경기도 용인시 처인구 양지면 양지리 316-5번지","indutype":"일반휴게음식 - 서양음식","category":"restaurant"}]},{"lat":"37.247601375","long":"127.24712381","imageIndex":4,"items":[{"name":"킹콩부대찌개(용인주북리점)","tel":"031-332-1110","addr":"경기도 용인시 처인구 양지면 주북리 560번지 진성빌딩 1층","indutype":"일반휴게음식 - 일반한식","category":"restaurant"}]},{"lat":"37.282766891","long":"127.27666824","imageIndex":4,"items":[{"name":"태화산곤드레밥","tel":"031-337-0710","addr":"경기도 용인시 처인구 양지면 대대리 20-1번지","indutype":"일반휴게음식 - 일반한식","category":"restaurant"}]},{"lat":"37.230278223","long":"127.28969615","imageIndex":4,"items":[{"name":"템프터제이","tel":"031-337-0811","addr":"경기도 용인시 처인구 양지면 양지리 138-12번지","indutype":"일반휴게음식 - 서양음식","category":"restaurant"}]},{"lat":"37.250887284","long":"127.327139","imageIndex":4,"items":[{"name":"통영굴밥","tel":"031-336-4404","addr":"경기도 용인시 처인구 양지면 추계리 122-1번지","indutype":"일반휴게음식 - 일반한식","category":"restaurant"},{"name":"통영굴밥","tel":"031-336-4404","addr":"경기도 용인시 처인구 양지면 추계리 122-1번지 통영굴밥","indutype":"일반휴게음식 - 일반한식","category":"restaurant"}]},{"lat":"37.261022078","long":"127.27408693","imageIndex":4,"items":[{"name":"팀버랜드","tel":"031-322-9383","addr":"경기도 용인시 처인구 양지면 대대리628","indutype":"일반휴게음식 - 일반한식","category":"restaurant"}]},{"lat":"37.260244185","long":"127.24203548","imageIndex":4,"items":[{"name":"파구스","tel":"031-333-3282","addr":"경기도 용인시 처인구 양지면 주북리 697번지 지하1층","indutype":"일반휴게음식 - 서양음식","category":"restaurant"}]},{"lat":"37.234300537","long":"127.28439244","imageIndex":4,"items":[{"name":"펀비어킹(용인양지점)","tel":"031-339-9248","addr":"경기도 용인시 처인구 양지면 양지리 575-3번지","indutype":"일반휴게음식 - 주점","category":"restaurant"}]},{"lat":"37.262605036","long":"127.26331544","imageIndex":4,"items":[{"name":"평양막국수","tel":"031-332-1157","addr":"경기도 용인시 처인구 양지면 대대리 429-2번지","indutype":"일반휴게음식 - 일반한식","category":"restaurant"}]},{"lat":"37.233049204","long":"127.2877008","imageIndex":4,"items":[{"name":"평창강올갱이해장국","tel":"031-322-8890","addr":"경기도 용인시 처인구 양지면 양지리 483번지 2228호","indutype":"일반휴게음식 - 일반한식","category":"restaurant"}]},{"lat":"37.232745645","long":"127.31858723","imageIndex":4,"items":[{"name":"평창한식","tel":"031-335-6789","addr":"경기도 용인시 처인구 양지면 평창리 237-4번지 1층","indutype":"일반휴게음식 - 일반한식","category":"restaurant"}]},{"lat":"37.227528992","long":"127.2709246","imageIndex":4,"items":[{"name":"푸드벨주식회사","tel":"031-338-5225","addr":"경기도 용인시 처인구 양지면 남곡리256-2","indutype":"일반휴게음식 - 일반한식","category":"restaurant"}]},{"lat":"37.262407042","long":"127.28295258","imageIndex":4,"items":[{"name":"푸른달빛정원","tel":"031-333-1313","addr":"경기도 용인시 처인구 양지면 대대리 797-3번지","indutype":"일반휴게음식 - 일반한식","category":"restaurant"}]},{"lat":"37.230720134","long":"127.2895288","imageIndex":4,"items":[{"name":"풍년","tel":"031-338-4211","addr":"경기도 용인시 처인구 양지면 양지리 493-23 19/","indutype":"일반휴게음식 - 일반한식","category":"restaurant"}]},{"lat":"37.258518983","long":"127.26530789","imageIndex":4,"items":[{"name":"피오리","tel":"","addr":"경기도 용인시 처인구 양지면 대대리 483번지","indutype":"일반휴게음식 - 서양음식","category":"restaurant"}]},{"lat":"37.236192229","long":"127.28459105","imageIndex":4,"items":[{"name":"학!땡분식","tel":"070-4111-7750","addr":"경기도 용인시 처인구 양지면 양지리 462-4번지 1층 일부","indutype":"일반휴게음식 - 일반한식","category":"restaurant"}]},{"lat":"37.256219994","long":"127.2403432","imageIndex":4,"items":[{"name":"한상차림","tel":"031-332-8868","addr":"경기도 용인시 처인구 양지면 주북리716","indutype":"일반휴게음식 - 일반한식","category":"restaurant"}]},{"lat":"37.234386582","long":"127.28609437","imageIndex":4,"items":[{"name":"한일식당","tel":"031-338-3737","addr":"경기도 용인시 처인구 양지면 448","indutype":"일반휴게음식 - 일반한식","category":"restaurant"}]},{"lat":"37.262021707","long":"127.28206058","imageIndex":4,"items":[{"name":"한터농장가든","tel":"031-339-6999","addr":"경기도 용인시 처인구 양지면 대대리 789번지","indutype":"일반휴게음식 - 일반한식","category":"restaurant"}]},{"lat":"37.264659348","long":"127.28306238","imageIndex":4,"items":[{"name":"한터마을","tel":"031-339-9332","addr":"경기도 용인시 처인구 양지면 대대리 803-3","indutype":"일반휴게음식 - 스넥","category":"restaurant"}]},{"lat":"37.261105928","long":"127.28067063","imageIndex":4,"items":[{"name":"한터시골농장","tel":"031-339-6600","addr":"경기도 용인시 처인구 양지면 대대리 773 1.2.3층","indutype":"일반휴게음식 - 일반한식","category":"restaurant"}]},{"lat":"37.257601037","long":"127.2767575","imageIndex":4,"items":[{"name":"한터장수오리골","tel":"031-321-0860","addr":"경기도 용인시 처인구 양지면 대대리 665-1번지 (665)","indutype":"일반휴게음식 - 일반한식","category":"restaurant"}]},{"lat":"37.228274082","long":"127.29859033","imageIndex":4,"items":[{"name":"함지박","tel":"031-336-8758","addr":"경기도 용인시 처인구 양지면 제일리 667-1번지","indutype":"일반휴게음식 - 일반한식","category":"restaurant"}]},{"lat":"37.236165495","long":"127.28823091","imageIndex":4,"items":[{"name":"항아리농장","tel":"031-338-8150","addr":"경기도 용인시 처인구 양지면 양지리 441번지","indutype":"일반휴게음식 - 일반한식","category":"restaurant"}]},{"lat":"37.234634638","long":"127.28408942","imageIndex":4,"items":[{"name":"햇살북카페","tel":"070-8879-9177","addr":"경기도 용인시 처인구 양지면 양지리 592-2번지 2층","indutype":"일반휴게음식 - 서양음식","category":"restaurant"}]},{"lat":"37.232465832","long":"127.29780662","imageIndex":4,"items":[{"name":"행복국밥","tel":"031-322-4559","addr":"경기도 용인시 처인구 양지면 양지리 117-5번지","indutype":"일반휴게음식 - 일반한식","category":"restaurant"}]},{"lat":"37.228106412","long":"127.2705886","imageIndex":4,"items":[{"name":"행복한마당","tel":"031-321-7800","addr":"경기도 용인시 처인구 양지면 양지리 790-3번지","indutype":"일반휴게음식 - 일반한식","category":"restaurant"}]},{"lat":"37.234222024","long":"127.29081544","imageIndex":4,"items":[{"name":"행복한먹거리","tel":"031-335-3232","addr":"경기도 용인시 처인구 양지면 양지리 206번지","indutype":"일반휴게음식 - 일반한식","category":"restaurant"}]},{"lat":"37.235722571","long":"127.2850626","imageIndex":4,"items":[{"name":"헝그리파닭","tel":"031-338-7982","addr":"경기도 용인시 처인구 양지면 양지리 465-2번지 외1필지","indutype":"일반휴게음식 - 스넥","category":"restaurant"}]},{"lat":"37.236107105","long":"127.28628111","imageIndex":4,"items":[{"name":"홍도","tel":"031-322-5373","addr":"경기도 용인시 처인구 양지면 양지리 453-3번지","indutype":"일반휴게음식 - 일반한식","category":"restaurant"}]},{"lat":"37.233466271","long":"127.28662056","imageIndex":4,"items":[{"name":"화성토종순대국","tel":"031-338-1118","addr":"경기도 용인시 처인구 양지면 양지리 480-1번지","indutype":"일반휴게음식 - 일반한식","category":"restaurant"}]},{"lat":"37.239359222","long":"127.318581","imageIndex":4,"items":[{"name":"황순옥옛날감자탕","tel":"031-334-6121","addr":"경기도 용인시 처인구 양지면 제일리 139-1번지","indutype":"일반휴게음식 - 일반한식","category":"restaurant"}]},{"lat":"37.227139383","long":"127.27970091","imageIndex":4,"items":[{"name":"회영식당","tel":"031-321-3132","addr":"경기도 용인시 처인구 양지면 남곡리 420-6번지","indutype":"일반휴게음식 - 일반한식","category":"restaurant"}]},{"lat":"37.230025664","long":"127.28980788","imageIndex":4,"items":[{"name":"효담정육점식당","tel":"","addr":"경기도 용인시 처인구 양지면 양지리 138-16번지","indutype":"일반휴게음식 - 일반한식","category":"restaurant"}]},{"lat":"37.248575622","long":"127.31900266","imageIndex":4,"items":[{"name":"후하참숯고기","tel":"031-338-5275","addr":"경기도 용인시 처인구 양지면 추계리 189-2 외1필지","indutype":"일반휴게음식 - 일반한식","category":"restaurant"}]}]