[{"lat":"37.87069405","long":"127.15600546","imageIndex":4,"items":[{"name":"(주)피와이언홀딩스대진커피숍","tel":"031-536-2466","addr":"경기도 포천시 선단동 산11-1","indutype":"일반휴게음식 - 서양음식","category":"restaurant"},{"name":"GongCha","tel":"031-533-8588","addr":"경기도 포천시 선단동 산11-1번지 대진대학교전산센터 2층 204호","indutype":"일반휴게음식 - 서양음식","category":"restaurant"},{"name":"공차대진대점","tel":"533-8588","addr":"경기도 포천시 선단동 산11-1번지 대진대정보전사원 2층","indutype":"음식 - 휴게음식점","category":"restaurant"},{"name":"한솥 대진대점","tel":"031-534-5358","addr":"경기도 포천시 선단동 산11-1번지 대진대학교 1층 학생회관","indutype":"일반휴게음식 - 스넥","category":"restaurant"}]},{"lat":"37.853950011","long":"127.16616311","imageIndex":4,"items":[{"name":"ANY(애니)","tel":"031-541-4440","addr":"경기도 포천시 선단동 52-1번지 지하1층","indutype":"일반휴게음식 - 서양음식","category":"restaurant"},{"name":"달뜰이식당","tel":"543-3730","addr":"경기도 포천시 선단동 52-1번지","indutype":"음식 - 한식","category":"restaurant"},{"name":"달뜰이식당","tel":"031-543-3730","addr":"경기도 포천시 선단동 52-1번지","indutype":"일반휴게음식 - 일반한식","category":"restaurant"},{"name":"도리돈 대진대점","tel":"031-543-2040","addr":"경기도 포천시 선단동 52-1번지","indutype":"일반휴게음식 - 일반한식","category":"restaurant"},{"name":"명랑시대쌀핫도그(대진대점)","tel":"","addr":"경기도 포천시 선단동 52-1번지","indutype":"일반휴게음식 - 스넥","category":"restaurant"},{"name":"쥬씨 대진대점","tel":"031-543-1028","addr":"경기도 포천시 선단동 52-1번지","indutype":"일반휴게음식 - 서양음식","category":"restaurant"},{"name":"쥬씨포천대진대점","tel":"543-1028","addr":"경기도 포천시 선단동 52-1번지","indutype":"음식 - 커피 등","category":"restaurant"}]},{"lat":"37.862531429","long":"127.15611358","imageIndex":4,"items":[{"name":"Q메이디","tel":"","addr":"경기도 포천시 선단동 289-1번지","indutype":"음식 - 커피 등","category":"restaurant"},{"name":"Q수랏간웰빙보리밥","tel":"031-542-7742","addr":"경기도 포천시 선단동 289-1번지 1층","indutype":"일반휴게음식 - 일반한식","category":"restaurant"},{"name":"블랙홀떡볶이전문점","tel":"031-543-1652","addr":"경기도 포천시 선단동 289-1번지 가동 1층","indutype":"일반휴게음식 - 일반한식","category":"restaurant"},{"name":"퀸메이드(Queen made)","tel":"","addr":"경기도 포천시 선단동 289-1번지 4호,5호","indutype":"일반휴게음식 - 서양음식","category":"restaurant"},{"name":"큐 수랏간웰빙보리밥","tel":"542-7742","addr":"경기도 포천시 선단동 289-1번지","indutype":"음식 - 한식","category":"restaurant"}]},{"lat":"37.857442274","long":"127.16857981","imageIndex":4,"items":[{"name":"가람매운탕","tel":"532-3022","addr":"경기도 포천시 선단동 104-3번지","indutype":"음식 - 한식","category":"restaurant"},{"name":"사천성","tel":"031-536-2641","addr":"경기도 포천시 선단동 104-3번지","indutype":"일반휴게음식 - 중국식","category":"restaurant"},{"name":"서울순대국","tel":"541-6442","addr":"경기도 포천시 선단동 104-3번지","indutype":"음식 - 한식","category":"restaurant"},{"name":"서울순대국","tel":"031-541-6442","addr":"경기도 포천시 선단동 104-3번지","indutype":"일반휴게음식 - 일반한식","category":"restaurant"},{"name":"최가네","tel":"031-532-3022","addr":"경기도 포천시 선단동 104-3번지","indutype":"일반휴게음식 - 일반한식","category":"restaurant"}]},{"lat":"37.857891454","long":"127.15622897","imageIndex":4,"items":[{"name":"겆절이식당","tel":"031-542-0231","addr":"경기도 포천시 선단동 669-3번지 1층","indutype":"일반휴게음식 - 일반한식","category":"restaurant"}]},{"lat":"37.854112872","long":"127.16566351","imageIndex":4,"items":[{"name":"고기명가","tel":"031-543-2202","addr":"경기도 포천시 선단동 53-1번지 1층","indutype":"일반휴게음식 - 일반한식","category":"restaurant"},{"name":"고기명가","tel":"543-2202","addr":"경기도 포천시 선단동 53-1번지 1층","indutype":"음식 - 한식","category":"restaurant"}]},{"lat":"37.856366402","long":"127.15811207","imageIndex":4,"items":[{"name":"고담","tel":"031-543-9688","addr":"경기도 포천시 선단동 685-4번지 1층","indutype":"일반휴게음식 - 주점","category":"restaurant"},{"name":"향토식당","tel":"031-542-2528","addr":"경기도 포천시 선단동 685-4","indutype":"일반휴게음식 - 일반한식","category":"restaurant"},{"name":"향토식당","tel":"542-2528","addr":"경기도 포천시 선단동 685-4","indutype":"음식 - 한식","category":"restaurant"}]},{"lat":"37.860557722","long":"127.14955266","imageIndex":4,"items":[{"name":"곤지암할매소머리국밥","tel":"543-3224","addr":"경기도 포천시 선단동 814-2번지","indutype":"음식 - 한식","category":"restaurant"},{"name":"곤지암할매소머리국밥","tel":"031-541-0224","addr":"경기도 포천시 선단동 814-2번지","indutype":"일반휴게음식 - 일반한식","category":"restaurant"}]},{"lat":"37.853221009","long":"127.1656161","imageIndex":4,"items":[{"name":"광어2마리15,000원","tel":"031-541-9392","addr":"경기도 포천시 선단동 52-14번지 1층","indutype":"일반휴게음식 - 일반한식","category":"restaurant"},{"name":"목우(두번째이야기)","tel":"031-542-0883","addr":"경기도 포천시 선단동 52-14번지","indutype":"일반휴게음식 - 주점","category":"restaurant"}]},{"lat":"37.860697957","long":"127.15958707","imageIndex":4,"items":[{"name":"그라찌에 남자기숙사점","tel":"031-539-1444","addr":"경기도 포천시 선단동 734-1번지 2층 남자기숙사동","indutype":"일반휴게음식 - 서양음식","category":"restaurant"}]},{"lat":"37.856645306","long":"127.17149833","imageIndex":4,"items":[{"name":"그라찌에-대진대학생회관","tel":"031-267-2964","addr":"경기도 포천시 선단동 11번지 학생회관 1층","indutype":"일반휴게음식 - 서양음식","category":"restaurant"}]},{"lat":"37.853419026","long":"127.16575289","imageIndex":4,"items":[{"name":"그랜드고기고기","tel":"542-5242","addr":"경기도 포천시 선단동 52-7번지","indutype":"음식 - 한식","category":"restaurant"},{"name":"그랜드고기고기","tel":"031-542-5242","addr":"경기도 포천시 선단동 52-7번지","indutype":"일반휴게음식 - 일반한식","category":"restaurant"},{"name":"선희네","tel":"031-544-2700","addr":"경기도 포천시 선단동 52-7번지 1층","indutype":"일반휴게음식 - 주점","category":"restaurant"},{"name":"선희네","tel":"544-2700","addr":"경기도 포천시 선단동 52-7번지","indutype":"음식 - 한식","category":"restaurant"},{"name":"요기파이어매운갈비찜","tel":"543-4008","addr":"경기도 포천시 선단동 52-7번지 1층","indutype":"음식 - 한식","category":"restaurant"},{"name":"퍼줄래생고기","tel":"031-543-4008","addr":"경기도 포천시 선단동 52-7번지","indutype":"일반휴게음식 - 일반한식","category":"restaurant"}]},{"lat":"37.850115869","long":"127.16335959","imageIndex":4,"items":[{"name":"길목","tel":"031-542-7568","addr":"경기도 포천시 선단동 499-8번지","indutype":"일반휴게음식 - 일반한식","category":"restaurant"}]},{"lat":"37.854030164","long":"127.16683368","imageIndex":4,"items":[{"name":"김기원식당","tel":"031-543-4892","addr":"경기도 포천시 선단동 56-2번지","indutype":"일반휴게음식 - 일반한식","category":"restaurant"},{"name":"김기원식당","tel":"543-4892","addr":"경기도 포천시 선단동 56-2번지","indutype":"음식 - 한식","category":"restaurant"},{"name":"대진생고기식당","tel":"031-859-6667","addr":"경기도 포천시 선단동 56-2번지","indutype":"일반휴게음식 - 일반한식","category":"restaurant"},{"name":"옛날통닭&닭강정","tel":"543-9949","addr":"경기도 포천시 선단동 56-2번지","indutype":"음식 - 치킨","category":"restaurant"},{"name":"옛날통닭닭강정","tel":"","addr":"경기도 포천시 선단동 56-2번지","indutype":"일반휴게음식 - 스넥","category":"restaurant"},{"name":"카페블롱쉬","tel":"541-7198","addr":"경기도 포천시 선단동 56-2번지","indutype":"음식 - 제과","category":"restaurant"}]},{"lat":"37.854281999","long":"127.16714104","imageIndex":4,"items":[{"name":"김애옥할매순대국밥&감자탕","tel":"031-543-5883","addr":"경기도 포천시 선단동 57번지","indutype":"일반휴게음식 - 일반한식","category":"restaurant"},{"name":"김애옥할매순대국밥.감자탕","tel":"543-5884","addr":"경기도 포천시 선단동 57번지","indutype":"음식 - 한식","category":"restaurant"},{"name":"호식이두마리치킨 선단점","tel":"544-9256","addr":"경기도 포천시 선단동 57번지","indutype":"음식 - 치킨등","category":"restaurant"},{"name":"호식이두마리치킨선단점","tel":"031-544-9256","addr":"경기도 포천시 선단동 57번지 가동 1층","indutype":"일반휴게음식 - 스넥","category":"restaurant"}]},{"lat":"37.852364271","long":"127.16622779","imageIndex":4,"items":[{"name":"깡돈 선단점","tel":"031-542-7964","addr":"경기도 포천시 선단동 41-2번지","indutype":"일반휴게음식 - 일반한식","category":"restaurant"}]},{"lat":"37.852220971","long":"127.16561391","imageIndex":4,"items":[{"name":"깡돈선단점","tel":"542-7964","addr":"경기도 포천시 선단동 41번지","indutype":"음식 - 한식","category":"restaurant"},{"name":"빨간토마토피자","tel":"031-543-6031","addr":"경기도 포천시 선단동 41번지","indutype":"일반휴게음식 - 서양음식","category":"restaurant"},{"name":"영순네 돼지국밥집","tel":"031-534-1234","addr":"경기도 포천시 선단동 41번지","indutype":"일반휴게음식 - 일반한식","category":"restaurant"}]},{"lat":"37.85316604","long":"127.16627501","imageIndex":4,"items":[{"name":"꿈의대화","tel":"031-542-8510","addr":"경기도 포천시 선단동 45-2번지","indutype":"일반휴게음식 - 주점","category":"restaurant"},{"name":"등심가","tel":"543-3399","addr":"경기도 포천시 선단동 45-2번지","indutype":"음식 - 한식","category":"restaurant"},{"name":"등심가","tel":"031-543-3399","addr":"경기도 포천시 선단동 45-2번지","indutype":"일반휴게음식 - 일반한식","category":"restaurant"},{"name":"해바라기호떡","tel":"543-5914","addr":"경기도 포천시 선단동 45-2번지","indutype":"음식 - 한식","category":"restaurant"},{"name":"해바라기호떡","tel":"031-543-5914","addr":"경기도 포천시 선단동 45-2번지","indutype":"일반휴게음식 - 일반한식","category":"restaurant"}]},{"lat":"37.858948543","long":"127.15391302","imageIndex":4,"items":[{"name":"남부해장국","tel":"031-542-1743","addr":"경기도 포천시 선단동 790-8, 791-6","indutype":"일반휴게음식 - 일반한식","category":"restaurant"}]},{"lat":"37.858858624","long":"127.15377648","imageIndex":4,"items":[{"name":"남부해장국","tel":"542-1743","addr":"경기도 포천시 선단동 791-6번지","indutype":"음식 - 한식","category":"restaurant"}]},{"lat":"37.858692203","long":"127.15706015","imageIndex":4,"items":[{"name":"논두렁바베큐","tel":"031-541-1447","addr":"경기도 포천시 선단동 716번지","indutype":"일반휴게음식 - 일반한식","category":"restaurant"}]},{"lat":"37.857531107","long":"127.16297795","imageIndex":4,"items":[{"name":"놀터","tel":"","addr":"경기도 포천시 선단동 376번지 2층","indutype":"일반휴게음식 - 서양음식","category":"restaurant"}]},{"lat":"37.856421309","long":"127.15044215","imageIndex":4,"items":[{"name":"다비드비스트로$리차드","tel":"031-543-0229","addr":"경기도 포천시 선단동 834-16번지 1층","indutype":"일반휴게음식 - 서양음식","category":"restaurant"},{"name":"다비드비스트로$리차드","tel":"543-0229","addr":"경기도 포천시 선단동 834-16번지 1층","indutype":"음식 - 양식","category":"restaurant"},{"name":"선단전집","tel":"031-542-8292","addr":"경기도 포천시 선단동 834-16번지","indutype":"일반휴게음식 - 일반한식","category":"restaurant"},{"name":"윤'S옛날치킨&호프","tel":"541-2007","addr":"경기도 포천시 선단동 834-16번지 1층","indutype":"음식 - 치킨","category":"restaurant"},{"name":"윤's옛날치킨&호프","tel":"031-541-2007","addr":"경기도 포천시 선단동 834-16번지","indutype":"일반휴게음식 - 스넥","category":"restaurant"}]},{"lat":"37.854499188","long":"127.16644839","imageIndex":4,"items":[{"name":"다비어","tel":"031-543-0953","addr":"경기도 포천시 선단동 55-10번지","indutype":"일반휴게음식 - 주점","category":"restaurant"},{"name":"먹거리천국","tel":"031-542-6405","addr":"경기도 포천시 선단동 55-10번지","indutype":"일반휴게음식 - 일반한식","category":"restaurant"},{"name":"먹거리천국","tel":"542-6405","addr":"경기도 포천시 선단동 55-10번지","indutype":"음식 - 한식","category":"restaurant"},{"name":"순정포차","tel":"031-541-9797","addr":"경기도 포천시 선단동 55-10번지 프리지빌딩","indutype":"일반휴게음식 - 일반한식","category":"restaurant"},{"name":"파리바게트","tel":"543-1021","addr":"경기도 포천시 선단동 55-10번지","indutype":"음식 - 제빵","category":"restaurant"}]},{"lat":"37.854724593","long":"127.15969941","imageIndex":4,"items":[{"name":"다원","tel":"031-544-2455","addr":"경기도 포천시 선단동 634번지 1층","indutype":"일반휴게음식 - 일반한식","category":"restaurant"}]},{"lat":"37.854256282","long":"127.16619788","imageIndex":4,"items":[{"name":"달려라봉쥬비어(대진대점)","tel":"031-542-2978","addr":"경기도 포천시 선단동 55-1번지 2층 3호","indutype":"일반휴게음식 - 주점","category":"restaurant"},{"name":"봉구스밥버거 대진대점","tel":"031-542-0905","addr":"경기도 포천시 선단동 55-1번지","indutype":"일반휴게음식 - 일반한식","category":"restaurant"},{"name":"봉쥬비어대진대점","tel":"542-2978","addr":"경기도 포천시 선단동 55-1번지","indutype":"음식 - 호프","category":"restaurant"},{"name":"커피마마 대진대점","tel":"541-5090","addr":"경기도 포천시 선단동 55-1번지 1층","indutype":"음식 - 커피 등","category":"restaurant"},{"name":"커피마마(대진대점)","tel":"031-541-5090","addr":"경기도 포천시 선단동 55-1번지","indutype":"일반휴게음식 - 서양음식","category":"restaurant"}]},{"lat":"37.863360552","long":"127.1626951","imageIndex":4,"items":[{"name":"대박가든","tel":"031-535-3334","addr":"경기도 포천시 선단동 305-12번지","indutype":"일반휴게음식 - 일반한식","category":"restaurant"}]},{"lat":"37.850221537","long":"127.16514367","imageIndex":4,"items":[{"name":"대복복전문점","tel":"535-0303","addr":"경기도 포천시 선단동 505-9번지","indutype":"음식 - 한식","category":"restaurant"},{"name":"대복복전문점","tel":"031-535-0303","addr":"경기도 포천시 선단동 505-9번지","indutype":"일반휴게음식 - 일반한식","category":"restaurant"}]},{"lat":"37.854806136","long":"127.16599456","imageIndex":4,"items":[{"name":"대진대점 맘스터치","tel":"541-7772","addr":"경기도 포천시 선단동 89-15번지","indutype":"음식 - 치킨등","category":"restaurant"},{"name":"대진대점 맘스터치","tel":"031-541-7772","addr":"경기도 포천시 선단동 89-15번지 1,2층","indutype":"일반휴게음식 - 서양음식","category":"restaurant"},{"name":"초밥매니아","tel":"544-0977","addr":"경기도 포천시 선단동 89-15번지","indutype":"음식 - 한식","category":"restaurant"},{"name":"초밥매니아","tel":"031-1111-1111","addr":"경기도 포천시 선단동 89-15번지 102호","indutype":"일반휴게음식 - 일반한식","category":"restaurant"}]},{"lat":"37.858027449","long":"127.16888792","imageIndex":4,"items":[{"name":"돈스훼미리 돈까스뷔페","tel":"031-533-0133","addr":"경기도 포천시 선단동 104번지","indutype":"일반휴게음식 - 일반한식","category":"restaurant"},{"name":"돈스훼미리돈가스뷔페","tel":"533-0133","addr":"경기도 포천시 선단동 104번지","indutype":"음식 - 한식","category":"restaurant"}]},{"lat":"37.858222723","long":"127.15080936","imageIndex":4,"items":[{"name":"동네식당","tel":"031-542-8386","addr":"경기도 포천시 선단동 838-18번지 1층","indutype":"일반휴게음식 - 일반한식","category":"restaurant"}]},{"lat":"37.857837053","long":"127.16325133","imageIndex":4,"items":[{"name":"동우랑","tel":"031-534-1317","addr":"경기도 포천시 선단동 379-4번지","indutype":"일반휴게음식 - 일반한식","category":"restaurant"}]},{"lat":"37.859250126","long":"127.17072018","imageIndex":4,"items":[{"name":"동해해물부페","tel":"541-8525","addr":"경기도 포천시 선단동 145번지","indutype":"음식 - 한식","category":"restaurant"}]},{"lat":"37.857061585","long":"127.15699994","imageIndex":4,"items":[{"name":"돼지네감자탕집","tel":"543-7006","addr":"경기도 포천시 선단동 678-3번지","indutype":"음식 - 한식","category":"restaurant"}]},{"lat":"37.851973077","long":"127.16242054","imageIndex":4,"items":[{"name":"돼지새끼","tel":"031-543-8354","addr":"경기도 포천시 선단동 460-19번지","indutype":"일반휴게음식 - 일반한식","category":"restaurant"},{"name":"본점장충 왕족발","tel":"031-543-0120","addr":"경기도 포천시 선단동 460-19번지","indutype":"일반휴게음식 - 일반한식","category":"restaurant"},{"name":"본점장충왕족발","tel":"543-0120","addr":"경기도 포천시 선단동 460-19번지","indutype":"음식 - 한식","category":"restaurant"},{"name":"산나래","tel":"031-541-8107","addr":"경기도 포천시 선단동 460-19번지","indutype":"일반휴게음식 - 일반한식","category":"restaurant"}]},{"lat":"37.850225416","long":"127.16230316","imageIndex":4,"items":[{"name":"두리치킨","tel":"542-7741","addr":"경기도 포천시 선단동 539-2번지","indutype":"음식 - 치킨","category":"restaurant"},{"name":"두리치킨","tel":"031-542-7741","addr":"경기도 포천시 선단동 539-2번지 가동","indutype":"일반휴게음식 - 스넥","category":"restaurant"},{"name":"서당골","tel":"","addr":"경기도 포천시 선단동 539-2번지","indutype":"음식 - 한식","category":"restaurant"},{"name":"선단회","tel":"02-1111-1111","addr":"경기도 포천시 선단동 539-2번지 나동 1층 4호,5호","indutype":"일반휴게음식 - 일반한식","category":"restaurant"},{"name":"해룡약초능이해신탕","tel":"","addr":"경기도 포천시 선단동 539-2번지","indutype":"음식 - 한식","category":"restaurant"}]},{"lat":"37.849754921","long":"127.1637792","imageIndex":4,"items":[{"name":"둥이닭갈비","tel":"070-3462-8386","addr":"경기도 포천시 선단동 511-3번지 상하빌딩 1층","indutype":"일반휴게음식 - 일반한식","category":"restaurant"}]},{"lat":"37.853194295","long":"127.16538879","imageIndex":4,"items":[{"name":"둥이닭갈비","tel":"541-5222","addr":"경기도 포천시 선단동 487-10번지","indutype":"음식 - 한식","category":"restaurant"},{"name":"이가 냉면,돈까스","tel":"","addr":"경기도 포천시 선단동 487-10번지 가동 1층 2호","indutype":"일반휴게음식 - 일반한식","category":"restaurant"}]},{"lat":"37.85133349","long":"127.16236236","imageIndex":4,"items":[{"name":"땡큐맘치킨","tel":"543-8196","addr":"경기도 포천시 선단동 537-4번지","indutype":"음식 - 치킨","category":"restaurant"},{"name":"땡큐맘치킨(선단점)","tel":"031-543-8196","addr":"경기도 포천시 선단동 537-4번지","indutype":"일반휴게음식 - 스넥","category":"restaurant"}]},{"lat":"37.853671099","long":"127.16588979","imageIndex":4,"items":[{"name":"또래오래","tel":"031-543-8978","addr":"경기도 포천시 선단동 52-3번지","indutype":"일반휴게음식 - 서양음식","category":"restaurant"},{"name":"번개맞은참새","tel":"541-1270","addr":"경기도 포천시 선단동 52-3번지","indutype":"음식 - 한식","category":"restaurant"},{"name":"순대곱창전문점","tel":"031-541-1270","addr":"경기도 포천시 선단동 52-3번지","indutype":"일반휴게음식 - 일반한식","category":"restaurant"},{"name":"토토(TOTO)","tel":"070-4038-1729","addr":"경기도 포천시 선단동 52-3번지 2층","indutype":"일반휴게음식 - 주점","category":"restaurant"}]},{"lat":"37.851422797","long":"127.16294202","imageIndex":4,"items":[{"name":"레몬참고기","tel":"031-542-3311","addr":"경기도 포천시 선단동 461-1 외7필지엘카운티A동2층나호","indutype":"일반휴게음식 - 일반한식","category":"restaurant"}]},{"lat":"37.851061882","long":"127.16333892","imageIndex":4,"items":[{"name":"레몬호프","tel":"031-543-0707","addr":"경기도 포천시 선단동 498-1번지","indutype":"일반휴게음식 - 주점","category":"restaurant"},{"name":"커피베이 포천선단점","tel":"031-544-0959","addr":"경기도 포천시 선단동 498-1번지 A동 1층 가-2호","indutype":"일반휴게음식 - 서양음식","category":"restaurant"},{"name":"커피베이포천선단점","tel":"544-0959","addr":"경기도 포천시 선단동 498-1번지","indutype":"음식 - 커피 등","category":"restaurant"},{"name":"화(HUO)","tel":"031-541-8879","addr":"경기도 포천시 선단동 498-1번지","indutype":"일반휴게음식 - 중국식","category":"restaurant"}]},{"lat":"37.850278902","long":"127.16272367","imageIndex":4,"items":[{"name":"레브커피(Reve coffee)","tel":"02-000-0000","addr":"경기도 포천시 선단동 539-4번지 1층","indutype":"일반휴게음식 - 서양음식","category":"restaurant"}]},{"lat":"37.855418567","long":"127.16614362","imageIndex":4,"items":[{"name":"만산토방","tel":"541-3225","addr":"경기도 포천시 선단동 91-1번지","indutype":"음식 - 한식","category":"restaurant"}]},{"lat":"37.849810107","long":"127.1629499","imageIndex":4,"items":[{"name":"매바도 불닭발","tel":"","addr":"경기도 포천시 선단동 534-4","indutype":"음식 - 한식","category":"restaurant"},{"name":"매바도불닭발","tel":"031-543-7079","addr":"경기도 포천시 선단동 534-4번지","indutype":"일반휴게음식 - 일반한식","category":"restaurant"},{"name":"연다방","tel":"031-542-0667","addr":"경기도 포천시 선단동 534-4번지 2층","indutype":"일반휴게음식 - 서양음식","category":"restaurant"}]},{"lat":"37.85383142","long":"127.16721957","imageIndex":4,"items":[{"name":"맷돌빈대떡","tel":"541-2634","addr":"경기도 포천시 선단동 56-4","indutype":"음식 - 한식","category":"restaurant"}]},{"lat":"37.853894644","long":"127.16710609","imageIndex":4,"items":[{"name":"맷돌빈대떡","tel":"070-7523-6492","addr":"경기도 포천시 선단동 56-6번지","indutype":"일반휴게음식 - 주점","category":"restaurant"},{"name":"선단리곱창","tel":"031-542-3669","addr":"경기도 포천시 선단동 56-6번지","indutype":"일반휴게음식 - 일반한식","category":"restaurant"}]},{"lat":"37.856249026","long":"127.15830499","imageIndex":4,"items":[{"name":"멕시카나치킨","tel":"031-541-4472","addr":"경기도 포천시 선단동 685-9번지 1","indutype":"일반휴게음식 - 주점","category":"restaurant"}]},{"lat":"37.856693206","long":"127.16299887","imageIndex":4,"items":[{"name":"명산오리","tel":"031-541-5282","addr":"경기도 포천시 선단동 399-3번지","indutype":"일반휴게음식 - 일반한식","category":"restaurant"},{"name":"명산오리","tel":"","addr":"경기도 포천시 선단동 399-3번지","indutype":"음식 - 한식","category":"restaurant"}]},{"lat":"37.855392282","long":"127.15199681","imageIndex":4,"items":[{"name":"명성가든","tel":"541-5266","addr":"경기도 포천시 선단동 858-1","indutype":"음식 - 한식","category":"restaurant"},{"name":"명성가든","tel":"031-541-5266","addr":"경기도 포천시 선단동 858-1번지","indutype":"일반휴게음식 - 일반한식","category":"restaurant"}]},{"lat":"37.849889906","long":"127.16389312","imageIndex":4,"items":[{"name":"명품숯불갈비","tel":"536-6606","addr":"경기도 포천시 선단동 512-1번지","indutype":"음식 - 한식","category":"restaurant"},{"name":"소문난바베큐","tel":"031-536-6606","addr":"경기도 포천시 선단동 512-1번지 1층","indutype":"일반휴게음식 - 일반한식","category":"restaurant"}]},{"lat":"37.851748259","long":"127.16211328","imageIndex":4,"items":[{"name":"명품아구찜","tel":"031-531-6997","addr":"경기도 포천시 선단동 458-2번지 1층","indutype":"일반휴게음식 - 일반한식","category":"restaurant"},{"name":"열빈","tel":"534-5349","addr":"경기도 포천시 선단동 458-2번지","indutype":"음식 - 한식","category":"restaurant"}]},{"lat":"37.851946541","long":"127.16205689","imageIndex":4,"items":[{"name":"명품한우암소전문점","tel":"031-541-2712","addr":"경기도 포천시 선단동 458-4번지","indutype":"일반휴게음식 - 일반한식","category":"restaurant"},{"name":"선단순대국","tel":"","addr":"경기도 포천시 선단동 458-4번지 1층","indutype":"일반휴게음식 - 일반한식","category":"restaurant"}]},{"lat":"37.857195486","long":"127.15094367","imageIndex":4,"items":[{"name":"민제식당","tel":"031-543-7573","addr":"경기도 포천시 선단동 836번지 나동 1층","indutype":"일반휴게음식 - 일반한식","category":"restaurant"}]},{"lat":"37.853562105","long":"127.16652586","imageIndex":4,"items":[{"name":"바오밥나무와 술췐보아","tel":"543-5639","addr":"경기도 포천시 선단동 49-4번지","indutype":"음식 - 한식","category":"restaurant"},{"name":"바오밥나무와술첸보아","tel":"031-543-5639","addr":"경기도 포천시 선단동 49-4번지","indutype":"일반휴게음식 - 일반한식","category":"restaurant"},{"name":"불판위에곱창","tel":"031-541-9740","addr":"경기도 포천시 선단동 49-4번지","indutype":"일반휴게음식 - 일반한식","category":"restaurant"}]},{"lat":"37.850726873","long":"127.16455394","imageIndex":4,"items":[{"name":"방일해장국","tel":"031-541-4781","addr":"경기도 포천시 선단동 505-4번지","indutype":"일반휴게음식 - 일반한식","category":"restaurant"},{"name":"방일해장국","tel":"541-4781","addr":"경기도 포천시 선단동 505-4번지","indutype":"음식 - 한식","category":"restaurant"}]},{"lat":"37.855977497","long":"127.15924755","imageIndex":4,"items":[{"name":"별미식당","tel":"031-541-1643","addr":"경기도 포천시 선단동 687-8번지","indutype":"일반휴게음식 - 일반한식","category":"restaurant"}]},{"lat":"37.855887509","long":"127.15916782","imageIndex":4,"items":[{"name":"별미식당","tel":"541-1643","addr":"경기도 포천시 선단동 687-4","indutype":"음식 - 한식","category":"restaurant"}]},{"lat":"37.849998902","long":"127.16324572","imageIndex":4,"items":[{"name":"북경반점","tel":"544-7300","addr":"경기도 포천시 선단동 510번지","indutype":"음식 - 중식","category":"restaurant"},{"name":"북경반점","tel":"031-544-7300","addr":"경기도 포천시 선단동 510번지","indutype":"일반휴게음식 - 중국식","category":"restaurant"}]},{"lat":"37.853696549","long":"127.16702611","imageIndex":4,"items":[{"name":"비몽사몽","tel":"031-543-7401","addr":"경기도 포천시 선단동 49-6번지","indutype":"일반휴게음식 - 일반한식","category":"restaurant"},{"name":"비몽사몽","tel":"543-7401","addr":"경기도 포천시 선단동 49-6번지","indutype":"음식 - 한식","category":"restaurant"},{"name":"오구쌀피자(대진대점)","tel":"542-5933","addr":"경기도 포천시 선단동 49-6번지","indutype":"음식 - 피자 등","category":"restaurant"},{"name":"오구쌀피자(대진대점)","tel":"031-000-0000","addr":"경기도 포천시 선단동 49-6번지 1층","indutype":"일반휴게음식 - 서양음식","category":"restaurant"}]},{"lat":"37.849665926","long":"127.16297231","imageIndex":4,"items":[{"name":"뼈다귀박사","tel":"031-543-1891","addr":"경기도 포천시 선단동 534-7번지","indutype":"일반휴게음식 - 일반한식","category":"restaurant"},{"name":"뼈다귀박사","tel":"543-1891","addr":"경기도 포천시 선단동 534-7번지","indutype":"음식 - 한식","category":"restaurant"}]},{"lat":"37.852977033","long":"127.16613824","imageIndex":4,"items":[{"name":"산채랑","tel":"541-3385","addr":"경기도 포천시 선단동 45번지","indutype":"음식 - 한식","category":"restaurant"},{"name":"산채랑","tel":"031-541-3385","addr":"경기도 포천시 선단동 45번지","indutype":"일반휴게음식 - 일반한식","category":"restaurant"},{"name":"인생술집","tel":"031-542-9667","addr":"경기도 포천시 선단동 45번지 1층","indutype":"일반휴게음식 - 주점","category":"restaurant"},{"name":"인생술집","tel":"542-9667","addr":"경기도 포천시 선단동 45번지 1층","indutype":"음식 - 호프","category":"restaurant"}]},{"lat":"37.850333143","long":"127.16258744","imageIndex":4,"items":[{"name":"서당골","tel":"031-542-1467","addr":"경기도 포천시 선단동 539-2번지 가동 1층","indutype":"일반휴게음식 - 일반한식","category":"restaurant"},{"name":"송아지정육식당","tel":"541-2219","addr":"경기도 포천시 선단동 539-2번지 가동1층","indutype":"음식 - 한식","category":"restaurant"},{"name":"숑아지정육식당","tel":"031-541-2219","addr":"경기도 포천시 선단동 539-2번지 가동 1층","indutype":"일반휴게음식 - 일반한식","category":"restaurant"}]},{"lat":"37.851504775","long":"127.16228319","imageIndex":4,"items":[{"name":"서울식당","tel":"541-3373","addr":"경기도 포천시 선단동 537번지","indutype":"음식 - 한식","category":"restaurant"},{"name":"서울식당","tel":"031-541-3373","addr":"경기도 포천시 선단동 537번지","indutype":"일반휴게음식 - 일반한식","category":"restaurant"},{"name":"철원생고기집","tel":"031-543-0371","addr":"경기도 포천시 선단동 537번지","indutype":"일반휴게음식 - 일반한식","category":"restaurant"},{"name":"철원생고기집","tel":"543-0371","addr":"경기도 포천시 선단동 537번지","indutype":"음식 - 한식","category":"restaurant"}]},{"lat":"37.859219739","long":"127.15319768","imageIndex":4,"items":[{"name":"석순이식당","tel":"031-544-6570","addr":"경기도 포천시 선단동 790-2번지","indutype":"일반휴게음식 - 일반한식","category":"restaurant"}]},{"lat":"37.858447857","long":"127.15088936","imageIndex":4,"items":[{"name":"선단동 소래포구","tel":"541-7434","addr":"경기도 포천시 선단동 838-15번지","indutype":"음식 - 한식","category":"restaurant"}]},{"lat":"37.850783534","long":"127.16264522","imageIndex":4,"items":[{"name":"선단바지락손칼국수","tel":"541-9050","addr":"경기도 포천시 선단동 537-10번지","indutype":"음식 - 한식","category":"restaurant"},{"name":"옛날통닭","tel":"543-1192","addr":"경기도 포천시 선단동 537-10번지","indutype":"음식 - 치킨등","category":"restaurant"},{"name":"옛날통닭","tel":"031-543-1192","addr":"경기도 포천시 선단동 537-10번지","indutype":"일반휴게음식 - 스넥","category":"restaurant"}]},{"lat":"37.851225347","long":"127.16238485","imageIndex":4,"items":[{"name":"선단바지락손칼국수","tel":"031-541-9050","addr":"경기도 포천시 선단동 537-5번지","indutype":"일반휴게음식 - 일반한식","category":"restaurant"}]},{"lat":"37.860449185","long":"127.14989336","imageIndex":4,"items":[{"name":"선단숲","tel":"","addr":"경기도 포천시 선단동 803-4번지 탑빌딩 1층","indutype":"일반휴게음식 - 서양음식","category":"restaurant"}]},{"lat":"37.855699125","long":"127.15855382","imageIndex":4,"items":[{"name":"선단왕족발","tel":"031-542-0096","addr":"경기도 포천시 선단동 642-1번지 1층","indutype":"일반휴게음식 - 일반한식","category":"restaurant"},{"name":"선단왕족발","tel":"542-0096","addr":"경기도 포천시 선단동 642-1번지","indutype":"음식 - 한식","category":"restaurant"},{"name":"선단용치킨","tel":"031-542-8653","addr":"경기도 포천시 선단동 642-1번지","indutype":"일반휴게음식 - 스넥","category":"restaurant"},{"name":"선단용치킨","tel":"542-8653","addr":"경기도 포천시 선단동 642-1번지","indutype":"음식 - 치킨","category":"restaurant"}]},{"lat":"37.850270432","long":"127.16232598","imageIndex":4,"items":[{"name":"선단회","tel":"","addr":"경기도 포천시 선단동 539-2번지 나동 4호","indutype":"음식 - 일반횟집","category":"restaurant"},{"name":"해룡약초능이해신탕","tel":"070-8849-5779","addr":"경기도 포천시 선단동 539-2번지 나동 1층","indutype":"일반휴게음식 - 일반한식","category":"restaurant"}]},{"lat":"37.858116209","long":"127.16983128","imageIndex":4,"items":[{"name":"소담숯불오리","tel":"031-541-2797","addr":"경기도 포천시 선단동 81-8번지","indutype":"일반휴게음식 - 일반한식","category":"restaurant"},{"name":"소담숯불오리","tel":"541-2797","addr":"경기도 포천시 선단동 81-8번지","indutype":"음식 - 한식","category":"restaurant"}]},{"lat":"37.856335511","long":"127.16758875","imageIndex":4,"items":[{"name":"속풀청","tel":"542-1323","addr":"경기도 포천시 선단동 101-11번지","indutype":"음식 - 한식","category":"restaurant"},{"name":"속풀청","tel":"031-542-1323","addr":"경기도 포천시 선단동 101-11번지 1층","indutype":"일반휴게음식 - 일반한식","category":"restaurant"}]},{"lat":"37.848082186","long":"127.16156003","imageIndex":4,"items":[{"name":"송우리손칼국수3,500","tel":"031-541-3412","addr":"경기도 포천시 선단동 556-4번지","indutype":"일반휴게음식 - 일반한식","category":"restaurant"},{"name":"송우리칼국수","tel":"541-3412","addr":"경기도 포천시 선단동 556-4번지","indutype":"음식 - 한식","category":"restaurant"}]},{"lat":"37.856145199","long":"127.16838373","imageIndex":4,"items":[{"name":"송추부일 부대찌개","tel":"542-5298","addr":"경기도 포천시 선단동 82-6번지 1층","indutype":"음식 - 한식","category":"restaurant"},{"name":"송추부일 부대찌개","tel":"070-1234-5678","addr":"경기도 포천시 선단동 82-6번지 1층","indutype":"일반휴게음식 - 일반한식","category":"restaurant"}]},{"lat":"37.857004998","long":"127.16557897","imageIndex":4,"items":[{"name":"수치킨호프","tel":"031-535-0466","addr":"경기도 포천시 선단동 403-11번지 1층","indutype":"일반휴게음식 - 일반한식","category":"restaurant"}]},{"lat":"37.856583232","long":"127.1643622","imageIndex":4,"items":[{"name":"술을부르는시간","tel":"031-536-7064","addr":"경기도 포천시 선단동 401-7번지","indutype":"일반휴게음식 - 주점","category":"restaurant"},{"name":"진미 옛날 통닭","tel":"031-544-0799","addr":"경기도 포천시 선단동 401-7번지 1층","indutype":"일반휴게음식 - 스넥","category":"restaurant"}]},{"lat":"37.852117873","long":"127.16194364","imageIndex":4,"items":[{"name":"술한잔","tel":"070-4755-9547","addr":"경기도 포천시 선단동 458번지","indutype":"일반휴게음식 - 주점","category":"restaurant"},{"name":"조은식당","tel":"031-541-6202","addr":"경기도 포천시 선단동 458번지","indutype":"일반휴게음식 - 일반한식","category":"restaurant"}]},{"lat":"37.861420631","long":"127.17124784","imageIndex":4,"items":[{"name":"신바람난 찐빵집","tel":"031-532-5866","addr":"경기도 포천시 선단동 2-3번지","indutype":"일반휴게음식 - 스넥","category":"restaurant"},{"name":"신바람찐빵집","tel":"532-5866","addr":"경기도 포천시 선단동 2-3번지","indutype":"음식 - 한식","category":"restaurant"}]},{"lat":"37.852831651","long":"127.16702419","imageIndex":4,"items":[{"name":"신짱돌 국물 떡볶이","tel":"031-542-3555","addr":"경기도 포천시 선단동 34번지 허브캐슬2차 101동 101호","indutype":"일반휴게음식 - 스넥","category":"restaurant"},{"name":"신짱돌국물떡볶기","tel":"","addr":"경기도 포천시 선단동 34번지 허브캐슬2차 101동","indutype":"음식 - 분식","category":"restaurant"}]},{"lat":"37.860252995","long":"127.15539295","imageIndex":4,"items":[{"name":"아빠 치킨","tel":"031-541-4120","addr":"경기도 포천시 선단동 761-1번지","indutype":"일반휴게음식 - 스넥","category":"restaurant"}]},{"lat":"37.859364988","long":"127.15233435","imageIndex":4,"items":[{"name":"아우네치킨","tel":"031-542-3846","addr":"경기도 포천시 선단동 792-8번지","indutype":"일반휴게음식 - 스넥","category":"restaurant"}]},{"lat":"37.859503535","long":"127.16991395","imageIndex":4,"items":[{"name":"알라딘","tel":"031-827-9288","addr":"경기도 포천시 선단동 141-3번지 1층","indutype":"일반휴게음식 - 일반한식","category":"restaurant"},{"name":"알라딘","tel":"533-5575","addr":"경기도 포천시 선단동 141-3번지","indutype":"음식 - 한식","category":"restaurant"},{"name":"쭈꾸미클럽","tel":"544-5949","addr":"경기도 포천시 선단동 141-3번지","indutype":"음식 - 한식","category":"restaurant"},{"name":"한우만","tel":"","addr":"경기도 포천시 선단동 141-3번지 2층","indutype":"음식 - 한식","category":"restaurant"},{"name":"한우만","tel":"031-544-5949","addr":"경기도 포천시 선단동 141-3번지 2층","indutype":"일반휴게음식 - 일반한식","category":"restaurant"}]},{"lat":"37.855364484","long":"127.15953032","imageIndex":4,"items":[{"name":"엄마국밥","tel":"","addr":"경기도 포천시 선단동 689-4번지","indutype":"일반휴게음식 - 일반한식","category":"restaurant"},{"name":"엄마국밥","tel":"544-5639","addr":"경기도 포천시 선단동 689-4번지","indutype":"음식 - 한식","category":"restaurant"}]},{"lat":"37.851757114","long":"127.16222692","imageIndex":4,"items":[{"name":"열빈","tel":"031-543-9982","addr":"경기도 포천시 선단동 459-2 외1필지 (458-2)","indutype":"일반휴게음식 - 일반한식","category":"restaurant"}]},{"lat":"37.854110979","long":"127.16702703","imageIndex":4,"items":[{"name":"영자호프","tel":"031-542-7718","addr":"경기도 포천시 선단동 56-1번지","indutype":"일반휴게음식 - 주점","category":"restaurant"}]},{"lat":"37.851054046","long":"127.16247538","imageIndex":4,"items":[{"name":"옛날마포불고기","tel":"543-7120","addr":"경기도 포천시 선단동 537-6번지 1층","indutype":"음식 - 한식","category":"restaurant"},{"name":"옛날마포불고기","tel":"031-543-7120","addr":"경기도 포천시 선단동 537-6번지 1층","indutype":"일반휴게음식 - 일반한식","category":"restaurant"}]},{"lat":"37.850972468","long":"127.16283879","imageIndex":4,"items":[{"name":"오가며","tel":"031-542-1875","addr":"경기도 포천시 선단동 460-15번지","indutype":"일반휴게음식 - 일반한식","category":"restaurant"}]},{"lat":"37.856336098","long":"127.16716832","imageIndex":4,"items":[{"name":"우등생","tel":"031-541-2228","addr":"경기도 포천시 선단동 109-2번지 1층","indutype":"일반휴게음식 - 일반한식","category":"restaurant"}]},{"lat":"37.860445893","long":"127.15250699","imageIndex":4,"items":[{"name":"은행나무집","tel":"031-543-2231","addr":"경기도 포천시 선단동 797번지","indutype":"일반휴게음식 - 일반한식","category":"restaurant"}]},{"lat":"37.857306156","long":"127.16927265","imageIndex":4,"items":[{"name":"이공비빔국수 왕돈까스","tel":"532-2095","addr":"경기도 포천시 선단동 82-5번지","indutype":"음식 - 한식","category":"restaurant"},{"name":"이공비빔국수왕돈까스","tel":"031-532-2095","addr":"경기도 포천시 선단동 82-5번지","indutype":"일반휴게음식 - 일반한식","category":"restaurant"}]},{"lat":"37.863058041","long":"127.1598648","imageIndex":4,"items":[{"name":"이도령양념통닭","tel":"031-542-5370","addr":"경기도 포천시 선단동 307-4번지 1층","indutype":"일반휴게음식 - 스넥","category":"restaurant"}]},{"lat":"37.853805199","long":"127.16664002","imageIndex":4,"items":[{"name":"이디야 대진대점","tel":"542-2077","addr":"경기도 포천시 선단동 49-2번지 1층","indutype":"음식 - 커피 등","category":"restaurant"},{"name":"이디야커피 대진대학교점","tel":"031-542-2077","addr":"경기도 포천시 선단동 49-2번지","indutype":"일반휴게음식 - 서양음식","category":"restaurant"},{"name":"이디야커피 대진대학교점","tel":"031-542-2077","addr":"경기도 포천시 선단동 49-2번지","indutype":"음식 - 커피","category":"restaurant"}]},{"lat":"37.854527113","long":"127.16580078","imageIndex":4,"items":[{"name":"이모네빈대떡","tel":"031-542-3933","addr":"경기도 포천시 선단동 54번지 1층","indutype":"일반휴게음식 - 일반한식","category":"restaurant"},{"name":"이모네빈대떡","tel":"","addr":"경기도 포천시 선단동 54번지 1층","indutype":"음식 - 한식","category":"restaurant"}]},{"lat":"37.8599985","long":"127.17030143","imageIndex":4,"items":[{"name":"장수촌순대국","tel":"031-536-5080","addr":"경기도 포천시 선단동 139-1번지","indutype":"일반휴게음식 - 일반한식","category":"restaurant"}]},{"lat":"37.855166655","long":"127.15924584","imageIndex":4,"items":[{"name":"전주 가 생선모듬조림","tel":"031-543-1555","addr":"경기도 포천시 선단동 635-2번지 1층","indutype":"일반휴게음식 - 일반한식","category":"restaurant"},{"name":"진주가생선모듬조림","tel":"543-1555","addr":"경기도 포천시 선단동 635-2번지","indutype":"음식 - 한식","category":"restaurant"}]},{"lat":"37.851951082","long":"127.16532925","imageIndex":4,"items":[{"name":"조선통닭","tel":"031-542-9688","addr":"경기도 포천시 선단동 495-1번지","indutype":"일반휴게음식 - 일반한식","category":"restaurant"},{"name":"조선통닭","tel":"542-9688","addr":"경기도 포천시 선단동 495-1번지","indutype":"음식 - 한식","category":"restaurant"}]},{"lat":"37.858332191","long":"127.17000221","imageIndex":4,"items":[{"name":"지호한방삼계탕","tel":"031-534-3580","addr":"경기도 포천시 선단동 81-10번지","indutype":"일반휴게음식 - 일반한식","category":"restaurant"}]},{"lat":"37.852667213","long":"127.16211525","imageIndex":4,"items":[{"name":"진미24","tel":"031-543-1546","addr":"경기도 포천시 선단동 460-11번지","indutype":"일반휴게음식 - 일반한식","category":"restaurant"},{"name":"진미24시","tel":"031-543-1546","addr":"경기도 포천시 선단동 460-11번지","indutype":"일반휴게음식 - 일반한식","category":"restaurant"},{"name":"진미24시","tel":"543-1546","addr":"경기도 포천시 선단동 460-11번지","indutype":"음식 - 한식","category":"restaurant"}]},{"lat":"37.854228259","long":"127.16691366","imageIndex":4,"items":[{"name":"착한고기집","tel":"031-543-3993","addr":"경기도 포천시 선단동 56-19번지","indutype":"일반휴게음식 - 일반한식","category":"restaurant"},{"name":"착한고기집","tel":"543-3993","addr":"경기도 포천시 선단동 56-19번지","indutype":"음식 - 한식","category":"restaurant"}]},{"lat":"37.859308873","long":"127.15394785","imageIndex":4,"items":[{"name":"청송식당","tel":"542-7175","addr":"경기도 포천시 선단동 786-10번지","indutype":"음식 - 한식","category":"restaurant"},{"name":"청송식당","tel":"031-542-7175","addr":"경기도 포천시 선단동 786-10번지","indutype":"일반휴게음식 - 일반한식","category":"restaurant"}]},{"lat":"37.857665894","long":"127.15647849","imageIndex":4,"items":[{"name":"청하반점","tel":"031-542-4190","addr":"경기도 포천시 선단동 669-5","indutype":"일반휴게음식 - 중국식","category":"restaurant"},{"name":"청하반점","tel":"542-4190","addr":"경기도 포천시 선단동 669-5번지","indutype":"음식 - 중식","category":"restaurant"}]},{"lat":"37.84917109","long":"127.16247132","imageIndex":4,"items":[{"name":"추오정남원추어탕","tel":"031-541-2988","addr":"경기도 포천시 선단동 534번지","indutype":"일반휴게음식 - 일반한식","category":"restaurant"}]},{"lat":"37.863111657","long":"127.16019447","imageIndex":4,"items":[{"name":"카페 밀","tel":"031-535-0825","addr":"경기도 포천시 선단동 308-5번지","indutype":"일반휴게음식 - 일반한식","category":"restaurant"},{"name":"카페밀빈앤티","tel":"-","addr":"경기도 포천시 선단동 308-5번지","indutype":"음식 - 한식","category":"restaurant"},{"name":"카페휴","tel":"","addr":"경기도 포천시 선단동 308-5번지","indutype":"일반휴게음식 - 서양음식","category":"restaurant"}]},{"lat":"37.851834915","long":"127.1646359","imageIndex":4,"items":[{"name":"카페 하이케","tel":"070-1478-1236","addr":"경기도 포천시 선단동 493-9번지","indutype":"일반휴게음식 - 서양음식","category":"restaurant"}]},{"lat":"37.854560987","long":"127.16735755","imageIndex":4,"items":[{"name":"컴플리트커피","tel":"070-8865-0913","addr":"경기도 포천시 선단동 58-12번지","indutype":"음식 - 커피 등","category":"restaurant"},{"name":"컴플리트커피","tel":"","addr":"경기도 포천시 선단동 58-12번지","indutype":"일반휴게음식 - 서양음식","category":"restaurant"},{"name":"훙훙훠훠마라탕","tel":"","addr":"경기도 포천시 선단동 58-12번지 1층","indutype":"일반휴게음식 - 중국식","category":"restaurant"}]},{"lat":"37.852418831","long":"127.16586431","imageIndex":4,"items":[{"name":"큐","tel":"031-542-5579","addr":"경기도 포천시 선단동 41-6번지 지하1층","indutype":"일반휴게음식 - 주점","category":"restaurant"},{"name":"포천금돼지","tel":"541-7300","addr":"경기도 포천시 선단동 41-6번지","indutype":"음식 - 커피 등","category":"restaurant"},{"name":"포천금돼지","tel":"031-541-7300","addr":"경기도 포천시 선단동 41-6번지","indutype":"일반휴게음식 - 일반한식","category":"restaurant"}]},{"lat":"37.862476899","long":"127.15647711","imageIndex":4,"items":[{"name":"토방","tel":"031-543-9865","addr":"경기도 포천시 선단동 289-2번지","indutype":"일반휴게음식 - 일반한식","category":"restaurant"},{"name":"토방정육식당","tel":"543-9865","addr":"경기도 포천시 선단동 289-2번지","indutype":"음식 - 한식","category":"restaurant"}]},{"lat":"37.853443621","long":"127.16750278","imageIndex":4,"items":[{"name":"토속집","tel":"031-543-5836","addr":"경기도 포천시 선단동 49-11번지 1층","indutype":"일반휴게음식 - 일반한식","category":"restaurant"},{"name":"토속집","tel":"543-5836","addr":"경기도 포천시 선단동 49-11번지","indutype":"음식 - 한식","category":"restaurant"}]},{"lat":"37.853867061","long":"127.16750372","imageIndex":4,"items":[{"name":"토속집","tel":"031-543-5836","addr":"경기도 포천시 선단동 56-11번지","indutype":"일반휴게음식 - 일반한식","category":"restaurant"}]},{"lat":"37.848198295","long":"127.16231016","imageIndex":4,"items":[{"name":"투명한 복자네만두","tel":"","addr":"경기도 포천시 선단동 529-1번지 1층","indutype":"음식 - 분식","category":"restaurant"},{"name":"투명한복자네만두","tel":"031-541-2252","addr":"경기도 포천시 선단동 529-1번지 1층","indutype":"일반휴게음식 - 일반한식","category":"restaurant"}]},{"lat":"37.851671667","long":"127.16541954","imageIndex":4,"items":[{"name":"포천한우마을","tel":"031-544-1500","addr":"경기도 포천시 선단동 495-9번지 1층 ,2층","indutype":"일반휴게음식 - 일반한식","category":"restaurant"}]},{"lat":"37.854668893","long":"127.1675055","imageIndex":4,"items":[{"name":"풍천민물장어 드람하우스","tel":"031-536-7834","addr":"경기도 포천시 선단동 58-11번지","indutype":"일반휴게음식 - 일반한식","category":"restaurant"},{"name":"풍천민물장어드림하우스","tel":"536-7834","addr":"경기도 포천시 선단동 58-11번지","indutype":"음식 - 한식","category":"restaurant"},{"name":"한탄강메기매운탕","tel":"543-5535","addr":"경기도 포천시 선단동 58-11번지 2층","indutype":"음식 - 한식","category":"restaurant"}]},{"lat":"37.857756278","long":"127.16302389","imageIndex":4,"items":[{"name":"피자에꿈","tel":"031-536-6616","addr":"경기도 포천시 선단동 378번지","indutype":"일반휴게음식 - 서양음식","category":"restaurant"},{"name":"피자에꿈","tel":"536-6616","addr":"경기도 포천시 선단동 378번지","indutype":"음식 - 피자 등","category":"restaurant"}]},{"lat":"37.862723626","long":"127.16725068","imageIndex":4,"items":[{"name":"한라출장부페","tel":"031-531-9957","addr":"경기도 포천시 선단동 217-9번지","indutype":"일반휴게음식 - 일반한식","category":"restaurant"}]},{"lat":"37.853641668","long":"127.16761684","imageIndex":4,"items":[{"name":"한상궁 왕족발","tel":"031-535-1338","addr":"경기도 포천시 선단동 56-8번지 1층","indutype":"일반휴게음식 - 일반한식","category":"restaurant"},{"name":"한상궁왕족발","tel":"541-0510","addr":"경기도 포천시 선단동 56-8번지","indutype":"음식 - 한식","category":"restaurant"}]},{"lat":"37.848919658","long":"127.16185723","imageIndex":4,"items":[{"name":"형제식당","tel":"031-541-4291","addr":"경기도 포천시 선단동 555번지 1층","indutype":"일반휴게음식 - 일반한식","category":"restaurant"}]},{"lat":"37.851978908","long":"127.16474984","imageIndex":4,"items":[{"name":"호국로식당","tel":"544-1413","addr":"경기도 포천시 선단동 493-15번지","indutype":"음식 - 한식","category":"restaurant"},{"name":"호국로영양탕","tel":"031-544-1413","addr":"경기도 포천시 선단동 493-15번지","indutype":"일반휴게음식 - 일반한식","category":"restaurant"}]},{"lat":"37.863053571","long":"127.15642149","imageIndex":4,"items":[{"name":"홍짜장&유성냉면","tel":"544-4442","addr":"경기도 포천시 선단동 277-5번지","indutype":"음식 - 중식","category":"restaurant"},{"name":"홍짜장&유성냉면","tel":"031-542-0355","addr":"경기도 포천시 선단동 277-5번지","indutype":"일반휴게음식 - 일반한식","category":"restaurant"}]},{"lat":"37.853777237","long":"127.16731035","imageIndex":4,"items":[{"name":"회룡닭발","tel":"031-544-6690","addr":"경기도 포천시 선단동 56-7번지","indutype":"일반휴게음식 - 일반한식","category":"restaurant"}]}]