[{"lat":"37.269823497","long":"127.21781484","imageIndex":8,"items":[{"name":"뉴욕치과의원","tel":"031-321-7582","addr":"경기도 용인시 처인구 포곡읍 둔전리 154-1번지 상일빌딩 2층","indutype":"의원 - 치과의원","category":"medical"},{"name":"제일메디플러스의원","tel":"031-322-7582","addr":"경기도 용인시 처인구 포곡읍 둔전리 154-1번지 상일빌딩 3층 4층","indutype":"의원 - 의원","category":"medical"},{"name":"제일의원","tel":"031-322-7582","addr":"경기도 용인시 처인구 포곡읍 둔전리 154-1번지 상일빌딩 4층","indutype":"의원 - 의원","category":"medical"}]},{"lat":"37.286267804","long":"127.21748946","imageIndex":8,"items":[{"name":"대동한약방","tel":"031-338-3232","addr":"경기도 용인시 처인구 포곡읍 전대리 191-30","indutype":"약국 - 한약방","category":"medical"}]},{"lat":"37.284962326","long":"127.21693321","imageIndex":8,"items":[{"name":"도원한의원","tel":"031-334-1075","addr":"경기도 용인시 처인구 포곡읍 전대리 362-1번지","indutype":"의원 - 한의원","category":"medical"},{"name":"한국의원","tel":"031-333-1348","addr":"경기도 용인시 처인구 포곡읍 전대리 362-1번지","indutype":"의원 - 의원","category":"medical"}]},{"lat":"37.285160162","long":"127.21714802","imageIndex":8,"items":[{"name":"독일약국","tel":"031-333-2920","addr":"경기도 용인시 처인구 포곡읍 전대리 360-9번지","indutype":"약국 - 약국","category":"medical"}]},{"lat":"37.268995211","long":"127.21745171","imageIndex":8,"items":[{"name":"둔전한의원","tel":"031-339-5259","addr":"경기도 용인시 처인구 포곡읍 둔전리 152-8번지 2층","indutype":"의원 - 한의원","category":"medical"},{"name":"둔전한의원","tel":"031-339-5250","addr":"경기도 용인시 처인구 포곡읍 둔전리 152-8번지 2층 1호","indutype":"의원 - 한의원","category":"medical"}]},{"lat":"37.269490712","long":"127.21748694","imageIndex":8,"items":[{"name":"메디팜용인약국","tel":"031-339-9346","addr":"경기도 용인시 처인구 포곡읍 둔전리 152-9번지","indutype":"약국 - 약국","category":"medical"},{"name":"범세이비인후과","tel":"031-322-1219","addr":"경기도 용인시 처인구 포곡읍 둔전리 152-9번지 2층","indutype":"의원 - 의원","category":"medical"}]},{"lat":"37.267523656","long":"127.21404281","imageIndex":8,"items":[{"name":"문소아과의원","tel":"031-334-7188","addr":"경기도 용인시 처인구 포곡읍 둔전리 405-19번지 대두빌딩 2층 202호","indutype":"의원 - 의원","category":"medical"},{"name":"서울경희한의원","tel":"031-339-3740","addr":"경기도 용인시 처인구 포곡읍 삼계리 405-19번지 대두빌딩 302호","indutype":"의원 - 한의원","category":"medical"},{"name":"용인윤약국","tel":"031-339-7429","addr":"경기도 용인시 처인구 포곡읍 둔전리 405-19번지 대두빌딩 108호","indutype":"약국 - 약국","category":"medical"},{"name":"포곡치과의원","tel":"031-339-2276","addr":"경기도 용인시 처인구 포곡읍 둔전리 405-19번지 대두빌딩 203호","indutype":"의원 - 치과의원","category":"medical"},{"name":"포곡치과의원","tel":"031-339-2276","addr":"경기도 용인시 처인구 포곡읍 둔전리 405-19번지 대두빌딩 2층","indutype":"의원 - 치과의원","category":"medical"}]},{"lat":"37.269463988","long":"127.21731775","imageIndex":8,"items":[{"name":"미래에스엔치과의원","tel":"031-323-2804","addr":"경기도 용인시 처인구 포곡읍 둔전리 152-1번지 3층 2","indutype":"의원 - 치과의원","category":"medical"},{"name":"미래에스엔치과의원","tel":"031-323-2804","addr":"경기도 용인시 처인구 포곡읍 둔전리 152-1번지 2, 3층","indutype":"의원 - 치과의원","category":"medical"}]},{"lat":"37.269186971","long":"127.21604298","imageIndex":8,"items":[{"name":"새서울약국","tel":"031-338-9758","addr":"경기도 용인시 처인구 포곡읍 둔전리 379-3","indutype":"약국 - 약국","category":"medical"},{"name":"서울내과의원","tel":"031-333-2237","addr":"경기도 용인시 처인구 포곡읍 둔전리379-3 388-1번지태성빌딩3층","indutype":"의원 - 의원","category":"medical"},{"name":"용인밝은안과","tel":"031-334-7588","addr":"경기도 용인시 처인구 포곡읍 둔전리 379-3번지 201호","indutype":"의원 - 의원","category":"medical"}]},{"lat":"37.2803201","long":"127.23240177","imageIndex":8,"items":[{"name":"새양지약국","tel":"031-332-8741","addr":"경기도 용인시 처인구 포곡읍 삼계리465-7","indutype":"약국 - 약국","category":"medical"},{"name":"새양지약국","tel":"031-332-8741","addr":"경기도 용인시 처인구 포곡읍 삼계리 465-7번지 1층","indutype":"약국 - 약국","category":"medical"},{"name":"한양의원","tel":"031-322-7579","addr":"경기도 용인시 처인구 포곡읍 삼계리 465-7번지","indutype":"의원 - 의원","category":"medical"}]},{"lat":"37.29621075","long":"127.23415305","imageIndex":8,"items":[{"name":"새현대약국","tel":"031-322-6488","addr":"경기도 용인시 처인구 포곡읍 삼계리 86-1","indutype":"약국 - 약국","category":"medical"}]},{"lat":"37.270074821","long":"127.21834544","imageIndex":8,"items":[{"name":"서울에스치과","tel":"031-333-2853","addr":"경기도 용인시 처인구 포곡읍 둔전리158 중앙빌딩2층 1호","indutype":"의원 - 치과의원","category":"medical"},{"name":"우리약국","tel":"031-333-6346","addr":"경기도 용인시 처인구 포곡읍 둔전리 158번지 중앙빌딩 103호","indutype":"약국 - 약국","category":"medical"}]},{"lat":"37.26910268","long":"127.21781279","imageIndex":8,"items":[{"name":"신건강100세약국","tel":"031-339-1336","addr":"경기도 용인시 처인구 포곡읍 둔전리151-5","indutype":"약국 - 약국","category":"medical"}]},{"lat":"37.269435648","long":"127.21803922","imageIndex":8,"items":[{"name":"신성찬한의원","tel":"031-333-7547","addr":"경기도 용인시 처인구 포곡읍 둔전리 154-3번지","indutype":"의원 - 한의원","category":"medical"},{"name":"참미소치과","tel":"031-332-2875","addr":"경기도 용인시 처인구 포곡읍 둔전리 154-3번지 3층","indutype":"의원 - 치과의원","category":"medical"}]},{"lat":"37.2679935","long":"127.21831697","imageIndex":8,"items":[{"name":"신우치과","tel":"031-322-2879","addr":"경기도 용인시 처인구 포곡읍 둔전리150-1,외150-2","indutype":"의원 - 치과의원","category":"medical"}]},{"lat":"37.284988356","long":"127.21748583","imageIndex":8,"items":[{"name":"연세켈리포니아치과","tel":"031-339-1028","addr":"경기도 용인시 처인구 포곡읍 전대리 188-3번지 2층","indutype":"의원 - 치과의원","category":"medical"}]},{"lat":"37.268153627","long":"127.21446171","imageIndex":8,"items":[{"name":"연세플란트치과","tel":"031-338-4777","addr":"경기도 용인시 처인구 포곡읍 둔전리 400-2번지 지암빌딩 3층","indutype":"의원 - 치과의원","category":"medical"}]},{"lat":"37.269293487","long":"127.21693394","imageIndex":8,"items":[{"name":"이한의원","tel":"031-321-7545","addr":"경기도 용인시 처인구 포곡읍 둔전리 393-11번지 미성빌딩 2층","indutype":"의원 - 한의원","category":"medical"}]},{"lat":"37.268043767","long":"127.21543096","imageIndex":8,"items":[{"name":"자연한의원","tel":"031-322-1025","addr":"경기도 용인시 처인구 포곡읍 둔전리 386-15번지 동광 상가 202호","indutype":"의원 - 한의원","category":"medical"}]},{"lat":"37.28176489","long":"127.22120905","imageIndex":8,"items":[{"name":"포곡동물병원","tel":"031-334-3304","addr":"경기도 용인시 처인구 포곡읍 전대리 152-2번지","indutype":"기타의료기관 - 동물병원","category":"medical"},{"name":"포곡동물병원","tel":"031-334-3304","addr":"경기도 용인시 처인구 포곡읍 전대리 152-2번지","indutype":"기타의료기관 - 동물병원","category":"medical"}]}]