[{"lat":"37.279998198","long":"127.66808273","imageIndex":17,"items":[{"name":"(주)지원이엔씨","tel":"031-883-8980","addr":"경기도 여주시 매룡동 7-3번지","indutype":"건축자재 - 기타건축자재","category":"other"}]},{"lat":"37.289915793","long":"127.65721998","imageIndex":17,"items":[{"name":"그린패키지","tel":"031-886-5758","addr":"경기도 여주시 매룡동 101-5번지","indutype":"신변잡화 - 기타잡화","category":"other"},{"name":"디엠인테리어","tel":"031-883-2014","addr":"경기도 여주시 매룡동 101-5번지","indutype":"건축자재 - 인테리어전문","category":"other"}]},{"lat":"37.279445503","long":"127.66863036","imageIndex":17,"items":[{"name":"나무","tel":"","addr":"경기도 여주시 매룡동 7-5번지","indutype":"용역 서비스 - 기타용역서비스","category":"other"}]},{"lat":"37.278692388","long":"127.65827291","imageIndex":17,"items":[{"name":"농업회사법인주식회사 여주곤충박물관","tel":"031-885-1400","addr":"경기도 여주시 매룡동 209-5번지","indutype":"문화.취미 - 티켓","category":"other"}]},{"lat":"37.277140856","long":"127.66022134","imageIndex":17,"items":[{"name":"도서출판다림줄","tel":"031-883-1779","addr":"경기도 여주시 매룡동 35-1번지","indutype":"서적문구 - 출판 및 인쇄물","category":"other"}]},{"lat":"37.282525509","long":"127.66083196","imageIndex":17,"items":[{"name":"드림중기","tel":"031-885-1577","addr":"경기도 여주시 매룡동 71-2번지","indutype":"기타 - 기계공구","category":"other"}]},{"lat":"37.278219616","long":"127.65741188","imageIndex":17,"items":[{"name":"디칼스튜디오인","tel":"070-8801-7797","addr":"경기도 여주시 매룡동 205-11번지","indutype":"주방용구 - 주방용식기","category":"other"}]},{"lat":"37.281138149","long":"127.65591492","imageIndex":17,"items":[{"name":"모든 타일","tel":"031-883-9945","addr":"경기도 여주시 매룡동 186-18번지","indutype":"건축자재 - 건축용 요업제품","category":"other"}]},{"lat":"37.279111637","long":"127.65740833","imageIndex":17,"items":[{"name":"비채도자기","tel":"031-885-3468","addr":"경기도 여주시 매룡동 205-1번지 1동","indutype":"문화.취미 - 민예·공예품","category":"other"}]},{"lat":"37.279722736","long":"127.65769551","imageIndex":17,"items":[{"name":"이마트24 여수수목원점","tel":"","addr":"경기도 여주시 매룡동 200번지","indutype":"유통업 영리 - 편 의 점","category":"other"}]},{"lat":"37.2784991085","long":"127.6686896810","imageIndex":17,"items":[{"name":"인토문화연구소","tel":"031-886-7806","addr":"경기도 여주시 매룡동 14번지","indutype":"건축자재 - 기타건축자재","category":"other"}]},{"lat":"37.286355378","long":"127.62916689","imageIndex":17,"items":[{"name":"중앙샤링","tel":"031-882-2666","addr":"경기도 여주시 매룡동 110번지","indutype":"건축자재 - 목재·석재·철물","category":"other"}]},{"lat":"37.276137506","long":"127.65755171","imageIndex":17,"items":[{"name":"칠성 PVC 상사","tel":"031-885-9944","addr":"경기도 여주시 매룡동 217-1번지","indutype":"건축자재 - 기타건축자재","category":"other"}]},{"lat":"37.285550966","long":"127.65466754","imageIndex":4,"items":[{"name":"부부농장가든","tel":"031-886-9233","addr":"경기도 여주시 매룡동 121번지","indutype":"일반휴게음식 - 일반한식","category":"restaurant"}]},{"lat":"37.281938221","long":"127.66596866","imageIndex":4,"items":[{"name":"신진농장정육점식당","tel":"031-885-5008","addr":"경기도 여주시 매룡동 58번지","indutype":"일반휴게음식 - 일반한식","category":"restaurant"}]}]