[{"lat":"37.2188006","long":"126.94890327","imageIndex":13,"items":[{"name":"(주)씨구파트너스 화성봉담지점","tel":"070-3383-6661","addr":"경기도 화성시 봉담읍 상리 26-68번지 301,302,303호","indutype":"레저업소 - 기타레져업소","category":"leisure"}]},{"lat":"37.215717204","long":"126.94498482","imageIndex":13,"items":[{"name":"BD골프아카데미","tel":"031-292-2882","addr":"경기도 화성시 봉담읍 상리 459-6번지 2층","indutype":"레저업소 - 골프연습장","category":"leisure"},{"name":"SG골프 봉담점","tel":"","addr":"경기도 화성시 봉담읍 상리 459-6번지 외4필지","indutype":"레저업소 - 골프연습장","category":"leisure"}]},{"lat":"37.218963087","long":"126.94956789","imageIndex":13,"items":[{"name":"GO노래연습장","tel":"031-227-1778","addr":"경기도 화성시 봉담읍 상리 23-4","indutype":"레저업소 - 노 래 방","category":"leisure"}]},{"lat":"37.218377746","long":"126.9503119","imageIndex":13,"items":[{"name":"KBS노래연습장","tel":"031-297-3419","addr":"경기도 화성시 봉담읍 상리 22-20","indutype":"레저업소 - 노 래 방","category":"leisure"}]},{"lat":"37.216441334","long":"126.95218346","imageIndex":13,"items":[{"name":"PGA골프스쿨","tel":"031-297-0755","addr":"경기도 화성시 봉담읍 상리 11-17번지 2층","indutype":"레저업소 - 골프연습장","category":"leisure"}]},{"lat":"37.217378348","long":"126.95203637","imageIndex":13,"items":[{"name":"가람 스크린골프","tel":"031-227-7276","addr":"경기도 화성시 봉담읍 상리 11-47번지 지맨프라자 2층 208호~211호","indutype":"레저업소 - 스크린골프","category":"leisure"}]},{"lat":"37.217242881","long":"126.95131541","imageIndex":13,"items":[{"name":"봉담볼링장","tel":"031-297-4788","addr":"경기도 화성시 봉담읍 상리 11-4번지 (상리11-4,11-50)","indutype":"레저업소 - 볼 링 장","category":"leisure"}]},{"lat":"37.216963619","long":"126.95145079","imageIndex":13,"items":[{"name":"샘골당구클럽","tel":"","addr":"경기도 화성시 봉담읍 상리 11-6번지 2층","indutype":"레저업소 - 당 구 장","category":"leisure"}]},{"lat":"37.219575413","long":"126.94873372","imageIndex":13,"items":[{"name":"양지PC방","tel":"070-5540-4265","addr":"경기도 화성시 봉담읍 상리 27-11번지","indutype":"레저업소 - 기타레져업소","category":"leisure"},{"name":"양지당구장","tel":"031-295-1053","addr":"경기도 화성시 봉담읍 상리 27-11","indutype":"레저업소 - 당 구 장","category":"leisure"}]},{"lat":"37.217018555","long":"126.93526091","imageIndex":13,"items":[{"name":"웃골낚시터","tel":"031-227-7336","addr":"경기도 화성시 봉담읍 상리 384","indutype":"레저업소 - 기타레져업소","category":"leisure"}]},{"lat":"37.219854413","long":"126.94803498","imageIndex":13,"items":[{"name":"째즈노래연습장","tel":"","addr":"경기도 화성시 봉담읍 상리 31-3번지 우정프라자 306호","indutype":"레저업소 - 노 래 방","category":"leisure"}]},{"lat":"37.218963409","long":"126.95028896","imageIndex":13,"items":[{"name":"킹 당구장","tel":"031-227-9725","addr":"경기도 화성시 봉담읍 상리 22-54번지 2층","indutype":"레저업소 - 당 구 장","category":"leisure"}]},{"lat":"37.218161537","long":"126.95040219","imageIndex":13,"items":[{"name":"허슬러7당구장","tel":"031-111-1111","addr":"경기도 화성시 봉담읍 상리 22-25번지 2층","indutype":"레저업소 - 당 구 장","category":"leisure"}]}]