[{"lat":"37.279103941","long":"127.44268834","imageIndex":7,"items":[{"name":"굿모닝월드이천센터","tel":"031-638-8223","addr":"경기도 이천시 중리동 193-10번지 2층","indutype":"건강식품 - 기타건강식품","category":"food"}]},{"lat":"37.275826515","long":"127.44929903","imageIndex":7,"items":[{"name":"김장수정육점","tel":"031-637-1616","addr":"경기도 이천시 중리동 468-7번지","indutype":"음료식품 - 정육점","category":"food"}]},{"lat":"37.278687007","long":"127.44335117","imageIndex":7,"items":[{"name":"꽃내리는방앗간","tel":"","addr":"경기도 이천시 중리동 190번지 1층","indutype":"음료식품 - 제과점","category":"food"},{"name":"이천양돈협회농촌사랑축산물백화점","tel":"031-635-8382","addr":"경기도 이천시 중리동 190번지","indutype":"음료식품 - 정육점","category":"food"}]},{"lat":"37.275519159","long":"127.44476464","imageIndex":7,"items":[{"name":"농업회사법인 주식회사 위더그린","tel":"031-000-0000","addr":"경기도 이천시 중리동 457-1번지","indutype":"음료식품 - 농·축·수산품","category":"food"},{"name":"이천인삼영농조합법인","tel":"031-634-3824","addr":"경기도 이천시 중리동 457-1번지","indutype":"건강식품 - 홍삼제품","category":"food"}]},{"lat":"37.276218106","long":"127.44579477","imageIndex":7,"items":[{"name":"대성고추상회","tel":"031-635-7585","addr":"경기도 이천시 중리동 459-5번지 대성고추상회","indutype":"음료식품 - 농·축·수산품","category":"food"}]},{"lat":"37.278689292","long":"127.44515527","imageIndex":7,"items":[{"name":"대월떡집","tel":"031-633-5711","addr":"경기도 이천시 중리동 212-4번지","indutype":"음료식품 - 제과점","category":"food"}]},{"lat":"37.277636701","long":"127.44713357","imageIndex":7,"items":[{"name":"던킨도너츠이천점","tel":"031-635-2784","addr":"경기도 이천시 중리동 219번지 종합버스터미널 1층","indutype":"음료식품 - 제과점","category":"food"},{"name":"뚜레쥬르 이천터미널","tel":"031-636-9734","addr":"경기도 이천시 중리동 219번지 외1필지 이천터미널내 1층","indutype":"음료식품 - 제과점","category":"food"},{"name":"베스킨라빈스(터미널점)","tel":"031-633-4321","addr":"경기도 이천시 중리동 219번지 종합버스터미널 상가 148호","indutype":"음료식품 - 제과점","category":"food"},{"name":"정관장중리점/상품권사용","tel":"031-637-0389","addr":"경기도 이천시 중리동 219번지 외 1필지 종합버스터미널 113동 115호","indutype":"건강식품 - 홍삼제품","category":"food"},{"name":"최고상회","tel":"031-632-1252","addr":"경기도 이천시 중리동 219번지","indutype":"음료식품 - 기타음료식품","category":"food"}]},{"lat":"37.279270601","long":"127.44390707","imageIndex":7,"items":[{"name":"리얼카롱","tel":"031-631-1532","addr":"경기도 이천시 중리동 191-2번지 리얼카롱","indutype":"음료식품 - 제과점","category":"food"}]},{"lat":"37.276602005","long":"127.44190707","imageIndex":7,"items":[{"name":"매일 빙그레 삼립빵이천대리점","tel":"031-638-0486","addr":"경기도 이천시 중리동 452-16번지","indutype":"음료식품 - 기타음료식품","category":"food"}]},{"lat":"37.276131099","long":"127.44254702","imageIndex":7,"items":[{"name":"모가잡곡","tel":"031-4148-8856","addr":"경기도 이천시 중리동 453-8번지","indutype":"음료식품 - 미곡상","category":"food"},{"name":"테이블제이","tel":"031-635-0206","addr":"경기도 이천시 중리동 453-8번지","indutype":"음료식품 - 기타음료식품","category":"food"}]},{"lat":"37.27910436","long":"127.44257559","imageIndex":7,"items":[{"name":"몽크루아상","tel":"031-636-5608","addr":"경기도 이천시 중리동 193-11번지 1층","indutype":"음료식품 - 제과점","category":"food"}]},{"lat":"37.277414706","long":"127.44626407","imageIndex":7,"items":[{"name":"미곡상회","tel":"031-635-6185","addr":"경기도 이천시 중리동 217번지","indutype":"음료식품 - 미곡상","category":"food"}]},{"lat":"37.279744456","long":"127.44004228","imageIndex":7,"items":[{"name":"미주양행","tel":"031-632-5525","addr":"경기도 이천시 중리동 21-3번지","indutype":"음료식품 - 기타음료식품","category":"food"}]},{"lat":"37.276912635","long":"127.44559588","imageIndex":7,"items":[{"name":"믿음건강원","tel":"031-632-3332","addr":"경기도 이천시 중리동 216-10번지","indutype":"건강식품 - 기타건강식품","category":"food"}]},{"lat":"37.276828084","long":"127.44651996","imageIndex":7,"items":[{"name":"보통의 브레드","tel":"031-636-6325","addr":"경기도 이천시 중리동 217-3번지 1층","indutype":"음료식품 - 제과점","category":"food"}]},{"lat":"37.27835394","long":"127.44568325","imageIndex":7,"items":[{"name":"서울성모안과","tel":"031-638-0200","addr":"경기도 이천시 중리동 213번지 이천라온팰리스 3층","indutype":"건강식품 - 기타건강식품","category":"food"}]},{"lat":"37.279716384","long":"127.44032401","imageIndex":7,"items":[{"name":"설봉식품제분소","tel":"031-633-2215","addr":"경기도 이천시 중리동 177번지 1층","indutype":"음료식품 - 기타음료식품","category":"food"}]},{"lat":"37.278573383","long":"127.4448276","imageIndex":7,"items":[{"name":"소문난복떡집","tel":"031-636-4978","addr":"경기도 이천시 중리동 211-3번지","indutype":"음료식품 - 기타음료식품","category":"food"}]},{"lat":"37.280047936","long":"127.43837523","imageIndex":7,"items":[{"name":"시민정육마트","tel":"031-633-1320","addr":"경기도 이천시 중리동 1-3번지","indutype":"음료식품 - 정육점","category":"food"}]},{"lat":"37.277158785","long":"127.44240642","imageIndex":7,"items":[{"name":"씨밀레's","tel":"02-1111-1111","addr":"경기도 이천시 중리동 231-3번지","indutype":"음료식품 - 기타음료식품","category":"food"}]},{"lat":"37.280185821","long":"127.44007866","imageIndex":7,"items":[{"name":"야채총판매장","tel":"031-635-2337","addr":"경기도 이천시 중리동 21번지 상가 1층","indutype":"음료식품 - 농·축·수산품","category":"food"}]},{"lat":"37.279218891","long":"127.43840428","imageIndex":7,"items":[{"name":"우리아이 밥상","tel":"031-636-4007","addr":"경기도 이천시 중리동 16번지","indutype":"음료식품 - 기타음료식품","category":"food"}]},{"lat":"37.277884281","long":"127.44598493","imageIndex":7,"items":[{"name":"원조떡집","tel":"031-638-7823","addr":"경기도 이천시 중리동 214-3번지","indutype":"음료식품 - 기타음료식품","category":"food"}]},{"lat":"37.27596249","long":"127.446684","imageIndex":7,"items":[{"name":"월드푸드","tel":"031-636-7275","addr":"경기도 이천시 중리동 227번지 1층","indutype":"음료식품 - 기타음료식품","category":"food"}]},{"lat":"37.280162077","long":"127.43918774","imageIndex":7,"items":[{"name":"은혜축산유통","tel":"031-631-0123","addr":"경기도 이천시 중리동 20-4번지 1층","indutype":"음료식품 - 정육점","category":"food"}]},{"lat":"37.277965524","long":"127.44110316","imageIndex":7,"items":[{"name":"이천시노인종합복지관(행복가게)","tel":"031-636-7744","addr":"경기도 이천시 중리동 187번지","indutype":"음료식품 - 기타음료식품","category":"food"},{"name":"이천시장애인종합복지관(그린나래카페)","tel":"031-637-6720","addr":"경기도 이천시 중리동 187번지","indutype":"음료식품 - 기타음료식품","category":"food"}]},{"lat":"37.272329547","long":"127.43252437","imageIndex":7,"items":[{"name":"이천시농업기술센터(도자기축구협회)","tel":"031-644-4125","addr":"경기도 이천시 중리동 386-1번지","indutype":"음료식품 - 미곡상","category":"food"},{"name":"이천시농업기술센터(마장면)","tel":"031-644-2607","addr":"경기도 이천시 중리동 386-1번지","indutype":"음료식품 - 미곡상","category":"food"},{"name":"이천시농업기술센터(모가면)","tel":"031-644-2607","addr":"경기도 이천시 중리동 386-1번지","indutype":"음료식품 - 미곡상","category":"food"},{"name":"이천시농업기술센터(백사면)","tel":"031-644-2607","addr":"경기도 이천시 중리동 386-1번지","indutype":"음료식품 - 미곡상","category":"food"},{"name":"이천시농업기술센터(부발읍)","tel":"031-644-2607","addr":"경기도 이천시 중리동 386-1번지","indutype":"음료식품 - 미곡상","category":"food"},{"name":"이천시농업기술센터(설성농협여성단체)","tel":"031-644-4125","addr":"경기도 이천시 중리동 386-1번지","indutype":"음료식품 - 미곡상","category":"food"},{"name":"이천시농업기술센터(설성면)","tel":"031-644-4125","addr":"경기도 이천시 중리동 386-1번지","indutype":"음료식품 - 미곡상","category":"food"},{"name":"이천시농업기술센터(신둔)","tel":"031-644-2607","addr":"경기도 이천시 중리동 386-1번지","indutype":"음료식품 - 미곡상","category":"food"},{"name":"이천시농업기술센터(양봉연구회)","tel":"031-644-4125","addr":"경기도 이천시 중리동 386-1번지","indutype":"음료식품 - 미곡상","category":"food"},{"name":"이천시농업기술센터(장호원)","tel":"031-644-2607","addr":"경기도 이천시 중리동 386-1번지","indutype":"음료식품 - 미곡상","category":"food"},{"name":"이천시농업기술센터(천연업식연구외)","tel":"031-644-4125","addr":"경기도 이천시 중리동 386-1번지","indutype":"음료식품 - 미곡상","category":"food"},{"name":"이천시농업기술센터(호법면)","tel":"031-644-2607","addr":"경기도 이천시 중리동 386-1번지","indutype":"음료식품 - 미곡상","category":"food"},{"name":"이천시양봉연구회","tel":"070-7799-8976","addr":"경기도 이천시 중리동 386-1번지","indutype":"건강식품 - 기타건강식품","category":"food"},{"name":"이천쌀문화축제추진위원회","tel":"031-644-4125","addr":"경기도 이천시 중리동 386-1 이천시농업기술센터","indutype":"음료식품 - 미곡상","category":"food"},{"name":"이천쌀문화축제추진위원회","tel":"031-644-4125","addr":"경기도 이천시 중리동 386-1번지 농업기술센터","indutype":"음료식품 - 미곡상","category":"food"},{"name":"이천쌀문화축제추진위원회","tel":"031-644-4127","addr":"경기도 이천시 중리동 386-1 이천시농업기술센터","indutype":"음료식품 - 미곡상","category":"food"},{"name":"이천쌀문화축제추진위원회","tel":"031-644-4127","addr":"경기도 이천시 중리동 386-1번지 농업기술센터","indutype":"음료식품 - 미곡상","category":"food"},{"name":"이천쌀문화축제추진위원회","tel":"031-644-4127","addr":"경기도 이천시 중리동 386-1번지 농업기술센터","indutype":"음료식품 - 미곡상","category":"food"},{"name":"이천쌀문화축제추진위원회","tel":"031-644-4127","addr":"경기도 이천시 중리동 386-1번지 농업기술센터","indutype":"음료식품 - 미곡상","category":"food"},{"name":"이천쌀문화축제추진위원회","tel":"031-644-4127","addr":"경기도 이천시 중리동 386-1번지 농업기술센터","indutype":"음료식품 - 미곡상","category":"food"},{"name":"이천쌀문화축제추진위원회","tel":"031-644-4125","addr":"경기도 이천시 중리동 386-1번지 농업기술센터","indutype":"음료식품 - 미곡상","category":"food"},{"name":"이천쌀문화축제추진위원회","tel":"031-644-4125","addr":"경기도 이천시 중리동 386-1번지 농업기술센터","indutype":"음료식품 - 미곡상","category":"food"},{"name":"이천쌀문화축제추진위원회","tel":"031-644-4125","addr":"경기도 이천시 중리동 386-1 이천시농업기술센터","indutype":"음료식품 - 미곡상","category":"food"},{"name":"이천쌀문화축제추진위원회","tel":"031-644-4125","addr":"경기도 이천시 중리동 386-1 이천시농업기술센터","indutype":"음료식품 - 미곡상","category":"food"},{"name":"이천쌀문화축제추진위원회","tel":"031-644-4125","addr":"경기도 이천시 중리동 386-1 이천시농업기술센터","indutype":"음료식품 - 미곡상","category":"food"},{"name":"이천쌀문화축제추진위원회","tel":"031-634-4127","addr":"경기도 이천시 중리동 386-1","indutype":"음료식품 - 미곡상","category":"food"},{"name":"이천쌀문화축제추진위원회","tel":"031-644-4127","addr":"경기도 이천시 중리동 386-1번지 농업기술센터","indutype":"음료식품 - 미곡상","category":"food"},{"name":"이천쌀문화축제추진위원회","tel":"031-644-4127","addr":"경기도 이천시 중리동 386-1번지 농업기술센터","indutype":"음료식품 - 미곡상","category":"food"},{"name":"이천쌀문화축제추진위원회","tel":"031-644-4125","addr":"경기도 이천시 중리동 386-1번지 농업기술센터","indutype":"음료식품 - 미곡상","category":"food"},{"name":"이천쌀문화축제추진위원회","tel":"031-644-4125","addr":"경기도 이천시 중리동 386-1번지 농업기술센터","indutype":"음료식품 - 미곡상","category":"food"},{"name":"이천쌀문화축제추진위원회","tel":"031-644-4125","addr":"경기도 이천시 중리동 386-1번지 농업기술센터","indutype":"음료식품 - 미곡상","category":"food"},{"name":"이천쌀문화축제추진위원회","tel":"031-644-4125","addr":"경기도 이천시 중리동 386-1번지 농업기술센터","indutype":"음료식품 - 미곡상","category":"food"},{"name":"이천쌀문화축제추진위원회","tel":"031-644-4125","addr":"경기도 이천시 중리동 386-1번지 농업기술센터","indutype":"음료식품 - 미곡상","category":"food"},{"name":"이천쌀문화축제추진위원회","tel":"031-644-4125","addr":"경기도 이천시 중리동 386-1번지 농업기술센터","indutype":"음료식품 - 미곡상","category":"food"},{"name":"이천쌀문화축제추진위원회","tel":"031-644-4125","addr":"경기도 이천시 중리동 386-1 이천시농업기술센터","indutype":"음료식품 - 미곡상","category":"food"},{"name":"이천쌀문화축제추진위원회","tel":"031-644-4125","addr":"경기도 이천시 중리동 386-1 이천시농업기술센터","indutype":"음료식품 - 미곡상","category":"food"},{"name":"이천쌀문화축제추진위원회","tel":"031-644-4125","addr":"경기도 이천시 중리동 386-1번지 농업기술센터","indutype":"음료식품 - 미곡상","category":"food"}]},{"lat":"37.271602267","long":"127.4343016","imageIndex":7,"items":[{"name":"이천시청직장새마을금고","tel":"031-644-2669","addr":"경기도 이천시 중리동 490번지 이천시청","indutype":"음료식품 - 기타음료식품","category":"food"}]},{"lat":"37.271549149","long":"127.44624094","imageIndex":7,"items":[{"name":"이천쌀상회","tel":"031-633-7766","addr":"경기도 이천시 중리동 50-2번지","indutype":"음료식품 - 미곡상","category":"food"}]},{"lat":"37.279380846","long":"127.4409084","imageIndex":7,"items":[{"name":"이천유통","tel":"031-637-9653","addr":"경기도 이천시 중리동 177-16번지","indutype":"음료식품 - 정육점","category":"food"}]},{"lat":"37.278887408","long":"127.44276601","imageIndex":7,"items":[{"name":"정식품이천대리점","tel":"031-635-4539","addr":"경기도 이천시 중리동 189-3번지","indutype":"음료식품 - 기타음료식품","category":"food"}]},{"lat":"37.277967227","long":"127.4454893","imageIndex":7,"items":[{"name":"종합흑염소","tel":"031-635-4858","addr":"경기도 이천시 중리동 214-1번지","indutype":"건강식품 - 기타건강식품","category":"food"}]},{"lat":"37.277101634","long":"127.44565336","imageIndex":7,"items":[{"name":"주식회사메디그레인","tel":"031-694-5473","addr":"경기도 이천시 중리동 216-3번지 2층","indutype":"음료식품 - 미곡상","category":"food"}]},{"lat":"37.279187919","long":"127.44191081","imageIndex":7,"items":[{"name":"카롱데이","tel":"","addr":"경기도 이천시 중리동 181-10번지 1층","indutype":"음료식품 - 제과점","category":"food"}]},{"lat":"37.278358789","long":"127.44196237","imageIndex":7,"items":[{"name":"케이크주세요","tel":"031-111-1111","addr":"경기도 이천시 중리동 186-7번지","indutype":"음료식품 - 제과점","category":"food"}]},{"lat":"37.278970594","long":"127.43976719","imageIndex":7,"items":[{"name":"케인슈가","tel":"031-635-5136","addr":"경기도 이천시 중리동 168-4번지","indutype":"음료식품 - 제과점","category":"food"}]},{"lat":"37.273719279","long":"127.44899344","imageIndex":7,"items":[{"name":"파리바게뜨","tel":"031-632-8484","addr":"경기도 이천시 중리동 38-9번지","indutype":"음료식품 - 제과점","category":"food"}]},{"lat":"37.277469779","long":"127.44599378","imageIndex":7,"items":[{"name":"한국떡집","tel":"031-635-9797","addr":"경기도 이천시 중리동 215-8번지","indutype":"음료식품 - 제과점","category":"food"}]},{"lat":"37.276801899","long":"127.4462943","imageIndex":7,"items":[{"name":"한선수정육마트","tel":"031-633-0364","addr":"경기도 이천시 중리동 217-5번지","indutype":"음료식품 - 정육점","category":"food"}]},{"lat":"37.280130553","long":"127.44040534","imageIndex":7,"items":[{"name":"한우 10800원","tel":"031-632-4492","addr":"경기도 이천시 중리동 178번지","indutype":"음료식품 - 정육점","category":"food"}]},{"lat":"37.280162991","long":"127.43893968","imageIndex":7,"items":[{"name":"현대기름집","tel":"031-636-9462","addr":"경기도 이천시 중리동 20-3번지","indutype":"음료식품 - 기타음료식품","category":"food"}]}]