[{"lat":"37.006832931","long":"127.27184432","imageIndex":17,"items":[{"name":"(주)에이치나이키","tel":"031-675-0008","addr":"경기도 안성시 동본동 47번지","indutype":"레져용품 - 스포츠·레져용품","category":"other"}]},{"lat":"37.007715969","long":"127.27184743","imageIndex":17,"items":[{"name":"D-SIGN","tel":"031-675-7404","addr":"경기도 안성시 동본동 21번지","indutype":"용역 서비스 - 종합용역","category":"other"},{"name":"현대종합광고사","tel":"031-675-5247","addr":"경기도 안성시 동본동 21번지","indutype":"용역 서비스 - 종합용역","category":"other"}]},{"lat":"37.007248181","long":"127.27150872","imageIndex":17,"items":[{"name":"SI안성점","tel":"031-674-4810","addr":"경기도 안성시 동본동 34","indutype":"의류 - 정장","category":"other"}]},{"lat":"37.006464921","long":"127.27121385","imageIndex":17,"items":[{"name":"경보당","tel":"031-675-2365","addr":"경기도 안성시 동본동 74번지","indutype":"신변잡화 - 귀금속","category":"other"}]},{"lat":"37.007410041","long":"127.27165535","imageIndex":17,"items":[{"name":"귀빈슈퍼","tel":"031-672-6682","addr":"경기도 안성시 동본동 30번지","indutype":"유통업 영리 - 연 쇄 점","category":"other"}]},{"lat":"37.007860774","long":"127.27156706","imageIndex":17,"items":[{"name":"그라시아","tel":"031-675-8389","addr":"경기도 안성시 동본동 22번지","indutype":"의류 - 정장","category":"other"},{"name":"블랙라벨 도도","tel":"","addr":"경기도 안성시 동본동 22번지 1층","indutype":"의류 - 정장","category":"other"},{"name":"스토리","tel":"031-675-8389","addr":"경기도 안성시 동본동 22번지","indutype":"의류 - 정장","category":"other"},{"name":"피부미인","tel":"031-675-4756","addr":"경기도 안성시 동본동 22번지","indutype":"회원제형태 - 기타4","category":"other"}]},{"lat":"37.00655429","long":"127.27153999","imageIndex":17,"items":[{"name":"꼼빠니아","tel":"031-677-1583","addr":"경기도 안성시 동본동 70번지 1층","indutype":"레져용품 - 스포츠·레져용품","category":"other"}]},{"lat":"37.007300411","long":"127.27231785","imageIndex":17,"items":[{"name":"나일전기","tel":"031-672-2282","addr":"경기도 안성시 동본동 27번지","indutype":"전기제품 - 기타전기제품","category":"other"}]},{"lat":"37.006832422","long":"127.27206903","imageIndex":17,"items":[{"name":"내셔널지오그래픽 안성점","tel":"031-673-3053","addr":"경기도 안성시 동본동 45번지","indutype":"레져용품 - 스포츠·레져용품","category":"other"}]},{"lat":"37.006464362","long":"127.27146103","imageIndex":17,"items":[{"name":"녹엽 비앤비 토탈스위스","tel":"031-677-5522","addr":"경기도 안성시 동본동 71번지","indutype":"신변잡화 - 기타잡화","category":"other"}]},{"lat":"37.00727394","long":"127.27207058","imageIndex":17,"items":[{"name":"농협은행(주)안성시지부","tel":"031-672-1989","addr":"경기도 안성시 동본동 40번지","indutype":"유통업 비영리 - 농,축협 직영매장","category":"other"}]},{"lat":"37.007273125","long":"127.27243011","imageIndex":17,"items":[{"name":"대광공판인쇄소","tel":"031-675-3505","addr":"경기도 안성시 동본동 27-1번지","indutype":"서적문구 - 출판 및 인쇄물","category":"other"}]},{"lat":"37.006356667","long":"127.27126965","imageIndex":17,"items":[{"name":"동성의료기","tel":"031-676-2725","addr":"경기도 안성시 동본동 75번지","indutype":"기타의료기관 - 기타의료기관 및 기타","category":"other"}]},{"lat":"37.007193609","long":"127.27173324","imageIndex":17,"items":[{"name":"디스커버리안성점","tel":"031-675-5305","addr":"경기도 안성시 동본동 36번지","indutype":"레져용품 - 스포츠·레져용품","category":"other"}]},{"lat":"37.00688819","long":"127.27131646","imageIndex":17,"items":[{"name":"마코스포츠","tel":"031-674-1441","addr":"경기도 안성시 동본동 51번지","indutype":"레져용품 - 스포츠·레져용품","category":"other"},{"name":"올포유","tel":"031-676-9933","addr":"경기도 안성시 동본동 51번지","indutype":"레져용품 - 스포츠·레져용품","category":"other"}]},{"lat":"37.006581957","long":"127.2712592","imageIndex":17,"items":[{"name":"보금당","tel":"031-672-3556","addr":"경기도 안성시 동본동 73","indutype":"신변잡화 - 귀금속","category":"other"},{"name":"이헌영","tel":"031-677-1799","addr":"경기도 안성시 동본동 73번지 1층","indutype":"레져용품 - 스포츠·레져용품","category":"other"}]},{"lat":"37.006914891","long":"127.27146261","imageIndex":17,"items":[{"name":"블루페페","tel":"031-674-0072","addr":"경기도 안성시 동본동 50번지","indutype":"레져용품 - 스포츠·레져용품","category":"other"},{"name":"코오롱스포츠","tel":"031-677-9992","addr":"경기도 안성시 동본동 50번지","indutype":"의류 - 스포츠의류","category":"other"},{"name":"크로커다일(여성)","tel":"031-674-5433","addr":"경기도 안성시 동본동 50","indutype":"레져용품 - 스포츠·레져용품","category":"other"}]},{"lat":"37.008083567","long":"127.27265768","imageIndex":17,"items":[{"name":"세븐일레븐안성동본동점","tel":"031-1577-0711","addr":"경기도 안성시 동본동 2번지","indutype":"유통업 영리 - 편 의 점","category":"other"},{"name":"오행웰빙하우스 강화쑥 좌훈방","tel":"031-677-7963","addr":"경기도 안성시 동본동 2번지 2층","indutype":"회원제형태 - 기타4","category":"other"}]},{"lat":"37.007220768","long":"127.27167716","imageIndex":17,"items":[{"name":"신안성칼라","tel":"031-676-1919","addr":"경기도 안성시 동본동 35번지","indutype":"광학제품 - 사진관","category":"other"}]},{"lat":"37.008049742","long":"127.27168008","imageIndex":17,"items":[{"name":"써니(SUNNY)","tel":"070-7623-5494","addr":"경기도 안성시 동본동 12번지 101호","indutype":"의류 - 정장","category":"other"}]},{"lat":"37.0076897","long":"127.27151028","imageIndex":17,"items":[{"name":"씨유안성동본동점","tel":"031-672-9588","addr":"경기도 안성시 동본동 23번지","indutype":"유통업 영리 - 편 의 점","category":"other"}]},{"lat":"37.00588837","long":"127.27115565","imageIndex":17,"items":[{"name":"아비뉴24","tel":"031-677-6128","addr":"경기도 안성시 동본동 97번지","indutype":"의류 - 정장","category":"other"}]},{"lat":"37.006860217","long":"127.27173206","imageIndex":17,"items":[{"name":"중앙정보통신","tel":"031-673-4011","addr":"경기도 안성시 동본동 48번지 1층","indutype":"사무통신 - 통신기기","category":"other"},{"name":"중앙정보통신_PS","tel":"031-673-4011","addr":"경기도 안성시 동본동 48번지 1층","indutype":"사무통신 - 통신기기","category":"other"}]},{"lat":"37.006832727","long":"127.2719342","imageIndex":17,"items":[{"name":"휠라코리아안성대리점","tel":"031-677-1086","addr":"경기도 안성시 동본동 46번지","indutype":"레져용품 - 스포츠·레져용품","category":"other"}]},{"lat":"37.007248181","long":"127.27150872","imageIndex":13,"items":[{"name":"(주)엘지생활건강/보떼안성점","tel":"031-675-2716","addr":"경기도 안성시 동본동 34","indutype":"보건위생 - 화장품","category":"beauty"},{"name":"티아라","tel":"070-8631-1233","addr":"경기도 안성시 동본동 34번지 1층","indutype":"보건위생 - 미용원","category":"beauty"}]},{"lat":"37.008049742","long":"127.27168008","imageIndex":13,"items":[{"name":"Style by지은","tel":"031-674-4237","addr":"경기도 안성시 동본동 12번지","indutype":"보건위생 - 미용원","category":"beauty"},{"name":"더 네일홀릭 1호점","tel":"031-677-4555","addr":"경기도 안성시 동본동 12번지 2층 201호","indutype":"보건위생 - 피부미용실","category":"beauty"}]},{"lat":"37.007302474","long":"127.2714078","imageIndex":13,"items":[{"name":"꽃가마화장품","tel":"031-674-6996","addr":"경기도 안성시 동본동 33번지","indutype":"보건위생 - 화장품","category":"beauty"},{"name":"예뿌제미용실","tel":"031-677-2220","addr":"경기도 안성시 동본동 33번지","indutype":"보건위생 - 미용원","category":"beauty"}]},{"lat":"37.0076897","long":"127.27151028","imageIndex":13,"items":[{"name":"더(The)예쁨","tel":"031-672-1332","addr":"경기도 안성시 동본동 23번지","indutype":"보건위생 - 미용원","category":"beauty"}]},{"lat":"37.00588837","long":"127.27115565","imageIndex":13,"items":[{"name":"벨라뷰티","tel":"031-671-7873","addr":"경기도 안성시 동본동 97번지 1층","indutype":"보건위생 - 화장품","category":"beauty"},{"name":"유행통신헤어샵","tel":"031-674-3907","addr":"경기도 안성시 동본동 97번지","indutype":"보건위생 - 미용원","category":"beauty"},{"name":"태후사랑","tel":"031-677-8629","addr":"경기도 안성시 동본동 97번지","indutype":"보건위생 - 화장품","category":"beauty"}]},{"lat":"37.00688819","long":"127.27131646","imageIndex":13,"items":[{"name":"보건의료기","tel":"031-672-0077","addr":"경기도 안성시 동본동 51번지","indutype":"보건위생 - 의료용품","category":"beauty"}]},{"lat":"37.006581957","long":"127.2712592","imageIndex":13,"items":[{"name":"뷰티화장품","tel":"02-980-6401","addr":"경기도 안성시 동본동 73","indutype":"보건위생 - 화장품","category":"beauty"}]},{"lat":"37.006716913","long":"127.27134956","imageIndex":13,"items":[{"name":"쑥대머리","tel":"031-671-3363","addr":"경기도 안성시 동본동 54번지","indutype":"보건위생 - 미용원","category":"beauty"}]},{"lat":"37.008356051","long":"127.27170363","imageIndex":13,"items":[{"name":"아트안경원","tel":"031-674-1675","addr":"경기도 안성시 동본동 10번지","indutype":"보건위생 - 안경","category":"beauty"}]},{"lat":"37.005554674","long":"127.2712893","imageIndex":13,"items":[{"name":"안성의료기","tel":"031-675-2525","addr":"경기도 안성시 동본동 102번지","indutype":"보건위생 - 의료용품","category":"beauty"}]},{"lat":"37.006247599","long":"127.27168497","imageIndex":13,"items":[{"name":"약손","tel":"031-671-3536","addr":"경기도 안성시 동본동 78번지","indutype":"보건위생 - 화장품","category":"beauty"}]},{"lat":"37.006606953","long":"127.27215811","imageIndex":13,"items":[{"name":"에피큐어","tel":"031-675-6843","addr":"경기도 안성시 동본동 59번지","indutype":"보건위생 - 화장품","category":"beauty"},{"name":"힐링브레인 체형관리","tel":"","addr":"경기도 안성시 동본동 59번지 1층","indutype":"보건위생 - 기타대인서비스","category":"beauty"}]},{"lat":"37.007410041","long":"127.27165535","imageIndex":13,"items":[{"name":"여로미용실","tel":"031-673-3996","addr":"경기도 안성시 동본동 30번지","indutype":"보건위생 - 미용원","category":"beauty"},{"name":"차정희훼이스클럽","tel":"031-677-1452","addr":"경기도 안성시 동본동 30번지","indutype":"보건위생 - 화장품","category":"beauty"}]},{"lat":"37.006770671","long":"127.27148457","imageIndex":13,"items":[{"name":"우성쑥좌훈방","tel":"031-676-1446","addr":"경기도 안성시 동본동 55번지","indutype":"보건위생 - 피부미용실","category":"beauty"}]},{"lat":"37.005967533","long":"127.2720098","imageIndex":13,"items":[{"name":"제일목욕탕","tel":"031-675-2361","addr":"경기도 안성시 동본동 87번지","indutype":"보건위생 - 사우나","category":"beauty"}]},{"lat":"37.006302171","long":"127.27146045","imageIndex":13,"items":[{"name":"제일미용실","tel":"031-675-4897","addr":"경기도 안성시 동본동 77번지","indutype":"보건위생 - 미용원","category":"beauty"}]},{"lat":"37.005607338","long":"127.27190742","imageIndex":13,"items":[{"name":"칼라뱅크","tel":"031-677-1883","addr":"경기도 안성시 동본동 89-6번지","indutype":"보건위생 - 미용원","category":"beauty"}]},{"lat":"37.007860774","long":"127.27156706","imageIndex":13,"items":[{"name":"티아라","tel":"070-8631-1233","addr":"경기도 안성시 동본동 22번지 3층","indutype":"보건위생 - 미용재료","category":"beauty"}]},{"lat":"37.006464921","long":"127.27121385","imageIndex":4,"items":[{"name":"U.NA","tel":"031-677-9192","addr":"경기도 안성시 동본동 74번지 1층","indutype":"일반휴게음식 - 서양음식","category":"restaurant"}]},{"lat":"37.0076897","long":"127.27151028","imageIndex":4,"items":[{"name":"꼬다야","tel":"031-671-1397","addr":"경기도 안성시 동본동 23번지","indutype":"일반휴게음식 - 일반한식","category":"restaurant"}]},{"lat":"37.005607338","long":"127.27190742","imageIndex":4,"items":[{"name":"난칼국수","tel":"031-677-2231","addr":"경기도 안성시 동본동 89-6번지 1층","indutype":"일반휴게음식 - 일반한식","category":"restaurant"},{"name":"돔베집","tel":"031-676-5392","addr":"경기도 안성시 동본동 89-6번지","indutype":"일반휴게음식 - 일반한식","category":"restaurant"}]},{"lat":"37.006409102","long":"127.27198889","imageIndex":4,"items":[{"name":"대복식당","tel":"031-676-0000","addr":"경기도 안성시 동본동 61번지 1층","indutype":"일반휴게음식 - 일반한식","category":"restaurant"},{"name":"서인순대국","tel":"031-674-3251","addr":"경기도 안성시 동본동 61번지","indutype":"일반휴게음식 - 일반한식","category":"restaurant"}]},{"lat":"37.006552762","long":"127.2722141","imageIndex":4,"items":[{"name":"돼.랑.이삼겹살","tel":"031-673-3842","addr":"경기도 안성시 동본동 60-1번지","indutype":"일반휴게음식 - 일반한식","category":"restaurant"}]},{"lat":"37.006770671","long":"127.27148457","imageIndex":4,"items":[{"name":"또복이네식당","tel":"031-677-9988","addr":"경기도 안성시 동본동 55","indutype":"일반휴게음식 - 일반한식","category":"restaurant"}]},{"lat":"37.008247975","long":"127.27168077","imageIndex":4,"items":[{"name":"마당스낵","tel":"031-672-0602","addr":"경기도 안성시 동본동 11-1번지","indutype":"일반휴게음식 - 일반한식","category":"restaurant"}]},{"lat":"37.006381765","long":"127.27212361","imageIndex":4,"items":[{"name":"마포최대포","tel":"031-671-5816","addr":"경기도 안성시 동본동 61-1번지","indutype":"일반휴게음식 - 일반한식","category":"restaurant"},{"name":"마포최대포","tel":"031-671-5858","addr":"경기도 안성시 동본동 61-1번지","indutype":"일반휴게음식 - 일반한식","category":"restaurant"},{"name":"밤비","tel":"031-674-2265","addr":"경기도 안성시 동본동 61-1번지","indutype":"일반휴게음식 - 일반한식","category":"restaurant"}]},{"lat":"37.007860316","long":"127.27176929","imageIndex":4,"items":[{"name":"명동스넥","tel":"031-674-7942","addr":"경기도 안성시 동본동 21-1번지","indutype":"일반휴게음식 - 스넥","category":"restaurant"},{"name":"쌥드우돈타니","tel":"031-673-6855","addr":"경기도 안성시 동본동 21-1번지 2층","indutype":"일반휴게음식 - 일반한식","category":"restaurant"},{"name":"일품칼국수","tel":"031-672-8788","addr":"경기도 안성시 동본동 21-1번지","indutype":"일반휴게음식 - 일반한식","category":"restaurant"}]},{"lat":"37.008021896","long":"127.27203951","imageIndex":4,"items":[{"name":"봉평산골메밀촌","tel":"031-674-4435","addr":"경기도 안성시 동본동 13-4번지","indutype":"일반휴게음식 - 일반한식","category":"restaurant"}]},{"lat":"37.006077542","long":"127.27117878","imageIndex":4,"items":[{"name":"부부스넥","tel":"031-675-6478","addr":"경기도 안성시 동본동 95-1번지","indutype":"일반휴게음식 - 스넥","category":"restaurant"}]},{"lat":"37.006832931","long":"127.27184432","imageIndex":4,"items":[{"name":"설빙","tel":"031-674-9498","addr":"경기도 안성시 동본동 47번지 2층","indutype":"일반휴게음식 - 서양음식","category":"restaurant"}]},{"lat":"37.00816688","long":"127.27168049","imageIndex":4,"items":[{"name":"신미소","tel":"031-6755-3027","addr":"경기도 안성시 동본동 11-2번지","indutype":"일반휴게음식 - 일반한식","category":"restaurant"}]},{"lat":"37.006220262","long":"127.27181969","imageIndex":4,"items":[{"name":"신흥정육점식당","tel":"031-677-1433","addr":"경기도 안성시 동본동 79-3번지","indutype":"일반휴게음식 - 일반한식","category":"restaurant"}]},{"lat":"37.007248181","long":"127.27150872","imageIndex":4,"items":[{"name":"써브웨이안성중앙점","tel":"031-675-2716","addr":"경기도 안성시 동본동 34번지","indutype":"일반휴게음식 - 일반한식","category":"restaurant"}]},{"lat":"37.007273125","long":"127.27243011","imageIndex":4,"items":[{"name":"아우내아구탕","tel":"031-673-7755","addr":"경기도 안성시 동본동 27-1번지","indutype":"일반휴게음식 - 일반한식","category":"restaurant"}]},{"lat":"37.006860395","long":"127.27165342","imageIndex":4,"items":[{"name":"아인스","tel":"031-671-0362","addr":"경기도 안성시 동본동 49번지 2층","indutype":"일반휴게음식 - 일반한식","category":"restaurant"},{"name":"아인스","tel":"031-671-0362","addr":"경기도 안성시 동본동 49번지 2층","indutype":"일반휴게음식 - 일반한식","category":"restaurant"}]},{"lat":"37.005832501","long":"127.27195315","imageIndex":4,"items":[{"name":"영흥루","tel":"031-675-4722","addr":"경기도 안성시 동본동 88번지","indutype":"일반휴게음식 - 일반한식","category":"restaurant"}]},{"lat":"37.007860774","long":"127.27156706","imageIndex":4,"items":[{"name":"오사카부루스","tel":"031-673-7110","addr":"경기도 안성시 동본동 22번지 2층","indutype":"일반휴게음식 - 주점","category":"restaurant"},{"name":"원조신촌감자탕","tel":"031-677-9192","addr":"경기도 안성시 동본동 22번지","indutype":"일반휴게음식 - 일반한식","category":"restaurant"}]},{"lat":"37.007498389","long":"127.27243091","imageIndex":4,"items":[{"name":"오성식당","tel":"031-676-4915","addr":"경기도 안성시 동본동 26,26-1","indutype":"일반휴게음식 - 일반한식","category":"restaurant"}]},{"lat":"37.006606953","long":"127.27215811","imageIndex":4,"items":[{"name":"옥수생태마을","tel":"031-677-8833","addr":"경기도 안성시 동본동 59번지","indutype":"일반휴게음식 - 일반한식","category":"restaurant"}]},{"lat":"37.007580377","long":"127.27203796","imageIndex":4,"items":[{"name":"윤씨네오리전골","tel":"031-672-0657","addr":"경기도 안성시 동본동 25번지","indutype":"일반휴게음식 - 일반한식","category":"restaurant"}]},{"lat":"37.006165562","long":"127.27210038","imageIndex":4,"items":[{"name":"이모네집","tel":"031-677-2501","addr":"경기도 안성시 동본동 85번지 1동 1층","indutype":"일반휴게음식 - 일반한식","category":"restaurant"}]},{"lat":"37.006302171","long":"127.27146045","imageIndex":4,"items":[{"name":"자매뚝배기","tel":"031-674-7272","addr":"경기도 안성시 동본동 77번지 1층","indutype":"일반휴게음식 - 일반한식","category":"restaurant"}]},{"lat":"37.006716913","long":"127.27134956","imageIndex":4,"items":[{"name":"재건사 커피","tel":"","addr":"경기도 안성시 동본동 54번지","indutype":"일반휴게음식 - 서양음식","category":"restaurant"}]},{"lat":"37.006329457","long":"127.2713482","imageIndex":4,"items":[{"name":"중앙스넥","tel":"031-671-8757","addr":"경기도 안성시 동본동 75-1번지","indutype":"일반휴게음식 - 일반한식","category":"restaurant"}]},{"lat":"37.008356051","long":"127.27170363","imageIndex":4,"items":[{"name":"청년육회","tel":"070-8882-4435","addr":"경기도 안성시 동본동 10번지 1층","indutype":"일반휴게음식 - 일반한식","category":"restaurant"}]},{"lat":"37.007805514","long":"127.27209493","imageIndex":4,"items":[{"name":"카사보니타","tel":"031-673-4907","addr":"경기도 안성시 동본동 19번지","indutype":"일반휴게음식 - 서양음식","category":"restaurant"}]},{"lat":"37.00588837","long":"127.27115565","imageIndex":4,"items":[{"name":"카페모퉁이","tel":"031-674-2278","addr":"경기도 안성시 동본동 97번지","indutype":"일반휴게음식 - 서양음식","category":"restaurant"}]},{"lat":"37.006914891","long":"127.27146261","imageIndex":4,"items":[{"name":"카페베네(안성점)","tel":"031-671-6232","addr":"경기도 안성시 동본동 50번지","indutype":"일반휴게음식 - 서양음식","category":"restaurant"}]},{"lat":"37.007410041","long":"127.27165535","imageIndex":4,"items":[{"name":"킹콩와플","tel":"070-7583-3114","addr":"경기도 안성시 동본동 30번지 1층","indutype":"일반휴게음식 - 일반한식","category":"restaurant"}]},{"lat":"37.00563615","long":"127.27112106","imageIndex":4,"items":[{"name":"플라워카페더아지트","tel":"","addr":"경기도 안성시 동본동 101번지 1층 우측호","indutype":"일반휴게음식 - 서양음식","category":"restaurant"}]},{"lat":"37.007552963","long":"127.27220639","imageIndex":4,"items":[{"name":"한선희 낙지명가","tel":"031-675-1435","addr":"경기도 안성시 동본동 25-1번지 1층","indutype":"일반휴게음식 - 일반한식","category":"restaurant"}]},{"lat":"37.008049742","long":"127.27168008","imageIndex":4,"items":[{"name":"황토화로구이","tel":"031-674-3652","addr":"경기도 안성시 동본동 12번지","indutype":"일반휴게음식 - 일반한식","category":"restaurant"}]},{"lat":"37.006381765","long":"127.27212361","imageIndex":13,"items":[{"name":"가고파노래방","tel":"031-672-2125","addr":"경기도 안성시 동본동 61-1번지","indutype":"레저업소 - 노 래 방","category":"leisure"}]},{"lat":"37.007860774","long":"127.27156706","imageIndex":16,"items":[{"name":"경찰경호무도협회합기도정도관","tel":"031-675-5557","addr":"경기도 안성시 동본동 22번지","indutype":"학원 - 예·체능계학원","category":"study"}]},{"lat":"37.006914891","long":"127.27146261","imageIndex":8,"items":[{"name":"광선치과","tel":"031-677-0453","addr":"경기도 안성시 동본동 50","indutype":"의원 - 치과의원","category":"medical"}]},{"lat":"37.007248181","long":"127.27150872","imageIndex":8,"items":[{"name":"미인플란트치과의원","tel":"031-671-1338","addr":"경기도 안성시 동본동 34번지 2층,3층","indutype":"의원 - 치과의원","category":"medical"}]},{"lat":"37.007220437","long":"127.27182322","imageIndex":8,"items":[{"name":"석정한의원","tel":"031-676-7373","addr":"경기도 안성시 동본동 37번지 2층","indutype":"의원 - 한의원","category":"medical"}]},{"lat":"37.006158561","long":"127.27121278","imageIndex":8,"items":[{"name":"성모약국","tel":"031-675-9200","addr":"경기도 안성시 동본동 95번지","indutype":"약국 - 약국","category":"medical"}]},{"lat":"37.006860217","long":"127.27173206","imageIndex":8,"items":[{"name":"안성치과의원","tel":"031-673-1333","addr":"경기도 안성시 동본동 48번지","indutype":"의원 - 치과의원","category":"medical"}]},{"lat":"37.006356667","long":"127.27126965","imageIndex":8,"items":[{"name":"제일당약국","tel":"031-674-1041","addr":"경기도 안성시 동본동 75번지","indutype":"약국 - 약국","category":"medical"}]},{"lat":"37.006832727","long":"127.2719342","imageIndex":8,"items":[{"name":"한길아산내과","tel":"031-675-0500","addr":"경기도 안성시 동본동 46번지","indutype":"의원 - 의원","category":"medical"}]},{"lat":"37.006832422","long":"127.27206903","imageIndex":8,"items":[{"name":"현대약국","tel":"031-674-7662","addr":"경기도 안성시 동본동 45번지","indutype":"약국 - 약국","category":"medical"}]},{"lat":"37.007327749","long":"127.27218313","imageIndex":5,"items":[{"name":"노도모텔","tel":"031-671-3450","addr":"경기도 안성시 동본동 28번지","indutype":"숙박업 - 여관/기타숙박업","category":"hotel"}]},{"lat":"37.005716356","long":"127.27151457","imageIndex":5,"items":[{"name":"은성여관","tel":"031-675-3140","addr":"경기도 안성시 동본동 89-4번지","indutype":"숙박업 - 여관/기타숙박업","category":"hotel"}]},{"lat":"37.005967533","long":"127.2720098","imageIndex":5,"items":[{"name":"제일모텔","tel":"031-674-4232","addr":"경기도 안성시 동본동 87번지","indutype":"숙박업 - 여관/기타숙박업","category":"hotel"}]},{"lat":"37.007410041","long":"127.27165535","imageIndex":5,"items":[{"name":"프라자","tel":"031-673-0592","addr":"경기도 안성시 동본동 30,32","indutype":"숙박업 - 여관/기타숙박업","category":"hotel"},{"name":"프라자모텔","tel":"031-673-0592","addr":"경기도 안성시 동본동 30번지 3층,4층","indutype":"숙박업 - 여관/기타숙박업","category":"hotel"}]},{"lat":"37.007248181","long":"127.27150872","imageIndex":7,"items":[{"name":"배스킨라빈스31","tel":"031-671-0031","addr":"경기도 안성시 동본동 34번지 1층","indutype":"음료식품 - 제과점","category":"food"},{"name":"비알코리아(주) 베스킨라빈스 안성중앙점","tel":"031-0000-0000","addr":"경기도 안성시 동본동 34번지","indutype":"음료식품 - 제과점","category":"food"}]},{"lat":"37.007220768","long":"127.27167716","imageIndex":7,"items":[{"name":"샐러디하우스","tel":"031-674-7004","addr":"경기도 안성시 동본동 35번지 1층","indutype":"음료식품 - 기타음료식품","category":"food"}]},{"lat":"37.006158561","long":"127.27121278","imageIndex":7,"items":[{"name":"성모헬스케어","tel":"031-675-2664","addr":"경기도 안성시 동본동 95번지 1층","indutype":"건강식품 - 기타건강식품","category":"food"}]},{"lat":"37.007860774","long":"127.27156706","imageIndex":7,"items":[{"name":"아빠이발관","tel":"031-674-2859","addr":"경기도 안성시 동본동 22번지","indutype":"회원제형태 - 건강식품","category":"food"}]},{"lat":"37.006077542","long":"127.27117878","imageIndex":7,"items":[{"name":"와와수산","tel":"031-677-2777","addr":"경기도 안성시 동본동 95-1번지","indutype":"음료식품 - 농·축·수산품","category":"food"}]},{"lat":"37.007498389","long":"127.27243091","imageIndex":7,"items":[{"name":"우리가게","tel":"","addr":"경기도 안성시 동본동 26번지","indutype":"음료식품 - 기타음료식품","category":"food"}]},{"lat":"37.006356667","long":"127.27126965","imageIndex":7,"items":[{"name":"제일헬스케어","tel":"031-674-1041","addr":"경기도 안성시 동본동 75번지 1층","indutype":"건강식품 - 기타건강식품","category":"food"}]},{"lat":"37.008356051","long":"127.27170363","imageIndex":7,"items":[{"name":"천수흑염소","tel":"031-673-1432","addr":"경기도 안성시 동본동 10번지","indutype":"건강식품 - 기타건강식품","category":"food"}]},{"lat":"37.006165562","long":"127.27210038","imageIndex":7,"items":[{"name":"초앤초","tel":"00-0000-0000","addr":"경기도 안성시 동본동 85번지","indutype":"음료식품 - 기타음료식품","category":"food"}]},{"lat":"37.007111113","long":"127.27235089","imageIndex":7,"items":[{"name":"팔도정육점","tel":"031-675-2665","addr":"경기도 안성시 동본동 43번지 1층","indutype":"음료식품 - 정육점","category":"food"}]}]