[{"lat":"37.373191812","long":"126.95041855","imageIndex":4,"items":[{"name":"(주)아워홈 엘에스산전연구소안양점","tel":"031-8090-7904","addr":"경기도 안양시 동안구 호계동 555-14번지","indutype":"일반휴게음식 - 위탁급식업","category":"restaurant"}]},{"lat":"37.386639924","long":"126.94208716","imageIndex":4,"items":[{"name":"(주)에이스기연(라임)","tel":"031-454-7500","addr":"경기도 안양시 동안구 호계동 898-47번지","indutype":"일반휴게음식 - 서양음식","category":"restaurant"}]},{"lat":"37.390753011","long":"126.95153555","imageIndex":4,"items":[{"name":"(주)엠에스코리아","tel":"031-388-1484","addr":"경기도 안양시 동안구 호계동 1040번지","indutype":"일반휴게음식 - 서양음식","category":"restaurant"}]},{"lat":"37.36375389","long":"126.96236817","imageIndex":4,"items":[{"name":"119바베큐불닭","tel":"031-427-9989","addr":"경기도 안양시 동안구 호계동 813번지 호계e-편한세상아파트","indutype":"일반휴게음식 - 주점","category":"restaurant"},{"name":"빈스빈스샵(안양호계점)","tel":"031-427-0977","addr":"경기도 안양시 동안구 호계동 813번지","indutype":"일반휴게음식 - 서양음식","category":"restaurant"},{"name":"소문난김밥","tel":"031-427-8285","addr":"경기도 안양시 동안구 호계동","indutype":"일반휴게음식 - 스넥","category":"restaurant"},{"name":"커피리추얼","tel":"031-452-1978","addr":"경기도 안양시 동안구 호계동 813번지 호계e-편한세상아파트","indutype":"일반휴게음식 - 서양음식","category":"restaurant"},{"name":"커피앤초콜릿","tel":"031-429-9919","addr":"경기도 안양시 동안구 호계동 813번지 호계e-편한세상아파트","indutype":"일반휴게음식 - 스넥","category":"restaurant"}]},{"lat":"37.367337059","long":"126.95472369","imageIndex":4,"items":[{"name":"13월","tel":"","addr":"경기도 안양시 동안구 호계동 711-1번지","indutype":"일반휴게음식 - 주점","category":"restaurant"},{"name":"공릉동원조멸치국수","tel":"031-455-0250","addr":"경기도 안양시 동안구 호계동 711-1번지","indutype":"일반휴게음식 - 일반한식","category":"restaurant"},{"name":"까페토브","tel":"031-458-9983","addr":"경기도 안양시 동안구 호계동 711-1번지","indutype":"일반휴게음식 - 일반한식","category":"restaurant"},{"name":"소야소야","tel":"031-451-0050","addr":"경기도 안양시 동안구 호계동 711-1번지","indutype":"일반휴게음식 - 일반한식","category":"restaurant"},{"name":"신림황소곱창","tel":"031-422-0058","addr":"경기도 안양시 동안구 호계동 711-1번지","indutype":"일반휴게음식 - 일반한식","category":"restaurant"},{"name":"엄마네김밥","tel":"031-427-7188","addr":"경기도 안양시 동안구 호계동 711-1번지","indutype":"일반휴게음식 - 일반한식","category":"restaurant"},{"name":"엄마네김밥","tel":"031-427-7188","addr":"경기도 안양시 동안구 호계동 711-1번지","indutype":"일반휴게음식 - 일반한식","category":"restaurant"},{"name":"웰빙참치","tel":"031-429-0860","addr":"경기도 안양시 동안구 호계동 711-1번지","indutype":"일반휴게음식 - 일식·회집","category":"restaurant"},{"name":"조은식당","tel":"031-427-6848","addr":"경기도 안양시 동안구 호계동 711-1번지","indutype":"일반휴게음식 - 일반한식","category":"restaurant"},{"name":"쪽갈비전문점예감","tel":"031-451-5353","addr":"경기도 안양시 동안구 호계동 711-1번지","indutype":"일반휴게음식 - 일반한식","category":"restaurant"},{"name":"찌개지존","tel":"031-451-4510","addr":"경기도 안양시 동안구 호계동 711-1번지","indutype":"일반휴게음식 - 일반한식","category":"restaurant"},{"name":"태영생막창","tel":"070-7677-5234","addr":"경기도 안양시 동안구 호계동 711-1번지","indutype":"일반휴게음식 - 일반한식","category":"restaurant"},{"name":"통닭원5900","tel":"031-452-5959","addr":"경기도 안양시 동안구 호계동 711-1번지","indutype":"일반휴게음식 - 스넥","category":"restaurant"},{"name":"풍년숯불갈비","tel":"031-429-5780","addr":"경기도 안양시 동안구 호계동 711-1번지","indutype":"일반휴게음식 - 일반한식","category":"restaurant"},{"name":"호계실버타운요양원/농업회사법인경기영농","tel":"","addr":"경기도 안양시 동안구 호계동 711-1번지","indutype":"일반휴게음식 - 위탁급식업","category":"restaurant"},{"name":"홍두깨바지락칼국수","tel":"031-427-9565","addr":"경기도 안양시 동안구 호계동 711-1번지","indutype":"일반휴게음식 - 일반한식","category":"restaurant"},{"name":"홍미불불닭발","tel":"031-386-2714","addr":"경기도 안양시 동안구 호계동 711-1번지","indutype":"일반휴게음식 - 일반한식","category":"restaurant"},{"name":"희망터 사회적협동조합","tel":"031-477-5901","addr":"경기도 안양시 동안구 호계동 711-1번지","indutype":"일반휴게음식 - 일반한식","category":"restaurant"}]},{"lat":"37.3906911","long":"126.95427964","imageIndex":4,"items":[{"name":"1943범계점","tel":"031-415-0486","addr":"경기도 안양시 동안구 호계동 1047-3번지","indutype":"일반휴게음식 - 주점","category":"restaurant"},{"name":"레포츠스넥음식","tel":"031-383-4994","addr":"경기도 안양시 동안구 호계동 1047-3번지","indutype":"일반휴게음식 - 일반한식","category":"restaurant"},{"name":"장충웰빙족발","tel":"031-383-4237","addr":"경기도 안양시 동안구 호계동 1047-3번지","indutype":"일반휴게음식 - 일반한식","category":"restaurant"},{"name":"코브라","tel":"031-384-5554","addr":"경기도 안양시 동안구 호계동 1047-3번지","indutype":"일반휴게음식 - 일반한식","category":"restaurant"}]},{"lat":"37.390889553","long":"126.95484413","imageIndex":4,"items":[{"name":"19PUB","tel":"","addr":"경기도 안양시 동안구 호계동 1047-6번지","indutype":"일반휴게음식 - 주점","category":"restaurant"},{"name":"개미집 범계점","tel":"031-383-5676","addr":"경기도 안양시 동안구 호계동 1047-6번지","indutype":"일반휴게음식 - 일반한식","category":"restaurant"},{"name":"구들장황소곱창","tel":"031-386-0888","addr":"경기도 안양시 동안구 호계동 1047-6번지","indutype":"일반휴게음식 - 일반한식","category":"restaurant"},{"name":"깐부치킨 범계역점","tel":"031-383-8006","addr":"경기도 안양시 동안구 호계동 1047-6번지","indutype":"일반휴게음식 - 스넥","category":"restaurant"},{"name":"나라","tel":"031-226-4025","addr":"경기도 안양시 동안구 호계동 1047-6번지","indutype":"일반휴게음식 - 주점","category":"restaurant"},{"name":"당케","tel":"031-382-3355","addr":"경기도 안양시 동안구 호계동 1047-6번지","indutype":"일반휴게음식 - 주점","category":"restaurant"},{"name":"라메이즈마라탕(범계점)","tel":"031-383-4684","addr":"경기도 안양시 동안구 호계동 1047-6번지","indutype":"일반휴게음식 - 중국식","category":"restaurant"},{"name":"미미이자카야","tel":"02-1111-0000","addr":"경기도 안양시 동안구 호계동 1047-6번지","indutype":"일반휴게음식 - 주점","category":"restaurant"},{"name":"숯불 꼬꼬아찌","tel":"031-381-9957","addr":"경기도 안양시 동안구 호계동 1047-6번지","indutype":"일반휴게음식 - 일반한식","category":"restaurant"},{"name":"아맛나양꼬치","tel":"031-388-5092","addr":"경기도 안양시 동안구 호계동 1047-6번지","indutype":"일반휴게음식 - 일반한식","category":"restaurant"},{"name":"알래스카 싸움의고수","tel":"031-476-3000","addr":"경기도 안양시 동안구 호계동 1047-6번지","indutype":"일반휴게음식 - 일반한식","category":"restaurant"},{"name":"연","tel":"031-340-9663","addr":"경기도 안양시 동안구 호계동 1047-6번지","indutype":"일반휴게음식 - 일반한식","category":"restaurant"},{"name":"유가네닭갈비(범계점)","tel":"031-388-4408","addr":"경기도 안양시 동안구 호계동 1047-6번지","indutype":"일반휴게음식 - 일반한식","category":"restaurant"},{"name":"이자카야요꼬","tel":"031-382-1436","addr":"경기도 안양시 동안구 호계동 1047-6번지","indutype":"일반휴게음식 - 일식·회집","category":"restaurant"},{"name":"이자카야찬","tel":"031-342-5401","addr":"경기도 안양시 동안구 호계동 1047-6번지","indutype":"일반휴게음식 - 일반한식","category":"restaurant"},{"name":"체이서","tel":"","addr":"경기도 안양시 동안구 호계동 1047-6번지","indutype":"일반휴게음식 - 일반한식","category":"restaurant"},{"name":"한솥도시락","tel":"031-388-1722","addr":"경기도 안양시 동안구 호계동 1047-6번지","indutype":"일반휴게음식 - 일반한식","category":"restaurant"}]},{"lat":"37.388669769","long":"126.94731375","imageIndex":4,"items":[{"name":"24시전주콩나물해장국","tel":"031-456-0003","addr":"경기도 안양시 동안구 호계동 903-9번지","indutype":"일반휴게음식 - 일반한식","category":"restaurant"}]},{"lat":"37.390781308","long":"126.95453931","imageIndex":4,"items":[{"name":"24케이 (K)","tel":"031-381-0409","addr":"경기도 안양시 동안구 호계동 1047-4번지","indutype":"일반휴게음식 - 주점","category":"restaurant"},{"name":"가양양꼬치","tel":"031-381-6828","addr":"경기도 안양시 동안구 호계동 1047-4번지","indutype":"일반휴게음식 - 일반한식","category":"restaurant"},{"name":"교동전선생","tel":"031-385-3311","addr":"경기도 안양시 동안구 호계동 1047-4번지","indutype":"일반휴게음식 - 일반한식","category":"restaurant"},{"name":"김해뒷고기","tel":"031-383-9252","addr":"경기도 안양시 동안구 호계동 1047-4번지","indutype":"일반휴게음식 - 일반한식","category":"restaurant"},{"name":"범계갯바위횟집","tel":"031-383-6997","addr":"경기도 안양시 동안구 호계동 1047-4번지","indutype":"일반휴게음식 - 일식·회집","category":"restaurant"},{"name":"부추삼겹살","tel":"031-384-8100","addr":"경기도 안양시 동안구 호계동 1047-4번지","indutype":"일반휴게음식 - 일반한식","category":"restaurant"},{"name":"비앙드","tel":"031-387-3527","addr":"경기도 안양시 동안구 호계동 1047-4번지","indutype":"일반휴게음식 - 서양음식","category":"restaurant"},{"name":"술시","tel":"","addr":"경기도 안양시 동안구 호계동 1047-4번지","indutype":"일반휴게음식 - 주점","category":"restaurant"},{"name":"아웃닭범계점","tel":"031-381-3767","addr":"경기도 안양시 동안구 호계동 1047-4번지","indutype":"일반휴게음식 - 스넥","category":"restaurant"},{"name":"엔","tel":"031-383-1939","addr":"경기도 안양시 동안구 호계동 1047-4번지","indutype":"일반휴게음식 - 일식·회집","category":"restaurant"},{"name":"오사카부루스 범계점","tel":"","addr":"경기도 안양시 동안구 호계동 1047-4번지","indutype":"일반휴게음식 - 주점","category":"restaurant"},{"name":"육백집","tel":"031-381-6566","addr":"경기도 안양시 동안구 호계동 1047-4번지","indutype":"일반휴게음식 - 일반한식","category":"restaurant"},{"name":"육회본사","tel":"031-381-6060","addr":"경기도 안양시 동안구 호계동 1047-4번지","indutype":"일반휴게음식 - 일반한식","category":"restaurant"},{"name":"인다","tel":"031-383-0517","addr":"경기도 안양시 동안구 호계동 1047-4번지","indutype":"일반휴게음식 - 주점","category":"restaurant"},{"name":"족보","tel":"031-382-6104","addr":"경기도 안양시 동안구 호계동 1047-4번지","indutype":"일반휴게음식 - 일반한식","category":"restaurant"},{"name":"주식","tel":"","addr":"경기도 안양시 동안구 호계동 1047-4번지","indutype":"일반휴게음식 - 일식·회집","category":"restaurant"},{"name":"천사곱창","tel":"","addr":"경기도 안양시 동안구 호계동 1047-4번지","indutype":"일반휴게음식 - 일반한식","category":"restaurant"},{"name":"행복한집","tel":"070-4098-0722","addr":"경기도 안양시 동안구 호계동 1047-4번지","indutype":"일반휴게음식 - 일반한식","category":"restaurant"}]},{"lat":"37.390059603","long":"126.95239424","imageIndex":4,"items":[{"name":"3층다락방","tel":"","addr":"경기도 안양시 동안구 호계동 1046-3번지","indutype":"일반휴게음식 - 서양음식","category":"restaurant"},{"name":"3층다락방/(주)에이치엠파워넷","tel":"031-385-7105","addr":"경기도 안양시 동안구 호계동 1046-3번지","indutype":"일반휴게음식 - 서양음식","category":"restaurant"},{"name":"떡슐랭 1호점","tel":"031-689-5044","addr":"경기도 안양시 동안구 호계동 1046-3번지","indutype":"일반휴게음식 - 일반한식","category":"restaurant"},{"name":"롤링파스타 범계역점","tel":"031-382-0520","addr":"경기도 안양시 동안구 호계동 1046-3번지","indutype":"일반휴게음식 - 서양음식","category":"restaurant"},{"name":"세계맥주가격파괴","tel":"031-388-8480","addr":"경기도 안양시 동안구 호계동 1046-3번지","indutype":"일반휴게음식 - 주점","category":"restaurant"},{"name":"쩐주단 안양범계점","tel":"","addr":"경기도 안양시 동안구 호계동 1046-3번지","indutype":"일반휴게음식 - 서양음식","category":"restaurant"},{"name":"천희양꼬치","tel":"031-3926-8890","addr":"경기도 안양시 동안구 호계동 1046-3번지","indutype":"일반휴게음식 - 일반한식","category":"restaurant"},{"name":"크리에이티브커피","tel":"070-7799-7794","addr":"경기도 안양시 동안구 호계동 1046-3번지","indutype":"일반휴게음식 - 서양음식","category":"restaurant"}]},{"lat":"37.390330284","long":"126.95328615","imageIndex":4,"items":[{"name":"6구역","tel":"031-745-9235","addr":"경기도 안양시 동안구 호계동 1046-8번지","indutype":"일반휴게음식 - 일반한식","category":"restaurant"},{"name":"꼬마셰프","tel":"031-388-1555","addr":"경기도 안양시 동안구 호계동 1046-8번지","indutype":"일반휴게음식 - 서양음식","category":"restaurant"},{"name":"니뽕내뽕(범계점)","tel":"031-383-9991","addr":"경기도 안양시 동안구 호계동 1046-8번지","indutype":"일반휴게음식 - 중국식","category":"restaurant"},{"name":"석잔","tel":"","addr":"경기도 안양시 동안구 호계동 1046-8번지","indutype":"일반휴게음식 - 일반한식","category":"restaurant"}]},{"lat":"37.381219941","long":"126.95067265","imageIndex":4,"items":[{"name":"98퍼센트 (98%)","tel":"","addr":"경기도 안양시 동안구 호계동 929-24번지","indutype":"일반휴게음식 - 서양음식","category":"restaurant"}]},{"lat":"37.362114519","long":"126.96378006","imageIndex":4,"items":[{"name":"B.H.C의왕오전점","tel":"031-429-9689","addr":"경기도 안양시 동안구 호계동 859-36번지","indutype":"일반휴게음식 - 스넥","category":"restaurant"}]},{"lat":"37.391024873","long":"126.95526186","imageIndex":4,"items":[{"name":"BHC범계점","tel":"031-381-9282","addr":"경기도 안양시 동안구 호계동 1047-8번지","indutype":"일반휴게음식 - 스넥","category":"restaurant"},{"name":"고기원칙 범계점","tel":"031-385-5125","addr":"경기도 안양시 동안구 호계동 1047-8번지","indutype":"일반휴게음식 - 주점","category":"restaurant"},{"name":"도쿄빙수","tel":"070-7862-1697","addr":"경기도 안양시 동안구 호계동 1047-8번지","indutype":"일반휴게음식 - 서양음식","category":"restaurant"},{"name":"블러썸","tel":"031-3915-2297","addr":"경기도 안양시 동안구 호계동 1047-8번지","indutype":"일반휴게음식 - 주점","category":"restaurant"},{"name":"용두동쭈꾸미","tel":"031-387-8425","addr":"경기도 안양시 동안구 호계동 1047-8번지","indutype":"일반휴게음식 - 일반한식","category":"restaurant"},{"name":"촌놈집","tel":"031-382-3591","addr":"경기도 안양시 동안구 호계동 1047-8번지","indutype":"일반휴게음식 - 일반한식","category":"restaurant"},{"name":"포메인","tel":"031-381-9294","addr":"경기도 안양시 동안구 호계동 1047-8번지","indutype":"일반휴게음식 - 서양음식","category":"restaurant"},{"name":"푸른바다","tel":"031-388-8868","addr":"경기도 안양시 동안구 호계동 1047-8번지","indutype":"일반휴게음식 - 일반한식","category":"restaurant"},{"name":"하안돌곱창","tel":"031-383-3331","addr":"경기도 안양시 동안구 호계동 1047-8번지","indutype":"일반휴게음식 - 일반한식","category":"restaurant"},{"name":"해피더스","tel":"070-8185-3303","addr":"경기도 안양시 동안구 호계동","indutype":"일반휴게음식 - 주점","category":"restaurant"},{"name":"화투","tel":"031-381-7721","addr":"경기도 안양시 동안구 호계동 1047-8번지","indutype":"일반휴게음식 - 주점","category":"restaurant"}]},{"lat":"37.383556478","long":"126.95776196","imageIndex":4,"items":[{"name":"BHC평촌2호점","tel":"031-385-1771","addr":"경기도 안양시 동안구 호계동","indutype":"일반휴게음식 - 주점","category":"restaurant"},{"name":"안나누나","tel":"","addr":"경기도 안양시 동안구 호계동 1057번지","indutype":"일반휴게음식 - 일반한식","category":"restaurant"}]},{"lat":"37.391384522","long":"126.95342097","imageIndex":4,"items":[{"name":"GREEN FRUITS","tel":"","addr":"경기도 안양시 동안구 호계동 1042번지","indutype":"일반휴게음식 - 서양음식","category":"restaurant"},{"name":"경회루","tel":"031-383-2577","addr":"경기도 안양시 동안구 호계동 1042번지","indutype":"일반휴게음식 - 일반한식","category":"restaurant"},{"name":"공차안양범계역점","tel":"031-381-2030","addr":"경기도 안양시 동안구 호계동 1042번지","indutype":"일반휴게음식 - 서양음식","category":"restaurant"},{"name":"김밥연구소,우리(안양범계역점)","tel":"031-387-4600","addr":"경기도 안양시 동안구 호계동 1042번지","indutype":"일반휴게음식 - 스넥","category":"restaurant"},{"name":"더브라운 범계점","tel":"031-422-7745","addr":"경기도 안양시 동안구 호계동 1042번지","indutype":"일반휴게음식 - 서양음식","category":"restaurant"},{"name":"두끼떡볶이","tel":"031-384-4548","addr":"경기도 안양시 동안구 호계동 1042번지","indutype":"일반휴게음식 - 스넥","category":"restaurant"},{"name":"디아니","tel":"031-385-0015","addr":"경기도 안양시 동안구 호계동 1042번지","indutype":"일반휴게음식 - 서양음식","category":"restaurant"},{"name":"라온제나","tel":"031-388-1042","addr":"경기도 안양시 동안구 호계동 1042번지","indutype":"일반휴게음식 - 서양음식","category":"restaurant"},{"name":"민스커피 범계점","tel":"","addr":"경기도 안양시 동안구 호계동 1042번지","indutype":"일반휴게음식 - 서양음식","category":"restaurant"},{"name":"박은자맛사랑","tel":"031-382-8500","addr":"경기도 안양시 동안구 호계동 1042번지","indutype":"일반휴게음식 - 일반한식","category":"restaurant"},{"name":"범계 쥬씨&차얌","tel":"","addr":"경기도 안양시 동안구 호계동 1042번지","indutype":"일반휴게음식 - 서양음식","category":"restaurant"},{"name":"블리스","tel":"","addr":"경기도 안양시 동안구 호계동 1042번지","indutype":"일반휴게음식 - 서양음식","category":"restaurant"},{"name":"샤이바나범계점","tel":"081-381-4281","addr":"경기도 안양시 동안구 호계동 1042번지","indutype":"일반휴게음식 - 서양음식","category":"restaurant"},{"name":"이디야 에소프레소 범계점","tel":"","addr":"경기도 안양시 동안구 호계동 1042번지","indutype":"일반휴게음식 - 서양음식","category":"restaurant"},{"name":"지정","tel":"031-381-5557","addr":"경기도 안양시 동안구 호계동 1042번지","indutype":"일반휴게음식 - 서양음식","category":"restaurant"},{"name":"청해미락강릉집","tel":"031-384-4326","addr":"경기도 안양시 동안구 호계동 1042번지","indutype":"일반휴게음식 - 일반한식","category":"restaurant"}]},{"lat":"37.391249819","long":"126.95450513","imageIndex":4,"items":[{"name":"가로등642범계점","tel":"031-394-8276","addr":"경기도 안양시 동안구 호계동 1044-5번지","indutype":"일반휴게음식 - 일반한식","category":"restaurant"},{"name":"대소골","tel":"031-386-1013","addr":"경기도 안양시 동안구 호계동","indutype":"일반휴게음식 - 일반한식","category":"restaurant"},{"name":"라멘키분","tel":"","addr":"경기도 안양시 동안구 호계동 1044-5번지","indutype":"일반휴게음식 - 일식·회집","category":"restaurant"},{"name":"마초쉐프","tel":"031-388-8877","addr":"경기도 안양시 동안구 호계동 1044-5번지","indutype":"일반휴게음식 - 서양음식","category":"restaurant"},{"name":"모던통닭 범계점","tel":"031-381-1811","addr":"경기도 안양시 동안구 호계동 1044-5번지","indutype":"일반휴게음식 - 스넥","category":"restaurant"},{"name":"비자스(BEEZAS)","tel":"031-388-4478","addr":"경기도 안양시 동안구 호계동 1044-5번지","indutype":"일반휴게음식 - 스넥","category":"restaurant"},{"name":"양대감","tel":"031-424-0092","addr":"경기도 안양시 동안구 호계동 1044-5번지","indutype":"일반휴게음식 - 일반한식","category":"restaurant"},{"name":"양들의침묵 범계점","tel":"031-388-2333","addr":"경기도 안양시 동안구 호계동 1044-5번지","indutype":"일반휴게음식 - 일반한식","category":"restaurant"},{"name":"원할머니보쌈평촌점","tel":"031-385-5177","addr":"경기도 안양시 동안구 호계동","indutype":"일반휴게음식 - 일반한식","category":"restaurant"},{"name":"이순화 명태마을","tel":"031-383-1161","addr":"경기도 안양시 동안구 호계동 1044-5번지","indutype":"일반휴게음식 - 일반한식","category":"restaurant"},{"name":"이자카야미소","tel":"031-384-0288","addr":"경기도 안양시 동안구 호계동 1044-5번지","indutype":"일반휴게음식 - 스넥","category":"restaurant"},{"name":"잔잔범계역점","tel":"031-388-0876","addr":"경기도 안양시 동안구 호계동 1044-5번지","indutype":"일반휴게음식 - 일반한식","category":"restaurant"},{"name":"정","tel":"031-347-3608","addr":"경기도 안양시 동안구 호계동 1044-5번지","indutype":"일반휴게음식 - 주점","category":"restaurant"},{"name":"케이엠지엠 범계점","tel":"031-341-0567","addr":"경기도 안양시 동안구 호계동 1044-5번지","indutype":"일반휴게음식 - 주점","category":"restaurant"}]},{"lat":"37.38988886","long":"126.95345582","imageIndex":4,"items":[{"name":"가배예찬","tel":"031-236-5025","addr":"경기도 안양시 동안구 호계동 1050번지","indutype":"일반휴게음식 - 서양음식","category":"restaurant"},{"name":"고봉민김밥인범계점","tel":"031-382-5778","addr":"경기도 안양시 동안구 호계동 1050번지","indutype":"일반휴게음식 - 스넥","category":"restaurant"},{"name":"김밥천국","tel":"031-383-1237","addr":"경기도 안양시 동안구 호계동 1050번지","indutype":"일반휴게음식 - 일반한식","category":"restaurant"},{"name":"보타니컬 아뜰리에 Ucafe","tel":"031-386-8081","addr":"경기도 안양시 동안구 호계동 1050번지","indutype":"일반휴게음식 - 서양음식","category":"restaurant"},{"name":"봉추찜닭","tel":"031-386-6981","addr":"경기도 안양시 동안구 호계동 1050번지","indutype":"일반휴게음식 - 일반한식","category":"restaurant"},{"name":"순남시래기 범계점","tel":"031-382-0904","addr":"경기도 안양시 동안구 호계동 1050번지","indutype":"일반휴게음식 - 일반한식","category":"restaurant"},{"name":"아비꼬(안양범계역점)","tel":"031-385-9293","addr":"경기도 안양시 동안구 호계동 1050번지","indutype":"일반휴게음식 - 일반한식","category":"restaurant"},{"name":"이디야에스프레소(범계역점)","tel":"031-381-3072","addr":"경기도 안양시 동안구 호계동 1050번지","indutype":"일반휴게음식 - 서양음식","category":"restaurant"},{"name":"청실홍실","tel":"031-1899-3272","addr":"경기도 안양시 동안구 호계동 1050번지","indutype":"일반휴게음식 - 일반한식","category":"restaurant"},{"name":"키스커피 범계점","tel":"031-385-5233","addr":"경기도 안양시 동안구 호계동 1050번지","indutype":"일반휴게음식 - 일반한식","category":"restaurant"},{"name":"헬로에스프레소","tel":"031-388-5047","addr":"경기도 안양시 동안구 호계동 1050번지","indutype":"일반휴게음식 - 서양음식","category":"restaurant"}]},{"lat":"37.390357773","long":"126.95439278","imageIndex":4,"items":[{"name":"가빈참치","tel":"031-388-1300","addr":"경기도 안양시 동안구 호계동 1049-2번지","indutype":"일반휴게음식 - 일식·회집","category":"restaurant"},{"name":"달전","tel":"031-388-9998","addr":"경기도 안양시 동안구 호계동 1049-2번지","indutype":"일반휴게음식 - 일반한식","category":"restaurant"},{"name":"도스타코스","tel":"031-387-0207","addr":"경기도 안양시 동안구 호계동 1049-2번지","indutype":"일반휴게음식 - 서양음식","category":"restaurant"},{"name":"멜랑말랑 범계점","tel":"","addr":"경기도 안양시 동안구 호계동 1049-2번지","indutype":"일반휴게음식 - 서양음식","category":"restaurant"}]},{"lat":"37.390303952","long":"126.95498001","imageIndex":4,"items":[{"name":"가스등","tel":"","addr":"경기도 안양시 동안구 호계동 1048-2번지","indutype":"일반휴게음식 - 주점","category":"restaurant"},{"name":"신전떡볶이","tel":"031-381-3323","addr":"경기도 안양시 동안구 호계동 1048-2번지","indutype":"일반휴게음식 - 스넥","category":"restaurant"},{"name":"와플블레스","tel":"070-8899-4289","addr":"경기도 안양시 동안구 호계동 1048-2번지","indutype":"일반휴게음식 - 서양음식","category":"restaurant"},{"name":"큰손범계점","tel":"031-387-8287","addr":"경기도 안양시 동안구 호계동 1048-2번지","indutype":"일반휴게음식 - 일반한식","category":"restaurant"},{"name":"하이파이브","tel":"031-383-3966","addr":"경기도 안양시 동안구 호계동 1048-2번지","indutype":"일반휴게음식 - 서양음식","category":"restaurant"}]},{"lat":"37.381025493","long":"126.96006683","imageIndex":4,"items":[{"name":"가야정","tel":"031-387-4020","addr":"경기도 안양시 동안구 호계동 1071-11번지","indutype":"일반휴게음식 - 일반한식","category":"restaurant"}]},{"lat":"37.376169316","long":"126.96083732","imageIndex":4,"items":[{"name":"가향","tel":"031-456-7373","addr":"경기도 안양시 동안구 호계동 1096-2번지","indutype":"일반휴게음식 - 중국식","category":"restaurant"},{"name":"피자헤븐 인 눈치떡 동안의왕점","tel":"031-386-7575","addr":"경기도 안양시 동안구 호계동 1096-2번지","indutype":"일반휴게음식 - 서양음식","category":"restaurant"}]},{"lat":"37.372861937","long":"126.95901024","imageIndex":4,"items":[{"name":"간식사랑","tel":"031-427-6723","addr":"경기도 안양시 동안구 호계동 995-31번지","indutype":"일반휴게음식 - 일반한식","category":"restaurant"}]},{"lat":"37.371525659","long":"126.95206798","imageIndex":4,"items":[{"name":"갈레또바베큐","tel":"031-479-6099","addr":"경기도 안양시 동안구 호계동 555-9번지","indutype":"일반휴게음식 - 주점","category":"restaurant"},{"name":"도경식당","tel":"031-479-5570","addr":"경기도 안양시 동안구 호계동 555-9번지","indutype":"일반휴게음식 - 일반한식","category":"restaurant"},{"name":"디오밸리한식뷔페","tel":"031-479-6088","addr":"경기도 안양시 동안구 호계동 555-9번지","indutype":"일반휴게음식 - 일반한식","category":"restaurant"},{"name":"또와유촌닭","tel":"031-479-5454","addr":"경기도 안양시 동안구 호계동 555-9번지","indutype":"일반휴게음식 - 일반한식","category":"restaurant"},{"name":"맞짱","tel":"031-479-4190","addr":"경기도 안양시 동안구 호계동 555-9번지","indutype":"일반휴게음식 - 일반한식","category":"restaurant"},{"name":"모모퓨전호프","tel":"031-479-6879","addr":"경기도 안양시 동안구 호계동 555-9번지","indutype":"일반휴게음식 - 주점","category":"restaurant"},{"name":"믿음","tel":"031-479-0690","addr":"경기도 안양시 동안구 호계동 555-9번지","indutype":"일반휴게음식 - 일반한식","category":"restaurant"},{"name":"밥집","tel":"031-429-5592","addr":"경기도 안양시 동안구 호계동 555-9번지","indutype":"일반휴게음식 - 일반한식","category":"restaurant"},{"name":"소나무푸드","tel":"031-479-6226","addr":"경기도 안양시 동안구 호계동 555-9번지","indutype":"일반휴게음식 - 일반한식","category":"restaurant"},{"name":"소나무푸드","tel":"031-479-6226","addr":"경기도 안양시 동안구 호계동 555-9번지","indutype":"일반휴게음식 - 일반한식","category":"restaurant"},{"name":"수라상/스타팝","tel":"","addr":"경기도 안양시 동안구 호계동 555-9번지","indutype":"일반휴게음식 - 일반한식","category":"restaurant"},{"name":"숙희네","tel":"031-479-1281","addr":"경기도 안양시 동안구 호계동","indutype":"일반휴게음식 - 일반한식","category":"restaurant"},{"name":"예나김밥","tel":"031-479-1234","addr":"경기도 안양시 동안구 호계동","indutype":"일반휴게음식 - 일반한식","category":"restaurant"},{"name":"옛돈다랑","tel":"031-479-6969","addr":"경기도 안양시 동안구 호계동 555-9번지","indutype":"일반휴게음식 - 일반한식","category":"restaurant"},{"name":"요기","tel":"070-4652-2867","addr":"경기도 안양시 동안구 호계동 555-9번지","indutype":"일반휴게음식 - 스넥","category":"restaurant"},{"name":"전주식당","tel":"031-344-5022","addr":"경기도 안양시 동안구 호계동 555-9번지","indutype":"일반휴게음식 - 일반한식","category":"restaurant"},{"name":"정가네설렁탕함흥냉면","tel":"031-428-8808","addr":"경기도 안양시 동안구 호계동 555-9번지","indutype":"일반휴게음식 - 일반한식","category":"restaurant"},{"name":"중국관","tel":"031-479-5505","addr":"경기도 안양시 동안구 호계동 555-9번지","indutype":"일반휴게음식 - 중국식","category":"restaurant"},{"name":"카페크로네","tel":"031-429-7887","addr":"경기도 안양시 동안구 호계동 555-9번지","indutype":"일반휴게음식 - 서양음식","category":"restaurant"}]},{"lat":"37.390222449","long":"126.95397505","imageIndex":4,"items":[{"name":"갈비애드림","tel":"031-383-5010","addr":"경기도 안양시 동안구 호계동 1049번지","indutype":"일반휴게음식 - 일반한식","category":"restaurant"},{"name":"김밥천국","tel":"031-383-1237","addr":"경기도 안양시 동안구 호계동 1049번지","indutype":"일반휴게음식 - 일반한식","category":"restaurant"},{"name":"도시커피","tel":"031-381-8129","addr":"경기도 안양시 동안구 호계동 1049번지","indutype":"일반휴게음식 - 서양음식","category":"restaurant"},{"name":"마라안스 본점","tel":"031-384-0888","addr":"경기도 안양시 동안구 호계동 1049번지","indutype":"일반휴게음식 - 중국식","category":"restaurant"},{"name":"복성루훠궈성","tel":"031-381-8886","addr":"경기도 안양시 동안구 호계동 1049번지","indutype":"일반휴게음식 - 중국식","category":"restaurant"},{"name":"일르","tel":"031-385-1112","addr":"경기도 안양시 동안구 호계동 1049번지","indutype":"일반휴게음식 - 서양음식","category":"restaurant"},{"name":"쥬빗/주식회사 제이원","tel":"031-387-0012","addr":"경기도 안양시 동안구 호계동 1049번지","indutype":"일반휴게음식 - 서양음식","category":"restaurant"},{"name":"카페디쉬","tel":"","addr":"경기도 안양시 동안구 호계동 1049번지","indutype":"일반휴게음식 - 서양음식","category":"restaurant"},{"name":"커피에반하다 범계2호점","tel":"031-384-8320","addr":"경기도 안양시 동안구 호계동 1049번지","indutype":"일반휴게음식 - 서양음식","category":"restaurant"},{"name":"콩불","tel":"031-385-9911","addr":"경기도 안양시 동안구 호계동 1049번지","indutype":"일반휴게음식 - 일반한식","category":"restaurant"},{"name":"홍대개미범계점","tel":"031-388-1422","addr":"경기도 안양시 동안구 호계동 1049번지","indutype":"일반휴게음식 - 일반한식","category":"restaurant"},{"name":"홍대돈부리(범계점)","tel":"031-382-2746","addr":"경기도 안양시 동안구 호계동 1049번지","indutype":"일반휴게음식 - 일식·회집","category":"restaurant"}]},{"lat":"37.368977072","long":"126.95514034","imageIndex":4,"items":[{"name":"감성만족","tel":"031-429-9953","addr":"경기도 안양시 동안구 호계동 966-1번지 리치밸리","indutype":"일반휴게음식 - 일반한식","category":"restaurant"},{"name":"그램그램 안양호계점","tel":"031-427-9293","addr":"경기도 안양시 동안구 호계동 966-1번지 리치밸리","indutype":"일반휴게음식 - 일반한식","category":"restaurant"},{"name":"돈통마늘보쌈 안양호계점","tel":"031-458-5977","addr":"경기도 안양시 동안구 호계동 966-1번지 리치밸리","indutype":"일반휴게음식 - 일반한식","category":"restaurant"},{"name":"본도시락(호계점)","tel":"031-451-4282","addr":"경기도 안양시 동안구 호계동 966-1번지 리치밸리","indutype":"일반휴게음식 - 스넥","category":"restaurant"},{"name":"유로스타커피","tel":"031-427-1440","addr":"경기도 안양시 동안구 호계동 966-1번지 리치밸리","indutype":"일반휴게음식 - 서양음식","category":"restaurant"},{"name":"홍호순대국","tel":"031-477-8957","addr":"경기도 안양시 동안구 호계동 966-1번지 리치밸리","indutype":"일반휴게음식 - 일반한식","category":"restaurant"}]},{"lat":"37.380917269","long":"126.95978461","imageIndex":4,"items":[{"name":"감탄","tel":"031-384-4088","addr":"경기도 안양시 동안구 호계동 1065번지","indutype":"일반휴게음식 - 스넥","category":"restaurant"}]},{"lat":"37.381277604","long":"126.95959246","imageIndex":4,"items":[{"name":"감탄생고기","tel":"031-382-7806","addr":"경기도 안양시 동안구 호계동 1072-4번지","indutype":"일반휴게음식 - 일반한식","category":"restaurant"}]},{"lat":"37.386892352","long":"126.94236925","imageIndex":4,"items":[{"name":"갑순이셀프푸드","tel":"031-458-2244","addr":"경기도 안양시 동안구 호계동 898-45번지","indutype":"일반휴게음식 - 일반한식","category":"restaurant"}]},{"lat":"37.391695549","long":"126.94398022","imageIndex":4,"items":[{"name":"강남샤브샤브칼국수","tel":"031-427-2130","addr":"경기도 안양시 동안구 호계동 894-1번지","indutype":"일반휴게음식 - 일반한식","category":"restaurant"}]},{"lat":"37.390997238","long":"126.95378258","imageIndex":4,"items":[{"name":"강남오빠네","tel":"031-381-4033","addr":"경기도 안양시 동안구 호계동 1044-1번지","indutype":"일반휴게음식 - 주점","category":"restaurant"},{"name":"다람쥐마을","tel":"031-383-1363","addr":"경기도 안양시 동안구 호계동 1044-1번지","indutype":"일반휴게음식 - 일반한식","category":"restaurant"},{"name":"달달싸롱","tel":"031-388-7827","addr":"경기도 안양시 동안구 호계동 1044-1번지","indutype":"일반휴게음식 - 서양음식","category":"restaurant"},{"name":"대어일식","tel":"031-83-2301","addr":"경기도 안양시 동안구 호계동 1044-1번지","indutype":"일반휴게음식 - 일식·회집","category":"restaurant"},{"name":"데블다이스/주식회사 한국보드게임","tel":"070-4104-3912","addr":"경기도 안양시 동안구 호계동 1044-1번지","indutype":"일반휴게음식 - 서양음식","category":"restaurant"},{"name":"디앤디","tel":"031-388-7827","addr":"경기도 안양시 동안구 호계동 1044-1번지","indutype":"일반휴게음식 - 일반한식","category":"restaurant"},{"name":"라무진","tel":"031-381-7730","addr":"경기도 안양시 동안구 호계동 1044-1번지","indutype":"일반휴게음식 - 일반한식","category":"restaurant"},{"name":"메가엠지씨커피범계로데오점","tel":"","addr":"경기도 안양시 동안구 호계동 1044-1번지","indutype":"일반휴게음식 - 서양음식","category":"restaurant"},{"name":"미미돼지","tel":"031-388-9192","addr":"경기도 안양시 동안구 호계동 1044-1번지","indutype":"일반휴게음식 - 일반한식","category":"restaurant"},{"name":"부산진오뎅","tel":"031-388-8894","addr":"경기도 안양시 동안구 호계동 1044-1번지","indutype":"일반휴게음식 - 칵테일바","category":"restaurant"},{"name":"브롱스안양범계점","tel":"031-897-5254","addr":"경기도 안양시 동안구 호계동 1044-1번지","indutype":"일반휴게음식 - 주점","category":"restaurant"},{"name":"비어첸","tel":"070-7576-1312","addr":"경기도 안양시 동안구 호계동 1044-1번지","indutype":"일반휴게음식 - 주점","category":"restaurant"},{"name":"빤닭빤닭범계점","tel":"031-381-9029","addr":"경기도 안양시 동안구 호계동 1044-1번지","indutype":"일반휴게음식 - 일반한식","category":"restaurant"},{"name":"사니's 그릴","tel":"031-388-4292","addr":"경기도 안양시 동안구 호계동 1044-1번지","indutype":"일반휴게음식 - 일반한식","category":"restaurant"},{"name":"소메랑(범계점)","tel":"031-385-9989","addr":"경기도 안양시 동안구 호계동 1044-1번지","indutype":"일반휴게음식 - 일반한식","category":"restaurant"},{"name":"신길동매운짬뽕범계점","tel":"031-384-1513","addr":"경기도 안양시 동안구 호계동 1044-1번지","indutype":"일반휴게음식 - 중국식","category":"restaurant"},{"name":"역전우동 범계역점","tel":"031-385-0410","addr":"경기도 안양시 동안구 호계동 1044-1번지","indutype":"일반휴게음식 - 일반한식","category":"restaurant"},{"name":"원페어","tel":"","addr":"경기도 안양시 동안구 호계동 1044-1번지","indutype":"일반휴게음식 - 주점","category":"restaurant"},{"name":"육회독존","tel":"031-384-1661","addr":"경기도 안양시 동안구 호계동 1044-1번지","indutype":"일반휴게음식 - 일반한식","category":"restaurant"},{"name":"이카루스","tel":"031-473-9107","addr":"경기도 안양시 동안구 호계동 1044-1번지","indutype":"일반휴게음식 - 주점","category":"restaurant"},{"name":"이태원","tel":"031-425-7832","addr":"경기도 안양시 동안구 호계동 1044-1번지","indutype":"일반휴게음식 - 일반한식","category":"restaurant"},{"name":"정동진","tel":"031-382-8734","addr":"경기도 안양시 동안구 호계동 1044-1번지","indutype":"일반휴게음식 - 일반한식","category":"restaurant"},{"name":"정든닭발","tel":"031-388-5488","addr":"경기도 안양시 동안구 호계동 1044-1번지","indutype":"일반휴게음식 - 일반한식","category":"restaurant"},{"name":"조마루뼈다귀","tel":"031-388-6542","addr":"경기도 안양시 동안구 호계동 1044-1번지","indutype":"일반휴게음식 - 일반한식","category":"restaurant"},{"name":"조오마가루네","tel":"031-383-5445","addr":"경기도 안양시 동안구 호계동","indutype":"일반휴게음식 - 일반한식","category":"restaurant"},{"name":"지금보고싶다 호계점","tel":"0507-1300-4664","addr":"경기도 안양시 동안구 호계동 1044-1번지","indutype":"일반휴게음식 - 일반한식","category":"restaurant"},{"name":"클라비스 (CLAVIS)","tel":"031-383-3997","addr":"경기도 안양시 동안구 호계동 1044-1번지","indutype":"일반휴게음식 - 일반한식","category":"restaurant"},{"name":"포차끝판왕","tel":"031-388-3339","addr":"경기도 안양시 동안구 호계동 1044-1번지","indutype":"일반휴게음식 - 주점","category":"restaurant"},{"name":"포차천국","tel":"","addr":"경기도 안양시 동안구 호계동 1044-1번지","indutype":"일반휴게음식 - 주점","category":"restaurant"},{"name":"홍익회관/주식회사 호윤패밀리","tel":"","addr":"경기도 안양시 동안구 호계동 1044-1번지","indutype":"일반휴게음식 - 일반한식","category":"restaurant"},{"name":"화로상회범계역점","tel":"","addr":"경기도 안양시 동안구 호계동 1044-1번지","indutype":"일반휴게음식 - 일반한식","category":"restaurant"}]},{"lat":"37.38808424","long":"126.94758519","imageIndex":4,"items":[{"name":"강명수아저씨네 (안양점)","tel":"031-1899-3272","addr":"경기도 안양시 동안구 호계동 905번지","indutype":"일반휴게음식 - 일반한식","category":"restaurant"}]},{"lat":"37.373476301","long":"126.96378545","imageIndex":4,"items":[{"name":"강한남자장작구이","tel":"031-458-3555","addr":"경기도 안양시 동안구 호계동 1108-5번지","indutype":"일반휴게음식 - 일반한식","category":"restaurant"}]},{"lat":"37.36847234","long":"126.95473425","imageIndex":4,"items":[{"name":"강희경양식","tel":"031-59-5778","addr":"경기도 안양시 동안구 호계동 966-10번지","indutype":"일반휴게음식 - 서양음식","category":"restaurant"}]},{"lat":"37.369085452","long":"126.95578375","imageIndex":4,"items":[{"name":"거북식당","tel":"031-477-1123","addr":"경기도 안양시 동안구 호계동 967-2번지 미니연립","indutype":"일반휴게음식 - 일반한식","category":"restaurant"}]},{"lat":"37.388362949","long":"126.94630898","imageIndex":4,"items":[{"name":"거성낙지","tel":"031-429-2781","addr":"경기도 안양시 동안구 호계동 901-12번지","indutype":"일반휴게음식 - 일반한식","category":"restaurant"},{"name":"본도시락 안양범계점","tel":"031-429-4282","addr":"경기도 안양시 동안구 호계동 901-12번지","indutype":"일반휴게음식 - 일반한식","category":"restaurant"}]},{"lat":"37.390140824","long":"126.95269908","imageIndex":4,"items":[{"name":"경성주막1929 안양범계점","tel":"031-386-8883","addr":"경기도 안양시 동안구 호계동 1046-5번지","indutype":"일반휴게음식 - 일반한식","category":"restaurant"},{"name":"마이룸카페","tel":"070-4100-7031","addr":"경기도 안양시 동안구 호계동 1046-5번지","indutype":"일반휴게음식 - 일반한식","category":"restaurant"},{"name":"브이리또","tel":"031-1588-4489","addr":"경기도 안양시 동안구 호계동 1046-5번지","indutype":"일반휴게음식 - 서양음식","category":"restaurant"},{"name":"즉석고을김밥","tel":"031-388-8985","addr":"경기도 안양시 동안구 호계동 1046-5번지","indutype":"일반휴게음식 - 일반한식","category":"restaurant"}]},{"lat":"37.3851961","long":"126.9571964","imageIndex":4,"items":[{"name":"계림찜닭","tel":"031-381-0026","addr":"경기도 안양시 동안구 호계동","indutype":"일반휴게음식 - 일반한식","category":"restaurant"},{"name":"골뱅이를품은닭","tel":"031-387-8253","addr":"경기도 안양시 동안구 호계동 1054-8번지","indutype":"일반휴게음식 - 스넥","category":"restaurant"},{"name":"커피볶는나무","tel":"031-385-4253","addr":"경기도 안양시 동안구 호계동 1054-8번지","indutype":"일반휴게음식 - 서양음식","category":"restaurant"}]},{"lat":"37.38208848","long":"126.95950167","imageIndex":4,"items":[{"name":"계절감각","tel":"031-386-1118","addr":"경기도 안양시 동안구 호계동 1066-1번지","indutype":"일반휴게음식 - 서양음식","category":"restaurant"}]},{"lat":"37.381530149","long":"126.96031494","imageIndex":4,"items":[{"name":"고고스","tel":"","addr":"경기도 안양시 동안구 호계동 1073번지","indutype":"일반휴게음식 - 주점","category":"restaurant"},{"name":"떡순튀(평촌점)","tel":"031-388-5494","addr":"경기도 안양시 동안구 호계동 1073번지","indutype":"일반휴게음식 - 스넥","category":"restaurant"},{"name":"맨하탄펍","tel":"031-346-5572","addr":"경기도 안양시 동안구 호계동 1073번지","indutype":"일반휴게음식 - 주점","category":"restaurant"},{"name":"몽빼르평촌","tel":"031-383-4111","addr":"경기도 안양시 동안구 호계동 1073번지","indutype":"일반휴게음식 - 일반한식","category":"restaurant"},{"name":"바푸리 포","tel":"031-381-0607","addr":"경기도 안양시 동안구 호계동 1073번지","indutype":"일반휴게음식 - 서양음식","category":"restaurant"},{"name":"소래포구","tel":"031-477-0881","addr":"경기도 안양시 동안구 호계동 1073번지","indutype":"일반휴게음식 - 일반한식","category":"restaurant"},{"name":"소울트레인","tel":"031-811-8426","addr":"경기도 안양시 동안구 호계동 1073번지","indutype":"일반휴게음식 - 서양음식","category":"restaurant"},{"name":"황제라이브","tel":"031-382-7776","addr":"경기도 안양시 동안구 호계동 1073번지","indutype":"일반휴게음식 - 주점","category":"restaurant"}]},{"lat":"37.368310323","long":"126.95514076","imageIndex":4,"items":[{"name":"고기사랑","tel":"032-427-9323","addr":"경기도 안양시 동안구 호계동 966-39번지","indutype":"일반휴게음식 - 일반한식","category":"restaurant"}]},{"lat":"37.390753663","long":"126.95306002","imageIndex":4,"items":[{"name":"고기주는냉면집","tel":"031-388-2808","addr":"경기도 안양시 동안구 호계동 1045-8번지","indutype":"일반휴게음식 - 일반한식","category":"restaurant"},{"name":"숨맑은집","tel":"031-386-3377","addr":"경기도 안양시 동안구 호계동 1045-8번지","indutype":"일반휴게음식 - 서양음식","category":"restaurant"},{"name":"카페데코믹스 범계점","tel":"031-340-9172","addr":"경기도 안양시 동안구 호계동 1045-8번지","indutype":"일반휴게음식 - 서양음식","category":"restaurant"}]},{"lat":"37.362195547","long":"126.96358812","imageIndex":4,"items":[{"name":"고래고래","tel":"031-427-2187","addr":"경기도 안양시 동안구 호계동 859-3번지","indutype":"일반휴게음식 - 주점","category":"restaurant"}]},{"lat":"37.370978058","long":"126.95700182","imageIndex":4,"items":[{"name":"고향의맛집","tel":"031-457-5064","addr":"경기도 안양시 동안구 호계동 959-11번지","indutype":"일반휴게음식 - 일반한식","category":"restaurant"}]},{"lat":"37.367085279","long":"126.95597691","imageIndex":4,"items":[{"name":"고향집","tel":"031-455-7653","addr":"경기도 안양시 동안구 호계동 972번지","indutype":"일반휴게음식 - 일반한식","category":"restaurant"},{"name":"어부가","tel":"031-453-2525","addr":"경기도 안양시 동안구 호계동 972번지","indutype":"일반휴게음식 - 일반한식","category":"restaurant"},{"name":"청천강다슬기","tel":"031-429-6179","addr":"경기도 안양시 동안구 호계동 972번지","indutype":"일반휴게음식 - 일반한식","category":"restaurant"},{"name":"해물칼국수","tel":"031-427-2042","addr":"경기도 안양시 동안구 호계동 972번지","indutype":"일반휴게음식 - 일반한식","category":"restaurant"}]},{"lat":"37.368256028","long":"126.95456505","imageIndex":4,"items":[{"name":"고향집","tel":"031-456-0181","addr":"경기도 안양시 동안구 호계동 966-28번지","indutype":"일반휴게음식 - 일반한식","category":"restaurant"},{"name":"광장","tel":"031-58-0420","addr":"경기도 안양시 동안구 호계동 966-28번지","indutype":"일반휴게음식 - 서양음식","category":"restaurant"},{"name":"돈앤막창","tel":"031-457-3333","addr":"경기도 안양시 동안구 호계동 966-28번지","indutype":"일반휴게음식 - 일반한식","category":"restaurant"}]},{"lat":"37.381196421","long":"126.95934411","imageIndex":4,"items":[{"name":"고향촌닭","tel":"031-384-7474","addr":"경기도 안양시 동안구 호계동 1072-2번지","indutype":"일반휴게음식 - 일반한식","category":"restaurant"}]},{"lat":"37.387886494","long":"126.9486129","imageIndex":4,"items":[{"name":"고향포차","tel":"031-452-9590","addr":"경기도 안양시 동안구 호계동 904-13번지","indutype":"일반휴게음식 - 일반한식","category":"restaurant"},{"name":"양파백세탕/이엔(주)","tel":"031-427-7888","addr":"경기도 안양시 동안구 호계동 904-13번지","indutype":"일반휴게음식 - 일반한식","category":"restaurant"}]},{"lat":"37.381833292","long":"126.95219652","imageIndex":4,"items":[{"name":"고흥장어미가","tel":"031-457-9111","addr":"경기도 안양시 동안구 호계동 926-36번지","indutype":"일반휴게음식 - 일반한식","category":"restaurant"}]},{"lat":"37.373250806","long":"126.96306303","imageIndex":4,"items":[{"name":"골드락G카페","tel":"031-456-6770","addr":"경기도 안양시 동안구 호계동 1108-9번지","indutype":"일반휴게음식 - 서양음식","category":"restaurant"}]},{"lat":"37.387444081","long":"126.94664843","imageIndex":4,"items":[{"name":"곱백한우곱창(호계점)","tel":"031-429-5557","addr":"경기도 안양시 동안구 호계동 905-6번지","indutype":"일반휴게음식 - 일반한식","category":"restaurant"},{"name":"남궁가족발,보쌈,추어탕","tel":"031-477-2227","addr":"경기도 안양시 동안구 호계동 905-6번지","indutype":"일반휴게음식 - 일반한식","category":"restaurant"},{"name":"화이트하우스","tel":"031-452-4558","addr":"경기도 안양시 동안구 호계동 905-6번지","indutype":"일반휴게음식 - 주점","category":"restaurant"}]},{"lat":"37.382138325","long":"126.94922676","imageIndex":4,"items":[{"name":"곱창박사","tel":"031-459-3581","addr":"경기도 안양시 동안구 호계동 924-24번지","indutype":"일반휴게음식 - 일반한식","category":"restaurant"},{"name":"늘봄커피솝","tel":"031-455-8116","addr":"경기도 안양시 동안구 호계동 924-24번지","indutype":"일반휴게음식 - 서양음식","category":"restaurant"},{"name":"스토리","tel":"031-457-3708","addr":"경기도 안양시 동안구 호계동 924-24번지","indutype":"일반휴게음식 - 주점","category":"restaurant"}]},{"lat":"37.389942356","long":"126.9521233","imageIndex":4,"items":[{"name":"공가네","tel":"031-381-2788","addr":"경기도 안양시 동안구 호계동 1046-1번지","indutype":"일반휴게음식 - 일반한식","category":"restaurant"},{"name":"꿈","tel":"031-385-4984","addr":"경기도 안양시 동안구 호계동 1046-1번지","indutype":"일반휴게음식 - 일반한식","category":"restaurant"},{"name":"노랑강정 범계점","tel":"031-381-4545","addr":"경기도 안양시 동안구 호계동 1046-1번지","indutype":"일반휴게음식 - 일반한식","category":"restaurant"},{"name":"뒹글뒹글2","tel":"02-1234-1234","addr":"경기도 안양시 동안구 호계동 1046-1번지","indutype":"일반휴게음식 - 일반한식","category":"restaurant"},{"name":"로하스","tel":"031-387-7772","addr":"경기도 안양시 동안구 호계동 1046-1번지","indutype":"일반휴게음식 - 서양음식","category":"restaurant"},{"name":"맘스터치","tel":"031-387-0201","addr":"경기도 안양시 동안구 호계동 1046-1번지","indutype":"일반휴게음식 - 서양음식","category":"restaurant"},{"name":"무비짜장짬뽕","tel":"031-383-0600","addr":"경기도 안양시 동안구 호계동 1046-1번지","indutype":"일반휴게음식 - 중국식","category":"restaurant"},{"name":"옛고을","tel":"031-466-8600","addr":"경기도 안양시 동안구 호계동 1046-1번지","indutype":"일반휴게음식 - 일반한식","category":"restaurant"},{"name":"콘서트","tel":"031-387-3873","addr":"경기도 안양시 동안구 호계동","indutype":"일반휴게음식 - 주점","category":"restaurant"},{"name":"틈새라면(범계점)","tel":"031-388-9368","addr":"경기도 안양시 동안구 호계동 1046-1번지","indutype":"일반휴게음식 - 일반한식","category":"restaurant"},{"name":"포토갤러리커피숍","tel":"031-382-3233","addr":"경기도 안양시 동안구 호계동 1046-1번지","indutype":"일반휴게음식 - 서양음식","category":"restaurant"}]},{"lat":"37.373555382","long":"126.95811794","imageIndex":4,"items":[{"name":"광팔이네","tel":"031-429-2585","addr":"경기도 안양시 동안구 호계동 995-17번지","indutype":"일반휴게음식 - 일반한식","category":"restaurant"}]},{"lat":"37.382058173","long":"126.95133825","imageIndex":4,"items":[{"name":"교촌치킨호계1호점","tel":"031-455-9989","addr":"경기도 안양시 동안구 호계동 927-2번지","indutype":"일반휴게음식 - 일반한식","category":"restaurant"},{"name":"명당만두","tel":"031-456-2524","addr":"경기도 안양시 동안구 호계동 927-2번지","indutype":"일반휴게음식 - 스넥","category":"restaurant"}]},{"lat":"37.369220527","long":"126.95559175","imageIndex":4,"items":[{"name":"구24시해장국","tel":"031-455-8334","addr":"경기도 안양시 동안구 호계동 967-41번지","indutype":"일반휴게음식 - 일반한식","category":"restaurant"}]},{"lat":"37.37114094","long":"126.9588419","imageIndex":4,"items":[{"name":"구구포차","tel":"031-427-2975","addr":"경기도 안양시 동안구 호계동 1002-25번지","indutype":"일반휴게음식 - 일반한식","category":"restaurant"},{"name":"럭셔리호프","tel":"070-8118-9181","addr":"경기도 안양시 동안구 호계동 1002-25번지","indutype":"일반휴게음식 - 일반한식","category":"restaurant"}]},{"lat":"37.382889102","long":"126.95614772","imageIndex":4,"items":[{"name":"구름다리","tel":"031-385-6702","addr":"경기도 안양시 동안구 호계동 1056번지","indutype":"일반휴게음식 - 스넥","category":"restaurant"},{"name":"신북경국빈","tel":"031-385-4545","addr":"경기도 안양시 동안구 호계동 1056번지","indutype":"일반휴게음식 - 중국식","category":"restaurant"},{"name":"유로코피자","tel":"031-388-1828","addr":"경기도 안양시 동안구 호계동 1056번지 무궁화금호아파트","indutype":"일반휴게음식 - 서양음식","category":"restaurant"}]},{"lat":"37.367643065","long":"126.9538994","imageIndex":4,"items":[{"name":"구사거리명가(    )","tel":"031-453-2352","addr":"경기도 안양시 동안구 호계동 666-6번지","indutype":"일반휴게음식 - 일반한식","category":"restaurant"}]},{"lat":"37.391470437","long":"126.94426271","imageIndex":4,"items":[{"name":"구워더존","tel":"031-452-3311","addr":"경기도 안양시 동안구 호계동 894-3번지","indutype":"일반휴게음식 - 일반한식","category":"restaurant"},{"name":"어장관리","tel":"031-456-1388","addr":"경기도 안양시 동안구 호계동 894-3번지","indutype":"일반휴게음식 - 일식·회집","category":"restaurant"}]},{"lat":"37.384223642","long":"126.95886812","imageIndex":4,"items":[{"name":"국대떡볶이 안양호계점","tel":"031-388-6777","addr":"경기도 안양시 동안구 호계동 1058-2번지","indutype":"일반휴게음식 - 스넥","category":"restaurant"},{"name":"밀로밀로(Millo Millo)","tel":"","addr":"경기도 안양시 동안구 호계동 1058-2번지","indutype":"일반휴게음식 - 서양음식","category":"restaurant"}]},{"lat":"37.381859808","long":"126.95101094","imageIndex":4,"items":[{"name":"국빈","tel":"031-457-0202","addr":"경기도 안양시 동안구 호계동","indutype":"일반휴게음식 - 중국식","category":"restaurant"},{"name":"남자피자(평촌점)","tel":"031-423-5573","addr":"경기도 안양시 동안구 호계동 927번지","indutype":"일반휴게음식 - 서양음식","category":"restaurant"},{"name":"롤앤밥스","tel":"031-427-8545","addr":"경기도 안양시 동안구 호계동 927번지","indutype":"일반휴게음식 - 일반한식","category":"restaurant"}]},{"lat":"37.379365075","long":"126.9535079","imageIndex":4,"items":[{"name":"굴다리","tel":"031-452-6972","addr":"경기도 안양시 동안구 호계동 934-15번지","indutype":"일반휴게음식 - 일반한식","category":"restaurant"}]},{"lat":"37.372167844","long":"126.95817521","imageIndex":4,"items":[{"name":"권서방","tel":"031-429-9206","addr":"경기도 안양시 동안구 호계동 996-1번지","indutype":"일반휴게음식 - 중국식","category":"restaurant"},{"name":"왕삽겹.COM","tel":"031-429-1966","addr":"경기도 안양시 동안구 호계동 996-1번지","indutype":"일반휴게음식 - 일반한식","category":"restaurant"}]},{"lat":"37.374249119","long":"126.95800463","imageIndex":4,"items":[{"name":"그래시 커피(grassy coffee)","tel":"","addr":"경기도 안양시 동안구 호계동 986-14번지","indutype":"일반휴게음식 - 서양음식","category":"restaurant"}]},{"lat":"37.390475043","long":"126.95473147","imageIndex":4,"items":[{"name":"그램그램(범계점)","tel":"031-384-4000","addr":"경기도 안양시 동안구 호계동 1048번지","indutype":"일반휴게음식 - 일반한식","category":"restaurant"},{"name":"긴자인도레스토랑","tel":"031-383-2223","addr":"경기도 안양시 동안구 호계동 1048번지","indutype":"일반휴게음식 - 서양음식","category":"restaurant"},{"name":"리틀 아메리카","tel":"031-382-0711","addr":"경기도 안양시 동안구 호계동 1048번지","indutype":"일반휴게음식 - 서양음식","category":"restaurant"},{"name":"메리제이","tel":"","addr":"경기도 안양시 동안구 호계동 1048번지","indutype":"일반휴게음식 - 스넥","category":"restaurant"},{"name":"번창","tel":"031-388-5606","addr":"경기도 안양시 동안구 호계동 1048번지","indutype":"일반휴게음식 - 일반한식","category":"restaurant"},{"name":"용범이네 인계동 껍데기(범계역점)","tel":"031-382-7240","addr":"경기도 안양시 동안구 호계동 1048번지","indutype":"일반휴게음식 - 일반한식","category":"restaurant"},{"name":"육장장이","tel":"","addr":"경기도 안양시 동안구 호계동 1048번지","indutype":"일반휴게음식 - 일반한식","category":"restaurant"},{"name":"종로빈대떡","tel":"031-381-9904","addr":"경기도 안양시 동안구 호계동 1048번지","indutype":"일반휴게음식 - 스넥","category":"restaurant"},{"name":"크래프트한스 범계점","tel":"","addr":"경기도 안양시 동안구 호계동 1048번지","indutype":"일반휴게음식 - 주점","category":"restaurant"}]},{"lat":"37.380308661","long":"126.94789575","imageIndex":4,"items":[{"name":"그린밥상","tel":"031-427-5777","addr":"경기도 안양시 동안구 호계동 205-3번지","indutype":"일반휴게음식 - 일반한식","category":"restaurant"}]},{"lat":"37.362474619","long":"126.96286554","imageIndex":4,"items":[{"name":"금자메기매운탕","tel":"031-477-2055","addr":"경기도 안양시 동안구 호계동 856-4번지","indutype":"일반휴게음식 - 일반한식","category":"restaurant"},{"name":"칭하이","tel":"031-429-2992","addr":"경기도 안양시 동안구 호계동 856-4번지","indutype":"일반휴게음식 - 일반한식","category":"restaurant"}]},{"lat":"37.371086723","long":"126.95842422","imageIndex":4,"items":[{"name":"기찬고기","tel":"031-429-3042","addr":"경기도 안양시 동안구 호계동 1003-2번지","indutype":"일반휴게음식 - 일반한식","category":"restaurant"},{"name":"다사랑","tel":"031-53-2019","addr":"경기도 안양시 동안구 호계동 1003-2번지","indutype":"일반휴게음식 - 서양음식","category":"restaurant"},{"name":"순이네콩감자탕","tel":"031-453-2019","addr":"경기도 안양시 동안구 호계동 1003-2번지","indutype":"일반휴게음식 - 일반한식","category":"restaurant"},{"name":"신안홍어","tel":"031-477-9369","addr":"경기도 안양시 동안구 호계동 1003-2번지","indutype":"일반휴게음식 - 일반한식","category":"restaurant"},{"name":"전막줄래","tel":"","addr":"경기도 안양시 동안구 호계동 1003-2번지","indutype":"일반휴게음식 - 일반한식","category":"restaurant"}]},{"lat":"37.371086786","long":"126.95859356","imageIndex":4,"items":[{"name":"길벗포차","tel":"031-453-9350","addr":"경기도 안양시 동안구 호계동 1003-3번지","indutype":"일반휴게음식 - 일반한식","category":"restaurant"}]},{"lat":"37.388137842","long":"126.94661404","imageIndex":4,"items":[{"name":"길커피","tel":"031-427-0808","addr":"경기도 안양시 동안구 호계동 901-13번지","indutype":"일반휴게음식 - 서양음식","category":"restaurant"}]},{"lat":"37.370048411","long":"126.95303985","imageIndex":4,"items":[{"name":"김가보쌈","tel":"031-427-4175","addr":"경기도 안양시 동안구 호계동 555-9번지","indutype":"일반휴게음식 - 일반한식","category":"restaurant"},{"name":"다모아한식뷔페","tel":"031-477-3389","addr":"경기도 안양시 동안구 호계동 555-9번지","indutype":"일반휴게음식 - 일반한식","category":"restaurant"},{"name":"따사로움","tel":"031-429-1642","addr":"경기도 안양시 동안구 호계동 555-9번지","indutype":"일반휴게음식 - 서양음식","category":"restaurant"},{"name":"카리스커피","tel":"031-479-6688","addr":"경기도 안양시 동안구 호계동 555-9번지","indutype":"일반휴게음식 - 서양음식","category":"restaurant"},{"name":"하나모리","tel":"031-479-1155","addr":"경기도 안양시 동안구 호계동 555-9번지","indutype":"일반휴게음식 - 일반한식","category":"restaurant"}]},{"lat":"37.381529816","long":"126.95940037","imageIndex":4,"items":[{"name":"김명태","tel":"031-383-3315","addr":"경기도 안양시 동안구 호계동 1068-4번지","indutype":"일반휴게음식 - 일반한식","category":"restaurant"}]},{"lat":"37.382250815","long":"126.95991934","imageIndex":4,"items":[{"name":"김밥천국","tel":"031-388-9918","addr":"경기도 안양시 동안구 호계동 1065-7번지","indutype":"일반휴게음식 - 일반한식","category":"restaurant"}]},{"lat":"37.363394045","long":"126.96403903","imageIndex":4,"items":[{"name":"김밥킹 안양호계점","tel":"031-477-4770","addr":"경기도 안양시 동안구 호계동 1278번지 호계동금호어울림","indutype":"일반휴게음식 - 스넥","category":"restaurant"},{"name":"땡큐맘치킨","tel":"031-454-8292","addr":"경기도 안양시 동안구 호계동 1278번지 호계동금호어울림","indutype":"일반휴게음식 - 스넥","category":"restaurant"},{"name":"범계파스타","tel":"031-429-7503","addr":"경기도 안양시 동안구 호계동 1278번지 호계동금호어울림","indutype":"일반휴게음식 - 일반한식","category":"restaurant"},{"name":"샤브담 (안양호계점)","tel":"031-451-9809","addr":"경기도 안양시 동안구 호계동 1278번지 호계동금호어울림","indutype":"일반휴게음식 - 일반한식","category":"restaurant"},{"name":"오다가다분식","tel":"031-429-0033","addr":"경기도 안양시 동안구 호계동 1278번지 호계동금호어울림","indutype":"일반휴게음식 - 일반한식","category":"restaurant"},{"name":"지리산남원추어탕","tel":"031-340-5227","addr":"경기도 안양시 동안구 호계동 1278번지 호계동금호어울림","indutype":"일반휴게음식 - 일반한식","category":"restaurant"}]},{"lat":"37.381580877","long":"126.95189183","imageIndex":4,"items":[{"name":"김영애전집","tel":"031-455-4567","addr":"경기도 안양시 동안구 호계동 930-40번지","indutype":"일반휴게음식 - 일반한식","category":"restaurant"},{"name":"양가네식당","tel":"031-429-6748","addr":"경기도 안양시 동안구 호계동 930-40번지","indutype":"일반휴게음식 - 일반한식","category":"restaurant"}]},{"lat":"37.381724024","long":"126.94958837","imageIndex":4,"items":[{"name":"김천순대전골","tel":"031-451-4897","addr":"경기도 안양시 동안구 호계동 928-8번지","indutype":"일반휴게음식 - 일반한식","category":"restaurant"}]},{"lat":"37.371888759","long":"126.95878501","imageIndex":4,"items":[{"name":"까만콩커피","tel":"070-8844-9909","addr":"경기도 안양시 동안구 호계동 997-29번지","indutype":"일반휴게음식 - 서양음식","category":"restaurant"}]},{"lat":"37.391411773","long":"126.95395169","imageIndex":4,"items":[{"name":"까사","tel":"031-476-3053","addr":"경기도 안양시 동안구 호계동 1042-3번지","indutype":"일반휴게음식 - 스넥","category":"restaurant"},{"name":"엑시터시","tel":"031-689-4554","addr":"경기도 안양시 동안구 호계동 1042-3번지","indutype":"일반휴게음식 - 주점","category":"restaurant"},{"name":"우마이식당","tel":"031-384-8340","addr":"경기도 안양시 동안구 호계동 1042-3번지","indutype":"일반휴게음식 - 일식·회집","category":"restaurant"},{"name":"카페.반다이크","tel":"070-8810-6750","addr":"경기도 안양시 동안구 호계동 1042-3번지","indutype":"일반휴게음식 - 서양음식","category":"restaurant"}]},{"lat":"37.374999469","long":"126.96519592","imageIndex":4,"items":[{"name":"깜닭치킨","tel":"031-427-5472","addr":"경기도 안양시 동안구 호계동 1121번지","indutype":"일반휴게음식 - 스넥","category":"restaurant"},{"name":"마루수제돈까스","tel":"","addr":"경기도 안양시 동안구 호계동 1121번지","indutype":"일반휴게음식 - 일반한식","category":"restaurant"},{"name":"소풍","tel":"","addr":"경기도 안양시 동안구 호계동 1121번지","indutype":"일반휴게음식 - 스넥","category":"restaurant"},{"name":"영양식당","tel":"031-457-0089","addr":"경기도 안양시 동안구 호계동 1121번지 샘마을대우,한양아파트","indutype":"일반휴게음식 - 일반한식","category":"restaurant"},{"name":"카페엣홈","tel":"031-427-5963","addr":"경기도 안양시 동안구 호계동 1121번지 샘마을대우,한양아파트","indutype":"일반휴게음식 - 서양음식","category":"restaurant"}]},{"lat":"37.390556403","long":"126.95539767","imageIndex":4,"items":[{"name":"꼬모파스타","tel":"031-385-8333","addr":"경기도 안양시 동안구 호계동 1048-3번지","indutype":"일반휴게음식 - 서양음식","category":"restaurant"},{"name":"도토미","tel":"031-384-0065","addr":"경기도 안양시 동안구 호계동 1048-3번지","indutype":"일반휴게음식 - 일식·회집","category":"restaurant"},{"name":"러빗(LOVEAT)","tel":"031-387-0012","addr":"경기도 안양시 동안구 호계동 1048-3번지","indutype":"일반휴게음식 - 서양음식","category":"restaurant"},{"name":"머글커피","tel":"","addr":"경기도 안양시 동안구 호계동 1048-3번지","indutype":"일반휴게음식 - 서양음식","category":"restaurant"},{"name":"메종드이룸","tel":"031-385-1062","addr":"경기도 안양시 동안구 호계동 1048-3번지","indutype":"일반휴게음식 - 서양음식","category":"restaurant"},{"name":"병천순대","tel":"031-381-0356","addr":"경기도 안양시 동안구 호계동","indutype":"일반휴게음식 - 일반한식","category":"restaurant"},{"name":"부자빙수","tel":"031-381-1008","addr":"경기도 안양시 동안구 호계동 1048-3번지","indutype":"일반휴게음식 - 일반한식","category":"restaurant"},{"name":"산해원","tel":"031-383-8385","addr":"경기도 안양시 동안구 호계동 1048-3번지","indutype":"일반휴게음식 - 중국식","category":"restaurant"},{"name":"정직한푸드","tel":"031-385-5606","addr":"경기도 안양시 동안구 호계동 1048-3번지","indutype":"일반휴게음식 - 일식·회집","category":"restaurant"},{"name":"커피요다(COFEEE YODA)","tel":"070-8811-1773","addr":"경기도 안양시 동안구 호계동 1048-3번지","indutype":"일반휴게음식 - 서양음식","category":"restaurant"},{"name":"테이블포투","tel":"031-346-1123","addr":"경기도 안양시 동안구 호계동 1048-3번지","indutype":"일반휴게음식 - 일반한식","category":"restaurant"},{"name":"항아리","tel":"031-381-6265","addr":"경기도 안양시 동안구 호계동 1048-3번지","indutype":"일반휴게음식 - 일반한식","category":"restaurant"}]},{"lat":"37.365808924","long":"126.96453448","imageIndex":4,"items":[{"name":"꼬치친구","tel":"031-457-2045","addr":"경기도 안양시 동안구 호계동 826-2번지","indutype":"일반휴게음식 - 일반한식","category":"restaurant"},{"name":"내스타일","tel":"031-8033-7070","addr":"경기도 안양시 동안구 호계동 826-2번지","indutype":"일반휴게음식 - 일반한식","category":"restaurant"}]},{"lat":"37.382169492","long":"126.95928709","imageIndex":4,"items":[{"name":"꼴통꽈배기","tel":"031-427-3690","addr":"경기도 안양시 동안구 호계동 1066-10번지","indutype":"일반휴게음식 - 일반한식","category":"restaurant"}]},{"lat":"37.368220066","long":"126.95475699","imageIndex":4,"items":[{"name":"꽃돼지","tel":"","addr":"경기도 안양시 동안구 호계동 966-34번지","indutype":"일반휴게음식 - 일반한식","category":"restaurant"}]},{"lat":"37.366196415","long":"126.96470362","imageIndex":4,"items":[{"name":"꽈배기패밀리","tel":"031-427-8765","addr":"경기도 안양시 동안구 호계동 822-7번지","indutype":"일반휴게음식 - 일반한식","category":"restaurant"},{"name":"분식도서관","tel":"031-452-8289","addr":"경기도 안양시 동안구 호계동 822-7번지","indutype":"일반휴게음식 - 일반한식","category":"restaurant"},{"name":"옛골솥단지삼겹살","tel":"031-451-1116","addr":"경기도 안양시 동안구 호계동 822-7번지","indutype":"일반휴게음식 - 일반한식","category":"restaurant"}]},{"lat":"37.373087076","long":"126.95870528","imageIndex":4,"items":[{"name":"나누미","tel":"031-427-3635","addr":"경기도 안양시 동안구 호계동 995-24번지","indutype":"일반휴게음식 - 일반한식","category":"restaurant"}]},{"lat":"37.388057472","long":"126.9481498","imageIndex":4,"items":[{"name":"나쓰부","tel":"031-427-8686","addr":"경기도 안양시 동안구 호계동 904-7번지","indutype":"일반휴게음식 - 중국식","category":"restaurant"}]},{"lat":"37.381195953","long":"126.95809082","imageIndex":4,"items":[{"name":"나의슬라임오렌지나무","tel":"070-8854-1010","addr":"경기도 안양시 동안구 호계동 1070-15번지","indutype":"일반휴게음식 - 서양음식","category":"restaurant"}]},{"lat":"37.371699568","long":"126.95884157","imageIndex":4,"items":[{"name":"낙곱집","tel":"031-52-3678","addr":"경기도 안양시 동안구 호계동 997-30번지","indutype":"일반휴게음식 - 일반한식","category":"restaurant"},{"name":"문턱없는집","tel":"031-429-5023","addr":"경기도 안양시 동안구 호계동 997-30번지","indutype":"일반휴게음식 - 일반한식","category":"restaurant"},{"name":"송주불냉면","tel":"031-477-7786","addr":"경기도 안양시 동안구 호계동 997-30번지","indutype":"일반휴게음식 - 일반한식","category":"restaurant"}]},{"lat":"37.371753994","long":"126.95983502","imageIndex":4,"items":[{"name":"날으는 돈까스&밥상","tel":"031-454-2012","addr":"경기도 안양시 동안구 호계동 997-9번지","indutype":"일반휴게음식 - 스넥","category":"restaurant"}]},{"lat":"37.387696678","long":"126.94731446","imageIndex":4,"items":[{"name":"남도본가","tel":"031-427-3890","addr":"경기도 안양시 동안구 호계동 905-3번지","indutype":"일반휴게음식 - 일반한식","category":"restaurant"},{"name":"전라도푸주간","tel":"031-247-9229","addr":"경기도 안양시 동안구 호계동 905-3번지","indutype":"일반휴게음식 - 일반한식","category":"restaurant"}]},{"lat":"37.367697261","long":"126.95422674","imageIndex":4,"items":[{"name":"남도한식부페","tel":"031-455-0852","addr":"경기도 안양시 동안구 호계동 706-3번지","indutype":"일반휴게음식 - 일반한식","category":"restaurant"},{"name":"포도대장","tel":"031-427-0787","addr":"경기도 안양시 동안구 호계동 706-3번지","indutype":"일반휴게음식 - 일반한식","category":"restaurant"}]},{"lat":"37.386333441","long":"126.94181641","imageIndex":4,"items":[{"name":"남산푸드","tel":"031-427-6565","addr":"경기도 안양시 동안구 호계동 899번지","indutype":"일반휴게음식 - 일반한식","category":"restaurant"}]},{"lat":"37.371582653","long":"126.95942869","imageIndex":4,"items":[{"name":"남원식당","tel":"031-453-5307","addr":"경기도 안양시 동안구 호계동 997-23번지","indutype":"일반휴게음식 - 일반한식","category":"restaurant"}]},{"lat":"37.39022201","long":"126.95292487","imageIndex":4,"items":[{"name":"낭만식당","tel":"031-382-8340","addr":"경기도 안양시 동안구 호계동 1046-6번지","indutype":"일반휴게음식 - 일식·회집","category":"restaurant"},{"name":"레드코르크","tel":"031-386-3690","addr":"경기도 안양시 동안구 호계동 1046-6번지","indutype":"일반휴게음식 - 서양음식","category":"restaurant"},{"name":"몬스터규카츠","tel":"031-383-1426","addr":"경기도 안양시 동안구 호계동 1046-6번지","indutype":"일반휴게음식 - 일식·회집","category":"restaurant"},{"name":"바람난 얼큰 수제비","tel":"031-385-9889","addr":"경기도 안양시 동안구 호계동 1046-6번지","indutype":"일반휴게음식 - 일반한식","category":"restaurant"},{"name":"소문난김밥","tel":"031-387-3287","addr":"경기도 안양시 동안구 호계동 1046-6번지","indutype":"일반휴게음식 - 일반한식","category":"restaurant"},{"name":"스카이락","tel":"031-382-0111","addr":"경기도 안양시 동안구 호계동 1046-6번지","indutype":"일반휴게음식 - 일반한식","category":"restaurant"},{"name":"에스","tel":"031-381-0415","addr":"경기도 안양시 동안구 호계동 1046-6번지","indutype":"일반휴게음식 - 주점","category":"restaurant"},{"name":"에잇피스(8PIECE)","tel":"031-383-4923","addr":"경기도 안양시 동안구 호계동 1046-6번지","indutype":"일반휴게음식 - 일반한식","category":"restaurant"},{"name":"찜슐랭1호점","tel":"031-382-4923","addr":"경기도 안양시 동안구 호계동 1046-6번지","indutype":"일반휴게음식 - 일반한식","category":"restaurant"},{"name":"카스타디","tel":"031-382-4749","addr":"경기도 안양시 동안구 호계동 1046-6번지","indutype":"일반휴게음식 - 서양음식","category":"restaurant"},{"name":"파스타론도","tel":"031-388-4737","addr":"경기도 안양시 동안구 호계동 1046-6번지","indutype":"일반휴게음식 - 스넥","category":"restaurant"},{"name":"형제직화","tel":"070-7078-4488","addr":"경기도 안양시 동안구 호계동 1046-6번지","indutype":"일반휴게음식 - 일반한식","category":"restaurant"},{"name":"홍콩반점 0410 범계역점","tel":"031-382-7410","addr":"경기도 안양시 동안구 호계동 1046-6번지","indutype":"일반휴게음식 - 중국식","category":"restaurant"}]},{"lat":"37.390528727","long":"126.95381676","imageIndex":4,"items":[{"name":"내가 찜한 닭","tel":"031-383-5134","addr":"경기도 안양시 동안구 호계동 1047번지","indutype":"일반휴게음식 - 일반한식","category":"restaurant"},{"name":"달동네포차","tel":"031-340-7742","addr":"경기도 안양시 동안구 호계동 1047번지","indutype":"일반휴게음식 - 서양음식","category":"restaurant"},{"name":"디델리범계점","tel":"031-386-1294","addr":"경기도 안양시 동안구 호계동 1047번지","indutype":"일반휴게음식 - 칵테일바","category":"restaurant"},{"name":"마츠","tel":"031-381-9290","addr":"경기도 안양시 동안구 호계동 1047번지","indutype":"일반휴게음식 - 일반한식","category":"restaurant"},{"name":"명가보쌈","tel":"031-382-7970","addr":"경기도 안양시 동안구 호계동 1047번지","indutype":"일반휴게음식 - 일반한식","category":"restaurant"},{"name":"모던차이나","tel":"","addr":"경기도 안양시 동안구 호계동 1047번지","indutype":"일반휴게음식 - 중국식","category":"restaurant"},{"name":"미각","tel":"031-476-8858","addr":"경기도 안양시 동안구 호계동 1047번지","indutype":"일반휴게음식 - 중국식","category":"restaurant"},{"name":"봉주루","tel":"031-386-7750","addr":"경기도 안양시 동안구 호계동","indutype":"일반휴게음식 - 주점","category":"restaurant"},{"name":"삼돌박이 수라육간","tel":"031-388-2892","addr":"경기도 안양시 동안구 호계동 1047번지","indutype":"일반휴게음식 - 일반한식","category":"restaurant"},{"name":"알망","tel":"","addr":"경기도 안양시 동안구 호계동 1047번지","indutype":"일반휴게음식 - 주점","category":"restaurant"},{"name":"어스키친","tel":"031-385-9255","addr":"경기도 안양시 동안구 호계동 1047번지","indutype":"일반휴게음식 - 서양음식","category":"restaurant"},{"name":"인어해물탕","tel":"031-383-8717","addr":"경기도 안양시 동안구 호계동 1047번지","indutype":"일반휴게음식 - 일반한식","category":"restaurant"}]},{"lat":"37.383948823","long":"126.94806246","imageIndex":4,"items":[{"name":"너랑나랑","tel":"031-454-2817","addr":"경기도 안양시 동안구 호계동 920-6번지","indutype":"일반휴게음식 - 일반한식","category":"restaurant"},{"name":"원조멸치국수","tel":"","addr":"경기도 안양시 동안구 호계동 920-6번지","indutype":"일반휴게음식 - 일반한식","category":"restaurant"},{"name":"카리스커피호계점","tel":"031-100-0000","addr":"경기도 안양시 동안구 호계동 920-6번지","indutype":"일반휴게음식 - 서양음식","category":"restaurant"}]},{"lat":"37.362114855","long":"126.96480728","imageIndex":4,"items":[{"name":"네네치킨","tel":"031-429-7279","addr":"경기도 안양시 동안구 호계동 859-45번지","indutype":"일반휴게음식 - 스넥","category":"restaurant"}]},{"lat":"37.389307145","long":"126.9425367","imageIndex":4,"items":[{"name":"네네치킨 호계2호점","tel":"031-478-8892","addr":"경기도 안양시 동안구 호계동 898번지","indutype":"일반휴게음식 - 스넥","category":"restaurant"},{"name":"서울김치찌개","tel":"","addr":"경기도 안양시 동안구 호계동 898번지","indutype":"일반휴게음식 - 일반한식","category":"restaurant"},{"name":"속초코다리냉면코다리밥상","tel":"031-451-6998","addr":"경기도 안양시 동안구 호계동 898번지","indutype":"일반휴게음식 - 일반한식","category":"restaurant"},{"name":"신의주순대와쭈꾸미","tel":"031-452-8287","addr":"경기도 안양시 동안구 호계동 898번지","indutype":"일반휴게음식 - 일반한식","category":"restaurant"},{"name":"신화","tel":"031-478-8778","addr":"경기도 안양시 동안구 호계동 898번지","indutype":"일반휴게음식 - 일반한식","category":"restaurant"},{"name":"주식회사 제이에이푸드시스템","tel":"031-478-8889","addr":"경기도 안양시 동안구 호계동 898번지","indutype":"일반휴게음식 - 일반한식","category":"restaurant"},{"name":"코코","tel":"031-478-8819","addr":"경기도 안양시 동안구 호계동 898번지","indutype":"일반휴게음식 - 일반한식","category":"restaurant"},{"name":"코코푸드","tel":"031-478-8817","addr":"경기도 안양시 동안구 호계동 898번지","indutype":"일반휴게음식 - 일반한식","category":"restaurant"},{"name":"황금성","tel":"031-427-7402","addr":"경기도 안양시 동안구 호계동 898번지","indutype":"일반휴게음식 - 중국식","category":"restaurant"}]},{"lat":"37.370915458","long":"126.9582324","imageIndex":4,"items":[{"name":"네오뻘","tel":"031-427-1223","addr":"경기도 안양시 동안구 호계동 1003-6번지","indutype":"일반휴게음식 - 주점","category":"restaurant"}]},{"lat":"37.389246309","long":"126.94708748","imageIndex":4,"items":[{"name":"노리마리","tel":"031-451-0111","addr":"경기도 안양시 동안구 호계동 903-4번지","indutype":"일반휴게음식 - 스넥","category":"restaurant"}]},{"lat":"37.390943098","long":"126.95359064","imageIndex":4,"items":[{"name":"노마세야 매운갈비찜 범계중앙점","tel":"","addr":"경기도 안양시 동안구 호계동 1044번지","indutype":"일반휴게음식 - 일반한식","category":"restaurant"},{"name":"듬박이(범계점)","tel":"031-384-1706","addr":"경기도 안양시 동안구 호계동 1044번지","indutype":"일반휴게음식 - 일반한식","category":"restaurant"},{"name":"맥주광","tel":"031-384-0605","addr":"경기도 안양시 동안구 호계동 1044번지","indutype":"일반휴게음식 - 주점","category":"restaurant"},{"name":"미림식가","tel":"031-386-2635","addr":"경기도 안양시 동안구 호계동 1044번지","indutype":"일반휴게음식 - 일반한식","category":"restaurant"},{"name":"이자카야 고우","tel":"031-388-0331","addr":"경기도 안양시 동안구 호계동 1044번지","indutype":"일반휴게음식 - 일식·회집","category":"restaurant"},{"name":"킹콩떡볶이(범계점)","tel":"031-388-2993","addr":"경기도 안양시 동안구 호계동 1044번지","indutype":"일반휴게음식 - 일반한식","category":"restaurant"},{"name":"타리상점","tel":"","addr":"경기도 안양시 동안구 호계동 1044번지","indutype":"일반휴게음식 - 일반한식","category":"restaurant"},{"name":"포인트꼬치구이","tel":"031-84-8582","addr":"경기도 안양시 동안구 호계동 1044번지","indutype":"일반휴게음식 - 주점","category":"restaurant"}]},{"lat":"37.378358658","long":"126.96050867","imageIndex":4,"items":[{"name":"노을부대찌개식당","tel":"031-452-3749","addr":"경기도 안양시 동안구 호계동 1088-1번지","indutype":"일반휴게음식 - 일반한식","category":"restaurant"}]},{"lat":"37.377058206","long":"126.95284328","imageIndex":4,"items":[{"name":"농축산물고기굼터","tel":"031-452-9338","addr":"경기도 안양시 동안구 호계동 335-88번지","indutype":"일반휴게음식 - 일반한식","category":"restaurant"}]},{"lat":"37.387110599","long":"126.94642284","imageIndex":4,"items":[{"name":"농협안심정육식당","tel":"031-452-0090","addr":"경기도 안양시 동안구 호계동 906-2번지","indutype":"일반휴게음식 - 일반한식","category":"restaurant"},{"name":"육곱하기","tel":"031-429-6954","addr":"경기도 안양시 동안구 호계동 906-2번지","indutype":"일반휴게음식 - 일반한식","category":"restaurant"},{"name":"팔계돈숯불막창구이","tel":"031-477-8484","addr":"경기도 안양시 동안구 호계동 906-2번지","indutype":"일반휴게음식 - 일반한식","category":"restaurant"}]},{"lat":"37.383746199","long":"126.95911681","imageIndex":4,"items":[{"name":"누루","tel":"031-383-1020","addr":"경기도 안양시 동안구 호계동 1058-6번지","indutype":"일반휴게음식 - 스넥","category":"restaurant"},{"name":"이디야 평촌학원가점","tel":"070-7776-8883","addr":"경기도 안양시 동안구 호계동 1058-6번지","indutype":"일반휴게음식 - 서양음식","category":"restaurant"}]},{"lat":"37.382358916","long":"126.95986283","imageIndex":4,"items":[{"name":"누루","tel":"031-383-1020","addr":"경기도 안양시 동안구 호계동 1065-6번지","indutype":"일반휴게음식 - 스넥","category":"restaurant"},{"name":"마늘떡볶이","tel":"031-476-2420","addr":"경기도 안양시 동안구 호계동 1065-6번지","indutype":"일반휴게음식 - 스넥","category":"restaurant"},{"name":"치즈 LV.99","tel":"","addr":"경기도 안양시 동안구 호계동 1065-6번지","indutype":"일반휴게음식 - 서양음식","category":"restaurant"},{"name":"틈새라면평촌학원가점","tel":"031-381-5838","addr":"경기도 안양시 동안구 호계동 1065-6번지","indutype":"일반휴게음식 - 일반한식","category":"restaurant"},{"name":"행컵 평촌학원가점","tel":"031-381-1471","addr":"경기도 안양시 동안구 호계동 1065-6번지","indutype":"일반휴게음식 - 일반한식","category":"restaurant"}]},{"lat":"37.390636984","long":"126.95414417","imageIndex":4,"items":[{"name":"뉴 맥주창고","tel":"031-3087-7113","addr":"경기도 안양시 동안구 호계동 1047-2번지","indutype":"일반휴게음식 - 주점","category":"restaurant"},{"name":"도마 구스타(DOMA GUSTAR)","tel":"","addr":"경기도 안양시 동안구 호계동 1047-2번지","indutype":"일반휴게음식 - 서양음식","category":"restaurant"},{"name":"서창서서갈비","tel":"031-387-7201","addr":"경기도 안양시 동안구 호계동 1047-2번지","indutype":"일반휴게음식 - 일반한식","category":"restaurant"},{"name":"스시가든 범계점","tel":"031-383-3817","addr":"경기도 안양시 동안구 호계동 1047-2번지","indutype":"일반휴게음식 - 일식·회집","category":"restaurant"},{"name":"신 부추곱창","tel":"031-381-5003","addr":"경기도 안양시 동안구 호계동 1047-2번지","indutype":"일반휴게음식 - 일반한식","category":"restaurant"},{"name":"연안식당","tel":"031-382-3666","addr":"경기도 안양시 동안구 호계동 1047-2번지","indutype":"일반휴게음식 - 일반한식","category":"restaurant"},{"name":"이자카야건","tel":"","addr":"경기도 안양시 동안구 호계동 1047-2번지","indutype":"일반휴게음식 - 일식·회집","category":"restaurant"},{"name":"장충웰빙족발","tel":"031-383-4237","addr":"경기도 안양시 동안구 호계동","indutype":"일반휴게음식 - 일반한식","category":"restaurant"},{"name":"한국술집건","tel":"031-1899-3272","addr":"경기도 안양시 동안구 호계동 1047-2번지","indutype":"일반휴게음식 - 일반한식","category":"restaurant"}]},{"lat":"37.390942665","long":"126.95256303","imageIndex":4,"items":[{"name":"다께야우동","tel":"031-382-5758","addr":"경기도 안양시 동안구 호계동 1041-3번지","indutype":"일반휴게음식 - 일반한식","category":"restaurant"},{"name":"부대의전설 (범계점)","tel":"","addr":"경기도 안양시 동안구 호계동 1041-3번지","indutype":"일반휴게음식 - 일반한식","category":"restaurant"},{"name":"장단옥","tel":"031-382-3164","addr":"경기도 안양시 동안구 호계동 1041-3번지","indutype":"일반휴게음식 - 일반한식","category":"restaurant"}]},{"lat":"37.370839125","long":"126.94811716","imageIndex":4,"items":[{"name":"다인푸드","tel":"031-343-0055","addr":"경기도 안양시 동안구 호계동 1027번지","indutype":"일반휴게음식 - 일반한식","category":"restaurant"},{"name":"요거프레소 안양IT밸리점","tel":"031-343-0088","addr":"경기도 안양시 동안구 호계동 1027번지","indutype":"일반휴게음식 - 서양음식","category":"restaurant"},{"name":"진사골순대국","tel":"031-343-1622","addr":"경기도 안양시 동안구 호계동 1027번지","indutype":"일반휴게음식 - 일반한식","category":"restaurant"},{"name":"커피베이안양호계점","tel":"031-343-0900","addr":"경기도 안양시 동안구 호계동 1027번지","indutype":"일반휴게음식 - 서양음식","category":"restaurant"},{"name":"커피볶는 별난고양이","tel":"","addr":"경기도 안양시 동안구 호계동 1027번지","indutype":"일반휴게음식 - 서양음식","category":"restaurant"},{"name":"킹콩부대찌개(안양IT밸리점)","tel":"031-343-1514","addr":"경기도 안양시 동안구 호계동 1027번지","indutype":"일반휴게음식 - 일반한식","category":"restaurant"},{"name":"퍄오량","tel":"031-343-1988","addr":"경기도 안양시 동안구 호계동 1027번지","indutype":"일반휴게음식 - 중국식","category":"restaurant"},{"name":"호계돈가스","tel":"031-343-1208","addr":"경기도 안양시 동안구 호계동 1027번지","indutype":"일반휴게음식 - 스넥","category":"restaurant"}]},{"lat":"37.385641375","long":"126.94522704","imageIndex":4,"items":[{"name":"다정식당","tel":"031-429-2888","addr":"경기도 안양시 동안구 호계동 907-5번지","indutype":"일반휴게음식 - 일반한식","category":"restaurant"}]},{"lat":"37.382115696","long":"126.96000975","imageIndex":4,"items":[{"name":"다채김밥","tel":"031-385-5579","addr":"경기도 안양시 동안구 호계동 1065-8번지","indutype":"일반휴게음식 - 일반한식","category":"restaurant"},{"name":"신전떡볶이 평촌점","tel":"031-388-3696","addr":"경기도 안양시 동안구 호계동 1065-8번지","indutype":"일반휴게음식 - 일반한식","category":"restaurant"},{"name":"코스트파이브커피","tel":"070-7794-7293","addr":"경기도 안양시 동안구 호계동 1065-8번지","indutype":"일반휴게음식 - 서양음식","category":"restaurant"}]},{"lat":"37.364311926","long":"126.96067461","imageIndex":4,"items":[{"name":"달달스토리","tel":"031-427-2121","addr":"경기도 안양시 동안구 호계동 811번지","indutype":"일반휴게음식 - 서양음식","category":"restaurant"},{"name":"셀렉토커피홈타운점","tel":"031-474-9577","addr":"경기도 안양시 동안구 호계동 811번지","indutype":"일반휴게음식 - 서양음식","category":"restaurant"},{"name":"처갓집양념통닭","tel":"031-452-0827","addr":"경기도 안양시 동안구 호계동","indutype":"일반휴게음식 - 주점","category":"restaurant"},{"name":"카페스텔라(cafe stella)","tel":"031-451-0077","addr":"경기도 안양시 동안구 호계동 811번지","indutype":"일반휴게음식 - 서양음식","category":"restaurant"}]},{"lat":"37.390636379","long":"126.95269875","imageIndex":4,"items":[{"name":"달봉비어","tel":"031-382-3300","addr":"경기도 안양시 동안구 호계동 1045-6번지","indutype":"일반휴게음식 - 주점","category":"restaurant"},{"name":"듣는커피","tel":"","addr":"경기도 안양시 동안구 호계동 1045-6번지","indutype":"일반휴게음식 - 서양음식","category":"restaurant"},{"name":"명랑핫도그 (범계점)","tel":"","addr":"경기도 안양시 동안구 호계동 1045-6번지","indutype":"일반휴게음식 - 일반한식","category":"restaurant"},{"name":"모모네국수집","tel":"031-382-0505","addr":"경기도 안양시 동안구 호계동 1045-6번지","indutype":"일반휴게음식 - 일반한식","category":"restaurant"},{"name":"밥사랑","tel":"031-388-9835","addr":"경기도 안양시 동안구 호계동 1045-6번지","indutype":"일반휴게음식 - 일반한식","category":"restaurant"},{"name":"블랙콩(범계점)","tel":"031-459-3238","addr":"경기도 안양시 동안구 호계동 1045-6번지","indutype":"일반휴게음식 - 일반한식","category":"restaurant"},{"name":"스시노백쉐프 안양범계점","tel":"031-388-5802","addr":"경기도 안양시 동안구 호계동 1045-6번지","indutype":"일반휴게음식 - 일식·회집","category":"restaurant"},{"name":"신룽푸마라탕","tel":"031-383-6660","addr":"경기도 안양시 동안구 호계동 1045-6번지","indutype":"일반휴게음식 - 중국식","category":"restaurant"},{"name":"옛날손칼국수","tel":"031-382-4824","addr":"경기도 안양시 동안구 호계동 1045-6번지","indutype":"일반휴게음식 - 일반한식","category":"restaurant"},{"name":"오부장치킨 범계점","tel":"031-381-9920","addr":"경기도 안양시 동안구 호계동 1045-6번지","indutype":"일반휴게음식 - 스넥","category":"restaurant"}]},{"lat":"37.389195887","long":"126.95542111","imageIndex":4,"items":[{"name":"달봉이치킨","tel":"031-387-9589","addr":"경기도 안양시 동안구 호계동 1052-3번지","indutype":"일반휴게음식 - 스넥","category":"restaurant"}]},{"lat":"37.381607956","long":"126.95200472","imageIndex":4,"items":[{"name":"대가순대국","tel":"031-456-7323","addr":"경기도 안양시 동안구 호계동 930-41번지","indutype":"일반휴게음식 - 일반한식","category":"restaurant"},{"name":"위치스펍","tel":"031-341-8898","addr":"경기도 안양시 동안구 호계동 930-41번지","indutype":"일반휴게음식 - 일반한식","category":"restaurant"}]},{"lat":"37.387526141","long":"126.94872608","imageIndex":4,"items":[{"name":"대가의요리","tel":"031-383-4431","addr":"경기도 안양시 동안구 호계동 916-1번지","indutype":"일반휴게음식 - 일반한식","category":"restaurant"}]},{"lat":"37.367444991","long":"126.95426077","imageIndex":4,"items":[{"name":"대건생고기무한리필","tel":"031-456-3361","addr":"경기도 안양시 동안구 호계동 707-7번지","indutype":"일반휴게음식 - 일반한식","category":"restaurant"}]},{"lat":"37.368056274","long":"126.95095271","imageIndex":4,"items":[{"name":"대명식당","tel":"031-429-5676","addr":"경기도 안양시 동안구 호계동 1029-21번지","indutype":"일반휴게음식 - 일반한식","category":"restaurant"}]},{"lat":"37.368111648","long":"126.95403456","imageIndex":4,"items":[{"name":"대박옛날통치킨","tel":"031-427-7045","addr":"경기도 안양시 동안구 호계동 705-6번지","indutype":"일반휴게음식 - 일반한식","category":"restaurant"},{"name":"보글보글짱","tel":"031-427-7953","addr":"경기도 안양시 동안구 호계동 705-6번지","indutype":"일반휴게음식 - 일반한식","category":"restaurant"},{"name":"생방송","tel":"031-458-2982","addr":"경기도 안양시 동안구 호계동 705-6번지","indutype":"일반휴게음식 - 주점","category":"restaurant"},{"name":"소메랑","tel":"031-427-4656","addr":"경기도 안양시 동안구 호계동 705-6번지","indutype":"일반휴게음식 - 일반한식","category":"restaurant"},{"name":"이모네닭발","tel":"031-429-7772","addr":"경기도 안양시 동안구 호계동 705-6번지","indutype":"일반휴게음식 - 일반한식","category":"restaurant"},{"name":"전원주손큰할매순대국(흥안점)","tel":"031-453-8859","addr":"경기도 안양시 동안구 호계동 705-6번지","indutype":"일반휴게음식 - 일반한식","category":"restaurant"}]},{"lat":"37.387390928","long":"126.94859067","imageIndex":4,"items":[{"name":"대박통치킨","tel":"031-459-2949","addr":"경기도 안양시 동안구 호계동 915-28번지","indutype":"일반휴게음식 - 스넥","category":"restaurant"}]},{"lat":"37.371195043","long":"126.95895476","imageIndex":4,"items":[{"name":"대성식당","tel":"031-459-1513","addr":"경기도 안양시 동안구 호계동","indutype":"일반휴게음식 - 일반한식","category":"restaurant"}]},{"lat":"37.369942538","long":"126.95869584","imageIndex":4,"items":[{"name":"대운식당","tel":"031-452-2911","addr":"경기도 안양시 동안구 호계동 1005-8번지","indutype":"일반휴게음식 - 일반한식","category":"restaurant"}]},{"lat":"37.374227047","long":"126.94836307","imageIndex":4,"items":[{"name":"대원","tel":"031-206-5306","addr":"경기도 안양시 동안구 호계동 555-42번지","indutype":"일반휴게음식 - 일반한식","category":"restaurant"},{"name":"맘스분식소","tel":"","addr":"경기도 안양시 동안구 호계동 555-42번지","indutype":"일반휴게음식 - 스넥","category":"restaurant"},{"name":"미소셀프식당(오늘밥상)","tel":"031-427-7436","addr":"경기도 안양시 동안구 호계동 555-42번지","indutype":"일반휴게음식 - 일반한식","category":"restaurant"},{"name":"오늘커피","tel":"031-990-7711","addr":"경기도 안양시 동안구 호계동 555-42번지","indutype":"일반휴게음식 - 서양음식","category":"restaurant"},{"name":"이디야 안양SKV1점","tel":"031-990-6633","addr":"경기도 안양시 동안구 호계동 555-42번지","indutype":"일반휴게음식 - 서양음식","category":"restaurant"},{"name":"커피크러쉬Coffee crush(커피사랑)","tel":"031-990-7701","addr":"경기도 안양시 동안구 호계동 555-42번지","indutype":"일반휴게음식 - 서양음식","category":"restaurant"},{"name":"커피홍(Coffee Hong)","tel":"","addr":"경기도 안양시 동안구 호계동 555-42번지","indutype":"일반휴게음식 - 서양음식","category":"restaurant"}]},{"lat":"37.38597643","long":"126.94878365","imageIndex":4,"items":[{"name":"대패가1900(안양점)","tel":"031-427-4122","addr":"경기도 안양시 동안구 호계동 914-40번지 호계1차현대홈타운","indutype":"일반휴게음식 - 일반한식","category":"restaurant"}]},{"lat":"37.382914461","long":"126.95209417","imageIndex":4,"items":[{"name":"더(the)사부작","tel":"070-7696-4634","addr":"경기도 안양시 동안구 호계동 925-49번지","indutype":"일반휴게음식 - 일반한식","category":"restaurant"}]},{"lat":"37.369364721","long":"126.95567068","imageIndex":4,"items":[{"name":"더김밥","tel":"031-477-0419","addr":"경기도 안양시 동안구 호계동 967번지","indutype":"일반휴게음식 - 일반한식","category":"restaurant"},{"name":"들장미","tel":"031-457-9408","addr":"경기도 안양시 동안구 호계동 967번지","indutype":"일반휴게음식 - 주점","category":"restaurant"},{"name":"복돼지삼겹살","tel":"031-453-1139","addr":"경기도 안양시 동안구 호계동 967번지","indutype":"일반휴게음식 - 일반한식","category":"restaurant"},{"name":"여우와늑대 치킨앤호프","tel":"070-6251-4882","addr":"경기도 안양시 동안구 호계동 967번지","indutype":"일반휴게음식 - 주점","category":"restaurant"},{"name":"육교맛포차","tel":"031-429-6998","addr":"경기도 안양시 동안구 호계동 967번지","indutype":"일반휴게음식 - 일반한식","category":"restaurant"}]},{"lat":"37.380086733","long":"126.95558492","imageIndex":4,"items":[{"name":"더분식","tel":"","addr":"경기도 안양시 동안구 호계동 1055-1번지","indutype":"일반휴게음식 - 스넥","category":"restaurant"}]},{"lat":"37.391974681","long":"126.94361864","imageIndex":4,"items":[{"name":"더커피라츠","tel":"031-435-9644","addr":"경기도 안양시 동안구 호계동 894번지","indutype":"일반휴게음식 - 서양음식","category":"restaurant"},{"name":"주식회사 조숙본가청기와","tel":"031-456-0603","addr":"경기도 안양시 동안구 호계동 894번지","indutype":"일반휴게음식 - 일반한식","category":"restaurant"}]},{"lat":"37.372113325","long":"126.95697855","imageIndex":4,"items":[{"name":"덕이네","tel":"031-427-1088","addr":"경기도 안양시 동안구 호계동 959번지","indutype":"일반휴게음식 - 일반한식","category":"restaurant"},{"name":"진한식뷔페","tel":"","addr":"경기도 안양시 동안구 호계동 959번지","indutype":"일반휴게음식 - 일반한식","category":"restaurant"}]},{"lat":"37.372365727","long":"126.95728321","imageIndex":4,"items":[{"name":"데니스(호계신사거리점)","tel":"031-429-3280","addr":"경기도 안양시 동안구 호계동 949-17번지","indutype":"일반휴게음식 - 일반한식","category":"restaurant"}]},{"lat":"37.388528368","long":"126.95353576","imageIndex":4,"items":[{"name":"데니스커피 목련점","tel":"031-382-8797","addr":"경기도 안양시 동안구 호계동 1052번지","indutype":"일반휴게음식 - 서양음식","category":"restaurant"}]},{"lat":"37.378421789","long":"126.96067799","imageIndex":4,"items":[{"name":"돈가네솥뚜껑","tel":"031-453-3920","addr":"경기도 안양시 동안구 호계동 1088-2번지","indutype":"일반휴게음식 - 일반한식","category":"restaurant"}]},{"lat":"37.381975839","long":"126.9485607","imageIndex":4,"items":[{"name":"돈담왕족발","tel":"031-417-2992","addr":"경기도 안양시 동안구 호계동 282-12번지","indutype":"일반휴게음식 - 일반한식","category":"restaurant"},{"name":"생방송","tel":"031-427-9952","addr":"경기도 안양시 동안구 호계동 282-12번지","indutype":"일반휴게음식 - 일반한식","category":"restaurant"}]},{"lat":"37.382698204","long":"126.95206044","imageIndex":4,"items":[{"name":"돈만이","tel":"031-427-9253","addr":"경기도 안양시 동안구 호계동 925-11번지","indutype":"일반휴게음식 - 일반한식","category":"restaurant"},{"name":"돈만이","tel":"031-427-9253","addr":"경기도 안양시 동안구 호계동 925-11번지","indutype":"일반휴게음식 - 일반한식","category":"restaurant"}]},{"lat":"37.378475906","long":"126.96083603","imageIndex":4,"items":[{"name":"돈짱","tel":"031-477-4798","addr":"경기도 안양시 동안구 호계동 1088-3번지","indutype":"일반휴게음식 - 일반한식","category":"restaurant"}]},{"lat":"37.382192309","long":"126.94905735","imageIndex":4,"items":[{"name":"동네호프","tel":"031-427-6990","addr":"경기도 안양시 동안구 호계동 924번지","indutype":"일반휴게음식 - 주점","category":"restaurant"}]},{"lat":"37.361916363","long":"126.96398335","imageIndex":4,"items":[{"name":"동록골순대국","tel":"031-427-0560","addr":"경기도 안양시 동안구 호계동 859-18번지","indutype":"일반휴게음식 - 일반한식","category":"restaurant"}]},{"lat":"37.364754565","long":"126.96400446","imageIndex":4,"items":[{"name":"동명카츠안양호계점","tel":"031-345-5800","addr":"경기도 안양시 동안구 호계동 829-8번지","indutype":"일반휴게음식 - 서양음식","category":"restaurant"}]},{"lat":"37.388218215","long":"126.94512343","imageIndex":4,"items":[{"name":"동보푸드","tel":"","addr":"경기도 안양시 동안구 호계동 901-5번지","indutype":"일반휴게음식 - 일반한식","category":"restaurant"}]},{"lat":"37.385913986","long":"126.95017257","imageIndex":4,"items":[{"name":"돼지세끼","tel":"","addr":"경기도 안양시 동안구 호계동 917-19번지","indutype":"일반휴게음식 - 일반한식","category":"restaurant"}]},{"lat":"37.371032827","long":"126.95886454","imageIndex":4,"items":[{"name":"두꺼비하우스","tel":"031-451-5066","addr":"경기도 안양시 동안구 호계동 1002-27번지","indutype":"일반휴게음식 - 일반한식","category":"restaurant"},{"name":"유구","tel":"","addr":"경기도 안양시 동안구 호계동 1002-27번지","indutype":"일반휴게음식 - 일반한식","category":"restaurant"}]},{"lat":"37.372137142","long":"126.94933549","imageIndex":4,"items":[{"name":"두림푸드","tel":"","addr":"경기도 안양시 동안구 호계동 555-15번지","indutype":"일반휴게음식 - 일반한식","category":"restaurant"},{"name":"순대정가백암","tel":"031-429-8259","addr":"경기도 안양시 동안구 호계동 555-15번지","indutype":"일반휴게음식 - 일반한식","category":"restaurant"},{"name":"커피인더스트리 호계지점","tel":"070-8835-8718","addr":"경기도 안양시 동안구 호계동 555-15번지","indutype":"일반휴게음식 - 서양음식","category":"restaurant"}]},{"lat":"37.377030974","long":"126.9523691","imageIndex":4,"items":[{"name":"두찜안양호계점","tel":"031-429-1462","addr":"경기도 안양시 동안구 호계동 335-2번지 호계동미원(미원)아파트","indutype":"일반휴게음식 - 일반한식","category":"restaurant"}]},{"lat":"37.371698868","long":"126.95700138","imageIndex":4,"items":[{"name":"드오삼계탕","tel":"031-456-7845","addr":"경기도 안양시 동안구 호계동 959-16번지","indutype":"일반휴게음식 - 일반한식","category":"restaurant"}]},{"lat":"37.390834835","long":"126.95325194","imageIndex":4,"items":[{"name":"디 (D)","tel":"","addr":"경기도 안양시 동안구 호계동 1045-9번지","indutype":"일반휴게음식 - 일반한식","category":"restaurant"},{"name":"마리웨일237 범계로데오점","tel":"","addr":"경기도 안양시 동안구 호계동 1045-9번지","indutype":"일반휴게음식 - 서양음식","category":"restaurant"},{"name":"맥주라운지","tel":"031-388-2631","addr":"경기도 안양시 동안구 호계동 1045-9번지","indutype":"일반휴게음식 - 주점","category":"restaurant"},{"name":"빌리엔젤 범계점","tel":"031-362-6339","addr":"경기도 안양시 동안구 호계동 1045-9번지","indutype":"일반휴게음식 - 서양음식","category":"restaurant"},{"name":"빽다방 범계역점","tel":"031-387-7713","addr":"경기도 안양시 동안구 호계동 1045-9번지","indutype":"일반휴게음식 - 서양음식","category":"restaurant"},{"name":"석기정","tel":"031-388-6426","addr":"경기도 안양시 동안구 호계동 1045-9번지","indutype":"일반휴게음식 - 일반한식","category":"restaurant"},{"name":"아지트","tel":"031-383-6859","addr":"경기도 안양시 동안구 호계동 1045-9번지","indutype":"일반휴게음식 - 주점","category":"restaurant"},{"name":"카토멘","tel":"","addr":"경기도 안양시 동안구 호계동 1045-9번지","indutype":"일반휴게음식 - 일식·회집","category":"restaurant"},{"name":"코코리켸바베큐립","tel":"031-383-8424","addr":"경기도 안양시 동안구 호계동 1045-9번지","indutype":"일반휴게음식 - 주점","category":"restaurant"},{"name":"콘서트꼬치전문체인점","tel":"031-87-3873","addr":"경기도 안양시 동안구 호계동 1045-9번지","indutype":"일반휴게음식 - 일반한식","category":"restaurant"}]},{"lat":"37.38183644","long":"126.96016798","imageIndex":4,"items":[{"name":"딜리버리킹","tel":"031-342-1812","addr":"경기도 안양시 동안구 호계동 1065-10번지","indutype":"일반휴게음식 - 일반한식","category":"restaurant"},{"name":"메고지고평촌점","tel":"02-1600-8904","addr":"경기도 안양시 동안구 호계동 1065-10번지","indutype":"일반휴게음식 - 서양음식","category":"restaurant"},{"name":"밥맛나는세상 평촌점","tel":"031-387-9900","addr":"경기도 안양시 동안구 호계동 1065-10번지","indutype":"일반휴게음식 - 일반한식","category":"restaurant"},{"name":"불닭발땡초 동대문엽기떡볶이 호계점","tel":"031-382-8592","addr":"경기도 안양시 동안구 호계동 1065-10번지","indutype":"일반휴게음식 - 스넥","category":"restaurant"},{"name":"비스트로 빈","tel":"031-385-2676","addr":"경기도 안양시 동안구 호계동 1065-10번지","indutype":"일반휴게음식 - 서양음식","category":"restaurant"},{"name":"젠","tel":"031-388-6210","addr":"경기도 안양시 동안구 호계동 1065-10번지","indutype":"일반휴게음식 - 주점","category":"restaurant"},{"name":"커피에반하다 평촌대로점","tel":"031-382-7900","addr":"경기도 안양시 동안구 호계동 1065-10번지","indutype":"일반휴게음식 - 서양음식","category":"restaurant"}]},{"lat":"37.386556411","long":"126.95664228","imageIndex":4,"items":[{"name":"떡밥","tel":"031-388-9157","addr":"경기도 안양시 동안구 호계동 1054-6번지","indutype":"일반휴게음식 - 스넥","category":"restaurant"},{"name":"사천성","tel":"031-381-9272","addr":"경기도 안양시 동안구 호계동 1054-6번지","indutype":"일반휴게음식 - 중국식","category":"restaurant"},{"name":"후다닭치킨점","tel":"031-386-9292","addr":"경기도 안양시 동안구 호계동","indutype":"일반휴게음식 - 주점","category":"restaurant"}]},{"lat":"37.383448928","long":"126.95928635","imageIndex":4,"items":[{"name":"떼루와","tel":"070-8880-8851","addr":"경기도 안양시 동안구 호계동 1058-8번지","indutype":"일반휴게음식 - 일반한식","category":"restaurant"},{"name":"아마스빈 평촌학원가점","tel":"031-381-1501","addr":"경기도 안양시 동안구 호계동 1058-8번지","indutype":"일반휴게음식 - 서양음식","category":"restaurant"}]},{"lat":"37.382917444","long":"126.95959152","imageIndex":4,"items":[{"name":"또또닭강정","tel":"031-388-9818","addr":"경기도 안양시 동안구 호계동 1065-2번지","indutype":"일반휴게음식 - 일반한식","category":"restaurant"}]},{"lat":"37.378584148","long":"126.96117469","imageIndex":4,"items":[{"name":"뚝배기손칼국수","tel":"031-477-3575","addr":"경기도 안양시 동안구 호계동 1088-5번지","indutype":"일반휴게음식 - 일반한식","category":"restaurant"}]},{"lat":"37.382553292","long":"126.95034429","imageIndex":4,"items":[{"name":"뚱스밥버거호계도서관점","tel":"031-429-1235","addr":"경기도 안양시 동안구 호계동 923-88번지","indutype":"일반휴게음식 - 일반한식","category":"restaurant"}]},{"lat":"37.374753548","long":"126.95764305","imageIndex":4,"items":[{"name":"라마망","tel":"031-429-3920","addr":"경기도 안양시 동안구 호계동 986번지","indutype":"일반휴게음식 - 서양음식","category":"restaurant"}]},{"lat":"37.387444316","long":"126.94714527","imageIndex":4,"items":[{"name":"라면사무소","tel":"031-429-8808","addr":"경기도 안양시 동안구 호계동 905-21번지","indutype":"일반휴게음식 - 일반한식","category":"restaurant"},{"name":"중국성중화요리","tel":"031-453-0844","addr":"경기도 안양시 동안구 호계동 905-21번지","indutype":"일반휴게음식 - 중국식","category":"restaurant"},{"name":"카츠네코","tel":"031-429-3232","addr":"경기도 안양시 동안구 호계동 905-21번지","indutype":"일반휴게음식 - 일식·회집","category":"restaurant"},{"name":"황금밥상","tel":"031-459-3554","addr":"경기도 안양시 동안구 호계동 905-21번지","indutype":"일반휴게음식 - 일반한식","category":"restaurant"}]},{"lat":"37.37633785","long":"126.95392762","imageIndex":4,"items":[{"name":"라비에벨","tel":"031-453-0373","addr":"경기도 안양시 동안구 호계동 940-31번지","indutype":"일반휴게음식 - 서양음식","category":"restaurant"}]},{"lat":"37.375474902","long":"126.95908774","imageIndex":4,"items":[{"name":"레드브라운안양호계점","tel":"","addr":"경기도 안양시 동안구 호계동 1285번지","indutype":"일반휴게음식 - 서양음식","category":"restaurant"}]},{"lat":"37.383025532","long":"126.95950113","imageIndex":4,"items":[{"name":"레인보우마카롱","tel":"031-388-7662","addr":"경기도 안양시 동안구 호계동 1065-1번지","indutype":"일반휴게음식 - 서양음식","category":"restaurant"},{"name":"붐바타 안양평촌학원가점","tel":"031-382-6617","addr":"경기도 안양시 동안구 호계동 1065-1번지","indutype":"일반휴게음식 - 서양음식","category":"restaurant"}]},{"lat":"37.388696323","long":"126.94630873","imageIndex":4,"items":[{"name":"로얄빈스","tel":"02-276-8778","addr":"경기도 안양시 동안구 호계동 902-11번지","indutype":"일반휴게음식 - 서양음식","category":"restaurant"}]},{"lat":"37.384553671","long":"126.95064776","imageIndex":4,"items":[{"name":"르 삐끄니끄(Le pique-nique)","tel":"070-4200-9933","addr":"경기도 안양시 동안구 호계동 923-99번지","indutype":"일반휴게음식 - 서양음식","category":"restaurant"}]},{"lat":"37.391357633","long":"126.95375976","imageIndex":4,"items":[{"name":"리얼케익안양범계점","tel":"031-383-8393","addr":"경기도 안양시 동안구 호계동 1042-2번지","indutype":"일반휴게음식 - 일반한식","category":"restaurant"}]},{"lat":"37.390690521","long":"126.95289068","imageIndex":4,"items":[{"name":"린(LiNH)","tel":"031-385-1045","addr":"경기도 안양시 동안구 호계동 1045-7번지","indutype":"일반휴게음식 - 서양음식","category":"restaurant"},{"name":"마포추어탕","tel":"031-381-0092","addr":"경기도 안양시 동안구 호계동 1045-7번지","indutype":"일반휴게음식 - 일반한식","category":"restaurant"},{"name":"초통삼","tel":"031-386-8808","addr":"경기도 안양시 동안구 호계동 1045-7번지","indutype":"일반휴게음식 - 일반한식","category":"restaurant"},{"name":"춘천골닭갈비","tel":"031-385-4279","addr":"경기도 안양시 동안구 호계동 1045-7번지","indutype":"일반휴게음식 - 일반한식","category":"restaurant"},{"name":"하늘을 걷는 고양이 카페","tel":"","addr":"경기도 안양시 동안구 호계동 1045-7번지","indutype":"일반휴게음식 - 서양음식","category":"restaurant"}]},{"lat":"37.361861799","long":"126.96248207","imageIndex":4,"items":[{"name":"마당","tel":"031-457-2224","addr":"경기도 안양시 동안구 호계동 859-12번지","indutype":"일반휴게음식 - 일반한식","category":"restaurant"},{"name":"아우네병천순대","tel":"031-454-9635","addr":"경기도 안양시 동안구 호계동 859-12번지","indutype":"일반휴게음식 - 일반한식","category":"restaurant"},{"name":"일미양꼬치","tel":"031-456-6786","addr":"경기도 안양시 동안구 호계동 859-12번지","indutype":"일반휴게음식 - 일반한식","category":"restaurant"}]},{"lat":"37.371392982","long":"126.95819825","imageIndex":4,"items":[{"name":"마당","tel":"031-477-5558","addr":"경기도 안양시 동안구 호계동 996-8번지","indutype":"일반휴게음식 - 서양음식","category":"restaurant"}]},{"lat":"37.38252973","long":"126.95883524","imageIndex":4,"items":[{"name":"마당","tel":"031-381-0780","addr":"경기도 안양시 동안구 호계동 1063-3번지","indutype":"일반휴게음식 - 일반한식","category":"restaurant"}]},{"lat":"37.376558925","long":"126.96747576","imageIndex":4,"items":[{"name":"마르페","tel":"031-427-8345","addr":"경기도 안양시 동안구 호계동 1117번지","indutype":"일반휴게음식 - 서양음식","category":"restaurant"}]},{"lat":"37.36488803","long":"126.95917292","imageIndex":4,"items":[{"name":"마산복아구전문점","tel":"031-451-2900","addr":"경기도 안양시 동안구 호계동 801-4번지 영풍주상복합아파트","indutype":"일반휴게음식 - 일반한식","category":"restaurant"},{"name":"소백산","tel":"031-453-9900","addr":"경기도 안양시 동안구 호계동 801-4번지 영풍주상복합아파트","indutype":"일반휴게음식 - 일반한식","category":"restaurant"},{"name":"피자스쿨(안양호계점)","tel":"031-429-9229","addr":"경기도 안양시 동안구 호계동 801-4번지 영풍주상복합아파트","indutype":"일반휴게음식 - 서양음식","category":"restaurant"}]},{"lat":"37.38147295","long":"126.95234354","imageIndex":4,"items":[{"name":"마시왕","tel":"031-427-6397","addr":"경기도 안양시 동안구 호계동 926-19번지","indutype":"일반휴게음식 - 주점","category":"restaurant"}]},{"lat":"37.381718445","long":"126.9578421","imageIndex":4,"items":[{"name":"마포소금구이","tel":"031-387-2344","addr":"경기도 안양시 동안구 호계동 1060-5번지","indutype":"일반휴게음식 - 일반한식","category":"restaurant"}]},{"lat":"37.376473632","long":"126.95547429","imageIndex":4,"items":[{"name":"만나식당","tel":"","addr":"경기도 안양시 동안구 호계동 943-29번지","indutype":"일반휴게음식 - 일반한식","category":"restaurant"}]},{"lat":"37.367616239","long":"126.95439613","imageIndex":4,"items":[{"name":"만남포차","tel":"031-427-0898","addr":"경기도 안양시 동안구 호계동 707-3번지","indutype":"일반휴게음식 - 일반한식","category":"restaurant"},{"name":"호계식당","tel":"031-427-2580","addr":"경기도 안양시 동안구 호계동 707-3번지","indutype":"일반휴게음식 - 일반한식","category":"restaurant"}]},{"lat":"37.36788686","long":"126.95517489","imageIndex":4,"items":[{"name":"맘모스치킨","tel":"031-452-1545","addr":"경기도 안양시 동안구 호계동 971-10번지","indutype":"일반휴게음식 - 일반한식","category":"restaurant"}]},{"lat":"37.36227648","long":"126.96311398","imageIndex":4,"items":[{"name":"맛닭꼬","tel":"031-429-3492","addr":"경기도 안양시 동안구 호계동 859-50번지","indutype":"일반휴게음식 - 스넥","category":"restaurant"},{"name":"삼거리식당","tel":"031-452-4321","addr":"경기도 안양시 동안구 호계동 859-50번지","indutype":"일반휴게음식 - 일반한식","category":"restaurant"},{"name":"초가돼지구이마을","tel":"031-456-6588","addr":"경기도 안양시 동안구 호계동 859-50번지","indutype":"일반휴게음식 - 일반한식","category":"restaurant"},{"name":"행복한전집","tel":"031-429-3251","addr":"경기도 안양시 동안구 호계동 859-50번지","indutype":"일반휴게음식 - 일반한식","category":"restaurant"}]},{"lat":"37.385806016","long":"126.95051139","imageIndex":4,"items":[{"name":"맛있는 푸드","tel":"031-422-7337","addr":"경기도 안양시 동안구 호계동 918-16번지","indutype":"일반휴게음식 - 일반한식","category":"restaurant"},{"name":"커피하우스","tel":"070-7792-4200","addr":"경기도 안양시 동안구 호계동 918-16번지","indutype":"일반휴게음식 - 서양음식","category":"restaurant"}]},{"lat":"37.381863207","long":"126.95944534","imageIndex":4,"items":[{"name":"매운국물떡볶이 밀방떡 평촌점","tel":"031-383-5439","addr":"경기도 안양시 동안구 호계동 1066-8번지","indutype":"일반휴게음식 - 스넥","category":"restaurant"}]},{"lat":"37.387779615","long":"126.95139079","imageIndex":4,"items":[{"name":"멕시칸치킨","tel":"031-383-9292","addr":"경기도 안양시 동안구 호계동 1053-2번지","indutype":"일반휴게음식 - 스넥","category":"restaurant"},{"name":"목련식당","tel":"031-387-0545","addr":"경기도 안양시 동안구 호계동","indutype":"일반휴게음식 - 일반한식","category":"restaurant"}]},{"lat":"37.37861088","long":"126.96033917","imageIndex":4,"items":[{"name":"명가","tel":"031-429-0509","addr":"경기도 안양시 동안구 호계동 1083-3번지","indutype":"일반휴게음식 - 일반한식","category":"restaurant"}]},{"lat":"37.384529923","long":"126.95869857","imageIndex":4,"items":[{"name":"명동김밥","tel":"031-382-1400","addr":"경기도 안양시 동안구 호계동 1058번지","indutype":"일반휴게음식 - 스넥","category":"restaurant"}]},{"lat":"37.387163521","long":"126.94408539","imageIndex":4,"items":[{"name":"명동식당","tel":"031-429-3376","addr":"경기도 안양시 동안구 호계동 900-1번지","indutype":"일반휴게음식 - 일반한식","category":"restaurant"}]},{"lat":"37.383169677","long":"126.95945588","imageIndex":4,"items":[{"name":"명랑핫도그 평촌학원가점","tel":"","addr":"경기도 안양시 동안구 호계동 1065번지","indutype":"일반휴게음식 - 서양음식","category":"restaurant"},{"name":"웰던","tel":"","addr":"경기도 안양시 동안구 호계동 1065번지","indutype":"일반휴게음식 - 일반한식","category":"restaurant"},{"name":"이삭토스트","tel":"031-385-1011","addr":"경기도 안양시 동안구 호계동 1065번지","indutype":"일반휴게음식 - 스넥","category":"restaurant"},{"name":"커피볶는집","tel":"031-384-7222","addr":"경기도 안양시 동안구 호계동 1065번지","indutype":"일반휴게음식 - 서양음식","category":"restaurant"},{"name":"팔공티","tel":"","addr":"경기도 안양시 동안구 호계동 1065번지","indutype":"일반휴게음식 - 서양음식","category":"restaurant"},{"name":"한솥도시락(평촌학원가점)","tel":"031-388-4883","addr":"경기도 안양시 동안구 호계동 1065번지","indutype":"일반휴게음식 - 일반한식","category":"restaurant"}]},{"lat":"37.376861929","long":"126.95767565","imageIndex":4,"items":[{"name":"모두아커피","tel":"","addr":"경기도 안양시 동안구 호계동 1287번지 평촌더샵아이파크","indutype":"일반휴게음식 - 서양음식","category":"restaurant"}]},{"lat":"37.377338426","long":"126.95503342","imageIndex":4,"items":[{"name":"모듬생선구이밥상","tel":"031-477-0060","addr":"경기도 안양시 동안구 호계동 938-9번지","indutype":"일반휴게음식 - 일반한식","category":"restaurant"}]},{"lat":"37.371420529","long":"126.95958684","imageIndex":4,"items":[{"name":"모아푸드","tel":"","addr":"경기도 안양시 동안구 호계동 1002-10번지","indutype":"일반휴게음식 - 스넥","category":"restaurant"}]},{"lat":"37.37875524","long":"126.96089233","imageIndex":4,"items":[{"name":"몽이네맥주가게","tel":"","addr":"경기도 안양시 동안구 호계동 1082-7번지","indutype":"일반휴게음식 - 주점","category":"restaurant"},{"name":"원순대국","tel":"031-427-5228","addr":"경기도 안양시 동안구 호계동 1082-7번지","indutype":"일반휴게음식 - 일반한식","category":"restaurant"}]},{"lat":"37.367670685","long":"126.95534436","imageIndex":4,"items":[{"name":"무교동 영미낙지","tel":"031-422-4632","addr":"경기도 안양시 동안구 호계동 971-13번지","indutype":"일반휴게음식 - 일반한식","category":"restaurant"}]},{"lat":"37.382385756","long":"126.95934342","imageIndex":4,"items":[{"name":"무교동홍낙","tel":"031-385-6825","addr":"경기도 안양시 동안구 호계동 1064-3번지","indutype":"일반휴게음식 - 일반한식","category":"restaurant"}]},{"lat":"37.380725274","long":"126.95272793","imageIndex":4,"items":[{"name":"뮤지컬","tel":"031-459-0379","addr":"경기도 안양시 동안구 호계동 933-14번지","indutype":"일반휴게음식 - 주점","category":"restaurant"}]},{"lat":"37.37024826","long":"126.95705871","imageIndex":4,"items":[{"name":"미래맛집","tel":"031-429-1269","addr":"경기도 안양시 동안구 호계동 960-5번지","indutype":"일반휴게음식 - 일반한식","category":"restaurant"}]},{"lat":"37.367526105","long":"126.95431717","imageIndex":4,"items":[{"name":"미림갈비","tel":"031-52-6390","addr":"경기도 안양시 동안구 호계동 707-4번지","indutype":"일반휴게음식 - 일반한식","category":"restaurant"},{"name":"할매순대국","tel":"031-427-6807","addr":"경기도 안양시 동안구 호계동 707-4번지","indutype":"일반휴게음식 - 일반한식","category":"restaurant"}]},{"lat":"37.388749124","long":"126.9437341","imageIndex":4,"items":[{"name":"미소푸드","tel":"031-477-8822","addr":"경기도 안양시 동안구 호계동 897-6번지","indutype":"일반휴게음식 - 일반한식","category":"restaurant"}]},{"lat":"37.382445623","long":"126.95137185","imageIndex":4,"items":[{"name":"미스터보쌈5379","tel":"031-452-5379","addr":"경기도 안양시 동안구 호계동 925-19번지","indutype":"일반휴게음식 - 일반한식","category":"restaurant"},{"name":"자갈치꼼장어","tel":"031-477-8264","addr":"경기도 안양시 동안구 호계동 925-19번지","indutype":"일반휴게음식 - 일반한식","category":"restaurant"}]},{"lat":"37.38780533","long":"126.94845487","imageIndex":4,"items":[{"name":"민속주점마당","tel":"031-453-9565","addr":"경기도 안양시 동안구 호계동 904-14번지","indutype":"일반휴게음식 - 칵테일바","category":"restaurant"},{"name":"평촌불닭발포차","tel":"031-455-5111","addr":"경기도 안양시 동안구 호계동 904-14번지","indutype":"일반휴게음식 - 일반한식","category":"restaurant"}]},{"lat":"37.383611077","long":"126.95919593","imageIndex":4,"items":[{"name":"바르다김선생평촌학원가점","tel":"031-383-6777","addr":"경기도 안양시 동안구 호계동 1058-7번지","indutype":"일반휴게음식 - 스넥","category":"restaurant"},{"name":"설빙(평촌학원가점)","tel":"070-8899-8998","addr":"경기도 안양시 동안구 호계동 1058-7번지","indutype":"일반휴게음식 - 서양음식","category":"restaurant"},{"name":"스위트팝/주식회사 위너피앤씨","tel":"","addr":"경기도 안양시 동안구 호계동 1058-7번지","indutype":"일반휴게음식 - 서양음식","category":"restaurant"},{"name":"주식회사 고피자 평촌학원가점","tel":"","addr":"경기도 안양시 동안구 호계동 1058-7번지","indutype":"일반휴게음식 - 서양음식","category":"restaurant"}]},{"lat":"37.378139985","long":"126.95419742","imageIndex":4,"items":[{"name":"바우네나주곰탕","tel":"031-427-5233","addr":"경기도 안양시 동안구 호계동 937-11번지","indutype":"일반휴게음식 - 일반한식","category":"restaurant"}]},{"lat":"37.388498369","long":"126.94687348","imageIndex":4,"items":[{"name":"바우네나주곰탕(범계사거리점)","tel":"","addr":"경기도 안양시 동안구 호계동 902-20번지","indutype":"일반휴게음식 - 일반한식","category":"restaurant"},{"name":"병천아우내순대","tel":"031-427-2991","addr":"경기도 안양시 동안구 호계동 902-20번지","indutype":"일반휴게음식 - 일반한식","category":"restaurant"},{"name":"싱싱해물나라","tel":"031-427-5292","addr":"경기도 안양시 동안구 호계동","indutype":"일반휴게음식 - 일반한식","category":"restaurant"},{"name":"아리랑우동","tel":"031-429-3722","addr":"경기도 안양시 동안구 호계동 902-20번지","indutype":"일반휴게음식 - 스넥","category":"restaurant"},{"name":"이디야 커피(범계사거리점)","tel":"031-451-1219","addr":"경기도 안양시 동안구 호계동 902-20번지","indutype":"일반휴게음식 - 서양음식","category":"restaurant"},{"name":"통닭원5900 (범계점)","tel":"031-429-1001","addr":"경기도 안양시 동안구 호계동 902-20번지","indutype":"일반휴게음식 - 일반한식","category":"restaurant"},{"name":"통통","tel":"031-451-7555","addr":"경기도 안양시 동안구 호계동 902-20번지","indutype":"일반휴게음식 - 일반한식","category":"restaurant"},{"name":"통통활어랑참치랑","tel":"031-477-5353","addr":"경기도 안양시 동안구 호계동 902-20번지","indutype":"일반휴게음식 - 일반한식","category":"restaurant"},{"name":"호계한우한돈","tel":"031-477-3535","addr":"경기도 안양시 동안구 호계동 902-20번지","indutype":"일반휴게음식 - 일반한식","category":"restaurant"}]},{"lat":"37.369059127","long":"126.95759002","imageIndex":4,"items":[{"name":"박은자맛사랑(호계점)","tel":"031-455-5535","addr":"경기도 안양시 동안구 호계동 968-17번지","indutype":"일반휴게음식 - 일반한식","category":"restaurant"}]},{"lat":"37.382472737","long":"126.95156378","imageIndex":4,"items":[{"name":"방축옛날통닭","tel":"031-429-0099","addr":"경기도 안양시 동안구 호계동 925-18번지","indutype":"일반휴게음식 - 스넥","category":"restaurant"},{"name":"전원주의손큰할매순대국","tel":"031-387-0033","addr":"경기도 안양시 동안구 호계동 925-18번지","indutype":"일반휴게음식 - 일반한식","category":"restaurant"}]},{"lat":"37.387281952","long":"126.94676147","imageIndex":4,"items":[{"name":"배떡 X 샨티카레","tel":"031-427-7787","addr":"경기도 안양시 동안구 호계동 905-7번지","indutype":"일반휴게음식 - 일반한식","category":"restaurant"}]},{"lat":"37.369030853","long":"126.95445167","imageIndex":4,"items":[{"name":"백반&바지락칼국수","tel":"031-452-9877","addr":"경기도 안양시 동안구 호계동 966-3번지","indutype":"일반휴게음식 - 일반한식","category":"restaurant"}]},{"lat":"37.371195114","long":"126.95914668","imageIndex":4,"items":[{"name":"벌교꼬막웰빙맛집(호계2호점)","tel":"031-469-7460","addr":"경기도 안양시 동안구 호계동 1002-23번지","indutype":"일반휴게음식 - 일반한식","category":"restaurant"},{"name":"양마니순대곱창","tel":"031-427-5789","addr":"경기도 안양시 동안구 호계동 1002-23번지","indutype":"일반휴게음식 - 일반한식","category":"restaurant"},{"name":"우리처음처럼","tel":"031-427-4035","addr":"경기도 안양시 동안구 호계동 1002-23번지","indutype":"일반휴게음식 - 일반한식","category":"restaurant"}]},{"lat":"37.387030904","long":"126.94942652","imageIndex":4,"items":[{"name":"범계돈까스","tel":"031-429-5494","addr":"경기도 안양시 동안구 호계동 916-5번지","indutype":"일반휴게음식 - 서양음식","category":"restaurant"},{"name":"운 (WOON)범계점","tel":"031-427-1145","addr":"경기도 안양시 동안구 호계동 916-5번지","indutype":"일반휴게음식 - 서양음식","category":"restaurant"}]},{"lat":"37.391358055","long":"126.95478737","imageIndex":4,"items":[{"name":"범계역 편의점포차","tel":"031-384-7776","addr":"경기도 안양시 동안구 호계동 1044-7번지","indutype":"일반휴게음식 - 주점","category":"restaurant"},{"name":"서기치킨(범계점)","tel":"031-388-1976","addr":"경기도 안양시 동안구 호계동 1044-7번지","indutype":"일반휴게음식 - 스넥","category":"restaurant"}]},{"lat":"37.373086834","long":"126.95806177","imageIndex":4,"items":[{"name":"베트남롱안쌀국수","tel":"","addr":"경기도 안양시 동안구 호계동 995-2번지","indutype":"일반휴게음식 - 서양음식","category":"restaurant"}]},{"lat":"37.381751277","long":"126.95008515","imageIndex":4,"items":[{"name":"별난만두","tel":"","addr":"경기도 안양시 동안구 호계동 928-2번지","indutype":"일반휴게음식 - 일반한식","category":"restaurant"}]},{"lat":"37.372808068","long":"126.95952959","imageIndex":4,"items":[{"name":"별미칼국수","tel":"031-455-5818","addr":"경기도 안양시 동안구 호계동 998번지","indutype":"일반휴게음식 - 일반한식","category":"restaurant"}]},{"lat":"37.390356723","long":"126.95189718","imageIndex":4,"items":[{"name":"병천순대","tel":"031-381-0356","addr":"경기도 안양시 동안구 호계동 1045-1번지","indutype":"일반휴게음식 - 일반한식","category":"restaurant"},{"name":"탐앤탐스범계점","tel":"031-381-5005","addr":"경기도 안양시 동안구 호계동","indutype":"일반휴게음식 - 서양음식","category":"restaurant"}]},{"lat":"37.389888208","long":"126.95192008","imageIndex":4,"items":[{"name":"병천순대","tel":"031-388-1254","addr":"경기도 안양시 동안구 호계동 1046번지","indutype":"일반휴게음식 - 일반한식","category":"restaurant"},{"name":"앤하우스(범계점)","tel":"031-381-9570","addr":"경기도 안양시 동안구 호계동 1046번지","indutype":"일반휴게음식 - 서양음식","category":"restaurant"}]},{"lat":"37.373249259","long":"126.95870519","imageIndex":4,"items":[{"name":"병천순대국","tel":"031-457-9960","addr":"경기도 안양시 동안구 호계동 995-21번지","indutype":"일반휴게음식 - 일반한식","category":"restaurant"},{"name":"착한왕손만두","tel":"","addr":"경기도 안양시 동안구 호계동 995-21번지","indutype":"일반휴게음식 - 일반한식","category":"restaurant"}]},{"lat":"37.378556758","long":"126.96016984","imageIndex":4,"items":[{"name":"보쌈카페","tel":"031-456-5517","addr":"경기도 안양시 동안구 호계동 1083-2번지","indutype":"일반휴게음식 - 일반한식","category":"restaurant"}]},{"lat":"37.362168144","long":"126.96248191","imageIndex":4,"items":[{"name":"복돼지식당","tel":"031-427-2360","addr":"경기도 안양시 동안구 호계동 873번지","indutype":"일반휴게음식 - 일반한식","category":"restaurant"},{"name":"새로지은카페","tel":"","addr":"경기도 안양시 동안구 호계동 873번지","indutype":"일반휴게음식 - 서양음식","category":"restaurant"},{"name":"참치창고","tel":"031-427-3380","addr":"경기도 안양시 동안구 호계동 873번지","indutype":"일반휴게음식 - 일반한식","category":"restaurant"},{"name":"혜인푸드","tel":"031-454-9891","addr":"경기도 안양시 동안구 호계동 873번지","indutype":"일반휴게음식 - 일반한식","category":"restaurant"}]},{"lat":"37.371446724","long":"126.9573628","imageIndex":4,"items":[{"name":"본죽 호계사거리점","tel":"031-429-6242","addr":"경기도 안양시 동안구 호계동 959-19번지","indutype":"일반휴게음식 - 일반한식","category":"restaurant"}]},{"lat":"37.380862985","long":"126.95917494","imageIndex":4,"items":[{"name":"볼트피자(평촌본점)","tel":"031-384-4220","addr":"경기도 안양시 동안구 호계동 1072-14번지","indutype":"일반휴게음식 - 서양음식","category":"restaurant"}]},{"lat":"37.390556234","long":"126.95497985","imageIndex":4,"items":[{"name":"봄카페","tel":"070-8572-4355","addr":"경기도 안양시 동안구 호계동 1048-1번지","indutype":"일반휴게음식 - 서양음식","category":"restaurant"}]},{"lat":"37.382530079","long":"126.95978369","imageIndex":4,"items":[{"name":"봉구스밥버거","tel":"070-4240-7967","addr":"경기도 안양시 동안구 호계동 1065-5번지","indutype":"일반휴게음식 - 스넥","category":"restaurant"},{"name":"써브웨이 평촌학원가점","tel":"031-385-5027","addr":"경기도 안양시 동안구 호계동 1065-5번지","indutype":"일반휴게음식 - 일반한식","category":"restaurant"},{"name":"자가제빵 선명희피자 평촌점","tel":"031-387-5825","addr":"경기도 안양시 동안구 호계동 1065-5번지","indutype":"일반휴게음식 - 서양음식","category":"restaurant"},{"name":"지지고평촌학원가점","tel":"031-383-6627","addr":"경기도 안양시 동안구 호계동 1065-5번지","indutype":"일반휴게음식 - 일반한식","category":"restaurant"}]},{"lat":"37.388363648","long":"126.94778824","imageIndex":4,"items":[{"name":"부대의전설(안양본점)","tel":"031-477-7787","addr":"경기도 안양시 동안구 호계동 904번지","indutype":"일반휴게음식 - 일반한식","category":"restaurant"},{"name":"중독 맛집","tel":"031-427-5878","addr":"경기도 안양시 동안구 호계동 904번지","indutype":"일반휴게음식 - 일반한식","category":"restaurant"},{"name":"호프광장","tel":"031-454-0859","addr":"경기도 안양시 동안구 호계동 904번지","indutype":"일반휴게음식 - 주점","category":"restaurant"}]},{"lat":"37.370780306","long":"126.95823248","imageIndex":4,"items":[{"name":"북앤카페","tel":"031-8045-4984","addr":"경기도 안양시 동안구 호계동 1003-7번지","indutype":"일반휴게음식 - 서양음식","category":"restaurant"}]},{"lat":"37.382863167","long":"126.95900441","imageIndex":4,"items":[{"name":"불장군숯불바베큐치킨(평촌점)","tel":"031-388-3366","addr":"경기도 안양시 동안구 호계동 1064번지","indutype":"일반휴게음식 - 주점","category":"restaurant"}]},{"lat":"37.372303513","long":"126.95956375","imageIndex":4,"items":[{"name":"브랜다커피","tel":"031-427-7435","addr":"경기도 안양시 동안구 호계동 997-3번지","indutype":"일반휴게음식 - 서양음식","category":"restaurant"}]},{"lat":"37.376637746","long":"126.96056609","imageIndex":4,"items":[{"name":"브로스","tel":"031-473-2280","addr":"경기도 안양시 동안구 호계동 1095번지","indutype":"일반휴게음식 - 서양음식","category":"restaurant"}]},{"lat":"37.381331714","long":"126.95972792","imageIndex":4,"items":[{"name":"블랙레빗","tel":"031-383-3316","addr":"경기도 안양시 동안구 호계동 1072-5번지","indutype":"일반휴게음식 - 일반한식","category":"restaurant"},{"name":"코인래빗","tel":"","addr":"경기도 안양시 동안구 호계동 1072-5번지","indutype":"일반휴게음식 - 서양음식","category":"restaurant"}]},{"lat":"37.367895576","long":"126.9544524","imageIndex":4,"items":[{"name":"블랙콩(호계구사거리)","tel":"031-427-3289","addr":"경기도 안양시 동안구 호계동 721-10번지","indutype":"일반휴게음식 - 일반한식","category":"restaurant"},{"name":"블랙콩(호계구사거리점)","tel":"070-2575-8585","addr":"경기도 안양시 동안구 호계동 721-10번지","indutype":"일반휴게음식 - 서양음식","category":"restaurant"}]},{"lat":"37.371140402","long":"126.95741943","imageIndex":4,"items":[{"name":"블랙콩(호계신사거리점)","tel":"031-427-3898","addr":"경기도 안양시 동안구 호계동 959-6번지","indutype":"일반휴게음식 - 일반한식","category":"restaurant"},{"name":"호남부페","tel":"031-454-7500","addr":"경기도 안양시 동안구 호계동 959-6번지","indutype":"일반휴게음식 - 일반한식","category":"restaurant"}]},{"lat":"37.385057513","long":"126.94903272","imageIndex":4,"items":[{"name":"블랙콩(호계점)","tel":"070-6528-6868","addr":"경기도 안양시 동안구 호계동 919-15번지","indutype":"일반휴게음식 - 서양음식","category":"restaurant"}]},{"lat":"37.383416837","long":"126.94722729","imageIndex":4,"items":[{"name":"블레스카페","tel":"031-427-3394","addr":"경기도 안양시 동안구 호계동 921-1번지","indutype":"일반휴게음식 - 서양음식","category":"restaurant"}]},{"lat":"37.374754667","long":"126.96066876","imageIndex":4,"items":[{"name":"비비큐치킨","tel":"031-458-7221","addr":"경기도 안양시 동안구 호계동 990-4번지","indutype":"일반휴게음식 - 스넥","category":"restaurant"}]},{"lat":"37.38100454","long":"126.95261484","imageIndex":4,"items":[{"name":"비비큐호계2점","tel":"031-456-9992","addr":"경기도 안양시 동안구 호계동 933-25번지","indutype":"일반휴게음식 - 스넥","category":"restaurant"}]},{"lat":"37.377394454","long":"126.9601705","imageIndex":4,"items":[{"name":"비에이치씨 (호계점)","tel":"031-427-5681","addr":"경기도 안양시 동안구 호계동 1086-3번지","indutype":"일반휴게음식 - 스넥","category":"restaurant"}]},{"lat":"37.382282338","long":"126.94889921","imageIndex":4,"items":[{"name":"비에이치씨치킨","tel":"031-383-9277","addr":"경기도 안양시 동안구 호계동 924-26번지","indutype":"일반휴게음식 - 주점","category":"restaurant"}]},{"lat":"37.381445968","long":"126.95245647","imageIndex":4,"items":[{"name":"사라답게","tel":"","addr":"경기도 안양시 동안구 호계동 926-21번지","indutype":"일반휴게음식 - 서양음식","category":"restaurant"}]},{"lat":"37.36795013","long":"126.95567157","imageIndex":4,"items":[{"name":"산정식당","tel":"031-455-7286","addr":"경기도 안양시 동안구 호계동 971-14번지","indutype":"일반휴게음식 - 일반한식","category":"restaurant"},{"name":"엑스포식당","tel":"","addr":"경기도 안양시 동안구 호계동 971-14번지","indutype":"일반휴게음식 - 일반한식","category":"restaurant"}]},{"lat":"37.373114333","long":"126.95931491","imageIndex":4,"items":[{"name":"산채마당","tel":"031-453-7169","addr":"경기도 안양시 동안구 호계동 994-22번지","indutype":"일반휴게음식 - 일반한식","category":"restaurant"}]},{"lat":"37.391195703","long":"126.95436965","imageIndex":4,"items":[{"name":"삼육오족발/(주)엠지푸드(MGFOOD Inc.)","tel":"031-383-0998","addr":"경기도 안양시 동안구 호계동 1044-4번지","indutype":"일반휴게음식 - 일반한식","category":"restaurant"},{"name":"이화숯불갈비","tel":"031-383-4889","addr":"경기도 안양시 동안구 호계동 1044-4번지","indutype":"일반휴게음식 - 일반한식","category":"restaurant"},{"name":"타코비 범계점","tel":"","addr":"경기도 안양시 동안구 호계동 1044-4번지","indutype":"일반휴게음식 - 일식·회집","category":"restaurant"},{"name":"투디어2","tel":"070-4610-2746","addr":"경기도 안양시 동안구 호계동 1044-4번지","indutype":"일반휴게음식 - 주점","category":"restaurant"},{"name":"홍가네영양센타(범계점)","tel":"031-385-8788","addr":"경기도 안양시 동안구 호계동 1044-4번지","indutype":"일반휴게음식 - 일반한식","category":"restaurant"}]},{"lat":"37.375304512","long":"126.96131198","imageIndex":4,"items":[{"name":"삼촌네카페","tel":"070-4021-3371","addr":"경기도 안양시 동안구 호계동 1102-4번지","indutype":"일반휴게음식 - 서양음식","category":"restaurant"}]},{"lat":"37.367859752","long":"126.954983","imageIndex":4,"items":[{"name":"새참분식","tel":"031-454-9504","addr":"경기도 안양시 동안구 호계동 971-7번지","indutype":"일반휴게음식 - 스넥","category":"restaurant"},{"name":"호프샵","tel":"","addr":"경기도 안양시 동안구 호계동 971-7번지","indutype":"일반휴게음식 - 주점","category":"restaurant"}]},{"lat":"37.372474325","long":"126.9585363","imageIndex":4,"items":[{"name":"샘커피호프","tel":"031-477-2018","addr":"경기도 안양시 동안구 호계동 995-6번지","indutype":"일반휴게음식 - 주점","category":"restaurant"},{"name":"영양왕족발","tel":"031-427-0899","addr":"경기도 안양시 동안구 호계동 995-6번지","indutype":"일반휴게음식 - 일반한식","category":"restaurant"}]},{"lat":"37.376005676","long":"126.95691973","imageIndex":4,"items":[{"name":"생방송","tel":"031-456-9418","addr":"경기도 안양시 동안구 호계동 976-8번지","indutype":"일반휴게음식 - 주점","category":"restaurant"},{"name":"카멜롯","tel":"","addr":"경기도 안양시 동안구 호계동 976-8번지","indutype":"일반휴게음식 - 서양음식","category":"restaurant"}]},{"lat":"37.375032679","long":"126.9571687","imageIndex":4,"items":[{"name":"생활커피","tel":"031-458-7789","addr":"경기도 안양시 동안구 호계동 985-5번지","indutype":"일반휴게음식 - 서양음식","category":"restaurant"}]},{"lat":"37.385580833","long":"126.95066963","imageIndex":4,"items":[{"name":"석원숯불갈비","tel":"031-458-2619","addr":"경기도 안양시 동안구 호계동 918-18번지","indutype":"일반휴게음식 - 일반한식","category":"restaurant"}]},{"lat":"37.368336751","long":"126.95367317","imageIndex":4,"items":[{"name":"선굼터(호계점)","tel":"031-429-0999","addr":"경기도 안양시 동안구 호계동 669-11번지","indutype":"일반휴게음식 - 일반한식","category":"restaurant"}]},{"lat":"37.381832544","long":"126.95048028","imageIndex":4,"items":[{"name":"선달님홍탁","tel":"031-455-5611","addr":"경기도 안양시 동안구 호계동 928번지","indutype":"일반휴게음식 - 일반한식","category":"restaurant"}]},{"lat":"37.371970381","long":"126.96023003","imageIndex":4,"items":[{"name":"성은","tel":"031-453-9618","addr":"경기도 안양시 동안구 호계동 998-15번지","indutype":"일반휴게음식 - 스넥","category":"restaurant"}]},{"lat":"37.385192869","long":"126.94948429","imageIndex":4,"items":[{"name":"세븐수타피자호계점","tel":"031-457-0090","addr":"경기도 안양시 동안구 호계동 918-50번지","indutype":"일반휴게음식 - 서양음식","category":"restaurant"}]},{"lat":"37.378505447","long":"126.96861519","imageIndex":4,"items":[{"name":"소담치킨","tel":"031-424-5196","addr":"경기도 안양시 동안구 호계동 1116번지","indutype":"일반휴게음식 - 스넥","category":"restaurant"},{"name":"스프링","tel":"031-429-0220","addr":"경기도 안양시 동안구 호계동 1116번지","indutype":"일반휴게음식 - 서양음식","category":"restaurant"},{"name":"처갓집양념치킨 샘마을점","tel":"031-453-9992","addr":"경기도 안양시 동안구 호계동 1116번지","indutype":"일반휴게음식 - 스넥","category":"restaurant"},{"name":"한마당","tel":"031-455-0780","addr":"경기도 안양시 동안구 호계동 1116번지","indutype":"일반휴게음식 - 일반한식","category":"restaurant"}]},{"lat":"37.387552266","long":"126.94678385","imageIndex":4,"items":[{"name":"소문난밥상참맛골","tel":"031-451-5588","addr":"경기도 안양시 동안구 호계동 905-16번지","indutype":"일반휴게음식 - 일반한식","category":"restaurant"}]},{"lat":"37.370281726","long":"126.95083829","imageIndex":4,"items":[{"name":"속초아바이 큰집순대국","tel":"031-427-3200","addr":"경기도 안양시 동안구 호계동 1029-6번지","indutype":"일반휴게음식 - 일반한식","category":"restaurant"},{"name":"장금이한식뷔페","tel":"031-455-9777","addr":"경기도 안양시 동안구 호계동 1029-6번지","indutype":"일반휴게음식 - 일반한식","category":"restaurant"},{"name":"프린스","tel":"031-451-1017","addr":"경기도 안양시 동안구 호계동 1029-6번지","indutype":"일반휴게음식 - 서양음식","category":"restaurant"}]},{"lat":"37.368778318","long":"126.95384222","imageIndex":4,"items":[{"name":"수가스테이크돼지갈비 (본점)","tel":"031-427-9907","addr":"경기도 안양시 동안구 호계동 966-23번지","indutype":"일반휴게음식 - 일반한식","category":"restaurant"},{"name":"쌍둥이네소금구이","tel":"031-457-8144","addr":"경기도 안양시 동안구 호계동 966-23번지","indutype":"일반휴게음식 - 일반한식","category":"restaurant"}]},{"lat":"37.382502867","long":"126.9592869","imageIndex":4,"items":[{"name":"수원왕갈비","tel":"031-385-9655","addr":"경기도 안양시 동안구 호계동 1064-2번지","indutype":"일반휴게음식 - 일반한식","category":"restaurant"}]},{"lat":"37.371339359","long":"126.95937239","imageIndex":4,"items":[{"name":"수정호프","tel":"031-454-3003","addr":"경기도 안양시 동안구 호계동 1002-12번지","indutype":"일반휴게음식 - 주점","category":"restaurant"}]},{"lat":"37.36191647","long":"126.9643107","imageIndex":4,"items":[{"name":"술시","tel":"031-429-0066","addr":"경기도 안양시 동안구 호계동 859-21번지","indutype":"일반휴게음식 - 주점","category":"restaurant"}]},{"lat":"37.380997939","long":"126.95864419","imageIndex":4,"items":[{"name":"숯겹살집","tel":"031-387-5848","addr":"경기도 안양시 동안구 호계동 1071번지","indutype":"일반휴게음식 - 일반한식","category":"restaurant"}]},{"lat":"37.374528539","long":"126.95828671","imageIndex":4,"items":[{"name":"쉐프앤퐁","tel":"02-2619-8429","addr":"경기도 안양시 동안구 호계동 987-23번지","indutype":"일반휴게음식 - 일반한식","category":"restaurant"}]},{"lat":"37.373834632","long":"126.95794843","imageIndex":4,"items":[{"name":"쉐프의김밥","tel":"031-429-6560","addr":"경기도 안양시 동안구 호계동 986-27번지","indutype":"일반휴게음식 - 스넥","category":"restaurant"}]},{"lat":"37.383282023","long":"126.94795003","imageIndex":4,"items":[{"name":"스낵킹","tel":"","addr":"경기도 안양시 동안구 호계동 921-2번지","indutype":"일반휴게음식 - 서양음식","category":"restaurant"}]},{"lat":"37.367806103","long":"126.95601033","imageIndex":4,"items":[{"name":"승희네밥집","tel":"031-427-1270","addr":"경기도 안양시 동안구 호계동 971-27번지","indutype":"일반휴게음식 - 일반한식","category":"restaurant"}]},{"lat":"37.381142307","long":"126.95919736","imageIndex":4,"items":[{"name":"시.팔.칼국수","tel":"031-424-6154","addr":"경기도 안양시 동안구 호계동 1072-1번지","indutype":"일반휴게음식 - 일반한식","category":"restaurant"},{"name":"피자에땅평촌점","tel":"031-385-0080","addr":"경기도 안양시 동안구 호계동 1072-1번지","indutype":"일반휴게음식 - 서양음식","category":"restaurant"}]},{"lat":"37.386912258","long":"126.94617457","imageIndex":4,"items":[{"name":"시골집푸드","tel":"031-451-0124","addr":"경기도 안양시 동안구 호계동 906번지","indutype":"일반휴게음식 - 일반한식","category":"restaurant"}]},{"lat":"37.38078181","long":"126.95894917","imageIndex":4,"items":[{"name":"시그니쳐로스터스","tel":"070-7783-8904","addr":"경기도 안양시 동안구 호계동 1071-3번지","indutype":"일반휴게음식 - 서양음식","category":"restaurant"}]},{"lat":"37.388030063","long":"126.9473368","imageIndex":4,"items":[{"name":"시애틀","tel":"","addr":"경기도 안양시 동안구 호계동 905-1번지","indutype":"일반휴게음식 - 서양음식","category":"restaurant"}]},{"lat":"37.374447311","long":"126.95792548","imageIndex":4,"items":[{"name":"시장콩나물국밥","tel":"031-457-3790","addr":"경기도 안양시 동안구 호계동","indutype":"일반휴게음식 - 스넥","category":"restaurant"}]},{"lat":"37.364340109","long":"126.96403854","imageIndex":4,"items":[{"name":"시장피자","tel":"031-427-2470","addr":"경기도 안양시 동안구 호계동 839-3번지","indutype":"일반휴게음식 - 서양음식","category":"restaurant"},{"name":"커피볶는자유","tel":"050-5306-1472","addr":"경기도 안양시 동안구 호계동 839-3번지","indutype":"일반휴게음식 - 서양음식","category":"restaurant"}]},{"lat":"37.36272707","long":"126.96336208","imageIndex":4,"items":[{"name":"신가네감자탕 & 삼겹살","tel":"031-453-7324","addr":"경기도 안양시 동안구 호계동 854-2번지","indutype":"일반휴게음식 - 일반한식","category":"restaurant"}]},{"lat":"37.373366462","long":"126.95889704","imageIndex":4,"items":[{"name":"신림순대국","tel":"031-451-7769","addr":"경기도 안양시 동안구 호계동 994-16번지","indutype":"일반휴게음식 - 일반한식","category":"restaurant"}]},{"lat":"37.377664708","long":"126.96003487","imageIndex":4,"items":[{"name":"신바람명태","tel":"031-458-2100","addr":"경기도 안양시 동안구 호계동 1086-1번지","indutype":"일반휴게음식 - 일반한식","category":"restaurant"}]},{"lat":"37.385915015","long":"126.95253252","imageIndex":4,"items":[{"name":"신통치킨","tel":"031-384-2960","addr":"경기도 안양시 동안구 호계동 1053-3번지","indutype":"일반휴게음식 - 스넥","category":"restaurant"}]},{"lat":"37.390275549","long":"126.95170526","imageIndex":4,"items":[{"name":"신포우리만두 범계점","tel":"031-386-7501","addr":"경기도 안양시 동안구 호계동 1045번지","indutype":"일반휴게음식 - 일반한식","category":"restaurant"}]},{"lat":"37.364862723","long":"126.96411729","imageIndex":4,"items":[{"name":"씨비나인라운지","tel":"031-473-3880","addr":"경기도 안양시 동안구 호계동 829-17번지","indutype":"일반휴게음식 - 서양음식","category":"restaurant"}]},{"lat":"37.380337744","long":"126.95250238","imageIndex":4,"items":[{"name":"아리랑","tel":"031-427-3336","addr":"경기도 안양시 동안구 호계동 932-3번지 안양호계동세창짜임아파트","indutype":"일반휴게음식 - 일반한식","category":"restaurant"}]},{"lat":"37.374672513","long":"126.95778987","imageIndex":4,"items":[{"name":"아이미슈","tel":"","addr":"경기도 안양시 동안구 호계동 986-37번지","indutype":"일반휴게음식 - 서양음식","category":"restaurant"}]},{"lat":"37.381583956","long":"126.95961487","imageIndex":4,"items":[{"name":"아재순대소녀감자탕","tel":"031-382-2592","addr":"경기도 안양시 동안구 호계동 1066-6번지","indutype":"일반휴게음식 - 일반한식","category":"restaurant"}]},{"lat":"37.370005516","long":"126.95844744","imageIndex":4,"items":[{"name":"아지트모티","tel":"031-225-2300","addr":"경기도 안양시 동안구 호계동 1005-2번지","indutype":"일반휴게음식 - 일반한식","category":"restaurant"}]},{"lat":"37.387862604","long":"126.95595267","imageIndex":4,"items":[{"name":"안녕 오늘","tel":"070-7100-9307","addr":"경기도 안양시 동안구 호계동 1052-5번지 목련우성아파트","indutype":"일반휴게음식 - 일반한식","category":"restaurant"},{"name":"치킨부르스","tel":"031-381-0700","addr":"경기도 안양시 동안구 호계동","indutype":"일반휴게음식 - 주점","category":"restaurant"}]},{"lat":"37.369032414","long":"126.95842543","imageIndex":4,"items":[{"name":"안동장","tel":"031-453-1177","addr":"경기도 안양시 동안구 호계동 1006번지","indutype":"일반휴게음식 - 중국식","category":"restaurant"},{"name":"콩갈아맷돌되비지","tel":"031-452-0027","addr":"경기도 안양시 동안구 호계동 1006번지","indutype":"일반휴게음식 - 일반한식","category":"restaurant"}]},{"lat":"37.382556269","long":"126.95753674","imageIndex":4,"items":[{"name":"안양하다","tel":"","addr":"경기도 안양시 동안구 호계동 1059-1번지","indutype":"일반휴게음식 - 일반한식","category":"restaurant"},{"name":"처갓집양념치킨(평촌2호점)","tel":"031-397-4057","addr":"경기도 안양시 동안구 호계동 1059-1번지","indutype":"일반휴게음식 - 스넥","category":"restaurant"},{"name":"평촌통닭","tel":"031-388-8292","addr":"경기도 안양시 동안구 호계동 1059-1번지","indutype":"일반휴게음식 - 스넥","category":"restaurant"}]},{"lat":"37.387913384","long":"126.948308","imageIndex":4,"items":[{"name":"양계장집아들 범계점","tel":"031-477-1177","addr":"경기도 안양시 동안구 호계동 904-8번지","indutype":"일반휴게음식 - 주점","category":"restaurant"}]},{"lat":"37.391578485","long":"126.94411582","imageIndex":4,"items":[{"name":"양평해장국","tel":"031-342-1313","addr":"경기도 안양시 동안구 호계동 894-2번지","indutype":"일반휴게음식 - 일반한식","category":"restaurant"}]},{"lat":"37.38947385","long":"126.95216879","imageIndex":4,"items":[{"name":"엠클래스컨벤션","tel":"031-476-8081","addr":"경기도 안양시 동안구 호계동","indutype":"일반휴게음식 - 일반한식","category":"restaurant"},{"name":"엠클래스컨벤션","tel":"031-476-8000","addr":"경기도 안양시 동안구 호계동","indutype":"일반휴게음식 - 일반한식","category":"restaurant"},{"name":"오늘도마카롱","tel":"","addr":"경기도 안양시 동안구 호계동 1051번지","indutype":"일반휴게음식 - 서양음식","category":"restaurant"},{"name":"제나스커피","tel":"070-8621-0935","addr":"경기도 안양시 동안구 호계동 1051번지","indutype":"일반휴게음식 - 서양음식","category":"restaurant"}]},{"lat":"37.368779107","long":"126.95578394","imageIndex":4,"items":[{"name":"여기가전집","tel":"031-427-6272","addr":"경기도 안양시 동안구 호계동 967-4번지","indutype":"일반휴게음식 - 일반한식","category":"restaurant"}]},{"lat":"37.38486466","long":"126.9415579","imageIndex":4,"items":[{"name":"영린푸드","tel":"031-451-6282","addr":"경기도 안양시 동안구 호계동 899-6번지","indutype":"일반휴게음식 - 위탁급식업","category":"restaurant"}]},{"lat":"37.362060331","long":"126.9633963","imageIndex":4,"items":[{"name":"영포차","tel":"031-457-7875","addr":"경기도 안양시 동안구 호계동 859-16번지","indutype":"일반휴게음식 - 일반한식","category":"restaurant"}]},{"lat":"37.373782589","long":"126.96361595","imageIndex":4,"items":[{"name":"옛고을","tel":"031-456-1143","addr":"경기도 안양시 동안구 호계동 1107-5번지","indutype":"일반휴게음식 - 일반한식","category":"restaurant"}]},{"lat":"37.36977982","long":"126.95728478","imageIndex":4,"items":[{"name":"옛날육개장(호계점)","tel":"031-427-0728","addr":"경기도 안양시 동안구 호계동 968-20번지","indutype":"일반휴게음식 - 일반한식","category":"restaurant"}]},{"lat":"37.374942717","long":"126.95753003","imageIndex":4,"items":[{"name":"옛날통닭","tel":"","addr":"경기도 안양시 동안구 호계동 985-8번지","indutype":"일반휴게음식 - 스넥","category":"restaurant"}]},{"lat":"37.370527608","long":"126.95714885","imageIndex":4,"items":[{"name":"옛맛","tel":"031-455-0288","addr":"경기도 안양시 동안구 호계동 960번지","indutype":"일반휴게음식 - 일반한식","category":"restaurant"}]},{"lat":"37.382471509","long":"126.94880875","imageIndex":4,"items":[{"name":"오동도산아나고꼼장어숯불구이","tel":"031-427-9275","addr":"경기도 안양시 동안구 호계동 923-31번지","indutype":"일반휴게음식 - 일반한식","category":"restaurant"},{"name":"자매네","tel":"031-427-7245","addr":"경기도 안양시 동안구 호계동 923-31번지","indutype":"일반휴게음식 - 일반한식","category":"restaurant"}]},{"lat":"37.382610394","long":"126.95770607","imageIndex":4,"items":[{"name":"오두막","tel":"031-382-3777","addr":"경기도 안양시 동안구 호계동 1059-2번지","indutype":"일반휴게음식 - 서양음식","category":"restaurant"}]},{"lat":"37.391835553","long":"126.95469673","imageIndex":4,"items":[{"name":"오리지널 시카고피자 범계점","tel":"070-4251-0713","addr":"경기도 안양시 동안구 호계동 1043-1번지","indutype":"일반휴게음식 - 서양음식","category":"restaurant"},{"name":"춘목","tel":"031-385-0852","addr":"경기도 안양시 동안구 호계동 1043-1번지","indutype":"일반휴게음식 - 일식·회집","category":"restaurant"},{"name":"호랑이굴","tel":"031-381-1244","addr":"경기도 안양시 동안구 호계동 1043-1번지","indutype":"일반휴게음식 - 일반한식","category":"restaurant"}]},{"lat":"37.373366285","long":"126.95842287","imageIndex":4,"items":[{"name":"오빠참치","tel":"","addr":"경기도 안양시 동안구 호계동 995-12번지","indutype":"일반휴게음식 - 일반한식","category":"restaurant"}]},{"lat":"37.38171914","long":"126.95970512","imageIndex":4,"items":[{"name":"오징어하우스","tel":"031-386-5755","addr":"경기도 안양시 동안구 호계동 1066-4번지","indutype":"일반휴게음식 - 일반한식","category":"restaurant"}]},{"lat":"37.387138416","long":"126.94809401","imageIndex":4,"items":[{"name":"온천집밥","tel":"031-429-2111","addr":"경기도 안양시 동안구 호계동 915-3번지","indutype":"일반휴게음식 - 일반한식","category":"restaurant"}]},{"lat":"37.361979004","long":"126.96269648","imageIndex":4,"items":[{"name":"용문해장국","tel":"031-345-1452","addr":"경기도 안양시 동안구 호계동 859-13번지","indutype":"일반휴게음식 - 일반한식","category":"restaurant"},{"name":"페리카나치킨","tel":"031-458-8408","addr":"경기도 안양시 동안구 호계동 859-13번지","indutype":"일반휴게음식 - 주점","category":"restaurant"}]},{"lat":"37.387606364","long":"126.94686286","imageIndex":4,"items":[{"name":"용희네","tel":"031-429-6843","addr":"경기도 안양시 동안구 호계동 905-17번지","indutype":"일반휴게음식 - 일반한식","category":"restaurant"}]},{"lat":"37.380581136","long":"126.95278448","imageIndex":4,"items":[{"name":"우리식당","tel":"031-477-7707","addr":"경기도 안양시 동안구 호계동 933-23번지","indutype":"일반휴게음식 - 일반한식","category":"restaurant"}]},{"lat":"37.380142937","long":"126.96128673","imageIndex":4,"items":[{"name":"운(WOON)","tel":"031-452-1245","addr":"경기도 안양시 동안구 호계동 1081번지","indutype":"일반휴게음식 - 일반한식","category":"restaurant"}]},{"lat":"37.368337498","long":"126.95550199","imageIndex":4,"items":[{"name":"원조사또족발","tel":"031-455-9591","addr":"경기도 안양시 동안구 호계동 971번지","indutype":"일반휴게음식 - 일반한식","category":"restaurant"}]},{"lat":"37.373501428","long":"126.95840022","imageIndex":4,"items":[{"name":"원조왕족발","tel":"031-458-8457","addr":"경기도 안양시 동안구 호계동 995-14번지","indutype":"일반휴게음식 - 일반한식","category":"restaurant"}]},{"lat":"37.37283473","long":"126.95853609","imageIndex":4,"items":[{"name":"웰빙맛집","tel":"031-429-2169","addr":"경기도 안양시 동안구 호계동 995-8번지","indutype":"일반휴게음식 - 일반한식","category":"restaurant"},{"name":"카스랑","tel":"031-477-2127","addr":"경기도 안양시 동안구 호계동 995-8번지","indutype":"일반휴게음식 - 일반한식","category":"restaurant"}]},{"lat":"37.373221645","long":"126.9571698","imageIndex":4,"items":[{"name":"웰빙시골우렁쌈밥","tel":"031-456-3431","addr":"경기도 안양시 동안구 호계동 949번지","indutype":"일반휴게음식 - 일반한식","category":"restaurant"}]},{"lat":"37.370834625","long":"126.9589211","imageIndex":4,"items":[{"name":"웰빙호프","tel":"031-455-0010","addr":"경기도 안양시 동안구 호계동 1002-30번지","indutype":"일반휴게음식 - 일반한식","category":"restaurant"}]},{"lat":"37.390419852","long":"126.95203264","imageIndex":4,"items":[{"name":"육쌈냉면","tel":"031-381-6392","addr":"경기도 안양시 동안구 호계동 1045-2번지","indutype":"일반휴게음식 - 일반한식","category":"restaurant"},{"name":"장발장","tel":"031-383-3170","addr":"경기도 안양시 동안구 호계동 1045-2번지","indutype":"일반휴게음식 - 일반한식","category":"restaurant"},{"name":"카페더치즈케익","tel":"031-387-3600","addr":"경기도 안양시 동안구 호계동 1045-2번지","indutype":"일반휴게음식 - 서양음식","category":"restaurant"}]},{"lat":"37.36803099","long":"126.95509578","imageIndex":4,"items":[{"name":"을지로골뱅이","tel":"031-427-3777","addr":"경기도 안양시 동안구 호계동 971-2번지","indutype":"일반휴게음식 - 주점","category":"restaurant"},{"name":"제주돈꼬드리","tel":"031-427-9288","addr":"경기도 안양시 동안구 호계동 971-2번지","indutype":"일반휴게음식 - 일반한식","category":"restaurant"}]},{"lat":"37.371032973","long":"126.95925967","imageIndex":4,"items":[{"name":"이경희마산물꽁","tel":"031-452-1171","addr":"경기도 안양시 동안구 호계동 1002-22번지","indutype":"일반휴게음식 - 일반한식","category":"restaurant"}]},{"lat":"37.367310487","long":"126.95586388","imageIndex":4,"items":[{"name":"이디아커피","tel":"031-477-4567","addr":"경기도 안양시 동안구 호계동 971-20번지","indutype":"일반휴게음식 - 서양음식","category":"restaurant"}]},{"lat":"37.38708128","long":"126.9418158","imageIndex":4,"items":[{"name":"이룸푸드","tel":"031-477-3542","addr":"경기도 안양시 동안구 호계동 898-38번지","indutype":"일반휴게음식 - 일반한식","category":"restaurant"}]},{"lat":"37.367562053","long":"126.95409137","imageIndex":4,"items":[{"name":"이모네식당","tel":"031-429-8267","addr":"경기도 안양시 동안구 호계동 706-4번지","indutype":"일반휴게음식 - 일반한식","category":"restaurant"},{"name":"자매영양탕","tel":"031-451-7059","addr":"경기도 안양시 동안구 호계동 706-4번지","indutype":"일반휴게음식 - 일반한식","category":"restaurant"},{"name":"집밥","tel":"031-477-2882","addr":"경기도 안양시 동안구 호계동 706-4번지","indutype":"일반휴게음식 - 일반한식","category":"restaurant"},{"name":"해맑음포차","tel":"031-455-6969","addr":"경기도 안양시 동안구 호계동 706-4번지","indutype":"일반휴게음식 - 일반한식","category":"restaurant"}]},{"lat":"37.367589635","long":"126.95544601","imageIndex":4,"items":[{"name":"이모네포장마차","tel":"031-451-5323","addr":"경기도 안양시 동안구 호계동 971-16번지","indutype":"일반휴게음식 - 주점","category":"restaurant"},{"name":"장터순대국","tel":"031-427-1017","addr":"경기도 안양시 동안구 호계동 971-16번지","indutype":"일반휴게음식 - 일반한식","category":"restaurant"}]},{"lat":"37.364556304","long":"126.96389168","imageIndex":4,"items":[{"name":"이삭토스트","tel":"031-455-7311","addr":"경기도 안양시 동안구 호계동 829-15번지","indutype":"일반휴게음식 - 스넥","category":"restaurant"}]},{"lat":"37.362528821","long":"126.96328317","imageIndex":4,"items":[{"name":"이왕은돈가","tel":"031-427-7330","addr":"경기도 안양시 동안구 호계동 854-3번지","indutype":"일반휴게음식 - 일반한식","category":"restaurant"}]},{"lat":"37.382976837","long":"126.95050207","imageIndex":4,"items":[{"name":"인동초","tel":"031-805-4959","addr":"경기도 안양시 동안구 호계동 923-34번지","indutype":"일반휴게음식 - 일반한식","category":"restaurant"}]},{"lat":"37.382665202","long":"126.95970458","imageIndex":4,"items":[{"name":"인디고블루","tel":"031-381-7177","addr":"경기도 안양시 동안구 호계동 1065-4번지","indutype":"일반휴게음식 - 서양음식","category":"restaurant"}]},{"lat":"37.367725141","long":"126.95633775","imageIndex":4,"items":[{"name":"인정국물떡볶이","tel":"031-451-5383","addr":"경기도 안양시 동안구 호계동 970-24번지","indutype":"일반휴게음식 - 스넥","category":"restaurant"},{"name":"장백산멧돼지","tel":"031-429-4746","addr":"경기도 안양시 동안구 호계동 970-24번지","indutype":"일반휴게음식 - 갈비전문점","category":"restaurant"}]},{"lat":"37.386580658","long":"126.95000272","imageIndex":4,"items":[{"name":"일등추어탕","tel":"031-427-3003","addr":"경기도 안양시 동안구 호계동 917-2번지","indutype":"일반휴게음식 - 일반한식","category":"restaurant"}]},{"lat":"37.382385042","long":"126.95744651","imageIndex":4,"items":[{"name":"일세레노","tel":"070-8864-3393","addr":"경기도 안양시 동안구 호계동 1059-5번지","indutype":"일반휴게음식 - 서양음식","category":"restaurant"}]},{"lat":"37.377250462","long":"126.96064478","imageIndex":4,"items":[{"name":"일파라디소 (il paradiso)","tel":"","addr":"경기도 안양시 동안구 호계동 1087-6번지","indutype":"일반휴게음식 - 일반한식","category":"restaurant"}]},{"lat":"37.371528551","long":"126.95931583","imageIndex":4,"items":[{"name":"작은 밀라노","tel":"031-342-7941","addr":"경기도 안양시 동안구 호계동 997-24번지","indutype":"일반휴게음식 - 서양음식","category":"restaurant"},{"name":"카츠벤또","tel":"070-8826-3333","addr":"경기도 안양시 동안구 호계동 997-24번지","indutype":"일반휴게음식 - 일식·회집","category":"restaurant"}]},{"lat":"37.382274139","long":"126.9507058","imageIndex":4,"items":[{"name":"잔치하는날(안양시니어클럽)","tel":"031-455-0558","addr":"경기도 안양시 동안구 호계동 925-25번지","indutype":"일반휴게음식 - 일반한식","category":"restaurant"}]},{"lat":"37.388246757","long":"126.94830775","imageIndex":4,"items":[{"name":"전국낙지자랑(안양점)","tel":"031-427-0113","addr":"경기도 안양시 동안구 호계동 904-5번지","indutype":"일반휴게음식 - 일반한식","category":"restaurant"}]},{"lat":"37.365860582","long":"126.95772741","imageIndex":4,"items":[{"name":"전주명가콩나물국밥(안양호계점)","tel":"031-477-4227","addr":"경기도 안양시 동안구 호계동 975-3번지 안양대우디오슈페리움","indutype":"일반휴게음식 - 일반한식","category":"restaurant"}]},{"lat":"37.377421626","long":"126.96056565","imageIndex":4,"items":[{"name":"전주식당","tel":"031-457-9981","addr":"경기도 안양시 동안구 호계동 1087-5번지","indutype":"일반휴게음식 - 일반한식","category":"restaurant"}]},{"lat":"37.372113443","long":"126.95728337","imageIndex":4,"items":[{"name":"정읍뷔페식당","tel":"031-429-0365","addr":"경기도 안양시 동안구 호계동 959-1번지","indutype":"일반휴게음식 - 일반한식","category":"restaurant"}]},{"lat":"37.373086462","long":"126.95709085","imageIndex":4,"items":[{"name":"정일품","tel":"031-455-3400","addr":"경기도 안양시 동안구 호계동 949-1번지","indutype":"일반휴게음식 - 일반한식","category":"restaurant"}]},{"lat":"37.379941618","long":"126.95325912","imageIndex":4,"items":[{"name":"제니키친","tel":"031-421-8440","addr":"경기도 안양시 동안구 호계동 934번지","indutype":"일반휴게음식 - 스넥","category":"restaurant"}]},{"lat":"37.379635298","long":"126.95331578","imageIndex":4,"items":[{"name":"제일분식","tel":"031-454-4823","addr":"경기도 안양시 동안구 호계동 934-6번지","indutype":"일반휴게음식 - 일반한식","category":"restaurant"}]},{"lat":"37.372365652","long":"126.95709129","imageIndex":4,"items":[{"name":"제일식당","tel":"031-455-5551","addr":"경기도 안양시 동안구 호계동 949-16번지","indutype":"일반휴게음식 - 일반한식","category":"restaurant"}]},{"lat":"37.369227357","long":"126.95042132","imageIndex":4,"items":[{"name":"조은식당","tel":"031-689-8890","addr":"경기도 안양시 동안구 호계동 1029-8번지","indutype":"일반휴게음식 - 일반한식","category":"restaurant"}]},{"lat":"37.37547421","long":"126.95725875","imageIndex":4,"items":[{"name":"조은푸드","tel":"031-477-5004","addr":"경기도 안양시 동안구 호계동 985-20번지","indutype":"일반휴게음식 - 위탁급식업","category":"restaurant"}]},{"lat":"37.371915111","long":"126.95700125","imageIndex":4,"items":[{"name":"주식회사 마더","tel":"031-427-0142","addr":"경기도 안양시 동안구 호계동 959-4번지","indutype":"일반휴게음식 - 일반한식","category":"restaurant"}]},{"lat":"37.372474573","long":"126.95920239","imageIndex":4,"items":[{"name":"주식회사 오안","tel":"","addr":"경기도 안양시 동안구 호계동 997번지 청도아파트","indutype":"일반휴게음식 - 일반한식","category":"restaurant"}]},{"lat":"37.389579275","long":"126.94622902","imageIndex":4,"items":[{"name":"주식회사 프레쉬웰푸드","tel":"031-427-7010","addr":"경기도 안양시 동안구 호계동 903-16번지","indutype":"일반휴게음식 - 위탁급식업","category":"restaurant"}]},{"lat":"37.388390778","long":"126.94800277","imageIndex":4,"items":[{"name":"중독","tel":"031-456-0075","addr":"경기도 안양시 동안구 호계동 904-1번지","indutype":"일반휴게음식 - 일반한식","category":"restaurant"}]},{"lat":"37.373054728","long":"126.94623017","imageIndex":4,"items":[{"name":"중앙푸드","tel":"031-427-3702","addr":"경기도 안양시 동안구 호계동 1026-9번지","indutype":"일반휴게음식 - 일반한식","category":"restaurant"}]},{"lat":"37.371636764","long":"126.95956414","imageIndex":4,"items":[{"name":"지성식당","tel":"031-477-4124","addr":"경기도 안양시 동안구 호계동 997-22번지","indutype":"일반휴게음식 - 일반한식","category":"restaurant"}]},{"lat":"37.381304753","long":"126.95991988","imageIndex":4,"items":[{"name":"지짐이","tel":"031-386-3664","addr":"경기도 안양시 동안구 호계동 1072-7번지","indutype":"일반휴게음식 - 일반한식","category":"restaurant"},{"name":"천풍","tel":"031-476-5454","addr":"경기도 안양시 동안구 호계동","indutype":"일반휴게음식 - 중국식","category":"restaurant"}]},{"lat":"37.36619387","long":"126.95750143","imageIndex":4,"items":[{"name":"진성관","tel":"031-346-9090","addr":"경기도 안양시 동안구 호계동 975-2번지","indutype":"일반휴게음식 - 일반한식","category":"restaurant"}]},{"lat":"37.37558357","long":"126.96058926","imageIndex":4,"items":[{"name":"집밥","tel":"031-429-3759","addr":"경기도 안양시 동안구 호계동 1103-9번지","indutype":"일반휴게음식 - 일반한식","category":"restaurant"}]},{"lat":"37.368364071","long":"126.95437307","imageIndex":4,"items":[{"name":"집으로배달돼지","tel":"031-429-0166","addr":"경기도 안양시 동안구 호계동 966-26번지","indutype":"일반휴게음식 - 일반한식","category":"restaurant"},{"name":"춘천명물닭갈비","tel":"","addr":"경기도 안양시 동안구 호계동 966-26번지","indutype":"일반휴게음식 - 일반한식","category":"restaurant"}]},{"lat":"37.367976552","long":"126.95417012","imageIndex":4,"items":[{"name":"참고기","tel":"031-427-9230","addr":"경기도 안양시 동안구 호계동 705-7번지","indutype":"일반휴게음식 - 일반한식","category":"restaurant"}]},{"lat":"37.38511119","long":"126.94819711","imageIndex":4,"items":[{"name":"처갓집양념치킨 호계2호점","tel":"031-457-1288","addr":"경기도 안양시 동안구 호계동 912-2번지","indutype":"일반휴게음식 - 일반한식","category":"restaurant"}]},{"lat":"37.38775142","long":"126.94878237","imageIndex":4,"items":[{"name":"천년민물장어","tel":"031-427-6843","addr":"경기도 안양시 동안구 호계동 916번지","indutype":"일반휴게음식 - 일반한식","category":"restaurant"}]},{"lat":"37.378392226","long":"126.95409564","imageIndex":4,"items":[{"name":"천사","tel":"070-4696-7526","addr":"경기도 안양시 동안구 호계동 937-7번지","indutype":"일반휴게음식 - 일반한식","category":"restaurant"}]},{"lat":"37.373780885","long":"126.9587839","imageIndex":4,"items":[{"name":"천하대만족(호계점)","tel":"031-429-7737","addr":"경기도 안양시 동안구 호계동 994-2번지","indutype":"일반휴게음식 - 일반한식","category":"restaurant"}]},{"lat":"37.391448257","long":"126.95503575","imageIndex":4,"items":[{"name":"철든놈범계점","tel":"031-388-9255","addr":"경기도 안양시 동안구 호계동 1044-8번지","indutype":"일반휴게음식 - 일반한식","category":"restaurant"}]},{"lat":"37.373248995","long":"126.95800522","imageIndex":4,"items":[{"name":"청목","tel":"031-456-3109","addr":"경기도 안양시 동안구 호계동 995-1번지","indutype":"일반휴게음식 - 일반한식","category":"restaurant"}]},{"lat":"37.376501007","long":"126.95634362","imageIndex":4,"items":[{"name":"청진동해장국","tel":"031-429-3113","addr":"경기도 안양시 동안구 호계동 976-10번지","indutype":"일반휴게음식 - 일반한식","category":"restaurant"}]},{"lat":"37.369915089","long":"126.95758951","imageIndex":4,"items":[{"name":"청진동해장국","tel":"031-429-8939","addr":"경기도 안양시 동안구 호계동 968-2번지","indutype":"일반휴게음식 - 일반한식","category":"restaurant"}]},{"lat":"37.362006187","long":"126.96314799","imageIndex":4,"items":[{"name":"청춘닭갈비","tel":"031-429-3776","addr":"경기도 안양시 동안구 호계동 859-15번지","indutype":"일반휴게음식 - 일반한식","category":"restaurant"},{"name":"춘하추동","tel":"031-456-9251","addr":"경기도 안양시 동안구 호계동 859-15번지","indutype":"일반휴게음식 - 일반한식","category":"restaurant"}]},{"lat":"37.372365609","long":"126.95697839","imageIndex":4,"items":[{"name":"체스터후라이드치킨","tel":"031-477-0079","addr":"경기도 안양시 동안구 호계동 949-15번지","indutype":"일반휴게음식 - 스넥","category":"restaurant"}]},{"lat":"37.378611265","long":"126.96142306","imageIndex":4,"items":[{"name":"첼로","tel":"031-454-3322","addr":"경기도 안양시 동안구 호계동 1092번지","indutype":"일반휴게음식 - 일반한식","category":"restaurant"},{"name":"첼로","tel":"031-452-3177","addr":"경기도 안양시 동안구 호계동 1092번지","indutype":"일반휴게음식 - 서양음식","category":"restaurant"}]},{"lat":"37.381052063","long":"126.95881352","imageIndex":4,"items":[{"name":"초가집","tel":"031-385-2446","addr":"경기도 안양시 동안구 호계동 1071-1번지","indutype":"일반휴게음식 - 일반한식","category":"restaurant"}]},{"lat":"37.385336085","long":"126.94742912","imageIndex":4,"items":[{"name":"초대석호프","tel":"031-427-9406","addr":"경기도 안양시 동안구 호계동 912번지","indutype":"일반휴게음식 - 주점","category":"restaurant"}]},{"lat":"37.377997881","long":"126.95948144","imageIndex":4,"items":[{"name":"최영미자매기임밥","tel":"031-459-4660","addr":"경기도 안양시 동안구 호계동 1084-1번지","indutype":"일반휴게음식 - 일반한식","category":"restaurant"},{"name":"호계갈산동네네치킨","tel":"031-457-4479","addr":"경기도 안양시 동안구 호계동 1084-1번지","indutype":"일반휴게음식 - 주점","category":"restaurant"}]},{"lat":"37.382165893","long":"126.95042359","imageIndex":4,"items":[{"name":"치어스호계2동점","tel":"031-427-5866","addr":"경기도 안양시 동안구 호계동 924-10번지","indutype":"일반휴게음식 - 서양음식","category":"restaurant"}]},{"lat":"37.371275923","long":"126.95839024","imageIndex":4,"items":[{"name":"치킨돌","tel":"031-427-3315","addr":"경기도 안양시 동안구 호계동 996-10번지","indutype":"일반휴게음식 - 일반한식","category":"restaurant"},{"name":"화이팅","tel":"031-455-4220","addr":"경기도 안양시 동안구 호계동 996-10번지","indutype":"일반휴게음식 - 일반한식","category":"restaurant"}]},{"lat":"37.364673466","long":"126.96398193","imageIndex":4,"items":[{"name":"치킨맴버","tel":"031-427-0801","addr":"경기도 안양시 동안구 호계동 829-9번지","indutype":"일반휴게음식 - 일반한식","category":"restaurant"}]},{"lat":"37.38197137","long":"126.95955819","imageIndex":4,"items":[{"name":"카카오마루","tel":"070-8874-8840","addr":"경기도 안양시 동안구 호계동 1066-2번지","indutype":"일반휴게음식 - 서양음식","category":"restaurant"}]},{"lat":"37.373888765","long":"126.95814032","imageIndex":4,"items":[{"name":"카페 리휴","tel":"031-452-9438","addr":"경기도 안양시 동안구 호계동 986-26번지","indutype":"일반휴게음식 - 서양음식","category":"restaurant"}]},{"lat":"37.366034052","long":"126.96415055","imageIndex":4,"items":[{"name":"카페 봄씨","tel":"031-343-5858","addr":"경기도 안양시 동안구 호계동 822번지","indutype":"일반휴게음식 - 서양음식","category":"restaurant"}]},{"lat":"37.381087926","long":"126.95833928","imageIndex":4,"items":[{"name":"카페멀멧(Cafe Murmet)","tel":"","addr":"경기도 안양시 동안구 호계동 1070-1번지","indutype":"일반휴게음식 - 서양음식","category":"restaurant"}]},{"lat":"37.385274021","long":"126.94961973","imageIndex":4,"items":[{"name":"카페모임","tel":"031-429-3352","addr":"경기도 안양시 동안구 호계동 918번지","indutype":"일반휴게음식 - 서양음식","category":"restaurant"}]},{"lat":"37.380330772","long":"126.95753808","imageIndex":4,"items":[{"name":"카페보통날","tel":"","addr":"경기도 안양시 동안구 호계동 1056-6번지","indutype":"일반휴게음식 - 서양음식","category":"restaurant"},{"name":"페리카나","tel":"031-381-6777","addr":"경기도 안양시 동안구 호계동 1056-6번지 무궁화진흥아파트","indutype":"일반휴게음식 - 주점","category":"restaurant"}]},{"lat":"37.375448654","long":"126.96125545","imageIndex":4,"items":[{"name":"카페에스","tel":"031-429-0923","addr":"경기도 안양시 동안구 호계동 1102-3번지","indutype":"일반휴게음식 - 서양음식","category":"restaurant"}]},{"lat":"37.3809174","long":"126.96014592","imageIndex":4,"items":[{"name":"카페엣홈","tel":"","addr":"경기도 안양시 동안구 호계동 1071-12번지","indutype":"일반휴게음식 - 서양음식","category":"restaurant"}]},{"lat":"37.382808992","long":"126.95869958","imageIndex":4,"items":[{"name":"카페일리터","tel":"031-8013-7380","addr":"경기도 안양시 동안구 호계동 1063-1번지","indutype":"일반휴게음식 - 서양음식","category":"restaurant"}]},{"lat":"37.382917084","long":"126.95862048","imageIndex":4,"items":[{"name":"카페제니퍼","tel":"031-383-2900","addr":"경기도 안양시 동안구 호계동 1063번지","indutype":"일반휴게음식 - 서양음식","category":"restaurant"}]},{"lat":"37.369752877","long":"126.95751058","imageIndex":4,"items":[{"name":"카페좋은날","tel":"050-5306-1472","addr":"경기도 안양시 동안구 호계동 968-3번지","indutype":"일반휴게음식 - 서양음식","category":"restaurant"}]},{"lat":"37.383058501","long":"126.95181179","imageIndex":4,"items":[{"name":"카페초이스","tel":"031-427-6325","addr":"경기도 안양시 동안구 호계동 923-15번지","indutype":"일반휴게음식 - 일반한식","category":"restaurant"}]},{"lat":"37.382274208","long":"126.95086387","imageIndex":4,"items":[{"name":"카페하루","tel":"031-429-9931","addr":"경기도 안양시 동안구 호계동 925-24번지","indutype":"일반휴게음식 - 서양음식","category":"restaurant"},{"name":"한샘종합분식","tel":"031-458-2379","addr":"경기도 안양시 동안구 호계동 925-24번지","indutype":"일반휴게음식 - 일반한식","category":"restaurant"},{"name":"화이팅","tel":"031-459-2598","addr":"경기도 안양시 동안구 호계동 925-24번지","indutype":"일반휴게음식 - 주점","category":"restaurant"}]},{"lat":"37.373195627","long":"126.95986806","imageIndex":4,"items":[{"name":"카페한그루/사회적협동조합세잎크로버","tel":"031-427-2997","addr":"경기도 안양시 동안구 호계동 994-30번지","indutype":"일반휴게음식 - 서양음식","category":"restaurant"}]},{"lat":"37.38236409","long":"126.950367","imageIndex":4,"items":[{"name":"카페호계동","tel":"070-4649-1101","addr":"경기도 안양시 동안구 호계동 924-20번지","indutype":"일반휴게음식 - 서양음식","category":"restaurant"}]},{"lat":"37.382084641","long":"126.95006234","imageIndex":4,"items":[{"name":"커플데이1호점(안양시니어클럽)","tel":"031-455-0551","addr":"경기도 안양시 동안구 호계동 924-9번지","indutype":"일반휴게음식 - 스넥","category":"restaurant"}]},{"lat":"37.382337838","long":"126.95215101","imageIndex":4,"items":[{"name":"커플데이2호점(안양시니어클럽)","tel":"031-455-0558","addr":"경기도 안양시 동안구 호계동 926-1번지","indutype":"일반휴게음식 - 일반한식","category":"restaurant"}]},{"lat":"37.37933642","long":"126.94975942","imageIndex":4,"items":[{"name":"커플데이3호점","tel":"","addr":"경기도 안양시 동안구 호계동 314-3번지","indutype":"일반휴게음식 - 일반한식","category":"restaurant"}]},{"lat":"37.3894174","long":"126.9468728","imageIndex":4,"items":[{"name":"커피스토리","tel":"","addr":"경기도 안양시 동안구 호계동 903-3번지","indutype":"일반휴게음식 - 서양음식","category":"restaurant"}]},{"lat":"37.371033106","long":"126.95962093","imageIndex":4,"items":[{"name":"커피앤디저트","tel":"","addr":"경기도 안양시 동안구 호계동 1002-17번지 호계더카운티","indutype":"일반휴게음식 - 서양음식","category":"restaurant"}]},{"lat":"37.364033709","long":"126.96386937","imageIndex":4,"items":[{"name":"커피에반하다(호계점)","tel":"","addr":"경기도 안양시 동안구 호계동 839-7번지","indutype":"일반휴게음식 - 서양음식","category":"restaurant"}]},{"lat":"37.376697739","long":"126.95269675","imageIndex":4,"items":[{"name":"케리홈치킨","tel":"031-427-9555","addr":"경기도 안양시 동안구 호계동 335-54번지","indutype":"일반휴게음식 - 스넥","category":"restaurant"}]},{"lat":"37.3871919","long":"126.94686316","imageIndex":4,"items":[{"name":"쿠킹","tel":"031-452-4520","addr":"경기도 안양시 동안구 호계동 905-8번지","indutype":"일반휴게음식 - 서양음식","category":"restaurant"}]},{"lat":"37.363446811","long":"126.96028001","imageIndex":4,"items":[{"name":"크리드 푸드","tel":"02-1577-0000","addr":"경기도 안양시 동안구 호계동 804-9번지","indutype":"일반휴게음식 - 서양음식","category":"restaurant"}]},{"lat":"37.372692345","long":"126.96356007","imageIndex":4,"items":[{"name":"크리스펍","tel":"","addr":"경기도 안양시 동안구 호계동 1110-8번지","indutype":"일반휴게음식 - 주점","category":"restaurant"}]},{"lat":"37.386975684","long":"126.94691978","imageIndex":4,"items":[{"name":"키친스토리 맘","tel":"","addr":"경기도 안양시 동안구 호계동 914-20번지","indutype":"일반휴게음식 - 서양음식","category":"restaurant"},{"name":"키친스토리 맘","tel":"","addr":"경기도 안양시 동안구 호계동 914-20번지","indutype":"일반휴게음식 - 서양음식","category":"restaurant"}]},{"lat":"37.372343379","long":"126.94717903","imageIndex":4,"items":[{"name":"타미하우스(엘에스타워점)","tel":"031-427-0211","addr":"경기도 안양시 동안구 호계동 1026-6번지","indutype":"일반휴게음식 - 서양음식","category":"restaurant"}]},{"lat":"37.379333943","long":"126.96714703","imageIndex":4,"items":[{"name":"테아로","tel":"031-477-3826","addr":"경기도 안양시 동안구 호계동 1115번지","indutype":"일반휴게음식 - 일반한식","category":"restaurant"}]},{"lat":"37.388192529","long":"126.94794645","imageIndex":4,"items":[{"name":"토브(tov)","tel":"031-427-4777","addr":"경기도 안양시 동안구 호계동 904-3번지","indutype":"일반휴게음식 - 서양음식","category":"restaurant"},{"name":"호운래양꼬치","tel":"031-427-5118","addr":"경기도 안양시 동안구 호계동 904-3번지","indutype":"일반휴게음식 - 일반한식","category":"restaurant"}]},{"lat":"37.381751352","long":"126.95025452","imageIndex":4,"items":[{"name":"투다리","tel":"031-457-2189","addr":"경기도 안양시 동안구 호계동 928-11번지","indutype":"일반휴게음식 - 칵테일바","category":"restaurant"}]},{"lat":"37.390189833","long":"126.94194879","imageIndex":4,"items":[{"name":"파구스안양감리교회점","tel":"031-453-1119","addr":"경기도 안양시 동안구 호계동 892-3번지","indutype":"일반휴게음식 - 서양음식","category":"restaurant"}]},{"lat":"37.366589533","long":"126.95550309","imageIndex":4,"items":[{"name":"파더스김밥&카페","tel":"031-342-7902","addr":"경기도 안양시 동안구 호계동 713번지 호계아크로리버","indutype":"일반휴게음식 - 스넥","category":"restaurant"},{"name":"펀비어킹","tel":"031-429-4443","addr":"경기도 안양시 동안구 호계동 713번지 호계아크로리버","indutype":"일반휴게음식 - 주점","category":"restaurant"}]},{"lat":"37.381337847","long":"126.95245654","imageIndex":4,"items":[{"name":"파이얌앤커피","tel":"031-347-6210","addr":"경기도 안양시 동안구 호계동 926-34번지","indutype":"일반휴게음식 - 서양음식","category":"restaurant"}]},{"lat":"37.384193475","long":"126.95112225","imageIndex":4,"items":[{"name":"파파셰프(papachef)","tel":"031-427-0885","addr":"경기도 안양시 동안구 호계동 923-5번지 노블오피스텔","indutype":"일반휴게음식 - 일반한식","category":"restaurant"},{"name":"파파셰프(papachef)","tel":"031-427-0885","addr":"경기도 안양시 동안구 호계동 923-5번지 노블오피스텔","indutype":"일반휴게음식 - 일반한식","category":"restaurant"}]},{"lat":"37.371005263","long":"126.95745338","imageIndex":4,"items":[{"name":"파파존스 의왕호계점","tel":"031-427-4343","addr":"경기도 안양시 동안구 호계동 959-14번지","indutype":"일반휴게음식 - 서양음식","category":"restaurant"}]},{"lat":"37.362006103","long":"126.96289965","imageIndex":4,"items":[{"name":"펀비어킹","tel":"031-459-8253","addr":"경기도 안양시 동안구 호계동 859-14번지","indutype":"일반휴게음식 - 주점","category":"restaurant"}]},{"lat":"37.38205205","long":"126.95845162","imageIndex":4,"items":[{"name":"펑키치킨","tel":"031-383-9767","addr":"경기도 안양시 동안구 호계동 1062-4번지","indutype":"일반휴게음식 - 스넥","category":"restaurant"}]},{"lat":"37.388552258","long":"126.9465121","imageIndex":4,"items":[{"name":"페어리우즈(Fairy Woods)","tel":"031-429-4546","addr":"경기도 안양시 동안구 호계동 902-19번지","indutype":"일반휴게음식 - 서양음식","category":"restaurant"}]},{"lat":"37.376086626","long":"126.95655839","imageIndex":4,"items":[{"name":"평촌왕소금구이","tel":"031-454-0552","addr":"경기도 안양시 동안구 호계동 976-5번지","indutype":"일반휴게음식 - 일반한식","category":"restaurant"}]},{"lat":"37.368138928","long":"126.95464415","imageIndex":4,"items":[{"name":"포차","tel":"031-346-7677","addr":"경기도 안양시 동안구 호계동 966-30번지","indutype":"일반휴게음식 - 일반한식","category":"restaurant"},{"name":"헤네시","tel":"031-429-5103","addr":"경기도 안양시 동안구 호계동","indutype":"일반휴게음식 - 주점","category":"restaurant"}]},{"lat":"37.382358663","long":"126.95917407","imageIndex":4,"items":[{"name":"포헤븐(pho Heaven)","tel":"050-4033-0833","addr":"경기도 안양시 동안구 호계동 1064-4번지","indutype":"일반휴게음식 - 일반한식","category":"restaurant"}]},{"lat":"37.381391999","long":"126.95267103","imageIndex":4,"items":[{"name":"푸드의향기","tel":"031-388-1598","addr":"경기도 안양시 동안구 호계동 926-24번지","indutype":"일반휴게음식 - 스넥","category":"restaurant"}]},{"lat":"37.364970852","long":"126.96413981","imageIndex":4,"items":[{"name":"푸드죤(포도원점)","tel":"031-457-1082","addr":"경기도 안양시 동안구 호계동 828-1번지","indutype":"일반휴게음식 - 서양음식","category":"restaurant"}]},{"lat":"37.375061278","long":"126.96142502","imageIndex":4,"items":[{"name":"푸푸하우스(PUPU HOUSE)","tel":"031-429-6363","addr":"경기도 안양시 동안구 호계동 1104-3번지","indutype":"일반휴게음식 - 서양음식","category":"restaurant"}]},{"lat":"37.381475433","long":"126.958531","imageIndex":4,"items":[{"name":"피자알볼로평촌점","tel":"031-383-8495","addr":"경기도 안양시 동안구 호계동 1069-4번지","indutype":"일반휴게음식 - 서양음식","category":"restaurant"}]},{"lat":"37.375556748","long":"126.96117636","imageIndex":4,"items":[{"name":"피자에땅","tel":"031-451-6363","addr":"경기도 안양시 동안구 호계동 1102-2번지","indutype":"일반휴게음식 - 서양음식","category":"restaurant"}]},{"lat":"37.373636546","long":"126.95830982","imageIndex":4,"items":[{"name":"피자캐슬","tel":"031-477-8225","addr":"경기도 안양시 동안구 호계동 995-18번지","indutype":"일반휴게음식 - 서양음식","category":"restaurant"}]},{"lat":"37.382223603","long":"126.95942255","imageIndex":4,"items":[{"name":"필링","tel":"031-386-7080","addr":"경기도 안양시 동안구 호계동 1066번지","indutype":"일반휴게음식 - 주점","category":"restaurant"}]},{"lat":"37.382222904","long":"126.95755952","imageIndex":4,"items":[{"name":"하라","tel":"031-387-1212","addr":"경기도 안양시 동안구 호계동 1060-10번지","indutype":"일반휴게음식 - 서양음식","category":"restaurant"}]},{"lat":"37.378446123","long":"126.95370044","imageIndex":4,"items":[{"name":"하린이네밥상","tel":"031-387-0919","addr":"경기도 안양시 동안구 호계동 936-1번지","indutype":"일반휴게음식 - 스넥","category":"restaurant"}]},{"lat":"37.378223838","long":"126.96144586","imageIndex":4,"items":[{"name":"한맛","tel":"031-459-2959","addr":"경기도 안양시 동안구 호계동 1092-3번지","indutype":"일반휴게음식 - 일반한식","category":"restaurant"}]},{"lat":"37.381970908","long":"126.95831618","imageIndex":4,"items":[{"name":"한송양식당","tel":"031-388-9683","addr":"경기도 안양시 동안구 호계동 1062-5번지","indutype":"일반휴게음식 - 서양음식","category":"restaurant"}]},{"lat":"37.375781813","long":"126.9606456","imageIndex":4,"items":[{"name":"한신냉면","tel":"031-453-9892","addr":"경기도 안양시 동안구 호계동 1103번지","indutype":"일반휴게음식 - 일반한식","category":"restaurant"}]},{"lat":"37.383525233","long":"126.94781436","imageIndex":4,"items":[{"name":"할미손도시락호계점","tel":"031-455-0558","addr":"경기도 안양시 동안구 호계동 921-5번지","indutype":"일반휴게음식 - 일반한식","category":"restaurant"}]},{"lat":"37.389721793","long":"126.94289771","imageIndex":4,"items":[{"name":"항상여기","tel":"02-1234-1234","addr":"경기도 안양시 동안구 호계동 892-9번지","indutype":"일반휴게음식 - 서양음식","category":"restaurant"}]},{"lat":"37.381301782","long":"126.95240011","imageIndex":4,"items":[{"name":"해피데이","tel":"031-429-9279","addr":"경기도 안양시 동안구 호계동 926-22번지","indutype":"일반휴게음식 - 주점","category":"restaurant"}]},{"lat":"37.367949853","long":"126.95498294","imageIndex":4,"items":[{"name":"행복한밥상","tel":"031-429-7188","addr":"경기도 안양시 동안구 호계동 971-6번지","indutype":"일반휴게음식 - 일반한식","category":"restaurant"}]},{"lat":"37.378166857","long":"126.95381352","imageIndex":4,"items":[{"name":"호계공원대교식당","tel":"031-427-4575","addr":"경기도 안양시 동안구 호계동 936-3번지","indutype":"일반휴게음식 - 일반한식","category":"restaurant"}]},{"lat":"37.371303029","long":"126.95859343","imageIndex":4,"items":[{"name":"호계숯불꼼장어","tel":"031-456-7472","addr":"경기도 안양시 동안구 호계동 996-24번지","indutype":"일반휴게음식 - 일반한식","category":"restaurant"}]},{"lat":"37.371969745","long":"126.95850273","imageIndex":4,"items":[{"name":"호계시장활어횟집","tel":"031-452-5433","addr":"경기도 안양시 동안구 호계동 996-17번지","indutype":"일반휴게음식 - 일식·회집","category":"restaurant"}]},{"lat":"37.3725279","long":"126.95726054","imageIndex":4,"items":[{"name":"호계한식뷔페","tel":"","addr":"경기도 안양시 동안구 호계동 949-11번지","indutype":"일반휴게음식 - 일반한식","category":"restaurant"}]},{"lat":"37.377997052","long":"126.9572798","imageIndex":4,"items":[{"name":"호식이두마리치킨(호계점)","tel":"031-477-0199","addr":"경기도 안양시 동안구 호계동 1075번지","indutype":"일반휴게음식 - 스넥","category":"restaurant"}]},{"lat":"37.382782313","long":"126.95964805","imageIndex":4,"items":[{"name":"홍루이젠 평촌학원가점","tel":"","addr":"경기도 안양시 동안구 호계동 1065-3번지","indutype":"일반휴게음식 - 서양음식","category":"restaurant"}]},{"lat":"37.368310042","long":"126.95445213","imageIndex":4,"items":[{"name":"화롯불석쇠구이","tel":"031-477-1933","addr":"경기도 안양시 동안구 호계동 966-27번지","indutype":"일반휴게음식 - 일반한식","category":"restaurant"}]},{"lat":"37.38788607","long":"126.94769825","imageIndex":4,"items":[{"name":"화를품은닭 호계점","tel":"031-453-5592","addr":"경기도 안양시 동안구 호계동 905-14번지","indutype":"일반휴게음식 - 일반한식","category":"restaurant"}]},{"lat":"37.390996807","long":"126.95275497","imageIndex":4,"items":[{"name":"화이트캐슬","tel":"070-7545-8762","addr":"경기도 안양시 동안구 호계동 1041-2번지","indutype":"일반휴게음식 - 일반한식","category":"restaurant"}]},{"lat":"37.381196652","long":"126.9599764","imageIndex":4,"items":[{"name":"화정똥돼지","tel":"031-386-9942","addr":"경기도 안양시 동안구 호계동 1072-8번지","indutype":"일반휴게음식 - 일반한식","category":"restaurant"}]},{"lat":"37.371222244","long":"126.95941761","imageIndex":4,"items":[{"name":"황소숯불한마당","tel":"031-451-1060","addr":"경기도 안양시 동안구 호계동 1002-13번지","indutype":"일반휴게음식 - 일반한식","category":"restaurant"}]},{"lat":"37.368228677","long":"126.95378613","imageIndex":4,"items":[{"name":"훌랄라숯불바베큐","tel":"031-454-8701","addr":"경기도 안양시 동안구 호계동 669-4번지","indutype":"일반휴게음식 - 주점","category":"restaurant"}]},{"lat":"37.371555393","long":"126.95880779","imageIndex":4,"items":[{"name":"훌랄라숯불바베큐","tel":"031-451-9282","addr":"경기도 안양시 동안구 호계동 997-37번지","indutype":"일반휴게음식 - 주점","category":"restaurant"}]},{"lat":"37.381223205","long":"126.95867793","imageIndex":4,"items":[{"name":"흑산도홍탁주막집","tel":"031-386-8909","addr":"경기도 안양시 동안구 호계동 1069-6번지","indutype":"일반휴게음식 - 일반한식","category":"restaurant"}]},{"lat":"37.384634971","long":"126.95112194","imageIndex":4,"items":[{"name":"희다방","tel":"","addr":"경기도 안양시 동안구 호계동 923번지","indutype":"일반휴게음식 - 서양음식","category":"restaurant"}]}]