[{"lat":"37.496578943","long":"127.49309452","imageIndex":13,"items":[{"name":"33헤어","tel":"031-1111-1111","addr":"경기도 양평군 양평읍 공흥리 731-8번지 102호","indutype":"보건위생 - 미용원","category":"beauty"},{"name":"포쉬네일양평점","tel":"031-774-8723","addr":"경기도 양평군 양평읍 공흥리 731-8번지 1층","indutype":"보건위생 - 피부미용실","category":"beauty"}]},{"lat":"37.490529346","long":"127.4983694","imageIndex":13,"items":[{"name":"AT코스메틱","tel":"","addr":"경기도 양평군 양평읍 공흥리 456-72번지","indutype":"보건위생 - 화장품","category":"beauty"}]},{"lat":"37.489748778","long":"127.50186946","imageIndex":13,"items":[{"name":"KES미용실","tel":"031-773-2110","addr":"경기도 양평군 양평읍 공흥리 468-1번지","indutype":"보건위생 - 미용원","category":"beauty"},{"name":"마가스킨케어","tel":"031-000-0000","addr":"경기도 양평군 양평읍 공흥리 468-1번지 1층 1호","indutype":"보건위생 - 피부미용실","category":"beauty"}]},{"lat":"37.493299014","long":"127.50814622","imageIndex":13,"items":[{"name":"김수연헤어","tel":"031-775-5680","addr":"경기도 양평군 양평읍 공흥리 885번지 한신휴플러스 1층","indutype":"보건위생 - 미용원","category":"beauty"}]},{"lat":"37.493361951","long":"127.50606603","imageIndex":13,"items":[{"name":"꾸밈헤어","tel":"031-771-5665","addr":"경기도 양평군 양평읍 공흥리 293-1번지","indutype":"보건위생 - 미용원","category":"beauty"},{"name":"민에스테틱","tel":"031-771-6440","addr":"경기도 양평군 양평읍 공흥리 293-1번지 1층","indutype":"보건위생 - 피부미용실","category":"beauty"}]},{"lat":"37.494356284","long":"127.49675504","imageIndex":13,"items":[{"name":"네일 그리다","tel":"031-1111-1111","addr":"경기도 양평군 양평읍 공흥리 749-2번지 1층","indutype":"보건위생 - 피부미용실","category":"beauty"}]},{"lat":"37.492993376","long":"127.50587133","imageIndex":13,"items":[{"name":"더솔림 (THE SOLLIM)","tel":"031-772-2826","addr":"경기도 양평군 양평읍 공흥리 355번지 2층 203호","indutype":"보건위생 - 피부미용실","category":"beauty"},{"name":"오휘양평지사","tel":"031-771-5251","addr":"경기도 양평군 양평읍 공흥리 355번지 3층","indutype":"보건위생 - 화장품","category":"beauty"}]},{"lat":"37.497027141","long":"127.49581143","imageIndex":13,"items":[{"name":"멋진 바보","tel":"","addr":"경기도 양평군 양평읍 공흥리 725-13번지 그랜드타운 106동 401호","indutype":"보건위생 - 화장품","category":"beauty"}]},{"lat":"37.490662972","long":"127.49873211","imageIndex":13,"items":[{"name":"미도미용실","tel":"031-772-0222","addr":"경기도 양평군 양평읍 공흥리 462-4번지","indutype":"보건위생 - 미용원","category":"beauty"}]},{"lat":"37.490164384","long":"127.5037266","imageIndex":13,"items":[{"name":"미래파워","tel":"031-774-6879","addr":"경기도 양평군 양평읍 공흥리 401-6번지","indutype":"보건위생 - 미용재료","category":"beauty"},{"name":"헤어씨티","tel":"031-774-0573","addr":"경기도 양평군 양평읍 공흥리 401-6번지","indutype":"보건위생 - 미용원","category":"beauty"}]},{"lat":"37.489718034","long":"127.50061416","imageIndex":13,"items":[{"name":"미소헤어","tel":"","addr":"경기도 양평군 양평읍 공흥리 441-28번지 1층","indutype":"보건위생 - 미용원","category":"beauty"}]},{"lat":"37.494390005","long":"127.49730935","imageIndex":13,"items":[{"name":"바디앤","tel":"031-775-5775","addr":"경기도 양평군 양평읍 공흥리 755-48번지 2층","indutype":"보건위생 - 피부미용실","category":"beauty"}]},{"lat":"37.490496623","long":"127.50186313","imageIndex":13,"items":[{"name":"비엔헤어","tel":"031-774-0791","addr":"경기도 양평군 양평읍 공흥리 469-2번지 외1필지","indutype":"보건위생 - 미용원","category":"beauty"}]},{"lat":"37.494492704","long":"127.49645063","imageIndex":13,"items":[{"name":"수연헤어갤러리","tel":"031-772-0050","addr":"경기도 양평군 양평읍 공흥리 749번지","indutype":"보건위생 - 미용원","category":"beauty"},{"name":"힐스템 양평 공흥점","tel":"","addr":"경기도 양평군 양평읍 공흥리 749번지","indutype":"보건위생 - 의료용품","category":"beauty"}]},{"lat":"37.490611984","long":"127.50014519","imageIndex":13,"items":[{"name":"스타키보청기","tel":"031-773-0042","addr":"경기도 양평군 양평읍 공흥리 464-7번지","indutype":"보건위생 - 의료용품","category":"beauty"}]},{"lat":"37.490718757","long":"127.50472535","imageIndex":13,"items":[{"name":"신성헤어","tel":"031-775-5078","addr":"경기도 양평군 양평읍 공흥리 393-6번지","indutype":"보건위생 - 미용원","category":"beauty"},{"name":"효자의료기","tel":"031-775-7842","addr":"경기도 양평군 양평읍 공흥리 393-6번지","indutype":"보건위생 - 의료용품","category":"beauty"}]},{"lat":"37.489524731","long":"127.50158529","imageIndex":13,"items":[{"name":"아모레","tel":"031-771-2451","addr":"경기도 양평군 양평읍 공흥리 441-34번지","indutype":"보건위생 - 화장품","category":"beauty"},{"name":"아모레","tel":"031-771-2451","addr":"경기도 양평군 양평읍 공흥리 441-34번지","indutype":"보건위생 - 화장품","category":"beauty"},{"name":"아모레","tel":"031-771-2452","addr":"경기도 양평군 양평읍 공흥리 441-34번지 3층","indutype":"보건위생 - 화장품","category":"beauty"},{"name":"아모레카운셀러","tel":"031-771-2451","addr":"경기도 양평군 양평읍 공흥리 441-34번지","indutype":"보건위생 - 화장품","category":"beauty"},{"name":"아모레카운셀러","tel":"031-771-2451","addr":"경기도 양평군 양평읍 공흥리 441-34번지","indutype":"보건위생 - 화장품","category":"beauty"},{"name":"아모레카운셀러","tel":"031-771-2451","addr":"경기도 양평군 양평읍 공흥리 441-34번지","indutype":"보건위생 - 화장품","category":"beauty"},{"name":"아모레카운셀러","tel":"031-771-2451","addr":"경기도 양평군 양평읍 공흥리 441-34번지","indutype":"보건위생 - 화장품","category":"beauty"},{"name":"아모레카운셀러","tel":"031-771-2451","addr":"경기도 양평군 양평읍 공흥리 441-34번지","indutype":"보건위생 - 화장품","category":"beauty"},{"name":"아모레카운셀러","tel":"031-771-2451","addr":"경기도 양평군 양평읍 공흥리 441-34번지","indutype":"보건위생 - 화장품","category":"beauty"},{"name":"아모레카운셀러","tel":"031-771-2451","addr":"경기도 양평군 양평읍 공흥리 441-34번지","indutype":"보건위생 - 화장품","category":"beauty"},{"name":"아모레카운셀러","tel":"031-771-2451","addr":"경기도 양평군 양평읍 공흥리 441-34번지","indutype":"보건위생 - 화장품","category":"beauty"},{"name":"아모레카운셀러","tel":"031-771-2451","addr":"경기도 양평군 양평읍 공흥리 441-34번지","indutype":"보건위생 - 화장품","category":"beauty"},{"name":"아모레카운셀러","tel":"031-771-2451","addr":"경기도 양평군 양평읍 공흥리 441-34번지","indutype":"보건위생 - 화장품","category":"beauty"},{"name":"아모레카운셀러","tel":"031-771-2451","addr":"경기도 양평군 양평읍 공흥리 441-34번지","indutype":"보건위생 - 화장품","category":"beauty"},{"name":"아모레카운셀러","tel":"031-771-2451","addr":"경기도 양평군 양평읍 공흥리 441-34번지","indutype":"보건위생 - 화장품","category":"beauty"},{"name":"아모레카운셀러","tel":"031-771-2451","addr":"경기도 양평군 양평읍 공흥리 441-34번지","indutype":"보건위생 - 화장품","category":"beauty"},{"name":"아모레카운셀러","tel":"031-771-2451","addr":"경기도 양평군 양평읍 공흥리 441-34번지","indutype":"보건위생 - 화장품","category":"beauty"},{"name":"아모레카운셀러","tel":"031-771-2451","addr":"경기도 양평군 양평읍 공흥리 441-34번지","indutype":"보건위생 - 화장품","category":"beauty"},{"name":"아모레카운셀러","tel":"031-771-2451","addr":"경기도 양평군 양평읍 공흥리 441-34번지","indutype":"보건위생 - 화장품","category":"beauty"},{"name":"아모레카운셀러","tel":"031-771-2451","addr":"경기도 양평군 양평읍 공흥리 441-34번지","indutype":"보건위생 - 화장품","category":"beauty"},{"name":"아모레카운셀러","tel":"031-771-2451","addr":"경기도 양평군 양평읍 공흥리 441-34번지","indutype":"보건위생 - 화장품","category":"beauty"},{"name":"아모레카운셀러","tel":"031-771-2451","addr":"경기도 양평군 양평읍 공흥리 441-34번지","indutype":"보건위생 - 화장품","category":"beauty"},{"name":"아모레카운셀러","tel":"031-771-2451","addr":"경기도 양평군 양평읍 공흥리 441-34번지","indutype":"보건위생 - 화장품","category":"beauty"},{"name":"아모레카운셀러","tel":"031-771-2451","addr":"경기도 양평군 양평읍 공흥리 441-34번지","indutype":"보건위생 - 화장품","category":"beauty"},{"name":"아모레카운셀러","tel":"031-771-2451","addr":"경기도 양평군 양평읍 공흥리 441-34번지","indutype":"보건위생 - 화장품","category":"beauty"},{"name":"아모레카운셀러","tel":"031-771-2451","addr":"경기도 양평군 양평읍 공흥리 441-34번지","indutype":"보건위생 - 화장품","category":"beauty"},{"name":"아모레카운셀러","tel":"031-771-2451","addr":"경기도 양평군 양평읍 공흥리 441-34번지","indutype":"보건위생 - 화장품","category":"beauty"},{"name":"아모레화장품","tel":"031-771-2451","addr":"경기도 양평군 양평읍 공흥리 441-34번지","indutype":"보건위생 - 화장품","category":"beauty"}]},{"lat":"37.489390017","long":"127.50148263","imageIndex":13,"items":[{"name":"아모레 카운셀러","tel":"031-771-2451","addr":"경기도 양평군 양평읍 공흥리 441-9번지","indutype":"보건위생 - 화장품","category":"beauty"},{"name":"아모레양평특약점","tel":"031-772-2451","addr":"경기도 양평군 양평읍 공흥리 441-9번지","indutype":"보건위생 - 화장품","category":"beauty"},{"name":"아모레카운셀러","tel":"031-771-2451","addr":"경기도 양평군 양평읍 공흥리 441-9번지","indutype":"보건위생 - 화장품","category":"beauty"},{"name":"아모레카운셀러","tel":"031-771-2451","addr":"경기도 양평군 양평읍 공흥리 441-9번지","indutype":"보건위생 - 화장품","category":"beauty"},{"name":"아모레카운셀러","tel":"031-771-2451","addr":"경기도 양평군 양평읍 공흥리 441-9번지","indutype":"보건위생 - 화장품","category":"beauty"},{"name":"아모레카운셀러","tel":"031-771-2451","addr":"경기도 양평군 양평읍 공흥리 441-9번지","indutype":"보건위생 - 화장품","category":"beauty"},{"name":"아모레카운셀러","tel":"031-771-2451","addr":"경기도 양평군 양평읍 공흥리 441-9번지","indutype":"보건위생 - 화장품","category":"beauty"},{"name":"아모레카운셀러","tel":"031-771-2451","addr":"경기도 양평군 양평읍 공흥리 441-9번지","indutype":"보건위생 - 화장품","category":"beauty"},{"name":"아모레카운셀러","tel":"031-771-2451","addr":"경기도 양평군 양평읍 공흥리 441-9번지","indutype":"보건위생 - 화장품","category":"beauty"},{"name":"아모레카운셀러","tel":"031-771-2451","addr":"경기도 양평군 양평읍 공흥리 441-9번지","indutype":"보건위생 - 화장품","category":"beauty"},{"name":"아모레카운셀러","tel":"031-771-2451","addr":"경기도 양평군 양평읍 공흥리 441-9번지","indutype":"보건위생 - 화장품","category":"beauty"},{"name":"아모레카운셀러","tel":"031-771-2451","addr":"경기도 양평군 양평읍 공흥리 441-9번지","indutype":"보건위생 - 화장품","category":"beauty"},{"name":"아모레카운셀러","tel":"031-771-2451","addr":"경기도 양평군 양평읍 공흥리 441-9번지","indutype":"보건위생 - 화장품","category":"beauty"},{"name":"아모레카운셀러","tel":"031-771-2451","addr":"경기도 양평군 양평읍 공흥리 441-9번지","indutype":"보건위생 - 화장품","category":"beauty"},{"name":"아모레퍼시픽","tel":"031-771-2451","addr":"경기도 양평군 양평읍 공흥리 441-9번지 하이마트","indutype":"보건위생 - 화장품","category":"beauty"}]},{"lat":"37.490993574","long":"127.49939013","imageIndex":13,"items":[{"name":"아이아울렛안경원","tel":"031-774-2442","addr":"경기도 양평군 양평읍 공흥리 499-8번지","indutype":"보건위생 - 안경","category":"beauty"}]},{"lat":"37.491832275","long":"127.49920345","imageIndex":13,"items":[{"name":"안경공간","tel":"031-771-7890","addr":"경기도 양평군 양평읍 공흥리 522번지","indutype":"보건위생 - 안경","category":"beauty"}]},{"lat":"37.494135179","long":"127.49791829","imageIndex":13,"items":[{"name":"오휘컨설턴트","tel":"031-771-5251","addr":"경기도 양평군 양평읍 공흥리 755-43번지 2층","indutype":"보건위생 - 화장품","category":"beauty"},{"name":"오휘컨설턴트","tel":"031-771-5251","addr":"경기도 양평군 양평읍 공흥리 755-43번지 2층","indutype":"보건위생 - 화장품","category":"beauty"},{"name":"오휘컨설턴트","tel":"031-771-5251","addr":"경기도 양평군 양평읍 공흥리 755-43번지 2층","indutype":"보건위생 - 화장품","category":"beauty"},{"name":"오휘컨설턴트","tel":"031-771-5251","addr":"경기도 양평군 양평읍 공흥리 755-43번지 2층","indutype":"보건위생 - 화장품","category":"beauty"},{"name":"오휘컨설턴트","tel":"031-771-5251","addr":"경기도 양평군 양평읍 공흥리 755-43번지 2층","indutype":"보건위생 - 화장품","category":"beauty"},{"name":"오휘컨설턴트","tel":"031-441-5251","addr":"경기도 양평군 양평읍 공흥리 755-43번지 2층 LG오휘화장품","indutype":"보건위생 - 화장품","category":"beauty"}]},{"lat":"37.502825972","long":"127.50942048","imageIndex":13,"items":[{"name":"오휘컨설턴트","tel":"031-771-5251","addr":"경기도 양평군 양평읍 공흥리 75-43번지 2층 오휘화장품","indutype":"보건위생 - 화장품","category":"beauty"}]},{"lat":"37.494554102","long":"127.50751013","imageIndex":13,"items":[{"name":"올가드림뷰티","tel":"","addr":"경기도 양평군 양평읍 공흥리 288-1번지 1층","indutype":"보건위생 - 화장품","category":"beauty"}]},{"lat":"37.491862104","long":"127.49853651","imageIndex":13,"items":[{"name":"우선미용실","tel":"031-773-8195","addr":"경기도 양평군 양평읍 공흥리 525-4 21/1","indutype":"보건위생 - 미용원","category":"beauty"}]},{"lat":"37.493270277","long":"127.49575282","imageIndex":13,"items":[{"name":"찰스헤어","tel":"070-4095-6908","addr":"경기도 양평군 양평읍 공흥리 788-1번지","indutype":"보건위생 - 미용원","category":"beauty"}]},{"lat":"37.492607807","long":"127.49473078","imageIndex":13,"items":[{"name":"크리스탈헤어","tel":"031-772-7929","addr":"경기도 양평군 양평읍 공흥리 797-1번지 외3필지 1층","indutype":"보건위생 - 미용원","category":"beauty"}]},{"lat":"37.493466924","long":"127.50256135","imageIndex":13,"items":[{"name":"테이아미용실","tel":"031-774-0315","addr":"경기도 양평군 양평읍 공흥리 533번지","indutype":"보건위생 - 미용원","category":"beauty"},{"name":"황궁약손테라피","tel":"031-771-6686","addr":"경기도 양평군 양평읍 공흥리 533번지 2층","indutype":"보건위생 - 피부미용실","category":"beauty"}]}]