[{"lat":"37.185774495","long":"126.79778254","imageIndex":0,"items":[{"name":"(주)MOTORIA","tel":"031-366-8031","addr":"경기도 화성시 남양읍 신남리 905-9번지","indutype":"자동차정비 유지 - 자동차부품","category":"car"}]},{"lat":"37.173609525","long":"126.79725242","imageIndex":0,"items":[{"name":"MS모터스","tel":"070-4120-4338","addr":"경기도 화성시 남양읍 신남리 1417번지 나동","indutype":"자동차정비 유지 - 자동차정비","category":"car"}]},{"lat":"37.192580836","long":"126.82205793","imageIndex":0,"items":[{"name":"대승카센타","tel":"031-355-3466","addr":"경기도 화성시 남양읍 신남리 7번지","indutype":"자동차정비 유지 - 자동차정비","category":"car"}]},{"lat":"37.172495738","long":"126.7992822","imageIndex":0,"items":[{"name":"대영모터스","tel":"031-356-9878","addr":"경기도 화성시 남양읍 신남리 1417-4번지","indutype":"자동차정비 유지 - 자동차정비","category":"car"}]},{"lat":"37.178219036","long":"126.81674336","imageIndex":0,"items":[{"name":"신남자동차정비공업사 주식회사","tel":"031-356-7719","addr":"경기도 화성시 남양읍 신남리 480번지","indutype":"자동차정비 유지 - 자동차정비","category":"car"}]},{"lat":"37.187217046","long":"126.8203589","imageIndex":0,"items":[{"name":"신남현대모터스","tel":"031-357-0004","addr":"경기도 화성시 남양읍 신남리 158-1","indutype":"자동차정비 유지 - 자동차부품","category":"car"}]},{"lat":"37.185080859","long":"126.81989105","imageIndex":0,"items":[{"name":"종합카에어콘","tel":"031-356-4404","addr":"경기도 화성시 남양읍 신남리 230-5번지 외1필지","indutype":"자동차정비 유지 - 자동차부품","category":"car"}]},{"lat":"37.190022975","long":"126.82277356","imageIndex":0,"items":[{"name":"주식회사 미니언","tel":"031-317-6672","addr":"경기도 화성시 남양읍 신남리 83번지","indutype":"자동차정비 유지 - 자동차부품","category":"car"},{"name":"주식회사 미니언","tel":"031-8047-5086","addr":"경기도 화성시 남양읍 신남리 83번지 1층","indutype":"자동차정비 유지 - 자동차부품","category":"car"}]},{"lat":"37.19399486","long":"126.82166036","imageIndex":0,"items":[{"name":"참좋은 모터스","tel":"031-357-9040","addr":"경기도 화성시 남양읍 신남리 18-5번지","indutype":"자동차정비 유지 - 자동차정비","category":"car"}]},{"lat":"37.185436857","long":"126.81705224","imageIndex":0,"items":[{"name":"포인트모터스 (Point Motors)","tel":"031-000-0000","addr":"경기도 화성시 남양읍 신남리 136-2번지","indutype":"자동차정비 유지 - 자동차정비","category":"car"}]},{"lat":"37.174134874","long":"126.80414214","imageIndex":0,"items":[{"name":"화진중장비","tel":"02-836-7092","addr":"경기도 화성시 남양읍 신남리 1311번지","indutype":"자동차정비 유지 - 중장비수리","category":"car"}]}]