[{"lat":"37.307637521","long":"127.63924697","imageIndex":7,"items":[{"name":"(여강참기름)재대한구세군유지재단법인","tel":"031-885-1238","addr":"경기도 여주시 현암동 179-12번지 도명그린힐","indutype":"음료식품 - 기타음료식품","category":"food"},{"name":"(여강참기름)재대한구세군유지재단법인","tel":"031-885-1238","addr":"경기도 여주시 현암동 179-12번지 도명그린힐 1층","indutype":"음료식품 - 농·축·수산품","category":"food"}]},{"lat":"37.308965156","long":"127.63866032","imageIndex":7,"items":[{"name":"달달 플라워","tel":"","addr":"경기도 여주시 현암동 177-14번지 1층 102호","indutype":"음료식품 - 제과점","category":"food"},{"name":"민경수산","tel":"031-882-9483","addr":"경기도 여주시 현암동 177-14번지","indutype":"음료식품 - 농·축·수산품","category":"food"}]},{"lat":"37.308829102","long":"127.63882837","imageIndex":7,"items":[{"name":"달보드레","tel":"031-886-2951","addr":"경기도 여주시 현암동 177-8번지 1층 4호","indutype":"음료식품 - 기타음료식품","category":"food"}]},{"lat":"37.31052013","long":"127.6393615","imageIndex":7,"items":[{"name":"달쿠니&마리","tel":"","addr":"경기도 여주시 현암동 155-4번지 현암강변빌라 상가동 1층","indutype":"음료식품 - 농·축·수산품","category":"food"}]},{"lat":"37.307425322","long":"127.64017012","imageIndex":7,"items":[{"name":"대경유통","tel":"031-883-8047","addr":"경기도 여주시 현암동 188-1번지 여주벽산아파트","indutype":"음료식품 - 기타음료식품","category":"food"}]},{"lat":"37.317102125","long":"127.63005363","imageIndex":7,"items":[{"name":"대일유통","tel":"031-884-4477","addr":"경기도 여주시 현암동 586-22번지 101호","indutype":"음료식품 - 기타음료식품","category":"food"}]},{"lat":"37.308273506","long":"127.6399404","imageIndex":7,"items":[{"name":"도예매점","tel":"","addr":"경기도 여주시 현암동 179-7번지 1동 201호","indutype":"음료식품 - 기타음료식품","category":"food"}]},{"lat":"37.308492606","long":"127.64275094","imageIndex":7,"items":[{"name":"떡향기","tel":"031-884-2627","addr":"경기도 여주시 현암동 191-17번지","indutype":"음료식품 - 제과점","category":"food"}]},{"lat":"37.307831862","long":"127.64163992","imageIndex":7,"items":[{"name":"뚜레쥬르 여주오학","tel":"031-885-8053","addr":"경기도 여주시 현암동 190-6번지","indutype":"음료식품 - 제과점","category":"food"},{"name":"제일정육마트","tel":"031-882-1069","addr":"경기도 여주시 현암동 190-6번지 106호","indutype":"음료식품 - 정육점","category":"food"}]},{"lat":"37.307158614","long":"127.63950237","imageIndex":7,"items":[{"name":"서울우유오학대리점","tel":"031-886-4260","addr":"경기도 여주시 현암동 187-11번지","indutype":"음료식품 - 기타음료식품","category":"food"}]},{"lat":"37.307938752","long":"127.64019701","imageIndex":7,"items":[{"name":"실버 바라","tel":"031-885-1138","addr":"경기도 여주시 현암동 189-13번지 1층","indutype":"음료식품 - 기타음료식품","category":"food"}]},{"lat":"37.312406848","long":"127.6386893","imageIndex":7,"items":[{"name":"오학마트 정육점","tel":"031-886-9577","addr":"경기도 여주시 현암동 164-25번지","indutype":"음료식품 - 정육점","category":"food"}]},{"lat":"37.312161976","long":"127.63224612","imageIndex":7,"items":[{"name":"주식회사 태전푸드","tel":"031-884-6088","addr":"경기도 여주시 현암동 668-6번지 하우씨티빌딩 2층 221호","indutype":"음료식품 - 정육점","category":"food"}]},{"lat":"37.307297429","long":"127.64216554","imageIndex":7,"items":[{"name":"착한반찬","tel":"031-883-3329","addr":"경기도 여주시 현암동 192-11번지","indutype":"음료식품 - 기타음료식품","category":"food"}]},{"lat":"37.312692524","long":"127.63413439","imageIndex":7,"items":[{"name":"칼디의 커피","tel":"031-880-7337","addr":"경기도 여주시 현암동 669-4번지","indutype":"음료식품 - 기타음료식품","category":"food"}]},{"lat":"37.307522976","long":"127.64211105","imageIndex":7,"items":[{"name":"파리바게뜨","tel":"031-886-9003","addr":"경기도 여주시 현암동 192-28번지","indutype":"음료식품 - 제과점","category":"food"}]},{"lat":"37.31105403","long":"127.64060683","imageIndex":7,"items":[{"name":"현암축산물","tel":"031-882-1079","addr":"경기도 여주시 현암동 152-7번지","indutype":"음료식품 - 정육점","category":"food"}]}]