[{"lat":"37.39667015","long":"127.2450318","imageIndex":4,"items":[{"name":"(BHC) 경기광주역점","tel":"031-769-0302","addr":"경기도 광주시 장지동 40-8번지 107,108호","indutype":"일반휴게음식 - 스넥","category":"restaurant"}]},{"lat":"37.3955291","long":"127.2434471","imageIndex":4,"items":[{"name":"1등족발","tel":"031-763-3382","addr":"경기도 광주시 장지동 51-4번지 1층","indutype":"일반휴게음식 - 일반한식","category":"restaurant"}]},{"lat":"37.39891615","long":"127.243808","imageIndex":4,"items":[{"name":"MANJOK(만족)","tel":"031-764-0834","addr":"경기도 광주시 장지동 4-6번지 1층","indutype":"일반휴게음식 - 일반한식","category":"restaurant"}]},{"lat":"37.39605758","long":"127.2449734","imageIndex":4,"items":[{"name":"강가네순대국","tel":"031-763-3297","addr":"경기도 광주시 장지동 42-4번지","indutype":"일반휴게음식 - 일반한식","category":"restaurant"},{"name":"국수나무 광주역동점","tel":"031-763-0913","addr":"경기도 광주시 장지동 42-4번지 대광프라자 1층","indutype":"일반휴게음식 - 스넥","category":"restaurant"},{"name":"놀고먹소","tel":"","addr":"경기도 광주시 장지동 42-4번지 대광프라자 G동 1층","indutype":"일반휴게음식 - 일반한식","category":"restaurant"},{"name":"본죽","tel":"031-763-6288","addr":"경기도 광주시 장지동 42-4번지 대광프라자 1층 104호","indutype":"일반휴게음식 - 일반한식","category":"restaurant"},{"name":"파스쿠찌","tel":"031-763-8493","addr":"경기도 광주시 장지동 42-4번지 1층 110,111호","indutype":"일반휴게음식 - 서양음식","category":"restaurant"}]},{"lat":"37.39459127","long":"127.2393674","imageIndex":4,"items":[{"name":"개성손만두","tel":"031-769-6969","addr":"경기도 광주시 장지동 359-6번지","indutype":"일반휴게음식 - 일반한식","category":"restaurant"},{"name":"오늘이네","tel":"031-761-3479","addr":"경기도 광주시 장지동 359-6번지 3층","indutype":"일반휴게음식 - 서양음식","category":"restaurant"}]},{"lat":"37.40214171","long":"127.234817","imageIndex":4,"items":[{"name":"고향식당","tel":"031-764-5266","addr":"경기도 광주시 장지동 637번지","indutype":"일반휴게음식 - 일반한식","category":"restaurant"}]},{"lat":"37.39433648","long":"127.2406201","imageIndex":4,"items":[{"name":"굽네치킨(광주장지점)","tel":"","addr":"경기도 광주시 장지동 342-12번지 A동 1층 106호","indutype":"일반휴게음식 - 스넥","category":"restaurant"},{"name":"라떼로즈","tel":"031-797-4975","addr":"경기도 광주시 장지동 342-12번지 A동 105호","indutype":"일반휴게음식 - 서양음식","category":"restaurant"},{"name":"스시강","tel":"031-765-6130","addr":"경기도 광주시 장지동 342-12번지 1층","indutype":"일반휴게음식 - 일식·회집","category":"restaurant"}]},{"lat":"37.40630773","long":"127.2376761","imageIndex":4,"items":[{"name":"규돈묵은지삼겹살","tel":"031-766-4997","addr":"경기도 광주시 장지동 533-2번지 1층","indutype":"일반휴게음식 - 일반한식","category":"restaurant"}]},{"lat":"37.39438943","long":"127.2411736","imageIndex":4,"items":[{"name":"그빵집베이커리","tel":"031-797-0149","addr":"경기도 광주시 장지동 344-1번지 라온빌딩 1,2층","indutype":"일반휴게음식 - 서양음식","category":"restaurant"}]},{"lat":"37.39442108","long":"127.2433419","imageIndex":4,"items":[{"name":"급전","tel":"031-768-5585","addr":"경기도 광주시 장지동 89-1번지 1층","indutype":"일반휴게음식 - 일반한식","category":"restaurant"},{"name":"회한마당","tel":"031-768-7891","addr":"경기도 광주시 장지동 89-1번지","indutype":"일반휴게음식 - 일반한식","category":"restaurant"}]},{"lat":"37.39261286","long":"127.2328679","imageIndex":4,"items":[{"name":"김밥땡큐쏘우","tel":"031-761-0019","addr":"경기도 광주시 장지동 688-2번지 1층","indutype":"일반휴게음식 - 스넥","category":"restaurant"},{"name":"내고집바지락칼국수","tel":"031-797-0635","addr":"경기도 광주시 장지동 688-2번지","indutype":"일반휴게음식 - 일반한식","category":"restaurant"},{"name":"호식이두마리치킨태전점","tel":"031-762-9298","addr":"경기도 광주시 장지동 688-2번지 1층","indutype":"일반휴게음식 - 스넥","category":"restaurant"}]},{"lat":"37.39475687","long":"127.2465615","imageIndex":4,"items":[{"name":"깨돌이김밥","tel":"031-769-6554","addr":"경기도 광주시 장지동 62-10번지 수현빌딩 1층 101호","indutype":"일반휴게음식 - 스넥","category":"restaurant"},{"name":"마포갈비","tel":"031-763-9295","addr":"경기도 광주시 장지동 62-10번지 1층","indutype":"일반휴게음식 - 일반한식","category":"restaurant"},{"name":"피자알볼로 태전점","tel":"031-765-8495","addr":"경기도 광주시 장지동 62-10번지","indutype":"일반휴게음식 - 서양음식","category":"restaurant"}]},{"lat":"37.39786929","long":"127.2446404","imageIndex":4,"items":[{"name":"꽃돼지마을회관","tel":"031-769-9160","addr":"경기도 광주시 장지동 37번지","indutype":"일반휴게음식 - 일반한식","category":"restaurant"},{"name":"물꼬기","tel":"031-762-1019","addr":"경기도 광주시 장지동 37번지 태운빌딩 1층 101호","indutype":"일반휴게음식 - 일식·회집","category":"restaurant"}]},{"lat":"37.39494796","long":"127.2456474","imageIndex":4,"items":[{"name":"낭만객주","tel":"031-763-2241","addr":"경기도 광주시 장지동 76-1번지","indutype":"일반휴게음식 - 주점","category":"restaurant"},{"name":"커피에반하다","tel":"","addr":"경기도 광주시 장지동 76-1번지 1층 2호","indutype":"일반휴게음식 - 서양음식","category":"restaurant"},{"name":"허막창","tel":"070-8385-8945","addr":"경기도 광주시 장지동 76-1번지","indutype":"일반휴게음식 - 일반한식","category":"restaurant"},{"name":"훌랄라","tel":"031-766-7654","addr":"경기도 광주시 장지동 76-1번지 2층","indutype":"일반휴게음식 - 스넥","category":"restaurant"}]},{"lat":"37.39275436","long":"127.2342347","imageIndex":4,"items":[{"name":"노은이네한식뷔페","tel":"031-761-9001","addr":"경기도 광주시 장지동 692-61번지 지하1층","indutype":"일반휴게음식 - 일반한식","category":"restaurant"}]},{"lat":"37.39492338","long":"127.2444502","imageIndex":4,"items":[{"name":"다래갈비한상","tel":"031-761-6969","addr":"경기도 광주시 장지동 77-8번지","indutype":"일반휴게음식 - 일반한식","category":"restaurant"}]},{"lat":"37.39495099","long":"127.244168","imageIndex":4,"items":[{"name":"다래면옥","tel":"031-763-8874","addr":"경기도 광주시 장지동 77-11번지","indutype":"일반휴게음식 - 일반한식","category":"restaurant"}]},{"lat":"37.39117223","long":"127.2323666","imageIndex":4,"items":[{"name":"닭발바닥","tel":"031-764-4446","addr":"경기도 광주시 장지동 690-12번지 103호","indutype":"일반휴게음식 - 일반한식","category":"restaurant"},{"name":"장군왕족발","tel":"031-766-3730","addr":"경기도 광주시 장지동 690-12번지","indutype":"일반휴게음식 - 일반한식","category":"restaurant"},{"name":"짱맛나 실내포차","tel":"031-699-3351","addr":"경기도 광주시 장지동 690-12번지 104호","indutype":"일반휴게음식 - 일반한식","category":"restaurant"}]},{"lat":"37.38416782","long":"127.2387588","imageIndex":4,"items":[{"name":"담안75cafe(카페)","tel":"031-000-0000","addr":"경기도 광주시 장지동 228-5번지 1층","indutype":"일반휴게음식 - 서양음식","category":"restaurant"}]},{"lat":"37.39286714","long":"127.231841","imageIndex":4,"items":[{"name":"더플러스 돈달구네","tel":"031-769-9222","addr":"경기도 광주시 장지동 687-13번지","indutype":"일반휴게음식 - 일반한식","category":"restaurant"},{"name":"명문식당","tel":"031-763-2125","addr":"경기도 광주시 장지동 687-13번지","indutype":"일반휴게음식 - 스넥","category":"restaurant"}]},{"lat":"37.39309029","long":"127.2329258","imageIndex":4,"items":[{"name":"동대문엽기떡볶이","tel":"031-765-8592","addr":"경기도 광주시 장지동 686-2번지","indutype":"일반휴게음식 - 스넥","category":"restaurant"},{"name":"롯데리아(태전점)","tel":"031-763-3500","addr":"경기도 광주시 장지동 686-2번지 101,102,103호","indutype":"일반휴게음식 - 서양음식","category":"restaurant"},{"name":"맘스도시락","tel":"031-797-2463","addr":"경기도 광주시 장지동 686-2번지","indutype":"일반휴게음식 - 일반한식","category":"restaurant"},{"name":"뽕뜨락피자 (광남점)","tel":"031-762-1085","addr":"경기도 광주시 장지동 686-2번지","indutype":"일반휴게음식 - 서양음식","category":"restaurant"},{"name":"쌀로뽕","tel":"031-766-3455","addr":"경기도 광주시 장지동 686-2번지 110호","indutype":"일반휴게음식 - 중국식","category":"restaurant"},{"name":"엄마손전집","tel":"031-763-0330","addr":"경기도 광주시 장지동 686-2번지 1층","indutype":"일반휴게음식 - 일반한식","category":"restaurant"},{"name":"오꾸꼬 장지점","tel":"031-761-0192","addr":"경기도 광주시 장지동 686-2번지 삼흥빌딩 106호","indutype":"일반휴게음식 - 스넥","category":"restaurant"},{"name":"요거프레소 광주태전동점","tel":"031-000-0000","addr":"경기도 광주시 장지동 686-2번지 1층","indutype":"일반휴게음식 - 서양음식","category":"restaurant"},{"name":"포메인광주태전점","tel":"031-763-2423","addr":"경기도 광주시 장지동 686-2번지 3층","indutype":"일반휴게음식 - 서양음식","category":"restaurant"}]},{"lat":"37.40776269","long":"127.2354781","imageIndex":4,"items":[{"name":"두리아치킨","tel":"031-767-4777","addr":"경기도 광주시 장지동 756번지 벽산블루밍1단지 1층 104호","indutype":"일반휴게음식 - 스넥","category":"restaurant"},{"name":"썸&골뱅이","tel":"031-766-8077","addr":"경기도 광주시 장지동 756번지 벽산블루밍1단지 상가동 103호","indutype":"일반휴게음식 - 스넥","category":"restaurant"}]},{"lat":"37.39492269","long":"127.244789","imageIndex":4,"items":[{"name":"뜨락","tel":"031-763-5151","addr":"경기도 광주시 장지동 77-3번지 3동 1층","indutype":"일반휴게음식 - 일반한식","category":"restaurant"}]},{"lat":"37.39892261","long":"127.2360945","imageIndex":4,"items":[{"name":"만나추어탕","tel":"031-765-9987","addr":"경기도 광주시 장지동 671번지","indutype":"일반휴게음식 - 일반한식","category":"restaurant"}]},{"lat":"37.39502841","long":"127.2370311","imageIndex":4,"items":[{"name":"명가교동짬뽕","tel":"031-761-7771","addr":"경기도 광주시 장지동 372-3번지 인덕빌딩","indutype":"일반휴게음식 - 중국식","category":"restaurant"}]},{"lat":"37.39431047","long":"127.2401118","imageIndex":4,"items":[{"name":"발발이","tel":"031-768-9289","addr":"경기도 광주시 장지동 342-32번지 1층 102호","indutype":"일반휴게음식 - 일반한식","category":"restaurant"},{"name":"송어가게","tel":"031-764-5395","addr":"경기도 광주시 장지동 342-32번지 C동 101호","indutype":"일반휴게음식 - 일반한식","category":"restaurant"}]},{"lat":"37.39439587","long":"127.2379551","imageIndex":4,"items":[{"name":"별미정육식당","tel":"031-768-3999","addr":"경기도 광주시 장지동 361-3번지 3층","indutype":"일반휴게음식 - 일반한식","category":"restaurant"}]},{"lat":"37.39463916","long":"127.2468434","imageIndex":4,"items":[{"name":"볼륨22(경기광주점)","tel":"031-764-4522","addr":"경기도 광주시 장지동 62-1번지 104호","indutype":"일반휴게음식 - 서양음식","category":"restaurant"}]},{"lat":"37.39083918","long":"127.2321962","imageIndex":4,"items":[{"name":"봉급날","tel":"031-769-5901","addr":"경기도 광주시 장지동 68-5번지 1층","indutype":"일반휴게음식 - 일반한식","category":"restaurant"}]},{"lat":"37.39475055","long":"127.2408134","imageIndex":4,"items":[{"name":"부자만두","tel":"031-763-5088","addr":"경기도 광주시 장지동 346-1번지 1층","indutype":"일반휴게음식 - 스넥","category":"restaurant"}]},{"lat":"37.39941947","long":"127.2444195","imageIndex":4,"items":[{"name":"분식주점","tel":"","addr":"경기도 광주시 장지동 3-20번지 1층","indutype":"일반휴게음식 - 일반한식","category":"restaurant"}]},{"lat":"37.39925796","long":"127.2440915","imageIndex":4,"items":[{"name":"빛나라별들아","tel":"031-762-8301","addr":"경기도 광주시 장지동 3-22번지 2층","indutype":"일반휴게음식 - 일반한식","category":"restaurant"}]},{"lat":"37.40142031","long":"127.2351197","imageIndex":4,"items":[{"name":"선우진왕아구찜","tel":"","addr":"경기도 광주시 장지동 635-10번지 1층","indutype":"일반휴게음식 - 일반한식","category":"restaurant"}]},{"lat":"37.4003122","long":"127.244061","imageIndex":4,"items":[{"name":"성복한우정육식당","tel":"031-761-9617","addr":"경기도 광주시 장지동 3-13번지","indutype":"일반휴게음식 - 일반한식","category":"restaurant"}]},{"lat":"37.39631018","long":"127.2448161","imageIndex":4,"items":[{"name":"소노야 경기광주점","tel":"031-798-5090","addr":"경기도 광주시 장지동 42-8번지 조은빌딩 나동 1층 102호","indutype":"일반휴게음식 - 일식·회집","category":"restaurant"}]},{"lat":"37.40734533","long":"127.2369452","imageIndex":4,"items":[{"name":"수경떡볶이","tel":"","addr":"경기도 광주시 장지동 757번지 벽산블루밍2단지 상가동 1층 103호","indutype":"일반휴게음식 - 스넥","category":"restaurant"}]},{"lat":"37.38370101","long":"127.2423931","imageIndex":4,"items":[{"name":"수라연","tel":"031-763-4050","addr":"경기도 광주시 장지동 224번지","indutype":"일반휴게음식 - 일반한식","category":"restaurant"}]},{"lat":"37.39439517","long":"127.2427885","imageIndex":4,"items":[{"name":"쉐프 깐딴떼","tel":"031-769-3239","addr":"경기도 광주시 장지동 90-2번지 2층","indutype":"일반휴게음식 - 서양음식","category":"restaurant"}]},{"lat":"37.39519968","long":"127.2459192","imageIndex":4,"items":[{"name":"시장통 경기광주점","tel":"031-0000-0000","addr":"경기도 광주시 장지동 56-4번지 1층","indutype":"일반휴게음식 - 주점","category":"restaurant"}]},{"lat":"37.39647248","long":"127.2447601","imageIndex":4,"items":[{"name":"신통치킨&목우촌참피자","tel":"031-797-9926","addr":"경기도 광주시 장지동 42-1번지 조은빌딩 가동 102호","indutype":"일반휴게음식 - 스넥","category":"restaurant"},{"name":"신통치킨(장지점)","tel":"031-797-9926","addr":"경기도 광주시 장지동 42-1번지 조은빌딩 가동 102호","indutype":"일반휴게음식 - 서양음식","category":"restaurant"},{"name":"프랑카롱","tel":"","addr":"경기도 광주시 장지동 42-1번지 조은빌딩 103호","indutype":"일반휴게음식 - 서양음식","category":"restaurant"}]},{"lat":"37.40547291","long":"127.2314841","imageIndex":4,"items":[{"name":"오모리찌개","tel":"031-763-3233","addr":"경기도 광주시 장지동 586-4번지","indutype":"일반휴게음식 - 일반한식","category":"restaurant"}]},{"lat":"37.40208836","long":"127.2344554","imageIndex":4,"items":[{"name":"우리집식당","tel":"031-762-1660","addr":"경기도 광주시 장지동 639-1번지","indutype":"일반휴게음식 - 일반한식","category":"restaurant"}]},{"lat":"37.39492013","long":"127.2416157","imageIndex":4,"items":[{"name":"우촌","tel":"031-766-0094","addr":"경기도 광주시 장지동 85-4번지","indutype":"일반휴게음식 - 일반한식","category":"restaurant"}]},{"lat":"37.3947577","long":"127.2372335","imageIndex":4,"items":[{"name":"유장춘닭개장","tel":"031-768-4000","addr":"경기도 광주시 장지동 369-3번지 1층","indutype":"일반휴게음식 - 일반한식","category":"restaurant"}]},{"lat":"37.39536254","long":"127.2455923","imageIndex":4,"items":[{"name":"육감만족 경기광주역점","tel":"031-761-9288","addr":"경기도 광주시 장지동 56-7번지 가람빌딩 1층","indutype":"일반휴게음식 - 일반한식","category":"restaurant"},{"name":"피엠푸드 광주역동점","tel":"031-764-1088","addr":"경기도 광주시 장지동 56-7번지 1층","indutype":"일반휴게음식 - 서양음식","category":"restaurant"}]},{"lat":"37.39017172","long":"127.2325668","imageIndex":4,"items":[{"name":"육고기가 갑이다","tel":"031-769-7717","addr":"경기도 광주시 장지동 68-8번지 1층","indutype":"일반휴게음식 - 일반한식","category":"restaurant"}]},{"lat":"37.39472836","long":"127.2383966","imageIndex":4,"items":[{"name":"육소","tel":"031-765-1414","addr":"경기도 광주시 장지동 358-18번지","indutype":"일반휴게음식 - 일반한식","category":"restaurant"}]},{"lat":"37.39431006","long":"127.2403151","imageIndex":4,"items":[{"name":"이가네얼크니칼국수","tel":"031-762-2442","addr":"경기도 광주시 장지동 342-31번지 B동 1층","indutype":"일반휴게음식 - 일반한식","category":"restaurant"}]},{"lat":"37.39392525","long":"127.2390039","imageIndex":4,"items":[{"name":"장지골메기매운탕","tel":"031-769-9935","addr":"경기도 광주시 장지동 340-1번지","indutype":"일반휴게음식 - 일반한식","category":"restaurant"}]},{"lat":"37.39461085","long":"127.2385882","imageIndex":4,"items":[{"name":"장지리해물찜","tel":"","addr":"경기도 광주시 장지동 358-11번지","indutype":"일반휴게음식 - 일반한식","category":"restaurant"}]},{"lat":"37.38447332","long":"127.2436489","imageIndex":4,"items":[{"name":"장지콩나물국밥","tel":"031-766-1444","addr":"경기도 광주시 장지동 220-15번지","indutype":"일반휴게음식 - 일반한식","category":"restaurant"}]},{"lat":"37.3985893","long":"127.2360596","imageIndex":4,"items":[{"name":"장지한우","tel":"031-766-0835","addr":"경기도 광주시 장지동 673번지","indutype":"일반휴게음식 - 일반한식","category":"restaurant"}]},{"lat":"37.40342273","long":"127.2340078","imageIndex":4,"items":[{"name":"절골식당","tel":"031-769-7763","addr":"경기도 광주시 장지동 621-3번지","indutype":"일반휴게음식 - 일반한식","category":"restaurant"}]},{"lat":"37.39938807","long":"127.233058","imageIndex":4,"items":[{"name":"조이빈커피하우스","tel":"032-4761-4045","addr":"경기도 광주시 장지동 661번지","indutype":"일반휴게음식 - 서양음식","category":"restaurant"}]},{"lat":"37.39536658","long":"127.243616","imageIndex":4,"items":[{"name":"죽이야기(경기광주장지점)","tel":"031-762-0422","addr":"경기도 광주시 장지동 52-6번지 스타파크 2호","indutype":"일반휴게음식 - 일반한식","category":"restaurant"}]},{"lat":"37.39211698","long":"127.2330358","imageIndex":4,"items":[{"name":"찌마기","tel":"031-769-2312","addr":"경기도 광주시 장지동 690-13번지 1호","indutype":"일반휴게음식 - 일반한식","category":"restaurant"}]},{"lat":"37.39458994","long":"127.2444831","imageIndex":4,"items":[{"name":"카페륀느","tel":"","addr":"경기도 광주시 장지동 74-16번지 1층","indutype":"일반휴게음식 - 서양음식","category":"restaurant"}]},{"lat":"37.39519573","long":"127.243446","imageIndex":4,"items":[{"name":"카페인중독 경기광주점","tel":"","addr":"경기도 광주시 장지동 82-1번지 1층","indutype":"일반휴게음식 - 서양음식","category":"restaurant"},{"name":"피베리(Peaberry)","tel":"031-764-8038","addr":"경기도 광주시 장지동 82-1번지","indutype":"일반휴게음식 - 서양음식","category":"restaurant"}]},{"lat":"37.40674872","long":"127.237926","imageIndex":4,"items":[{"name":"커피아이린","tel":"070-7012-1308","addr":"경기도 광주시 장지동 533번지 103호","indutype":"일반휴게음식 - 서양음식","category":"restaurant"}]},{"lat":"37.39306402","long":"127.2325305","imageIndex":4,"items":[{"name":"키다리치킨","tel":"031-767-9993","addr":"경기도 광주시 장지동 686번지 동승빌딩 1층","indutype":"일반휴게음식 - 스넥","category":"restaurant"}]},{"lat":"37.3926673","long":"127.2326761","imageIndex":4,"items":[{"name":"태전정육식당","tel":"031-797-0588","addr":"경기도 광주시 장지동 687-39번지 1층 앞면","indutype":"일반휴게음식 - 일반한식","category":"restaurant"}]},{"lat":"37.4002287","long":"127.2362793","imageIndex":4,"items":[{"name":"통보장어마을","tel":"031-764-9203","addr":"경기도 광주시 장지동 455-2번지 1층","indutype":"일반휴게음식 - 일반한식","category":"restaurant"}]},{"lat":"37.39870103","long":"127.2387817","imageIndex":4,"items":[{"name":"한솔식당","tel":"031-764-3421","addr":"경기도 광주시 장지동 388-24번지 사무동 1층","indutype":"일반휴게음식 - 일반한식","category":"restaurant"}]},{"lat":"37.39469779","long":"127.2401695","imageIndex":4,"items":[{"name":"항아리보쌈","tel":"031-762-0889","addr":"경기도 광주시 장지동 347-7번지","indutype":"일반휴게음식 - 일반한식","category":"restaurant"}]},{"lat":"37.38961277","long":"127.2327345","imageIndex":4,"items":[{"name":"홍성식당","tel":"031-764-7138","addr":"경기도 광주시 장지동 71-1번지","indutype":"일반휴게음식 - 일반한식","category":"restaurant"}]},{"lat":"37.39409024","long":"127.2375928","imageIndex":4,"items":[{"name":"휘카페휴게점","tel":"031-5493-4128","addr":"경기도 광주시 장지동 365-1번지 1층","indutype":"일반휴게음식 - 서양음식","category":"restaurant"}]},{"lat":"37.39175884","long":"127.2364789","imageIndex":17,"items":[{"name":"(주) 룸인커머스","tel":"031-766-9526","addr":"경기도 광주시 장지동 692-1번지","indutype":"건축자재 - 조명기구","category":"other"}]},{"lat":"37.39158671","long":"127.2369526","imageIndex":17,"items":[{"name":"(주)미도","tel":"031-769-1449","addr":"경기도 광주시 장지동 290-1번지","indutype":"주방용구 - 주방용구","category":"other"}]},{"lat":"37.40522884","long":"127.2319012","imageIndex":17,"items":[{"name":"(주)아웃도어파크 광주지점","tel":"02-1111-1111","addr":"경기도 광주시 장지동 602-1번지","indutype":"레져용품 - 스포츠·레져용품","category":"other"},{"name":"성신가구","tel":"031-796-4403","addr":"경기도 광주시 장지동 602-1번지","indutype":"가구 - 일반가구","category":"other"}]},{"lat":"37.40774367","long":"127.2359863","imageIndex":17,"items":[{"name":"(주)제이브라이튼인터내셔널","tel":"070-4136-3611","addr":"경기도 광주시 장지동 756번지 벽산블루밍1단지 102동 2층 202호","indutype":"서적문구 - 출판 및 인쇄물","category":"other"}]},{"lat":"37.38447332","long":"127.2436489","imageIndex":17,"items":[{"name":"(주)제이엔씨테크","tel":"031-766-2180","addr":"경기도 광주시 장지동 220-15번지","indutype":"건축자재 - 기타건축자재","category":"other"},{"name":"금강건업","tel":"031-766-6862","addr":"경기도 광주시 장지동 220-15번지","indutype":"건축자재 - 기타건축자재","category":"other"},{"name":"동화배관","tel":"031-765-2127","addr":"경기도 광주시 장지동 220-15번지","indutype":"건축자재 - 보일러·펌프·샷시","category":"other"},{"name":"세명산업","tel":"031-762-0535","addr":"경기도 광주시 장지동 220-15번지","indutype":"기타 - 기계공구","category":"other"}]},{"lat":"37.39875653","long":"127.2380591","imageIndex":17,"items":[{"name":"(주)중앙데코","tel":"031-767-8347","addr":"경기도 광주시 장지동 388-22번지","indutype":"유통업 영리 - 기타유통업","category":"other"}]},{"lat":"37.39517333","long":"127.2455916","imageIndex":17,"items":[{"name":"(주)하율투어 경기광주점","tel":"031-762-0188","addr":"경기도 광주시 장지동 76-10번지","indutype":"여행 - 관광여행","category":"other"},{"name":"하이주니 모바일","tel":"031-798-7789","addr":"경기도 광주시 장지동 76-10번지 107호","indutype":"사무통신 - 통신기기","category":"other"}]},{"lat":"37.38344884","long":"127.2423358","imageIndex":17,"items":[{"name":"GS25광주고산점","tel":"02-2006-2485","addr":"경기도 광주시 장지동 225-6번지 외1필지","indutype":"유통업 영리 - 편 의 점","category":"other"},{"name":"GS25광주고산점","tel":"02-2006-2485","addr":"경기도 광주시 장지동 225-6번지 외1필지","indutype":"유통업 영리 - 상품권전문판매","category":"other"},{"name":"장지유통","tel":"031-761-9578","addr":"경기도 광주시 장지동 225-6번지","indutype":"의류 - 정장","category":"other"}]},{"lat":"37.39475055","long":"127.2408134","imageIndex":17,"items":[{"name":"GS25광주순암로점","tel":"","addr":"경기도 광주시 장지동 346-1번지 (장지동 346-1,1층101호)","indutype":"유통업 영리 - 상품권전문판매","category":"other"},{"name":"GS25광주순암로점","tel":"","addr":"경기도 광주시 장지동 346-1번지 (장지동 346-1,1층101호)","indutype":"유통업 영리 - 편 의 점","category":"other"},{"name":"대한종합설비","tel":"070-5133-3244","addr":"경기도 광주시 장지동 346-1번지 1층 5","indutype":"용역 서비스 - 기타용역서비스","category":"other"},{"name":"호프풀 주식회사","tel":"031-762-1913","addr":"경기도 광주시 장지동 346-1번지 2층","indutype":"레져용품 - 골프용품 전문점","category":"other"}]},{"lat":"37.39567004","long":"127.2450286","imageIndex":17,"items":[{"name":"GS25광주이편한점","tel":"","addr":"경기도 광주시 장지동 57-4번지 2층","indutype":"유통업 영리 - 상품권전문판매","category":"other"},{"name":"GS25광주이편한점","tel":"","addr":"경기도 광주시 장지동 57-4번지 2층","indutype":"유통업 영리 - 편 의 점","category":"other"},{"name":"세종산업","tel":"02-529-1355","addr":"경기도 광주시 장지동 57-4번지 1층","indutype":"건축자재 - 인테리어전문","category":"other"},{"name":"신대림공인중개사사무소","tel":"031-767-8300","addr":"경기도 광주시 장지동 57-4번지 2층 A","indutype":"용역 서비스 - 부동산 중개·임대","category":"other"}]},{"lat":"37.39117223","long":"127.2323666","imageIndex":17,"items":[{"name":"JH휘트니스클럽","tel":"031-761-0733","addr":"경기도 광주시 장지동 690-12번지 2층 3층","indutype":"회원제형태 - 레져업소","category":"other"},{"name":"드라이랑빨래랑","tel":"031-761-8982","addr":"경기도 광주시 장지동 690-12번지 한남빌딩 107호","indutype":"수리서비스 - 세탁소","category":"other"},{"name":"세븐일레븐경기광주장지본점","tel":"","addr":"경기도 광주시 장지동 690-12번지","indutype":"유통업 영리 - 편 의 점","category":"other"},{"name":"시그니피캔트","tel":"031-764-9290","addr":"경기도 광주시 장지동 690-12번지 한남빌딩 1층 102호","indutype":"문화.취미 - 문화취미기타","category":"other"}]},{"lat":"37.40630773","long":"127.2376761","imageIndex":17,"items":[{"name":"KM시스템","tel":"031-768-9009","addr":"경기도 광주시 장지동 533-2번지","indutype":"수리서비스 - 기타수리서비스","category":"other"},{"name":"광주종합사료","tel":"031-798-7090","addr":"경기도 광주시 장지동 533-2번지","indutype":"문화.취미 - 애완동물","category":"other"},{"name":"한영상사","tel":"02-474-9179","addr":"경기도 광주시 장지동 533-2번지","indutype":"건축자재 - 보일러·펌프·샷시","category":"other"}]},{"lat":"37.40164009","long":"127.2333134","imageIndex":17,"items":[{"name":"littlefox","tel":"031-769-3693","addr":"경기도 광주시 장지동 649-3장지빌라나-201","indutype":"의류 - 정장","category":"other"},{"name":"마지오건축상사","tel":"031-764-0793","addr":"경기도 광주시 장지동 649-3 장지빌라 나-202","indutype":"용역 서비스 - 종합용역","category":"other"}]},{"lat":"37.38414215","long":"127.2425639","imageIndex":17,"items":[{"name":"가구랜드명품관","tel":"031-763-0207","addr":"경기도 광주시 장지동 222-2번지","indutype":"가구 - 일반가구","category":"other"},{"name":"더블유에스디(WSD)스포츠","tel":"031-762-4388","addr":"경기도 광주시 장지동 222-2번지 2층","indutype":"레져용품 - 스포츠·레져용품","category":"other"}]},{"lat":"37.38636359","long":"127.2445583","imageIndex":17,"items":[{"name":"가나종합물산","tel":"031-797-3062","addr":"경기도 광주시 장지동 313-3번지","indutype":"기타 - 기계공구","category":"other"}]},{"lat":"37.40208836","long":"127.2344554","imageIndex":17,"items":[{"name":"강일","tel":"031-797-1156","addr":"경기도 광주시 장지동 639-1번지 1층","indutype":"건축자재 - 목재·석재·철물","category":"other"}]},{"lat":"37.39083959","long":"127.236589","imageIndex":17,"items":[{"name":"겸창호공사","tel":"","addr":"경기도 광주시 장지동 290-22번지","indutype":"용역 서비스 - 기타용역서비스","category":"other"}]},{"lat":"37.39086707","long":"127.2363632","imageIndex":17,"items":[{"name":"경기산업","tel":"031-766-7646","addr":"경기도 광주시 장지동 290-20. 8","indutype":"건축자재 - 기타건축자재","category":"other"}]},{"lat":"37.40547291","long":"127.2314841","imageIndex":17,"items":[{"name":"경안도요","tel":"031-761-3696","addr":"경기도 광주시 장지동 586-4번지","indutype":"주방용구 - 주방용식기","category":"other"}]},{"lat":"37.40159097","long":"127.2353913","imageIndex":17,"items":[{"name":"경인크레인","tel":"031-763-6969","addr":"경기도 광주시 장지동 635-2","indutype":"기타 - 기계공구","category":"other"},{"name":"제일중기 (포크레인)","tel":"031-000-0000","addr":"경기도 광주시 장지동 635-2번지","indutype":"기타 - 기계공구","category":"other"},{"name":"태전지게차","tel":"031-766-0028","addr":"경기도 광주시 장지동 635-2번지","indutype":"기타 - 기계공구","category":"other"}]},{"lat":"37.39502841","long":"127.2370311","imageIndex":17,"items":[{"name":"고구려윈도우캅 주식회사","tel":"031-798-6606","addr":"경기도 광주시 장지동 372-3번지 인덕빌딩 201호","indutype":"건축자재 - 기타건축자재","category":"other"}]},{"lat":"37.39605758","long":"127.2449734","imageIndex":17,"items":[{"name":"골프존파크 장지Joy점","tel":"031-767-7838","addr":"경기도 광주시 장지동 42-4번지 대광프라자 2층 201호","indutype":"레져용품 - 스포츠·레져용품","category":"other"},{"name":"로미페이지","tel":"031-761-5477","addr":"경기도 광주시 장지동 42-4번지 대광프라자 1층 108호","indutype":"의류 - 아동의류","category":"other"}]},{"lat":"37.39581326","long":"127.2365366","imageIndex":17,"items":[{"name":"공구119","tel":"031-769-5409","addr":"경기도 광주시 장지동 374-4번지","indutype":"기타 - 기계공구","category":"other"},{"name":"광주남양계량증명업소","tel":"031-763-7249","addr":"경기도 광주시 장지동 374-4번지","indutype":"용역 서비스 - 사무서비스","category":"other"},{"name":"대동하이텍","tel":"031-764-2112","addr":"경기도 광주시 장지동 374-4번지","indutype":"신변잡화 - 기타잡화","category":"other"},{"name":"대명특수무늬목재","tel":"031-769-8148","addr":"경기도 광주시 장지동 374-4번지","indutype":"건축자재 - 목재·석재·철물","category":"other"},{"name":"대명특수무늬목재","tel":"031-769-8148","addr":"경기도 광주시 장지동 374-4번지","indutype":"가구 - 기타가구","category":"other"}]},{"lat":"37.3995358","long":"127.2358367","imageIndex":17,"items":[{"name":"광고마을","tel":"031-769-6885","addr":"경기도 광주시 장지동 669번지 광고마을","indutype":"용역 서비스 - 종합용역","category":"other"}]},{"lat":"37.38472521","long":"127.2438417","imageIndex":17,"items":[{"name":"광영방화문","tel":"031-764-6183","addr":"경기도 광주시 장지동 220-14 외1필지(220-36)","indutype":"건축자재 - 기타건축자재","category":"other"}]},{"lat":"37.39511654","long":"127.2425085","imageIndex":17,"items":[{"name":"광주시알뜰재활용센타","tel":"031-762-4985","addr":"경기도 광주시 장지동 50-28번지","indutype":"전기제품 - 가전제품","category":"other"}]},{"lat":"37.39492269","long":"127.244789","imageIndex":17,"items":[{"name":"광주종합상사,한미타올","tel":"031-768-4400","addr":"경기도 광주시 장지동 77-3, 16번지","indutype":"기타 - 기계공구","category":"other"},{"name":"베이비플러스 경기광주점","tel":"031-763-1988","addr":"경기도 광주시 장지동 77-3번지 1층","indutype":"의류 - 아동의류","category":"other"}]},{"lat":"37.40686538","long":"127.2289244","imageIndex":17,"items":[{"name":"광주천막","tel":"031-768-3404","addr":"경기도 광주시 장지동 547번지","indutype":"직물 - 카페트,커튼,천막,지물","category":"other"}]},{"lat":"37.39495099","long":"127.244168","imageIndex":17,"items":[{"name":"광주행복에너지서비스","tel":"070-7419-8592","addr":"경기도 광주시 장지동 77-11번지","indutype":"용역 서비스 - 기타용역서비스","category":"other"}]},{"lat":"37.38953323","long":"127.2365397","imageIndex":17,"items":[{"name":"광주화훼영농조합법인","tel":"031-765-5196","addr":"경기도 광주시 장지동 92","indutype":"문화.취미 - 화원","category":"other"}]},{"lat":"37.39444849","long":"127.238678","imageIndex":17,"items":[{"name":"국보의료기","tel":"031-762-6494","addr":"경기도 광주시 장지동 361-1번지","indutype":"기타의료기관 - 기타의료기관 및 기타","category":"other"},{"name":"비바","tel":"","addr":"경기도 광주시 장지동 361-1번지","indutype":"용역 서비스 - 기타용역서비스","category":"other"},{"name":"새성유리샷시","tel":"031-768-0096","addr":"경기도 광주시 장지동 361-1번지","indutype":"건축자재 - 유리","category":"other"}]},{"lat":"37.39189189","long":"127.232956","imageIndex":17,"items":[{"name":"그린전산","tel":"031-764-7779","addr":"경기도 광주시 장지동 690-6번지","indutype":"사무통신 - 기타 사무용품","category":"other"}]},{"lat":"37.39115287","long":"127.2330554","imageIndex":17,"items":[{"name":"김성진골프스쿨","tel":"031-702-0770","addr":"경기도 광주시 장지동 755번지 금광포란재아파트","indutype":"회원제형태 - 레져업소","category":"other"},{"name":"진성","tel":"070-8242-9957","addr":"경기도 광주시 장지동 755번지 금광포란재아파트","indutype":"회원제형태 - 기타4","category":"other"}]},{"lat":"37.39769724","long":"127.2360907","imageIndex":17,"items":[{"name":"나래인쇄","tel":"031-769-5414","addr":"경기도 광주시 장지동 385-10번지","indutype":"서적문구 - 출판 및 인쇄물","category":"other"},{"name":"씨유광주신장지점","tel":"031-761-6887","addr":"경기도 광주시 장지동 385-10번지","indutype":"유통업 영리 - 편 의 점","category":"other"}]},{"lat":"37.39275436","long":"127.2342347","imageIndex":17,"items":[{"name":"니드컴퓨터","tel":"031-769-8242","addr":"경기도 광주시 장지동 692-61현대상사105","indutype":"사무통신 - 컴퓨터","category":"other"},{"name":"쿨에어컨","tel":"031-756-8247","addr":"경기도 광주시 장지동 692-61","indutype":"용역 서비스 - 기타용역서비스","category":"other"}]},{"lat":"37.39306402","long":"127.2325305","imageIndex":17,"items":[{"name":"다이소광주태전점","tel":"031-767-4588","addr":"경기도 광주시 장지동 686번지","indutype":"신변잡화 - 기타잡화","category":"other"}]},{"lat":"37.38772908","long":"127.2421123","imageIndex":17,"items":[{"name":"담안 에어컨","tel":"","addr":"경기도 광주시 장지동 199-4번지","indutype":"용역 서비스 - 기타용역서비스","category":"other"}]},{"lat":"37.39178531","long":"127.2367613","imageIndex":17,"items":[{"name":"대로교육","tel":"031-766-6233","addr":"경기도 광주시 장지동 291번지","indutype":"서적문구 - 일반서적","category":"other"},{"name":"림스DIY","tel":"031-732-3328","addr":"경기도 광주시 장지동 291번지","indutype":"신변잡화 - 기타잡화","category":"other"},{"name":"예솔교육","tel":"031-766-6235","addr":"경기도 광주시 장지동 291번지 1/2","indutype":"서적문구 - 일반서적","category":"other"}]},{"lat":"37.39724997","long":"127.2434752","imageIndex":17,"items":[{"name":"대륙","tel":"02-742-8775","addr":"경기도 광주시 장지동 28번지 리버빌","indutype":"의류 - 정장","category":"other"}]},{"lat":"37.39111399","long":"127.2435346","imageIndex":17,"items":[{"name":"대명골재","tel":"031`-764-4361","addr":"경기도 광주시 장지동 171번지","indutype":"건축자재 - 기타건축자재","category":"other"}]},{"lat":"37.38459003","long":"127.2393924","imageIndex":17,"items":[{"name":"대물림","tel":"031-764-8896","addr":"경기도 광주시 장지동 228-1번지","indutype":"회원제형태 - 기타4","category":"other"}]},{"lat":"37.39375642","long":"127.2378176","imageIndex":17,"items":[{"name":"대성닥트","tel":"031-761-3213","addr":"경기도 광주시 장지동 301-3번지","indutype":"기타 - 기타 전문점","category":"other"}]},{"lat":"37.38747798","long":"127.2459508","imageIndex":17,"items":[{"name":"대성중기","tel":"031-767-6160","addr":"경기도 광주시 장지동 215-40번지 2층","indutype":"기타 - 기계공구","category":"other"},{"name":"용엔터테인먼트","tel":"031-762-1500","addr":"경기도 광주시 장지동 215-40번지 2층","indutype":"용역 서비스 - 종합용역","category":"other"},{"name":"우인","tel":"031-769-1525","addr":"경기도 광주시 장지동 215-40","indutype":"보험 - 기타보험","category":"other"},{"name":"초원조경중기","tel":"070-4896-1482","addr":"경기도 광주시 장지동 215-40번지 2층","indutype":"기타 - 기계공구","category":"other"}]},{"lat":"37.40575188","long":"127.2269558","imageIndex":17,"items":[{"name":"대원계전주식회사","tel":"02-462-9405","addr":"경기도 광주시 장지동 569-1번지","indutype":"기타 - 기계공구","category":"other"}]},{"lat":"37.39752315","long":"127.2420531","imageIndex":17,"items":[{"name":"더할나위 없는     (수작)","tel":"","addr":"경기도 광주시 장지동 19-1번지 동승빌라트","indutype":"신변잡화 - 기타잡화","category":"other"}]},{"lat":"37.40556231","long":"127.2271472","imageIndex":17,"items":[{"name":"덕성창호공사","tel":"031-797-2354","addr":"경기도 광주시 장지동 569-6번지","indutype":"건축자재 - 유리","category":"other"}]},{"lat":"37.39194696","long":"127.2370328","imageIndex":17,"items":[{"name":"덕수상사","tel":"031-761-5408","addr":"경기도 광주시 장지동 105번지","indutype":"유통업 영리 - 기타유통업","category":"other"},{"name":"덕수상사","tel":"031-761-5408","addr":"경기도 광주시 장지동 105번지","indutype":"주방용구 - 주방용구","category":"other"}]},{"lat":"37.39956305","long":"127.2447023","imageIndex":17,"items":[{"name":"도도(do.do.)","tel":"","addr":"경기도 광주시 장지동 3-17번지 103호","indutype":"의류 - 정장","category":"other"}]},{"lat":"37.40430681","long":"127.2334458","imageIndex":17,"items":[{"name":"돈키호테피싱쇼핑몰","tel":"031-798-4620","addr":"경기도 광주시 장지동 611-8번지","indutype":"레져용품 - 스포츠·레져용품","category":"other"}]},{"lat":"37.39400578","long":"127.2392865","imageIndex":17,"items":[{"name":"동네북 광주서점","tel":"","addr":"경기도 광주시 장지동 342-9번지 한일맨션 402호","indutype":"서적문구 - 일반서적","category":"other"}]},{"lat":"37.39442451","long":"127.241648","imageIndex":17,"items":[{"name":"동성종합목재","tel":"031-767-0875","addr":"경기도 광주시 장지동 344-2번지","indutype":"건축자재 - 목재·석재·철물","category":"other"},{"name":"한국철망휀스","tel":"031-766-0568","addr":"경기도 광주시 장지동 344-2","indutype":"건축자재 - 기타건축자재","category":"other"}]},{"lat":"37.39296302","long":"127.2335014","imageIndex":17,"items":[{"name":"로즈시티","tel":"031-797-9539","addr":"경기도 광주시 장지동 692-61번지 현대아파트","indutype":"회원제형태 - 기타1","category":"other"}]},{"lat":"37.38908695","long":"127.2343928","imageIndex":17,"items":[{"name":"로즈힐","tel":"031-769-8588","addr":"경기도 광주시 장지동 695-4번지 1층 1호","indutype":"직물 - 침구·수예점","category":"other"},{"name":"세중테크","tel":"031-767-6061","addr":"경기도 광주시 장지동 695-4번지 1층","indutype":"용역 서비스 - 기타용역서비스","category":"other"}]},{"lat":"37.39248324","long":"127.2346517","imageIndex":17,"items":[{"name":"리치S라인","tel":"070-4254-0160","addr":"경기도 광주시 장지동 692-61번지 현대아파트","indutype":"의류 - 내의판매","category":"other"}]},{"lat":"37.40188481","long":"127.2325687","imageIndex":17,"items":[{"name":"마음플랜","tel":"031-8028-8787","addr":"경기도 광주시 장지동 649-4번지 푸른마을","indutype":"건축자재 - 인테리어전문","category":"other"}]},{"lat":"37.39491829","long":"127.2380358","imageIndex":17,"items":[{"name":"만봉기업","tel":"031-767-2822","addr":"경기도 광주시 장지동 358-4번지 만봉기업","indutype":"용역 서비스 - 기타용역서비스","category":"other"}]},{"lat":"37.39795185","long":"127.2439179","imageIndex":17,"items":[{"name":"명성과학/원격지","tel":"031-768-7123","addr":"경기도 광주시 장지동 12-2번지 세진타운","indutype":"기타 - 기타 전문점","category":"other"}]},{"lat":"37.40431935","long":"127.2316274","imageIndex":17,"items":[{"name":"명진공조시스템","tel":"","addr":"경기도 광주시 장지동 598번지 한양빌라","indutype":"용역 서비스 - 기타용역서비스","category":"other"}]},{"lat":"37.39316787","long":"127.2347216","imageIndex":17,"items":[{"name":"모모우산","tel":"031-322-0721","addr":"경기도 광주시 장지동 692-61번지 현대아파트","indutype":"신변잡화 - 기타잡화","category":"other"}]},{"lat":"37.40180874","long":"127.2346127","imageIndex":17,"items":[{"name":"미니스톱 광주장지행복점","tel":"031-1577-9621","addr":"경기도 광주시 장지동 642-1번지","indutype":"유통업 영리 - 편 의 점","category":"other"}]},{"lat":"37.4015826","long":"127.2350637","imageIndex":17,"items":[{"name":"미래앤텍","tel":"031-765-9785","addr":"경기도 광주시 장지동 636-3","indutype":"서적문구 - 과학기자재","category":"other"}]},{"lat":"37.39030746","long":"127.2322624","imageIndex":17,"items":[{"name":"미루","tel":"031-767-2589","addr":"경기도 광주시 장지동 68-3번지","indutype":"서적문구 - 완구점","category":"other"}]},{"lat":"37.39261985","long":"127.2339068","imageIndex":17,"items":[{"name":"보현암","tel":"031-761-3639","addr":"경기도 광주시 장지동 692-61번지 현대아파트","indutype":"기타 - 기타 전문점","category":"other"},{"name":"은성","tel":"031-762-4861","addr":"경기도 광주시 장지동 692-61번지 현대아파트","indutype":"용역 서비스 - 기타용역서비스","category":"other"}]},{"lat":"37.40734533","long":"127.2369452","imageIndex":17,"items":[{"name":"블루밍세탁소","tel":"031-768-5007","addr":"경기도 광주시 장지동 757번지 벽산블루밍2단지 상가 105호","indutype":"수리서비스 - 세탁소","category":"other"}]},{"lat":"37.39438988","long":"127.2409477","imageIndex":17,"items":[{"name":"빈스포츠","tel":"031-764-7658","addr":"경기도 광주시 장지동 344번지","indutype":"레져용품 - 스포츠·레져용품","category":"other"},{"name":"빈스포츠","tel":"031-764-7658","addr":"경기도 광주시 장지동 344번지","indutype":"레져용품 - 스포츠·레져용품","category":"other"},{"name":"티아이(TI)","tel":"070-4137-3002","addr":"경기도 광주시 장지동 344번지","indutype":"레져용품 - 스포츠·레져용품","category":"other"}]},{"lat":"37.40558702","long":"127.2283671","imageIndex":17,"items":[{"name":"삼광엔지니어링","tel":"031-768-1613","addr":"경기도 광주시 장지동 573번지","indutype":"기타 - 기타 전문점","category":"other"}]},{"lat":"37.3929197","long":"127.2372052","imageIndex":17,"items":[{"name":"삼성아이스콘","tel":"031-768-3680","addr":"경기도 광주시 장지동 107-1번지","indutype":"전기제품 - 냉열기기","category":"other"}]},{"lat":"37.39899764","long":"127.2345927","imageIndex":17,"items":[{"name":"성남드라이아이스","tel":"031-769-5260","addr":"경기도 광주시 장지동 672-24 현대빌리지 G-202","indutype":"유통업 영리 - 기타유통업","category":"other"}]},{"lat":"37.39627986","long":"127.2375093","imageIndex":17,"items":[{"name":"세계에어컨(엘지,삼성,케리어)","tel":"070-4896-1482","addr":"경기도 광주시 장지동 408번지","indutype":"전기제품 - 냉열기기","category":"other"}]},{"lat":"37.38370101","long":"127.2423931","imageIndex":17,"items":[{"name":"세렌테크","tel":"031-336-9017","addr":"경기도 광주시 장지동 224번지 201호","indutype":"레져용품 - 스포츠·레져용품","category":"other"}]},{"lat":"37.40633267","long":"127.2295101","imageIndex":17,"items":[{"name":"세종산업","tel":"031-764-7416","addr":"경기도 광주시 장지동 550번지","indutype":"신변잡화 - 기타잡화","category":"other"},{"name":"에이치 준(H.JUN)피싱","tel":"031-797-1929","addr":"경기도 광주시 장지동 550번지","indutype":"레져용품 - 스포츠·레져용품","category":"other"},{"name":"집엔(ZipN)","tel":"031-797-8704","addr":"경기도 광주시 장지동 550번지","indutype":"건축자재 - 기타건축자재","category":"other"}]},{"lat":"37.38986989","long":"127.2348695","imageIndex":17,"items":[{"name":"세진씽크","tel":"070-7539-8630","addr":"경기도 광주시 장지동 73-6번지","indutype":"주방용구 - 주방용구","category":"other"}]},{"lat":"37.40664484","long":"127.2264502","imageIndex":17,"items":[{"name":"소파를찾는사람들","tel":"031-766-1237","addr":"경기도 광주시 장지동 561번지","indutype":"가구 - 일반가구","category":"other"}]},{"lat":"37.39786929","long":"127.2446404","imageIndex":17,"items":[{"name":"송담","tel":"","addr":"경기도 광주시 장지동 37번지 1층","indutype":"의류 - 정장","category":"other"}]},{"lat":"37.39461085","long":"127.2385882","imageIndex":17,"items":[{"name":"수윈(윈도우스토리광주점)","tel":"031-762-1038","addr":"경기도 광주시 장지동 358-11번지","indutype":"직물 - 카페트,커튼,천막,지물","category":"other"}]},{"lat":"37.40491894","long":"127.2290654","imageIndex":17,"items":[{"name":"수현다육","tel":"031-583-2559","addr":"경기도 광주시 장지동 579-20번지 백산오페라하우스 112동 102호","indutype":"문화.취미 - 화원","category":"other"}]},{"lat":"37.39463916","long":"127.2468434","imageIndex":17,"items":[{"name":"스프린트통신","tel":"031-769-5089","addr":"경기도 광주시 장지동 62-1번지 103호","indutype":"사무통신 - 통신기기","category":"other"}]},{"lat":"37.39444806","long":"127.2388926","imageIndex":17,"items":[{"name":"신광종합인테리어","tel":"070-8150-1060","addr":"경기도 광주시 장지동 359-1번지","indutype":"건축자재 - 인테리어전문","category":"other"},{"name":"신광타일","tel":"070-8150-1060","addr":"경기도 광주시 장지동 359-1번지","indutype":"건축자재 - 건축용 요업제품","category":"other"}]},{"lat":"37.38938951","long":"127.2317062","imageIndex":17,"items":[{"name":"신안목재창호","tel":"031-767-6177","addr":"경기도 광주시 장지동 697-4번지","indutype":"건축자재 - 목재·석재·철물","category":"other"}]},{"lat":"37.40636445","long":"127.231724","imageIndex":17,"items":[{"name":"씨엠밴딩","tel":"031-769-7658","addr":"경기도 광주시 장지동 538번지 2층","indutype":"용역 서비스 - 기타용역서비스","category":"other"},{"name":"에스와이공업사유리","tel":"","addr":"경기도 광주시 장지동 538번지 2층","indutype":"용역 서비스 - 기타용역서비스","category":"other"}]},{"lat":"37.39600792","long":"127.2428162","imageIndex":17,"items":[{"name":"씨유광주장지길점","tel":"080-080-3663","addr":"경기도 광주시 장지동 50-8번지","indutype":"유통업 영리 - 편 의 점","category":"other"}]},{"lat":"37.40544787","long":"127.2304562","imageIndex":17,"items":[{"name":"씨유광주장지마을점","tel":"031-898-6567","addr":"경기도 광주시 장지동 583번지","indutype":"유통업 영리 - 편 의 점","category":"other"}]},{"lat":"37.38730867","long":"127.2450356","imageIndex":17,"items":[{"name":"아리랑이노베이션","tel":"031-798-2016","addr":"경기도 광주시 장지동 312-3번지 201호","indutype":"건축자재 - 기타건축자재","category":"other"},{"name":"장원볼트","tel":"031-797-4416","addr":"경기도 광주시 장지동 312-3번지 외1필지","indutype":"기타 - 기계공구","category":"other"},{"name":"평산금속","tel":"031-765-9472","addr":"경기도 광주시 장지동 312-3번지","indutype":"건축자재 - 기타건축자재","category":"other"}]},{"lat":"37.40561769","long":"127.2311683","imageIndex":17,"items":[{"name":"앤에스산업개발(주)","tel":"031-765-2430","addr":"경기도 광주시 장지동 586-2번지 3층","indutype":"건축자재 - 부동산 분양","category":"other"}]},{"lat":"37.39660441","long":"127.2419147","imageIndex":17,"items":[{"name":"엠아이티","tel":"070-8249-1910","addr":"경기도 광주시 장지동 25-1번지 한일맨션 다동 401호","indutype":"서적문구 - 과학기자재","category":"other"}]},{"lat":"37.39553585","long":"127.2401044","imageIndex":17,"items":[{"name":"영구청소101호점","tel":"031-759-0208","addr":"경기도 광주시 장지동 418-7번지 아인빌","indutype":"회원제형태 - 기타4","category":"other"}]},{"lat":"37.39718641","long":"127.2437121","imageIndex":17,"items":[{"name":"영구청소102호점","tel":"031-759-0208","addr":"경기도 광주시 장지동 28번지 리버빌","indutype":"용역 서비스 - 종합용역","category":"other"}]},{"lat":"37.38522739","long":"127.2405687","imageIndex":17,"items":[{"name":"오케이 (OK)클린다비치","tel":"070-4219-0063","addr":"경기도 광주시 장지동 233-12번지 앙상블 106동 201호","indutype":"용역 서비스 - 종합용역","category":"other"}]},{"lat":"37.39411728","long":"127.2420875","imageIndex":17,"items":[{"name":"원테크","tel":"031-766-6527","addr":"경기도 광주시 장지동 168 한일빌라 203","indutype":"전기제품 - 기타전기제품","category":"other"}]},{"lat":"37.39261286","long":"127.2328679","imageIndex":17,"items":[{"name":"위드미 광주장지점","tel":"031-111-1111","addr":"경기도 광주시 장지동 688-2번지 101호","indutype":"유통업 영리 - 편 의 점","category":"other"},{"name":"쿠보","tel":"031-8028-4281","addr":"경기도 광주시 장지동 688-2번지 103호","indutype":"의류 - 정장","category":"other"}]},{"lat":"37.40489358","long":"127.2328715","imageIndex":17,"items":[{"name":"유림철망.휀스.공구","tel":"031-764-6298","addr":"경기도 광주시 장지동 607번지","indutype":"건축자재 - 기타건축자재","category":"other"}]},{"lat":"37.39450494","long":"127.2419758","imageIndex":17,"items":[{"name":"유일목공기계","tel":"031-768-7742","addr":"경기도 광주시 장지동 87-8","indutype":"기타 - 기계공구","category":"other"}]},{"lat":"37.39667015","long":"127.2450318","imageIndex":17,"items":[{"name":"이누펫살롱","tel":"031-798-5298","addr":"경기도 광주시 장지동 40-8번지 JG빌딩","indutype":"문화.취미 - 애완동물","category":"other"}]},{"lat":"37.40776269","long":"127.2354781","imageIndex":17,"items":[{"name":"이마트24 광주벌원점","tel":"","addr":"경기도 광주시 장지동 756번지 벽산블루밍1단지 상가동 1층 102호","indutype":"유통업 영리 - 편 의 점","category":"other"}]},{"lat":"37.40194329","long":"127.234918","imageIndex":17,"items":[{"name":"이지에스","tel":"","addr":"경기도 광주시 장지동 636-1번지 다온빌 상가 1층 104호","indutype":"용역 서비스 - 기타용역서비스","category":"other"}]},{"lat":"37.39011691","long":"127.2329506","imageIndex":17,"items":[{"name":"제일기업","tel":"031-798-3503","addr":"경기도 광주시 장지동 69-7번지","indutype":"건축자재 - 기타건축자재","category":"other"}]},{"lat":"37.38953119","long":"127.2329827","imageIndex":17,"items":[{"name":"조은기업","tel":"031-798-8023","addr":"경기도 광주시 장지동 71-2","indutype":"용역 서비스 - 종합용역","category":"other"}]},{"lat":"37.39628136","long":"127.2367527","imageIndex":17,"items":[{"name":"주식회사 광주배관","tel":"032-769-3737","addr":"경기도 광주시 장지동 377-9번지 1층 2층","indutype":"건축자재 - 기타건축자재","category":"other"}]},{"lat":"37.40497603","long":"127.2321715","imageIndex":17,"items":[{"name":"주식회사 비에이치앤컴퍼니","tel":"031-705-8906","addr":"경기도 광주시 장지동 603-7번지 1,2,3,4층","indutype":"의류 - 정장","category":"other"},{"name":"주식회사 비에이치앤컴퍼니","tel":"031-1577-8906","addr":"경기도 광주시 장지동 603-7번지 ,1~4층","indutype":"의류 - 정장","category":"other"}]},{"lat":"37.39970097","long":"127.2343126","imageIndex":17,"items":[{"name":"주식회사 엘에스시스템","tel":"02-401-1092","addr":"경기도 광주시 장지동 672-9번지 현대빌리지 지하 1호","indutype":"용역 서비스 - 종합용역","category":"other"}]},{"lat":"37.39842449","long":"127.2373918","imageIndex":17,"items":[{"name":"주식회사 와이엔제이(Y&J Co.,Ltd)","tel":"031-797-5200","addr":"경기도 광주시 장지동 388-21번지","indutype":"신변잡화 - 기타잡화","category":"other"}]},{"lat":"37.40614272","long":"127.2298936","imageIndex":17,"items":[{"name":"주식회사 코리아엠알오","tel":"031-767-5624","addr":"경기도 광주시 장지동 584-1번지","indutype":"기타 - 기계공구","category":"other"}]},{"lat":"37.39827921","long":"127.237956","imageIndex":17,"items":[{"name":"주식회사대명에이.티.엠","tel":"031-767-8724","addr":"경기도 광주시 장지동 388-23번지","indutype":"건축자재 - 기타건축자재","category":"other"}]},{"lat":"37.3948099","long":"127.238171","imageIndex":17,"items":[{"name":"지오아크릴","tel":"070-4227-1543","addr":"경기도 광주시 장지동 358-28번지","indutype":"건축자재 - 기타건축자재","category":"other"}]},{"lat":"37.40129775","long":"127.2332897","imageIndex":17,"items":[{"name":"진선미에어컨","tel":"031-761-3714","addr":"경기도 광주시 장지동 656번지 현대전원빌라","indutype":"용역 서비스 - 기타용역서비스","category":"other"}]},{"lat":"37.40455876","long":"127.2336159","imageIndex":17,"items":[{"name":"찌사랑 낚시 백화점","tel":"031-798-4620","addr":"경기도 광주시 장지동 611-1번지","indutype":"레져용품 - 스포츠·레져용품","category":"other"}]},{"lat":"37.39406083","long":"127.2387898","imageIndex":17,"items":[{"name":"천일상사","tel":"031-767-6271","addr":"경기도 광주시 장지동 341-5번지","indutype":"건축자재 - 페인트","category":"other"}]},{"lat":"37.38767568","long":"127.2417847","imageIndex":17,"items":[{"name":"청우환경","tel":"031-767-7352","addr":"경기도 광주시 장지동 198-2번지 1층","indutype":"용역 서비스 - 종합용역","category":"other"}]},{"lat":"37.38791811","long":"127.2422033","imageIndex":17,"items":[{"name":"카라비카","tel":"070-8833-6936","addr":"경기도 광주시 장지동 199-1번지 2층","indutype":"주방용구 - 주방용구","category":"other"}]},{"lat":"37.38779352","long":"127.241435","imageIndex":17,"items":[{"name":"케이프로그","tel":"02-571-8630","addr":"경기도 광주시 장지동 197-12번지 대림타운빌","indutype":"레져용품 - 스포츠·레져용품","category":"other"}]},{"lat":"37.39825104","long":"127.2430041","imageIndex":17,"items":[{"name":"코원","tel":"","addr":"경기도 광주시 장지동 15-23번지 스타밸리 204호","indutype":"직물 - 카페트,커튼,천막,지물","category":"other"}]},{"lat":"37.40080909","long":"127.2343724","imageIndex":17,"items":[{"name":"크는나무","tel":"031-765-7579","addr":"경기도 광주시 장지동 663-2번지","indutype":"서적문구 - 기타서적문구","category":"other"}]},{"lat":"37.39941947","long":"127.2444195","imageIndex":17,"items":[{"name":"크린토피아","tel":"031-798-6363","addr":"경기도 광주시 장지동 3-20번지 1층 102호","indutype":"수리서비스 - 세탁소","category":"other"}]},{"lat":"37.39439517","long":"127.2427885","imageIndex":17,"items":[{"name":"타카슬라임 경기광주점","tel":"031-797-7974","addr":"경기도 광주시 장지동 90-2번지 3층","indutype":"서적문구 - 완구점","category":"other"}]},{"lat":"37.38514868","long":"127.243843","imageIndex":17,"items":[{"name":"태광산업","tel":"031-766-7973","addr":"경기도 광주시 장지동 219-9","indutype":"건축자재 - 기타건축자재","category":"other"}]},{"lat":"37.39404556","long":"127.2419065","imageIndex":17,"items":[{"name":"태평양화원","tel":"031-754-9235","addr":"경기도 광주시 장지동 167-1번지 현대타운 가동 203호","indutype":"문화.취미 - 화원","category":"other"}]},{"lat":"37.39172406","long":"127.2448126","imageIndex":17,"items":[{"name":"포차상회","tel":"031-764-5235","addr":"경기도 광주시 장지동 274-1번지","indutype":"회원제형태 - 기타4","category":"other"}]},{"lat":"37.40674872","long":"127.237926","imageIndex":17,"items":[{"name":"프리웨이스토어","tel":"031-763-5369","addr":"경기도 광주시 장지동 533번지 (1층104~106호)","indutype":"신변잡화 - 기타잡화","category":"other"}]},{"lat":"37.39891615","long":"127.243808","imageIndex":17,"items":[{"name":"플랜에이 경기광주역센터","tel":"031-763-0953","addr":"경기도 광주시 장지동 4-6번지 402호","indutype":"용역 서비스 - 사무서비스","category":"other"}]},{"lat":"37.38406137","long":"127.2379229","imageIndex":17,"items":[{"name":"한림W&D(한림더블유앤디)","tel":"031-768-7608","addr":"경기도 광주시 장지동 227-7번지","indutype":"주방용구 - 주방용구","category":"other"}]},{"lat":"37.40603343","long":"127.2305031","imageIndex":17,"items":[{"name":"한세인테리어 소품 잡화","tel":"031-761-0468","addr":"경기도 광주시 장지동 540-5번지 1층","indutype":"건축자재 - 인테리어전문","category":"other"}]},{"lat":"37.38627986","long":"127.2414189","imageIndex":17,"items":[{"name":"한신공업사","tel":"031-762-3689","addr":"경기도 광주시 장지동 235-2번지","indutype":"건축자재 - 기타건축자재","category":"other"}]},{"lat":"37.38997264","long":"127.2465008","imageIndex":17,"items":[{"name":"해리솔루션","tel":"031-768-3111","addr":"경기도 광주시 장지동 131-35번지","indutype":"용역 서비스 - 종합용역","category":"other"}]},{"lat":"37.39056024","long":"127.2320034","imageIndex":17,"items":[{"name":"현대종합문구","tel":"031-762-4266","addr":"경기도 광주시 장지동 68번지","indutype":"사무통신 - 사무용 OA기기","category":"other"}]},{"lat":"37.39644987","long":"127.2425918","imageIndex":17,"items":[{"name":"활빈당","tel":"070-9247-2547","addr":"경기도 광주시 장지동 26-3 송파파인타운 902-202","indutype":"문화.취미 - 민예·공예품","category":"other"}]},{"lat":"37.39478418","long":"127.2420105","imageIndex":17,"items":[{"name":"효성모타","tel":"031-762-1010","addr":"경기도 광주시 장지동 86번지","indutype":"수리서비스 - 기타수리서비스","category":"other"}]},{"lat":"37.40133324","long":"127.2381462","imageIndex":7,"items":[{"name":"(주)보성에프앤비","tel":"031-911-1146","addr":"경기도 광주시 장지동 467-1번지 B동 418호","indutype":"음료식품 - 정육점","category":"food"}]},{"lat":"37.40242131","long":"127.234671","imageIndex":7,"items":[{"name":"강산씨앤티(C&T)","tel":"031-766-4573","addr":"경기도 광주시 장지동 637-1번지","indutype":"음료식품 - 주류 판매점","category":"food"}]},{"lat":"37.39472836","long":"127.2383966","imageIndex":7,"items":[{"name":"델리퀸 장지점","tel":"031-769-6612","addr":"경기도 광주시 장지동 358-18번지","indutype":"음료식품 - 정육점","category":"food"}]},{"lat":"37.39703078","long":"127.24492","imageIndex":7,"items":[{"name":"도담도담식빵","tel":"031-762-9993","addr":"경기도 광주시 장지동 39-5번지","indutype":"음료식품 - 제과점","category":"food"}]},{"lat":"37.39940439","long":"127.2339277","imageIndex":7,"items":[{"name":"드림누리","tel":"070-4197-6848","addr":"경기도 광주시 장지동 672-9번지 현대빌리지","indutype":"음료식품 - 농·축·수산품","category":"food"}]},{"lat":"37.39284059","long":"127.2315925","imageIndex":7,"items":[{"name":"뚜레쥬르 광주태전","tel":"031-766-1384","addr":"경기도 광주시 장지동 687-9.28/","indutype":"음료식품 - 제과점","category":"food"}]},{"lat":"37.39605758","long":"127.2449734","imageIndex":7,"items":[{"name":"뚜레쥬르(광주역e편한세상점)","tel":"031-761-0150","addr":"경기도 광주시 장지동 42-4번지 대광프라자 1층","indutype":"음료식품 - 제과점","category":"food"}]},{"lat":"37.39536254","long":"127.2455923","imageIndex":7,"items":[{"name":"반찬1번가","tel":"031-769-4469","addr":"경기도 광주시 장지동 56-7번지 1층 104호","indutype":"음료식품 - 기타음료식품","category":"food"},{"name":"블럭제빵소 경기광주역점","tel":"031-762-1110","addr":"경기도 광주시 장지동 56-7번지 가람빌딩 1층","indutype":"음료식품 - 제과점","category":"food"}]},{"lat":"37.4003122","long":"127.244061","imageIndex":7,"items":[{"name":"성복정육점","tel":"031-761-9617","addr":"경기도 광주시 장지동 3-13번지","indutype":"음료식품 - 정육점","category":"food"}]},{"lat":"37.39870103","long":"127.2387817","imageIndex":7,"items":[{"name":"세아FS","tel":"031-698-4988","addr":"경기도 광주시 장지동 388-24번지 2층 201호","indutype":"음료식품 - 정육점","category":"food"},{"name":"주식회사 돼지왕 농업회사법인","tel":"031-1111-1111","addr":"경기도 광주시 장지동 388-24번지 사무동 305호","indutype":"음료식품 - 정육점","category":"food"}]},{"lat":"37.40466175","long":"127.2316171","imageIndex":7,"items":[{"name":"숙영유통","tel":"070-4219-0063","addr":"경기도 광주시 장지동 600-1번지 상록타운 나동 103호","indutype":"음료식품 - 농·축·수산품","category":"food"}]},{"lat":"37.38767568","long":"127.2417847","imageIndex":7,"items":[{"name":"신미성상사","tel":"070-7502-6715","addr":"경기도 광주시 장지동 198-2번지","indutype":"음료식품 - 기타음료식품","category":"food"}]},{"lat":"37.39956305","long":"127.2447023","imageIndex":7,"items":[{"name":"싱싱농산물","tel":"031-000-0000","addr":"경기도 광주시 장지동 3-17번지 1층 102호","indutype":"음료식품 - 농·축·수산품","category":"food"}]},{"lat":"37.39117223","long":"127.2323666","imageIndex":7,"items":[{"name":"오늘반찬","tel":"031-769-5595","addr":"경기도 광주시 장지동 690-12번지 1층","indutype":"음료식품 - 기타음료식품","category":"food"}]},{"lat":"37.39511286","long":"127.2398659","imageIndex":7,"items":[{"name":"오드비","tel":"0-1600-7310","addr":"경기도 광주시 장지동 355-2 솔향기비동1층2호","indutype":"음료식품 - 기타음료식품","category":"food"}]},{"lat":"37.39991638","long":"127.2437548","imageIndex":7,"items":[{"name":"온새미로푸드","tel":"031-767-0887","addr":"경기도 광주시 장지동 3-24번지 101호","indutype":"음료식품 - 기타음료식품","category":"food"}]},{"lat":"37.4053942","long":"127.2302527","imageIndex":7,"items":[{"name":"욕쟁이 할매국밥","tel":"031-1877-8640","addr":"경기도 광주시 장지동 582-1번지 백산오페라하우스","indutype":"음료식품 - 기타음료식품","category":"food"}]},{"lat":"37.39017172","long":"127.2325668","imageIndex":7,"items":[{"name":"원미트 축산물도매유통센터","tel":"031-769-7717","addr":"경기도 광주시 장지동 68-8번지","indutype":"음료식품 - 정육점","category":"food"}]},{"lat":"37.39411667","long":"127.2378978","imageIndex":7,"items":[{"name":"이연내츄럴","tel":"031-769-0701","addr":"경기도 광주시 장지동 364번지","indutype":"건강식품 - 기타건강식품","category":"food"}]},{"lat":"37.39631018","long":"127.2448161","imageIndex":7,"items":[{"name":"정성가득찬","tel":"031-768-3091","addr":"경기도 광주시 장지동 42-8번지 조은빌딩 나동 102호","indutype":"음료식품 - 기타음료식품","category":"food"}]},{"lat":"37.39439587","long":"127.2379551","imageIndex":7,"items":[{"name":"주식회사 별미정육백화점","tel":"031-769-9293","addr":"경기도 광주시 장지동 361-3번지","indutype":"음료식품 - 정육점","category":"food"}]},{"lat":"37.38370101","long":"127.2423931","imageIndex":7,"items":[{"name":"주식회사 야긴바이오","tel":"070-511-2361","addr":"경기도 광주시 장지동 224번지 201동 2호","indutype":"건강식품 - 기타건강식품","category":"food"}]},{"lat":"37.40208836","long":"127.2344554","imageIndex":7,"items":[{"name":"주식회사르완다커피","tel":"070-4176-5666","addr":"경기도 광주시 장지동 639-1번지 1층 1호","indutype":"음료식품 - 기타음료식품","category":"food"}]},{"lat":"37.4002287","long":"127.2362793","imageIndex":7,"items":[{"name":"통보수산어업회사 법인 유한회사","tel":"031-764-9203","addr":"경기도 광주시 장지동 455-2번지 1층","indutype":"음료식품 - 농·축·수산품","category":"food"},{"name":"통보장어마을(건강촌)","tel":"031-763-9876","addr":"경기도 광주시 장지동 455-2번지 1층","indutype":"건강식품 - 기타건강식품","category":"food"},{"name":"통보장어마을농업회사법인유한회사","tel":"031-764-9203","addr":"경기도 광주시 장지동 455-2번지 2층","indutype":"음료식품 - 농·축·수산품","category":"food"}]},{"lat":"37.39517333","long":"127.2455916","imageIndex":7,"items":[{"name":"파리바게트 광주장지 이편한점","tel":"031-764-8281","addr":"경기도 광주시 장지동 76-10번지 101호","indutype":"음료식품 - 제과점","category":"food"},{"name":"하나축산","tel":"031-769-6238","addr":"경기도 광주시 장지동 76-10번지 103호","indutype":"음료식품 - 정육점","category":"food"}]},{"lat":"37.39039574","long":"127.2331999","imageIndex":7,"items":[{"name":"피에이치케이글로벌 주식회사","tel":"070-8802-0292","addr":"경기도 광주시 장지동 69번지","indutype":"음료식품 - 기타음료식품","category":"food"}]},{"lat":"37.39889029","long":"127.243232","imageIndex":7,"items":[{"name":"한도유통","tel":"031-731-5121","addr":"경기도 광주시 장지동 7번지 더힐스","indutype":"음료식품 - 기타음료식품","category":"food"}]},{"lat":"37.40142341","long":"127.2335386","imageIndex":9,"items":[{"name":"KnT 인터스트리","tel":"","addr":"경기도 광주시 장지동 647-2번지 대호빌라 나 -401, 13/4","indutype":"연료판매점 - 기타연료","category":"oil"}]},{"lat":"37.40776269","long":"127.2354781","imageIndex":13,"items":[{"name":"SUN헤어","tel":"031-761-1085","addr":"경기도 광주시 장지동 756번지 벽산블루밍1단지제상가동 102호1동 제상가-102","indutype":"보건위생 - 미용원","category":"beauty"}]},{"lat":"37.40734533","long":"127.2369452","imageIndex":13,"items":[{"name":"VANS헤어","tel":"031-765-7772","addr":"경기도 광주시 장지동 757번지 벽산블루밍2단지 1층 104호","indutype":"보건위생 - 미용원","category":"beauty"}]},{"lat":"37.39286714","long":"127.231841","imageIndex":13,"items":[{"name":"김혜련헤어타운","tel":"031-761-6886","addr":"경기도 광주시 장지동 687-13번지 2층","indutype":"보건위생 - 미용원","category":"beauty"},{"name":"태전안경원","tel":"031-797-9066","addr":"경기도 광주시 장지동 687-13번지","indutype":"보건위생 - 안경","category":"beauty"}]},{"lat":"37.40214171","long":"127.234817","imageIndex":13,"items":[{"name":"두배나헤어샵","tel":"031-761-7410","addr":"경기도 광주시 장지동 637번지","indutype":"보건위생 - 미용원","category":"beauty"}]},{"lat":"37.39786929","long":"127.2446404","imageIndex":13,"items":[{"name":"리아 속눈썹","tel":"070-4922-1261","addr":"경기도 광주시 장지동 37번지 태운빌딩 1층 103호","indutype":"보건위생 - 미용재료","category":"beauty"}]},{"lat":"37.39475055","long":"127.2408134","imageIndex":13,"items":[{"name":"뽀그리샵","tel":"031-769-7737","addr":"경기도 광주시 장지동 346-1번지 102호","indutype":"보건위생 - 미용원","category":"beauty"}]},{"lat":"37.39536254","long":"127.2455923","imageIndex":13,"items":[{"name":"살롱(SALON) LEE.H","tel":"031-797-1177","addr":"경기도 광주시 장지동 56-7번지 1층 105호","indutype":"보건위생 - 미용원","category":"beauty"}]},{"lat":"37.39517333","long":"127.2455916","imageIndex":13,"items":[{"name":"살롱드공감","tel":"","addr":"경기도 광주시 장지동 76-10번지 105호","indutype":"보건위생 - 미용원","category":"beauty"}]},{"lat":"37.39631018","long":"127.2448161","imageIndex":13,"items":[{"name":"소프레사헤어","tel":"070-5025-7994","addr":"경기도 광주시 장지동 42-8번지 조은빌딩 나동 101호","indutype":"보건위생 - 미용원","category":"beauty"}]},{"lat":"37.39519968","long":"127.2459192","imageIndex":13,"items":[{"name":"스킨데이","tel":"031-763-4840","addr":"경기도 광주시 장지동 56-4번지 1층","indutype":"보건위생 - 피부미용실","category":"beauty"}]},{"lat":"37.40725757","long":"127.2357589","imageIndex":13,"items":[{"name":"아이리스 수정테라피","tel":"02-422-1727","addr":"경기도 광주시 장지동 756번지 벽산블루밍1단지","indutype":"보건위생 - 피부미용실","category":"beauty"}]},{"lat":"37.39211698","long":"127.2330358","imageIndex":13,"items":[{"name":"아이리스스킨케어","tel":"031-761-2522","addr":"경기도 광주시 장지동 690-13번지 2층 201호","indutype":"보건위생 - 피부미용실","category":"beauty"}]},{"lat":"37.39297456","long":"127.2322027","imageIndex":13,"items":[{"name":"아이토피아안경원","tel":"","addr":"경기도 광주시 장지동 687-7번지","indutype":"보건위생 - 안경","category":"beauty"}]},{"lat":"37.39309029","long":"127.2329258","imageIndex":13,"items":[{"name":"엘리스헤어","tel":"031-797-7892","addr":"경기도 광주시 장지동 686-2번지 104호","indutype":"보건위생 - 미용원","category":"beauty"},{"name":"예쁜손톱","tel":"031-766-5531","addr":"경기도 광주시 장지동 686-2번지 105호","indutype":"보건위생 - 피부미용실","category":"beauty"}]},{"lat":"37.39667015","long":"127.2450318","imageIndex":13,"items":[{"name":"우노드31","tel":"031-765-3133","addr":"경기도 광주시 장지동 40-8번지 JG빌딩 3층 202호","indutype":"보건위생 - 미용원","category":"beauty"}]},{"lat":"37.39117223","long":"127.2323666","imageIndex":13,"items":[{"name":"이젤헤어샵","tel":"031-767-4107","addr":"경기도 광주시 장지동 690-12번지","indutype":"보건위생 - 미용원","category":"beauty"}]},{"lat":"37.39083918","long":"127.2321962","imageIndex":13,"items":[{"name":"이화미용실","tel":"031-762-3555","addr":"경기도 광주시 장지동 68-5번지","indutype":"보건위생 - 미용원","category":"beauty"}]},{"lat":"37.39472286","long":"127.2411408","imageIndex":13,"items":[{"name":"전지이발관","tel":"031-768-7085","addr":"경기도 광주시 장지동 350-2번지","indutype":"보건위생 - 이용원","category":"beauty"}]},{"lat":"37.39605758","long":"127.2449734","imageIndex":13,"items":[{"name":"토브발달상담연구소","tel":"031-763-0188","addr":"경기도 광주시 장지동 42-4번지 대광프라자 2층 204호","indutype":"보건위생 - 기타대인서비스","category":"beauty"}]},{"lat":"37.3839523","long":"127.2383968","imageIndex":13,"items":[{"name":"플러스메디칼","tel":"02-3463-1065","addr":"경기도 광주시 장지동 226-6번지","indutype":"보건위생 - 의료용품","category":"beauty"}]},{"lat":"37.39439517","long":"127.2427885","imageIndex":13,"items":[{"name":"헤어902","tel":"031-768-9946","addr":"경기도 광주시 장지동 90-2번지 104호","indutype":"보건위생 - 미용원","category":"beauty"}]},{"lat":"37.39703078","long":"127.24492","imageIndex":13,"items":[{"name":"헤어u&i","tel":"031-767-5990","addr":"경기도 광주시 장지동 39-5번지 1층 102호","indutype":"보건위생 - 미용원","category":"beauty"}]},{"lat":"37.40572633","long":"127.2261764","imageIndex":0,"items":[{"name":"강동광림센타","tel":"031-769-1726","addr":"경기도 광주시 장지동 567번지","indutype":"자동차정비 유지 - 중장비수리","category":"car"}]},{"lat":"37.39039574","long":"127.2331999","imageIndex":0,"items":[{"name":"광남카독크","tel":"031-768-4394","addr":"경기도 광주시 장지동 69번지","indutype":"자동차정비 유지 - 자동차정비","category":"car"}]},{"lat":"37.39628136","long":"127.2367527","imageIndex":0,"items":[{"name":"광주모란자동차유리","tel":"031-797-4942","addr":"경기도 광주시 장지동 377-9번지","indutype":"자동차정비 유지 - 자동차부품","category":"car"}]},{"lat":"37.38794787","long":"127.2452861","imageIndex":0,"items":[{"name":"광주사","tel":"031-762-7272","addr":"경기도 광주시 장지동 308-4번지","indutype":"자동차정비 유지 - 가타자동차서비스","category":"car"}]},{"lat":"37.3969268","long":"127.2428869","imageIndex":0,"items":[{"name":"국일중기","tel":"031-339-8150","addr":"경기도 광주시 장지동 27-7에이스타운3-202","indutype":"자동차정비 유지 - 중장비수리","category":"car"}]},{"lat":"37.40655568","long":"127.2306741","imageIndex":0,"items":[{"name":"남동대형타이어","tel":"031-764-2544","addr":"경기도 광주시 장지동 540-1,2","indutype":"자동차정비 유지 - 자동차정비","category":"car"},{"name":"대형사밧데리","tel":"031-764-1158","addr":"경기도 광주시 장지동 540-1번지","indutype":"자동차정비 유지 - 자동차정비","category":"car"}]},{"lat":"37.39050537","long":"127.2324211","imageIndex":0,"items":[{"name":"다인상사","tel":"031-764-9282","addr":"경기도 광주시 장지동 68-1번지","indutype":"자동차정비 유지 - 자동차부품","category":"car"}]},{"lat":"37.39605758","long":"127.2449734","imageIndex":0,"items":[{"name":"대광프라자 주차장","tel":"031-798-2493","addr":"경기도 광주시 장지동 42-4번지 대광프라자주차장","indutype":"자동차정비 유지 - 주차장","category":"car"}]},{"lat":"37.38931332","long":"127.2338176","imageIndex":0,"items":[{"name":"동하상사","tel":"031-768-0085","addr":"경기도 광주시 장지동 695-5번지","indutype":"자동차정비 유지 - 자동차부품","category":"car"}]},{"lat":"37.39486948","long":"127.2399216","imageIndex":0,"items":[{"name":"드림카센타","tel":"031-796-2220","addr":"경기도 광주시 장지동 348-2번지 1층","indutype":"자동차정비 유지 - 자동차부품","category":"car"}]},{"lat":"37.3995358","long":"127.2358367","imageIndex":0,"items":[{"name":"맛있는 타이어","tel":"031-798-4887","addr":"경기도 광주시 장지동 669번지","indutype":"자동차정비 유지 - 자동차시트·타이어","category":"car"}]},{"lat":"37.39581326","long":"127.2365366","imageIndex":0,"items":[{"name":"삼동자동차정비공업사","tel":"031-761-8459","addr":"경기도 광주시 장지동 374-4번지","indutype":"자동차정비 유지 - 자동차정비","category":"car"}]},{"lat":"37.40128209","long":"127.2366778","imageIndex":0,"items":[{"name":"삼진자동차공업(주)","tel":"031-766-0187","addr":"경기도 광주시 장지동 457-2번지","indutype":"자동차정비 유지 - 자동차정비","category":"car"}]},{"lat":"37.4019996","long":"127.2383403","imageIndex":0,"items":[{"name":"성남폐차산업사","tel":"031-762-1047","addr":"경기도 광주시 장지동 472번지","indutype":"자동차정비 유지 - 가타자동차서비스","category":"car"}]},{"lat":"37.39406083","long":"127.2387898","imageIndex":0,"items":[{"name":"성진손세차장","tel":"070-8950-8414","addr":"경기도 광주시 장지동 341-5번지","indutype":"자동차정비 유지 - 세차장","category":"car"},{"name":"성진카공업사","tel":"031-764-5109","addr":"경기도 광주시 장지동 341-5번지","indutype":"자동차정비 유지 - 자동차정비","category":"car"},{"name":"성진타이어","tel":"031-764-5109","addr":"경기도 광주시 장지동 341-5번지","indutype":"자동차정비 유지 - 자동차정비","category":"car"}]},{"lat":"37.39409024","long":"127.2375928","imageIndex":0,"items":[{"name":"셀세모","tel":"","addr":"경기도 광주시 장지동 365-1번지 1층","indutype":"자동차정비 유지 - 자동차부품","category":"car"},{"name":"쎌세모 광주점","tel":"","addr":"경기도 광주시 장지동 365-1번지 356-3,301-1","indutype":"자동차정비 유지 - 세차장","category":"car"},{"name":"주식회사클린광주장지동지점","tel":"031-763-0765","addr":"경기도 광주시 장지동 365-1번지","indutype":"자동차정비 유지 - 카인테리어","category":"car"}]},{"lat":"37.3985481","long":"127.2431405","imageIndex":0,"items":[{"name":"슈롬오토","tel":"","addr":"경기도 광주시 장지동 15-19번지 스타밸리 제4동 101호","indutype":"자동차정비 유지 - 자동차부품","category":"car"}]},{"lat":"37.38344884","long":"127.2423358","imageIndex":0,"items":[{"name":"에스엠테크","tel":"031-798-9495","addr":"경기도 광주시 장지동 225-6번지","indutype":"자동차정비 유지 - 자동차부품","category":"car"}]},{"lat":"37.38747798","long":"127.2459508","imageIndex":0,"items":[{"name":"우인","tel":"031-769-1525","addr":"경기도 광주시 장지동 215-40","indutype":"자동차정비 유지 - 가타자동차서비스","category":"car"}]},{"lat":"37.39442007","long":"127.2438388","imageIndex":0,"items":[{"name":"유성카센타","tel":"031-764-3450","addr":"경기도 광주시 장지동 78-5번지","indutype":"자동차정비 유지 - 자동차정비","category":"car"}]},{"lat":"37.40561198","long":"127.2386678","imageIndex":0,"items":[{"name":"일급종합","tel":"031-797-3801","addr":"경기도 광주시 장지동 504번지","indutype":"자동차정비 유지 - 자동차정비","category":"car"}]},{"lat":"37.40697679","long":"127.2271966","imageIndex":0,"items":[{"name":"장미오토세차장","tel":"031-761-2549","addr":"경기도 광주시 장지동 560-1번지","indutype":"자동차정비 유지 - 세차장","category":"car"}]},{"lat":"37.39444849","long":"127.238678","imageIndex":0,"items":[{"name":"제이나인모터스(J9 Motors)","tel":"031-8028-8309","addr":"경기도 광주시 장지동 361-1번지 101호,102호,103호","indutype":"자동차정비 유지 - 카인테리어","category":"car"}]},{"lat":"37.39019755","long":"127.2466709","imageIndex":0,"items":[{"name":"제이제이타이어","tel":"031-766-5858","addr":"경기도 광주시 장지동 131-64번지","indutype":"자동차정비 유지 - 자동차시트·타이어","category":"car"}]},{"lat":"37.40589205","long":"127.2382847","imageIndex":0,"items":[{"name":"중부특수","tel":"031-763-4949","addr":"경기도 광주시 장지동 502번지","indutype":"자동차정비 유지 - 자동차부품","category":"car"},{"name":"중부특수","tel":"031-763-4949","addr":"경기도 광주시 장지동 502번지","indutype":"자동차정비 유지 - 견인서비스","category":"car"},{"name":"중부특수레카","tel":"031-763-4949","addr":"경기도 광주시 장지동 502번지","indutype":"자동차정비 유지 - 견인서비스","category":"car"}]},{"lat":"37.40674872","long":"127.237926","imageIndex":0,"items":[{"name":"짱카 경기광주본점","tel":"031-762-2662","addr":"경기도 광주시 장지동 533번지","indutype":"자동차정비 유지 - 세차장","category":"car"}]},{"lat":"37.38550648","long":"127.2451201","imageIndex":0,"items":[{"name":"카빛나","tel":"031-766-7427","addr":"경기도 광주시 장지동 220-29번지","indutype":"자동차정비 유지 - 자동차시트·타이어","category":"car"}]},{"lat":"37.40561769","long":"127.2311683","imageIndex":0,"items":[{"name":"토탈마스타자동차","tel":"031-763-3565","addr":"경기도 광주시 장지동 586-2번지 1층","indutype":"자동차정비 유지 - 자동차정비","category":"car"}]},{"lat":"37.40242213","long":"127.2342532","imageIndex":0,"items":[{"name":"포춘자동차서비스","tel":"031-769-4878","addr":"경기도 광주시 장지동 639번지","indutype":"자동차정비 유지 - 자동차정비","category":"car"}]},{"lat":"37.3947577","long":"127.2372335","imageIndex":0,"items":[{"name":"현대카독크","tel":"031-763-5487","addr":"경기도 광주시 장지동 369-3번지","indutype":"자동차정비 유지 - 자동차정비","category":"car"}]},{"lat":"37.39309029","long":"127.2329258","imageIndex":16,"items":[{"name":"경기광주무용학원(태전점)","tel":"03-111-1111","addr":"경기도 광주시 장지동 686-2번지 3층","indutype":"학원 - 예·체능계학원","category":"study"},{"name":"에픽수학원","tel":"031-767-5209","addr":"경기도 광주시 장지동 686-2번지 2동","indutype":"학원 - 보습학원","category":"study"},{"name":"태전씨앤씨 미술학원","tel":"032-764-6662","addr":"경기도 광주시 장지동 686-2번지 2층","indutype":"학원 - 예·체능계학원","category":"study"}]},{"lat":"37.39463916","long":"127.2468434","imageIndex":16,"items":[{"name":"공부신화학원","tel":"031-766-2226","addr":"경기도 광주시 장지동 62-1번지 2층 202호","indutype":"학원 - 보습학원","category":"study"},{"name":"투와이영어학원","tel":"031-763-7915","addr":"경기도 광주시 장지동 62-1번지 2층 201호","indutype":"학원 - 외국어학원","category":"study"}]},{"lat":"37.39667015","long":"127.2450318","imageIndex":16,"items":[{"name":"기픈생각수학교습소","tel":"031-798-0607","addr":"경기도 광주시 장지동 40-8번지 JG빌딩 203호","indutype":"학원 - 보습학원","category":"study"},{"name":"수레바퀴음악학원","tel":"031-763-1107","addr":"경기도 광주시 장지동 40-8번지 4층","indutype":"학원 - 예·체능계학원","category":"study"}]},{"lat":"37.40776269","long":"127.2354781","imageIndex":16,"items":[{"name":"단국대스타태권도장","tel":"031-761-8891","addr":"경기도 광주시 장지동 756번지 벽산블루밍1단지 2층 203호","indutype":"학원 - 예·체능계학원","category":"study"},{"name":"린다해법영어교습소","tel":"","addr":"경기도 광주시 장지동 756번지 벽산블루밍1단지 상가동 101B호","indutype":"학원 - 외국어학원","category":"study"},{"name":"우리들의뮤직아카데미학원","tel":"031-767-1577","addr":"경기도 광주시 장지동 756번지 벽산블루밍1단지 상가동 201호","indutype":"학원 - 예·체능계학원","category":"study"},{"name":"탑클래스학원","tel":"031-766-6071","addr":"경기도 광주시 장지동 756번지 벽산블루밍1단지 상가","indutype":"학원 - 보습학원","category":"study"}]},{"lat":"37.39536254","long":"127.2455923","imageIndex":16,"items":[{"name":"동성태비 점프윙스","tel":"","addr":"경기도 광주시 장지동 56-7번지 201호","indutype":"학원 - 예·체능계학원","category":"study"}]},{"lat":"37.39567004","long":"127.2450286","imageIndex":16,"items":[{"name":"동성태비태권도","tel":"031-763-1233","addr":"경기도 광주시 장지동 57-4번지 1층 에이호","indutype":"학원 - 예·체능계학원","category":"study"}]},{"lat":"37.39517333","long":"127.2455916","imageIndex":16,"items":[{"name":"레전드태권도장","tel":"031-768-8882","addr":"경기도 광주시 장지동 76-10번지 203호","indutype":"학원 - 예·체능계학원","category":"study"}]},{"lat":"37.39605758","long":"127.2449734","imageIndex":16,"items":[{"name":"뮤엠영어장지학원","tel":"031-765-0240","addr":"경기도 광주시 장지동 42-4번지 대광프라자 402호","indutype":"학원 - 외국어학원","category":"study"},{"name":"아델음악학원","tel":"","addr":"경기도 광주시 장지동 42-4번지 대광프라자","indutype":"학원 - 예·체능계학원","category":"study"},{"name":"연세수학보습학원","tel":"070-8658-4157","addr":"경기도 광주시 장지동 42-4번지 대광프라자 404호","indutype":"학원 - 보습학원","category":"study"},{"name":"키즈스피치예소스웅변학원","tel":"031-798-2229","addr":"경기도 광주시 장지동 42-4번지 대광프라자 4층","indutype":"학원 - 기타 교육기관","category":"study"}]},{"lat":"37.39115287","long":"127.2330554","imageIndex":16,"items":[{"name":"블랙이글스하키클럽","tel":"031-769-0916","addr":"경기도 광주시 장지동 755번지 금광포란재아파트","indutype":"학원 - 예·체능계학원","category":"study"}]},{"lat":"37.40469844","long":"127.2404269","imageIndex":16,"items":[{"name":"성남자동차운전전문힉원","tel":"031-767-6677","addr":"경기도 광주시 장지동 511-7번지 외7필지 (장지동 511-4,5,6,8,9,11,12)","indutype":"학원 - 기능학원","category":"study"}]},{"lat":"37.39078484","long":"127.2323429","imageIndex":16,"items":[{"name":"승리합기도","tel":"070-4799-1485","addr":"경기도 광주시 장지동 68-7번지 2층","indutype":"학원 - 예·체능계학원","category":"study"}]},{"lat":"37.39703078","long":"127.24492","imageIndex":16,"items":[{"name":"쎈수학러닝센터 광주장지학원","tel":"031-764-1402","addr":"경기도 광주시 장지동 39-5번지 3층 302호","indutype":"학원 - 보습학원","category":"study"},{"name":"영렘브란트역동센터미술학원","tel":"031-000-0000","addr":"경기도 광주시 장지동 39-5번지 202호","indutype":"학원 - 예·체능계학원","category":"study"}]},{"lat":"37.39211602","long":"127.2335326","imageIndex":16,"items":[{"name":"아소비 광주장지점","tel":"","addr":"경기도 광주시 장지동 688-22번지 아망뜨빌","indutype":"학원 - 기타 교육기관","category":"study"}]},{"lat":"37.40734533","long":"127.2369452","imageIndex":16,"items":[{"name":"안선생영어전문과외","tel":"031-767-7060","addr":"경기도 광주시 장지동 757번지 벽산블루밍2단지","indutype":"회원제형태 - 학원","category":"study"}]},{"lat":"37.39956305","long":"127.2447023","imageIndex":16,"items":[{"name":"역동해법영어수학학원","tel":"","addr":"경기도 광주시 장지동 3-17번지 201호","indutype":"학원 - 외국어학원","category":"study"}]},{"lat":"37.39519968","long":"127.2459192","imageIndex":16,"items":[{"name":"올패스영수전문학원","tel":"031-769-1066","addr":"경기도 광주시 장지동 56-4번지 201,202호","indutype":"학원 - 보습학원","category":"study"}]},{"lat":"37.3926673","long":"127.2326761","imageIndex":16,"items":[{"name":"유앤아이어학원","tel":"031-769-5509","addr":"경기도 광주시 장지동 687-39번지 3층","indutype":"회원제형태 - 학원","category":"study"},{"name":"태전솔로몬독서실","tel":"031-797-5541","addr":"경기도 광주시 장지동 687-39번지","indutype":"학원 - 독서실","category":"study"}]},{"lat":"37.39686841","long":"127.2450099","imageIndex":16,"items":[{"name":"이지하이영어학원","tel":"031-8027-0579","addr":"경기도 광주시 장지동 40-14번지 미소빌딩 2층 201호","indutype":"학원 - 외국어학원","category":"study"}]},{"lat":"37.39891615","long":"127.243808","imageIndex":16,"items":[{"name":"지앤티(G&T)영어어학원","tel":"031-798-1102","addr":"경기도 광주시 장지동 4-6번지 2층","indutype":"학원 - 외국어학원","category":"study"},{"name":"플랜에이경기광주역 독서실","tel":"031-763-0953","addr":"경기도 광주시 장지동 4-6번지 4층","indutype":"학원 - 독서실","category":"study"}]},{"lat":"37.39475687","long":"127.2465615","imageIndex":16,"items":[{"name":"짐콩어린이스포츠센터","tel":"","addr":"경기도 광주시 장지동 62-10번지 2층 201호","indutype":"학원 - 기타 교육기관","category":"study"}]},{"lat":"37.39284059","long":"127.2315925","imageIndex":16,"items":[{"name":"태전점엠에이씨실용음악학원","tel":"031-767-6649","addr":"경기도 광주시 장지동 687-9번지 ,2-3층","indutype":"학원 - 예·체능계학원","category":"study"}]},{"lat":"37.39261286","long":"127.2328679","imageIndex":16,"items":[{"name":"팀포마","tel":"031-321-3643","addr":"경기도 광주시 장지동 688-2번지 3층","indutype":"학원 - 예·체능계학원","category":"study"}]},{"lat":"37.39772649","long":"127.2439736","imageIndex":16,"items":[{"name":"힘찬수학논술","tel":"031-212-9080","addr":"경기도 광주시 장지동 12-5번지 세진타운 102동 402호","indutype":"학원 - 기타 교육기관","category":"study"}]},{"lat":"37.39492269","long":"127.244789","imageIndex":13,"items":[{"name":"금탑당구장","tel":"031-763-5245","addr":"경기도 광주시 장지동 77-3번지","indutype":"레저업소 - 당 구 장","category":"leisure"}]},{"lat":"37.39117223","long":"127.2323666","imageIndex":13,"items":[{"name":"라온필라테스 스튜디오","tel":"","addr":"경기도 광주시 장지동 690-12번지 3층 301호","indutype":"레저업소 - 헬스클럽","category":"leisure"}]},{"lat":"37.39605758","long":"127.2449734","imageIndex":13,"items":[{"name":"빅브로짐휘트니스","tel":"031-769-3690","addr":"경기도 광주시 장지동 42-4번지 대광프라자 3층 301,302,303호","indutype":"레저업소 - 헬스클럽","category":"leisure"}]},{"lat":"37.39306402","long":"127.2325305","imageIndex":13,"items":[{"name":"뽐뿌노래연습장","tel":"031-767-2116","addr":"경기도 광주시 장지동 686번지 지층","indutype":"레저업소 - 노 래 방","category":"leisure"}]},{"lat":"37.39459127","long":"127.2393674","imageIndex":13,"items":[{"name":"오렌지 노래연습장(장지동)","tel":"031-762-2778","addr":"경기도 광주시 장지동 359-6번지 2층","indutype":"레저업소 - 노 래 방","category":"leisure"}]},{"lat":"37.39631018","long":"127.2448161","imageIndex":13,"items":[{"name":"점프노리스포츠 광주역동점","tel":"031-769-1016","addr":"경기도 광주시 장지동 42-8번지 조은빌딩 3층","indutype":"레저업소 - 기타레져업소","category":"leisure"},{"name":"피에스타PC(광주장지점)","tel":"02-222-2222","addr":"경기도 광주시 장지동 42-8번지 조은빌딩 나동 2층","indutype":"레저업소 - 기타레져업소","category":"leisure"}]},{"lat":"37.39261286","long":"127.2328679","imageIndex":13,"items":[{"name":"킹콩점프(태전점)","tel":"031-797-7942","addr":"경기도 광주시 장지동 688-2번지 2층","indutype":"레저업소 - 기타레져업소","category":"leisure"}]},{"lat":"37.39309029","long":"127.2329258","imageIndex":13,"items":[{"name":"해먹요가코리아","tel":"031-761-7484","addr":"경기도 광주시 장지동 686-2번지 3층","indutype":"레저업소 - 헬스클럽","category":"leisure"}]},{"lat":"37.39517333","long":"127.2455916","imageIndex":8,"items":[{"name":"나무와치과의원","tel":"031-767-2870","addr":"경기도 광주시 장지동 76-10번지 조연빌딩 2층","indutype":"의원 - 치과의원","category":"medical"}]},{"lat":"37.39667015","long":"127.2450318","imageIndex":8,"items":[{"name":"무지개약국","tel":"031-769-7579","addr":"경기도 광주시 장지동 40-8번지","indutype":"약국 - 약국","category":"medical"},{"name":"행복한소아청소년과의원","tel":"031-764-7337","addr":"경기도 광주시 장지동 40-8번지 3층","indutype":"의원 - 의원","category":"medical"}]},{"lat":"37.39605758","long":"127.2449734","imageIndex":8,"items":[{"name":"바른선한의원","tel":"031-769-7570","addr":"경기도 광주시 장지동 42-4번지 대광프라자 401호","indutype":"의원 - 한의원","category":"medical"},{"name":"소나무내과의원","tel":"031-768-7933","addr":"경기도 광주시 장지동 42-4번지 대광프라자 202호","indutype":"의원 - 의원","category":"medical"},{"name":"이편한우리치과의원","tel":"031-769-2775","addr":"경기도 광주시 장지동 42-4번지 대광프라자 305호","indutype":"의원 - 치과의원","category":"medical"},{"name":"정다운가정의학과","tel":"031-762-7550","addr":"경기도 광주시 장지동 42-4번지 3층","indutype":"의원 - 의원","category":"medical"},{"name":"참사랑약국","tel":"031-798-6508","addr":"경기도 광주시 장지동 42-4번지 대광프라자 1층 107호","indutype":"약국 - 약국","category":"medical"}]},{"lat":"37.3926673","long":"127.2326761","imageIndex":8,"items":[{"name":"생명수한의원","tel":"031-798-8340","addr":"경기도 광주시 장지동 687-39번지 1층 101호","indutype":"의원 - 한의원","category":"medical"}]},{"lat":"37.39306402","long":"127.2325305","imageIndex":8,"items":[{"name":"현대치과의원","tel":"031-768-7528","addr":"경기도 광주시 장지동 686번지 동승빌딩 3층","indutype":"의원 - 치과의원","category":"medical"}]},{"lat":"37.39083918","long":"127.2321962","imageIndex":7,"items":[{"name":"싱싱마트","tel":"031-765-6403","addr":"경기도 광주시 장지동 68-5번지","indutype":"유통업 영리 - 슈퍼마켓","category":"mart"}]}]