[{"lat":"37.175747478","long":"127.08966506","imageIndex":4,"items":[{"name":"(주)현대그린푸드 비전엑스아시아","tel":"070-7600-6662","addr":"경기도 화성시 방교동 825-3번지","indutype":"일반휴게음식 - 위탁급식업","category":"restaurant"}]},{"lat":"37.172809692","long":"127.09019091","imageIndex":4,"items":[{"name":"BBQ치킨&비어 통탄산업단지점","tel":"031-376-6848","addr":"경기도 화성시 방교동 829-4번지 센터프라자 205호","indutype":"일반휴게음식 - 스넥","category":"restaurant"},{"name":"놀부보쌈&놀부부대화성동탄산업단지점","tel":"031-377-6848","addr":"경기도 화성시 방교동 829-4번지 202호","indutype":"일반휴게음식 - 일반한식","category":"restaurant"},{"name":"서래옥감자탕","tel":"031-378-0958","addr":"경기도 화성시 방교동 829-4번지 203,204호","indutype":"일반휴게음식 - 일반한식","category":"restaurant"},{"name":"중화요리 삼국지","tel":"","addr":"경기도 화성시 방교동 829-4번지 센터프라자 1층 110,111호","indutype":"일반휴게음식 - 중국식","category":"restaurant"},{"name":"한얼","tel":"031-378-9505","addr":"경기도 화성시 방교동 829-4번지 센터프라자 112호","indutype":"일반휴게음식 - 일반한식","category":"restaurant"}]},{"lat":"37.182198138","long":"127.09075351","imageIndex":4,"items":[{"name":"BHC방교점","tel":"031-378-9949","addr":"경기도 화성시 방교동 768-2번지 1층 101,102호","indutype":"일반휴게음식 - 스넥","category":"restaurant"}]},{"lat":"37.183163558","long":"127.08897533","imageIndex":4,"items":[{"name":"coffee수","tel":"031-376-0227","addr":"경기도 화성시 방교동 751-1번지 1층","indutype":"일반휴게음식 - 서양음식","category":"restaurant"}]},{"lat":"37.181999213","long":"127.09168796","imageIndex":4,"items":[{"name":"가진항 물회","tel":"","addr":"경기도 화성시 방교동 777번지 동탄프리미엄아울렛 1층 1동 109호 110호","indutype":"일반휴게음식 - 일식·회집","category":"restaurant"},{"name":"도니와","tel":"031-8003-5181","addr":"경기도 화성시 방교동 777번지 동탄프리미엄아울렛 1동 1층 101,102호","indutype":"일반휴게음식 - 일반한식","category":"restaurant"},{"name":"만족오향족발","tel":"031-372-6011","addr":"경기도 화성시 방교동 777번지 1동 121,122,123호","indutype":"일반휴게음식 - 일반한식","category":"restaurant"},{"name":"신동탄숯불갈비","tel":"031-375-5303","addr":"경기도 화성시 방교동 777번지 동탄프리미엄아울렛 1동 1층 105,106호","indutype":"일반휴게음식 - 일반한식","category":"restaurant"},{"name":"제니스파이","tel":"031-374-3014","addr":"경기도 화성시 방교동 777번지 119,120호","indutype":"일반휴게음식 - 일반한식","category":"restaurant"},{"name":"청실홍실","tel":"031-1899-3272","addr":"경기도 화성시 방교동 777번지 동탄프리미엄아울렛 1동 104호","indutype":"일반휴게음식 - 일반한식","category":"restaurant"},{"name":"청춘연가 동탄프리미엄점","tel":"031-376-7692","addr":"경기도 화성시 방교동 777번지 1동 1층 103호","indutype":"일반휴게음식 - 일반한식","category":"restaurant"}]},{"lat":"37.180053761","long":"127.0906159","imageIndex":4,"items":[{"name":"감자탕전문점 운김","tel":"031-373-7250","addr":"경기도 화성시 방교동 774-9번지 1층","indutype":"일반휴게음식 - 일반한식","category":"restaurant"}]},{"lat":"37.182585544","long":"127.09081027","imageIndex":4,"items":[{"name":"고집스런 주방","tel":"031-372-7739","addr":"경기도 화성시 방교동 767-3번지 1층 일부호","indutype":"일반휴게음식 - 일반한식","category":"restaurant"}]},{"lat":"37.182611895","long":"127.09172246","imageIndex":4,"items":[{"name":"김명자낙지마당(동탄산단점)","tel":"031-376-0909","addr":"경기도 화성시 방교동 776-3번지 101동 103호","indutype":"일반휴게음식 - 일반한식","category":"restaurant"},{"name":"다이고미","tel":"031-373-3949","addr":"경기도 화성시 방교동 776-3번지 1층 108호","indutype":"일반휴게음식 - 일식·회집","category":"restaurant"},{"name":"달려라소돼지정육식당","tel":"","addr":"경기도 화성시 방교동 776-3번지 1층 105,106,108,109호","indutype":"일반휴게음식 - 일반한식","category":"restaurant"},{"name":"먹보포차앤비어","tel":"031-374-3738","addr":"경기도 화성시 방교동 776-3번지 111호","indutype":"일반휴게음식 - 일반한식","category":"restaurant"},{"name":"이화수전통육개장","tel":"031-374-2051","addr":"경기도 화성시 방교동 776-3번지 113,114,115호","indutype":"일반휴게음식 - 일반한식","category":"restaurant"},{"name":"펀비어킹 화성방교아울렛점","tel":"031-373-2051","addr":"경기도 화성시 방교동 776-3번지 1층 104호 ,105,106호","indutype":"일반휴게음식 - 주점","category":"restaurant"}]},{"lat":"37.172810459","long":"127.08914374","imageIndex":4,"items":[{"name":"김밥매니아 산단점","tel":"","addr":"경기도 화성시 방교동 829-1번지 1층 110호","indutype":"일반휴게음식 - 스넥","category":"restaurant"},{"name":"데이데이커피","tel":"070-7806-3279","addr":"경기도 화성시 방교동 829-1번지 산단프라자 107호","indutype":"일반휴게음식 - 서양음식","category":"restaurant"},{"name":"신동탄횟집","tel":"031-297-3401","addr":"경기도 화성시 방교동 829-1번지 111호","indutype":"일반휴게음식 - 일반한식","category":"restaurant"},{"name":"정글주스(Jungle Juice)","tel":"031-377-1066","addr":"경기도 화성시 방교동 829-1번지 산단프라자 104호","indutype":"일반휴게음식 - 서양음식","category":"restaurant"}]},{"lat":"37.182305185","long":"127.09219508","imageIndex":4,"items":[{"name":"김밥천국","tel":"031-374-9555","addr":"경기도 화성시 방교동 779-1번지 109호","indutype":"일반휴게음식 - 일반한식","category":"restaurant"},{"name":"마당화로구이","tel":"031-373-6001","addr":"경기도 화성시 방교동 779-1번지 케이프라자 302동 302호","indutype":"일반휴게음식 - 일반한식","category":"restaurant"},{"name":"시루향기","tel":"031-375-6652","addr":"경기도 화성시 방교동 779-1번지 케이프라자 1층 110,111호","indutype":"일반휴게음식 - 일반한식","category":"restaurant"},{"name":"아침닭","tel":"031-378-1090","addr":"경기도 화성시 방교동 779-1번지 케이프라자 1층 105호","indutype":"일반휴게음식 - 스넥","category":"restaurant"},{"name":"전통맛집 할매순대국","tel":"031-4273-5023","addr":"경기도 화성시 방교동 779-1번지 108호","indutype":"일반휴게음식 - 일반한식","category":"restaurant"}]},{"lat":"37.182026757","long":"127.09100106","imageIndex":4,"items":[{"name":"김씨반상","tel":"031-375-9151","addr":"경기도 화성시 방교동 769-4번지 1층","indutype":"일반휴게음식 - 일반한식","category":"restaurant"}]},{"lat":"37.180801675","long":"127.0905492","imageIndex":4,"items":[{"name":"김인곤보쌈","tel":"031-377-1822","addr":"경기도 화성시 방교동 772-1번지 1층 상가","indutype":"일반휴게음식 - 일반한식","category":"restaurant"}]},{"lat":"37.18255827","long":"127.09113681","imageIndex":4,"items":[{"name":"김칠순생태동태탕","tel":"031-373-4656","addr":"경기도 화성시 방교동 767-5번지","indutype":"일반휴게음식 - 일반한식","category":"restaurant"}]},{"lat":"37.183190146","long":"127.08958348","imageIndex":4,"items":[{"name":"꽃꽃한 당신","tel":"031-377-1211","addr":"경기도 화성시 방교동 751-5번지","indutype":"일반휴게음식 - 서양음식","category":"restaurant"}]},{"lat":"37.182026656","long":"127.0911362","imageIndex":4,"items":[{"name":"남대문 닭곰탕","tel":"031-372-9289","addr":"경기도 화성시 방교동 769-5번지 1층 일부호","indutype":"일반휴게음식 - 일반한식","category":"restaurant"}]},{"lat":"37.173305141","long":"127.09036038","imageIndex":4,"items":[{"name":"다온한식부페","tel":"031-378-4830","addr":"경기도 화성시 방교동 829-6번지 201,202,203,204호","indutype":"일반휴게음식 - 일반한식","category":"restaurant"},{"name":"예스커피","tel":"","addr":"경기도 화성시 방교동 829-6번지 110호","indutype":"일반휴게음식 - 서양음식","category":"restaurant"},{"name":"육봉식당","tel":"031-375-6052","addr":"경기도 화성시 방교동 829-6번지 101,102호","indutype":"일반휴게음식 - 일반한식","category":"restaurant"},{"name":"태성뷔페","tel":"031-369-4155","addr":"경기도 화성시 방교동 829-6번지 보문프라자 201동 204호 1","indutype":"일반휴게음식 - 일반한식","category":"restaurant"}]},{"lat":"37.163747575","long":"127.086893","imageIndex":4,"items":[{"name":"다인푸드","tel":"031-375-9605","addr":"경기도 화성시 방교동 844-4번지","indutype":"일반휴게음식 - 일반한식","category":"restaurant"},{"name":"아베오커피","tel":"031-663-0447","addr":"경기도 화성시 방교동 844-4번지 111호","indutype":"일반휴게음식 - 서양음식","category":"restaurant"},{"name":"진차이나","tel":"031-663-0447","addr":"경기도 화성시 방교동 844-4번지 제이엔에스 101,102,103호","indutype":"일반휴게음식 - 중국식","category":"restaurant"}]},{"lat":"37.181161899","long":"127.09080862","imageIndex":4,"items":[{"name":"대독장 동탄1호","tel":"070-7529-8843","addr":"경기도 화성시 방교동 771-3번지 1층","indutype":"일반휴게음식 - 일반한식","category":"restaurant"}]},{"lat":"37.181774448","long":"127.09102329","imageIndex":4,"items":[{"name":"돈치호태","tel":"031-378-9201","addr":"경기도 화성시 방교동 769-9번지 1층","indutype":"일반휴게음식 - 서양음식","category":"restaurant"}]},{"lat":"37.172080779","long":"127.08891772","imageIndex":4,"items":[{"name":"동문유통(행복뷔페)","tel":"031-377-3396","addr":"경기도 화성시 방교동 833-1번지 청도프라자 2층 201호,202호","indutype":"일반휴게음식 - 일반한식","category":"restaurant"},{"name":"양평해장국(동탄산업단지점)","tel":"031-378-9393","addr":"경기도 화성시 방교동 833-1번지 청도프라자 101호 102 103호","indutype":"일반휴게음식 - 일반한식","category":"restaurant"},{"name":"양평해장국(동탄산업단지점)","tel":"031-378-9393","addr":"경기도 화성시 방교동 833-1번지 101호,102호","indutype":"일반휴게음식 - 일반한식","category":"restaurant"},{"name":"잭스핫커피(Jack's Hot Coffee","tel":"031-373-0577","addr":"경기도 화성시 방교동 833-1번지 1층 106호","indutype":"일반휴게음식 - 서양음식","category":"restaurant"}]},{"lat":"37.180190221","long":"127.08883683","imageIndex":4,"items":[{"name":"동탄 장수촌","tel":"0507-1318-5977","addr":"경기도 화성시 방교동 760-1번지 101호","indutype":"일반휴게음식 - 일반한식","category":"restaurant"}]},{"lat":"37.181612261","long":"127.0910231","imageIndex":4,"items":[{"name":"동탄할망부대찌개","tel":"031-376-7078","addr":"경기도 화성시 방교동 770-4번지 1층 전부호","indutype":"일반휴게음식 - 일반한식","category":"restaurant"}]},{"lat":"37.181197824","long":"127.09096632","imageIndex":4,"items":[{"name":"두거리우신탕","tel":"031-376-1522","addr":"경기도 화성시 방교동 771-4번지","indutype":"일반휴게음식 - 일반한식","category":"restaurant"}]},{"lat":"37.181359591","long":"127.09152956","imageIndex":4,"items":[{"name":"두찌","tel":"031-372-9930","addr":"경기도 화성시 방교동 770-10번지 1층","indutype":"일반휴게음식 - 일반한식","category":"restaurant"}]},{"lat":"37.182027091","long":"127.09055061","imageIndex":4,"items":[{"name":"라라포차","tel":"031-222-0357","addr":"경기도 화성시 방교동 769-1번지 102호","indutype":"일반휴게음식 - 주점","category":"restaurant"}]},{"lat":"37.181413451","long":"127.09179989","imageIndex":4,"items":[{"name":"라이스꼬끼오","tel":"031-8003-9285","addr":"경기도 화성시 방교동 770-9번지 1층","indutype":"일반휴게음식 - 일반한식","category":"restaurant"}]},{"lat":"37.182224784","long":"127.09127156","imageIndex":4,"items":[{"name":"라프랑스 ( LA FRANCE)","tel":"031-374-3369","addr":"경기도 화성시 방교동 768-5번지","indutype":"일반휴게음식 - 서양음식","category":"restaurant"}]},{"lat":"37.182225295","long":"127.09058463","imageIndex":4,"items":[{"name":"로키","tel":"031-376-2017","addr":"경기도 화성시 방교동 768-1번지","indutype":"일반휴게음식 - 일반한식","category":"restaurant"}]},{"lat":"37.164477165","long":"127.08725408","imageIndex":4,"items":[{"name":"맛나푸드","tel":"031-373-7167","addr":"경기도 화성시 방교동 844-2번지 2층 204-205호","indutype":"일반휴게음식 - 일반한식","category":"restaurant"},{"name":"짜장마을","tel":"031-378-0447","addr":"경기도 화성시 방교동 844-2번지 2층","indutype":"일반휴게음식 - 중국식","category":"restaurant"}]},{"lat":"37.182801652","long":"127.09100196","imageIndex":4,"items":[{"name":"멕시카나 방교점","tel":"031-376-7999","addr":"경기도 화성시 방교동 766-9번지 1층 일부호","indutype":"일반휴게음식 - 스넥","category":"restaurant"}]},{"lat":"37.180162582","long":"127.0896701","imageIndex":4,"items":[{"name":"명가냉면","tel":"031-375-6025","addr":"경기도 화성시 방교동 760-6번지","indutype":"일반휴게음식 - 일반한식","category":"restaurant"}]},{"lat":"37.182586892","long":"127.08897468","imageIndex":4,"items":[{"name":"바른생갈비","tel":"","addr":"경기도 화성시 방교동 753-1번지 1층 일부호","indutype":"일반휴게음식 - 일반한식","category":"restaurant"}]},{"lat":"37.171584473","long":"127.08991927","imageIndex":4,"items":[{"name":"바링고빈스(동탄산업단지점)","tel":"031-376-8977","addr":"경기도 화성시 방교동 833-6번지 106호","indutype":"일반휴게음식 - 일반한식","category":"restaurant"},{"name":"영미손김밥","tel":"031-375-7044","addr":"경기도 화성시 방교동 833-6번지 1층 102호","indutype":"일반휴게음식 - 일반한식","category":"restaurant"},{"name":"전주한식부페","tel":"031-375-5590","addr":"경기도 화성시 방교동 833-6번지 202호","indutype":"일반휴게음식 - 일반한식","category":"restaurant"}]},{"lat":"37.182226155","long":"127.08941346","imageIndex":4,"items":[{"name":"방교감자탕","tel":"031-374-3373","addr":"경기도 화성시 방교동 754-4번지","indutype":"일반휴게음식 - 일반한식","category":"restaurant"}]},{"lat":"37.180000395","long":"127.08966992","imageIndex":4,"items":[{"name":"방아다리김치삼겹살","tel":"031-372-0454","addr":"경기도 화성시 방교동 760-7번지 1층","indutype":"일반휴게음식 - 일반한식","category":"restaurant"}]},{"lat":"37.181801847","long":"127.09052783","imageIndex":4,"items":[{"name":"배마루된장찌개","tel":"031-377-2008","addr":"경기도 화성시 방교동 769-12번지 1층 전부호","indutype":"일반휴게음식 - 일반한식","category":"restaurant"}]},{"lat":"37.182584423","long":"127.09230802","imageIndex":4,"items":[{"name":"배부장찌개 방교아울렛점","tel":"031-373-1237","addr":"경기도 화성시 방교동 778-3번지 1층 107호","indutype":"일반휴게음식 - 일반한식","category":"restaurant"},{"name":"이디야커피","tel":"031-378-8386","addr":"경기도 화성시 방교동 778-3번지 1층 (주)프리모코아 104호","indutype":"일반휴게음식 - 서양음식","category":"restaurant"}]},{"lat":"37.180837131","long":"127.09133751","imageIndex":4,"items":[{"name":"불타는 안창살","tel":"031-372-9295","addr":"경기도 화성시 방교동 772-6번지","indutype":"일반휴게음식 - 일반한식","category":"restaurant"}]},{"lat":"37.182495281","long":"127.09102413","imageIndex":4,"items":[{"name":"비어브로(Beer bro)","tel":"031-377-0902","addr":"경기도 화성시 방교동 767-4번지","indutype":"일반휴게음식 - 주점","category":"restaurant"},{"name":"오렌지식당","tel":"031-111-1111","addr":"경기도 화성시 방교동 767-4번지 1층 101호","indutype":"일반휴게음식 - 일반한식","category":"restaurant"}]},{"lat":"37.180611912","long":"127.09128094","imageIndex":4,"items":[{"name":"빈어스커피연구소","tel":"031-378-7712","addr":"경기도 화성시 방교동 773-5번지","indutype":"일반휴게음식 - 서양음식","category":"restaurant"}]},{"lat":"37.182973855","long":"127.08963954","imageIndex":4,"items":[{"name":"사랑으로오렌지식당","tel":"","addr":"경기도 화성시 방교동 752-5번지","indutype":"일반휴게음식 - 일반한식","category":"restaurant"}]},{"lat":"37.180441233","long":"127.09058256","imageIndex":4,"items":[{"name":"사랑채식당","tel":"031-375-9594","addr":"경기도 화성시 방교동 773-12번지 층","indutype":"일반휴게음식 - 일반한식","category":"restaurant"}]},{"lat":"37.182053544","long":"127.09132767","imageIndex":4,"items":[{"name":"상개분식포차","tel":"","addr":"경기도 화성시 방교동 769-6번지 1층 일부호","indutype":"일반휴게음식 - 일반한식","category":"restaurant"}]},{"lat":"37.18058478","long":"127.09141604","imageIndex":4,"items":[{"name":"셀렉토커피","tel":"031-375-0108","addr":"경기도 화성시 방교동 773-6번지 1층","indutype":"일반휴게음식 - 서양음식","category":"restaurant"}]},{"lat":"37.18261219","long":"127.09132832","imageIndex":4,"items":[{"name":"소담메밀냉면 돼지불백","tel":"031-376-3716","addr":"경기도 화성시 방교동 767-6번지 1층 전체호","indutype":"일반휴게음식 - 일반한식","category":"restaurant"}]},{"lat":"37.18222486","long":"127.09117021","imageIndex":4,"items":[{"name":"수육국밥과보쌈","tel":"031-377-0511","addr":"경기도 화성시 방교동 768-4번지","indutype":"일반휴게음식 - 일반한식","category":"restaurant"}]},{"lat":"37.182559516","long":"127.08944762","imageIndex":4,"items":[{"name":"스시탄","tel":"031-377-6104","addr":"경기도 화성시 방교동 753-4번지 1층","indutype":"일반휴게음식 - 일식·회집","category":"restaurant"}]},{"lat":"37.172107589","long":"127.08922176","imageIndex":4,"items":[{"name":"슬로우푸드","tel":"031-372-2242","addr":"경기도 화성시 방교동 833-2번지 2층 전부호","indutype":"일반휴게음식 - 일반한식","category":"restaurant"}]},{"lat":"37.180305188","long":"127.09177607","imageIndex":4,"items":[{"name":"아구야(본점)","tel":"031-373-0111","addr":"경기도 화성시 방교동 780-3번지 동탄프리미엄아울렛 B동 201,202,203호","indutype":"일반휴게음식 - 일반한식","category":"restaurant"}]},{"lat":"37.183279161","long":"127.09105882","imageIndex":4,"items":[{"name":"야차푸드","tel":"","addr":"경기도 화성시 방교동 765-4번지","indutype":"일반휴게음식 - 일반한식","category":"restaurant"}]},{"lat":"37.181557635","long":"127.09177754","imageIndex":4,"items":[{"name":"엉클사이공","tel":"031-374-1108","addr":"경기도 화성시 방교동 770-8번지 103호","indutype":"일반휴게음식 - 일반한식","category":"restaurant"}]},{"lat":"37.180773898","long":"127.0915514","imageIndex":4,"items":[{"name":"에드리프 ADDLEAF","tel":"031-372-0502","addr":"경기도 화성시 방교동 772-7번지 1층 일부호","indutype":"일반휴게음식 - 서양음식","category":"restaurant"}]},{"lat":"37.182523376","long":"127.08958272","imageIndex":4,"items":[{"name":"영진한우곱창","tel":"031-111-1111","addr":"경기도 화성시 방교동 753-5번지 1층","indutype":"일반휴게음식 - 일반한식","category":"restaurant"}]},{"lat":"37.180801173","long":"127.09122486","imageIndex":4,"items":[{"name":"예사부짬뽕","tel":"031-372-9928","addr":"경기도 화성시 방교동 772-5번지","indutype":"일반휴게음식 - 중국식","category":"restaurant"}]},{"lat":"37.180251538","long":"127.09122422","imageIndex":4,"items":[{"name":"옛날아우내순대","tel":"031-373-9996","addr":"경기도 화성시 방교동 774-5번지 1층","indutype":"일반휴게음식 - 일반한식","category":"restaurant"}]},{"lat":"37.180251998","long":"127.09060487","imageIndex":4,"items":[{"name":"우리네흑돼지","tel":"031-376-6767","addr":"경기도 화성시 방교동 774-1번지 1층","indutype":"일반휴게음식 - 일반한식","category":"restaurant"}]},{"lat":"37.181613267","long":"127.0896605","imageIndex":4,"items":[{"name":"우리동네시래기","tel":"070-7658-4646","addr":"경기도 화성시 방교동 756-7번지 1층 전체호","indutype":"일반휴게음식 - 일반한식","category":"restaurant"}]},{"lat":"37.180801299","long":"127.09105594","imageIndex":4,"items":[{"name":"이조(이자까야)","tel":"031-374-0983","addr":"경기도 화성시 방교동 772-4번지","indutype":"일반휴게음식 - 일반한식","category":"restaurant"}]},{"lat":"37.182190352","long":"127.08908684","imageIndex":4,"items":[{"name":"임실N치즈피자(동탄반교점)","tel":"031-377-9901","addr":"경기도 화성시 방교동 754-2번지 1층 101호","indutype":"일반휴게음식 - 서양음식","category":"restaurant"},{"name":"좋은날257","tel":"","addr":"경기도 화성시 방교동 754-2번지 1층 102호","indutype":"일반휴게음식 - 서양음식","category":"restaurant"}]},{"lat":"37.181197429","long":"127.09149559","imageIndex":4,"items":[{"name":"정정아식당","tel":"031-372-1223","addr":"경기도 화성시 방교동 771-7번지 101호","indutype":"일반휴게음식 - 일반한식","category":"restaurant"}]},{"lat":"37.18325176","long":"127.09155429","imageIndex":4,"items":[{"name":"제주올레","tel":"031-374-0133","addr":"경기도 화성시 방교동 765-7번지 1층","indutype":"일반휴게음식 - 일반한식","category":"restaurant"}]},{"lat":"37.181189934","long":"127.08944606","imageIndex":4,"items":[{"name":"존가네 화성동탄점","tel":"031-375-5585","addr":"경기도 화성시 방교동 757-5번지 1층 일부호","indutype":"일반휴게음식 - 일반한식","category":"restaurant"}]},{"lat":"37.180360836","long":"127.08963655","imageIndex":4,"items":[{"name":"최호철칼국수","tel":"031-375-3033","addr":"경기도 화성시 방교동 759-7번지 1층 전체호","indutype":"일반휴게음식 - 일반한식","category":"restaurant"}]},{"lat":"37.181162124","long":"127.09050457","imageIndex":4,"items":[{"name":"치킨뱅이","tel":"031-377-5115","addr":"경기도 화성시 방교동 771-1번지 101호","indutype":"일반휴게음식 - 일반한식","category":"restaurant"}]},{"lat":"37.169281175","long":"127.08519897","imageIndex":4,"items":[{"name":"코리아푸드","tel":"031-111-1111","addr":"경기도 화성시 방교동 797-10번지 2동 1층일부호","indutype":"일반휴게음식 - 위탁급식업","category":"restaurant"}]},{"lat":"37.18218999","long":"127.08958233","imageIndex":4,"items":[{"name":"토굽스커피","tel":"031-373-8577","addr":"경기도 화성시 방교동 754-5번지 1층","indutype":"일반휴게음식 - 서양음식","category":"restaurant"}]},{"lat":"37.181774339","long":"127.09116969","imageIndex":4,"items":[{"name":"포항식당","tel":"031-663-0447","addr":"경기도 화성시 방교동 769-8번지","indutype":"일반휴게음식 - 일반한식","category":"restaurant"}]},{"lat":"37.180559106","long":"127.08958047","imageIndex":4,"items":[{"name":"하이커피","tel":"031-378-0615","addr":"경기도 화성시 방교동 759-6번지","indutype":"일반휴게음식 - 서양음식","category":"restaurant"}]},{"lat":"37.181774239","long":"127.09130482","imageIndex":4,"items":[{"name":"해두리치킨(동탄2지구점)","tel":"031-373-9216","addr":"경기도 화성시 방교동 769-7번지 1층 일부호","indutype":"일반휴게음식 - 스넥","category":"restaurant"}]},{"lat":"37.182613702","long":"127.08927876","imageIndex":4,"items":[{"name":"행복한밥상","tel":"031-373-1365","addr":"경기도 화성시 방교동 753-3번지 1층","indutype":"일반휴게음식 - 일반한식","category":"restaurant"}]},{"lat":"37.180802387","long":"127.08958075","imageIndex":4,"items":[{"name":"호갱양꼬치","tel":"031-354-0619","addr":"경기도 화성시 방교동 758-6번지 1층","indutype":"일반휴게음식 - 일반한식","category":"restaurant"}]},{"lat":"37.181386732","long":"127.0913832","imageIndex":4,"items":[{"name":"홍운성","tel":"031-376-5581","addr":"경기도 화성시 방교동 770-11번지 1층","indutype":"일반휴게음식 - 중국식","category":"restaurant"}]},{"lat":"37.181190155","long":"127.08914201","imageIndex":4,"items":[{"name":"홍춘천치즈닭갈비","tel":"031-375-3949","addr":"경기도 화성시 방교동 757-3번지 1층 101호","indutype":"일반휴게음식 - 일반한식","category":"restaurant"}]}]