[{"lat":"37.295465039","long":"127.43326491","imageIndex":4,"items":[{"name":"EDIYA(이디야)","tel":"031-634-2010","addr":"경기도 이천시 송정동 314번지 1층 101,102호","indutype":"일반휴게음식 - 서양음식","category":"restaurant"},{"name":"신통치킨","tel":"031-632-0992","addr":"경기도 이천시 송정동 314번지 1층 106호","indutype":"일반휴게음식 - 스넥","category":"restaurant"},{"name":"형제막창","tel":"031-638-2584","addr":"경기도 이천시 송정동 314번지 109호","indutype":"일반휴게음식 - 일반한식","category":"restaurant"}]},{"lat":"37.295574142","long":"127.43299486","imageIndex":4,"items":[{"name":"가마치통닭 (이천송정점)","tel":"02-1111-1111","addr":"경기도 이천시 송정동 314-7번지","indutype":"일반휴게음식 - 일반한식","category":"restaurant"}]},{"lat":"37.290467879","long":"127.44454756","imageIndex":4,"items":[{"name":"가장맛있는족발","tel":"031-633-4849","addr":"경기도 이천시 송정동 82번지","indutype":"일반휴게음식 - 일반한식","category":"restaurant"},{"name":"아지트","tel":"031-635-2000","addr":"경기도 이천시 송정동 82번지","indutype":"일반휴게음식 - 서양음식","category":"restaurant"},{"name":"제이앰비 카페아지트","tel":"031-635-2000","addr":"경기도 이천시 송정동 82번지","indutype":"일반휴게음식 - 서양음식","category":"restaurant"}]},{"lat":"37.295546743","long":"127.43309621","imageIndex":4,"items":[{"name":"감탄","tel":"031-636-0099","addr":"경기도 이천시 송정동 314-13번지 에이앤아이스튜디오103호","indutype":"일반휴게음식 - 스넥","category":"restaurant"}]},{"lat":"37.294242405","long":"127.44232533","imageIndex":4,"items":[{"name":"공화춘","tel":"031-635-2288","addr":"경기도 이천시 송정동 106-7번지","indutype":"일반휴게음식 - 중국식","category":"restaurant"}]},{"lat":"37.297046765","long":"127.43929652","imageIndex":4,"items":[{"name":"구이구이","tel":"031-637-7005","addr":"경기도 이천시 송정동 340-8번지","indutype":"일반휴게음식 - 일반한식","category":"restaurant"}]},{"lat":"37.294298973","long":"127.43429583","imageIndex":4,"items":[{"name":"굽기의신","tel":"031-633-9298","addr":"경기도 이천시 송정동 375-37번지","indutype":"일반휴게음식 - 일반한식","category":"restaurant"}]},{"lat":"37.296295487","long":"127.43532227","imageIndex":4,"items":[{"name":"길손보리밥","tel":"031-637-6339","addr":"경기도 이천시 송정동 317-4번지 중앙프라자 103호","indutype":"일반휴게음식 - 일반한식","category":"restaurant"},{"name":"큰손횟집","tel":"031-631-7687","addr":"경기도 이천시 송정동 317-4번지 중앙프라자 107호","indutype":"일반휴게음식 - 일반한식","category":"restaurant"}]},{"lat":"37.29746297","long":"127.43882523","imageIndex":4,"items":[{"name":"김가네송정점","tel":"031-637-7714","addr":"경기도 이천시 송정동 342번지 1층","indutype":"일반휴게음식 - 일반한식","category":"restaurant"}]},{"lat":"37.296326533","long":"127.4366871","imageIndex":4,"items":[{"name":"꼬꼬불닭발","tel":"031-633-9289","addr":"경기도 이천시 송정동 428-1번지 제상가동제1층 104호","indutype":"일반휴게음식 - 주점","category":"restaurant"}]},{"lat":"37.296574714","long":"127.43534642","imageIndex":4,"items":[{"name":"꽃이핀다","tel":"031-633-1004","addr":"경기도 이천시 송정동 317-2번지 105호","indutype":"일반휴게음식 - 일반한식","category":"restaurant"},{"name":"도너리감자탕(이천점)","tel":"031-637-9291","addr":"경기도 이천시 송정동 317-2번지","indutype":"일반휴게음식 - 일반한식","category":"restaurant"}]},{"lat":"37.294105831","long":"127.44270799","imageIndex":4,"items":[{"name":"꿈인","tel":"070-7672-2000","addr":"경기도 이천시 송정동 106-1번지","indutype":"일반휴게음식 - 서양음식","category":"restaurant"}]},{"lat":"37.293906983","long":"127.44287599","imageIndex":4,"items":[{"name":"나고야","tel":"031-635-7832","addr":"경기도 이천시 송정동 103-2번지","indutype":"일반휴게음식 - 일반한식","category":"restaurant"},{"name":"홍두깨해물손칼국수","tel":"031-636-4421","addr":"경기도 이천시 송정동 103-2번지","indutype":"일반휴게음식 - 일반한식","category":"restaurant"}]},{"lat":"37.29593882","long":"127.44648554","imageIndex":4,"items":[{"name":"나무향기","tel":"","addr":"경기도 이천시 송정동 115-52번지 1동 1층","indutype":"일반휴게음식 - 서양음식","category":"restaurant"}]},{"lat":"37.300043558","long":"127.43782504","imageIndex":4,"items":[{"name":"남촌칼국수","tel":"031-635-0991","addr":"경기도 이천시 송정동 193번지","indutype":"일반휴게음식 - 일반한식","category":"restaurant"},{"name":"송정관","tel":"031-634-6625","addr":"경기도 이천시 송정동 193외1필지","indutype":"일반휴게음식 - 일반한식","category":"restaurant"}]},{"lat":"37.295132776","long":"127.43295852","imageIndex":4,"items":[{"name":"다같이올래","tel":"031-638-3518","addr":"경기도 이천시 송정동 314-4번지 1층 109호","indutype":"일반휴게음식 - 일반한식","category":"restaurant"},{"name":"돈키돈키","tel":"031-631-9585","addr":"경기도 이천시 송정동 314-4번지","indutype":"일반휴게음식 - 일반한식","category":"restaurant"},{"name":"송정정육점식당","tel":"031-634-8565","addr":"경기도 이천시 송정동 314-4번지 102호","indutype":"일반휴게음식 - 일반한식","category":"restaurant"},{"name":"이삭토스트","tel":"031-633-2492","addr":"경기도 이천시 송정동 314-4번지 106호","indutype":"일반휴게음식 - 서양음식","category":"restaurant"},{"name":"커피 앤(COFFEE N)","tel":"070-8800-3251","addr":"경기도 이천시 송정동 314-4번지 107호","indutype":"일반휴게음식 - 서양음식","category":"restaurant"}]},{"lat":"37.298131369","long":"127.43837795","imageIndex":4,"items":[{"name":"대구왕뽈찜(송정점)","tel":"031-631-3038","addr":"경기도 이천시 송정동 332-4번지","indutype":"일반휴게음식 - 일반한식","category":"restaurant"},{"name":"손짜장명가","tel":"031-634-9088","addr":"경기도 이천시 송정동 332-4번지","indutype":"일반휴게음식 - 중국식","category":"restaurant"},{"name":"이천치킨호프","tel":"031-635-2399","addr":"경기도 이천시 송정동 332-4번지","indutype":"일반휴게음식 - 주점","category":"restaurant"}]},{"lat":"37.296188067","long":"127.43512992","imageIndex":4,"items":[{"name":"대구전봇대막창","tel":"031-631-7006","addr":"경기도 이천시 송정동 316번지 제일상가 101호","indutype":"일반휴게음식 - 일반한식","category":"restaurant"},{"name":"바른치킨 이천송정점","tel":"031-633-9587","addr":"경기도 이천시 송정동 316번지 제일상가 1층 102호","indutype":"일반휴게음식 - 스넥","category":"restaurant"},{"name":"피자스쿨(송정점)","tel":"031-635-2999","addr":"경기도 이천시 송정동 316번지 재일상가 101동2호외2필지","indutype":"일반휴게음식 - 서양음식","category":"restaurant"}]},{"lat":"37.300382078","long":"127.43887591","imageIndex":4,"items":[{"name":"도깨비밥상/(주)여행버스 이천지점","tel":"031-635-4483","addr":"경기도 이천시 송정동 182-9번지","indutype":"일반휴게음식 - 일반한식","category":"restaurant"}]},{"lat":"37.297766357","long":"127.43962775","imageIndex":4,"items":[{"name":"독도볼태기","tel":"031-633-6888","addr":"경기도 이천시 송정동 340-1번지","indutype":"일반휴게음식 - 일반한식","category":"restaurant"}]},{"lat":"37.294911858","long":"127.43424294","imageIndex":4,"items":[{"name":"돈치킨","tel":"031-635-9245","addr":"경기도 이천시 송정동 375-54번지","indutype":"일반휴게음식 - 스넥","category":"restaurant"}]},{"lat":"37.300799035","long":"127.43574281","imageIndex":4,"items":[{"name":"라온 함바식당","tel":"031-632-6253","addr":"경기도 이천시 송정동 204-1번지","indutype":"일반휴게음식 - 일반한식","category":"restaurant"}]},{"lat":"37.29268757","long":"127.44610557","imageIndex":4,"items":[{"name":"류재열의 명품코다리찜","tel":"031-635-4015","addr":"경기도 이천시 송정동 72-4번지","indutype":"일반휴게음식 - 일반한식","category":"restaurant"}]},{"lat":"37.295433245","long":"127.43457298","imageIndex":4,"items":[{"name":"모드니","tel":"","addr":"경기도 이천시 송정동 374번지","indutype":"일반휴게음식 - 서양음식","category":"restaurant"}]},{"lat":"37.296850374","long":"127.43879914","imageIndex":4,"items":[{"name":"몽돌해물탕","tel":"031-631-3033","addr":"경기도 이천시 송정동 429-1번지","indutype":"일반휴게음식 - 일반한식","category":"restaurant"}]},{"lat":"37.294105639","long":"127.44032836","imageIndex":4,"items":[{"name":"번지농장돌판아구찜","tel":"031-631-4545","addr":"경기도 이천시 송정동 106-36번지","indutype":"일반휴게음식 - 일반한식","category":"restaurant"}]},{"lat":"37.295882757","long":"127.43484623","imageIndex":4,"items":[{"name":"베네통","tel":"031-634-4456","addr":"경기도 이천시 송정동 315-1번지 1동 202호","indutype":"일반휴게음식 - 주점","category":"restaurant"},{"name":"술이술술","tel":"031-635-2000","addr":"경기도 이천시 송정동 315-1번지 1동 104호","indutype":"일반휴게음식 - 일반한식","category":"restaurant"},{"name":"일조","tel":"031-634-6266","addr":"경기도 이천시 송정동 315-1 1-102","indutype":"일반휴게음식 - 일반한식","category":"restaurant"},{"name":"주.막끌리네","tel":"031-638-2950","addr":"경기도 이천시 송정동 315-1번지 1동 105호","indutype":"일반휴게음식 - 주점","category":"restaurant"}]},{"lat":"37.294960069","long":"127.43337482","imageIndex":4,"items":[{"name":"봉구스밥버거","tel":"031-635-0010","addr":"경기도 이천시 송정동 375-9번지 1동 B층 105호","indutype":"일반휴게음식 - 스넥","category":"restaurant"},{"name":"비비큐(송정점)","tel":"031-637-7292","addr":"경기도 이천시 송정동 375-9번지 금정프라자 B103호","indutype":"일반휴게음식 - 일반한식","category":"restaurant"},{"name":"전봇대곱창","tel":"031-637-4207","addr":"경기도 이천시 송정동 375-9번지 금정프라자 1동 B105호","indutype":"일반휴게음식 - 일반한식","category":"restaurant"}]},{"lat":"37.294135531","long":"127.44441111","imageIndex":4,"items":[{"name":"봉평메밀/봉평메밀특산단지영농조합법인(","tel":"031-632-9938","addr":"경기도 이천시 송정동 100-10번지","indutype":"일반휴게음식 - 일반한식","category":"restaurant"}]},{"lat":"37.297384868","long":"127.43801274","imageIndex":4,"items":[{"name":"비어가리식당","tel":"031-631-9667","addr":"경기도 이천시 송정동 328번지 거장프라자","indutype":"일반휴게음식 - 일반한식","category":"restaurant"},{"name":"수니와순이의즉석김밥","tel":"031-637-3804","addr":"경기도 이천시 송정동 328번지 거장프라자 가동 106호","indutype":"일반휴게음식 - 스넥","category":"restaurant"},{"name":"옛날시장통닭","tel":"031-633-8295","addr":"경기도 이천시 송정동 328번지 거장프라자 107호","indutype":"일반휴게음식 - 일반한식","category":"restaurant"},{"name":"홍춘천치즈닭갈비","tel":"031-631-3824","addr":"경기도 이천시 송정동 328번지 가동 101호,102호","indutype":"일반휴게음식 - 일반한식","category":"restaurant"}]},{"lat":"37.298627831","long":"127.43813269","imageIndex":4,"items":[{"name":"산내들마을","tel":"031-638-5225","addr":"경기도 이천시 송정동 332번지","indutype":"일반휴게음식 - 일반한식","category":"restaurant"},{"name":"홈가덕","tel":"031-638-5995","addr":"경기도 이천시 송정동 332번지","indutype":"일반휴게음식 - 중국식","category":"restaurant"}]},{"lat":"37.293408203","long":"127.44374147","imageIndex":4,"items":[{"name":"샤브향","tel":"031-636-7747","addr":"경기도 이천시 송정동 100-11번지","indutype":"일반휴게음식 - 일반한식","category":"restaurant"}]},{"lat":"37.291826783","long":"127.43768752","imageIndex":4,"items":[{"name":"선차이나(SUN CHINA)","tel":"031-631-9285","addr":"경기도 이천시 송정동 357-4번지 1층 103호","indutype":"일반휴게음식 - 중국식","category":"restaurant"}]},{"lat":"37.301848792","long":"127.43940321","imageIndex":4,"items":[{"name":"송정보리밥","tel":"031-631-7666","addr":"경기도 이천시 송정동 172-5번지","indutype":"일반휴게음식 - 일반한식","category":"restaurant"}]},{"lat":"37.302019967","long":"127.43201645","imageIndex":4,"items":[{"name":"송정영양집","tel":"031-637-3558","addr":"경기도 이천시 송정동 257번지","indutype":"일반휴게음식 - 일반한식","category":"restaurant"}]},{"lat":"37.301933511","long":"127.43349351","imageIndex":4,"items":[{"name":"송정추어국수","tel":"031-633-8691","addr":"경기도 이천시 송정동 259-5번지","indutype":"일반휴게음식 - 일반한식","category":"restaurant"}]},{"lat":"37.297209984","long":"127.4390155","imageIndex":4,"items":[{"name":"신대박","tel":"031-638-6399","addr":"경기도 이천시 송정동 343번지 송정치과 B동 103호","indutype":"일반휴게음식 - 일반한식","category":"restaurant"},{"name":"오백국수","tel":"031-634-8140","addr":"경기도 이천시 송정동 343번지 송정치과 B102호","indutype":"일반휴게음식 - 일반한식","category":"restaurant"},{"name":"치킨마루 송정점","tel":"031-632-9292","addr":"경기도 이천시 송정동 343번지 송정치과 102호","indutype":"일반휴게음식 - 스넥","category":"restaurant"}]},{"lat":"37.29507805","long":"127.44051444","imageIndex":4,"items":[{"name":"아리골","tel":"031-633-3733","addr":"경기도 이천시 송정동 346-32번지 아리메디컬타운 지층 101호","indutype":"일반휴게음식 - 일반한식","category":"restaurant"}]},{"lat":"37.292710481","long":"127.4447975","imageIndex":4,"items":[{"name":"아리묵밥집","tel":"031-634-6674","addr":"경기도 이천시 송정동 92-1번지","indutype":"일반휴게음식 - 일반한식","category":"restaurant"}]},{"lat":"37.296911698","long":"127.43927318","imageIndex":4,"items":[{"name":"아리토종순대국","tel":"031-631-8352","addr":"경기도 이천시 송정동 344-5번지","indutype":"일반휴게음식 - 일반한식","category":"restaurant"}]},{"lat":"37.29054699","long":"127.44507805","imageIndex":4,"items":[{"name":"연촌염소탕","tel":"031-631-8292","addr":"경기도 이천시 송정동 80-30번지","indutype":"일반휴게음식 - 일반한식","category":"restaurant"}]},{"lat":"37.292215353","long":"127.44468183","imageIndex":4,"items":[{"name":"오리먹음돼지","tel":"031-694-5252","addr":"경기도 이천시 송정동 90-17번지","indutype":"일반휴게음식 - 일반한식","category":"restaurant"}]},{"lat":"37.301909697","long":"127.43999007","imageIndex":4,"items":[{"name":"원복요리전문점","tel":"031-632-3797","addr":"경기도 이천시 송정동 172-10번지","indutype":"일반휴게음식 - 일반한식","category":"restaurant"}]},{"lat":"37.293405723","long":"127.44440684","imageIndex":4,"items":[{"name":"이동우스시","tel":"031-634-3634","addr":"경기도 이천시 송정동 98-16번지 1동 1층","indutype":"일반휴게음식 - 일식·회집","category":"restaurant"}]},{"lat":"37.290882759","long":"127.44443721","imageIndex":4,"items":[{"name":"이천맛집바다향왕코다리","tel":"031-632-2640","addr":"경기도 이천시 송정동 82-7번지 1층","indutype":"일반휴게음식 - 일반한식","category":"restaurant"},{"name":"홍익돈까스","tel":"031-634-6165","addr":"경기도 이천시 송정동 82-7번지","indutype":"일반휴게음식 - 서양음식","category":"restaurant"},{"name":"화덕고깃간(이천점)","tel":"031-633-7767","addr":"경기도 이천시 송정동 82-7번지","indutype":"일반휴게음식 - 일반한식","category":"restaurant"}]},{"lat":"37.297689963","long":"127.43835285","imageIndex":4,"items":[{"name":"죽이야기 이천송정점","tel":"031-635-6233","addr":"경기도 이천시 송정동 329-4번지 1층","indutype":"일반휴게음식 - 일반한식","category":"restaurant"}]},{"lat":"37.292469387","long":"127.44662306","imageIndex":4,"items":[{"name":"중화요리 왕서방","tel":"031-635-1282","addr":"경기도 이천시 송정동 73-10번지","indutype":"일반휴게음식 - 중국식","category":"restaurant"}]},{"lat":"37.292434284","long":"127.44396134","imageIndex":4,"items":[{"name":"짬뽕의 천국","tel":"031-634-7376","addr":"경기도 이천시 송정동 86-4번지","indutype":"일반휴게음식 - 중국식","category":"restaurant"}]},{"lat":"37.294856632","long":"127.44191162","imageIndex":4,"items":[{"name":"취향","tel":"031-111-1111","addr":"경기도 이천시 송정동 107-32번지","indutype":"일반휴게음식 - 중국식","category":"restaurant"}]},{"lat":"37.297356179","long":"127.43846371","imageIndex":4,"items":[{"name":"커피 아뜰리에","tel":"031-634-8670","addr":"경기도 이천시 송정동 327-2번지 1층","indutype":"일반휴게음식 - 서양음식","category":"restaurant"}]},{"lat":"37.294965013","long":"127.43449136","imageIndex":4,"items":[{"name":"투다리(송정점)","tel":"031-632-7880","addr":"경기도 이천시 송정동 375-63번지 1동 1층","indutype":"일반휴게음식 - 주점","category":"restaurant"}]},{"lat":"37.291774243","long":"127.44457775","imageIndex":4,"items":[{"name":"평창송정약수송어회집","tel":"031-638-3861","addr":"경기도 이천시 송정동 90-27번지 1층","indutype":"일반휴게음식 - 일식·회집","category":"restaurant"},{"name":"평창약수송어장","tel":"031-633-0654","addr":"경기도 이천시 송정동 90-27번지","indutype":"일반휴게음식 - 일식·회집","category":"restaurant"}]},{"lat":"37.294878446","long":"127.43352096","imageIndex":4,"items":[{"name":"피자마루(송정점)","tel":"031-633-1084","addr":"경기도 이천시 송정동 375-39번지 제지하비 1층","indutype":"일반휴게음식 - 서양음식","category":"restaurant"}]},{"lat":"37.297215624","long":"127.43992908","imageIndex":4,"items":[{"name":"한양본참숯돼지갈비","tel":"031-632-5776","addr":"경기도 이천시 송정동 340-3번지","indutype":"일반휴게음식 - 일반한식","category":"restaurant"}]},{"lat":"37.295385223","long":"127.44029066","imageIndex":4,"items":[{"name":"화로불민물장어 송정점","tel":"031-634-8592","addr":"경기도 이천시 송정동 346-30번지 1층","indutype":"일반휴게음식 - 일반한식","category":"restaurant"}]}]