[{"lat":"37.166830343","long":"126.98376425","imageIndex":7,"items":[{"name":"꽃무지개 굼뱅이 농장","tel":"031-354-7345","addr":"경기도 화성시 정남면 신리 37-1번지","indutype":"음료식품 - 농·축·수산품","category":"food"}]},{"lat":"37.167974531","long":"126.98293079","imageIndex":7,"items":[{"name":"농민생산","tel":"070-5099-0840","addr":"경기도 화성시 정남면 신리 25-1번지","indutype":"음료식품 - 농·축·수산품","category":"food"}]},{"lat":"37.167416003","long":"126.98365152","imageIndex":7,"items":[{"name":"농업회사법인 주식회사 대연","tel":"031-354-7345","addr":"경기도 화성시 정남면 신리 29-3번지","indutype":"음료식품 - 기타음료식품","category":"food"}]},{"lat":"37.161691354","long":"126.96995173","imageIndex":7,"items":[{"name":"대한육가공","tel":"031-366-3344","addr":"경기도 화성시 정남면 신리 306-1번지","indutype":"음료식품 - 기타음료식품","category":"food"}]},{"lat":"37.161531844","long":"126.98167157","imageIndex":7,"items":[{"name":"드림","tel":"031-1688-8865","addr":"경기도 화성시 정남면 신리 114번지 1층","indutype":"음료식품 - 기타음료식품","category":"food"}]},{"lat":"37.161638288","long":"126.97375702","imageIndex":7,"items":[{"name":"우진축산유통","tel":"031-352-5201","addr":"경기도 화성시 정남면 신리 259-9번지 1층","indutype":"음료식품 - 정육점","category":"food"}]},{"lat":"37.162585604","long":"126.97922821","imageIndex":7,"items":[{"name":"장보고식품&양파세상","tel":"031-366-1725","addr":"경기도 화성시 정남면 신리 136-4번지 2동공장","indutype":"음료식품 - 농·축·수산품","category":"food"}]},{"lat":"37.167830434","long":"126.98334741","imageIndex":7,"items":[{"name":"정남건강원","tel":"031-352-7375","addr":"경기도 화성시 정남면 신리 25-3번지 1층","indutype":"음료식품 - 기타음료식품","category":"food"}]},{"lat":"37.161333614","long":"126.98167162","imageIndex":7,"items":[{"name":"정남어시장","tel":"031-354-7833","addr":"경기도 화성시 정남면 신리 114-4번지","indutype":"음료식품 - 농·축·수산품","category":"food"}]},{"lat":"37.161945452","long":"126.97725822","imageIndex":7,"items":[{"name":"정남영농조합법인","tel":"031-352-2254","addr":"경기도 화성시 정남면 신리 161-2번지","indutype":"음료식품 - 농·축·수산품","category":"food"}]},{"lat":"37.166694489","long":"126.97984617","imageIndex":7,"items":[{"name":"주식회사 아리솔","tel":"","addr":"경기도 화성시 정남면 신리 48-6번지 103호","indutype":"음료식품 - 농·축·수산품","category":"food"}]},{"lat":"37.165306034","long":"126.97583848","imageIndex":7,"items":[{"name":"해낸물산","tel":"031-353-9305","addr":"경기도 화성시 정남면 신리 279-1번지","indutype":"음료식품 - 기타음료식품","category":"food"}]}]