[{"lat":"37.541851973","long":"127.32271465","imageIndex":7,"items":[{"name":"농업회사법인주식회사용문산산더덕","tel":"031-771-5955","addr":"경기도 양평군 양서면 용담리 580-7번지","indutype":"음료식품 - 농·축·수산품","category":"food"}]},{"lat":"37.547569188","long":"127.32749177","imageIndex":7,"items":[{"name":"매점","tel":"031-772-6382","addr":"경기도 양평군 양서면 용담리 221-1번지 양서고등학교 구내매점","indutype":"음료식품 - 기타음료식품","category":"food"}]},{"lat":"37.546628875","long":"127.32868716","imageIndex":7,"items":[{"name":"서울우유양서대리점","tel":"031-772-6028","addr":"경기도 양평군 양서면 용담리 259-3","indutype":"음료식품 - 기타음료식품","category":"food"}]},{"lat":"37.543043406","long":"127.32524304","imageIndex":7,"items":[{"name":"스마일명품찹쌀꽈배기","tel":"","addr":"경기도 양평군 양서면 용담리 507-44번지","indutype":"음료식품 - 기타음료식품","category":"food"}]},{"lat":"37.540848639","long":"127.32390974","imageIndex":7,"items":[{"name":"실버앤골드(주)/심황후연꽃빵","tel":"031-774-0161","addr":"경기도 양평군 양서면 용담리 428-8번지","indutype":"음료식품 - 제과점","category":"food"},{"name":"재단법인세미원","tel":"031-775-1834","addr":"경기도 양평군 양서면 용담리 428-8번지","indutype":"음료식품 - 농·축·수산품","category":"food"}]},{"lat":"37.543433415","long":"127.32429423","imageIndex":7,"items":[{"name":"은유네 건어물나라","tel":"031-772-0873","addr":"경기도 양평군 양서면 용담리 532-4번지 1층","indutype":"음료식품 - 농·축·수산품","category":"food"}]},{"lat":"37.5453759","long":"127.32890802","imageIndex":7,"items":[{"name":"자전거카페","tel":"031-772-0923","addr":"경기도 양평군 양서면 용담리 255-2","indutype":"음료식품 - 기타음료식품","category":"food"}]},{"lat":"37.544602812","long":"127.32827099","imageIndex":7,"items":[{"name":"한복이네 한과래","tel":"031-775-2506","addr":"경기도 양평군 양서면 용담리 245-3번지 운주빌딩 1층 103호","indutype":"음료식품 - 제과점","category":"food"}]}]