[{"lat":"37.175225976","long":"127.05764041","imageIndex":13,"items":[{"name":"7당구장","tel":"02-1661-6368","addr":"경기도 오산시 내삼미동 856-13번지 유진빌","indutype":"레저업소 - 당 구 장","category":"leisure"}]},{"lat":"37.181470743","long":"127.05645124","imageIndex":13,"items":[{"name":"드림스포츠팩토리","tel":"031-373-8271","addr":"경기도 오산시 내삼미동 509번지 1,2,3층","indutype":"레저업소 - 수 영 장","category":"leisure"}]},{"lat":"37.173224863","long":"127.05933922","imageIndex":13,"items":[{"name":"메카PC방","tel":"070-9206-5053","addr":"경기도 오산시 내삼미동 861-16번지 세교프라자 3층 301,302호","indutype":"레저업소 - 기타레져업소","category":"leisure"},{"name":"물향기노래연습장","tel":"031-372-2684","addr":"경기도 오산시 내삼미동 861-16번지 세교프라자 201,202","indutype":"레저업소 - 노 래 방","category":"leisure"}]},{"lat":"37.18272312","long":"127.05660978","imageIndex":13,"items":[{"name":"배팅스타","tel":"031-376-6258","addr":"경기도 오산시 내삼미동 516-2번지 1동","indutype":"레저업소 - 기타레져업소","category":"leisure"}]},{"lat":"37.179335162","long":"127.05669747","imageIndex":13,"items":[{"name":"세교스크린골프","tel":"031-375-0752","addr":"경기도 오산시 내삼미동 497번지","indutype":"레저업소 - 스크린골프","category":"leisure"}]},{"lat":"37.172972991","long":"127.0584495","imageIndex":13,"items":[{"name":"썬노래연습장","tel":"031-223-9159","addr":"경기도 오산시 내삼미동 861-10번지 노서빌 2층","indutype":"레저업소 - 노 래 방","category":"leisure"},{"name":"썬노래연습장","tel":"031-376-7772","addr":"경기도 오산시 내삼미동 861-10번지 노서빌 2층","indutype":"레저업소 - 노 래 방","category":"leisure"},{"name":"썬노래연습장","tel":"","addr":"경기도 오산시 내삼미동 861-10번지 노서빌 2층","indutype":"레저업소 - 노 래 방","category":"leisure"}]},{"lat":"37.173720989","long":"127.05816855","imageIndex":13,"items":[{"name":"우미노래연습장","tel":"","addr":"경기도 오산시 내삼미동 861-5번지 1층","indutype":"레저업소 - 노 래 방","category":"leisure"}]},{"lat":"37.184640606","long":"127.06030495","imageIndex":13,"items":[{"name":"주식회사 오마이주","tel":"031-378-6678","addr":"경기도 오산시 내삼미동 389-1번지","indutype":"레저업소 - 기타레져업소","category":"leisure"}]},{"lat":"37.173134893","long":"127.05905765","imageIndex":13,"items":[{"name":"팡팡노래연습장","tel":"031-377-7391","addr":"경기도 오산시 내삼미동 861-14번지 3층","indutype":"레저업소 - 노 래 방","category":"leisure"}]}]