[{"lat":"37.114571082","long":"127.63161968","imageIndex":7,"items":[{"name":"국진식품","tel":"031-641-3880","addr":"경기도 이천시 장호원읍 오남리 3-15","indutype":"음료식품 - 기타음료식품","category":"food"}]},{"lat":"37.115715217","long":"127.62995271","imageIndex":7,"items":[{"name":"대경축산","tel":"031-642-1290","addr":"경기도 이천시 장호원읍 오남리 12-3","indutype":"음료식품 - 정육점","category":"food"},{"name":"진성식품","tel":"031-641-9985","addr":"경기도 이천시 장호원읍 오남리 12-3번지 상가","indutype":"음료식품 - 정육점","category":"food"}]},{"lat":"37.115130282","long":"127.62981287","imageIndex":7,"items":[{"name":"대성건강원","tel":"031-641-3506","addr":"경기도 이천시 장호원읍 오남리 14-2번지","indutype":"건강식품 - 기타건강식품","category":"food"},{"name":"우리농산물","tel":"031-641-0119","addr":"경기도 이천시 장호원읍 오남리 14-2번지","indutype":"음료식품 - 농·축·수산품","category":"food"}]},{"lat":"37.114153633","long":"127.63047988","imageIndex":7,"items":[{"name":"모모베이킹","tel":"031-643-8025","addr":"경기도 이천시 장호원읍 오남리 3-50번지 101호","indutype":"음료식품 - 제과점","category":"food"}]},{"lat":"37.115271525","long":"127.63036534","imageIndex":7,"items":[{"name":"민속떡방앗간","tel":"031-641-1723","addr":"경기도 이천시 장호원읍 오남리 7-15번지","indutype":"음료식품 - 제과점","category":"food"}]},{"lat":"37.097017533","long":"127.62675026","imageIndex":7,"items":[{"name":"백산농원","tel":"070-8187-4321","addr":"경기도 이천시 장호원읍 오남리 464-4","indutype":"음료식품 - 농·축·수산품","category":"food"}]},{"lat":"37.115464246","long":"127.62970311","imageIndex":7,"items":[{"name":"빛고을농원","tel":"031-634-3722","addr":"경기도 이천시 장호원읍 오남리 14-1번지 1층","indutype":"음료식품 - 농·축·수산품","category":"food"}]},{"lat":"37.115458209","long":"127.6291405","imageIndex":7,"items":[{"name":"옥황포크","tel":"031-642-8833","addr":"경기도 이천시 장호원읍 오남리 17-2번지","indutype":"음료식품 - 정육점","category":"food"}]},{"lat":"37.111601961","long":"127.63080759","imageIndex":7,"items":[{"name":"칠팔상회","tel":"031-641-3650","addr":"경기도 이천시 장호원읍 오남리 57번지","indutype":"음료식품 - 기타음료식품","category":"food"}]},{"lat":"37.116015839","long":"127.63103531","imageIndex":7,"items":[{"name":"크로바유통","tel":"031-643-2288","addr":"경기도 이천시 장호원읍 오남리 1-12번지","indutype":"음료식품 - 정육점","category":"food"}]},{"lat":"37.093160385","long":"127.61826024","imageIndex":7,"items":[{"name":"풍곡농장","tel":"031-642-8735","addr":"경기도 이천시 장호원읍 오남리 산60-2","indutype":"음료식품 - 농·축·수산품","category":"food"},{"name":"풍곡농장","tel":"031-642-8735","addr":"경기도 이천시 장호원읍 오남리 산60-2번지","indutype":"음료식품 - 농·축·수산품","category":"food"}]}]