[{"lat":"37.483732892","long":"126.76924774","imageIndex":8,"items":[{"name":"e-하얀치과","tel":"032-665-9988","addr":"경기도 부천시 송내동 381-1번지","indutype":"의원 - 치과의원","category":"medical"},{"name":"송내연합의원","tel":"032-651-0123","addr":"경기도 부천시 송내동 381-1번지 길메디칼빌딩 2,3층","indutype":"의원 - 의원","category":"medical"}]},{"lat":"37.483432322","long":"126.76313198","imageIndex":8,"items":[{"name":"가나동물병원","tel":"032-665-0075","addr":"경기도 부천시 송내동 393-1번지 1,2층 일부","indutype":"기타의료기관 - 동물병원","category":"medical"}]},{"lat":"37.480683698","long":"126.77188019","imageIndex":8,"items":[{"name":"경희한약국","tel":"","addr":"경기도 부천시 송내동 603-2번지 다올빌리지2차 101호","indutype":"약국 - 한약방","category":"medical"}]},{"lat":"37.48484372","long":"126.76157848","imageIndex":8,"items":[{"name":"고려한의원","tel":"032-566-1075","addr":"경기도 부천시 송내동 365-5번지 동궁 상가 2층 1호","indutype":"의원 - 한의원","category":"medical"},{"name":"선린약국","tel":"032-655-5025","addr":"경기도 부천시 송내동 365-5번지","indutype":"약국 - 약국","category":"medical"}]},{"lat":"37.483261732","long":"126.76791507","imageIndex":8,"items":[{"name":"굿모닝약국","tel":"032-611-5431","addr":"경기도 부천시 송내동 383-20번지","indutype":"약국 - 약국","category":"medical"}]},{"lat":"37.484263383","long":"126.76419212","imageIndex":8,"items":[{"name":"김종찬소아과의원","tel":"032-661-9348","addr":"경기도 부천시 송내동 373번지 대우프라자 502호","indutype":"의원 - 의원","category":"medical"},{"name":"반듯한신경외과의원","tel":"032-721-7522","addr":"경기도 부천시 송내동 373번지 대우프라자 504호,505호","indutype":"의원 - 의원","category":"medical"},{"name":"벨라산부인과의원","tel":"032-654-9900","addr":"경기도 부천시 송내동 373번지 대우프라자 302,401호","indutype":"의원 - 의원","category":"medical"},{"name":"부천이비인후과의원","tel":"032-663-0207","addr":"경기도 부천시 송내동 373번지 대우프라자 402호","indutype":"의원 - 의원","category":"medical"},{"name":"예담한의원","tel":"032-653-7585","addr":"경기도 부천시 송내동 373번지 대우프라자 504호","indutype":"의원 - 한의원","category":"medical"},{"name":"푸르지오약국","tel":"032-665-1330","addr":"경기도 부천시 송내동 373번지 대우프라자 101호","indutype":"약국 - 약국","category":"medical"}]},{"lat":"37.483459925","long":"126.76341455","imageIndex":8,"items":[{"name":"김현석내과의원","tel":"032-661-1300","addr":"경기도 부천시 송내동 393번지 성보빌딩 4층","indutype":"의원 - 의원","category":"medical"},{"name":"박동범치과의원","tel":"032-662-9399","addr":"경기도 부천시 송내동 393번지 성보빌딩 2층","indutype":"의원 - 치과의원","category":"medical"},{"name":"열린한의원","tel":"032-663-7588","addr":"경기도 부천시 송내동 393번지 성보빌딩 204호","indutype":"의원 - 한의원","category":"medical"},{"name":"편한약국","tel":"032-667-8030","addr":"경기도 부천시 송내동 393.104","indutype":"약국 - 약국","category":"medical"}]},{"lat":"37.483369851","long":"126.76791473","imageIndex":8,"items":[{"name":"뉴메디홀약국","tel":"032-652-6496","addr":"경기도 부천시 송내동 383-24번지 1층","indutype":"약국 - 약국","category":"medical"}]},{"lat":"37.480100681","long":"126.76413753","imageIndex":8,"items":[{"name":"다원치과의원","tel":"032-651-8407","addr":"경기도 부천시 송내동 433-18번지 2,3층","indutype":"의원 - 치과의원","category":"medical"},{"name":"생명수한의원","tel":"032-666-7896","addr":"경기도 부천시 송내동 433-18번지","indutype":"의원 - 한의원","category":"medical"}]},{"lat":"37.483454791","long":"126.76985914","imageIndex":8,"items":[{"name":"동민약국","tel":"032-665-8368","addr":"경기도 부천시 송내동 586-3번지","indutype":"약국 - 약국","category":"medical"}]},{"lat":"37.483872681","long":"126.76257656","imageIndex":8,"items":[{"name":"든든정형외과","tel":"032-667-0677","addr":"경기도 부천시 송내동 366-7번지","indutype":"의원 - 의원","category":"medical"},{"name":"연세탑내과","tel":"032-667-0677","addr":"경기도 부천시 송내동 366-7번지 3층 301호","indutype":"의원 - 의원","category":"medical"}]},{"lat":"37.483682694","long":"126.76665875","imageIndex":8,"items":[{"name":"런던동물병원","tel":"032-611-0275","addr":"경기도 부천시 송내동 385번지 102,103호","indutype":"기타의료기관 - 동물병원","category":"medical"}]},{"lat":"37.486926781","long":"126.75374747","imageIndex":8,"items":[{"name":"미래신경과의원","tel":"032-664-9944","addr":"경기도 부천시 송내동 299-2번지 5층","indutype":"의원 - 의원","category":"medical"},{"name":"바른마디한의원","tel":"032-000-0000","addr":"경기도 부천시 송내동 299-2번지 성신빌딩 3층","indutype":"의원 - 한의원","category":"medical"},{"name":"세연의원","tel":"032-665-4567","addr":"경기도 부천시 송내동 299-2번지 성신빌딩 2층","indutype":"의원 - 의원","category":"medical"},{"name":"푸른치과의원","tel":"032-612-8275","addr":"경기도 부천시 송내동 299-2번지 성신빌딩 4층","indutype":"의원 - 치과의원","category":"medical"},{"name":"현비뇨기과의원","tel":"032-665-7890","addr":"경기도 부천시 송내동 299-2번지 성신빌딩 2층","indutype":"의원 - 의원","category":"medical"}]},{"lat":"37.483870468","long":"126.76149116","imageIndex":8,"items":[{"name":"삼성약국","tel":"032-664-9880","addr":"경기도 부천시 송내동 366번지 상승프라자 105호","indutype":"약국 - 약국","category":"medical"}]},{"lat":"37.479176666","long":"126.76613026","imageIndex":8,"items":[{"name":"새희망약국","tel":"032-653-8877","addr":"경기도 부천시 송내동 463-68번지 1층","indutype":"약국 - 약국","category":"medical"},{"name":"성모의원","tel":"032-665-6975","addr":"경기도 부천시 송내동 463-68번지 2층","indutype":"의원 - 의원","category":"medical"}]},{"lat":"37.483655832","long":"126.77129442","imageIndex":8,"items":[{"name":"샐리동물병원","tel":"032-651-5450","addr":"경기도 부천시 송내동 578-4번지 1층","indutype":"기타의료기관 - 동물병원","category":"medical"}]},{"lat":"37.483648099","long":"126.76738246","imageIndex":8,"items":[{"name":"성심정형외과의원","tel":"032-655-4477","addr":"경기도 부천시 송내동 385-3번지 2층","indutype":"의원 - 의원","category":"medical"}]},{"lat":"37.486789578","long":"126.75277554","imageIndex":8,"items":[{"name":"솔치과의원","tel":"032-654-2828","addr":"경기도 부천시 송내동 709-2번지 라라스타찌오네 201호","indutype":"의원 - 치과의원","category":"medical"}]},{"lat":"37.487905004","long":"126.74771762","imageIndex":8,"items":[{"name":"송내역온누리약국","tel":"032-613-1714","addr":"경기도 부천시 송내동 632-4번지 송내전철역 202호","indutype":"약국 - 약국","category":"medical"},{"name":"연세 노가의원","tel":"032-652-7588","addr":"경기도 부천시 송내동 632-4번지 송내전철역 가동 202호 일부","indutype":"의원 - 의원","category":"medical"}]},{"lat":"37.483734922","long":"126.77027661","imageIndex":8,"items":[{"name":"송내원치과의원","tel":"032-665-2248","addr":"경기도 부천시 송내동 581번지 3층","indutype":"의원 - 치과의원","category":"medical"}]},{"lat":"37.487070939","long":"126.75374699","imageIndex":8,"items":[{"name":"송내퍼스트치과의원","tel":"032-616-2811","addr":"경기도 부천시 송내동 299번지 아리랑빌딩 2층","indutype":"의원 - 치과의원","category":"medical"}]},{"lat":"37.486960814","long":"126.75279759","imageIndex":8,"items":[{"name":"스마일라인치과의원","tel":"032-663-7528","addr":"경기도 부천시 송내동 709-1송내코아3층301.302호","indutype":"의원 - 치과의원","category":"medical"}]},{"lat":"37.484128053","long":"126.77319244","imageIndex":8,"items":[{"name":"양정한의원","tel":"032-652-0160","addr":"경기도 부천시 송내동 572-11번지","indutype":"의원 - 한의원","category":"medical"}]},{"lat":"37.486230895","long":"126.75274349","imageIndex":8,"items":[{"name":"연세플라워의원","tel":"032-651-7588","addr":"경기도 부천시 송내동 709-6번지 5층","indutype":"의원 - 의원","category":"medical"}]},{"lat":"37.486626347","long":"126.75227859","imageIndex":8,"items":[{"name":"연화한의원","tel":"032-612-1680","addr":"경기도 부천시 송내동 706-15번지","indutype":"의원 - 한의원","category":"medical"}]},{"lat":"37.48334921","long":"126.76213729","imageIndex":8,"items":[{"name":"위강한의원","tel":"032-668-8100","addr":"경기도 부천시 송내동 396-1번지 4층","indutype":"의원 - 한의원","category":"medical"}]},{"lat":"37.486458148","long":"126.75369249","imageIndex":8,"items":[{"name":"이앤치과","tel":"032-654-1001","addr":"경기도 부천시 송내동 299-3번지 영상빌딩 3층","indutype":"의원 - 치과의원","category":"medical"}]},{"lat":"37.479794893","long":"126.76440984","imageIndex":8,"items":[{"name":"이정례의원","tel":"032-612-2164","addr":"경기도 부천시 송내동 453-12번지","indutype":"의원 - 의원","category":"medical"}]},{"lat":"37.483872129","long":"126.76230521","imageIndex":8,"items":[{"name":"큰길세명약국","tel":"032-612-0826","addr":"경기도 부천시 송내동 366-6번지 1층","indutype":"약국 - 약국","category":"medical"}]},{"lat":"37.484404589","long":"126.7540272","imageIndex":8,"items":[{"name":"훈 동물병원","tel":"032-526-5500","addr":"경기도 부천시 송내동 315-3번지 상가동 2단지 지하1층 102호 송내역 파인푸르지오 비","indutype":"기타의료기관 - 동물병원","category":"medical"}]}]