[{"lat":"37.109339327","long":"126.85219345","imageIndex":0,"items":[{"name":"(주)디프어스","tel":"031-000-0000","addr":"경기도 화성시 장안면 수촌리 745-34번지","indutype":"자동차정비 유지 - 자동차부품","category":"car"}]},{"lat":"37.10433832","long":"126.84513854","imageIndex":0,"items":[{"name":"뉴현대모터스","tel":"031-351-1026","addr":"경기도 화성시 장안면 수촌리 1473-1번지","indutype":"자동차정비 유지 - 자동차시트·타이어","category":"car"}]},{"lat":"37.102587146","long":"126.84280229","imageIndex":0,"items":[{"name":"스마트카","tel":"031-353-6993","addr":"경기도 화성시 장안면 수촌리 883-4번지","indutype":"자동차정비 유지 - 자동차정비","category":"car"},{"name":"스마트카","tel":"031-353-6993","addr":"경기도 화성시 장안면 수촌리 883-4","indutype":"자동차정비 유지 - 자동차정비","category":"car"}]},{"lat":"37.103618584","long":"126.85293601","imageIndex":0,"items":[{"name":"양지상사","tel":"","addr":"경기도 화성시 장안면 수촌리 709번지","indutype":"자동차정비 유지 - 윤활유 전문 판매","category":"car"}]},{"lat":"37.102947542","long":"126.86424308","imageIndex":0,"items":[{"name":"에스원모터스 (S-WON MOTORS)","tel":"031-351-7877","addr":"경기도 화성시 장안면 수촌리 419-23번지","indutype":"자동차정비 유지 - 자동차부품","category":"car"}]},{"lat":"37.094118475","long":"126.86532774","imageIndex":0,"items":[{"name":"이엔에스 특장(E&S)","tel":"","addr":"경기도 화성시 장안면 수촌리 22-9번지","indutype":"자동차판매 - 기타운송","category":"car"}]},{"lat":"37.103731288","long":"126.8494709","imageIndex":0,"items":[{"name":"장수타이어 이동빵구","tel":"031-351-2821","addr":"경기도 화성시 장안면 수촌리 939-6번지","indutype":"자동차정비 유지 - 자동차시트·타이어","category":"car"}]},{"lat":"37.103641401","long":"126.84963983","imageIndex":0,"items":[{"name":"장안세차장","tel":"031-358-3891","addr":"경기도 화성시 장안면 수촌리 939-8번지 1층","indutype":"자동차정비 유지 - 세차장","category":"car"}]},{"lat":"37.103452863","long":"126.85016894","imageIndex":0,"items":[{"name":"장안자동차정비","tel":"031-358-3891","addr":"경기도 화성시 장안면 수촌리 939-1번지 1층","indutype":"자동차정비 유지 - 자동차부품","category":"car"}]},{"lat":"37.094564397","long":"126.86141254","imageIndex":0,"items":[{"name":"지니어스 모터스 (GENIUS MOTORS)","tel":"070-8117-7915","addr":"경기도 화성시 장안면 수촌리 365-7번지 1층","indutype":"자동차정비 유지 - 자동차정비","category":"car"}]},{"lat":"37.089122224","long":"126.86158012","imageIndex":0,"items":[{"name":"차고치는집","tel":"031-358-3383","addr":"경기도 화성시 장안면 수촌리 144-5","indutype":"자동차정비 유지 - 자동차정비","category":"car"}]},{"lat":"37.101836568","long":"126.85458192","imageIndex":0,"items":[{"name":"천우자동차공업사","tel":"031-358-8273","addr":"경기도 화성시 장안면 수촌리 641-4번지 1층","indutype":"자동차정비 유지 - 자동차부품","category":"car"}]}]