[{"lat":"37.940989636","long":"126.87680132","imageIndex":4,"items":[{"name":"그린힐사이드","tel":"031-958-9085","addr":"경기도 파주시 파평면 덕천리 114-5번지","indutype":"일반휴게음식 - 서양음식","category":"restaurant"}]},{"lat":"37.941874609","long":"126.87874513","imageIndex":4,"items":[{"name":"꿀꿀이연탄갈비","tel":"031-958-7723","addr":"경기도 파주시 파평면 덕천리 122-3번지","indutype":"일반휴게음식 - 일반한식","category":"restaurant"}]},{"lat":"37.939851466","long":"126.87402756","imageIndex":4,"items":[{"name":"명동하우스","tel":"031-958-9977","addr":"경기도 파주시 파평면 덕천리 243-8번지","indutype":"일반휴게음식 - 일반한식","category":"restaurant"}]},{"lat":"37.938207397","long":"126.87008309","imageIndex":4,"items":[{"name":"샘내손두부","tel":"","addr":"경기도 파주시 파평면 덕천리 408-3번지","indutype":"일반휴게음식 - 일반한식","category":"restaurant"}]},{"lat":"37.940545997","long":"126.87477716","imageIndex":4,"items":[{"name":"서울식당","tel":"031-958-3054","addr":"경기도 파주시 파평면 덕천리 244-1","indutype":"일반휴게음식 - 일반한식","category":"restaurant"}]},{"lat":"37.9359338","long":"126.86722062","imageIndex":4,"items":[{"name":"소문난장어","tel":"031-958-2629","addr":"경기도 파주시 파평면 덕천리 289-3번지","indutype":"일반휴게음식 - 일반한식","category":"restaurant"}]},{"lat":"37.94187344","long":"126.87764165","imageIndex":4,"items":[{"name":"송가네 백반","tel":"031-959-1152","addr":"경기도 파주시 파평면 덕천리 131-1번지","indutype":"일반휴게음식 - 일반한식","category":"restaurant"}]},{"lat":"37.934094824","long":"126.86627988","imageIndex":4,"items":[{"name":"송지가든","tel":"031-959-1378","addr":"경기도 파주시 파평면 덕천리 278-2번지","indutype":"일반휴게음식 - 일반한식","category":"restaurant"}]},{"lat":"37.938768578","long":"126.8724141","imageIndex":4,"items":[{"name":"양자강","tel":"031-958-9552","addr":"경기도 파주시 파평면 덕천리 253-9번지","indutype":"일반휴게음식 - 중국식","category":"restaurant"}]},{"lat":"37.937568177","long":"126.87047101","imageIndex":4,"items":[{"name":"임진강 리조트(주)","tel":"031-959-2222","addr":"경기도 파주시 파평면 덕천리 254-4번지","indutype":"일반휴게음식 - 일반한식","category":"restaurant"},{"name":"임진강리조트","tel":"031-959-2222","addr":"경기도 파주시 파평면 덕천리 254-4번지","indutype":"일반휴게음식 - 일반한식","category":"restaurant"},{"name":"임진강리조트","tel":"031-959-2222","addr":"경기도 파주시 파평면 덕천리 254-4번지","indutype":"일반휴게음식 - 일반한식","category":"restaurant"}]},{"lat":"37.94276096","long":"126.88205415","imageIndex":4,"items":[{"name":"청송로668부대찌개","tel":"031-958-3008","addr":"경기도 파주시 파평면 덕천리 69-24번지","indutype":"일반휴게음식 - 일반한식","category":"restaurant"}]}]