[{"lat":"37.143891287","long":"126.8721936","imageIndex":4,"items":[{"name":"낙원","tel":"031-353-2906","addr":"경기도 화성시 팔탄면 덕천리 186-1번지","indutype":"일반휴게음식 - 일반한식","category":"restaurant"}]},{"lat":"37.14633216","long":"126.87132269","imageIndex":4,"items":[{"name":"덕천리 닭개장","tel":"031-353-0012","addr":"경기도 화성시 팔탄면 덕천리 112번지 1층","indutype":"일반휴게음식 - 일반한식","category":"restaurant"}]},{"lat":"37.142193595","long":"126.87708133","imageIndex":4,"items":[{"name":"만석골","tel":"031-354-7143","addr":"경기도 화성시 팔탄면 덕천리 234번지","indutype":"일반휴게음식 - 일반한식","category":"restaurant"}]},{"lat":"37.146892288","long":"126.87266119","imageIndex":4,"items":[{"name":"아지트 인 낙원","tel":"031-353-5781","addr":"경기도 화성시 팔탄면 덕천리 118-2번지","indutype":"일반휴게음식 - 일반한식","category":"restaurant"}]},{"lat":"37.144944987","long":"126.87171905","imageIndex":4,"items":[{"name":"애견동반카페예뜰","tel":"031-354-8243","addr":"경기도 화성시 팔탄면 덕천리 163-5번지 1층","indutype":"일반휴게음식 - 서양음식","category":"restaurant"},{"name":"예뜰치킨","tel":"031-354-8243","addr":"경기도 화성시 팔탄면 덕천리 163-5번지","indutype":"일반휴게음식 - 스넥","category":"restaurant"}]},{"lat":"37.146079743","long":"126.87121057","imageIndex":4,"items":[{"name":"족발.보쌈.육개장","tel":"031-266-7541","addr":"경기도 화성시 팔탄면 덕천리 113-11번지","indutype":"일반휴게음식 - 일반한식","category":"restaurant"},{"name":"한우 가마솥 설렁탕","tel":"031-359-9719","addr":"경기도 화성시 팔탄면 덕천리 113-11번지 1층","indutype":"일반휴게음식 - 일반한식","category":"restaurant"}]},{"lat":"37.147000041","long":"126.87232332","imageIndex":4,"items":[{"name":"킹퓨전포차","tel":"031-353-1607","addr":"경기도 화성시 팔탄면 덕천리 117-1번지 1층","indutype":"일반휴게음식 - 주점","category":"restaurant"}]},{"lat":"37.142643013","long":"126.86788494","imageIndex":4,"items":[{"name":"호수돈까스","tel":"031-8059-3392","addr":"경기도 화성시 팔탄면 덕천리 375-20번지","indutype":"일반휴게음식 - 서양음식","category":"restaurant"}]}]