[{"lat":"36.9910541","long":"127.14117155","imageIndex":16,"items":[{"name":"관인 경희 석사음악학원","tel":"031-657-2113","addr":"경기도 안성시 공도읍 진사리 348-9번지 2층 208호,209호","indutype":"학원 - 예·체능계학원","category":"study"},{"name":"더클래식음악학원","tel":"031-657-2113","addr":"경기도 안성시 공도읍 진사리 348-9번지 외2필지 2층","indutype":"학원 - 예·체능계학원","category":"study"},{"name":"베로키오미술학원","tel":"031-651-2356","addr":"경기도 안성시 공도읍 진사리 348-9번지 210,211호","indutype":"학원 - 예·체능계학원","category":"study"},{"name":"양진독서실","tel":"","addr":"경기도 안성시 공도읍 진사리 348-9번지 청룡프라자 105호~109호","indutype":"학원 - 독서실","category":"study"},{"name":"양진독서실","tel":"031-618-5689","addr":"경기도 안성시 공도읍 진사리 348-9번지 청룡프라자 B105-B109호","indutype":"학원 - 독서실","category":"study"},{"name":"양진학원","tel":"031-658-0910","addr":"경기도 안성시 공도읍 진사리 348-9번지 2층 205~207호","indutype":"학원 - 보습학원","category":"study"},{"name":"참 좋은 학원","tel":"031-651-6162","addr":"경기도 안성시 공도읍 진사리 348-9번지 2층","indutype":"학원 - 보습학원","category":"study"}]},{"lat":"36.992191999","long":"127.14661047","imageIndex":16,"items":[{"name":"국공립 진사어린이집[아이행복]","tel":"031-671-1238","addr":"경기도 안성시 공도읍 진사리 353-4번지","indutype":"학원 - 유아원","category":"study"}]},{"lat":"36.99144072","long":"127.14189117","imageIndex":16,"items":[{"name":"그린그림미술교습소","tel":"031-654-7358","addr":"경기도 안성시 공도읍 진사리 348 서지프라자208호","indutype":"학원 - 예·체능계학원","category":"study"},{"name":"에이프릴 잉글리시학원","tel":"070-4922-1261","addr":"경기도 안성시 공도읍 진사리 348번지 서지프라자 1층 112호","indutype":"학원 - 보습학원","category":"study"},{"name":"옥쌤보습학원","tel":"031-691-2919","addr":"경기도 안성시 공도읍 진사리 348번지 202호","indutype":"학원 - 보습학원","category":"study"},{"name":"지엔비영어학원","tel":"031-655-0595","addr":"경기도 안성시 공도읍 진사리 348번지 202호","indutype":"학원 - 보습학원","category":"study"},{"name":"클랑음악학원","tel":"031-691-0804","addr":"경기도 안성시 공도읍 진사리 348번지 303호","indutype":"학원 - 예·체능계학원","category":"study"}]},{"lat":"36.989491947","long":"127.14397692","imageIndex":16,"items":[{"name":"그림나라어린이집","tel":"031-657-6977","addr":"경기도 안성시 공도읍 진사리 318-3","indutype":"학원 - 유아원","category":"study"}]},{"lat":"36.992023762","long":"127.14413886","imageIndex":16,"items":[{"name":"꿈나래어린이집[아이행복]","tel":"031-658-0305","addr":"경기도 안성시 공도읍 진사리 644번지 쌍용스윗닷홈 관리동","indutype":"학원 - 유아원","category":"study"}]},{"lat":"36.994387673","long":"127.14150336","imageIndex":16,"items":[{"name":"꿈을 이루는 이루다 독서실","tel":"031-654-7703","addr":"경기도 안성시 공도읍 진사리 16-24번지 2층","indutype":"학원 - 독서실","category":"study"}]},{"lat":"36.985854762","long":"127.14130816","imageIndex":16,"items":[{"name":"바나나어린이집[아이행복]","tel":"031-657-2335","addr":"경기도 안성시 공도읍 진사리 133-7번지","indutype":"학원 - 유아원","category":"study"},{"name":"해돋이어린이집[아이행복]","tel":"031-656-3052","addr":"경기도 안성시 공도읍 진사리 133-7번지","indutype":"학원 - 유아원","category":"study"}]},{"lat":"36.988775945","long":"127.13983074","imageIndex":16,"items":[{"name":"박윤혜무용학원","tel":"031-652-6992","addr":"경기도 안성시 공도읍 진사리 123-4번지","indutype":"학원 - 예·체능계학원","category":"study"}]},{"lat":"36.989666519","long":"127.14111288","imageIndex":16,"items":[{"name":"사강학원","tel":"031-647-4410","addr":"경기도 안성시 공도읍 진사리 340-9번지 2층","indutype":"학원 - 보습학원","category":"study"}]},{"lat":"36.994272662","long":"127.14727716","imageIndex":16,"items":[{"name":"사랑스포츠","tel":"","addr":"경기도 안성시 공도읍 진사리 354번지 3동","indutype":"학원 - 기타 교육기관","category":"study"}]},{"lat":"36.991577659","long":"127.14036372","imageIndex":16,"items":[{"name":"삼성양진학원","tel":"031-656-1705","addr":"경기도 안성시 공도읍 진사리 20-14 우림상가2층207","indutype":"학원 - 보습학원","category":"study"},{"name":"양진히어로즈태권도장","tel":"031-655-7123","addr":"경기도 안성시 공도읍 진사리 20-14번지 2층 205,206호","indutype":"학원 - 예·체능계학원","category":"study"}]},{"lat":"36.988995116","long":"127.13728131","imageIndex":16,"items":[{"name":"성모어린이집[아이행복]","tel":"031-653-0312","addr":"경기도 안성시 공도읍 진사리 51-1번지","indutype":"학원 - 유아원","category":"study"}]},{"lat":"36.986218019","long":"127.13886018","imageIndex":16,"items":[{"name":"썸머힐어린이집[아이행복]","tel":"031-618-2611","addr":"경기도 안성시 공도읍 진사리 109-2번지","indutype":"학원 - 유아원","category":"study"}]},{"lat":"36.989774687","long":"127.14107938","imageIndex":16,"items":[{"name":"양진우리태권스쿨","tel":"031-657-2466","addr":"경기도 안성시 공도읍 진사리 336-5","indutype":"학원 - 예·체능계학원","category":"study"}]},{"lat":"36.986023231","long":"127.14363355","imageIndex":16,"items":[{"name":"양진중학교","tel":"","addr":"경기도 안성시 공도읍 진사리 135-8번지 양진중학교","indutype":"학원 - 초중고교육기관","category":"study"}]},{"lat":"36.988747952","long":"127.14066191","imageIndex":16,"items":[{"name":"양진초등학교","tel":"031-8046-1300","addr":"경기도 안성시 공도읍 진사리 124-1번지 양진초등학교 1층","indutype":"학원 - 초중고교육기관","category":"study"},{"name":"양진초등학교_수업료","tel":"031-8046-1300","addr":"경기도 안성시 공도읍 진사리 124-1번지 양진초등학교","indutype":"학원 - 초중고교육기관","category":"study"}]},{"lat":"36.990080658","long":"127.14141691","imageIndex":16,"items":[{"name":"예그린어린이집[아이행복]","tel":"031-658-5599","addr":"경기도 안성시 공도읍 진사리 338-3","indutype":"학원 - 유아원","category":"study"}]},{"lat":"36.989693067","long":"127.14152854","imageIndex":16,"items":[{"name":"예그린학원","tel":"031-653-5522","addr":"경기도 안성시 공도읍 진사리 340-6번지","indutype":"학원 - 예·체능계학원","category":"study"},{"name":"예그린학원","tel":"031-655-6307","addr":"경기도 안성시 공도읍 진사리 340-6번지 1층","indutype":"학원 - 예·체능계학원","category":"study"}]},{"lat":"36.990799495","long":"127.14313686","imageIndex":16,"items":[{"name":"예랑피아노교습소","tel":"031-654-7355","addr":"경기도 안성시 공도읍 진사리 346-6번지 1층 2호","indutype":"학원 - 예·체능계학원","category":"study"}]},{"lat":"36.989247732","long":"127.13700094","imageIndex":16,"items":[{"name":"예자람어린이집[아이행복]","tel":"031-654-5404","addr":"경기도 안성시 공도읍 진사리 39-6번지","indutype":"학원 - 유아원","category":"study"}]},{"lat":"36.993547168","long":"127.14363617","imageIndex":16,"items":[{"name":"용인대 건영 태권도장","tel":"031-692-1317","addr":"경기도 안성시 공도읍 진사리 643-1번지 3층","indutype":"학원 - 예·체능계학원","category":"study"},{"name":"우등생학원","tel":"031-657-0079","addr":"경기도 안성시 공도읍 진사리 643-1번지 상가동 202,203호","indutype":"학원 - 보습학원","category":"study"}]},{"lat":"36.985778197","long":"127.13736551","imageIndex":16,"items":[{"name":"위드 체대입시","tel":"031-656-3884","addr":"경기도 안성시 공도읍 진사리 86-2번지 2층","indutype":"학원 - 예·체능계학원","category":"study"}]},{"lat":"36.988604962","long":"127.13963948","imageIndex":16,"items":[{"name":"이상훈영어수학보습학원","tel":"031-651-7887","addr":"경기도 안성시 공도읍 진사리 123-3번지 3층","indutype":"학원 - 기타 교육기관","category":"study"}]},{"lat":"36.993409957","long":"127.13763731","imageIndex":16,"items":[{"name":"제이(J)줌바","tel":"","addr":"경기도 안성시 공도읍 진사리 22-8번지 301호","indutype":"학원 - 예·체능계학원","category":"study"}]},{"lat":"36.991522236","long":"127.14153186","imageIndex":16,"items":[{"name":"코너스톤영어학원(제1학습관)","tel":"031-658-2443","addr":"경기도 안성시 공도읍 진사리 348-8번지 2층","indutype":"회원제형태 - 학원","category":"study"},{"name":"프라임학원","tel":"031-656-1919","addr":"경기도 안성시 공도읍 진사리 348-8번지 2층 206호","indutype":"학원 - 보습학원","category":"study"}]},{"lat":"36.990828545","long":"127.14141827","imageIndex":16,"items":[{"name":"통문장영어교습소","tel":"031-618-7004","addr":"경기도 안성시 공도읍 진사리 348-3외2필지10호","indutype":"회원제형태 - 학원","category":"study"}]},{"lat":"36.98930583","long":"127.14133688","imageIndex":16,"items":[{"name":"파랑새유치원[아이행복]","tel":"031-652-0932","addr":"경기도 안성시 공도읍 진사리 332-1,3,4,5","indutype":"학원 - 유치원","category":"study"}]},{"lat":"36.99021672","long":"127.14064209","imageIndex":16,"items":[{"name":"파루시아피아노교습소","tel":"031-658-4865","addr":"경기도 안성시 공도읍 진사리 산50-10번지 상가 2층","indutype":"학원 - 예·체능계학원","category":"study"}]},{"lat":"36.990108279","long":"127.14091149","imageIndex":16,"items":[{"name":"피아노치는아이들피아노교습소","tel":"031-691-4560","addr":"경기도 안성시 공도읍 진사리 335-11번지","indutype":"학원 - 예·체능계학원","category":"study"},{"name":"한결에듀학원","tel":"031-618-0647","addr":"경기도 안성시 공도읍 진사리 335-11번지 지하1층","indutype":"학원 - 보습학원","category":"study"}]},{"lat":"36.988635031","long":"127.1369774","imageIndex":16,"items":[{"name":"해돋이 어린이집[아이행복]","tel":"031-656-3050","addr":"경기도 안성시 공도읍 진사리 51-2번지","indutype":"학원 - 유아원","category":"study"}]}]