[{"lat":"37.027403293","long":"126.93868849","imageIndex":17,"items":[{"name":"(주)뉴미지","tel":"031-682-3484","addr":"경기도 평택시 청북읍 후사리 320번지","indutype":"가구 - 일반가구","category":"other"},{"name":"LEE 가구갤러리","tel":"031-684-2122","addr":"경기도 평택시 청북읍 후사리 320번지 2동 107호 207호","indutype":"가구 - 일반가구","category":"other"},{"name":"가구공간","tel":"031-0000-0000","addr":"경기도 평택시 청북읍 후사리 320번지 주건축물 1동 105호","indutype":"가구 - 일반가구","category":"other"},{"name":"가구박사","tel":"031-681-8667","addr":"경기도 평택시 청북읍 후사리 320번지 1동105호205호","indutype":"가구 - 일반가구","category":"other"},{"name":"가구이야기","tel":"031-611-0039","addr":"경기도 평택시 청북읍 후사리 320번지","indutype":"가구 - 일반가구","category":"other"},{"name":"구성가구디자인","tel":"031-682-8402","addr":"경기도 평택시 청북읍 후사리 320번지 서평택가구단지 102호","indutype":"가구 - 일반가구","category":"other"},{"name":"그린에너지컨설팅","tel":"","addr":"경기도 평택시 청북읍 후사리 320번지","indutype":"용역 서비스 - 사무서비스","category":"other"},{"name":"까소엔","tel":"031-681-6337","addr":"경기도 평택시 청북읍 후사리 320번지 2동 112호 212호 외9필지서평택가구단지","indutype":"가구 - 일반가구","category":"other"},{"name":"노송가구","tel":"031-684-2937","addr":"경기도 평택시 청북읍 후사리 320번지","indutype":"가구 - 일반가구","category":"other"},{"name":"러브퍼니처","tel":"031-656-0972","addr":"경기도 평택시 청북읍 후사리 320번지 청북가구단지 1동 1,2층 103,203호","indutype":"가구 - 일반가구","category":"other"},{"name":"러브퍼니쳐(lovefurniture)","tel":"031-656-0972","addr":"경기도 평택시 청북읍 후사리 320번지 1층","indutype":"가구 - 일반가구","category":"other"},{"name":"마리나가구","tel":"031-684-7308","addr":"경기도 평택시 청북읍 후사리 320번지 105호 205호 외9필지","indutype":"가구 - 일반가구","category":"other"},{"name":"메종갤러리","tel":"070-9102-2002","addr":"경기도 평택시 청북읍 후사리 320번지 제105,205호","indutype":"가구 - 일반가구","category":"other"},{"name":"서우","tel":"070-4106-4989","addr":"경기도 평택시 청북읍 후사리 320번지 1동 104호","indutype":"가구 - 일반가구","category":"other"},{"name":"서평택가구단지에이스침대","tel":"031-682-9757","addr":"경기도 평택시 청북읍 후사리 320번지 외14필지","indutype":"가구 - 일반가구","category":"other"},{"name":"소희가구갤러리","tel":"02-393-5921","addr":"경기도 평택시 청북읍 후사리 320번지 제3동 109호 209호","indutype":"가구 - 일반가구","category":"other"},{"name":"엑스코팅논슬립","tel":"031-1111-1111","addr":"경기도 평택시 청북읍 후사리 320번지 2층 106호","indutype":"용역 서비스 - 기타용역서비스","category":"other"},{"name":"우드코","tel":"031-683-2873","addr":"경기도 평택시 청북읍 후사리 320번지 102, 202호","indutype":"가구 - 일반가구","category":"other"},{"name":"이선희갤러리","tel":"031-686-9226","addr":"경기도 평택시 청북읍 후사리 320번지 103,203호","indutype":"가구 - 일반가구","category":"other"},{"name":"장수돌침대","tel":"031-682-8422","addr":"경기도 평택시 청북읍 후사리 320번지 21호","indutype":"가구 - 일반가구","category":"other"},{"name":"중소기업가구","tel":"031-682-3484","addr":"경기도 평택시 청북읍 후사리 320번지 2동 106호","indutype":"가구 - 일반가구","category":"other"},{"name":"청북종합가구(서평택가구단지)","tel":"031-686-7666","addr":"경기도 평택시 청북읍 후사리 320번지 서평택가구단지3동109,209호","indutype":"가구 - 일반가구","category":"other"},{"name":"체리쉬","tel":"031-686-7666","addr":"경기도 평택시 청북읍 후사리 320번지 외12필지 서평태가구단지 3동 110 ,210호","indutype":"가구 - 일반가구","category":"other"},{"name":"칸토니퍼니처","tel":"031-682-3077","addr":"경기도 평택시 청북읍 후사리 320번지 제3동 209호 2층","indutype":"가구 - 일반가구","category":"other"},{"name":"플라츠 홈","tel":"031-683-2024","addr":"경기도 평택시 청북읍 후사리 320번지 102호,202호","indutype":"가구 - 일반가구","category":"other"},{"name":"홍대디자인가구","tel":"031-681-9282","addr":"경기도 평택시 청북읍 후사리 320번지 106호","indutype":"소매업 - 가구","category":"other"},{"name":"홍대디자인가구","tel":"031-684-4488","addr":"경기도 평택시 청북읍 후사리 320번지 제2동106호","indutype":"가구 - 일반가구","category":"other"},{"name":"휴패브릭","tel":"031-684-2296","addr":"경기도 평택시 청북읍 후사리 320번지 1층","indutype":"직물 - 카페트,커튼,천막,지물","category":"other"}]},{"lat":"37.023683646","long":"126.94201801","imageIndex":17,"items":[{"name":"(주)반도렌터카","tel":"031-682-2586","addr":"경기도 평택시 청북읍 후사리 361-4번지 1층","indutype":"여행 - 렌터카","category":"other"}]},{"lat":"37.023654329","long":"126.93771396","imageIndex":17,"items":[{"name":"(주)이에스테크","tel":"031-682-3040","addr":"경기도 평택시 청북읍 후사리 424-1번지 102호","indutype":"전기제품 - 기타전기제품","category":"other"}]},{"lat":"37.022152133","long":"126.94260359","imageIndex":17,"items":[{"name":"GS25청북휴게소점","tel":"","addr":"경기도 평택시 청북읍 후사리 388-8번지","indutype":"유통업 영리 - 편 의 점","category":"other"}]},{"lat":"37.028150141","long":"126.9367998","imageIndex":17,"items":[{"name":"가구박사","tel":"031-682-8402","addr":"경기도 평택시 청북읍 후사리 327-4번지 105호,205호","indutype":"가구 - 일반가구","category":"other"},{"name":"까사누에바(CASA NUEVA)","tel":"031-686-9066","addr":"경기도 평택시 청북읍 후사리 327-4번지 107,207호","indutype":"가구 - 일반가구","category":"other"},{"name":"라이핏(LIFE FIT)","tel":"031-683-8498","addr":"경기도 평택시 청북읍 후사리 327-4번지 외 7필지 106호,206호","indutype":"가구 - 일반가구","category":"other"},{"name":"벽창호","tel":"031-681-4919","addr":"경기도 평택시 청북읍 후사리 327-4번지","indutype":"직물 - 침구·수예점","category":"other"},{"name":"삼익가구청북대리점","tel":"031-684-3670","addr":"경기도 평택시 청북읍 후사리 327-4번지 109,209호 (외7필지 주건축물 제3동)","indutype":"가구 - 일반가구","category":"other"},{"name":"아테리어","tel":"031-684-1650","addr":"경기도 평택시 청북읍 후사리 327-4번지 2동 1층 106호","indutype":"가구 - 일반가구","category":"other"},{"name":"프로방스언덕","tel":"031-681-2220","addr":"경기도 평택시 청북읍 후사리 327-4번지 1동 102,202호","indutype":"가구 - 일반가구","category":"other"},{"name":"현대사무용가구","tel":"031-686-6625","addr":"경기도 평택시 청북읍 후사리 327-4번지 1동 101-201","indutype":"가구 - 일반가구","category":"other"}]},{"lat":"37.032598394","long":"126.93160347","imageIndex":17,"items":[{"name":"가온산업","tel":"031-682-2007","addr":"경기도 평택시 청북읍 후사리 127-15번지","indutype":"건축자재 - 보일러·펌프·샷시","category":"other"},{"name":"청일티에스","tel":"031-8057-3096","addr":"경기도 평택시 청북읍 후사리 127-15번지","indutype":"기타 - 기계공구","category":"other"}]},{"lat":"37.027907523","long":"126.93801376","imageIndex":17,"items":[{"name":"까소엔","tel":"031-681-6337","addr":"경기도 평택시 청북읍 후사리 326-1","indutype":"가구 - 일반가구","category":"other"},{"name":"바로크가구","tel":"031-683-5509","addr":"경기도 평택시 청북읍 후사리 326-1","indutype":"가구 - 일반가구","category":"other"},{"name":"서평택리바트","tel":"031-686-9932","addr":"경기도 평택시 청북읍 후사리 326-1","indutype":"가구 - 일반가구","category":"other"},{"name":"장인가구","tel":"031-682-8422","addr":"경기도 평택시 청북읍 후사리 326-1","indutype":"가구 - 일반가구","category":"other"},{"name":"홈타임","tel":"031-686-7676","addr":"경기도 평택시 청북읍 후사리 326-1","indutype":"가구 - 일반가구","category":"other"}]},{"lat":"37.022485441","long":"126.94243476","imageIndex":17,"items":[{"name":"대박광고기획","tel":"031-683-8444","addr":"경기도 평택시 청북읍 후사리 389-2번지 107호","indutype":"용역 서비스 - 종합용역","category":"other"},{"name":"서평택DC마트","tel":"031-682-1789","addr":"경기도 평택시 청북읍 후사리 389-2번지 101호,102호,103호","indutype":"신변잡화 - 기타잡화","category":"other"}]},{"lat":"37.023603296","long":"126.94349023","imageIndex":17,"items":[{"name":"더존폴딩","tel":"031-1588-9209","addr":"경기도 평택시 청북읍 후사리 370-1번지 1층","indutype":"용역 서비스 - 기타용역서비스","category":"other"}]},{"lat":"37.027682715","long":"126.93885683","imageIndex":17,"items":[{"name":"동서가구","tel":"031-684-8123","addr":"경기도 평택시 청북읍 후사리 319-1","indutype":"가구 - 일반가구","category":"other"}]},{"lat":"37.028177965","long":"126.9382383","imageIndex":17,"items":[{"name":"동서인테리어","tel":"031-684-6225","addr":"경기도 평택시 청북읍 후사리 321-1","indutype":"가구 - 일반가구","category":"other"}]},{"lat":"37.027934769","long":"126.93840708","imageIndex":17,"items":[{"name":"레이디가구 서평택점","tel":"031-683-8146","addr":"경기도 평택시 청북읍 후사리 321-4 외9필지제1동101호","indutype":"가구 - 일반가구","category":"other"}]},{"lat":"37.027322361","long":"126.938992","imageIndex":17,"items":[{"name":"명품관가구","tel":"031-684-4488","addr":"경기도 평택시 청북읍 후사리 318제2동107호","indutype":"가구 - 일반가구","category":"other"}]},{"lat":"37.029822291","long":"126.93024618","imageIndex":17,"items":[{"name":"무릉푸드마을농장","tel":"031-665-8037","addr":"경기도 평택시 청북읍 후사리 170번지","indutype":"소매업 - 농산물","category":"other"}]},{"lat":"37.039871005","long":"126.93332766","imageIndex":17,"items":[{"name":"삼성아이티","tel":"031-681-1369","addr":"경기도 평택시 청북읍 후사리 89-4번지","indutype":"사무통신 - 컴퓨터","category":"other"},{"name":"우리집 인테리어","tel":"070-7523-2182","addr":"경기도 평택시 청북읍 후사리 89-4번지 문효회관 3층 301호","indutype":"건축자재 - 인테리어전문","category":"other"},{"name":"은하수 세탁소","tel":"031-683-7606","addr":"경기도 평택시 청북읍 후사리 89-4번지 1층","indutype":"수리서비스 - 세탁소","category":"other"},{"name":"은하수세탁소","tel":"031-683-0377","addr":"경기도 평택시 청북읍 후사리 89-4번지","indutype":"서비스업 - 세탁","category":"other"}]},{"lat":"37.035406285","long":"126.92610471","imageIndex":17,"items":[{"name":"성신드럼","tel":"","addr":"경기도 평택시 청북읍 후사리 28-11번지","indutype":"유통업 영리 - 기타유통업","category":"other"}]},{"lat":"37.034149925","long":"126.93449054","imageIndex":17,"items":[{"name":"소망콘테이너","tel":"031-683-8784","addr":"경기도 평택시 청북읍 후사리 72-13","indutype":"기타 - 기타 전문점","category":"other"},{"name":"윤정하우징&소망컨테이너","tel":"031-683-8784","addr":"경기도 평택시 청북읍 후사리 72-13번지","indutype":"건축자재 - 기타건축자재","category":"other"}]},{"lat":"37.023602394","long":"126.94171466","imageIndex":17,"items":[{"name":"씨에스테크(CS TECH)","tel":"031-684-9693","addr":"경기도 평택시 청북읍 후사리 390번지 2호","indutype":"기타 - 기계공구","category":"other"}]},{"lat":"37.032155594","long":"126.94591121","imageIndex":17,"items":[{"name":"우성편의점","tel":"031-682-6347","addr":"경기도 평택시 청북읍 후사리 295-36번지","indutype":"유통업 영리 - 편 의 점","category":"other"}]},{"lat":"37.029432031","long":"126.94121548","imageIndex":17,"items":[{"name":"이마트24 청북39점","tel":"","addr":"경기도 평택시 청북읍 후사리 271-1번지 1층","indutype":"유통업 영리 - 편 의 점","category":"other"},{"name":"청북바이크용품점","tel":"031-682-6610","addr":"경기도 평택시 청북읍 후사리 271-1번지","indutype":"의류 - 정장","category":"other"}]},{"lat":"37.037958782","long":"126.93004735","imageIndex":17,"items":[{"name":"주식화사아오맥스","tel":"070-4323-0648","addr":"경기도 평택시 청북읍 후사리 58-37번지","indutype":"레져용품 - 스포츠·레져용품","category":"other"}]},{"lat":"37.023735591","long":"126.93801731","imageIndex":17,"items":[{"name":"청북열쇠도장","tel":"","addr":"경기도 평택시 청북읍 후사리 424-11번지 101호","indutype":"소매업 - 열쇠, 도장","category":"other"},{"name":"청북열쇠도장","tel":"031-683-2588","addr":"경기도 평택시 청북읍 후사리 424-11번지 101호","indutype":"건축자재 - 목재·석재·철물","category":"other"}]},{"lat":"37.036097189","long":"126.93618597","imageIndex":17,"items":[{"name":"청북플라워","tel":"031-683-5525","addr":"경기도 평택시 청북읍 후사리 115-4번지","indutype":"소매업 - 화훼","category":"other"}]},{"lat":"37.040069186","long":"126.93323756","imageIndex":17,"items":[{"name":"평택시한의사협회","tel":"031-665-3375","addr":"경기도 평택시 청북읍 후사리 89-2","indutype":"기타 - 비영리/대상","category":"other"}]},{"lat":"37.023654329","long":"126.93771396","imageIndex":4,"items":[{"name":"대구반야월막창(청북점)","tel":"070-4109-1011","addr":"경기도 평택시 청북읍 후사리 424-1번지 1층 101호","indutype":"일반휴게음식 - 일반한식","category":"restaurant"}]},{"lat":"37.028765672","long":"126.94204767","imageIndex":4,"items":[{"name":"라이라이","tel":"031-686-5163","addr":"경기도 평택시 청북읍 후사리 278-1번지","indutype":"음식점 - 일반","category":"restaurant"},{"name":"라이라이","tel":"031-111-1111","addr":"경기도 평택시 청북읍 후사리 278-1번지","indutype":"일반휴게음식 - 중국식","category":"restaurant"}]},{"lat":"37.027018475","long":"126.94376853","imageIndex":4,"items":[{"name":"방일해장국 청북점","tel":"031-683-8201","addr":"경기도 평택시 청북읍 후사리 313-6번지 1층","indutype":"일반휴게음식 - 일반한식","category":"restaurant"}]},{"lat":"37.040069186","long":"126.93323756","imageIndex":4,"items":[{"name":"부어치킨 신포길점","tel":"031-684-0880","addr":"경기도 평택시 청북읍 후사리 89-2번지","indutype":"일반휴게음식 - 스넥","category":"restaurant"}]},{"lat":"37.025234393","long":"126.9438261","imageIndex":4,"items":[{"name":"소풍한식뷔페","tel":"031-683-3992","addr":"경기도 평택시 청북읍 후사리 303-17번지 1층","indutype":"일반휴게음식 - 일반한식","category":"restaurant"}]},{"lat":"37.039871005","long":"126.93332766","imageIndex":4,"items":[{"name":"스모프양념통닭신포점","tel":"031-683-1134","addr":"경기도 평택시 청북읍 후사리 89-4번지 문효회관","indutype":"일반휴게음식 - 스넥","category":"restaurant"},{"name":"청북밥집","tel":"031-682-4898","addr":"경기도 평택시 청북읍 후사리 89-4번지","indutype":"일반휴게음식 - 일반한식","category":"restaurant"},{"name":"청북밥집","tel":"031-683-4510","addr":"경기도 평택시 청북읍 후사리 89-4번지","indutype":"음식점 - 한식","category":"restaurant"}]},{"lat":"37.030651682","long":"126.94774426","imageIndex":4,"items":[{"name":"오리짚불구이","tel":"031-686-5925","addr":"경기도 평택시 청북읍 후사리 295-24","indutype":"일반휴게음식 - 일반한식","category":"restaurant"}]},{"lat":"37.023602394","long":"126.94171466","imageIndex":4,"items":[{"name":"오성기사부페","tel":"031-684-9931","addr":"경기도 평택시 청북읍 후사리 390번지 1동","indutype":"일반휴게음식 - 일반한식","category":"restaurant"}]},{"lat":"37.029846362","long":"126.9409117","imageIndex":4,"items":[{"name":"육찌빠","tel":"031-682-0030","addr":"경기도 평택시 청북읍 후사리 271-5번지","indutype":"일반휴게음식 - 일반한식","category":"restaurant"}]},{"lat":"37.029432031","long":"126.94121548","imageIndex":4,"items":[{"name":"장수남원추어탕 청북점","tel":"031-683-5633","addr":"경기도 평택시 청북읍 후사리 271-1번지 1층","indutype":"일반휴게음식 - 일반한식","category":"restaurant"}]},{"lat":"37.023817247","long":"126.93905112","imageIndex":4,"items":[{"name":"천년지기","tel":"032-682-5855","addr":"경기도 평택시 청북읍 후사리 404-2번지","indutype":"일반휴게음식 - 일반한식","category":"restaurant"}]},{"lat":"37.022846636","long":"126.9439628","imageIndex":4,"items":[{"name":"청북국수집","tel":"031-681-6358","addr":"경기도 평택시 청북읍 후사리 371번지","indutype":"일반휴게음식 - 일반한식","category":"restaurant"}]},{"lat":"37.029822291","long":"126.93024618","imageIndex":7,"items":[{"name":"무릉푸드마을농장","tel":"","addr":"경기도 평택시 청북읍 후사리 170번지","indutype":"음료식품 - 기타음료식품","category":"food"}]},{"lat":"37.031818644","long":"126.93893203","imageIndex":0,"items":[{"name":"서울인젝터","tel":"031-681-1399","addr":"경기도 평택시 청북읍 후사리 265-41번지","indutype":"자동차정비 유지 - 자동차정비","category":"car"}]},{"lat":"37.023683646","long":"126.94201801","imageIndex":0,"items":[{"name":"연우상사","tel":"031-682-8328","addr":"경기도 평택시 청북읍 후사리 361-4번지","indutype":"자동차정비 유지 - 자동차정비","category":"car"},{"name":"투맨카서비스","tel":"031-683-5586","addr":"경기도 평택시 청북읍 후사리 361-4번지","indutype":"서비스업 - 자동차정비","category":"car"},{"name":"투맨카서비스","tel":"031-686-8818","addr":"경기도 평택시 청북읍 후사리 361-4번지","indutype":"자동차정비 유지 - 자동차정비","category":"car"},{"name":"투맨카타이어","tel":"031-686-8818","addr":"경기도 평택시 청북읍 후사리 361-4","indutype":"자동차정비 유지 - 자동차시트·타이어","category":"car"}]},{"lat":"37.025234393","long":"126.9438261","imageIndex":0,"items":[{"name":"한국용아특장","tel":"031-417-7517","addr":"경기도 평택시 청북읍 후사리 303-17번지","indutype":"자동차판매 - 기타운송","category":"car"}]},{"lat":"37.040069186","long":"126.93323756","imageIndex":8,"items":[{"name":"서울푸른의원","tel":"","addr":"경기도 평택시 청북읍 후사리 89-2번지","indutype":"서비스업 - 병원","category":"medical"},{"name":"서울푸른의원","tel":"031-683-1570","addr":"경기도 평택시 청북읍 후사리 89-2","indutype":"의원 - 의원","category":"medical"},{"name":"청북약국","tel":"031-683-2588","addr":"경기도 평택시 청북읍 후사리 89-2번지 1층","indutype":"소매업 - 약국","category":"medical"},{"name":"청북약국","tel":"031-683-7553","addr":"경기도 평택시 청북읍 후사리 89-2","indutype":"약국 - 약국","category":"medical"},{"name":"청북치과","tel":"031-683-0633","addr":"경기도 평택시 청북읍 후사리 89-2","indutype":"의원 - 치과의원","category":"medical"},{"name":"청북한의원","tel":"031-683-7511","addr":"경기도 평택시 청북읍 후사리 89-2번지","indutype":"의원 - 한의원","category":"medical"},{"name":"청북한의원","tel":"031-683-7553","addr":"경기도 평택시 청북읍 후사리 89-2번지","indutype":"서비스업 - 병원","category":"medical"}]},{"lat":"37.039871005","long":"126.93332766","imageIndex":13,"items":[{"name":"신바람노래연습장","tel":"031-683-7081","addr":"경기도 평택시 청북읍 후사리 89-4번지 지하","indutype":"레저업소 - 노 래 방","category":"leisure"},{"name":"신포당구장","tel":"031-683-4589","addr":"경기도 평택시 청북읍 후사리 89-4번지 2층","indutype":"레저업소 - 당 구 장","category":"leisure"}]},{"lat":"37.040069186","long":"126.93323756","imageIndex":13,"items":[{"name":"에이스노래방","tel":"031-683-5454","addr":"경기도 평택시 청북읍 후사리 89-2","indutype":"레저업소 - 노 래 방","category":"leisure"},{"name":"에이스노연습장","tel":"031-683-5454","addr":"경기도 평택시 청북읍 후사리 89-2번지 지하층","indutype":"레저업소 - 노 래 방","category":"leisure"}]},{"lat":"37.039871005","long":"126.93332766","imageIndex":13,"items":[{"name":"왓포","tel":"031-686-5321","addr":"경기도 평택시 청북읍 후사리 89-4번지 지하","indutype":"보건위생 - 화장품","category":"beauty"}]}]