[{"lat":"37.358001522","long":"126.9522577","imageIndex":4,"items":[{"name":"(주) 아워홈 엘에스군포알앤디센터점","tel":"031-450-8080","addr":"경기도 군포시 당정동 181번지 1층","indutype":"일반휴게음식 - 위탁급식업","category":"restaurant"}]},{"lat":"37.345558531","long":"126.95234505","imageIndex":4,"items":[{"name":"(주)어퓨커뮤니케이션즈/아리랑","tel":"031-458-5080","addr":"경기도 군포시 당정동 996-1번지","indutype":"일반휴게음식 - 일반한식","category":"restaurant"}]},{"lat":"37.34897344","long":"126.9524782","imageIndex":4,"items":[{"name":"(주)에스피씨지에프에스 에스케이벤티음식","tel":"031-427-6720","addr":"경기도 군포시 당정동 522번지 SK벤티움 101동 1층 111호 일부호","indutype":"일반휴게음식 - 일반한식","category":"restaurant"}]},{"lat":"37.342396565","long":"126.95378038","imageIndex":4,"items":[{"name":"(주)한세대마리아마인드","tel":"031-382-2287","addr":"경기도 군포시 당정동 604-5 한세대학교내","indutype":"일반휴게음식 - 위탁급식업","category":"restaurant"}]},{"lat":"37.351949732","long":"126.95992533","imageIndex":4,"items":[{"name":"(주)현대그린푸드 현대케피코","tel":"031-525-2166","addr":"경기도 군포시 당정동 376-4번지 케피코(주) 엑스 1동 1층","indutype":"일반휴게음식 - 서양음식","category":"restaurant"},{"name":"(주)현대그린푸드 현대케피코","tel":"031-525-2513","addr":"경기도 군포시 당정동 376-4번지 엑스 1동 1호 케피코(주)","indutype":"일반휴게음식 - 위탁급식업","category":"restaurant"}]},{"lat":"37.364058819","long":"126.95842837","imageIndex":4,"items":[{"name":"24시전주콩나물해장국","tel":"031-455-3535","addr":"경기도 군포시 당정동 12-2","indutype":"일반휴게음식 - 일반한식","category":"restaurant"}]},{"lat":"37.346756474","long":"126.95139625","imageIndex":4,"items":[{"name":"448돈까스","tel":"031-347-3748","addr":"경기도 군포시 당정동 1002-2번지 1층","indutype":"일반휴게음식 - 서양음식","category":"restaurant"}]},{"lat":"37.344197025","long":"126.95012274","imageIndex":4,"items":[{"name":"59쌀피자 당정점","tel":"031-429-5982","addr":"경기도 군포시 당정동 1008-5번지 보라빌딩 103호","indutype":"일반휴게음식 - 서양음식","category":"restaurant"},{"name":"네이밍카페커피GO(고)!#5","tel":"070-5121-6774","addr":"경기도 군포시 당정동 1008-5번지 보라빌딩 102호","indutype":"일반휴게음식 - 서양음식","category":"restaurant"},{"name":"토대력","tel":"031-477-7714","addr":"경기도 군포시 당정동 1008-5번지 보라빌딩 1층","indutype":"일반휴게음식 - 주점","category":"restaurant"}]},{"lat":"37.34728068","long":"126.95525565","imageIndex":4,"items":[{"name":"84양은냄비","tel":"031-429-3335","addr":"경기도 군포시 당정동 970-7번지 비젼프라자 105호","indutype":"일반휴게음식 - 일반한식","category":"restaurant"},{"name":"공릉동원조멸치국수","tel":"031-454-8373","addr":"경기도 군포시 당정동 970-7번지 비젼프라자 101호","indutype":"일반휴게음식 - 일반한식","category":"restaurant"},{"name":"명랑쌀핫도그 (한세대점)","tel":"031-427-1616","addr":"경기도 군포시 당정동 970-7번지 비젼프라자 102호","indutype":"일반휴게음식 - 서양음식","category":"restaurant"},{"name":"진주만두","tel":"031-427-6979","addr":"경기도 군포시 당정동 970-7번지 비젼프라자 103호","indutype":"일반휴게음식 - 스넥","category":"restaurant"}]},{"lat":"37.347091557","long":"126.95548149","imageIndex":4,"items":[{"name":"가장맛있는족발당정점","tel":"031-427-7722","addr":"경기도 군포시 당정동 971-6번지 대승빌딩 102호,103호","indutype":"일반휴게음식 - 일반한식","category":"restaurant"},{"name":"봉구스밥버거 당정동점","tel":"031-477-0032","addr":"경기도 군포시 당정동 971-6번지 대승빌딩 1층","indutype":"일반휴게음식 - 스넥","category":"restaurant"},{"name":"봉구스밥버거당정동점","tel":"031-477-0032","addr":"경기도 군포시 당정동 971-6번지 대승빌딩 1층 1호","indutype":"일반휴게음식 - 스넥","category":"restaurant"},{"name":"태성추어탕","tel":"031-427-7556","addr":"경기도 군포시 당정동 971-6번지 대승빌딩 2층","indutype":"일반휴게음식 - 일반한식","category":"restaurant"}]},{"lat":"37.365561399","long":"126.95312184","imageIndex":4,"items":[{"name":"강남 김치찌개","tel":"031-427-8819","addr":"경기도 군포시 당정동 235-1 1층","indutype":"일반휴게음식 - 일반한식","category":"restaurant"},{"name":"덕성관","tel":"031-452-2610","addr":"경기도 군포시 당정동 235-1번지","indutype":"일반휴게음식 - 중국식","category":"restaurant"},{"name":"이모네분식","tel":"031-453-3246","addr":"경기도 군포시 당정동 235-1","indutype":"일반휴게음식 - 스넥","category":"restaurant"},{"name":"투데이치킨호프","tel":"031-452-8679","addr":"경기도 군포시 당정동 235-1번지","indutype":"일반휴게음식 - 주점","category":"restaurant"}]},{"lat":"37.347308013","long":"126.95601179","imageIndex":4,"items":[{"name":"건배7080라이브","tel":"031-454-9624","addr":"경기도 군포시 당정동 980-7번지 2층","indutype":"일반휴게음식 - 주점","category":"restaurant"},{"name":"건배7080라이브","tel":"031-358-6987","addr":"경기도 군포시 당정동 980-7번지 기정빌딩 2층","indutype":"일반휴게음식 - 주점","category":"restaurant"},{"name":"당정고을해물손칼국수","tel":"031-427-0418","addr":"경기도 군포시 당정동 48블럭 12롯트 기정빌딩","indutype":"일반휴게음식 - 일반한식","category":"restaurant"}]},{"lat":"37.34367446","long":"126.95017954","imageIndex":4,"items":[{"name":"계동치킨","tel":"031-477-8255","addr":"경기도 군포시 당정동 1011-1번지 대우프라자2 111호","indutype":"일반휴게음식 - 주점","category":"restaurant"},{"name":"고기한마당","tel":"031-427-0674","addr":"경기도 군포시 당정동 1011-1번지 대우프라자II 108호","indutype":"일반휴게음식 - 일반한식","category":"restaurant"},{"name":"남궁가족발당정점","tel":"031-427-3227","addr":"경기도 군포시 당정동 1011-1번지 대우프라자2 110호","indutype":"일반휴게음식 - 일반한식","category":"restaurant"},{"name":"빠야팬","tel":"031-427-4682","addr":"경기도 군포시 당정동 1011-1번지 대우프라자2 107호","indutype":"일반휴게음식 - 주점","category":"restaurant"},{"name":"응급실국물떡볶이군포당정점","tel":"031-429-7119","addr":"경기도 군포시 당정동 1011-1번지 대우프라자2 1층 103호","indutype":"일반휴게음식 - 스넥","category":"restaurant"},{"name":"청진동해장국시골밥상","tel":"031-454-8339","addr":"경기도 군포시 당정동 1011-1번지 대우프라자2 105호","indutype":"일반휴게음식 - 일반한식","category":"restaurant"}]},{"lat":"37.346945868","long":"126.95181369","imageIndex":4,"items":[{"name":"고구려수제본갈비","tel":"031-455-9291","addr":"경기도 군포시 당정동 995-1번지 1,2층","indutype":"일반휴게음식 - 일반한식","category":"restaurant"}]},{"lat":"37.343449004","long":"126.94972828","imageIndex":4,"items":[{"name":"고기백화점정육식당","tel":"031-455-9953","addr":"경기도 군포시 당정동 1013-7번지 동호프라자 109호","indutype":"일반휴게음식 - 일반한식","category":"restaurant"},{"name":"산본닭발 (당정점)","tel":"031-429-8778","addr":"경기도 군포시 당정동 1013-7번지 동호프라자 1층 111호","indutype":"일반휴게음식 - 일반한식","category":"restaurant"},{"name":"신통치킨(당정역점)","tel":"031-342-2258","addr":"경기도 군포시 당정동 1013-7번지 동호프라자 113호","indutype":"일반휴게음식 - 주점","category":"restaurant"},{"name":"아벡데프리츠","tel":"031-454-4770","addr":"경기도 군포시 당정동 1013-7번지 동호프라자 102호","indutype":"일반휴게음식 - 스넥","category":"restaurant"},{"name":"아줌마네포차","tel":"031-427-8998","addr":"경기도 군포시 당정동 1013-7번지 동호프라자 1층 101호","indutype":"일반휴게음식 - 일반한식","category":"restaurant"},{"name":"칼국수마을","tel":"031-455-4163","addr":"경기도 군포시 당정동 1013-7번지 동호프라자 105호","indutype":"일반휴게음식 - 일반한식","category":"restaurant"},{"name":"토담생선구이","tel":"031-477-2050","addr":"경기도 군포시 당정동 1013-7번지 동호프라자 204호","indutype":"일반휴게음식 - 일반한식","category":"restaurant"},{"name":"핑크쿠키랩(pink cookie lab)","tel":"","addr":"경기도 군포시 당정동 1013-7번지 동호프라자 121호","indutype":"일반휴게음식 - 서양음식","category":"restaurant"}]},{"lat":"37.349064422","long":"126.95458864","imageIndex":4,"items":[{"name":"골뱅이 하우스","tel":"031-453-1060","addr":"경기도 군포시 당정동 545-6번지 맥시옴빌딩 604호","indutype":"일반휴게음식 - 일반한식","category":"restaurant"},{"name":"비어플러스","tel":"031-454-0166","addr":"경기도 군포시 당정동 545-6번지 외1필지군포맥시움 603동 604호","indutype":"일반휴게음식 - 주점","category":"restaurant"},{"name":"생생동태탕","tel":"031-427-9592","addr":"경기도 군포시 당정동 545-6번지 맥시움빌딩 101호","indutype":"일반휴게음식 - 일반한식","category":"restaurant"},{"name":"엔에이치 (NH)커피인더스토리","tel":"050-5306-1472","addr":"경기도 군포시 당정동 545-6번지 맥시움빌딩 1층 103호","indutype":"일반휴게음식 - 서양음식","category":"restaurant"},{"name":"예향한식부페","tel":"031-453-8865","addr":"경기도 군포시 당정동 545-6번지 맥시움빌딩 2층 202호","indutype":"일반휴게음식 - 일반한식","category":"restaurant"},{"name":"웅가네추어탕 당정점","tel":"031-427-9592","addr":"경기도 군포시 당정동 545-6번지 맥시움빌딩 1층 101호","indutype":"일반휴게음식 - 일반한식","category":"restaurant"},{"name":"잇썸 (itsome')커피플레이스","tel":"031-344-3002","addr":"경기도 군포시 당정동 545-6번지 맥시움빌딩 1층 103호","indutype":"일반휴게음식 - 서양음식","category":"restaurant"}]},{"lat":"37.365589761","long":"126.95639552","imageIndex":4,"items":[{"name":"교촌치킨 호계3호점","tel":"031-452-9936","addr":"경기도 군포시 당정동 2-3번지 신일아이티유토 S동 102호","indutype":"일반휴게음식 - 스넥","category":"restaurant"},{"name":"대원푸드스토리","tel":"031-689-4455","addr":"경기도 군포시 당정동 2-3번지 지하1층S-B101호,신일IT유토지식산업센터","indutype":"일반휴게음식 - 일반한식","category":"restaurant"},{"name":"더밥군포점","tel":"031-689-4455","addr":"경기도 군포시 당정동 2-3번지 지층 S-B101호 1층","indutype":"일반휴게음식 - 일반한식","category":"restaurant"},{"name":"홀리커피","tel":"070-7757-0742","addr":"경기도 군포시 당정동 2-3번지 신일IT유토지식산업센터 104호","indutype":"일반휴게음식 - 서양음식","category":"restaurant"}]},{"lat":"37.347812193","long":"126.95504088","imageIndex":4,"items":[{"name":"구가네한방항아리보쌈","tel":"031-427-3211","addr":"경기도 군포시 당정동 970-9번지 당정메디칼빌딩 203호","indutype":"일반휴게음식 - 일반한식","category":"restaurant"},{"name":"누이네곱창","tel":"031-429-8065","addr":"경기도 군포시 당정동 970-9번지 당정메디컬빌딩 105호","indutype":"일반휴게음식 - 일반한식","category":"restaurant"},{"name":"메가MGC커피군포당정점","tel":"031-7765-1449","addr":"경기도 군포시 당정동 970-9번지 당정메디컬빌딩 1층 104호","indutype":"일반휴게음식 - 서양음식","category":"restaurant"},{"name":"본도시락한세대점","tel":"031-111-1111","addr":"경기도 군포시 당정동 970-9번지 당정메디컬빌딩 1층 106호","indutype":"일반휴게음식 - 일반한식","category":"restaurant"},{"name":"재아수산","tel":"031-429-6692","addr":"경기도 군포시 당정동 970-9번지 당정메디칼빌딩 107호","indutype":"일반휴게음식 - 일반한식","category":"restaurant"},{"name":"촉","tel":"031-477-2733","addr":"경기도 군포시 당정동 970-9번지 당정메디컬빌딩 102호","indutype":"일반휴게음식 - 일반한식","category":"restaurant"}]},{"lat":"37.346308478","long":"126.95753598","imageIndex":4,"items":[{"name":"국수사랑","tel":"031-455-5677","addr":"경기도 군포시 당정동 986-6번지 1층","indutype":"일반휴게음식 - 일반한식","category":"restaurant"},{"name":"송담추어탕 당정점","tel":"031-000-0000","addr":"경기도 군포시 당정동 986-6번지","indutype":"일반휴게음식 - 일반한식","category":"restaurant"}]},{"lat":"37.343421549","long":"126.94879162","imageIndex":4,"items":[{"name":"군포본점뽕잎사랑","tel":"02-1234-1234","addr":"경기도 군포시 당정동 1014-1번지 1층","indutype":"일반휴게음식 - 일반한식","category":"restaurant"}]},{"lat":"37.344368092","long":"126.94984049","imageIndex":4,"items":[{"name":"굴다리 돼지갈비","tel":"031-429-1002","addr":"경기도 군포시 당정동 1008-3번지 1층","indutype":"일반휴게음식 - 일반한식","category":"restaurant"}]},{"lat":"37.34364709","long":"126.94942344","imageIndex":4,"items":[{"name":"굿빈스 당정점","tel":"031-455-7290","addr":"경기도 군포시 당정동 1013-6번지 유영타운 103,104호","indutype":"일반휴게음식 - 서양음식","category":"restaurant"},{"name":"다복식당","tel":"031-427-6268","addr":"경기도 군포시 당정동 1013-6번지 유영타운 109호","indutype":"일반휴게음식 - 일반한식","category":"restaurant"},{"name":"오부장","tel":"031-427-5585","addr":"경기도 군포시 당정동 1013-6번지","indutype":"일반휴게음식 - 일반한식","category":"restaurant"},{"name":"쭈꾸미와친구들","tel":"031-477-8892","addr":"경기도 군포시 당정동 1013-6번지 유영타운 106호","indutype":"일반휴게음식 - 일반한식","category":"restaurant"},{"name":"호남기사식당","tel":"031-223-5214","addr":"경기도 군포시 당정동 1013-6번지 유영타운 1층 108호","indutype":"일반휴게음식 - 일반한식","category":"restaurant"}]},{"lat":"37.346783923","long":"126.9523668","imageIndex":4,"items":[{"name":"그라찌에한세대점","tel":"02-1111-1111","addr":"경기도 군포시 당정동 964-1번지 1층 한세대학교학생회관","indutype":"일반휴게음식 - 서양음식","category":"restaurant"},{"name":"주식회사 한세대플라타너스","tel":"","addr":"경기도 군포시 당정동 964-1번지 한세대학교","indutype":"일반휴게음식 - 서양음식","category":"restaurant"},{"name":"한화호텔앤드리조트(주)한세대1점","tel":"031-455-1319","addr":"경기도 군포시 당정동 964-1번지","indutype":"일반휴게음식 - 일반한식","category":"restaurant"},{"name":"한화호텔앤드리조트(주)한세대2점","tel":"031-455-1330","addr":"경기도 군포시 당정동 964-1번지","indutype":"일반휴게음식 - 위탁급식업","category":"restaurant"}]},{"lat":"37.350308764","long":"126.95694668","imageIndex":4,"items":[{"name":"그린푸드","tel":"031-456-3395","addr":"경기도 군포시 당정동 435-4번지 1층","indutype":"일반휴게음식 - 일반한식","category":"restaurant"}]},{"lat":"37.356896457","long":"126.96034014","imageIndex":4,"items":[{"name":"금봉식당","tel":"031-451-1991","addr":"경기도 군포시 당정동 93-5번지 금봉테크노벨리 1층 103호","indutype":"일반휴게음식 - 일반한식","category":"restaurant"},{"name":"커피인더스트리","tel":"031-457-8178","addr":"경기도 군포시 당정동 93-5번지 금봉테크노벨리 102호 일부호","indutype":"일반휴게음식 - 서양음식","category":"restaurant"}]},{"lat":"37.351587118","long":"126.95422586","imageIndex":4,"items":[{"name":"금호식당","tel":"031-429-1209","addr":"경기도 군포시 당정동 474번지 외5필지삼풍프라자 104호","indutype":"일반휴게음식 - 일반한식","category":"restaurant"}]},{"lat":"37.348145441","long":"126.95472466","imageIndex":4,"items":[{"name":"긴자일식","tel":"031-451-1717","addr":"경기도 군포시 당정동 970-1번지 프라임타운 2층 201,202호","indutype":"일반휴게음식 - 일식·회집","category":"restaurant"},{"name":"불꽃돼지","tel":"031-452-2222","addr":"경기도 군포시 당정동 970-1번지 프라임타운 1층 101호","indutype":"일반휴게음식 - 일반한식","category":"restaurant"},{"name":"아리아","tel":"031-429-7955","addr":"경기도 군포시 당정동 970-1번지","indutype":"일반휴게음식 - 서양음식","category":"restaurant"},{"name":"오구싶구(59싶구)비어","tel":"031-477-5977","addr":"경기도 군포시 당정동 970-1번지 프라임타운 102호","indutype":"일반휴게음식 - 주점","category":"restaurant"},{"name":"을지로회관","tel":"031-477-1004","addr":"경기도 군포시 당정동 970-1번지 프라임타운 203,204호","indutype":"일반휴게음식 - 일반한식","category":"restaurant"},{"name":"일오일 (151)","tel":"031-1544-0135","addr":"경기도 군포시 당정동 970-1번지 프라임타운 301호","indutype":"일반휴게음식 - 일반한식","category":"restaurant"},{"name":"철수네양푼김치찌개.동태탕","tel":"031-427-8724","addr":"경기도 군포시 당정동 970-1번지 프라임타운 107호","indutype":"일반휴게음식 - 일반한식","category":"restaurant"},{"name":"커피스모크","tel":"031-457-8178","addr":"경기도 군포시 당정동 970-1 프라임타운108호~109호","indutype":"일반휴게음식 - 서양음식","category":"restaurant"},{"name":"한우1공장","tel":"031-426-0689","addr":"경기도 군포시 당정동 970-1번지 프라임타운 1층 106호","indutype":"일반휴게음식 - 일반한식","category":"restaurant"}]},{"lat":"37.34967675","long":"126.95370793","imageIndex":4,"items":[{"name":"김밥여행","tel":"031-8086-8223","addr":"경기도 군포시 당정동 1045번지 군포아이티밸리 120호","indutype":"일반휴게음식 - 일반한식","category":"restaurant"},{"name":"나주곰탕","tel":"031-8086-8253","addr":"경기도 군포시 당정동 1045번지 1층 118호,119호","indutype":"일반휴게음식 - 일반한식","category":"restaurant"},{"name":"이랑","tel":"031-8068-1505","addr":"경기도 군포시 당정동 1045번지 군포IT밸리상가 비101호","indutype":"일반휴게음식 - 일반한식","category":"restaurant"},{"name":"진사골순대국","tel":"031-8086-8259","addr":"경기도 군포시 당정동 1045번지 군포IT밸리 상가동 103호","indutype":"일반휴게음식 - 일반한식","category":"restaurant"},{"name":"팔공티 군포아이티밸리점","tel":"031-000-0000","addr":"경기도 군포시 당정동 1045번지 군포아이티밸리 상가 1층 123호","indutype":"일반휴게음식 - 서양음식","category":"restaurant"}]},{"lat":"37.34658711","long":"126.95578652","imageIndex":4,"items":[{"name":"김밥천국","tel":"031-477-1009","addr":"경기도 군포시 당정동 47블럭6롯트태영프라자105","indutype":"일반휴게음식 - 일반한식","category":"restaurant"},{"name":"꾼떡당정2호점","tel":"031-427-1238","addr":"경기도 군포시 당정동 971-9번지 태영프라자 107호","indutype":"일반휴게음식 - 스넥","category":"restaurant"},{"name":"달달꿈","tel":"031-346-9598","addr":"경기도 군포시 당정동 971-9번지 태영프라자 108호","indutype":"일반휴게음식 - 서양음식","category":"restaurant"},{"name":"떡볶이와친구들","tel":"031-429-7702","addr":"경기도 군포시 당정동 971-9번지 태영프라자 102호","indutype":"일반휴게음식 - 스넥","category":"restaurant"}]},{"lat":"37.353138661","long":"126.95880727","imageIndex":4,"items":[{"name":"김밥천국군포공단점","tel":"031-455-8511","addr":"경기도 군포시 당정동 369-5번지 1층","indutype":"일반휴게음식 - 스넥","category":"restaurant"},{"name":"삼시세끼","tel":"031-426-5255","addr":"경기도 군포시 당정동 369-5번지 2층","indutype":"일반휴게음식 - 일반한식","category":"restaurant"}]},{"lat":"37.343422381","long":"126.95064241","imageIndex":4,"items":[{"name":"김밥천국당정점","tel":"031-427-8050","addr":"경기도 군포시 당정동 1011-3번지 대우프라자1 111호","indutype":"일반휴게음식 - 스넥","category":"restaurant"},{"name":"옛날통닭","tel":"031-1234-1234","addr":"경기도 군포시 당정동 1011-3번지 대우프라자1 1층 106호","indutype":"일반휴게음식 - 스넥","category":"restaurant"}]},{"lat":"37.348748718","long":"126.95374239","imageIndex":4,"items":[{"name":"김밥플러스","tel":"031-436-0508","addr":"경기도 군포시 당정동 522번지 SK벤티움 101동 213호","indutype":"일반휴게음식 - 스넥","category":"restaurant"},{"name":"라온카페","tel":"031-455-3383","addr":"경기도 군포시 당정동 522번지 에스케이벤티움 101동 211호","indutype":"일반휴게음식 - 일반한식","category":"restaurant"},{"name":"비체레커피","tel":"031-436-2025","addr":"경기도 군포시 당정동 522번지 SK벤티움 101동 218호","indutype":"일반휴게음식 - 서양음식","category":"restaurant"},{"name":"수리산갈비","tel":"031-436-0488","addr":"경기도 군포시 당정동 522번지 SK벤티움 101동 311호","indutype":"일반휴게음식 - 일반한식","category":"restaurant"},{"name":"엄마손부페","tel":"031-427-5888","addr":"경기도 군포시 당정동 522번지 SK벤티움 101동 221호","indutype":"일반휴게음식 - 일반한식","category":"restaurant"},{"name":"에스케이바다목장","tel":"031-453-0100","addr":"경기도 군포시 당정동 522 외 2필지 SK벤티움 101-312","indutype":"일반휴게음식 - 일식·회집","category":"restaurant"},{"name":"이레한식부페","tel":"031-436-0100","addr":"경기도 군포시 당정동 522번지 SK벤티움 101동 312호","indutype":"일반휴게음식 - 일반한식","category":"restaurant"},{"name":"장금이푸드","tel":"031-453-4542","addr":"경기도 군포시 당정동 522번지 SK벤티움 101동 115호","indutype":"일반휴게음식 - 일반한식","category":"restaurant"},{"name":"장금이푸드","tel":"031-253-0830","addr":"경기도 군포시 당정동 522번지 SK벤티움 101동 115호","indutype":"일반휴게음식 - 일반한식","category":"restaurant"},{"name":"전라도한식부페","tel":"031-436-0100","addr":"경기도 군포시 당정동 522번지 SK벤티움 101동 312호","indutype":"일반휴게음식 - 일반한식","category":"restaurant"},{"name":"지호한방삼계탕 당정점","tel":"031-342-3739","addr":"경기도 군포시 당정동 522번지 SK밴티움 101동 219호","indutype":"일반휴게음식 - 일반한식","category":"restaurant"}]},{"lat":"37.343863978","long":"126.95086781","imageIndex":4,"items":[{"name":"김밥하우스","tel":"031-429-4981","addr":"경기도 군포시 당정동 1004-2번지 성원프라자 103호","indutype":"일반휴게음식 - 스넥","category":"restaurant"},{"name":"린","tel":"","addr":"경기도 군포시 당정동 1004-2번지 성원프라자","indutype":"일반휴게음식 - 서양음식","category":"restaurant"},{"name":"몽짬뽕","tel":"031-427-7770","addr":"경기도 군포시 당정동 1004-2번지 성원프라자 108호","indutype":"일반휴게음식 - 중국식","category":"restaurant"},{"name":"옹골네순대국","tel":"031-427-6334","addr":"경기도 군포시 당정동 1004-2번지 성원프라자 101호","indutype":"일반휴게음식 - 일반한식","category":"restaurant"},{"name":"카페달보드레","tel":"031-808-0670","addr":"경기도 군포시 당정동 1004-2번지 성원프라자 1층 102호","indutype":"일반휴게음식 - 서양음식","category":"restaurant"},{"name":"훌랄라참숯바베큐치킨","tel":"031-457-2430","addr":"경기도 군포시 당정동 1004-2번지 성원프라자 106호","indutype":"일반휴게음식 - 주점","category":"restaurant"}]},{"lat":"37.348361959","long":"126.95540169","imageIndex":4,"items":[{"name":"깐부/주식회사이노하이테크","tel":"031-427-6589","addr":"경기도 군포시 당정동 974-7번지 프라임타운2 102호","indutype":"일반휴게음식 - 주점","category":"restaurant"},{"name":"호미양꼬치","tel":"031-451-2019","addr":"경기도 군포시 당정동 974-7번지 프라임타운2 1층 104호","indutype":"일반휴게음식 - 일반한식","category":"restaurant"}]},{"lat":"37.351974703","long":"126.95458678","imageIndex":4,"items":[{"name":"나따오비까(NATAOBICA)/(주)대흥 군포지점","tel":"031-459-2311","addr":"경기도 군포시 당정동 473-5번지 102호","indutype":"일반휴게음식 - 서양음식","category":"restaurant"}]},{"lat":"37.348361868","long":"126.95517597","imageIndex":4,"items":[{"name":"남호주점","tel":"031-427-5281","addr":"경기도 군포시 당정동 974-1번지 SK프라자 1층 106호","indutype":"일반휴게음식 - 주점","category":"restaurant"},{"name":"무진장김치찌개","tel":"031-455-1545","addr":"경기도 군포시 당정동 974-1번지 SK프라자 2층 201호","indutype":"일반휴게음식 - 일반한식","category":"restaurant"},{"name":"불타는신닭발","tel":"031-458-8939","addr":"경기도 군포시 당정동 974-1번지 SK프라자 1층 105호","indutype":"일반휴게음식 - 일반한식","category":"restaurant"},{"name":"뿔돈","tel":"031-477-9219","addr":"경기도 군포시 당정동 974-1번지 SK프라자 외1필지107","indutype":"일반휴게음식 - 일반한식","category":"restaurant"},{"name":"스타김밥","tel":"031-477-3949","addr":"경기도 군포시 당정동 974-1번지 SK프라자 106호","indutype":"일반휴게음식 - 스넥","category":"restaurant"},{"name":"신림동또순이순대","tel":"031-455-9888","addr":"경기도 군포시 당정동 36-1SK프라자2층202","indutype":"일반휴게음식 - 일반한식","category":"restaurant"},{"name":"육반장","tel":"031-395-5990","addr":"경기도 군포시 당정동 974-1번지 SK프라자 106호","indutype":"일반휴게음식 - 일반한식","category":"restaurant"},{"name":"이디야한세대점","tel":"031-429-1476","addr":"경기도 군포시 당정동 974-1번지 SK프라자 1층 103호","indutype":"일반휴게음식 - 서양음식","category":"restaurant"},{"name":"춘천토종닭갈비","tel":"031-477-3337","addr":"경기도 군포시 당정동 974-1번지 SK프라자 202호","indutype":"일반휴게음식 - 일반한식","category":"restaurant"}]},{"lat":"37.345602235","long":"126.94928663","imageIndex":4,"items":[{"name":"느루미동태탕","tel":"031-458-2050","addr":"경기도 군포시 당정동 1007-4","indutype":"일반휴게음식 - 일반한식","category":"restaurant"},{"name":"황토장군불바베큐","tel":"031-455-4292","addr":"경기도 군포시 당정동 1007-3번지 오성푸르메아파트","indutype":"일반휴게음식 - 주점","category":"restaurant"}]},{"lat":"37.363723269","long":"126.95297631","imageIndex":4,"items":[{"name":"다복셀프식당","tel":"031-453-5952","addr":"경기도 군포시 당정동 246-3번지 1층 103호","indutype":"일반휴게음식 - 일반한식","category":"restaurant"}]},{"lat":"37.351533657","long":"126.95570442","imageIndex":4,"items":[{"name":"다빈","tel":"031-427-3747","addr":"경기도 군포시 당정동 464-1번지 2층","indutype":"일반휴게음식 - 중국식","category":"restaurant"},{"name":"셀프식당","tel":"031-451-9722","addr":"경기도 군포시 당정동 464-1번지","indutype":"일반휴게음식 - 일반한식","category":"restaurant"},{"name":"소담푸드","tel":"","addr":"경기도 군포시 당정동 464-1번지","indutype":"일반휴게음식 - 일반한식","category":"restaurant"}]},{"lat":"37.354641053","long":"126.9530049","imageIndex":4,"items":[{"name":"다솔푸드","tel":"031-456-4530","addr":"경기도 군포시 당정동 326-4번지 2층","indutype":"일반휴게음식 - 일반한식","category":"restaurant"},{"name":"행복한밥상","tel":"031-456-4530","addr":"경기도 군포시 당정동 326-4번지 2층","indutype":"일반휴게음식 - 일반한식","category":"restaurant"}]},{"lat":"37.351695115","long":"126.95392105","imageIndex":4,"items":[{"name":"다옴집밥뷔페","tel":"031-427-7774","addr":"경기도 군포시 당정동 476-3번지 대준빌딩 102호","indutype":"일반휴게음식 - 일반한식","category":"restaurant"},{"name":"당정셀프식당","tel":"031-429-5540","addr":"경기도 군포시 당정동 476-3번지 도현빌딩 102호","indutype":"일반휴게음식 - 일반한식","category":"restaurant"}]},{"lat":"37.353867661","long":"126.95665106","imageIndex":4,"items":[{"name":"다원 한식부폐","tel":"031-451-1310","addr":"경기도 군포시 당정동 352번지","indutype":"일반휴게음식 - 일반한식","category":"restaurant"},{"name":"다원셀프식당","tel":"031-451-1310","addr":"경기도 군포시 당정동 352번지","indutype":"일반휴게음식 - 일반한식","category":"restaurant"}]},{"lat":"37.348001347","long":"126.95489404","imageIndex":4,"items":[{"name":"담소소사골순대","tel":"031-427-1821","addr":"경기도 군포시 당정동 970-8번지 R&K프라자 1층 102호","indutype":"일반휴게음식 - 일반한식","category":"restaurant"}]},{"lat":"37.343088909","long":"126.95042822","imageIndex":4,"items":[{"name":"당정포차","tel":"031-429-5900","addr":"경기도 군포시 당정동 1012-4번지 대우프라자3 102호","indutype":"일반휴게음식 - 일반한식","category":"restaurant"},{"name":"무무케이크(MUMUCAKE)","tel":"","addr":"경기도 군포시 당정동 1012-4번지 대우프라자3 1층 102호","indutype":"일반휴게음식 - 서양음식","category":"restaurant"},{"name":"신쭈꾸미","tel":"031-429-5900","addr":"경기도 군포시 당정동 1012-4번지","indutype":"일반휴게음식 - 일반한식","category":"restaurant"},{"name":"유림식당","tel":"031-429-4518","addr":"경기도 군포시 당정동 1012-4번지 대우프라자3 105호","indutype":"일반휴게음식 - 일반한식","category":"restaurant"},{"name":"치킨플러스 군포당정점","tel":"031-427-7171","addr":"경기도 군포시 당정동 1012-4번지 대우프라자3 105호","indutype":"일반휴게음식 - 스넥","category":"restaurant"},{"name":"카페팡파르","tel":"","addr":"경기도 군포시 당정동 1012-4번지 대우프라자3 106호","indutype":"일반휴게음식 - 서양음식","category":"restaurant"}]},{"lat":"37.345034682","long":"126.94947888","imageIndex":4,"items":[{"name":"당정회센터","tel":"031-427-7152","addr":"경기도 군포시 당정동 1007-5번지 상훈아파트","indutype":"일반휴게음식 - 일식·회집","category":"restaurant"}]},{"lat":"37.355252824","long":"126.95087124","imageIndex":4,"items":[{"name":"도란도란집밥","tel":"031-454-7841","addr":"경기도 군포시 당정동 1128번지 신라테크노빌 1층 105-1호","indutype":"일반휴게음식 - 일반한식","category":"restaurant"},{"name":"이안푸드","tel":"","addr":"경기도 군포시 당정동 1128번지 신라테크노빌 102-5,102-6,102-7,102-9","indutype":"일반휴게음식 - 일반한식","category":"restaurant"},{"name":"혜민푸드","tel":"031-429-9639","addr":"경기도 군포시 당정동 1128번지 신라테크노빌 1층 102-5호,102-6호,102-7호,102-9호","indutype":"일반휴게음식 - 일반한식","category":"restaurant"}]},{"lat":"37.364588788","long":"126.95428519","imageIndex":4,"items":[{"name":"돌샘한식식당","tel":"031-455-8768","addr":"경기도 군포시 당정동 231-21번지 1층","indutype":"일반휴게음식 - 일반한식","category":"restaurant"},{"name":"전주셀프식당","tel":"031-455-8768","addr":"경기도 군포시 당정동 231-21번지 1층","indutype":"일반휴게음식 - 일반한식","category":"restaurant"}]},{"lat":"37.351838603","long":"126.95231827","imageIndex":4,"items":[{"name":"동국한식부페","tel":"031-427-0601","addr":"경기도 군포시 당정동 500-2번지 2층","indutype":"일반휴게음식 - 일반한식","category":"restaurant"}]},{"lat":"37.346064783","long":"126.9564527","imageIndex":4,"items":[{"name":"동명항","tel":"031-477-0999","addr":"경기도 군포시 당정동 56B2L광개토프라자103,104호","indutype":"일반휴게음식 - 일식·회집","category":"restaurant"},{"name":"메리엔다","tel":"02-1577-0000","addr":"경기도 군포시 당정동 988-2번지 광개토프라자 108,109호","indutype":"일반휴게음식 - 서양음식","category":"restaurant"},{"name":"무쏘군포당정점","tel":"031-398-8312","addr":"경기도 군포시 당정동 988-2번지 광개토프라자 2층 201호","indutype":"일반휴게음식 - 일반한식","category":"restaurant"},{"name":"벌교꼬막 주당","tel":"031-429-6320","addr":"경기도 군포시 당정동 988-2번지 광개토프라자 105호","indutype":"일반휴게음식 - 주점","category":"restaurant"},{"name":"손수만두(SonSoo)","tel":"031-429-9898","addr":"경기도 군포시 당정동 988-2번지 광개토프라자 1층 101호","indutype":"일반휴게음식 - 스넥","category":"restaurant"},{"name":"쭌이랑","tel":"031-405-4404","addr":"경기도 군포시 당정동 988-2번지 광개토프라자","indutype":"일반휴게음식 - 주점","category":"restaurant"},{"name":"화평동왕냉면","tel":"031-477-5009","addr":"경기도 군포시 당정동 988-2번지 광개토프라자 101호","indutype":"일반휴게음식 - 일반한식","category":"restaurant"}]},{"lat":"37.346560311","long":"126.95637339","imageIndex":4,"items":[{"name":"둥근상시골집","tel":"031-457-6788","addr":"경기도 군포시 당정동 980-6번지 1층","indutype":"일반휴게음식 - 일반한식","category":"restaurant"},{"name":"무한이앤에프시골집/주식회사무한이앤에프","tel":"031-457-6788","addr":"경기도 군포시 당정동 980-6번지 1층","indutype":"일반휴게음식 - 일반한식","category":"restaurant"},{"name":"한세대시골집","tel":"070-4649-1101","addr":"경기도 군포시 당정동 980-6번지 광민빌딩 1층","indutype":"일반휴게음식 - 일반한식","category":"restaurant"}]},{"lat":"37.350756758","long":"126.95087434","imageIndex":4,"items":[{"name":"따버","tel":"050-5306-1472","addr":"경기도 군포시 당정동 513-3번지 1층","indutype":"일반휴게음식 - 일반한식","category":"restaurant"}]},{"lat":"37.347397735","long":"126.95506372","imageIndex":4,"items":[{"name":"또와유청정명태간장조림","tel":"031-429-9254","addr":"경기도 군포시 당정동 970-6번지 보흥빌딩 1층","indutype":"일반휴게음식 - 일반한식","category":"restaurant"},{"name":"카페하라","tel":"031-398-1212","addr":"경기도 군포시 당정동 970-6번지 보흥빌딩 1층","indutype":"일반휴게음식 - 서양음식","category":"restaurant"},{"name":"형제샤브샤브뷔페","tel":"031-429-7585","addr":"경기도 군포시 당정동 970-6번지 보흥빌딩","indutype":"일반휴게음식 - 일반한식","category":"restaurant"}]},{"lat":"37.347839401","long":"126.95548102","imageIndex":4,"items":[{"name":"로스팅아라비카","tel":"070-8243-5974","addr":"경기도 군포시 당정동 974-4번지 거산프라자 3층","indutype":"일반휴게음식 - 서양음식","category":"restaurant"},{"name":"바다참치","tel":"031-459-7760","addr":"경기도 군포시 당정동 974-4번지 거산프라자 101호","indutype":"일반휴게음식 - 일식·회집","category":"restaurant"},{"name":"엉터리생고기 한세대점","tel":"031-427-3376","addr":"경기도 군포시 당정동 974-4번지 거산프라자 2층","indutype":"일반휴게음식 - 일반한식","category":"restaurant"},{"name":"진한낙지","tel":"031-429-6870","addr":"경기도 군포시 당정동 974-4번지 거산프라자 1층 102호","indutype":"일반휴게음식 - 일반한식","category":"restaurant"}]},{"lat":"37.343728018","long":"126.94906225","imageIndex":4,"items":[{"name":"린다크래프트","tel":"031-458-4584","addr":"경기도 군포시 당정동 1013-3번지 201호","indutype":"일반휴게음식 - 서양음식","category":"restaurant"},{"name":"요거프레소 당정역점","tel":"031-451-3330","addr":"경기도 군포시 당정동 1013-3번지","indutype":"일반휴게음식 - 서양음식","category":"restaurant"}]},{"lat":"37.34806461","long":"126.95536801","imageIndex":4,"items":[{"name":"마녀족발(한세대직영점)","tel":"031-427-5458","addr":"경기도 군포시 당정동 974-3번지 신산본프라자 105, 106호","indutype":"일반휴게음식 - 일반한식","category":"restaurant"},{"name":"방일해장국","tel":"031-477-8003","addr":"경기도 군포시 당정동 974-3번지 신산본프라자","indutype":"일반휴게음식 - 일반한식","category":"restaurant"},{"name":"비어나인","tel":"031-456-3788","addr":"경기도 군포시 당정동 974-3번지 신산본프라자 301동 3층 302호","indutype":"일반휴게음식 - 주점","category":"restaurant"},{"name":"빽다방 군포당정삼거리","tel":"031-342-7429","addr":"경기도 군포시 당정동 974-3번지 신산본프라자 103호","indutype":"일반휴게음식 - 서양음식","category":"restaurant"},{"name":"우가네곱창","tel":"031-455-0895","addr":"경기도 군포시 당정동 36블럭11,12롯트신산본프라자104","indutype":"일반휴게음식 - 일반한식","category":"restaurant"},{"name":"은빛","tel":"031-427-2055","addr":"경기도 군포시 당정동 974-3번지 신산본프라자 203,204호","indutype":"일반휴게음식 - 일반한식","category":"restaurant"}]},{"lat":"37.35686723","long":"126.9546175","imageIndex":4,"items":[{"name":"마루","tel":"000-0000-0000","addr":"경기도 군포시 당정동 181-42번지 1층 제씨109,씨110호","indutype":"일반휴게음식 - 일반한식","category":"restaurant"},{"name":"존쿡푸드","tel":"","addr":"경기도 군포시 당정동 181-42번지 엠테크노센터 지하1층","indutype":"일반휴게음식 - 일반한식","category":"restaurant"},{"name":"착한커피","tel":"031-1111-1111","addr":"경기도 군포시 당정동 181-42번지 1동 C104호","indutype":"일반휴게음식 - 서양음식","category":"restaurant"}]},{"lat":"37.347253884","long":"126.95584253","imageIndex":4,"items":[{"name":"막창(인)","tel":"070-1111-1111","addr":"경기도 군포시 당정동 980-1번지 유영빌딩 1층 103호","indutype":"일반휴게음식 - 일반한식","category":"restaurant"},{"name":"오우바","tel":"031-349-4994","addr":"경기도 군포시 당정동 980-1번지 유영빌딩 1층 102호","indutype":"일반휴게음식 - 주점","category":"restaurant"},{"name":"피자스쿨한세대점","tel":"031-456-8255","addr":"경기도 군포시 당정동 980-1번지 유영빌딩 101호","indutype":"일반휴게음식 - 서양음식","category":"restaurant"}]},{"lat":"37.351559779","long":"126.95348097","imageIndex":4,"items":[{"name":"만석식당","tel":"031-427-1220","addr":"경기도 군포시 당정동 506-3번지 1층","indutype":"일반휴게음식 - 일반한식","category":"restaurant"},{"name":"행복한밥상","tel":"031-456-2320","addr":"경기도 군포시 당정동 506-3번지 2층","indutype":"일반휴게음식 - 위탁급식업","category":"restaurant"}]},{"lat":"37.353471978","long":"126.95864906","imageIndex":4,"items":[{"name":"맛사랑","tel":"031-458-0918","addr":"경기도 군포시 당정동 370번지 1층","indutype":"일반휴게음식 - 일반한식","category":"restaurant"},{"name":"맛있는밥상","tel":"031-454-4740","addr":"경기도 군포시 당정동 370번지 1층","indutype":"일반휴게음식 - 일반한식","category":"restaurant"}]},{"lat":"37.350639586","long":"126.95078413","imageIndex":4,"items":[{"name":"명성장","tel":"031-454-7676","addr":"경기도 군포시 당정동 513-4번지 2층","indutype":"일반휴게음식 - 중국식","category":"restaurant"}]},{"lat":"37.349199926","long":"126.95545759","imageIndex":4,"items":[{"name":"명태어장(당정점)","tel":"031-427-4259","addr":"경기도 군포시 당정동 447-4번지 하이파크빌딩 2층","indutype":"일반휴게음식 - 일반한식","category":"restaurant"},{"name":"엄가네(본가)시골집","tel":"031-429-2023","addr":"경기도 군포시 당정동 447-4번지 2층","indutype":"일반휴게음식 - 일반한식","category":"restaurant"},{"name":"육대장군포점","tel":"031-477-6860","addr":"경기도 군포시 당정동 447-4번지 2층","indutype":"일반휴게음식 - 일반한식","category":"restaurant"},{"name":"퀸7080라이브","tel":"031-452-4321","addr":"경기도 군포시 당정동 447-4번지 하이파크빌딩 4층 401호","indutype":"일반휴게음식 - 서양음식","category":"restaurant"}]},{"lat":"37.3426737","long":"126.94878087","imageIndex":4,"items":[{"name":"미림정","tel":"031-452-6767","addr":"경기도 군포시 당정동 1016-1번지 1층","indutype":"일반휴게음식 - 일반한식","category":"restaurant"}]},{"lat":"37.347586994","long":"126.95517646","imageIndex":4,"items":[{"name":"미스사이공당정점","tel":"031-427-0421","addr":"경기도 군포시 당정동 970-10번지 경산빌딩 1층 102호","indutype":"일반휴게음식 - 스넥","category":"restaurant"},{"name":"발렌타인","tel":"034-341-8807","addr":"경기도 군포시 당정동 970-10번지 경산빌딩 4층","indutype":"일반휴게음식 - 주점","category":"restaurant"}]},{"lat":"37.343530408","long":"126.95042791","imageIndex":4,"items":[{"name":"미스터브리즈","tel":"070-8888-7879","addr":"경기도 군포시 당정동 1011-2번지 재경빌딩 1층 101호","indutype":"일반휴게음식 - 서양음식","category":"restaurant"},{"name":"중화요리서경","tel":"031-455-9220","addr":"경기도 군포시 당정동 1011-2번지 103,104호","indutype":"일반휴게음식 - 중국식","category":"restaurant"}]},{"lat":"37.349452395","long":"126.95592016","imageIndex":4,"items":[{"name":"미풍해장국군포의왕점","tel":"031-477-1244","addr":"경기도 군포시 당정동 447-1번지 마스타빌딩 2층 일부호","indutype":"일반휴게음식 - 일반한식","category":"restaurant"}]},{"lat":"37.365255007","long":"126.95300916","imageIndex":4,"items":[{"name":"밥집","tel":"031-456-2439","addr":"경기도 군포시 당정동 236-2번지 1층","indutype":"일반휴게음식 - 일반한식","category":"restaurant"},{"name":"밥집","tel":"031-456-2439","addr":"경기도 군포시 당정동 236-2번지 1층","indutype":"일반휴게음식 - 일반한식","category":"restaurant"}]},{"lat":"37.353361668","long":"126.95314118","imageIndex":4,"items":[{"name":"벽옥의사계절뷔페","tel":"031-427-5847","addr":"경기도 군포시 당정동 323-1번지 군포제일공단 309,310호","indutype":"일반휴게음식 - 일반한식","category":"restaurant"}]},{"lat":"37.344169439","long":"126.94889266","imageIndex":4,"items":[{"name":"보사안티구아 1964","tel":"031-344-1960","addr":"경기도 군포시 당정동 1010-3번지 201호","indutype":"일반휴게음식 - 일반한식","category":"restaurant"}]},{"lat":"37.346893365","long":"126.95556061","imageIndex":4,"items":[{"name":"본가옛날막창","tel":"031-477-7292","addr":"경기도 군포시 당정동 971-7 101호,102호","indutype":"일반휴게음식 - 주점","category":"restaurant"},{"name":"즐거운돈까스","tel":"031-477-2949","addr":"경기도 군포시 당정동 971-7번지 2층 202호","indutype":"일반휴게음식 - 일반한식","category":"restaurant"},{"name":"커피볶는자유","tel":"031-427-4486","addr":"경기도 군포시 당정동 971-7번지 104호","indutype":"일반휴게음식 - 서양음식","category":"restaurant"},{"name":"화풍초벌갈비","tel":"","addr":"경기도 군포시 당정동 971-7번지 1층 104,105호","indutype":"일반휴게음식 - 일반한식","category":"restaurant"}]},{"lat":"37.344836473","long":"126.94951288","imageIndex":4,"items":[{"name":"본스치킨","tel":"031-429-8292","addr":"경기도 군포시 당정동 1007-6","indutype":"일반휴게음식 - 스넥","category":"restaurant"}]},{"lat":"37.346668376","long":"126.95622661","imageIndex":4,"items":[{"name":"본죽","tel":"031-427-3934","addr":"경기도 군포시 당정동 980-5번지 럭키빌딩 102호","indutype":"일반휴게음식 - 일반한식","category":"restaurant"},{"name":"중식당화요","tel":"031-427-0512","addr":"경기도 군포시 당정동 980-5번지 럭키빌딩 1층","indutype":"일반휴게음식 - 중국식","category":"restaurant"}]},{"lat":"37.347001388","long":"126.95531226","imageIndex":4,"items":[{"name":"북경반점","tel":"031-427-0071","addr":"경기도 군포시 당정동 971-1번지 동화빌딩 1층","indutype":"일반휴게음식 - 중국식","category":"restaurant"},{"name":"북경반점","tel":"031-427-0071","addr":"경기도 군포시 당정동 971-1번지 동화빌딩 101호","indutype":"일반휴게음식 - 중국식","category":"restaurant"},{"name":"주식회사 강원도막국수","tel":"031-223-5214","addr":"경기도 군포시 당정동 971-1번지 동화빌딩","indutype":"일반휴게음식 - 일반한식","category":"restaurant"}]},{"lat":"37.343926139","long":"126.9488364","imageIndex":4,"items":[{"name":"뽁기&마리","tel":"031-454-4520","addr":"경기도 군포시 당정동 1013-1번지 동원빌딩 101호","indutype":"일반휴게음식 - 스넥","category":"restaurant"},{"name":"이디야 당정역점","tel":"031-455-8484","addr":"경기도 군포시 당정동 1013-1번지 동원빌딩 103호","indutype":"일반휴게음식 - 서양음식","category":"restaurant"},{"name":"황소곱창구이","tel":"031-455-5785","addr":"경기도 군포시 당정동 1013-1번지 동원빌딩 1층 105호","indutype":"일반휴게음식 - 일반한식","category":"restaurant"}]},{"lat":"37.35891971","long":"126.95031562","imageIndex":4,"items":[{"name":"사계절집밥","tel":"031-477-2492","addr":"경기도 군포시 당정동 1068번지","indutype":"일반휴게음식 - 일반한식","category":"restaurant"}]},{"lat":"37.354805707","long":"126.95925777","imageIndex":4,"items":[{"name":"사라네한식뷔페","tel":"031-455-4038","addr":"경기도 군포시 당정동 111-1번지","indutype":"일반휴게음식 - 일반한식","category":"restaurant"}]},{"lat":"37.347533177","long":"126.95578593","imageIndex":4,"items":[{"name":"사회복지법인씨.피재활원/일꿈터","tel":"031-451-8799","addr":"경기도 군포시 당정동 974-6번지 누리에뜰","indutype":"일반휴게음식 - 일반한식","category":"restaurant"}]},{"lat":"37.354308685","long":"126.95545437","imageIndex":4,"items":[{"name":"새한셀프식당","tel":"031-456-9916","addr":"경기도 군포시 당정동 343-17번지 1층 일부","indutype":"일반휴게음식 - 일반한식","category":"restaurant"}]},{"lat":"37.346947615","long":"126.95603458","imageIndex":4,"items":[{"name":"석기정","tel":"031-456-6630","addr":"경기도 군포시 당정동 980-3번지 신세기프라자 2층 201호","indutype":"일반휴게음식 - 일반한식","category":"restaurant"}]},{"lat":"37.352866722","long":"126.95462007","imageIndex":4,"items":[{"name":"석정식당","tel":"031-477-4901","addr":"경기도 군포시 당정동 347-3번지 1층","indutype":"일반휴게음식 - 일반한식","category":"restaurant"}]},{"lat":"37.362309627","long":"126.95528002","imageIndex":4,"items":[{"name":"성만식당","tel":"031-459-1692","addr":"경기도 군포시 당정동 216-3외3필지B동(2층)","indutype":"일반휴게음식 - 일반한식","category":"restaurant"}]},{"lat":"37.354200031","long":"126.95414516","imageIndex":4,"items":[{"name":"소담뷔페식당","tel":"031-455-3325","addr":"경기도 군포시 당정동 325-28번지 2층","indutype":"일반휴게음식 - 일반한식","category":"restaurant"}]},{"lat":"37.347613306","long":"126.95342712","imageIndex":4,"items":[{"name":"소플러스 군포당정점/(주)제이앤에스푸드","tel":"031-456-6243","addr":"경기도 군포시 당정동 965-5번지 1층","indutype":"일반휴게음식 - 일반한식","category":"restaurant"}]},{"lat":"37.344169506","long":"126.94903937","imageIndex":4,"items":[{"name":"송씨솜씨","tel":"031-429-9385","addr":"경기도 군포시 당정동 1010-4번지 1층","indutype":"일반휴게음식 - 일반한식","category":"restaurant"}]},{"lat":"37.349029334","long":"126.95698132","imageIndex":4,"items":[{"name":"수랏간","tel":"031-427-3318","addr":"경기도 군포시 당정동 976-1번지","indutype":"일반휴게음식 - 일반한식","category":"restaurant"},{"name":"횡성한우정육식당","tel":"031-427-3318","addr":"경기도 군포시 당정동 976-1(38블럭1롯트)","indutype":"일반휴게음식 - 일반한식","category":"restaurant"}]},{"lat":"37.365723846","long":"126.9537539","imageIndex":4,"items":[{"name":"수정호프","tel":"031-429-1158","addr":"경기도 군포시 당정동 233-5번지 지층","indutype":"일반휴게음식 - 주점","category":"restaurant"}]},{"lat":"37.34650637","long":"126.95667814","imageIndex":4,"items":[{"name":"쉔통","tel":"","addr":"경기도 군포시 당정동 987-1번지 101동 107, 108, 109호","indutype":"일반휴게음식 - 서양음식","category":"restaurant"}]},{"lat":"37.352363202","long":"126.95726146","imageIndex":4,"items":[{"name":"시골밥상","tel":"031-427-2599","addr":"경기도 군포시 당정동 413-1번지 지층","indutype":"일반휴게음식 - 일반한식","category":"restaurant"}]},{"lat":"37.347451873","long":"126.95525554","imageIndex":4,"items":[{"name":"쏘닭 군포당정점","tel":"031-427-1663","addr":"경기도 군포시 당정동 970-11번지 1층","indutype":"일반휴게음식 - 스넥","category":"restaurant"}]},{"lat":"37.343836202","long":"126.9491976","imageIndex":4,"items":[{"name":"아리가또맘마","tel":"031-427-1005","addr":"경기도 군포시 당정동 1013-5번지 2호","indutype":"일반휴게음식 - 스넥","category":"restaurant"}]},{"lat":"37.355777756","long":"126.95650315","imageIndex":4,"items":[{"name":"아리랑식당","tel":"031-455-7090","addr":"경기도 군포시 당정동 171-2번지 2층","indutype":"일반휴게음식 - 일반한식","category":"restaurant"}]},{"lat":"37.343224012","long":"126.95031527","imageIndex":4,"items":[{"name":"아리수분식점","tel":"031-427-1853","addr":"경기도 군포시 당정동 1012-1번지 아르떼하우스","indutype":"일반휴게음식 - 스넥","category":"restaurant"}]},{"lat":"37.348506626","long":"126.95667692","imageIndex":4,"items":[{"name":"야미가","tel":"031-429-4007","addr":"경기도 군포시 당정동 977-1번지 가온누리 101호","indutype":"일반휴게음식 - 일반한식","category":"restaurant"}]},{"lat":"37.357174267","long":"126.95634427","imageIndex":4,"items":[{"name":"양평신내서울해장국","tel":"031-427-2522","addr":"경기도 군포시 당정동 174-19번지 다동 1층","indutype":"일반휴게음식 - 일반한식","category":"restaurant"}]},{"lat":"37.356282566","long":"126.95712364","imageIndex":4,"items":[{"name":"엄마손식당","tel":"031-477-2507","addr":"경기도 군포시 당정동 150-20번지 PK벤처타워 B01호","indutype":"일반휴게음식 - 일반한식","category":"restaurant"}]},{"lat":"37.343007091","long":"126.94881449","imageIndex":4,"items":[{"name":"연가정식백반","tel":"031-456-5722","addr":"경기도 군포시 당정동 1015-1번지 101호","indutype":"일반휴게음식 - 일반한식","category":"restaurant"}]},{"lat":"37.35353306","long":"126.95361512","imageIndex":4,"items":[{"name":"예향집밥","tel":"031-457-2374","addr":"경기도 군포시 당정동 324-8번지 2층","indutype":"일반휴게음식 - 일반한식","category":"restaurant"}]},{"lat":"37.351869097","long":"126.96120076","imageIndex":4,"items":[{"name":"오가네토종순대국","tel":"031-429-1267","addr":"경기도 군포시 당정동 379-4번지 1층","indutype":"일반휴게음식 - 일반한식","category":"restaurant"}]},{"lat":"37.355028091","long":"126.95206782","imageIndex":4,"items":[{"name":"오봉식당","tel":"031-452-7802","addr":"경기도 군포시 당정동 294-4번지","indutype":"일반휴게음식 - 일반한식","category":"restaurant"}]},{"lat":"37.347596266","long":"126.95583103","imageIndex":4,"items":[{"name":"오부장치킨한세대점","tel":"031-429-9909","addr":"경기도 군포시 당정동 974-6번지 누리에뜰","indutype":"일반휴게음식 - 스넥","category":"restaurant"},{"name":"요거프레소한세대점","tel":"031-477-4547","addr":"경기도 군포시 당정동 974-6번지 누리에뜰","indutype":"일반휴게음식 - 서양음식","category":"restaurant"},{"name":"짝태앤노가리 군포당정점","tel":"070-7538-6294","addr":"경기도 군포시 당정동 974-6번지 누리에뜰","indutype":"일반휴게음식 - 주점","category":"restaurant"},{"name":"참이온닭발","tel":"031-455-2555","addr":"경기도 군포시 당정동 974-6번지 누리에뜰","indutype":"일반휴게음식 - 일반한식","category":"restaurant"}]},{"lat":"37.347810271","long":"126.95050394","imageIndex":4,"items":[{"name":"오웰(O'well)","tel":"031-457-6753","addr":"경기도 군포시 당정동 630-4번지","indutype":"일반휴게음식 - 일반한식","category":"restaurant"}]},{"lat":"37.343007404","long":"126.94950289","imageIndex":4,"items":[{"name":"용호수산","tel":"031-393-8006","addr":"경기도 군포시 당정동 1015-4번지 아르떼하우스 1층 101호","indutype":"일반휴게음식 - 일반한식","category":"restaurant"}]},{"lat":"37.354057481","long":"126.9582311","imageIndex":4,"items":[{"name":"우리집밥","tel":"031-223-5214","addr":"경기도 군포시 당정동 123-2번지 2층","indutype":"일반휴게음식 - 일반한식","category":"restaurant"}]},{"lat":"37.354004166","long":"126.96025148","imageIndex":4,"items":[{"name":"운영한식부페","tel":"031-427-5952","addr":"경기도 군포시 당정동 110-6번지 1층","indutype":"일반휴게음식 - 일반한식","category":"restaurant"}]},{"lat":"37.363500343","long":"126.95883507","imageIndex":4,"items":[{"name":"위대한밥상","tel":"031-457-0103","addr":"경기도 군포시 당정동 16-1번지 한솔테크노타운 105호","indutype":"일반휴게음식 - 일반한식","category":"restaurant"},{"name":"위대한밥상","tel":"031-457-0103","addr":"경기도 군포시 당정동 16-1번지 한솔테크노타운 105호","indutype":"일반휴게음식 - 일반한식","category":"restaurant"},{"name":"일육일","tel":"031-347-6004","addr":"경기도 군포시 당정동 16-1번지 한솔테크노타운 1층 114호","indutype":"일반휴게음식 - 서양음식","category":"restaurant"},{"name":"일육일 (161)","tel":"031-347-6004","addr":"경기도 군포시 당정동 16-1번지 한솔테크노타운 1층 114호","indutype":"일반휴게음식 - 서양음식","category":"restaurant"},{"name":"정식당","tel":"031-457-6570","addr":"경기도 군포시 당정동 16-1번지 한솔테크노타운 115호","indutype":"일반휴게음식 - 일반한식","category":"restaurant"},{"name":"진미생고기","tel":"031-452-5691","addr":"경기도 군포시 당정동 16-1번지 한솔테크노타운 129호","indutype":"일반휴게음식 - 일반한식","category":"restaurant"}]},{"lat":"37.344034589","long":"126.94955859","imageIndex":4,"items":[{"name":"육사돈","tel":"031-451-9955","addr":"경기도 군포시 당정동 1010-8번지 1층 101,102,103호","indutype":"일반휴게음식 - 일반한식","category":"restaurant"}]},{"lat":"37.343953639","long":"126.94987464","imageIndex":4,"items":[{"name":"윤셰프의짬뽕데이본점(JSF&B)","tel":"031-427-8979","addr":"경기도 군포시 당정동 1010-10번지 선경프라자 1층","indutype":"일반휴게음식 - 중국식","category":"restaurant"},{"name":"장수국수","tel":"031-456-5365","addr":"경기도 군포시 당정동 1010-10번지 선경프라자","indutype":"일반휴게음식 - 일반한식","category":"restaurant"},{"name":"치킨마루(당정한세대점)","tel":"031-453-8255","addr":"경기도 군포시 당정동 1010-10번지 선경프라자 102호","indutype":"일반휴게음식 - 스넥","category":"restaurant"}]},{"lat":"37.357255464","long":"126.95661512","imageIndex":4,"items":[{"name":"은혜식당","tel":"031-451-2555","addr":"경기도 군포시 당정동 150-41번지 2층","indutype":"일반휴게음식 - 일반한식","category":"restaurant"}]},{"lat":"37.350838017","long":"126.95125802","imageIndex":4,"items":[{"name":"일미식당","tel":"031-454-8761","addr":"경기도 군포시 당정동 512-7번지 성호빌딩 1층","indutype":"일반휴게음식 - 일반한식","category":"restaurant"},{"name":"진국뚝배기","tel":"031-54-4450","addr":"경기도 군포시 당정동 512-7번지","indutype":"일반휴게음식 - 한정식","category":"restaurant"}]},{"lat":"37.353363708","long":"126.95825409","imageIndex":4,"items":[{"name":"자매한식뷔페","tel":"031-8779-5008","addr":"경기도 군포시 당정동 364-7번지 2층","indutype":"일반휴게음식 - 일반한식","category":"restaurant"}]},{"lat":"37.353868045","long":"126.9576443","imageIndex":4,"items":[{"name":"자영식당","tel":"031-429-0661","addr":"경기도 군포시 당정동 364-12번지 1층","indutype":"일반휴게음식 - 일반한식","category":"restaurant"}]},{"lat":"37.350227531","long":"126.95658557","imageIndex":4,"items":[{"name":"자율식당","tel":"031-111-1111","addr":"경기도 군포시 당정동 436번지 2층","indutype":"일반휴게음식 - 일반한식","category":"restaurant"}]},{"lat":"37.352001357","long":"126.95367255","imageIndex":4,"items":[{"name":"장원식당","tel":"031-455-0511","addr":"경기도 군포시 당정동 477-1번지 1층","indutype":"일반휴게음식 - 일반한식","category":"restaurant"}]},{"lat":"37.354806447","long":"126.96131201","imageIndex":4,"items":[{"name":"전주식당","tel":"031-814-2233","addr":"경기도 군포시 당정동 108-3번지 1층","indutype":"일반휴게음식 - 일반한식","category":"restaurant"}]},{"lat":"37.36286836","long":"126.95553929","imageIndex":4,"items":[{"name":"전주식당","tel":"031-452-1221","addr":"경기도 군포시 당정동 216-1번지 1층","indutype":"일반휴게음식 - 일반한식","category":"restaurant"}]},{"lat":"37.355001215","long":"126.95242902","imageIndex":4,"items":[{"name":"정원푸드","tel":"031-452-2315","addr":"경기도 군포시 당정동 321-1번지 2층","indutype":"일반휴게음식 - 일반한식","category":"restaurant"}]},{"lat":"37.343088597","long":"126.94972854","imageIndex":4,"items":[{"name":"젠틀맨더커피","tel":"031-429-1986","addr":"경기도 군포시 당정동 1015-5번지 아르떼하우스 1층 101호","indutype":"일반휴게음식 - 서양음식","category":"restaurant"}]},{"lat":"37.346035053","long":"126.95001989","imageIndex":4,"items":[{"name":"젤코바","tel":"031-427-5359","addr":"경기도 군포시 당정동 1001-1번지 한솔솔파크아파트","indutype":"일반휴게음식 - 서양음식","category":"restaurant"}]},{"lat":"37.357840005","long":"126.95383805","imageIndex":4,"items":[{"name":"주식회사빌리엔젤","tel":"02-722-3663","addr":"경기도 군포시 당정동 181-36번지 두림빌딩 4층","indutype":"일반휴게음식 - 서양음식","category":"restaurant"}]},{"lat":"37.346758258","long":"126.95567355","imageIndex":4,"items":[{"name":"쥬씨 한세대점","tel":"","addr":"경기도 군포시 당정동 971-8번지 101호","indutype":"일반휴게음식 - 일반한식","category":"restaurant"}]},{"lat":"37.354229662","long":"126.96092857","imageIndex":4,"items":[{"name":"진미각","tel":"031-453-4037","addr":"경기도 군포시 당정동 108-12 1층","indutype":"일반휴게음식 - 중국식","category":"restaurant"}]},{"lat":"37.349921296","long":"126.95686792","imageIndex":4,"items":[{"name":"집밥셀프식당","tel":"031-429-9510","addr":"경기도 군포시 당정동 437-7번지 2층","indutype":"일반휴게음식 - 일반한식","category":"restaurant"}]},{"lat":"37.356416369","long":"126.95375996","imageIndex":4,"items":[{"name":"취영방","tel":"031-459-0586","addr":"경기도 군포시 당정동 181-40번지 신광프라자103,203호","indutype":"일반휴게음식 - 중국식","category":"restaurant"}]},{"lat":"37.34769527","long":"126.95556011","imageIndex":4,"items":[{"name":"치킨매니아당정점","tel":"031-456-9255","addr":"경기도 군포시 당정동 974-5번지 수미르빌딩 101호~102호","indutype":"일반휴게음식 - 주점","category":"restaurant"},{"name":"토마토도시락한세대점","tel":"031-427-9978","addr":"경기도 군포시 당정동 974-5번지 수미로빌딩 1층 103호","indutype":"일반휴게음식 - 일반한식","category":"restaurant"}]},{"lat":"37.347694854","long":"126.95453309","imageIndex":4,"items":[{"name":"카페샵","tel":"031-226-4025","addr":"경기도 군포시 당정동 968-4번지 그린빌 101호","indutype":"일반휴게음식 - 서양음식","category":"restaurant"}]},{"lat":"37.346810593","long":"126.95153164","imageIndex":4,"items":[{"name":"카페클래시카","tel":"031-427-8170","addr":"경기도 군포시 당정동 1002-1번지 홍창기씨근린주택 1층,2층","indutype":"일반휴게음식 - 서양음식","category":"restaurant"}]},{"lat":"37.357813341","long":"126.95472977","imageIndex":4,"items":[{"name":"티앤푸드","tel":"031-410-0329","addr":"경기도 군포시 당정동 181-33번지 301호","indutype":"일반휴게음식 - 일반한식","category":"restaurant"}]},{"lat":"37.354452688","long":"126.95505924","imageIndex":4,"items":[{"name":"풍미식당","tel":"031-458-6915","addr":"경기도 군포시 당정동 343-11번지 2층","indutype":"일반휴게음식 - 일반한식","category":"restaurant"}]},{"lat":"37.352308705","long":"126.95614412","imageIndex":4,"items":[{"name":"한울한식식당","tel":"031-457-8010","addr":"경기도 군포시 당정동 467-5번지 2층","indutype":"일반휴게음식 - 일반한식","category":"restaurant"}]},{"lat":"37.347947217","long":"126.95472479","imageIndex":4,"items":[{"name":"할매냉면","tel":"031-454-6663","addr":"경기도 군포시 당정동 970-2번지 1층","indutype":"일반휴게음식 - 일반한식","category":"restaurant"}]},{"lat":"37.356507635","long":"126.95664944","imageIndex":4,"items":[{"name":"행복식당","tel":"031-455-9333","addr":"경기도 군포시 당정동 150-19번지","indutype":"일반휴게음식 - 일반한식","category":"restaurant"},{"name":"행복식당","tel":"031-455-9333","addr":"경기도 군포시 당정동 150-19번지 3층","indutype":"일반휴게음식 - 일반한식","category":"restaurant"}]}]