[{"lat":"37.203533069","long":"127.54725535","imageIndex":16,"items":[{"name":"Music & Play 음악학원","tel":"031-8051-7555","addr":"경기도 여주시 가남읍 태평리 103-1번지","indutype":"학원 - 예·체능계학원","category":"study"}]},{"lat":"37.204062586","long":"127.54770973","imageIndex":16,"items":[{"name":"가남소리엘음악학원","tel":"031-884-7716","addr":"경기도 여주시 가남읍 태평리 102-1번지 2층","indutype":"학원 - 예·체능계학원","category":"study"},{"name":"미술이야기","tel":"031-8051-6455","addr":"경기도 여주시 가남읍 태평리 102-1번지 1층","indutype":"학원 - 예·체능계학원","category":"study"}]},{"lat":"37.205197014","long":"127.54789812","imageIndex":16,"items":[{"name":"가남초등학교","tel":"","addr":"경기도 여주시 가남읍 태평리 74-1번지 가남초등학교","indutype":"학원 - 초중고교육기관","category":"study"}]},{"lat":"37.2051970142","long":"127.5478981176","imageIndex":16,"items":[{"name":"가남초등학교병설유치원[아이행복]","tel":"031--883-5455","addr":"경기도 여주시 가남읍 태평리 74-1번지","indutype":"학원 - 유치원","category":"study"}]},{"lat":"37.204199704","long":"127.54728267","imageIndex":16,"items":[{"name":"가남해법에듀학원","tel":"031-885-8461","addr":"경기도 여주시 가남읍 태평리 100번지 2동","indutype":"학원 - 보습학원","category":"study"},{"name":"삼성영어수학학원","tel":"031-883-7761","addr":"경기도 여주시 가남읍 태평리 100번지","indutype":"학원 - 보습학원","category":"study"},{"name":"수학의 달인(가남점)","tel":"070-4179-9110","addr":"경기도 여주시 가남읍 태평리 100번지","indutype":"학원 - 보습학원","category":"study"},{"name":"예인보습셀파우등생교실학원","tel":"031-881-2881","addr":"경기도 여주시 가남읍 태평리 100번지 4층 401호","indutype":"학원 - 보습학원","category":"study"},{"name":"예인보습학원","tel":"031-884-3420","addr":"경기도 여주시 가남읍 태평리 100번지","indutype":"학원 - 기타 교육기관","category":"study"},{"name":"지성수학","tel":"031-8051-0779","addr":"경기도 여주시 가남읍 태평리 100번지 102호","indutype":"학원 - 보습학원","category":"study"},{"name":"호산나음악학원","tel":"031-883-6545","addr":"경기도 여주시 가남읍 태평리 100번지","indutype":"학원 - 예·체능계학원","category":"study"}]},{"lat":"37.203393718","long":"127.54620678","imageIndex":16,"items":[{"name":"돌과 나무","tel":"070-8806-7568","addr":"경기도 여주시 가남읍 태평리 178-11번지","indutype":"학원 - 예·체능계학원","category":"study"}]},{"lat":"37.203313403","long":"127.54603724","imageIndex":16,"items":[{"name":"뮤엠영어 가남어학원","tel":"031-884-7563","addr":"경기도 여주시 가남읍 태평리 178-35번지","indutype":"학원 - 외국어학원","category":"study"}]},{"lat":"37.202672401","long":"127.54237179","imageIndex":16,"items":[{"name":"범영어린이집","tel":"031-884-7795","addr":"경기도 여주시 가남읍 태평리 153번지","indutype":"학원 - 유치원","category":"study"},{"name":"범영어린이집[아이행복]","tel":"031-884-7795","addr":"경기도 여주시 가남읍 태평리 153번지","indutype":"학원 - 유아원","category":"study"}]},{"lat":"37.203838269","long":"127.54750536","imageIndex":16,"items":[{"name":"숲속화가미술교습소","tel":"031-883-3757","addr":"경기도 여주시 가남읍 태평리 102-4번지","indutype":"학원 - 예·체능계학원","category":"study"}]},{"lat":"37.203869593","long":"127.54657065","imageIndex":16,"items":[{"name":"신의한수학원","tel":"031-883-2536","addr":"경기도 여주시 가남읍 태평리 177-2번지","indutype":"학원 - 보습학원","category":"study"}]},{"lat":"37.203143413","long":"127.54773692","imageIndex":16,"items":[{"name":"연세학원","tel":"031-882-0760","addr":"경기도 여주시 가남읍 태평리 106-7번지","indutype":"학원 - 보습학원","category":"study"}]},{"lat":"37.204365504","long":"127.54845536","imageIndex":16,"items":[{"name":"용인대청송태권도장","tel":"031-882-7278","addr":"경기도 여주시 가남읍 태평리 95-2번지","indutype":"학원 - 예·체능계학원","category":"study"}]},{"lat":"37.206111584","long":"127.53701176","imageIndex":16,"items":[{"name":"임당어린이집","tel":"031-884-8990","addr":"경기도 여주시 가남읍 태평리 326-1번지","indutype":"학원 - 유아원","category":"study"},{"name":"임당유치원[아이행복]","tel":"031-884-8990","addr":"경기도 여주시 가남읍 태평리 326-1번지","indutype":"학원 - 유치원","category":"study"}]},{"lat":"37.203864823","long":"127.54367568","imageIndex":16,"items":[{"name":"잉글리쉬 키","tel":"031-884-0660","addr":"경기도 여주시 가남읍 태평리 165번지 2층","indutype":"학원 - 보습학원","category":"study"}]},{"lat":"37.203700425","long":"127.54809011","imageIndex":16,"items":[{"name":"제일어린이집","tel":"031-882-0500","addr":"경기도 여주시 가남읍 태평리 106번지","indutype":"학원 - 유치원","category":"study"},{"name":"제일어린이집[아이행복]","tel":"031-882-0500","addr":"경기도 여주시 가남읍 태평리 106번지","indutype":"학원 - 유아원","category":"study"}]},{"lat":"37.203757024","long":"127.54753857","imageIndex":16,"items":[{"name":"참사랑인성태권도장","tel":"031-882-4093","addr":"경기도 여주시 가남읍 태평리 102-4번지","indutype":"학원 - 예·체능계학원","category":"study"}]},{"lat":"37.202615913","long":"127.54684326","imageIndex":16,"items":[{"name":"화랑체육관","tel":"031-883-3066","addr":"경기도 여주시 가남읍 태평리 110-7번지 3층","indutype":"학원 - 예·체능계학원","category":"study"}]}]