[{"lat":"37.461158","long":"127.12657","imageIndex":17,"items":[{"name":"(주) 에이치엔에스월드","tel":"031-759-7655","addr":"경기도 성남시 수정구 복정동 674-4번지","indutype":"","category":"other"}]},{"lat":"37.462581","long":"127.1271036","imageIndex":17,"items":[{"name":"㈜ 한양옵티칼","tel":"031-756-3143","addr":"경기도 성남시 수정구 복정동 660-7번지","indutype":"","category":"other"}]},{"lat":"37.4632751","long":"127.1267657","imageIndex":17,"items":[{"name":"가야미촌","tel":"031-754-0069","addr":"경기도 성남시 수정구 복정동 663번지","indutype":"","category":"other"}]},{"lat":"37.4612476","long":"127.1269884","imageIndex":17,"items":[{"name":"감초식당","tel":"031-756-3625","addr":"경기도 성남시 수정구 복정동 678-1번지","indutype":"","category":"other"}]},{"lat":"37.4644894","long":"127.1369295","imageIndex":17,"items":[{"name":"강서꽃농원","tel":"031-725-2142","addr":"경기도 성남시 수정구 복정동 183-2번지","indutype":"","category":"other"}]},{"lat":"37.4567968","long":"127.1269019","imageIndex":17,"items":[{"name":"귀한족발","tel":"031-754-2121","addr":"경기도 성남시 수정구 복정동 689-7번지","indutype":"","category":"other"}]},{"lat":"37.4586643","long":"127.1244863","imageIndex":17,"items":[{"name":"까치골가든","tel":"031-751-5449","addr":"경기도 성남시 수정구 복정동 459번지","indutype":"","category":"other"}]},{"lat":"37.4648246","long":"127.1352911","imageIndex":17,"items":[{"name":"꽃게돈갈비","tel":"031-755-1123","addr":"경기도 성남시 수정구 복정동 187-1번지","indutype":"","category":"other"}]},{"lat":"37.458437","long":"127.1264638","imageIndex":17,"items":[{"name":"넝쿨짐휘트니스","tel":"031-755-9300","addr":"경기도 성남시 수정구 복정동 685-8번지","indutype":"","category":"other"}]},{"lat":"37.4636621","long":"127.1271845","imageIndex":17,"items":[{"name":"동산마트","tel":"031-753-9057","addr":"경기도 성남시 수정구 복정동 647-9번지","indutype":"","category":"other"}]},{"lat":"37.4564356","long":"127.1276247","imageIndex":17,"items":[{"name":"만다린","tel":"031-751-4455","addr":"경기도 성남시 수정구 복정동 692-14번지","indutype":"","category":"other"}]},{"lat":"37.4605179","long":"127.1269307","imageIndex":17,"items":[{"name":"맘스터치 동서울대점","tel":"031-751-0027","addr":"경기도 성남시 수정구 복정동 678-7번지","indutype":"","category":"other"},{"name":"복정동서울약국","tel":"031-759-5398","addr":"경기도 성남시 수정구 복정동 678-7번지","indutype":"","category":"other"}]},{"lat":"37.4556879","long":"127.1274878","imageIndex":17,"items":[{"name":"매치스","tel":"031-759-0696","addr":"경기도 성남시 수정구 복정동 696번지","indutype":"","category":"other"}]},{"lat":"37.4550193","long":"127.129295","imageIndex":17,"items":[{"name":"미리내식품","tel":"031-758-3343","addr":"경기도 성남시 수정구 복정동 705번지","indutype":"","category":"other"}]},{"lat":"37.4553816","long":"127.1275099","imageIndex":17,"items":[{"name":"민속식당","tel":"031-751-7977","addr":"경기도 성남시 수정구 복정동 696-2번지","indutype":"","category":"other"}]},{"lat":"37.458882","long":"127.1472614","imageIndex":17,"items":[{"name":"벌교꼬막정식 남도향","tel":"031-751-5959","addr":"경기도 성남시 수정구 복정동 4-4번지","indutype":"","category":"other"}]},{"lat":"37.4548301","long":"127.1292947","imageIndex":17,"items":[{"name":"보떼헤어샵","tel":"031-759-3200","addr":"경기도 성남시 수정구 복정동 705-8번지","indutype":"","category":"other"}]},{"lat":"37.4537961","long":"127.127236","imageIndex":17,"items":[{"name":"복정 할인마트","tel":"031-752-6961","addr":"경기도 성남시 수정구 복정동 714번지","indutype":"","category":"other"}]},{"lat":"37.4623562","long":"127.126685","imageIndex":17,"items":[{"name":"부자 뿅의전설","tel":"","addr":"경기도 성남시 수정구 복정동 663-7번지","indutype":"","category":"other"},{"name":"부자뽕의전설","tel":"031-753-8680","addr":"경기도 성남시 수정구 복정동 663-7번지","indutype":"","category":"other"}]},{"lat":"37.4616634","long":"127.1420108","imageIndex":17,"items":[{"name":"산아래염소이야기 복정점","tel":"031-751-5009","addr":"경기도 성남시 수정구 복정동 47-3번지","indutype":"","category":"other"}]},{"lat":"37.465158","long":"127.1352351","imageIndex":17,"items":[{"name":"신찌네","tel":"031-756-9944","addr":"경기도 성남시 수정구 복정동 198-16번지","indutype":"","category":"other"}]},{"lat":"37.457662","long":"127.1265982","imageIndex":17,"items":[{"name":"쌈마을촌밥(쌈촌)","tel":"031-758-9276","addr":"경기도 성남시 수정구 복정동 689번지","indutype":"","category":"other"}]},{"lat":"37.4618798","long":"127.1418417","imageIndex":17,"items":[{"name":"약진로마트","tel":"031-757-5009","addr":"경기도 성남시 수정구 복정동 47-5번지","indutype":"","category":"other"}]},{"lat":"37.4646886","long":"127.1360708","imageIndex":17,"items":[{"name":"약진한우정","tel":"031-754-7030","addr":"경기도 성남시 수정구 복정동 186-2번지","indutype":"","category":"other"}]},{"lat":"37.4666907","long":"127.126014","imageIndex":17,"items":[{"name":"에덴꽃농원","tel":"031-759-4915","addr":"경기도 성남시 수정구 복정동 268-10번지","indutype":"","category":"other"}]},{"lat":"37.465718","long":"127.1339814","imageIndex":17,"items":[{"name":"옛골토성(남한산성점)","tel":"031-755-0199","addr":"경기도 성남시 수정구 복정동 233-1번지","indutype":"","category":"other"}]},{"lat":"37.4571028","long":"127.1272076","imageIndex":17,"items":[{"name":"옛날통닭 부뚜막치킨 복정점","tel":"031-759-5582","addr":"경기도 성남시 수정구 복정동 690-6번지","indutype":"","category":"other"}]},{"lat":"37.4580492","long":"127.126904","imageIndex":17,"items":[{"name":"오뚜기 부대찌개","tel":"031-752-1029","addr":"경기도 성남시 수정구 복정동 686-9번지","indutype":"","category":"other"}]},{"lat":"37.4629413","long":"127.1271268","imageIndex":17,"items":[{"name":"오토락","tel":"031-708-4441","addr":"경기도 성남시 수정구 복정동 660-4번지","indutype":"","category":"other"}]},{"lat":"37.4659962","long":"127.1266797","imageIndex":17,"items":[{"name":"오헤브베이비","tel":"031-1599-5548","addr":"경기도 성남시 수정구 복정동 643-2번지","indutype":"","category":"other"}]},{"lat":"37.4593832","long":"127.1264089","imageIndex":17,"items":[{"name":"우리동네 머리손질 가게","tel":"031-753-8381","addr":"경기도 성남시 수정구 복정동 685번지","indutype":"","category":"other"}]},{"lat":"37.4608872","long":"127.1269652","imageIndex":17,"items":[{"name":"월남선생 동서울대점","tel":"031-757-9482","addr":"경기도 성남시 수정구 복정동 678-4번지","indutype":"","category":"other"}]},{"lat":"37.4590493","long":"127.1268265","imageIndex":17,"items":[{"name":"준미용실","tel":"031-753-5725","addr":"경기도 성남시 수정구 복정동 686번지","indutype":"","category":"other"}]},{"lat":"37.4651574","long":"127.1274922","imageIndex":17,"items":[{"name":"진명족발&칼국수","tel":"031-755-8626","addr":"경기도 성남시 수정구 복정동 646-1번지","indutype":"","category":"other"}]},{"lat":"37.4642751","long":"127.1268239","imageIndex":17,"items":[{"name":"착한정육점식당","tel":"031-751-9289","addr":"경기도 성남시 수정구 복정동 645-7번지","indutype":"","category":"other"}]},{"lat":"37.4575178","long":"127.1266545","imageIndex":17,"items":[{"name":"참진해물짜장","tel":"031-723-8786","addr":"경기도 성남시 수정구 복정동 689-1번지","indutype":"","category":"other"}]},{"lat":"37.4566071","long":"127.1273537","imageIndex":17,"items":[{"name":"카페 콩더하기콩","tel":"070-4142-5839","addr":"경기도 성남시 수정구 복정동 692번지","indutype":"","category":"other"},{"name":"혜성카서비스","tel":"031-759-0150","addr":"경기도 성남시 수정구 복정동 692번지","indutype":"","category":"other"}]},{"lat":"37.4564358","long":"127.1274325","imageIndex":17,"items":[{"name":"카페테리","tel":"031-757-9060","addr":"경기도 성남시 수정구 복정동 692-15번지","indutype":"","category":"other"}]},{"lat":"37.4612173","long":"127.1300401","imageIndex":17,"items":[{"name":"키즈노트","tel":"031-721-7271","addr":"경기도 성남시 수정구 복정동 669-5번지","indutype":"","category":"other"}]},{"lat":"37.4648788","long":"127.1268475","imageIndex":17,"items":[{"name":"퍼니드럼학원","tel":"031-755-0916","addr":"경기도 성남시 수정구 복정동 645-2번지","indutype":"","category":"other"}]},{"lat":"37.460212","long":"127.1264894","imageIndex":17,"items":[{"name":"푸전포차아띠","tel":"031-755-0079","addr":"경기도 성남시 수정구 복정동 677-5번지","indutype":"","category":"other"},{"name":"하이파이브","tel":"031-756-9301","addr":"경기도 성남시 수정구 복정동 677-5번지","indutype":"","category":"other"}]},{"lat":"37.4596595","long":"127.1450927","imageIndex":17,"items":[{"name":"풍년유기질비료","tel":"031-1688-0911","addr":"경기도 성남시 수정구 복정동 24번지","indutype":"","category":"other"}]},{"lat":"37.4589146","long":"127.1264307","imageIndex":17,"items":[{"name":"하모니마트(동서울대점)","tel":"031-721-4995","addr":"경기도 성남시 수정구 복정동 685-3번지","indutype":"","category":"other"}]},{"lat":"37.4654925","long":"127.134241","imageIndex":17,"items":[{"name":"희망농원","tel":"031-759-4534","addr":"경기도 성남시 수정구 복정동 233-8번지","indutype":"","category":"other"}]}]