[{"lat":"37.215436845","long":"126.73078126","imageIndex":16,"items":[{"name":"(학)송산학원(송산중학교)","tel":"031-357-1020","addr":"경기도 화성시 송산면 사강리 551번지 1층","indutype":"학원 - 초중고교육기관","category":"study"}]},{"lat":"37.214016282","long":"126.73609262","imageIndex":16,"items":[{"name":"JAE 영어 공부방","tel":"031-357-0000","addr":"경기도 화성시 송산면 사강리 660-12번지","indutype":"학원 - 기타 교육기관","category":"study"}]},{"lat":"37.214991152","long":"126.73288962","imageIndex":16,"items":[{"name":"도레미피아노학원","tel":"031-357-1464","addr":"경기도 화성시 송산면 사강리 567-9번지 3층","indutype":"학원 - 예·체능계학원","category":"study"},{"name":"에이블학원","tel":"070-5025-9164","addr":"경기도 화성시 송산면 사강리 567-9번지 대흥빌딩 1층","indutype":"학원 - 보습학원","category":"study"},{"name":"하늘소리피아노학원","tel":"031-357-0201","addr":"경기도 화성시 송산면 사강리 567-9번지 1층","indutype":"학원 - 예·체능계학원","category":"study"}]},{"lat":"37.214321536","long":"126.73164148","imageIndex":16,"items":[{"name":"사강어린이집[아이행복]","tel":"031-357-5755","addr":"경기도 화성시 송산면 사강리 705-4번지","indutype":"학원 - 유아원","category":"study"}]},{"lat":"37.214964763","long":"126.73317137","imageIndex":16,"items":[{"name":"사강엘림피아노학원","tel":"031-357-4346","addr":"경기도 화성시 송산면 사강리 567-2번지 3층","indutype":"학원 - 예·체능계학원","category":"study"},{"name":"스칼렛영어학원","tel":"031-357-6965","addr":"경기도 화성시 송산면 사강리 567-2번지 301호","indutype":"학원 - 보습학원","category":"study"},{"name":"용인대석사 사강체육관","tel":"031-357-6592","addr":"경기도 화성시 송산면 사강리 567-2번지 302호","indutype":"학원 - 예·체능계학원","category":"study"},{"name":"파란수학전문학원","tel":"031-257-0360","addr":"경기도 화성시 송산면 사강리 567-2번지 201호","indutype":"학원 - 보습학원","category":"study"}]},{"lat":"37.214323776","long":"126.73262162","imageIndex":16,"items":[{"name":"송산초등학교병설유치원[아이행복]","tel":"031-357-6160","addr":"경기도 화성시 송산면 사강리 701번지 송산초등학교","indutype":"학원 - 유치원","category":"study"}]},{"lat":"37.214098237","long":"126.73647538","imageIndex":16,"items":[{"name":"에스제이비학원","tel":"031-355-7768","addr":"경기도 화성시 송산면 사강리 631-4번지","indutype":"학원 - 보습학원","category":"study"}]},{"lat":"37.214936474","long":"126.73261943","imageIndex":16,"items":[{"name":"예일학원","tel":"070-8170-4120","addr":"경기도 화성시 송산면 사강리 567-11번지 101호","indutype":"학원 - 보습학원","category":"study"},{"name":"카스토 영어 교습소","tel":"070-8170-4120","addr":"경기도 화성시 송산면 사강리 567-11번지 은혜빌딩 1층 102호","indutype":"학원 - 외국어학원","category":"study"}]},{"lat":"37.214929671","long":"126.73358834","imageIndex":16,"items":[{"name":"중앙아뜰리에미술교습소","tel":"","addr":"경기도 화성시 송산면 사강리 569-26번지 1층","indutype":"학원 - 예·체능계학원","category":"study"}]},{"lat":"37.214624958","long":"126.73431045","imageIndex":16,"items":[{"name":"튜티피아노 교습소","tel":"031-356-3652","addr":"경기도 화성시 송산면 사강리 687-12번지","indutype":"학원 - 예·체능계학원","category":"study"}]},{"lat":"37.21638058","long":"126.73369584","imageIndex":16,"items":[{"name":"하이즈먼어린이집[아이행복]","tel":"031-366-7915","addr":"경기도 화성시 송산면 사강리 583-1번지","indutype":"학원 - 유아원","category":"study"}]},{"lat":"37.214767742","long":"126.73370157","imageIndex":16,"items":[{"name":"헤세드학원","tel":"031-357-8879","addr":"경기도 화성시 송산면 사강리 688 외1필지2층","indutype":"학원 - 보습학원","category":"study"}]}]