[{"lat":"37.304731608","long":"126.77954811","imageIndex":0,"items":[{"name":"대광공조","tel":"031-493-6526","addr":"경기도 안산시 단원구 목내동 401-2 반월공단 6블럭11호","indutype":"자동차정비 유지 - 자동차부품","category":"car"},{"name":"신암정밀","tel":"031-492-6393","addr":"경기도 안산시 단원구 목내동 401-2번지","indutype":"자동차정비 유지 - 자동차부품","category":"car"}]},{"lat":"37.30070043","long":"126.77764262","imageIndex":0,"items":[{"name":"동남석유공업(주)","tel":"031-491-4201","addr":"경기도 안산시 단원구 목내동 408-3번지","indutype":"자동차정비 유지 - 윤활유 전문 판매","category":"car"}]},{"lat":"37.30384367","long":"126.77227556","imageIndex":0,"items":[{"name":"디테일러","tel":"","addr":"경기도 안산시 단원구 목내동 489-6번지","indutype":"자동차정비 유지 - 세차장","category":"car"},{"name":"오토오아시스목내점","tel":"031-495-4972","addr":"경기도 안산시 단원구 목내동 489-6번지","indutype":"자동차정비 유지 - 자동차시트·타이어","category":"car"}]},{"lat":"37.306731686","long":"126.77472573","imageIndex":0,"items":[{"name":"리산시스템","tel":"031-1111-1111","addr":"경기도 안산시 단원구 목내동 399-8번지","indutype":"자동차정비 유지 - 자동차정비","category":"car"}]},{"lat":"37.295174388","long":"126.76696751","imageIndex":0,"items":[{"name":"명성사","tel":"","addr":"경기도 안산시 단원구 목내동 524-2번지 시화MTV7사 703호","indutype":"자동차정비 유지 - 자동차부품","category":"car"}]},{"lat":"37.31284106","long":"126.77033037","imageIndex":0,"items":[{"name":"옵티마","tel":"031-493-8847","addr":"경기도 안산시 단원구 목내동 446-3번지","indutype":"자동차정비 유지 - 자동차부품","category":"car"}]},{"lat":"37.30394885","long":"126.7754109","imageIndex":0,"items":[{"name":"종현모터스","tel":"031-495-7878","addr":"경기도 안산시 단원구 목내동 403-3번지 광양프런티어밸리2 지식산업센터 1층 136호","indutype":"자동차정비 유지 - 자동차정비","category":"car"},{"name":"한주카서비스","tel":"031-508-0978","addr":"경기도 안산시 단원구 목내동 403-3번지 1층 101,102호","indutype":"자동차정비 유지 - 자동차정비","category":"car"},{"name":"한주카써비스","tel":"031-506-0978","addr":"경기도 안산시 단원구 목내동 403-3번지 1층 101,102","indutype":"자동차정비 유지 - 자동차정비","category":"car"},{"name":"현대부품","tel":"031-410-2400","addr":"경기도 안산시 단원구 목내동 403-3번지 광양프런티어밸리-2 지식산업센터 1층 136호","indutype":"자동차정비 유지 - 자동차부품","category":"car"}]},{"lat":"37.300649545","long":"126.76997315","imageIndex":0,"items":[{"name":"주식회사 에이치티씨","tel":"031-434-7813","addr":"경기도 안산시 단원구 목내동 491-2번지","indutype":"자동차정비 유지 - 자동차부품","category":"car"}]},{"lat":"37.310560479","long":"126.77444343","imageIndex":0,"items":[{"name":"주식회사 엘씨써키트","tel":"031-503-6005","addr":"경기도 안산시 단원구 목내동 448-9번지 2층","indutype":"자동차정비 유지 - 자동차부품","category":"car"}]},{"lat":"37.304343211","long":"126.77432689","imageIndex":0,"items":[{"name":"코막중공업주식회사","tel":"031-498-3223","addr":"경기도 안산시 단원구 목내동 403-9 반월공단6블럭28롯트","indutype":"자동차정비 유지 - 중장비수리","category":"car"}]}]