[{"lat":"37.672215388","long":"127.13284766","imageIndex":7,"items":[{"name":"(주)유정에프앤비","tel":"02-1599-2987","addr":"경기도 남양주시 별내동 880-7번지 1층","indutype":"음료식품 - 기타음료식품","category":"food"}]},{"lat":"37.69471302","long":"127.10479061","imageIndex":7,"items":[{"name":"21세기일품고기장터","tel":"031-529-3030","addr":"경기도 남양주시 별내동 2321-1번지","indutype":"음료식품 - 정육점","category":"food"}]},{"lat":"37.655280197","long":"127.13009839","imageIndex":7,"items":[{"name":"가락동농수산물시장","tel":"070-5266-2693","addr":"경기도 남양주시 별내동 81-29번지","indutype":"음료식품 - 농·축·수산품","category":"food"}]},{"lat":"37.669443052","long":"127.13042859","imageIndex":7,"items":[{"name":"경남후디스생명과학","tel":"031-2209-0600","addr":"경기도 남양주시 별내동 1642-20번지","indutype":"음료식품 - 기타음료식품","category":"food"}]},{"lat":"37.652304565","long":"127.10476663","imageIndex":7,"items":[{"name":"경동수산","tel":"031-571-0578","addr":"경기도 남양주시 별내동 640-7번지 외 4필지","indutype":"음료식품 - 농·축·수산품","category":"food"}]},{"lat":"37.646613199","long":"127.1211208","imageIndex":7,"items":[{"name":"고기주세요","tel":"031-575-3250","addr":"경기도 남양주시 별내동 1026번지 오션타워 102호","indutype":"음료식품 - 정육점","category":"food"}]},{"lat":"37.667304896","long":"127.11554322","imageIndex":7,"items":[{"name":"고기창고","tel":"070-7644-5684","addr":"경기도 남양주시 별내동 828-5번지 1층","indutype":"음료식품 - 정육점","category":"food"}]},{"lat":"37.665160467","long":"127.11567598","imageIndex":7,"items":[{"name":"고기화","tel":"031-575-6769","addr":"경기도 남양주시 별내동 847-4번지 1층 103호","indutype":"음료식품 - 정육점","category":"food"}]},{"lat":"37.646944667","long":"127.11379014","imageIndex":7,"items":[{"name":"과일과게","tel":"","addr":"경기도 남양주시 별내동 1048번지 미리내마을4-2단지 4206동 1406호","indutype":"음료식품 - 농·축·수산품","category":"food"},{"name":"두레박 야채가게","tel":"031-572-7585","addr":"경기도 남양주시 별내동 1048번지 미리내마을4-2단지 상가동 107호","indutype":"음료식품 - 농·축·수산품","category":"food"}]},{"lat":"37.654801157","long":"127.12295827","imageIndex":7,"items":[{"name":"광덕수산","tel":"","addr":"경기도 남양주시 별내동 919번지 별내효성해링턴코트 2603동 203호","indutype":"음료식품 - 농·축·수산품","category":"food"}]},{"lat":"37.651055495","long":"127.11120131","imageIndex":7,"items":[{"name":"광장수산","tel":"031-571-2348","addr":"경기도 남양주시 별내동 1100번지 1층 101호","indutype":"음료식품 - 농·축·수산품","category":"food"}]},{"lat":"37.651250793","long":"127.10434592","imageIndex":7,"items":[{"name":"광희농원","tel":"031-529-8558","addr":"경기도 남양주시 별내동 653외3필지","indutype":"음료식품 - 농·축·수산품","category":"food"}]},{"lat":"37.665249551","long":"127.11673016","imageIndex":7,"items":[{"name":"굿샵 별내점","tel":"031-572-2340","addr":"경기도 남양주시 별내동 846-4번지 1층","indutype":"음료식품 - 기타음료식품","category":"food"}]},{"lat":"37.666576693","long":"127.11387602","imageIndex":7,"items":[{"name":"권혜정맛꾸미","tel":"031-528-6785","addr":"경기도 남양주시 별내동 832-3번지","indutype":"음료식품 - 기타음료식품","category":"food"}]},{"lat":"37.650411027","long":"127.11628824","imageIndex":7,"items":[{"name":"그린농산물","tel":"","addr":"경기도 남양주시 별내동 1049번지 별빛마을3단지 3307동 1607호","indutype":"음료식품 - 농·축·수산품","category":"food"}]},{"lat":"37.650305886","long":"127.11314924","imageIndex":7,"items":[{"name":"그집식빵","tel":"070-7604-0715","addr":"경기도 남양주시 별내동 1091-6번지 1층","indutype":"음료식품 - 제과점","category":"food"},{"name":"별내떡집","tel":"031-571-0111","addr":"경기도 남양주시 별내동 1091-6번지 101호","indutype":"음료식품 - 제과점","category":"food"},{"name":"빵공장띠에리","tel":"031-573-1589","addr":"경기도 남양주시 별내동 1091-6번지 1층 103호","indutype":"음료식품 - 제과점","category":"food"}]},{"lat":"37.647634674","long":"127.11770041","imageIndex":7,"items":[{"name":"나라상사","tel":"","addr":"경기도 남양주시 별내동 1054번지 별빛마을3-5단지 3505동 1506호","indutype":"음료식품 - 농·축·수산품","category":"food"}]},{"lat":"37.64536469","long":"127.12617235","imageIndex":7,"items":[{"name":"남양헬스케어","tel":"031-573-7460","addr":"경기도 남양주시 별내동 1006-3번지 111,112","indutype":"건강식품 - 기타건강식품","category":"food"},{"name":"정관장 별내신도시점","tel":"031-529-6254","addr":"경기도 남양주시 별내동 1006-3번지 1층","indutype":"건강식품 - 홍삼제품","category":"food"}]},{"lat":"37.66638658","long":"127.11483912","imageIndex":7,"items":[{"name":"다뺀다방","tel":"031-573-7778","addr":"경기도 남양주시 별내동 831-4번지 1층","indutype":"건강식품 - 기타건강식품","category":"food"}]},{"lat":"37.651386687","long":"127.11353612","imageIndex":7,"items":[{"name":"단아루","tel":"070-7435-3993","addr":"경기도 남양주시 별내동 1089-1번지 1층","indutype":"음료식품 - 기타음료식품","category":"food"}]},{"lat":"37.658383378","long":"127.1264772","imageIndex":7,"items":[{"name":"달달한시간","tel":"031-527-7209","addr":"경기도 남양주시 별내동 948-6번지 101호","indutype":"음료식품 - 제과점","category":"food"}]},{"lat":"37.651467901","long":"127.11340026","imageIndex":7,"items":[{"name":"달콤농장","tel":"031-572-4031","addr":"경기도 남양주시 별내동 1089번지 101호","indutype":"음료식품 - 농·축·수산품","category":"food"}]},{"lat":"37.651890621","long":"127.11418278","imageIndex":7,"items":[{"name":"달콤한 동그라미","tel":"031-1111-1111","addr":"경기도 남양주시 별내동 1085-10번지 101호","indutype":"음료식품 - 제과점","category":"food"}]},{"lat":"37.666275895","long":"127.11751377","imageIndex":7,"items":[{"name":"더 다올 인터내셔널","tel":"031-529-4261","addr":"경기도 남양주시 별내동 826-7번지 서울프라자 603-1호","indutype":"음료식품 - 기타음료식품","category":"food"},{"name":"신한헬스하우스","tel":"031-527-0657","addr":"경기도 남양주시 별내동 826-7번지 201호","indutype":"건강식품 - 기타건강식품","category":"food"}]},{"lat":"37.646328786","long":"127.12611729","imageIndex":7,"items":[{"name":"더달달(The달달)","tel":"070-7423-6603","addr":"경기도 남양주시 별내동 1007-1번지 별내엘리츠오피스텔1차 1동 104B호","indutype":"음료식품 - 제과점","category":"food"}]},{"lat":"37.665242793","long":"127.11437272","imageIndex":7,"items":[{"name":"더달콤베이킹스튜디오","tel":"070-7620-9395","addr":"경기도 남양주시 별내동 848번지 1층 일부","indutype":"음료식품 - 제과점","category":"food"}]},{"lat":"37.665306278","long":"127.11393079","imageIndex":7,"items":[{"name":"더맛 (The맛)","tel":"031-571-2060","addr":"경기도 남양주시 별내동 838번지 101호","indutype":"음료식품 - 기타음료식품","category":"food"}]},{"lat":"37.647499103","long":"127.10851067","imageIndex":7,"items":[{"name":"덕화농원","tel":"031-528-8674","addr":"경기도 남양주시 별내동 569-4 외8필지","indutype":"음료식품 - 농·축·수산품","category":"food"}]},{"lat":"37.645608236","long":"127.12590082","imageIndex":7,"items":[{"name":"던킨도너츠 남양주별내점","tel":"031-111-1111","addr":"경기도 남양주시 별내동 1006-2번지 진영N타워1 101호","indutype":"음료식품 - 제과점","category":"food"},{"name":"한국커피컴퍼니","tel":"031-528-4644","addr":"경기도 남양주시 별내동 1006-2번지 6층 603호","indutype":"음료식품 - 기타음료식품","category":"food"}]},{"lat":"37.666579506","long":"127.12900694","imageIndex":7,"items":[{"name":"동우농산","tel":"031-573-0818","addr":"경기도 남양주시 별내동 1649-9번지 1층","indutype":"음료식품 - 기타음료식품","category":"food"}]},{"lat":"37.647665824","long":"127.12261818","imageIndex":7,"items":[{"name":"두부장수","tel":"031-528-0328","addr":"경기도 남양주시 별내동 1023번지 1층 103호","indutype":"음료식품 - 기타음료식품","category":"food"},{"name":"두부장수","tel":"031-528-0328","addr":"경기도 남양주시 별내동 1023번지 103호","indutype":"음료식품 - 기타음료식품","category":"food"}]},{"lat":"37.649585621","long":"127.12189605","imageIndex":7,"items":[{"name":"땅스부대찌개(별내점)","tel":"","addr":"경기도 남양주시 별내동 1060번지 동익미라벨 3903동 1층 13-2호","indutype":"음료식품 - 기타음료식품","category":"food"},{"name":"진이찬방 별내점","tel":"031-528-6618","addr":"경기도 남양주시 별내동 1060번지 3904동 제1층 19-2호","indutype":"음료식품 - 기타음료식품","category":"food"}]},{"lat":"37.666195347","long":"127.11695829","imageIndex":7,"items":[{"name":"떡가람","tel":"031-529-7771","addr":"경기도 남양주시 별내동 841-1번지 101호 102","indutype":"음료식품 - 제과점","category":"food"}]},{"lat":"37.646831145","long":"127.11939883","imageIndex":7,"items":[{"name":"떡다래","tel":"031-573-2288","addr":"경기도 남양주시 별내동 1056번지 별내신도시쌍용예가 13호","indutype":"음료식품 - 제과점","category":"food"}]},{"lat":"37.647467887","long":"127.12234591","imageIndex":7,"items":[{"name":"떡본","tel":"031-572-7704","addr":"경기도 남양주시 별내동 1023-2번지","indutype":"음료식품 - 제과점","category":"food"}]},{"lat":"37.652222299","long":"127.11595104","imageIndex":7,"items":[{"name":"뚜레쥬르카페 별내미리내점","tel":"070-7622-1722","addr":"경기도 남양주시 별내동 1079-5번지 1층","indutype":"음료식품 - 제과점","category":"food"}]},{"lat":"37.66630355","long":"127.11686778","imageIndex":7,"items":[{"name":"라푸르타","tel":"","addr":"경기도 남양주시 별내동 841번지 1층 102호","indutype":"음료식품 - 농·축·수산품","category":"food"}]},{"lat":"37.643737366","long":"127.11362675","imageIndex":7,"items":[{"name":"런 존","tel":"","addr":"경기도 남양주시 별내동 1041번지 별내한화꿈에그린더스타 4607동 601호","indutype":"음료식품 - 기타음료식품","category":"food"}]},{"lat":"37.645860802","long":"127.12561796","imageIndex":7,"items":[{"name":"로데오매점","tel":"070-8807-3007","addr":"경기도 남양주시 별내동 1006-1번지 별내로데오몰 3층 306호","indutype":"음료식품 - 기타음료식품","category":"food"}]},{"lat":"37.657471692","long":"127.12809625","imageIndex":7,"items":[{"name":"롤링핀 별내카페거리점","tel":"070-7617-4281","addr":"경기도 남양주시 별내동 954-3번지 1층","indutype":"음료식품 - 제과점","category":"food"}]},{"lat":"37.666021006","long":"127.11073569","imageIndex":7,"items":[{"name":"리더스기프트","tel":"","addr":"경기도 남양주시 별내동 1183-2번지 302호","indutype":"음료식품 - 기타음료식품","category":"food"}]},{"lat":"37.651415726","long":"127.11137181","imageIndex":7,"items":[{"name":"린스테이블","tel":"070-8736-3679","addr":"경기도 남양주시 별내동 1106-7번지 주건축물제1동 1층 일부","indutype":"음료식품 - 기타음료식품","category":"food"}]},{"lat":"37.648721693","long":"127.12089751","imageIndex":7,"items":[{"name":"마마쿡 로데오점","tel":"031-574-6756","addr":"경기도 남양주시 별내동 1058번지 동익미라벨 3804동 14-1,14-2호","indutype":"음료식품 - 기타음료식품","category":"food"}]},{"lat":"37.651383482","long":"127.11690163","imageIndex":7,"items":[{"name":"마을교육경제공동체별내고사회적협동조합","tel":"070-4127-0780","addr":"경기도 남양주시 별내동 1051번지 별내고등학교","indutype":"음료식품 - 기타음료식품","category":"food"}]},{"lat":"37.648222886","long":"127.12412613","imageIndex":7,"items":[{"name":"마이미트","tel":"070-2687-0024","addr":"경기도 남양주시 별내동 1013-1번지 101호","indutype":"음료식품 - 정육점","category":"food"}]},{"lat":"37.644550312","long":"127.11139581","imageIndex":7,"items":[{"name":"맑은사람","tel":"031-572-3218","addr":"경기도 남양주시 별내동 558-128번지 2층 201호","indutype":"건강식품 - 기타건강식품","category":"food"}]},{"lat":"37.655716444","long":"127.12654077","imageIndex":7,"items":[{"name":"몽뜨랑","tel":"031-571-4932","addr":"경기도 남양주시 별내동 936-4번지 황산빌딩 1층 103-1호","indutype":"음료식품 - 제과점","category":"food"},{"name":"허니버켓","tel":"031-527-3393","addr":"경기도 남양주시 별내동 936-4번지 황산빌딩 103호","indutype":"음료식품 - 기타음료식품","category":"food"}]},{"lat":"37.656634585","long":"127.1273469","imageIndex":7,"items":[{"name":"몽슈슈","tel":"","addr":"경기도 남양주시 별내동 952-1번지 101호","indutype":"음료식품 - 제과점","category":"food"}]},{"lat":"37.649446755","long":"127.10675706","imageIndex":7,"items":[{"name":"무지개떡방아간","tel":"031-527-8593","addr":"경기도 남양주시 별내동 625-35번지","indutype":"음료식품 - 제과점","category":"food"},{"name":"불암산코너 편의점","tel":"031-527-8835","addr":"경기도 남양주시 별내동 625-35번지","indutype":"음료식품 - 기타음료식품","category":"food"}]},{"lat":"37.65108103","long":"127.10267993","imageIndex":7,"items":[{"name":"바울농장","tel":"031-527-9930","addr":"경기도 남양주시 별내동 654-14","indutype":"음료식품 - 농·축·수산품","category":"food"}]},{"lat":"37.666609473","long":"127.11728761","imageIndex":7,"items":[{"name":"배스킨라빈스 별내북부점","tel":"031-528-2338","addr":"경기도 남양주시 별내동 826-5번지 광장프라자 1층 104호","indutype":"음료식품 - 제과점","category":"food"}]},{"lat":"37.642725135","long":"127.12589606","imageIndex":7,"items":[{"name":"배스킨라빈스별내이마트점","tel":"031-572-2999","addr":"경기도 남양주시 별내동 989번지 별내이마트 2층","indutype":"음료식품 - 제과점","category":"food"}]},{"lat":"37.650189277","long":"127.11259383","imageIndex":7,"items":[{"name":"베스킨라빈스","tel":"031-528-5961","addr":"경기도 남양주시 별내동 1097-2번지 성산메디컬타워 104,105호","indutype":"음료식품 - 제과점","category":"food"}]},{"lat":"37.646245757","long":"127.10961932","imageIndex":7,"items":[{"name":"베이커리그릇","tel":"031-528-5640","addr":"경기도 남양주시 별내동 564번지 1층 일부","indutype":"음료식품 - 기타음료식품","category":"food"}]},{"lat":"37.667610191","long":"127.11662043","imageIndex":7,"items":[{"name":"별가람 건강","tel":"031-529-3307","addr":"경기도 남양주시 별내동 826번지 천보프라자 301호","indutype":"건강식품 - 기타건강식품","category":"food"},{"name":"파리바게트 별내북부역점","tel":"031-527-4464","addr":"경기도 남양주시 별내동 826번지 108호","indutype":"음료식품 - 제과점","category":"food"}]},{"lat":"37.644306946","long":"127.11150877","imageIndex":7,"items":[{"name":"별내로또(픽미픽미아이스삼육대점)","tel":"","addr":"경기도 남양주시 별내동 558-3번지 102호","indutype":"음료식품 - 기타음료식품","category":"food"}]},{"lat":"37.669909168","long":"127.13261695","imageIndex":7,"items":[{"name":"별내반찬","tel":"031-573-9727","addr":"경기도 남양주시 별내동 872번지 별내하우스토리근린생활시설 1층 110호","indutype":"음료식품 - 기타음료식품","category":"food"}]},{"lat":"37.652106543","long":"127.11451172","imageIndex":7,"items":[{"name":"별내엄마반찬","tel":"031-527-5557","addr":"경기도 남양주시 별내동 1085-3번지 1층","indutype":"음료식품 - 기타음료식품","category":"food"}]},{"lat":"37.652832286","long":"127.11870562","imageIndex":7,"items":[{"name":"별빛도서관매점","tel":"","addr":"경기도 남양주시 별내동 1062번지 1층","indutype":"음료식품 - 기타음료식품","category":"food"}]},{"lat":"37.656749711","long":"127.12922829","imageIndex":7,"items":[{"name":"보엘라플라워라이스케익","tel":"031-000-0000","addr":"경기도 남양주시 별내동 967-1번지","indutype":"음료식품 - 기타음료식품","category":"food"}]},{"lat":"37.651195769","long":"127.11534891","imageIndex":7,"items":[{"name":"복떡복떡","tel":"031-528-4242","addr":"경기도 남양주시 별내동 1080-7번지 1층 102호","indutype":"음료식품 - 제과점","category":"food"}]},{"lat":"37.686268831","long":"127.10726186","imageIndex":7,"items":[{"name":"복지충전소","tel":"031-1544-2131","addr":"경기도 남양주시 별내동 2270번지 2동","indutype":"음료식품 - 농·축·수산품","category":"food"}]},{"lat":"37.666221361","long":"127.10836718","imageIndex":7,"items":[{"name":"불암산 토속된장","tel":"031-528-0827","addr":"경기도 남양주시 별내동 산237-7번지","indutype":"음료식품 - 기타음료식품","category":"food"}]},{"lat":"37.666052445","long":"127.11565466","imageIndex":7,"items":[{"name":"브레드셀프","tel":"031-572-4424","addr":"경기도 남양주시 별내동 839번지 101호","indutype":"음료식품 - 제과점","category":"food"}]},{"lat":"37.66777825","long":"127.11981693","imageIndex":7,"items":[{"name":"비&에스(B&S)","tel":"031-529-1238","addr":"경기도 남양주시 별내동 2167-34번지","indutype":"음료식품 - 기타음료식품","category":"food"}]},{"lat":"37.646086303","long":"127.12536905","imageIndex":7,"items":[{"name":"비센(VIA SAINE)","tel":"070-7433-0565","addr":"경기도 남양주시 별내동 1006번지 로뎀타워 1층 110호","indutype":"음료식품 - 제과점","category":"food"}]},{"lat":"37.644833758","long":"127.11656303","imageIndex":7,"items":[{"name":"사랑이네과일가게","tel":"031-528-9720","addr":"경기도 남양주시 별내동 1037번지 미리내마을4-4 4408동 201호","indutype":"음료식품 - 농·축·수산품","category":"food"},{"name":"샘골농산물","tel":"","addr":"경기도 남양주시 별내동 1037번지 미리내마을4-4단지 4401동 405호","indutype":"음료식품 - 농·축·수산품","category":"food"},{"name":"시범농산물","tel":"","addr":"경기도 남양주시 별내동 1037번지 미리내마을4-4단지 4404동 1405호","indutype":"음료식품 - 농·축·수산품","category":"food"},{"name":"한우리","tel":"031-528-4951","addr":"경기도 남양주시 별내동 1037번지 미리내마을4-4단지 101호","indutype":"음료식품 - 정육점","category":"food"}]},{"lat":"37.649667745","long":"127.10120495","imageIndex":7,"items":[{"name":"산들건강생활","tel":"031-529-8876","addr":"경기도 남양주시 별내동 782-3번지","indutype":"음료식품 - 기타음료식품","category":"food"}]},{"lat":"37.649911639","long":"127.11079171","imageIndex":7,"items":[{"name":"삼영농원","tel":"031-573-0535","addr":"경기도 남양주시 별내동 621-68","indutype":"음료식품 - 농·축·수산품","category":"food"}]},{"lat":"37.642946244","long":"127.12112632","imageIndex":7,"items":[{"name":"서로사랑 사회적협동조합","tel":"031-529-5906","addr":"경기도 남양주시 별내동 998번지 별내노블레스 6층 610호","indutype":"음료식품 - 기타음료식품","category":"food"},{"name":"세화","tel":"02-949-5766","addr":"경기도 남양주시 별내동 998번지 별내노블레스 8층제805-2호","indutype":"음료식품 - 기타음료식품","category":"food"},{"name":"암승모 주식회사","tel":"031-1661-7552","addr":"경기도 남양주시 별내동 998번지 별내노블레스 7층 710-1호","indutype":"건강식품 - 기타건강식품","category":"food"},{"name":"주식회사 씨드웹","tel":"031-527-2951","addr":"경기도 남양주시 별내동 998번지 노블레스빌딩 407호 일부","indutype":"건강식품 - 홍삼제품","category":"food"}]},{"lat":"37.660409993","long":"127.12701321","imageIndex":7,"items":[{"name":"선우유통","tel":"031-572-1389","addr":"경기도 남양주시 별내동 2025-3번지","indutype":"음료식품 - 기타음료식품","category":"food"}]},{"lat":"37.643884559","long":"127.1103411","imageIndex":7,"items":[{"name":"섬강애초록뜰","tel":"031-575-7876","addr":"경기도 남양주시 별내동 558-63번지 101호","indutype":"음료식품 - 기타음료식품","category":"food"}]},{"lat":"37.670993737","long":"127.12078542","imageIndex":7,"items":[{"name":"송림농원","tel":"031-573-5785","addr":"경기도 남양주시 별내동 산234번지","indutype":"음료식품 - 농·축·수산품","category":"food"}]},{"lat":"37.664972375","long":"127.11450832","imageIndex":7,"items":[{"name":"송화잔기지떡(남양주점)","tel":"031-574-0022","addr":"경기도 남양주시 별내동 850번지","indutype":"음료식품 - 제과점","category":"food"}]},{"lat":"37.682492553","long":"127.10865095","imageIndex":7,"items":[{"name":"수인씨의마당","tel":"031-573-0980","addr":"경기도 남양주시 별내동 2265-4번지","indutype":"음료식품 - 기타음료식품","category":"food"},{"name":"수인씨의마당","tel":"031-573-2286","addr":"경기도 남양주시 별내동 2265-4번지","indutype":"음료식품 - 기타음료식품","category":"food"}]},{"lat":"37.648217015","long":"127.101407","imageIndex":7,"items":[{"name":"수정농원","tel":"031-527-9935","addr":"경기도 남양주시 별내동 741-1번지","indutype":"음료식품 - 농·축·수산품","category":"food"}]},{"lat":"37.659300281","long":"127.12845064","imageIndex":7,"items":[{"name":"쉐안나(chez anna)","tel":"00-1661-6268","addr":"경기도 남양주시 별내동 957-1번지 1층 101호 일부","indutype":"음료식품 - 제과점","category":"food"}]},{"lat":"37.647475547","long":"127.12367167","imageIndex":7,"items":[{"name":"스마일 명품 찹쌀꽈배기","tel":"031-527-4488","addr":"경기도 남양주시 별내동 1016번지 메인프라자 1층 102호","indutype":"음료식품 - 기타음료식품","category":"food"}]},{"lat":"37.647305965","long":"127.12209637","imageIndex":7,"items":[{"name":"스웰즈베이커리","tel":"031-528-7526","addr":"경기도 남양주시 별내동 1023-4번지 1층","indutype":"음료식품 - 제과점","category":"food"}]},{"lat":"37.66641486","long":"127.11351309","imageIndex":7,"items":[{"name":"스윗테이블","tel":"","addr":"경기도 남양주시 별내동 832번지 1층 일부호","indutype":"음료식품 - 기타음료식품","category":"food"}]},{"lat":"37.66694305","long":"127.11706144","imageIndex":7,"items":[{"name":"슬림점핑다이어트","tel":"","addr":"경기도 남양주시 별내동 826-3번지 다우프라자 204호","indutype":"건강식품 - 기타건강식품","category":"food"},{"name":"아브레어뺑(arbre a pain)","tel":"031-528-6263","addr":"경기도 남양주시 별내동 826-3번지","indutype":"음료식품 - 제과점","category":"food"}]},{"lat":"37.686630005","long":"127.10636674","imageIndex":7,"items":[{"name":"시골풍경","tel":"031-574-9746","addr":"경기도 남양주시 별내동 2272-8번지 외2필지","indutype":"음료식품 - 기타음료식품","category":"food"}]},{"lat":"37.673441223","long":"127.13237373","imageIndex":7,"items":[{"name":"시온치아바타","tel":"031-573-4044","addr":"경기도 남양주시 별내동 877번지 101호","indutype":"음료식품 - 제과점","category":"food"}]},{"lat":"37.644395127","long":"127.11357107","imageIndex":7,"items":[{"name":"식객","tel":"","addr":"경기도 남양주시 별내동 1041번지 별내한화꿈에그린더스타 119호","indutype":"음료식품 - 기타음료식품","category":"food"},{"name":"웰빙푸줏간","tel":"031-529-4001","addr":"경기도 남양주시 별내동 1041번지 별내한화꿈에그린더스타 상가동 120,121호","indutype":"음료식품 - 정육점","category":"food"},{"name":"웰빙푸줏간 (별내점)","tel":"031-529-4001","addr":"경기도 남양주시 별내동 1041번지 별내한화꿈에그린더스타 상가동 120호,121호","indutype":"음료식품 - 정육점","category":"food"},{"name":"픽미픽미아이스 별내점","tel":"","addr":"경기도 남양주시 별내동 1041번지 별내한화꿈에그린더스타 제상가동 1층 112호","indutype":"음료식품 - 기타음료식품","category":"food"},{"name":"하루반찬","tel":"070-4100-4124","addr":"경기도 남양주시 별내동 1041번지 별내한화꿈에그린더스타 상가동 1층 101호","indutype":"음료식품 - 기타음료식품","category":"food"}]},{"lat":"37.650440925","long":"127.11326276","imageIndex":7,"items":[{"name":"신세계 축산","tel":"031-575-6733","addr":"경기도 남양주시 별내동 1091-5번지 103호","indutype":"음료식품 - 정육점","category":"food"}]},{"lat":"37.665638293","long":"127.11534802","imageIndex":7,"items":[{"name":"신세계축산 2호점","tel":"070-7762-7702","addr":"경기도 남양주시 별내동 847번지 1층","indutype":"음료식품 - 정육점","category":"food"}]},{"lat":"37.666438179","long":"127.11740068","imageIndex":7,"items":[{"name":"아리","tel":"031-573-8340","addr":"경기도 남양주시 별내동 826-6번지 불암타워 1층 104호","indutype":"음료식품 - 기타음료식품","category":"food"}]},{"lat":"37.651745705","long":"127.11498712","imageIndex":7,"items":[{"name":"야채나라","tel":"031-528-2772","addr":"경기도 남양주시 별내동 1083-2번지","indutype":"음료식품 - 농·축·수산품","category":"food"}]},{"lat":"37.681802955","long":"127.10392272","imageIndex":7,"items":[{"name":"약수농원","tel":"031-527-8307","addr":"경기도 남양주시 별내동 2225-5번지","indutype":"음료식품 - 농·축·수산품","category":"food"},{"name":"약수농원","tel":"031-527-8307","addr":"경기도 남양주시 별내동 2225-5번지","indutype":"음료식품 - 농·축·수산품","category":"food"}]},{"lat":"37.667132384","long":"127.11692572","imageIndex":7,"items":[{"name":"양구백토체험방","tel":"031-551-0869","addr":"경기도 남양주시 별내동 826-2번지 501호","indutype":"건강식품 - 기타건강식품","category":"food"}]},{"lat":"37.684410706","long":"127.10965131","imageIndex":7,"items":[{"name":"양지농원","tel":"","addr":"경기도 남양주시 별내동 2259-5번지","indutype":"음료식품 - 농·축·수산품","category":"food"}]},{"lat":"37.682159226","long":"127.10861647","imageIndex":7,"items":[{"name":"양지농장","tel":"031-527-0946","addr":"경기도 남양주시 별내동 2233-1","indutype":"음료식품 - 정육점","category":"food"}]},{"lat":"37.666747514","long":"127.11426163","imageIndex":7,"items":[{"name":"어수김","tel":"031-529-4687","addr":"경기도 남양주시 별내동 832-6번지 별내택지개발지구 57-1","indutype":"음료식품 - 기타음료식품","category":"food"}]},{"lat":"37.651555973","long":"127.11554209","imageIndex":7,"items":[{"name":"엄마의꿈","tel":"031-575-6854","addr":"경기도 남양주시 별내동 1080-4번지 1층 101호","indutype":"음료식품 - 기타음료식품","category":"food"}]},{"lat":"37.665829158","long":"127.11359156","imageIndex":7,"items":[{"name":"연우축산","tel":"031-528-3316","addr":"경기도 남양주시 별내동 835-4번지","indutype":"음료식품 - 정육점","category":"food"}]},{"lat":"37.665582284","long":"127.1173767","imageIndex":7,"items":[{"name":"오늘반찬","tel":"031-527-9335","addr":"경기도 남양주시 별내동 841-6번지 1층 103호","indutype":"음료식품 - 기타음료식품","category":"food"}]},{"lat":"37.647250189","long":"127.12378461","imageIndex":7,"items":[{"name":"오케이한우","tel":"031-573-0234","addr":"경기도 남양주시 별내동 1016-1번지 메인프라자 103호","indutype":"음료식품 - 정육점","category":"food"}]},{"lat":"37.650358686","long":"127.11448645","imageIndex":7,"items":[{"name":"올때 아이스크림 할인점","tel":"","addr":"경기도 남양주시 별내동 1096-6번지 1층 102호","indutype":"음료식품 - 기타음료식품","category":"food"}]},{"lat":"37.656663595","long":"127.12545442","imageIndex":7,"items":[{"name":"올어바웃티비체(ALL ABOUT TEA VICHE)","tel":"","addr":"경기도 남양주시 별내동 932-7번지 도원빌딩 501호","indutype":"음료식품 - 기타음료식품","category":"food"}]},{"lat":"37.665332708","long":"127.11456553","imageIndex":7,"items":[{"name":"윤서네바른수라상","tel":"031-528-6263","addr":"경기도 남양주시 별내동 848-1번지 1층","indutype":"음료식품 - 기타음료식품","category":"food"}]},{"lat":"37.659579828","long":"127.11943008","imageIndex":7,"items":[{"name":"의리의젓갈","tel":"","addr":"경기도 남양주시 별내동 913번지 별사랑마을2-10단지 2001동 704층","indutype":"음료식품 - 농·축·수산품","category":"food"},{"name":"정성담아","tel":"031-571-7369","addr":"경기도 남양주시 별내동 913번지 별사랑마을2-10단지 2001동 1506호","indutype":"음료식품 - 기타음료식품","category":"food"},{"name":"조은농산물","tel":"031-527-8443","addr":"경기도 남양주시 별내동 913번지 별사랑마을2-10단지 2002동 1105호","indutype":"음료식품 - 미곡상","category":"food"}]},{"lat":"37.648609797","long":"127.10567942","imageIndex":7,"items":[{"name":"이화농원","tel":"031-527-9246","addr":"경기도 남양주시 별내동 702-4번지","indutype":"음료식품 - 농·축·수산품","category":"food"},{"name":"이화농원","tel":"031-528-0318","addr":"경기도 남양주시 별내동 702-4번지","indutype":"음료식품 - 농·축·수산품","category":"food"}]},{"lat":"37.657412546","long":"127.12434505","imageIndex":7,"items":[{"name":"일동팜","tel":"031-573-3875","addr":"경기도 남양주시 별내동 933-1번지 2층","indutype":"건강식품 - 기타건강식품","category":"food"}]},{"lat":"37.651079042","long":"127.11492946","imageIndex":7,"items":[{"name":"자미당 별내점","tel":"031-573-4747","addr":"경기도 남양주시 별내동 1084-6번지 파인빌 1층 일부","indutype":"음료식품 - 기타음료식품","category":"food"}]},{"lat":"37.649557763","long":"127.11348808","imageIndex":7,"items":[{"name":"장독대","tel":"031-573-5266","addr":"경기도 남양주시 별내동 1097-7번지 108호","indutype":"음료식품 - 기타음료식품","category":"food"},{"name":"파리바게트(별내신안점)","tel":"031-575-9677","addr":"경기도 남양주시 별내동 1097-7번지 101호 (101호~102호)","indutype":"음료식품 - 제과점","category":"food"}]},{"lat":"37.648750071","long":"127.11004216","imageIndex":7,"items":[{"name":"장수회집","tel":"031-575-9233","addr":"경기도 남양주시 별내동 603번지 1층 일부","indutype":"음료식품 - 농·축·수산품","category":"food"}]},{"lat":"37.649744314","long":"127.10648551","imageIndex":7,"items":[{"name":"정일수산","tel":"031-572-4242","addr":"경기도 남양주시 별내동 643-18","indutype":"음료식품 - 농·축·수산품","category":"food"}]},{"lat":"37.686219368","long":"127.1019334","imageIndex":7,"items":[{"name":"제일에프엔에스","tel":"","addr":"경기도 남양주시 별내동 2326,2327,2323번지","indutype":"음료식품 - 농·축·수산품","category":"food"}]},{"lat":"37.652530127","long":"127.11437638","imageIndex":7,"items":[{"name":"주식회사 메이븐인터내셔날","tel":"070-7769-2106","addr":"경기도 남양주시 별내동 1086-1번지 101호","indutype":"음료식품 - 기타음료식품","category":"food"}]},{"lat":"37.645913842","long":"127.1265925","imageIndex":7,"items":[{"name":"주식회사 베베롱","tel":"","addr":"경기도 남양주시 별내동 1007-3번지 범내메트로망오피스텔 1605호","indutype":"음료식품 - 기타음료식품","category":"food"}]},{"lat":"37.657660992","long":"127.12800591","imageIndex":7,"items":[{"name":"주식회사마담파이","tel":"031-529-4457","addr":"경기도 남양주시 별내동 954-2번지","indutype":"음료식품 - 제과점","category":"food"}]},{"lat":"37.658001043","long":"127.13017103","imageIndex":7,"items":[{"name":"지마트(G마트)","tel":"031-571-9060","addr":"경기도 남양주시 별내동 66-1번지","indutype":"음료식품 - 기타음료식품","category":"food"}]},{"lat":"37.664638716","long":"127.12394881","imageIndex":7,"items":[{"name":"진미농원","tel":"031-528-8009","addr":"경기도 남양주시 별내동 산222-1번지","indutype":"음료식품 - 농·축·수산품","category":"food"}]},{"lat":"37.673246916","long":"127.11056478","imageIndex":7,"items":[{"name":"진양보신탕","tel":"031-527-9154","addr":"경기도 남양주시 별내동 산237-3번지","indutype":"음료식품 - 기타음료식품","category":"food"}]},{"lat":"37.673551837","long":"127.11209546","imageIndex":7,"items":[{"name":"진양스틱","tel":"070-4032-2037","addr":"경기도 남양주시 별내동 2190-9번지 빙상장 2층 매점","indutype":"음료식품 - 기타음료식품","category":"food"}]},{"lat":"37.665495096","long":"127.11433909","imageIndex":7,"items":[{"name":"집밥한끼","tel":"031-528-0119","addr":"경기도 남양주시 별내동 838-3번지 102호","indutype":"음료식품 - 기타음료식품","category":"food"}]},{"lat":"37.681465057","long":"127.10909161","imageIndex":7,"items":[{"name":"창덕농원","tel":"031-528-8183","addr":"경기도 남양주시 별내동 2233-10번지","indutype":"음료식품 - 농·축·수산품","category":"food"}]},{"lat":"37.651664854","long":"127.1147377","imageIndex":7,"items":[{"name":"천우축산","tel":"02-229-8254","addr":"경기도 남양주시 별내동 1083-8번지 101호","indutype":"음료식품 - 정육점","category":"food"}]},{"lat":"37.645724377","long":"127.12684147","imageIndex":7,"items":[{"name":"철철야채과일","tel":"","addr":"경기도 남양주시 별내동 1007-4번지 리치안위버오피스텔 1003호","indutype":"음료식품 - 농·축·수산품","category":"food"}]},{"lat":"37.648025589","long":"127.12323064","imageIndex":7,"items":[{"name":"청정오름","tel":"","addr":"경기도 남양주시 별내동 1015번지 오션일레븐4타워 113호","indutype":"음료식품 - 농·축·수산품","category":"food"},{"name":"파리바게트 별내로데오점","tel":"031-572-5622","addr":"경기도 남양주시 별내동 1015번지 주건축물제1동 1층,2층 (112호,206호일부)","indutype":"음료식품 - 제과점","category":"food"}]},{"lat":"37.66613276","long":"127.1164595","imageIndex":7,"items":[{"name":"청춘대게","tel":"031-575-7885","addr":"경기도 남양주시 별내동 840-5번지 1층","indutype":"음료식품 - 농·축·수산품","category":"food"}]},{"lat":"37.683241202","long":"127.10769974","imageIndex":7,"items":[{"name":"청학골","tel":"031-574-6051","addr":"경기도 남양주시 별내동 산205-8번지","indutype":"음료식품 - 농·축·수산품","category":"food"}]},{"lat":"37.668132025","long":"127.10767849","imageIndex":7,"items":[{"name":"청학농산","tel":"031-7433-0565","addr":"경기도 남양주시 별내동 산238-4번지","indutype":"음료식품 - 농·축·수산품","category":"food"}]},{"lat":"37.647773687","long":"127.12286764","imageIndex":7,"items":[{"name":"초례청별내점","tel":"031-571-0041","addr":"경기도 남양주시 별내동 1018번지 예스프라자헤르메스 107호","indutype":"음료식품 - 제과점","category":"food"}]},{"lat":"37.658634486","long":"127.09865556","imageIndex":7,"items":[{"name":"카페 다인","tel":"031-0000-0000","addr":"경기도 남양주시 별내동 797번지","indutype":"음료식품 - 기타음료식품","category":"food"}]},{"lat":"37.646357134","long":"127.12484827","imageIndex":7,"items":[{"name":"커피홀릭","tel":"070-8269-1711","addr":"경기도 남양주시 별내동 1008번지 센터프라자","indutype":"음료식품 - 기타음료식품","category":"food"}]},{"lat":"37.644915619","long":"127.12481192","imageIndex":7,"items":[{"name":"코리아드림켄넬","tel":"031-528-6856","addr":"경기도 남양주시 별내동 205-6번지","indutype":"음료식품 - 농·축·수산품","category":"food"}]},{"lat":"37.665160943","long":"127.1151773","imageIndex":7,"items":[{"name":"키친웬즈데이","tel":"070-7613-0846","addr":"경기도 남양주시 별내동 850-4번지 상가동 1층 101호","indutype":"음료식품 - 기타음료식품","category":"food"}]},{"lat":"37.687962962","long":"127.10690144","imageIndex":7,"items":[{"name":"토담농원","tel":"031-529-4721","addr":"경기도 남양주시 별내동 2286-17번지","indutype":"음료식품 - 기타음료식품","category":"food"}]},{"lat":"37.658466339","long":"127.12467542","imageIndex":7,"items":[{"name":"파리바게뜨","tel":"031-528-5878","addr":"경기도 남양주시 별내동 930번지 화성프라자 107호","indutype":"음료식품 - 제과점","category":"food"}]},{"lat":"37.657807044","long":"127.12620426","imageIndex":7,"items":[{"name":"파파쥬스","tel":"","addr":"경기도 남양주시 별내동 944-5번지 1층","indutype":"음료식품 - 기타음료식품","category":"food"}]},{"lat":"37.681942843","long":"127.10878621","imageIndex":7,"items":[{"name":"평화가든","tel":"031-527-0624","addr":"경기도 남양주시 별내동 2233-2번지","indutype":"음료식품 - 농·축·수산품","category":"food"}]},{"lat":"37.681438425","long":"127.10864946","imageIndex":7,"items":[{"name":"해도농원","tel":"031-527-9089","addr":"경기도 남양주시 별내동 2233-9번지 지층","indutype":"음료식품 - 농·축·수산품","category":"food"}]},{"lat":"37.669910532","long":"127.11359762","imageIndex":7,"items":[{"name":"행복한 반찬","tel":"031-575-8404","addr":"경기도 남양주시 별내동 806번지 상가동 1층 106호","indutype":"음료식품 - 기타음료식품","category":"food"}]},{"lat":"37.681886774","long":"127.10068064","imageIndex":7,"items":[{"name":"형제농원","tel":"031-527-4897","addr":"경기도 남양주시 별내동 2339번지","indutype":"음료식품 - 농·축·수산품","category":"food"}]},{"lat":"37.666081588","long":"127.11342192","imageIndex":7,"items":[{"name":"호호별디저트공방","tel":"031-527-9208","addr":"경기도 남양주시 별내동 835-2번지 1층 101호","indutype":"음료식품 - 기타음료식품","category":"food"}]},{"lat":"37.647024796","long":"127.12393155","imageIndex":7,"items":[{"name":"활어장군","tel":"031-571-4442","addr":"경기도 남양주시 별내동 1016-2번지 101호","indutype":"음료식품 - 농·축·수산품","category":"food"}]}]