[{"lat":"37.016470861","long":"127.26123711","imageIndex":8,"items":[{"name":"가까운 정문약국","tel":"031-674-7789","addr":"경기도 안성시 당왕동 437번지 1층 101호","indutype":"약국 - 약국","category":"medical"}]},{"lat":"37.014830082","long":"127.2574561","imageIndex":8,"items":[{"name":"경기도의료원안성병원","tel":"031-8046-5116","addr":"경기도 안성시 당왕동 455번지","indutype":"병원 - 종합병원","category":"medical"}]},{"lat":"37.017880041","long":"127.26781548","imageIndex":8,"items":[{"name":"명성가축약품","tel":"031-676-0632","addr":"경기도 안성시 당왕동 158-1번지","indutype":"기타의료기관 - 동물병원","category":"medical"}]},{"lat":"37.015355496","long":"127.26445823","imageIndex":8,"items":[{"name":"박승현치과의원","tel":"031-674-7582","addr":"경기도 안성시 당왕동 536번지 쌍용상가 221호","indutype":"의원 - 치과의원","category":"medical"}]},{"lat":"37.017052845","long":"127.25878946","imageIndex":8,"items":[{"name":"새은하약국","tel":"031-673-1237","addr":"경기도 안성시 당왕동 475-3번지","indutype":"약국 - 약국","category":"medical"}]},{"lat":"37.016552419","long":"127.26918176","imageIndex":8,"items":[{"name":"의료법인청천의료재단","tel":"031-671-7000","addr":"경기도 안성시 당왕동 135번지","indutype":"의원 - 의원","category":"medical"}]},{"lat":"37.016410373","long":"127.26004582","imageIndex":8,"items":[{"name":"큰사랑약국","tel":"031-677-5533","addr":"경기도 안성시 당왕동 470번지 1층","indutype":"약국 - 약국","category":"medical"}]},{"lat":"37.014297382","long":"127.26620748","imageIndex":8,"items":[{"name":"푸른약국","tel":"031-672-2739","addr":"경기도 안성시 당왕동 544-5번지","indutype":"약국 - 약국","category":"medical"}]}]