[{"lat":"37.007248181","long":"127.27150872","imageIndex":13,"items":[{"name":"(주)엘지생활건강/보떼안성점","tel":"031-675-2716","addr":"경기도 안성시 동본동 34","indutype":"보건위생 - 화장품","category":"beauty"},{"name":"티아라","tel":"070-8631-1233","addr":"경기도 안성시 동본동 34번지 1층","indutype":"보건위생 - 미용원","category":"beauty"}]},{"lat":"37.008049742","long":"127.27168008","imageIndex":13,"items":[{"name":"Style by지은","tel":"031-674-4237","addr":"경기도 안성시 동본동 12번지","indutype":"보건위생 - 미용원","category":"beauty"},{"name":"더 네일홀릭 1호점","tel":"031-677-4555","addr":"경기도 안성시 동본동 12번지 2층 201호","indutype":"보건위생 - 피부미용실","category":"beauty"}]},{"lat":"37.007302474","long":"127.2714078","imageIndex":13,"items":[{"name":"꽃가마화장품","tel":"031-674-6996","addr":"경기도 안성시 동본동 33번지","indutype":"보건위생 - 화장품","category":"beauty"},{"name":"예뿌제미용실","tel":"031-677-2220","addr":"경기도 안성시 동본동 33번지","indutype":"보건위생 - 미용원","category":"beauty"}]},{"lat":"37.0076897","long":"127.27151028","imageIndex":13,"items":[{"name":"더(The)예쁨","tel":"031-672-1332","addr":"경기도 안성시 동본동 23번지","indutype":"보건위생 - 미용원","category":"beauty"}]},{"lat":"37.00588837","long":"127.27115565","imageIndex":13,"items":[{"name":"벨라뷰티","tel":"031-671-7873","addr":"경기도 안성시 동본동 97번지 1층","indutype":"보건위생 - 화장품","category":"beauty"},{"name":"유행통신헤어샵","tel":"031-674-3907","addr":"경기도 안성시 동본동 97번지","indutype":"보건위생 - 미용원","category":"beauty"},{"name":"태후사랑","tel":"031-677-8629","addr":"경기도 안성시 동본동 97번지","indutype":"보건위생 - 화장품","category":"beauty"}]},{"lat":"37.00688819","long":"127.27131646","imageIndex":13,"items":[{"name":"보건의료기","tel":"031-672-0077","addr":"경기도 안성시 동본동 51번지","indutype":"보건위생 - 의료용품","category":"beauty"}]},{"lat":"37.006581957","long":"127.2712592","imageIndex":13,"items":[{"name":"뷰티화장품","tel":"02-980-6401","addr":"경기도 안성시 동본동 73","indutype":"보건위생 - 화장품","category":"beauty"}]},{"lat":"37.006716913","long":"127.27134956","imageIndex":13,"items":[{"name":"쑥대머리","tel":"031-671-3363","addr":"경기도 안성시 동본동 54번지","indutype":"보건위생 - 미용원","category":"beauty"}]},{"lat":"37.008356051","long":"127.27170363","imageIndex":13,"items":[{"name":"아트안경원","tel":"031-674-1675","addr":"경기도 안성시 동본동 10번지","indutype":"보건위생 - 안경","category":"beauty"}]},{"lat":"37.005554674","long":"127.2712893","imageIndex":13,"items":[{"name":"안성의료기","tel":"031-675-2525","addr":"경기도 안성시 동본동 102번지","indutype":"보건위생 - 의료용품","category":"beauty"}]},{"lat":"37.006247599","long":"127.27168497","imageIndex":13,"items":[{"name":"약손","tel":"031-671-3536","addr":"경기도 안성시 동본동 78번지","indutype":"보건위생 - 화장품","category":"beauty"}]},{"lat":"37.006606953","long":"127.27215811","imageIndex":13,"items":[{"name":"에피큐어","tel":"031-675-6843","addr":"경기도 안성시 동본동 59번지","indutype":"보건위생 - 화장품","category":"beauty"},{"name":"힐링브레인 체형관리","tel":"","addr":"경기도 안성시 동본동 59번지 1층","indutype":"보건위생 - 기타대인서비스","category":"beauty"}]},{"lat":"37.007410041","long":"127.27165535","imageIndex":13,"items":[{"name":"여로미용실","tel":"031-673-3996","addr":"경기도 안성시 동본동 30번지","indutype":"보건위생 - 미용원","category":"beauty"},{"name":"차정희훼이스클럽","tel":"031-677-1452","addr":"경기도 안성시 동본동 30번지","indutype":"보건위생 - 화장품","category":"beauty"}]},{"lat":"37.006770671","long":"127.27148457","imageIndex":13,"items":[{"name":"우성쑥좌훈방","tel":"031-676-1446","addr":"경기도 안성시 동본동 55번지","indutype":"보건위생 - 피부미용실","category":"beauty"}]},{"lat":"37.005967533","long":"127.2720098","imageIndex":13,"items":[{"name":"제일목욕탕","tel":"031-675-2361","addr":"경기도 안성시 동본동 87번지","indutype":"보건위생 - 사우나","category":"beauty"}]},{"lat":"37.006302171","long":"127.27146045","imageIndex":13,"items":[{"name":"제일미용실","tel":"031-675-4897","addr":"경기도 안성시 동본동 77번지","indutype":"보건위생 - 미용원","category":"beauty"}]},{"lat":"37.005607338","long":"127.27190742","imageIndex":13,"items":[{"name":"칼라뱅크","tel":"031-677-1883","addr":"경기도 안성시 동본동 89-6번지","indutype":"보건위생 - 미용원","category":"beauty"}]},{"lat":"37.007860774","long":"127.27156706","imageIndex":13,"items":[{"name":"티아라","tel":"070-8631-1233","addr":"경기도 안성시 동본동 22번지 3층","indutype":"보건위생 - 미용재료","category":"beauty"}]}]