[{"lat":"37.414913893","long":"126.91411803","imageIndex":13,"items":[{"name":"NOLL PC방","tel":"031-555-7896","addr":"경기도 안양시 만안구 석수동 182-2번지 석수e-편한세상아파트","indutype":"레저업소 - 기타레져업소","category":"leisure"}]},{"lat":"37.425636753","long":"126.90390364","imageIndex":13,"items":[{"name":"건강하고 바른운동 GYM","tel":"031-474-2910","addr":"경기도 안양시 만안구 석수동 494-3번지","indutype":"레저업소 - 헬스클럽","category":"leisure"},{"name":"힐탑스크린골프","tel":"031-471-0787","addr":"경기도 안양시 만안구 석수동 494-3번지","indutype":"레저업소 - 스크린골프","category":"leisure"}]},{"lat":"37.412774585","long":"126.9090375","imageIndex":13,"items":[{"name":"골드당구장","tel":"","addr":"경기도 안양시 만안구 석수동 280-6번지","indutype":"레저업소 - 당 구 장","category":"leisure"},{"name":"샤크짐","tel":"031-473-2429","addr":"경기도 안양시 만안구 석수동 280-6번지","indutype":"레저업소 - 헬스클럽","category":"leisure"}]},{"lat":"37.407278556","long":"126.8984272","imageIndex":13,"items":[{"name":"골드당구클럽","tel":"031-344-9292","addr":"경기도 안양시 만안구 석수동 785-21번지","indutype":"레저업소 - 당 구 장","category":"leisure"}]},{"lat":"37.420468662","long":"126.90839528","imageIndex":13,"items":[{"name":"관악당구클럽","tel":"031-474-7010","addr":"경기도 안양시 만안구 석수동 104-53번지","indutype":"레저업소 - 당 구 장","category":"leisure"}]},{"lat":"37.419298352","long":"126.90965068","imageIndex":13,"items":[{"name":"광장노래연습장","tel":"031-473-3624","addr":"경기도 안양시 만안구 석수동 110-25번지","indutype":"레저업소 - 노 래 방","category":"leisure"}]},{"lat":"37.41643626","long":"126.91367568","imageIndex":13,"items":[{"name":"나이스큐 당구장","tel":"","addr":"경기도 안양시 만안구 석수동 177-6번지","indutype":"레저업소 - 당 구 장","category":"leisure"}]},{"lat":"37.433572904","long":"126.9019046","imageIndex":13,"items":[{"name":"남진노래연습장","tel":"031-474-8511","addr":"경기도 안양시 만안구 석수동 424번지","indutype":"레저업소 - 노 래 방","category":"leisure"},{"name":"킹 당구클럽","tel":"031-474-6891","addr":"경기도 안양시 만안구 석수동 424번지","indutype":"레저업소 - 당 구 장","category":"leisure"}]},{"lat":"37.413828185","long":"126.90831325","imageIndex":13,"items":[{"name":"다래당구장","tel":"","addr":"경기도 안양시 만안구 석수동 281-3번지","indutype":"레저업소 - 당 구 장","category":"leisure"},{"name":"석수","tel":"031-472-4289","addr":"경기도 안양시 만안구 석수동 281-3번지","indutype":"레저업소 - 노 래 방","category":"leisure"}]},{"lat":"37.410749495","long":"126.91181869","imageIndex":13,"items":[{"name":"다모아당구장","tel":"","addr":"경기도 안양시 만안구 석수동 325-13번지","indutype":"레저업소 - 당 구 장","category":"leisure"}]},{"lat":"37.411667292","long":"126.91023621","imageIndex":13,"items":[{"name":"다빈치당구클럽","tel":"031-472-3949","addr":"경기도 안양시 만안구 석수동 318-10번지","indutype":"레저업소 - 당 구 장","category":"leisure"}]},{"lat":"37.412242189","long":"126.90803286","imageIndex":13,"items":[{"name":"당구짱","tel":"031-444-8573","addr":"경기도 안양시 만안구 석수동 289-14번지","indutype":"레저업소 - 당 구 장","category":"leisure"},{"name":"헌터PC 안양석수점","tel":"070-2211-0319","addr":"경기도 안양시 만안구 석수동 289-14번지","indutype":"레저업소 - 기타레져업소","category":"leisure"}]},{"lat":"37.407917136","long":"126.89714999","imageIndex":13,"items":[{"name":"둘리오락실","tel":"031-472-5562","addr":"경기도 안양시 만안구 석수동 753-2번지 영광빌라","indutype":"레저업소 - 기타레져업소","category":"leisure"}]},{"lat":"37.411163144","long":"126.91076771","imageIndex":13,"items":[{"name":"라이또 피씨(PC)방 안양본점","tel":"070-3562-8987","addr":"경기도 안양시 만안구 석수동 317-18번지","indutype":"레저업소 - 기타레져업소","category":"leisure"}]},{"lat":"37.41119006","long":"126.91062084","imageIndex":13,"items":[{"name":"명랑노래연습장","tel":"031-472-7742","addr":"경기도 안양시 만안구 석수동 317번지","indutype":"레저업소 - 노 래 방","category":"leisure"}]},{"lat":"37.432518151","long":"126.9012281","imageIndex":13,"items":[{"name":"바이브PC석수역점","tel":"070-2090-1962","addr":"경기도 안양시 만안구 석수동 417-3번지","indutype":"레저업소 - 기타레져업소","category":"leisure"},{"name":"석수두산위브아파트 입주자대표회의","tel":"031-471-0617","addr":"경기도 안양시 만안구 석수동 417-3번지 석수두산위브아파트","indutype":"레저업소 - 헬스클럽","category":"leisure"}]},{"lat":"37.412331981","long":"126.90764869","imageIndex":13,"items":[{"name":"별빛노래연습장","tel":"031-471-7621","addr":"경기도 안양시 만안구 석수동 290-14번지","indutype":"레저업소 - 노 래 방","category":"leisure"},{"name":"화창당구클럽","tel":"","addr":"경기도 안양시 만안구 석수동 290-14번지","indutype":"레저업소 - 당 구 장","category":"leisure"}]},{"lat":"37.409749379","long":"126.9118199","imageIndex":13,"items":[{"name":"붐PC방","tel":"031-471-8626","addr":"경기도 안양시 만안구 석수동 314-10번지","indutype":"레저업소 - 기타레져업소","category":"leisure"}]},{"lat":"37.430437696","long":"126.90223646","imageIndex":13,"items":[{"name":"비앤에스복싱짐석수점(B&S BOXING GYM)","tel":"031-473-1001","addr":"경기도 안양시 만안구 석수동 413-2번지","indutype":"레저업소 - 헬스클럽","category":"leisure"}]},{"lat":"37.431466873","long":"126.90465296","imageIndex":13,"items":[{"name":"사일런트 필라테스","tel":"","addr":"경기도 안양시 만안구 석수동 382번지","indutype":"레저업소 - 헬스클럽","category":"leisure"}]},{"lat":"37.420690897","long":"126.92953142","imageIndex":13,"items":[{"name":"서울휘트니스야외수영장","tel":"","addr":"경기도 안양시 만안구 석수동 241-43번지","indutype":"레저업소 - 수 영 장","category":"leisure"}]},{"lat":"37.414107352","long":"126.90813217","imageIndex":13,"items":[{"name":"서현골프스쿨","tel":"031-708-6037","addr":"경기도 안양시 만안구 석수동 281-2번지 범우연립","indutype":"레저업소 - 골프연습장","category":"leisure"}]},{"lat":"37.411388149","long":"126.91045116","imageIndex":13,"items":[{"name":"쇼킹노래연습장","tel":"","addr":"경기도 안양시 만안구 석수동 318-13번지","indutype":"레저업소 - 노 래 방","category":"leisure"},{"name":"요가","tel":"","addr":"경기도 안양시 만안구 석수동 318-13번지","indutype":"레저업소 - 헬스클럽","category":"leisure"}]},{"lat":"37.407025905","long":"126.89800964","imageIndex":13,"items":[{"name":"스타","tel":"031-472-8023","addr":"경기도 안양시 만안구 석수동 785-12번지","indutype":"레저업소 - 노 래 방","category":"leisure"}]},{"lat":"37.410658792","long":"126.91103942","imageIndex":13,"items":[{"name":"아레나피씨방","tel":"031-471-0613","addr":"경기도 안양시 만안구 석수동 317-11번지","indutype":"레저업소 - 기타레져업소","category":"leisure"}]},{"lat":"37.414575575","long":"126.90775881","imageIndex":13,"items":[{"name":"아이센스PC방석수점","tel":"070-8336-2468","addr":"경기도 안양시 만안구 석수동 283-4번지","indutype":"레저업소 - 기타레져업소","category":"leisure"}]},{"lat":"37.433052543","long":"126.9045379","imageIndex":13,"items":[{"name":"에스비에스당구클럽","tel":"","addr":"경기도 안양시 만안구 석수동 374-5번지 석수역푸르지오아파트","indutype":"레저업소 - 당 구 장","category":"leisure"}]},{"lat":"37.407467768","long":"126.89842694","imageIndex":13,"items":[{"name":"엠비시(MBC)노래연습장","tel":"031-473-6937","addr":"경기도 안양시 만안구 석수동 785-16번지","indutype":"레저업소 - 노 래 방","category":"leisure"},{"name":"준킥복싱(J-GYM)","tel":"070-5044-1024","addr":"경기도 안양시 만안구 석수동 785-16번지","indutype":"레저업소 - 헬스클럽","category":"leisure"}]},{"lat":"37.419243502","long":"126.92073275","imageIndex":13,"items":[{"name":"예원스크린골프존","tel":"031-473-9955","addr":"경기도 안양시 만안구 석수동 814번지","indutype":"레저업소 - 스크린골프","category":"leisure"}]},{"lat":"37.406971674","long":"126.89781771","imageIndex":13,"items":[{"name":"오페라 당구클럽","tel":"031-472-1285","addr":"경기도 안양시 만안구 석수동 785-9번지","indutype":"레저업소 - 당 구 장","category":"leisure"},{"name":"프랜즈팡","tel":"031-471-7942","addr":"경기도 안양시 만안구 석수동 785-9번지","indutype":"레저업소 - 기타레져업소","category":"leisure"}]},{"lat":"37.413468143","long":"126.90876554","imageIndex":13,"items":[{"name":"오페라당구클럽","tel":"070-7108-4718","addr":"경기도 안양시 만안구 석수동 280-3번지","indutype":"레저업소 - 당 구 장","category":"leisure"}]},{"lat":"37.406611392","long":"126.89795375","imageIndex":13,"items":[{"name":"와와노래연습장","tel":"031-472-4417","addr":"경기도 안양시 만안구 석수동 780번지","indutype":"레저업소 - 노 래 방","category":"leisure"}]},{"lat":"37.412079836","long":"126.90781845","imageIndex":13,"items":[{"name":"유니넷 PC존 석수점","tel":"031-471-5789","addr":"경기도 안양시 만안구 석수동 290-24번지","indutype":"레저업소 - 기타레져업소","category":"leisure"}]},{"lat":"37.411856388","long":"126.91008913","imageIndex":13,"items":[{"name":"이재승탁구교실","tel":"031-471-3959","addr":"경기도 안양시 만안구 석수동 318-8번지","indutype":"레저업소 - 기타레져업소","category":"leisure"}]},{"lat":"37.407053155","long":"126.89825809","imageIndex":13,"items":[{"name":"점핑클럽","tel":"031-342-8886","addr":"경기도 안양시 만안구 석수동 785-23번지","indutype":"레저업소 - 헬스클럽","category":"leisure"}]},{"lat":"37.405304612","long":"126.89759415","imageIndex":13,"items":[{"name":"제노 PC방","tel":"070-2598-3329","addr":"경기도 안양시 만안구 석수동 770-8번지","indutype":"레저업소 - 기타레져업소","category":"leisure"}]},{"lat":"37.406855333","long":"126.89871016","imageIndex":13,"items":[{"name":"충훈부점핑","tel":"031-348-1135","addr":"경기도 안양시 만안구 석수동 785-27번지","indutype":"레저업소 - 헬스클럽","category":"leisure"}]},{"lat":"37.418189634","long":"126.90904204","imageIndex":13,"items":[{"name":"카라노래연습장","tel":"031-472-6223","addr":"경기도 안양시 만안구 석수동 267-17번지","indutype":"레저업소 - 노 래 방","category":"leisure"}]},{"lat":"37.413188045","long":"126.90778316","imageIndex":13,"items":[{"name":"케이제이 (KJ)스크린","tel":"031-473-5678","addr":"경기도 안양시 만안구 석수동 287번지","indutype":"레저업소 - 스크린골프","category":"leisure"}]},{"lat":"37.419658468","long":"126.90928874","imageIndex":13,"items":[{"name":"케이투(K2)노래연습장","tel":"031-472-0700","addr":"경기도 안양시 만안구 석수동 104-150번지","indutype":"레저업소 - 노 래 방","category":"leisure"}]},{"lat":"37.419442316","long":"126.90940197","imageIndex":13,"items":[{"name":"코리아노래연습장","tel":"031-472-0888","addr":"경기도 안양시 만안구 석수동 104-158번지","indutype":"레저업소 - 노 래 방","category":"leisure"},{"name":"코리아당구장","tel":"031-474-0919","addr":"경기도 안양시 만안구 석수동 104-158번지","indutype":"레저업소 - 당 구 장","category":"leisure"}]},{"lat":"37.411466027","long":"126.90642988","imageIndex":13,"items":[{"name":"코어 바디짐","tel":"","addr":"경기도 안양시 만안구 석수동 293-4번지 서해아파트","indutype":"레저업소 - 헬스클럽","category":"leisure"}]},{"lat":"37.406719171","long":"126.89756958","imageIndex":13,"items":[{"name":"쿨노래연습장","tel":"031-471-1666","addr":"경기도 안양시 만안구 석수동 759-6번지","indutype":"레저업소 - 노 래 방","category":"leisure"}]},{"lat":"37.424355126","long":"126.91240097","imageIndex":13,"items":[{"name":"테라스빌리아드(TERRACE BILLIARD)","tel":"031-474-8700","addr":"경기도 안양시 만안구 석수동 63-1번지","indutype":"레저업소 - 당 구 장","category":"leisure"}]},{"lat":"37.412666285","long":"126.90881172","imageIndex":13,"items":[{"name":"테마노래연습장","tel":"","addr":"경기도 안양시 만안구 석수동 289-8번지","indutype":"레저업소 - 노 래 방","category":"leisure"}]},{"lat":"37.419135993","long":"126.90942495","imageIndex":13,"items":[{"name":"팡팡노래연습장","tel":"031-472-5016","addr":"경기도 안양시 만안구 석수동 104-188번지","indutype":"레저업소 - 노 래 방","category":"leisure"}]},{"lat":"37.413576703","long":"126.90931889","imageIndex":13,"items":[{"name":"해피스토리 방방","tel":"031-345-5595","addr":"경기도 안양시 만안구 석수동 279-2번지","indutype":"레저업소 - 기타레져업소","category":"leisure"}]}]