[{"lat":"37.146531122","long":"127.06861679","imageIndex":8,"items":[{"name":"21세기 동규약국","tel":"031-374-3680","addr":"경기도 오산시 오산동 880-21번지","indutype":"약국 - 약국","category":"medical"},{"name":"연세안과의원","tel":"031-378-9111","addr":"경기도 오산시 오산동 880-21번지","indutype":"의원 - 의원","category":"medical"},{"name":"오산연세치과의원","tel":"031-374-7362","addr":"경기도 오산시 오산동 880-21번지 2층","indutype":"의원 - 치과의원","category":"medical"}]},{"lat":"37.148970985","long":"127.07208585","imageIndex":8,"items":[{"name":"25시종합동물병원","tel":"031-378-1114","addr":"경기도 오산시 오산동 869-35번지","indutype":"기타의료기관 - 동물병원","category":"medical"},{"name":"사랑채움한의원","tel":"031-373-8000","addr":"경기도 오산시 오산동 869-35번지 2층","indutype":"의원 - 한의원","category":"medical"}]},{"lat":"37.14533299","long":"127.06814301","imageIndex":8,"items":[{"name":"강남성형외과의원","tel":"031-377-7575","addr":"경기도 오산시 오산동 881-16번지","indutype":"의원 - 의원","category":"medical"},{"name":"보광온누리약국","tel":"031-373-1729","addr":"경기도 오산시 오산동 881-16번지","indutype":"약국 - 약국","category":"medical"},{"name":"연세밀레니엄치과","tel":"031-373-4600","addr":"경기도 오산시 오산동 881-16 3층1호~2호","indutype":"의원 - 치과의원","category":"medical"},{"name":"항편한외과의원","tel":"031-373-3700","addr":"경기도 오산시 오산동 881-16 5층501,502호","indutype":"의원 - 의원","category":"medical"}]},{"lat":"37.149061508","long":"127.07136553","imageIndex":8,"items":[{"name":"강정협내과의원","tel":"031-377-8082","addr":"경기도 오산시 오산동 870-1번지 오산세명프라자 204호","indutype":"의원 - 의원","category":"medical"},{"name":"건강약국","tel":"031-374-7275","addr":"경기도 오산시 오산동 870-1번지 오산세명프라자 1층 105호","indutype":"약국 - 약국","category":"medical"},{"name":"노블엠의원","tel":"031-373-7544","addr":"경기도 오산시 오산동 870-1번지 오산세명프라자 301,308호","indutype":"의원 - 의원","category":"medical"},{"name":"미소드림치과","tel":"031-373-2275","addr":"경기도 오산시 오산동 870-1번지 오산세명프라자 303호","indutype":"의원 - 치과의원","category":"medical"},{"name":"오산마취통증의학과의원","tel":"031-377-8700","addr":"경기도 오산시 오산동 870-1번지 오산세명프라자 301호","indutype":"의원 - 의원","category":"medical"},{"name":"오산프리모의원","tel":"031-375-5741","addr":"경기도 오산시 오산동 870-1번지 오산세명프라자 304호","indutype":"의원 - 의원","category":"medical"},{"name":"이정재한의원","tel":"031-374-6830","addr":"경기도 오산시 오산동 870-1번지 오산세명프라자 2층 203호","indutype":"의원 - 한의원","category":"medical"}]},{"lat":"37.148978374","long":"127.07480989","imageIndex":8,"items":[{"name":"건강한가족의원","tel":"031-000-0000","addr":"경기도 오산시 오산동 925-5번지 월드타워 3층 302호","indutype":"의원 - 의원","category":"medical"},{"name":"건강한가족의원","tel":"031-377-5355","addr":"경기도 오산시 오산동 925-5번지 월드타워 3층 302호","indutype":"의원 - 의원","category":"medical"},{"name":"모범약국","tel":"070-4253-7963","addr":"경기도 오산시 오산동 925-5번지 월드타워 302,304,305호","indutype":"약국 - 약국","category":"medical"},{"name":"삼성킴스비뇨기과의원","tel":"031-372-3651","addr":"경기도 오산시 오산동 925-5번지 월드타워 503호","indutype":"의원 - 의원","category":"medical"},{"name":"서울아름다운치과의원","tel":"031-372-3800","addr":"경기도 오산시 오산동 925-5번지 월드타워 2층 202호","indutype":"의원 - 치과의원","category":"medical"},{"name":"수이비인후과의원","tel":"031-373-9275","addr":"경기도 오산시 오산동 925-5번지 월드타워 304호","indutype":"의원 - 의원","category":"medical"},{"name":"애플치과","tel":"031-374-2855","addr":"경기도 오산시 오산동 925-5번지 월드타워 303호","indutype":"의원 - 치과의원","category":"medical"},{"name":"연세정형외과의원","tel":"031-372-7582","addr":"경기도 오산시 오산동 925-5번지","indutype":"의원 - 의원","category":"medical"},{"name":"청명한의원","tel":"031-378-2121","addr":"경기도 오산시 오산동 925-5번지 월드타워 502호","indutype":"의원 - 한의원","category":"medical"}]},{"lat":"37.149063069","long":"127.06860773","imageIndex":8,"items":[{"name":"경기약국","tel":"031-375-6165","addr":"경기도 오산시 오산동 873-7번지","indutype":"약국 - 약국","category":"medical"},{"name":"경희한의원","tel":"031-374-3002","addr":"경기도 오산시 오산동 873-7번지","indutype":"의원 - 한의원","category":"medical"}]},{"lat":"37.147891901","long":"127.06825777","imageIndex":8,"items":[{"name":"그린약국","tel":"031-375-5450","addr":"경기도 오산시 오산동 875-13번지 메디타워 1층 104호","indutype":"약국 - 약국","category":"medical"},{"name":"오산의료소비자생활협동조합","tel":"031-378-6402","addr":"경기도 오산시 오산동 875-13번지 메디타워 3층","indutype":"의원 - 의원","category":"medical"}]},{"lat":"37.148999245","long":"127.06994718","imageIndex":8,"items":[{"name":"기운찬마취통증의학과의원","tel":"031-372-7530","addr":"경기도 오산시 오산동 872-10번지 2층 중앙경희태권도장","indutype":"의원 - 의원","category":"medical"}]},{"lat":"37.148450556","long":"127.068247","imageIndex":8,"items":[{"name":"길약국","tel":"031-373-6083","addr":"경기도 오산시 오산동 875-3번지","indutype":"약국 - 약국","category":"medical"},{"name":"현안과","tel":"031-374-0493","addr":"경기도 오산시 오산동 875-3번지","indutype":"의원 - 의원","category":"medical"}]},{"lat":"37.156139733","long":"127.07796874","imageIndex":8,"items":[{"name":"김상현소아과의원","tel":"031-372-1760","addr":"경기도 오산시 오산동 919-17번지 중앙프라자 203호","indutype":"의원 - 의원","category":"medical"},{"name":"한빛약국","tel":"031-372-6267","addr":"경기도 오산시 오산동 919-17번지 중앙스포츠센터 104호","indutype":"약국 - 약국","category":"medical"}]},{"lat":"37.149470758","long":"127.06447698","imageIndex":8,"items":[{"name":"남촌약국","tel":"031-374-5230","addr":"경기도 오산시 오산동 612-45번지","indutype":"약국 - 약국","category":"medical"}]},{"lat":"37.145143999","long":"127.06772639","imageIndex":8,"items":[{"name":"남해의원","tel":"031-373-9100","addr":"경기도 오산시 오산동 881-24번지","indutype":"의원 - 의원","category":"medical"}]},{"lat":"37.149644418","long":"127.0760037","imageIndex":8,"items":[{"name":"네이버치과의원","tel":"031-374-6700","addr":"경기도 오산시 오산동 925-12번지 거성프라자 402호","indutype":"의원 - 치과의원","category":"medical"},{"name":"손앤이한의원","tel":"031-372-1985","addr":"경기도 오산시 오산동 925-12번지 거성프라자 401호","indutype":"의원 - 한의원","category":"medical"}]},{"lat":"37.146728969","long":"127.06930358","imageIndex":8,"items":[{"name":"다우림의원","tel":"070-8864-4670","addr":"경기도 오산시 오산동 880-6번지 오산프라자 203호","indutype":"의원 - 의원","category":"medical"},{"name":"다우림의원","tel":"031-373-4670","addr":"경기도 오산시 오산동 880-6번지 오산프라자 203호","indutype":"의원 - 의원","category":"medical"},{"name":"미래치과의원","tel":"031-377-6677","addr":"경기도 오산시 오산동 880-6번지","indutype":"의원 - 치과의원","category":"medical"},{"name":"신세계약국","tel":"031-376-2988","addr":"경기도 오산시 오산동 880-6번지 오산프라자 1층","indutype":"약국 - 약국","category":"medical"},{"name":"오라클피부과의원","tel":"031-374-0064","addr":"경기도 오산시 오산동 880-6번지 오산프라자 717호","indutype":"의원 - 의원","category":"medical"}]},{"lat":"37.153667308","long":"127.06880308","imageIndex":8,"items":[{"name":"대원약국","tel":"031-374-4443","addr":"경기도 오산시 오산동 428-2번지","indutype":"약국 - 약국","category":"medical"},{"name":"연세정의원","tel":"031-374-3677","addr":"경기도 오산시 오산동 428-2번지 2층","indutype":"의원 - 의원","category":"medical"},{"name":"오산미플란트치과의원","tel":"031-376-2833","addr":"경기도 오산시 오산동 428-2번지 3층","indutype":"의원 - 치과의원","category":"medical"},{"name":"조은한의원(          )","tel":"031-378-7588","addr":"경기도 오산시 오산동 428-2번지 4층 대원약국","indutype":"의원 - 한의원","category":"medical"}]},{"lat":"37.152559327","long":"127.06825053","imageIndex":8,"items":[{"name":"도원한의원","tel":"031-377-1887","addr":"경기도 오산시 오산동 446-5번지","indutype":"의원 - 한의원","category":"medical"}]},{"lat":"37.149173773","long":"127.06377885","imageIndex":8,"items":[{"name":"라파온누리약국","tel":"031-374-5765","addr":"경기도 오산시 오산동 614-2번지","indutype":"약국 - 약국","category":"medical"}]},{"lat":"37.14658472","long":"127.06944978","imageIndex":8,"items":[{"name":"마디마디튼튼한의원","tel":"031-377-5757","addr":"경기도 오산시 오산동 880-16번지 2층","indutype":"의원 - 한의원","category":"medical"}]},{"lat":"37.146503984","long":"127.06880812","imageIndex":8,"items":[{"name":"명약국","tel":"031-378-6669","addr":"경기도 오산시 오산동 880-20번지","indutype":"약국 - 약국","category":"medical"},{"name":"조은소리이비인후과","tel":"031-377-6672","addr":"경기도 오산시 오산동 880-20번지 2층","indutype":"의원 - 의원","category":"medical"},{"name":"청아정신건강의학과의원","tel":"031-376-3651","addr":"경기도 오산시 오산동 880-20번지 3층","indutype":"의원 - 의원","category":"medical"},{"name":"한솔비뇨기과의원","tel":"031-377-9400","addr":"경기도 오산시 오산동 880-20번지 2층","indutype":"의원 - 의원","category":"medical"}]},{"lat":"37.149416141","long":"127.06553504","imageIndex":8,"items":[{"name":"명인한의원","tel":"031-375-0450","addr":"경기도 오산시 오산동 532-6번지","indutype":"의원 - 한의원","category":"medical"}]},{"lat":"37.149339891","long":"127.07297544","imageIndex":8,"items":[{"name":"무지개연합의원","tel":"031-373-6727","addr":"경기도 오산시 오산동 868번지 3층 롯데마트","indutype":"의원 - 의원","category":"medical"},{"name":"오산온누리약국","tel":"031-376-1865","addr":"경기도 오산시 오산동 868번지 롯데마트 1층 약국","indutype":"약국 - 약국","category":"medical"}]},{"lat":"37.153361165","long":"127.06842008","imageIndex":8,"items":[{"name":"미솜한의원","tel":"031-377-1075","addr":"경기도 오산시 오산동 407-3번지","indutype":"의원 - 한의원","category":"medical"}]},{"lat":"37.146891497","long":"127.0686959","imageIndex":8,"items":[{"name":"바른약국","tel":"031-377-8522","addr":"경기도 오산시 오산동 880-2번지 2동 1층","indutype":"약국 - 약국","category":"medical"}]},{"lat":"37.149062862","long":"127.06897919","imageIndex":8,"items":[{"name":"박치과","tel":"031-374-3727","addr":"경기도 오산시 오산동 873-12번지","indutype":"의원 - 의원","category":"medical"}]},{"lat":"37.149229937","long":"127.0760033","imageIndex":8,"items":[{"name":"백산한의원","tel":"031-377-7275","addr":"경기도 오산시 오산동 925-10번지 한미프라자 302호","indutype":"의원 - 한의원","category":"medical"},{"name":"평화치과의원","tel":"031-375-7574","addr":"경기도 오산시 오산동 925-10번지 한미프라자빌딩 304호","indutype":"의원 - 치과의원","category":"medical"}]},{"lat":"37.149249224","long":"127.07392089","imageIndex":8,"items":[{"name":"버팀병원","tel":"031-1661-0032","addr":"경기도 오산시 오산동 867-4번지","indutype":"병원 - 병원","category":"medical"},{"name":"서울버팀치과의원","tel":"031-831-5569","addr":"경기도 오산시 오산동 867-4번지 스타빌딩 1층 일부","indutype":"의원 - 치과의원","category":"medical"}]},{"lat":"37.148915675","long":"127.07419073","imageIndex":8,"items":[{"name":"삼성서울치과의원","tel":"031-375-2801","addr":"경기도 오산시 오산동 910-11번지 덕화빌딩 2층","indutype":"의원 - 치과의원","category":"medical"}]},{"lat":"37.146783415","long":"127.06861701","imageIndex":8,"items":[{"name":"서정하이비인후과의원","tel":"031-372-1664","addr":"경기도 오산시 오산동 880-25번지","indutype":"의원 - 의원","category":"medical"}]},{"lat":"37.148503702","long":"127.06989046","imageIndex":8,"items":[{"name":"성심약국","tel":"031-373-2906","addr":"경기도 오산시 오산동 876-10번지","indutype":"약국 - 약국","category":"medical"},{"name":"한형수내과의원","tel":"031-375-8200","addr":"경기도 오산시 오산동 876-10번지 2층","indutype":"의원 - 의원","category":"medical"}]},{"lat":"37.149170432","long":"127.06996984","imageIndex":8,"items":[{"name":"세광한의원","tel":"031-373-0777","addr":"경기도 오산시 오산동 872-7번지","indutype":"의원 - 한의원","category":"medical"}]},{"lat":"37.154977916","long":"127.0771233","imageIndex":8,"items":[{"name":"송이비인후과","tel":"031-377-7785","addr":"경기도 오산시 오산동 920번지 주공2단지상가 201-202호","indutype":"의원 - 의원","category":"medical"}]},{"lat":"37.151837477","long":"127.07006225","imageIndex":8,"items":[{"name":"시장약국","tel":"031-373-7780","addr":"경기도 오산시 오산동 845-9번지","indutype":"약국 - 약국","category":"medical"}]},{"lat":"37.149446952","long":"127.07475405","imageIndex":8,"items":[{"name":"신종로약국","tel":"031-375-9633","addr":"경기도 오산시 오산동 925-2번지 한마음빌딩 101호","indutype":"약국 - 약국","category":"medical"},{"name":"양생의원","tel":"031-372-7666","addr":"경기도 오산시 오산동 925-2번지 한마음빌딩 301호","indutype":"의원 - 의원","category":"medical"}]},{"lat":"37.143305541","long":"127.06831011","imageIndex":8,"items":[{"name":"엠비여성의원","tel":"031-378-2123","addr":"경기도 오산시 오산동 883-6번지","indutype":"의원 - 의원","category":"medical"}]},{"lat":"37.154419205","long":"127.07722407","imageIndex":8,"items":[{"name":"연당한의원","tel":"031-378-7578","addr":"경기도 오산시 오산동 920-5번지 오산운암2단지상가2층 201호,202호","indutype":"의원 - 한의원","category":"medical"}]},{"lat":"37.144612109","long":"127.06822119","imageIndex":8,"items":[{"name":"연세으뜸정형외과의원","tel":"031-378-7525","addr":"경기도 오산시 오산동 881-7번지 동양프라자401호~103호 401호","indutype":"의원 - 의원","category":"medical"},{"name":"이안치과","tel":"031-373-7528","addr":"경기도 오산시 오산동 881-7번지 동양프라자 301호","indutype":"의원 - 치과의원","category":"medical"}]},{"lat":"37.150116543","long":"127.06994816","imageIndex":8,"items":[{"name":"예사랑한의원","tel":"031-376-1077","addr":"경기도 오산시 오산동 860-26번지 예사랑한의원 2층","indutype":"의원 - 한의원","category":"medical"}]},{"lat":"37.149137801","long":"127.06364375","imageIndex":8,"items":[{"name":"오산메디칼의원","tel":"031-376-6310","addr":"경기도 오산시 오산동 614-18번지","indutype":"의원 - 의원","category":"medical"}]},{"lat":"37.149116177","long":"127.07030748","imageIndex":8,"items":[{"name":"오산부부한의원","tel":"031-372-7975","addr":"경기도 오산시 오산동 871번지","indutype":"의원 - 한의원","category":"medical"},{"name":"중앙치과의원","tel":"031-378-2874","addr":"경기도 오산시 오산동 871번지 수영빌딩 3층","indutype":"의원 - 치과의원","category":"medical"}]},{"lat":"37.148915837","long":"127.07392058","imageIndex":8,"items":[{"name":"오산중앙약국","tel":"031-372-5520","addr":"경기도 오산시 오산동 867-6번지","indutype":"약국 - 약국","category":"medical"}]},{"lat":"37.155339928","long":"127.07453448","imageIndex":8,"items":[{"name":"오산피부비뇨기과의원","tel":"031-375-7300","addr":"경기도 오산시 오산동 811-5번지 오산메디칼프라자 3층 305","indutype":"의원 - 의원","category":"medical"}]},{"lat":"37.151612998","long":"127.06866622","imageIndex":8,"items":[{"name":"오산한의원","tel":"031-8077-9911","addr":"경기도 오산시 오산동 856-1번지 2층","indutype":"의원 - 한의원","category":"medical"}]},{"lat":"37.149360132","long":"127.06911452","imageIndex":8,"items":[{"name":"우리약국","tel":"031-376-0033","addr":"경기도 오산시 오산동 872-1번지 1층","indutype":"약국 - 약국","category":"medical"}]},{"lat":"37.153838738","long":"127.06838672","imageIndex":8,"items":[{"name":"우리정형외과의원","tel":"031-374-2211","addr":"경기도 오산시 오산동 400번지 외1필지","indutype":"의원 - 의원","category":"medical"}]},{"lat":"37.146584568","long":"127.06971993","imageIndex":8,"items":[{"name":"유림치과병원","tel":"031-375-2835","addr":"경기도 오산시 오산동 880-14번지","indutype":"의원 - 치과의원","category":"medical"}]},{"lat":"37.149224837","long":"127.06936204","imageIndex":8,"items":[{"name":"의료법인분도의료재단","tel":"031-373-5454","addr":"경기도 오산시 오산동 872-2번지","indutype":"의원 - 의원","category":"medical"}]},{"lat":"37.148979831","long":"127.07236727","imageIndex":8,"items":[{"name":"이젤치과","tel":"031-373-2804","addr":"경기도 오산시 오산동 869-37번지 3층","indutype":"의원 - 치과의원","category":"medical"}]},{"lat":"37.154109188","long":"127.0681393","imageIndex":8,"items":[{"name":"이조은치과의원","tel":"031-378-2826","addr":"경기도 오산시 오산동 399번지 2층","indutype":"의원 - 치과의원","category":"medical"},{"name":"이조은치과의원","tel":"031-378-2826","addr":"경기도 오산시 오산동 399번지 2층 일부","indutype":"의원 - 치과의원","category":"medical"},{"name":"조은오산병원","tel":"00-1544-5355","addr":"경기도 오산시 오산동 399번지","indutype":"병원 - 종합병원","category":"medical"}]},{"lat":"37.149137633","long":"127.06397018","imageIndex":8,"items":[{"name":"장수동물병원","tel":"031-373-0775","addr":"경기도 오산시 오산동 614-28번지","indutype":"기타의료기관 - 동물병원","category":"medical"}]},{"lat":"37.151729166","long":"127.0703886","imageIndex":8,"items":[{"name":"조약국","tel":"031-373-0373","addr":"경기도 오산시 오산동 847-5번지","indutype":"약국 - 약국","category":"medical"},{"name":"현대의원","tel":"031-375-6826","addr":"경기도 오산시 오산동 847-5번지","indutype":"의원 - 의원","category":"medical"}]},{"lat":"37.149389317","long":"127.06514105","imageIndex":8,"items":[{"name":"중앙의원","tel":"031-375-6837","addr":"경기도 오산시 오산동 609-58번지 2층","indutype":"의원 - 의원","category":"medical"}]},{"lat":"37.145197771","long":"127.06825546","imageIndex":8,"items":[{"name":"참정형외과의원","tel":"031-375-6003","addr":"경기도 오산시 오산동 881-3,17","indutype":"의원 - 의원","category":"medical"}]},{"lat":"37.150666869","long":"127.06872168","imageIndex":8,"items":[{"name":"청담한의원","tel":"031-375-7581","addr":"경기도 오산시 오산동 856-14번지","indutype":"의원 - 한의원","category":"medical"}]},{"lat":"37.146919111","long":"127.06763786","imageIndex":8,"items":[{"name":"최중철신경정신과","tel":"031-373-9966","addr":"경기도 오산시 오산동 603-11번지","indutype":"의원 - 의원","category":"medical"}]},{"lat":"37.148950889","long":"127.07555278","imageIndex":8,"items":[{"name":"키즈웰치과","tel":"031-378-2275","addr":"경기도 오산시 오산동 925-13번지 웰리스타워 상가 303호","indutype":"의원 - 치과의원","category":"medical"}]},{"lat":"37.154118043","long":"127.06842073","imageIndex":8,"items":[{"name":"튼튼약국","tel":"031-372-6634","addr":"경기도 오산시 오산동 393-8번지 1층","indutype":"약국 - 약국","category":"medical"}]},{"lat":"37.145225259","long":"127.06742255","imageIndex":8,"items":[{"name":"푸른치과","tel":"031-375-8084","addr":"경기도 오산시 오산동 603-33번지 동일양회판매(주) 3층 303호","indutype":"의원 - 치과의원","category":"medical"},{"name":"홍약국","tel":"031-373-7763","addr":"경기도 오산시 오산동 603-33번지 1층 102호~103호","indutype":"약국 - 약국","category":"medical"}]},{"lat":"37.146702339","long":"127.06858317","imageIndex":8,"items":[{"name":"하이치과의원","tel":"031-375-2851","addr":"경기도 오산시 오산동 880-23번지 2,3층","indutype":"의원 - 치과의원","category":"medical"}]},{"lat":"37.152143833","long":"127.07006252","imageIndex":8,"items":[{"name":"한마음의원","tel":"031-378-9744","addr":"경기도 오산시 오산동 845-7","indutype":"의원 - 의원","category":"medical"}]},{"lat":"37.149063006","long":"127.06872029","imageIndex":8,"items":[{"name":"함께하는치과","tel":"031-372-9251","addr":"경기도 오산시 오산동 873-16번지 2층","indutype":"의원 - 치과의원","category":"medical"}]},{"lat":"37.149531224","long":"127.06930603","imageIndex":8,"items":[{"name":"행복드림약국","tel":"031-374-2905","addr":"경기도 오산시 오산동 861-18번지","indutype":"약국 - 약국","category":"medical"}]},{"lat":"37.149089604","long":"127.069497","imageIndex":8,"items":[{"name":"황제한의원","tel":"031-373-1336","addr":"경기도 오산시 오산동 872-14번지 황제한의원","indutype":"의원 - 한의원","category":"medical"}]},{"lat":"37.151531153","long":"127.0700057","imageIndex":8,"items":[{"name":"훼미리외과의원","tel":"031-375-7512","addr":"경기도 오산시 오산동 854-6번지 2층","indutype":"의원 - 의원","category":"medical"}]}]