[{"lat":"37.440794259","long":"126.78490731","imageIndex":8,"items":[{"name":"365신천중앙약국","tel":"031-313-0542","addr":"경기도 시흥시 신천동 711번지 1층","indutype":"보건업 - 약국","category":"medical"},{"name":"성모공감정신건강의학과의원","tel":"031-8042-3535","addr":"경기도 시흥시 신천동 711번지 삼영아트빌 5층","indutype":"보건업 - 정신건강의학과의원","category":"medical"}]},{"lat":"37.435462587","long":"126.79110336","imageIndex":8,"items":[{"name":"늘좋은약국","tel":"031-313-5007","addr":"경기도 시흥시 신천동 948번지 휴먼시아 상가 106호","indutype":"보건업 - 약국","category":"medical"}]},{"lat":"37.439660128","long":"126.78552078","imageIndex":8,"items":[{"name":"다온한방병원","tel":"031-365-5432","addr":"경기도 시흥시 신천동 733-1번지","indutype":"보건업 - 한방병원","category":"medical"}]},{"lat":"37.441045411","long":"126.78429639","imageIndex":8,"items":[{"name":"모아치과병원","tel":"031-314-2275","addr":"경기도 시흥시 신천동 712-9번지 신천프라자 10층","indutype":"보건업 - 치과병원","category":"medical"},{"name":"신천프라자약국","tel":"031-404-9311","addr":"경기도 시흥시 신천동 712-9번지 신천프라자 102호","indutype":"보건업 - 약국","category":"medical"}]},{"lat":"37.439794966","long":"126.7853509","imageIndex":8,"items":[{"name":"미소한방병원","tel":"031-365-4255","addr":"경기도 시흥시 신천동 733번지","indutype":"보건업 - 한방병원","category":"medical"}]},{"lat":"37.431825361","long":"126.7926841","imageIndex":8,"items":[{"name":"백제당온누리약국","tel":"031-315-4848","addr":"경기도 시흥시 신천동 883-8번지","indutype":"보건업 - 약국","category":"medical"}]},{"lat":"37.431634964","long":"126.79201802","imageIndex":8,"items":[{"name":"새들약국","tel":"031-312-5760","addr":"경기도 시흥시 신천동 888-1번지","indutype":"보건업 - 약국","category":"medical"}]},{"lat":"37.440324615","long":"126.78429848","imageIndex":8,"items":[{"name":"시흥치과","tel":"031-314-2828","addr":"경기도 시흥시 신천동 737번지 2층","indutype":"보건업 - 치과의원","category":"medical"}]},{"lat":"37.441153071","long":"126.78404747","imageIndex":8,"items":[{"name":"신천한의원","tel":"031-404-9075","addr":"경기도 시흥시 신천동 712-7번지","indutype":"보건업 - 한의원","category":"medical"}]},{"lat":"37.444353212","long":"126.78490828","imageIndex":8,"items":[{"name":"정성한의원","tel":"031-313-1275","addr":"경기도 시흥시 신천동 704-5번지 2층","indutype":"보건업 - 한의원","category":"medical"}]},{"lat":"37.438437818","long":"126.78230396","imageIndex":8,"items":[{"name":"종로약국","tel":"031-314-4719","addr":"경기도 시흥시 신천동 840-4번지","indutype":"보건업 - 약국","category":"medical"}]},{"lat":"37.440046495","long":"126.78494338","imageIndex":8,"items":[{"name":"지리산약국","tel":"031-314-0081","addr":"경기도 시흥시 신천동 737-4번지","indutype":"보건업 - 약국","category":"medical"}]},{"lat":"37.440522018","long":"126.78385721","imageIndex":8,"items":[{"name":"청안동물병원","tel":"031-311-4148","addr":"경기도 시흥시 신천동 738-2번지 삼미상가 A동 1층 5호","indutype":"보건업 - 동물병원","category":"medical"}]},{"lat":"37.441215743","long":"126.78383259","imageIndex":8,"items":[{"name":"펫츠나라동물병원","tel":"031-314-0706","addr":"경기도 시흥시 신천동 712-6번지 1호","indutype":"보건업 - 동물병원","category":"medical"}]}]