[{"lat":"37.277297421","long":"127.45582484","imageIndex":13,"items":[{"name":"So랄라헤어","tel":"031-637-6764","addr":"경기도 이천시 안흥동 300-1번지 제상가-103","indutype":"보건위생 - 미용원","category":"beauty"}]},{"lat":"37.281050574","long":"127.45453933","imageIndex":13,"items":[{"name":"가네머리터","tel":"031-637-3736","addr":"경기도 이천시 안흥동 354-1번지","indutype":"보건위생 - 미용원","category":"beauty"}]},{"lat":"37.279330203","long":"127.46374122","imageIndex":13,"items":[{"name":"다사랑의료기기협동조합","tel":"031-637-1372","addr":"경기도 이천시 안흥동 122번지","indutype":"보건위생 - 의료용품","category":"beauty"},{"name":"다사랑의료기협동조합","tel":"031-637-1372","addr":"경기도 이천시 안흥동 122번지","indutype":"보건위생 - 의료용품","category":"beauty"}]},{"lat":"37.278132197","long":"127.45429638","imageIndex":13,"items":[{"name":"더글램뷰티&네일","tel":"","addr":"경기도 이천시 안흥동 392-1번지 삼보빌딩 103호","indutype":"보건위생 - 피부미용실","category":"beauty"}]},{"lat":"37.279858457","long":"127.45526512","imageIndex":13,"items":[{"name":"데이데이샵","tel":"031-631-6852","addr":"경기도 이천시 안흥동 346-10번지","indutype":"보건위생 - 미용원","category":"beauty"}]},{"lat":"37.277464383","long":"127.45457428","imageIndex":13,"items":[{"name":"로로살롱","tel":"031-635-1301","addr":"경기도 이천시 안흥동 305-2번지","indutype":"보건위생 - 피부미용실","category":"beauty"},{"name":"헤어트윈","tel":"031-631-2279","addr":"경기도 이천시 안흥동 305-2번지 온정빌딩 1층","indutype":"보건위생 - 미용원","category":"beauty"}]},{"lat":"37.278301589","long":"127.46179557","imageIndex":13,"items":[{"name":"리마주헤어샵","tel":"031-638-5226","addr":"경기도 이천시 안흥동 470-2번지 주공프라자상가 202호","indutype":"보건위생 - 미용원","category":"beauty"},{"name":"현 S 헤어","tel":"031-634-1188","addr":"경기도 이천시 안흥동 470-2번지 안흥주공프라자 1층 104호","indutype":"보건위생 - 미용원","category":"beauty"}]},{"lat":"37.274581012","long":"127.45460215","imageIndex":13,"items":[{"name":"뷰티호델277","tel":"031-634-3722","addr":"경기도 이천시 안흥동 474번지 롯데캐슬골드스카이 1층 109호","indutype":"보건위생 - 화장품","category":"beauty"},{"name":"이천롯데마트 씨채널안경","tel":"031-631-4981","addr":"경기도 이천시 안흥동 474번지 롯데캐슬골드스카이","indutype":"보건위생 - 안경","category":"beauty"}]},{"lat":"37.277242743","long":"127.45362583","imageIndex":13,"items":[{"name":"쁘띠헤어샵","tel":"070-8834-7000","addr":"경기도 이천시 안흥동 307-7번지 브라운스톤이천 상가동 101호","indutype":"보건위생 - 미용원","category":"beauty"}]},{"lat":"37.28019174","long":"127.45528967","imageIndex":13,"items":[{"name":"지원장Artline","tel":"031-637-2433","addr":"경기도 이천시 안흥동 345-7번지 1층","indutype":"보건위생 - 피부미용실","category":"beauty"}]},{"lat":"37.276691576","long":"127.45166065","imageIndex":13,"items":[{"name":"청정안 피부관리실","tel":"031-636-8382","addr":"경기도 이천시 안흥동 317-2번지 (주)이천설봉온천","indutype":"보건위생 - 피부미용실","category":"beauty"},{"name":"컬리브라운 이천롯데마트점","tel":"031-631-3359","addr":"경기도 이천시 안흥동 317-2번지 롯데마트 3층","indutype":"보건위생 - 미용원","category":"beauty"}]},{"lat":"37.280578954","long":"127.45534837","imageIndex":13,"items":[{"name":"해오름달 여드레","tel":"","addr":"경기도 이천시 안흥동 352-6번지 102호","indutype":"보건위생 - 미용원","category":"beauty"}]},{"lat":"37.280299429","long":"127.45540307","imageIndex":13,"items":[{"name":"헤어봄","tel":"031-111-1111","addr":"경기도 이천시 안흥동 345-6번지 1층","indutype":"보건위생 - 미용원","category":"beauty"}]}]