[{"lat":"37.232634009","long":"127.06961549","imageIndex":0,"items":[{"name":"JYP코리아","tel":"031-1800-7683","addr":"경기도 용인시 기흥구 농서동 406-3번지 101호","indutype":"자동차정비 유지 - 카인테리어","category":"car"}]},{"lat":"37.22310619","long":"127.08952773","imageIndex":0,"items":[{"name":"TP기흥삼성점","tel":"031-374-5595","addr":"경기도 용인시 기흥구 농서동 42-3번지","indutype":"자동차정비 유지 - 자동차시트·타이어","category":"car"}]},{"lat":"37.222441499","long":"127.08664256","imageIndex":0,"items":[{"name":"금봉빌딩","tel":"031-275-2006","addr":"경기도 용인시 기흥구 농서동 183번지","indutype":"자동차정비 유지 - 주차장","category":"car"}]},{"lat":"37.228858473","long":"127.06997275","imageIndex":0,"items":[{"name":"반월점현대자동차","tel":"031-273-7600","addr":"경기도 용인시 기흥구 농서동 416-7번지","indutype":"자동차정비 유지 - 자동차정비","category":"car"}]},{"lat":"37.232489938","long":"127.06944634","imageIndex":0,"items":[{"name":"브라더샤인","tel":"031-273-6505","addr":"경기도 용인시 기흥구 농서동 406-5번지 1층","indutype":"자동차정비 유지 - 자동차정비","category":"car"}]},{"lat":"37.223581045","long":"127.08041295","imageIndex":0,"items":[{"name":"삼성밧데리","tel":"031-283-0084","addr":"경기도 용인시 기흥구 농서동 126번지","indutype":"자동차정비 유지 - 자동차정비","category":"car"}]},{"lat":"37.223328792","long":"127.08035636","imageIndex":0,"items":[{"name":"삼성오토","tel":"031-286-0084","addr":"경기도 용인시 기흥구 농서동 114-2번지","indutype":"자동차정비 유지 - 자동차정비","category":"car"}]},{"lat":"37.225358634","long":"127.07641475","imageIndex":0,"items":[{"name":"스피드메이트 기흥톨게이트점","tel":"031-285-8944","addr":"경기도 용인시 기흥구 농서동 267-2번지","indutype":"자동차정비 유지 - 자동차정비","category":"car"}]},{"lat":"37.225133116","long":"127.07683144","imageIndex":0,"items":[{"name":"오토모빌자동차정비써비스","tel":"031-274-0641","addr":"경기도 용인시 기흥구 농서동 267-3번지","indutype":"자동차정비 유지 - 자동차정비","category":"car"}]},{"lat":"37.225519508","long":"127.07849943","imageIndex":0,"items":[{"name":"오토테크카센타","tel":"031-287-0951","addr":"경기도 용인시 기흥구 농서동 142-2번지","indutype":"자동차정비 유지 - 자동차정비","category":"car"},{"name":"차와 사람","tel":"031-287-0951","addr":"경기도 용인시 기흥구 농서동 142-2번지","indutype":"자동차정비 유지 - 자동차정비","category":"car"}]},{"lat":"37.229940107","long":"127.06927507","imageIndex":0,"items":[{"name":"우리종합개발 주식회사","tel":"031-237-1027","addr":"경기도 용인시 기흥구 농서동 416번지 1층","indutype":"자동차정비 유지 - 주차장","category":"car"}]},{"lat":"37.225275715","long":"127.07929919","imageIndex":0,"items":[{"name":"케이디씨기흥점","tel":"031-274-7082","addr":"경기도 용인시 기흥구 농서동 146-1번지 제가, 1필지","indutype":"자동차정비 유지 - 카인테리어","category":"car"}]},{"lat":"37.233578007","long":"127.07322237","imageIndex":0,"items":[{"name":"틴트플러스","tel":"031-202-0933","addr":"경기도 용인시 기흥구 농서동 447-6번지","indutype":"자동차정비 유지 - 카인테리어","category":"car"}]},{"lat":"37.233524451","long":"127.07236588","imageIndex":0,"items":[{"name":"폴스개러지","tel":"031-273-1101","addr":"경기도 용인시 기흥구 농서동 447-1번지 1층","indutype":"자동차정비 유지 - 자동차부품","category":"car"}]}]