[{"lat":"36.993130499","long":"127.13774915","imageIndex":4,"items":[{"name":"(주)스마트황토가마/참숯바베큐","tel":"031-655-6321","addr":"경기도 안성시 공도읍 진사길 81층 102호","indutype":"일반휴게음식 - 일반한식","category":"restaurant"},{"name":"가르텐비어","tel":"031-654-4289","addr":"경기도 안성시 공도읍 진사길 81층","indutype":"일반휴게음식 - 주점","category":"restaurant"}]},{"lat":"36.989858531","long":"127.13869817","imageIndex":4,"items":[{"name":"만땅치킨","tel":"031-654-7724","addr":"경기도 안성시 공도읍 진사길 34상가동 2층 A-217호","indutype":"일반휴게음식 - 일반한식","category":"restaurant"},{"name":"주은분식","tel":"031-651-9666","addr":"경기도 안성시 공도읍 진사길 34상가A동 1층 109,110호","indutype":"일반휴게음식 - 일반한식","category":"restaurant"}]},{"lat":"36.992887108","long":"127.13783859","imageIndex":4,"items":[{"name":"부어치킨","tel":"031-610-2340","addr":"경기도 안성시 공도읍 진사길 10중 1층","indutype":"일반휴게음식 - 주점","category":"restaurant"}]},{"lat":"36.992832353","long":"127.13844509","imageIndex":4,"items":[{"name":"엘리팝","tel":"070-7522-4025","addr":"경기도 안성시 공도읍 진사길 11A동1층105동 107호","indutype":"일반휴게음식 - 주점","category":"restaurant"}]},{"lat":"36.992832353","long":"127.13844509","imageIndex":13,"items":[{"name":"강명주 스킨 바디 뷰","tel":"031-658-2246","addr":"경기도 안성시 공도읍 진사길 11A동 202-1호 광동아이비타운","indutype":"보건위생 - 화장품","category":"beauty"}]},{"lat":"36.992165023","long":"127.1389157","imageIndex":13,"items":[{"name":"아모레카운셀러","tel":"031-651-0785","addr":"경기도 안성시 공도읍 진사길 23B-301,광동아이비타운","indutype":"보건위생 - 화장품","category":"beauty"}]},{"lat":"36.993192909","long":"127.1383334","imageIndex":7,"items":[{"name":"낙원떡집","tel":"031-691-6880","addr":"경기도 안성시 공도읍 진사길 7103","indutype":"음료식품 - 제과점","category":"food"},{"name":"좋은하루제과점","tel":"031-652-7789","addr":"경기도 안성시 공도읍 진사길 71층 11호","indutype":"음료식품 - 제과점","category":"food"}]},{"lat":"36.993130499","long":"127.13774915","imageIndex":8,"items":[{"name":"아프리카동물병원","tel":"031-656-5976","addr":"경기도 안성시 공도읍 진사길 81층 102호","indutype":"기타의료기관 - 동물병원","category":"medical"}]}]