[{"lat":"37.221577132","long":"126.95193215","imageIndex":13,"items":[{"name":"OK당구클럽","tel":"070-7718-0101","addr":"경기도 화성시 봉담읍 동화리 426-1번지 3층","indutype":"레저업소 - 당 구 장","category":"leisure"}]},{"lat":"37.217050835","long":"126.96831658","imageIndex":13,"items":[{"name":"강남골프존","tel":"031-227-6650","addr":"경기도 화성시 봉담읍 동화리 238-91번지 이정빌딩 2층,3층","indutype":"레저업소 - 스크린골프","category":"leisure"}]},{"lat":"37.21684984","long":"126.95986687","imageIndex":13,"items":[{"name":"강클럽","tel":"031-663-0447","addr":"경기도 화성시 봉담읍 동화리 600-2번지 301,302호","indutype":"레저업소 - 당 구 장","category":"leisure"},{"name":"본주짓수 봉담","tel":"031-291-0707","addr":"경기도 화성시 봉담읍 동화리 600-2번지 우신봉담빌딩 4층 403,404호","indutype":"레저업소 - 헬스클럽","category":"leisure"},{"name":"봉담특공무술","tel":"031-267-3366","addr":"경기도 화성시 봉담읍 동화리 600-2번지 우신봉담빌딩 601호","indutype":"레저업소 - 헬스클럽","category":"leisure"},{"name":"오렌지노래방","tel":"","addr":"경기도 화성시 봉담읍 동화리 600-2번지 우신봉담빌딩 303,304호","indutype":"레저업소 - 노 래 방","category":"leisure"}]},{"lat":"37.216633114","long":"126.95857136","imageIndex":13,"items":[{"name":"경희대스포츠","tel":"031-227-3443","addr":"경기도 화성시 봉담읍 동화리 599-3번지 주공프라자901호,902호903호","indutype":"레저업소 - 헬스클럽","category":"leisure"},{"name":"뒤풀이노래연습장","tel":"070-8947-4490","addr":"경기도 화성시 봉담읍 동화리 599-3번지 3층 302호,303호","indutype":"레저업소 - 노 래 방","category":"leisure"},{"name":"레드pc방","tel":"031-000-0000","addr":"경기도 화성시 봉담읍 동화리 599-3번지 9층","indutype":"레저업소 - 기타레져업소","category":"leisure"},{"name":"마이큐당구클럽","tel":"031-111-1111","addr":"경기도 화성시 봉담읍 동화리 599-3번지 504호.505호","indutype":"레저업소 - 당 구 장","category":"leisure"},{"name":"요가유즈바이필라테스","tel":"03-100-0000","addr":"경기도 화성시 봉담읍 동화리 599-3번지 주공프라자 402호","indutype":"레저업소 - 헬스클럽","category":"leisure"},{"name":"점플린 정글","tel":"031-278-3088","addr":"경기도 화성시 봉담읍 동화리 599-3번지 주공프라자 8층 802호 803호 801호","indutype":"레저업소 - 기타레져업소","category":"leisure"}]},{"lat":"37.216381099","long":"126.95931509","imageIndex":13,"items":[{"name":"까리뇨캐롬클럽","tel":"","addr":"경기도 화성시 봉담읍 동화리 600-6번지 지촌타워 4층 403호,404호","indutype":"레저업소 - 당 구 장","category":"leisure"}]},{"lat":"37.216714627","long":"126.95970922","imageIndex":13,"items":[{"name":"명품노래연습장","tel":"031-227-2454","addr":"경기도 화성시 봉담읍 동화리 600-3번지 404호 파크파라자","indutype":"레저업소 - 노 래 방","category":"leisure"},{"name":"트리플PC방(TRIPLE)","tel":"070-8687-2353","addr":"경기도 화성시 봉담읍 동화리 600-3번지 전체파크프라자 3층 전체","indutype":"레저업소 - 기타레져업소","category":"leisure"}]},{"lat":"37.217021098","long":"126.96003577","imageIndex":13,"items":[{"name":"발리노래연습장","tel":"031-296-6820","addr":"경기도 화성시 봉담읍 동화리 600-1번지 301호","indutype":"레저업소 - 노 래 방","category":"leisure"},{"name":"와와노래연습장/(주)케이지산업개발","tel":"031-296-4989","addr":"경기도 화성시 봉담읍 동화리 600-1번지 202호","indutype":"레저업소 - 노 래 방","category":"leisure"},{"name":"이제이 짐(EJ GYM)","tel":"031-298-7715","addr":"경기도 화성시 봉담읍 동화리 600-1번지 스타타워 202호 1","indutype":"레저업소 - 헬스클럽","category":"leisure"}]},{"lat":"37.217246226","long":"126.95967511","imageIndex":13,"items":[{"name":"복싱클래스","tel":"070-8825-5353","addr":"경기도 화성시 봉담읍 동화리 597-3번지 스타타워2 401,402호","indutype":"레저업소 - 헬스클럽","category":"leisure"},{"name":"봉담오락실","tel":"031-297-8765","addr":"경기도 화성시 봉담읍 동화리 597-3번지 스타타워 111,112,303,304호","indutype":"레저업소 - 기타레져업소","category":"leisure"},{"name":"썬노래연습장","tel":"","addr":"경기도 화성시 봉담읍 동화리 597-3번지 스타타워LL 5층 503호","indutype":"레저업소 - 노 래 방","category":"leisure"}]},{"lat":"37.21740833","long":"126.95944969","imageIndex":13,"items":[{"name":"스타노래연습장","tel":"031-291-0332","addr":"경기도 화성시 봉담읍 동화리 597-2번지 스타타워 503동 504호 3","indutype":"레저업소 - 노 래 방","category":"leisure"},{"name":"해피팡팡","tel":"031-232-5538","addr":"경기도 화성시 봉담읍 동화리 597-2번지 스타타워3차 401호","indutype":"레저업소 - 기타레져업소","category":"leisure"}]},{"lat":"37.216858267","long":"126.95828957","imageIndex":13,"items":[{"name":"스트라이크존 봉담구장","tel":"031-292-6999","addr":"경기도 화성시 봉담읍 동화리 599-2번지 8층 803호","indutype":"레저업소 - 기타레져업소","category":"leisure"},{"name":"제이골프","tel":"031-278-6161","addr":"경기도 화성시 봉담읍 동화리 599-2번지 이원타워 1001호","indutype":"레저업소 - 스크린골프","category":"leisure"},{"name":"탑플레이스PC방","tel":"070-2332-6869","addr":"경기도 화성시 봉담읍 동화리 599-2번지 302, 303호","indutype":"레저업소 - 기타레져업소","category":"leisure"}]},{"lat":"37.22135395","long":"126.95701374","imageIndex":13,"items":[{"name":"에스아이레포츠 주식회사","tel":"031-292-0929","addr":"경기도 화성시 봉담읍 동화리 398-5번지 2층","indutype":"레저업소 - 볼 링 장","category":"leisure"}]},{"lat":"37.223577867","long":"126.95295613","imageIndex":13,"items":[{"name":"에이스노래연습장","tel":"031-353-1653","addr":"경기도 화성시 봉담읍 동화리 416-4","indutype":"레저업소 - 노 래 방","category":"leisure"}]},{"lat":"37.216489028","long":"126.95878551","imageIndex":13,"items":[{"name":"유즈필라테스","tel":"","addr":"경기도 화성시 봉담읍 동화리 599-4번지 웅신아트프라자 601호 602호","indutype":"레저업소 - 헬스클럽","category":"leisure"}]},{"lat":"37.2207386","long":"126.95062574","imageIndex":13,"items":[{"name":"쥬쥬노래연습장","tel":"031-278-7755","addr":"경기도 화성시 봉담읍 동화리 425-8번지 2층","indutype":"레저업소 - 노 래 방","category":"leisure"}]},{"lat":"37.216516317","long":"126.959484","imageIndex":13,"items":[{"name":"테마노래연습장","tel":"031-278-9456","addr":"경기도 화성시 봉담읍 동화리 600-5번지 쌍용프라자 3층 303,304호","indutype":"레저업소 - 노 래 방","category":"leisure"}]},{"lat":"37.220855809","long":"126.95079466","imageIndex":13,"items":[{"name":"팡팡노래연습장","tel":"031-292-8010","addr":"경기도 화성시 봉담읍 동화리 425-18번지","indutype":"레저업소 - 노 래 방","category":"leisure"}]},{"lat":"37.216238936","long":"126.96515111","imageIndex":13,"items":[{"name":"피닉스스포츠클럽","tel":"031-298-7079","addr":"경기도 화성시 봉담읍 동화리 244-2번지","indutype":"레저업소 - 기타레져업소","category":"leisure"}]},{"lat":"37.215630588","long":"126.95262338","imageIndex":13,"items":[{"name":"협성당구장","tel":"031-297-7906","addr":"경기도 화성시 봉담읍 동화리 572-4번지","indutype":"레저업소 - 당 구 장","category":"leisure"}]}]