[{"lat":"37.00031373","long":"127.17786851","imageIndex":16,"items":[{"name":"FBI수학공부방","tel":"070-4402-2835","addr":"경기도 안성시 공도읍 만정리 877번지 KCC스위첸 114동 301호","indutype":"회원제형태 - 학원","category":"study"}]},{"lat":"37.007357039","long":"127.17377249","imageIndex":16,"items":[{"name":"Nature Music","tel":"","addr":"경기도 안성시 공도읍 만정리 781-1번지 엘리시아 401호","indutype":"학원 - 기타 교육기관","category":"study"}]},{"lat":"37.001242084","long":"127.17146697","imageIndex":16,"items":[{"name":"SnJ 영어학원","tel":"031-658-1105","addr":"경기도 안성시 공도읍 만정리 809-2번지","indutype":"학원 - 외국어학원","category":"study"},{"name":"공도독서실","tel":"031-654-3080","addr":"경기도 안성시 공도읍 만정리 809-2번지 2층","indutype":"학원 - 독서실","category":"study"},{"name":"옥경이 수학 영어학원","tel":"031-674-0789","addr":"경기도 안성시 공도읍 만정리 809-2번지 3층","indutype":"학원 - 보습학원","category":"study"}]},{"lat":"37.001354241","long":"127.17493868","imageIndex":16,"items":[{"name":"ktigers 삼성태권도","tel":"031-616-7777","addr":"경기도 안성시 공도읍 만정리 274-3번지 골드일번가 402호","indutype":"학원 - 예·체능계학원","category":"study"},{"name":"공터영어길수학학원","tel":"031-653-9007","addr":"경기도 안성시 공도읍 만정리 274-3번지 403 골드1번가","indutype":"학원 - 보습학원","category":"study"},{"name":"길수학","tel":"031-653-9007","addr":"경기도 안성시 공도읍 만정리 274-3","indutype":"학원 - 보습학원","category":"study"},{"name":"모자속코끼리미술학원","tel":"031-655-4666","addr":"경기도 안성시 공도읍 만정리 274-3","indutype":"학원 - 예·체능계학원","category":"study"},{"name":"소리숲음악학원","tel":"031-616-1111","addr":"경기도 안성시 공도읍 만정리 274-3번지 골드일번가 상가 401호","indutype":"학원 - 예·체능계학원","category":"study"},{"name":"케이에스티(KST) 삼성태권도","tel":"031-616-7777","addr":"경기도 안성시 공도읍 만정리 274-3번지 302호","indutype":"학원 - 예·체능계학원","category":"study"}]},{"lat":"37.001908009","long":"127.17207511","imageIndex":16,"items":[{"name":"경기창조고등학교","tel":"031-646-2200","addr":"경기도 안성시 공도읍 만정리 789번지 경기창조고등학교","indutype":"학원 - 초중고교육기관","category":"study"},{"name":"경기창조고등학교_수업료","tel":"031-646-2200","addr":"경기도 안성시 공도읍 만정리 789번지 경기창조고등학교","indutype":"학원 - 초중고교육기관","category":"study"}]},{"lat":"36.999912325","long":"127.17508148","imageIndex":16,"items":[{"name":"고운소리 음악학원","tel":"031-653-2211","addr":"경기도 안성시 공도읍 만정리 880번지 디자인시티블루밍 상가동 3층 301-A호","indutype":"학원 - 예·체능계학원","category":"study"},{"name":"더블샵피아노교습소","tel":"031-651-3501","addr":"경기도 안성시 공도읍 만정리 880번지 디자인시티블루밍상가2동 101,102호","indutype":"학원 - 예·체능계학원","category":"study"},{"name":"발레가든학원","tel":"031-653-6424","addr":"경기도 안성시 공도읍 만정리 880번지 디자인시티블루밍 상가 3018호","indutype":"학원 - 예·체능계학원","category":"study"},{"name":"블루밍어린이집[아이행복]","tel":"031-692-5007","addr":"경기도 안성시 공도읍 만정리 880번지","indutype":"학원 - 유아원","category":"study"},{"name":"시매쓰공도학원","tel":"031-656-7909","addr":"경기도 안성시 공도읍 만정리 880번지 디자인시티블루밍 상가 2동 204호","indutype":"학원 - 보습학원","category":"study"},{"name":"안성 종로엠 학원","tel":"031-692-3223","addr":"경기도 안성시 공도읍 만정리 880번지 디자인시티블루밍 2동 3층 301호","indutype":"학원 - 보습학원","category":"study"},{"name":"영어숲윤선생교실,안성공도만정학원","tel":"031-692-0555","addr":"경기도 안성시 공도읍 만정리 880번지 디자인시티블루밍상가제1동303,304,305","indutype":"학원 - 보습학원","category":"study"}]},{"lat":"37.000270934","long":"127.1700493","imageIndex":16,"items":[{"name":"공도 차이나로 중국어학원","tel":"031-657-5551","addr":"경기도 안성시 공도읍 만정리 815-3번지 3층","indutype":"학원 - 외국어학원","category":"study"},{"name":"공도스카이학원","tel":"031-671-1295","addr":"경기도 안성시 공도읍 만정리 815-3번지 2층","indutype":"학원 - 보습학원","category":"study"},{"name":"공도정상어학원","tel":"031-673-0579","addr":"경기도 안성시 공도읍 만정리 815-3번지 201호,302호","indutype":"회원제형태 - 학원","category":"study"}]},{"lat":"37.000953851","long":"127.17762281","imageIndex":16,"items":[{"name":"공도스위첸어린이집[아이행복]","tel":"031-658-1598","addr":"경기도 안성시 공도읍 만정리 877번지 케이씨씨스위첸","indutype":"학원 - 유아원","category":"study"},{"name":"더프라임학원","tel":"031-656-6684","addr":"경기도 안성시 공도읍 만정리 877번지 케이씨씨스위첸 상가동 202,203호","indutype":"학원 - 보습학원","category":"study"},{"name":"토론하는아이들논술교습소","tel":"031-656-7010","addr":"경기도 안성시 공도읍 만정리 877번지 케이씨씨스위첸 주상가동 106호","indutype":"학원 - 보습학원","category":"study"}]},{"lat":"37.001720238","long":"127.17105235","imageIndex":16,"items":[{"name":"공도실용음악학원","tel":"031-653-8030","addr":"경기도 안성시 공도읍 만정리 808-2번지 4층","indutype":"회원제형태 - 학원","category":"study"},{"name":"메쓰키 (Math Key)학원","tel":"031-654-0913","addr":"경기도 안성시 공도읍 만정리 808-2번지 3층 301호","indutype":"학원 - 보습학원","category":"study"}]},{"lat":"37.008104437","long":"127.17411123","imageIndex":16,"items":[{"name":"공도어울림해법영어","tel":"031-611-0594","addr":"경기도 안성시 공도읍 만정리 779-2번지 그랜드캐슬 106동 401호","indutype":"학원 - 보습학원","category":"study"}]},{"lat":"37.001941945","long":"127.17354692","imageIndex":16,"items":[{"name":"공도중학교","tel":"031-612-7270","addr":"경기도 안성시 공도읍 만정리 418-1번지 공도중학교","indutype":"학원 - 초중고교육기관","category":"study"}]},{"lat":"37.000038995","long":"127.17472227","imageIndex":16,"items":[{"name":"꿈꾸는영어공부방","tel":"02-000-0000","addr":"경기도 안성시 공도읍 만정리 880번지 디자인시티블루밍 114동 2001호","indutype":"학원 - 기타 교육기관","category":"study"},{"name":"바른생각어린이집[아이행복]","tel":"031-692-8898","addr":"경기도 안성시 공도읍 만정리 880번지 디자인시티블루밍 114동 1층","indutype":"학원 - 유아원","category":"study"},{"name":"최상위 과외방","tel":"031-616-7087","addr":"경기도 안성시 공도읍 만정리 880번지 디자인시티블루밍 114동 1402호","indutype":"학원 - 보습학원","category":"study"}]},{"lat":"37.006910054","long":"127.18354623","imageIndex":16,"items":[{"name":"꿈예뜰 어린이집[아이행복]","tel":"","addr":"경기도 안성시 공도읍 만정리 307-16번지","indutype":"학원 - 유아원","category":"study"},{"name":"미예뜰어린이집[아이행복]","tel":"031-652-7546","addr":"경기도 안성시 공도읍 만정리 307-16번지","indutype":"학원 - 유아원","category":"study"}]},{"lat":"37.004941781","long":"127.17404796","imageIndex":16,"items":[{"name":"달리는유아체육","tel":"031-691-1348","addr":"경기도 안성시 공도읍 만정리 785-6번지 안성공도금호어울림 101동 2001호","indutype":"학원 - 기타 교육기관","category":"study"},{"name":"어울림어린이집[아이행복]","tel":"031-651-0980","addr":"경기도 안성시 공도읍 만정리 785-6번지 안성공도금호어울림 101동 102호","indutype":"학원 - 유아원","category":"study"}]},{"lat":"37.007330928","long":"127.17313202","imageIndex":16,"items":[{"name":"대자연어린이집[아이행복]","tel":"031-654-1929","addr":"경기도 안성시 공도읍 만정리 780-3번지","indutype":"학원 - 유아원","category":"study"}]},{"lat":"37.000385192","long":"127.17208297","imageIndex":16,"items":[{"name":"라인무용학원","tel":"031-618-1032","addr":"경기도 안성시 공도읍 만정리 817-2번지 우성메디컬 206호 상가","indutype":"학원 - 예·체능계학원","category":"study"},{"name":"비유어학원","tel":"031-652-8205","addr":"경기도 안성시 공도읍 만정리 817-2번지 우성메디컬프라자 606호","indutype":"회원제형태 - 학원","category":"study"},{"name":"스텔라 미용학원","tel":"031-653-3369","addr":"경기도 안성시 공도읍 만정리 817-2번지 우성메디컬프라자 801호","indutype":"학원 - 기능학원","category":"study"},{"name":"얼룩말영어학원","tel":"070-4036-1494","addr":"경기도 안성시 공도읍 만정리 817-2번지 우성메디컬프라자 605호","indutype":"학원 - 외국어학원","category":"study"},{"name":"영훈수학전문학원","tel":"031-652-9797","addr":"경기도 안성시 공도읍 만정리 817-2번지 우성프라자 603호","indutype":"학원 - 보습학원","category":"study"},{"name":"월드바리스타학원(안성점)","tel":"031-654-1773","addr":"경기도 안성시 공도읍 만정리 817-2번지 (제1동우성메디컬602호)","indutype":"회원제형태 - 학원","category":"study"},{"name":"쟁이마을미술학원","tel":"031-691-0821","addr":"경기도 안성시 공도읍 만정리 817-2번지 우성메디컬프라자 604호","indutype":"학원 - 예·체능계학원","category":"study"}]},{"lat":"37.008135567","long":"127.17124625","imageIndex":16,"items":[{"name":"리드인독서논술 공도교습소","tel":"070-8279-0624","addr":"경기도 안성시 공도읍 만정리 777-1번지 안성공도금호어울림 상가동2차 102호","indutype":"학원 - 보습학원","category":"study"},{"name":"샵(#)예인피아노","tel":"","addr":"경기도 안성시 공도읍 만정리 777-1번지 안성공도금호어울림 상가동 103호","indutype":"학원 - 예·체능계학원","category":"study"},{"name":"잉글리시아이 만정점영어교습소","tel":"031-655-5689","addr":"경기도 안성시 공도읍 만정리 777-1번지 안성공도금호어울림 상가동 1층 104호","indutype":"학원 - 외국어학원","category":"study"}]},{"lat":"37.007439924","long":"127.17252555","imageIndex":16,"items":[{"name":"리클모마미술학원","tel":"031-651-2356","addr":"경기도 안성시 공도읍 만정리 779-4번지 202호","indutype":"학원 - 예·체능계학원","category":"study"},{"name":"엘리제음악학원","tel":"031-655-5855","addr":"경기도 안성시 공도읍 만정리 779-4번지 3층 302호","indutype":"학원 - 예·체능계학원","category":"study"},{"name":"한울 랭귀지 아카데미(훌라 잉글리시)학원","tel":"031-653-6322","addr":"경기도 안성시 공도읍 만정리 779-4번지 201호","indutype":"학원 - 외국어학원","category":"study"}]},{"lat":"37.008214084","long":"127.17305534","imageIndex":16,"items":[{"name":"만정중학교","tel":"031-678-9700","addr":"경기도 안성시 공도읍 만정리 779-1번지 만정중학교","indutype":"학원 - 초중고교육기관","category":"study"},{"name":"만정중학교_수업료","tel":"031-678-9700","addr":"경기도 안성시 공도읍 만정리 779-1번지 만정중학교","indutype":"학원 - 초중고교육기관","category":"study"}]},{"lat":"37.006630231","long":"127.17163616","imageIndex":16,"items":[{"name":"만정초등학교","tel":"031-692-5614","addr":"경기도 안성시 공도읍 만정리 783-1번지 만정초등학교","indutype":"학원 - 초중고교육기관","category":"study"},{"name":"만정초등학교병설유치원[아이행복]","tel":"031-692-5619","addr":"경기도 안성시 공도읍 만정리 783-1번지 만정초등학교","indutype":"학원 - 유치원","category":"study"}]},{"lat":"36.998687043","long":"127.16863033","imageIndex":16,"items":[{"name":"뮤직아카데미 연 학원","tel":"070-4125-0739","addr":"경기도 안성시 공도읍 만정리 417-60번지 3층","indutype":"학원 - 예·체능계학원","category":"study"},{"name":"연실용음악학원","tel":"070-4125-0739","addr":"경기도 안성시 공도읍 만정리 417-60번지 3층","indutype":"회원제형태 - 학원","category":"study"}]},{"lat":"36.999992081","long":"127.17600287","imageIndex":16,"items":[{"name":"블루밍뽀로로어린이집[아이행복]","tel":"031-657-5791","addr":"경기도 안성시 공도읍 만정리 880번지 디자인시티블루밍 109동 103호","indutype":"학원 - 유아원","category":"study"}]},{"lat":"36.998531238","long":"127.17676348","imageIndex":16,"items":[{"name":"사랑의하모니어린이집[아이행복]","tel":"031-691-3275","addr":"경기도 안성시 공도읍 만정리 880번지 벽산블루밍 105동 104호","indutype":"학원 - 유아원","category":"study"}]},{"lat":"37.002081141","long":"127.1707161","imageIndex":16,"items":[{"name":"선미쌤수학교습소","tel":"031-675-3478","addr":"경기도 안성시 공도읍 만정리 800-5번지 201호","indutype":"학원 - 보습학원","category":"study"}]},{"lat":"37.004917935","long":"127.17182337","imageIndex":16,"items":[{"name":"송샘입시연구소","tel":"031-691-5150","addr":"경기도 안성시 공도읍 만정리 783-2번지 경기도시공사참아름 207동 606호","indutype":"학원 - 기타 교육기관","category":"study"}]},{"lat":"37.001855557","long":"127.1709403","imageIndex":16,"items":[{"name":"스콜라스","tel":"031-618-7996","addr":"경기도 안성시 공도읍 만정리 808-1번지 202호","indutype":"학원 - 학습지 교육","category":"study"},{"name":"창조1인독서실","tel":"031-654-0982","addr":"경기도 안성시 공도읍 만정리 808-1번지 4층","indutype":"학원 - 독서실","category":"study"}]},{"lat":"37.007329084","long":"127.17441285","imageIndex":16,"items":[{"name":"스텔라 피아노 음악교습소","tel":"","addr":"경기도 안성시 공도읍 만정리 781-4번지 103호","indutype":"학원 - 예·체능계학원","category":"study"}]},{"lat":"37.005051861","long":"127.17268877","imageIndex":16,"items":[{"name":"아람어린이집[아이행복]","tel":"031-658-0656","addr":"경기도 안성시 공도읍 만정리 785-6번지 안성공도금호어울림 103동 101호","indutype":"학원 - 유아원","category":"study"},{"name":"아람어린이집[아이행복]","tel":"031-658-0656","addr":"경기도 안성시 공도읍 만정리 785-6번지 안성공도금호어울림 103동 101호","indutype":"학원 - 유아원","category":"study"},{"name":"아이큰숲어린이집[아이행복]","tel":"031-651-6115","addr":"경기도 안성시 공도읍 만정리 785-6번지 안성공도금호어울림 103동 103호","indutype":"학원 - 유아원","category":"study"}]},{"lat":"36.999241637","long":"127.17151873","imageIndex":16,"items":[{"name":"아이림어린이집[아이행복]","tel":"031-652-0200","addr":"경기도 안성시 공도읍 만정리 424-7번지","indutype":"학원 - 유아원","category":"study"}]},{"lat":"37.001386445","long":"127.17133248","imageIndex":16,"items":[{"name":"안성중앙간호학원","tel":"031-675-7006","addr":"경기도 안성시 공도읍 만정리 809-1번지 2층","indutype":"회원제형태 - 학원","category":"study"}]},{"lat":"37.001271149","long":"127.17002902","imageIndex":16,"items":[{"name":"엄마사랑유치원[아이행복]","tel":"031-652-1125","addr":"경기도 안성시 공도읍 만정리 805-1번지","indutype":"학원 - 유치원","category":"study"}]},{"lat":"37.007383634","long":"127.17407591","imageIndex":16,"items":[{"name":"에이플러스영재학원","tel":"031-656-2325","addr":"경기도 안성시 공도읍 만정리 781-2번지","indutype":"학원 - 보습학원","category":"study"},{"name":"유투엠안성공도캠퍼스 수학학원","tel":"031-654-4848","addr":"경기도 안성시 공도읍 만정리 781-2번지 3층","indutype":"학원 - 보습학원","category":"study"},{"name":"최강태권도장","tel":"031-653-3107","addr":"경기도 안성시 공도읍 만정리 781-2번지 4층","indutype":"학원 - 예·체능계학원","category":"study"}]},{"lat":"37.001297887","long":"127.17651139","imageIndex":16,"items":[{"name":"에코비어린이집[아이행복]","tel":"031-658-6085","addr":"경기도 안성시 공도읍 만정리 880번지 만정리벽산블루밍 117동 103호","indutype":"학원 - 유아원","category":"study"},{"name":"조현지 개인과외","tel":"","addr":"경기도 안성시 공도읍 만정리 880번지 디자인시티블루밍 117동 2003호","indutype":"학원 - 기타 교육기관","category":"study"},{"name":"치우쌤","tel":"031-616-0424","addr":"경기도 안성시 공도읍 만정리 880번지 디자인시티블루밍 117동 302호","indutype":"학원 - 기타 교육기관","category":"study"}]},{"lat":"37.003272581","long":"127.17558339","imageIndex":16,"items":[{"name":"엘피스어린이집[아이행복]","tel":"031-651-3886","addr":"경기도 안성시 공도읍 만정리 709-1번지 한일타운 102동 107호","indutype":"학원 - 유아원","category":"study"}]},{"lat":"36.998713604","long":"127.16896741","imageIndex":16,"items":[{"name":"영피아노학원","tel":"031-655-1233","addr":"경기도 안성시 공도읍 만정리 425-1번지 2층","indutype":"학원 - 예·체능계학원","category":"study"}]},{"lat":"36.999848963","long":"127.16895865","imageIndex":16,"items":[{"name":"우리들공부방","tel":"031-655-7068","addr":"경기도 안성시 공도읍 만정리 417-156번지 덕성빌라 B동 201호","indutype":"학원 - 기타 교육기관","category":"study"}]},{"lat":"37.005753629","long":"127.17343185","imageIndex":16,"items":[{"name":"윤샘영어과외","tel":"","addr":"경기도 안성시 공도읍 만정리 785-6번지 안성공도금호어울림 105동 104호","indutype":"학원 - 기타 교육기관","category":"study"}]},{"lat":"37.00218938","long":"127.1706377","imageIndex":16,"items":[{"name":"이익형 과외방","tel":"","addr":"경기도 안성시 공도읍 만정리 800-4번지 204호","indutype":"학원 - 기타 교육기관","category":"study"},{"name":"코너스톤","tel":"","addr":"경기도 안성시 공도읍 만정리 800-4번지 201호","indutype":"학원 - 기타 교육기관","category":"study"},{"name":"테디영어","tel":"","addr":"경기도 안성시 공도읍 만정리 800-4번지 202호","indutype":"학원 - 기타 교육기관","category":"study"}]},{"lat":"37.002217126","long":"127.1701322","imageIndex":16,"items":[{"name":"지니쌤 음악교습소","tel":"031-652-7983","addr":"경기도 안성시 공도읍 만정리 798-2번지 1층 102호","indutype":"학원 - 예·체능계학원","category":"study"}]},{"lat":"37.002994506","long":"127.17471768","imageIndex":16,"items":[{"name":"참아름어린이집[아이행복]","tel":"031-657-1466","addr":"경기도 안성시 공도읍 만정리 788-4번지","indutype":"학원 - 유아원","category":"study"}]},{"lat":"37.002297667","long":"127.17052559","imageIndex":16,"items":[{"name":"창조수학","tel":"031-618-0747","addr":"경기도 안성시 공도읍 만정리 800-3번지","indutype":"학원 - 보습학원","category":"study"}]},{"lat":"37.005743664","long":"127.1740947","imageIndex":16,"items":[{"name":"천사어린이집[아이행복]","tel":"031-655-5242","addr":"경기도 안성시 공도읍 만정리 785-6번지 안성공도금호어울림 106동 103호","indutype":"학원 - 유아원","category":"study"}]},{"lat":"36.99959489","long":"127.17649628","imageIndex":16,"items":[{"name":"케빈쌤의 영어교실","tel":"070-8851-0525","addr":"경기도 안성시 공도읍 만정리 880번지 디자인시티블루밍 108동 904호","indutype":"학원 - 보습학원","category":"study"},{"name":"파인리베어린이집[아이행복]","tel":"031-658-9814","addr":"경기도 안성시 공도읍 만정리 880번지 디자인시티블루밍 108동 104호","indutype":"학원 - 유아원","category":"study"},{"name":"파인리베어린이집[아이행복]","tel":"","addr":"경기도 안성시 공도읍 만정리 880번지 디자인시티블루밍 108동 104호","indutype":"학원 - 유아원","category":"study"},{"name":"확인영어 안성공도센터","tel":"031-8050-8359","addr":"경기도 안성시 공도읍 만정리 880번지 디자인시티블루밍 108동 103호","indutype":"학원 - 기타 교육기관","category":"study"}]},{"lat":"37.00147052","long":"127.16922057","imageIndex":16,"items":[{"name":"클라라음악학원","tel":"031-658-0772","addr":"경기도 안성시 공도읍 만정리 803-1번지 1층","indutype":"학원 - 예·체능계학원","category":"study"},{"name":"클라라음악학원","tel":"031-658-0772","addr":"경기도 안성시 공도읍 만정리 803-1번지 은성빌 101호","indutype":"학원 - 예·체능계학원","category":"study"}]},{"lat":"36.998757293","long":"127.17622476","imageIndex":16,"items":[{"name":"튼튼어린이집[아이행복]","tel":"031-654-1551","addr":"경기도 안성시 공도읍 만정리 880번지 디자인시티블루밍 104동 102호","indutype":"학원 - 유아원","category":"study"}]},{"lat":"36.999550934","long":"127.16944107","imageIndex":16,"items":[{"name":"하나합기도","tel":"031-651-8506","addr":"경기도 안성시 공도읍 만정리 417-18번지","indutype":"학원 - 예·체능계학원","category":"study"}]},{"lat":"37.000181795","long":"127.17566627","imageIndex":16,"items":[{"name":"한나어린이집[아이행복]","tel":"070-4220-2933","addr":"경기도 안성시 공도읍 만정리 880번지 벽산브루밍 110동 101호","indutype":"학원 - 유아원","category":"study"}]},{"lat":"37.007413453","long":"127.17213225","imageIndex":16,"items":[{"name":"한울유치원[아이행복]","tel":"031-653-5311","addr":"경기도 안성시 공도읍 만정리 777-3","indutype":"학원 - 유치원","category":"study"}]},{"lat":"37.005330241","long":"127.17335226","imageIndex":16,"items":[{"name":"해법독서논술","tel":"031-000-0000","addr":"경기도 안성시 공도읍 만정리 785-6번지 안성공도금호어울림 상가동 103호","indutype":"학원 - 보습학원","category":"study"}]},{"lat":"37.000811969","long":"127.1760609","imageIndex":16,"items":[{"name":"해피트리 공부방","tel":"031-618-3980","addr":"경기도 안성시 공도읍 만정리 880번지 디자인시티블루밍 116동 103호","indutype":"학원 - 기타 교육기관","category":"study"}]},{"lat":"37.000479572","long":"127.17537485","imageIndex":16,"items":[{"name":"행복한그림어린이집[아이행복]","tel":"031-618-3548","addr":"경기도 안성시 공도읍 만정리 880번지 디자인시티블루밍 115동 103호","indutype":"학원 - 유아원","category":"study"}]}]