[{"lat":"37.590064008","long":"127.22416703","imageIndex":4,"items":[{"name":"(주)스카이에프앤씨","tel":"032-456-9600","addr":"경기도 남양주시 와부읍 덕소리 87-4번지 1층","indutype":"일반휴게음식 - 일반한식","category":"restaurant"},{"name":"봉봉","tel":"031-577-7373","addr":"경기도 남양주시 와부읍 덕소리 87-4번지 1층","indutype":"일반휴게음식 - 서양음식","category":"restaurant"}]},{"lat":"37.584563668","long":"127.211731","imageIndex":4,"items":[{"name":"1986덕소닭발","tel":"","addr":"경기도 남양주시 와부읍 덕소리 511-7번지","indutype":"일반휴게음식 - 일반한식","category":"restaurant"}]},{"lat":"37.586951873","long":"127.21642495","imageIndex":4,"items":[{"name":"24시전주명가콩나물국밥","tel":"031-576-5678","addr":"경기도 남양주시 와부읍 덕소리 138-5번지","indutype":"일반휴게음식 - 일반한식","category":"restaurant"}]},{"lat":"37.585401153","long":"127.21197109","imageIndex":4,"items":[{"name":"3000원손칼국수","tel":"031-521-0336","addr":"경기도 남양주시 와부읍 덕소리 512-2번지","indutype":"일반휴게음식 - 일반한식","category":"restaurant"}]},{"lat":"37.587617068","long":"127.21224902","imageIndex":4,"items":[{"name":"30년전통옥수돼지숯불갈비","tel":"031-521-9292","addr":"경기도 남양주시 와부읍 덕소리 462-52번지","indutype":"일반휴게음식 - 일반한식","category":"restaurant"}]},{"lat":"37.587646135","long":"127.21614388","imageIndex":4,"items":[{"name":"37수레로","tel":"031-521-7222","addr":"경기도 남양주시 와부읍 덕소리 490-29번지 1층","indutype":"일반휴게음식 - 서양음식","category":"restaurant"}]},{"lat":"37.587450809","long":"127.20945202","imageIndex":4,"items":[{"name":"45년부대찌게","tel":"031-521-3945","addr":"경기도 남양주시 와부읍 덕소리 산21-9번지 1층","indutype":"일반휴게음식 - 일반한식","category":"restaurant"},{"name":"동촌우동","tel":"031-551-5138","addr":"경기도 남양주시 와부읍 덕소리 산21-9번지 1층","indutype":"일반휴게음식 - 스넥","category":"restaurant"}]},{"lat":"37.585422785","long":"127.20992193","imageIndex":4,"items":[{"name":"간도우초밥","tel":"031-577-5768","addr":"경기도 남양주시 와부읍 덕소리 600-14번지 세양청마루 103호","indutype":"일반휴게음식 - 일식·회집","category":"restaurant"},{"name":"덕소곱창","tel":"031-521-4419","addr":"경기도 남양주시 와부읍 덕소리 600-14번지 세양청마루 125호","indutype":"일반휴게음식 - 일반한식","category":"restaurant"},{"name":"도마다리 뼈다귀 전문점","tel":"031-521-1577","addr":"경기도 남양주시 와부읍 덕소리 600-14번지 2-126,127,128호(세양청마루)","indutype":"일반휴게음식 - 일반한식","category":"restaurant"},{"name":"버즈카페","tel":"031-576-0191","addr":"경기도 남양주시 와부읍 덕소리 600-14번지 세양청마루 2동 120호","indutype":"일반휴게음식 - 스넥","category":"restaurant"},{"name":"장스치킨","tel":"031-521-2219","addr":"경기도 남양주시 와부읍 덕소리 600-14번지 세양청마루 109,110호","indutype":"일반휴게음식 - 주점","category":"restaurant"},{"name":"젠틀콩(덕소점)","tel":"031-576-7970","addr":"경기도 남양주시 와부읍 덕소리 600-14번지 (세양청마루20,2-121호,122호)","indutype":"일반휴게음식 - 스넥","category":"restaurant"},{"name":"포항회집(포장전문점)","tel":"031-521-5967","addr":"경기도 남양주시 와부읍 덕소리 600-14번지 세양청마루상가 103동 103호","indutype":"일반휴게음식 - 일반한식","category":"restaurant"},{"name":"해물마을","tel":"031-9351-5934","addr":"경기도 남양주시 와부읍 덕소리 600-14번지 지1층 3-비105호","indutype":"일반휴게음식 - 일반한식","category":"restaurant"},{"name":"홍가네쭈꾸미","tel":"031-576-0708","addr":"경기도 남양주시 와부읍 덕소리 600-14번지 2-114,2-115호(세양청마루)","indutype":"일반휴게음식 - 일반한식","category":"restaurant"}]},{"lat":"37.587591401","long":"127.21147905","imageIndex":4,"items":[{"name":"갑부생삼겹살","tel":"031-577-1512","addr":"경기도 남양주시 와부읍 덕소리 462-35번지 1동 1호","indutype":"일반휴게음식 - 일반한식","category":"restaurant"}]},{"lat":"37.586535336","long":"127.212563","imageIndex":4,"items":[{"name":"강남찌게나라","tel":"070-4406-2600","addr":"경기도 남양주시 와부읍 덕소리 474-13번지 1층","indutype":"일반휴게음식 - 일반한식","category":"restaurant"}]},{"lat":"37.593841284","long":"127.22300063","imageIndex":4,"items":[{"name":"강창구진찹쌀순대","tel":"031-576-9990","addr":"경기도 남양주시 와부읍 덕소리 36-30번지 1층","indutype":"일반휴게음식 - 일반한식","category":"restaurant"},{"name":"착한낙지","tel":"031-577-4444","addr":"경기도 남양주시 와부읍 덕소리 36-30번지","indutype":"일반휴게음식 - 일반한식","category":"restaurant"}]},{"lat":"37.587315227","long":"127.20970073","imageIndex":4,"items":[{"name":"개성면옥","tel":"031-576-7474","addr":"경기도 남양주시 와부읍 덕소리 462-19번지 개성면옥","indutype":"일반휴게음식 - 일반한식","category":"restaurant"}]},{"lat":"37.586065642","long":"127.21322967","imageIndex":4,"items":[{"name":"고봉민김밥인 남양주덕소점","tel":"031-577-5771","addr":"경기도 남양주시 와부읍 덕소리 476-3번지 외11필지 일신프라자 102호","indutype":"일반휴게음식 - 스넥","category":"restaurant"}]},{"lat":"37.587232629","long":"127.21056097","imageIndex":4,"items":[{"name":"고향다방","tel":"031-577-6252","addr":"경기도 남양주시 와부읍 덕소리 462-29번지","indutype":"일반휴게음식 - 서양음식","category":"restaurant"}]},{"lat":"37.5901745","long":"127.21800797","imageIndex":4,"items":[{"name":"고향손칼국수","tel":"031-577-3237","addr":"경기도 남양주시 와부읍 덕소리 187-3","indutype":"일반휴게음식 - 일반한식","category":"restaurant"},{"name":"이가네통닭","tel":"031-577-5777","addr":"경기도 남양주시 와부읍 덕소리 187-3번지","indutype":"일반휴게음식 - 주점","category":"restaurant"}]},{"lat":"37.586729141","long":"127.21503172","imageIndex":4,"items":[{"name":"골목집","tel":"031-576-5785","addr":"경기도 남양주시 와부읍 덕소리 491-16번지 양지빌라 101호","indutype":"일반휴게음식 - 일반한식","category":"restaurant"}]},{"lat":"37.58483729","long":"127.20984106","imageIndex":4,"items":[{"name":"골뱅이이모네포장마차","tel":"031-576-2248","addr":"경기도 남양주시 와부읍 덕소리 567-3번지 래일스타 112호","indutype":"일반휴게음식 - 일반한식","category":"restaurant"},{"name":"곱분이곱창앤구이구닭갈비","tel":"031-1111-1111","addr":"경기도 남양주시 와부읍 덕소리 567-3번지 113,114호","indutype":"일반휴게음식 - 일반한식","category":"restaurant"},{"name":"까소빈(casobean)","tel":"031-521-8248","addr":"경기도 남양주시 와부읍 덕소리 567-3번지 래일스타상가 1층 101호","indutype":"일반휴게음식 - 서양음식","category":"restaurant"},{"name":"남도사랑채","tel":"031-576-0589","addr":"경기도 남양주시 와부읍 덕소리 567-3번지 레일스타 114호","indutype":"일반휴게음식 - 일반한식","category":"restaurant"},{"name":"니코니코","tel":"031-528-6263","addr":"경기도 남양주시 와부읍 덕소리 567-3번지 레일스타빌딩 205호","indutype":"일반휴게음식 - 일반한식","category":"restaurant"},{"name":"더라이브","tel":"031-577-7080","addr":"경기도 남양주시 와부읍 덕소리 567-3번지 레일스타빌딩 201호","indutype":"일반휴게음식 - 주점","category":"restaurant"},{"name":"도쿄라멘 덕소점","tel":"031-577-3903","addr":"경기도 남양주시 와부읍 덕소리 567-3번지 레일스타빌딩 108호","indutype":"일반휴게음식 - 일식·회집","category":"restaurant"},{"name":"미스코리아족","tel":"031-513-5801","addr":"경기도 남양주시 와부읍 덕소리 567-3번지 래일스타 106호","indutype":"일반휴게음식 - 일반한식","category":"restaurant"},{"name":"본가돈부리","tel":"070-4223-4452","addr":"경기도 남양주시 와부읍 덕소리 567-3번지 레일스타 206호","indutype":"일반휴게음식 - 일반한식","category":"restaurant"},{"name":"센틴컵","tel":"031-577-2334","addr":"경기도 남양주시 와부읍 덕소리 567-3번지 204호(래일스타)","indutype":"일반휴게음식 - 서양음식","category":"restaurant"},{"name":"엘바","tel":"031-521-7877","addr":"경기도 남양주시 와부읍 덕소리 567-3번지 레일스타빌딩 503호","indutype":"일반휴게음식 - 일반한식","category":"restaurant"},{"name":"쭈노치킨가게","tel":"031-521-9242","addr":"경기도 남양주시 와부읍 덕소리 567-3번지 레일스타빌딩 1층 109호","indutype":"일반휴게음식 - 스넥","category":"restaurant"},{"name":"치치","tel":"031-521-2677","addr":"경기도 남양주시 와부읍 덕소리 567-3번지 레일스타빌딩 103호","indutype":"일반휴게음식 - 일반한식","category":"restaurant"},{"name":"하남돼지집","tel":"031-521-7676","addr":"경기도 남양주시 와부읍 덕소리 567-3번지 104. 105호","indutype":"일반휴게음식 - 일반한식","category":"restaurant"},{"name":"황소곱창","tel":"02-836-1040","addr":"경기도 남양주시 와부읍 덕소리 567-3번지 레일스타빌딩 110호","indutype":"일반휴게음식 - 일반한식","category":"restaurant"}]},{"lat":"37.589427043","long":"127.21781334","imageIndex":4,"items":[{"name":"공룡갈비 덕소점","tel":"031-521-5030","addr":"경기도 남양주시 와부읍 덕소리 168-3번지 훼밀리프라자 101호102,103호","indutype":"일반휴게음식 - 일반한식","category":"restaurant"},{"name":"더로드","tel":"","addr":"경기도 남양주시 와부읍 덕소리 168-3번지 훼밀리프라자 2층 202호","indutype":"일반휴게음식 - 서양음식","category":"restaurant"},{"name":"허니비어","tel":"031-577-9233","addr":"경기도 남양주시 와부읍 덕소리 168-3번지 훼밀리프라자 106호","indutype":"일반휴게음식 - 일반한식","category":"restaurant"}]},{"lat":"37.586396187","long":"127.21480434","imageIndex":4,"items":[{"name":"곽만근갈비탕(덕소점)","tel":"031-521-5615","addr":"경기도 남양주시 와부읍 덕소리 497-3","indutype":"일반휴게음식 - 일반한식","category":"restaurant"}]},{"lat":"37.585977074","long":"127.21236897","imageIndex":4,"items":[{"name":"교동짬뽕","tel":"031-111-1111","addr":"경기도 남양주시 와부읍 덕소리 474-8번지","indutype":"일반휴게음식 - 중국식","category":"restaurant"},{"name":"사월약방","tel":"031-514-0715","addr":"경기도 남양주시 와부읍 덕소리 474-8번지 3층","indutype":"일반휴게음식 - 서양음식","category":"restaurant"}]},{"lat":"37.586677961","long":"127.21342387","imageIndex":4,"items":[{"name":"교촌치킨덕소점","tel":"031-577-8080","addr":"경기도 남양주시 와부읍 덕소리 480-13번지","indutype":"일반휴게음식 - 주점","category":"restaurant"},{"name":"또순네맛집","tel":"031-521-4554","addr":"경기도 남양주시 와부읍 덕소리 480-13번지","indutype":"일반휴게음식 - 일반한식","category":"restaurant"},{"name":"온누리국시면옥","tel":"031-577-8043","addr":"경기도 남양주시 와부읍 덕소리 480-13번지 1층","indutype":"일반휴게음식 - 일반한식","category":"restaurant"}]},{"lat":"37.583616321","long":"127.21247557","imageIndex":4,"items":[{"name":"구이가 덕소점","tel":"031-576-9292","addr":"경기도 남양주시 와부읍 덕소리 541-12번지 우송타운 105호","indutype":"일반휴게음식 - 일반한식","category":"restaurant"},{"name":"피쉬엔그릴","tel":"031-521-9282","addr":"경기도 남양주시 와부읍 덕소리 541-12번지 우송상가타운 104호","indutype":"일반휴게음식 - 주점","category":"restaurant"}]},{"lat":"37.588065872","long":"127.21819438","imageIndex":4,"items":[{"name":"국수나무(덕소점)","tel":"031-521-7794","addr":"경기도 남양주시 와부읍 덕소리 144번지","indutype":"일반휴게음식 - 일반한식","category":"restaurant"},{"name":"피자가기가막혀","tel":"031-521-7210","addr":"경기도 남양주시 와부읍 덕소리 144번지 1층 은산빌딩","indutype":"일반휴게음식 - 서양음식","category":"restaurant"}]},{"lat":"37.587282863","long":"127.21272361","imageIndex":4,"items":[{"name":"국시앤냉면","tel":"031-521-8069","addr":"경기도 남양주시 와부읍 덕소리 484-1번지 선플렉스별관 105호","indutype":"일반휴게음식 - 일반한식","category":"restaurant"},{"name":"내고향쌈밥","tel":"031-577-3391","addr":"경기도 남양주시 와부읍 덕소리 484-1번지 외3필지썬플렉스별관 103호","indutype":"일반휴게음식 - 일반한식","category":"restaurant"},{"name":"대영각","tel":"031-577-4491","addr":"경기도 남양주시 와부읍 덕소리 484-1번지 외1필지 선플렉스별관 108,109호","indutype":"일반휴게음식 - 중국식","category":"restaurant"},{"name":"덕소손칼국수","tel":"031-521-0336","addr":"경기도 남양주시 와부읍 덕소리 484-1번지 선플렉스 1층 102호 별관","indutype":"일반휴게음식 - 일반한식","category":"restaurant"},{"name":"아거기","tel":"","addr":"경기도 남양주시 와부읍 덕소리 484-1번지 선플렉스별관 104호","indutype":"일반휴게음식 - 일반한식","category":"restaurant"},{"name":"팔당매운탕","tel":"031-577-4527","addr":"경기도 남양주시 와부읍 덕소리 484-1번지 106호 선플렉스별관","indutype":"일반휴게음식 - 일반한식","category":"restaurant"},{"name":"현빈이네따스한족발","tel":"031-521-0077","addr":"경기도 남양주시 와부읍 덕소리 484-1번지 선플렉스별관 101호","indutype":"일반휴게음식 - 일반한식","category":"restaurant"},{"name":"호식이무다리치킨(덕소점)","tel":"031-521-1444","addr":"경기도 남양주시 와부읍 덕소리 484-1번지 선플렉스 별관 1층 107호","indutype":"일반휴게음식 - 스넥","category":"restaurant"}]},{"lat":"37.585508085","long":"127.21263937","imageIndex":4,"items":[{"name":"그린식당","tel":"","addr":"경기도 남양주시 와부읍 덕소리 112-2번지 지층 106,108,109호","indutype":"일반휴게음식 - 일반한식","category":"restaurant"},{"name":"민속식당","tel":"031-521-1284","addr":"경기도 남양주시 와부읍 덕소리 112-2번지 (중앙프라자B101,102호)","indutype":"일반휴게음식 - 일반한식","category":"restaurant"},{"name":"산수갑산","tel":"031-521-5515","addr":"경기도 남양주시 와부읍 덕소리 112-2번지 덕소중앙프라자 지층 113호","indutype":"일반휴게음식 - 일반한식","category":"restaurant"},{"name":"웰빙국수","tel":"070-6228-8921","addr":"경기도 남양주시 와부읍 덕소리 112-2번지 덕소중앙프라자 B107호","indutype":"일반휴게음식 - 일반한식","category":"restaurant"},{"name":"치어스덕소점","tel":"031-521-9122","addr":"경기도 남양주시 와부읍 덕소리 112-2번지 중앙프라자 2층 201호","indutype":"일반휴게음식 - 주점","category":"restaurant"}]},{"lat":"37.589617524","long":"127.2171119","imageIndex":4,"items":[{"name":"그린영양탕","tel":"031-576-4177","addr":"경기도 남양주시 와부읍 덕소리 190-4번지","indutype":"일반휴게음식 - 일반한식","category":"restaurant"}]},{"lat":"37.588427519","long":"127.21750477","imageIndex":4,"items":[{"name":"그집","tel":"031-515-2236","addr":"경기도 남양주시 와부읍 덕소리 141-1번지","indutype":"일반휴게음식 - 일반한식","category":"restaurant"}]},{"lat":"37.58981473","long":"127.21766726","imageIndex":4,"items":[{"name":"금강산감자탕덕소점","tel":"031-576-7700","addr":"경기도 남양주시 와부읍 덕소리 189-3","indutype":"일반휴게음식 - 일반한식","category":"restaurant"}]},{"lat":"37.58728507","long":"127.2114782","imageIndex":4,"items":[{"name":"김밥나라","tel":"031-577-0847","addr":"경기도 남양주시 와부읍 덕소리 462-50번지 세양아르비체리버 105호","indutype":"일반휴게음식 - 스넥","category":"restaurant"},{"name":"나리타","tel":"031-577-9622","addr":"경기도 남양주시 와부읍 덕소리 462-50번지 세앙아르비채리버 102호","indutype":"일반휴게음식 - 일식·회집","category":"restaurant"},{"name":"불닭발동대문엽기떡볶이덕소점","tel":"031-577-8591","addr":"경기도 남양주시 와부읍 덕소리 462-50번지 세양아르비채리버 1층 109호","indutype":"일반휴게음식 - 일반한식","category":"restaurant"},{"name":"소소구움과자점","tel":"031-000-0000","addr":"경기도 남양주시 와부읍 덕소리 462-50번지 세양아르비채리버 114호","indutype":"일반휴게음식 - 서양음식","category":"restaurant"},{"name":"신불떡볶이 남양주 덕소점","tel":"031-521-7050","addr":"경기도 남양주시 와부읍 덕소리 462-50번지 세양아르비채리버 1층 103호","indutype":"일반휴게음식 - 스넥","category":"restaurant"},{"name":"이차돌 덕소점","tel":"","addr":"경기도 남양주시 와부읍 덕소리 462-50번지 세양아르비채리버 1층 107호, 108호","indutype":"일반휴게음식 - 일반한식","category":"restaurant"},{"name":"잔잔","tel":"03-111-1111","addr":"경기도 남양주시 와부읍 덕소리 462-50번지 세양아르비채리버 1층 101호","indutype":"일반휴게음식 - 일반한식","category":"restaurant"}]},{"lat":"37.587618204","long":"127.21664197","imageIndex":4,"items":[{"name":"까페 아마떼 덕소점","tel":"031-521-8268","addr":"경기도 남양주시 와부읍 덕소리 141-24번지 1층","indutype":"일반휴게음식 - 서양음식","category":"restaurant"},{"name":"코지","tel":"031-577-9720","addr":"경기도 남양주시 와부읍 덕소리 141-24번지 2층","indutype":"일반휴게음식 - 주점","category":"restaurant"},{"name":"형제식당","tel":"031-575-9913","addr":"경기도 남양주시 와부읍 덕소리 141-24번지","indutype":"일반휴게음식 - 일반한식","category":"restaurant"}]},{"lat":"37.584310513","long":"127.21222844","imageIndex":4,"items":[{"name":"꽈배기마법사덕소점","tel":"031-516-2297","addr":"경기도 남양주시 와부읍 덕소리 511-1번지 덕소빌딩 나동 1층 103호","indutype":"일반휴게음식 - 서양음식","category":"restaurant"},{"name":"내고향 왕만두","tel":"031-577-3026","addr":"경기도 남양주시 와부읍 덕소리 511-1번지 성일우리미아파트 1호","indutype":"일반휴게음식 - 일반한식","category":"restaurant"},{"name":"더착한커피(덕소점)","tel":"031-1111-1111","addr":"경기도 남양주시 와부읍 덕소리 511-1번지 성일우리미아파트 가동 1층 102호","indutype":"일반휴게음식 - 서양음식","category":"restaurant"},{"name":"이츠모","tel":"031-521-8997","addr":"경기도 남양주시 와부읍 덕소리 511-1번지 성일우리미아파트 나동 101호","indutype":"일반휴게음식 - 일식·회집","category":"restaurant"}]},{"lat":"37.584148779","long":"127.21197891","imageIndex":4,"items":[{"name":"꿀꿀이병장생삽겹살","tel":"031-576-4568","addr":"경기도 남양주시 와부읍 덕소리 511-12번지","indutype":"일반휴게음식 - 일반한식","category":"restaurant"},{"name":"티코다방","tel":"031-521-7770","addr":"경기도 남양주시 와부읍 덕소리 511-12번지","indutype":"일반휴게음식 - 서양음식","category":"restaurant"}]},{"lat":"37.586449636","long":"127.21514414","imageIndex":4,"items":[{"name":"꿀먹은강정","tel":"031-528-6263","addr":"경기도 남양주시 와부읍 덕소리 497-9번지 덕소MIN빌딩 102호","indutype":"일반휴게음식 - 스넥","category":"restaurant"}]},{"lat":"37.587561661","long":"127.21300744","imageIndex":4,"items":[{"name":"남도밥상","tel":"031-576-6389","addr":"경기도 남양주시 와부읍 덕소리 483번지 선플렉스 1층 121호","indutype":"일반휴게음식 - 일반한식","category":"restaurant"},{"name":"닭이생각나는밤","tel":"","addr":"경기도 남양주시 와부읍 덕소리 483번지 선플렉스본관 105호","indutype":"일반휴게음식 - 일반한식","category":"restaurant"},{"name":"면의혁명","tel":"031-576-7550","addr":"경기도 남양주시 와부읍 덕소리 483번지 선플렉스본관 1층 104호","indutype":"일반휴게음식 - 일반한식","category":"restaurant"},{"name":"배달5삼겹.Dr찬의찌개백반","tel":"031-521-9244","addr":"경기도 남양주시 와부읍 덕소리 483번지 선플렉스본관 1층 103호","indutype":"일반휴게음식 - 일반한식","category":"restaurant"},{"name":"커피앤커피","tel":"031-576-0996","addr":"경기도 남양주시 와부읍 덕소리 483번지 선플렉스 115호","indutype":"일반휴게음식 - 서양음식","category":"restaurant"}]},{"lat":"37.588344216","long":"127.21373426","imageIndex":4,"items":[{"name":"남도본가추어탕","tel":"031-577-0869","addr":"경기도 남양주시 와부읍 덕소리 432-20번지 진주마을상가동 105동 102호","indutype":"일반휴게음식 - 일반한식","category":"restaurant"}]},{"lat":"37.587394863","long":"127.21558839","imageIndex":4,"items":[{"name":"남이네순대국집","tel":"031-576-5711","addr":"경기도 남양주시 와부읍 덕소리 490-21번지","indutype":"일반휴게음식 - 일반한식","category":"restaurant"}]},{"lat":"37.586882021","long":"127.21519066","imageIndex":4,"items":[{"name":"너가내가","tel":"031-577-1990","addr":"경기도 남양주시 와부읍 덕소리 491-14번지 양지 8동 101호","indutype":"일반휴게음식 - 주점","category":"restaurant"}]},{"lat":"37.589401228","long":"127.21714525","imageIndex":4,"items":[{"name":"네네치킨","tel":"031-521-6249","addr":"경기도 남양주시 와부읍 덕소리 191-4번지","indutype":"일반휴게음식 - 스넥","category":"restaurant"},{"name":"옹골찬","tel":"031-521-3131","addr":"경기도 남양주시 와부읍 덕소리 191-4번지","indutype":"일반휴게음식 - 일반한식","category":"restaurant"},{"name":"춘천원조명물닭갈비","tel":"031-577-9907","addr":"경기도 남양주시 와부읍 덕소리 191-4","indutype":"일반휴게음식 - 일반한식","category":"restaurant"}]},{"lat":"37.58751019","long":"127.21658505","imageIndex":4,"items":[{"name":"노랑고래","tel":"031-576-0325","addr":"경기도 남양주시 와부읍 덕소리 141-8번지 1층","indutype":"일반휴게음식 - 서양음식","category":"restaurant"},{"name":"짠투","tel":"031-577-6596","addr":"경기도 남양주시 와부읍 덕소리 141-8번지 1층 2호","indutype":"일반휴게음식 - 일반한식","category":"restaurant"},{"name":"초원카페","tel":"031-576-7938","addr":"경기도 남양주시 와부읍 덕소리 141-8번지","indutype":"일반휴게음식 - 서양음식","category":"restaurant"}]},{"lat":"37.594226618","long":"127.21428303","imageIndex":4,"items":[{"name":"다람쥐마을","tel":"031-577-4847","addr":"경기도 남양주시 와부읍 덕소리 388번지","indutype":"일반휴게음식 - 일반한식","category":"restaurant"},{"name":"다람쥐마을","tel":"031-577-4847","addr":"경기도 남양주시 와부읍 덕소리 388번지","indutype":"일반휴게음식 - 일반한식","category":"restaurant"}]},{"lat":"37.586315547","long":"127.21455503","imageIndex":4,"items":[{"name":"다온베이커리카페","tel":"031-512-9280","addr":"경기도 남양주시 와부읍 덕소리 498번지 1층 일부,2층","indutype":"일반휴게음식 - 서양음식","category":"restaurant"}]},{"lat":"37.586651335","long":"127.21319735","imageIndex":4,"items":[{"name":"달봉이네분식","tel":"031-577-4132","addr":"경기도 남양주시 와부읍 덕소리 480-5번지 1층","indutype":"일반휴게음식 - 스넥","category":"restaurant"}]},{"lat":"37.598115539","long":"127.21611714","imageIndex":4,"items":[{"name":"달인한상","tel":"031-521-8338","addr":"경기도 남양주시 와부읍 덕소리 298-4번지 1층","indutype":"일반휴게음식 - 일반한식","category":"restaurant"}]},{"lat":"37.586400693","long":"127.21227958","imageIndex":4,"items":[{"name":"달커피호프","tel":"031-521-0520","addr":"경기도 남양주시 와부읍 덕소리 474-3번지","indutype":"일반휴게음식 - 일반한식","category":"restaurant"}]},{"lat":"37.586950528","long":"127.21214526","imageIndex":4,"items":[{"name":"대박정육식당생삼겹살","tel":"031-577-2211","addr":"경기도 남양주시 와부읍 덕소리 465-1번지","indutype":"일반휴게음식 - 일반한식","category":"restaurant"}]},{"lat":"37.591782989","long":"127.22033374","imageIndex":4,"items":[{"name":"더블루키친","tel":"070-4114-2117","addr":"경기도 남양주시 와부읍 덕소리 251-1번지 예봉빌딩 1층 102호","indutype":"일반휴게음식 - 일반한식","category":"restaurant"}]},{"lat":"37.584232086","long":"127.21072246","imageIndex":4,"items":[{"name":"더블류참치","tel":"031-577-1557","addr":"경기도 남양주시 와부읍 덕소리 518-8번지 1층","indutype":"일반휴게음식 - 일반한식","category":"restaurant"}]},{"lat":"37.587393382","long":"127.20620245","imageIndex":4,"items":[{"name":"더카페","tel":"031-521-4568","addr":"경기도 남양주시 와부읍 덕소리 600-7번지","indutype":"일반휴게음식 - 서양음식","category":"restaurant"}]},{"lat":"37.586149162","long":"127.21185997","imageIndex":4,"items":[{"name":"덕붕생고기","tel":"031-521-8819","addr":"경기도 남양주시 와부읍 덕소리 473-4번지","indutype":"일반휴게음식 - 일반한식","category":"restaurant"}]},{"lat":"37.587448615","long":"127.21575837","imageIndex":4,"items":[{"name":"덕소국수","tel":"031-515-8028","addr":"경기도 남양주시 와부읍 덕소리 490-23번지","indutype":"일반휴게음식 - 일반한식","category":"restaurant"}]},{"lat":"37.587401215","long":"127.2120333","imageIndex":4,"items":[{"name":"덕소집","tel":"070-1111-1111","addr":"경기도 남양주시 와부읍 덕소리 462-27번지","indutype":"일반휴게음식 - 일반한식","category":"restaurant"}]},{"lat":"37.587341355","long":"127.21528254","imageIndex":4,"items":[{"name":"덕소찌개마을","tel":"031-576-4997","addr":"경기도 남양주시 와부읍 덕소리 491-1번지","indutype":"일반휴게음식 - 일반한식","category":"restaurant"}]},{"lat":"37.588644368","long":"127.20699841","imageIndex":4,"items":[{"name":"덕소축산직화구이","tel":"031-576-3999","addr":"경기도 남양주시 와부읍 덕소리 606-6","indutype":"일반휴게음식 - 일반한식","category":"restaurant"}]},{"lat":"37.583397098","long":"127.20905589","imageIndex":4,"items":[{"name":"덕소회관","tel":"031-577-6604","addr":"경기도 남양주시 와부읍 덕소리 559번지","indutype":"일반휴게음식 - 일식·회집","category":"restaurant"}]},{"lat":"37.587339661","long":"127.21622226","imageIndex":4,"items":[{"name":"덕차이","tel":"031-000-0000","addr":"경기도 남양주시 와부읍 덕소리 141-74번지 1층","indutype":"일반휴게음식 - 일반한식","category":"restaurant"},{"name":"향나무집","tel":"031-521-7784","addr":"경기도 남양주시 와부읍 덕소리 141-74번지 1층","indutype":"일반휴게음식 - 일반한식","category":"restaurant"}]},{"lat":"37.590317706","long":"127.21852921","imageIndex":4,"items":[{"name":"도모","tel":"031-577-9950","addr":"경기도 남양주시 와부읍 덕소리 185-7번지 1층","indutype":"일반휴게음식 - 일식·회집","category":"restaurant"}]},{"lat":"37.588977566","long":"127.21725726","imageIndex":4,"items":[{"name":"동궁","tel":"031-521-2669","addr":"경기도 남양주시 와부읍 덕소리 193-3번지","indutype":"일반휴게음식 - 중국식","category":"restaurant"},{"name":"삼보식당","tel":"031-577-6094","addr":"경기도 남양주시 와부읍 덕소리 193-3번지 1층","indutype":"일반휴게음식 - 일반한식","category":"restaurant"}]},{"lat":"37.591315233","long":"127.21992477","imageIndex":4,"items":[{"name":"동부광성교회 자작나무카페","tel":"031-576-5360","addr":"경기도 남양주시 와부읍 덕소리 177-2번지","indutype":"일반휴게음식 - 서양음식","category":"restaurant"}]},{"lat":"37.588345422","long":"127.21805931","imageIndex":4,"items":[{"name":"돼지 위에 오리","tel":"031-514-2525","addr":"경기도 남양주시 와부읍 덕소리 163-4번지 풍림빌딩 102호","indutype":"일반휴게음식 - 일반한식","category":"restaurant"},{"name":"청년피자덕소점","tel":"031-576-2369","addr":"경기도 남양주시 와부읍 덕소리 163-4번지 풍림빌딩 102호","indutype":"일반휴게음식 - 서양음식","category":"restaurant"}]},{"lat":"37.585678283","long":"127.21319462","imageIndex":4,"items":[{"name":"또래오래","tel":"031-576-0028","addr":"경기도 남양주시 와부읍 덕소리 111-6번지 덕소주공2단지 상가 204호","indutype":"일반휴게음식 - 스넥","category":"restaurant"}]},{"lat":"37.587115806","long":"127.21545173","imageIndex":4,"items":[{"name":"또봉이통닭 덕소점","tel":"070-9967-7303","addr":"경기도 남양주시 와부읍 덕소리 141-18번지","indutype":"일반휴게음식 - 주점","category":"restaurant"},{"name":"임실치즈피자","tel":"031-521-5889","addr":"경기도 남양주시 와부읍 덕소리 141-18번지 2층","indutype":"일반휴게음식 - 서양음식","category":"restaurant"}]},{"lat":"37.591481748","long":"127.22245019","imageIndex":4,"items":[{"name":"라운지툰","tel":"031-577-2340","addr":"경기도 남양주시 와부읍 덕소리 50번지 2층 201호 IVY SPa","indutype":"일반휴게음식 - 일반한식","category":"restaurant"},{"name":"라운지호프","tel":"031-576-9039","addr":"경기도 남양주시 와부읍 덕소리 50번지 외5필지 아이비타워2, 2층 202호","indutype":"일반휴게음식 - 주점","category":"restaurant"},{"name":"주식회사 디엔디어스(DND earth Co.Ltd)","tel":"070-4232-7890","addr":"경기도 남양주시 와부읍 덕소리 50번지 1층","indutype":"일반휴게음식 - 서양음식","category":"restaurant"}]},{"lat":"37.591144818","long":"127.21950534","imageIndex":4,"items":[{"name":"레가타커피","tel":"031-577-3997","addr":"경기도 남양주시 와부읍 덕소리 177-20번지 강산빌딩 111호","indutype":"일반휴게음식 - 서양음식","category":"restaurant"},{"name":"청년떡볶이 남양주덕소점","tel":"031-577-4200","addr":"경기도 남양주시 와부읍 덕소리 177-20번지 109호","indutype":"일반휴게음식 - 일반한식","category":"restaurant"}]},{"lat":"37.586121873","long":"127.21200708","imageIndex":4,"items":[{"name":"레드독","tel":"031-577-6023","addr":"경기도 남양주시 와부읍 덕소리 473-2번지","indutype":"일반휴게음식 - 서양음식","category":"restaurant"},{"name":"빽다방 남양주덕소점","tel":"031-521-7674","addr":"경기도 남양주시 와부읍 덕소리 473-2번지 주 5동 1층","indutype":"일반휴게음식 - 서양음식","category":"restaurant"},{"name":"이삭토스트 남양주 덕소삼거리점","tel":"031-576-2072","addr":"경기도 남양주시 와부읍 덕소리 473-2번지 1호","indutype":"일반휴게음식 - 스넥","category":"restaurant"},{"name":"죠스떡볶이(덕소삼거리점)","tel":"031-559-0999","addr":"경기도 남양주시 와부읍 덕소리 473-2번지 주 5동 1층 5호","indutype":"일반휴게음식 - 스넥","category":"restaurant"}]},{"lat":"37.591566442","long":"127.22050295","imageIndex":4,"items":[{"name":"로컬릿","tel":"","addr":"경기도 남양주시 와부읍 덕소리 251-4번지 동부프라자 110호","indutype":"일반휴게음식 - 서양음식","category":"restaurant"},{"name":"와라떡볶이","tel":"070-8128-1157","addr":"경기도 남양주시 와부읍 덕소리 251-4번지 동부플라자 107호","indutype":"일반휴게음식 - 스넥","category":"restaurant"}]},{"lat":"37.58597635","long":"127.21277655","imageIndex":4,"items":[{"name":"롯데리아남양주덕소점","tel":"031-577-1149","addr":"경기도 남양주시 와부읍 덕소리 474-4번지","indutype":"일반휴게음식 - 서양음식","category":"restaurant"}]},{"lat":"37.586953765","long":"127.21031111","imageIndex":4,"items":[{"name":"리빠똥","tel":"031-577-3588","addr":"경기도 남양주시 와부읍 덕소리 462-12","indutype":"일반휴게음식 - 스넥","category":"restaurant"}]},{"lat":"37.586865445","long":"127.21438676","imageIndex":4,"items":[{"name":"리얼안심탕수육&리얼하노이 덕소본점","tel":"031-577-2006","addr":"경기도 남양주시 와부읍 덕소리 488-6번지 1층 일부","indutype":"일반휴게음식 - 일반한식","category":"restaurant"}]},{"lat":"37.586617709","long":"127.21183863","imageIndex":4,"items":[{"name":"마늘떡볶이","tel":"031-577-0684","addr":"경기도 남양주시 와부읍 덕소리 466-2번지 1층 103호","indutype":"일반휴게음식 - 스넥","category":"restaurant"},{"name":"봉구스밥버거","tel":"031-521-1739","addr":"경기도 남양주시 와부읍 덕소리 466-2번지 다세대주택 107호","indutype":"일반휴게음식 - 스넥","category":"restaurant"},{"name":"쥬씨(덕소역점)","tel":"070-4117-1028","addr":"경기도 남양주시 와부읍 덕소리 466-2번지","indutype":"일반휴게음식 - 서양음식","category":"restaurant"},{"name":"한솥도시락 덕소삼거리점","tel":"031-576-2676","addr":"경기도 남양주시 와부읍 덕소리 466-2번지 1층","indutype":"일반휴게음식 - 일반한식","category":"restaurant"}]},{"lat":"37.589622361","long":"127.2242563","imageIndex":4,"items":[{"name":"마린보이동태해물찜코다리1번가","tel":"031-577-9277","addr":"경기도 남양주시 와부읍 덕소리 86번지 2층","indutype":"일반휴게음식 - 일반한식","category":"restaurant"}]},{"lat":"37.587012168","long":"127.21294929","imageIndex":4,"items":[{"name":"만냥회마트","tel":"031-521-8807","addr":"경기도 남양주시 와부읍 덕소리 481-9번지","indutype":"일반휴게음식 - 일반한식","category":"restaurant"},{"name":"백마복돼지생삼겹살","tel":"031-577-0234","addr":"경기도 남양주시 와부읍 덕소리 481-9번지","indutype":"일반휴게음식 - 일반한식","category":"restaurant"}]},{"lat":"37.583923636","long":"127.21192168","imageIndex":4,"items":[{"name":"맘스터치덕소점","tel":"031-576-9783","addr":"경기도 남양주시 와부읍 덕소리 540-5번지","indutype":"일반휴게음식 - 일반한식","category":"restaurant"}]},{"lat":"37.590812785","long":"127.21877974","imageIndex":4,"items":[{"name":"맛들의축제","tel":"031-576-3777","addr":"경기도 남양주시 와부읍 덕소리 185-15번지 1층","indutype":"일반휴게음식 - 일반한식","category":"restaurant"}]},{"lat":"37.586175389","long":"127.21231291","imageIndex":4,"items":[{"name":"메가엠지씨커피(덕소삼거리)","tel":"","addr":"경기도 남양주시 와부읍 덕소리 474-28번지","indutype":"일반휴게음식 - 서양음식","category":"restaurant"}]},{"lat":"37.584566462","long":"127.21014599","imageIndex":4,"items":[{"name":"멕시카나 와부덕소점","tel":"","addr":"경기도 남양주시 와부읍 덕소리 567-8번지 1층","indutype":"일반휴게음식 - 스넥","category":"restaurant"},{"name":"짠","tel":"131-111-1111","addr":"경기도 남양주시 와부읍 덕소리 567-8번지 2층","indutype":"일반휴게음식 - 일반한식","category":"restaurant"}]},{"lat":"37.584619505","long":"127.21072354","imageIndex":4,"items":[{"name":"명가부대찌개","tel":"031-576-0551","addr":"경기도 남양주시 와부읍 덕소리 514-1번지","indutype":"일반휴게음식 - 일반한식","category":"restaurant"}]},{"lat":"37.586621471","long":"127.21478233","imageIndex":4,"items":[{"name":"명동아구찜","tel":"031-576-7999","addr":"경기도 남양주시 와부읍 덕소리 491-12번지 양지빌라 1층 101호","indutype":"일반휴게음식 - 일반한식","category":"restaurant"}]},{"lat":"37.587035431","long":"127.21505523","imageIndex":4,"items":[{"name":"명희네빈대떡","tel":"031-576-3054","addr":"경기도 남양주시 와부읍 덕소리 491-9번지 외1필지","indutype":"일반휴게음식 - 일반한식","category":"restaurant"}]},{"lat":"37.587706782","long":"127.21748005","imageIndex":4,"items":[{"name":"모두모여족발먹자","tel":"031-576-0468","addr":"경기도 남양주시 와부읍 덕소리 141-25번지 1층","indutype":"일반휴게음식 - 일반한식","category":"restaurant"}]},{"lat":"37.585617528","long":"127.21189245","imageIndex":4,"items":[{"name":"미친소","tel":"031-521-1515","addr":"경기도 남양주시 와부읍 덕소리 473-9번지 1층","indutype":"일반휴게음식 - 일반한식","category":"restaurant"}]},{"lat":"37.586842029","long":"127.21236007","imageIndex":4,"items":[{"name":"바른생활샌드위치","tel":"031-521-1933","addr":"경기도 남양주시 와부읍 덕소리 481-5번지","indutype":"일반휴게음식 - 스넥","category":"restaurant"}]},{"lat":"37.589865475","long":"127.22433628","imageIndex":4,"items":[{"name":"박경규항아리보쌈덕소점","tel":"031-521-4500","addr":"경기도 남양주시 와부읍 덕소리 87번지","indutype":"일반휴게음식 - 일반한식","category":"restaurant"}]},{"lat":"37.586145638","long":"127.21384127","imageIndex":4,"items":[{"name":"박포삼겹살","tel":"031-576-1577","addr":"경기도 남양주시 와부읍 덕소리 477-6번지 1층 좌측","indutype":"일반휴게음식 - 일반한식","category":"restaurant"}]},{"lat":"37.584590317","long":"127.21194618","imageIndex":4,"items":[{"name":"백설공주","tel":"031-577-7751","addr":"경기도 남양주시 와부읍 덕소리 511-8번지","indutype":"일반휴게음식 - 서양음식","category":"restaurant"},{"name":"얌샘덕소점","tel":"031-577-8119","addr":"경기도 남양주시 와부읍 덕소리 511-8번지","indutype":"일반휴게음식 - 스넥","category":"restaurant"},{"name":"펀비어킹","tel":"031-577-3374","addr":"경기도 남양주시 와부읍 덕소리 511-8번지","indutype":"일반휴게음식 - 주점","category":"restaurant"}]},{"lat":"37.583286641","long":"127.21039151","imageIndex":4,"items":[{"name":"벅구네사철탕삼계탕","tel":"031-577-8895","addr":"경기도 남양주시 와부읍 덕소리 519-1번지 1층","indutype":"일반휴게음식 - 일반한식","category":"restaurant"}]},{"lat":"37.584422027","long":"127.21030409","imageIndex":4,"items":[{"name":"보배곱창(덕소직영점)","tel":"031-577-8288","addr":"경기도 남양주시 와부읍 덕소리 517-2번지 세훈빌딩 1층 일부","indutype":"일반휴게음식 - 일반한식","category":"restaurant"},{"name":"아카시","tel":"","addr":"경기도 남양주시 와부읍 덕소리 517-2번지 세훈빌딩 1층 102호","indutype":"일반휴게음식 - 일반한식","category":"restaurant"},{"name":"엘리팝 남양주덕소점","tel":"031-521-8955","addr":"경기도 남양주시 와부읍 덕소리 517-2번지 2층 세훈빌딩","indutype":"일반휴게음식 - 주점","category":"restaurant"},{"name":"웰빙코다리찜아구찜","tel":"031-521-7745","addr":"경기도 남양주시 와부읍 덕소리 517-2번지 세훈빌딩","indutype":"일반휴게음식 - 일반한식","category":"restaurant"}]},{"lat":"37.586675286","long":"127.21491835","imageIndex":4,"items":[{"name":"본가춘천닭갈비","tel":"031-577-6997","addr":"경기도 남양주시 와부읍 덕소리 491-13번지 양지빌라 1층 101호","indutype":"일반휴게음식 - 일반한식","category":"restaurant"}]},{"lat":"37.586064996","long":"127.21359197","imageIndex":4,"items":[{"name":"본죽&비빔밥(남양주 덕소점)","tel":"031-577-6777","addr":"경기도 남양주시 와부읍 덕소리 477-4번지 이례빌딩 201호","indutype":"일반휴게음식 - 일반한식","category":"restaurant"}]},{"lat":"37.583137415","long":"127.2132554","imageIndex":4,"items":[{"name":"부산꼼장어집","tel":"031-528-6263","addr":"경기도 남양주시 와부읍 덕소리 541-18번지 대영주택 18동 1층 101호","indutype":"일반휴게음식 - 일반한식","category":"restaurant"}]},{"lat":"37.588256899","long":"127.21217156","imageIndex":4,"items":[{"name":"불타는조개구이앤찜","tel":"031-577-8672","addr":"경기도 남양주시 와부읍 덕소리 453-51번지","indutype":"일반휴게음식 - 일반한식","category":"restaurant"}]},{"lat":"37.586647646","long":"127.21525792","imageIndex":4,"items":[{"name":"브런치카페우리집/(주)보토크리에이티브","tel":"031-521-5219","addr":"경기도 남양주시 와부읍 덕소리 496-1번지 2층","indutype":"일반휴게음식 - 서양음식","category":"restaurant"}]},{"lat":"37.586814598","long":"127.21258643","imageIndex":4,"items":[{"name":"뻐꾸기 둥지로 날아오르다","tel":"","addr":"경기도 남양주시 와부읍 덕소리 480-15번지 1층","indutype":"일반휴게음식 - 일반한식","category":"restaurant"},{"name":"코코옛날통닭","tel":"031-523-3315","addr":"경기도 남양주시 와부읍 덕소리 480-15번지 1층","indutype":"일반휴게음식 - 스넥","category":"restaurant"},{"name":"히어로","tel":"031-576-2043","addr":"경기도 남양주시 와부읍 덕소리 480-15번지 2층","indutype":"일반휴게음식 - 일반한식","category":"restaurant"}]},{"lat":"37.587565252","long":"127.21603043","imageIndex":4,"items":[{"name":"산오징어","tel":"031-521-9847","addr":"경기도 남양주시 와부읍 덕소리 490-28번지","indutype":"일반휴게음식 - 일반한식","category":"restaurant"}]},{"lat":"37.593426562","long":"127.2231466","imageIndex":4,"items":[{"name":"산채랑","tel":"031-521-8885","addr":"경기도 남양주시 와부읍 덕소리 38-14번지","indutype":"일반휴게음식 - 일반한식","category":"restaurant"}]},{"lat":"37.584068333","long":"127.2116164","imageIndex":4,"items":[{"name":"삼다도아구찜","tel":"031-577-8814","addr":"경기도 남양주시 와부읍 덕소리 539-10번지 동원주택","indutype":"일반휴게음식 - 일반한식","category":"restaurant"}]},{"lat":"37.585144415","long":"127.20938904","imageIndex":4,"items":[{"name":"생활맥주 덕소점","tel":"","addr":"경기도 남양주시 와부읍 덕소리 600-66번지 1,2층","indutype":"일반휴게음식 - 주점","category":"restaurant"}]},{"lat":"37.586226544","long":"127.2139434","imageIndex":4,"items":[{"name":"서박사감자탕","tel":"031-577-9253","addr":"경기도 남양주시 와부읍 덕소리 478-10번지","indutype":"일반휴게음식 - 일반한식","category":"restaurant"}]},{"lat":"37.58739331","long":"127.21644885","imageIndex":4,"items":[{"name":"석실한우마을","tel":"031-577-3377","addr":"경기도 남양주시 와부읍 덕소리 141-29번지 1층","indutype":"일반휴게음식 - 일반한식","category":"restaurant"}]},{"lat":"37.588005069","long":"127.21694877","imageIndex":4,"items":[{"name":"선비촌","tel":"031-521-9595","addr":"경기도 남양주시 와부읍 덕소리 141-95번지","indutype":"일반휴게음식 - 일반한식","category":"restaurant"},{"name":"진로닭발상회","tel":"","addr":"경기도 남양주시 와부읍 덕소리 141-95번지 1층 일부","indutype":"일반휴게음식 - 일반한식","category":"restaurant"}]},{"lat":"37.58442163","long":"127.21053052","imageIndex":4,"items":[{"name":"손큰할매순대국","tel":"031-521-2946","addr":"경기도 남양주시 와부읍 덕소리 518-6번지","indutype":"일반휴게음식 - 일반한식","category":"restaurant"}]},{"lat":"37.591009413","long":"127.22449818","imageIndex":4,"items":[{"name":"송암골평창송어 덕소점","tel":"031-576-1666","addr":"경기도 남양주시 와부읍 덕소리 90번지 1층","indutype":"일반휴게음식 - 일반한식","category":"restaurant"}]},{"lat":"37.59092055","long":"127.21897253","imageIndex":4,"items":[{"name":"수레로돈까스","tel":"031-521-7086","addr":"경기도 남양주시 와부읍 덕소리 185-3번지","indutype":"일반휴게음식 - 일반한식","category":"restaurant"},{"name":"옛날아바이순대","tel":"031-577-2771","addr":"경기도 남양주시 와부읍 덕소리 185-3","indutype":"일반휴게음식 - 일반한식","category":"restaurant"}]},{"lat":"37.584428141","long":"127.21194573","imageIndex":4,"items":[{"name":"스피드치킨","tel":"031-577-6896","addr":"경기도 남양주시 와부읍 덕소리 511-9번지","indutype":"일반휴게음식 - 주점","category":"restaurant"}]},{"lat":"37.58764562","long":"127.21138863","imageIndex":4,"items":[{"name":"승희네밥상","tel":"031-521-5636","addr":"경기도 남양주시 와부읍 덕소리 458-6번지 1층","indutype":"일반휴게음식 - 일반한식","category":"restaurant"}]},{"lat":"37.585588771","long":"127.21286603","imageIndex":4,"items":[{"name":"쌈촌 덕소점","tel":"031-577-8547","addr":"경기도 남양주시 와부읍 덕소리 112-3번지 덕소빌딩 701호","indutype":"일반휴게음식 - 일반한식","category":"restaurant"}]},{"lat":"37.587789246","long":"127.21672171","imageIndex":4,"items":[{"name":"쌍용각","tel":"031-577-9462","addr":"경기도 남양주시 와부읍 덕소리 141-7","indutype":"일반휴게음식 - 일반한식","category":"restaurant"}]},{"lat":"37.586895042","long":"127.21294896","imageIndex":4,"items":[{"name":"썬더치킨","tel":"031-577-8892","addr":"경기도 남양주시 와부읍 덕소리 481-6번지 1층","indutype":"일반휴게음식 - 스넥","category":"restaurant"},{"name":"외교","tel":"031-576-5515","addr":"경기도 남양주시 와부읍 덕소리 481-6번지 지하1층","indutype":"일반휴게음식 - 서양음식","category":"restaurant"}]},{"lat":"37.586814739","long":"127.21250718","imageIndex":4,"items":[{"name":"쏭쏭돈까스(덕소점)","tel":"","addr":"경기도 남양주시 와부읍 덕소리 480-16번지 1층,2층일부층","indutype":"일반휴게음식 - 일반한식","category":"restaurant"}]},{"lat":"37.587420584","long":"127.21631307","imageIndex":4,"items":[{"name":"아보(abo)","tel":"","addr":"경기도 남양주시 와부읍 덕소리 141-75번지","indutype":"일반휴게음식 - 서양음식","category":"restaurant"}]},{"lat":"37.586371791","long":"127.21333243","imageIndex":4,"items":[{"name":"안암만두 앤 칼국수","tel":"031-577-0495","addr":"경기도 남양주시 와부읍 덕소리 476-2번지","indutype":"일반휴게음식 - 일반한식","category":"restaurant"},{"name":"외갓집","tel":"031-521-0608","addr":"경기도 남양주시 와부읍 덕소리 476-2번지","indutype":"일반휴게음식 - 일반한식","category":"restaurant"}]},{"lat":"37.584151377","long":"127.21050713","imageIndex":4,"items":[{"name":"야튼주머니숯불갈비","tel":"031-521-0858","addr":"경기도 남양주시 와부읍 덕소리 518-10번지 현진빌딩 101호","indutype":"일반휴게음식 - 일반한식","category":"restaurant"}]},{"lat":"37.58739521","long":"127.21539591","imageIndex":4,"items":[{"name":"양기네 불타는 연탄구이","tel":"031-577-1089","addr":"경기도 남양주시 와부읍 덕소리 490-1번지 평원빌딩","indutype":"일반휴게음식 - 일반한식","category":"restaurant"}]},{"lat":"37.587011926","long":"127.21308515","imageIndex":4,"items":[{"name":"어제거기","tel":"031-593-1432","addr":"경기도 남양주시 와부읍 덕소리 479-13","indutype":"일반휴게음식 - 일반한식","category":"restaurant"},{"name":"차돌꾼","tel":"031-577-1157","addr":"경기도 남양주시 와부읍 덕소리 479-13번지","indutype":"일반휴게음식 - 주점","category":"restaurant"}]},{"lat":"37.583063005","long":"127.20947386","imageIndex":4,"items":[{"name":"에리어","tel":"031-577-1934","addr":"경기도 남양주시 와부읍 덕소리 558-6번지","indutype":"일반휴게음식 - 일반한식","category":"restaurant"}]},{"lat":"37.587339906","long":"127.2160864","imageIndex":4,"items":[{"name":"영","tel":"031-521-4300","addr":"경기도 남양주시 와부읍 덕소리 141-72번지 지하1층","indutype":"일반휴게음식 - 일반한식","category":"restaurant"}]},{"lat":"37.586508026","long":"127.21272143","imageIndex":4,"items":[{"name":"옛집생선구이","tel":"031-577-1277","addr":"경기도 남양주시 와부읍 덕소리 474-14번지","indutype":"일반휴게음식 - 일반한식","category":"restaurant"}]},{"lat":"37.590283132","long":"127.21772522","imageIndex":4,"items":[{"name":"오가네두부마을","tel":"031-576-5500","addr":"경기도 남양주시 와부읍 덕소리 208-5번지","indutype":"일반휴게음식 - 일반한식","category":"restaurant"}]},{"lat":"37.587087326","long":"127.2162555","imageIndex":4,"items":[{"name":"오영이","tel":"031-515-5005","addr":"경기도 남양주시 와부읍 덕소리 141-40번지","indutype":"일반휴게음식 - 일반한식","category":"restaurant"}]},{"lat":"37.588478911","long":"127.223834","imageIndex":4,"items":[{"name":"와부수산장어","tel":"031-577-0592","addr":"경기도 남양주시 와부읍 덕소리 95-2번지 1층","indutype":"일반휴게음식 - 일반한식","category":"restaurant"}]},{"lat":"37.584420692","long":"127.21106263","imageIndex":4,"items":[{"name":"우송갈비해장국","tel":"031-551-1212","addr":"경기도 남양주시 와부읍 덕소리 538-1번지 우송연립 101호","indutype":"일반휴게음식 - 일반한식","category":"restaurant"},{"name":"형제온족발","tel":"031-521-9749","addr":"경기도 남양주시 와부읍 덕소리 538-1번지 우송연립 102호","indutype":"일반휴게음식 - 일반한식","category":"restaurant"}]},{"lat":"37.585006246","long":"127.21110955","imageIndex":4,"items":[{"name":"우진한방족발순대국","tel":"031-576-0082","addr":"경기도 남양주시 와부읍 덕소리 512-6번지","indutype":"일반휴게음식 - 일반한식","category":"restaurant"},{"name":"춘부집","tel":"031-521-1639","addr":"경기도 남양주시 와부읍 덕소리 512-6번지","indutype":"일반휴게음식 - 일반한식","category":"restaurant"}]},{"lat":"37.586561822","long":"127.21286877","imageIndex":4,"items":[{"name":"웰빙생선구이","tel":"031-521-8532","addr":"경기도 남양주시 와부읍 덕소리 480-8 1층","indutype":"일반휴게음식 - 일반한식","category":"restaurant"},{"name":"청희네개성칡냉면","tel":"031-521-0025","addr":"경기도 남양주시 와부읍 덕소리 480-8번지","indutype":"일반휴게음식 - 일반한식","category":"restaurant"}]},{"lat":"37.586920981","long":"127.21356041","imageIndex":4,"items":[{"name":"유미락","tel":"031-576-0022","addr":"경기도 남양주시 와부읍 덕소리 479-6번지 1층","indutype":"일반휴게음식 - 중국식","category":"restaurant"}]},{"lat":"37.586310435","long":"127.2123699","imageIndex":4,"items":[{"name":"이디야","tel":"031-521-8202","addr":"경기도 남양주시 와부읍 덕소리 474-20번지","indutype":"일반휴게음식 - 서양음식","category":"restaurant"}]},{"lat":"37.584033174","long":"127.21111816","imageIndex":4,"items":[{"name":"이상무","tel":"031-8034-4592","addr":"경기도 남양주시 와부읍 덕소리 518-5번지","indutype":"일반휴게음식 - 일반한식","category":"restaurant"}]},{"lat":"37.593400103","long":"127.22284081","imageIndex":4,"items":[{"name":"잔고개소머리곰탕","tel":"031-577-8871","addr":"경기도 남양주시 와부읍 덕소리 38-5번지 1층","indutype":"일반휴게음식 - 일반한식","category":"restaurant"}]},{"lat":"37.588698264","long":"127.21725646","imageIndex":4,"items":[{"name":"잠실감자탕","tel":"031-521-8677","addr":"경기도 남양주시 와부읍 덕소리 194-1번지","indutype":"일반휴게음식 - 일반한식","category":"restaurant"}]},{"lat":"37.587095578","long":"127.21667444","imageIndex":4,"items":[{"name":"제이브라운","tel":"","addr":"경기도 남양주시 와부읍 덕소리 138번지 1층 우측호 (광림빌딩)","indutype":"일반휴게음식 - 서양음식","category":"restaurant"}]},{"lat":"37.586399163","long":"127.21314004","imageIndex":4,"items":[{"name":"제이제이호프","tel":"031-577-3806","addr":"경기도 남양주시 와부읍 덕소리 476-1번지 2층","indutype":"일반휴게음식 - 주점","category":"restaurant"}]},{"lat":"37.587484523","long":"127.21077679","imageIndex":4,"items":[{"name":"제일황소곱창","tel":"031-577-0847","addr":"경기도 남양주시 와부읍 덕소리 458-16번지 1층","indutype":"일반휴게음식 - 일반한식","category":"restaurant"}]},{"lat":"37.584340303","long":"127.21066615","imageIndex":4,"items":[{"name":"족발야시장 남양주덕소점","tel":"031-577-4969","addr":"경기도 남양주시 와부읍 덕소리 518-7번지","indutype":"일반휴게음식 - 일반한식","category":"restaurant"}]},{"lat":"37.588344338","long":"127.21366632","imageIndex":4,"items":[{"name":"중국성","tel":"031-576-2045","addr":"경기도 남양주시 와부읍 덕소리 432-20번지","indutype":"일반휴게음식 - 중국식","category":"restaurant"}]},{"lat":"37.587509328","long":"127.21706057","imageIndex":4,"items":[{"name":"철수네 일품고기","tel":"031-512-8587","addr":"경기도 남양주시 와부읍 덕소리 141-54번지","indutype":"일반휴게음식 - 일반한식","category":"restaurant"}]},{"lat":"37.588897299","long":"127.21680414","imageIndex":4,"items":[{"name":"초원식당","tel":"031-521-8826","addr":"경기도 남양주시 와부읍 덕소리 193-6번지 1층","indutype":"일반휴게음식 - 일반한식","category":"restaurant"}]},{"lat":"37.584231008","long":"127.21133382","imageIndex":4,"items":[{"name":"춘향골남원추어탕","tel":"031-577-8866","addr":"경기도 남양주시 와부읍 덕소리 538-3번지","indutype":"일반휴게음식 - 일반한식","category":"restaurant"}]},{"lat":"37.586790214","long":"127.21109187","imageIndex":4,"items":[{"name":"카페베네 (덕소역점)","tel":"031-521-3732","addr":"경기도 남양주시 와부읍 덕소리 462-9번지 114,115,116,212,213호","indutype":"일반휴게음식 - 서양음식","category":"restaurant"}]},{"lat":"37.585365196","long":"127.21695253","imageIndex":4,"items":[{"name":"카페유니","tel":"070-7405-0531","addr":"경기도 남양주시 와부읍 덕소리 117-1번지 1층","indutype":"일반휴게음식 - 서양음식","category":"restaurant"}]},{"lat":"37.588587156","long":"127.2139161","imageIndex":4,"items":[{"name":"커피가게","tel":"070-7576-4178","addr":"경기도 남양주시 와부읍 덕소리 432-1번지 101호","indutype":"일반휴게음식 - 서양음식","category":"restaurant"}]},{"lat":"37.591842664","long":"127.22216819","imageIndex":4,"items":[{"name":"커피로","tel":"031-521-3443","addr":"경기도 남양주시 와부읍 덕소리 43-10번지","indutype":"일반휴게음식 - 서양음식","category":"restaurant"}]},{"lat":"37.583228017","long":"127.21297262","imageIndex":4,"items":[{"name":"커피십오일","tel":"031-577-1922","addr":"경기도 남양주시 와부읍 덕소리 541-16번지 대영주택 101호","indutype":"일반휴게음식 - 스넥","category":"restaurant"}]},{"lat":"37.589977358","long":"127.21741864","imageIndex":4,"items":[{"name":"코리엔탈깻잎칩킨덕소점","tel":"031-576-6589","addr":"경기도 남양주시 와부읍 덕소리 189-8번지","indutype":"일반휴게음식 - 일반한식","category":"restaurant"}]},{"lat":"37.587760552","long":"127.21763872","imageIndex":4,"items":[{"name":"큰맘할매순대국","tel":"031-577-2333","addr":"경기도 남양주시 와부읍 덕소리 142-3번지 1층","indutype":"일반휴게음식 - 일반한식","category":"restaurant"}]},{"lat":"37.586701215","long":"127.2155298","imageIndex":4,"items":[{"name":"탐라흑돈","tel":"031-521-8892","addr":"경기도 남양주시 와부읍 덕소리 494-3번지","indutype":"일반휴게음식 - 일반한식","category":"restaurant"}]},{"lat":"37.588257136","long":"127.21706271","imageIndex":4,"items":[{"name":"투존","tel":"031-577-9985","addr":"경기도 남양주시 와부읍 덕소리 141-92","indutype":"일반휴게음식 - 스넥","category":"restaurant"}]},{"lat":"37.585400411","long":"127.21238999","imageIndex":4,"items":[{"name":"포메인덕소점","tel":"031-521-7389","addr":"경기도 남양주시 와부읍 덕소리 112-1번지 동산빌딩 201호","indutype":"일반휴게음식 - 일반한식","category":"restaurant"}]},{"lat":"37.586955136","long":"127.21461345","imageIndex":4,"items":[{"name":"포장마차","tel":"031-000-0000","addr":"경기도 남양주시 와부읍 덕소리 488-3번지","indutype":"일반휴게음식 - 일반한식","category":"restaurant"}]},{"lat":"37.586783057","long":"127.21511112","imageIndex":4,"items":[{"name":"피자나라 치킨공주","tel":"031-577-9282","addr":"경기도 남양주시 와부읍 덕소리 491-14번지 양지빌라 102호","indutype":"일반휴게음식 - 일반한식","category":"restaurant"}]},{"lat":"37.58700957","long":"127.20931494","imageIndex":4,"items":[{"name":"피자스쿨","tel":"031-576-1377","addr":"경기도 남양주시 와부읍 덕소리 590-16번지","indutype":"일반휴게음식 - 서양음식","category":"restaurant"}]},{"lat":"37.586956474","long":"127.21386621","imageIndex":4,"items":[{"name":"하늘곱창","tel":"031-577-7005","addr":"경기도 남양주시 와부읍 덕소리 479-5번지","indutype":"일반휴게음식 - 일반한식","category":"restaurant"}]},{"lat":"37.584313552","long":"127.21050758","imageIndex":4,"items":[{"name":"해민수산","tel":"031-576-4429","addr":"경기도 남양주시 와부읍 덕소리 518-9번지","indutype":"일반휴게음식 - 일반한식","category":"restaurant"}]},{"lat":"37.586923017","long":"127.21241691","imageIndex":4,"items":[{"name":"해변마을","tel":"031-567-8884","addr":"경기도 남양주시 와부읍 덕소리 481-4번지 1층","indutype":"일반휴게음식 - 일반한식","category":"restaurant"}]},{"lat":"37.587428795","long":"127.21675465","imageIndex":4,"items":[{"name":"행복한분식","tel":"031-521-5967","addr":"경기도 남양주시 와부읍 덕소리 141-14번지","indutype":"일반휴게음식 - 스넥","category":"restaurant"}]},{"lat":"37.588338942","long":"127.21666667","imageIndex":4,"items":[{"name":"홍탕덕소점","tel":"031-577-5080","addr":"경기도 남양주시 와부읍 덕소리 196-25번지 마이다스빌딩 103호","indutype":"일반휴게음식 - 일반한식","category":"restaurant"}]}]