[{"lat":"37.3979214","long":"127.1124622","imageIndex":17,"items":[{"name":"KCC공인중개사사무소","tel":"031-8016-7001","addr":"경기도 성남시 분당구 삼평동 658번지","indutype":"","category":"other"}]},{"lat":"37.3963907","long":"127.1114323","imageIndex":17,"items":[{"name":"VU안경원","tel":"031-706-5800","addr":"경기도 성남시 분당구 삼평동 651번지","indutype":"","category":"other"}]},{"lat":"37.4061435","long":"127.1168226","imageIndex":17,"items":[{"name":"㈜창섭마트로","tel":"031-781-5050","addr":"경기도 성남시 분당구 삼평동 713번지","indutype":"","category":"other"}]},{"lat":"37.4006114","long":"127.1069321","imageIndex":17,"items":[{"name":"가장맛있는족발 삼평점","tel":"031-628-1008","addr":"경기도 성남시 분당구 삼평동 670번지","indutype":"","category":"other"},{"name":"고베규","tel":"031-628-1215","addr":"경기도 성남시 분당구 삼평동 670번지","indutype":"","category":"other"},{"name":"대관령숯불갈비","tel":"031-724-2990","addr":"경기도 성남시 분당구 삼평동 670번지","indutype":"","category":"other"},{"name":"로맨스꼬꼬 (이가닭곰탕)","tel":"031-724-2699","addr":"경기도 성남시 분당구 삼평동 670번지","indutype":"","category":"other"},{"name":"삼대곱창","tel":"031-724-2777","addr":"경기도 성남시 분당구 삼평동 670번지","indutype":"","category":"other"},{"name":"양우양꼬치","tel":"031-724-2500","addr":"경기도 성남시 분당구 삼평동 670번지","indutype":"","category":"other"},{"name":"울프스덴","tel":"031-628-1887","addr":"경기도 성남시 분당구 삼평동 670번지","indutype":"","category":"other"},{"name":"풍천숯불재벌장어","tel":"031-724-2799","addr":"경기도 성남시 분당구 삼평동 670번지","indutype":"","category":"other"},{"name":"흑돈가","tel":"031-724-2700","addr":"경기도 성남시 분당구 삼평동 670번지","indutype":"","category":"other"}]},{"lat":"37.4043337","long":"127.1155436","imageIndex":17,"items":[{"name":"고봉민김밥 (분당삼평)","tel":"","addr":"경기도 성남시 분당구 삼평동 709번지 에메트타운","indutype":"","category":"other"},{"name":"남원추어탕 판교점","tel":"031-8017-9991","addr":"경기도 성남시 분당구 삼평동 709번지 에메트타운","indutype":"","category":"other"},{"name":"베토영어학원","tel":"031-708-8370","addr":"경기도 성남시 분당구 삼평동 709번지 에메트타운","indutype":"","category":"other"},{"name":"블럭제빵소","tel":"031-704-6554","addr":"경기도 성남시 분당구 삼평동 709번지 에메트타운","indutype":"","category":"other"},{"name":"삼둥이네 푸줏간","tel":"031-707-8090","addr":"경기도 성남시 분당구 삼평동 709번지 에메트타운","indutype":"","category":"other"},{"name":"송정","tel":"031-8016-3392","addr":"경기도 성남시 분당구 삼평동 709번지 에메트타운","indutype":"","category":"other"},{"name":"안경매니져 판교점","tel":"031-8017-0120","addr":"경기도 성남시 분당구 삼평동 709번지 에메트타운","indutype":"","category":"other"},{"name":"전숙연 실용음악","tel":"031-8016-2908","addr":"경기도 성남시 분당구 삼평동 709번지 에메트타운","indutype":"","category":"other"}]},{"lat":"37.4021073","long":"127.1067535","imageIndex":17,"items":[{"name":"광장약국","tel":"031-628-6161","addr":"경기도 성남시 분당구 삼평동 682번지","indutype":"","category":"other"}]},{"lat":"37.3954426","long":"127.1135992","imageIndex":17,"items":[{"name":"글라스스토리 판교역점","tel":"031-8016-2293","addr":"경기도 성남시 분당구 삼평동 741번지","indutype":"","category":"other"},{"name":"명품한우 삼평점","tel":"031-707-9592","addr":"경기도 성남시 분당구 삼평동 741번지","indutype":"","category":"other"},{"name":"총각네 판교역점","tel":"031-706-5249","addr":"경기도 성남시 분당구 삼평동 741번지","indutype":"","category":"other"}]},{"lat":"37.4020049","long":"127.1103787","imageIndex":17,"items":[{"name":"꼬꼬와톡","tel":"031-698-3256","addr":"경기도 성남시 분당구 삼평동 678번지","indutype":"","category":"other"},{"name":"서경","tel":"031-698-3272","addr":"경기도 성남시 분당구 삼평동 678번지","indutype":"","category":"other"},{"name":"서울전통육개장 판교점","tel":"031-696-0304","addr":"경기도 성남시 분당구 삼평동 678번지","indutype":"","category":"other"},{"name":"옛날그집 (닭한마리칼국수)","tel":"031-709-0176","addr":"경기도 성남시 분당구 삼평동 678번지","indutype":"","category":"other"}]},{"lat":"37.401221","long":"127.1103776","imageIndex":17,"items":[{"name":"나고미","tel":"031-698-4407","addr":"경기도 성남시 분당구 삼평동 679번지","indutype":"","category":"other"},{"name":"더피앤빈","tel":"","addr":"경기도 성남시 분당구 삼평동 679번지","indutype":"","category":"other"},{"name":"밀크램지","tel":"031-698-7887","addr":"경기도 성남시 분당구 삼평동 679번지","indutype":"","category":"other"},{"name":"베이징스토리","tel":"031-696-0306","addr":"경기도 성남시 분당구 삼평동 679번지","indutype":"","category":"other"},{"name":"삼환약국","tel":"031-698-3511","addr":"경기도 성남시 분당구 삼평동 679번지","indutype":"","category":"other"},{"name":"신사스테이크","tel":"031-698-4443","addr":"경기도 성남시 분당구 삼평동 679번지","indutype":"","category":"other"}]},{"lat":"37.4013668","long":"127.1086047","imageIndex":17,"items":[{"name":"낭사이공","tel":"031-789-3889","addr":"경기도 성남시 분당구 삼평동 680번지","indutype":"","category":"other"}]},{"lat":"37.4036128","long":"127.1156329","imageIndex":17,"items":[{"name":"놀부보쌈&부대찌개 동판교점","tel":"031-8016-5114","addr":"경기도 성남시 분당구 삼평동 721번지","indutype":"","category":"other"},{"name":"아노덴뷰티","tel":"070-8832-1573","addr":"경기도 성남시 분당구 삼평동 721번지","indutype":"","category":"other"},{"name":"예담한약국","tel":"031-8017-3238","addr":"경기도 성남시 분당구 삼평동 721번지","indutype":"","category":"other"},{"name":"커피에반하다 삼평점","tel":"031-4221-1147","addr":"경기도 성남시 분당구 삼평동 721번지","indutype":"","category":"other"}]},{"lat":"37.3974443","long":"127.1119872","imageIndex":17,"items":[{"name":"더리움 산후조리원 (곽여성병원 부설 산후조리원)","tel":"","addr":"경기도 성남시 분당구 삼평동 660번지","indutype":"","category":"other"},{"name":"산후조리원 더리움","tel":"","addr":"경기도 성남시 분당구 삼평동 660번지","indutype":"","category":"other"}]},{"lat":"37.3968047","long":"127.1118846","imageIndex":17,"items":[{"name":"동청담","tel":"031-705-7777","addr":"경기도 성남시 분당구 삼평동 653번지","indutype":"","category":"other"},{"name":"멜로우힐","tel":"031-8017-5545","addr":"경기도 성남시 분당구 삼평동 653번지","indutype":"","category":"other"},{"name":"모비딕","tel":"031-701-5070","addr":"경기도 성남시 분당구 삼평동 653번지","indutype":"","category":"other"},{"name":"오늘한잔","tel":"031-704-1941","addr":"경기도 성남시 분당구 삼평동 653번지","indutype":"","category":"other"},{"name":"통통곱창","tel":"031-8017-6660","addr":"경기도 성남시 분당구 삼평동 653번지","indutype":"","category":"other"},{"name":"퐁당퐁당 삼평동","tel":"031-8016-6665","addr":"경기도 성남시 분당구 삼평동 653번지","indutype":"","category":"other"},{"name":"헬로피쉬","tel":"031-8017-8599","addr":"경기도 성남시 분당구 삼평동 653번지","indutype":"","category":"other"},{"name":"홍대칼국수와 족발","tel":"031-708-1779","addr":"경기도 성남시 분당구 삼평동 653번지","indutype":"","category":"other"}]},{"lat":"37.4038647","long":"127.1160963","imageIndex":17,"items":[{"name":"디오안경원","tel":"031-707-0005","addr":"경기도 성남시 분당구 삼평동 719번지","indutype":"","category":"other"},{"name":"수학의궤도진입학원","tel":"031-709-0707","addr":"경기도 성남시 분당구 삼평동 719번지","indutype":"","category":"other"},{"name":"총각네 동판교점","tel":"031-701-5249","addr":"경기도 성남시 분당구 삼평동 719번지","indutype":"","category":"other"}]},{"lat":"37.4037477","long":"127.1158816","imageIndex":17,"items":[{"name":"본죽 동판교점","tel":"031-8016-6288","addr":"경기도 성남시 분당구 삼평동 720번지","indutype":"","category":"other"},{"name":"오레시피 분당삼평점","tel":"031-701-2558","addr":"경기도 성남시 분당구 삼평동 720번지","indutype":"","category":"other"},{"name":"최고다푸줏간","tel":"031-702-8284","addr":"경기도 성남시 분당구 삼평동 720번지","indutype":"","category":"other"},{"name":"한음음악학원","tel":"031-702-8855","addr":"경기도 성남시 분당구 삼평동 720번지","indutype":"","category":"other"}]},{"lat":"37.3964173","long":"127.1118841","imageIndex":17,"items":[{"name":"분당부폐","tel":"031-8016-5425","addr":"경기도 성남시 분당구 삼평동 652번지","indutype":"","category":"other"}]},{"lat":"37.3974446","long":"127.1117387","imageIndex":17,"items":[{"name":"센트럴차이나","tel":"031-8017-8615","addr":"경기도 성남시 분당구 삼평동 661번지","indutype":"","category":"other"}]},{"lat":"37.4037259","long":"127.0998775","imageIndex":17,"items":[{"name":"슈퍼커피 판교점","tel":"031-628-7798","addr":"경기도 성남시 분당구 삼평동 618번지","indutype":"","category":"other"}]},{"lat":"37.3976972","long":"127.1113777","imageIndex":17,"items":[{"name":"씨씨알","tel":"070-4108-9292","addr":"경기도 성남시 분당구 삼평동 662번지","indutype":"","category":"other"},{"name":"얼씨92숯불갈비","tel":"031-8017-8044","addr":"경기도 성남시 분당구 삼평동 662번지","indutype":"","category":"other"},{"name":"우주라이크 카페 판교역점","tel":"031-8039-7788","addr":"경기도 성남시 분당구 삼평동 662번지","indutype":"","category":"other"},{"name":"전설의 골뱅이","tel":"031-701-2683","addr":"경기도 성남시 분당구 삼평동 662번지","indutype":"","category":"other"},{"name":"제일호프","tel":"031-704-1136","addr":"경기도 성남시 분당구 삼평동 662번지","indutype":"","category":"other"}]},{"lat":"37.4020965","long":"127.1086735","imageIndex":17,"items":[{"name":"아이원안경원","tel":"031-696-7887","addr":"경기도 성남시 분당구 삼평동 681번지","indutype":"","category":"other"},{"name":"원월드어학원","tel":"031-696-7896","addr":"경기도 성남시 분당구 삼평동 681번지","indutype":"","category":"other"}]},{"lat":"37.3973087","long":"127.1124613","imageIndex":17,"items":[{"name":"양재정육점 ㈜부론","tel":"031-708-5705","addr":"경기도 성남시 분당구 삼평동 656번지","indutype":"","category":"other"}]}]