[{"lat":"37.570066305","long":"127.20163892","imageIndex":0,"items":[{"name":"(주)바름정비","tel":"031-8027-8051","addr":"경기도 하남시 미사동 291-5번지 1층,2층","indutype":"자동차정비 유지 - 자동차정비","category":"car"}]},{"lat":"37.572759195","long":"127.20225734","imageIndex":0,"items":[{"name":"섹터3","tel":"031-791-9381","addr":"경기도 하남시 미사동 355-4번지","indutype":"자동차정비 유지 - 자동차정비","category":"car"}]},{"lat":"37.577759823","long":"127.20214615","imageIndex":0,"items":[{"name":"아이티엠","tel":"031-795-0690","addr":"경기도 하남시 미사동 541-73","indutype":"자동차정비 유지 - 자동차시트·타이어","category":"car"}]},{"lat":"37.568982781","long":"127.2030283","imageIndex":0,"items":[{"name":"오토샤인","tel":"","addr":"경기도 하남시 미사동 459-10번지 1층","indutype":"자동차정비 유지 - 카인테리어","category":"car"},{"name":"오토아우라","tel":"031-000-0000","addr":"경기도 하남시 미사동 459-10번지 1층 101호","indutype":"자동차정비 유지 - 세차장","category":"car"}]},{"lat":"37.567566399","long":"127.20411114","imageIndex":0,"items":[{"name":"워시 플래넷 미사점","tel":"070-4102-1234","addr":"경기도 하남시 미사동 253-3번지 1층","indutype":"자동차정비 유지 - 세차장","category":"car"}]},{"lat":"37.577343592","long":"127.20319784","imageIndex":0,"items":[{"name":"천호공업사","tel":"031-791-8333","addr":"경기도 하남시 미사동 539-1","indutype":"자동차정비 유지 - 자동차부품","category":"car"}]},{"lat":"37.575231737","long":"127.20528641","imageIndex":17,"items":[{"name":"(주)사진속아이들","tel":"031-796-2243","addr":"경기도 하남시 미사동 395-14번지","indutype":"광학제품 - 사진관","category":"other"}]},{"lat":"37.560706743","long":"127.21114377","imageIndex":17,"items":[{"name":"(주)써미트","tel":"031-471-8850","addr":"경기도 하남시 미사동 27-8번지","indutype":"레져용품 - 스포츠·레져용품","category":"other"}]},{"lat":"37.569012487","long":"127.20672976","imageIndex":17,"items":[{"name":"(주)포시즌미디어","tel":"031-1577-3451","addr":"경기도 하남시 미사동 485-3번지","indutype":"용역 서비스 - 종합용역","category":"other"}]},{"lat":"37.570842362","long":"127.20091653","imageIndex":17,"items":[{"name":"GS25미사동로점","tel":"","addr":"경기도 하남시 미사동 302-5번지 1층","indutype":"유통업 영리 - 편 의 점","category":"other"}]},{"lat":"37.574675221","long":"127.20406234","imageIndex":17,"items":[{"name":"VALUM","tel":"02-796-5050","addr":"경기도 하남시 미사동 389-7번지 (62호)","indutype":"의류 - 정장","category":"other"}]},{"lat":"37.568035467","long":"127.20378414","imageIndex":17,"items":[{"name":"가야농장 체험학습장","tel":"070-7736-4371","addr":"경기도 하남시 미사동 252번지 가야매실농장","indutype":"레져용품 - 스포츠·레져용품","category":"other"}]},{"lat":"37.573256885","long":"127.20097953","imageIndex":17,"items":[{"name":"가원농원","tel":"02-429-6412","addr":"경기도 하남시 미사동 337-2번지","indutype":"문화.취미 - 화원","category":"other"}]},{"lat":"37.576564738","long":"127.20022982","imageIndex":17,"items":[{"name":"공간플러스투","tel":"031-791-5948","addr":"경기도 하남시 미사동 573-13번지","indutype":"가구 - 일반가구","category":"other"}]},{"lat":"37.573873911","long":"127.20373191","imageIndex":17,"items":[{"name":"다솜꽃농원","tel":"031-791-6606","addr":"경기도 하남시 미사동 385-4","indutype":"문화.취미 - 화원","category":"other"}]},{"lat":"37.560570617","long":"127.21169797","imageIndex":17,"items":[{"name":"다인공사","tel":"","addr":"경기도 하남시 미사동 41-1번지","indutype":"수리서비스 - 기타수리서비스","category":"other"}]},{"lat":"37.562791142","long":"127.20936129","imageIndex":17,"items":[{"name":"대길상사","tel":"","addr":"경기도 하남시 미사동 124-5번지","indutype":"가구 - 일반가구","category":"other"}]},{"lat":"37.573010588","long":"127.20277872","imageIndex":17,"items":[{"name":"대한신불교천우종천황사","tel":"02-481-2827","addr":"경기도 하남시 미사동 371-3번지","indutype":"기타 - 비영리/대상","category":"other"}]},{"lat":"37.57498165","long":"127.20400656","imageIndex":17,"items":[{"name":"듀크존","tel":"031-792-9106","addr":"경기도 하남시 미사동 391-5번지","indutype":"건축자재 - 인테리어전문","category":"other"}]},{"lat":"37.572426311","long":"127.20197346","imageIndex":17,"items":[{"name":"막시홈(MAXXI HOME)","tel":"031-794-3228","addr":"경기도 하남시 미사동 354-7번지","indutype":"가구 - 일반가구","category":"other"}]},{"lat":"37.56884216","long":"127.20623125","imageIndex":17,"items":[{"name":"매직코리아","tel":"031-246-4800","addr":"경기도 하남시 미사동 471번지","indutype":"신변잡화 - 기타잡화","category":"other"},{"name":"삼풍코퍼레이션","tel":"","addr":"경기도 하남시 미사동 471번지 다동","indutype":"주방용구 - 주방용구","category":"other"}]},{"lat":"37.570344895","long":"127.20733332","imageIndex":17,"items":[{"name":"매직크린","tel":"02-428-9693","addr":"경기도 하남시 미사동 491-7번지","indutype":"주방용구 - 주방용구","category":"other"}]},{"lat":"37.572177531","long":"127.19988998","imageIndex":17,"items":[{"name":"명강","tel":"031-792-1534","addr":"경기도 하남시 미사동 346-3번지","indutype":"주방용구 - 주방용구","category":"other"}]},{"lat":"37.574422076","long":"127.19922801","imageIndex":17,"items":[{"name":"미사가구","tel":"031-793-2789","addr":"경기도 하남시 미사동 334-1번지","indutype":"가구 - 기타가구","category":"other"}]},{"lat":"37.566953241","long":"127.20961047","imageIndex":17,"items":[{"name":"미사리커피농원","tel":"","addr":"경기도 하남시 미사동 183번지","indutype":"문화.취미 - 화원","category":"other"}]},{"lat":"37.569456458","long":"127.20528211","imageIndex":17,"items":[{"name":"민경통상","tel":"031-796-4360","addr":"경기도 하남시 미사동 477번지","indutype":"건축자재 - 기타건축자재","category":"other"}]},{"lat":"37.568370768","long":"127.20264182","imageIndex":17,"items":[{"name":"베이비스튜디오","tel":"031-792-0946","addr":"경기도 하남시 미사동 258-2번지","indutype":"광학제품 - 사진관","category":"other"}]},{"lat":"37.564896639","long":"127.20577911","imageIndex":17,"items":[{"name":"봉 스튜디오","tel":"02-3447-6049","addr":"경기도 하남시 미사동 203-7번지","indutype":"광학제품 - 사진관","category":"other"}]},{"lat":"37.571950146","long":"127.2011685","imageIndex":17,"items":[{"name":"사랑이야기 하남점","tel":"031-795-0360","addr":"경기도 하남시 미사동 308-1번지","indutype":"광학제품 - 사진관","category":"other"}]},{"lat":"37.57442933","long":"127.20028079","imageIndex":17,"items":[{"name":"서진쇼파","tel":"031-793-1162","addr":"경기도 하남시 미사동 335-11번지","indutype":"가구 - 일반가구","category":"other"},{"name":"파티팝","tel":"","addr":"경기도 하남시 미사동 335-11번지","indutype":"신변잡화 - 기타잡화","category":"other"}]},{"lat":"37.56273101","long":"127.2076747","imageIndex":17,"items":[{"name":"슈슈몽드","tel":"031-8027-0055","addr":"경기도 하남시 미사동 142-35번지 1층","indutype":"용역 서비스 - 혼례서비스","category":"other"}]},{"lat":"37.574150538","long":"127.19997441","imageIndex":17,"items":[{"name":"스튜디오진","tel":"031-874-1574","addr":"경기도 하남시 미사동 336-1번지","indutype":"광학제품 - 사진관","category":"other"}]},{"lat":"37.572785382","long":"127.20275548","imageIndex":17,"items":[{"name":"신건코리아","tel":"070-7864-8677","addr":"경기도 하남시 미사동 372-2번지","indutype":"주방용구 - 주방용구","category":"other"}]},{"lat":"37.575366667","long":"127.20009082","imageIndex":17,"items":[{"name":"신흥직물","tel":"031-523-5385","addr":"경기도 하남시 미사동 358-1번지","indutype":"직물 - 기타직물","category":"other"}]},{"lat":"37.565790227","long":"127.21003737","imageIndex":17,"items":[{"name":"썬 베이스볼","tel":"031-793-0401","addr":"경기도 하남시 미사동 155-5번지","indutype":"레져용품 - 스포츠·레져용품","category":"other"}]},{"lat":"37.569732753","long":"127.20175123","imageIndex":17,"items":[{"name":"씨유미사리카페촌점","tel":"031-239-6697","addr":"경기도 하남시 미사동 291-13번지 101호","indutype":"유통업 영리 - 편 의 점","category":"other"}]},{"lat":"37.565428623","long":"127.2107268","imageIndex":17,"items":[{"name":"아가새농장","tel":"031-791-9433","addr":"경기도 하남시 미사동 155-1번지","indutype":"문화.취미 - 애완동물","category":"other"}]},{"lat":"37.576232812","long":"127.19936861","imageIndex":17,"items":[{"name":"영신 거북표 씽크","tel":"031-796-7920","addr":"경기도 하남시 미사동 572-1번지","indutype":"주방용구 - 주방용구","category":"other"}]},{"lat":"37.56520373","long":"127.20533851","imageIndex":17,"items":[{"name":"영진아트텍","tel":"070-4230-6875","addr":"경기도 하남시 미사동 203-4번지","indutype":"서적문구 - 과학기자재","category":"other"}]},{"lat":"37.571706825","long":"127.20120181","imageIndex":17,"items":[{"name":"원주민철물점","tel":"031-791-5353","addr":"경기도 하남시 미사동 308-5번지","indutype":"건축자재 - 목재·석재·철물","category":"other"}]},{"lat":"37.565204155","long":"127.21028475","imageIndex":17,"items":[{"name":"유진농원","tel":"02-3426-3706","addr":"경기도 하남시 미사동 154-4번지","indutype":"문화.취미 - 화원","category":"other"}]},{"lat":"37.573902228","long":"127.20297355","imageIndex":17,"items":[{"name":"으뜸기획","tel":"031-791-6606","addr":"경기도 하남시 미사동 385-10번지","indutype":"용역 서비스 - 종합용역","category":"other"}]},{"lat":"37.565707287","long":"127.21108978","imageIndex":17,"items":[{"name":"크리스탈","tel":"031-795-7800","addr":"경기도 하남시 미사동 160-2","indutype":"유통업 영리 - 기타유통업","category":"other"}]},{"lat":"37.572485752","long":"127.20411305","imageIndex":17,"items":[{"name":"티앤씨코리아","tel":"031-791-3802","addr":"경기도 하남시 미사동 375-8번지 가동","indutype":"레져용품 - 스포츠·레져용품","category":"other"}]},{"lat":"37.565735791","long":"127.20505698","imageIndex":17,"items":[{"name":"필름그라피","tel":"031-795-7080","addr":"경기도 하남시 미사동 269-5번지","indutype":"광학제품 - 사진관","category":"other"}]},{"lat":"37.574758444","long":"127.20280604","imageIndex":17,"items":[{"name":"현대수족관","tel":"031-795-0344","addr":"경기도 하남시 미사동 363-7번지","indutype":"문화.취미 - 수족관","category":"other"}]},{"lat":"37.576592467","long":"127.19981104","imageIndex":17,"items":[{"name":"현대스포츠","tel":"031-796-3839","addr":"경기도 하남시 미사동 573-2번지","indutype":"레져용품 - 스포츠·레져용품","category":"other"}]},{"lat":"37.573289795","long":"127.20283607","imageIndex":4,"items":[{"name":"(주)올킹 자작나무갈비 하남 미사점","tel":"031-795-7677","addr":"경기도 하남시 미사동 377-9번지","indutype":"일반휴게음식 - 일반한식","category":"restaurant"}]},{"lat":"37.57561968","long":"127.20498182","imageIndex":4,"items":[{"name":"(주)트루낭","tel":"","addr":"경기도 하남시 미사동 395-5번지","indutype":"일반휴게음식 - 서양음식","category":"restaurant"}]},{"lat":"37.571372817","long":"127.20158579","imageIndex":4,"items":[{"name":"강변칼국수","tel":"031-794-2255","addr":"경기도 하남시 미사동 305-4번지 106호","indutype":"일반휴게음식 - 일반한식","category":"restaurant"},{"name":"성안식당","tel":"031-796-3489","addr":"경기도 하남시 미사동 305-4번지 1층 5호","indutype":"일반휴게음식 - 일반한식","category":"restaurant"}]},{"lat":"37.575593522","long":"127.20447234","imageIndex":4,"items":[{"name":"강변칼국수","tel":"031-753-6455","addr":"경기도 하남시 미사동 394-3번지","indutype":"일반휴게음식 - 일반한식","category":"restaurant"}]},{"lat":"37.569146163","long":"127.20231563","imageIndex":4,"items":[{"name":"고부레","tel":"031-792-4765","addr":"경기도 하남시 미사동 455-1번지","indutype":"일반휴게음식 - 서양음식","category":"restaurant"}]},{"lat":"37.571094769","long":"127.20083797","imageIndex":4,"items":[{"name":"늘풀향기","tel":"031-795-8890","addr":"경기도 하남시 미사동 312번지 1층","indutype":"일반휴게음식 - 일반한식","category":"restaurant"}]},{"lat":"37.575430204","long":"127.20513979","imageIndex":4,"items":[{"name":"리버","tel":"031-791-2991","addr":"경기도 하남시 미사동 395-3번지","indutype":"일반휴게음식 - 서양음식","category":"restaurant"}]},{"lat":"37.570895851","long":"127.20125626","imageIndex":4,"items":[{"name":"만지스커피(MANJI'S COFFEE)","tel":"031-791-9522","addr":"경기도 하남시 미사동 304-11번지 1층","indutype":"일반휴게음식 - 서양음식","category":"restaurant"}]},{"lat":"37.576035888","long":"127.2039528","imageIndex":4,"items":[{"name":"미사강변곤드레밥집","tel":"031-791-2080","addr":"경기도 하남시 미사동 538-9번지 1층","indutype":"일반휴게음식 - 일반한식","category":"restaurant"}]},{"lat":"37.570038245","long":"127.20225009","imageIndex":4,"items":[{"name":"미사동로40번길","tel":"031-794-1928","addr":"경기도 하남시 미사동 438-2번지 2,3층","indutype":"일반휴게음식 - 일반한식","category":"restaurant"}]},{"lat":"37.570842362","long":"127.20091653","imageIndex":4,"items":[{"name":"미사리감자탕","tel":"031-791-1337","addr":"경기도 하남시 미사동 302-5번지 2층","indutype":"일반휴게음식 - 일반한식","category":"restaurant"},{"name":"블랙빈","tel":"031-795-4378","addr":"경기도 하남시 미사동 302-5번지","indutype":"일반휴게음식 - 서양음식","category":"restaurant"}]},{"lat":"37.574289456","long":"127.20308778","imageIndex":4,"items":[{"name":"미사리강변대게","tel":"031-794-2984","addr":"경기도 하남시 미사동 386-1번지 1층","indutype":"일반휴게음식 - 일반한식","category":"restaurant"}]},{"lat":"37.570066305","long":"127.20163892","imageIndex":4,"items":[{"name":"미사리바다해장국","tel":"031-791-8878","addr":"경기도 하남시 미사동 291-5번지","indutype":"일반휴게음식 - 일반한식","category":"restaurant"}]},{"lat":"37.561121631","long":"127.21089593","imageIndex":4,"items":[{"name":"미사리풀하우스","tel":"031-792-1177","addr":"경기도 하남시 미사동 27-3번지","indutype":"일반휴게음식 - 일반한식","category":"restaurant"}]},{"lat":"37.572011709","long":"127.20206292","imageIndex":4,"items":[{"name":"미사본갈비","tel":"031-791-1513","addr":"경기도 하남시 미사동 433-5번지","indutype":"일반휴게음식 - 일반한식","category":"restaurant"}]},{"lat":"37.569064712","long":"127.20253048","imageIndex":4,"items":[{"name":"샘골 민물매운탕","tel":"031-796-8857","addr":"경기도 하남시 미사동 455-2번지","indutype":"일반휴게음식 - 일반한식","category":"restaurant"}]},{"lat":"37.573595992","long":"127.20291613","imageIndex":4,"items":[{"name":"샤뜰레","tel":"031-791-0772","addr":"경기도 하남시 미사동 380-6번지","indutype":"일반휴게음식 - 서양음식","category":"restaurant"},{"name":"청솔향기","tel":"031-796-8857","addr":"경기도 하남시 미사동 380-6번지 1층,2층","indutype":"일반휴게음식 - 일반한식","category":"restaurant"},{"name":"청솔향기","tel":"031-792-8857","addr":"경기도 하남시 미사동 380-6번지","indutype":"일반휴게음식 - 일반한식","category":"restaurant"}]},{"lat":"37.569568416","long":"127.20302987","imageIndex":4,"items":[{"name":"스튜디오카페 스카","tel":"031-795-4324","addr":"경기도 하남시 미사동 451-3번지 1층","indutype":"일반휴게음식 - 서양음식","category":"restaurant"}]},{"lat":"37.571482701","long":"127.20053336","imageIndex":4,"items":[{"name":"시드니","tel":"031-7917-6523","addr":"경기도 하남시 미사동 314번지","indutype":"일반휴게음식 - 서양음식","category":"restaurant"}]},{"lat":"37.572624335","long":"127.20208719","imageIndex":4,"items":[{"name":"신명수산","tel":"031-791-6875","addr":"경기도 하남시 미사동 355-7번지","indutype":"일반휴게음식 - 일식·회집","category":"restaurant"}]},{"lat":"37.571706825","long":"127.20120181","imageIndex":4,"items":[{"name":"야미가미사점","tel":"031-795-1414","addr":"경기도 하남시 미사동 308-5번지 1층","indutype":"일반휴게음식 - 일반한식","category":"restaurant"},{"name":"호남식당","tel":"031-795-4696","addr":"경기도 하남시 미사동 308-5번지 1층","indutype":"일반휴게음식 - 일반한식","category":"restaurant"}]},{"lat":"37.570291873","long":"127.20144709","imageIndex":4,"items":[{"name":"이화정","tel":"031-791-5676","addr":"경기도 하남시 미사동 291-7번지","indutype":"일반휴게음식 - 일반한식","category":"restaurant"}]},{"lat":"37.562343825","long":"127.20753782","imageIndex":4,"items":[{"name":"주식회사 소진담컬쳐","tel":"031-791-4959","addr":"경기도 하남시 미사동 140-4번지 1층","indutype":"일반휴게음식 - 서양음식","category":"restaurant"}]},{"lat":"37.57158966","long":"127.20122414","imageIndex":4,"items":[{"name":"털보네바베큐","tel":"031-791-1025","addr":"경기도 하남시 미사동 309번지 1층","indutype":"일반휴게음식 - 일반한식","category":"restaurant"}]},{"lat":"37.568035467","long":"127.20378414","imageIndex":4,"items":[{"name":"한가람","tel":"031-791-9959","addr":"경기도 하남시 미사동 252번지","indutype":"일반휴게음식 - 일반한식","category":"restaurant"}]},{"lat":"37.570957891","long":"127.20186768","imageIndex":4,"items":[{"name":"한채당","tel":"031-792-8868","addr":"경기도 하남시 미사동 297번지 ,1-2층","indutype":"일반휴게음식 - 일반한식","category":"restaurant"},{"name":"한채당 정원까페","tel":"031-792-8862","addr":"경기도 하남시 미사동 297-1번지 1층","indutype":"일반휴게음식 - 일반한식","category":"restaurant"}]},{"lat":"37.573344562","long":"127.20241738","imageIndex":4,"items":[{"name":"현대횟집","tel":"031-796-2918","addr":"경기도 하남시 미사동 370-1번지 1층","indutype":"일반휴게음식 - 일식·회집","category":"restaurant"}]},{"lat":"37.568648708","long":"127.20344622","imageIndex":4,"items":[{"name":"혜성가든","tel":"031-792-1260","addr":"경기도 하남시 미사동 251-3번지","indutype":"일반휴게음식 - 일반한식","category":"restaurant"},{"name":"혜성식당","tel":"031-792-1260","addr":"경기도 하남시 미사동 251-3 1층","indutype":"일반휴게음식 - 일반한식","category":"restaurant"}]},{"lat":"37.565897191","long":"127.20551017","imageIndex":4,"items":[{"name":"화수목해물요리전문점","tel":"031-796-0027","addr":"경기도 하남시 미사동 205-2번지","indutype":"일반휴게음식 - 일반한식","category":"restaurant"}]},{"lat":"37.568539127","long":"127.20430618","imageIndex":4,"items":[{"name":"후식(whoseek)","tel":"","addr":"경기도 하남시 미사동 468번지 가동 1층","indutype":"일반휴게음식 - 서양음식","category":"restaurant"}]},{"lat":"37.574289456","long":"127.20308778","imageIndex":7,"items":[{"name":"(주)착한크랩","tel":"031-793-2985","addr":"경기도 하남시 미사동 386-1번지 1층","indutype":"음료식품 - 농·축·수산품","category":"food"}]},{"lat":"37.572121046","long":"127.20133875","imageIndex":7,"items":[{"name":"대도통상","tel":"031-794-7728","addr":"경기도 하남시 미사동 352-4번지","indutype":"음료식품 - 기타음료식품","category":"food"}]},{"lat":"37.569063523","long":"127.20323226","imageIndex":7,"items":[{"name":"동남농장","tel":"031-795-2715","addr":"경기도 하남시 미사동 459-2번지","indutype":"음료식품 - 농·축·수산품","category":"food"}]},{"lat":"37.572011709","long":"127.20206292","imageIndex":7,"items":[{"name":"미사골/정육","tel":"031-791-1513","addr":"경기도 하남시 미사동 433-5번지","indutype":"음료식품 - 정육점","category":"food"}]},{"lat":"37.575234347","long":"127.2037582","imageIndex":7,"items":[{"name":"삼일음료유통","tel":"031-791-8966","addr":"경기도 하남시 미사동 391-9번지","indutype":"음료식품 - 기타음료식품","category":"food"}]},{"lat":"37.573452583","long":"127.20247427","imageIndex":7,"items":[{"name":"어업회사법인 팔팔수산 주식회사","tel":"031-796-3306","addr":"경기도 하남시 미사동 369-1번지 1층","indutype":"음료식품 - 농·축·수산품","category":"food"}]},{"lat":"37.574675221","long":"127.20406234","imageIndex":7,"items":[{"name":"엘케이","tel":"031-796-5288","addr":"경기도 하남시 미사동 389-7번지","indutype":"음료식품 - 기타음료식품","category":"food"},{"name":"제일기업","tel":"","addr":"경기도 하남시 미사동 389-7번지","indutype":"음료식품 - 기타음료식품","category":"food"}]},{"lat":"37.571950146","long":"127.2011685","imageIndex":7,"items":[{"name":"주식회사 디피넷","tel":"02-784-2336","addr":"경기도 하남시 미사동 308-1번지","indutype":"음료식품 - 농·축·수산품","category":"food"}]},{"lat":"37.575593522","long":"127.20447234","imageIndex":7,"items":[{"name":"주식회사상일스타","tel":"031-792-6362","addr":"경기도 하남시 미사동 394-3번지 1층","indutype":"음료식품 - 정육점","category":"food"}]},{"lat":"37.565707287","long":"127.21108978","imageIndex":7,"items":[{"name":"창하크리스타라","tel":"031-795-7800","addr":"경기도 하남시 미사동 160-2번지","indutype":"음료식품 - 기타음료식품","category":"food"}]},{"lat":"37.560784643","long":"127.21294354","imageIndex":7,"items":[{"name":"토박이매점","tel":"","addr":"경기도 하남시 미사동 98-6번지","indutype":"음료식품 - 기타음료식품","category":"food"}]},{"lat":"37.572785382","long":"127.20275548","imageIndex":7,"items":[{"name":"강변가는길편의점","tel":"031-796-9777","addr":"경기도 하남시 미사동 372-2번지 103,104호","indutype":"유통업 영리 - 슈퍼마켓","category":"mart"}]},{"lat":"37.577484301","long":"127.19989264","imageIndex":13,"items":[{"name":"미사리승마공원","tel":"031-796-7720","addr":"경기도 하남시 미사동 575-3번지","indutype":"레저업소 - 기타레져업소","category":"leisure"}]},{"lat":"37.570291873","long":"127.20144709","imageIndex":13,"items":[{"name":"미사휴골프존","tel":"031-793-7337","addr":"경기도 하남시 미사동 291-7번지 2층","indutype":"레저업소 - 스크린골프","category":"leisure"}]},{"lat":"37.565284001","long":"127.20581411","imageIndex":13,"items":[{"name":"스킬팩토리피지컬트레이닝센터","tel":"","addr":"경기도 하남시 미사동 201-3번지 1층","indutype":"레저업소 - 헬스클럽","category":"leisure"}]},{"lat":"37.569118157","long":"127.20289283","imageIndex":16,"items":[{"name":"에이비씨 스포츠파크","tel":"031-791-2214","addr":"경기도 하남시 미사동 459-5번지","indutype":"학원 - 예·체능계학원","category":"study"}]},{"lat":"37.563678721","long":"127.20670391","imageIndex":16,"items":[{"name":"원스포츠아카데미","tel":"031-793-5460","addr":"경기도 하남시 미사동 140-11번지","indutype":"학원 - 예·체능계학원","category":"study"}]},{"lat":"37.561121631","long":"127.21089593","imageIndex":16,"items":[{"name":"주식회사 한국드론마케팅","tel":"070-4455-8882","addr":"경기도 하남시 미사동 27-3번지","indutype":"학원 - 기능학원","category":"study"}]},{"lat":"37.570372351","long":"127.20180952","imageIndex":16,"items":[{"name":"케이이디엘피(KEDLP)어학원","tel":"031-796-8100","addr":"경기도 하남시 미사동 295번지","indutype":"회원제형태 - 학원","category":"study"}]},{"lat":"37.566096415","long":"127.20492213","imageIndex":16,"items":[{"name":"하늘을나는그림책학원 미사점","tel":"","addr":"경기도 하남시 미사동 268번지 2층","indutype":"학원 - 보습학원","category":"study"}]}]