[{"lat":"37.496082662","long":"127.6026326","imageIndex":17,"items":[{"name":"그린방수페인트공사","tel":"031-771-1255","addr":"경기도 양평군 용문면 마룡리 332-12번지","indutype":"건축자재 - 페인트","category":"other"},{"name":"그린상사","tel":"031-771-1255","addr":"경기도 양평군 용문면 마룡리 332-12번지","indutype":"건축자재 - 기타건축자재","category":"other"}]},{"lat":"37.495638501","long":"127.60316053","imageIndex":17,"items":[{"name":"꿈을짓는사람들","tel":"031-771-6268","addr":"경기도 양평군 용문면 마룡리 340-3번지","indutype":"회원제형태 - 사무서비스","category":"other"}]},{"lat":"37.496250166","long":"127.60335766","imageIndex":17,"items":[{"name":"대명모터","tel":"031-774-3304","addr":"경기도 양평군 용문면 마룡리 333-4번지","indutype":"수리서비스 - 기타수리서비스","category":"other"},{"name":"대명보일러","tel":"031-774-3304","addr":"경기도 양평군 용문면 마룡리 333-4번지","indutype":"건축자재 - 보일러·펌프·샷시","category":"other"}]},{"lat":"37.501085186","long":"127.60399574","imageIndex":17,"items":[{"name":"대신천막기업","tel":"031-773-8654","addr":"경기도 양평군 용문면 마룡리 477번지","indutype":"직물 - 카페트,커튼,천막,지물","category":"other"}]},{"lat":"37.485613378","long":"127.61316568","imageIndex":17,"items":[{"name":"동일상사","tel":"02-948-8552","addr":"경기도 양평군 용문면 마룡리 189번지","indutype":"용역 서비스 - 종합용역","category":"other"}]},{"lat":"37.485306625","long":"127.60974864","imageIndex":17,"items":[{"name":"들어오시개","tel":"070-4655-1695","addr":"경기도 양평군 용문면 마룡리 216-1번지","indutype":"문화.취미 - 애완동물","category":"other"}]},{"lat":"37.49494265","long":"127.60179801","imageIndex":17,"items":[{"name":"마룡철물 공구건재","tel":"031-773-3051","addr":"경기도 양평군 용문면 마룡리 323-5번지","indutype":"기타 - 기계공구","category":"other"}]},{"lat":"37.496307898","long":"127.60263441","imageIndex":17,"items":[{"name":"비엘커피머신","tel":"031-771-7817","addr":"경기도 양평군 용문면 마룡리 332-4번지","indutype":"수리서비스 - 가정용품수리","category":"other"}]},{"lat":"37.502946511","long":"127.60472314","imageIndex":17,"items":[{"name":"솔토부동산개발컨설팅","tel":"031-773-3121","addr":"경기도 양평군 용문면 마룡리 517-11번지","indutype":"회원제형태 - 기타4","category":"other"}]},{"lat":"37.501025546","long":"127.60685639","imageIndex":17,"items":[{"name":"식목일농원","tel":"031-774-4305","addr":"경기도 양평군 용문면 마룡리 493번지","indutype":"문화.취미 - 화원","category":"other"},{"name":"식목일조경농원","tel":"031-775-5653","addr":"경기도 양평군 용문면 마룡리 493번지","indutype":"문화.취미 - 화원","category":"other"}]},{"lat":"37.49941748","long":"127.60593875","imageIndex":17,"items":[{"name":"쌍둥이철공소","tel":"031-774-0984","addr":"경기도 양평군 용문면 마룡리 501-3번지","indutype":"건축자재 - 목재·석재·철물","category":"other"}]},{"lat":"37.498166014","long":"127.60399496","imageIndex":17,"items":[{"name":"씨유양평마룡삼거리점","tel":"031-772-0660","addr":"경기도 양평군 용문면 마룡리 425-4번지","indutype":"유통업 영리 - 편 의 점","category":"other"},{"name":"오투샵","tel":"","addr":"경기도 양평군 용문면 마룡리 425-4번지","indutype":"의류 - 정장","category":"other"},{"name":"유일낚시용품","tel":"","addr":"경기도 양평군 용문면 마룡리 425-4번지","indutype":"레져용품 - 스포츠·레져용품","category":"other"}]},{"lat":"37.495275427","long":"127.60191375","imageIndex":17,"items":[{"name":"안전뱅크","tel":"031-774-3760","addr":"경기도 양평군 용문면 마룡리 324번지","indutype":"기타 - 기계공구","category":"other"}]},{"lat":"37.503303833","long":"127.60532539","imageIndex":17,"items":[{"name":"양평관광수도","tel":"","addr":"경기도 양평군 용문면 마룡리 520-3번지 1층","indutype":"용역 서비스 - 종합용역","category":"other"},{"name":"행복컨설팅","tel":"031-775-3989","addr":"경기도 양평군 용문면 마룡리 520-3","indutype":"회원제형태 - 기타4","category":"other"}]},{"lat":"37.504943433","long":"127.60536118","imageIndex":17,"items":[{"name":"용문조경","tel":"031-774-8822","addr":"경기도 양평군 용문면 마룡리 538-3번지 용문그린타운","indutype":"건축자재 - 인테리어전문","category":"other"}]},{"lat":"37.48957836","long":"127.59891711","imageIndex":17,"items":[{"name":"이마트24 용문자이언트점","tel":"031-111-1111","addr":"경기도 양평군 용문면 마룡리 658-2번지 자이언트상가 1층 102호","indutype":"유통업 영리 - 편 의 점","category":"other"}]},{"lat":"37.501132751","long":"127.59816078","imageIndex":17,"items":[{"name":"정주농장","tel":"","addr":"경기도 양평군 용문면 마룡리 94-2번지","indutype":"농업 - 기타농업관련","category":"other"}]},{"lat":"37.497222093","long":"127.6035803","imageIndex":17,"items":[{"name":"조은세상","tel":"031-774-9378","addr":"경기도 양평군 용문면 마룡리 451-13번지","indutype":"직물 - 카페트,커튼,천막,지물","category":"other"}]},{"lat":"37.49650203","long":"127.60166346","imageIndex":17,"items":[{"name":"청록조경","tel":"031-772-6691","addr":"경기도 양평군 용문면 마룡리 산17-4번지","indutype":"회원제형태 - 기타4","category":"other"}]},{"lat":"37.502441569","long":"127.5994717","imageIndex":17,"items":[{"name":"초롱시스템","tel":"031-567-3791","addr":"경기도 양평군 용문면 마룡리 559번지","indutype":"수리서비스 - 가정용품수리","category":"other"}]},{"lat":"37.498695901","long":"127.60432715","imageIndex":17,"items":[{"name":"캔하우징 캐노픽스","tel":"031-775-0989","addr":"경기도 양평군 용문면 마룡리 424-1번지 1층","indutype":"건축자재 - 기타건축자재","category":"other"}]}]