[{"lat":"37.65244434","long":"127.32684851","imageIndex":0,"items":[{"name":"Joy pure 디테일링","tel":"031-528-6263","addr":"경기도 남양주시 화도읍 월산리 287-4번지","indutype":"자동차정비 유지 - 카인테리어","category":"car"}]},{"lat":"37.653414691","long":"127.32782727","imageIndex":0,"items":[{"name":"경성자동차공업사","tel":"031-593-2466","addr":"경기도 남양주시 화도읍 월산리 316-4","indutype":"자동차정비 유지 - 자동차정비","category":"car"}]},{"lat":"37.655474643","long":"127.33546288","imageIndex":0,"items":[{"name":"디테일러 명 남양주점","tel":"","addr":"경기도 남양주시 화도읍 월산리 43-3번지","indutype":"자동차정비 유지 - 세차장","category":"car"}]},{"lat":"37.652918947","long":"127.32790444","imageIndex":0,"items":[{"name":"마석차유리","tel":"031-594-5343","addr":"경기도 남양주시 화도읍 월산리 305번지","indutype":"자동차정비 유지 - 자동차부품","category":"car"}]},{"lat":"37.655831568","long":"127.33668837","imageIndex":0,"items":[{"name":"아이리스상사","tel":"070-4236-6574","addr":"경기도 남양주시 화도읍 월산리 67-2","indutype":"자동차정비 유지 - 자동차부품","category":"car"}]},{"lat":"37.654641132","long":"127.340264","imageIndex":0,"items":[{"name":"엠알오토","tel":"070-4007-5739","addr":"경기도 남양주시 화도읍 월산리 1528번지 사랑으로부영1단지 114동 701호","indutype":"자동차정비 유지 - 윤활유 전문 판매","category":"car"}]},{"lat":"37.652748671","long":"127.32757507","imageIndex":0,"items":[{"name":"월드자동차공업사","tel":"031-511-4217","addr":"경기도 남양주시 화도읍 월산리 285번지","indutype":"자동차정비 유지 - 자동차정비","category":"car"}]},{"lat":"37.652393861","long":"127.32882003","imageIndex":0,"items":[{"name":"조은상사","tel":"031-593-0088","addr":"경기도 남양주시 화도읍 월산리 283-4번지 1층","indutype":"자동차정비 유지 - 자동차부품","category":"car"}]},{"lat":"37.649616411","long":"127.3297144","imageIndex":0,"items":[{"name":"주식회사하이브로즈","tel":"070-4895-4796","addr":"경기도 남양주시 화도읍 월산리 157번지","indutype":"자동차정비 유지 - 자동차부품","category":"car"}]},{"lat":"37.652610455","long":"127.32541009","imageIndex":0,"items":[{"name":"천마상사","tel":"031-593-6231","addr":"경기도 남양주시 화도읍 월산리 297-1","indutype":"자동차정비 유지 - 자동차시트·타이어","category":"car"}]},{"lat":"37.652607519","long":"127.32975017","imageIndex":0,"items":[{"name":"특수렉카","tel":"","addr":"경기도 남양주시 화도읍 월산리 143-1번지 경기그린타운 나동 104호","indutype":"자동차정비 유지 - 자동차부품","category":"car"}]},{"lat":"37.656309715","long":"127.33646386","imageIndex":0,"items":[{"name":"화도모터스","tel":"031-594-8232","addr":"경기도 남양주시 화도읍 월산리 39","indutype":"자동차정비 유지 - 자동차정비","category":"car"}]}]