[{"lat":"37.129933051","long":"126.92142915","imageIndex":13,"items":[{"name":"345헤어살롱","tel":"031-354-6626","addr":"경기도 화성시 향남읍 행정리 487-6번지 우성메디피아 203호","indutype":"보건위생 - 미용원","category":"beauty"}]},{"lat":"37.126585268","long":"126.91460216","imageIndex":13,"items":[{"name":"Argo Hair (아르고 헤어)","tel":"031-354-4234","addr":"경기도 화성시 향남읍 행정리 455-7번지","indutype":"보건위생 - 미용원","category":"beauty"}]},{"lat":"37.12489557","long":"126.92054558","imageIndex":13,"items":[{"name":"NEMO","tel":"031-352-3096","addr":"경기도 화성시 향남읍 행정리 496-5번지 1층 101호","indutype":"보건위생 - 피부미용실","category":"beauty"}]},{"lat":"37.124310841","long":"126.92193029","imageIndex":13,"items":[{"name":"S헤어뷰티","tel":"031-353-5944","addr":"경기도 화성시 향남읍 행정리 500-8번지 상가 101호","indutype":"보건위생 - 미용원","category":"beauty"}]},{"lat":"37.125391452","long":"126.9209839","imageIndex":13,"items":[{"name":"eye예쁜nail","tel":"031-352-1673","addr":"경기도 화성시 향남읍 행정리 497-1번지","indutype":"보건위생 - 화장품","category":"beauty"}]},{"lat":"37.127170992","long":"126.91465775","imageIndex":13,"items":[{"name":"강남헤어샵","tel":"031-352-4768","addr":"경기도 화성시 향남읍 행정리 455-2번지 102호","indutype":"보건위생 - 미용원","category":"beauty"}]},{"lat":"37.125838444","long":"126.91602089","imageIndex":13,"items":[{"name":"강운헤어페이스","tel":"031-352-5512","addr":"경기도 화성시 향남읍 행정리 462-5번지 제이에스플라자 1층 109호","indutype":"보건위생 - 미용원","category":"beauty"}]},{"lat":"37.127305755","long":"126.9141287","imageIndex":13,"items":[{"name":"강채리헤어","tel":"031-353-9780","addr":"경기도 화성시 향남읍 행정리 451-10번지","indutype":"보건위생 - 미용원","category":"beauty"}]},{"lat":"37.131978532","long":"126.92157325","imageIndex":13,"items":[{"name":"글라스바바","tel":"031-353-3007","addr":"경기도 화성시 향남읍 행정리 474-2번지 (상도프라자1층 101호,102호,103호,104호,201호)","indutype":"보건위생 - 안경","category":"beauty"},{"name":"바바보청기","tel":"031-353-3007","addr":"경기도 화성시 향남읍 행정리 474-2번지 2층","indutype":"보건위생 - 의료용품","category":"beauty"}]},{"lat":"37.131672438","long":"126.92195621","imageIndex":13,"items":[{"name":"글라스스토리안경원(향남점)","tel":"031-366-5437","addr":"경기도 화성시 향남읍 행정리 474-5번지 104호(J&H빌딩)","indutype":"보건위생 - 안경","category":"beauty"}]},{"lat":"37.12561033","long":"126.92487716","imageIndex":13,"items":[{"name":"기분전환헤어","tel":"070-8182-3441","addr":"경기도 화성시 향남읍 행정리 505-10번지","indutype":"보건위생 - 미용원","category":"beauty"}]},{"lat":"37.130279837","long":"126.91495798","imageIndex":13,"items":[{"name":"깍지네일","tel":"031-353-0806","addr":"경기도 화성시 향남읍 행정리 421-5번지 102호","indutype":"보건위생 - 화장품","category":"beauty"}]},{"lat":"37.130978967","long":"126.92245211","imageIndex":13,"items":[{"name":"네일스토리","tel":"031-366-4109","addr":"경기도 화성시 향남읍 행정리 487-2번지 삼성프라자 101호","indutype":"보건위생 - 피부미용실","category":"beauty"},{"name":"조이헤어","tel":"031-366-5553","addr":"경기도 화성시 향남읍 행정리 487-2번지","indutype":"보건위생 - 미용원","category":"beauty"},{"name":"황실","tel":"031-8059-5520","addr":"경기도 화성시 향남읍 행정리 487-2번지 삼성프라자 4층 407,408호","indutype":"보건위생 - 화장품","category":"beauty"}]},{"lat":"37.127783747","long":"126.9147133","imageIndex":13,"items":[{"name":"네일엔젤","tel":"070-7749-6061","addr":"경기도 화성시 향남읍 행정리 445-12번지 101호","indutype":"보건위생 - 피부미용실","category":"beauty"},{"name":"더 헤어","tel":"031-354-0459","addr":"경기도 화성시 향남읍 행정리 445-12번지 101호","indutype":"보건위생 - 미용원","category":"beauty"},{"name":"더헤어","tel":"031-354-0459","addr":"경기도 화성시 향남읍 행정리 445-12번지 101호","indutype":"보건위생 - 미용원","category":"beauty"}]},{"lat":"37.125618804","long":"126.92406694","imageIndex":13,"items":[{"name":"녹수미용실","tel":"031-8059-5076","addr":"경기도 화성시 향남읍 행정리 505-5번지 102호","indutype":"보건위생 - 미용원","category":"beauty"}]},{"lat":"37.132556167","long":"126.92299063","imageIndex":13,"items":[{"name":"눈이예쁜 eye&waxing","tel":"031-366-5689","addr":"경기도 화성시 향남읍 행정리 472-3번지 향남중흥에스스퀘어1차","indutype":"보건위생 - 피부미용실","category":"beauty"},{"name":"향남힐링스파","tel":"031-8059-7689","addr":"경기도 화성시 향남읍 행정리 472-3번지 향남중흥에스스퀘어1차 외472-2","indutype":"보건위생 - 사우나","category":"beauty"}]},{"lat":"37.124617482","long":"126.92234631","imageIndex":13,"items":[{"name":"더네일","tel":"","addr":"경기도 화성시 향남읍 행정리 503-5번지 1층 103호","indutype":"보건위생 - 피부미용실","category":"beauty"}]},{"lat":"37.124305209","long":"126.92703901","imageIndex":13,"items":[{"name":"더마힐수원지점","tel":"031-237-7203","addr":"경기도 화성시 향남읍 행정리 523-5번지 303호","indutype":"보건위생 - 화장품","category":"beauty"}]},{"lat":"37.124086855","long":"126.92382097","imageIndex":13,"items":[{"name":"더휴&에코스토리","tel":"031-352-3306","addr":"경기도 화성시 향남읍 행정리 512-6번지 102호","indutype":"보건위생 - 화장품","category":"beauty"}]},{"lat":"37.129063379","long":"126.91490313","imageIndex":13,"items":[{"name":"러블리샵","tel":"031-354-6708","addr":"경기도 화성시 향남읍 행정리 445-2번지 1동 101호","indutype":"보건위생 - 미용원","category":"beauty"}]},{"lat":"37.129976089","long":"126.9185482","imageIndex":13,"items":[{"name":"리안뷰티","tel":"031-353-8004","addr":"경기도 화성시 향남읍 행정리 435-1번지 발안농협 행정지점 201호","indutype":"보건위생 - 화장품","category":"beauty"},{"name":"리안헤어","tel":"031-353-8004","addr":"경기도 화성시 향남읍 행정리 435-1번지 201호 발안농협행정지점","indutype":"보건위생 - 화장품","category":"beauty"}]},{"lat":"37.12461619","long":"126.92046711","imageIndex":13,"items":[{"name":"마루헤어","tel":"031-352-4096","addr":"경기도 화성시 향남읍 행정리 496-7번지 102호","indutype":"보건위생 - 미용원","category":"beauty"}]},{"lat":"37.125891786","long":"126.91504183","imageIndex":13,"items":[{"name":"마린헤어","tel":"031-8059-2006","addr":"경기도 화성시 향남읍 행정리 462-1번지","indutype":"보건위생 - 미용원","category":"beauty"}]},{"lat":"37.132141213","long":"126.92229333","imageIndex":13,"items":[{"name":"마음빛심리상담센터","tel":"031-8059-5069","addr":"경기도 화성시 향남읍 행정리 473-2번지 유진프라자 401호","indutype":"보건위생 - 기타대인서비스","category":"beauty"}]},{"lat":"37.132171327","long":"126.92696363","imageIndex":13,"items":[{"name":"명동헤어살롱","tel":"031-352-8691","addr":"경기도 화성시 향남읍 행정리 477-4번지 가희프라자 106호","indutype":"보건위생 - 미용원","category":"beauty"}]},{"lat":"37.132943634","long":"126.92301273","imageIndex":13,"items":[{"name":"명헤어살롱","tel":"031-354-0252","addr":"경기도 화성시 향남읍 행정리 472-2번지 (중흥S-스퀘어 B동 103호)","indutype":"보건위생 - 미용원","category":"beauty"},{"name":"향남힐링스파이발소","tel":"031-8059-7688","addr":"경기도 화성시 향남읍 행정리 472-2번지 5층","indutype":"보건위생 - 이용원","category":"beauty"},{"name":"힐링화장품","tel":"031-352-7746","addr":"경기도 화성시 향남읍 행정리 472-2번지 중흥S-스퀘어상업시설 4층 5내","indutype":"보건위생 - 화장품","category":"beauty"}]},{"lat":"37.132167768","long":"126.92159556","imageIndex":13,"items":[{"name":"바니헤어","tel":"031-352-9746","addr":"경기도 화성시 향남읍 행정리 474-1번지 노정프라자 101호","indutype":"보건위생 - 미용원","category":"beauty"}]},{"lat":"37.127279135","long":"126.91468013","imageIndex":13,"items":[{"name":"베테랑","tel":"031-366-6077","addr":"경기도 화성시 향남읍 행정리 455-1번지 102호","indutype":"보건위생 - 미용원","category":"beauty"},{"name":"쿠잉네일","tel":"02-000-0000","addr":"경기도 화성시 향남읍 행정리 455-1번지 1층 102호","indutype":"보건위생 - 피부미용실","category":"beauty"}]},{"lat":"37.125031094","long":"126.92107431","imageIndex":13,"items":[{"name":"별네일","tel":"070-4090-9174","addr":"경기도 화성시 향남읍 행정리 498-2번지 102호","indutype":"보건위생 - 피부미용실","category":"beauty"},{"name":"유아이래쉬","tel":"070-7625-9282","addr":"경기도 화성시 향남읍 행정리 498-2번지","indutype":"보건위생 - 피부미용실","category":"beauty"}]},{"lat":"37.12631841","long":"126.91937373","imageIndex":13,"items":[{"name":"보보스헤어","tel":"031-366-2922","addr":"경기도 화성시 향남읍 행정리 441번지 향남시범넓은들마을에일린의뜰 416동 105호","indutype":"보건위생 - 미용원","category":"beauty"}]},{"lat":"37.131730215","long":"126.92759429","imageIndex":13,"items":[{"name":"보보스헤어","tel":"031-8059-0096","addr":"경기도 화성시 향남읍 행정리 479번지 복사꽃한국아델리움 917동 204호","indutype":"보건위생 - 미용원","category":"beauty"},{"name":"혜민헤어","tel":"031-8059-0096","addr":"경기도 화성시 향남읍 행정리 479번지 향남시범복사꽃마을한국아델리움 917동 204호","indutype":"보건위생 - 미용원","category":"beauty"}]},{"lat":"37.125971931","long":"126.91377016","imageIndex":13,"items":[{"name":"뷰티JH","tel":"031-353-8555","addr":"경기도 화성시 향남읍 행정리 456-11번지","indutype":"보건위생 - 피부미용실","category":"beauty"}]},{"lat":"37.132802112","long":"126.92704178","imageIndex":13,"items":[{"name":"뷰티다움","tel":"","addr":"경기도 화성시 향남읍 행정리 477-2번지 도이프라자 2층 202호","indutype":"보건위생 - 화장품","category":"beauty"}]},{"lat":"37.125610092","long":"126.92451706","imageIndex":13,"items":[{"name":"빨강머리앤","tel":"031-352-5092","addr":"경기도 화성시 향남읍 행정리 505-8번지 1층 102호","indutype":"보건위생 - 미용원","category":"beauty"}]},{"lat":"37.126175806","long":"126.92162447","imageIndex":13,"items":[{"name":"새모양","tel":"031-354-3630","addr":"경기도 화성시 향남읍 행정리 492번지 향남시범살구꽃마을신영지웰아파트 1215동 103호","indutype":"보건위생 - 미용원","category":"beauty"}]},{"lat":"37.127945483","long":"126.91410544","imageIndex":13,"items":[{"name":"샤론뷰티케어","tel":"","addr":"경기도 화성시 향남읍 행정리 449-10번지","indutype":"보건위생 - 피부미용실","category":"beauty"}]},{"lat":"37.130002404","long":"126.91754661","imageIndex":13,"items":[{"name":"샤르망헤디","tel":"031-353-1874","addr":"경기도 화성시 향남읍 행정리 433-5번지 102호,103호","indutype":"보건위생 - 미용원","category":"beauty"}]},{"lat":"37.130586035","long":"126.91474381","imageIndex":13,"items":[{"name":"소리샘보청기 화성점","tel":"031-353-6699","addr":"경기도 화성시 향남읍 행정리 419-11번지 102호","indutype":"보건위생 - 의료용품","category":"beauty"}]},{"lat":"37.127865384","long":"126.91544467","imageIndex":13,"items":[{"name":"솔올바이오(화성)","tel":"","addr":"경기도 화성시 향남읍 행정리 443번지 향남시범넓은들마을신명스카이뷰 301동 502호","indutype":"보건위생 - 화장품","category":"beauty"}]},{"lat":"37.130216805","long":"126.91501433","imageIndex":13,"items":[{"name":"수헤어샵","tel":"031-8059-2244","addr":"경기도 화성시 향남읍 행정리 421-6 102호~103호","indutype":"보건위생 - 미용원","category":"beauty"}]},{"lat":"37.128054079","long":"126.9147355","imageIndex":13,"items":[{"name":"쉼+헤어","tel":"070-8772-1312","addr":"경기도 화성시 향남읍 행정리 445-10번지 102호","indutype":"보건위생 - 미용원","category":"beauty"}]},{"lat":"37.124999169","long":"126.91426642","imageIndex":13,"items":[{"name":"시원헤어샵","tel":"031-354-2771","addr":"경기도 화성시 향남읍 행정리 459-7번지 1동 101호","indutype":"보건위생 - 미용원","category":"beauty"}]},{"lat":"37.130612941","long":"126.91457498","imageIndex":13,"items":[{"name":"아로마 스튜디오 미르","tel":"","addr":"경기도 화성시 향남읍 행정리 419-12번지","indutype":"보건위생 - 화장품","category":"beauty"}]},{"lat":"37.131583035","long":"126.92299165","imageIndex":13,"items":[{"name":"아리따움 화장품","tel":"031-354-5868","addr":"경기도 화성시 향남읍 행정리 474-9번지 아스날메디컬프라자","indutype":"보건위생 - 화장품","category":"beauty"},{"name":"펄스라인생명과학","tel":"031-353-9070","addr":"경기도 화성시 향남읍 행정리 474-9번지 아스날타워 403호","indutype":"보건위생 - 의료용품","category":"beauty"}]},{"lat":"37.129609426","long":"126.9101873","imageIndex":13,"items":[{"name":"아모레 카운셀러","tel":"031-353-5997","addr":"경기도 화성시 향남읍 행정리 396-7번지 2층","indutype":"보건위생 - 화장품","category":"beauty"},{"name":"아모레 카운셀러","tel":"031-353-5997","addr":"경기도 화성시 향남읍 행정리 396-7번지 2층","indutype":"보건위생 - 화장품","category":"beauty"},{"name":"아모레 퍼시픽 화성특약점","tel":"031-353-5997","addr":"경기도 화성시 향남읍 행정리 396-7번지 2층","indutype":"보건위생 - 화장품","category":"beauty"},{"name":"아모레카운셀러","tel":"031-353-5997","addr":"경기도 화성시 향남읍 행정리 396-7번지 2층","indutype":"보건위생 - 화장품","category":"beauty"},{"name":"아모레카운셀러","tel":"031-353-5997","addr":"경기도 화성시 향남읍 행정리 396-7번지 2층","indutype":"보건위생 - 화장품","category":"beauty"},{"name":"아모레카운셀러","tel":"031-353-5997","addr":"경기도 화성시 향남읍 행정리 396-7번지 2층","indutype":"보건위생 - 화장품","category":"beauty"},{"name":"아모레카운셀러","tel":"031-353-5997","addr":"경기도 화성시 향남읍 행정리 396-7번지","indutype":"보건위생 - 화장품","category":"beauty"},{"name":"아모레카운셀러","tel":"031-353-5997","addr":"경기도 화성시 향남읍 행정리 396-7번지","indutype":"보건위생 - 화장품","category":"beauty"},{"name":"아모레카운셀러","tel":"031-353-5997","addr":"경기도 화성시 향남읍 행정리 396-7번지","indutype":"보건위생 - 화장품","category":"beauty"},{"name":"아모레카운셀러","tel":"031-353-5997","addr":"경기도 화성시 향남읍 행정리 396-7번지 2층","indutype":"보건위생 - 화장품","category":"beauty"},{"name":"아모레카운셀러","tel":"031-353-5997","addr":"경기도 화성시 향남읍 행정리 396-7번지 2층","indutype":"보건위생 - 화장품","category":"beauty"},{"name":"아모레카운셀러","tel":"031-353-5997","addr":"경기도 화성시 향남읍 행정리 396-7번지","indutype":"보건위생 - 화장품","category":"beauty"},{"name":"아모레카운셀러","tel":"031-353-5997","addr":"경기도 화성시 향남읍 행정리 396-7번지 2층","indutype":"보건위생 - 화장품","category":"beauty"},{"name":"아모레카운셀러","tel":"031-353-5997","addr":"경기도 화성시 향남읍 행정리 396-7번지","indutype":"보건위생 - 화장품","category":"beauty"},{"name":"아모레카운셀러","tel":"031-353-5997","addr":"경기도 화성시 향남읍 행정리 396-7번지 2층","indutype":"보건위생 - 화장품","category":"beauty"},{"name":"아모레카운셀러","tel":"031-353-5997","addr":"경기도 화성시 향남읍 행정리 396-7번지 2층","indutype":"보건위생 - 화장품","category":"beauty"},{"name":"아모레카운셀러","tel":"031-353-5997","addr":"경기도 화성시 향남읍 행정리 396-7번지 2층","indutype":"보건위생 - 화장품","category":"beauty"},{"name":"아모레카운셀러","tel":"031-353-5997","addr":"경기도 화성시 향남읍 행정리 396-7번지 2층","indutype":"보건위생 - 화장품","category":"beauty"},{"name":"아모레카운셀러","tel":"031-353-5997","addr":"경기도 화성시 향남읍 행정리 396-7번지 2층","indutype":"보건위생 - 화장품","category":"beauty"},{"name":"아모레카운셀러","tel":"031-353-5997","addr":"경기도 화성시 향남읍 행정리 396-7번지 2층","indutype":"보건위생 - 화장품","category":"beauty"},{"name":"아모레카운셀러","tel":"031-353-5997","addr":"경기도 화성시 향남읍 행정리 396-7번지 2층 전민빌딩","indutype":"보건위생 - 화장품","category":"beauty"},{"name":"아모레카운셀러","tel":"031-353-5997","addr":"경기도 화성시 향남읍 행정리 396-7번지","indutype":"보건위생 - 화장품","category":"beauty"},{"name":"아모레카운셀러","tel":"031-353-5997","addr":"경기도 화성시 향남읍 행정리 396-7번지","indutype":"보건위생 - 화장품","category":"beauty"},{"name":"아모레카운셀러","tel":"031-353-5997","addr":"경기도 화성시 향남읍 행정리 396-7번지 2층","indutype":"보건위생 - 화장품","category":"beauty"},{"name":"아모레카운셀러","tel":"031-353-5997","addr":"경기도 화성시 향남읍 행정리 396-7번지 2층","indutype":"보건위생 - 화장품","category":"beauty"},{"name":"아모레카운셀러","tel":"031-353-5997","addr":"경기도 화성시 향남읍 행정리 396-7번지 2층","indutype":"보건위생 - 화장품","category":"beauty"},{"name":"아모레카운셀러","tel":"031-353-5997","addr":"경기도 화성시 향남읍 행정리 396-7번지 2층","indutype":"보건위생 - 화장품","category":"beauty"},{"name":"아모레카운셀러","tel":"031-353-5997","addr":"경기도 화성시 향남읍 행정리 396-7번지 2층","indutype":"보건위생 - 화장품","category":"beauty"},{"name":"아모레카운셀러","tel":"031-353-5997","addr":"경기도 화성시 향남읍 행정리 396-7번지 전민빌딩 2층","indutype":"보건위생 - 화장품","category":"beauty"},{"name":"아모레카운셀러","tel":"031-353-5997","addr":"경기도 화성시 향남읍 행정리 396-7번지 2층","indutype":"보건위생 - 화장품","category":"beauty"},{"name":"아모레카운셀러","tel":"031-353-5997","addr":"경기도 화성시 향남읍 행정리 396-7번지 2층","indutype":"보건위생 - 화장품","category":"beauty"},{"name":"아모레카운셀러","tel":"031-353-5997","addr":"경기도 화성시 향남읍 행정리 396-7번지 2층","indutype":"보건위생 - 화장품","category":"beauty"},{"name":"아모레카운셀러","tel":"031-353-5997","addr":"경기도 화성시 향남읍 행정리 396-7번지 2층","indutype":"보건위생 - 화장품","category":"beauty"}]},{"lat":"37.125643847","long":"126.92112992","imageIndex":13,"items":[{"name":"아우라헤어","tel":"031-359-8822","addr":"경기도 화성시 향남읍 행정리 495-3번지 1층 103호","indutype":"보건위생 - 미용원","category":"beauty"}]},{"lat":"37.129969891","long":"126.92259947","imageIndex":13,"items":[{"name":"아이플러스안경","tel":"031-359-9494","addr":"경기도 화성시 향남읍 행정리 486-4번지 124호","indutype":"보건위생 - 안경","category":"beauty"},{"name":"안경매니아","tel":"031-8059-2330","addr":"경기도 화성시 향남읍 행정리 486-4번지 118~119호","indutype":"보건위생 - 안경","category":"beauty"},{"name":"헤라","tel":"031-352-1673","addr":"경기도 화성시 향남읍 행정리 486-4번지 122호","indutype":"보건위생 - 화장품","category":"beauty"}]},{"lat":"37.13076224","long":"126.92175461","imageIndex":13,"items":[{"name":"아이피아","tel":"031-353-0066","addr":"경기도 화성시 향남읍 행정리 487-1번지 2층","indutype":"보건위생 - 안경","category":"beauty"}]},{"lat":"37.124535741","long":"126.92140117","imageIndex":13,"items":[{"name":"에이프릴(April)499-11","tel":"","addr":"경기도 화성시 향남읍 행정리 499-11번지 1층 101호","indutype":"보건위생 - 피부미용실","category":"beauty"}]},{"lat":"37.125367341","long":"126.92532752","imageIndex":13,"items":[{"name":"여우네일","tel":"031-8059-5253","addr":"경기도 화성시 향남읍 행정리 507-6번지 101호","indutype":"보건위생 - 피부미용실","category":"beauty"},{"name":"여우바가지피부샵","tel":"031-8059-5253","addr":"경기도 화성시 향남읍 행정리 507-6번지 102호","indutype":"보건위생 - 피부미용실","category":"beauty"}]},{"lat":"37.127531227","long":"126.91440976","imageIndex":13,"items":[{"name":"연지헤어샵","tel":"031-8059-2246","addr":"경기도 화성시 향남읍 행정리 450-10번지","indutype":"보건위생 - 미용원","category":"beauty"}]},{"lat":"37.13008251","long":"126.91618485","imageIndex":13,"items":[{"name":"오늘네일","tel":"031-352-7716","addr":"경기도 화성시 향남읍 행정리 426-10번지 102호","indutype":"보건위생 - 피부미용실","category":"beauty"}]},{"lat":"37.127918569","long":"126.91426302","imageIndex":13,"items":[{"name":"오땡큐","tel":"031-352-2212","addr":"경기도 화성시 향남읍 행정리 449-9번지 101호","indutype":"보건위생 - 화장품","category":"beauty"}]},{"lat":"37.128645158","long":"126.92231954","imageIndex":13,"items":[{"name":"오투헤어","tel":"031-354-8869","addr":"경기도 화성시 향남읍 행정리 491 제일오투상가1층 102호","indutype":"보건위생 - 미용원","category":"beauty"}]},{"lat":"37.129931499","long":"126.91920096","imageIndex":13,"items":[{"name":"올가휴선스킨","tel":"031-352-4987","addr":"경기도 화성시 향남읍 행정리 435-2번지 성지프라자 3층 306호","indutype":"보건위생 - 화장품","category":"beauty"}]},{"lat":"37.12564474","long":"126.92243525","imageIndex":13,"items":[{"name":"원헤어살롱","tel":"031-352-5747","addr":"경기도 화성시 향남읍 행정리 495-11번지 103호","indutype":"보건위생 - 미용원","category":"beauty"}]},{"lat":"37.130474425","long":"126.92252016","imageIndex":13,"items":[{"name":"웰빙","tel":"031-3920-8926","addr":"경기도 화성시 향남읍 행정리 486-1번지 명신프라자2 402호","indutype":"보건위생 - 미용재료","category":"beauty"},{"name":"카미도쿄","tel":"031-366-0559","addr":"경기도 화성시 향남읍 행정리 486-1번지 영신프라자 102호","indutype":"보건위생 - 미용원","category":"beauty"},{"name":"테일러(TAILOR)","tel":"031-353-2334","addr":"경기도 화성시 향남읍 행정리 486-1번지 명신프라자2 202호","indutype":"보건위생 - 미용원","category":"beauty"}]},{"lat":"37.130222109","long":"126.92248667","imageIndex":13,"items":[{"name":"유진헤어모드","tel":"031-306-4401","addr":"경기도 화성시 향남읍 행정리 486-5번지 크리스탈빌딩 201호","indutype":"보건위생 - 미용원","category":"beauty"}]},{"lat":"37.130029053","long":"126.91701767","imageIndex":13,"items":[{"name":"이랑HAIR","tel":"031-353-7378","addr":"경기도 화성시 향남읍 행정리 433-2번지 101호","indutype":"보건위생 - 미용원","category":"beauty"}]},{"lat":"37.130729267","long":"126.91349449","imageIndex":13,"items":[{"name":"이서하에스테틱","tel":"031-8047-5287","addr":"경기도 화성시 향남읍 행정리 419-1번지 101호","indutype":"보건위생 - 피부미용실","category":"beauty"}]},{"lat":"37.1252831","long":"126.92065769","imageIndex":13,"items":[{"name":"이지화장품","tel":"031-354-1425","addr":"경기도 화성시 향남읍 행정리 496-2번지 1층 101호","indutype":"보건위생 - 화장품","category":"beauty"},{"name":"태후사랑(향남점)","tel":"031-223-6212","addr":"경기도 화성시 향남읍 행정리 496-2번지 102호","indutype":"보건위생 - 화장품","category":"beauty"}]},{"lat":"37.124085862","long":"126.92234688","imageIndex":13,"items":[{"name":"일오삼헤어칼라","tel":"031-8059-1532","addr":"경기도 화성시 향남읍 행정리 504-3번지 1층","indutype":"보건위생 - 미용원","category":"beauty"}]},{"lat":"37.125169015","long":"126.92518143","imageIndex":13,"items":[{"name":"제이부띠","tel":"031-354-6784","addr":"경기도 화성시 향남읍 행정리 507-14번지 1층","indutype":"보건위생 - 화장품","category":"beauty"}]},{"lat":"37.130838862","long":"126.91546375","imageIndex":13,"items":[{"name":"제이헤어일호점","tel":"031-366-3279","addr":"경기도 화성시 향남읍 행정리 426-1번지 102호","indutype":"보건위생 - 미용원","category":"beauty"}]},{"lat":"37.127755653","long":"126.91329543","imageIndex":13,"items":[{"name":"주식회사참조은기획","tel":"070-7436-0729","addr":"경기도 화성시 향남읍 행정리 450-2번지","indutype":"보건위생 - 기타대인서비스","category":"beauty"}]},{"lat":"37.126964268","long":"126.92855552","imageIndex":13,"items":[{"name":"진선미헤어","tel":"031-8059-8277","addr":"경기도 화성시 향남읍 행정리 482번지 향남시범살구꽃마을화성파크드림 가동 203호 상가","indutype":"보건위생 - 미용원","category":"beauty"}]},{"lat":"37.12878377","long":"126.91452084","imageIndex":13,"items":[{"name":"짱언니뷰티살롱","tel":"070-8623-4762","addr":"경기도 화성시 향남읍 행정리 447-4번지 101호","indutype":"보건위생 - 피부미용실","category":"beauty"}]},{"lat":"37.13064024","long":"126.91493506","imageIndex":13,"items":[{"name":"채린헤어","tel":"031-352-6976","addr":"경기도 화성시 향남읍 행정리 421-3번지 101호","indutype":"보건위생 - 미용원","category":"beauty"}]},{"lat":"37.129243191","long":"126.92739419","imageIndex":13,"items":[{"name":"티파니헤어샵","tel":"031-8059-3088","addr":"경기도 화성시 향남읍 행정리 480번지 살구꽃마을풍림아이원 상가동 2층 202호","indutype":"보건위생 - 미용원","category":"beauty"}]},{"lat":"37.128305674","long":"126.91380118","imageIndex":13,"items":[{"name":"파시노 화성향남지점","tel":"070-8947-4490","addr":"경기도 화성시 향남읍 행정리 448-10번지 1층","indutype":"보건위생 - 미용원","category":"beauty"}]},{"lat":"37.125702156","long":"126.91449066","imageIndex":13,"items":[{"name":"편한컷트클럽","tel":"031-352-7999","addr":"경기도 화성시 향남읍 행정리 459-2번지 101호 102호","indutype":"보건위생 - 미용원","category":"beauty"}]},{"lat":"37.126359981","long":"126.91456867","imageIndex":13,"items":[{"name":"핑크네일","tel":"031-245-4267","addr":"경기도 화성시 향남읍 행정리 455-9번지 103호","indutype":"보건위생 - 피부미용실","category":"beauty"}]},{"lat":"37.124751379","long":"126.92051198","imageIndex":13,"items":[{"name":"향남바른자세교정운동원","tel":"031-352-5262","addr":"경기도 화성시 향남읍 행정리 496-6번지 1층 101호,102호,103호","indutype":"보건위생 - 기타대인서비스","category":"beauty"}]},{"lat":"37.130082633","long":"126.91635365","imageIndex":13,"items":[{"name":"헤어뉴스","tel":"031-352-2471","addr":"경기도 화성시 향남읍 행정리 426-11번지","indutype":"보건위생 - 미용원","category":"beauty"}]},{"lat":"37.125643978","long":"126.92132122","imageIndex":13,"items":[{"name":"헤어앤카포","tel":"031-353-2311","addr":"경기도 화성시 향남읍 행정리 495-4번지 101호","indutype":"보건위생 - 미용원","category":"beauty"}]},{"lat":"37.131033327","long":"126.92289094","imageIndex":13,"items":[{"name":"헤어팡팡 향남1지구점","tel":"031-359-8668","addr":"경기도 화성시 향남읍 행정리 487-3번지 중앙프라자","indutype":"보건위생 - 미용원","category":"beauty"}]},{"lat":"37.130447615","long":"126.92284655","imageIndex":13,"items":[{"name":"효소가 향남점","tel":"031-8059-4838","addr":"경기도 화성시 향남읍 행정리 486-2번지 백현프라자 305호","indutype":"보건위생 - 피부미용실","category":"beauty"}]},{"lat":"37.124895804","long":"126.92088316","imageIndex":13,"items":[{"name":"힐스템건강 향남점","tel":"031-354-9888","addr":"경기도 화성시 향남읍 행정리 498-16번지 1층","indutype":"보건위생 - 의료용품","category":"beauty"}]}]