[{"lat":"37.504784878","long":"126.74971851","imageIndex":8,"items":[{"name":"(주)에이원팜","tel":"032-329-5501","addr":"경기도 부천시 상동 545-2맘모스타워2층207호","indutype":"약국 - 약국","category":"medical"}]},{"lat":"37.504314206","long":"126.74871356","imageIndex":8,"items":[{"name":"(주)웰피오팜","tel":"032-233-1160","addr":"경기도 부천시 상동 547-1번지 토오롱이데아폴리스 3층 306호","indutype":"약국 - 제약회사","category":"medical"}]},{"lat":"37.504177707","long":"126.7522991","imageIndex":8,"items":[{"name":"(주)제이씨바이오파마","tel":"032-719-7411","addr":"경기도 부천시 상동 544-9번지 수석프라자 404, 405호","indutype":"약국 - 제약회사","category":"medical"},{"name":"상동서울치과","tel":"032-324-2835","addr":"경기도 부천시 상동 544-9번지 수석프라자 301호","indutype":"의원 - 치과의원","category":"medical"},{"name":"어우름한의원","tel":"032-233-8100","addr":"경기도 부천시 상동 544-9번지 부천상동수석프라자 302호","indutype":"의원 - 한의원","category":"medical"},{"name":"트렌드의원","tel":"032-322-5959","addr":"경기도 부천시 상동 544-9번지 수석프라자 5층 502호","indutype":"의원 - 의원","category":"medical"}]},{"lat":"37.488118652","long":"126.75496467","imageIndex":8,"items":[{"name":"E예스치과의원","tel":"032-324-4300","addr":"경기도 부천시 상동 463번지 대명그린프라자 501호","indutype":"의원 - 치과의원","category":"medical"}]},{"lat":"37.503845996","long":"126.75308056","imageIndex":8,"items":[{"name":"S동물병원","tel":"032-322-5222","addr":"경기도 부천시 상동 542-4번지 상동동양파라곤 106호","indutype":"기타의료기관 - 동물병원","category":"medical"}]},{"lat":"37.49257069","long":"126.76426746","imageIndex":8,"items":[{"name":"강내과의원","tel":"063-225-4353","addr":"경기도 부천시 상동 236-52번지","indutype":"의원 - 의원","category":"medical"}]},{"lat":"37.504731715","long":"126.75013714","imageIndex":8,"items":[{"name":"경승약품","tel":"032-328-8380","addr":"경기도 부천시 상동 545-4번지 맘모스타워 204호","indutype":"약국 - 제약회사","category":"medical"}]},{"lat":"37.495010467","long":"126.74205075","imageIndex":8,"items":[{"name":"경인한의원","tel":"032-327-4886","addr":"경기도 부천시 상동 580-3번지","indutype":"의원 - 한의원","category":"medical"}]},{"lat":"37.506593303","long":"126.75274342","imageIndex":8,"items":[{"name":"경희부부상동한의원","tel":"032-205-0058","addr":"경기도 부천시 상동 534-5번지 현해프라자 301호","indutype":"의원 - 한의원","category":"medical"},{"name":"숨길을열다한의원","tel":"032-326-5575","addr":"경기도 부천시 상동 534-5번지 현해프라자 702호","indutype":"의원 - 한의원","category":"medical"},{"name":"여성사랑산부인과","tel":"032-328-6673","addr":"경기도 부천시 상동 534-5번지 현해프라자 4층 402호","indutype":"의원 - 의원","category":"medical"},{"name":"연세원치과의원","tel":"032-328-7528","addr":"경기도 부천시 상동 534-5번지 현해프라자 401호","indutype":"의원 - 치과의원","category":"medical"}]},{"lat":"37.506926978","long":"126.75288934","imageIndex":8,"items":[{"name":"경희숨편한한의원","tel":"032-328-8838","addr":"경기도 부천시 상동 534-3번지 상동프라자 307호","indutype":"의원 - 한의원","category":"medical"},{"name":"베스트치과의원","tel":"032-327-9876","addr":"경기도 부천시 상동 534-3번지 상동프라자 310호","indutype":"의원 - 치과의원","category":"medical"},{"name":"장용남한의원","tel":"032-325-7555","addr":"경기도 부천시 상동 534-3번지 상동프라자 311호","indutype":"의원 - 한의원","category":"medical"},{"name":"친절한호치과의원","tel":"032-256-2875","addr":"경기도 부천시 상동 534-3번지 상동프라자 4층 407호","indutype":"의원 - 치과의원","category":"medical"}]},{"lat":"37.507094062","long":"126.75521861","imageIndex":8,"items":[{"name":"경희으뜸한의원","tel":"032-323-7760","addr":"경기도 부천시 상동 536-4번지 한솔프라자 3층 306호","indutype":"의원 - 한의원","category":"medical"}]},{"lat":"37.505063614","long":"126.75368722","imageIndex":8,"items":[{"name":"경희편안한의원","tel":"032-715-4180","addr":"경기도 부천시 상동 541-1번지 메가플러스빌딩 311호","indutype":"의원 - 한의원","category":"medical"},{"name":"그린약국","tel":"032-212-2233","addr":"경기도 부천시 상동 541-1번지 메카플러스빌딩 407호","indutype":"약국 - 약국","category":"medical"},{"name":"닥터포유부천의원","tel":"032-213-7533","addr":"경기도 부천시 상동 541-1번지 메가플러스빌딩 204호","indutype":"의원 - 의원","category":"medical"},{"name":"도원한의원","tel":"032-325-7300","addr":"경기도 부천시 상동 541-1번지 메가플러스 508호","indutype":"의원 - 한의원","category":"medical"},{"name":"디스코한의원","tel":"032-327-7588","addr":"경기도 부천시 상동 541-1번지 메가플러스빌딩 4동 411층","indutype":"의원 - 한의원","category":"medical"},{"name":"메가팜약국","tel":"032-322-3020","addr":"경기도 부천시 상동 541-1번지 메가플러스 308호","indutype":"약국 - 약국","category":"medical"},{"name":"메이퓨어의원 부천점","tel":"032-325-9799","addr":"경기도 부천시 상동 541-1번지 메가플러스빌딩 211호","indutype":"의원 - 의원","category":"medical"},{"name":"부천항사랑외과","tel":"032-328-9944","addr":"경기도 부천시 상동 541-1번지 메가플러스 3층 3호","indutype":"의원 - 의원","category":"medical"},{"name":"쁘띠라인의원","tel":"032-329-5050","addr":"경기도 부천시 상동 541-1번지 메가플러스 4층 408호,409호","indutype":"의원 - 의원","category":"medical"},{"name":"상동메가통증의학과의원","tel":"032-666-7585","addr":"경기도 부천시 상동 541-1번지 메가플러스 3층 309호","indutype":"의원 - 의원","category":"medical"},{"name":"서울위베스트내과의원","tel":"032-245-8800","addr":"경기도 부천시 상동 541-1번지 메가플러스빌딩 502호","indutype":"의원 - 의원","category":"medical"},{"name":"스마트약국","tel":"032-322-1066","addr":"경기도 부천시 상동 541-1번지 메가플러스빌딩 118호","indutype":"약국 - 약국","category":"medical"},{"name":"연세재활의학과의원","tel":"032-326-8297","addr":"경기도 부천시 상동 541-1번지 메가플러스 304호","indutype":"의원 - 의원","category":"medical"},{"name":"자윤한의원","tel":"032-326-1071","addr":"경기도 부천시 상동 541-1번지 메가플러스빌딩 310호","indutype":"의원 - 한의원","category":"medical"},{"name":"폴리어린이한의원","tel":"032-288-2200","addr":"경기도 부천시 상동 541-1번지 메가플러스 501호 메가플러스","indutype":"의원 - 한의원","category":"medical"},{"name":"플러스 서울치과","tel":"032-275-1000","addr":"경기도 부천시 상동 541-1번지 메가플러스 403호 메가플러스","indutype":"의원 - 치과의원","category":"medical"},{"name":"플러스약국","tel":"032-328-8361","addr":"경기도 부천시 상동 541-1번지 메가플러스빌딩 3층 313호","indutype":"약국 - 약국","category":"medical"},{"name":"플러스피부과의원","tel":"032-327-0903","addr":"경기도 부천시 상동 541-1번지 메가플러스 406호","indutype":"의원 - 의원","category":"medical"},{"name":"하나이비인후과","tel":"032-328-8297","addr":"경기도 부천시 상동 541-1번지 메가플러스 312호","indutype":"의원 - 의원","category":"medical"}]},{"lat":"37.503672916","long":"126.7521877","imageIndex":8,"items":[{"name":"고운누리한의원","tel":"032-323-7511","addr":"경기도 부천시 상동 544-11번지 새롬프라자15차 406호","indutype":"의원 - 한의원","category":"medical"},{"name":"메르덴치과병원","tel":"032-328-2875","addr":"경기도 부천시 상동 544-11번지 새롬프라자 403호","indutype":"의원 - 치과의원","category":"medical"}]},{"lat":"37.506228287","long":"126.75482563","imageIndex":8,"items":[{"name":"고충우성형외과의원","tel":"032-325-5566","addr":"경기도 부천시 상동 535-8번지 센터프라자 302호","indutype":"의원 - 의원","category":"medical"}]},{"lat":"37.488014393","long":"126.75252271","imageIndex":8,"items":[{"name":"광장약국","tel":"032-327-1994","addr":"경기도 부천시 상동 464-1번지","indutype":"약국 - 약국","category":"medical"},{"name":"타임치과의원","tel":"032-321-0675","addr":"경기도 부천시 상동 464-1번지 대명씨티프라자","indutype":"의원 - 치과의원","category":"medical"},{"name":"홍내과의원","tel":"032-321-3396","addr":"경기도 부천시 상동 464-1번지 대명씨티프라자","indutype":"의원 - 의원","category":"medical"}]},{"lat":"37.503396269","long":"126.75344395","imageIndex":8,"items":[{"name":"굿닥터스 모아치과 의원","tel":"032-214-3000","addr":"경기도 부천시 상동 542-6번지 굿닥터스빌딩 801-1호","indutype":"의원 - 치과의원","category":"medical"},{"name":"변내과의원","tel":"032-324-5625","addr":"경기도 부천시 상동 542-6번지 메드위즈빌딩 301호","indutype":"의원 - 의원","category":"medical"},{"name":"상동경희한의원","tel":"032-328-2328","addr":"경기도 부천시 상동 542-6번지 굿닥터스빌딩 203호","indutype":"의원 - 한의원","category":"medical"},{"name":"상동이비인후과","tel":"032-214-0123","addr":"경기도 부천시 상동 542-6번지 메디위즈 402호","indutype":"의원 - 의원","category":"medical"}]},{"lat":"37.506901931","long":"126.75382813","imageIndex":8,"items":[{"name":"기분좋은치과의원","tel":"032-322-2872","addr":"경기도 부천시 상동 535-3번지 썬프라자 402호","indutype":"의원 - 치과의원","category":"medical"},{"name":"브레인리더한의원","tel":"032-324-1519","addr":"경기도 부천시 상동 535-3번지 썬프라자 401호","indutype":"의원 - 한의원","category":"medical"}]},{"lat":"37.490043382","long":"126.75335267","imageIndex":8,"items":[{"name":"길맨남성의원","tel":"032-323-1119","addr":"경기도 부천시 상동 412번지 금강빌딩 406호","indutype":"의원 - 의원","category":"medical"}]},{"lat":"37.493376122","long":"126.75291189","imageIndex":8,"items":[{"name":"김가정의학과의원","tel":"032-323-5525","addr":"경기도 부천시 상동 395 반달마을상가2층 207","indutype":"의원 - 의원","category":"medical"},{"name":"세브란스치과의원","tel":"032-323-2828","addr":"경기도 부천시 상동 395반달삼익세라믹210","indutype":"의원 - 치과의원","category":"medical"}]},{"lat":"37.488094062","long":"126.76491489","imageIndex":8,"items":[{"name":"김기찬피부비뇨기과의원","tel":"032-664-5511","addr":"경기도 부천시 상동 328-12번지","indutype":"의원 - 의원","category":"medical"},{"name":"심직현치과의원","tel":"032-665-4246","addr":"경기도 부천시 상동 328-12번지","indutype":"의원 - 치과의원","category":"medical"},{"name":"태원온누리약국","tel":"032-657-7603","addr":"경기도 부천시 상동 328-12번지 1층 4호","indutype":"약국 - 약국","category":"medical"},{"name":"태평한의원","tel":"032-651-0014","addr":"경기도 부천시 상동 328-12번지 2층 1호","indutype":"의원 - 한의원","category":"medical"}]},{"lat":"37.4941815610","long":"126.7420536292","imageIndex":8,"items":[{"name":"김승인치과의원","tel":"032-327-2803","addr":"경기도 부천시 상동 584-5,6번지 정우프라자 305","indutype":"의원 - 치과의원","category":"medical"}]},{"lat":"37.506008898","long":"126.75763115","imageIndex":8,"items":[{"name":"김진영한의원","tel":"032-1644-7562","addr":"경기도 부천시 상동 538-4번지 그린힐 202호","indutype":"의원 - 한의원","category":"medical"},{"name":"성은의료소비자협동조합","tel":"032-324-7559","addr":"경기도 부천시 상동 538-4번지 그린힐빌딩 8층 803,804,805호","indutype":"병원 - 병원","category":"medical"},{"name":"온아치과","tel":"032-326-2900","addr":"경기도 부천시 상동 538-4번지 302호,303호 일부","indutype":"의원 - 치과의원","category":"medical"}]},{"lat":"37.504811374","long":"126.74946961","imageIndex":8,"items":[{"name":"나은메디텍 주식회사","tel":"032-327-0601","addr":"경기도 부천시 상동 545-1번지 대양프라자 301호","indutype":"약국 - 제약회사","category":"medical"}]},{"lat":"37.501564999","long":"126.7566618","imageIndex":8,"items":[{"name":"노영범한의원","tel":"032-666-7575","addr":"경기도 부천시 상동 565-6번지","indutype":"의원 - 한의원","category":"medical"}]},{"lat":"37.507262396","long":"126.75386087","imageIndex":8,"items":[{"name":"늘편한치과","tel":"032-328-7522","addr":"경기도 부천시 상동 535-1번지 뱅뱅프라자 3층 303호","indutype":"의원 - 치과의원","category":"medical"},{"name":"대보한의원","tel":"032-225-4510","addr":"경기도 부천시 상동 535-1번지 뱅뱅프라자 403호","indutype":"의원 - 한의원","category":"medical"},{"name":"상동연세내과의원","tel":"032-323-7975","addr":"경기도 부천시 상동 535-1번지 뱅뱅프라자 304호","indutype":"의원 - 의원","category":"medical"},{"name":"상동제일정형외과의원","tel":"032-323-7575","addr":"경기도 부천시 상동 535-1번지 뱅뱅프라자 306호","indutype":"의원 - 의원","category":"medical"},{"name":"상동코앤비이비인후과의원","tel":"032-224-2545","addr":"경기도 부천시 상동 535-1번지 뱅뱅프라자 3층","indutype":"의원 - 의원","category":"medical"},{"name":"피카소의원","tel":"032-328-8575","addr":"경기도 부천시 상동 535-1번지 뱅뱅프라자 404호","indutype":"의원 - 의원","category":"medical"},{"name":"현대동물병원","tel":"032-328-8440","addr":"경기도 부천시 상동 535-1번지 뱅뱅프라자 111호","indutype":"기타의료기관 - 동물병원","category":"medical"}]},{"lat":"37.488126854","long":"126.7545802","imageIndex":8,"items":[{"name":"늘푸른약국","tel":"032-323-6678","addr":"경기도 부천시 상동 464-3번지 유은빌딩 1층 101호","indutype":"약국 - 약국","category":"medical"},{"name":"멘파워비뇨기과","tel":"032-328-7582","addr":"경기도 부천시 상동 464-3번지 유은빌딩 4층 2호","indutype":"의원 - 의원","category":"medical"},{"name":"수와진산부인과의원","tel":"032-322-0808","addr":"경기도 부천시 상동 464-3번지 유은빌딩 3층","indutype":"의원 - 의원","category":"medical"},{"name":"아이비안과의원","tel":"032-323-6545","addr":"경기도 부천시 상동 464-3번지 유은빌딩","indutype":"의원 - 의원","category":"medical"},{"name":"한독  치과","tel":"032-323-2822","addr":"경기도 부천시 상동 464-3번지 유은빌딩 2호","indutype":"의원 - 치과의원","category":"medical"},{"name":"화접몽한의원","tel":"032-322-8216","addr":"경기도 부천시 상동 464-3번지 유은빌딩 502호","indutype":"의원 - 한의원","category":"medical"}]},{"lat":"37.507395657","long":"126.75296694","imageIndex":8,"items":[{"name":"늘푸른하늘약국","tel":"032-322-1838","addr":"경기도 부천시 상동 534-1번지 승재프라자 304호","indutype":"약국 - 약국","category":"medical"},{"name":"동방한의원","tel":"032-328-1806","addr":"경기도 부천시 상동 534-1번지 라일락마을앞승재프라자 3층 307호","indutype":"의원 - 한의원","category":"medical"},{"name":"미래로소아과","tel":"032-328-7119","addr":"경기도 부천시 상동 534-1번지 승재프라자 308호","indutype":"의원 - 의원","category":"medical"},{"name":"미플러스치과의원","tel":"032-324-2897","addr":"경기도 부천시 상동 534-1번지 승재프라자 405,406호","indutype":"의원 - 치과의원","category":"medical"},{"name":"준내과","tel":"032-328-5117","addr":"경기도 부천시 상동 534-1번지 승재프라자 407호","indutype":"의원 - 의원","category":"medical"},{"name":"푸른솔약국","tel":"032-322-4556","addr":"경기도 부천시 상동 534-1번지 숭재프라자 106호","indutype":"약국 - 약국","category":"medical"}]},{"lat":"37.512567228","long":"126.75291577","imageIndex":8,"items":[{"name":"다나동물병원","tel":"032-323-2737","addr":"경기도 부천시 상동 523-10번지 성은빌딩 101호","indutype":"기타의료기관 - 동물병원","category":"medical"}]},{"lat":"37.492676519","long":"126.76313636","imageIndex":8,"items":[{"name":"다온요양병원","tel":"032-612-5500","addr":"경기도 부천시 상동 235-1번지 바로빌딩","indutype":"병원 - 병원","category":"medical"},{"name":"햇살약국","tel":"032-0000-0000","addr":"경기도 부천시 상동 235-1번지 바로빌딩 1층","indutype":"약국 - 약국","category":"medical"}]},{"lat":"37.512451963","long":"126.75379838","imageIndex":8,"items":[{"name":"동물사랑병원","tel":"032-323-8275","addr":"경기도 부천시 상동 524-4번지 1층","indutype":"기타의료기관 - 동물병원","category":"medical"}]},{"lat":"37.492841428","long":"126.74724852","imageIndex":8,"items":[{"name":"두윤가정의원","tel":"032-214-4809","addr":"경기도 부천시 상동 590-1번지3층","indutype":"의원 - 의원","category":"medical"},{"name":"목련약국","tel":"032-327-1972","addr":"경기도 부천시 상동 590-1번지 목련마을 상가동 101호","indutype":"약국 - 약국","category":"medical"}]},{"lat":"37.506703667","long":"126.75380617","imageIndex":8,"items":[{"name":"디에뜨의원","tel":"032-328-0035","addr":"경기도 부천시 상동 535-4번지 다인타운 3층 302호","indutype":"의원 - 의원","category":"medical"},{"name":"상동온누리약국","tel":"032-322-2911","addr":"경기도 부천시 상동 535-4번지 다인타운 106호","indutype":"약국 - 약국","category":"medical"},{"name":"제니스비뇨의학과의원","tel":"032-323-5399","addr":"경기도 부천시 상동 535-4번지 다인타운 4층 401호","indutype":"의원 - 의원","category":"medical"},{"name":"후한의원","tel":"032-438-0073","addr":"경기도 부천시 상동 535-4번지 다인타운 4층 403호","indutype":"의원 - 한의원","category":"medical"}]},{"lat":"37.50512386","long":"126.75235249","imageIndex":8,"items":[{"name":"럭스성형외과의원","tel":"032-323-8877","addr":"경기도 부천시 상동 544 가나베스트 503","indutype":"의원 - 의원","category":"medical"},{"name":"미앤미치과","tel":"032-325-2880","addr":"경기도 부천시 상동 544-4번지 가나베스트 301호","indutype":"의원 - 치과의원","category":"medical"},{"name":"상쾌한장문외과의원","tel":"032-323-6119","addr":"경기도 부천시 상동 544-4번지 가나베스트타운 4층","indutype":"의원 - 의원","category":"medical"},{"name":"일맥한의원","tel":"032-327-1075","addr":"경기도 부천시 상동 544-4번지 가나베스트타운3 5층 509호","indutype":"의원 - 한의원","category":"medical"},{"name":"하이맨비뇨기과의원","tel":"032-329-7580","addr":"경기도 부천시 상동 544-4번지 가나베스트타운쓰리 403호","indutype":"의원 - 의원","category":"medical"},{"name":"한음한방신경정신과 한의원","tel":"032-328-7510","addr":"경기도 부천시 상동 544-4번지 가나베스트타운쓰리 312호","indutype":"의원 - 한의원","category":"medical"}]},{"lat":"37.506231134","long":"126.75190771","imageIndex":8,"items":[{"name":"리샘한의원","tel":"032-324-7908","addr":"경기도 부천시 상동 534-8번지 에이플러스 302호","indutype":"의원 - 한의원","category":"medical"},{"name":"한사랑약국","tel":"032-327-4559","addr":"경기도 부천시 상동 534-8번지 에이플러스빌 108호","indutype":"약국 - 약국","category":"medical"},{"name":"한사랑온누리약국","tel":"032-327-4558","addr":"경기도 부천시 상동 534-8번지 에이플러스 108호","indutype":"약국 - 약국","category":"medical"}]},{"lat":"37.48906826","long":"126.7523835","imageIndex":8,"items":[{"name":"마음셈정신건강의학과의원","tel":"032-326-9879","addr":"경기도 부천시 상동 413번지 상동스카이뷰자이 2층 204호","indutype":"의원 - 의원","category":"medical"}]},{"lat":"37.504511143","long":"126.75233192","imageIndex":8,"items":[{"name":"메디슬림의원","tel":"032-326-4282","addr":"경기도 부천시 상동 544-6번지 센터프라자 202호","indutype":"의원 - 의원","category":"medical"},{"name":"캐스팅성형외과","tel":"032-321-2572","addr":"경기도 부천시 상동 544-6번지 센타프라자 3층","indutype":"의원 - 의원","category":"medical"}]},{"lat":"37.512593371","long":"126.75249719","imageIndex":8,"items":[{"name":"메디칼약국","tel":"032-324-6877","addr":"경기도 부천시 상동 523-8,9 에이스프라자1층 102,103","indutype":"약국 - 약국","category":"medical"}]},{"lat":"37.488540163","long":"126.76274252","imageIndex":8,"items":[{"name":"명사한의원","tel":"032-664-1075","addr":"경기도 부천시 상동 318-5번지 쌍두꺼비빌딩 2층","indutype":"의원 - 한의원","category":"medical"}]},{"lat":"37.506259339","long":"126.75246179","imageIndex":8,"items":[{"name":"무지개약국","tel":"032-207-7020","addr":"경기도 부천시 상동 534-6번지 비잔티움상동 106호","indutype":"약국 - 약국","category":"medical"},{"name":"민클리닉의원","tel":"032-329-2229","addr":"경기도 부천시 상동 534-6번지 비잔티움상가501,502,517,518","indutype":"의원 - 의원","category":"medical"},{"name":"소중한아이정신과의원","tel":"032-326-3555","addr":"경기도 부천시 상동 534-6번지 비잔티움 상가 402호","indutype":"의원 - 의원","category":"medical"},{"name":"팔플러스원규한의원","tel":"032-326-8175","addr":"경기도 부천시 상동 534-6.7비잔티움상가406","indutype":"의원 - 한의원","category":"medical"},{"name":"하얀치과의원","tel":"032-325-2872","addr":"경기도 부천시 상동 534-6번지 상동비잔티움 상가 102동 404,405호","indutype":"의원 - 치과의원","category":"medical"}]},{"lat":"37.492650109","long":"126.76344175","imageIndex":8,"items":[{"name":"미래약국","tel":"032-661-6534","addr":"경기도 부천시 상동 235-2번지 이화연립 1층","indutype":"약국 - 약국","category":"medical"}]},{"lat":"37.491229474","long":"126.75183353","imageIndex":8,"items":[{"name":"미소가아름다운치과의원","tel":"032-324-2855","addr":"경기도 부천시 상동 400-1,2(3층)","indutype":"의원 - 치과의원","category":"medical"},{"name":"중서한의원","tel":"032-325-9800","addr":"경기도 부천시 상동 400-1투원21씨빌딩","indutype":"의원 - 한의원","category":"medical"}]},{"lat":"37.49265347","long":"126.74368725","imageIndex":8,"items":[{"name":"미소가정의원","tel":"032-328-3454","addr":"경기도 부천시 상동 600-6번지","indutype":"의원 - 의원","category":"medical"}]},{"lat":"37.507152271","long":"126.7529112","imageIndex":8,"items":[{"name":"미엘르의원","tel":"032-329-2577","addr":"경기도 부천시 상동 534-2 상동프라자 606호~607호 606","indutype":"의원 - 의원","category":"medical"}]},{"lat":"37.488257731","long":"126.75255582","imageIndex":8,"items":[{"name":"미인치과","tel":"032-327-2812","addr":"경기도 부천시 상동 464번지 루치올라빌딩 402호","indutype":"의원 - 치과의원","category":"medical"},{"name":"유로진남성의원","tel":"032-323-1852","addr":"경기도 부천시 상동 464번지 루치올라빌딩 3층 301호","indutype":"의원 - 의원","category":"medical"},{"name":"임영철치과의원","tel":"032-321-2875","addr":"경기도 부천시 상동 464번지 루치올라빌딩 401호","indutype":"의원 - 치과의원","category":"medical"},{"name":"프라임산부인과의원","tel":"032-328-8883","addr":"경기도 부천시 상동 464번지 루치올라빌딩 502호","indutype":"의원 - 의원","category":"medical"},{"name":"한양내과","tel":"032-328-7500","addr":"경기도 부천시 상동 464번지 루치올라빌딩 4층","indutype":"의원 - 의원","category":"medical"}]},{"lat":"37.503867641","long":"126.75054719","imageIndex":8,"items":[{"name":"바로약품(주)","tel":"","addr":"경기도 부천시 상동 546-6번지 서해프라자 504동 일부","indutype":"약국 - 제약회사","category":"medical"},{"name":"주식회사베스트팜","tel":"032-323-0296","addr":"경기도 부천시 상동 546-6번지 서해프라자 408호","indutype":"약국 - 제약회사","category":"medical"}]},{"lat":"37.492650841","long":"126.76380359","imageIndex":8,"items":[{"name":"박동건소아과의원","tel":"032-667-7533","addr":"경기도 부천시 상동 235-6번지","indutype":"의원 - 의원","category":"medical"}]},{"lat":"37.506007181","long":"126.75680555","imageIndex":8,"items":[{"name":"보스동물병원","tel":"032-322-7505","addr":"경기도 부천시 상동 538-6번지 대신스카이빌 103호","indutype":"기타의료기관 - 동물병원","category":"medical"},{"name":"어깨동무한의원","tel":"032-684-9988","addr":"경기도 부천시 상동 538-6번지 대신스카이빌 206호,207호","indutype":"의원 - 한의원","category":"medical"}]},{"lat":"37.491203668","long":"126.7524103","imageIndex":8,"items":[{"name":"부경이비인후과의원","tel":"032-323-7582","addr":"경기도 부천시 상동 400-3번지 삼희월드프라자 306호","indutype":"의원 - 의원","category":"medical"},{"name":"온누리성진약국","tel":"032-327-2087","addr":"경기도 부천시 상동 400-3번지 삼희월드프라자 307호","indutype":"약국 - 약국","category":"medical"},{"name":"케이에스마취통증의학과의원","tel":"032-325-2585","addr":"경기도 부천시 상동 400-3번지 삼희월드프라자 2층","indutype":"의원 - 의원","category":"medical"},{"name":"프라임여성의원","tel":"032-321-6660","addr":"경기도 부천시 상동 400-3 상희월드프라자3층304,305호","indutype":"의원 - 의원","category":"medical"}]},{"lat":"37.505149905","long":"126.75188871","imageIndex":8,"items":[{"name":"부천모커리한의원","tel":"032-216-5152","addr":"경기도 부천시 상동 544-3번지 301, 302호","indutype":"의원 - 한의원","category":"medical"}]},{"lat":"37.506230148","long":"126.75144402","imageIndex":8,"items":[{"name":"부천의원","tel":"032-321-4475","addr":"경기도 부천시 상동 534-9번지 모건시티 4층 403호,404호","indutype":"의원 - 의원","category":"medical"},{"name":"위더스동물병원","tel":"032-666-7500","addr":"경기도 부천시 상동 534-9번지 모건시티 제 1층 101호","indutype":"기타의료기관 - 동물병원","category":"medical"},{"name":"한미르한의원","tel":"032-326-8844","addr":"경기도 부천시 상동 534-9번지 모건시티 602호","indutype":"의원 - 한의원","category":"medical"}]},{"lat":"37.513259978","long":"126.7524384","imageIndex":8,"items":[{"name":"블루팜","tel":"032-322-8876","addr":"경기도 부천시 상동 520-11번지 1층","indutype":"약국 - 약국","category":"medical"}]},{"lat":"37.491205248","long":"126.75315658","imageIndex":8,"items":[{"name":"비타민약국","tel":"032-322-1924","addr":"경기도 부천시 상동 401-1번지 송내부건프라자 404호","indutype":"약국 - 약국","category":"medical"},{"name":"아름다운동물병원","tel":"032-325-7588","addr":"경기도 부천시 상동 401-1번지 부건프라자 1층 102호","indutype":"기타의료기관 - 동물병원","category":"medical"},{"name":"위(WE)튼튼내과의원","tel":"032-324-0828","addr":"경기도 부천시 상동 401-1번지 송내부건프라자 4층 402,403호","indutype":"의원 - 의원","category":"medical"},{"name":"최병욱성형외과","tel":"032-323-0083","addr":"경기도 부천시 상동 401-1번지 송내부건프라자 3층","indutype":"의원 - 의원","category":"medical"}]},{"lat":"37.501760379","long":"126.75530408","imageIndex":8,"items":[{"name":"상동물병원","tel":"032-328-0079","addr":"경기도 부천시 상동 564-14번지","indutype":"기타의료기관 - 동물병원","category":"medical"}]},{"lat":"37.500345572","long":"126.75518435","imageIndex":8,"items":[{"name":"상동서울가정의학과의원","tel":"032-328-4646","addr":"경기도 부천시 상동 559-4번지 서울프라자 201호","indutype":"의원 - 의원","category":"medical"},{"name":"상동제일약국","tel":"032-321-8112","addr":"경기도 부천시 상동 559-4번지 서울프라자 105호","indutype":"약국 - 약국","category":"medical"},{"name":"프렌즈","tel":"032-325-1777","addr":"경기도 부천시 상동 559-4번지 서울프라자 101,102호","indutype":"약국 - 제약회사","category":"medical"}]},{"lat":"37.4926761543","long":"126.7499968460","imageIndex":8,"items":[{"name":"상동세란가정의학과의원","tel":"032-325-5325","addr":"경기도 부천시 상동 397번지 반달종합상가 210호","indutype":"의원 - 의원","category":"medical"},{"name":"용문약국","tel":"032-322-1788","addr":"경기도 부천시 상동 397번지 반달마을동아 115호","indutype":"약국 - 약국","category":"medical"}]},{"lat":"37.492536342","long":"126.74368765","imageIndex":8,"items":[{"name":"상동세종약국","tel":"032-328-3560","addr":"경기도 부천시 상동 600-7","indutype":"약국 - 약국","category":"medical"}]},{"lat":"37.488541128","long":"126.76321741","imageIndex":8,"items":[{"name":"상동시장약국","tel":"032-662-5690","addr":"경기도 부천시 상동 317-10번지 1층","indutype":"약국 - 약국","category":"medical"}]},{"lat":"37.491237883","long":"126.75155082","imageIndex":8,"items":[{"name":"상동연세치과","tel":"032-326-3540","addr":"경기도 부천시 상동 400번지 다모아빌딩306,307","indutype":"의원 - 치과의원","category":"medical"}]},{"lat":"37.488126673","long":"126.76321874","imageIndex":8,"items":[{"name":"상동치과의원","tel":"032-667-2875","addr":"경기도 부천시 상동 326번지","indutype":"의원 - 치과의원","category":"medical"}]},{"lat":"37.487901536","long":"126.75454703","imageIndex":8,"items":[{"name":"서연성형외과의원","tel":"032-327-2002","addr":"경기도 부천시 상동 464-4번지 4층","indutype":"의원 - 의원","category":"medical"}]},{"lat":"37.491204555","long":"126.75282867","imageIndex":8,"items":[{"name":"서울앤치과","tel":"032-329-8275","addr":"경기도 부천시 상동 401번지 세원빌딩 4층 402호","indutype":"의원 - 치과의원","category":"medical"},{"name":"온마음연세의원","tel":"032-324-0365","addr":"경기도 부천시 상동 401번지 세원빌딩 4층 405,406호","indutype":"의원 - 의원","category":"medical"},{"name":"이안이비인후과의원","tel":"032-329-3355","addr":"경기도 부천시 상동 401번지 세원빌딩 403호","indutype":"의원 - 의원","category":"medical"},{"name":"이현주소아청소년과의원","tel":"032-328-8275","addr":"경기도 부천시 상동 401번지 세원빌딩 401호","indutype":"의원 - 의원","category":"medical"}]},{"lat":"37.492729958","long":"126.76283088","imageIndex":8,"items":[{"name":"석전한의원","tel":"032-662-1288","addr":"경기도 부천시 상동 235번지 2층","indutype":"의원 - 한의원","category":"medical"}]},{"lat":"37.492846581","long":"126.76258174","imageIndex":8,"items":[{"name":"선한의원","tel":"032-613-3363","addr":"경기도 부천시 상동 231-38번지 1층","indutype":"의원 - 한의원","category":"medical"}]},{"lat":"37.505175323","long":"126.75113089","imageIndex":8,"items":[{"name":"센스의료생활협동조합","tel":"032-327-2842","addr":"경기도 부천시 상동 544-1번지 로얄타워 704호","indutype":"의원 - 치과의원","category":"medical"},{"name":"아라약국","tel":"032-322-0041","addr":"경기도 부천시 상동 544-1번지 로얄타워 1층 101호","indutype":"약국 - 약국","category":"medical"}]},{"lat":"37.489538543","long":"126.75321867","imageIndex":8,"items":[{"name":"송내과의원","tel":"032-324-0804","addr":"경기도 부천시 상동 412-2번지","indutype":"의원 - 의원","category":"medical"},{"name":"예스의원","tel":"032-328-5558","addr":"경기도 부천시 상동 412-2번지 302호 302호~303호","indutype":"의원 - 의원","category":"medical"}]},{"lat":"37.504679782","long":"126.75113255","imageIndex":8,"items":[{"name":"수아약국","tel":"032-321-3830","addr":"경기도 부천시 상동 545-9번지 한림프라자 107호","indutype":"약국 - 약국","category":"medical"}]},{"lat":"37.501314039","long":"126.75299852","imageIndex":8,"items":[{"name":"수앤팜","tel":"032-323-7630","addr":"경기도 부천시 상동 555-12번지 101호","indutype":"약국 - 제약회사","category":"medical"}]},{"lat":"37.495009004","long":"126.74966105","imageIndex":8,"items":[{"name":"수정치과","tel":"032-322-0517","addr":"경기도 부천시 상동 392번지 2층","indutype":"의원 - 치과의원","category":"medical"}]},{"lat":"37.491875764","long":"126.76369299","imageIndex":8,"items":[{"name":"약초당한약국","tel":"032-668-1130","addr":"경기도 부천시 상동 234-18번지 1층","indutype":"약국 - 한약방","category":"medical"}]},{"lat":"37.507536815","long":"126.75155273","imageIndex":8,"items":[{"name":"양치과의원","tel":"032-229-2875","addr":"경기도 부천시 상동 533-8,9대림타운304","indutype":"의원 - 치과의원","category":"medical"}]},{"lat":"37.512540605","long":"126.75310814","imageIndex":8,"items":[{"name":"연세한사랑의원","tel":"032-326-7585","addr":"경기도 부천시 상동 523-11번지 늘푸른 상가 201호","indutype":"의원 - 의원","category":"medical"},{"name":"치아사랑치과의원","tel":"032-325-2879","addr":"경기도 부천시 상동 523-11번지 늘푸른 상가 3층","indutype":"의원 - 치과의원","category":"medical"}]},{"lat":"37.504396289","long":"126.7534067","imageIndex":8,"items":[{"name":"예지인한약국","tel":"032-212-0826","addr":"경기도 부천시 상동 542-1번지 영플러스 1층 120호","indutype":"약국 - 한약방","category":"medical"},{"name":"우리들약국","tel":"032-327-7531","addr":"경기도 부천시 상동 542-1번지 영플러스 123호","indutype":"약국 - 약국","category":"medical"},{"name":"힐링윤치과","tel":"032-322-2820","addr":"경기도 부천시 상동 542-1번지 영플러스 201호","indutype":"의원 - 치과의원","category":"medical"}]},{"lat":"37.506175225","long":"126.75530081","imageIndex":8,"items":[{"name":"오렌지의원","tel":"032-322-5533","addr":"경기도 부천시 상동 535-9번지 시그마타워 203호","indutype":"의원 - 의원","category":"medical"},{"name":"체미안의원","tel":"032-217-4824","addr":"경기도 부천시 상동 535-9번지 시그마타워 401호","indutype":"의원 - 의원","category":"medical"}]},{"lat":"37.507430282","long":"126.75229954","imageIndex":8,"items":[{"name":"우리동네한의원","tel":"032-321-8266","addr":"경기도 부천시 상동 533-11번지 부건프라자 202호","indutype":"의원 - 한의원","category":"medical"}]},{"lat":"37.500594231","long":"126.75346458","imageIndex":8,"items":[{"name":"우리앤동물병원","tel":"032-325-7975","addr":"경기도 부천시 상동 557-4번지 늘푸른종합상가 111호","indutype":"기타의료기관 - 동물병원","category":"medical"}]},{"lat":"37.503952341","long":"126.75224331","imageIndex":8,"items":[{"name":"유도명한의원","tel":"032-323-2215","addr":"경기도 부천시 상동 544-10번지 한빛프라자 4층 402호","indutype":"의원 - 한의원","category":"medical"},{"name":"인애한의원","tel":"032-715-5424","addr":"경기도 부천시 상동 544-10번지 한빛프라자 2층 202호","indutype":"의원 - 한의원","category":"medical"}]},{"lat":"37.506396743","long":"126.75783346","imageIndex":8,"items":[{"name":"은하수 약국","tel":"032-329-9140","addr":"경기도 부천시 상동 538-3번지 대신프라자 504호","indutype":"약국 - 약국","category":"medical"}]},{"lat":"37.488458062","long":"126.76224528","imageIndex":8,"items":[{"name":"은행약국","tel":"032-668-8175","addr":"경기도 부천시 상동 318-13번지 1층 105호","indutype":"약국 - 약국","category":"medical"},{"name":"현인정형외과","tel":"032-655-8575","addr":"경기도 부천시 상동 318-13번지 318-14,152층,3층,5층","indutype":"의원 - 의원","category":"medical"}]},{"lat":"37.488154826","long":"126.76377269","imageIndex":8,"items":[{"name":"이(e)착한치과의원","tel":"032-662-2727","addr":"경기도 부천시 상동 326-16번지 2층 일부","indutype":"의원 - 치과의원","category":"medical"},{"name":"현내과의원","tel":"032-657-7522","addr":"경기도 부천시 상동 326-16번지 2층","indutype":"의원 - 의원","category":"medical"}]},{"lat":"37.5125933707","long":"126.7524971852","imageIndex":8,"items":[{"name":"장진석내과","tel":"032-324-0208","addr":"경기도 부천시 상동 523-8,9에이스프라자3층301호","indutype":"의원 - 의원","category":"medical"}]},{"lat":"37.488120682","long":"126.76471128","imageIndex":8,"items":[{"name":"조경숙이비인후과","tel":"032-668-5125","addr":"경기도 부천시 상동 328-11번지 동영빌딩 2층","indutype":"의원 - 의원","category":"medical"}]},{"lat":"37.5050636141","long":"126.7536872162","imageIndex":8,"items":[{"name":"플러스안과","tel":"032-218-5001","addr":"경기도 부천시 상동 541-1번지 메가플러스 3층 1,13호","indutype":"의원 - 의원","category":"medical"}]},{"lat":"37.507094562","long":"126.7511923","imageIndex":8,"items":[{"name":"한국치과의원","tel":"032-325-1932","addr":"경기도 부천시 상동 532-5 태영프라자302호,303호","indutype":"의원 - 치과의원","category":"medical"}]},{"lat":"37.512478181","long":"126.75341373","imageIndex":8,"items":[{"name":"한마음미소약국","tel":"070-7718-9927","addr":"경기도 부천시 상동 524-1번지 1층 103호","indutype":"약국 - 약국","category":"medical"}]},{"lat":"37.492597399","long":"126.76410907","imageIndex":8,"items":[{"name":"한빛치과","tel":"032-652-2080","addr":"경기도 부천시 상동 236번지","indutype":"의원 - 치과의원","category":"medical"}]},{"lat":"37.512619992","long":"126.75230481","imageIndex":8,"items":[{"name":"해오름한의원","tel":"032-328-3375","addr":"경기도 부천시 상동 523-7번지 세진빌딩 2층","indutype":"의원 - 한의원","category":"medical"}]},{"lat":"37.503956385","long":"126.74991357","imageIndex":8,"items":[{"name":"행복한동물병원","tel":"032-324-3004","addr":"경기도 부천시 상동 546-3번지 대맥프라자 105호","indutype":"기타의료기관 - 동물병원","category":"medical"}]},{"lat":"37.488125249","long":"126.76251771","imageIndex":8,"items":[{"name":"형예주한의원","tel":"032-656-2810","addr":"경기도 부천시 상동 325-13번지","indutype":"의원 - 한의원","category":"medical"}]},{"lat":"37.493263678","long":"126.75947077","imageIndex":8,"items":[{"name":"홍정한의원","tel":"032-326-5750","addr":"경기도 부천시 상동 420-2번지","indutype":"의원 - 한의원","category":"medical"}]},{"lat":"37.488486495","long":"126.76293491","imageIndex":8,"items":[{"name":"화인치과의원","tel":"032-661-2875","addr":"경기도 부천시 상동 318-4번지 2층","indutype":"의원 - 치과의원","category":"medical"}]},{"lat":"37.492677528","long":"126.76363389","imageIndex":8,"items":[{"name":"황성한의원","tel":"032-652-7575","addr":"경기도 부천시 상동 235-3번지 2층","indutype":"의원 - 한의원","category":"medical"},{"name":"황성한의원","tel":"032-652-7376","addr":"경기도 부천시 상동 235-3번지","indutype":"의원 - 한의원","category":"medical"}]}]