[{"lat":"37.520116204","long":"126.80443852","imageIndex":17,"items":[{"name":"(사)한국청소년 지도육성연맹","tel":"032-679-2003","addr":"경기도 부천시 원종동 374-3번지 관우빌딩 6층 601호","indutype":"기타 - 비영리/비대상","category":"other"},{"name":"레드피시","tel":"070-5020-5323","addr":"경기도 부천시 원종동 374-3번지 관우프라자 3층 301호","indutype":"수리서비스 - 사무·통신기기수리","category":"other"},{"name":"클라비스부천원종점","tel":"032-673-8802","addr":"경기도 부천시 원종동 374-3번지 관우프라자 1층 102호","indutype":"의류 - 정장","category":"other"},{"name":"하늘빛요양원","tel":"032-682-4355","addr":"경기도 부천시 원종동 374-3번지 관우프라자 401호","indutype":"기타의료기관 - 기타의료기관 및 기타","category":"other"}]},{"lat":"37.518649871","long":"126.80579979","imageIndex":17,"items":[{"name":"(신)해피랜드원종대리점","tel":"032-674-3969","addr":"경기도 부천시 원종동 367-19번지","indutype":"의류 - 아동의류","category":"other"}]},{"lat":"37.522568512","long":"126.80540487","imageIndex":17,"items":[{"name":"(주)더말가(The MALGA Co.,Ltd.)","tel":"032-671-0383","addr":"경기도 부천시 원종동 281-1번지 진주빌딩 401호","indutype":"문화.취미 - 수족관","category":"other"},{"name":"세븐일레븐부천다솔원종점","tel":"031-1577-0711","addr":"경기도 부천시 원종동 281-1번지 1층","indutype":"유통업 영리 - 편 의 점","category":"other"},{"name":"여주상사","tel":"032-672-7746","addr":"경기도 부천시 원종동 281-1번지 진주빌딩","indutype":"건축자재 - 페인트","category":"other"}]},{"lat":"37.525171959","long":"126.80516045","imageIndex":17,"items":[{"name":"(주)서광통신","tel":"032-662-9000","addr":"경기도 부천시 원종동 277번지","indutype":"사무통신 - 통신기기","category":"other"},{"name":"(주)서광통신_PS","tel":"032-662-9000","addr":"경기도 부천시 원종동 277번지","indutype":"사무통신 - 통신기기","category":"other"},{"name":"국제문화센터","tel":"032-684-7001","addr":"경기도 부천시 원종동 277번지 3층 308호","indutype":"문화.취미 - 문화취미기타","category":"other"},{"name":"우진모바일","tel":"032-662-9000","addr":"경기도 부천시 원종동 277번지","indutype":"사무통신 - 통신기기","category":"other"},{"name":"주식회사호텔패키지","tel":"032-1688-0872","addr":"경기도 부천시 원종동 277번지 백련빌딩 406호","indutype":"용역 서비스 - 사무서비스","category":"other"}]},{"lat":"37.523837554","long":"126.8100396","imageIndex":17,"items":[{"name":"(주)씨엔씨전자","tel":"032-204-3535","addr":"경기도 부천시 원종동 291-23번지","indutype":"레져용품 - 스포츠·레져용품","category":"other"}]},{"lat":"37.523679172","long":"126.80687255","imageIndex":17,"items":[{"name":"(주)에스비에스여행사","tel":"032-682-0057","addr":"경기도 부천시 원종동 313-10번지","indutype":"여행 - 관광여행","category":"other"},{"name":"SM한울","tel":"032-676-8284","addr":"경기도 부천시 원종동 313-10번지 4층","indutype":"사무통신 - 통신기기","category":"other"},{"name":"귀석","tel":"032-678-5527","addr":"경기도 부천시 원종동 313-10번지","indutype":"신변잡화 - 시계","category":"other"},{"name":"나드리하이패션","tel":"032-678-0202","addr":"경기도 부천시 원종동 313-10번지","indutype":"의류 - 정장","category":"other"},{"name":"미래텔레콤","tel":"032-673-5688","addr":"경기도 부천시 원종동 313-10번지","indutype":"사무통신 - 통신기기","category":"other"},{"name":"사단법인한국소림무승협회","tel":"032-573-2750","addr":"경기도 부천시 원종동 313-10번지 부천프라자 4층 6호","indutype":"기타 - 비영리/대상","category":"other"},{"name":"신나라헬스","tel":"032-679-6200","addr":"경기도 부천시 원종동 313-10번지 4층","indutype":"회원제형태 - 레져업소","category":"other"},{"name":"신우엘리베이터","tel":"032-684-9538","addr":"경기도 부천시 원종동 313-10번지 부천프라자 8동 807호","indutype":"용역 서비스 - 기타용역서비스","category":"other"},{"name":"진우스포츠","tel":"032-679-6200","addr":"경기도 부천시 원종동 313-10번지 4층","indutype":"레져용품 - 스포츠·레져용품","category":"other"}]},{"lat":"37.525341624","long":"126.80968504","imageIndex":17,"items":[{"name":"FM도배장판전문점","tel":"032-679-7352","addr":"경기도 부천시 원종동 295-9번지","indutype":"직물 - 카페트,커튼,천막,지물","category":"other"},{"name":"더 블라인드","tel":"032-000-0000","addr":"경기도 부천시 원종동 295-9번지 B01호","indutype":"직물 - 카페트,커튼,천막,지물","category":"other"},{"name":"파닭파닭","tel":"032-674-7575","addr":"경기도 부천시 원종동 295-9번지 1층","indutype":"신변잡화 - 기타잡화","category":"other"}]},{"lat":"37.523895514","long":"126.80157779","imageIndex":17,"items":[{"name":"G&B(girl and boy)","tel":"032-683-2011","addr":"경기도 부천시 원종동 212-3번지","indutype":"사무통신 - 통신기기","category":"other"}]},{"lat":"37.524784535","long":"126.80516147","imageIndex":17,"items":[{"name":"GS25R부천2점","tel":"","addr":"경기도 부천시 원종동 277-3번지 2층","indutype":"유통업 영리 - 편 의 점","category":"other"},{"name":"GS25R부천4점","tel":"","addr":"경기도 부천시 원종동 277-3번지 4층","indutype":"유통업 영리 - 편 의 점","category":"other"},{"name":"프렌즈골프아카데미","tel":"032-865-2002","addr":"경기도 부천시 원종동 277-3번지 원종빌딩 7층","indutype":"회원제형태 - 레져업소","category":"other"}]},{"lat":"37.526816355","long":"126.80254284","imageIndex":17,"items":[{"name":"GS25부천원종로점","tel":"","addr":"경기도 부천시 원종동 136-2번지 1층","indutype":"유통업 영리 - 편 의 점","category":"other"}]},{"lat":"37.523790409","long":"126.80335411","imageIndex":17,"items":[{"name":"GS25부천원종점","tel":"","addr":"경기도 부천시 원종동 222번지 1층","indutype":"유통업 영리 - 편 의 점","category":"other"}]},{"lat":"37.528475787","long":"126.80890767","imageIndex":17,"items":[{"name":"GS25오정성지로점","tel":"","addr":"경기도 부천시 원종동 299번지 대성원종타운 103호","indutype":"유통업 영리 - 편 의 점","category":"other"},{"name":"여우짓거리","tel":"070-7344-2436","addr":"경기도 부천시 원종동 299번지 대성원종타운 A동 1층 103호","indutype":"의류 - 정장","category":"other"}]},{"lat":"37.518311306","long":"126.80809693","imageIndex":17,"items":[{"name":"GS25원종공원점","tel":"","addr":"경기도 부천시 원종동 359번지","indutype":"유통업 영리 - 편 의 점","category":"other"}]},{"lat":"37.519924814","long":"126.8085452","imageIndex":17,"items":[{"name":"GS25원종기쁨점","tel":"","addr":"경기도 부천시 원종동 362-27번지 1층","indutype":"유통업 영리 - 편 의 점","category":"other"},{"name":"황금세탁소","tel":"032-673-7500","addr":"경기도 부천시 원종동 362-27번지 1층 2호","indutype":"수리서비스 - 세탁소","category":"other"}]},{"lat":"37.530895676","long":"126.8066274","imageIndex":17,"items":[{"name":"GS25원종뉴월드점","tel":"","addr":"경기도 부천시 원종동 180-4번지 뉴월드맨숀 A동 101호","indutype":"유통업 영리 - 편 의 점","category":"other"},{"name":"세한","tel":"032-673-9120","addr":"경기도 부천시 원종동 180-4번지 뉴월드맨션 A동 101호","indutype":"전기제품 - 가전제품","category":"other"}]},{"lat":"37.523782131","long":"126.79851244","imageIndex":17,"items":[{"name":"GS25원종본점","tel":"","addr":"경기도 부천시 원종동 150-15번지 1층","indutype":"유통업 영리 - 편 의 점","category":"other"}]},{"lat":"37.526259404","long":"126.80893603","imageIndex":17,"items":[{"name":"GS25원종사거리점","tel":"","addr":"경기도 부천시 원종동 294-11번지 1층","indutype":"유통업 영리 - 편 의 점","category":"other"}]},{"lat":"37.525399307","long":"126.80107599","imageIndex":17,"items":[{"name":"GS25원종성오로점","tel":"","addr":"경기도 부천시 원종동 208번지 선진그린빌 102호","indutype":"유통업 영리 - 편 의 점","category":"other"}]},{"lat":"37.525118448","long":"126.80548865","imageIndex":17,"items":[{"name":"GS25원종중앙","tel":"032-682-2367","addr":"경기도 부천시 원종동 277-1번지","indutype":"유통업 영리 - 편 의 점","category":"other"}]},{"lat":"37.529675754","long":"126.79918647","imageIndex":17,"items":[{"name":"GS25원종타운점","tel":"02-2006-2485","addr":"경기도 부천시 원종동 127-9번지 이든하우스 101호","indutype":"유통업 영리 - 편 의 점","category":"other"},{"name":"유비아이코리아(ubi korea)","tel":"070-8624-7122","addr":"경기도 부천시 원종동 127-9번지 1동 202호","indutype":"용역 서비스 - 사무서비스","category":"other"}]},{"lat":"37.522817423","long":"126.80340195","imageIndex":17,"items":[{"name":"GS25원종한울점","tel":"","addr":"경기도 부천시 원종동 222-7번지 한울팰리스 101, 102호","indutype":"유통업 영리 - 편 의 점","category":"other"},{"name":"소이소이","tel":"032-7350-2367","addr":"경기도 부천시 원종동 222-7번지 한울팰리스 104호","indutype":"의류 - 정장","category":"other"}]},{"lat":"37.525147128","long":"126.80113323","imageIndex":17,"items":[{"name":"LG공조","tel":"032-671-0770","addr":"경기도 부천시 원종동 209번지 1층","indutype":"전기제품 - 가전제품","category":"other"},{"name":"우블리샵","tel":"","addr":"경기도 부천시 원종동 209번지 1층","indutype":"의류 - 정장","category":"other"}]},{"lat":"37.528088773","long":"126.80915756","imageIndex":17,"items":[{"name":"S스크린골프연습장","tel":"032-682-0038","addr":"경기도 부천시 원종동 299-2번지","indutype":"회원제형태 - 레져업소","category":"other"},{"name":"리더스코리아","tel":"070-7808-2555","addr":"경기도 부천시 원종동 299-2번지 금호빌딩 111나호 ,","indutype":"의류 - 정장","category":"other"},{"name":"정상사진실","tel":"032-673-8248","addr":"경기도 부천시 원종동 299-2번지","indutype":"광학제품 - 사진관","category":"other"},{"name":"체크","tel":"032-683-3426","addr":"경기도 부천시 원종동 299-2번지 1층 107호","indutype":"의류 - 정장","category":"other"}]},{"lat":"37.525678747","long":"126.80115443","imageIndex":17,"items":[{"name":"가람인테리어","tel":"032-681-0470","addr":"경기도 부천시 원종동 138-25번지 1층 6호","indutype":"건축자재 - 인테리어전문","category":"other"}]},{"lat":"37.526783569","long":"126.80990758","imageIndex":17,"items":[{"name":"가야E.N.G","tel":"032-681-0188","addr":"경기도 부천시 원종동 296-5번지 공항주택 사동 101호","indutype":"용역 서비스 - 기타용역서비스","category":"other"}]},{"lat":"37.518180186","long":"126.80509971","imageIndex":17,"items":[{"name":"가족애요양원","tel":"032-673-8535","addr":"경기도 부천시 원종동 371-1번지 ,4,5층","indutype":"기타의료기관 - 기타의료기관 및 기타","category":"other"}]},{"lat":"37.51945067","long":"126.80515292","imageIndex":17,"items":[{"name":"갓신","tel":"032-676-5928","addr":"경기도 부천시 원종동 372번지 1층 3호","indutype":"신변잡화 - 신발","category":"other"},{"name":"더블레싱","tel":"","addr":"경기도 부천시 원종동 372번지 1층 4호","indutype":"문화.취미 - 화원","category":"other"},{"name":"라젤로","tel":"032-682-0920","addr":"경기도 부천시 원종동 372번지 1층 14호","indutype":"의류 - 정장","category":"other"},{"name":"법무사","tel":"032-671-1376","addr":"경기도 부천시 원종동 372번지 203호","indutype":"용역 서비스 - 법률회계서비스(개인)","category":"other"},{"name":"소이 부천원종점","tel":"032-679-6100","addr":"경기도 부천시 원종동 372번지 1층 11호","indutype":"의류 - 정장","category":"other"},{"name":"신원종서점","tel":"032-672-8911","addr":"경기도 부천시 원종동 372번지 지하1층","indutype":"서적문구 - 일반서적","category":"other"},{"name":"신원종서점","tel":"032-672-8911","addr":"경기도 부천시 원종동 372번지 지하1층","indutype":"서적문구 - 일반서적","category":"other"},{"name":"이레보석타운","tel":"032-674-4198","addr":"경기도 부천시 원종동 372번지 1층 7호","indutype":"신변잡화 - 귀금속","category":"other"}]},{"lat":"37.527037559","long":"126.81095902","imageIndex":17,"items":[{"name":"강사모백화점(원종점)","tel":"032-681-4544","addr":"경기도 부천시 원종동 339-9번지 1층","indutype":"문화.취미 - 애완동물","category":"other"}]},{"lat":"37.527379159","long":"126.810483","imageIndex":17,"items":[{"name":"강아지발자국","tel":"032-678-1288","addr":"경기도 부천시 원종동 339-16번지 대경주택 B동 102호","indutype":"문화.취미 - 애완동물","category":"other"},{"name":"아띠플라워","tel":"","addr":"경기도 부천시 원종동 339-16번지 대경주택 B동 1층 105호","indutype":"문화.취미 - 화원","category":"other"}]},{"lat":"37.52386985","long":"126.80238104","imageIndex":17,"items":[{"name":"강욱설비","tel":"032-682-9978","addr":"경기도 부천시 원종동 212-23번지 보성한의원 1층 105호","indutype":"기타 - 기타 전문점","category":"other"},{"name":"동양설비종합공사","tel":"032-341-1043","addr":"경기도 부천시 원종동 212-23번지 보성한의원 1층 104호","indutype":"건축자재 - 목재·석재·철물","category":"other"},{"name":"보노영상음반제작실","tel":"032-676-6655","addr":"경기도 부천시 원종동 212-23번지 지하1층","indutype":"용역 서비스 - 종합용역","category":"other"}]},{"lat":"37.526755314","long":"126.80374216","imageIndex":17,"items":[{"name":"개나리지물포","tel":"032-672-0300","addr":"경기도 부천시 원종동 134-7수정상가1층1","indutype":"직물 - 카페트,커튼,천막,지물","category":"other"},{"name":"디쎄","tel":"032-673-0403","addr":"경기도 부천시 원종동 134-7수정상가1층7-1","indutype":"의류 - 정장","category":"other"}]},{"lat":"37.528644175","long":"126.80721027","imageIndex":17,"items":[{"name":"게스트","tel":"032-682-9152","addr":"경기도 부천시 원종동 241-17번지 1층","indutype":"의류 - 정장","category":"other"}]},{"lat":"37.518845796","long":"126.80443057","imageIndex":17,"items":[{"name":"경남모직실베로학생복","tel":"032-678-3375","addr":"경기도 부천시 원종동 375-6번지","indutype":"의류 - 정장","category":"other"},{"name":"이레정보통신","tel":"0000-684-4016","addr":"경기도 부천시 원종동 375-6번지","indutype":"사무통신 - 통신기기","category":"other"},{"name":"하나공인중개사사무소(하나기획)","tel":"032-673-1133","addr":"경기도 부천시 원종동 375-6번지","indutype":"용역 서비스 - 부동산 중개·임대","category":"other"}]},{"lat":"37.527255913","long":"126.80141038","imageIndex":17,"items":[{"name":"경동에어컨","tel":"","addr":"경기도 부천시 원종동 131번지 광성아파트","indutype":"용역 서비스 - 기타용역서비스","category":"other"},{"name":"세광종합설비","tel":"032-454-8685","addr":"경기도 부천시 원종동 131번지 광성아파트","indutype":"건축자재 - 인테리어전문","category":"other"}]},{"lat":"37.522565396","long":"126.80354968","imageIndex":17,"items":[{"name":"경성지물포","tel":"032-672-6263","addr":"경기도 부천시 원종동 223-5번지 1층","indutype":"직물 - 카페트,커튼,천막,지물","category":"other"}]},{"lat":"37.528564934","long":"126.80293412","imageIndex":17,"items":[{"name":"경완그린산업","tel":"02-2666-0275","addr":"경기도 부천시 원종동 470번지 원종동금호어울림 106동 604호","indutype":"주방용구 - 정수기","category":"other"},{"name":"블루스카이 네트웍스","tel":"032-672-1454","addr":"경기도 부천시 원종동 470번지 원종동금호어울림 106동 204호","indutype":"신변잡화 - 기타잡화","category":"other"},{"name":"스타스킨(star skin)","tel":"032-677-7394","addr":"경기도 부천시 원종동 470번지 원종동금호어울림 103동 704호","indutype":"회원제형태 - 기타1","category":"other"},{"name":"엘지에어컨","tel":"","addr":"경기도 부천시 원종동 470번지 원종동금호어울림 103동 1303호","indutype":"용역 서비스 - 기타용역서비스","category":"other"},{"name":"크린토피아 부천원종금호어울림점","tel":"032-671-3393","addr":"경기도 부천시 원종동 470번지 금호어울림 301동 102호","indutype":"수리서비스 - 세탁소","category":"other"}]},{"lat":"37.530492799","long":"126.80817839","imageIndex":17,"items":[{"name":"경인익스프레스","tel":"070-7377-2425","addr":"경기도 부천시 원종동 334-5번지 엘리트빌라 3동 202호","indutype":"용역 서비스 - 기타용역서비스","category":"other"}]},{"lat":"37.527177776","long":"126.80854902","imageIndex":17,"items":[{"name":"경인철형","tel":"032-677-4821","addr":"경기도 부천시 원종동 237-2번지 1층 2호","indutype":"기타 - 기계공구","category":"other"},{"name":"목동철물건재","tel":"032-672-0281","addr":"경기도 부천시 원종동 237-2번지","indutype":"건축자재 - 목재·석재·철물","category":"other"},{"name":"무지개세탁","tel":"032-671-8929","addr":"경기도 부천시 원종동 237-2번지 1층 일부호","indutype":"수리서비스 - 세탁소","category":"other"}]},{"lat":"37.528172136","long":"126.81054884","imageIndex":17,"items":[{"name":"고강태선","tel":"032-672-6344","addr":"경기도 부천시 원종동 338-8번지 삼오주택","indutype":"의류 - 내의판매","category":"other"}]},{"lat":"37.528341713","long":"126.79885071","imageIndex":17,"items":[{"name":"고려세탁소","tel":"032-677-9209","addr":"경기도 부천시 원종동 126-11번지 효마을타운 101동 102호","indutype":"수리서비스 - 세탁소","category":"other"}]},{"lat":"37.526703974","long":"126.81082412","imageIndex":17,"items":[{"name":"고려유리샷시","tel":"032-673-6802","addr":"경기도 부천시 원종동 339-22 선진그린빌라 101 16/10","indutype":"건축자재 - 유리","category":"other"}]},{"lat":"37.527816878","long":"126.80818534","imageIndex":17,"items":[{"name":"곱지","tel":"032-678-0759","addr":"경기도 부천시 원종동 237-3번지 1층","indutype":"의류 - 정장","category":"other"}]},{"lat":"37.522040486","long":"126.80754425","imageIndex":17,"items":[{"name":"광명유통","tel":"032-675-9898","addr":"경기도 부천시 원종동 287-1번지 정든마을","indutype":"회원제형태 - 기타1","category":"other"}]},{"lat":"37.526871506","long":"126.80318753","imageIndex":17,"items":[{"name":"굿뉴스인포컴","tel":"02-742-2142","addr":"경기도 부천시 원종동 133-11번지 대우빌라 D동 202호","indutype":"사무통신 - 통신기기","category":"other"}]},{"lat":"37.528900029","long":"126.80938172","imageIndex":17,"items":[{"name":"굿스","tel":"","addr":"경기도 부천시 원종동 310-2번지 남해빌라 205호","indutype":"의류 - 정장","category":"other"}]},{"lat":"37.526311766","long":"126.80252157","imageIndex":17,"items":[{"name":"그린스파클","tel":"","addr":"경기도 부천시 원종동 135-2번지 한아름6차아파트","indutype":"유통업 영리 - 기타유통업","category":"other"},{"name":"유탑에어컨","tel":"032-568-0818","addr":"경기도 부천시 원종동 135-2번지 한아름6차아파트","indutype":"회원제형태 - 기타4","category":"other"}]},{"lat":"37.53003946","long":"126.80645994","imageIndex":17,"items":[{"name":"그린종합렌탈","tel":"032-676-5338","addr":"경기도 부천시 원종동 69-6번지 101-103(101동103호~104호)","indutype":"레져용품 - 스포츠·레져용품","category":"other"},{"name":"씨유원종소사로점","tel":"032-662-3089","addr":"경기도 부천시 원종동 69-6번지 제이파크빌 103, 104호","indutype":"유통업 영리 - 편 의 점","category":"other"},{"name":"에코노블","tel":"032-1566-9686","addr":"경기도 부천시 원종동 69-6번지 제이파크빌 상가 101동 103호","indutype":"신변잡화 - 기타잡화","category":"other"}]},{"lat":"37.524173529","long":"126.80615857","imageIndex":17,"items":[{"name":"글래머","tel":"02-501-8836","addr":"경기도 부천시 원종동 276-6","indutype":"회원제형태 - 기타4","category":"other"}]},{"lat":"37.518729844","long":"126.8051322","imageIndex":17,"items":[{"name":"금성새부천대리점","tel":"032-672-1016","addr":"경기도 부천시 원종동 372-5번지","indutype":"전기제품 - 가전제품","category":"other"},{"name":"뉴스&news","tel":"032-673-8863","addr":"경기도 부천시 원종동 372-5번지","indutype":"의류 - 정장","category":"other"}]},{"lat":"37.524116511","long":"126.79909977","imageIndex":17,"items":[{"name":"금성세탁소","tel":"032-675-3619","addr":"경기도 부천시 원종동 141-4번지 수정 상가 1층 3호","indutype":"수리서비스 - 세탁소","category":"other"},{"name":"남양전기철물","tel":"032-681-2596","addr":"경기도 부천시 원종동 141-4번지 수정 상가 1층 9호","indutype":"건축자재 - 목재·석재·철물","category":"other"},{"name":"상동종합장식","tel":"032-662-6821","addr":"경기도 부천시 원종동 141-4번지 1층 1호","indutype":"직물 - 카페트,커튼,천막,지물","category":"other"}]},{"lat":"37.519533251","long":"126.80604633","imageIndex":17,"items":[{"name":"금실주란","tel":"032-684-5858","addr":"경기도 부천시 원종동 367번지","indutype":"의류 - 맞춤복점","category":"other"},{"name":"똥꾸바지","tel":"032-679-9939","addr":"경기도 부천시 원종동 367번지 원종시장 1층 103호","indutype":"의류 - 정장","category":"other"}]},{"lat":"37.5325879976","long":"126.8057065548","imageIndex":17,"items":[{"name":"금오불상","tel":"032-672-3136","addr":"경기도 부천시 원종동 9-37번지","indutype":"신변잡화 - 기념품점","category":"other"}]},{"lat":"37.519894022","long":"126.80627162","imageIndex":17,"items":[{"name":"금창당","tel":"032-672-7446","addr":"경기도 부천시 원종동 365-14번지","indutype":"신변잡화 - 귀금속","category":"other"},{"name":"동산철물","tel":"032-674-2913","addr":"경기도 부천시 원종동 365-14번지 1층","indutype":"건축자재 - 목재·석재·철물","category":"other"}]},{"lat":"37.528144239","long":"126.8100172","imageIndex":17,"items":[{"name":"길패션","tel":"032-673-4489","addr":"경기도 부천시 원종동 300-3번지 삼오주택 1층 104호","indutype":"의류 - 정장","category":"other"},{"name":"만물생활용품DC마트","tel":"032-681-9875","addr":"경기도 부천시 원종동 300-3번지 외1필지제1층 103호","indutype":"주방용구 - 주방용구","category":"other"}]},{"lat":"37.51920619","long":"126.80442962","imageIndex":17,"items":[{"name":"김선욱세무회계사무소","tel":"070-8633-3395","addr":"경기도 부천시 원종동 375-3번지 그린메디칼프라자 4층 401호","indutype":"용역 서비스 - 법률회계서비스(개인)","category":"other"},{"name":"김희경세무회계사무소","tel":"032-684-0525","addr":"경기도 부천시 원종동 375-3 그린메디칼프라자401호내2호","indutype":"용역 서비스 - 법률회계서비스(개인)","category":"other"},{"name":"아이엔지짐(ING GYM)","tel":"032-677-2990","addr":"경기도 부천시 원종동 375-3번지 그린메디칼프라자 6층","indutype":"회원제형태 - 레져업소","category":"other"},{"name":"웨스트우드(부천원종점)","tel":"032-667-8245","addr":"경기도 부천시 원종동 375-3번지 그린메디칼프라자 107호","indutype":"의류 - 스포츠의류","category":"other"}]},{"lat":"37.524123291","long":"126.80846644","imageIndex":17,"items":[{"name":"깨운이빨래터","tel":"032-678-1003","addr":"경기도 부천시 원종동 271-7번지 1층","indutype":"수리서비스 - 세탁소","category":"other"},{"name":"와이디미디어","tel":"032-676-9834","addr":"경기도 부천시 원종동 271-7번지 1층 5호","indutype":"전기제품 - 가전제품","category":"other"},{"name":"원종귀뚜라미보일러","tel":"032-679-1003","addr":"경기도 부천시 원종동 271-7번지","indutype":"수리서비스 - 기타수리서비스","category":"other"},{"name":"태광산업","tel":"032-679-9025","addr":"경기도 부천시 원종동 271-7번지","indutype":"건축자재 - 건축용 요업제품","category":"other"}]},{"lat":"37.531370971","long":"126.80529116","imageIndex":17,"items":[{"name":"꼬리치는 강아지","tel":"032-674-3212","addr":"경기도 부천시 원종동 67-11번지 경복빌딩 1층","indutype":"문화.취미 - 애완동물","category":"other"}]},{"lat":"37.523872757","long":"126.80410051","imageIndex":17,"items":[{"name":"꼼바이꼼유아복","tel":"032-675-3906","addr":"경기도 부천시 원종동 227번지 은성 상가","indutype":"의류 - 아동의류","category":"other"},{"name":"샤론주얼리","tel":"032-678-6977","addr":"경기도 부천시 원종동 227번지 1층","indutype":"신변잡화 - 귀금속","category":"other"},{"name":"솔로몬","tel":"032-683-0819","addr":"경기도 부천시 원종동 227번지","indutype":"신변잡화 - 시계","category":"other"},{"name":"씨유원종중앙점","tel":"032-675-7693","addr":"경기도 부천시 원종동 227번지","indutype":"유통업 영리 - 편 의 점","category":"other"},{"name":"엠피(MP)","tel":"02-000-0000","addr":"경기도 부천시 원종동 227번지 1층 102호","indutype":"신변잡화 - 신발","category":"other"},{"name":"은성문고","tel":"032-671-4717","addr":"경기도 부천시 원종동 227번지 지하","indutype":"서적문구 - 일반서적","category":"other"},{"name":"천원의만찬","tel":"032-684-9339","addr":"경기도 부천시 원종동 227번지 1층","indutype":"신변잡화 - 기타잡화","category":"other"}]},{"lat":"37.527036768","long":"126.80501977","imageIndex":17,"items":[{"name":"꽃나라향기나라","tel":"032-671-2316","addr":"경기도 부천시 원종동 231-11번지","indutype":"문화.취미 - 화원","category":"other"},{"name":"컴퓨코리아21","tel":"032-674-5636","addr":"경기도 부천시 원종동 231-11번지","indutype":"사무통신 - 컴퓨터","category":"other"}]},{"lat":"37.518532969","long":"126.80593584","imageIndex":17,"items":[{"name":"꽃돼지문구","tel":"032-671-2459","addr":"경기도 부천시 원종동 367-17번지","indutype":"서적문구 - 문구용품","category":"other"}]},{"lat":"37.526087363","long":"126.80301993","imageIndex":17,"items":[{"name":"꽃빛아트","tel":"032-246-4686","addr":"경기도 부천시 원종동 219-1번지 2층 우측","indutype":"문화.취미 - 화원","category":"other"},{"name":"온리 (ONLY)","tel":"","addr":"경기도 부천시 원종동 219-1번지 1층","indutype":"의류 - 정장","category":"other"},{"name":"한독지물포","tel":"032-673-7846","addr":"경기도 부천시 원종동 219-1번지","indutype":"직물 - 카페트,커튼,천막,지물","category":"other"}]},{"lat":"37.526730699","long":"126.80517896","imageIndex":17,"items":[{"name":"꽃사랑","tel":"070-8423-8562","addr":"경기도 부천시 원종동 232-3번지 1층 일부","indutype":"문화.취미 - 화원","category":"other"},{"name":"스페셜파트너","tel":"032-673-1012","addr":"경기도 부천시 원종동 232-3번지 1층","indutype":"의류 - 정장","category":"other"}]},{"lat":"37.527843015","long":"126.80226858","imageIndex":17,"items":[{"name":"꽃을보듯","tel":"","addr":"경기도 부천시 원종동 129-51번지 상가동 1층 104호","indutype":"문화.취미 - 화원","category":"other"},{"name":"세븐일레븐부천원종주공점","tel":"031-1577-0711","addr":"경기도 부천시 원종동 129-51번지 상가동 101호","indutype":"유통업 영리 - 편 의 점","category":"other"}]},{"lat":"37.519929364","long":"126.80585299","imageIndex":17,"items":[{"name":"꽃집아가씨","tel":"032-682-1216","addr":"경기도 부천시 원종동 365-18번지 1층","indutype":"문화.취미 - 화원","category":"other"},{"name":"뉴스타포토","tel":"032-674-4353","addr":"경기도 부천시 원종동 365-18번지","indutype":"광학제품 - 사진관","category":"other"}]},{"lat":"37.527701309","long":"126.80371702","imageIndex":17,"items":[{"name":"꾸밈방","tel":"032-671-6040","addr":"경기도 부천시 원종동 132-3번지","indutype":"직물 - 침구·수예점","category":"other"}]},{"lat":"37.524401296","long":"126.80230043","imageIndex":17,"items":[{"name":"꿈돌이아동복","tel":"032-676-6278","addr":"경기도 부천시 원종동 211-4번지","indutype":"의류 - 아동의류","category":"other"},{"name":"도담기업","tel":"","addr":"경기도 부천시 원종동 211-4번지","indutype":"레져용품 - 스포츠·레져용품","category":"other"},{"name":"디앤에스일렉컴","tel":"032-683-8348","addr":"경기도 부천시 원종동 211-4","indutype":"전기제품 - 기타전기제품","category":"other"},{"name":"솔트렉","tel":"032-673-8848","addr":"경기도 부천시 원종동 211-4번지 2층,3층","indutype":"레져용품 - 스포츠·레져용품","category":"other"}]},{"lat":"37.527284252","long":"126.80217958","imageIndex":17,"items":[{"name":"끌리오","tel":"","addr":"경기도 부천시 원종동 131-4번지 1층 14호","indutype":"의류 - 정장","category":"other"},{"name":"멋지개 예쁘개","tel":"","addr":"경기도 부천시 원종동 131-4번지 1층 12호","indutype":"문화.취미 - 애완동물","category":"other"},{"name":"세탁","tel":"032-677-9686","addr":"경기도 부천시 원종동 131-4번지 1층 5,6,7호","indutype":"수리서비스 - 세탁소","category":"other"},{"name":"조이(JOY)텔레콤부천점","tel":"032-672-1009","addr":"경기도 부천시 원종동 131-4번지 1층 8호","indutype":"사무통신 - 통신기기","category":"other"}]},{"lat":"37.524179148","long":"126.80413363","imageIndex":17,"items":[{"name":"나드리비비안","tel":"032-671-5061","addr":"경기도 부천시 원종동 228-4번지","indutype":"의류 - 정장","category":"other"},{"name":"태민유통","tel":"032-682-5855","addr":"경기도 부천시 원종동 228-4번지","indutype":"의류 - 정장","category":"other"}]},{"lat":"37.519955316","long":"126.80520815","imageIndex":17,"items":[{"name":"나드리애견","tel":"032-682-1188","addr":"경기도 부천시 원종동 373-10번지 1층","indutype":"문화.취미 - 애완동물","category":"other"}]},{"lat":"37.526115043","long":"126.80340448","imageIndex":17,"items":[{"name":"나산종합인테리어","tel":"032-675-8836","addr":"경기도 부천시 원종동 220번지 상가 109호","indutype":"건축자재 - 인테리어전문","category":"other"},{"name":"써니리슈","tel":"070-7312-9289","addr":"경기도 부천시 원종동 220번지 1층","indutype":"신변잡화 - 기타잡화","category":"other"},{"name":"황금당","tel":"032-674-8984","addr":"경기도 부천시 원종동 220번지 1층","indutype":"신변잡화 - 귀금속","category":"other"}]},{"lat":"37.523756181","long":"126.80442888","imageIndex":17,"items":[{"name":"나이스가구","tel":"032-674-1262","addr":"경기도 부천시 원종동 227-1번지","indutype":"가구 - 일반가구","category":"other"},{"name":"에이비","tel":"032-684-2703","addr":"경기도 부천시 원종동 227-1번지 1층 3호","indutype":"의류 - 정장","category":"other"},{"name":"엑스포드","tel":"032-327-6898","addr":"경기도 부천시 원종동 227-1번지 호 6호 7호 제1층","indutype":"의류 - 스포츠의류","category":"other"},{"name":"체크","tel":"","addr":"경기도 부천시 원종동 227-1번지 1층 9호","indutype":"의류 - 정장","category":"other"},{"name":"한일합섬부천대리점","tel":"032-671-3323","addr":"경기도 부천시 원종동 227-1번지","indutype":"의류 - 정장","category":"other"}]},{"lat":"37.522476783","long":"126.80443227","imageIndex":17,"items":[{"name":"남도전기조명","tel":"032-673-7870","addr":"경기도 부천시 원종동 224-1번지","indutype":"건축자재 - 조명기구","category":"other"},{"name":"뱅커스공인중개사사무소","tel":"032-681-0012","addr":"경기도 부천시 원종동 224-1번지","indutype":"용역 서비스 - 부동산 중개·임대","category":"other"},{"name":"에몬스가구","tel":"032-681-6340","addr":"경기도 부천시 원종동 224-1번지","indutype":"가구 - 일반가구","category":"other"},{"name":"에이스침대원종대리점","tel":"032-676-9889","addr":"경기도 부천시 원종동 224-1번지","indutype":"가구 - 일반가구","category":"other"},{"name":"흥국열기","tel":"032-674-3651","addr":"경기도 부천시 원종동 224-1번지","indutype":"주방용구 - 주방용구","category":"other"}]},{"lat":"37.533811573","long":"126.80465114","imageIndex":17,"items":[{"name":"남부강서물류센터","tel":"032-677-7107","addr":"경기도 부천시 원종동 9-31번지","indutype":"용역 서비스 - 보관및 창고업","category":"other"}]},{"lat":"37.524532298","long":"126.80518476","imageIndex":17,"items":[{"name":"남성크로커다일 부천원종점","tel":"032-672-9434","addr":"경기도 부천시 원종동 277-15번지 1층 3,4호","indutype":"레져용품 - 스포츠·레져용품","category":"other"},{"name":"원종점여성크로커다일","tel":"032-683-1224","addr":"경기도 부천시 원종동 277-15번지","indutype":"레져용품 - 스포츠·레져용품","category":"other"}]},{"lat":"37.521980595","long":"126.80404897","imageIndex":17,"items":[{"name":"남양산업건도","tel":"032-684-7715","addr":"경기도 부천시 원종동 224-7번지 201호","indutype":"용역 서비스 - 기타용역서비스","category":"other"}]},{"lat":"37.518760769","long":"126.8021006","imageIndex":17,"items":[{"name":"넘버원 종합공사","tel":"032-765-6216","addr":"경기도 부천시 원종동 426번지","indutype":"건축자재 - 인테리어전문","category":"other"}]},{"lat":"37.519926997","long":"126.80443902","imageIndex":17,"items":[{"name":"누리텔레콤(Nuri telecom)","tel":"032-676-8011","addr":"경기도 부천시 원종동 374-4번지 천재속샘학원 1층 5호","indutype":"사무통신 - 통신기기","category":"other"},{"name":"아울렛","tel":"070-7344-7331","addr":"경기도 부천시 원종동 374-4번지 천재속샘학원 1층 9호","indutype":"의류 - 정장","category":"other"},{"name":"아이비","tel":"032-675-9550","addr":"경기도 부천시 원종동 374-4번지 천재속샘학원 1층 4호","indutype":"의류 - 정장","category":"other"},{"name":"황금보석","tel":"032-674-9340","addr":"경기도 부천시 원종동 374-4번지 1층","indutype":"신변잡화 - 귀금속","category":"other"}]},{"lat":"37.526900633","long":"126.80443186","imageIndex":17,"items":[{"name":"뉴컴퓨터","tel":"032-683-4006","addr":"경기도 부천시 원종동 230-4번지","indutype":"사무통신 - 컴퓨터","category":"other"},{"name":"삼양건재","tel":"032-673-3673","addr":"경기도 부천시 원종동 230-4번지","indutype":"건축자재 - 기타건축자재","category":"other"},{"name":"에스지(SG)텔레콤","tel":"032-683-7011","addr":"경기도 부천시 원종동 230-4번지 1층","indutype":"사무통신 - 통신기기","category":"other"},{"name":"죠다쉬","tel":"032-678-2144","addr":"경기도 부천시 원종동 230-4번지 1층 2호","indutype":"의류 - 정장","category":"other"}]},{"lat":"37.519192569","long":"126.80706527","imageIndex":17,"items":[{"name":"다야몬드","tel":"032-0000-0000","addr":"경기도 부천시 원종동 366-3번지 삼신아파트","indutype":"의류 - 내의판매","category":"other"}]},{"lat":"37.519770276","long":"126.80233545","imageIndex":17,"items":[{"name":"다온꽃","tel":"032-347-3983","addr":"경기도 부천시 원종동 388-2번지 금성연립 A동 201호","indutype":"문화.취미 - 화원","category":"other"}]},{"lat":"37.51964368","long":"126.80743738","imageIndex":17,"items":[{"name":"다인종합인테리어","tel":"070-4897-7574","addr":"경기도 부천시 원종동 361-22번지 101호","indutype":"직물 - 카페트,커튼,천막,지물","category":"other"}]},{"lat":"37.517589509","long":"126.80748799","imageIndex":17,"items":[{"name":"달(Moon) 인테리어","tel":"","addr":"경기도 부천시 원종동 357번지 미성아파트","indutype":"용역 서비스 - 기타용역서비스","category":"other"}]},{"lat":"37.519615638","long":"126.80682662","imageIndex":17,"items":[{"name":"담쟁이넝쿨","tel":"032-676-2095","addr":"경기도 부천시 원종동 366-1번지","indutype":"의류 - 정장","category":"other"},{"name":"영진종합공사","tel":"032-679-7799","addr":"경기도 부천시 원종동 366-1번지 1층","indutype":"기타 - 기계공구","category":"other"}]},{"lat":"37.528616864","long":"126.80704064","imageIndex":17,"items":[{"name":"대경유통","tel":"032-676-4457","addr":"경기도 부천시 원종동 241-16번지 지하1층","indutype":"주방용구 - 주방용구","category":"other"}]},{"lat":"37.524869","long":"126.80182405","imageIndex":17,"items":[{"name":"대룡상사","tel":"032-679-2346","addr":"경기도 부천시 원종동 209-7번지 중앙하이츠빌라 지층 102호","indutype":"서적문구 - 문구용품","category":"other"}]},{"lat":"37.524173057","long":"126.80587576","imageIndex":17,"items":[{"name":"대몰리션(음악)노래","tel":"032-000-0000","addr":"경기도 부천시 원종동 276-7번지 털보빌딩 2층","indutype":"용역 서비스 - 종합용역","category":"other"}]},{"lat":"37.527315086","long":"126.80443076","imageIndex":17,"items":[{"name":"대성상사","tel":"032-672-6676","addr":"경기도 부천시 원종동 230-2번지","indutype":"건축자재 - 보일러·펌프·샷시","category":"other"},{"name":"부천블루드래곤","tel":"070-7302-6016","addr":"경기도 부천시 원종동 230-2번지 302호","indutype":"회원제형태 - 레져업소","category":"other"},{"name":"유진타이루","tel":"032-657-5138","addr":"경기도 부천시 원종동 230-2번지","indutype":"건축자재 - 건축용 요업제품","category":"other"}]},{"lat":"37.529424658","long":"126.80518316","imageIndex":17,"items":[{"name":"대성샤시부속","tel":"032-682-3275","addr":"경기도 부천시 원종동 174번지","indutype":"건축자재 - 기타건축자재","category":"other"},{"name":"백리음향","tel":"032-674-1010","addr":"경기도 부천시 원종동 174번지 1층 8호","indutype":"전기제품 - 가전제품","category":"other"}]},{"lat":"37.524755207","long":"126.80379273","imageIndex":17,"items":[{"name":"대성설비","tel":"032-675-8804","addr":"경기도 부천시 원종동 221-2번지 대진주택","indutype":"건축자재 - 인테리어전문","category":"other"}]},{"lat":"37.52509147","long":"126.81098663","imageIndex":17,"items":[{"name":"대성합판상사","tel":"032-671-2078","addr":"경기도 부천시 원종동 341-16번지","indutype":"건축자재 - 목재·석재·철물","category":"other"}]},{"lat":"37.517873852","long":"126.80510052","imageIndex":17,"items":[{"name":"대승네트윅스","tel":"032-683-7788","addr":"경기도 부천시 원종동 371-2번지 성진프라자 1층 107호","indutype":"사무통신 - 통신기기","category":"other"},{"name":"마운티아","tel":"032-683-4881","addr":"경기도 부천시 원종동 371-2번지 성진프라자 110호","indutype":"레져용품 - 스포츠·레져용품","category":"other"},{"name":"한국도자기 작동점","tel":"032-681-4123","addr":"경기도 부천시 원종동 371-2번지 성진프라자 106호","indutype":"주방용구 - 주방용식기","category":"other"}]},{"lat":"37.525729547","long":"126.80998948","imageIndex":17,"items":[{"name":"대영엘리베이터(주)","tel":"032-653-0375","addr":"경기도 부천시 원종동 295-2번지 공항주택 10동 101호","indutype":"용역 서비스 - 기타용역서비스","category":"other"}]},{"lat":"37.524452365","long":"126.80054686","imageIndex":17,"items":[{"name":"대우E.N.G","tel":"032-681-1212","addr":"경기도 부천시 원종동 206-2 장미B3동지층1호","indutype":"건축자재 - 보일러·펌프·샷시","category":"other"}]},{"lat":"37.523727601","long":"126.79824109","imageIndex":17,"items":[{"name":"대운이엔지 (주)","tel":"032-684-8467","addr":"경기도 부천시 원종동 150-2번지","indutype":"용역 서비스 - 기타용역서비스","category":"other"},{"name":"프로펫애견미용실","tel":"032-676-0997","addr":"경기도 부천시 원종동 150-2번지","indutype":"문화.취미 - 애완동물","category":"other"}]},{"lat":"37.518734738","long":"126.80268888","imageIndex":17,"items":[{"name":"대일페인트","tel":"032-675-1287","addr":"경기도 부천시 원종동 379-10번지","indutype":"건축자재 - 페인트","category":"other"}]},{"lat":"37.51853393","long":"126.80651273","imageIndex":17,"items":[{"name":"대한&크린","tel":"032-681-9904","addr":"경기도 부천시 원종동 366-9번지","indutype":"수리서비스 - 세탁소","category":"other"}]},{"lat":"37.517116132","long":"126.81001165","imageIndex":17,"items":[{"name":"대한불교천의종약사선원","tel":"032-673-8093","addr":"경기도 부천시 원종동 350-6번지 초록빌라","indutype":"기타 - 기타 전문점","category":"other"}]},{"lat":"37.528118666","long":"126.810911","imageIndex":17,"items":[{"name":"대한유통(냄비야놀자)","tel":"02-428-4600","addr":"경기도 부천시 원종동 338-7번지 1층","indutype":"주방용구 - 주방용구","category":"other"},{"name":"향기샵","tel":"070-7377-9787","addr":"경기도 부천시 원종동 338-7번지","indutype":"의류 - 정장","category":"other"}]},{"lat":"37.522561671","long":"126.80135513","imageIndex":17,"items":[{"name":"더마켓메이븐","tel":"070-7518-4205","addr":"경기도 부천시 원종동 214-2번지","indutype":"의류 - 정장","category":"other"}]},{"lat":"37.5258116","long":"126.80512482","imageIndex":17,"items":[{"name":"더플러스디씨 (D.C)마트","tel":"032-676-8086","addr":"경기도 부천시 원종동 233-24번지 지층 101호","indutype":"신변잡화 - 기타잡화","category":"other"}]},{"lat":"37.532508022","long":"126.80637427","imageIndex":17,"items":[{"name":"데오스성경","tel":"032-777-0381","addr":"경기도 부천시 원종동 186-3번지 4층","indutype":"서적문구 - 출판 및 인쇄물","category":"other"}]},{"lat":"37.525703974","long":"126.81088325","imageIndex":17,"items":[{"name":"도배 바꿈","tel":"070-7319-1323","addr":"경기도 부천시 원종동 340-31번지 부원주택 10동 1층 1호","indutype":"건축자재 - 인테리어전문","category":"other"}]},{"lat":"37.52812977","long":"126.80670252","imageIndex":17,"items":[{"name":"도영냉동","tel":"02-1588-3366","addr":"경기도 부천시 원종동 253-11번지 대하그린타운 2동 402호","indutype":"용역 서비스 - 기타용역서비스","category":"other"}]},{"lat":"37.527845415","long":"126.80910162","imageIndex":17,"items":[{"name":"동양나토얀","tel":"031-683-2611","addr":"경기도 부천시 원종동 298번지 공항주택 4동 101호","indutype":"주방용구 - 주방용식기","category":"other"},{"name":"옷 사는 날","tel":"","addr":"경기도 부천시 원종동 298번지 4동 1층","indutype":"의류 - 정장","category":"other"},{"name":"인옥이네","tel":"032-614-7111","addr":"경기도 부천시 원종동 298번지 4동","indutype":"의류 - 정장","category":"other"}]},{"lat":"37.527368593","long":"126.80410255","imageIndex":17,"items":[{"name":"동영","tel":"032-678-2737","addr":"경기도 부천시 원종동 230-13번지 3층","indutype":"의류 - 정장","category":"other"}]},{"lat":"37.520400357","long":"126.80734491","imageIndex":17,"items":[{"name":"두나공조","tel":"032-505-3725","addr":"경기도 부천시 원종동 362-29번지 녹십초골든빌","indutype":"용역 서비스 - 기타용역서비스","category":"other"}]},{"lat":"37.525121275","long":"126.80182337","imageIndex":17,"items":[{"name":"드밍","tel":"031-000-0000","addr":"경기도 부천시 원종동 209-4번지 1층 3호","indutype":"의류 - 정장","category":"other"},{"name":"러블리펫","tel":"032-681-6620","addr":"경기도 부천시 원종동 209-4번지 러블리펫 1층","indutype":"문화.취미 - 애완동물","category":"other"},{"name":"미코 (MIKO)","tel":"032-671-2417","addr":"경기도 부천시 원종동 209-4번지 1층","indutype":"의류 - 정장","category":"other"}]},{"lat":"37.526313775","long":"126.8037094","imageIndex":17,"items":[{"name":"디자인이랑","tel":"032-676-0142","addr":"경기도 부천시 원종동 220-1번지 영도상가 2층 2호","indutype":"용역 서비스 - 종합용역","category":"other"},{"name":"포토갤러리","tel":"032-682-3507","addr":"경기도 부천시 원종동 220-1번지 영도빌딩 108호","indutype":"광학제품 - 사진관","category":"other"}]},{"lat":"37.524183867","long":"126.80159964","imageIndex":17,"items":[{"name":"따박티비","tel":"","addr":"경기도 부천시 원종동 211-1번지 현대아파트","indutype":"용역 서비스 - 기타용역서비스","category":"other"}]},{"lat":"37.523868195","long":"126.80140817","imageIndex":17,"items":[{"name":"똥강아지","tel":"032-684-0079","addr":"경기도 부천시 원종동 212-15번지","indutype":"문화.취미 - 애완동물","category":"other"}]},{"lat":"37.527810376","long":"126.80971261","imageIndex":17,"items":[{"name":"똥꾸바지","tel":"032-671-3593","addr":"경기도 부천시 원종동 296번지 1층","indutype":"의류 - 정장","category":"other"},{"name":"원종전자","tel":"032-652-7256","addr":"경기도 부천시 원종동 296번지","indutype":"전기제품 - 가전제품","category":"other"},{"name":"유명메이커할인매장","tel":"032-676-3100","addr":"경기도 부천시 원종동 296번지","indutype":"의류 - 정장","category":"other"}]},{"lat":"37.529036213","long":"126.81001491","imageIndex":17,"items":[{"name":"라온엔터테인먼트","tel":"02-6264-2243","addr":"경기도 부천시 원종동 301-7번지 6동 지2호","indutype":"문화.취미 - 티켓","category":"other"}]},{"lat":"37.524173389","long":"126.80073992","imageIndex":17,"items":[{"name":"라이프휘트니스","tel":"032-684-2346","addr":"경기도 부천시 원종동 206-3번지 4층","indutype":"회원제형태 - 레져업소","category":"other"}]},{"lat":"37.526480062","long":"126.8008242","imageIndex":17,"items":[{"name":"라인데코","tel":"032-671-5525","addr":"경기도 부천시 원종동 138-32번지 1층 9호","indutype":"건축자재 - 인테리어전문","category":"other"}]},{"lat":"37.528421133","long":"126.80854579","imageIndex":17,"items":[{"name":"라일락꽃화원","tel":"032-683-5115","addr":"경기도 부천시 원종동 238-3번지 세원렉스빌 101호","indutype":"문화.취미 - 화원","category":"other"},{"name":"시누테일러","tel":"","addr":"경기도 부천시 원종동 238-3번지 세원렉스빌 402호","indutype":"의류 - 정장","category":"other"}]},{"lat":"37.51939475","long":"126.80404452","imageIndex":17,"items":[{"name":"러브미쏘머치","tel":"","addr":"경기도 부천시 원종동 375-21번지 1층","indutype":"의류 - 정장","category":"other"}]},{"lat":"37.532657973","long":"126.80445055","imageIndex":17,"items":[{"name":"럭셔리이벤트","tel":"070-7563-1090","addr":"경기도 부천시 원종동 9-61번지 럭키파크빌 4동 501호","indutype":"회원제형태 - 기타4","category":"other"}]},{"lat":"37.519286632","long":"126.80404481","imageIndex":17,"items":[{"name":"로또부동산중개","tel":"032-678-4989","addr":"경기도 부천시 원종동 375-18번지 1층","indutype":"용역 서비스 - 부동산 중개·임대","category":"other"},{"name":"모여라공방","tel":"070-4024-2927","addr":"경기도 부천시 원종동 375-18번지 1층 일부","indutype":"문화.취미 - 민예·공예품","category":"other"},{"name":"유앤릿","tel":"","addr":"경기도 부천시 원종동 375-18번지 1층","indutype":"문화.취미 - 애완동물","category":"other"},{"name":"컴퓨터천국","tel":"032-676-0586","addr":"경기도 부천시 원종동 375-18번지","indutype":"사무통신 - 컴퓨터","category":"other"}]},{"lat":"37.522982012","long":"126.79953272","imageIndex":17,"items":[{"name":"론콧","tel":"02-2908-2929","addr":"경기도 부천시 원종동 199-43번지 서문빌라 2동 지층 1호","indutype":"문화.취미 - 문화취미기타","category":"other"}]},{"lat":"37.527011873","long":"126.80629819","imageIndex":17,"items":[{"name":"루디아","tel":"070-2541-3658","addr":"경기도 부천시 원종동 274-8번지 1층 호","indutype":"의류 - 정장","category":"other"}]},{"lat":"37.526728742","long":"126.80401374","imageIndex":17,"items":[{"name":"루디아","tel":"070-4253-1184","addr":"경기도 부천시 원종동 230-6번지 외1,대창스페이스 102호","indutype":"의류 - 정장","category":"other"},{"name":"부천조명","tel":"070-4435-8712","addr":"경기도 부천시 원종동 230-6번지 지하1층","indutype":"건축자재 - 조명기구","category":"other"},{"name":"혜미통상","tel":"032-682-6571","addr":"경기도 부천시 원종동 230-6번지 101호","indutype":"신변잡화 - 기타잡화","category":"other"}]},{"lat":"37.531146897","long":"126.80599319","imageIndex":17,"items":[{"name":"루루라라","tel":"","addr":"경기도 부천시 원종동 69-18번지 욱일아파트","indutype":"신변잡화 - 기타잡화","category":"other"}]},{"lat":"37.525594245","long":"126.80445795","imageIndex":17,"items":[{"name":"르하임스터디카페 부천원종점","tel":"032-710-0017","addr":"경기도 부천시 원종동 229-8번지 뉴월드프라자 4층 401호","indutype":"용역 서비스 - 사무서비스","category":"other"},{"name":"우리아이","tel":"032-677-5262","addr":"경기도 부천시 원종동 229-8번지 뉴월드프라자 103호","indutype":"문화.취미 - 애완동물","category":"other"},{"name":"한미","tel":"032-671-6621","addr":"경기도 부천시 원종동 229-8번지 뉴월드프라자 301호","indutype":"수리서비스 - 기타수리서비스","category":"other"}]},{"lat":"37.518750805","long":"126.80689675","imageIndex":17,"items":[{"name":"리키친(RE-KICHEN)","tel":"","addr":"경기도 부천시 원종동 366-6번지 쌍용주택 A동 지층 1호","indutype":"용역 서비스 - 기타용역서비스","category":"other"}]},{"lat":"37.52786946","long":"126.80729148","imageIndex":17,"items":[{"name":"리틀미","tel":"02-1234-1234","addr":"경기도 부천시 원종동 246-7번지","indutype":"의류 - 정장","category":"other"},{"name":"탈무드영재","tel":"032-672-2428","addr":"경기도 부천시 원종동 246-7번지 1층 일부","indutype":"회원제형태 - 서적","category":"other"}]},{"lat":"37.52850972","long":"126.8076292","imageIndex":17,"items":[{"name":"린 아트스튜디오","tel":"032-673-4562","addr":"경기도 부천시 원종동 241-11번지 1층","indutype":"문화.취미 - 문화취미기타","category":"other"}]},{"lat":"37.522838296","long":"126.80509873","imageIndex":17,"items":[{"name":"마이다스쥬얼랜드","tel":"032-683-5110","addr":"경기도 부천시 원종동 280-9번지 토수프라자 107호","indutype":"신변잡화 - 액세서리","category":"other"}]},{"lat":"37.522841998","long":"126.80195392","imageIndex":17,"items":[{"name":"마젤란코리아","tel":"032-684-9695","addr":"경기도 부천시 원종동 213-21번지 1동 지층 02호","indutype":"용역 서비스 - 기타용역서비스","category":"other"}]},{"lat":"37.525116723","long":"126.80445921","imageIndex":17,"items":[{"name":"마코부천원종점","tel":"032-681-3332","addr":"경기도 부천시 원종동 228-7번지","indutype":"의류 - 스포츠의류","category":"other"}]},{"lat":"37.529621363","long":"126.79899429","imageIndex":17,"items":[{"name":"매직","tel":"032-678-3221","addr":"경기도 부천시 원종동 127-8번지 선경맨션 101동 402호","indutype":"회원제형태 - 서적","category":"other"}]},{"lat":"37.518717082","long":"126.80290385","imageIndex":17,"items":[{"name":"매직스토리엔터테인먼트","tel":"02-2636-4228","addr":"경기도 부천시 원종동 379-14번지 협신빌라 가동 2층 202호","indutype":"문화.취미 - 티켓","category":"other"}]},{"lat":"37.52426238","long":"126.81087563","imageIndex":17,"items":[{"name":"맥파이","tel":"02-3398-5888","addr":"경기도 부천시 원종동 341-7번지 성호기업 3층","indutype":"의류 - 정장","category":"other"},{"name":"자전거백화점","tel":"031-491-5865","addr":"경기도 부천시 원종동 341-7번지 성호빌딩 1층 3호","indutype":"레져용품 - 스포츠·레져용품","category":"other"},{"name":"한성조명전시장","tel":"032-679-2190","addr":"경기도 부천시 원종동 341-7번지 성호빌딩 105호","indutype":"건축자재 - 조명기구","category":"other"}]},{"lat":"37.519373141","long":"126.80729104","imageIndex":17,"items":[{"name":"맵시존","tel":"070-7333-4491","addr":"경기도 부천시 원종동 361-14번지 1층","indutype":"의류 - 정장","category":"other"}]},{"lat":"37.527783975","long":"126.81009732","imageIndex":17,"items":[{"name":"명동패션타운","tel":"032-682-7781","addr":"경기도 부천시 원종동 296-2번지 태산 상가 104호","indutype":"의류 - 정장","category":"other"},{"name":"정금당","tel":"032-671-3144","addr":"경기도 부천시 원종동 296-2번지","indutype":"신변잡화 - 시계","category":"other"},{"name":"티는아이","tel":"070-8289-2339","addr":"경기도 부천시 원종동 296-2번지 태산상가 1층 16호","indutype":"의류 - 아동의류","category":"other"}]},{"lat":"37.526479028","long":"126.80554163","imageIndex":17,"items":[{"name":"명문세탁소","tel":"032-673-1566","addr":"경기도 부천시 원종동 233-2번지","indutype":"수리서비스 - 세탁소","category":"other"},{"name":"몽이","tel":"","addr":"경기도 부천시 원종동 233-2번지 1층","indutype":"신변잡화 - 기타잡화","category":"other"}]},{"lat":"37.525007259","long":"126.80907502","imageIndex":17,"items":[{"name":"명실업","tel":"032-677-9551","addr":"경기도 부천시 원종동 293-8한신빌라15/1","indutype":"광학제품 - 사진관","category":"other"}]},{"lat":"37.52412203","long":"126.8023238","imageIndex":17,"items":[{"name":"모니카","tel":"032-672-2368","addr":"경기도 부천시 원종동 211-2번지","indutype":"의류 - 정장","category":"other"},{"name":"원종태선BYC","tel":"032-679-0154","addr":"경기도 부천시 원종동 211-2번지","indutype":"의류 - 내의판매","category":"other"},{"name":"특공무술 부천본관","tel":"032-679-3089","addr":"경기도 부천시 원종동 211-2번지 4층","indutype":"회원제형태 - 레져업소","category":"other"}]},{"lat":"37.52534588","long":"126.80680031","imageIndex":17,"items":[{"name":"모든아이아동복점","tel":"032-677-4991","addr":"경기도 부천시 원종동 268-15번지","indutype":"의류 - 아동의류","category":"other"}]},{"lat":"37.528094987","long":"126.80746059","imageIndex":17,"items":[{"name":"모란가죽공방카페","tel":"","addr":"경기도 부천시 원종동 246-2번지 1층","indutype":"문화.취미 - 문화취미기타","category":"other"},{"name":"엣지걸","tel":"","addr":"경기도 부천시 원종동 246-2번지","indutype":"의류 - 정장","category":"other"}]},{"lat":"37.519696501","long":"126.80669067","imageIndex":17,"items":[{"name":"모짜","tel":"032-677-9246","addr":"경기도 부천시 원종동 366번지 이루미아 2동 202호","indutype":"용역 서비스 - 사무서비스","category":"other"}]},{"lat":"37.527810684","long":"126.80446339","imageIndex":17,"items":[{"name":"몽피크 부천점","tel":"032-671-1415","addr":"경기도 부천시 원종동 230-1번지","indutype":"의류 - 스포츠의류","category":"other"},{"name":"종합씽크","tel":"032-679-3024","addr":"경기도 부천시 원종동 230-1번지","indutype":"주방용구 - 주방용구","category":"other"}]},{"lat":"37.51956548","long":"126.80377258","imageIndex":17,"items":[{"name":"무지개패션","tel":"032-671-5038","addr":"경기도 부천시 원종동 382-6번지 1층 쪽가게","indutype":"수리서비스 - 기타수리서비스","category":"other"}]},{"lat":"37.525006833","long":"126.80340743","imageIndex":17,"items":[{"name":"미니스톱부천욱일점","tel":"032-675-5301","addr":"경기도 부천시 원종동 221번지","indutype":"유통업 영리 - 편 의 점","category":"other"}]},{"lat":"37.523813034","long":"126.80076352","imageIndex":17,"items":[{"name":"미니스톱원종스타점","tel":"031-1577-9621","addr":"경기도 부천시 원종동 200-1번지 1층 103호","indutype":"유통업 영리 - 편 의 점","category":"other"},{"name":"크린토피아원종2점","tel":"032-678-7797","addr":"경기도 부천시 원종동 200-1번지 오성파크아파트","indutype":"수리서비스 - 세탁소","category":"other"}]},{"lat":"37.527620354","long":"126.80921533","imageIndex":17,"items":[{"name":"미니치치","tel":"070-7397-5345","addr":"경기도 부천시 원종동 298-1번지 공항연립 1동 101호","indutype":"의류 - 아동의류","category":"other"},{"name":"에어컨보일러","tel":"","addr":"경기도 부천시 원종동 298-1번지 공항연립 1층 102호","indutype":"용역 서비스 - 기타용역서비스","category":"other"},{"name":"우리애견","tel":"032-673-8803","addr":"경기도 부천시 원종동 298-1번지 공항연립 101호","indutype":"문화.취미 - 애완동물","category":"other"},{"name":"원종열쇠","tel":"032-682-1313","addr":"경기도 부천시 원종동 298-1번지 공항연립 1동 101호 일부공항연립","indutype":"수리서비스 - 신변잡화수리","category":"other"},{"name":"정훈맘만능","tel":"032-678-5840","addr":"경기도 부천시 원종동 298-1번지 공항연립 1층","indutype":"신변잡화 - 액세서리","category":"other"}]},{"lat":"37.518838662","long":"126.80555044","imageIndex":17,"items":[{"name":"미래BYC 신사숙녀복토탈할인매장","tel":"","addr":"경기도 부천시 원종동 372-8번지 1층 1칸","indutype":"의류 - 정장","category":"other"}]},{"lat":"37.519979933","long":"126.80377148","imageIndex":17,"items":[{"name":"미래종합장식","tel":"032-678-1336","addr":"경기도 부천시 원종동 383-11번지","indutype":"직물 - 카페트,커튼,천막,지물","category":"other"}]},{"lat":"37.527534481","long":"126.80631944","imageIndex":17,"items":[{"name":"미래컴퓨터","tel":"032-677-7298","addr":"경기도 부천시 원종동 265-3번지 진성빌딩","indutype":"사무통신 - 컴퓨터","category":"other"},{"name":"반도전기통신공사","tel":"032-678-3456","addr":"경기도 부천시 원종동 265-3번지","indutype":"사무통신 - 컴퓨터","category":"other"},{"name":"클라라","tel":"032-566-2717","addr":"경기도 부천시 원종동 265-3번지 가동 1층","indutype":"의류 - 정장","category":"other"},{"name":"태산미싱","tel":"032-677-6434","addr":"경기도 부천시 원종동 265-3번지 1층","indutype":"기타 - 기계공구","category":"other"}]},{"lat":"37.522235242","long":"126.80546231","imageIndex":17,"items":[{"name":"미센스","tel":"02-2067-8370","addr":"경기도 부천시 원종동 281-2번지 101호","indutype":"의류 - 정장","category":"other"}]},{"lat":"37.5179786","long":"126.80309811","imageIndex":17,"items":[{"name":"미소씽크","tel":"032-678-8406","addr":"경기도 부천시 원종동 378-5번지","indutype":"주방용구 - 주방용구","category":"other"}]},{"lat":"37.523395443","long":"126.80965612","imageIndex":17,"items":[{"name":"민(Min)","tel":"031-000-0000","addr":"경기도 부천시 원종동 291-4번지 라비앙하우스 201호","indutype":"용역 서비스 - 기타용역서비스","category":"other"}]},{"lat":"37.525373513","long":"126.80180007","imageIndex":17,"items":[{"name":"민영인테리어","tel":"032-676-2231","addr":"경기도 부천시 원종동 208-18번지 1층","indutype":"건축자재 - 인테리어전문","category":"other"},{"name":"성산장식","tel":"032-684-0216","addr":"경기도 부천시 원종동 208-18번지","indutype":"직물 - 카페트,커튼,천막,지물","category":"other"}]},{"lat":"37.524923809","long":"126.80226509","imageIndex":17,"items":[{"name":"바로코애드","tel":"032-671-5430","addr":"경기도 부천시 원종동 209-5 1층4호","indutype":"용역 서비스 - 종합용역","category":"other"},{"name":"샬롬신발","tel":"032-682-8476","addr":"경기도 부천시 원종동 209-5번지","indutype":"신변잡화 - 신발","category":"other"},{"name":"정보석","tel":"032-675-6752","addr":"경기도 부천시 원종동 209-5번지 1층 23호","indutype":"신변잡화 - 시계","category":"other"},{"name":"한국전자유통","tel":"032-671-2073","addr":"경기도 부천시 원종동 209-5번지 중앙시장상가 212호","indutype":"전기제품 - 가전제품","category":"other"}]},{"lat":"37.517924292","long":"126.80834679","imageIndex":17,"items":[{"name":"바미플라워","tel":"031-0000-0000","addr":"경기도 부천시 원종동 359-32번지","indutype":"문화.취미 - 화원","category":"other"}]},{"lat":"37.517259846","long":"126.80973981","imageIndex":17,"items":[{"name":"바스키아이엔지","tel":"02-6053-1405","addr":"경기도 부천시 원종동 350-12번지 호수빌라 303호","indutype":"전기제품 - 냉열기기","category":"other"}]},{"lat":"37.531922571","long":"126.80648895","imageIndex":17,"items":[{"name":"반딧불이","tel":"032-671-6796","addr":"경기도 부천시 원종동 186-23번지 성진그린타운 8동 301호","indutype":"용역 서비스 - 종합용역","category":"other"}]},{"lat":"37.520476597","long":"126.80443756","imageIndex":17,"items":[{"name":"반석종합가구매장","tel":"032-677-0078","addr":"경기도 부천시 원종동 374-1번지","indutype":"가구 - 일반가구","category":"other"},{"name":"부천가구공단","tel":"032-674-3384","addr":"경기도 부천시 원종동 374-1번지","indutype":"가구 - 일반가구","category":"other"}]},{"lat":"37.523843856","long":"126.80299197","imageIndex":17,"items":[{"name":"발만","tel":"032-678-9831","addr":"경기도 부천시 원종동 217-1번지 1층","indutype":"신변잡화 - 신발","category":"other"}]},{"lat":"37.517457994","long":"126.80426457","imageIndex":17,"items":[{"name":"백금당","tel":"032-672-2102","addr":"경기도 부천시 원종동 376-7번지","indutype":"신변잡화 - 귀금속","category":"other"},{"name":"영광기획","tel":"032-684-7755","addr":"경기도 부천시 원종동 376-7번지 1층 7","indutype":"용역 서비스 - 종합용역","category":"other"},{"name":"오정MTB","tel":"032-677-8253","addr":"경기도 부천시 원종동 376-7번지 1층","indutype":"레져용품 - 스포츠·레져용품","category":"other"},{"name":"원앙중고가구,씽크","tel":"032-674-5879","addr":"경기도 부천시 원종동 376-7번지 1층","indutype":"가구 - 일반가구","category":"other"},{"name":"원종종합목재","tel":"032-674-9634","addr":"경기도 부천시 원종동 376-7번지","indutype":"건축자재 - 기타건축자재","category":"other"}]},{"lat":"37.5227878541","long":"126.8072708102","imageIndex":17,"items":[{"name":"백마사","tel":"032-684-5181","addr":"경기도 부천시 원종동 285-1번지","indutype":"수리서비스 - 세탁소","category":"other"}]},{"lat":"37.526421187","long":"126.80329054","imageIndex":17,"items":[{"name":"백조세탁소","tel":"032-678-3092","addr":"경기도 부천시 원종동 134-9","indutype":"수리서비스 - 세탁소","category":"other"},{"name":"앙코르","tel":"032-673-0987","addr":"경기도 부천시 원종동 134-9번지 1층","indutype":"의류 - 정장","category":"other"}]},{"lat":"37.525338127","long":"126.80218479","imageIndex":17,"items":[{"name":"백조씽크","tel":"032-675-9677","addr":"경기도 부천시 원종동 208-7번지 1층","indutype":"주방용구 - 주방용구","category":"other"}]},{"lat":"37.527116869","long":"126.80443129","imageIndex":17,"items":[{"name":"법무사양재영사무소","tel":"032-675-8001","addr":"경기도 부천시 원종동 230-3번지","indutype":"용역 서비스 - 법률회계서비스(개인)","category":"other"}]},{"lat":"37.518757989","long":"126.80579951","imageIndex":17,"items":[{"name":"벤쟈민","tel":"032-672-5334","addr":"경기도 부천시 원종동 367-20번지","indutype":"의류 - 정장","category":"other"},{"name":"안데르센원종점","tel":"032-679-3388","addr":"경기도 부천시 원종동 367-20번지","indutype":"의류 - 아동의류","category":"other"}]},{"lat":"37.519265628","long":"126.80228024","imageIndex":17,"items":[{"name":"보경솔루션","tel":"","addr":"경기도 부천시 원종동 388-6번지 효자빌라 나동 1층 2호","indutype":"서적문구 - 기타서적문구","category":"other"}]},{"lat":"37.519593102","long":"126.80955281","imageIndex":17,"items":[{"name":"보나개발","tel":"070-5110-1759","addr":"경기도 부천시 원종동 348-17번지 롯데빌라 나동 2층 1호","indutype":"건축자재 - 기타건축자재","category":"other"}]},{"lat":"37.527399841","long":"126.80662524","imageIndex":17,"items":[{"name":"보물섬문구","tel":"032-672-5350","addr":"경기도 부천시 원종동 250-2번지","indutype":"서적문구 - 문구용품","category":"other"}]},{"lat":"37.522533304","long":"126.8059027","imageIndex":17,"items":[{"name":"보민상사","tel":"031-000-0000","addr":"경기도 부천시 원종동 283-22 제일빌라B 19/4","indutype":"회원제형태 - 기타4","category":"other"}]},{"lat":"37.519679061","long":"126.80167961","imageIndex":17,"items":[{"name":"보안상품연구소","tel":"","addr":"경기도 부천시 원종동 388-13번지 2층","indutype":"전기제품 - 기타전기제품","category":"other"},{"name":"피부하우스","tel":"032-681-9777","addr":"경기도 부천시 원종동 388-13번지 1층","indutype":"회원제형태 - 기타4","category":"other"}]},{"lat":"37.528451256","long":"126.810435","imageIndex":17,"items":[{"name":"복돈이","tel":"070-7699-2367","addr":"경기도 부천시 원종동 338-10번지 101동 401호","indutype":"직물 - 침구·수예점","category":"other"}]},{"lat":"37.53225348","long":"126.8050173","imageIndex":17,"items":[{"name":"부성냉동","tel":"032-433-4354","addr":"경기도 부천시 원종동 468번지 세창짜임아파트","indutype":"용역 서비스 - 기타용역서비스","category":"other"},{"name":"이쁘개","tel":"032-684-4833","addr":"경기도 부천시 원종동 468번지","indutype":"회원제형태 - 기타4","category":"other"}]},{"lat":"37.526201936","long":"126.80151503","imageIndex":17,"items":[{"name":"부자시스템","tel":"032-555-3322","addr":"경기도 부천시 원종동 138-29번지 명진빌라 202호","indutype":"용역 서비스 - 기타용역서비스","category":"other"}]},{"lat":"37.517644856","long":"126.80826833","imageIndex":17,"items":[{"name":"부천공조설비","tel":"","addr":"경기도 부천시 원종동 356-2번지","indutype":"건축자재 - 인테리어전문","category":"other"}]},{"lat":"37.527146512","long":"126.80599239","imageIndex":17,"items":[{"name":"부천도배장판창대인테리어","tel":"032-676-3468","addr":"경기도 부천시 원종동 250-9번지 1층","indutype":"건축자재 - 인테리어전문","category":"other"},{"name":"성실인쇄","tel":"032-673-7537","addr":"경기도 부천시 원종동 250-9번지","indutype":"서적문구 - 출판 및 인쇄물","category":"other"},{"name":"우리금방","tel":"032-682-1519","addr":"경기도 부천시 원종동 250-9번지","indutype":"신변잡화 - 시계","category":"other"}]},{"lat":"37.523761142","long":"126.80740402","imageIndex":17,"items":[{"name":"부천사랑요양원1호","tel":"032-674-1617","addr":"경기도 부천시 원종동 313-13번지 다우로얄팰리스 2층","indutype":"기타의료기관 - 기타의료기관 및 기타","category":"other"}]},{"lat":"37.518565367","long":"126.80376393","imageIndex":17,"items":[{"name":"부천서부라이온스","tel":"032-671-2351","addr":"경기도 부천시 원종동 379-4번지","indutype":"기타 - 비영리/대상","category":"other"}]},{"lat":"37.524174864","long":"126.80696175","imageIndex":17,"items":[{"name":"부천제일요양원4호","tel":"032-674-9800","addr":"경기도 부천시 원종동 276-9번지 건주프라자 601호","indutype":"기타의료기관 - 기타의료기관 및 기타","category":"other"},{"name":"삼성요양원","tel":"032-671-4682","addr":"경기도 부천시 원종동 276-9번지 건주프라자 7층","indutype":"기타의료기관 - 기타의료기관 및 기타","category":"other"},{"name":"삼성요양원2호점","tel":"032-678-4684","addr":"경기도 부천시 원종동 276-9번지 건주프라자 501호","indutype":"기타의료기관 - 기타의료기관 및 기타","category":"other"}]},{"lat":"37.528866786","long":"126.80562585","imageIndex":17,"items":[{"name":"부천하수구변기막힘수도설비","tel":"","addr":"경기도 부천시 원종동 262-3번지 해주아파트","indutype":"용역 서비스 - 종합용역","category":"other"},{"name":"에스에스와이","tel":"070-8306-8648","addr":"경기도 부천시 원종동 262-3번지 해주아파트","indutype":"용역 서비스 - 종합용역","category":"other"}]},{"lat":"37.529650375","long":"126.8109297","imageIndex":17,"items":[{"name":"뷰티가이드","tel":"070-2699-0807","addr":"경기도 부천시 원종동 337번지 주영빌라트 303호","indutype":"의류 - 내의판매","category":"other"}]},{"lat":"37.527336885","long":"126.80669329","imageIndex":17,"items":[{"name":"블루밍돌(Bloomingdoll)","tel":"","addr":"경기도 부천시 원종동 250-5번지 신원빌라 1동 2층 202호","indutype":"서적문구 - 완구점","category":"other"}]},{"lat":"37.525366059","long":"126.80271641","imageIndex":17,"items":[{"name":"비기닝(Beginning)","tel":"070-4159-0280","addr":"경기도 부천시 원종동 219-14번지 1층","indutype":"의류 - 정장","category":"other"},{"name":"우광통신(원종)","tel":"032-677-8011","addr":"경기도 부천시 원종동 219-14번지","indutype":"사무통신 - 통신기기","category":"other"}]},{"lat":"37.525366519","long":"126.80298791","imageIndex":17,"items":[{"name":"비누홀릭","tel":"070-4157-0488","addr":"경기도 부천시 원종동 219-2번지","indutype":"신변잡화 - 기타잡화","category":"other"},{"name":"아이엔","tel":"","addr":"경기도 부천시 원종동 219-2번지 대풍빌딩 1층","indutype":"의류 - 정장","category":"other"}]},{"lat":"37.52524649","long":"126.80663089","imageIndex":17,"items":[{"name":"비제이 컴퍼니","tel":"032-724-0028","addr":"경기도 부천시 원종동 275-3번지 금풍센트레빌 라동 402호","indutype":"의류 - 정장","category":"other"},{"name":"씨케이 컴퍼니","tel":"070-1111-1111","addr":"경기도 부천시 원종동 275-3번지 금풍센트레빌 라동 402호","indutype":"의류 - 정장","category":"other"}]},{"lat":"37.524285109","long":"126.80285505","imageIndex":17,"items":[{"name":"빌게이트 (BILLGATE)","tel":"","addr":"경기도 부천시 원종동 218-6번지 중앙아파트","indutype":"레져용품 - 스포츠·레져용품","category":"other"}]},{"lat":"37.519120265","long":"126.80692972","imageIndex":17,"items":[{"name":"빌리지현수막","tel":"070-7311-0319","addr":"경기도 부천시 원종동 366-3번지 삼신아파트","indutype":"용역 서비스 - 종합용역","category":"other"}]},{"lat":"37.527118216","long":"126.8052345","imageIndex":17,"items":[{"name":"빠리","tel":"032-673-1012","addr":"경기도 부천시 원종동 231-9번지 1층","indutype":"의류 - 정장","category":"other"}]},{"lat":"37.528670688","long":"126.80154233","imageIndex":17,"items":[{"name":"삼성에어컨","tel":"02-1577-3921","addr":"경기도 부천시 원종동 129-19번지 주공아파트","indutype":"회원제형태 - 기타4","category":"other"},{"name":"이쁘개-부천점","tel":"031-1644-4833","addr":"경기도 부천시 원종동 129-19번지 주공아파트","indutype":"문화.취미 - 애완동물","category":"other"},{"name":"티비제이(TVJ)","tel":"070-7824-3323","addr":"경기도 부천시 원종동 129-19번지 주공아파트","indutype":"용역 서비스 - 기타용역서비스","category":"other"}]},{"lat":"37.517316262","long":"126.80571281","imageIndex":17,"items":[{"name":"삼성종합장식","tel":"032-673-5506","addr":"경기도 부천시 원종동 371-29번지","indutype":"직물 - 카페트,커튼,천막,지물","category":"other"}]},{"lat":"37.519644771","long":"126.80270907","imageIndex":17,"items":[{"name":"삼영지물포","tel":"032-505-0977","addr":"경기도 부천시 원종동 382번지 1층","indutype":"직물 - 카페트,커튼,천막,지물","category":"other"}]},{"lat":"37.528090027","long":"126.80448528","imageIndex":17,"items":[{"name":"삼원화원","tel":"032-673-1622","addr":"경기도 부천시 원종동 154-4번지","indutype":"문화.취미 - 화원","category":"other"},{"name":"열쇠마을","tel":"032-681-3333","addr":"경기도 부천시 원종동 154-4번지 새벽별교회 1층 2호","indutype":"기타 - 기계공구","category":"other"}]},{"lat":"37.525368999","long":"126.80445854","imageIndex":17,"items":[{"name":"삼천리자전거 원종대리점","tel":"032-673-8044","addr":"경기도 부천시 원종동 229-9번지","indutype":"레져용품 - 스포츠·레져용품","category":"other"},{"name":"한나여행사","tel":"032-681-4996","addr":"경기도 부천시 원종동 229-9번지 303호","indutype":"여행 - 관광여행","category":"other"}]},{"lat":"37.525869726","long":"126.80756821","imageIndex":17,"items":[{"name":"삼화위생용역","tel":"032-676-8375","addr":"경기도 부천시 원종동 269-1번지 동화아파트","indutype":"용역 서비스 - 기타용역서비스","category":"other"}]},{"lat":"37.526920246","long":"126.80538209","imageIndex":17,"items":[{"name":"새론침구","tel":"032-681-3577","addr":"경기도 부천시 원종동 232-2번지 1층","indutype":"직물 - 침구·수예점","category":"other"},{"name":"엔비","tel":"032-678-6769","addr":"경기도 부천시 원종동 232-2번지","indutype":"의류 - 정장","category":"other"}]},{"lat":"37.528287268","long":"126.80932674","imageIndex":17,"items":[{"name":"샤론빈티지","tel":"032-671-8291","addr":"경기도 부천시 원종동 299-1번지 동양연립 1층","indutype":"의류 - 정장","category":"other"}]},{"lat":"37.526303082","long":"126.80271391","imageIndex":17,"items":[{"name":"샤본통상","tel":"032-675-3802","addr":"경기도 부천시 원종동 135-2번지 한아름6차아파트","indutype":"회원제형태 - 기타4","category":"other"}]},{"lat":"37.527865801","long":"126.81054963","imageIndex":17,"items":[{"name":"샤인","tel":"032-678-5239","addr":"경기도 부천시 원종동 339제1층101호","indutype":"의류 - 정장","category":"other"},{"name":"용산 텔레콤","tel":"032-1577-0000","addr":"경기도 부천시 원종동 339번지 대림베스트타운 1동 101호","indutype":"사무통신 - 통신기기","category":"other"},{"name":"프리티","tel":"032-0-0000","addr":"경기도 부천시 원종동 339번지109호","indutype":"가구 - 철제가구","category":"other"}]},{"lat":"37.521983203","long":"126.80028203","imageIndex":17,"items":[{"name":"서빈정보통신","tel":"032-612-7485","addr":"경기도 부천시 원종동 198-3번지 부영주택","indutype":"회원제형태 - 기타1","category":"other"}]},{"lat":"37.529755885","long":"126.7986319","imageIndex":17,"items":[{"name":"서원실버케어","tel":"032-232-3799","addr":"경기도 부천시 원종동 127-6번지 하나아크로빌 110동 202호","indutype":"신변잡화 - 기타잡화","category":"other"}]},{"lat":"37.525482209","long":"126.80751265","imageIndex":17,"items":[{"name":"서현정보통신","tel":"","addr":"경기도 부천시 원종동 269-2번지 태양아파트","indutype":"사무통신 - 컴퓨터","category":"other"}]},{"lat":"37.527814764","long":"126.80690698","imageIndex":17,"items":[{"name":"선경유통","tel":"031-000-0000","addr":"경기도 부천시 원종동 252-7번지 1층일부","indutype":"수리서비스 - 기타수리서비스","category":"other"}]},{"lat":"37.518374574","long":"126.80282558","imageIndex":17,"items":[{"name":"선미네속옷의류할인매장","tel":"032-682-9161","addr":"경기도 부천시 원종동 378번지 1층","indutype":"의류 - 내의판매","category":"other"}]},{"lat":"37.519593062","long":"126.80410055","imageIndex":17,"items":[{"name":"선미숙녀복","tel":"032-674-8590","addr":"경기도 부천시 원종동 375번지","indutype":"의류 - 정장","category":"other"},{"name":"씨유부천원종점","tel":"032-671-4507","addr":"경기도 부천시 원종동 375번지 1층","indutype":"유통업 영리 - 편 의 점","category":"other"}]},{"lat":"37.525705216","long":"126.80082629","imageIndex":17,"items":[{"name":"선인테크","tel":"032-681-1780","addr":"경기도 부천시 원종동 140-15번지 대상하이츠","indutype":"전기제품 - 기타전기제품","category":"other"}]},{"lat":"37.522371556","long":"126.80082397","imageIndex":17,"items":[{"name":"선진건설주식회사","tel":"032-000-0000","addr":"경기도 부천시 원종동 214-23번지","indutype":"용역 서비스 - 기타용역서비스","category":"other"}]},{"lat":"37.528757628","long":"126.81045684","imageIndex":17,"items":[{"name":"선호공조","tel":"032-000-0000","addr":"경기도 부천시 원종동 338번지 굿모닝맨션 102동 203호","indutype":"용역 서비스 - 기타용역서비스","category":"other"}]},{"lat":"37.521112528","long":"126.80758061","imageIndex":17,"items":[{"name":"성원","tel":"","addr":"경기도 부천시 원종동 363-2번지 우성빌라 6동 101호","indutype":"용역 서비스 - 종합용역","category":"other"}]},{"lat":"37.524732618","long":"126.80110041","imageIndex":17,"items":[{"name":"성호홈로하스","tel":"032-672-3944","addr":"경기도 부천시 원종동 209-19번지 1층 4호","indutype":"전기제품 - 가전제품","category":"other"}]},{"lat":"37.517257116","long":"126.80807704","imageIndex":17,"items":[{"name":"세명크린","tel":"032-678-3434","addr":"경기도 부천시 원종동 356-19번지","indutype":"용역 서비스 - 종합용역","category":"other"}]},{"lat":"37.526004663","long":"126.80206988","imageIndex":17,"items":[{"name":"세븐일레븐부천원종으뜸점","tel":"031-1577-0711","addr":"경기도 부천시 원종동 135-11번지","indutype":"유통업 영리 - 편 의 점","category":"other"},{"name":"시대광고","tel":"032-678-3030","addr":"경기도 부천시 원종동 135-11번지","indutype":"용역 서비스 - 종합용역","category":"other"},{"name":"오형제인테리어유리","tel":"032-676-2725","addr":"경기도 부천시 원종동 135-11번지","indutype":"건축자재 - 인테리어전문","category":"other"}]},{"lat":"37.524176006","long":"126.80765181","imageIndex":17,"items":[{"name":"세븐일레븐부천원종중앙점","tel":"031-1577-0711","addr":"경기도 부천시 원종동 272-10번지 한울아파트","indutype":"유통업 영리 - 편 의 점","category":"other"}]},{"lat":"37.527172654","long":"126.80546061","imageIndex":17,"items":[{"name":"세신광고","tel":"032-678-5270","addr":"경기도 부천시 원종동 231-7번지 1층","indutype":"용역 서비스 - 종합용역","category":"other"}]},{"lat":"37.522784937","long":"126.80551742","imageIndex":17,"items":[{"name":"세신인테리어","tel":"032-672-6793","addr":"경기도 부천시 원종동 280-17번지 1층","indutype":"직물 - 카페트,커튼,천막,지물","category":"other"}]},{"lat":"37.525589325","long":"126.80155061","imageIndex":17,"items":[{"name":"세종열쇠","tel":"032-679-1304","addr":"경기도 부천시 원종동 208-14번지","indutype":"기타 - 기계공구","category":"other"}]},{"lat":"37.523061204","long":"126.80370673","imageIndex":17,"items":[{"name":"센스","tel":"070-7552-4916","addr":"경기도 부천시 원종동 222-5번지 302호","indutype":"회원제형태 - 기타4","category":"other"}]},{"lat":"37.518593672","long":"126.80452173","imageIndex":17,"items":[{"name":"소망인테리어","tel":"032-672-0014","addr":"경기도 부천시 원종동 375-8번지 성산빌딩 103호","indutype":"직물 - 카페트,커튼,천막,지물","category":"other"}]},{"lat":"37.518536962","long":"126.8083452","imageIndex":17,"items":[{"name":"솔잎재가복지센터","tel":"070-4024-9658","addr":"경기도 부천시 원종동 360-7번지 신명라루채 101호","indutype":"기타의료기관 - 기타의료기관 및 기타","category":"other"}]},{"lat":"37.534201134","long":"126.80592859","imageIndex":17,"items":[{"name":"수인엘이디 주식회사","tel":"02-684-7451","addr":"경기도 부천시 원종동 9-96번지","indutype":"건축자재 - 조명기구","category":"other"},{"name":"주식회사 수인라이팅","tel":"032-684-7451","addr":"경기도 부천시 원종동 9-96번지","indutype":"건축자재 - 조명기구","category":"other"}]},{"lat":"37.52420532","long":"126.80362451","imageIndex":17,"items":[{"name":"수정텔레콤","tel":"032-679-7010","addr":"경기도 부천시 원종동 221-13번지 1층 일부","indutype":"사무통신 - 통신기기","category":"other"}]},{"lat":"37.530396791","long":"126.80462624","imageIndex":17,"items":[{"name":"수진상사","tel":"070-4755-4787","addr":"경기도 부천시 원종동 168-3번지 태백맨션 A동 201호","indutype":"용역 서비스 - 기타용역서비스","category":"other"}]},{"lat":"37.519366499","long":"126.80332065","imageIndex":17,"items":[{"name":"숙녀복지호","tel":"032-111-1111","addr":"경기도 부천시 원종동 382-16번지","indutype":"의류 - 정장","category":"other"}]},{"lat":"37.529788986","long":"126.80754667","imageIndex":17,"items":[{"name":"슈앤싹스","tel":"032-679-8268","addr":"경기도 부천시 원종동 179-67번지 1층","indutype":"신변잡화 - 신발","category":"other"},{"name":"티에스씨","tel":"031-469-1908","addr":"경기도 부천시 원종동 179-67번지","indutype":"레져용품 - 스포츠·레져용품","category":"other"}]},{"lat":"37.524170557","long":"126.80438253","imageIndex":17,"items":[{"name":"슈즈카페","tel":"032-673-2466","addr":"경기도 부천시 원종동 228-6번지 1층 2호","indutype":"신변잡화 - 신발","category":"other"},{"name":"인디안모드원종점","tel":"032-672-8747","addr":"경기도 부천시 원종동 228-6번지","indutype":"레져용품 - 스포츠·레져용품","category":"other"},{"name":"체이스컬트","tel":"032-671-7668","addr":"경기도 부천시 원종동 228-6번지","indutype":"의류 - 정장","category":"other"}]},{"lat":"37.525506382","long":"126.80579307","imageIndex":17,"items":[{"name":"스위트블랙(SWEETBLACK)","tel":"","addr":"경기도 부천시 원종동 236-19번지 102호","indutype":"의류 - 정장","category":"other"}]},{"lat":"37.52536943","long":"126.8101601","imageIndex":17,"items":[{"name":"스카이","tel":"","addr":"경기도 부천시 원종동 295-6번지 당송빌라 1층 3호","indutype":"사무통신 - 통신기기","category":"other"}]},{"lat":"37.517150319","long":"126.80888043","imageIndex":17,"items":[{"name":"스카이정보통신","tel":"032-203-0888","addr":"경기도 부천시 원종동 351번지 동산빌라 제 2층 3호","indutype":"사무통신 - 통신기기","category":"other"}]},{"lat":"37.528567643","long":"126.80454058","imageIndex":17,"items":[{"name":"시가모아부천원종점","tel":"032-684-9960","addr":"경기도 부천시 원종동 155-1번지 일부","indutype":"기타 - 기타 전문점","category":"other"}]},{"lat":"37.525838385","long":"126.8104304","imageIndex":17,"items":[{"name":"시스템난방","tel":"032-676-4714","addr":"경기도 부천시 원종동 340-22번지 1층","indutype":"용역 서비스 - 기타용역서비스","category":"other"}]},{"lat":"37.525922631","long":"126.80151578","imageIndex":17,"items":[{"name":"시크","tel":"032-675-4197","addr":"경기도 부천시 원종동 138-30번지 상가동 102호","indutype":"의류 - 정장","category":"other"}]},{"lat":"37.532956455","long":"126.8051399","imageIndex":17,"items":[{"name":"시현정보통신","tel":"032-208-0783","addr":"경기도 부천시 원종동 9-80번지 럭키파크빌 1동 202호","indutype":"회원제형태 - 기타1","category":"other"}]},{"lat":"37.525122736","long":"126.80268312","imageIndex":17,"items":[{"name":"신데렐라가되는시간","tel":"032-676-8663","addr":"경기도 부천시 원종동 218번지 만호빌딩 1층 1호","indutype":"신변잡화 - 제화","category":"other"},{"name":"이연희콜렉션","tel":"032-671-2862","addr":"경기도 부천시 원종동 218번지 만호빌딩 1층 2호","indutype":"의류 - 정장","category":"other"}]},{"lat":"37.519872367","long":"126.80409981","imageIndex":17,"items":[{"name":"신앙촌상회","tel":"032-681-0144","addr":"경기도 부천시 원종동 374-5번지 1층","indutype":"신변잡화 - 기타잡화","category":"other"}]},{"lat":"37.523781954","long":"126.79841063","imageIndex":17,"items":[{"name":"신영기업","tel":"032-683-8842","addr":"경기도 부천시 원종동 150-7번지 1층","indutype":"건축자재 - 보일러·펌프·샷시","category":"other"},{"name":"에치티이 주식회사/원격지","tel":"032-683-4097","addr":"경기도 부천시 원종동 150-7번지","indutype":"기타 - 기타 전문점","category":"other"},{"name":"우리친구가게","tel":"","addr":"경기도 부천시 원종동 150-7번지","indutype":"광학제품 - 사진관","category":"other"}]},{"lat":"37.519337918","long":"126.80240447","imageIndex":17,"items":[{"name":"신우타일건재","tel":"02-6959-7320","addr":"경기도 부천시 원종동 388-4번지 및 388-5","indutype":"건축자재 - 기타건축자재","category":"other"}]},{"lat":"37.522151915","long":"126.8041277","imageIndex":17,"items":[{"name":"실버팬","tel":"032-679-7772","addr":"경기도 부천시 원종동 224-8번지 마이하우스 201호","indutype":"주방용구 - 주방용구","category":"other"}]},{"lat":"37.528338533","long":"126.80762965","imageIndex":17,"items":[{"name":"싸다구캠핑","tel":"070-7629-8727","addr":"경기도 부천시 원종동 238-32번지 예건파이온빌 1동 102호","indutype":"레져용품 - 스포츠·레져용품","category":"other"}]},{"lat":"37.522618628","long":"126.80845903","imageIndex":17,"items":[{"name":"쌍용엘텍","tel":"032-683-7175","addr":"경기도 부천시 원종동 325-1번지","indutype":"신변잡화 - 기타잡화","category":"other"}]},{"lat":"37.527371569","long":"126.80587867","imageIndex":17,"items":[{"name":"쓰리엑스라지(3XL)","tel":"","addr":"경기도 부천시 원종동 266-1번지 프라임영재사관학원 1층 1호","indutype":"의류 - 정장","category":"other"},{"name":"원강트레이드","tel":"032-674-3399","addr":"경기도 부천시 원종동 266-1번지","indutype":"의류 - 정장","category":"other"},{"name":"펫 스토리","tel":"032-677-5667","addr":"경기도 부천시 원종동 266-1번지 프라임영재사관학원 1층 2호","indutype":"문화.취미 - 애완동물","category":"other"}]},{"lat":"37.524174394","long":"126.80667894","imageIndex":17,"items":[{"name":"씨엘이디채널","tel":"032-675-7772","addr":"경기도 부천시 원종동 276-3번지 상도빌딩 703호","indutype":"용역 서비스 - 종합용역","category":"other"},{"name":"해피갤러리","tel":"032-672-8907","addr":"경기도 부천시 원종동 276-3번지 상도빌딩","indutype":"주방용구 - 주방용구","category":"other"}]},{"lat":"37.517341157","long":"126.80987534","imageIndex":17,"items":[{"name":"씨원(Cone)공조","tel":"","addr":"경기도 부천시 원종동 350-3번지","indutype":"용역 서비스 - 기타용역서비스","category":"other"}]},{"lat":"37.525151194","long":"126.8089389","imageIndex":17,"items":[{"name":"씨유부천앵무점","tel":"032-684-2236","addr":"경기도 부천시 원종동 293번지","indutype":"유통업 영리 - 편 의 점","category":"other"}]},{"lat":"37.522757739","long":"126.80009894","imageIndex":17,"items":[{"name":"씨유원종그린점","tel":"070-4231-2109","addr":"경기도 부천시 원종동 199-4번지","indutype":"유통업 영리 - 편 의 점","category":"other"},{"name":"프리모 콜렉션","tel":"","addr":"경기도 부천시 원종동 199-4번지 지층","indutype":"신변잡화 - 가방","category":"other"}]},{"lat":"37.526422465","long":"126.80404849","imageIndex":17,"items":[{"name":"씨유원종사랑점","tel":"032-671-1337","addr":"경기도 부천시 원종동 229번지 성진그린타운 1층 101호","indutype":"유통업 영리 - 편 의 점","category":"other"}]},{"lat":"37.520624304","long":"126.80121328","imageIndex":17,"items":[{"name":"씨유원종성오로점","tel":"080-080-3663","addr":"경기도 부천시 원종동 385-13번지 1층 101호","indutype":"유통업 영리 - 편 의 점","category":"other"}]},{"lat":"37.529090678","long":"126.81026366","imageIndex":17,"items":[{"name":"씨유원종진주점","tel":"031-898-6869","addr":"경기도 부천시 원종동 301-6번지","indutype":"유통업 영리 - 편 의 점","category":"other"}]},{"lat":"37.52667766","long":"126.80578999","imageIndex":17,"items":[{"name":"씨유원종행복점","tel":"080-080-3663","addr":"경기도 부천시 원종동 273-2번지 엘리시아 1층 101호","indutype":"유통업 영리 - 편 의 점","category":"other"}]},{"lat":"37.524702271","long":"126.80446031","imageIndex":17,"items":[{"name":"아날도바시니","tel":"032-677-1147","addr":"경기도 부천시 원종동 228-8번지","indutype":"의류 - 스포츠의류","category":"other"},{"name":"올포유 부천원종점","tel":"032-676-6499","addr":"경기도 부천시 원종동 228-8번지 현대빌딩","indutype":"의류 - 스포츠의류","category":"other"},{"name":"피자헛원종점","tel":"032-678-5555","addr":"경기도 부천시 원종동 228-8번지","indutype":"유통업 영리 - 인터넷 Mall","category":"other"}]},{"lat":"37.519983744","long":"126.80604514","imageIndex":17,"items":[{"name":"아방데코","tel":"032-677-7830","addr":"경기도 부천시 원종동 365-15번지 1층","indutype":"직물 - 침구·수예점","category":"other"}]},{"lat":"37.525816551","long":"126.80271521","imageIndex":17,"items":[{"name":"아울렛홈마트","tel":"031-671-6956","addr":"경기도 부천시 원종동 219-5번지","indutype":"신변잡화 - 기타잡화","category":"other"}]},{"lat":"37.525343089","long":"126.80512606","imageIndex":17,"items":[{"name":"아이더부천원종","tel":"032-677-7323","addr":"경기도 부천시 원종동 233-10번지 1층","indutype":"레져용품 - 스포츠·레져용품","category":"other"}]},{"lat":"37.519204551","long":"126.80345682","imageIndex":17,"items":[{"name":"아이트랩코리아","tel":"","addr":"경기도 부천시 원종동 382-14번지 하나홈타운 101호","indutype":"용역 서비스 - 종합용역","category":"other"}]},{"lat":"37.517592804","long":"126.8094901","imageIndex":17,"items":[{"name":"아티자인 컴퍼니","tel":"02-6398-0451","addr":"경기도 부천시 원종동 349-7번지 꿈에그린 1층 101호","indutype":"건축자재 - 인테리어전문","category":"other"}]},{"lat":"37.523373025","long":"126.80698647","imageIndex":17,"items":[{"name":"애드앤유","tel":"070-8234-2135","addr":"경기도 부천시 원종동 308-6번지 성은맨션 나동 202호","indutype":"용역 서비스 - 종합용역","category":"other"}]},{"lat":"37.527900402","long":"126.80423689","imageIndex":17,"items":[{"name":"어울림","tel":"032-675-9953","addr":"경기도 부천시 원종동 230-18번지 삼성그린빌라 다동 101호","indutype":"의류 - 정장","category":"other"}]},{"lat":"37.524623338","long":"126.80042196","imageIndex":17,"items":[{"name":"언니가간다","tel":"070-7333-4926","addr":"경기도 부천시 원종동 206-1번지 장미빌라 A동 102호","indutype":"용역 서비스 - 종합용역","category":"other"}]},{"lat":"37.523897989","long":"126.80843309","imageIndex":17,"items":[{"name":"언덕위에 옷가게","tel":"02-1234-1234","addr":"경기도 부천시 원종동 319-3번지","indutype":"의류 - 정장","category":"other"}]},{"lat":"37.527345557","long":"126.80648963","imageIndex":17,"items":[{"name":"에듀바비 부천오정소사지사","tel":"032-673-0647","addr":"경기도 부천시 원종동 250-6번지 2층","indutype":"용역 서비스 - 사무서비스","category":"other"},{"name":"에스제이(SJ)건설,컴퓨터샵","tel":"032-676-8255","addr":"경기도 부천시 원종동 250-6번지","indutype":"건축자재 - 인테리어전문","category":"other"}]},{"lat":"37.522228587","long":"126.80687635","imageIndex":17,"items":[{"name":"에스앤피(Steel&Polymer)상사","tel":"","addr":"경기도 부천시 원종동 283-12번지 101호","indutype":"직물 - 기타직물","category":"other"}]},{"lat":"37.52192257","long":"126.80170752","imageIndex":17,"items":[{"name":"에스티S.T(Smart Technology)","tel":"032-324-0184","addr":"경기도 부천시 원종동 215-20번지 남영빌라 20동 103호","indutype":"용역 서비스 - 기타용역서비스","category":"other"}]},{"lat":"37.529286688","long":"126.79823722","imageIndex":17,"items":[{"name":"에이치제이기획(HJ기획)","tel":"","addr":"경기도 부천시 원종동 121번지 5차동문아파트","indutype":"용역 서비스 - 종합용역","category":"other"}]},{"lat":"37.52083466","long":"126.80845235","imageIndex":17,"items":[{"name":"엔포레스트(NFOREST)","tel":"","addr":"경기도 부천시 원종동 363-13번지 명승연립 2동 1층 102호","indutype":"주방용구 - 주방용구","category":"other"}]},{"lat":"37.531732479","long":"126.80595771","imageIndex":17,"items":[{"name":"연수시스템","tel":"032-678-6111","addr":"경기도 부천시 원종동 69-38번지 1층","indutype":"직물 - 카페트,커튼,천막,지물","category":"other"}]},{"lat":"37.527340956","long":"126.80915949","imageIndex":17,"items":[{"name":"연우ENG","tel":"032-1644-4902","addr":"경기도 부천시 원종동 298-5번지 공항주택 2동 201호","indutype":"전기제품 - 냉열기기","category":"other"}]},{"lat":"37.52808762","long":"126.80845615","imageIndex":17,"items":[{"name":"열두보석","tel":"032-676-1212","addr":"경기도 부천시 원종동 238-5번지","indutype":"신변잡화 - 시계","category":"other"}]},{"lat":"37.517728537","long":"126.80441091","imageIndex":17,"items":[{"name":"영동상사","tel":"032-675-8960","addr":"경기도 부천시 원종동 376-6, 10번지","indutype":"건축자재 - 보일러·펌프·샷시","category":"other"}]},{"lat":"37.5237338315","long":"126.8072344033","imageIndex":17,"items":[{"name":"영서적","tel":"032-683-6308","addr":"경기도 부천시 원종동 313-10번지 웰리스 지하2층 22","indutype":"서적문구 - 일반서적","category":"other"}]},{"lat":"37.520063302","long":"126.80512868","imageIndex":17,"items":[{"name":"영스튜디오","tel":"032-672-1029","addr":"경기도 부천시 원종동 373-11 2층","indutype":"광학제품 - 사진관","category":"other"}]},{"lat":"37.52416372","long":"126.80035532","imageIndex":17,"items":[{"name":"영신","tel":"032-515-0074","addr":"경기도 부천시 원종동 206번지 성지아파트","indutype":"서적문구 - 문구용품","category":"other"}]},{"lat":"37.526170715","long":"126.79907156","imageIndex":17,"items":[{"name":"영화광고","tel":"032-671-4555","addr":"경기도 부천시 원종동 138번지","indutype":"용역 서비스 - 종합용역","category":"other"}]},{"lat":"37.526700254","long":"126.80855026","imageIndex":17,"items":[{"name":"예담","tel":"070-8937-1189","addr":"경기도 부천시 원종동 235-15번지 2층","indutype":"전기제품 - 가전제품","category":"other"},{"name":"한솔기획","tel":"032-684-1256","addr":"경기도 부천시 원종동 235-15번지","indutype":"용역 서비스 - 종합용역","category":"other"}]},{"lat":"37.519895914","long":"126.802041","imageIndex":17,"items":[{"name":"예쁘개","tel":"032-673-3377","addr":"경기도 부천시 원종동 387-15번지","indutype":"문화.취미 - 애완동물","category":"other"}]},{"lat":"37.523565287","long":"126.79816235","imageIndex":17,"items":[{"name":"예스넷","tel":"032-1644-5195","addr":"경기도 부천시 원종동 150-12번지 시온빌라 C동 B01호","indutype":"사무통신 - 통신기기","category":"other"}]},{"lat":"37.525813798","long":"126.8010975","imageIndex":17,"items":[{"name":"예심선교회","tel":"032-675-9591","addr":"경기도 부천시 원종동 138-23번지","indutype":"서적문구 - 출판 및 인쇄물","category":"other"}]},{"lat":"37.529315556","long":"126.79930058","imageIndex":17,"items":[{"name":"옛날가게","tel":"00-00-00","addr":"경기도 부천시 원종동 129-70번지 이든하우스 102동 201호","indutype":"회원제형태 - 기타1","category":"other"}]},{"lat":"37.525144184","long":"126.81016068","imageIndex":17,"items":[{"name":"오뉴월 개팔자","tel":"032-671-8683","addr":"경기도 부천시 원종동 292-18번지","indutype":"문화.취미 - 애완동물","category":"other"}]},{"lat":"37.52339572","long":"126.80982581","imageIndex":17,"items":[{"name":"오리진","tel":"070-7390-8395","addr":"경기도 부천시 원종동 291-17번지 한솔빌라트 202호","indutype":"사무통신 - 사무용 OA기기","category":"other"}]},{"lat":"37.521678949","long":"126.80685516","imageIndex":17,"items":[{"name":"오브제","tel":"031-3648-3356","addr":"경기도 부천시 원종동 282-10번지 동호스카이빌 가동 402호","indutype":"의류 - 정장","category":"other"}]},{"lat":"37.524927479","long":"126.80443709","imageIndex":17,"items":[{"name":"올리비아로렌 부천원종점","tel":"032-676-6498","addr":"경기도 부천시 원종동 228-2번지 한강빌딩 1층 102호,103호","indutype":"레져용품 - 스포츠·레져용품","category":"other"},{"name":"원종화원","tel":"032-679-5930","addr":"경기도 부천시 원종동 228-2번지 한강빌딩 102호","indutype":"문화.취미 - 화원","category":"other"},{"name":"한영인테리어디자인","tel":"032-667-0470","addr":"경기도 부천시 원종동 228-2번지 한강빌딩 103호","indutype":"건축자재 - 인테리어전문","category":"other"}]},{"lat":"37.518592873","long":"126.80404665","imageIndex":17,"items":[{"name":"옷동산","tel":"032-676-9885","addr":"경기도 부천시 원종동 375-11번지 1층","indutype":"의류 - 정장","category":"other"},{"name":"천연비누성화공방","tel":"032-672-5110","addr":"경기도 부천시 원종동 375-11번지","indutype":"문화.취미 - 문화취미기타","category":"other"}]},{"lat":"37.51853329","long":"126.80612814","imageIndex":17,"items":[{"name":"옷장이야기","tel":"070-4755-4786","addr":"경기도 부천시 원종동 367-9번지 1층","indutype":"의류 - 정장","category":"other"}]},{"lat":"37.527397529","long":"126.8106979","imageIndex":17,"items":[{"name":"와이지인베스트먼트","tel":"032-8687-8894","addr":"경기도 부천시 원종동 339-17번지 대경연립 A동 201호","indutype":"회원제형태 - 기타4","category":"other"}]},{"lat":"37.523959789","long":"126.80766368","imageIndex":17,"items":[{"name":"요미S","tel":"","addr":"경기도 부천시 원종동 313-17번지 신한카사빌 다동 503호","indutype":"의류 - 정장","category":"other"}]},{"lat":"37.519643399","long":"126.80726771","imageIndex":17,"items":[{"name":"요조숙녀","tel":"032-677-5518","addr":"경기도 부천시 원종동 361번지","indutype":"의류 - 정장","category":"other"},{"name":"캠앤조이","tel":"032-677-8600","addr":"경기도 부천시 원종동 361번지","indutype":"의류 - 기타의류","category":"other"}]},{"lat":"37.526979596","long":"126.80857216","imageIndex":17,"items":[{"name":"우리종합","tel":"032-673-0168","addr":"경기도 부천시 원종동 237-11번지","indutype":"수리서비스 - 가정용품수리","category":"other"}]},{"lat":"37.523871727","long":"126.80348964","imageIndex":17,"items":[{"name":"우먼로드","tel":"032-677-7206","addr":"경기도 부천시 원종동 222-1번지 1층","indutype":"직물 - 침구·수예점","category":"other"}]},{"lat":"37.52744911","long":"126.80376295","imageIndex":17,"items":[{"name":"원영건설","tel":"032-673-9794","addr":"경기도 부천시 원종동 132-14번지","indutype":"용역 서비스 - 기타용역서비스","category":"other"}]},{"lat":"37.525343912","long":"126.80029557","imageIndex":17,"items":[{"name":"원일천막","tel":"032-678-9492","addr":"경기도 부천시 원종동 140-5번지 1층 14호","indutype":"직물 - 카페트,커튼,천막,지물","category":"other"}]},{"lat":"37.525866227","long":"126.80546406","imageIndex":17,"items":[{"name":"원종1동주민자치위원회","tel":"032-625-7265","addr":"경기도 부천시 원종동 233-3번지","indutype":"문화.취미 - 문화취미기타","category":"other"}]},{"lat":"37.527063987","long":"126.80513283","imageIndex":17,"items":[{"name":"원종앵글","tel":"032-681-6664","addr":"경기도 부천시 원종동 231-10번지","indutype":"건축자재 - 기타건축자재","category":"other"}]},{"lat":"37.525901239","long":"126.79954743","imageIndex":17,"items":[{"name":"원종종합사회복지관","tel":"032-681-0110","addr":"경기도 부천시 원종동 139-1번지 유호아파트","indutype":"기타 - 비영리/대상","category":"other"}]},{"lat":"37.522981334","long":"126.80443093","imageIndex":17,"items":[{"name":"원종풀잎문화센터","tel":"032-674-5579","addr":"경기도 부천시 원종동 227-4번지 4층","indutype":"문화.취미 - 문화취미기타","category":"other"}]},{"lat":"37.531088137","long":"126.80859544","imageIndex":17,"items":[{"name":"원풍알미늄","tel":"032-679-0047","addr":"경기도 부천시 원종동 197-3번지","indutype":"건축자재 - 보일러·펌프·샷시","category":"other"},{"name":"펜터마임시스템","tel":"032-677-7327","addr":"경기도 부천시 원종동 197-3번지","indutype":"건축자재 - 인테리어전문","category":"other"},{"name":"하나기업","tel":"032-676-1247","addr":"경기도 부천시 원종동 197-3번지","indutype":"건축자재 - 인테리어전문","category":"other"}]},{"lat":"37.518730393","long":"126.80546023","imageIndex":17,"items":[{"name":"월드컵부천점","tel":"032-661-1626","addr":"경기도 부천시 원종동 372-3번지","indutype":"신변잡화 - 신발","category":"other"},{"name":"크림","tel":"","addr":"경기도 부천시 원종동 372-3번지 외 1필지","indutype":"의류 - 정장","category":"other"}]},{"lat":"37.524087132","long":"126.79774236","imageIndex":17,"items":[{"name":"위더스컴바인","tel":"","addr":"경기도 부천시 원종동 148-22번지 선운주택 2층 2호","indutype":"건축자재 - 인테리어전문","category":"other"}]},{"lat":"37.525147688","long":"126.8014613","imageIndex":17,"items":[{"name":"유앤미에스텍","tel":"032-679-0701","addr":"경기도 부천시 원종동 209-13번지 1층","indutype":"회원제형태 - 기타4","category":"other"}]},{"lat":"37.528038353","long":"126.80591085","imageIndex":17,"items":[{"name":"유진시스템","tel":"070-4858-3399","addr":"경기도 부천시 원종동 253-7번지 1층 4호","indutype":"전기제품 - 가전제품","category":"other"},{"name":"이쓰리솔루션(E3 solution)","tel":"070-7523-3243","addr":"경기도 부천시 원종동 253-7번지 4층","indutype":"건축자재 - 조명기구","category":"other"}]},{"lat":"37.524733852","long":"126.80182441","imageIndex":17,"items":[{"name":"유진씽크","tel":"032-676-7544","addr":"경기도 부천시 원종동 209-8번지","indutype":"주방용구 - 주방용구","category":"other"},{"name":"홈닥터","tel":"032-677-7544","addr":"경기도 부천시 원종동 209-8번지 성심빌딩 지층","indutype":"건축자재 - 인테리어전문","category":"other"}]},{"lat":"37.529619534","long":"126.80859925","imageIndex":17,"items":[{"name":"윤경종합인테리어","tel":"031-671-7500","addr":"경기도 부천시 원종동 332-22번지 하나빌리지2 1층 101호","indutype":"용역 서비스 - 기타용역서비스","category":"other"}]},{"lat":"37.526005796","long":"126.80273733","imageIndex":17,"items":[{"name":"윤회콜렉션","tel":"032-677-1573","addr":"경기도 부천시 원종동 219번지","indutype":"의류 - 정장","category":"other"}]},{"lat":"37.520317108","long":"126.80604427","imageIndex":17,"items":[{"name":"은하등대","tel":"032-111-1111","addr":"경기도 부천시 원종동 365번지 오익연립 가동 107호","indutype":"서적문구 - 출판 및 인쇄물","category":"other"}]},{"lat":"37.521984462","long":"126.80101732","imageIndex":17,"items":[{"name":"이마트24 부천성오로점","tel":"032-1111-1111","addr":"경기도 부천시 원종동 215번지 현대하이츠빌 101호","indutype":"유통업 영리 - 편 의 점","category":"other"}]},{"lat":"37.525117597","long":"126.81043225","imageIndex":17,"items":[{"name":"이마트24 오정원종로점","tel":"02-6916-1500","addr":"경기도 부천시 원종동 341번지 수정타운 1층 101호","indutype":"유통업 영리 - 편 의 점","category":"other"},{"name":"이마트24 오정원종로점","tel":"","addr":"경기도 부천시 원종동 341번지 수정타운 1층 101호","indutype":"유통업 영리 - 편 의 점","category":"other"}]},{"lat":"37.522312517","long":"126.80859557","imageIndex":17,"items":[{"name":"이마트24 원종한촌점","tel":"","addr":"경기도 부천시 원종동 326-6번지 한촌빌리지 102호","indutype":"유통업 영리 - 편 의 점","category":"other"},{"name":"이마트24 원종한촌점","tel":"","addr":"경기도 부천시 원종동 326-6번지 한촌빌리지 102호","indutype":"유통업 영리 - 편 의 점","category":"other"}]},{"lat":"37.517952698","long":"126.80376556","imageIndex":17,"items":[{"name":"이봉헌세탁소","tel":"032-671-1333","addr":"경기도 부천시 원종동 378-3번지 수정빌라 101호","indutype":"수리서비스 - 세탁소","category":"other"}]},{"lat":"37.522450879","long":"126.79979435","imageIndex":17,"items":[{"name":"이안 인테리어 종합설비","tel":"032-681-0825","addr":"경기도 부천시 원종동 198-1번지 진성오크빌 101호","indutype":"건축자재 - 인테리어전문","category":"other"}]},{"lat":"37.528033058","long":"126.80815084","imageIndex":17,"items":[{"name":"이에스텔레콤6","tel":"032-464-8555","addr":"경기도 부천시 원종동 238-12번지","indutype":"사무통신 - 통신기기","category":"other"}]},{"lat":"37.523479262","long":"126.80585496","imageIndex":17,"items":[{"name":"이우 정보통신","tel":"","addr":"경기도 부천시 원종동 354번지 현대파크 302호","indutype":"사무통신 - 통신기기","category":"other"}]},{"lat":"37.525034048","long":"126.80892789","imageIndex":17,"items":[{"name":"이원","tel":"032-678-7117","addr":"경기도 부천시 원종동 293-9번지 1층,2층 지층","indutype":"직물 - 침구·수예점","category":"other"}]},{"lat":"37.528059415","long":"126.80774351","imageIndex":17,"items":[{"name":"이지모아","tel":"032-671-3600","addr":"경기도 부천시 원종동 246-1번지 1층","indutype":"의류 - 정장","category":"other"}]},{"lat":"37.523503905","long":"126.80442955","imageIndex":17,"items":[{"name":"이판사판","tel":"032-674-2848","addr":"경기도 부천시 원종동 227-2번지","indutype":"서적문구 - 문구용품","category":"other"}]},{"lat":"37.525123514","long":"126.80854303","imageIndex":17,"items":[{"name":"인글라스","tel":"032-676-5494","addr":"경기도 부천시 원종동 271-1번지","indutype":"건축자재 - 유리","category":"other"}]},{"lat":"37.527622597","long":"126.80513135","imageIndex":17,"items":[{"name":"일죽스크린골프연습장","tel":"032-676-3590","addr":"경기도 부천시 원종동 231-14번지 성운빌딩 401호","indutype":"회원제형태 - 레져업소","category":"other"}]},{"lat":"37.527036712","long":"126.81043863","imageIndex":17,"items":[{"name":"장난감나라","tel":"032-675-1227","addr":"경기도 부천시 원종동 339-27번지 1층","indutype":"서적문구 - 완구점","category":"other"}]},{"lat":"37.527494457","long":"126.80936273","imageIndex":17,"items":[{"name":"점보엔지니어링","tel":"070-7516-0078","addr":"경기도 부천시 원종동 298-5번지 공항주택 4동 101호","indutype":"수리서비스 - 기타수리서비스","category":"other"}]},{"lat":"37.526143807","long":"126.80443387","imageIndex":17,"items":[{"name":"정나라투어","tel":"032-671-8400","addr":"경기도 부천시 원종동 229-5번지 대광빌딩 6층","indutype":"여행 - 관광여행","category":"other"}]},{"lat":"37.527010666","long":"126.80557417","imageIndex":17,"items":[{"name":"정유선한복","tel":"032-672-0412","addr":"경기도 부천시 원종동 232-6번지 송림빌라 나동 102호","indutype":"의류 - 맞춤복점","category":"other"}]},{"lat":"37.522286634","long":"126.7985957","imageIndex":17,"items":[{"name":"정은풍선","tel":"031-000-0000","addr":"경기도 부천시 원종동 153-24번지 봉봉하이츠맨션 103동 101호","indutype":"문화.취미 - 화방·표구점","category":"other"}]},{"lat":"37.526565019","long":"126.80309784","imageIndex":17,"items":[{"name":"제이 J1 5 3","tel":"","addr":"경기도 부천시 원종동 134번지 101호","indutype":"의류 - 정장","category":"other"}]},{"lat":"37.530424238","long":"126.80487506","imageIndex":17,"items":[{"name":"제이모터싸이클","tel":"032-518-2008","addr":"경기도 부천시 원종동 168-20번지 두리맨션 102호","indutype":"수리서비스 - 레져용품수리","category":"other"}]},{"lat":"37.523698663","long":"126.80238149","imageIndex":17,"items":[{"name":"제이이벤트","tel":"032-344-7555","addr":"경기도 부천시 원종동 212-35번지 진도빌라 201호","indutype":"신변잡화 - 기타잡화","category":"other"}]},{"lat":"37.522006499","long":"126.80338149","imageIndex":17,"items":[{"name":"제이케이 엔터테인먼트 (JK 엔터테인먼트)","tel":"","addr":"경기도 부천시 원종동 223-20번지 한주주택 20동 202호","indutype":"용역 서비스 - 종합용역","category":"other"}]},{"lat":"37.528033245","long":"126.80826397","imageIndex":17,"items":[{"name":"제일애견","tel":"032-683-6510","addr":"경기도 부천시 원종동 238-1번지","indutype":"문화.취미 - 애완동물","category":"other"}]},{"lat":"37.528216447","long":"126.81009621","imageIndex":17,"items":[{"name":"제일의류","tel":"032-673-4489","addr":"경기도 부천시 원종동 300-3번지 삼호주택 A동 104호","indutype":"의류 - 정장","category":"other"}]},{"lat":"37.519646053","long":"126.80346695","imageIndex":17,"items":[{"name":"제일종합철물","tel":"032--671-5088","addr":"경기도 부천시 원종동 382-4번지 청룡연립 102호","indutype":"건축자재 - 목재·석재·철물","category":"other"}]},{"lat":"37.520790533","long":"126.80359965","imageIndex":17,"items":[{"name":"주식회사우진에이브이","tel":"032-677-7831","addr":"경기도 부천시 원종동 384-10번지 마이빌라 지층 2호","indutype":"용역 서비스 - 기타용역서비스","category":"other"}]},{"lat":"37.515366349","long":"126.80887374","imageIndex":17,"items":[{"name":"주식회사한국수와로","tel":"032-678-1088","addr":"경기도 부천시 원종동 386-5번지 1층","indutype":"건축자재 - 건축용 요업제품","category":"other"}]},{"lat":"37.529895772","long":"126.80674315","imageIndex":17,"items":[{"name":"주은인테리어","tel":"032-672-1233","addr":"경기도 부천시 원종동 178-45번지 1층","indutype":"건축자재 - 인테리어전문","category":"other"}]},{"lat":"37.522760409","long":"126.80166002","imageIndex":17,"items":[{"name":"중앙꽃화원","tel":"032-673-2677","addr":"경기도 부천시 원종동 213-13번지","indutype":"문화.취미 - 화원","category":"other"}]},{"lat":"37.53048081","long":"126.80637959","imageIndex":17,"items":[{"name":"중앙종합공사","tel":"032-672-3243","addr":"경기도 부천시 원종동 179-5번지","indutype":"용역 서비스 - 기타용역서비스","category":"other"}]},{"lat":"37.526811655","long":"126.80509955","imageIndex":17,"items":[{"name":"중앙종합공사","tel":"032-673-1603","addr":"경기도 부천시 원종동 232번지","indutype":"건축자재 - 기타건축자재","category":"other"},{"name":"컴드림원종점","tel":"032-682-8579","addr":"경기도 부천시 원종동 232번지","indutype":"사무통신 - 컴퓨터","category":"other"},{"name":"패밀리정보통신","tel":"032-675-3011","addr":"경기도 부천시 원종동 232번지 1층","indutype":"사무통신 - 통신기기","category":"other"}]},{"lat":"37.525948423","long":"126.80079169","imageIndex":17,"items":[{"name":"쥬쥬","tel":"070-5506-5056","addr":"경기도 부천시 원종동 139-5번지 원종베르빌 1층","indutype":"의류 - 정장","category":"other"}]},{"lat":"37.523286469","long":"126.80371745","imageIndex":17,"items":[{"name":"지에스","tel":"","addr":"경기도 부천시 원종동 222-4번지 복지빌라 지층 3호","indutype":"신변잡화 - 기타잡화","category":"other"}]},{"lat":"37.525147927","long":"126.80695921","imageIndex":17,"items":[{"name":"지플러스","tel":"032-673-0023","addr":"경기도 부천시 원종동 275-5번지 1층","indutype":"유통업 영리 - 편 의 점","category":"other"},{"name":"태양종합인테리어","tel":"032-674-8712","addr":"경기도 부천시 원종동 275-5번지","indutype":"직물 - 카페트,커튼,천막,지물","category":"other"}]},{"lat":"37.528670285","long":"126.80665586","imageIndex":17,"items":[{"name":"진인테리어","tel":"032-677-6393","addr":"경기도 부천시 원종동 245-5번지 1층","indutype":"직물 - 카페트,커튼,천막,지물","category":"other"}]},{"lat":"37.523873733","long":"126.79938324","imageIndex":17,"items":[{"name":"차칸양말","tel":"","addr":"경기도 부천시 원종동 151-22번지","indutype":"의류 - 기타의류","category":"other"}]},{"lat":"37.525263618","long":"126.8007596","imageIndex":17,"items":[{"name":"참이슬상사","tel":"032-679-6791","addr":"경기도 부천시 원종동 207번지 삼신아파트","indutype":"유통업 영리 - 기타유통업","category":"other"}]},{"lat":"37.527509882","long":"126.80240523","imageIndex":17,"items":[{"name":"창고의류","tel":"032-674-1692","addr":"경기도 부천시 원종동 132번지","indutype":"의류 - 정장","category":"other"}]},{"lat":"37.529675586","long":"126.80437926","imageIndex":17,"items":[{"name":"천지랜드여탕매점","tel":"032-677-1436","addr":"경기도 부천시 원종동 163번지","indutype":"유통업 비영리 - 구내매점(국가기관","category":"other"}]},{"lat":"37.527038111","long":"126.80582298","imageIndex":17,"items":[{"name":"첫번째단추_1set DANCHU","tel":"032-675-6640","addr":"경기도 부천시 원종동 250-3번지 1층","indutype":"의류 - 정장","category":"other"}]},{"lat":"37.519615957","long":"126.80701892","imageIndex":17,"items":[{"name":"청명ENG","tel":"032-675-9001","addr":"경기도 부천시 원종동 366-2번지 1층 우측","indutype":"건축자재 - 보일러·펌프·샷시","category":"other"}]},{"lat":"37.529423216","long":"126.80432336","imageIndex":17,"items":[{"name":"청용불교사","tel":"032-675-6836","addr":"경기도 부천시 원종동 162-1번지","indutype":"기타 - 기타 전문점","category":"other"}]},{"lat":"37.5206788","long":"126.80682384","imageIndex":17,"items":[{"name":"청정크린","tel":"","addr":"경기도 부천시 원종동 364-4번지 원종그린빌라 102호","indutype":"용역 서비스 - 기타용역서비스","category":"other"}]},{"lat":"37.530285877","long":"126.79771407","imageIndex":17,"items":[{"name":"초로기네~","tel":"000-000-0000","addr":"경기도 부천시 원종동 119-2","indutype":"문화.취미 - 화원","category":"other"}]},{"lat":"37.526670177","long":"126.80135539","imageIndex":17,"items":[{"name":"컴텍코리아","tel":"032-674-2135","addr":"경기도 부천시 원종동 138-12번지 문화4차유림아파트","indutype":"사무통신 - 사무용 OA기기","category":"other"}]},{"lat":"37.522561324","long":"126.80115151","imageIndex":17,"items":[{"name":"컴퓨터구조대(원종점)","tel":"032-676-8222","addr":"경기도 부천시 원종동 214-1번지","indutype":"사무통신 - 컴퓨터","category":"other"}]},{"lat":"37.526393957","long":"126.80857368","imageIndex":17,"items":[{"name":"케이마린앤모터스","tel":"","addr":"경기도 부천시 원종동 270-8번지 성원빌라","indutype":"기타 - 기계공구","category":"other"}]},{"lat":"37.518867576","long":"126.80668153","imageIndex":17,"items":[{"name":"케이앤드엔(K&N)","tel":"032-663-2991","addr":"경기도 부천시 원종동 366-14번지 한일빌라 C동 지층 1호","indutype":"문화.취미 - 화랑","category":"other"}]},{"lat":"37.524340604","long":"126.79843173","imageIndex":17,"items":[{"name":"코리아냉동이엔지","tel":"02-2236-2008","addr":"경기도 부천시 원종동 148-24번지 평화빌라","indutype":"주방용구 - 주방용구","category":"other"}]},{"lat":"37.525533312","long":"126.80040818","imageIndex":17,"items":[{"name":"코지이앤엘","tel":"031-000-0000","addr":"경기도 부천시 원종동 140-1번지 해피하우스 102동 401호","indutype":"건축자재 - 조명기구","category":"other"}]},{"lat":"37.522226546","long":"126.80032662","imageIndex":17,"items":[{"name":"콧수염 아가씨","tel":"02-578-1042","addr":"경기도 부천시 원종동 198-14번지 대성빌라 14동 201호","indutype":"의류 - 기타의류","category":"other"}]},{"lat":"37.523338465","long":"126.80788024","imageIndex":17,"items":[{"name":"퀸즈걸 (Queenzgirl)","tel":"02-2699-0943","addr":"경기도 부천시 원종동 313-8번지 대창스페이스 501호","indutype":"신변잡화 - 액세서리","category":"other"}]},{"lat":"37.525815975","long":"126.80237583","imageIndex":17,"items":[{"name":"크린에이드","tel":"032-681-2289","addr":"경기도 부천시 원종동 208-20번지 남양빌딩 1층","indutype":"수리서비스 - 세탁소","category":"other"}]},{"lat":"37.526956455","long":"126.80548381","imageIndex":17,"items":[{"name":"클레오파트라숙녀복","tel":"032-679-1224","addr":"경기도 부천시 원종동 232-5번지 송림그린빌 1층 102호","indutype":"의류 - 정장","category":"other"}]},{"lat":"37.530039874","long":"126.80670883","imageIndex":17,"items":[{"name":"태광산업","tel":"032-201-8872","addr":"경기도 부천시 원종동 178-34번지","indutype":"용역 서비스 - 기타용역서비스","category":"other"}]},{"lat":"37.52383822","long":"126.79968877","imageIndex":17,"items":[{"name":"태극힐링원종지점","tel":"","addr":"경기도 부천시 원종동 199번지 2층","indutype":"전기제품 - 기타전기제품","category":"other"}]},{"lat":"37.527036288","long":"126.81017844","imageIndex":17,"items":[{"name":"태양유리","tel":"032-674-6869","addr":"경기도 부천시 원종동 296-24번지","indutype":"건축자재 - 유리","category":"other"}]},{"lat":"37.52540006","long":"126.80151718","imageIndex":17,"items":[{"name":"태영종합설비","tel":"032-675-6050","addr":"경기도 부천시 원종동 208-13번지","indutype":"건축자재 - 보일러·펌프·샷시","category":"other"}]},{"lat":"37.528226784","long":"126.81091072","imageIndex":17,"items":[{"name":"텐달러","tel":"032-204-8613","addr":"경기도 부천시 원종동 338-6번지 예림하이빌 403호","indutype":"의류 - 정장","category":"other"}]},{"lat":"37.525151372","long":"126.8036333","imageIndex":17,"items":[{"name":"토니모리","tel":"070-9470-5381","addr":"경기도 부천시 원종동 221-1번지 1층","indutype":"신변잡화 - 신발","category":"other"}]},{"lat":"37.522143161","long":"126.79899202","imageIndex":17,"items":[{"name":"티에스코리아","tel":"070-8246-9373","addr":"경기도 부천시 원종동 153-3번지 스타팰리스 지층","indutype":"레져용품 - 스포츠·레져용품","category":"other"}]},{"lat":"37.522978015","long":"126.80784724","imageIndex":17,"items":[{"name":"티지와이아츠컴퍼니(T.G.Y Artscompany)","tel":"032-2205-9191","addr":"경기도 부천시 원종동 327-1번지 서진베스트빌 403호","indutype":"문화.취미 - 티켓","category":"other"}]},{"lat":"37.525061446","long":"126.80373535","imageIndex":17,"items":[{"name":"파라","tel":"032-675-4118","addr":"경기도 부천시 원종동 221-18번지","indutype":"의류 - 정장","category":"other"}]},{"lat":"37.524144685","long":"126.80507266","imageIndex":17,"items":[{"name":"패션라인","tel":"032-2618-3787","addr":"경기도 부천시 원종동 277-12번지","indutype":"의류 - 정장","category":"other"}]},{"lat":"37.520120833","long":"126.8018481","imageIndex":17,"items":[{"name":"펭귄하우스 원종점","tel":"","addr":"경기도 부천시 원종동 387-11번지 예다움 가동 101호","indutype":"수리서비스 - 세탁소","category":"other"}]},{"lat":"37.522811114","long":"126.8104608","imageIndex":17,"items":[{"name":"평안무역","tel":"032-682-6916","addr":"경기도 부천시 원종동 344-11번지 2층","indutype":"의류 - 정장","category":"other"}]},{"lat":"37.52764662","long":"126.80334384","imageIndex":17,"items":[{"name":"푸른공조","tel":"031-000-0000","addr":"경기도 부천시 원종동 132-8번지 우정빌라 2동 102호","indutype":"용역 서비스 - 기타용역서비스","category":"other"}]},{"lat":"37.526206172","long":"126.80401513","imageIndex":17,"items":[{"name":"프로그램","tel":"032-501-0155","addr":"경기도 부천시 원종동 229-12번지 썬트리하우스 1층 102호","indutype":"의류 - 정장","category":"other"}]},{"lat":"37.52031442","long":"126.80443799","imageIndex":17,"items":[{"name":"프로스펙스상설할인매장","tel":"032-676-8988","addr":"경기도 부천시 원종동 374-2번지 능력프라자 1층","indutype":"레져용품 - 스포츠·레져용품","category":"other"}]},{"lat":"37.523555292","long":"126.80284568","imageIndex":17,"items":[{"name":"프롬선","tel":"031-571-8484","addr":"경기도 부천시 원종동 217-21번지 라이프골든빌 A동 402호","indutype":"용역 서비스 - 종합용역","category":"other"}]},{"lat":"37.520450725","long":"126.80512766","imageIndex":17,"items":[{"name":"프리텔특별할부(이레정보통신)","tel":"032-684-4016","addr":"경기도 부천시 원종동 373-12번지 제이디스카이빌","indutype":"사무통신 - 통신기기(무이자할부)","category":"other"}]},{"lat":"37.523760077","long":"126.80140847","imageIndex":17,"items":[{"name":"픽스미디어그룹 (PicsMediaGroup)","tel":"031-1111-1111","addr":"경기도 부천시 원종동 212-16번지 102호","indutype":"용역 서비스 - 종합용역","category":"other"}]},{"lat":"37.524623002","long":"126.80554652","imageIndex":17,"items":[{"name":"하나기획","tel":"032-678-3995","addr":"경기도 부천시 원종동 277-4번지","indutype":"용역 서비스 - 종합용역","category":"other"}]},{"lat":"37.523843377","long":"126.80270917","imageIndex":17,"items":[{"name":"하나상회","tel":"032-673-2799","addr":"경기도 부천시 원종동 217번지","indutype":"의류 - 내의판매","category":"other"}]},{"lat":"37.518593102","long":"126.80418239","imageIndex":17,"items":[{"name":"하얀나라깨끗한세상","tel":"032-682-0360","addr":"경기도 부천시 원종동 375-10번지 102호","indutype":"수리서비스 - 세탁소","category":"other"}]},{"lat":"37.5233949056","long":"126.8093280663","imageIndex":17,"items":[{"name":"하이마트가구","tel":"032-684-4592","addr":"경기도 부천시 원종동 290-5번지 1층 24호","indutype":"가구 - 일반가구","category":"other"}]},{"lat":"37.527648236","long":"126.80973566","imageIndex":17,"items":[{"name":"한국부흥교회","tel":"032-677-2783","addr":"경기도 부천시 원종동 296-16번지 유성스카이빌","indutype":"기타 - 비영리/대상","category":"other"}]},{"lat":"37.527758346","long":"126.81095717","imageIndex":17,"items":[{"name":"한국철물전기","tel":"032-681-1822","addr":"경기도 부천시 원종동 339-28번지","indutype":"기타 - 기계공구","category":"other"}]},{"lat":"37.519595395","long":"126.80549189","imageIndex":17,"items":[{"name":"한남","tel":"02-2608-5428","addr":"경기도 부천시 원종동 372-1번지 1층","indutype":"의류 - 정장","category":"other"}]},{"lat":"37.526929066","long":"126.80526894","imageIndex":17,"items":[{"name":"한마음광고기획","tel":"032-676-2820","addr":"경기도 부천시 원종동 232-1번지 1층","indutype":"레져용품 - 스포츠·레져용품","category":"other"}]},{"lat":"37.524871833","long":"126.80890569","imageIndex":17,"items":[{"name":"한이침장","tel":"032-682-9207","addr":"경기도 부천시 원종동 293-7번지","indutype":"직물 - 침구·수예점","category":"other"}]},{"lat":"37.53000794","long":"126.80377877","imageIndex":17,"items":[{"name":"한일자동문","tel":"032-672-5980","addr":"경기도 부천시 원종동 70-1번지 동문아파트","indutype":"건축자재 - 목재·석재·철물","category":"other"}]},{"lat":"37.520311461","long":"126.80268466","imageIndex":17,"items":[{"name":"한창샷시","tel":"032-677-0589","addr":"경기도 부천시 원종동 383-1번지","indutype":"수리서비스 - 기타수리서비스","category":"other"}]},{"lat":"37.518672445","long":"126.80854845","imageIndex":17,"items":[{"name":"한피스코리아","tel":"032-672-1341","addr":"경기도 부천시 원종동 360-29번지 동양아트빌 1층 101호","indutype":"의류 - 정장","category":"other"}]},{"lat":"37.5222042313","long":"126.8084940443","imageIndex":17,"items":[{"name":"해외건축설비","tel":"032-683-3606","addr":"경기도 부천시 원종동 333-1번지","indutype":"전기제품 - 냉열기기","category":"other"}]},{"lat":"37.518815117","long":"126.80227013","imageIndex":17,"items":[{"name":"해피하우스","tel":"032-679-5054","addr":"경기도 부천시 원종동 388-11번지 1층","indutype":"의류 - 기타의류","category":"other"}]},{"lat":"37.521758461","long":"126.80057675","imageIndex":17,"items":[{"name":"행복브리스","tel":"070-2699-0807","addr":"경기도 부천시 원종동 198-46번지 동삼빌라 A동 지 2호","indutype":"의류 - 내의판매","category":"other"}]},{"lat":"37.529704946","long":"126.80577071","imageIndex":17,"items":[{"name":"행복케미칼","tel":"032-679-6169","addr":"경기도 부천시 원종동 171번지 해주2차아파트","indutype":"신변잡화 - 기타잡화","category":"other"}]},{"lat":"37.523920215","long":"126.80553706","imageIndex":17,"items":[{"name":"행복한피부전문관리샵","tel":"032-675-3636","addr":"경기도 부천시 원종동 280-1 한성연립 가-201 18/1","indutype":"회원제형태 - 기타4","category":"other"}]},{"lat":"37.521865271","long":"126.80512392","imageIndex":17,"items":[{"name":"현대기업","tel":"032-257-0700","addr":"경기도 부천시 원종동 281-15번지 정복빌딩 502호","indutype":"건축자재 - 기타건축자재","category":"other"}]},{"lat":"37.522234674","long":"126.80512295","imageIndex":17,"items":[{"name":"현대서적","tel":"032-673-9098","addr":"경기도 부천시 원종동 281-6번지","indutype":"서적문구 - 일반서적","category":"other"}]},{"lat":"37.523398211","long":"126.8058778","imageIndex":17,"items":[{"name":"현대세탁소","tel":"032-678-6824","addr":"경기도 부천시 원종동 353-1번지","indutype":"수리서비스 - 세탁소","category":"other"}]},{"lat":"37.523093495","long":"126.80685146","imageIndex":17,"items":[{"name":"현대정보시스템","tel":"070-7342-7140","addr":"경기도 부천시 원종동 309번지 태화 나동 102호","indutype":"사무통신 - 통신기기","category":"other"}]},{"lat":"37.526730008","long":"126.81021316","imageIndex":17,"items":[{"name":"형제장식","tel":"032-672-7255","addr":"경기도 부천시 원종동 296-28번지 선진그린빌라 1층 102호","indutype":"직물 - 카페트,커튼,천막,지물","category":"other"}]},{"lat":"37.52256398","long":"126.80271258","imageIndex":17,"items":[{"name":"호남종합설비","tel":"032-683-9422","addr":"경기도 부천시 원종동 216번지","indutype":"건축자재 - 목재·석재·철물","category":"other"}]},{"lat":"37.528397442","long":"126.80512931","imageIndex":17,"items":[{"name":"홈스마일원종점","tel":"032-676-8859","addr":"경기도 부천시 원종동 264-1번지","indutype":"직물 - 침구·수예점","category":"other"}]},{"lat":"37.522562139","long":"126.80698859","imageIndex":17,"items":[{"name":"홈플러스365Plus부천장원점","tel":"02-3459-8000","addr":"경기도 부천시 원종동 283-9번지 청구그린빌 1층 101호","indutype":"유통업 영리 - 대형할인점","category":"other"}]},{"lat":"37.520619075","long":"126.80884883","imageIndex":17,"items":[{"name":"홈플러스365Plus원종은데미점","tel":"02-3459-8000","addr":"경기도 부천시 원종동 346-14번지","indutype":"유통업 영리 - 대형할인점","category":"other"}]},{"lat":"37.523944855","long":"126.79882874","imageIndex":17,"items":[{"name":"화랑 모바일","tel":"032-677-9755","addr":"경기도 부천시 원종동 151번지 킹덤하우스 제A동 1층 101호","indutype":"사무통신 - 통신기기","category":"other"}]},{"lat":"37.521981279","long":"126.8044562","imageIndex":17,"items":[{"name":"황제(런던베이직)","tel":"032-678-3315","addr":"경기도 부천시 원종동 224-3번지 L빌딩","indutype":"의류 - 맞춤복점","category":"other"}]},{"lat":"37.525728136","long":"126.80371096","imageIndex":17,"items":[{"name":"힐링워터닷컴","tel":"032-1661-4580","addr":"경기도 부천시 원종동 220-3번지 욱일7차아파트","indutype":"주방용구 - 정수기","category":"other"}]}]