[{"lat":"37.39492269","long":"127.244789","imageIndex":13,"items":[{"name":"금탑당구장","tel":"031-763-5245","addr":"경기도 광주시 장지동 77-3번지","indutype":"레저업소 - 당 구 장","category":"leisure"}]},{"lat":"37.39117223","long":"127.2323666","imageIndex":13,"items":[{"name":"라온필라테스 스튜디오","tel":"","addr":"경기도 광주시 장지동 690-12번지 3층 301호","indutype":"레저업소 - 헬스클럽","category":"leisure"}]},{"lat":"37.39605758","long":"127.2449734","imageIndex":13,"items":[{"name":"빅브로짐휘트니스","tel":"031-769-3690","addr":"경기도 광주시 장지동 42-4번지 대광프라자 3층 301,302,303호","indutype":"레저업소 - 헬스클럽","category":"leisure"}]},{"lat":"37.39306402","long":"127.2325305","imageIndex":13,"items":[{"name":"뽐뿌노래연습장","tel":"031-767-2116","addr":"경기도 광주시 장지동 686번지 지층","indutype":"레저업소 - 노 래 방","category":"leisure"}]},{"lat":"37.39459127","long":"127.2393674","imageIndex":13,"items":[{"name":"오렌지 노래연습장(장지동)","tel":"031-762-2778","addr":"경기도 광주시 장지동 359-6번지 2층","indutype":"레저업소 - 노 래 방","category":"leisure"}]},{"lat":"37.39631018","long":"127.2448161","imageIndex":13,"items":[{"name":"점프노리스포츠 광주역동점","tel":"031-769-1016","addr":"경기도 광주시 장지동 42-8번지 조은빌딩 3층","indutype":"레저업소 - 기타레져업소","category":"leisure"},{"name":"피에스타PC(광주장지점)","tel":"02-222-2222","addr":"경기도 광주시 장지동 42-8번지 조은빌딩 나동 2층","indutype":"레저업소 - 기타레져업소","category":"leisure"}]},{"lat":"37.39261286","long":"127.2328679","imageIndex":13,"items":[{"name":"킹콩점프(태전점)","tel":"031-797-7942","addr":"경기도 광주시 장지동 688-2번지 2층","indutype":"레저업소 - 기타레져업소","category":"leisure"}]},{"lat":"37.39309029","long":"127.2329258","imageIndex":13,"items":[{"name":"해먹요가코리아","tel":"031-761-7484","addr":"경기도 광주시 장지동 686-2번지 3층","indutype":"레저업소 - 헬스클럽","category":"leisure"}]}]