[{"lat":"37.171052008","long":"126.6172416","imageIndex":4,"items":[{"name":"까페설렘 (CAFE설렘)","tel":"031-366-9163","addr":"경기도 화성시 서신면 제부리 290-7번지 1층 일부","indutype":"일반휴게음식 - 서양음식","category":"restaurant"}]},{"lat":"37.162351666","long":"126.61837785","imageIndex":4,"items":[{"name":"노을","tel":"031-356-8241","addr":"경기도 화성시 서신면 제부리 190-69번지","indutype":"일반휴게음식 - 서양음식","category":"restaurant"}]},{"lat":"37.171773924","long":"126.62882409","imageIndex":4,"items":[{"name":"대성콘도","tel":"031-357-6625","addr":"경기도 화성시 서신면 제부리 20-38번지 1층","indutype":"일반휴게음식 - 일식·회집","category":"restaurant"}]},{"lat":"37.166493928","long":"126.61760252","imageIndex":4,"items":[{"name":"대진회집","tel":"031-357-2577","addr":"경기도 화성시 서신면 제부리 190-65번지","indutype":"일반휴게음식 - 일반한식","category":"restaurant"}]},{"lat":"37.174101252","long":"126.62117835","imageIndex":4,"items":[{"name":"대하","tel":"031-000-0000","addr":"경기도 화성시 서신면 제부리 288-25번지","indutype":"일반휴게음식 - 일반한식","category":"restaurant"}]},{"lat":"37.162046048","long":"126.61860456","imageIndex":4,"items":[{"name":"대하횟집","tel":"031-357-7682","addr":"경기도 화성시 서신면 제부리 190-114번지","indutype":"일반휴게음식 - 일반한식","category":"restaurant"}]},{"lat":"37.174657721","long":"126.62612998","imageIndex":4,"items":[{"name":"등대카페","tel":"070-4789-2381","addr":"경기도 화성시 서신면 제부리 6-13번지","indutype":"일반휴게음식 - 서양음식","category":"restaurant"}]},{"lat":"37.163414071","long":"126.61812478","imageIndex":4,"items":[{"name":"등대회집","tel":"031-357-0058","addr":"경기도 화성시 서신면 제부리 190-12","indutype":"일반휴게음식 - 일반한식","category":"restaurant"}]},{"lat":"37.166719111","long":"126.61757886","imageIndex":4,"items":[{"name":"라미띠에","tel":"031-357-6477","addr":"경기도 화성시 서신면 제부리 190-64번지","indutype":"일반휴게음식 - 일반한식","category":"restaurant"}]},{"lat":"37.168907903","long":"126.61735383","imageIndex":4,"items":[{"name":"라성회집","tel":"031-357-9785","addr":"경기도 화성시 서신면 제부리 190-117번지","indutype":"일반휴게음식 - 일반한식","category":"restaurant"}]},{"lat":"37.160938554","long":"126.61884659","imageIndex":4,"items":[{"name":"만선회집","tel":"031-357-7323","addr":"경기도 화성시 서신면 제부리 190-147번지","indutype":"일반휴게음식 - 일반한식","category":"restaurant"}]},{"lat":"37.161712669","long":"126.61860625","imageIndex":4,"items":[{"name":"매바위횟집","tel":"031-356-8477","addr":"경기도 화성시 서신면 제부리 190-77번지","indutype":"일반휴게음식 - 일반한식","category":"restaurant"},{"name":"바다나라","tel":"031-356-8477","addr":"경기도 화성시 서신면 제부리 190-77번지","indutype":"일반휴게음식 - 일반한식","category":"restaurant"}]},{"lat":"37.164855125","long":"126.61793734","imageIndex":4,"items":[{"name":"명밥상","tel":"031-357-6660","addr":"경기도 화성시 서신면 제부리 190-120","indutype":"일반휴게음식 - 일식·회집","category":"restaurant"},{"name":"중앙회집신관","tel":"031-357-7528","addr":"경기도 화성시 서신면 제부리 190-120번지","indutype":"일반휴게음식 - 일반한식","category":"restaurant"}]},{"lat":"37.170322509","long":"126.61734664","imageIndex":4,"items":[{"name":"몽","tel":"031-356-8612","addr":"경기도 화성시 서신면 제부리 290-9번지 (1동,제부리290-9번지)","indutype":"일반휴게음식 - 서양음식","category":"restaurant"},{"name":"제부도숯불갈비","tel":"031-355-3542","addr":"경기도 화성시 서신면 제부리 290-9번지","indutype":"일반휴게음식 - 일반한식","category":"restaurant"}]},{"lat":"37.160767833","long":"126.6189938","imageIndex":4,"items":[{"name":"바다마을","tel":"","addr":"경기도 화성시 서신면 제부리 190-159번지 1층","indutype":"일반휴게음식 - 일반한식","category":"restaurant"}]},{"lat":"37.163884293","long":"126.62143239","imageIndex":4,"items":[{"name":"바다사랑식당","tel":"031-357-9941","addr":"경기도 화성시 서신면 제부리 68-7번지","indutype":"일반휴게음식 - 일반한식","category":"restaurant"}]},{"lat":"37.171295358","long":"126.61726288","imageIndex":4,"items":[{"name":"바다와풍경","tel":"031-3333-4444","addr":"경기도 화성시 서신면 제부리 290-6번지 1층 및 2층","indutype":"일반휴게음식 - 일반한식","category":"restaurant"}]},{"lat":"37.176184717","long":"126.62182097","imageIndex":4,"items":[{"name":"별마루식당","tel":"","addr":"경기도 화성시 서신면 제부리 288-41번지","indutype":"일반휴게음식 - 일반한식","category":"restaurant"}]},{"lat":"37.177987595","long":"126.62207091","imageIndex":4,"items":[{"name":"빨강등대카페","tel":"02-1577-0000","addr":"경기도 화성시 서신면 제부리 289-19번지 어항구역 일원:선착장","indutype":"일반휴게음식 - 서양음식","category":"restaurant"}]},{"lat":"37.168655616","long":"126.61735511","imageIndex":4,"items":[{"name":"석구네회집","tel":"031-357-2485","addr":"경기도 화성시 서신면 제부리 190-118번지","indutype":"일반휴게음식 - 일반한식","category":"restaurant"}]},{"lat":"37.17071863","long":"126.61724329","imageIndex":4,"items":[{"name":"선희네손칼국수","tel":"031-357-8211","addr":"경기도 화성시 서신면 제부리 290-8번지","indutype":"일반휴게음식 - 일반한식","category":"restaurant"}]},{"lat":"37.165298162","long":"126.61840796","imageIndex":4,"items":[{"name":"소시인의바다","tel":"031-357-7438","addr":"경기도 화성시 서신면 제부리 190-191번지 190-207호 B동","indutype":"일반휴게음식 - 서양음식","category":"restaurant"}]},{"lat":"37.163018899","long":"126.61852083","imageIndex":4,"items":[{"name":"수원집","tel":"031-357-7233","addr":"경기도 화성시 서신면 제부리 190-95번지","indutype":"일반휴게음식 - 일반한식","category":"restaurant"}]},{"lat":"37.176072679","long":"126.62340923","imageIndex":4,"items":[{"name":"수원회집","tel":"031-357-0162","addr":"경기도 화성시 서신면 제부리 288-35번지","indutype":"일반휴게음식 - 일반한식","category":"restaurant"}]},{"lat":"37.161911077","long":"126.61866153","imageIndex":4,"items":[{"name":"신성회집","tel":"031-357-0377","addr":"경기도 화성시 서신면 제부리 190-113번지","indutype":"일반휴게음식 - 일반한식","category":"restaurant"}]},{"lat":"37.176296419","long":"126.62293518","imageIndex":4,"items":[{"name":"앵커","tel":"031-357-0762","addr":"경기도 화성시 서신면 제부리 288-27번지 1층","indutype":"일반휴게음식 - 서양음식","category":"restaurant"}]},{"lat":"37.172411857","long":"126.61702075","imageIndex":4,"items":[{"name":"양지어촌","tel":"031-357-6784","addr":"경기도 화성시 서신면 제부리 290-42번지","indutype":"일반휴게음식 - 일반한식","category":"restaurant"}]},{"lat":"37.175188666","long":"126.62309837","imageIndex":4,"items":[{"name":"어가촌","tel":"031-357-7691","addr":"경기도 화성시 서신면 제부리 288-49번지","indutype":"일반휴게음식 - 일반한식","category":"restaurant"}]},{"lat":"37.162711893","long":"126.61831973","imageIndex":4,"items":[{"name":"어부의 집","tel":"031-357-6040","addr":"경기도 화성시 서신면 제부리 190-104번지 1동","indutype":"일반휴게음식 - 일반한식","category":"restaurant"}]},{"lat":"37.176410263","long":"126.62190992","imageIndex":4,"items":[{"name":"엄마의맛집","tel":"031-357-2938","addr":"경기도 화성시 서신면 제부리 288-4번지 1층","indutype":"일반휴게음식 - 일반한식","category":"restaurant"},{"name":"정가네생선구이","tel":"031-5249-7988","addr":"경기도 화성시 서신면 제부리 288-4번지","indutype":"일반휴게음식 - 일반한식","category":"restaurant"}]},{"lat":"37.168268322","long":"126.61740211","imageIndex":4,"items":[{"name":"여울수산","tel":"031-357-7876","addr":"경기도 화성시 서신면 제부리 190-37번지","indutype":"일반휴게음식 - 일반한식","category":"restaurant"}]},{"lat":"37.176412397","long":"126.62257427","imageIndex":4,"items":[{"name":"영일횟집","tel":"031-357-9594","addr":"경기도 화성시 서신면 제부리 288-55번지","indutype":"일반휴게음식 - 일반한식","category":"restaurant"}]},{"lat":"37.176626762","long":"126.62198766","imageIndex":4,"items":[{"name":"용궁","tel":"031-357-9929","addr":"경기도 화성시 서신면 제부리 288-1번지","indutype":"일반휴게음식 - 일반한식","category":"restaurant"}]},{"lat":"37.162301106","long":"126.61945889","imageIndex":4,"items":[{"name":"일마레식당","tel":"031-355-7004","addr":"경기도 화성시 서신면 제부리 190-313번지","indutype":"일반휴게음식 - 일반한식","category":"restaurant"}]},{"lat":"37.174799657","long":"126.62826869","imageIndex":4,"items":[{"name":"일번지 현정이네","tel":"031-357-8050","addr":"경기도 화성시 서신면 제부리 3-15번지","indutype":"일반휴게음식 - 일반한식","category":"restaurant"}]},{"lat":"37.167575083","long":"126.61757452","imageIndex":4,"items":[{"name":"장보고횟집","tel":"031-357-8618","addr":"경기도 화성시 서신면 제부리 190-6번지","indutype":"일반휴게음식 - 일식·회집","category":"restaurant"}]},{"lat":"37.160524009","long":"126.61882617","imageIndex":4,"items":[{"name":"전망대회집","tel":"031-357-2011","addr":"경기도 화성시 서신면 제부리 190-23번지","indutype":"일반휴게음식 - 일반한식","category":"restaurant"},{"name":"조개마당","tel":"031-357-2011","addr":"경기도 화성시 서신면 제부리 190-23번지 1층","indutype":"일반휴게음식 - 일반한식","category":"restaurant"}]},{"lat":"37.171826815","long":"126.61721514","imageIndex":4,"items":[{"name":"제이(J)프리미엄 카페","tel":"031-357-5694","addr":"경기도 화성시 서신면 제부리 290-19번지 1층","indutype":"일반휴게음식 - 서양음식","category":"restaurant"}]},{"lat":"37.164710961","long":"126.61793807","imageIndex":4,"items":[{"name":"중앙회집","tel":"031-357-7528","addr":"경기도 화성시 서신면 제부리 190-121번지","indutype":"일반휴게음식 - 일반한식","category":"restaurant"}]},{"lat":"37.170881199","long":"126.6286033","imageIndex":4,"items":[{"name":"청해사랑방","tel":"031-0000-0000","addr":"경기도 화성시 서신면 제부리 20-46번지","indutype":"일반휴게음식 - 일반한식","category":"restaurant"}]},{"lat":"37.160686011","long":"126.61876906","imageIndex":4,"items":[{"name":"카페벗꽃","tel":"031-355-8758","addr":"경기도 화성시 서신면 제부리 190-158번지","indutype":"일반휴게음식 - 서양음식","category":"restaurant"}]},{"lat":"37.170547692","long":"126.61732298","imageIndex":4,"items":[{"name":"카페제부리 & 브릭스테이","tel":"","addr":"경기도 화성시 서신면 제부리 290-97번지 외 1필지","indutype":"일반휴게음식 - 서양음식","category":"restaurant"}]},{"lat":"37.174798518","long":"126.62790838","imageIndex":4,"items":[{"name":"클로버","tel":"031-357-5435","addr":"경기도 화성시 서신면 제부리 3-12번지","indutype":"일반휴게음식 - 서양음식","category":"restaurant"}]},{"lat":"37.172105839","long":"126.61712365","imageIndex":4,"items":[{"name":"타이타닉","tel":"031-357-9549","addr":"경기도 화성시 서신면 제부리 290-3번지","indutype":"일반휴게음식 - 일반한식","category":"restaurant"}]},{"lat":"37.174490051","long":"126.63009435","imageIndex":4,"items":[{"name":"털보네","tel":"031-410-2400","addr":"경기도 화성시 서신면 제부리 3-3번지","indutype":"일반휴게음식 - 일식·회집","category":"restaurant"}]},{"lat":"37.175104863","long":"126.62506931","imageIndex":4,"items":[{"name":"통나무회집","tel":"031-357-0028","addr":"경기도 화성시 서신면 제부리 6-7번지","indutype":"일반휴게음식 - 일식·회집","category":"restaurant"}]},{"lat":"37.164521819","long":"126.61796155","imageIndex":4,"items":[{"name":"파이브어클락","tel":"","addr":"경기도 화성시 서신면 제부리 190-10번지 1층","indutype":"일반휴게음식 - 서양음식","category":"restaurant"}]},{"lat":"37.162991065","long":"126.61827329","imageIndex":4,"items":[{"name":"페리카나","tel":"","addr":"경기도 화성시 서신면 제부리 190-94번지","indutype":"일반휴게음식 - 스넥","category":"restaurant"}]},{"lat":"37.171466479","long":"126.61723949","imageIndex":4,"items":[{"name":"풍경소리","tel":"031-336-9811","addr":"경기도 화성시 서신면 제부리 290-15번지","indutype":"일반휴게음식 - 일반한식","category":"restaurant"}]},{"lat":"37.16121736","long":"126.61868756","imageIndex":4,"items":[{"name":"해변아침밥상","tel":"031-356-5822","addr":"경기도 화성시 서신면 제부리 190-185번지 1층","indutype":"일반휴게음식 - 일반한식","category":"restaurant"}]},{"lat":"37.176519254","long":"126.62217962","imageIndex":4,"items":[{"name":"황포돛대","tel":"031-357-2509","addr":"경기도 화성시 서신면 제부리 288-34번지","indutype":"일반휴게음식 - 일식·회집","category":"restaurant"}]}]