[{"lat":"37.186546983","long":"126.88090441","imageIndex":0,"items":[{"name":"경운유통","tel":"070-7796-3422","addr":"경기도 화성시 팔탄면 창곡리 437-4번지","indutype":"자동차정비 유지 - 자동차부품","category":"car"}]},{"lat":"37.182551875","long":"126.88638382","imageIndex":0,"items":[{"name":"다복상사","tel":"031-353-0407","addr":"경기도 화성시 팔탄면 창곡리 742-2번지","indutype":"자동차정비 유지 - 자동차부품","category":"car"}]},{"lat":"37.17519142","long":"126.88746485","imageIndex":0,"items":[{"name":"대길엘앤씨","tel":"031-8059-5168","addr":"경기도 화성시 팔탄면 창곡리 1013-3","indutype":"자동차정비 유지 - 윤활유 전문 판매","category":"car"}]},{"lat":"37.17335787","long":"126.89226437","imageIndex":0,"items":[{"name":"두산지게차종합서비스","tel":"031-354-3819","addr":"경기도 화성시 팔탄면 창곡리 1030-14번지","indutype":"자동차판매 - 기타운송","category":"car"},{"name":"두산지게차판매","tel":"031-354-0661","addr":"경기도 화성시 팔탄면 창곡리 1030-14","indutype":"자동차판매 - 기타운송","category":"car"}]},{"lat":"37.173968937","long":"126.89051817","imageIndex":0,"items":[{"name":"드렁큰타이어","tel":"031-505-5166","addr":"경기도 화성시 팔탄면 창곡리 1029-2번지 1동 107호","indutype":"자동차정비 유지 - 자동차시트·타이어","category":"car"}]},{"lat":"37.191297847","long":"126.88323939","imageIndex":0,"items":[{"name":"드림카","tel":"031-354-8127","addr":"경기도 화성시 팔탄면 창곡리 264-4번지","indutype":"자동차정비 유지 - 자동차부품","category":"car"}]},{"lat":"37.18790985","long":"126.88315464","imageIndex":0,"items":[{"name":"서진상사","tel":"031-354-5582","addr":"경기도 화성시 팔탄면 창곡리 379-3번지","indutype":"자동차판매 - 중고자동차판매","category":"car"}]},{"lat":"37.188965051","long":"126.88413279","imageIndex":0,"items":[{"name":"서호상사","tel":"031-8059-5595","addr":"경기도 화성시 팔탄면 창곡리 323번지","indutype":"자동차정비 유지 - 자동차부품","category":"car"}]},{"lat":"37.189415096","long":"126.88365906","imageIndex":0,"items":[{"name":"예일특장주식회사","tel":"031-354-0078","addr":"경기도 화성시 팔탄면 창곡리 316-2","indutype":"자동차판매 - 기타운송","category":"car"}]},{"lat":"37.188162368","long":"126.88337948","imageIndex":0,"items":[{"name":"와이엠디카(YmDCar)","tel":"","addr":"경기도 화성시 팔탄면 창곡리 378-3번지 1층 102호","indutype":"자동차정비 유지 - 자동차부품","category":"car"}]},{"lat":"37.173410398","long":"126.8906316","imageIndex":0,"items":[{"name":"월드지게차 서비스","tel":"031-684-6962","addr":"경기도 화성시 팔탄면 창곡리 1034","indutype":"자동차정비 유지 - 중장비수리","category":"car"}]},{"lat":"37.193270904","long":"126.88302228","imageIndex":0,"items":[{"name":"주식회사 피앤피이엔지(P&P Eng Co.,Ltd)","tel":"031-366-4628","addr":"경기도 화성시 팔탄면 창곡리 67번지","indutype":"자동차정비 유지 - 카인테리어","category":"car"}]},{"lat":"37.174410233","long":"126.89029232","imageIndex":0,"items":[{"name":"태산종합중기","tel":"031-366-3868","addr":"경기도 화성시 팔탄면 창곡리 1026번지","indutype":"자동차정비 유지 - 중장비수리","category":"car"}]},{"lat":"37.187748502","long":"126.88398828","imageIndex":0,"items":[{"name":"한국타이어안전카센타","tel":"031-354-8288","addr":"경기도 화성시 팔탄면 창곡리 382-1번지","indutype":"자동차정비 유지 - 자동차정비","category":"car"}]},{"lat":"37.188883675","long":"126.88385136","imageIndex":0,"items":[{"name":"한성대형","tel":"031-351-2211","addr":"경기도 화성시 팔탄면 창곡리 325-1번지 1층","indutype":"자동차정비 유지 - 자동차부품","category":"car"}]},{"lat":"37.174302301","long":"126.89049516","imageIndex":0,"items":[{"name":"한일지게차서비스","tel":"031-366-3841","addr":"경기도 화성시 팔탄면 창곡리 1027번지","indutype":"자동차정비 유지 - 자동차정비","category":"car"}]}]