[{"lat":"37.125507632","long":"126.97995994","imageIndex":17,"items":[{"name":"(주) 미림플라스틱","tel":"031-8059-3800","addr":"경기도 화성시 향남읍 갈천리 223-1번지","indutype":"신변잡화 - 기타잡화","category":"other"}]},{"lat":"37.126282364","long":"126.97909323","imageIndex":17,"items":[{"name":"(주)수원페이퍼","tel":"031-353-7265","addr":"경기도 화성시 향남읍 갈천리 222-2번지","indutype":"유통업 영리 - 기타유통업","category":"other"}]},{"lat":"37.131527284","long":"126.98353681","imageIndex":17,"items":[{"name":"GS25향남갈천점","tel":"","addr":"경기도 화성시 향남읍 갈천리 129-18번지 101,102호","indutype":"유통업 영리 - 편 의 점","category":"other"}]},{"lat":"37.131058868","long":"126.9843472","imageIndex":17,"items":[{"name":"기능장열처리","tel":"031-353-4344","addr":"경기도 화성시 향남읍 갈천리 129-23번지","indutype":"용역 서비스 - 기타용역서비스","category":"other"}]},{"lat":"37.12486797","long":"126.98039899","imageIndex":17,"items":[{"name":"다온","tel":"031-354-8481","addr":"경기도 화성시 향남읍 갈천리 211-2","indutype":"건축자재 - 기타건축자재","category":"other"}]},{"lat":"37.131084157","long":"126.97537801","imageIndex":17,"items":[{"name":"다현솔루션","tel":"031-366-6715","addr":"경기도 화성시 향남읍 갈천리 1-13번지 1층","indutype":"전기제품 - 기타전기제품","category":"other"}]},{"lat":"37.130697224","long":"126.97770765","imageIndex":17,"items":[{"name":"도그노크","tel":"031-0000-0000","addr":"경기도 화성시 향남읍 갈천리 5번지","indutype":"문화.취미 - 애완동물","category":"other"}]},{"lat":"37.124813991","long":"126.98084912","imageIndex":17,"items":[{"name":"마이크로소켓코리아향남","tel":"031-352-4092","addr":"경기도 화성시 향남읍 갈천리 211-5번지 외 4필지","indutype":"기타 - 기계공구","category":"other"}]},{"lat":"37.127445717","long":"126.98473068","imageIndex":17,"items":[{"name":"세진휀스","tel":"031-3741-1185","addr":"경기도 화성시 향남읍 갈천리 180번지","indutype":"건축자재 - 기타건축자재","category":"other"},{"name":"원미초경","tel":"031-352-8665","addr":"경기도 화성시 향남읍 갈천리 180번지","indutype":"레져용품 - 악기점","category":"other"}]},{"lat":"37.131750842","long":"126.97498389","imageIndex":17,"items":[{"name":"썬테크","tel":"031-372-1694","addr":"경기도 화성시 향남읍 갈천리 1-20번지","indutype":"기타 - 기계공구","category":"other"}]},{"lat":"37.124669949","long":"126.98153557","imageIndex":17,"items":[{"name":"에이스환경","tel":"031-366-2724","addr":"경기도 화성시 향남읍 갈천리 211-7번지","indutype":"신변잡화 - 기타잡화","category":"other"}]},{"lat":"37.131895771","long":"126.9784275","imageIndex":17,"items":[{"name":"유씨테크(U.C.tech)/원격지","tel":"","addr":"경기도 화성시 향남읍 갈천리 18-2번지","indutype":"기타 - 기타 전문점","category":"other"}]},{"lat":"37.124697021","long":"126.98176062","imageIndex":17,"items":[{"name":"펫클럽","tel":"070-4675-2274","addr":"경기도 화성시 향남읍 갈천리 209번지","indutype":"문화.취미 - 애완동물","category":"other"}]},{"lat":"37.124228616","long":"126.98257094","imageIndex":17,"items":[{"name":"한국베어링","tel":"031-374-3544","addr":"경기도 화성시 향남읍 갈천리 206-2번지","indutype":"기타 - 기계공구","category":"other"}]}]