[{"lat":"37.307062788","long":"126.90317944","imageIndex":13,"items":[{"name":"고은미용실","tel":"031-438-8676","addr":"경기도 안산시 상록구 건건동 625-8번지 홍익리빙프라자1층 2","indutype":"보건위생 - 미용원","category":"beauty"}]},{"lat":"37.305341245","long":"126.90248238","imageIndex":13,"items":[{"name":"골드스킨케어","tel":"031-437-5030","addr":"경기도 안산시 상록구 건건동 645-7번지 1층","indutype":"보건위생 - 화장품","category":"beauty"},{"name":"니엔 화장품 샵","tel":"","addr":"경기도 안산시 상록구 건건동 645-7번지","indutype":"보건위생 - 화장품","category":"beauty"},{"name":"보라미용실","tel":"031-437-9525","addr":"경기도 안산시 상록구 건건동 645-7번지","indutype":"보건위생 - 미용원","category":"beauty"}]},{"lat":"37.311587477","long":"126.90504603","imageIndex":13,"items":[{"name":"그녀는 예뻤다","tel":"","addr":"경기도 안산시 상록구 건건동 532번지 206호","indutype":"보건위생 - 미용원","category":"beauty"},{"name":"그녀는예뻤다","tel":"031-408-0520","addr":"경기도 안산시 상록구 건건동 532번지 덕천상가 206호","indutype":"보건위생 - 미용원","category":"beauty"}]},{"lat":"37.305115875","long":"126.90234733","imageIndex":13,"items":[{"name":"김송정머리터","tel":"031-406-7017","addr":"경기도 안산시 상록구 건건동 645-13번지","indutype":"보건위생 - 미용원","category":"beauty"}]},{"lat":"37.303619399","long":"126.9014357","imageIndex":13,"items":[{"name":"꽃비","tel":"031-406-9858","addr":"경기도 안산시 상록구 건건동 927-9번지 동호상가 1층 112호","indutype":"보건위생 - 화장품","category":"beauty"},{"name":"헤라헤어클리닉","tel":"031-437-1582","addr":"경기도 안산시 상록구 건건동 927-9번지 동호상가 1층","indutype":"보건위생 - 미용원","category":"beauty"}]},{"lat":"37.311226694","long":"126.90459528","imageIndex":13,"items":[{"name":"눈편한look Glass안경콘택트","tel":"031-501-3455","addr":"경기도 안산시 상록구 건건동 536-5번지 1층","indutype":"보건위생 - 안경","category":"beauty"}]},{"lat":"37.310786431","long":"126.90609615","imageIndex":13,"items":[{"name":"다올헤어","tel":"031-438-6462","addr":"경기도 안산시 상록구 건건동 987번지 건건e-편한세상 주 상가동 1층 103호","indutype":"보건위생 - 미용원","category":"beauty"},{"name":"뷰티호텔(BEAUTY HOTEL)","tel":"","addr":"경기도 안산시 상록구 건건동 987번지 건건e-편한세상주상가동 주상가동 205호","indutype":"보건위생 - 화장품","category":"beauty"},{"name":"씨&엠미용실","tel":"","addr":"경기도 안산시 상록구 건건동 987번지 건건 e-편한세상 부상가동 106호","indutype":"보건위생 - 미용원","category":"beauty"},{"name":"자르다 헤어살롱","tel":"031-599-0548","addr":"경기도 안산시 상록구 건건동 987번지 건건e-편한세상주상가동 2층 204호","indutype":"보건위생 - 미용원","category":"beauty"},{"name":"티파니","tel":"031-502-5999","addr":"경기도 안산시 상록구 건건동 987번지 건건e편한세상 주상가 101호","indutype":"보건위생 - 화장품","category":"beauty"}]},{"lat":"37.310758023","long":"126.90442669","imageIndex":13,"items":[{"name":"더 뷰티(The Beauty)","tel":"070-4763-5091","addr":"경기도 안산시 상록구 건건동 536-52번지 한우리빌 1층 101호","indutype":"보건위생 - 화장품","category":"beauty"}]},{"lat":"37.304592975","long":"126.90198708","imageIndex":13,"items":[{"name":"드림안경마트","tel":"031-438-1058","addr":"경기도 안산시 상록구 건건동 649-13","indutype":"보건위생 - 안경","category":"beauty"}]},{"lat":"37.305395831","long":"126.90310269","imageIndex":13,"items":[{"name":"라온헤어","tel":"031-502-6176","addr":"경기도 안산시 상록구 건건동 660-30번지 1층","indutype":"보건위생 - 미용원","category":"beauty"},{"name":"큐사랑 코리아","tel":"031-437-6903","addr":"경기도 안산시 상록구 건건동 660-30번지","indutype":"보건위생 - 화장품","category":"beauty"}]},{"lat":"37.311199175","long":"126.90400874","imageIndex":13,"items":[{"name":"레드헤어","tel":"031-438-7717","addr":"경기도 안산시 상록구 건건동 536-40번지 1층 111호 일부","indutype":"보건위생 - 미용원","category":"beauty"}]},{"lat":"37.306116267","long":"126.90265055","imageIndex":13,"items":[{"name":"매니아헤어두","tel":"031-437-1077","addr":"경기도 안산시 상록구 건건동 643-10번지 104호","indutype":"보건위생 - 미용원","category":"beauty"}]},{"lat":"37.311425813","long":"126.90567795","imageIndex":13,"items":[{"name":"바바헤어","tel":"031-437-5511","addr":"경기도 안산시 상록구 건건동 521번지 101호","indutype":"보건위생 - 미용원","category":"beauty"},{"name":"엠에스2헤어(MS2)","tel":"031-437-7635","addr":"경기도 안산시 상록구 건건동 521번지","indutype":"보건위생 - 미용원","category":"beauty"}]},{"lat":"37.305179014","long":"126.9024262","imageIndex":13,"items":[{"name":"박헤어컬쳐","tel":"031-501-2377","addr":"경기도 안산시 상록구 건건동 645-12번지","indutype":"보건위생 - 미용원","category":"beauty"}]},{"lat":"37.31411604","long":"126.91220613","imageIndex":13,"items":[{"name":"반월파크","tel":"031-438-8300","addr":"경기도 안산시 상록구 건건동 389","indutype":"보건위생 - 기타대인서비스","category":"beauty"}]},{"lat":"37.305233123","long":"126.90248253","imageIndex":13,"items":[{"name":"뷰","tel":"031-502-2724","addr":"경기도 안산시 상록구 건건동 645-11번지 1층","indutype":"보건위생 - 화장품","category":"beauty"}]},{"lat":"37.304980415","long":"126.90198656","imageIndex":13,"items":[{"name":"비달헤어","tel":"031-501-7620","addr":"경기도 안산시 상록구 건건동 646-3번지 1층","indutype":"보건위생 - 미용원","category":"beauty"}]},{"lat":"37.304394914","long":"126.9021791","imageIndex":13,"items":[{"name":"스파랜드","tel":"031-501-4236","addr":"경기도 안산시 상록구 건건동 650-1 센타프라자5층,6층","indutype":"보건위생 - 사우나","category":"beauty"}]},{"lat":"37.303818048","long":"126.90193172","imageIndex":13,"items":[{"name":"아로마","tel":"031-405-4404","addr":"경기도 안산시 상록구 건건동 922-4번지 2층 1호","indutype":"보건위생 - 화장품","category":"beauty"}]},{"lat":"37.307009096","long":"126.90361943","imageIndex":13,"items":[{"name":"아름다운가위소리","tel":"031-437-9963","addr":"경기도 안산시 상록구 건건동 624-3번지 1층 2호","indutype":"보건위생 - 미용원","category":"beauty"}]},{"lat":"37.303700723","long":"126.90170629","imageIndex":13,"items":[{"name":"원희미용실","tel":"031-502-0189","addr":"경기도 안산시 상록구 건건동 927-7번지 A동 8호","indutype":"보건위생 - 미용원","category":"beauty"}]},{"lat":"37.304845521","long":"126.90229129","imageIndex":13,"items":[{"name":"유앤미헤어#","tel":"031-437-0003","addr":"경기도 안산시 상록구 건건동 649-6 외2필지1층","indutype":"보건위생 - 미용원","category":"beauty"}]},{"lat":"37.304926565","long":"126.90223479","imageIndex":13,"items":[{"name":"유앤미헤어#","tel":"031-437-0003","addr":"경기도 안산시 상록구 건건동 646-6번지 외2필지 1층","indutype":"보건위생 - 미용원","category":"beauty"}]},{"lat":"37.305422433","long":"126.90259507","imageIndex":13,"items":[{"name":"제이네일#","tel":"031-438-2524","addr":"경기도 안산시 상록구 건건동 644-15번지 1층","indutype":"보건위생 - 피부미용실","category":"beauty"}]},{"lat":"37.306171175","long":"126.90365437","imageIndex":13,"items":[{"name":"제이앤제이(J&J)헤어스케치","tel":"070-4090-7050","addr":"경기도 안산시 상록구 건건동 662번지 A동 1층","indutype":"보건위생 - 미용원","category":"beauty"}]},{"lat":"37.310649882","long":"126.90440427","imageIndex":13,"items":[{"name":"준미용실","tel":"031-438-1571","addr":"경기도 안산시 상록구 건건동 536-18번지 101호","indutype":"보건위생 - 미용원","category":"beauty"}]},{"lat":"37.308955236","long":"126.90353791","imageIndex":13,"items":[{"name":"커트타임남성미용실","tel":"031-437-2515","addr":"경기도 안산시 상록구 건건동 553-2번지 1층","indutype":"보건위생 - 미용원","category":"beauty"},{"name":"컷트타임","tel":"070-4121-2515","addr":"경기도 안산시 상록구 건건동 553-2번지 컷트타임","indutype":"보건위생 - 미용원","category":"beauty"},{"name":"컷트타임남성미용실","tel":"070-4121-2515","addr":"경기도 안산시 상록구 건건동 553-2번지","indutype":"보건위생 - 미용원","category":"beauty"}]},{"lat":"37.306540034","long":"126.90298838","imageIndex":13,"items":[{"name":"킴스헤어","tel":"031-473-4181","addr":"경기도 안산시 상록구 건건동 642-3번지 1층","indutype":"보건위생 - 미용원","category":"beauty"}]},{"lat":"37.304619977","long":"126.90195321","imageIndex":13,"items":[{"name":"피부사랑","tel":"031-502-3608","addr":"경기도 안산시 상록구 건건동 635-13번지","indutype":"보건위생 - 화장품","category":"beauty"}]},{"lat":"37.303890791","long":"126.9027099","imageIndex":13,"items":[{"name":"헤어로비","tel":"031-501-0377","addr":"경기도 안산시 상록구 건건동 920-28번지 A동 101호 베스트뷰제","indutype":"보건위생 - 미용원","category":"beauty"}]},{"lat":"37.309532126","long":"126.90381916","imageIndex":13,"items":[{"name":"헤어숍미*넷 (Net)","tel":"031-502-6176","addr":"경기도 안산시 상록구 건건동 550-5번지 102호","indutype":"보건위생 - 미용원","category":"beauty"}]}]