[{"lat":"37.743594717","long":"126.97482386","imageIndex":5,"items":[{"name":"MU(엠유)","tel":"031-829-3001","addr":"경기도 양주시 장흥면 부곡리 124-13번지","indutype":"숙박업 - 여관/기타숙박업","category":"hotel"}]},{"lat":"37.725017567","long":"126.97740572","imageIndex":5,"items":[{"name":"넘버25(NO.25)호텔 양주송추점","tel":"031-855-2661","addr":"경기도 양주시 장흥면 부곡리 477-10번지","indutype":"숙박업 - 여관/기타숙박업","category":"hotel"}]},{"lat":"37.725323966","long":"126.9777459","imageIndex":5,"items":[{"name":"렉스모텔","tel":"031-877-8783","addr":"경기도 양주시 장흥면 부곡리 477-27번지","indutype":"숙박업 - 여관/기타숙박업","category":"hotel"}]},{"lat":"37.71971049","long":"126.97549072","imageIndex":5,"items":[{"name":"로맨스모텔","tel":"031-826-4788","addr":"경기도 양주시 장흥면 부곡리 559-4번지","indutype":"숙박업 - 여관/기타숙박업","category":"hotel"},{"name":"로맨스모텔","tel":"031-826-4789","addr":"경기도 양주시 장흥면 부곡리 559-4번지","indutype":"숙박업 - 여관/기타숙박업","category":"hotel"}]},{"lat":"37.730649048","long":"126.97979733","imageIndex":5,"items":[{"name":"자연그대로","tel":"031-826-7542","addr":"경기도 양주시 장흥면 부곡리 358-2번지","indutype":"숙박업 - 여관/기타숙박업","category":"hotel"}]},{"lat":"37.725152913","long":"126.97835848","imageIndex":5,"items":[{"name":"조이텔","tel":"031-829-4977","addr":"경기도 양주시 장흥면 부곡리 497-2번지","indutype":"숙박업 - 여관/기타숙박업","category":"hotel"}]},{"lat":"37.741649311","long":"126.97774038","imageIndex":5,"items":[{"name":"클래식모텔","tel":"031-877-9373","addr":"경기도 양주시 장흥면 부곡리 118-3","indutype":"숙박업 - 여관/기타숙박업","category":"hotel"}]},{"lat":"37.738793197","long":"126.97735562","imageIndex":5,"items":[{"name":"하트모텔","tel":"031-878-3456","addr":"경기도 양주시 장흥면 부곡리 136-4번지","indutype":"숙박업 - 여관/기타숙박업","category":"hotel"}]},{"lat":"37.72545911","long":"126.97774586","imageIndex":5,"items":[{"name":"호텔스타","tel":"031-826-5959","addr":"경기도 양주시 장흥면 부곡리 477-1번지","indutype":"숙박업 - 여관/기타숙박업","category":"hotel"}]}]