[{"lat":"37.659914896","long":"126.92042294","imageIndex":4,"items":[{"name":"경남식당","tel":"02-381-1845","addr":"경기도 고양시 덕양구 일영로","indutype":"일반휴게음식 - 일반한식","category":"restaurant"}]},{"lat":"37.66027483","long":"126.91977656","imageIndex":4,"items":[{"name":"항아리칼국수","tel":"031-381-9218","addr":"경기도 고양시 덕양구 일영로","indutype":"일반휴게음식 - 일반한식","category":"restaurant"}]},{"lat":"37.647860079","long":"126.92064023","imageIndex":17,"items":[{"name":"그린농원","tel":"02-381-3897","addr":"경기도 고양시 덕양구 일영로 19","indutype":"","category":"other"}]},{"lat":"37.649130509","long":"126.92072948","imageIndex":17,"items":[{"name":"대복농원","tel":"02-381-7160","addr":"경기도 고양시 덕양구 일영로 33","indutype":"","category":"other"}]},{"lat":"37.646797477","long":"126.92142325","imageIndex":17,"items":[{"name":"문성농원","tel":"02-381-2811","addr":"경기도 고양시 덕양구 일영로 6","indutype":"","category":"other"}]},{"lat":"37.649130816","long":"126.92117141","imageIndex":17,"items":[{"name":"삼호농원","tel":"02-381-7644","addr":"경기도 고양시 덕양구 일영로 34","indutype":"","category":"other"},{"name":"자연조경","tel":"02-381-7422","addr":"경기도 고양시 덕양구 일영로 34","indutype":"","category":"other"}]},{"lat":"37.654328791","long":"126.9202818","imageIndex":17,"items":[{"name":"중흥푸드","tel":"02-381-4754","addr":"경기도 고양시 덕양구 일영로 89","indutype":"","category":"other"}]},{"lat":"37.649770559","long":"126.92125003","imageIndex":17,"items":[{"name":"홍은플라워","tel":"02-381-3614","addr":"경기도 고양시 덕양구 일영로 40","indutype":"","category":"other"}]},{"lat":"37.660914109","long":"126.91919786","imageIndex":7,"items":[{"name":"울넘어상회","tel":"02-381-8051","addr":"경기도 고양시 덕양구 일영로","indutype":"음료식품 - 기타음료식품","category":"food"}]}]