[{"lat":"37.684384364","long":"127.19456333","imageIndex":7,"items":[{"name":"(주) 웰빈","tel":"031-574-6747","addr":"경기도 남양주시 진건읍 용정리 36-14번지 2층","indutype":"음료식품 - 기타음료식품","category":"food"}]},{"lat":"37.656720607","long":"127.17989592","imageIndex":7,"items":[{"name":"(주)슬리테크","tel":"031-576-8362","addr":"경기도 남양주시 진건읍 용정리 786-17번지 17 상가 2층","indutype":"음료식품 - 기타음료식품","category":"food"}]},{"lat":"37.657417259","long":"127.17794837","imageIndex":7,"items":[{"name":"CXC월드퓨젼스토아","tel":"031-573-4578","addr":"경기도 남양주시 진건읍 용정리 779-7번지 롯데리아 201호","indutype":"음료식품 - 기타음료식품","category":"food"}]},{"lat":"37.658133587","long":"127.18091922","imageIndex":7,"items":[{"name":"D.S 푸드대왕","tel":"","addr":"경기도 남양주시 진건읍 용정리 785-35번지 가동 3호","indutype":"음료식품 - 기타음료식품","category":"food"},{"name":"이모네반찬","tel":"031-529-5824","addr":"경기도 남양주시 진건읍 용정리 785-35번지 101호","indutype":"음료식품 - 기타음료식품","category":"food"}]},{"lat":"37.656191694","long":"127.17811547","imageIndex":7,"items":[{"name":"강원유통","tel":"031-529-8827","addr":"경기도 남양주시 진건읍 용정리 794-142번지","indutype":"음료식품 - 정육점","category":"food"}]},{"lat":"37.658023704","long":"127.18208623","imageIndex":7,"items":[{"name":"경진축산물","tel":"031-527-7946","addr":"경기도 남양주시 진건읍 용정리 790 한신상가 105","indutype":"음료식품 - 정육점","category":"food"}]},{"lat":"37.655918664","long":"127.17995068","imageIndex":7,"items":[{"name":"경춘떡방앗간","tel":"031-573-8173","addr":"경기도 남양주시 진건읍 용정리 794-21번지 1층","indutype":"음료식품 - 제과점","category":"food"}]},{"lat":"37.666772965","long":"127.18736625","imageIndex":7,"items":[{"name":"경춘상회","tel":"070-3342-2487","addr":"경기도 남양주시 진건읍 용정리 450번지","indutype":"음료식품 - 농·축·수산품","category":"food"}]},{"lat":"37.666638086","long":"127.18719591","imageIndex":7,"items":[{"name":"남양주먹골배영농조합","tel":"070-8831-5791","addr":"경기도 남양주시 진건읍 용정리 450-5","indutype":"음료식품 - 농·축·수산품","category":"food"}]},{"lat":"37.679329451","long":"127.18925644","imageIndex":7,"items":[{"name":"다물김치","tel":"031-575-1631","addr":"경기도 남양주시 진건읍 용정리 163","indutype":"음료식품 - 미곡상","category":"food"}]},{"lat":"37.656530075","long":"127.1807794","imageIndex":7,"items":[{"name":"다정식품","tel":"031-893-4495","addr":"경기도 남양주시 진건읍 용정리 792-7번지","indutype":"음료식품 - 기타음료식품","category":"food"}]},{"lat":"37.678415278","long":"127.19189539","imageIndex":7,"items":[{"name":"다해림식품","tel":"031-527-3723","addr":"경기도 남양주시 진건읍 용정리 139-8","indutype":"음료식품 - 기타음료식품","category":"food"}]},{"lat":"37.656306673","long":"127.17955497","imageIndex":7,"items":[{"name":"달콤데이","tel":"031-111-1111","addr":"경기도 남양주시 진건읍 용정리 795-1번지 2층 일부층","indutype":"음료식품 - 제과점","category":"food"}]},{"lat":"37.657164905","long":"127.17800444","imageIndex":7,"items":[{"name":"대박점핑다이어트","tel":"","addr":"경기도 남양주시 진건읍 용정리 779-3번지 2층 일부호","indutype":"건강식품 - 기타건강식품","category":"food"},{"name":"서민상회","tel":"","addr":"경기도 남양주시 진건읍 용정리 779-3번지","indutype":"음료식품 - 기타음료식품","category":"food"},{"name":"연어FACTORY","tel":"031-111-1111","addr":"경기도 남양주시 진건읍 용정리 779-3번지","indutype":"음료식품 - 농·축·수산품","category":"food"}]},{"lat":"37.657022794","long":"127.17662153","imageIndex":7,"items":[{"name":"대조식품유통","tel":"031-529-5162","addr":"경기도 남양주시 진건읍 용정리 794-135번지 2층","indutype":"음료식품 - 기타음료식품","category":"food"}]},{"lat":"37.682388733","long":"127.18605588","imageIndex":7,"items":[{"name":"대흥상사","tel":"031-595-2661","addr":"경기도 남양주시 진건읍 용정리 533-25번지 1층","indutype":"음료식품 - 기타음료식품","category":"food"}]},{"lat":"37.658165026","long":"127.17797279","imageIndex":7,"items":[{"name":"뚜레쥬르 남양주진건","tel":"031-575-2203","addr":"경기도 남양주시 진건읍 용정리 774-17 1층6호7호","indutype":"음료식품 - 제과점","category":"food"},{"name":"수라간","tel":"031-573-2865","addr":"경기도 남양주시 진건읍 용정리 774-17번지","indutype":"음료식품 - 기타음료식품","category":"food"}]},{"lat":"37.656886227","long":"127.17758448","imageIndex":7,"items":[{"name":"라파엘장수건강원","tel":"031-574-3880","addr":"경기도 남양주시 진건읍 용정리 777-1번지 1층","indutype":"건강식품 - 기타건강식품","category":"food"}]},{"lat":"37.656530536","long":"127.18047343","imageIndex":7,"items":[{"name":"맘대로","tel":"031-574-8550","addr":"경기도 남양주시 진건읍 용정리 791-18번지","indutype":"음료식품 - 기타음료식품","category":"food"}]},{"lat":"37.672298566","long":"127.19136981","imageIndex":7,"items":[{"name":"목자농원","tel":"070-4227-9033","addr":"경기도 남양주시 진건읍 용정리 247","indutype":"음료식품 - 농·축·수산품","category":"food"}]},{"lat":"37.656055013","long":"127.1791464","imageIndex":7,"items":[{"name":"바른고기정육점","tel":"031-574-4668","addr":"경기도 남양주시 진건읍 용정리 794-5번지","indutype":"음료식품 - 정육점","category":"food"}]},{"lat":"37.658723573","long":"127.1780081","imageIndex":7,"items":[{"name":"베스킨라빈스남양주진건점","tel":"031-527-3121","addr":"경기도 남양주시 진건읍 용정리 772-6번지 1층 103호,104호","indutype":"음료식품 - 제과점","category":"food"}]},{"lat":"37.66027586","long":"127.17623245","imageIndex":7,"items":[{"name":"보아라 갸또","tel":"","addr":"경기도 남양주시 진건읍 용정리 761-5번지 102호","indutype":"음료식품 - 기타음료식품","category":"food"}]},{"lat":"37.656307046","long":"127.17930565","imageIndex":7,"items":[{"name":"빵굽는사능마을","tel":"031-573-7137","addr":"경기도 남양주시 진건읍 용정리 795-3번지","indutype":"음료식품 - 제과점","category":"food"}]},{"lat":"37.658777143","long":"127.17833687","imageIndex":7,"items":[{"name":"빵할인마트","tel":"02-2179-9447","addr":"경기도 남양주시 진건읍 용정리 774-2, 774-2~3,774-9~10,754-4","indutype":"음료식품 - 제과점","category":"food"}]},{"lat":"37.659056897","long":"127.17803154","imageIndex":7,"items":[{"name":"석희는떡장이1호점","tel":"031-573-0072","addr":"경기도 남양주시 진건읍 용정리 772-12번지 1층","indutype":"음료식품 - 기타음료식품","category":"food"}]},{"lat":"37.684968288","long":"127.19560782","imageIndex":7,"items":[{"name":"알곡이야기","tel":"031-573-4879","addr":"경기도 남양주시 진건읍 용정리 38-1번지","indutype":"음료식품 - 기타음료식품","category":"food"}]},{"lat":"37.684745545","long":"127.19955244","imageIndex":7,"items":[{"name":"애니타임","tel":"031-528-4800","addr":"경기도 남양주시 진건읍 용정리 34-23","indutype":"음료식품 - 기타음료식품","category":"food"}]},{"lat":"37.660552582","long":"127.17797839","imageIndex":7,"items":[{"name":"엔젤프로방스","tel":"031-527-0015","addr":"경기도 남양주시 진건읍 용정리 744-2번지","indutype":"음료식품 - 제과점","category":"food"}]},{"lat":"37.657417602","long":"127.183694","imageIndex":7,"items":[{"name":"영이","tel":"031-575-3654","addr":"경기도 남양주시 진건읍 용정리 365번지 1층 일부","indutype":"음료식품 - 기타음료식품","category":"food"}]},{"lat":"37.656025227","long":"127.18098218","imageIndex":7,"items":[{"name":"온새미로","tel":"02-413-0331","addr":"경기도 남양주시 진건읍 용정리 793-24번지 1층","indutype":"음료식품 - 농·축·수산품","category":"food"},{"name":"풍기지방특산물","tel":"031-528-2194","addr":"경기도 남양주시 진건읍 용정리 793-24번지","indutype":"건강식품 - 기타건강식품","category":"food"}]},{"lat":"37.656833275","long":"127.17683641","imageIndex":7,"items":[{"name":"용정고기사랑","tel":"031-528-9291","addr":"경기도 남양주시 진건읍 용정리 794-129번지","indutype":"음료식품 - 정육점","category":"food"}]},{"lat":"37.655773965","long":"127.18031297","imageIndex":7,"items":[{"name":"우리축산","tel":"031-574-1117","addr":"경기도 남양주시 진건읍 용정리 794-121번지 1층 4호","indutype":"음료식품 - 정육점","category":"food"}]},{"lat":"37.657635951","long":"127.17628298","imageIndex":7,"items":[{"name":"육공판 축산물 도매센터","tel":"031-574-6092","addr":"경기도 남양주시 진건읍 용정리 722-8번지 102호","indutype":"음료식품 - 정육점","category":"food"},{"name":"크라운담배잎","tel":"031-527-3112","addr":"경기도 남양주시 진건읍 용정리 722-8번지","indutype":"음료식품 - 기타음료식품","category":"food"}]},{"lat":"37.671112342","long":"127.18945125","imageIndex":7,"items":[{"name":"자원농원","tel":"","addr":"경기도 남양주시 진건읍 용정리 267-3번지 1층","indutype":"음료식품 - 농·축·수산품","category":"food"}]},{"lat":"37.664745017","long":"127.18785992","imageIndex":7,"items":[{"name":"주식회사 디오","tel":"031-1111-1111","addr":"경기도 남양주시 진건읍 용정리 446-1번지","indutype":"음료식품 - 기타음료식품","category":"food"}]},{"lat":"37.680443961","long":"127.19094831","imageIndex":7,"items":[{"name":"준푸드","tel":"","addr":"경기도 남양주시 진건읍 용정리 127-2번지","indutype":"음료식품 - 정육점","category":"food"}]},{"lat":"37.680132183","long":"127.18870298","imageIndex":7,"items":[{"name":"지현키즈","tel":"070-7520-1017","addr":"경기도 남양주시 진건읍 용정리 160-3번지 1층","indutype":"음료식품 - 농·축·수산품","category":"food"}]},{"lat":"37.657112373","long":"127.17697305","imageIndex":7,"items":[{"name":"진건종합떡방앗간","tel":"031-573-8174","addr":"경기도 남양주시 진건읍 용정리 776-2번지 103호","indutype":"음료식품 - 제과점","category":"food"}]},{"lat":"37.658723119","long":"127.17831408","imageIndex":7,"items":[{"name":"참식품","tel":"031-516-4569","addr":"경기도 남양주시 진건읍 용정리 754-4번지 외4필지","indutype":"음료식품 - 기타음료식품","category":"food"},{"name":"킹 아이스크림 할인점","tel":"070-2636-1786","addr":"경기도 남양주시 진건읍 용정리 754-4번지 용정상가 104호","indutype":"음료식품 - 기타음료식품","category":"food"}]},{"lat":"37.66446719","long":"127.18691853","imageIndex":7,"items":[{"name":"천마산","tel":"031-573-9209","addr":"경기도 남양주시 진건읍 용정리 444-1번지","indutype":"음료식품 - 기타음료식품","category":"food"},{"name":"황제인터내셔널","tel":"031-527-3014","addr":"경기도 남양주시 진건읍 용정리 444-1번지","indutype":"음료식품 - 농·축·수산품","category":"food"}]},{"lat":"37.655750927","long":"127.17763848","imageIndex":7,"items":[{"name":"테마식품","tel":"031-573-0244","addr":"경기도 남양주시 진건읍 용정리 794-10번지","indutype":"음료식품 - 기타음료식품","category":"food"}]},{"lat":"37.659363427","long":"127.17789627","imageIndex":7,"items":[{"name":"파리바게뜨(사능점)","tel":"031-575-0566","addr":"경기도 남양주시 진건읍 용정리 768-1","indutype":"음료식품 - 제과점","category":"food"}]},{"lat":"37.660022087","long":"127.17725183","imageIndex":7,"items":[{"name":"피엔씨(PnC)푸드(사릉점)","tel":"","addr":"경기도 남양주시 진건읍 용정리 758번지 2층 3호","indutype":"음료식품 - 기타음료식품","category":"food"}]},{"lat":"37.682887204","long":"127.18992285","imageIndex":7,"items":[{"name":"한밀제분","tel":"031-911-1784","addr":"경기도 남양주시 진건읍 용정리 91-1번지 외3필지","indutype":"음료식품 - 기타음료식품","category":"food"}]},{"lat":"37.659469652","long":"127.17916581","imageIndex":7,"items":[{"name":"한주아이엔티","tel":"070-4922-1261","addr":"경기도 남양주시 진건읍 용정리 750-1번지 한신그린상가동 지하2호,3호","indutype":"건강식품 - 기타건강식품","category":"food"}]},{"lat":"37.680021916","long":"127.19006303","imageIndex":7,"items":[{"name":"햇고을","tel":"031-575-2027","addr":"경기도 남양주시 진건읍 용정리 155번지","indutype":"음료식품 - 기타음료식품","category":"food"}]}]