[{"lat":"37.506930059","long":"127.19322656","imageIndex":17,"items":[{"name":"(주) 디엠물류","tel":"070-8881-0785","addr":"경기도 하남시 항동 183번지","indutype":"용역 서비스 - 보관및 창고업","category":"other"}]},{"lat":"37.512882007","long":"127.19544726","imageIndex":17,"items":[{"name":"(주)국제연합상사","tel":"031-791-3605","addr":"경기도 하남시 항동 134-1번지","indutype":"주방용구 - 주방용구","category":"other"}]},{"lat":"37.512152603","long":"127.18958649","imageIndex":17,"items":[{"name":"(주)상생","tel":"031-794-5606","addr":"경기도 하남시 항동 30-1번지","indutype":"기타 - 기계공구","category":"other"},{"name":"논스톱무빙","tel":"031-794-8974","addr":"경기도 하남시 항동 30-1번지","indutype":"신변잡화 - 시계","category":"other"}]},{"lat":"37.500655198","long":"127.19006676","imageIndex":17,"items":[{"name":"(주)아조이엔지","tel":"02-567-4330","addr":"경기도 하남시 항동 358-6번지","indutype":"기타 - 기계공구","category":"other"}]},{"lat":"37.505572488","long":"127.19140226","imageIndex":17,"items":[{"name":"광성기업","tel":"02-414-2307","addr":"경기도 하남시 항동 220-6번지","indutype":"서적문구 - 문구용품","category":"other"}]},{"lat":"37.511017223","long":"127.19528413","imageIndex":17,"items":[{"name":"금강얼음","tel":"02-443-7878","addr":"경기도 하남시 항동 161번지 2층","indutype":"유통업 영리 - 기타유통업","category":"other"},{"name":"다온","tel":"","addr":"경기도 하남시 항동 161번지 1층","indutype":"신변잡화 - 기타잡화","category":"other"}]},{"lat":"37.514603976","long":"127.19478434","imageIndex":17,"items":[{"name":"대신렌탈","tel":"031-796-6906","addr":"경기도 하남시 항동 88-1번지","indutype":"레져용품 - 스포츠·레져용품","category":"other"},{"name":"주식회사 대신렌탈","tel":"031-796-6907","addr":"경기도 하남시 항동 88-1번지","indutype":"신변잡화 - 기타잡화","category":"other"}]},{"lat":"37.515854004","long":"127.19622406","imageIndex":17,"items":[{"name":"랜탈시티","tel":"031-792-3932","addr":"경기도 하남시 항동 111번지","indutype":"기타 - 기타 전문점","category":"other"}]},{"lat":"37.51435417","long":"127.19325672","imageIndex":17,"items":[{"name":"렌탈넘버원","tel":"031-796-6763","addr":"경기도 하남시 항동 78-2번지","indutype":"신변잡화 - 기타잡화","category":"other"}]},{"lat":"37.510656773","long":"127.19531713","imageIndex":17,"items":[{"name":"모닝피아","tel":"02-422-2401","addr":"경기도 하남시 항동 160번지 모닝피아","indutype":"신변잡화 - 기타잡화","category":"other"}]},{"lat":"37.501910638","long":"127.18812474","imageIndex":17,"items":[{"name":"범양냉열공조산업","tel":"031-792-1100","addr":"경기도 하남시 항동 339-3번지","indutype":"전기제품 - 냉열기기","category":"other"}]},{"lat":"37.515291414","long":"127.19312337","imageIndex":17,"items":[{"name":"베스코 주식회사","tel":"031-795-0244","addr":"경기도 하남시 항동 92-2번지","indutype":"문화.취미 - 애완동물","category":"other"}]},{"lat":"37.514295229","long":"127.19067768","imageIndex":17,"items":[{"name":"비즈렌탈","tel":"031-111-1111","addr":"경기도 하남시 항동 70-2번지","indutype":"신변잡화 - 기타잡화","category":"other"}]},{"lat":"37.512403746","long":"127.19589846","imageIndex":17,"items":[{"name":"세한금속","tel":"031-791-2398","addr":"경기도 하남시 항동 137-10번지","indutype":"건축자재 - 기타건축자재","category":"other"}]},{"lat":"37.502575804","long":"127.18912159","imageIndex":17,"items":[{"name":"에스더","tel":"031-791-4971","addr":"경기도 하남시 항동 258번지","indutype":"의류 - 정장","category":"other"}]},{"lat":"37.498768484","long":"127.18664686","imageIndex":17,"items":[{"name":"주니크","tel":"031-795-1976","addr":"경기도 하남시 항동 386번지","indutype":"가구 - 일반가구","category":"other"}]},{"lat":"37.514291539","long":"127.1929851","imageIndex":17,"items":[{"name":"친절한 렌탈","tel":"02-790-5122","addr":"경기도 하남시 항동 78-3번지","indutype":"신변잡화 - 기타잡화","category":"other"}]},{"lat":"37.505319995","long":"127.19153734","imageIndex":17,"items":[{"name":"케이인터내셔널","tel":"02-3272-6731","addr":"경기도 하남시 항동 220-10번지","indutype":"전기제품 - 가전제품","category":"other"}]},{"lat":"37.496713313","long":"127.18722985","imageIndex":17,"items":[{"name":"해바라기 렌탈","tel":"031-793-8982","addr":"경기도 하남시 항동 455-5번지","indutype":"신변잡화 - 기타잡화","category":"other"}]}]