[{"lat":"37.420063327","long":"127.73148452","imageIndex":7,"items":[{"name":"B&H Trade","tel":"031-774-2596","addr":"경기도 양평군 양동면 쌍학리 702번지","indutype":"음료식품 - 기타음료식품","category":"food"}]},{"lat":"37.415591271","long":"127.75359236","imageIndex":7,"items":[{"name":"고센건강원","tel":"031-773-1624","addr":"경기도 양평군 양동면 쌍학리 155-9번지 1층","indutype":"건강식품 - 기타건강식품","category":"food"}]},{"lat":"37.419484572","long":"127.75342788","imageIndex":7,"items":[{"name":"김성환베이커리","tel":"031-773-8322","addr":"경기도 양평군 양동면 쌍학리 178-7번지 1층","indutype":"음료식품 - 제과점","category":"food"}]},{"lat":"37.421895998","long":"127.75251432","imageIndex":7,"items":[{"name":"리더스간현 주식회사","tel":"","addr":"경기도 양평군 양동면 쌍학리 237-7번지","indutype":"음료식품 - 농·축·수산품","category":"food"}]},{"lat":"37.413402588","long":"127.75348015","imageIndex":7,"items":[{"name":"산삼촌관광농원","tel":"031-000-0000","addr":"경기도 양평군 양동면 쌍학리 145-5번지","indutype":"건강식품 - 인삼제품","category":"food"}]},{"lat":"37.41933985","long":"127.75351681","imageIndex":7,"items":[{"name":"양동방아간","tel":"031-773-1054","addr":"경기도 양평군 양동면 쌍학리 178-8번지","indutype":"음료식품 - 제과점","category":"food"}]},{"lat":"37.418174598","long":"127.75540295","imageIndex":7,"items":[{"name":"역전방앗간","tel":"031-773-1123","addr":"경기도 양평군 양동면 쌍학리 184번지","indutype":"음료식품 - 기타음료식품","category":"food"}]},{"lat":"37.418400405","long":"127.75531484","imageIndex":7,"items":[{"name":"올바른푸드","tel":"01-2102-5839","addr":"경기도 양평군 양동면 쌍학리 205-7번지 1층","indutype":"건강식품 - 기타건강식품","category":"food"}]},{"lat":"37.42295123","long":"127.75234409","imageIndex":7,"items":[{"name":"주식회사 댓와인","tel":"031-792-7390","addr":"경기도 양평군 양동면 쌍학리 247-12번지 1층 2호","indutype":"음료식품 - 주류 판매점","category":"food"}]},{"lat":"37.403764601","long":"127.74162688","imageIndex":7,"items":[{"name":"주식회사 더시크릿(양평지점)","tel":"031-774-3030","addr":"경기도 양평군 양동면 쌍학리 435-5번지 2층","indutype":"음료식품 - 기타음료식품","category":"food"}]},{"lat":"37.419486006","long":"127.75320197","imageIndex":7,"items":[{"name":"주식회사댓와인","tel":"031-792-7390","addr":"경기도 양평군 양동면 쌍학리 176-3번지","indutype":"음료식품 - 주류 판매점","category":"food"}]}]