[{"lat":"37.37764991","long":"127.2930563","imageIndex":13,"items":[{"name":"H2 hair(에이치투헤어)","tel":"031-769-4894","addr":"경기도 광주시 초월읍 쌍동리 287-3번지","indutype":"보건위생 - 미용원","category":"beauty"},{"name":"J뷰티샵","tel":"031-764-0712","addr":"경기도 광주시 초월읍 쌍동리 287-3번지 104호","indutype":"보건위생 - 피부미용실","category":"beauty"}]},{"lat":"37.36826221","long":"127.3035528","imageIndex":13,"items":[{"name":"S 헤어","tel":"031-762-0055","addr":"경기도 광주시 초월읍 쌍동리 165-7번지 101호","indutype":"보건위생 - 미용원","category":"beauty"}]},{"lat":"37.37901561","long":"127.298244","imageIndex":13,"items":[{"name":"곤지암전국대리운전","tel":"070-8833-7652","addr":"경기도 광주시 초월읍 쌍동리 268-29번지 초월역드림하우스3차 8동 302호","indutype":"보건위생 - 기타대인서비스","category":"beauty"}]},{"lat":"37.36762318","long":"127.3032793","imageIndex":13,"items":[{"name":"김은숙헤어","tel":"031-764-7307","addr":"경기도 광주시 초월읍 쌍동리 151-1번지","indutype":"보건위생 - 미용원","category":"beauty"}]},{"lat":"37.37006767","long":"127.302194","imageIndex":13,"items":[{"name":"까까머리","tel":"031-766-2125","addr":"경기도 광주시 초월읍 쌍동리 129-3번지","indutype":"보건위생 - 미용원","category":"beauty"}]},{"lat":"37.37372835","long":"127.2975797","imageIndex":13,"items":[{"name":"더휴","tel":"031-763-7116","addr":"경기도 광주시 초월읍 쌍동리 260-15번지","indutype":"보건위생 - 미용원","category":"beauty"}]},{"lat":"37.37770022","long":"127.2945807","imageIndex":13,"items":[{"name":"여주헤어갤러리","tel":"031-765-2978","addr":"경기도 광주시 초월읍 쌍동리 279-8번지","indutype":"보건위생 - 미용원","category":"beauty"}]},{"lat":"37.37151172","long":"127.2976388","imageIndex":13,"items":[{"name":"오땡큐","tel":"031-805-4959","addr":"경기도 광주시 초월읍 쌍동리 220-3번지 1층 101호","indutype":"보건위생 - 미용원","category":"beauty"}]},{"lat":"37.36983726","long":"127.300669","imageIndex":13,"items":[{"name":"젠헤어플러스","tel":"031-766-8115","addr":"경기도 광주시 초월읍 쌍동리 125-8번지 (1층3호~4호)","indutype":"보건위생 - 미용원","category":"beauty"}]},{"lat":"37.3712267","long":"127.2999181","imageIndex":13,"items":[{"name":"코코네일","tel":"070-7783-2500","addr":"경기도 광주시 초월읍 쌍동리 194-1번지 해뜨는집 101호","indutype":"보건위생 - 피부미용실","category":"beauty"}]},{"lat":"37.36708955","long":"127.3040787","imageIndex":13,"items":[{"name":"행복나무예술심리센터","tel":"031-769-1068","addr":"경기도 광주시 초월읍 쌍동리 151-3번지","indutype":"보건위생 - 기타대인서비스","category":"beauty"}]},{"lat":"37.37114985","long":"127.2982244","imageIndex":13,"items":[{"name":"헤어캐슬","tel":"031-766-3324","addr":"경기도 광주시 초월읍 쌍동리 184번지","indutype":"보건위생 - 미용원","category":"beauty"}]}]