[{"lat":"37.791897861","long":"127.01031822","imageIndex":17,"items":[{"name":"(주) 백경이엔지","tel":"031-847-0404","addr":"경기도 양주시 백석읍 방성리 545-3번지","indutype":"용역 서비스 - 기타용역서비스","category":"other"},{"name":"우리건재","tel":"031-829-5005","addr":"경기도 양주시 백석읍 방성리 545-3번지 가동","indutype":"건축자재 - 기타건축자재","category":"other"}]},{"lat":"37.79914166","long":"127.0064585","imageIndex":17,"items":[{"name":"(주)대한종합상사","tel":"031-871-0945","addr":"경기도 양주시 백석읍 방성리 473-4번지 1동","indutype":"기타 - 기계공구","category":"other"}]},{"lat":"37.808033888","long":"126.99660226","imageIndex":17,"items":[{"name":"(주)이조테크","tel":"031-855-0945","addr":"경기도 양주시 백석읍 방성리 8-6번지","indutype":"기타 - 기계공구","category":"other"}]},{"lat":"37.801700344","long":"127.00665166","imageIndex":17,"items":[{"name":"7856부대","tel":"031-855-3054","addr":"경기도 양주시 백석읍 방성리 93번지","indutype":"기타 - 비영리/대상","category":"other"}]},{"lat":"37.788843811","long":"127.00691211","imageIndex":17,"items":[{"name":"AL(에이엘)","tel":"031-843-1946","addr":"경기도 양주시 백석읍 방성리 777-5번지","indutype":"문화.취미 - 애완동물","category":"other"}]},{"lat":"37.808286132","long":"126.99621615","imageIndex":17,"items":[{"name":"GS25양주백석점","tel":"","addr":"경기도 양주시 백석읍 방성리 8-7번지","indutype":"유통업 영리 - 편 의 점","category":"other"}]},{"lat":"37.801466127","long":"127.00017952","imageIndex":17,"items":[{"name":"GS25양주해오름점","tel":"","addr":"경기도 양주시 백석읍 방성리 888번지 101호 휴먼시아 제상가동","indutype":"유통업 영리 - 편 의 점","category":"other"}]},{"lat":"37.793645736","long":"127.00971667","imageIndex":17,"items":[{"name":"HAM무선통신","tel":"031-875-4528","addr":"경기도 양주시 백석읍 방성리 537-4번지","indutype":"사무통신 - 통신기기","category":"other"},{"name":"서연상회","tel":"031-879-6784","addr":"경기도 양주시 백석읍 방성리 537-4번지 가동 3호","indutype":"의류 - 정장","category":"other"},{"name":"지우스페이스가구","tel":"031-826-1929","addr":"경기도 양주시 백석읍 방성리 537-4번지 나동 1,2호","indutype":"가구 - 일반가구","category":"other"},{"name":"케이삼덕","tel":"031-868-0701","addr":"경기도 양주시 백석읍 방성리 537-4번지","indutype":"기타 - 기타 전문점","category":"other"}]},{"lat":"37.809114969","long":"126.99565964","imageIndex":17,"items":[{"name":"OK비니루","tel":"031-829-0412","addr":"경기도 양주시 백석읍 방성리 6-3","indutype":"신변잡화 - 기타잡화","category":"other"},{"name":"디엠오피스","tel":"031-855-1120","addr":"경기도 양주시 백석읍 방성리 6-3번지","indutype":"사무통신 - 기타 사무용품","category":"other"},{"name":"미니스톱양주백석점","tel":"031-426-3992","addr":"경기도 양주시 백석읍 방성리 6-3번지 1층","indutype":"유통업 영리 - 편 의 점","category":"other"}]},{"lat":"37.799339866","long":"126.99921448","imageIndex":17,"items":[{"name":"PC아울렛","tel":"031-829-3598","addr":"경기도 양주시 백석읍 방성리 244-1번지","indutype":"사무통신 - 컴퓨터","category":"other"}]},{"lat":"37.804591727","long":"126.98990306","imageIndex":17,"items":[{"name":"가드24","tel":"","addr":"경기도 양주시 백석읍 방성리 23번지 드림팩토리","indutype":"전기제품 - 기타전기제품","category":"other"}]},{"lat":"37.804114941","long":"127.0026321","imageIndex":17,"items":[{"name":"가성천막사","tel":"031-836-4444","addr":"경기도 양주시 백석읍 방성리 119-3번지 1층","indutype":"직물 - 카페트,커튼,천막,지물","category":"other"}]},{"lat":"37.786816744","long":"127.0027911","imageIndex":17,"items":[{"name":"감동CLEAN협동조합","tel":"031-829-1130","addr":"경기도 양주시 백석읍 방성리 700번지 2층 201호","indutype":"용역 서비스 - 종합용역","category":"other"}]},{"lat":"37.809114996","long":"126.99610252","imageIndex":17,"items":[{"name":"강북징크","tel":"031-871-9060","addr":"경기도 양주시 백석읍 방성리 6-1번지","indutype":"건축자재 - 기타건축자재","category":"other"},{"name":"늘기쁜주간보호센타","tel":"031-878-3545","addr":"경기도 양주시 백석읍 방성리 6-1번지 3층","indutype":"기타의료기관 - 기타의료기관 및 기타","category":"other"},{"name":"백석요양원","tel":"031-877-3535","addr":"경기도 양주시 백석읍 방성리 6-1번지 2층","indutype":"기타의료기관 - 기타의료기관 및 기타","category":"other"},{"name":"큰길주야간보호센터","tel":"031-877-3535","addr":"경기도 양주시 백석읍 방성리 6-1번지 2층","indutype":"기타의료기관 - 기타의료기관 및 기타","category":"other"}]},{"lat":"37.808646455","long":"126.9952963","imageIndex":17,"items":[{"name":"광원정공","tel":"031-855-4644","addr":"경기도 양주시 백석읍 방성리 7-5번지","indutype":"기타 - 기계공구","category":"other"},{"name":"대명기계공업사","tel":"031-855-9424","addr":"경기도 양주시 백석읍 방성리 7-5","indutype":"기타 - 기계공구","category":"other"},{"name":"양주현대기계","tel":"031-840-9311","addr":"경기도 양주시 백석읍 방성리 7-5번지 외2필지","indutype":"기타 - 기계공구","category":"other"},{"name":"현대함석닥트","tel":"031-877-3621","addr":"경기도 양주시 백석읍 방성리 7-5번지 나동","indutype":"건축자재 - 보일러·펌프·샷시","category":"other"},{"name":"홍진기아","tel":"031-855-6315","addr":"경기도 양주시 백석읍 방성리 7-5번지 가동 1층","indutype":"기타 - 기계공구","category":"other"},{"name":"흥덕전기재료","tel":"031-879-7084","addr":"경기도 양주시 백석읍 방성리 7-5번지 나동 4호","indutype":"건축자재 - 조명기구","category":"other"}]},{"lat":"37.792285261","long":"127.01043179","imageIndex":17,"items":[{"name":"금강","tel":"031-826-3652","addr":"경기도 양주시 백석읍 방성리 542","indutype":"용역 서비스 - 종합용역","category":"other"}]},{"lat":"37.80111461","long":"126.99640982","imageIndex":17,"items":[{"name":"꿈나무애견미용실","tel":"031-836-1999","addr":"경기도 양주시 백석읍 방성리 185-4번지 A동 2층","indutype":"문화.취미 - 애완동물","category":"other"}]},{"lat":"37.802141859","long":"127.00148529","imageIndex":17,"items":[{"name":"나눔팩","tel":"031-879-1108","addr":"경기도 양주시 백석읍 방성리 115-2번지 1층","indutype":"유통업 영리 - 기타유통업","category":"other"}]},{"lat":"37.789420474","long":"127.00113359","imageIndex":17,"items":[{"name":"나무와선녀군공방","tel":"070-7109-2232","addr":"경기도 양주시 백석읍 방성리 690-4번지 1층","indutype":"가구 - 일반가구","category":"other"},{"name":"트로닉스","tel":"031-866-2237","addr":"경기도 양주시 백석읍 방성리 690-4","indutype":"레져용품 - 스포츠·레져용품","category":"other"}]},{"lat":"37.79215015","long":"127.00993224","imageIndex":17,"items":[{"name":"뉴수호렌트카주식회사양주백석영업소","tel":"031-853-0418","addr":"경기도 양주시 백석읍 방성리 526-25번지","indutype":"여행 - 렌터카","category":"other"}]},{"lat":"37.803232013","long":"127.00263211","imageIndex":17,"items":[{"name":"다모아종합건축","tel":"031-829-5915","addr":"경기도 양주시 백석읍 방성리 106-5번지","indutype":"건축자재 - 인테리어전문","category":"other"}]},{"lat":"37.795870737","long":"127.01415619","imageIndex":17,"items":[{"name":"다빈치쇼파","tel":"031-864-1348","addr":"경기도 양주시 백석읍 방성리 산109번지","indutype":"가구 - 일반가구","category":"other"}]},{"lat":"37.797141605","long":"127.00168975","imageIndex":17,"items":[{"name":"다육이랑 옹이랑","tel":"031-847-9380","addr":"경기도 양주시 백석읍 방성리 398번지","indutype":"문화.취미 - 화원","category":"other"}]},{"lat":"37.798646187","long":"127.00168973","imageIndex":17,"items":[{"name":"대한불교조계종불국사","tel":"031-836-2563","addr":"경기도 양주시 백석읍 방성리 450번지","indutype":"신변잡화 - 기념품점","category":"other"}]},{"lat":"37.798420866","long":"127.0075144","imageIndex":17,"items":[{"name":"대한전기","tel":"031-878-2413","addr":"경기도 양주시 백석읍 방성리 472-9","indutype":"기타 - 기계공구","category":"other"}]},{"lat":"37.785537395","long":"127.00223484","imageIndex":17,"items":[{"name":"도라에멍","tel":"","addr":"경기도 양주시 백석읍 방성리 827번지 3호","indutype":"문화.취미 - 애완동물","category":"other"},{"name":"미니스톱 백석타운점","tel":"031-1577-9621","addr":"경기도 양주시 백석읍 방성리 827번지","indutype":"유통업 영리 - 편 의 점","category":"other"}]},{"lat":"37.791870897","long":"127.00921697","imageIndex":17,"items":[{"name":"동산무역","tel":"031-836-4789","addr":"경기도 양주시 백석읍 방성리 526-21번지 2호","indutype":"의류 - 기타의류","category":"other"},{"name":"주식회사 백마광고종합건설","tel":"031-879-2679","addr":"경기도 양주시 백석읍 방성리 526-21번지","indutype":"용역 서비스 - 기타용역서비스","category":"other"}]},{"lat":"37.807592472","long":"126.99754481","imageIndex":17,"items":[{"name":"동아기계","tel":"031-859-9580","addr":"경기도 양주시 백석읍 방성리 47-3번지","indutype":"기타 - 기계공구","category":"other"}]},{"lat":"37.804394206","long":"127.00032703","imageIndex":17,"items":[{"name":"동훈기획","tel":"031-877-2394","addr":"경기도 양주시 백석읍 방성리 83-14번지","indutype":"건축자재 - 인테리어전문","category":"other"},{"name":"동훈기획","tel":"031-877-2394","addr":"경기도 양주시 백석읍 방성리 83-14번지 1호","indutype":"건축자재 - 인테리어전문","category":"other"},{"name":"세븐일레븐양주꿈나무로점","tel":"031-1577-0711","addr":"경기도 양주시 백석읍 방성리 83-14번지 103호 102호, 103호","indutype":"유통업 영리 - 편 의 점","category":"other"}]},{"lat":"37.808115033","long":"126.99782866","imageIndex":17,"items":[{"name":"두영정밀","tel":"031-826-0773","addr":"경기도 양주시 백석읍 방성리 5-14","indutype":"신변잡화 - 기타잡화","category":"other"}]},{"lat":"37.802520233","long":"127.00014542","imageIndex":17,"items":[{"name":"룬코어(RUNE CORE)","tel":"","addr":"경기도 양주시 백석읍 방성리 164-11번지 영진아트빌라 나동 301호","indutype":"주방용구 - 주방용구","category":"other"}]},{"lat":"37.78572659","long":"127.00171264","imageIndex":17,"items":[{"name":"만듦","tel":"031-837-5030","addr":"경기도 양주시 백석읍 방성리 863-1번지 3호","indutype":"건축자재 - 인테리어전문","category":"other"},{"name":"원탑기획","tel":"","addr":"경기도 양주시 백석읍 방성리 863-1번지 4호","indutype":"건축자재 - 인테리어전문","category":"other"}]},{"lat":"37.805754629","long":"127.0000431","imageIndex":17,"items":[{"name":"만석 지물 페인트","tel":"031-873-7041","addr":"경기도 양주시 백석읍 방성리 80-3번지 102호","indutype":"건축자재 - 페인트","category":"other"}]},{"lat":"37.80489874","long":"127.00048598","imageIndex":17,"items":[{"name":"맘스데일리","tel":"070-7425-4545","addr":"경기도 양주시 백석읍 방성리 81-18번지 1층","indutype":"직물 - 침구·수예점","category":"other"}]},{"lat":"37.804835679","long":"127.00079257","imageIndex":17,"items":[{"name":"백석우체국","tel":"031-879-2004","addr":"경기도 양주시 백석읍 방성리 81-15번지","indutype":"용역 서비스 - 공공요금대행서비스/소","category":"other"}]},{"lat":"37.792393447","long":"127.00921701","imageIndex":17,"items":[{"name":"베스트폴딩도어(Best Folding Door)","tel":"031-848-9157","addr":"경기도 양주시 백석읍 방성리 528-3번지","indutype":"건축자재 - 기타건축자재","category":"other"}]},{"lat":"37.806006928","long":"127.0026321","imageIndex":17,"items":[{"name":"불무리 군장","tel":"031-855-4301","addr":"경기도 양주시 백석읍 방성리 87-19","indutype":"신변잡화 - 기념품점","category":"other"}]},{"lat":"37.80575465","long":"127.00115591","imageIndex":17,"items":[{"name":"불무리군장","tel":"031-855-4301","addr":"경기도 양주시 백석읍 방성리 87-11번지","indutype":"신변잡화 - 기념품점","category":"other"},{"name":"혜성전기히타","tel":"031-837-9666","addr":"경기도 양주시 백석읍 방성리 87-11번지","indutype":"전기제품 - 냉열기기","category":"other"}]},{"lat":"37.793808092","long":"127.00465305","imageIndex":17,"items":[{"name":"블루ENG(청소나라)","tel":"","addr":"경기도 양주시 백석읍 방성리 354-4번지 해송그린빌라 E동 403호","indutype":"용역 서비스 - 종합용역","category":"other"}]},{"lat":"37.805231705","long":"126.99307104","imageIndex":17,"items":[{"name":"사단법인 미래한도여성협회문화복지사업단","tel":"","addr":"경기도 양주시 백석읍 방성리 28-1번지","indutype":"신변잡화 - 기타잡화","category":"other"}]},{"lat":"37.795618856","long":"127.00891073","imageIndex":17,"items":[{"name":"사랑할인마트","tel":"070-8864-2812","addr":"경기도 양주시 백석읍 방성리 489-1번지","indutype":"유통업 영리 - 편 의 점","category":"other"},{"name":"세븐일레븐양주부흥로점","tel":"031-1577-0711","addr":"경기도 양주시 백석읍 방성리 489-1번지","indutype":"유통업 영리 - 편 의 점","category":"other"}]},{"lat":"37.808286202","long":"126.99760154","imageIndex":17,"items":[{"name":"삼보(SAMBO)","tel":"031-871-1233","addr":"경기도 양주시 백석읍 방성리 5-5번지","indutype":"건축자재 - 보일러·펌프·샷시","category":"other"},{"name":"신화모타전기","tel":"031-879-3303","addr":"경기도 양주시 백석읍 방성리 5-5번지","indutype":"수리서비스 - 기타수리서비스","category":"other"},{"name":"우진철물","tel":"031-879-8383","addr":"경기도 양주시 백석읍 방성리 5-5","indutype":"기타 - 기계공구","category":"other"}]},{"lat":"37.799592154","long":"127.00570914","imageIndex":17,"items":[{"name":"삼성피브이씨종합상사","tel":"031-879-0175","addr":"경기도 양주시 백석읍 방성리 428-3번지","indutype":"건축자재 - 기타건축자재","category":"other"}]},{"lat":"37.806114744","long":"126.99451305","imageIndex":17,"items":[{"name":"서남피혁회사","tel":"031-878-0185","addr":"경기도 양주시 백석읍 방성리 36-3","indutype":"직물 - 옷감·직물","category":"other"}]},{"lat":"37.80395272","long":"126.99943","imageIndex":17,"items":[{"name":"선진정보통신","tel":"031-879-4111","addr":"경기도 양주시 백석읍 방성리 122-9번지","indutype":"회원제형태 - 기타1","category":"other"}]},{"lat":"37.798339777","long":"127.00760523","imageIndex":17,"items":[{"name":"성림 E. N. G","tel":"070-8810-9607","addr":"경기도 양주시 백석읍 방성리 472-4번지","indutype":"기타 - 기계공구","category":"other"}]},{"lat":"37.793087334","long":"127.00459627","imageIndex":17,"items":[{"name":"성원건축","tel":"031-855-3018","addr":"경기도 양주시 백석읍 방성리 575-12번지","indutype":"기타 - 기계공구","category":"other"}]},{"lat":"37.798006403","long":"127.00816156","imageIndex":17,"items":[{"name":"성진복층유리","tel":"031-826-6282","addr":"경기도 양주시 백석읍 방성리 471-8","indutype":"건축자재 - 유리","category":"other"}]},{"lat":"37.79175389","long":"126.9993511","imageIndex":17,"items":[{"name":"성호유통","tel":"031-844-5105","addr":"경기도 양주시 백석읍 방성리 646-4번지","indutype":"신변잡화 - 기타잡화","category":"other"}]},{"lat":"37.807835745","long":"126.99796495","imageIndex":17,"items":[{"name":"세븐일레븐양주방성점","tel":"031-1577-0711","addr":"경기도 양주시 백석읍 방성리 5-21번지 1층","indutype":"유통업 영리 - 편 의 점","category":"other"}]},{"lat":"37.790114149","long":"127.00687813","imageIndex":17,"items":[{"name":"세진악기","tel":"031-842-2502","addr":"경기도 양주시 백석읍 방성리 559-7번지","indutype":"레져용품 - 악기점","category":"other"}]},{"lat":"37.805952854","long":"127.00084932","imageIndex":17,"items":[{"name":"송원장갑","tel":"031-826-2663","addr":"경기도 양주시 백석읍 방성리 87-8","indutype":"의류 - 기타의류","category":"other"}]},{"lat":"37.804619459","long":"127.00121272","imageIndex":17,"items":[{"name":"신명산업","tel":"031-876-7672","addr":"경기도 양주시 백석읍 방성리 85-34번지","indutype":"직물 - 카페트,커튼,천막,지물","category":"other"}]},{"lat":"37.802502238","long":"127.00432397","imageIndex":17,"items":[{"name":"신지전자","tel":"02-6409-7372","addr":"경기도 양주시 백석읍 방성리 109-18번지","indutype":"레져용품 - 스포츠·레져용품","category":"other"}]},{"lat":"37.80459244","long":"127.00215519","imageIndex":17,"items":[{"name":"씨유양주26사단점","tel":"031-836-4715","addr":"경기도 양주시 백석읍 방성리 85-3번지 1층","indutype":"유통업 영리 - 편 의 점","category":"other"}]},{"lat":"37.8005021","long":"126.99963454","imageIndex":17,"items":[{"name":"아쏨","tel":"","addr":"경기도 양주시 백석읍 방성리 238번지 나동","indutype":"신변잡화 - 신발","category":"other"}]},{"lat":"37.786870799","long":"127.00213266","imageIndex":17,"items":[{"name":"아이케이(Ik)컴퍼니","tel":"031-829-8648","addr":"경기도 양주시 백석읍 방성리 697-3번지 가동 104호","indutype":"신변잡화 - 기타잡화","category":"other"}]},{"lat":"37.798835325","long":"127.00687859","imageIndex":17,"items":[{"name":"양주가구백화점","tel":"031-878-2567","addr":"경기도 양주시 백석읍 방성리 473-8번지","indutype":"가구 - 일반가구","category":"other"}]},{"lat":"37.806673498","long":"126.99735183","imageIndex":17,"items":[{"name":"양주적벽돌","tel":"031-877-9880","addr":"경기도 양주시 백석읍 방성리 53-46번지","indutype":"건축자재 - 기타건축자재","category":"other"}]},{"lat":"37.798537992","long":"127.00743493","imageIndex":17,"items":[{"name":"양주함석닥트","tel":"031-829-3389","addr":"경기도 양주시 백석읍 방성리 472-10번지","indutype":"용역 서비스 - 기타용역서비스","category":"other"}]},{"lat":"37.799502011","long":"126.9984878","imageIndex":17,"items":[{"name":"어썸","tel":"","addr":"경기도 양주시 백석읍 방성리 251-9번지 삼송에코빌2차 2동 2층 201호","indutype":"레져용품 - 스포츠·레져용품","category":"other"}]},{"lat":"37.799592188","long":"127.00315442","imageIndex":17,"items":[{"name":"에듀바비서울노원지사","tel":"02-1522-0701","addr":"경기도 양주시 백석읍 방성리 440-1번지","indutype":"용역 서비스 - 사무서비스","category":"other"}]},{"lat":"37.794699933","long":"127.00799102","imageIndex":17,"items":[{"name":"에이스전자저울","tel":"","addr":"경기도 양주시 백석읍 방성리 511-2번지 대교산과내아파트","indutype":"기타 - 기계공구","category":"other"}]},{"lat":"37.805700523","long":"126.99846472","imageIndex":17,"items":[{"name":"엠지개발산업주식회사","tel":"031-544-0431","addr":"경기도 양주시 백석읍 방성리 77-2번지","indutype":"기타 - 기계공구","category":"other"}]},{"lat":"37.806502356","long":"126.99821485","imageIndex":17,"items":[{"name":"여우야여우야뭐하니","tel":"031-872-6900","addr":"경기도 양주시 백석읍 방성리 53-23번지 뉴월드빌","indutype":"의류 - 정장","category":"other"}]},{"lat":"37.789897874","long":"127.00810422","imageIndex":17,"items":[{"name":"예성목재","tel":"031-829-5958","addr":"경기도 양주시 백석읍 방성리 783-3","indutype":"건축자재 - 목재·석재·철물","category":"other"}]},{"lat":"37.800871516","long":"127.00490302","imageIndex":17,"items":[{"name":"오성종합부품센타","tel":"031-840-4205","addr":"경기도 양주시 백석읍 방성리 461번지","indutype":"기타 - 기계공구","category":"other"}]},{"lat":"37.801835539","long":"127.00421041","imageIndex":17,"items":[{"name":"온유스틸","tel":"031-874-3538","addr":"경기도 양주시 백석읍 방성리 109-5번지","indutype":"건축자재 - 기타건축자재","category":"other"},{"name":"우성금속산업","tel":"031-874-0494","addr":"경기도 양주시 백석읍 방성리 109-5번지","indutype":"용역 서비스 - 기타용역서비스","category":"other"}]},{"lat":"37.802006593","long":"126.99729541","imageIndex":17,"items":[{"name":"우리샤시","tel":"031-875-8860","addr":"경기도 양주시 백석읍 방성리 179번지","indutype":"건축자재 - 보일러·펌프·샷시","category":"other"}]},{"lat":"37.795204561","long":"127.00463038","imageIndex":17,"items":[{"name":"우리이엔지","tel":"","addr":"경기도 양주시 백석읍 방성리 365번지","indutype":"기타 - 기계공구","category":"other"}]},{"lat":"37.80136704","long":"127.00471","imageIndex":17,"items":[{"name":"우성금속","tel":"031-878-6500","addr":"경기도 양주시 백석읍 방성리 111-8","indutype":"용역 서비스 - 기타용역서비스","category":"other"}]},{"lat":"37.804646472","long":"127.00034973","imageIndex":17,"items":[{"name":"유진","tel":"070-8987-3408","addr":"경기도 양주시 백석읍 방성리 82-2번지","indutype":"신변잡화 - 신발","category":"other"}]},{"lat":"37.806781395","long":"126.99385436","imageIndex":17,"items":[{"name":"이엔테크","tel":"070-7394-0482","addr":"경기도 양주시 백석읍 방성리 16-1번지","indutype":"가구 - 일반가구","category":"other"}]},{"lat":"37.807060957","long":"126.99860091","imageIndex":17,"items":[{"name":"죠스상사","tel":"031-836-7942","addr":"경기도 양주시 백석읍 방성리 51-36번지","indutype":"유통업 영리 - 기타유통업","category":"other"}]},{"lat":"37.802286019","long":"127.00251856","imageIndex":17,"items":[{"name":"주식회사 성심통상","tel":"031-926-3543","addr":"경기도 양주시 백석읍 방성리 109-22번지 1층","indutype":"용역 서비스 - 가례서비스업","category":"other"}]},{"lat":"37.803808522","long":"126.99810148","imageIndex":17,"items":[{"name":"주식회사 유진파워텍","tel":"031-837-3200","addr":"경기도 양주시 백석읍 방성리 127-3번지","indutype":"건축자재 - 기타건축자재","category":"other"}]},{"lat":"37.79347475","long":"127.00393778","imageIndex":17,"items":[{"name":"주식회사 초광씨유아이엔씨","tel":"031-829-1619","addr":"경기도 양주시 백석읍 방성리 575-9번지 102호","indutype":"의류 - 기타의류","category":"other"}]},{"lat":"37.806502397","long":"126.99940717","imageIndex":17,"items":[{"name":"주식회사우진디피피","tel":"031-843-5550","addr":"경기도 양주시 백석읍 방성리 50-22번지","indutype":"서적문구 - 출판 및 인쇄물","category":"other"}]},{"lat":"37.791312442","long":"126.99996418","imageIndex":17,"items":[{"name":"주신산업","tel":"031-829-9156","addr":"경기도 양주시 백석읍 방성리 616-2","indutype":"기타 - 기계공구","category":"other"},{"name":"지소비닐","tel":"031-829-9831","addr":"경기도 양주시 백석읍 방성리 616-2번지","indutype":"유통업 영리 - 기타유통업","category":"other"}]},{"lat":"37.784816632","long":"127.00396036","imageIndex":17,"items":[{"name":"중고 가전가구 재활용","tel":"02-1800-5024","addr":"경기도 양주시 백석읍 방성리 835번지","indutype":"전기제품 - 가전제품","category":"other"}]},{"lat":"37.790780747","long":"127.00926228","imageIndex":17,"items":[{"name":"코인테크","tel":"070-1111-1111","addr":"경기도 양주시 백석읍 방성리 553-2번지","indutype":"농업 - 비료,사료,종자","category":"other"}]},{"lat":"37.801114775","long":"127.00113331","imageIndex":17,"items":[{"name":"태민측량설계사무소","tel":"031-829-3869","addr":"경기도 양주시 백석읍 방성리 114-2","indutype":"용역 서비스 - 사무서비스","category":"other"}]},{"lat":"37.806619406","long":"126.99665916","imageIndex":17,"items":[{"name":"태진기계철강","tel":"031-877-1368","addr":"경기도 양주시 백석읍 방성리 53-16번지","indutype":"기타 - 기계공구","category":"other"}]},{"lat":"37.801448047","long":"126.99823788","imageIndex":17,"items":[{"name":"퓨리피아","tel":"031-1644-3596","addr":"경기도 양주시 백석읍 방성리 173-3번지","indutype":"주방용구 - 정수기","category":"other"}]},{"lat":"37.793204244","long":"127.01018211","imageIndex":17,"items":[{"name":"하나광고","tel":"031-877-4148","addr":"경기도 양주시 백석읍 방성리 537-3번지","indutype":"건축자재 - 인테리어전문","category":"other"}]},{"lat":"37.806060964","long":"127.00065627","imageIndex":17,"items":[{"name":"하늘광고","tel":"031-837-1177","addr":"경기도 양주시 백석읍 방성리 87-7번지 B동","indutype":"건축자재 - 인테리어전문","category":"other"}]},{"lat":"37.792005915","long":"127.01121513","imageIndex":17,"items":[{"name":"하니컴비닐","tel":"031-855-4619","addr":"경기도 양주시 백석읍 방성리 546-2번지 6호","indutype":"농업 - 기타농업관련","category":"other"}]},{"lat":"37.805835704","long":"126.99965702","imageIndex":17,"items":[{"name":"행운편의점 러키세븐(Lucky7)","tel":"031-841-4949","addr":"경기도 양주시 백석읍 방성리 80-15번지","indutype":"유통업 영리 - 편 의 점","category":"other"}]},{"lat":"37.808619532","long":"126.99715864","imageIndex":17,"items":[{"name":"화해농원","tel":"031-855-0343","addr":"경기도 양주시 백석읍 방성리 5-23번지","indutype":"문화.취미 - 화원","category":"other"}]}]