[{"lat":"37.846138026","long":"127.06217731","imageIndex":7,"items":[{"name":"10일 애","tel":"031-111-1111","addr":"경기도 양주시 덕정동 350-4번지","indutype":"건강식품 - 기타건강식품","category":"food"}]},{"lat":"37.834450264","long":"127.06706397","imageIndex":7,"items":[{"name":"21세기 푸줏간","tel":"031-859-3443","addr":"경기도 양주시 덕정동 236-1번지 세원프라자 107호","indutype":"음료식품 - 정육점","category":"food"},{"name":"남도식품","tel":"031-857-2036","addr":"경기도 양주시 덕정동 236-1번지 세원프라자 101호","indutype":"음료식품 - 농·축·수산품","category":"food"}]},{"lat":"37.837144721","long":"127.0658735","imageIndex":7,"items":[{"name":"HK노엘(Noel)","tel":"031-859-9290","addr":"경기도 양주시 덕정동 208번지 금강쇼핑센터 113호","indutype":"음료식품 - 제과점","category":"food"},{"name":"서울떡집","tel":"031-859-0008","addr":"경기도 양주시 덕정동 208번지","indutype":"음료식품 - 제과점","category":"food"}]},{"lat":"37.844615128","long":"127.0627896","imageIndex":7,"items":[{"name":"SHAPLA(샤플라)","tel":"031-864-4070","addr":"경기도 양주시 덕정동 352-8번지","indutype":"음료식품 - 기타음료식품","category":"food"}]},{"lat":"37.843497549","long":"127.06359533","imageIndex":7,"items":[{"name":"건어물 언니네 젓갈","tel":"031-1111-1111","addr":"경기도 양주시 덕정동 133-37번지 제3호","indutype":"음료식품 - 농·축·수산품","category":"food"},{"name":"덕정유통","tel":"031-859-3999","addr":"경기도 양주시 덕정동 133-37번지 7.8호","indutype":"음료식품 - 정육점","category":"food"}]},{"lat":"37.836665797","long":"127.06848589","imageIndex":7,"items":[{"name":"고향맛반찬점","tel":"031-857-8871","addr":"경기도 양주시 덕정동 208-8번지 황금프라자 1층 115호","indutype":"음료식품 - 기타음료식품","category":"food"},{"name":"신원웰빙건강원","tel":"031-857-2091","addr":"경기도 양주시 덕정동 208-8번지 황금프라자 119호","indutype":"회원제형태 - 건강식품","category":"food"},{"name":"응응스크르","tel":"","addr":"경기도 양주시 덕정동 208-8번지 황금프라자 116호","indutype":"음료식품 - 기타음료식품","category":"food"},{"name":"황금축산","tel":"031-928-5865","addr":"경기도 양주시 덕정동 208-8번지 황금프라자 106호","indutype":"음료식품 - 정육점","category":"food"},{"name":"효자떡","tel":"031-858-8400","addr":"경기도 양주시 덕정동 208-8번지 황금프라자 120호","indutype":"음료식품 - 제과점","category":"food"}]},{"lat":"37.840028393","long":"127.06462629","imageIndex":7,"items":[{"name":"공단상회","tel":"031-858-3067","addr":"경기도 양주시 덕정동 218-34번지","indutype":"음료식품 - 기타음료식품","category":"food"}]},{"lat":"37.844777441","long":"127.0625057","imageIndex":7,"items":[{"name":"광덕상회","tel":"031-858-0029","addr":"경기도 양주시 덕정동 350-64번지","indutype":"음료식품 - 기타음료식품","category":"food"}]},{"lat":"37.843422943","long":"127.06832146","imageIndex":7,"items":[{"name":"나길","tel":"031-857-7773","addr":"경기도 양주시 덕정동 192-4번지 2동","indutype":"음료식품 - 농·축·수산품","category":"food"}]},{"lat":"37.840975028","long":"127.06337741","imageIndex":7,"items":[{"name":"낙원복떡집","tel":"031-858-8019","addr":"경기도 양주시 덕정동 156-12","indutype":"음료식품 - 제과점","category":"food"}]},{"lat":"37.844254537","long":"127.06320967","imageIndex":7,"items":[{"name":"다찬","tel":"070-7371-4545","addr":"경기도 양주시 덕정동 132-7번지","indutype":"음료식품 - 기타음료식품","category":"food"}]},{"lat":"37.842666078","long":"127.06845712","imageIndex":7,"items":[{"name":"단단마카롱","tel":"031-861-6555","addr":"경기도 양주시 덕정동 536번지 일성트루엘 상가 103-1호","indutype":"음료식품 - 기타음료식품","category":"food"}]},{"lat":"37.843388624","long":"127.0651517","imageIndex":7,"items":[{"name":"대명","tel":"031-857-0055","addr":"경기도 양주시 덕정동 151-85번지","indutype":"음료식품 - 정육점","category":"food"}]},{"lat":"37.846750733","long":"127.06204147","imageIndex":7,"items":[{"name":"덕정.중국식품상점","tel":"031-864-4989","addr":"경기도 양주시 덕정동 364-7번지","indutype":"음료식품 - 기타음료식품","category":"food"}]},{"lat":"37.844974773","long":"127.06421005","imageIndex":7,"items":[{"name":"덕정정육점","tel":"031-857-8886","addr":"경기도 양주시 덕정동 122-4번지","indutype":"음료식품 - 정육점","category":"food"}]},{"lat":"37.840254532","long":"127.06287696","imageIndex":7,"items":[{"name":"동원방앗간","tel":"031-858-0177","addr":"경기도 양주시 덕정동 288번지","indutype":"음료식품 - 제과점","category":"food"}]},{"lat":"37.843696158","long":"127.06281158","imageIndex":7,"items":[{"name":"동이네 반찬","tel":"031-863-6998","addr":"경기도 양주시 덕정동 350-78번지 외1필지 1층","indutype":"음료식품 - 기타음료식품","category":"food"}]},{"lat":"37.843722644","long":"127.06386818","imageIndex":7,"items":[{"name":"백세건강원","tel":"031-861-2412","addr":"경기도 양주시 덕정동 132-18번지 1층","indutype":"건강식품 - 기타건강식품","category":"food"}]},{"lat":"37.837089321","long":"127.06833858","imageIndex":7,"items":[{"name":"베스킨라빈스31양주덕정점","tel":"031-859-0039","addr":"경기도 양주시 덕정동 208-6번지 두리테크덕정타운 101호","indutype":"음료식품 - 제과점","category":"food"}]},{"lat":"37.844137146","long":"127.06373219","imageIndex":7,"items":[{"name":"별보라","tel":"02-0000-0000","addr":"경기도 양주시 덕정동 131-1번지","indutype":"음료식품 - 기타음료식품","category":"food"}]},{"lat":"37.840281334","long":"127.06332004","imageIndex":7,"items":[{"name":"보원건강원","tel":"031-858-6313","addr":"경기도 양주시 덕정동 219-4번지","indutype":"건강식품 - 기타건강식품","category":"food"}]},{"lat":"37.843723313","long":"127.06256166","imageIndex":7,"items":[{"name":"부흥상회","tel":"031-858-4026","addr":"경기도 양주시 덕정동 350-91번지","indutype":"음료식품 - 농·축·수산품","category":"food"}]},{"lat":"37.83714441","long":"127.06645286","imageIndex":7,"items":[{"name":"빵사부 식빵공장 덕정점","tel":"031-111-1111","addr":"경기도 양주시 덕정동 208-1번지 해밀프라자 110호","indutype":"음료식품 - 제과점","category":"food"},{"name":"성모생활건강","tel":"031-861-7582","addr":"경기도 양주시 덕정동 208-1번지 해밀프라자 204호","indutype":"건강식품 - 기타건강식품","category":"food"},{"name":"신선교","tel":"070-8622-7473","addr":"경기도 양주시 덕정동 208-1번지 해밀프라자 5층 505,506호","indutype":"음료식품 - 기타음료식품","category":"food"}]},{"lat":"37.837116607","long":"127.06787284","imageIndex":7,"items":[{"name":"빵이가득한집","tel":"031-824-4518","addr":"경기도 양주시 덕정동 208-5번지 파르코프라자 104호","indutype":"음료식품 - 제과점","category":"food"},{"name":"해맑은소아과","tel":"031-858-9573","addr":"경기도 양주시 덕정동 208-5번지 파르코프라자 402호","indutype":"회원제형태 - 건강식품","category":"food"}]},{"lat":"37.847227967","long":"127.06256448","imageIndex":7,"items":[{"name":"빵터짐","tel":"031-863-2001","addr":"경기도 양주시 덕정동 365-8번지 1동 1층","indutype":"음료식품 - 제과점","category":"food"},{"name":"서희청과","tel":"031-823-1700","addr":"경기도 양주시 덕정동 365-8번지 101호","indutype":"음료식품 - 농·축·수산품","category":"food"},{"name":"통큰정육점","tel":"031-857-5525","addr":"경기도 양주시 덕정동 365-8번지","indutype":"음료식품 - 정육점","category":"food"}]},{"lat":"37.837144152","long":"127.06692998","imageIndex":7,"items":[{"name":"쁘띠롱","tel":"","addr":"경기도 양주시 덕정동 208-2번지 124호,141호","indutype":"음료식품 - 기타음료식품","category":"food"},{"name":"원더키즈","tel":"031-859-2445","addr":"경기도 양주시 덕정동 208-2번지 양주그랑시떼빌딩 506호","indutype":"음료식품 - 기타음료식품","category":"food"},{"name":"혁이네","tel":"031-862-3414","addr":"경기도 양주시 덕정동 208-2번지 양주그랑시떼빌딩 201호","indutype":"음료식품 - 기타음료식품","category":"food"}]},{"lat":"37.841999754","long":"127.06778624","imageIndex":7,"items":[{"name":"소망쌀유통","tel":"031-857-7744","addr":"경기도 양주시 덕정동 178-6번지","indutype":"음료식품 - 미곡상","category":"food"}]},{"lat":"37.842920517","long":"127.06442421","imageIndex":7,"items":[{"name":"썬타바코","tel":"031-1111-1111","addr":"경기도 양주시 덕정동 151-101번지 나동2호","indutype":"음료식품 - 기타음료식품","category":"food"}]},{"lat":"37.843498158","long":"127.06240242","imageIndex":7,"items":[{"name":"아름정육점","tel":"031-859-4672","addr":"경기도 양주시 덕정동 350-93번지","indutype":"음료식품 - 정육점","category":"food"}]},{"lat":"37.840478516","long":"127.06528558","imageIndex":7,"items":[{"name":"양주스파매점","tel":"031-862-6062","addr":"경기도 양주시 덕정동 162-12번지","indutype":"음료식품 - 기타음료식품","category":"food"}]},{"lat":"37.837920553","long":"127.06393157","imageIndex":7,"items":[{"name":"예쓰매점","tel":"031-000-0000","addr":"경기도 양주시 덕정동 222-27번지 지층","indutype":"음료식품 - 기타음료식품","category":"food"}]},{"lat":"37.843776611","long":"127.06403864","imageIndex":7,"items":[{"name":"우리농산물","tel":"031-858-8070","addr":"경기도 양주시 덕정동 131-49번지","indutype":"음료식품 - 농·축·수산품","category":"food"}]},{"lat":"37.835307188","long":"127.06514491","imageIndex":7,"items":[{"name":"우리밀베이커리","tel":"031-859-1263","addr":"경기도 양주시 덕정동 250-9번지","indutype":"음료식품 - 제과점","category":"food"}]},{"lat":"37.843695225","long":"127.06461799","imageIndex":7,"items":[{"name":"인천정육점","tel":"031-858-1852","addr":"경기도 양주시 덕정동 131-9번지","indutype":"음료식품 - 정육점","category":"food"}]},{"lat":"37.837533166","long":"127.06389717","imageIndex":7,"items":[{"name":"정성담은 건강원","tel":"031-867-3369","addr":"경기도 양주시 덕정동 281-4번지 원잠빌딩 1층","indutype":"건강식품 - 기타건강식품","category":"food"}]},{"lat":"37.84613839","long":"127.06145018","imageIndex":7,"items":[{"name":"조미령의 가마솥 오늘반찬","tel":"031-877-7753","addr":"경기도 양주시 덕정동 350-24번지 A동 1층","indutype":"음료식품 - 기타음료식품","category":"food"}]},{"lat":"37.84258714","long":"127.06448073","imageIndex":7,"items":[{"name":"조인어스","tel":"","addr":"경기도 양주시 덕정동 151-87번지 안동권씨 별관2동상가 1동 4호","indutype":"음료식품 - 제과점","category":"food"}]},{"lat":"37.834586971","long":"127.06412193","imageIndex":7,"items":[{"name":"주식회사경기식품(Gyeonggi Food Co.,LTD.)","tel":"031-829-6600","addr":"경기도 양주시 덕정동 240-42","indutype":"음료식품 - 기타음료식품","category":"food"}]},{"lat":"37.837640972","long":"127.06448798","imageIndex":7,"items":[{"name":"중앙상회","tel":"031-827-5529","addr":"경기도 양주시 덕정동 224-3번지","indutype":"음료식품 - 기타음료식품","category":"food"}]},{"lat":"37.844056487","long":"127.06290276","imageIndex":7,"items":[{"name":"천냥백화점","tel":"031-859-4792","addr":"경기도 양주시 덕정동 351-14번지","indutype":"음료식품 - 기타음료식품","category":"food"}]},{"lat":"37.843750283","long":"127.06267529","imageIndex":7,"items":[{"name":"초심유통","tel":"031-859-1865","addr":"경기도 양주시 덕정동 350-80번지","indutype":"음료식품 - 정육점","category":"food"}]},{"lat":"37.838389856","long":"127.06234152","imageIndex":7,"items":[{"name":"태양고추방앗간","tel":"031-863-8855","addr":"경기도 양주시 덕정동 283-5외1필지","indutype":"음료식품 - 기타음료식품","category":"food"}]},{"lat":"37.843227692","long":"127.06276576","imageIndex":7,"items":[{"name":"행복이야기","tel":"031-868-9720","addr":"경기도 양주시 덕정동 350-97번지 2층","indutype":"건강식품 - 기타건강식품","category":"food"}]},{"lat":"37.843669365","long":"127.06234575","imageIndex":7,"items":[{"name":"형제떡집","tel":"031-858-7579","addr":"경기도 양주시 덕정동 350-88번지","indutype":"음료식품 - 제과점","category":"food"}]},{"lat":"37.841586978","long":"127.06470712","imageIndex":7,"items":[{"name":"활어장군","tel":"031-866-1253","addr":"경기도 양주시 덕정동 154-1번지 4호","indutype":"음료식품 - 농·축·수산품","category":"food"}]}]