[{"lat":"37.210887492","long":"127.03831202","imageIndex":8,"items":[{"name":"365일이편한치과의원","tel":"031-267-0511","addr":"경기도 화성시 진안동 524-1번지 메트로프라자 307","indutype":"의원 - 치과의원","category":"medical"}]},{"lat":"37.215327794","long":"127.04392465","imageIndex":8,"items":[{"name":"경희 나비솔한의원","tel":"031-237-2030","addr":"경기도 화성시 진안동 914-7번지 거성프라자 202호","indutype":"의원 - 한의원","category":"medical"},{"name":"푸른한의원","tel":"031-239-4724","addr":"경기도 화성시 진안동 914-7번지 거성프라자 4층 403호","indutype":"의원 - 한의원","category":"medical"},{"name":"햇살약국","tel":"031-234-5047","addr":"경기도 화성시 진안동 914-7번지 거성프라자 603호","indutype":"약국 - 약국","category":"medical"}]},{"lat":"37.21455358","long":"127.04191887","imageIndex":8,"items":[{"name":"굿키즈소아청소년과의원","tel":"031-221-6582","addr":"경기도 화성시 진안동 914-1번지 메인프라자 409호","indutype":"의원 - 의원","category":"medical"},{"name":"서울큰별정형외과의원","tel":"031-235-7645","addr":"경기도 화성시 진안동 914-1번지 메인프라자 404-1호,404-2호","indutype":"의원 - 의원","category":"medical"},{"name":"예인한의원","tel":"031-221-2046","addr":"경기도 화성시 진안동 914-1번지 메인프라자 405호","indutype":"의원 - 한의원","category":"medical"},{"name":"유  항외과","tel":"031-223-5700","addr":"경기도 화성시 진안동 914-1번지 메인프라자 502호","indutype":"의원 - 의원","category":"medical"},{"name":"태안내과의원","tel":"031-225-5400","addr":"경기도 화성시 진안동 914-1번지 메인프라자 4층 2호","indutype":"의원 - 의원","category":"medical"},{"name":"해맑은치과의원","tel":"031-231-2875","addr":"경기도 화성시 진안동 914-1번지 메인프라자 401호","indutype":"의원 - 치과의원","category":"medical"},{"name":"훼미리약국","tel":"031-221-0340","addr":"경기도 화성시 진안동 914-1번지 메인프라자 4층 403호","indutype":"약국 - 약국","category":"medical"}]},{"lat":"37.214580435","long":"127.04244839","imageIndex":8,"items":[{"name":"다올약국","tel":"031-231-0016","addr":"경기도 화성시 진안동 914-2번지 미래프라자 104호","indutype":"약국 - 약국","category":"medical"},{"name":"미래꿈나무치과","tel":"031-239-4482","addr":"경기도 화성시 진안동 914-2번지 미래프라자 503,504 호","indutype":"의원 - 치과의원","category":"medical"}]},{"lat":"37.208744063","long":"127.03463856","imageIndex":8,"items":[{"name":"도토리약국","tel":"031-232-8238","addr":"경기도 화성시 진안동 525-76번지 101호","indutype":"약국 - 약국","category":"medical"}]},{"lat":"37.215165724","long":"127.04358657","imageIndex":8,"items":[{"name":"동의보감한의원","tel":"031-226-7533","addr":"경기도 화성시 진안동 914-6번지 메디피아 301호","indutype":"의원 - 한의원","category":"medical"},{"name":"서울영소아청소년과의원","tel":"031-235-1082","addr":"경기도 화성시 진안동 914-6번지 메디피아 107호","indutype":"의원 - 의원","category":"medical"},{"name":"센트럴의원","tel":"031-222-8123","addr":"경기도 화성시 진안동 914-6번지 우성메디피아 402호","indutype":"의원 - 의원","category":"medical"}]},{"lat":"37.213490419","long":"127.0417268","imageIndex":8,"items":[{"name":"메디팜이화약국","tel":"031-232-2332","addr":"경기도 화성시 진안동 876-4번지 화인메디컬프라자 105호","indutype":"약국 - 약국","category":"medical"},{"name":"병점신안과의원","tel":"031-238-5800","addr":"경기도 화성시 진안동 876-4화인메디칼4층401호,402호","indutype":"의원 - 의원","category":"medical"}]},{"lat":"37.214913614","long":"127.04305693","imageIndex":8,"items":[{"name":"미즈맘산부인과","tel":"031-223-0020","addr":"경기도 화성시 진안동 914-4번지 매직프랜드 3층","indutype":"의원 - 의원","category":"medical"}]},{"lat":"37.215021643","long":"127.04333864","imageIndex":8,"items":[{"name":"병점탑내과","tel":"031-231-1090","addr":"경기도 화성시 진안동 914-5번지 나라프라자 2층 201호,202호","indutype":"의원 - 의원","category":"medical"},{"name":"탑온누리약국","tel":"031-233-2991","addr":"경기도 화성시 진안동 914-5번지 나라프라자 1층 106,107","indutype":"약국 - 약국","category":"medical"},{"name":"해찬한의원","tel":"031-233-5512","addr":"경기도 화성시 진안동 914-5번지 나라프라자 301,302호","indutype":"의원 - 한의원","category":"medical"}]},{"lat":"37.208635924","long":"127.03469484","imageIndex":8,"items":[{"name":"새서울메디컬","tel":"031-234-2822","addr":"경기도 화성시 진안동 525-96번지","indutype":"의원 - 의원","category":"medical"}]},{"lat":"37.213553938","long":"127.04034113","imageIndex":8,"items":[{"name":"스마트동물병원(병점점)","tel":"031-239-7582","addr":"경기도 화성시 진안동 874-5번지 명민빌딩 1층","indutype":"기타의료기관 - 동물병원","category":"medical"}]},{"lat":"37.208608826","long":"127.03494266","imageIndex":8,"items":[{"name":"신화성약국","tel":"031-223-4383","addr":"경기도 화성시 진안동 527-14번지","indutype":"약국 - 약국","category":"medical"}]},{"lat":"37.209356937","long":"127.03400796","imageIndex":8,"items":[{"name":"위니펫동물병원","tel":"031-225-2513","addr":"경기도 화성시 진안동 540-4번지","indutype":"기타의료기관 - 동물병원","category":"medical"}]},{"lat":"37.207996229","long":"127.03453686","imageIndex":8,"items":[{"name":"인성당한약방","tel":"031-234-0333","addr":"경기도 화성시 진안동 527-20","indutype":"약국 - 한약방","category":"medical"}]},{"lat":"37.213130354","long":"127.04064509","imageIndex":8,"items":[{"name":"토매당 단골약국","tel":"031-898-7799","addr":"경기도 화성시 진안동 877-4번지 아시아빌딩 1층","indutype":"약국 - 약국","category":"medical"}]},{"lat":"37.212887259","long":"127.04005915","imageIndex":8,"items":[{"name":"홍익한의원","tel":"031-235-7586","addr":"경기도 화성시 진안동 877-1번지 삼성프라자 301호","indutype":"의원 - 한의원","category":"medical"}]},{"lat":"37.212888018","long":"127.03755814","imageIndex":8,"items":[{"name":"희망약국","tel":"031-225-8397","addr":"경기도 화성시 진안동 868-8번지","indutype":"약국 - 약국","category":"medical"}]},{"lat":"37.213104316","long":"127.03738925","imageIndex":8,"items":[{"name":"희망찬병원","tel":"031-221-6999","addr":"경기도 화성시 진안동 868-9번지 인동프라자","indutype":"병원 - 병원","category":"medical"}]}]