[{"lat":"37.296039642","long":"127.06924288","imageIndex":17,"items":[{"name":"(주)도솔방재","tel":"031-719-6119","addr":"경기도 용인시 수지구 상현동 1133번지 변호사빌딩 803호","indutype":"기타 - 기계공구","category":"other"},{"name":"광교 산내들화원","tel":"031-285-2642","addr":"경기도 용인시 수지구 상현동 1133번지 변호사빌딩 107호","indutype":"문화.취미 - 화원","category":"other"},{"name":"돈벌마트","tel":"031-266-8119","addr":"경기도 용인시 수지구 상현동 1133번지 변호사빌딩 1층 105호","indutype":"유통업 영리 - 편 의 점","category":"other"},{"name":"법률사무소 은인","tel":"031-546-1544","addr":"경기도 용인시 수지구 상현동 1133번지 변호사빌딩 2층 203호","indutype":"용역 서비스 - 법률회계서비스(개인)","category":"other"},{"name":"주식회사 길벗투어","tel":"031-211-0042","addr":"경기도 용인시 수지구 상현동 1133번지 변호사빌딩 914호","indutype":"여행 - 관광여행","category":"other"}]},{"lat":"37.301935929","long":"127.07829388","imageIndex":17,"items":[{"name":"(주)동행서비스","tel":"070-8031-4038","addr":"경기도 용인시 수지구 상현동 831번지 상현마을쌍용 216동 1604호","indutype":"의류 - 아동의류","category":"other"}]},{"lat":"37.297986024","long":"127.06894007","imageIndex":17,"items":[{"name":"(주)아임구루","tel":"031-211-9593","addr":"경기도 용인시 수지구 상현동 1117-2번지 프리미어타워 8층 803호","indutype":"용역 서비스 - 소프트웨어","category":"other"},{"name":"광교서점","tel":"031-215-9449","addr":"경기도 용인시 수지구 상현동 1117-2번지 광교프리미워타워 205호,206호","indutype":"서적문구 - 일반서적","category":"other"},{"name":"더 포토스타일","tel":"031-267-3175","addr":"경기도 용인시 수지구 상현동 1117-2번지 프리미어타워 305호","indutype":"광학제품 - 사진관","category":"other"}]},{"lat":"37.30942744","long":"127.08576885","imageIndex":17,"items":[{"name":"(주)엔팩토리","tel":"031-6578-8743","addr":"경기도 용인시 수지구 상현동 66-2번지 헤르메스 603호 상가","indutype":"가구 - 일반가구","category":"other"},{"name":"더클래스","tel":"031-261-0011","addr":"경기도 용인시 수지구 상현동 66-2번지 헤르메스빌딩 603호","indutype":"회원제형태 - 레져업소","category":"other"},{"name":"성광글로벌","tel":"070-8847-1297","addr":"경기도 용인시 수지구 상현동 66-2번지 헤르메스 상가 107호","indutype":"의류 - 정장","category":"other"},{"name":"씨유수지만현점","tel":"080-080-3663","addr":"경기도 용인시 수지구 상현동 66-2번지 헤르메스 상가 117호","indutype":"유통업 영리 - 편 의 점","category":"other"},{"name":"위너3D골프","tel":"","addr":"경기도 용인시 수지구 상현동 66-2번지 헤르메스상가 지층 B02호","indutype":"레져용품 - 골프용품 전문점","category":"other"},{"name":"한샘수지지홈","tel":"031-265-9496","addr":"경기도 용인시 수지구 상현동 66-2번지 헤르메스 101호 상가","indutype":"주방용구 - 주방용구","category":"other"},{"name":"한샘키친 수지코너스톤 대리점","tel":"031-265-9496","addr":"경기도 용인시 수지구 상현동 66-2번지 헤르메스상가 101호","indutype":"건축자재 - 인테리어전문","category":"other"}]},{"lat":"37.296516778","long":"127.06996511","imageIndex":17,"items":[{"name":"(주)오늘의기획","tel":"031-215-1017","addr":"경기도 용인시 수지구 상현동 1132-4번지 광교리치안오피스텔 지하1층 103호","indutype":"의류 - 정장","category":"other"},{"name":"(주)오늘커뮤니케이션","tel":"070-8785-7130","addr":"경기도 용인시 수지구 상현동 1132-4번지 광교리치안오피스텔 상가 104호","indutype":"용역 서비스 - 종합용역","category":"other"}]},{"lat":"37.309990511","long":"127.0791705","imageIndex":17,"items":[{"name":"(주)잇다애드","tel":"031-1111-1111","addr":"경기도 용인시 수지구 상현동 96-1번지","indutype":"용역 서비스 - 종합용역","category":"other"},{"name":"삼오조명","tel":"031-262-3062","addr":"경기도 용인시 수지구 상현동 96-1번지 풍산아파트","indutype":"건축자재 - 조명기구","category":"other"}]},{"lat":"37.29705729","long":"127.07014604","imageIndex":17,"items":[{"name":"(주)진렌트카 용인광교영업소","tel":"031-211-2233","addr":"경기도 용인시 수지구 상현동 1132-3번지 310호","indutype":"여행 - 렌터카","category":"other"},{"name":"미톡에스테틱","tel":"070-4416-0088","addr":"경기도 용인시 수지구 상현동 1132-3번지 광교푸르지오시티3단지 302호","indutype":"회원제형태 - 기타4","category":"other"}]},{"lat":"37.307179846","long":"127.09136119","imageIndex":17,"items":[{"name":"(주)크로체코리아","tel":"070-7795-2160","addr":"경기도 용인시 수지구 상현동 272-1번지 B층 01호","indutype":"신변잡화 - 기타잡화","category":"other"}]},{"lat":"37.305227191","long":"127.08786224","imageIndex":17,"items":[{"name":"2nd 에일린","tel":"070-9286-9805","addr":"경기도 용인시 수지구 상현동 861번지","indutype":"회원제형태 - 기타1","category":"other"},{"name":"반딧불이","tel":"","addr":"경기도 용인시 수지구 상현동 861번지 만현마을8단지두산위브아파트","indutype":"용역 서비스 - 종합용역","category":"other"}]},{"lat":"37.308901883","long":"127.07663138","imageIndex":17,"items":[{"name":"4D인테리어","tel":"031-8031-5702","addr":"경기도 용인시 수지구 상현동 107-14번지 중앙프라자 106호","indutype":"건축자재 - 인테리어전문","category":"other"},{"name":"웰빙종합인테리어","tel":"031-266-8303","addr":"경기도 용인시 수지구 상현동 107-14번지 중앙프라자 102호","indutype":"건축자재 - 인테리어전문","category":"other"}]},{"lat":"37.296481049","long":"127.06941244","imageIndex":17,"items":[{"name":"5월의 공작소","tel":"031-213-8050","addr":"경기도 용인시 수지구 상현동 1131-8번지 드림타워2주건축물 1동 9층 904호","indutype":"문화.취미 - 화랑","category":"other"},{"name":"GS25광교드림점","tel":"","addr":"경기도 용인시 수지구 상현동 1131-8번지 광교드림타워 1층 111호","indutype":"유통업 영리 - 편 의 점","category":"other"},{"name":"광교상현역공인중개사사무소","tel":"031-217-0087","addr":"경기도 용인시 수지구 상현동 1131-8번지 109호","indutype":"용역 서비스 - 부동산 중개·임대","category":"other"},{"name":"놀숲 용인광교점","tel":"031-213-6671","addr":"경기도 용인시 수지구 상현동 1131-8번지 드림타워 301호, 302호","indutype":"서적문구 - 일반서적","category":"other"},{"name":"대박폰통신","tel":"031-215-3230","addr":"경기도 용인시 수지구 상현동 1131-8번지 105호","indutype":"사무통신 - 통신기기","category":"other"},{"name":"법률사무소 로안","tel":"031-000-0000","addr":"경기도 용인시 수지구 상현동 1131-8번지 드림타워2 5층 504호","indutype":"용역 서비스 - 법률회계서비스(개인)","category":"other"},{"name":"상현행정사사무소","tel":"031-213-8800","addr":"경기도 용인시 수지구 상현동 1131-8번지 109호","indutype":"용역 서비스 - 법률회계서비스(개인)","category":"other"},{"name":"에스지에이(SGA)","tel":"031-212-8212","addr":"경기도 용인시 수지구 상현동 1131-8번지 505호","indutype":"레져용품 - 골프용품 전문점","category":"other"}]},{"lat":"37.299394108","long":"127.07974629","imageIndex":17,"items":[{"name":"ABG 한중골프기업가위원회","tel":"02-1600-0279","addr":"경기도 용인시 수지구 상현동 866번지 상현마을성원상떼빌아파트","indutype":"회원제형태 - 기타4","category":"other"}]},{"lat":"37.308372024","long":"127.07377701","imageIndex":17,"items":[{"name":"B&J에스데틱","tel":"031-896-7688","addr":"경기도 용인시 수지구 상현동 1099번지 심곡마을광교힐스테이트 202호 상가","indutype":"회원제형태 - 기타4","category":"other"},{"name":"홍선생미술용인수지지사","tel":"031-264-0188","addr":"경기도 용인시 수지구 상현동 1099번지 심곡마을광교힐스테이트 202호","indutype":"회원제형태 - 서적","category":"other"},{"name":"힐세탁소","tel":"031-896-3444","addr":"경기도 용인시 수지구 상현동 1099번지 심곡마을광교힐스테이트 상가동 201호","indutype":"수리서비스 - 세탁소","category":"other"}]},{"lat":"37.297400453","long":"127.06877038","imageIndex":17,"items":[{"name":"CCTV다나와","tel":"11-1661-9308","addr":"경기도 용인시 수지구 상현동 1117-5번지 광교푸르지오시티2차 C동 619호","indutype":"수리서비스 - 사무·통신기기수리","category":"other"},{"name":"키친월드","tel":"031-721-6469","addr":"경기도 용인시 수지구 상현동 1117-5번지 광교2차푸르지오시티 C동 307호","indutype":"전기제품 - 가전제품","category":"other"}]},{"lat":"37.296842218","long":"127.06804809","imageIndex":17,"items":[{"name":"CGV광교상현","tel":"070-8822-4031","addr":"경기도 용인시 수지구 상현동 1116-4번지 3층 301호","indutype":"문화.취미 - 영화관","category":"other"},{"name":"금석","tel":"031-213-1013","addr":"경기도 용인시 수지구 상현동 1116-4번지 더블유스퀘어광교 107호","indutype":"신변잡화 - 귀금속","category":"other"}]},{"lat":"37.309502394","long":"127.08156141","imageIndex":17,"items":[{"name":"CHOI전자","tel":"031-559-7937","addr":"경기도 용인시 수지구 상현동 85-6번지 서원마을현대홈타운아파트","indutype":"전기제품 - 기타전기제품","category":"other"}]},{"lat":"37.313278216","long":"127.09341016","imageIndex":17,"items":[{"name":"E.GHP시스템","tel":"070-7656-9818","addr":"경기도 용인시 수지구 상현동 30번지 성원상떼빌아파트","indutype":"회원제형태 - 기타4","category":"other"}]},{"lat":"37.297931621","long":"127.06954906","imageIndex":17,"items":[{"name":"GS25S상현역점","tel":"","addr":"경기도 용인시 수지구 상현동 502-10번지 상현역 내 상가","indutype":"유통업 영리 - 편 의 점","category":"other"}]},{"lat":"37.297733782","long":"127.0688609","imageIndex":17,"items":[{"name":"GS25광교우리점","tel":"080-555-2525","addr":"경기도 용인시 수지구 상현동 1117-3번지 108호(상현동1117-3,우리상가)","indutype":"유통업 영리 - 편 의 점","category":"other"},{"name":"참앤굿","tel":"031-216-9887","addr":"경기도 용인시 수지구 상현동 1117-3번지 4층","indutype":"신변잡화 - 기타잡화","category":"other"}]},{"lat":"37.300704322","long":"127.07376982","imageIndex":17,"items":[{"name":"GS25광교웅진점","tel":"","addr":"경기도 용인시 수지구 상현동 1107번지 광교마을46단지광교스타클래스","indutype":"유통업 영리 - 편 의 점","category":"other"}]},{"lat":"37.296627835","long":"127.07994649","imageIndex":17,"items":[{"name":"GS25광교타운점","tel":"","addr":"경기도 용인시 수지구 상현동 1159-1번지","indutype":"유통업 영리 - 편 의 점","category":"other"},{"name":"벽창호인테리어 광교점","tel":"031-217-7733","addr":"경기도 용인시 수지구 상현동 1159-1번지","indutype":"건축자재 - 인테리어전문","category":"other"}]},{"lat":"37.311436797","long":"127.08565825","imageIndex":17,"items":[{"name":"GS25수지만현마을점","tel":"","addr":"경기도 용인시 수지구 상현동 857번지 만현마을10단지아이파크 상가동 109호","indutype":"유통업 영리 - 편 의 점","category":"other"},{"name":"한성에너텍","tel":"031-897-9890","addr":"경기도 용인시 수지구 상현동 857","indutype":"전기제품 - 냉열기기","category":"other"}]},{"lat":"37.304512173","long":"127.07935672","imageIndex":17,"items":[{"name":"GS25수지상현로점","tel":"","addr":"경기도 용인시 수지구 상현동 827번지 상가동 103~104호","indutype":"유통업 영리 - 편 의 점","category":"other"},{"name":"젬마","tel":"031-263-0755","addr":"경기도 용인시 수지구 상현동 827금호베스트빌상가건물계단및부속상가","indutype":"의류 - 정장","category":"other"}]},{"lat":"37.302125423","long":"127.07785418","imageIndex":17,"items":[{"name":"GS25수지성진점","tel":"02-2006-2118","addr":"경기도 용인시 수지구 상현동 830번지 성진프라자 108호","indutype":"유통업 영리 - 편 의 점","category":"other"},{"name":"엘리","tel":"031-0000-0000","addr":"경기도 용인시 수지구 상현동 830번지 성진프라자 102호","indutype":"의류 - 정장","category":"other"}]},{"lat":"37.31223487","long":"127.09097229","imageIndex":17,"items":[{"name":"GS25수지송화점","tel":"080-555-2525","addr":"경기도 용인시 수지구 상현동 17-1번지 상록상현프라자 139호","indutype":"유통업 영리 - 편 의 점","category":"other"},{"name":"브레인에듀","tel":"070-7535-5777","addr":"경기도 용인시 수지구 상현동 17-1번지 상록상현프라자 117,118호","indutype":"서적문구 - 기타서적문구","category":"other"},{"name":"세븐피아노","tel":"031-702-2258","addr":"경기도 용인시 수지구 상현동 17-1번지 상록상현프라자 310호","indutype":"레져용품 - 피아노대리점","category":"other"},{"name":"수지행복마지요양원","tel":"031-896-2000","addr":"경기도 용인시 수지구 상현동 17-1번지 상록상현프라자 201호","indutype":"기타의료기관 - 기타의료기관 및 기타","category":"other"},{"name":"에밀리앤제이","tel":"031-261-4692","addr":"경기도 용인시 수지구 상현동 17-1번지 상록상현프라자 103,104호","indutype":"문화.취미 - 화원","category":"other"},{"name":"지앤지컴파니(G&G Company)","tel":"031-266-3431","addr":"경기도 용인시 수지구 상현동 17-1번지 상록상현프라자 1층 116호","indutype":"유통업 영리 - 기타유통업","category":"other"},{"name":"크린토피아성원롯데점","tel":"031-266-7406","addr":"경기도 용인시 수지구 상현동 17-1번지 상현프라자 138호","indutype":"수리서비스 - 세탁소","category":"other"}]},{"lat":"37.306734287","long":"127.08446872","imageIndex":17,"items":[{"name":"GS25수지원희점","tel":"","addr":"경기도 용인시 수지구 상현동 254-14번지 원희캐슬프라자 A동 104호","indutype":"유통업 영리 - 편 의 점","category":"other"},{"name":"드림텔레콤","tel":"031-266-7363","addr":"경기도 용인시 수지구 상현동 254-14번지 원희캐슬프라자 A동 107호","indutype":"사무통신 - 통신기기","category":"other"},{"name":"로이팩토리(Loe Factory)","tel":"031-261-7952","addr":"경기도 용인시 수지구 상현동 254-14번지 원희캐슬프라자 B204호","indutype":"문화.취미 - 문화취미기타","category":"other"},{"name":"마이룸","tel":"031-265-8848","addr":"경기도 용인시 수지구 상현동 254-14번지 원희캐슬프라자 A동 122호","indutype":"의류 - 정장","category":"other"},{"name":"명품옷수선","tel":"031-261-7907","addr":"경기도 용인시 수지구 상현동 254-14번지 원희캐슬프라자 A동 120호","indutype":"수리서비스 - 세탁소","category":"other"},{"name":"미래공인중개사사무소","tel":"031-266-7600","addr":"경기도 용인시 수지구 상현동 254-14번지 원희캐슬프라자 A동 105호","indutype":"용역 서비스 - 부동산 중개·임대","category":"other"},{"name":"비너스 모바일","tel":"031-889-7724","addr":"경기도 용인시 수지구 상현동 254-14번지 원희캐슬프라자 A동 101호","indutype":"사무통신 - 통신기기","category":"other"},{"name":"아카데미라운지 수지상현 모임센터","tel":"031-893-9324","addr":"경기도 용인시 수지구 상현동 254-14번지 원희캐슬프라자 6층 A-603","indutype":"용역 서비스 - 사무서비스","category":"other"},{"name":"용인 상현 작심 스페이스","tel":"031-264-8681","addr":"경기도 용인시 수지구 상현동 254-14번지 원희캐슬프라자 A동 605호","indutype":"용역 서비스 - 사무서비스","category":"other"},{"name":"위드미편의점상현점","tel":"031-265-6725","addr":"경기도 용인시 수지구 상현동 254-14번지 원희캐슬프라자 A동 104호","indutype":"유통업 영리 - 편 의 점","category":"other"}]},{"lat":"37.307292263","long":"127.08541683","imageIndex":17,"items":[{"name":"GS25용인상현점","tel":"","addr":"경기도 용인시 수지구 상현동 259번지 한길프라자 104호","indutype":"유통업 영리 - 편 의 점","category":"other"},{"name":"고탁구","tel":"031-261-5757","addr":"경기도 용인시 수지구 상현동 259번지 한길프라자 602호","indutype":"레져용품 - 스포츠·레져용품","category":"other"},{"name":"브이아이피(VIP)통신","tel":"070-7543-2977","addr":"경기도 용인시 수지구 상현동 259번지 한길프라자 108호","indutype":"사무통신 - 통신기기","category":"other"}]},{"lat":"37.297598147","long":"127.06971795","imageIndex":17,"items":[{"name":"G골드광교점","tel":"031-212-9853","addr":"경기도 용인시 수지구 상현동 1131-3번지 1층 101호","indutype":"신변잡화 - 액세서리","category":"other"},{"name":"광교엘씨학원","tel":"031-214-9332","addr":"경기도 용인시 수지구 상현동 1131-3번지 신명프라자 303-1호","indutype":"서적문구 - 기타서적문구","category":"other"},{"name":"성원","tel":"031-217-5771","addr":"경기도 용인시 수지구 상현동 1131-3번지 603호","indutype":"회원제형태 - 기타4","category":"other"},{"name":"세븐일레븐광교신대역점","tel":"","addr":"경기도 용인시 수지구 상현동 1131-3번지 신명프라자 1층","indutype":"유통업 영리 - 편 의 점","category":"other"},{"name":"율 법무사사무소","tel":"031-217-5787","addr":"경기도 용인시 수지구 상현동 1131-3번지 신명프라자 4층 402-2호","indutype":"용역 서비스 - 법률회계서비스(개인)","category":"other"},{"name":"이룸세무회계사무소","tel":"031-213-1568","addr":"경기도 용인시 수지구 상현동 1131-3번지 신명프라자 301호","indutype":"용역 서비스 - 법률회계서비스(개인)","category":"other"},{"name":"이엠(EM)세탁화이트","tel":"031-215-8557","addr":"경기도 용인시 수지구 상현동 1131-3번지 신명프라자 108호","indutype":"수리서비스 - 세탁소","category":"other"},{"name":"폰마당","tel":"031-214-0909","addr":"경기도 용인시 수지구 상현동 1131-3번지 신명프라자 102호","indutype":"사무통신 - 통신기기","category":"other"}]},{"lat":"37.307761335","long":"127.08463903","imageIndex":17,"items":[{"name":"HS디자인","tel":"031-241-0459","addr":"경기도 용인시 수지구 상현동 257-22번지 거묵푸라자 204호","indutype":"건축자재 - 인테리어전문","category":"other"},{"name":"갤러리","tel":"070-4224-5425","addr":"경기도 용인시 수지구 상현동 257-22번지 거묵푸라자 1층 123호","indutype":"의류 - 정장","category":"other"},{"name":"귀부인","tel":"031-264-1115","addr":"경기도 용인시 수지구 상현동 257-22번지 거묵프라바 1층 121호","indutype":"신변잡화 - 귀금속","category":"other"},{"name":"럭셔리","tel":"031-276-4636","addr":"경기도 용인시 수지구 상현동 257-22번지 거묵프라자 135호","indutype":"의류 - 정장","category":"other"},{"name":"메이 MAY","tel":"","addr":"경기도 용인시 수지구 상현동 257-22번지 거묵푸라자 113호","indutype":"의류 - 정장","category":"other"},{"name":"블루(BLUE)","tel":"031-263-6249","addr":"경기도 용인시 수지구 상현동 257-22번지 거묵프라자 128호","indutype":"의류 - 정장","category":"other"},{"name":"상현컴퓨터","tel":"031-272-0700","addr":"경기도 용인시 수지구 상현동 257-22번지 거묵프라자 119호","indutype":"사무통신 - 컴퓨터","category":"other"},{"name":"수앤지디자인","tel":"031-261-2552","addr":"경기도 용인시 수지구 상현동 257-22번지 거묵프라자 204호","indutype":"용역 서비스 - 종합용역","category":"other"},{"name":"아이린","tel":"031-272-1971","addr":"경기도 용인시 수지구 상현동 257-22번지 거묵프라자 132호","indutype":"의류 - 정장","category":"other"},{"name":"예울","tel":"02-6340-5359","addr":"경기도 용인시 수지구 상현동 257-22번지 거묵프라자 104,105,117,118호","indutype":"사무통신 - 통신기기","category":"other"},{"name":"쪼리청바지","tel":"031-000-0000","addr":"경기도 용인시 수지구 상현동 257-22번지 거묵프라자 108호","indutype":"의류 - 정장","category":"other"},{"name":"포토웰(photowell studio)","tel":"080-950-0955","addr":"경기도 용인시 수지구 상현동 257-22번지 거묵프라자 130호","indutype":"광학제품 - 사진관","category":"other"}]},{"lat":"37.306508413","long":"127.08535957","imageIndex":17,"items":[{"name":"JADE(제이드)","tel":"031-265-6344","addr":"경기도 용인시 수지구 상현동 263번지 미래프라자 113호","indutype":"의류 - 정장","category":"other"},{"name":"르하임스터디카페 수지상현점","tel":"031-000-0000","addr":"경기도 용인시 수지구 상현동 263번지 미래프라자 4층 401호","indutype":"용역 서비스 - 사무서비스","category":"other"}]},{"lat":"37.301200395","long":"127.07291308","imageIndex":17,"items":[{"name":"JQ엔터테인먼트","tel":"031-263-6404","addr":"경기도 용인시 수지구 상현동 853번지","indutype":"용역 서비스 - 종합용역","category":"other"}]},{"lat":"37.306761029","long":"127.0848861","imageIndex":17,"items":[{"name":"Lucid K (루시드 케이)","tel":"031-262-0426","addr":"경기도 용인시 수지구 상현동 254-14번지 외6필지원희캐슬프라자 B동 125호","indutype":"레져용품 - 스포츠·레져용품","category":"other"},{"name":"OK정보통신(수지)","tel":"031-276-1982","addr":"경기도 용인시 수지구 상현동 254-14번지 원희케슬프라자 B동 115호","indutype":"사무통신 - 통신기기","category":"other"},{"name":"대한예수교장로회수지제자교회","tel":"031-266-0633","addr":"경기도 용인시 수지구 상현동 254-14번지 원희캐술 B동 4층","indutype":"기타 - 비영리/대상","category":"other"},{"name":"도그캐슬","tel":"031-263-0322","addr":"경기도 용인시 수지구 상현동 254-14번지 원희캐슬프라자 B동 121호","indutype":"문화.취미 - 애완동물","category":"other"},{"name":"블럭팡용인수지점","tel":"070-8762-1334","addr":"경기도 용인시 수지구 상현동 254-14번지 원희캐슬프라자 B동 6층 605호","indutype":"서적문구 - 완구점","category":"other"},{"name":"비에이블스터디카페 수지상현센터","tel":"02-854-8255","addr":"경기도 용인시 수지구 상현동 254-14번지 원희캐슬프라자 B동 604호","indutype":"용역 서비스 - 사무서비스","category":"other"},{"name":"비와이씨(BYC) 상현점","tel":"031-266-2662","addr":"경기도 용인시 수지구 상현동 254-14번지 원희캐슬프라자 B동 106호,107호","indutype":"의류 - 내의판매","category":"other"},{"name":"아미(Ami)","tel":"031-592-7623","addr":"경기도 용인시 수지구 상현동 254-14번지 원희캐슬프라자 B동 118호","indutype":"의류 - 정장","category":"other"},{"name":"주식회사 이상네트웍스","tel":"031-261-3195","addr":"경기도 용인시 수지구 상현동 254-14번지 원희캐슬프라자 B동 115호","indutype":"사무통신 - 통신기기","category":"other"},{"name":"캡스톤캠퍼스 상현점","tel":"031-1111-1111","addr":"경기도 용인시 수지구 상현동 254-14번지 원희캐슬프라자 B동 2층 201호","indutype":"용역 서비스 - 사무서비스","category":"other"}]},{"lat":"37.313406038","long":"127.09118799","imageIndex":17,"items":[{"name":"YOUNG","tel":"070-7694-0811","addr":"경기도 용인시 수지구 상현동 30번지 성원상떼빌아파트","indutype":"회원제형태 - 기타1","category":"other"},{"name":"메이","tel":"","addr":"경기도 용인시 수지구 상현동 30번지 성원상떼빌아파트","indutype":"문화.취미 - 화원","category":"other"}]},{"lat":"37.308761086","long":"127.08519283","imageIndex":17,"items":[{"name":"가람그룹세무법인","tel":"031-261-8411","addr":"경기도 용인시 수지구 상현동 66-9번지 상현종합상가 508,509호","indutype":"용역 서비스 - 법률회계서비스(법인)","category":"other"},{"name":"김숙경의Knit & Clothes","tel":"031-896-2142","addr":"경기도 용인시 수지구 상현동 66-9 상현종합상가106-2호","indutype":"직물 - 침구·수예점","category":"other"},{"name":"드림디포","tel":"031-276-7414","addr":"경기도 용인시 수지구 상현동 66-9번지 상현종합상가 지하층 103호","indutype":"서적문구 - 문구용품","category":"other"},{"name":"비전문고","tel":"031-276-6311","addr":"경기도 용인시 수지구 상현동 66-9번지 제비층103호~104호","indutype":"서적문구 - 일반서적","category":"other"},{"name":"스마트브릭스","tel":"031-265-2050","addr":"경기도 용인시 수지구 상현동 66-9번지 5층 510-1호","indutype":"서적문구 - 기타서적문구","category":"other"},{"name":"정평종합철물","tel":"031-263-4196","addr":"경기도 용인시 수지구 상현동 66-9번지 외1필지제상현종합 상가동 114호","indutype":"건축자재 - 목재·석재·철물","category":"other"},{"name":"햄프리","tel":"031-896-5343","addr":"경기도 용인시 수지구 상현동 66-9번지 상현종합상가 306호","indutype":"의류 - 기타의류","category":"other"},{"name":"향기나무유통","tel":"031-263-6900","addr":"경기도 용인시 수지구 상현동 66-9번지 상현종합상가 지하1층 103-2호","indutype":"신변잡화 - 기념품점","category":"other"}]},{"lat":"37.301066979","long":"127.06991276","imageIndex":17,"items":[{"name":"가야부띠끄","tel":"","addr":"경기도 용인시 수지구 상현동 1190-2번지 3층","indutype":"의류 - 정장","category":"other"}]},{"lat":"37.297790052","long":"127.08010557","imageIndex":17,"items":[{"name":"갱스터도그","tel":"031-212-5077","addr":"경기도 용인시 수지구 상현동 1157-1번지 1층","indutype":"문화.취미 - 애완동물","category":"other"},{"name":"갱스터독(광교점)","tel":"031-212-5077","addr":"경기도 용인시 수지구 상현동 1157-1번지 1층","indutype":"문화.취미 - 애완동물","category":"other"}]},{"lat":"37.307128349","long":"127.07421576","imageIndex":17,"items":[{"name":"고구려대장간","tel":"","addr":"경기도 용인시 수지구 상현동 168-1번지 심곡마을현대프레미오아파트","indutype":"수리서비스 - 기타수리서비스","category":"other"},{"name":"그레이스","tel":"031-635-2000","addr":"경기도 용인시 수지구 상현동 168-1번지 심곡마을현대프레미오아파트 101동 706호","indutype":"신변잡화 - 액세서리","category":"other"}]},{"lat":"37.297509505","long":"127.06707872","imageIndex":17,"items":[{"name":"골드경남세탁소","tel":"031-217-7898","addr":"경기도 용인시 수지구 상현동 1115번지 광교경남아너스빌 상가동 104호","indutype":"수리서비스 - 세탁소","category":"other"},{"name":"보석십자수 수재샵","tel":"","addr":"경기도 용인시 수지구 상현동 1115번지 광교경남아너스빌 상가동 102-1호","indutype":"직물 - 침구·수예점","category":"other"}]},{"lat":"37.30295624","long":"127.07483218","imageIndex":17,"items":[{"name":"곰디자인","tel":"031-266-1113","addr":"경기도 용인시 수지구 상현동 354-1번지 상현프라자 B102호","indutype":"건축자재 - 인테리어전문","category":"other"},{"name":"공간리뷰","tel":"031-262-0077","addr":"경기도 용인시 수지구 상현동 354-1번지 상현프라자 203동 204호","indutype":"건축자재 - 인테리어전문","category":"other"},{"name":"사운드프로","tel":"031-0000-0000","addr":"경기도 용인시 수지구 상현동 354-1번지 상현프라자 3층 301호","indutype":"전기제품 - 가전제품","category":"other"},{"name":"세명바이오텍","tel":"070-4100-3328","addr":"경기도 용인시 수지구 상현동 354-1번지 상현프라자 204호 , 제2층","indutype":"서적문구 - 과학기자재","category":"other"},{"name":"수도권남부서비스","tel":"031-263-6650","addr":"경기도 용인시 수지구 상현동 354-1번지 상현프라자 302호","indutype":"수리서비스 - 기타수리서비스","category":"other"},{"name":"수지골프클럽","tel":"031-272-1872","addr":"경기도 용인시 수지구 상현동 354-1번지 상현프라자 501호","indutype":"회원제형태 - 레져업소","category":"other"},{"name":"용인대PHK복싱클럽","tel":"031-264-7336","addr":"경기도 용인시 수지구 상현동 354-1번지 상현프라자 601호","indutype":"회원제형태 - 레져업소","category":"other"}]},{"lat":"37.309929544","long":"127.07583148","imageIndex":17,"items":[{"name":"공치는아이","tel":"031-266-0722","addr":"경기도 용인시 수지구 상현동 106-8번지 힐프라자 B01호","indutype":"회원제형태 - 레져업소","category":"other"},{"name":"수지펫","tel":"031-896-8880","addr":"경기도 용인시 수지구 상현동 106-8번지 힐프라자 101호","indutype":"문화.취미 - 애완동물","category":"other"},{"name":"폰이야기","tel":"","addr":"경기도 용인시 수지구 상현동 106-8번지 힐프라자 106호","indutype":"사무통신 - 통신기기","category":"other"},{"name":"헤리티지 디자인","tel":"031-334-0398","addr":"경기도 용인시 수지구 상현동 106-8번지 힐프라자 105호","indutype":"가구 - 일반가구","category":"other"},{"name":"힐링엔젤스 수지점","tel":"031-889-9400","addr":"경기도 용인시 수지구 상현동 106-8번지 힐프라자 302호","indutype":"신변잡화 - 기타잡화","category":"other"}]},{"lat":"37.296733304","long":"127.06946906","imageIndex":17,"items":[{"name":"광교기독문화센터","tel":"070-7624-4644","addr":"경기도 용인시 수지구 상현동 1131-7번지 602호","indutype":"문화.취미 - 문화취미기타","category":"other"},{"name":"세이","tel":"031-217-0982","addr":"경기도 용인시 수지구 상현동 1131-7번지 5층 502호","indutype":"용역 서비스 - 사무서비스","category":"other"},{"name":"씨유광교역점","tel":"031-216-9193","addr":"경기도 용인시 수지구 상현동 1131-7번지 블루스퀘어 1층 105호","indutype":"유통업 영리 - 편 의 점","category":"other"},{"name":"주식회사여심좌훈","tel":"031-211-8838","addr":"경기도 용인시 수지구 상현동 1131-7번지 504호","indutype":"용역 서비스 - 사무서비스","category":"other"},{"name":"황실궁","tel":"031-213-8253","addr":"경기도 용인시 수지구 상현동 1131-7번지 블루스퀘어 302호","indutype":"회원제형태 - 기타4","category":"other"}]},{"lat":"37.298211249","long":"127.06899666","imageIndex":17,"items":[{"name":"광교운동화&이불빨래방","tel":"031-216-8284","addr":"경기도 용인시 수지구 상현동 1117-1번지 티타워 104호","indutype":"수리서비스 - 세탁소","category":"other"}]},{"lat":"37.309189323","long":"127.07804168","imageIndex":17,"items":[{"name":"광천수압구정판매점","tel":"070-8784-8241","addr":"경기도 용인시 수지구 상현동 99 벽산@ 107-1303","indutype":"유통업 영리 - 기타유통업","category":"other"},{"name":"웅이아저씨","tel":"070-5482-4421","addr":"경기도 용인시 수지구 상현동 99번지 벽산블루밍아파트 107동 11층 1102호","indutype":"용역 서비스 - 종합용역","category":"other"}]},{"lat":"37.310263667","long":"127.08819504","imageIndex":17,"items":[{"name":"금속공예공방(Choi Gyuyoung Craft studio)","tel":"031-304-4877","addr":"경기도 용인시 수지구 상현동 856번지 상가동 103-2호","indutype":"신변잡화 - 액세서리","category":"other"},{"name":"크린토피아만현점","tel":"031-262-2453","addr":"경기도 용인시 수지구 상현동 856번지 만현마을아이파트2단지 상가 101호","indutype":"수리서비스 - 세탁소","category":"other"}]},{"lat":"37.311424624","long":"127.07682561","imageIndex":17,"items":[{"name":"기가건장","tel":"031-262-6777","addr":"경기도 용인시 수지구 상현동 102-3번지","indutype":"건축자재 - 목재·석재·철물","category":"other"},{"name":"대성유통상사","tel":"031-264-3349","addr":"경기도 용인시 수지구 상현동 102-3번지","indutype":"건축자재 - 기타건축자재","category":"other"},{"name":"성남목재","tel":"031-262-6777","addr":"경기도 용인시 수지구 상현동 102-3번지","indutype":"건축자재 - 기타건축자재","category":"other"}]},{"lat":"37.313795775","long":"127.08805238","imageIndex":17,"items":[{"name":"기프트포토(Gift Photo)","tel":"","addr":"경기도 용인시 수지구 상현동 1번지 만현마을동보2차아파트","indutype":"광학제품 - 사진관","category":"other"},{"name":"네잎디자인","tel":"070-4274-2658","addr":"경기도 용인시 수지구 상현동 1번지 만현마을동보2차아파트","indutype":"건축자재 - 인테리어전문","category":"other"},{"name":"월유화의 리틀가든","tel":"","addr":"경기도 용인시 수지구 상현동 1번지 만현마을동보2차아파트","indutype":"문화.취미 - 화원","category":"other"},{"name":"젠플스코리아(genplex)","tel":"031-307-4777","addr":"경기도 용인시 수지구 상현동 1번지 만현마을동보2차아파트","indutype":"서적문구 - 과학기자재","category":"other"}]},{"lat":"37.313317548","long":"127.08899942","imageIndex":17,"items":[{"name":"꽃가람화원","tel":"031-272-1235","addr":"경기도 용인시 수지구 상현동 9-12번지","indutype":"문화.취미 - 화원","category":"other"}]},{"lat":"37.311482311","long":"127.08499275","imageIndex":17,"items":[{"name":"나노지비에스(NANOGBS)","tel":"031-898-2738","addr":"경기도 용인시 수지구 상현동 857번지 만현마을10단지아이파크","indutype":"회원제형태 - 기타4","category":"other"}]},{"lat":"37.297267613","long":"127.06447321","imageIndex":17,"items":[{"name":"나라통신GPS","tel":"070-7673-0202","addr":"경기도 용인시 수지구 상현동 1113번지 광교마을45단지","indutype":"사무통신 - 통신기기","category":"other"}]},{"lat":"37.308953802","long":"127.07999291","imageIndex":17,"items":[{"name":"나린헬스케어","tel":"11-111-1111","addr":"경기도 용인시 수지구 상현동 95-7번지 라임카운티 D동 502호","indutype":"회원제형태 - 기타1","category":"other"}]},{"lat":"37.296877935","long":"127.06863459","imageIndex":17,"items":[{"name":"나브르","tel":"","addr":"경기도 용인시 수지구 상현동 1117-7번지 드림타워 405호","indutype":"문화.취미 - 문화취미기타","category":"other"},{"name":"법무법인 운율","tel":"031-548-1737","addr":"경기도 용인시 수지구 상현동 1117-7번지 드림타워 602호, 603호","indutype":"용역 서비스 - 법률회계서비스(법인)","category":"other"},{"name":"법무법인 운율","tel":"031-548-1737","addr":"경기도 용인시 수지구 상현동 1117-7번지 드림타워 602호 603호","indutype":"용역 서비스 - 법률회계서비스(법인)","category":"other"},{"name":"세무법인 윤승 (분사무소)","tel":"","addr":"경기도 용인시 수지구 상현동 1117-7번지 5층 501호","indutype":"용역 서비스 - 법률회계서비스(법인)","category":"other"},{"name":"슈퍼맘용인.수지.죽전지사","tel":"031-215-2254","addr":"경기도 용인시 수지구 상현동 1117-7번지 1동 7층 705호","indutype":"용역 서비스 - 종합용역","category":"other"},{"name":"씨유광교드림타워점","tel":"031-217-8487","addr":"경기도 용인시 수지구 상현동 1117-7번지 드림타워제1동제1층제106호","indutype":"유통업 영리 - 편 의 점","category":"other"},{"name":"올리브유압","tel":"031-213-4018","addr":"경기도 용인시 수지구 상현동 1117-7번지 드림타워 714-1호","indutype":"기타 - 기계공구","category":"other"},{"name":"크린토피아 광교역점","tel":"031-215-9975","addr":"경기도 용인시 수지구 상현동 1117-7번지 드림타워 103호","indutype":"수리서비스 - 세탁소","category":"other"}]},{"lat":"37.304208207","long":"127.07557781","imageIndex":17,"items":[{"name":"네오프런트(주)","tel":"031-276-8624","addr":"경기도 용인시 수지구 상현동 346번지 3층","indutype":"건축자재 - 인테리어전문","category":"other"}]},{"lat":"37.306094444","long":"127.08463722","imageIndex":17,"items":[{"name":"네일킹(NAILKING)","tel":"031-889-3765","addr":"경기도 용인시 수지구 상현동 252번지 SR프라자 125호","indutype":"신변잡화 - 액세서리","category":"other"},{"name":"다다","tel":"031-272-4868","addr":"경기도 용인시 수지구 상현동 252번지 SR프라자 지하 B106호","indutype":"신변잡화 - 기타잡화","category":"other"},{"name":"스마트모바일","tel":"070-4124-3353","addr":"경기도 용인시 수지구 상현동 252번지 SR프라자 128호","indutype":"사무통신 - 통신기기","category":"other"},{"name":"스타샵","tel":"070-7573-3494","addr":"경기도 용인시 수지구 상현동 252번지 SR프라자 110호","indutype":"의류 - 정장","category":"other"},{"name":"아로마건강","tel":"031-265-5022","addr":"경기도 용인시 수지구 상현동 252번지 SR프라자 103호","indutype":"회원제형태 - 기타4","category":"other"},{"name":"열공스터디카페상현점","tel":"031-7845-6787","addr":"경기도 용인시 수지구 상현동 252번지 SR프라자 5층 515,516호","indutype":"용역 서비스 - 사무서비스","category":"other"},{"name":"우리스튜디오","tel":"031-898-2030","addr":"경기도 용인시 수지구 상현동 252번지 외2필지SR프라자1층116호117호","indutype":"광학제품 - 사진관","category":"other"},{"name":"원희플라워","tel":"031-276-9999","addr":"경기도 용인시 수지구 상현동 252번지 에스알프라자 107호","indutype":"문화.취미 - 화원","category":"other"},{"name":"풍경이있는집","tel":"031-889-9799","addr":"경기도 용인시 수지구 상현동 252번지 SR프라자 118호","indutype":"신변잡화 - 기타잡화","category":"other"},{"name":"플스빌 용인수지점","tel":"031-261-2777","addr":"경기도 용인시 수지구 상현동 252번지 SR프라자 1층 103호","indutype":"서적문구 - 완구점","category":"other"}]},{"lat":"37.296600627","long":"127.08021714","imageIndex":17,"items":[{"name":"늘봄","tel":"070-3452-8952","addr":"경기도 용인시 수지구 상현동 1158-12번지 1층 102호","indutype":"의류 - 정장","category":"other"},{"name":"늘봄봄","tel":"","addr":"경기도 용인시 수지구 상현동 1158-12번지 1동 102호","indutype":"의류 - 정장","category":"other"}]},{"lat":"37.311400945","long":"127.08538748","imageIndex":17,"items":[{"name":"다움교육","tel":"070-4045-2215","addr":"경기도 용인시 수지구 상현동 857번지 만현마을10단지아이파크","indutype":"서적문구 - 기타서적문구","category":"other"}]},{"lat":"37.297118128","long":"127.07396946","imageIndex":17,"items":[{"name":"다인방충망","tel":"070-8265-3022","addr":"경기도 용인시 수지구 상현동 1135번지 광교마을휴먼시아41단지","indutype":"수리서비스 - 기타수리서비스","category":"other"}]},{"lat":"37.295870798","long":"127.08021639","imageIndex":17,"items":[{"name":"다인에스앤티","tel":"070-4122-2985","addr":"경기도 용인시 수지구 상현동 1161-3번지 201호","indutype":"서적문구 - 과학기자재","category":"other"}]},{"lat":"37.311785036","long":"127.09005804","imageIndex":17,"items":[{"name":"단지옷장","tel":"","addr":"경기도 용인시 수지구 상현동 859번지 만현마을롯데캐슬아파트","indutype":"의류 - 정장","category":"other"}]},{"lat":"37.30723697","long":"127.08716515","imageIndex":17,"items":[{"name":"대림바스플랜용인상현점","tel":"","addr":"경기도 용인시 수지구 상현동 852번지 만현마을쌍용3차아파트 상가동 B동 101호","indutype":"건축자재 - 건축용 요업제품","category":"other"}]},{"lat":"37.29842777","long":"127.0685006","imageIndex":17,"items":[{"name":"더골프아카데미","tel":"","addr":"경기도 용인시 수지구 상현동 1116번지 A동 2층 203호~208호","indutype":"레져용품 - 골프용품 전문점","category":"other"},{"name":"더도어즈골프","tel":"","addr":"경기도 용인시 수지구 상현동 1116번지 광교2차푸르지오시티 A동 201,202,209,210,211호","indutype":"레져용품 - 골프용품 전문점","category":"other"},{"name":"루미스튜디오","tel":"070-8285-9336","addr":"경기도 용인시 수지구 상현동 1116번지 A동 109호","indutype":"광학제품 - 사진관","category":"other"}]},{"lat":"37.302726157","long":"127.08237774","imageIndex":17,"items":[{"name":"더젬마","tel":"031-111-1111","addr":"경기도 용인시 수지구 상현동 837번지 상현마을금호베스트빌3단지","indutype":"신변잡화 - 기타잡화","category":"other"}]},{"lat":"37.307424905","long":"127.07550195","imageIndex":17,"items":[{"name":"더하스디자인그룹","tel":"031-234-7933","addr":"경기도 용인시 수지구 상현동 193-10번지","indutype":"건축자재 - 인테리어전문","category":"other"}]},{"lat":"37.297654935","long":"127.08004904","imageIndex":17,"items":[{"name":"두리싸롱","tel":"","addr":"경기도 용인시 수지구 상현동 1157-2번지 1층 101호","indutype":"신변잡화 - 신발","category":"other"}]},{"lat":"37.298931992","long":"127.06913264","imageIndex":17,"items":[{"name":"드림디포 광교법원점","tel":"031-216-0970","addr":"경기도 용인시 수지구 상현동 1119-1번지 신대프라자 1층 102호","indutype":"서적문구 - 문구용품","category":"other"}]},{"lat":"37.304561263","long":"127.0866997","imageIndex":17,"items":[{"name":"드림송가","tel":"070-8806-9016","addr":"경기도 용인시 수지구 상현동 861번지 만현마을8단지두산위브아파트","indutype":"사무통신 - 통신기기","category":"other"}]},{"lat":"37.297762659","long":"127.08065819","imageIndex":17,"items":[{"name":"디백","tel":"070-4789-2381","addr":"경기도 용인시 수지구 상현동 1158-2번지 102호","indutype":"의류 - 정장","category":"other"},{"name":"오브제이","tel":"031-203-0398","addr":"경기도 용인시 수지구 상현동 1158-2번지 101호","indutype":"신변잡화 - 액세서리","category":"other"}]},{"lat":"37.30930035","long":"127.08711105","imageIndex":17,"items":[{"name":"디자인 글로벌 맵","tel":"031-898-8866","addr":"경기도 용인시 수지구 상현동 858번지 만현마을5단지아이파크","indutype":"건축자재 - 인테리어전문","category":"other"},{"name":"본 퍼퓸(BON perfume)","tel":"","addr":"경기도 용인시 수지구 상현동 858번지 만현마을5단지아이파크","indutype":"신변잡화 - 기타잡화","category":"other"}]},{"lat":"37.296238501","long":"127.06810396","imageIndex":17,"items":[{"name":"디자인베어","tel":"070-4624-7173","addr":"경기도 용인시 수지구 상현동 1118번지 518호","indutype":"용역 서비스 - 소프트웨어","category":"other"},{"name":"보티브 플라워 부티크","tel":"031-212-7788","addr":"경기도 용인시 수지구 상현동 1118번지 광교유타워 1층 107호","indutype":"문화.취미 - 화원","category":"other"},{"name":"엠티에스(MTS)","tel":"031-218-3213","addr":"경기도 용인시 수지구 상현동 1118번지 533호","indutype":"기타 - 기계공구","category":"other"},{"name":"체크엠주식회사","tel":"031-635-4130","addr":"경기도 용인시 수지구 상현동 1118번지 655호","indutype":"용역 서비스 - 종합용역","category":"other"}]},{"lat":"37.306650281","long":"127.07508385","imageIndex":17,"items":[{"name":"디잘인테리어","tel":"031-264-1004","addr":"경기도 용인시 수지구 상현동 193-11번지 1층","indutype":"건축자재 - 인테리어전문","category":"other"}]},{"lat":"37.298291827","long":"127.06991029","imageIndex":17,"items":[{"name":"디팡 펫스토어","tel":"031-211-7424","addr":"경기도 용인시 수지구 상현동 1131번지 광교스타지 394호","indutype":"문화.취미 - 애완동물","category":"other"},{"name":"씨유수지광교스타지프라자점","tel":"031-216-6618","addr":"경기도 용인시 수지구 상현동 1131번지 1층 106호","indutype":"유통업 영리 - 편 의 점","category":"other"}]},{"lat":"37.29689778","long":"127.0804994","imageIndex":17,"items":[{"name":"라라마랑","tel":"","addr":"경기도 용인시 수지구 상현동 1158-9번지 101호","indutype":"의류 - 아동의류","category":"other"},{"name":"바비엘","tel":"031-425-2062","addr":"경기도 용인시 수지구 상현동 1158-9번지 102호","indutype":"의류 - 정장","category":"other"}]},{"lat":"37.297264832","long":"127.06960487","imageIndex":17,"items":[{"name":"라임","tel":"031-1111-1111","addr":"경기도 용인시 수지구 상현동 1131-5번지 에스타워 101호","indutype":"의류 - 정장","category":"other"},{"name":"보우(BOW)쥬얼리","tel":"","addr":"경기도 용인시 수지구 상현동 1131-5번지 105호","indutype":"신변잡화 - 액세서리","category":"other"},{"name":"주식회사 브엘세바 하임","tel":"031-234-7778","addr":"경기도 용인시 수지구 상현동 1131-5번지 901호","indutype":"건축자재 - 부동산 분양","category":"other"},{"name":"주식회사 예울","tel":"02-1111-1111","addr":"경기도 용인시 수지구 상현동 1131-5번지 에스타워 103호","indutype":"사무통신 - 통신기기","category":"other"},{"name":"커피랑도서관 광교상현역점","tel":"","addr":"경기도 용인시 수지구 상현동 1131-5번지 201호","indutype":"용역 서비스 - 사무서비스","category":"other"}]},{"lat":"37.307094773","long":"127.08435631","imageIndex":17,"items":[{"name":"루","tel":"031-263-3063","addr":"경기도 용인시 수지구 상현동 254-9번지 나래빌딩 103호","indutype":"의류 - 정장","category":"other"},{"name":"삼신유통","tel":"031-212-3542","addr":"경기도 용인시 수지구 상현동 254-9번지 나래빌딩 1층 2호","indutype":"의류 - 내의판매","category":"other"},{"name":"온더데스크 스터디 센터","tel":"031-264-0909","addr":"경기도 용인시 수지구 상현동 254-9번지 나래빌딩 4층 2호","indutype":"용역 서비스 - 사무서비스","category":"other"},{"name":"홈스토리","tel":"031-897-5815","addr":"경기도 용인시 수지구 상현동 254-9번지 나래빌딩 1층 2호","indutype":"건축자재 - 인테리어전문","category":"other"}]},{"lat":"37.308510309","long":"127.08299295","imageIndex":17,"items":[{"name":"루루","tel":"031-261-0059","addr":"경기도 용인시 수지구 상현동 90-8번지 세움빌딩 1층","indutype":"의류 - 정장","category":"other"},{"name":"헝그리오디오","tel":"070-4154-6759","addr":"경기도 용인시 수지구 상현동 90-8번지 세움빌딩 401호 상현동","indutype":"전기제품 - 가전제품","category":"other"}]},{"lat":"37.30901016","long":"127.07638332","imageIndex":17,"items":[{"name":"리본키즈","tel":"070-4068-1260","addr":"경기도 용인시 수지구 상현동 107-5번지 신성프라자 107호","indutype":"의류 - 정장","category":"other"},{"name":"마리","tel":"031-896-4462","addr":"경기도 용인시 수지구 상현동 107-5번지 신성프라자 1층 109호","indutype":"의류 - 정장","category":"other"},{"name":"컴스토어","tel":"031-000-0000","addr":"경기도 용인시 수지구 상현동 107-5번지 신성프라자 107호","indutype":"사무통신 - 컴퓨터","category":"other"},{"name":"크린토피아","tel":"031-896-7777","addr":"경기도 용인시 수지구 상현동 107-5번지 신성프라자 111호","indutype":"수리서비스 - 세탁소","category":"other"}]},{"lat":"37.295904108","long":"127.06991945","imageIndex":17,"items":[{"name":"리치아이 (주)","tel":"031-262-5544","addr":"경기도 용인시 수지구 상현동 1133-2번지 2층 205호","indutype":"용역 서비스 - 부동산 중개·임대","category":"other"},{"name":"제이바이오(J-Bio)","tel":"031-232-1355","addr":"경기도 용인시 수지구 상현동 1133-2번지 이드벤스힐오피스텔 408호","indutype":"서적문구 - 과학기자재","category":"other"},{"name":"주식회사 샤크스킨코리아","tel":"031-212-1198","addr":"경기도 용인시 수지구 상현동 1133-2번지 918호","indutype":"레져용품 - 스포츠·레져용품","category":"other"}]},{"lat":"37.309227581","long":"127.07446591","imageIndex":17,"items":[{"name":"릴코리아","tel":"","addr":"경기도 용인시 수지구 상현동 1099번지 심곡마을광교힐스테이트 208동 1104호","indutype":"용역 서비스 - 기타용역서비스","category":"other"}]},{"lat":"37.304095855","long":"127.08216487","imageIndex":17,"items":[{"name":"마리세실플라워","tel":"031-266-5777","addr":"경기도 용인시 수지구 상현동 838번지 상현마을동일스위트 상현-207","indutype":"문화.취미 - 화원","category":"other"}]},{"lat":"37.31250462","long":"127.09171713","imageIndex":17,"items":[{"name":"마실아띠","tel":"","addr":"경기도 용인시 수지구 상현동 30번지 성원상떼빌아파트","indutype":"의류 - 정장","category":"other"}]},{"lat":"37.303694325","long":"127.08941706","imageIndex":17,"items":[{"name":"마이우스","tel":"031-276-7446","addr":"경기도 용인시 수지구 상현동 869번지 만현마을9단지엘지자이아파트","indutype":"서적문구 - 문구용품","category":"other"},{"name":"알씨카","tel":"031-308-5392","addr":"경기도 용인시 수지구 상현동 869번지 만현마을9단지엘지자이아파트","indutype":"서적문구 - 완구점","category":"other"}]},{"lat":"37.302693402","long":"127.07732463","imageIndex":17,"items":[{"name":"멍 Mother","tel":"","addr":"경기도 용인시 수지구 상현동 824번지","indutype":"문화.취미 - 애완동물","category":"other"}]},{"lat":"37.308191731","long":"127.08761741","imageIndex":17,"items":[{"name":"메리핑크","tel":"031-266-5884","addr":"경기도 용인시 수지구 상현동 858 만현마을5단지아이파크 502-1802 14/","indutype":"회원제형태 - 기타1","category":"other"}]},{"lat":"37.300397486","long":"127.0745816","imageIndex":17,"items":[{"name":"멘토르7 스터디센터","tel":"031-213-0505","addr":"경기도 용인시 수지구 상현동 1129번지 광교파크프라자 205호","indutype":"용역 서비스 - 사무서비스","category":"other"},{"name":"세븐일레븐수지상현도서관점","tel":"031-1577-0711","addr":"경기도 용인시 수지구 상현동 1129번지 광교파크프라자 102호","indutype":"유통업 영리 - 편 의 점","category":"other"},{"name":"주식회사 디아망산후조리원","tel":"031-225-0011","addr":"경기도 용인시 수지구 상현동 1129번지 3 ,4,5층","indutype":"기타의료기관 - 산후조리원","category":"other"}]},{"lat":"37.30378532","long":"127.08818772","imageIndex":17,"items":[{"name":"멜로즈(Melrose)","tel":"070-7567-5226","addr":"경기도 용인시 수지구 상현동 869번지 만현마을9단지엘지자이아파트","indutype":"회원제형태 - 기타4","category":"other"}]},{"lat":"37.305014542","long":"127.08269597","imageIndex":17,"items":[{"name":"문구플러스","tel":"031-262-8955","addr":"경기도 용인시 수지구 상현동 244-2번지 반석빌딩 1층 102호","indutype":"서적문구 - 문구용품","category":"other"},{"name":"수지솔개초교점","tel":"031-264-8414","addr":"경기도 용인시 수지구 상현동 244-2번지","indutype":"수리서비스 - 세탁소","category":"other"},{"name":"플라워풀(Flowerful)","tel":"031-266-4740","addr":"경기도 용인시 수지구 상현동 244-2번지 반석빌딩 103호","indutype":"문화.취미 - 화원","category":"other"}]},{"lat":"37.297959319","long":"127.06835357","imageIndex":17,"items":[{"name":"미니스톱수지푸르지오점","tel":"031-1577-9621","addr":"경기도 용인시 수지구 상현동 1116-1번지 108,109호","indutype":"유통업 영리 - 편 의 점","category":"other"},{"name":"본밸런스광교점","tel":"031-8001-1119","addr":"경기도 용인시 수지구 상현동 1116-1번지 308-9호","indutype":"회원제형태 - 레져업소","category":"other"},{"name":"성진 쿨(cool)","tel":"02-1522-4662","addr":"경기도 용인시 수지구 상현동 1116-1번지 광교푸르지오시티1단지 503호","indutype":"주방용구 - 주방용구","category":"other"},{"name":"올에이융합독서","tel":"031-212-3870","addr":"경기도 용인시 수지구 상현동 1116-1번지 광교푸르지오시티1단지 904호","indutype":"회원제형태 - 서적","category":"other"},{"name":"티위낫(TEEWINOT)","tel":"031-306-3218","addr":"경기도 용인시 수지구 상현동 1116-1번지 504호","indutype":"용역 서비스 - 종합용역","category":"other"}]},{"lat":"37.29595559","long":"127.07432927","imageIndex":17,"items":[{"name":"미니스톱수지휴먼시아점","tel":"031-1577-9621","addr":"경기도 용인시 수지구 상현동 1135번지 광교마을휴먼시아41단지 상가동 101호","indutype":"유통업 영리 - 편 의 점","category":"other"},{"name":"세탁유토피아","tel":"031-276-0991","addr":"경기도 용인시 수지구 상현동 1135번지 광교마을휴먼시아41단지 상가동 103호","indutype":"수리서비스 - 세탁소","category":"other"}]},{"lat":"37.313183518","long":"127.08744252","imageIndex":17,"items":[{"name":"민예사","tel":"070-4001-2522","addr":"경기도 용인시 수지구 상현동 1","indutype":"회원제형태 - 기타4","category":"other"},{"name":"세종상사","tel":"031-304-1113","addr":"경기도 용인시 수지구 상현동 1","indutype":"회원제형태 - 기타3","category":"other"},{"name":"한줄기빛","tel":"031-708-3571","addr":"경기도 용인시 수지구 상현동 1번지 만현마을동보2차아파트","indutype":"의류 - 내의판매","category":"other"}]},{"lat":"37.297597834","long":"127.07027059","imageIndex":17,"items":[{"name":"밀라노 옷수선","tel":"031-217-6175","addr":"경기도 용인시 수지구 상현동 1132-1번지 203호","indutype":"수리서비스 - 세탁소","category":"other"},{"name":"법무사방돈기","tel":"031-211-5230","addr":"경기도 용인시 수지구 상현동 1132-1번지 305호","indutype":"용역 서비스 - 법률회계서비스(개인)","category":"other"},{"name":"에벤에셀","tel":"031-212-6222","addr":"경기도 용인시 수지구 상현동 1132-1번지 110호","indutype":"수리서비스 - 세탁소","category":"other"}]},{"lat":"37.310761877","long":"127.08443923","imageIndex":17,"items":[{"name":"반짝임","tel":"","addr":"경기도 용인시 수지구 상현동 1201번지 수지휴엔하임아파트","indutype":"신변잡화 - 액세서리","category":"other"}]},{"lat":"37.297095991","long":"127.08052216","imageIndex":17,"items":[{"name":"발리데꼬르","tel":"070-8170-7242","addr":"경기도 용인시 수지구 상현동 1158-8","indutype":"직물 - 침구·수예점","category":"other"},{"name":"헬로니트(Hello Knit)","tel":"070-4035-7554","addr":"경기도 용인시 수지구 상현동 1158-8번지 1층","indutype":"의류 - 정장","category":"other"}]},{"lat":"37.296625692","long":"127.06855542","imageIndex":17,"items":[{"name":"법률사무소 동행","tel":"031-214-1400","addr":"경기도 용인시 수지구 상현동 1117-8번지 광교2차푸르지오시티 D동 2층 205호","indutype":"용역 서비스 - 법률회계서비스(개인)","category":"other"},{"name":"블레슈","tel":"","addr":"경기도 용인시 수지구 상현동 1117-8번지 광교2차푸르지오시티 D동 109호","indutype":"의류 - 정장","category":"other"},{"name":"캔들라인광교점","tel":"031-217-3559","addr":"경기도 용인시 수지구 상현동 1117-8번지 광교푸르지오시티 D동 102호","indutype":"신변잡화 - 기타잡화","category":"other"}]},{"lat":"37.298066616","long":"127.06983114","imageIndex":17,"items":[{"name":"법무사정재훈사무소","tel":"031-217-2547","addr":"경기도 용인시 수지구 상현동 1131-1번지 킴앤코시티하임 603호","indutype":"용역 서비스 - 법률회계서비스(개인)","category":"other"}]},{"lat":"37.308202898","long":"127.08454926","imageIndex":17,"items":[{"name":"베이프하우스","tel":"031-889-6561","addr":"경기도 용인시 수지구 상현동 257-32번지 파크빌딩 104호","indutype":"기타 - 기타 전문점","category":"other"},{"name":"어라운드스터디룸 상현점","tel":"","addr":"경기도 용인시 수지구 상현동 257-32번지 파크빌딩 외2필지 301,302호","indutype":"용역 서비스 - 사무서비스","category":"other"},{"name":"종로 금은거래소","tel":"031-261-7367","addr":"경기도 용인시 수지구 상현동 257-32번지 파크빌딩 103호","indutype":"신변잡화 - 귀금속","category":"other"},{"name":"토즈멤버십라운지 상현센터","tel":"031-261-0097","addr":"경기도 용인시 수지구 상현동 257-32번지 4층 401,402호","indutype":"용역 서비스 - 사무서비스","category":"other"}]},{"lat":"37.298427463","long":"127.06905324","imageIndex":17,"items":[{"name":"변호사안재중법률사무소","tel":"031-214-9361","addr":"경기도 용인시 수지구 상현동 1117번지 704호","indutype":"용역 서비스 - 법률회계서비스(개인)","category":"other"},{"name":"주식회사 임팩트 투어","tel":"031-214-6632","addr":"경기도 용인시 수지구 상현동 1117번지 광교스타천빌딩 303호","indutype":"여행 - 관광여행","category":"other"}]},{"lat":"37.300514144","long":"127.07535996","imageIndex":17,"items":[{"name":"보생이 식문화 연구소","tel":"031-8025-0902","addr":"경기도 용인시 수지구 상현동 1108번지 광교마을46단지광교스타클래스","indutype":"회원제형태 - 사무서비스","category":"other"}]},{"lat":"37.304260863","long":"127.09091787","imageIndex":17,"items":[{"name":"부들(booodl)","tel":"","addr":"경기도 용인시 수지구 상현동 869번지 만현마을9단지엘지자이아파트","indutype":"문화.취미 - 애완동물","category":"other"}]},{"lat":"37.296150277","long":"127.07996856","imageIndex":17,"items":[{"name":"분스","tel":"031-212-4604","addr":"경기도 용인시 수지구 상현동 1160-1번지 101호","indutype":"의류 - 정장","category":"other"}]},{"lat":"37.30487519","long":"127.08869653","imageIndex":17,"items":[{"name":"브랜타임","tel":"031-302-8463","addr":"경기도 용인시 수지구 상현동 861","indutype":"회원제형태 - 기타4","category":"other"}]},{"lat":"37.298284563","long":"127.0667523","imageIndex":17,"items":[{"name":"비케이 이벤트","tel":"","addr":"경기도 용인시 수지구 상현동 1115번지 광교경남아너스빌 4302동 304호","indutype":"용역 서비스 - 종합용역","category":"other"},{"name":"와이에스(YS)인터내셔날","tel":"031-372-1719","addr":"경기도 용인시 수지구 상현동 1115번지 광교경남아너스빌 4302동 1301호","indutype":"신변잡화 - 기타잡화","category":"other"}]},{"lat":"37.305320454","long":"127.08333923","imageIndex":17,"items":[{"name":"빅트와","tel":"031-4722-0322","addr":"경기도 용인시 수지구 상현동 855번지 상현마을현대성우3차아파트","indutype":"의류 - 정장","category":"other"}]},{"lat":"37.296993304","long":"127.07173623","imageIndex":17,"items":[{"name":"상록자이세탁","tel":"031-212-0065","addr":"경기도 용인시 수지구 상현동 1134번지 광교상록자이 상가 202호","indutype":"수리서비스 - 세탁소","category":"other"}]},{"lat":"37.310459778","long":"127.07802038","imageIndex":17,"items":[{"name":"상현골프샵","tel":"031-265-8506","addr":"경기도 용인시 수지구 상현동 101-5번지 상현골프연습장내 1층","indutype":"레져용품 - 스포츠·레져용품","category":"other"},{"name":"영우어패럴","tel":"031-264-4167","addr":"경기도 용인시 수지구 상현동 101-5번지 상현골프연습장내 1층","indutype":"의류 - 정장","category":"other"}]},{"lat":"37.30995243","long":"127.08227254","imageIndex":17,"items":[{"name":"상현노인전문요양원","tel":"031-896-1507","addr":"경기도 용인시 수지구 상현동 85-3번지 보라프라자 1층","indutype":"기타의료기관 - 기타의료기관 및 기타","category":"other"},{"name":"상현노인주야간보호센터","tel":"031-896-1507","addr":"경기도 용인시 수지구 상현동 85-3번지 보라프라자","indutype":"기타의료기관 - 기타의료기관 및 기타","category":"other"}]},{"lat":"37.312109967","long":"127.08929134","imageIndex":17,"items":[{"name":"상현메디칼","tel":"031-264-7919","addr":"경기도 용인시 수지구 상현동 859번지 만현마을롯데캐슬아파트","indutype":"기타의료기관 - 기타의료기관 및 기타","category":"other"}]},{"lat":"37.300531152","long":"127.07699541","imageIndex":17,"items":[{"name":"샘즈랩","tel":"031-205-8496","addr":"경기도 용인시 수지구 상현동 866번지 상현마을성원상떼빌아파트","indutype":"서적문구 - 기타서적문구","category":"other"}]},{"lat":"37.311283497","long":"127.08583857","imageIndex":17,"items":[{"name":"서유상사","tel":"070-8222-8744","addr":"경기도 용인시 수지구 상현동 857만현마을10단지아이파크1004-304 25/","indutype":"회원제형태 - 기타4","category":"other"}]},{"lat":"37.306384843","long":"127.08158073","imageIndex":17,"items":[{"name":"석천씨씨주식회사","tel":"070-7570-3801","addr":"경기도 용인시 수지구 상현동 842번지 상현마을수지센트럴아이파크 108동 1304호","indutype":"신변잡화 - 기타잡화","category":"other"}]},{"lat":"37.300017008","long":"127.07788593","imageIndex":17,"items":[{"name":"성원인테리어","tel":"031-264-5003","addr":"경기도 용인시 수지구 상현동 866번지 상가동 1층 112,113호","indutype":"건축자재 - 인테리어전문","category":"other"}]},{"lat":"37.294898944","long":"127.07827558","imageIndex":17,"items":[{"name":"세븐일레븐광교지웰점","tel":"031-1577-0711","addr":"경기도 용인시 수지구 상현동 1137번지 광교지웰홈스 1층 A105호","indutype":"유통업 영리 - 편 의 점","category":"other"}]},{"lat":"37.29601494","long":"127.08025038","imageIndex":17,"items":[{"name":"손끝에","tel":"031-223-4572","addr":"경기도 용인시 수지구 상현동 1161-2번지 1층 101호","indutype":"문화.취미 - 민예·공예품","category":"other"}]},{"lat":"37.313506984","long":"127.08869506","imageIndex":17,"items":[{"name":"솔담","tel":"031-896-3025","addr":"경기도 용인시 수지구 상현동 9-1","indutype":"문화.취미 - 화원","category":"other"}]},{"lat":"37.303035442","long":"127.07787765","imageIndex":17,"items":[{"name":"수농원","tel":"031-896-5510","addr":"경기도 용인시 수지구 상현동 824번지","indutype":"문화.취미 - 화원","category":"other"}]},{"lat":"37.307676521","long":"127.07658506","imageIndex":17,"items":[{"name":"수지열린요양원","tel":"031-272-8580","addr":"경기도 용인시 수지구 상현동 200번지","indutype":"기타의료기관 - 기타의료기관 및 기타","category":"other"}]},{"lat":"37.30845495","long":"127.08488794","imageIndex":17,"items":[{"name":"수텔레콤","tel":"031-263-7086","addr":"경기도 용인시 수지구 상현동 257-1 아이티프라자 111,111-1,112,112-1호","indutype":"사무통신 - 통신기기","category":"other"},{"name":"주식회사 다원","tel":"031-889-9601","addr":"경기도 용인시 수지구 상현동 257-1번지 IT프라자 306호","indutype":"용역 서비스 - 종합용역","category":"other"},{"name":"주식회사 다원","tel":"031-889-9601","addr":"경기도 용인시 수지구 상현동 257-1번지 IT프라자 306호","indutype":"용역 서비스 - 종합용역","category":"other"},{"name":"주식회사 다원","tel":"031-889-9601","addr":"경기도 용인시 수지구 상현동 257-1번지 IT프라자 306호","indutype":"용역 서비스 - 종합용역","category":"other"}]},{"lat":"37.306816738","long":"127.08247228","imageIndex":17,"items":[{"name":"스완에스테틱","tel":"031-276-4666","addr":"경기도 용인시 수지구 상현동 842번지 센트럴아이파크단지내상가202","indutype":"회원제형태 - 기타4","category":"other"},{"name":"씨유수지베스트점","tel":"02-1577-8007","addr":"경기도 용인시 수지구 상현동 842번지 상현마을수지센트럴아이파크 상가동 1층 101호","indutype":"유통업 영리 - 편 의 점","category":"other"}]},{"lat":"37.295988093","long":"127.07996839","imageIndex":17,"items":[{"name":"스타일노리터","tel":"031-216-9979","addr":"경기도 용인시 수지구 상현동 1160-2번지 1층 101-1호","indutype":"의류 - 아동의류","category":"other"}]},{"lat":"37.314063665","long":"127.0913467","imageIndex":17,"items":[{"name":"시네이","tel":"070-8688-8496","addr":"경기도 용인시 수지구 상현동 30","indutype":"회원제형태 - 기타4","category":"other"}]},{"lat":"37.304667008","long":"127.08999343","imageIndex":17,"items":[{"name":"시소컨설팅","tel":"031-255-2626","addr":"경기도 용인시 수지구 상현동 869번지 만현마을9단지엘지자이아파트","indutype":"용역 서비스 - 사무서비스","category":"other"}]},{"lat":"37.304031383","long":"127.08422893","imageIndex":17,"items":[{"name":"시크릿하우스","tel":"070-8776-2670","addr":"경기도 용인시 수지구 상현동 851번지 상현마을현대성우아파트","indutype":"회원제형태 - 기타4","category":"other"}]},{"lat":"37.307094407","long":"127.08488646","imageIndex":17,"items":[{"name":"신정순뷰티클럽","tel":"031-263-6556","addr":"경기도 용인시 수지구 상현동 254-1번지 만현프라자 401호","indutype":"회원제형태 - 기타4","category":"other"}]},{"lat":"37.312702318","long":"127.09241677","imageIndex":17,"items":[{"name":"쌈지인테리어","tel":"031-262-6897","addr":"경기도 용인시 수지구 상현동 30번지 성원 상가 109호","indutype":"건축자재 - 인테리어전문","category":"other"}]},{"lat":"37.30098817","long":"127.06575076","imageIndex":17,"items":[{"name":"씨유광교늘봄병원점","tel":"080-080-3663","addr":"경기도 용인시 수지구 상현동 1186번지","indutype":"유통업 영리 - 편 의 점","category":"other"}]},{"lat":"37.29796121","long":"127.08016214","imageIndex":17,"items":[{"name":"씨유광교숲속마을점","tel":"031-239-6698","addr":"경기도 용인시 수지구 상현동 1157번지 1층","indutype":"유통업 영리 - 편 의 점","category":"other"}]},{"lat":"37.305425911","long":"127.07339074","imageIndex":17,"items":[{"name":"씨유수지꿈에그린점","tel":"080-080-3663","addr":"경기도 용인시 수지구 상현동 1206번지 광교상현 꿈에그린 401동 지1층 1-1호","indutype":"유통업 영리 - 편 의 점","category":"other"},{"name":"해비카페트","tel":"","addr":"경기도 용인시 수지구 상현동 1206번지 광교상현꿈에그린 106동 1801호","indutype":"직물 - 카페트,커튼,천막,지물","category":"other"}]},{"lat":"37.308676901","long":"127.07619124","imageIndex":17,"items":[{"name":"씨유수지대진점","tel":"031-898-6708","addr":"경기도 용인시 수지구 상현동 108-1번지 대진아파트 105~106호","indutype":"유통업 영리 - 편 의 점","category":"other"}]},{"lat":"37.303845685","long":"127.09186486","imageIndex":17,"items":[{"name":"아르데오캔들","tel":"","addr":"경기도 용인시 수지구 상현동 869번지 만현마을9단지엘지자이아파트","indutype":"신변잡화 - 기타잡화","category":"other"}]},{"lat":"37.305834289","long":"127.08296755","imageIndex":17,"items":[{"name":"아르띠앙","tel":"070-8182-3767","addr":"경기도 용인시 수지구 상현동 842 상현마을수지센트럴아이파크 101-1501 30/","indutype":"회원제형태 - 서적","category":"other"}]},{"lat":"37.299980399","long":"127.07877692","imageIndex":17,"items":[{"name":"아르마디오","tel":"","addr":"경기도 용인시 수지구 상현동 866번지 상현마을성원상떼빌아파트","indutype":"의류 - 정장","category":"other"},{"name":"윤(  )가족치료연구소","tel":"070-8261-8127","addr":"경기도 용인시 수지구 상현동 866번지 상현마을성원상떼빌아파트","indutype":"회원제형태 - 기타4","category":"other"}]},{"lat":"37.307917598","long":"127.08003697","imageIndex":17,"items":[{"name":"아스트로파마","tel":"0505-756-3043","addr":"경기도 용인시 수지구 상현동 860번지 서원마을3단지아이파크","indutype":"회원제형태 - 기타1","category":"other"}]},{"lat":"37.307297916","long":"127.07686669","imageIndex":17,"items":[{"name":"아이디어브레인","tel":"051-740-3700","addr":"경기도 용인시 수지구 상현동 867번지 서원마을5단지금호베스트빌","indutype":"회원제형태 - 기타4","category":"other"}]},{"lat":"37.312732773","long":"127.08776916","imageIndex":17,"items":[{"name":"아트피플","tel":"031-266-1635","addr":"경기도 용인시 수지구 상현동 12번지 토마토프라자 201호","indutype":"문화.취미 - 민예·공예품","category":"other"},{"name":"오울바이크","tel":"02-1577-0000","addr":"경기도 용인시 수지구 상현동 12번지 토마토프라자 1층 107호","indutype":"레져용품 - 스포츠·레져용품","category":"other"},{"name":"차이","tel":"031-257-8706","addr":"경기도 용인시 수지구 상현동 12번지 토마토프라자 104호","indutype":"의류 - 정장","category":"other"},{"name":"토마토골프존파크","tel":"031-276-0756","addr":"경기도 용인시 수지구 상현동 12번지 토마토프라자 403호","indutype":"회원제형태 - 레져업소","category":"other"}]},{"lat":"37.309901912","long":"127.07680156","imageIndex":17,"items":[{"name":"안천건재상사","tel":"031-264-2141","addr":"경기도 용인시 수지구 상현동 107-6번지","indutype":"기타 - 기계공구","category":"other"}]},{"lat":"37.29806625","long":"127.07047402","imageIndex":17,"items":[{"name":"알파문구(광교상현역점)","tel":"031-216-3309","addr":"경기도 용인시 수지구 상현동 1132번지","indutype":"서적문구 - 문구용품","category":"other"},{"name":"크린토피아 코인워시 용인광교상현점","tel":"031-211-0365","addr":"경기도 용인시 수지구 상현동 1132번지 1층 106호","indutype":"수리서비스 - 세탁소","category":"other"}]},{"lat":"37.30962099","long":"127.07932805","imageIndex":17,"items":[{"name":"어울림","tel":"031-266-7721","addr":"경기도 용인시 수지구 상현동 96-1번지 풍산아파트 106호","indutype":"의류 - 정장","category":"other"}]},{"lat":"37.304197611","long":"127.07811567","imageIndex":17,"items":[{"name":"에너세이버썬팅(Enersaver 썬팅)","tel":"070-8723-1776","addr":"경기도 용인시 수지구 상현동 825번지 상현마을현대성우2차아파트","indutype":"회원제형태 - 기타3","category":"other"}]},{"lat":"37.309920056","long":"127.08987541","imageIndex":17,"items":[{"name":"에넥스디앤에스(D&S)","tel":"02-415-9095","addr":"경기도 용인시 수지구 상현동 864번지 만현마을성원상떼빌아파트","indutype":"회원제형태 - 기타4","category":"other"}]},{"lat":"37.312416953","long":"127.0884118","imageIndex":17,"items":[{"name":"에디트리커뮤니케이션","tel":"031-8748-3258","addr":"경기도 용인시 수지구 상현동 859번지 만현마을롯데캐슬아파트","indutype":"회원제형태 - 기타4","category":"other"}]},{"lat":"37.313927783","long":"127.09231669","imageIndex":17,"items":[{"name":"에스엠 인테리어 필름","tel":"031-266-0141","addr":"경기도 용인시 수지구 상현동 30번지 성원상떼빌아파트","indutype":"회원제형태 - 기타4","category":"other"},{"name":"잇츠깡스","tel":"","addr":"경기도 용인시 수지구 상현동 30번지 성원상떼빌아파트","indutype":"의류 - 정장","category":"other"}]},{"lat":"37.307765364","long":"127.0785817","imageIndex":17,"items":[{"name":"에스티(ST)솔루션","tel":"031-000-0000","addr":"경기도 용인시 수지구 상현동 867번지 서원마을5단지금호베스트빌","indutype":"용역 서비스 - 사무서비스","category":"other"}]},{"lat":"37.305094605","long":"127.08420752","imageIndex":17,"items":[{"name":"에쓰제이인터내셔날(주)","tel":"031-893-0212","addr":"경기도 용인시 수지구 상현동 851번지 상현마을현대성우아파트","indutype":"신변잡화 - 기타잡화","category":"other"},{"name":"중앙상사","tel":"070-7625-0202","addr":"경기도 용인시 수지구 상현동 851번지 상현마을현대성우아파트","indutype":"건축자재 - 조명기구","category":"other"}]},{"lat":"37.300755897","long":"127.07780771","imageIndex":17,"items":[{"name":"에어뮤직","tel":"070-7548-9003","addr":"경기도 용인시 수지구 상현동 866번지 상현마을성원상떼빌아파트","indutype":"전기제품 - 가전제품","category":"other"}]},{"lat":"37.297682072","long":"127.0644961","imageIndex":17,"items":[{"name":"에이버리단열필름","tel":"031-336-2281","addr":"경기도 용인시 수지구 상현동 1113번지 4505호 21층 3호","indutype":"직물 - 카페트,커튼,천막,지물","category":"other"}]},{"lat":"37.314038209","long":"127.08921458","imageIndex":17,"items":[{"name":"에이치엔디주식회사","tel":"031-264-2277","addr":"경기도 용인시 수지구 상현동 5-14 4층","indutype":"주방용구 - 주방용구","category":"other"}]},{"lat":"37.31403879","long":"127.08841364","imageIndex":17,"items":[{"name":"에프엠팩토리","tel":"02-2244-6208","addr":"경기도 용인시 수지구 상현동 3-4번지 성산빌딩 105호","indutype":"회원제형태 - 기타4","category":"other"}]},{"lat":"37.30420707","long":"127.09055687","imageIndex":17,"items":[{"name":"엘지세탁","tel":"031-266-8995","addr":"경기도 용인시 수지구 상현동 869번지 만현마을9단지엘지자이아파트 102호","indutype":"수리서비스 - 세탁소","category":"other"}]},{"lat":"37.304217174","long":"127.089068","imageIndex":17,"items":[{"name":"엠에스 트레이딩","tel":"","addr":"경기도 용인시 수지구 상현동 869번지 만현마을9단지엘지자이아파트","indutype":"신변잡화 - 기타잡화","category":"other"}]},{"lat":"37.301097284","long":"127.06385599","imageIndex":17,"items":[{"name":"예니리봉","tel":"","addr":"경기도 용인시 수지구 상현동 414번지 광교수리마을","indutype":"신변잡화 - 액세서리","category":"other"}]},{"lat":"37.306873604","long":"127.07818601","imageIndex":17,"items":[{"name":"오뜨블러썸","tel":"070-8734-5919","addr":"경기도 용인시 수지구 상현동 867번지 서원마을5단지금호베스트빌","indutype":"문화.취미 - 화원","category":"other"},{"name":"이마트24 수지금호점","tel":"031-000-0000","addr":"경기도 용인시 수지구 상현동 867번지 서원마을5단지금호베스트빌 상가동 1층 104,105호","indutype":"유통업 영리 - 편 의 점","category":"other"},{"name":"이마트24 수지금호점","tel":"","addr":"경기도 용인시 수지구 상현동 867번지 서원마을5단지금호베스트빌 상가동 1층 104호","indutype":"유통업 영리 - 편 의 점","category":"other"}]},{"lat":"37.297654551","long":"127.08063552","imageIndex":17,"items":[{"name":"오렌지정원","tel":"070-4839-7971","addr":"경기도 용인시 수지구 상현동 1158-3번지","indutype":"문화.취미 - 문화취미기타","category":"other"}]},{"lat":"37.306000595","long":"127.08989345","imageIndex":17,"items":[{"name":"와이에이치씨","tel":"031-265-8345","addr":"경기도 용인시 수지구 상현동 850번지 만현마을쌍용1차아파트","indutype":"회원제형태 - 기타4","category":"other"}]},{"lat":"37.314011318","long":"127.08902277","imageIndex":17,"items":[{"name":"용인상현우편취급소","tel":"031-272-2720","addr":"경기도 용인시 수지구 상현동 5-4번지","indutype":"용역 서비스 - 공공요금대행서비스/소","category":"other"}]},{"lat":"37.305514738","long":"127.07550011","imageIndex":17,"items":[{"name":"용인수지화훼집하장","tel":"031-263-3202","addr":"경기도 용인시 수지구 상현동 198-4","indutype":"문화.취미 - 화원","category":"other"}]},{"lat":"37.303123441","long":"127.08112616","imageIndex":17,"items":[{"name":"우리오토도어","tel":"031-263-6617","addr":"경기도 용인시 수지구 상현동 832번지 상현마을금호베스트빌2단지 256동 1601호","indutype":"용역 서비스 - 기타용역서비스","category":"other"}]},{"lat":"37.30477138","long":"127.08252652","imageIndex":17,"items":[{"name":"우선미플라워","tel":"02-3463-8787","addr":"경기도 용인시 수지구 상현동 838번지 상현마을동일스위트","indutype":"회원제형태 - 기타4","category":"other"}]},{"lat":"37.296985546","long":"127.06954823","imageIndex":17,"items":[{"name":"위드도기 광교점","tel":"070-7614-3579","addr":"경기도 용인시 수지구 상현동 1131-6번지 104호","indutype":"문화.취미 - 애완동물","category":"other"},{"name":"풀잎문화센터(광교지부)","tel":"031-305-5579","addr":"경기도 용인시 수지구 상현동 1131-6번지 미주프라자 902호","indutype":"문화.취미 - 문화취미기타","category":"other"},{"name":"하우스터디모임공간","tel":"031-216-7957","addr":"경기도 용인시 수지구 상현동 1131-6번지 미주프라자 304호","indutype":"용역 서비스 - 사무서비스","category":"other"}]},{"lat":"37.30821037","long":"127.08674887","imageIndex":17,"items":[{"name":"위아소","tel":"","addr":"경기도 용인시 수지구 상현동 858번지 만현마을5단지아이파크","indutype":"신변잡화 - 기타잡화","category":"other"}]},{"lat":"37.309038881","long":"127.07360844","imageIndex":17,"items":[{"name":"유니래브","tel":"","addr":"경기도 용인시 수지구 상현동 1099번지 심곡마을광교힐스테이트 215동 201호","indutype":"신변잡화 - 액세서리","category":"other"}]},{"lat":"37.309738853","long":"127.07818887","imageIndex":17,"items":[{"name":"유니버스에듀","tel":"031-454-9449","addr":"경기도 용인시 수지구 상현동 99번지 벽산블루밍아파트","indutype":"회원제형태 - 서적","category":"other"}]},{"lat":"37.305016629","long":"127.07953771","imageIndex":17,"items":[{"name":"유진상사","tel":"031-898-2669","addr":"경기도 용인시 수지구 상현동 827번지 금호베스트빌1단지아파트","indutype":"회원제형태 - 기타1","category":"other"}]},{"lat":"37.302756855","long":"127.07671561","imageIndex":17,"items":[{"name":"이레시스템","tel":"070-7675-0880","addr":"경기도 용인시 수지구 상현동 824번지 상현마을쌍용2차A단지 171동 1701호","indutype":"회원제형태 - 기타4","category":"other"}]},{"lat":"37.301882538","long":"127.07723359","imageIndex":17,"items":[{"name":"이신우컬렉션","tel":"","addr":"경기도 용인시 수지구 상현동 828번지 상현마을쌍용2차스윗닷홈B단지아파트","indutype":"의류 - 정장","category":"other"},{"name":"이신우컬렉션","tel":"","addr":"경기도 용인시 수지구 상현동 828번지 상현마을쌍용2차스윗닷홈B단지아파트","indutype":"의류 - 정장","category":"other"}]},{"lat":"37.306070466","long":"127.08009148","imageIndex":17,"items":[{"name":"이지셀렉트주식회사","tel":"031-286-3852","addr":"경기도 용인시 수지구 상현동 840번지 상현마을금호베스트빌4단지","indutype":"용역 서비스 - 소프트웨어","category":"other"}]},{"lat":"37.309335696","long":"127.08808119","imageIndex":17,"items":[{"name":"인테리어디자인D.K","tel":"031-264-4404","addr":"경기도 용인시 수지구 상현동 54-5 신화상가 가-105","indutype":"직물 - 카페트,커튼,천막,지물","category":"other"}]},{"lat":"37.311874655","long":"127.09071242","imageIndex":17,"items":[{"name":"일영비엔","tel":"031-262-6115","addr":"경기도 용인시 수지구 상현동 859번지 만현마을롯데캐슬아파트","indutype":"기타 - 기타 전문점","category":"other"}]},{"lat":"37.299266077","long":"127.06785844","imageIndex":17,"items":[{"name":"장난감전문점 토이플러스","tel":"031-211-8960","addr":"경기도 용인시 수지구 상현동 1174번지 2층","indutype":"서적문구 - 완구점","category":"other"}]},{"lat":"37.302874997","long":"127.07508024","imageIndex":17,"items":[{"name":"정직한용인금거래소","tel":"031-272-1866","addr":"경기도 용인시 수지구 상현동 354-12번지 송정빌딩","indutype":"신변잡화 - 귀금속","category":"other"}]},{"lat":"37.308793181","long":"127.07755624","imageIndex":17,"items":[{"name":"제일유통상사","tel":"031-263-0840","addr":"경기도 용인시 수지구 상현동 99 벽산상가208호","indutype":"유통업 영리 - 기타유통업","category":"other"}]},{"lat":"37.297814361","long":"127.06977453","imageIndex":17,"items":[{"name":"조 앤 바이오(JOE & BIO)","tel":"","addr":"경기도 용인시 수지구 상현동 1131-2번지 세현빌딩 7층 757호","indutype":"서적문구 - 과학기자재","category":"other"},{"name":"주식회사 디데이컴퍼니","tel":"031-000-0000","addr":"경기도 용인시 수지구 상현동 1131-2번지 세현빌딩 794호","indutype":"신변잡화 - 기타잡화","category":"other"},{"name":"주식회사 라온중기","tel":"031-323-5666","addr":"경기도 용인시 수지구 상현동 1131-2번지 세현빌딩 7층 772호","indutype":"기타 - 기계공구","category":"other"},{"name":"주식회사 피엠디엑스","tel":"","addr":"경기도 용인시 수지구 상현동 1131-2번지 세현빌딩 7층 714호","indutype":"서적문구 - 과학기자재","category":"other"},{"name":"주식회사지음코퍼레이션","tel":"070-7766-8193","addr":"경기도 용인시 수지구 상현동 1131-2번지 세현빌딩 785호","indutype":"의류 - 정장","category":"other"},{"name":"테라공인중개사사무소","tel":"","addr":"경기도 용인시 수지구 상현동 1131-2번지 세현빌딩 701호 일부","indutype":"용역 서비스 - 부동산 중개·임대","category":"other"},{"name":"토즈멤버십라운지광교중앙로센터","tel":"031-211-9010","addr":"경기도 용인시 수지구 상현동 1131-2번지 세현빌딩 601호","indutype":"용역 서비스 - 사무서비스","category":"other"}]},{"lat":"37.309395413","long":"127.07982415","imageIndex":17,"items":[{"name":"조은공조","tel":"031-272-5955","addr":"경기도 용인시 수지구 상현동 96-1번지 풍산아파트","indutype":"전기제품 - 냉열기기","category":"other"}]},{"lat":"37.312440654","long":"127.09290152","imageIndex":17,"items":[{"name":"주영","tel":"070-8632-5336","addr":"경기도 용인시 수지구 상현동 30","indutype":"회원제형태 - 기타3","category":"other"}]},{"lat":"37.308968898","long":"127.08435833","imageIndex":17,"items":[{"name":"주영인더스트리","tel":"031-896-1966","addr":"경기도 용인시 수지구 상현동 843번지 상현마을성우5차아파트","indutype":"회원제형태 - 기타4","category":"other"}]},{"lat":"37.303396694","long":"127.07653577","imageIndex":17,"items":[{"name":"참조은커뮤니케이션","tel":"031-8004-0053","addr":"경기도 용인시 수지구 상현동 824번지","indutype":"용역 서비스 - 종합용역","category":"other"}]},{"lat":"37.302981899","long":"127.07705421","imageIndex":17,"items":[{"name":"창신인테리어","tel":"031-476-2204","addr":"경기도 용인시 수지구 상현동 824번지 상현마을쌍용2차A단지 101호","indutype":"건축자재 - 인테리어전문","category":"other"}]},{"lat":"37.30623395","long":"127.07807258","imageIndex":17,"items":[{"name":"코리상사(KORI Corp.)","tel":"031-245-5924","addr":"경기도 용인시 수지구 상현동 867번지 서원마을5단지금호베스트빌","indutype":"회원제형태 - 기타4","category":"other"}]},{"lat":"37.307678919","long":"127.08653397","imageIndex":17,"items":[{"name":"코빗","tel":"","addr":"경기도 용인시 수지구 상현동 852번지 만현마을쌍용3차아파트","indutype":"서적문구 - 문구용품","category":"other"}]},{"lat":"37.310623709","long":"127.08870306","imageIndex":17,"items":[{"name":"코코","tel":"070-2699-0807","addr":"경기도 용인시 수지구 상현동 856번지 만현마을2단지아이파크","indutype":"의류 - 내의판매","category":"other"}]},{"lat":"37.297843729","long":"127.08069211","imageIndex":17,"items":[{"name":"코코","tel":"000-000-0000","addr":"경기도 용인시 수지구 상현동 1158-1번지 101호","indutype":"의류 - 정장","category":"other"}]},{"lat":"37.300793275","long":"127.07566475","imageIndex":17,"items":[{"name":"크린에이드","tel":"031-261-5755","addr":"경기도 용인시 수지구 상현동 1108번지 광교마을46단지광교스타클래스","indutype":"수리서비스 - 세탁소","category":"other"}]},{"lat":"37.310801504","long":"127.0919633","imageIndex":17,"items":[{"name":"크린텍통상","tel":"031-265-9602","addr":"경기도 용인시 수지구 상현동 33번지 현대파인빌리지 203동 602호","indutype":"회원제형태 - 기타4","category":"other"}]},{"lat":"37.30826248","long":"127.07611187","imageIndex":17,"items":[{"name":"크린팡팡","tel":"031-233-8285","addr":"경기도 용인시 수지구 상현동 193-1번지 2층","indutype":"수리서비스 - 세탁소","category":"other"}]},{"lat":"37.300987823","long":"127.0814172","imageIndex":17,"items":[{"name":"타임 (TIME)","tel":"031-889-7178","addr":"경기도 용인시 수지구 상현동 573-2번지 1층","indutype":"의류 - 정장","category":"other"}]},{"lat":"37.308667251","long":"127.07721771","imageIndex":17,"items":[{"name":"태종지에스(TAE JONG G.S)","tel":"031-896-1220","addr":"경기도 용인시 수지구 상현동 99번지 벽산블루밍아파트","indutype":"건축자재 - 기타건축자재","category":"other"}]},{"lat":"37.298767331","long":"127.07341836","imageIndex":17,"items":[{"name":"토마솔리","tel":"031-266-5267","addr":"경기도 용인시 수지구 상현동 1127-1번지 신영빌딩 101호","indutype":"서적문구 - 문구용품","category":"other"}]},{"lat":"37.304909111","long":"127.09157284","imageIndex":17,"items":[{"name":"토브","tel":"","addr":"경기도 용인시 수지구 상현동 869번지 만현마을9단지엘지자이아파트","indutype":"직물 - 침구·수예점","category":"other"}]},{"lat":"37.303788701","long":"127.08336016","imageIndex":17,"items":[{"name":"트윈 스포츠","tel":"070-7783-9919","addr":"경기도 용인시 수지구 상현동 855번지 상현마을현대성우3차아파트","indutype":"레져용품 - 스포츠·레져용품","category":"other"}]},{"lat":"37.30875023","long":"127.07414961","imageIndex":17,"items":[{"name":"티지이(TGE)","tel":"031-264-2687","addr":"경기도 용인시 수지구 상현동 1099번지 심곡마을광교힐스테이트 209동 1802호","indutype":"회원제형태 - 기타1","category":"other"}]},{"lat":"37.29809705","long":"127.06351521","imageIndex":17,"items":[{"name":"티파니","tel":"","addr":"경기도 용인시 수지구 상현동 1113번지 광교마을45단지","indutype":"의류 - 정장","category":"other"},{"name":"후 바이 리쎄","tel":"031-245-4207","addr":"경기도 용인시 수지구 상현동 1113번지 광교마을45단지","indutype":"신변잡화 - 기타잡화","category":"other"}]},{"lat":"37.299266428","long":"127.06721555","imageIndex":17,"items":[{"name":"판교크레인 주식회사","tel":"031-706-5504","addr":"경기도 용인시 수지구 상현동 493-8번지","indutype":"기타 - 기계공구","category":"other"}]},{"lat":"37.306227745","long":"127.08727682","imageIndex":17,"items":[{"name":"팜트리스","tel":"070-4212-7990","addr":"경기도 용인시 수지구 상현동 850번지 만현마을쌍용1차아파트","indutype":"가구 - 일반가구","category":"other"}]},{"lat":"37.300537364","long":"127.06630305","imageIndex":17,"items":[{"name":"팝스토어 린병원점","tel":"031-111-1111","addr":"경기도 용인시 수지구 상현동 1186-1번지","indutype":"유통업 영리 - 편 의 점","category":"other"}]},{"lat":"37.312544322","long":"127.08669728","imageIndex":17,"items":[{"name":"패티즘","tel":"031-000-0000","addr":"경기도 용인시 수지구 상현동 1번지 만현마을동보2차아파트","indutype":"의류 - 정장","category":"other"}]},{"lat":"37.298074885","long":"127.07112818","imageIndex":17,"items":[{"name":"프레야캔들","tel":"031-722-6090","addr":"경기도 용인시 수지구 상현동 1134번지 광교상록자이아파트","indutype":"신변잡화 - 기타잡화","category":"other"}]},{"lat":"37.307726876","long":"127.08231532","imageIndex":17,"items":[{"name":"핑거몬스터","tel":"","addr":"경기도 용인시 수지구 상현동 842번지 상현마을수지센트럴아이파크 113동 6층 603호","indutype":"신변잡화 - 기타잡화","category":"other"}]},{"lat":"37.306434649","long":"127.08773952","imageIndex":17,"items":[{"name":"향기 이룸(Hyanggi eRoom)","tel":"031-890-4477","addr":"경기도 용인시 수지구 상현동 850번지 만현마을쌍용1차아파트","indutype":"문화.취미 - 문화취미기타","category":"other"}]},{"lat":"37.296735633","long":"127.08044284","imageIndex":17,"items":[{"name":"헤븐해즈","tel":"031-215-1149","addr":"경기도 용인시 수지구 상현동 1158-10번지 101호","indutype":"의류 - 정장","category":"other"}]},{"lat":"37.29850131","long":"127.06581636","imageIndex":17,"items":[{"name":"헬로버니","tel":"","addr":"경기도 용인시 수지구 상현동 1113번지 광교마을45단지","indutype":"서적문구 - 문구용품","category":"other"}]},{"lat":"37.302728207","long":"127.07926468","imageIndex":17,"items":[{"name":"혁장기획","tel":"","addr":"경기도 용인시 수지구 상현동 832번지 상현마을금호베스트빌2단지 251동 401호","indutype":"건축자재 - 목재·석재·철물","category":"other"}]},{"lat":"37.308097559","long":"127.08040939","imageIndex":17,"items":[{"name":"현대세탁","tel":"031-266-1220","addr":"경기도 용인시 수지구 상현동 860번지 서원마을3단지아이파크 104호","indutype":"수리서비스 - 세탁소","category":"other"}]},{"lat":"37.303704089","long":"127.07483289","imageIndex":17,"items":[{"name":"혜성조명","tel":"","addr":"경기도 용인시 수지구 상현동 351-13번지 2층","indutype":"건축자재 - 조명기구","category":"other"}]}]