[{"lat":"37.788452658","long":"127.07461907","imageIndex":17,"items":[{"name":"(주)북두레저","tel":"0505-331-3312","addr":"경기도 양주시 광사동 125-3","indutype":"레져용품 - 스포츠·레져용품","category":"other"}]},{"lat":"37.790814058","long":"127.07310005","imageIndex":17,"items":[{"name":"(주)성심투어","tel":"031-826-6286","addr":"경기도 양주시 광사동 342-2번지 2층","indutype":"여행 - 관광여행","category":"other"},{"name":"양주아동복","tel":"070-7516-4338","addr":"경기도 양주시 광사동 342-2번지","indutype":"의류 - 아동의류","category":"other"}]},{"lat":"37.790867735","long":"127.07373587","imageIndex":17,"items":[{"name":"(주)우리렌트카(양주영업소)","tel":"031-846-5700","addr":"경기도 양주시 광사동 344-6번지","indutype":"여행 - 렌터카","category":"other"}]},{"lat":"37.787950636","long":"127.07037274","imageIndex":17,"items":[{"name":"(주)태한소방","tel":"031-842-0119","addr":"경기도 양주시 광사동 374-4번지 외1필지1층 3,4,5호","indutype":"기타 - 기계공구","category":"other"},{"name":"그린골프산업","tel":"031-847-8891","addr":"경기도 양주시 광사동 374-4번지","indutype":"레져용품 - 골프용품 전문점","category":"other"}]},{"lat":"37.792540212","long":"127.07900537","imageIndex":17,"items":[{"name":"BM. TOY & JJ 텔레콤","tel":"031-844-7111","addr":"경기도 양주시 광사동 670번지","indutype":"서적문구 - 완구점","category":"other"},{"name":"시티공인중개사사무소","tel":"031-847-9998","addr":"경기도 양주시 광사동 670번지 101호","indutype":"용역 서비스 - 부동산 중개·임대","category":"other"}]},{"lat":"37.791593142","long":"127.0806506","imageIndex":17,"items":[{"name":"GS25고읍타운점","tel":"","addr":"경기도 양주시 광사동 670-19번지 1층","indutype":"유통업 영리 - 편 의 점","category":"other"}]},{"lat":"37.794811204","long":"127.07806535","imageIndex":17,"items":[{"name":"GS25고읍타워점","tel":"","addr":"경기도 양주시 광사동 652-1번지 오션타워 107호","indutype":"유통업 영리 - 편 의 점","category":"other"}]},{"lat":"37.795539096","long":"127.08094993","imageIndex":17,"items":[{"name":"GS25고읍프라자점","tel":"","addr":"경기도 양주시 광사동 655번지 힘찬프라자 111호","indutype":"유통업 영리 - 편 의 점","category":"other"},{"name":"너참예쁘다 고읍점","tel":"031-847-6855","addr":"경기도 양주시 광사동 655번지 힘찬프라자 1층 104호","indutype":"신변잡화 - 액세서리","category":"other"},{"name":"합격스터디카페","tel":"031-000-0000","addr":"경기도 양주시 광사동 655번지 힘찬프라자 6층 601호","indutype":"용역 서비스 - 사무서비스","category":"other"}]},{"lat":"37.790371372","long":"127.07512045","imageIndex":17,"items":[{"name":"GS25양주대방점","tel":"02-2006-2485","addr":"경기도 양주시 광사동 131-4번지 대방샤인빌 104호","indutype":"유통업 영리 - 편 의 점","category":"other"}]},{"lat":"37.788202947","long":"127.0702935","imageIndex":17,"items":[{"name":"LG천막사","tel":"031-841-6990","addr":"경기도 양주시 광사동 374번지","indutype":"직물 - 카페트,커튼,천막,지물","category":"other"}]},{"lat":"37.790872497","long":"127.08047955","imageIndex":17,"items":[{"name":"MERIMERI(메리메리)","tel":"070-7722-0070","addr":"경기도 양주시 광사동 678-1번지 건야빌 101호","indutype":"사무통신 - 통신기기","category":"other"},{"name":"김붓아트팩토리에이(A)","tel":"","addr":"경기도 양주시 광사동 678-1번지 102호","indutype":"문화.취미 - 화랑","category":"other"}]},{"lat":"37.796116285","long":"127.08006494","imageIndex":17,"items":[{"name":"Sun Create","tel":"031-845-7788","addr":"경기도 양주시 광사동 651-1번지 해동샌트럴타워 601호","indutype":"서적문구 - 문구용품","category":"other"},{"name":"그라티아산후조리원","tel":"031-856-7790","addr":"경기도 양주시 광사동 651-1번지 해동센트럴타워 6층","indutype":"기타의료기관 - 산후조리원","category":"other"}]},{"lat":"37.789508956","long":"127.07093044","imageIndex":17,"items":[{"name":"TGIC컴퓨터","tel":"031-844-8119","addr":"경기도 양주시 광사동 379-13번지","indutype":"사무통신 - 컴퓨터","category":"other"}]},{"lat":"37.794982967","long":"127.07714588","imageIndex":17,"items":[{"name":"가나 게이트","tel":"031-842-0088","addr":"경기도 양주시 광사동 232-3번지","indutype":"건축자재 - 목재·석재·철물","category":"other"},{"name":"동화광고","tel":"031-847-1751","addr":"경기도 양주시 광사동 232-3번지 107호","indutype":"용역 서비스 - 종합용역","category":"other"},{"name":"삼천리자전거 고읍점","tel":"031-841-3337","addr":"경기도 양주시 광사동 232-3번지 1층 108호","indutype":"레져용품 - 스포츠·레져용품","category":"other"},{"name":"원창타일 인테리어","tel":"031-858-5828","addr":"경기도 양주시 광사동 232-3번지","indutype":"건축자재 - 건축용 요업제품","category":"other"}]},{"lat":"37.796341774","long":"127.07967915","imageIndex":17,"items":[{"name":"가죽의모든것","tel":"031-848-2525","addr":"경기도 양주시 광사동 651-2번지 1층","indutype":"신변잡화 - 가방","category":"other"},{"name":"양주BYC","tel":"031-840-9684","addr":"경기도 양주시 광사동 651-2번지","indutype":"의류 - 내의판매","category":"other"},{"name":"양주농협하나로마트사업소","tel":"031-847-0125","addr":"경기도 양주시 광사동 651-2번지","indutype":"유통업 비영리 - 농,축협 직영매장","category":"other"}]},{"lat":"37.794045406","long":"127.07805322","imageIndex":17,"items":[{"name":"개간지 짱","tel":"","addr":"경기도 양주시 광사동 653-5번지 101호","indutype":"문화.취미 - 애완동물","category":"other"},{"name":"라미야 양주점","tel":"031-848-4495","addr":"경기도 양주시 광사동 653-5번지 1동 105호","indutype":"기타 - 기타 전문점","category":"other"},{"name":"세무법인한맥","tel":"031-821-1005","addr":"경기도 양주시 광사동 653-5번지 401호","indutype":"용역 서비스 - 법률회계서비스(법인)","category":"other"},{"name":"스킨포유(양주점)","tel":"031-842-8080","addr":"경기도 양주시 광사동 653-5번지 504호","indutype":"회원제형태 - 기타4","category":"other"}]},{"lat":"37.795340661","long":"127.08129033","imageIndex":17,"items":[{"name":"갤러리스크린골프장","tel":"031-843-0055","addr":"경기도 양주시 광사동 655-1 그린프라자405호~406호","indutype":"회원제형태 - 레져업소","category":"other"},{"name":"블루텔레콤ACE점","tel":"070-7670-5010","addr":"경기도 양주시 광사동 655-1번지 그린프라자 107-1호","indutype":"사무통신 - 통신기기","category":"other"},{"name":"아우라","tel":"070-4686-9412","addr":"경기도 양주시 광사동 655-1번지 그린프라자 113호","indutype":"의류 - 정장","category":"other"},{"name":"진짜사나이 멀티짐","tel":"031-846-9920","addr":"경기도 양주시 광사동 655-1번지 그린프라자 504호","indutype":"회원제형태 - 레져업소","category":"other"},{"name":"총각네강아지","tel":"031-821-1010","addr":"경기도 양주시 광사동 655-1번지","indutype":"문화.취미 - 애완동물","category":"other"}]},{"lat":"37.790341079","long":"127.08026329","imageIndex":17,"items":[{"name":"거목","tel":"070-7789-1588","addr":"경기도 양주시 광사동 677-4번지","indutype":"가구 - 일반가구","category":"other"},{"name":"이유세탁","tel":"031-821-1900","addr":"경기도 양주시 광사동 677-4번지","indutype":"수리서비스 - 세탁소","category":"other"}]},{"lat":"37.793901066","long":"127.07834827","imageIndex":17,"items":[{"name":"경기정보통신","tel":"031-871-9210","addr":"경기도 양주시 광사동 653-4번지 양주프라임타워 4층 404호","indutype":"사무통신 - 통신기기","category":"other"}]},{"lat":"37.770007062","long":"127.06423889","imageIndex":17,"items":[{"name":"경민시스템","tel":"031-796-2554","addr":"경기도 양주시 광사동 496-12번지 1층","indutype":"용역 서비스 - 기타용역서비스","category":"other"}]},{"lat":"37.785311857","long":"127.06859941","imageIndex":17,"items":[{"name":"고산종합철물","tel":"031-841-0023","addr":"경기도 양주시 광사동 574번지 외3필지","indutype":"건축자재 - 기타건축자재","category":"other"}]},{"lat":"37.790761228","long":"127.07101106","imageIndex":17,"items":[{"name":"고향야생화","tel":"031-841-2786","addr":"경기도 양주시 광사동 337","indutype":"문화.취미 - 화원","category":"other"}]},{"lat":"37.790233278","long":"127.07978635","imageIndex":17,"items":[{"name":"골드라인공인중개사사무소","tel":"031-840-0008","addr":"경기도 양주시 광사동 675-5번지 102호","indutype":"용역 서비스 - 부동산 중개·임대","category":"other"},{"name":"이오시아","tel":"070-8658-5744","addr":"경기도 양주시 광사동 675-5번지 105호","indutype":"의류 - 정장","category":"other"},{"name":"현대하우징,모두홈케어","tel":"031-841-0504","addr":"경기도 양주시 광사동 675-5번지 1층 103호","indutype":"건축자재 - 인테리어전문","category":"other"}]},{"lat":"37.788312372","long":"127.08262251","imageIndex":17,"items":[{"name":"공간이야기","tel":"031-000-0000","addr":"경기도 양주시 광사동 690-5번지 1층","indutype":"건축자재 - 인테리어전문","category":"other"}]},{"lat":"37.791731942","long":"127.07489472","imageIndex":17,"items":[{"name":"공간인테리어","tel":"031-844-5877","addr":"경기도 양주시 광사동 182번지 공간빌딩 101호","indutype":"건축자재 - 인테리어전문","category":"other"},{"name":"세븐일레븐양주광사점","tel":"","addr":"경기도 양주시 광사동 182번지 공간빌딩 108호","indutype":"유통업 영리 - 편 의 점","category":"other"}]},{"lat":"37.795621539","long":"127.07887229","imageIndex":17,"items":[{"name":"광장공인중개사무소","tel":"031-845-8900","addr":"경기도 양주시 광사동 651-6번지 광장프라자 115호","indutype":"용역 서비스 - 부동산 중개·임대","category":"other"},{"name":"레이디자인","tel":"031-856-9560","addr":"경기도 양주시 광사동 651-6번지 광장프라자 1층 13호","indutype":"건축자재 - 인테리어전문","category":"other"},{"name":"롯데시네마 양주고읍 온라인","tel":"02-1544-8855","addr":"경기도 양주시 광사동 651-6번지 광장프라자 5층","indutype":"문화.취미 - 영화관","category":"other"},{"name":"롯데시네마 양주고읍관","tel":"070-7465-3612","addr":"경기도 양주시 광사동 651-6번지 광장프라자 504호","indutype":"문화.취미 - 영화관","category":"other"},{"name":"롯데시네마 양주고읍관 (온라인)","tel":"070-7465-3612","addr":"경기도 양주시 광사동 651-6번지 광장프라자","indutype":"문화.취미 - 영화관","category":"other"},{"name":"롯데시네마/(주)지인씨앤씨 양주지점","tel":"","addr":"경기도 양주시 광사동 651-6번지 광장프라자 1층 701호,702호","indutype":"문화.취미 - 영화관","category":"other"},{"name":"주식회사 다빈","tel":"031-845-8900","addr":"경기도 양주시 광사동 651-6번지 광장프라자 지층","indutype":"용역 서비스 - 종합용역","category":"other"}]},{"lat":"37.791232711","long":"127.08072969","imageIndex":17,"items":[{"name":"금명","tel":"02-391-0917","addr":"경기도 양주시 광사동 680-1번지 103호","indutype":"문화.취미 - 화원","category":"other"}]},{"lat":"37.796061975","long":"127.08045091","imageIndex":17,"items":[{"name":"나라사 BYC","tel":"031-953-1220","addr":"경기도 양주시 광사동 651번지 해동월드타워 1층 106호","indutype":"의류 - 내의판매","category":"other"},{"name":"다인통신_강남유통부","tel":"0031-0879-5959","addr":"경기도 양주시 광사동 651번지 해동월드타워 1층 103호","indutype":"별도관리 - 자체물품대금","category":"other"},{"name":"씨유양주고읍점","tel":"031-843-8810","addr":"경기도 양주시 광사동 651번지 해동월드타워 1층 106호","indutype":"유통업 영리 - 편 의 점","category":"other"},{"name":"헤이리스","tel":"","addr":"경기도 양주시 광사동 651번지 해동월드타워 113호","indutype":"문화.취미 - 화원","category":"other"}]},{"lat":"37.789818693","long":"127.08001298","imageIndex":17,"items":[{"name":"나무이야기","tel":"070-7649-2422","addr":"경기도 양주시 광사동 676-1번지 1층","indutype":"의류 - 정장","category":"other"},{"name":"낸시프랜즈","tel":"070-8712-0001","addr":"경기도 양주시 광사동 676-1번지 103호","indutype":"의류 - 정장","category":"other"}]},{"lat":"37.795837627","long":"127.07908823","imageIndex":17,"items":[{"name":"냥아","tel":"031-846-7731","addr":"경기도 양주시 광사동 651-5번지 제이프라자 5층 505호","indutype":"문화.취미 - 애완동물","category":"other"},{"name":"비에스지(B.S.G) 아카데미","tel":"031-846-1865","addr":"경기도 양주시 광사동 651-5번지 제이프라자 7층 701,702호","indutype":"레져용품 - 골프용품 전문점","category":"other"},{"name":"세븐일레븐양주고읍점","tel":"031-1577-0711","addr":"경기도 양주시 광사동 651-5번지 제이프라자 1층 111호","indutype":"유통업 영리 - 편 의 점","category":"other"},{"name":"스타일바이줌","tel":"031-874-5006","addr":"경기도 양주시 광사동 651-5번지 제이프라자 1층 110호","indutype":"의류 - 정장","category":"other"},{"name":"에스엔비 기획","tel":"02-941-7977","addr":"경기도 양주시 광사동 651-5번지 제이프라자 2층 206호","indutype":"서적문구 - 출판 및 인쇄물","category":"other"}]},{"lat":"37.794783732","long":"127.07875789","imageIndex":17,"items":[{"name":"놀숲양주고읍점","tel":"070-7737-5009","addr":"경기도 양주시 광사동 653번지 RG세원프라자2 2층 204호","indutype":"서적문구 - 일반서적","category":"other"},{"name":"드레스업","tel":"070-1234-1234","addr":"경기도 양주시 광사동 653번지 RG세원프라자2 1층 108호","indutype":"의류 - 정장","category":"other"}]},{"lat":"37.792368397","long":"127.07998157","imageIndex":17,"items":[{"name":"다드림(spring-rain)","tel":"070-7787-8655","addr":"경기도 양주시 광사동 671-5번지 102호","indutype":"유통업 영리 - 기타유통업","category":"other"},{"name":"오늘도사랑해","tel":"031-848-7733","addr":"경기도 양주시 광사동 671-5번지 101호","indutype":"의류 - 정장","category":"other"}]},{"lat":"37.786644687","long":"127.0696223","imageIndex":17,"items":[{"name":"다인건설","tel":"031-821-7792","addr":"경기도 양주시 광사동 401-4번지","indutype":"용역 서비스 - 기타용역서비스","category":"other"}]},{"lat":"37.793594976","long":"127.07798465","imageIndex":17,"items":[{"name":"담소","tel":"031-1111-1111","addr":"경기도 양주시 광사동 652-6번지 골든스퀘어 202호","indutype":"신변잡화 - 기타잡화","category":"other"}]},{"lat":"37.788592633","long":"127.08118103","imageIndex":17,"items":[{"name":"대박나개","tel":"070-7430-8837","addr":"경기도 양주시 광사동 689-2번지 1층 101호,102호","indutype":"문화.취미 - 애완동물","category":"other"},{"name":"무한(    )에너지","tel":"031-928-1071","addr":"경기도 양주시 광사동 689-2번지 하나린타워 203호","indutype":"전기제품 - 기타전기제품","category":"other"}]},{"lat":"37.792452513","long":"127.07520195","imageIndex":17,"items":[{"name":"덕고개건재","tel":"031-847-0463","addr":"경기도 양주시 광사동 184-2","indutype":"건축자재 - 기타건축자재","category":"other"}]},{"lat":"37.792179472","long":"127.07956131","imageIndex":17,"items":[{"name":"도그샵","tel":"031-825-8255","addr":"경기도 양주시 광사동 672-8번지 1층","indutype":"문화.취미 - 애완동물","category":"other"}]},{"lat":"37.791282881","long":"127.0725442","imageIndex":17,"items":[{"name":"도심환경건축사사무소","tel":"031-858-4220","addr":"경기도 양주시 광사동 318-2번지 201호","indutype":"용역 서비스 - 사무서비스","category":"other"},{"name":"주원디지탈","tel":"031-821-6027","addr":"경기도 양주시 광사동 318-2번지 2층","indutype":"수리서비스 - 사무·통신기기수리","category":"other"}]},{"lat":"37.78864619","long":"127.08193036","imageIndex":17,"items":[{"name":"도희뷰티르네셀","tel":"031-841-7665","addr":"경기도 양주시 광사동 688-8번지 월메이드 103호","indutype":"회원제형태 - 기타1","category":"other"}]},{"lat":"37.788816826","long":"127.08273658","imageIndex":17,"items":[{"name":"두번째 바람","tel":"070-4119-1750","addr":"경기도 양주시 광사동 686-3번지 101호","indutype":"문화.취미 - 민예·공예품","category":"other"},{"name":"솔루션맥스","tel":"031-821-8365","addr":"경기도 양주시 광사동 686-3번지 3층 303호","indutype":"용역 서비스 - 소프트웨어","category":"other"}]},{"lat":"37.793999423","long":"127.07950642","imageIndex":17,"items":[{"name":"디아망","tel":"031-858-8711","addr":"경기도 양주시 광사동 657번지 메가시티프라자 122호","indutype":"신변잡화 - 귀금속","category":"other"},{"name":"빈티지 샵","tel":"","addr":"경기도 양주시 광사동 657번지 메가시티프라자 108호","indutype":"의류 - 기타의류","category":"other"},{"name":"알파문구 양주고읍점","tel":"031-841-8825","addr":"경기도 양주시 광사동 657번지 메가시티프라자 1층 105호","indutype":"서적문구 - 문구용품","category":"other"},{"name":"에스케이(SK) 텔레콤 레인보우","tel":"031-821-1570","addr":"경기도 양주시 광사동 657번지 메가시티프라자 126A호","indutype":"사무통신 - 통신기기","category":"other"},{"name":"진쥬얼리","tel":"031-858-4789","addr":"경기도 양주시 광사동 657 메가시티프라자제1층123호","indutype":"신변잡화 - 귀금속","category":"other"}]},{"lat":"37.789782402","long":"127.08039894","imageIndex":17,"items":[{"name":"라고스뷰티라인","tel":"031-846-3234","addr":"경기도 양주시 광사동 677-8번지","indutype":"회원제형태 - 기타4","category":"other"},{"name":"모이비엔","tel":"031-111-1111","addr":"경기도 양주시 광사동 677-8번지 102호","indutype":"의류 - 정장","category":"other"}]},{"lat":"37.794594335","long":"127.07906425","imageIndex":17,"items":[{"name":"라라코스트","tel":"031-843-3230","addr":"경기도 양주시 광사동 653-1 필립프라자 3층 2,3,4호","indutype":"주방용구 - 주방용구","category":"other"},{"name":"람스트리","tel":"031-847-5653","addr":"경기도 양주시 광사동 653-1번지 필립프라자 1층 03호","indutype":"의류 - 아동의류","category":"other"}]},{"lat":"37.789953895","long":"127.0799223","imageIndex":17,"items":[{"name":"러블리 페이퍼 플라워","tel":"","addr":"경기도 양주시 광사동 676번지 102호","indutype":"문화.취미 - 문화취미기타","category":"other"},{"name":"모퉁이","tel":"031-848-1732","addr":"경기도 양주시 광사동 676번지 103호","indutype":"의류 - 정장","category":"other"}]},{"lat":"37.790646997","long":"127.08087666","imageIndex":17,"items":[{"name":"로즈비아로마","tel":"031-844-7334","addr":"경기도 양주시 광사동 680-6번지","indutype":"회원제형태 - 기타4","category":"other"}]},{"lat":"37.789259062","long":"127.08159043","imageIndex":17,"items":[{"name":"루시유통","tel":"031-875-3920","addr":"경기도 양주시 광사동 684-4번지 상가 1층","indutype":"신변잡화 - 기타잡화","category":"other"}]},{"lat":"37.794900473","long":"127.0793484","imageIndex":17,"items":[{"name":"르하임스터디카페 고읍점","tel":"031-845-9955","addr":"경기도 양주시 광사동 654-4번지 가보프라자 601호","indutype":"용역 서비스 - 사무서비스","category":"other"},{"name":"플레이 양주고읍점","tel":"031-821-7464","addr":"경기도 양주시 광사동 654-4번지 가보프라자 302호","indutype":"서적문구 - 완구점","category":"other"}]},{"lat":"37.788339593","long":"127.08233872","imageIndex":17,"items":[{"name":"리나시엘","tel":"031-827-9288","addr":"경기도 양주시 광사동 690-3번지","indutype":"의류 - 단체복","category":"other"}]},{"lat":"37.794323237","long":"127.08031285","imageIndex":17,"items":[{"name":"마린(marine)","tel":"031-842-0277","addr":"경기도 양주시 광사동 656-5번지 솔리더스빌딩 105호","indutype":"의류 - 정장","category":"other"},{"name":"안젤리나","tel":"070-4686-9412","addr":"경기도 양주시 광사동 656-5번지 솔리더스빌딩 1층 105호","indutype":"신변잡화 - 가방","category":"other"}]},{"lat":"37.787536212","long":"127.07034966","imageIndex":17,"items":[{"name":"마일펫","tel":"031-841-0901","addr":"경기도 양주시 광사동 374-2번지 전체 1층","indutype":"문화.취미 - 애완동물","category":"other"}]},{"lat":"37.788727541","long":"127.0815331","imageIndex":17,"items":[{"name":"매직라인 양주점","tel":"031-1600-7056","addr":"경기도 양주시 광사동 688-10번지","indutype":"용역 서비스 - 종합용역","category":"other"},{"name":"올드펄","tel":"070-8119-2717","addr":"경기도 양주시 광사동 688-10번지 가람아트빌 101호","indutype":"문화.취미 - 화원","category":"other"}]},{"lat":"37.79431425","long":"127.08027878","imageIndex":17,"items":[{"name":"메인텔레콤 가능점","tel":"031-000-0000","addr":"경기도 양주시 광사동 656-7번지 103호","indutype":"사무통신 - 통신기기","category":"other"},{"name":"주식회사 엔투솔루션","tel":"031-851-0006","addr":"경기도 양주시 광사동 656-7번지 마들프라자 601호","indutype":"용역 서비스 - 소프트웨어","category":"other"},{"name":"준쥬얼리(2호점)","tel":"031-821-0230","addr":"경기도 양주시 광사동 656-7번지 마들프라자 102호","indutype":"신변잡화 - 귀금속","category":"other"}]},{"lat":"37.789108141","long":"127.07816175","imageIndex":17,"items":[{"name":"모두케어","tel":"031-1811-1930","addr":"경기도 양주시 광사동 712번지 해동마을한양수자인 303동 901호","indutype":"용역 서비스 - 종합용역","category":"other"}]},{"lat":"37.794899895","long":"127.08023398","imageIndex":17,"items":[{"name":"모바일텔레콤 고읍점","tel":"031-841-6011","addr":"경기도 양주시 광사동 656-3번지 109호","indutype":"사무통신 - 통신기기","category":"other"}]},{"lat":"37.794369237","long":"127.0788483","imageIndex":17,"items":[{"name":"모바일플러스","tel":"031-841-7576","addr":"경기도 양주시 광사동 653-2번지 레드프라자 103, 104호","indutype":"사무통신 - 통신기기","category":"other"},{"name":"온샵","tel":"031-866-6667","addr":"경기도 양주시 광사동 653-2번지 레드프라자 1층 102호","indutype":"의류 - 정장","category":"other"},{"name":"캔들나무 양주고읍점","tel":"031-846-4061","addr":"경기도 양주시 광사동 653-2번지 105호","indutype":"신변잡화 - 기타잡화","category":"other"}]},{"lat":"37.790202204","long":"127.07175984","imageIndex":17,"items":[{"name":"묘하개(양주점)","tel":"031-871-8713","addr":"경기도 양주시 광사동 339-5번지","indutype":"문화.취미 - 애완동물","category":"other"}]},{"lat":"37.789098585","long":"127.07901319","imageIndex":17,"items":[{"name":"미니네","tel":"031-852-3687","addr":"경기도 양주시 광사동 712번지 해동마을한양수자인","indutype":"의류 - 아동의류","category":"other"},{"name":"세븐일레븐양주한양수자인점","tel":"","addr":"경기도 양주시 광사동 712번지 한양수자인상가B1층 108호","indutype":"유통업 영리 - 편 의 점","category":"other"},{"name":"한양","tel":"031-848-7838","addr":"경기도 양주시 광사동 712번지 해동마을한양수자인 상가 104호","indutype":"수리서비스 - 세탁소","category":"other"}]},{"lat":"37.79144148","long":"127.07834577","imageIndex":17,"items":[{"name":"미인공방/다온Firm(DAonFirm)","tel":"031-874-4017","addr":"경기도 양주시 광사동 713번지 해동마을신도브래뉴 상가 102호","indutype":"직물 - 침구·수예점","category":"other"},{"name":"신도세탁","tel":"031-843-9887","addr":"경기도 양주시 광사동 713번지 해동마을신도브래뉴 106호","indutype":"수리서비스 - 세탁소","category":"other"}]},{"lat":"37.790674527","long":"127.08011605","imageIndex":17,"items":[{"name":"민들레북","tel":"070-4248-7831","addr":"경기도 양주시 광사동 677-2번지 1층","indutype":"회원제형태 - 서적","category":"other"}]},{"lat":"37.79495351","long":"127.0809039","imageIndex":17,"items":[{"name":"바이엘리(By Ellie)","tel":"070-8829-0889","addr":"경기도 양주시 광사동 656번지 1층 104호","indutype":"문화.취미 - 화원","category":"other"},{"name":"양주초록사진관","tel":"031-867-6610","addr":"경기도 양주시 광사동 656번지 201호","indutype":"광학제품 - 사진관","category":"other"},{"name":"에리카","tel":"","addr":"경기도 양주시 광사동 656번지 102호","indutype":"의류 - 정장","category":"other"},{"name":"전수정스킨케어","tel":"031-823-2418","addr":"경기도 양주시 광사동 656 우신고읍빌딩402호(일부1호)","indutype":"회원제형태 - 기타4","category":"other"}]},{"lat":"37.795062827","long":"127.07906473","imageIndex":17,"items":[{"name":"뱀(BAAM)","tel":"","addr":"경기도 양주시 광사동 654-5번지 양주파스텔시티 1층 107호","indutype":"의류 - 정장","category":"other"},{"name":"필벨리","tel":"031-844-4666","addr":"경기도 양주시 광사동 654-5번지 양주파스텔시티 2층 204호","indutype":"의류 - 스포츠의류","category":"other"}]},{"lat":"37.794595114","long":"127.07784942","imageIndex":17,"items":[{"name":"베이퍼크루 ll","tel":"","addr":"경기도 양주시 광사동 652-2번지 다온프라자 1층 105호","indutype":"기타 - 기타 전문점","category":"other"},{"name":"핀란드의 숲 요양원","tel":"031-840-6688","addr":"경기도 양주시 광사동 652-2번지 5층","indutype":"기타의료기관 - 기타의료기관 및 기타","category":"other"},{"name":"한천유통","tel":"070-7718-2283","addr":"경기도 양주시 광사동 652-2번지 다온프라자 1층 106호,107호","indutype":"의류 - 정장","category":"other"}]},{"lat":"37.772096852","long":"127.06503513","imageIndex":17,"items":[{"name":"보장사","tel":"070-4274-1003","addr":"경기도 양주시 광사동 510-4번지","indutype":"신변잡화 - 기념품점","category":"other"}]},{"lat":"37.794376261","long":"127.08186834","imageIndex":17,"items":[{"name":"부르주화 펫","tel":"","addr":"경기도 양주시 광사동 658번지 해동마을유승한내들 상가동 3층 201호","indutype":"문화.취미 - 애완동물","category":"other"},{"name":"씨유양주해동마을점","tel":"031-847-2557","addr":"경기도 양주시 광사동 658번지 해동마을유승한내들 제상가동 101호","indutype":"유통업 영리 - 편 의 점","category":"other"},{"name":"엔젤옷수선","tel":"031-877-0722","addr":"경기도 양주시 광사동 658번지 해동마을유승한내들 상가동 2층 202호","indutype":"수리서비스 - 세탁소","category":"other"},{"name":"크린토피아 고읍유승한내들","tel":"031-821-1080","addr":"경기도 양주시 광사동 658번지 해동마을유승한내들 상가 201호","indutype":"수리서비스 - 세탁소","category":"other"}]},{"lat":"37.790954199","long":"127.07953733","imageIndex":17,"items":[{"name":"비비앤율","tel":"031-841-0711","addr":"경기도 양주시 광사동 675-1번지 나준빌딩 1층 101 -102호","indutype":"의류 - 정장","category":"other"}]},{"lat":"37.795656758","long":"127.08013259","imageIndex":17,"items":[{"name":"사회단체 풀잎문화센터 양주지부","tel":"031-821-5579","addr":"경기도 양주시 광사동 654-1번지 세원메디컬프라자 702-1호","indutype":"문화.취미 - 문화취미기타","category":"other"},{"name":"주식회사 제이아이","tel":"031-844-3787","addr":"경기도 양주시 광사동 654-1번지 세원메디컬프라자 1층","indutype":"사무통신 - 통신기기","category":"other"},{"name":"토즈 멤버십라운지 고읍센터","tel":"031-821-0801","addr":"경기도 양주시 광사동 654-1번지 세원메디컬프라자 7층 702호","indutype":"용역 서비스 - 사무서비스","category":"other"}]},{"lat":"37.794370036","long":"127.07759941","imageIndex":17,"items":[{"name":"생명나무기프트","tel":"031-841-0870","addr":"경기도 양주시 광사동 652-3번지 스카이프라자 5층 118호","indutype":"문화.취미 - 문화취미기타","category":"other"},{"name":"엘와이","tel":"031-000-0000","addr":"경기도 양주시 광사동 652-3번지 스카이프라자 5층 5627호","indutype":"의류 - 정장","category":"other"}]},{"lat":"37.79101192","long":"127.07367925","imageIndex":17,"items":[{"name":"성운철물나라","tel":"031-821-0945","addr":"경기도 양주시 광사동 344-18번지","indutype":"건축자재 - 목재·석재·철물","category":"other"}]},{"lat":"37.788366713","long":"127.08220252","imageIndex":17,"items":[{"name":"세명인테리어","tel":"031-0000-0000","addr":"경기도 양주시 광사동 690-2번지 101호","indutype":"건축자재 - 인테리어전문","category":"other"}]},{"lat":"37.790205698","long":"127.08062644","imageIndex":17,"items":[{"name":"세븐일레븐양주광사중앙점","tel":"","addr":"경기도 양주시 광사동 678-6번지 1층","indutype":"유통업 영리 - 편 의 점","category":"other"}]},{"lat":"37.791422765","long":"127.07942429","imageIndex":17,"items":[{"name":"수다","tel":"031-844-9870","addr":"경기도 양주시 광사동 674-8번지 상가 102호","indutype":"의류 - 정장","category":"other"},{"name":"테즈","tel":"031-848-5102","addr":"경기도 양주시 광사동 674-8번지 104-1호","indutype":"의류 - 정장","category":"other"},{"name":"티파니펫","tel":"031-821-0126","addr":"경기도 양주시 광사동 674-8번지 102호","indutype":"문화.취미 - 애완동물","category":"other"}]},{"lat":"37.796062717","long":"127.07931554","imageIndex":17,"items":[{"name":"승연 어패럴","tel":"031-847-2434","addr":"경기도 양주시 광사동 651-4번지 103호","indutype":"의류 - 정장","category":"other"},{"name":"아우치(Ouch)","tel":"031-111-1111","addr":"경기도 양주시 광사동 651-4번지 105호","indutype":"신변잡화 - 액세서리","category":"other"},{"name":"알레르망 양주점","tel":"031-848-9357","addr":"경기도 양주시 광사동 651-4번지 106호 107호","indutype":"가구 - 일반가구","category":"other"}]},{"lat":"37.791615936","long":"127.07304405","imageIndex":17,"items":[{"name":"씨유SK사과나무주유소점","tel":"031-842-5157","addr":"경기도 양주시 광사동 317번지 1층","indutype":"유통업 영리 - 편 의 점","category":"other"}]},{"lat":"37.791143412","long":"127.07951482","imageIndex":17,"items":[{"name":"씨유고읍신도점","tel":"031-821-5127","addr":"경기도 양주시 광사동 675번지 1층","indutype":"유통업 영리 - 편 의 점","category":"other"},{"name":"씨유고읍신도점","tel":"031-821-5127","addr":"경기도 양주시 광사동 675번지 1층","indutype":"유통업 영리 - 편 의 점","category":"other"},{"name":"유진텔레콤","tel":"031-821-0995","addr":"경기도 양주시 광사동 675번지 유진빌딩 1층 105호","indutype":"사무통신 - 통신기기","category":"other"}]},{"lat":"37.788979304","long":"127.08228265","imageIndex":17,"items":[{"name":"씨유양주미르빌점","tel":"031-841-8074","addr":"경기도 양주시 광사동 687-4번지 상 102호","indutype":"유통업 영리 - 편 의 점","category":"other"},{"name":"에스포라랩(Espora Lab)","tel":"031-838-3286","addr":"경기도 양주시 광사동 687-4번지 1층 102호","indutype":"서적문구 - 과학기자재","category":"other"}]},{"lat":"37.789096082","long":"127.08279364","imageIndex":17,"items":[{"name":"아이앤디","tel":"02-900-8009","addr":"경기도 양주시 광사동 686-1번지 1층","indutype":"용역 서비스 - 기타용역서비스","category":"other"}]},{"lat":"37.791648039","long":"127.07936775","imageIndex":17,"items":[{"name":"앙주르","tel":"031-856-4517","addr":"경기도 양주시 광사동 674-6번지 102호","indutype":"의류 - 아동의류","category":"other"}]},{"lat":"37.80167197","long":"127.07054418","imageIndex":17,"items":[{"name":"양주농협자재센터","tel":"02-801-1935","addr":"경기도 양주시 광사동 772-1번지","indutype":"농업 - 비료,사료,종자","category":"other"}]},{"lat":"37.789095897","long":"127.08306611","imageIndex":17,"items":[{"name":"양주서점","tel":"031-821-8106","addr":"경기도 양주시 광사동 685번지 101호","indutype":"서적문구 - 일반서적","category":"other"}]},{"lat":"37.790259687","long":"127.08072867","imageIndex":17,"items":[{"name":"양주스킨케어","tel":"031-846-7172","addr":"경기도 양주시 광사동 678-4번지 1층 101호","indutype":"회원제형태 - 기타4","category":"other"},{"name":"은성기획","tel":"031-841-6986","addr":"경기도 양주시 광사동 678-4번지 101호","indutype":"용역 서비스 - 종합용역","category":"other"}]},{"lat":"37.78895176","long":"127.08304325","imageIndex":17,"items":[{"name":"양주스포츠","tel":"070-4114-3366","addr":"경기도 양주시 광사동 685-1번지","indutype":"레져용품 - 스포츠·레져용품","category":"other"}]},{"lat":"37.791476622","long":"127.07973088","imageIndex":17,"items":[{"name":"양주아이폰수리 아이폰브라더스","tel":"031-865-9879","addr":"경기도 양주시 광사동 673-9번지 101호","indutype":"사무통신 - 통신기기","category":"other"}]},{"lat":"37.791344749","long":"127.07454239","imageIndex":17,"items":[{"name":"양주종합주방","tel":"031-841-8259","addr":"경기도 양주시 광사동 344-1번지","indutype":"주방용구 - 주방용식기","category":"other"},{"name":"해맑은애견","tel":"031-846-5705","addr":"경기도 양주시 광사동 344-1번지 101호","indutype":"문화.취미 - 애완동물","category":"other"}]},{"lat":"37.789531666","long":"127.0780373","imageIndex":17,"items":[{"name":"양주지사 D.H.Clean","tel":"070-8247-0832","addr":"경기도 양주시 광사동 712번지 해동마을한양수자인 304동 104호","indutype":"용역 서비스 - 종합용역","category":"other"}]},{"lat":"37.791092842","long":"127.07395179","imageIndex":17,"items":[{"name":"양주청솔로타리클럽","tel":"031-842-8425","addr":"경기도 양주시 광사동 344-3번지","indutype":"기타 - 비영리/비대상","category":"other"}]},{"lat":"37.792755589","long":"127.08031122","imageIndex":17,"items":[{"name":"에버그린","tel":"02-904-5387","addr":"경기도 양주시 광사동 670-9번지 101호","indutype":"신변잡화 - 기타잡화","category":"other"}]},{"lat":"37.788699726","long":"127.08270239","imageIndex":17,"items":[{"name":"에이블투어(주)","tel":"031-966-0103","addr":"경기도 양주시 광사동 686-4번지 1층","indutype":"여행 - 관광여행","category":"other"}]},{"lat":"37.792008469","long":"127.07928865","imageIndex":17,"items":[{"name":"엘캘리플라워","tel":"031-847-3335","addr":"경기도 양주시 광사동 674-3번지 1층","indutype":"문화.취미 - 화원","category":"other"}]},{"lat":"37.789707073","long":"127.07108956","imageIndex":17,"items":[{"name":"엠엔서비스","tel":"031-841-2445","addr":"경기도 양주시 광사동 379-12번지 2동 2-3호","indutype":"전기제품 - 가전제품","category":"other"}]},{"lat":"37.791367868","long":"127.08070713","imageIndex":17,"items":[{"name":"오렌지팟(광사점)","tel":"031-845-0153","addr":"경기도 양주시 광사동 680번지 대성하우스 1층","indutype":"서적문구 - 문구용품","category":"other"}]},{"lat":"37.792233758","long":"127.07920941","imageIndex":17,"items":[{"name":"와우펫","tel":"031-842-9700","addr":"경기도 양주시 광사동 674-1번지 101호","indutype":"문화.취미 - 애완동물","category":"other"}]},{"lat":"37.795341612","long":"127.07984842","imageIndex":17,"items":[{"name":"와이원 스튜디오","tel":"031-840-8411","addr":"경기도 양주시 광사동 654-2번지 2층 더테라스투 203호","indutype":"광학제품 - 사진관","category":"other"},{"name":"플러스 모바일","tel":"031-847-3387","addr":"경기도 양주시 광사동 654-2번지 1층 103호","indutype":"사무통신 - 통신기기","category":"other"}]},{"lat":"37.790367613","long":"127.08101261","imageIndex":17,"items":[{"name":"우리소방","tel":"070-8739-0119","addr":"경기도 양주시 광사동 680-9번지 청화주택 1층 102호","indutype":"기타 - 기계공구","category":"other"}]},{"lat":"37.793479794","long":"127.0748737","imageIndex":17,"items":[{"name":"우리집꾸미기","tel":"031-848-9653","addr":"경기도 양주시 광사동 192번지 외1필지","indutype":"건축자재 - 인테리어전문","category":"other"}]},{"lat":"37.792035284","long":"127.07961792","imageIndex":17,"items":[{"name":"운동화손세탁이불","tel":"031-824-8284","addr":"경기도 양주시 광사동 672-7번지","indutype":"수리서비스 - 세탁소","category":"other"}]},{"lat":"37.786311682","long":"127.06900897","imageIndex":17,"items":[{"name":"유앤제이(u&j)","tel":"031-878-8860","addr":"경기도 양주시 광사동 403번지","indutype":"용역 서비스 - 종합용역","category":"other"}]},{"lat":"37.790115333","long":"127.08103505","imageIndex":17,"items":[{"name":"윤프로샵","tel":"070-8958-4956","addr":"경기도 양주시 광사동 680-11번지 1층","indutype":"레져용품 - 스포츠·레져용품","category":"other"}]},{"lat":"37.788699834","long":"127.08254346","imageIndex":17,"items":[{"name":"은해유통","tel":"031-824-4518","addr":"경기도 양주시 광사동 686-7번지 101호","indutype":"회원제형태 - 기타1","category":"other"},{"name":"피움아트","tel":"","addr":"경기도 양주시 광사동 686-7번지 해밀하우스 102호","indutype":"문화.취미 - 문화취미기타","category":"other"}]},{"lat":"37.790088851","long":"127.08020626","imageIndex":17,"items":[{"name":"이레테크","tel":"070-888-6626","addr":"경기도 양주시 광사동 677-10번지 101호","indutype":"의류 - 정장","category":"other"}]},{"lat":"37.788790326","long":"127.08195322","imageIndex":17,"items":[{"name":"이프스(EFFS)","tel":"070-8807-7273","addr":"경기도 양주시 광사동 688-3번지","indutype":"회원제형태 - 레져업소","category":"other"}]},{"lat":"37.792395641","long":"127.07965236","imageIndex":17,"items":[{"name":"장성희스킨케어","tel":"031-844-2584","addr":"경기도 양주시 광사동 672-2번지 1층","indutype":"회원제형태 - 기타4","category":"other"}]},{"lat":"37.792512601","long":"127.07990225","imageIndex":17,"items":[{"name":"제이제이시스템","tel":"031-977-1535","addr":"경기도 양주시 광사동 671-6번지","indutype":"용역 서비스 - 기타용역서비스","category":"other"}]},{"lat":"37.792341893","long":"127.07917547","imageIndex":17,"items":[{"name":"조은인테리어","tel":"031-821-3358","addr":"경기도 양주시 광사동 674번지 102-1호","indutype":"건축자재 - 인테리어전문","category":"other"}]},{"lat":"37.78987213","long":"127.08095532","imageIndex":17,"items":[{"name":"조이네추럴","tel":"","addr":"경기도 양주시 광사동 680-13번지 102호","indutype":"문화.취미 - 민예·공예품","category":"other"}]},{"lat":"37.788511419","long":"127.08137394","imageIndex":17,"items":[{"name":"주담","tel":"031-848-1365","addr":"경기도 양주시 광사동 689-3번지 103호","indutype":"건축자재 - 인테리어전문","category":"other"}]},{"lat":"37.788421181","long":"127.08158954","imageIndex":17,"items":[{"name":"주식회사 제스코(Jesco Co,.Ltd)","tel":"031-848-5515","addr":"경기도 양주시 광사동 689-4번지","indutype":"건축자재 - 목재·석재·철물","category":"other"}]},{"lat":"37.795774148","long":"127.07972397","imageIndex":17,"items":[{"name":"주식회사에이스렌트카","tel":"031-821-7774","addr":"경기도 양주시 광사동 654번지 207호","indutype":"여행 - 렌터카","category":"other"}]},{"lat":"37.789819004","long":"127.07953616","imageIndex":17,"items":[{"name":"척척누수설비","tel":"","addr":"경기도 양주시 광사동 712번지 해동마을한양수자인 312동 1401호","indutype":"용역 서비스 - 기타용역서비스","category":"other"}]},{"lat":"37.790151828","long":"127.08034256","imageIndex":17,"items":[{"name":"크린종합세척기","tel":"031-847-6775","addr":"경기도 양주시 광사동 677-5번지 1층","indutype":"주방용구 - 주방용구","category":"other"}]},{"lat":"37.791566316","long":"127.08034404","imageIndex":17,"items":[{"name":"크린토피아(양주고읍점)","tel":"031-842-0033","addr":"경기도 양주시 광사동 673-5번지","indutype":"수리서비스 - 세탁소","category":"other"}]},{"lat":"37.789005923","long":"127.0682848","imageIndex":17,"items":[{"name":"플러스이엔지","tel":"","addr":"경기도 양주시 광사동 591번지","indutype":"용역 서비스 - 기타용역서비스","category":"other"}]},{"lat":"37.792485372","long":"127.08020876","imageIndex":17,"items":[{"name":"한국오토마타연구소","tel":"031-821-6543","addr":"경기도 양주시 광사동 671-3번지 101호","indutype":"문화.취미 - 문화취미기타","category":"other"}]},{"lat":"37.788121594","long":"127.07075888","imageIndex":17,"items":[{"name":"한성수출포장","tel":"031-846-0566","addr":"경기도 양주시 광사동 373-11번지","indutype":"기타 - 기타 전문점","category":"other"}]},{"lat":"37.78914874","long":"127.07064629","imageIndex":17,"items":[{"name":"한양인테리어","tel":"031-841-2420","addr":"경기도 양주시 광사동 379-8번지 1층","indutype":"건축자재 - 인테리어전문","category":"other"}]},{"lat":"37.792899919","long":"127.08003889","imageIndex":17,"items":[{"name":"헤이즈 (HAZE)","tel":"","addr":"경기도 양주시 광사동 670-7번지 래드스톤빌 상가 101호","indutype":"신변잡화 - 신발","category":"other"}]}]