[{"lat":"37.62088769","long":"126.82501279","imageIndex":7,"items":[{"name":"건국우유행신보급소","tel":"031-971-7999","addr":"경기도 고양시 덕양구 토당동 875-2번지 조화빌딩","indutype":"음료식품 - 기타음료식품","category":"food"}]},{"lat":"37.620826628","long":"126.82042547","imageIndex":7,"items":[{"name":"고양떡집","tel":"031-971-0772","addr":"경기도 고양시 덕양구 토당동 383-5번지","indutype":"음료식품 - 제과점","category":"food"},{"name":"전주야채상회","tel":"031-974-7163","addr":"경기도 고양시 덕양구 토당동 383-5번지","indutype":"음료식품 - 농·축·수산품","category":"food"},{"name":"정강축산/주식회사정강푸드축산부","tel":"031-972-8070","addr":"경기도 고양시 덕양구 토당동 383-5번지","indutype":"음료식품 - 정육점","category":"food"},{"name":"토브부대찌개","tel":"031-971-8882","addr":"경기도 고양시 덕양구 토당동 383-5번지","indutype":"음료식품 - 기타음료식품","category":"food"},{"name":"토브부대찌개","tel":"031-971-8882","addr":"경기도 고양시 덕양구 토당동 383-5번지","indutype":"음료식품 - 기타음료식품","category":"food"}]},{"lat":"37.62088271","long":"126.82173927","imageIndex":7,"items":[{"name":"고양이한테 맡긴 생선","tel":"031-1111-1111","addr":"경기도 고양시 덕양구 토당동 382번지","indutype":"음료식품 - 농·축·수산품","category":"food"},{"name":"능곡건강식품","tel":"031-974-1739","addr":"경기도 고양시 덕양구 토당동 382번지","indutype":"건강식품 - 기타건강식품","category":"food"}]},{"lat":"37.622247538","long":"126.81873423","imageIndex":7,"items":[{"name":"깃발상회","tel":"031-974-7609","addr":"경기도 고양시 덕양구 토당동 335-82번지","indutype":"음료식품 - 미곡상","category":"food"}]},{"lat":"37.619888771","long":"126.8257854","imageIndex":7,"items":[{"name":"남도반찬","tel":"031-978-8951","addr":"경기도 고양시 덕양구 토당동 877-8번지","indutype":"음료식품 - 기타음료식품","category":"food"}]},{"lat":"37.627108462","long":"126.82175815","imageIndex":7,"items":[{"name":"남양유업덕양대리점","tel":"031-966-6507","addr":"경기도 고양시 덕양구 토당동 835-3번지","indutype":"음료식품 - 기타음료식품","category":"food"}]},{"lat":"37.62699937","long":"126.82112405","imageIndex":7,"items":[{"name":"넘버원 (NO.1) 점핑다이어트","tel":"02-1111-1111","addr":"경기도 고양시 덕양구 토당동 836-9번지","indutype":"건강식품 - 기타건강식품","category":"food"}]},{"lat":"37.616828072","long":"126.80475943","imageIndex":7,"items":[{"name":"농업회사법인(주)티엠파트너스","tel":"02-707-2685","addr":"경기도 고양시 덕양구 토당동 752-2번지","indutype":"음료식품 - 농·축·수산품","category":"food"}]},{"lat":"37.625451044","long":"126.82200006","imageIndex":7,"items":[{"name":"능곡상회","tel":"031-972-6465","addr":"경기도 고양시 덕양구 토당동","indutype":"음료식품 - 농·축·수산품","category":"food"}]},{"lat":"37.617826871","long":"126.82667376","imageIndex":7,"items":[{"name":"능곡아줌마장어집","tel":"031-972-7928","addr":"경기도 고양시 덕양구 토당동 407-8번지","indutype":"음료식품 - 농·축·수산품","category":"food"}]},{"lat":"37.620250651","long":"126.82678131","imageIndex":7,"items":[{"name":"대성건강원","tel":"070-4123-2696","addr":"경기도 고양시 덕양구 토당동 879번지 삼윤아파트","indutype":"음료식품 - 농·축·수산품","category":"food"}]},{"lat":"37.62258035","long":"126.8242385","imageIndex":7,"items":[{"name":"대성참기름","tel":"031-973-0339","addr":"경기도 고양시 덕양구 토당동 373-89번지","indutype":"음료식품 - 기타음료식품","category":"food"}]},{"lat":"37.620965738","long":"126.82300771","imageIndex":7,"items":[{"name":"동네식품","tel":"031-979-3822","addr":"경기도 고양시 덕양구 토당동 376-3번지","indutype":"음료식품 - 기타음료식품","category":"food"}]},{"lat":"37.621583144","long":"126.82023106","imageIndex":7,"items":[{"name":"디자이너디저트","tel":"031-812-0628","addr":"경기도 고양시 덕양구 토당동 347-7번지","indutype":"음료식품 - 기타음료식품","category":"food"}]},{"lat":"37.626021814","long":"126.82407167","imageIndex":7,"items":[{"name":"떡시루","tel":"031-972-5565","addr":"경기도 고양시 덕양구 토당동 845번지","indutype":"음료식품 - 제과점","category":"food"},{"name":"베스킨라빈스 능곡점","tel":"031-979-8956","addr":"경기도 고양시 덕양구 토당동 845번지","indutype":"음료식품 - 제과점","category":"food"}]},{"lat":"37.620327959","long":"126.82426654","imageIndex":7,"items":[{"name":"뚜레쥬르 고양능곡","tel":"031-974-5005","addr":"경기도 고양시 덕양구 토당동 864-3번지","indutype":"음료식품 - 제과점","category":"food"}]},{"lat":"37.625058188","long":"126.82434584","imageIndex":7,"items":[{"name":"롯데칠성 예지유통","tel":"","addr":"경기도 고양시 덕양구 토당동 853번지 태웅정다움아파트","indutype":"음료식품 - 기타음료식품","category":"food"}]},{"lat":"37.622076885","long":"126.82495332","imageIndex":7,"items":[{"name":"명성T&C(커피)","tel":"031-963-2719","addr":"경기도 고양시 덕양구 토당동 373-66번지","indutype":"음료식품 - 기타음료식품","category":"food"}]},{"lat":"37.627797614","long":"126.82465648","imageIndex":7,"items":[{"name":"모아푸드","tel":"031-811-7654","addr":"경기도 고양시 덕양구 토당동 893-1번지","indutype":"음료식품 - 기타음료식품","category":"food"}]},{"lat":"37.622077601","long":"126.82542906","imageIndex":7,"items":[{"name":"미래유통","tel":"070-8970-5591","addr":"경기도 고양시 덕양구 토당동 871-3번지 8차밀양연립","indutype":"음료식품 - 농·축·수산품","category":"food"}]},{"lat":"37.621110238","long":"126.8232339","imageIndex":7,"items":[{"name":"민복상회","tel":"031-972-0546","addr":"경기도 고양시 덕양구 토당동 376-1번지","indutype":"음료식품 - 농·축·수산품","category":"food"}]},{"lat":"37.624047793","long":"126.81765368","imageIndex":7,"items":[{"name":"민트아이스크림","tel":"070-7420-4158","addr":"경기도 고양시 덕양구 토당동 296-21번지","indutype":"음료식품 - 기타음료식품","category":"food"}]},{"lat":"37.620969413","long":"126.81954161","imageIndex":7,"items":[{"name":"밀알","tel":"031-974-0356","addr":"경기도 고양시 덕양구 토당동 338-10번지","indutype":"음료식품 - 기타음료식품","category":"food"}]},{"lat":"37.621188309","long":"126.82126279","imageIndex":7,"items":[{"name":"백마건어물","tel":"031-972-9462","addr":"경기도 고양시 덕양구 토당동","indutype":"음료식품 - 농·축·수산품","category":"food"}]},{"lat":"37.622833734","long":"126.81909526","imageIndex":7,"items":[{"name":"백양상회","tel":"031-974-7325","addr":"경기도 고양시 덕양구 토당동 336-25번지","indutype":"음료식품 - 기타음료식품","category":"food"}]},{"lat":"37.624131482","long":"126.81931862","imageIndex":7,"items":[{"name":"범푸드","tel":"031-968-6664","addr":"경기도 고양시 덕양구 토당동 293-8번지","indutype":"음료식품 - 기타음료식품","category":"food"}]},{"lat":"37.620554501","long":"126.82512685","imageIndex":7,"items":[{"name":"본가 떡 전문점","tel":"031-938-0104","addr":"경기도 고양시 덕양구 토당동 876-2번지","indutype":"음료식품 - 제과점","category":"food"}]},{"lat":"37.625357063","long":"126.82537595","imageIndex":7,"items":[{"name":"봄이식품","tel":"070-4233-6068","addr":"경기도 고양시 덕양구 토당동 851번지 로양빌라2차","indutype":"음료식품 - 기타음료식품","category":"food"}]},{"lat":"37.626216329","long":"126.82164704","imageIndex":7,"items":[{"name":"삼다수제주흑도야지마씸","tel":"031-816-6365","addr":"경기도 고양시 덕양구 토당동 837-6번지","indutype":"음료식품 - 정육점","category":"food"}]},{"lat":"37.615584847","long":"126.82165019","imageIndex":7,"items":[{"name":"상명그린농장","tel":"031-971-5450","addr":"경기도 고양시 덕양구 토당동","indutype":"음료식품 - 농·축·수산품","category":"food"}]},{"lat":"37.626499705","long":"126.82431974","imageIndex":7,"items":[{"name":"상원정육점","tel":"031-974-5885","addr":"경기도 고양시 덕양구 토당동 843-10번지","indutype":"음료식품 - 정육점","category":"food"}]},{"lat":"37.625497303","long":"126.81698174","imageIndex":7,"items":[{"name":"생생축산","tel":"031-979-7113","addr":"경기도 고양시 덕양구 토당동 282-23번지","indutype":"음료식품 - 정육점","category":"food"}]},{"lat":"37.621052045","long":"126.82053819","imageIndex":7,"items":[{"name":"선호푸드뱅크","tel":"031-971-0062","addr":"경기도 고양시 덕양구 토당동 343-8번지","indutype":"음료식품 - 기타음료식품","category":"food"}]},{"lat":"37.620303438","long":"126.82593166","imageIndex":7,"items":[{"name":"세광식품상사","tel":"031-974-7549","addr":"경기도 고양시 덕양구 토당동 876-7번지","indutype":"음료식품 - 기타음료식품","category":"food"},{"name":"우리농협참한우","tel":"070-4236-7905","addr":"경기도 고양시 덕양구 토당동 876-7번지","indutype":"음료식품 - 정육점","category":"food"}]},{"lat":"37.625166909","long":"126.81887429","imageIndex":7,"items":[{"name":"세림유통","tel":"031-970-7778","addr":"경기도 고양시 덕양구 토당동 289-10번지","indutype":"음료식품 - 기타음료식품","category":"food"}]},{"lat":"37.62324892","long":"126.81956999","imageIndex":7,"items":[{"name":"소리가있는동네","tel":"031-964-3629","addr":"경기도 고양시 덕양구 토당동 292-41번지","indutype":"음료식품 - 기타음료식품","category":"food"}]},{"lat":"37.620856688","long":"126.82239631","imageIndex":7,"items":[{"name":"수림축산백화점","tel":"031-974-6440","addr":"경기도 고양시 덕양구 토당동 383-7번지","indutype":"음료식품 - 농·축·수산품","category":"food"},{"name":"신용직판장","tel":"031-972-1176","addr":"경기도 고양시 덕양구 토당동 383-7번지","indutype":"음료식품 - 농·축·수산품","category":"food"}]},{"lat":"37.626606395","long":"126.82337926","imageIndex":7,"items":[{"name":"수베이커리","tel":"031-8076-8822","addr":"경기도 고양시 덕양구 토당동 27-18번지","indutype":"음료식품 - 제과점","category":"food"}]},{"lat":"37.626353936","long":"126.81743272","imageIndex":7,"items":[{"name":"쉐프베이커리","tel":"031-972-0444","addr":"경기도 고양시 덕양구 토당동 254-2번지","indutype":"음료식품 - 제과점","category":"food"}]},{"lat":"37.627219433","long":"126.82362701","imageIndex":7,"items":[{"name":"신도매축산","tel":"031-690-8844","addr":"경기도 고양시 덕양구 토당동 843번지","indutype":"음료식품 - 정육점","category":"food"}]},{"lat":"37.625104106","long":"126.81904436","imageIndex":7,"items":[{"name":"신세계건강원","tel":"031-974-7720","addr":"경기도 고양시 덕양구 토당동 289-11번지","indutype":"건강식품 - 기타건강식품","category":"food"}]},{"lat":"37.61816628","long":"126.82470212","imageIndex":7,"items":[{"name":"신일식품","tel":"031-972-2506","addr":"경기도 고양시 덕양구 토당동 888번지","indutype":"음료식품 - 기타음료식품","category":"food"}]},{"lat":"37.620606332","long":"126.82365421","imageIndex":7,"items":[{"name":"싱싱","tel":"02-974-7841","addr":"경기도 고양시 덕양구 토당동 388번지","indutype":"음료식품 - 농·축·수산품","category":"food"}]},{"lat":"37.626523093","long":"126.82192949","imageIndex":7,"items":[{"name":"아림미트","tel":"031-4670-0803","addr":"경기도 고양시 덕양구 토당동 838-2번지","indutype":"음료식품 - 정육점","category":"food"}]},{"lat":"37.620444656","long":"126.82398308","imageIndex":7,"items":[{"name":"아이스크림 할인점","tel":"031-974-8667","addr":"경기도 고양시 덕양구 토당동 864-4번지","indutype":"음료식품 - 기타음료식품","category":"food"},{"name":"태양축산","tel":"031-971-8711","addr":"경기도 고양시 덕양구 토당동 864-4번지","indutype":"음료식품 - 정육점","category":"food"}]},{"lat":"37.619826213","long":"126.82612535","imageIndex":7,"items":[{"name":"우리동네푸줏간","tel":"031-970-2889","addr":"경기도 고양시 덕양구 토당동 878-8번지","indutype":"음료식품 - 정육점","category":"food"}]},{"lat":"37.621133517","long":"126.82078719","imageIndex":7,"items":[{"name":"우리축산","tel":"031-972-0547","addr":"경기도 고양시 덕양구 토당동 348-14번지","indutype":"음료식품 - 정육점","category":"food"}]},{"lat":"37.621027577","long":"126.82220333","imageIndex":7,"items":[{"name":"월드축산물판매장","tel":"031-979-7553","addr":"경기도 고양시 덕양구 토당동 381-8번지","indutype":"음료식품 - 정육점","category":"food"},{"name":"유진식품","tel":"031-971-4787","addr":"경기도 고양시 덕양구 토당동 381-8번지","indutype":"음료식품 - 기타음료식품","category":"food"}]},{"lat":"37.621332045","long":"126.82099059","imageIndex":7,"items":[{"name":"유진유통","tel":"070-7641-1957","addr":"경기도 고양시 덕양구 토당동 348-11번지","indutype":"음료식품 - 농·축·수산품","category":"food"}]},{"lat":"37.627772087","long":"126.82565341","imageIndex":7,"items":[{"name":"육달포","tel":"031-970-0033","addr":"경기도 고양시 덕양구 토당동 895번지","indutype":"음료식품 - 정육점","category":"food"}]},{"lat":"37.621139551","long":"126.82474034","imageIndex":7,"items":[{"name":"육생고양점","tel":"031-973-1999","addr":"경기도 고양시 덕양구 토당동 875-6번지","indutype":"건강식품 - 홍삼제품","category":"food"}]},{"lat":"37.630021675","long":"126.81226916","imageIndex":7,"items":[{"name":"일산식품","tel":"031-972-7730","addr":"경기도 고양시 덕양구 토당동 830번지","indutype":"음료식품 - 농·축·수산품","category":"food"}]},{"lat":"37.621081393","long":"126.82204462","imageIndex":7,"items":[{"name":"자산유통","tel":"031-974-3990","addr":"경기도 고양시 덕양구 토당동 381-3번지","indutype":"음료식품 - 농·축·수산품","category":"food"}]},{"lat":"37.620829918","long":"126.82256628","imageIndex":7,"items":[{"name":"전통흑염소","tel":"031-974-9961","addr":"경기도 고양시 덕양구 토당동 383-9번지","indutype":"건강식품 - 기타건강식품","category":"food"},{"name":"전통흑염소","tel":"031-974-9961","addr":"경기도 고양시 덕양구 토당동 383-9번지","indutype":"건강식품 - 기타건강식품","category":"food"},{"name":"해피데이","tel":"031-971-1151","addr":"경기도 고양시 덕양구 토당동 383-9번지","indutype":"음료식품 - 제과점","category":"food"}]},{"lat":"37.620278032","long":"126.82107245","imageIndex":7,"items":[{"name":"점핑스낵","tel":"031-970-5566","addr":"경기도 고양시 덕양구 토당동 855-1번지","indutype":"음료식품 - 기타음료식품","category":"food"}]},{"lat":"37.621167186","long":"126.81925795","imageIndex":7,"items":[{"name":"정건강원","tel":"031-972-7594","addr":"경기도 고양시 덕양구 토당동 332-8번지","indutype":"건강식품 - 기타건강식품","category":"food"}]},{"lat":"37.623471262","long":"126.81771174","imageIndex":7,"items":[{"name":"정육가","tel":"031-797-8898","addr":"경기도 고양시 덕양구 토당동 296-4번지","indutype":"음료식품 - 정육점","category":"food"}]},{"lat":"37.626054293","long":"126.82173805","imageIndex":7,"items":[{"name":"종가집반찬","tel":"031-970-1550","addr":"경기도 고양시 덕양구 토당동 837-7번지","indutype":"음료식품 - 기타음료식품","category":"food"}]},{"lat":"37.624580412","long":"126.81832069","imageIndex":7,"items":[{"name":"진실한건강원","tel":"031-973-0069","addr":"경기도 고양시 덕양구 토당동 290-7번지","indutype":"건강식품 - 기타건강식품","category":"food"}]},{"lat":"37.621082622","long":"126.82284885","imageIndex":7,"items":[{"name":"착한정육점","tel":"031-978-8469","addr":"경기도 고양시 덕양구 토당동 378-6번지","indutype":"음료식품 - 정육점","category":"food"}]},{"lat":"37.622413835","long":"126.80459735","imageIndex":7,"items":[{"name":"참그린","tel":"031-974-3000","addr":"경기도 고양시 덕양구 토당동 693-46번지","indutype":"음료식품 - 미곡상","category":"food"}]},{"lat":"37.62155418","long":"126.81898514","imageIndex":7,"items":[{"name":"참사랑실버용품샵(Shop)","tel":"031-978-6171","addr":"경기도 고양시 덕양구 토당동","indutype":"회원제형태 - 건강식품","category":"food"}]},{"lat":"37.626804522","long":"126.82332215","imageIndex":7,"items":[{"name":"켐라이프","tel":"031-972-8141","addr":"경기도 고양시 덕양구 토당동 99-31번지","indutype":"건강식품 - 기타건강식품","category":"food"}]},{"lat":"37.627325042","long":"126.82198419","imageIndex":7,"items":[{"name":"키즈쿡","tel":"031-916-9454","addr":"경기도 고양시 덕양구 토당동 834-12번지","indutype":"음료식품 - 기타음료식품","category":"food"}]},{"lat":"37.62666176","long":"126.82424006","imageIndex":7,"items":[{"name":"토당떡방앗간","tel":"031-970-9100","addr":"경기도 고양시 덕양구 토당동 844-7번지","indutype":"음료식품 - 제과점","category":"food"}]},{"lat":"37.620445085","long":"126.82426626","imageIndex":7,"items":[{"name":"파리바게뜨","tel":"031-964-1321","addr":"경기도 고양시 덕양구 토당동 864-2번지","indutype":"음료식품 - 제과점","category":"food"}]},{"lat":"37.626471232","long":"126.82336826","imageIndex":7,"items":[{"name":"파리바게트능곡점","tel":"031-972-8210","addr":"경기도 고양시 덕양구 토당동 840-3번지","indutype":"음료식품 - 제과점","category":"food"}]},{"lat":"37.621861692","long":"126.82564479","imageIndex":7,"items":[{"name":"푸른식자재","tel":"","addr":"경기도 고양시 덕양구 토당동 871-6번지 거성빌라","indutype":"음료식품 - 농·축·수산품","category":"food"}]},{"lat":"37.620166828","long":"126.82495787","imageIndex":7,"items":[{"name":"하이드래곤커피","tel":"031-972-2019","addr":"경기도 고양시 덕양구 토당동 877-12번지","indutype":"음료식품 - 기타음료식품","category":"food"}]},{"lat":"37.626769704","long":"126.82412652","imageIndex":7,"items":[{"name":"한국청정음료","tel":"031-973-1829","addr":"경기도 고양시 덕양구 토당동 844-8번지","indutype":"음료식품 - 기타음료식품","category":"food"}]},{"lat":"37.620165698","long":"126.82421029","imageIndex":7,"items":[{"name":"한샘상회","tel":"031-974-0093","addr":"경기도 고양시 덕양구 토당동 865번지","indutype":"음료식품 - 기타음료식품","category":"food"}]},{"lat":"37.623329267","long":"126.81909404","imageIndex":7,"items":[{"name":"한우시범정육점","tel":"031-972-8254","addr":"경기도 고양시 덕양구 토당동 294-3번지","indutype":"음료식품 - 정육점","category":"food"}]},{"lat":"37.623083941","long":"126.80662318","imageIndex":7,"items":[{"name":"한일밴더","tel":"031-970-6039","addr":"경기도 고양시 덕양구 토당동","indutype":"음료식품 - 기타음료식품","category":"food"}]},{"lat":"37.621051712","long":"126.82032298","imageIndex":7,"items":[{"name":"향기가있는과일","tel":"031-938-2114","addr":"경기도 고양시 덕양구 토당동 343-12번지","indutype":"음료식품 - 농·축·수산품","category":"food"}]},{"lat":"37.619219679","long":"126.82421256","imageIndex":7,"items":[{"name":"호주이야기","tel":"031-362-0100","addr":"경기도 고양시 덕양구 토당동 866번지","indutype":"건강식품 - 기타건강식품","category":"food"}]}]