[{"lat":"37.723842079","long":"126.77346373","imageIndex":0,"items":[{"name":"Oil house(오일하우스)","tel":"070-7538-5698","addr":"경기도 파주시 상지석동 996-6번지 2층","indutype":"자동차정비 유지 - 윤활유 전문 판매","category":"car"}]},{"lat":"37.719943138","long":"126.78410333","imageIndex":0,"items":[{"name":"덕일카센타","tel":"031-976-6763","addr":"경기도 파주시 상지석동 1892번지","indutype":"자동차정비 유지 - 자동차정비","category":"car"}]},{"lat":"37.726236929","long":"126.77259427","imageIndex":0,"items":[{"name":"리드코리아","tel":"031-944-4788","addr":"경기도 파주시 상지석동 987-24","indutype":"자동차정비 유지 - 자동차부품","category":"car"}]},{"lat":"37.720732234","long":"126.78209343","imageIndex":0,"items":[{"name":"멤피스존","tel":"031-949-8708","addr":"경기도 파주시 상지석동 546-5","indutype":"자동차정비 유지 - 카인테리어","category":"car"},{"name":"일산종합타이어","tel":"031-959-0172","addr":"경기도 파주시 상지석동 546-5번지","indutype":"자동차정비 유지 - 자동차시트·타이어","category":"car"}]},{"lat":"37.731486376","long":"126.78034857","imageIndex":0,"items":[{"name":"상지자동차정비","tel":"031-902-8837","addr":"경기도 파주시 상지석동 447-2번지","indutype":"자동차정비 유지 - 자동차정비","category":"car"}]},{"lat":"37.726561827","long":"126.76830556","imageIndex":0,"items":[{"name":"서부이동빵구","tel":"031-942-1470","addr":"경기도 파주시 상지석동 977-7번지 경안주택","indutype":"자동차정비 유지 - 자동차정비","category":"car"}]},{"lat":"37.733479208","long":"126.79106287","imageIndex":0,"items":[{"name":"성원공업사","tel":"031-957-0357","addr":"경기도 파주시 상지석동 197-5","indutype":"자동차정비 유지 - 자동차정비","category":"car"}]},{"lat":"37.726814624","long":"126.79245438","imageIndex":0,"items":[{"name":"세나시트","tel":"031-985-2266","addr":"경기도 파주시 상지석동 129-4번지","indutype":"자동차정비 유지 - 자동차부품","category":"car"}]},{"lat":"37.728229668","long":"126.76884478","imageIndex":0,"items":[{"name":"애니카랜드교하운정점","tel":"031-946-8300","addr":"경기도 파주시 상지석동 974-10","indutype":"자동차정비 유지 - 자동차정비","category":"car"}]},{"lat":"37.728401186","long":"126.76901439","imageIndex":0,"items":[{"name":"우림카센타","tel":"031-946-4976","addr":"경기도 파주시 상지석동 973-7번지","indutype":"자동차정비 유지 - 자동차정비","category":"car"}]},{"lat":"37.721651349","long":"126.77740629","imageIndex":0,"items":[{"name":"운정세차마을","tel":"031-943-8283","addr":"경기도 파주시 상지석동 587-11번지","indutype":"자동차정비 유지 - 세차장","category":"car"}]},{"lat":"37.721289015","long":"126.78112768","imageIndex":0,"items":[{"name":"운정타이어","tel":"031-949-4438","addr":"경기도 파주시 상지석동 547-3","indutype":"자동차정비 유지 - 자동차시트·타이어","category":"car"}]},{"lat":"37.722066199","long":"126.77762054","imageIndex":0,"items":[{"name":"운정현대부품","tel":"031-949-1962","addr":"경기도 파주시 상지석동 586-1번지","indutype":"자동차정비 유지 - 자동차부품","category":"car"}]},{"lat":"37.721904028","long":"126.77762103","imageIndex":0,"items":[{"name":"운정현대정비공장(주)","tel":"031-949-4972","addr":"경기도 파주시 상지석동 586-4","indutype":"자동차정비 유지 - 자동차정비","category":"car"}]},{"lat":"37.719176949","long":"126.78390142","imageIndex":0,"items":[{"name":"유게러지(YOU GARAGE)","tel":"","addr":"경기도 파주시 상지석동 540-2번지","indutype":"자동차정비 유지 - 자동차정비","category":"car"}]},{"lat":"37.72690394","long":"126.7681797","imageIndex":0,"items":[{"name":"유알스페셜(URSPECIAL)","tel":"031-947-0947","addr":"경기도 파주시 상지석동 975-7번지","indutype":"자동차정비 유지 - 자동차부품","category":"car"}]},{"lat":"37.721372054","long":"126.77740714","imageIndex":0,"items":[{"name":"은성밧데리","tel":"031-944-0907","addr":"경기도 파주시 상지석동 573-7","indutype":"자동차정비 유지 - 세차장","category":"car"}]},{"lat":"37.721374683","long":"126.77409517","imageIndex":0,"items":[{"name":"일산동구 출장세차","tel":"","addr":"경기도 파주시 상지석동 557번지","indutype":"자동차정비 유지 - 세차장","category":"car"}]},{"lat":"37.733701879","long":"126.77989952","imageIndex":0,"items":[{"name":"정타이어","tel":"031-952-2210","addr":"경기도 파주시 상지석동 444-16번지","indutype":"자동차정비 유지 - 자동차시트·타이어","category":"car"}]},{"lat":"37.714206018","long":"126.7756256","imageIndex":0,"items":[{"name":"차캐드","tel":"070-3962-4572","addr":"경기도 파주시 상지석동 551-36번지","indutype":"자동차판매 - 기타운송","category":"car"}]},{"lat":"37.730454862","long":"126.78279056","imageIndex":0,"items":[{"name":"천하공업사","tel":"031-975-7979","addr":"경기도 파주시 상지석동 177-13번지","indutype":"자동차정비 유지 - 자동차정비","category":"car"}]},{"lat":"37.719375011","long":"126.78382145","imageIndex":0,"items":[{"name":"체리워크","tel":"031-000-0000","addr":"경기도 파주시 상지석동 541-4번지","indutype":"자동차정비 유지 - 자동차부품","category":"car"}]},{"lat":"37.721623735","long":"126.77710013","imageIndex":0,"items":[{"name":"케이오토","tel":"031-945-0630","addr":"경기도 파주시 상지석동 587-9번지","indutype":"자동차정비 유지 - 자동차정비","category":"car"},{"name":"케이자동변속기","tel":"031-945-0630","addr":"경기도 파주시 상지석동 587-9","indutype":"자동차정비 유지 - 자동차정비","category":"car"}]},{"lat":"37.723286217","long":"126.77487193","imageIndex":0,"items":[{"name":"한빛카센타","tel":"031-948-4882","addr":"경기도 파주시 상지석동 604-12번지","indutype":"자동차정비 유지 - 자동차정비","category":"car"}]},{"lat":"37.721234235","long":"126.77601245","imageIndex":0,"items":[{"name":"행복한정비소","tel":"070-7766-5693","addr":"경기도 파주시 상지석동 559-1번지","indutype":"자동차정비 유지 - 자동차정비","category":"car"}]},{"lat":"37.737618342","long":"126.77848101","imageIndex":0,"items":[{"name":"현대공업사","tel":"031-948-8666","addr":"경기도 파주시 상지석동 745-6번지","indutype":"자동차정비 유지 - 자동차정비","category":"car"}]}]