[{"lat":"37.383400858","long":"127.59808701","imageIndex":17,"items":[{"name":"고려농자재","tel":"031-882-1960","addr":"경기도 여주시 대신면 초현리 84-1번지","indutype":"농업 - 기타농업관련","category":"other"}]},{"lat":"37.38243185","long":"127.59727769","imageIndex":17,"items":[{"name":"곰아저씨공방","tel":"031-884-2701","addr":"경기도 여주시 대신면 초현리 80번지","indutype":"문화.취미 - 민예·공예품","category":"other"}]},{"lat":"37.382458993","long":"127.59725532","imageIndex":17,"items":[{"name":"도예리공방","tel":"031-881-3907","addr":"경기도 여주시 대신면 초현리 77-7번지","indutype":"문화.취미 - 문화취미기타","category":"other"}]},{"lat":"37.302497655","long":"127.66141195","imageIndex":17,"items":[{"name":"범천요","tel":"070-8281-6003","addr":"경기도 여주시 대신면 초현리 80-2번지","indutype":"문화.취미 - 민예·공예품","category":"other"}]},{"lat":"37.376930807","long":"127.59467142","imageIndex":17,"items":[{"name":"선경건설창호","tel":"031-883-7081","addr":"경기도 여주시 대신면 초현리 197-8번지","indutype":"건축자재 - 기타건축자재","category":"other"}]},{"lat":"37.382952592","long":"127.59764311","imageIndex":17,"items":[{"name":"선경도자기","tel":"031-882-2269","addr":"경기도 여주시 대신면 초현리 80-2번지","indutype":"문화.취미 - 민예·공예품","category":"other"},{"name":"선경도자기","tel":"031-882-2269","addr":"경기도 여주시 대신면 초현리 80-2번지","indutype":"문화.취미 - 민예·공예품","category":"other"}]},{"lat":"37.368072631","long":"127.5949405","imageIndex":17,"items":[{"name":"세라믹스튜디오 살래","tel":"070-4129-9231","addr":"경기도 여주시 대신면 초현리 356-9번지","indutype":"주방용구 - 주방용식기","category":"other"}]},{"lat":"37.379650428","long":"127.59674766","imageIndex":17,"items":[{"name":"예뜰공방","tel":"031-881-2381","addr":"경기도 여주시 대신면 초현리 148-1번지","indutype":"문화.취미 - 문화취미기타","category":"other"},{"name":"우치요","tel":"031-883-2304","addr":"경기도 여주시 대신면 초현리 148-1번지","indutype":"문화.취미 - 민예·공예품","category":"other"}]},{"lat":"37.366879348","long":"127.5884966","imageIndex":17,"items":[{"name":"좋은도자기","tel":"031-883-0077","addr":"경기도 여주시 대신면 초현리 309-11번지","indutype":"문화.취미 - 민예·공예품","category":"other"}]}]