[{"lat":"37.226494755","long":"126.97217713","imageIndex":17,"items":[{"name":"(주)꾸밈방","tel":"031-223-5554","addr":"경기도 화성시 기안동 335-8번지 1층","indutype":"직물 - 침구·수예점","category":"other"}]},{"lat":"37.226488006","long":"126.98270129","imageIndex":17,"items":[{"name":"(주)나무조각에코사인","tel":"031-8273-0625","addr":"경기도 화성시 기안동 200-4번지 1층","indutype":"용역 서비스 - 종합용역","category":"other"}]},{"lat":"37.229939203","long":"126.98412018","imageIndex":17,"items":[{"name":"(주)디케이 대경","tel":"070-7779-5518","addr":"경기도 화성시 기안동 139번지","indutype":"신변잡화 - 신발","category":"other"}]},{"lat":"37.22429857","long":"126.98317511","imageIndex":17,"items":[{"name":"(주)이트리스/원격지","tel":"031-267-4317","addr":"경기도 화성시 기안동 442번지 성호빌딩 202호","indutype":"기타 - 기타 전문점","category":"other"},{"name":"모든기업","tel":"031-898-8955","addr":"경기도 화성시 기안동 442번지","indutype":"건축자재 - 보일러·펌프·샷시","category":"other"},{"name":"씨유화성기안점","tel":"031-224-1459","addr":"경기도 화성시 기안동 442번지 101호","indutype":"유통업 영리 - 편 의 점","category":"other"}]},{"lat":"37.223324356","long":"126.97742901","imageIndex":17,"items":[{"name":"GS25화성신일점","tel":"02-2006-2485","addr":"경기도 화성시 기안동 910","indutype":"유통업 영리 - 편 의 점","category":"other"},{"name":"MAX체육관","tel":"031-232-2566","addr":"경기도 화성시 기안동 910번지 신일해피트리상가 203호204호204호","indutype":"회원제형태 - 레져업소","category":"other"}]},{"lat":"37.226576532","long":"126.97493772","imageIndex":17,"items":[{"name":"HK통신","tel":"031-7906-6555","addr":"경기도 화성시 기안동 290번지 광도와이드빌 109동 1601호","indutype":"용역 서비스 - 기타용역서비스","category":"other"}]},{"lat":"37.226182584","long":"126.98920289","imageIndex":17,"items":[{"name":"O.K사무용가구","tel":"070-4190-4485","addr":"경기도 화성시 기안동 20-287번지 1층","indutype":"가구 - 일반가구","category":"other"}]},{"lat":"37.225993395","long":"126.98945081","imageIndex":17,"items":[{"name":"OK가구할인매장","tel":"031-221-8862","addr":"경기도 화성시 기안동 20-188번지","indutype":"가구 - 일반가구","category":"other"}]},{"lat":"37.227333163","long":"126.97394586","imageIndex":17,"items":[{"name":"가가공설비","tel":"031-298-8266","addr":"경기도 화성시 기안동 290번지 광도와이드빌 104동 702호","indutype":"용역 서비스 - 기타용역서비스","category":"other"}]},{"lat":"37.223379299","long":"126.98192467","imageIndex":17,"items":[{"name":"경기유리","tel":"031-225-3862","addr":"경기도 화성시 기안동 448-2번지","indutype":"건축자재 - 유리","category":"other"}]},{"lat":"37.226326368","long":"126.98622816","imageIndex":17,"items":[{"name":"경기종합유리","tel":"031-294-4462","addr":"경기도 화성시 기안동 216번지","indutype":"건축자재 - 유리","category":"other"}]},{"lat":"37.219469782","long":"126.98848302","imageIndex":17,"items":[{"name":"그녀는 이뻐이뻐","tel":"031-225-0994","addr":"경기도 화성시 기안동 897번지 신미주쇼핑타운 114호","indutype":"의류 - 정장","category":"other"},{"name":"꽃담은 설기","tel":"","addr":"경기도 화성시 기안동 897번지 신미주쇼핑타운 114호","indutype":"문화.취미 - 문화취미기타","category":"other"},{"name":"메타스(meatas)","tel":"031-233-0209","addr":"경기도 화성시 기안동 897번지 풍성신미주쇼핑타운 1층 116호","indutype":"주방용구 - 주방용식기","category":"other"},{"name":"벧엘인테리어","tel":"031-222-1788","addr":"경기도 화성시 기안동 897번지 신미주쇼핑타운 108호","indutype":"건축자재 - 인테리어전문","category":"other"},{"name":"신미주세탁소","tel":"031-225-8012","addr":"경기도 화성시 기안동 897번지 신미주쇼핑타운 103호","indutype":"수리서비스 - 세탁소","category":"other"}]},{"lat":"37.22632611","long":"126.98448165","imageIndex":17,"items":[{"name":"금호상사","tel":"031-226-2301","addr":"경기도 화성시 기안동 175-2번지","indutype":"건축자재 - 기타건축자재","category":"other"}]},{"lat":"37.225990211","long":"126.97231255","imageIndex":17,"items":[{"name":"기안동땡샵","tel":"031-222-0780","addr":"경기도 화성시 기안동 338-3번지 남수원씨티프라자 2층 214호","indutype":"의류 - 정장","category":"other"},{"name":"수예스킨앤바디","tel":"031-225-6544","addr":"경기도 화성시 기안동 338-3번지 남수원씨티프라자 2층 211호","indutype":"회원제형태 - 기타4","category":"other"},{"name":"주식회사마리아엘카임","tel":"031-222-4127","addr":"경기도 화성시 기안동 338-3번지 남수원씨티프라자 2층","indutype":"의류 - 정장","category":"other"},{"name":"호랭이눈꼽","tel":"031-267-1935","addr":"경기도 화성시 기안동 338-3번지","indutype":"의류 - 정장","category":"other"}]},{"lat":"37.225107408","long":"126.97314671","imageIndex":17,"items":[{"name":"기안펫","tel":"031-222-7775","addr":"경기도 화성시 기안동 354-1번지 우림그린빌리지 상가동 106호","indutype":"문화.취미 - 애완동물","category":"other"},{"name":"우림세탁소","tel":"031-232-5040","addr":"경기도 화성시 기안동 354-1번지 우림그린빌리지","indutype":"수리서비스 - 세탁소","category":"other"}]},{"lat":"37.223767812","long":"126.98922586","imageIndex":17,"items":[{"name":"길우시스템","tel":"031-226-2431","addr":"경기도 화성시 기안동 20-206번지","indutype":"기타 - 기타 전문점","category":"other"}]},{"lat":"37.231155357","long":"126.9826437","imageIndex":17,"items":[{"name":"다오기술","tel":"031-225-1695","addr":"경기도 화성시 기안동 93-2번지","indutype":"서적문구 - 과학기자재","category":"other"}]},{"lat":"37.22435086","long":"126.97445404","imageIndex":17,"items":[{"name":"다해건설","tel":"","addr":"경기도 화성시 기안동 360-1번지","indutype":"건축자재 - 인테리어전문","category":"other"}]},{"lat":"37.225819534","long":"126.97439715","imageIndex":17,"items":[{"name":"단미옷장","tel":"070-8688-3106","addr":"경기도 화성시 기안동 349번지 우림그린빌리지 106동 203호","indutype":"회원제형태 - 기타4","category":"other"}]},{"lat":"37.223191242","long":"126.99005974","imageIndex":17,"items":[{"name":"대광엔지니어링","tel":"031-239-0289","addr":"경기도 화성시 기안동 20-135번지","indutype":"기타 - 기계공구","category":"other"}]},{"lat":"37.224632935","long":"126.99039753","imageIndex":17,"items":[{"name":"대성정공/원격지","tel":"031-225-7304","addr":"경기도 화성시 기안동 20-158번지","indutype":"기타 - 기타 전문점","category":"other"}]},{"lat":"37.228155938","long":"126.98998003","imageIndex":17,"items":[{"name":"동영코튼트레이드","tel":"031-222-3774","addr":"경기도 화성시 기안동 17번지","indutype":"유통업 영리 - 기타유통업","category":"other"}]},{"lat":"37.222656991","long":"126.97478143","imageIndex":17,"items":[{"name":"둥근힘 프롭테라피","tel":"031-222-9451","addr":"경기도 화성시 기안동 371-2번지 보보스프라자 4층 내","indutype":"레져용품 - 스포츠·레져용품","category":"other"},{"name":"박성철복싱클럽","tel":"031-232-5001","addr":"경기도 화성시 기안동 371-2번지 보보스프라자 208호","indutype":"회원제형태 - 레져업소","category":"other"},{"name":"박성철복싱클럽","tel":"031-233-5003","addr":"경기도 화성시 기안동 371-2번지 보보스프라자 205호","indutype":"회원제형태 - 레져업소","category":"other"},{"name":"뷰티","tel":"031-223-9893","addr":"경기도 화성시 기안동 371-2번지 보보스프라자 4층 일부","indutype":"회원제형태 - 기타4","category":"other"},{"name":"스킨앤허브갤러리(Skin&HerbGallery)","tel":"031-222-5433","addr":"경기도 화성시 기안동 371-2번지 보브스프라자 213호","indutype":"기타 - 기타 전문점","category":"other"},{"name":"이뿌지요","tel":"031-111-1111","addr":"경기도 화성시 기안동 371-2번지 보보스프라자 1층 105호","indutype":"의류 - 정장","category":"other"}]},{"lat":"37.224548695","long":"126.97286524","imageIndex":17,"items":[{"name":"라파엘라의 마법의 손뜨개","tel":"070-7648-0206","addr":"경기도 화성시 기안동 355-14번지 건영빌딩 101호","indutype":"문화.취미 - 문화취미기타","category":"other"},{"name":"명실업","tel":"031-898-5002","addr":"경기도 화성시 기안동 355-14번지 건영 102호","indutype":"건축자재 - 조명기구","category":"other"},{"name":"에스엔토탈 주식회사","tel":"031-267-1883","addr":"경기도 화성시 기안동 355-14번지 건영 102호","indutype":"용역 서비스 - 기타용역서비스","category":"other"}]},{"lat":"37.224684059","long":"126.97369899","imageIndex":17,"items":[{"name":"로미오","tel":"031-223-3252","addr":"경기도 화성시 기안동 354-5번지 신영메디칼센터 103호","indutype":"의류 - 정장","category":"other"},{"name":"은 에스테틱","tel":"031-228-9848","addr":"경기도 화성시 기안동 354-5번지 신여이메디컬센타 102호","indutype":"회원제형태 - 기타4","category":"other"}]},{"lat":"37.223658931","long":"126.98376118","imageIndex":17,"items":[{"name":"리브마트","tel":"050-5252-9652","addr":"경기도 화성시 기안동 457-70번지","indutype":"레져용품 - 스포츠·레져용품","category":"other"}]},{"lat":"37.227963921","long":"126.97408084","imageIndex":17,"items":[{"name":"맵시","tel":"031-000-0000","addr":"경기도 화성시 기안동 290번지 광도와이드빌 102동 902호","indutype":"의류 - 정장","category":"other"}]},{"lat":"37.225927892","long":"126.97538867","imageIndex":17,"items":[{"name":"베로나(Verona)","tel":"031-328-7556","addr":"경기도 화성시 기안동 290번지 광도와이드빌 114동 1001호","indutype":"신변잡화 - 액세서리","category":"other"}]},{"lat":"37.226658628","long":"126.97956878","imageIndex":17,"items":[{"name":"부성공업","tel":"031-294-9662","addr":"경기도 화성시 기안동 241번지","indutype":"레져용품 - 스포츠·레져용품","category":"other"}]},{"lat":"37.228993693","long":"126.98819951","imageIndex":17,"items":[{"name":"부엌장","tel":"","addr":"경기도 화성시 기안동 41번지","indutype":"가구 - 일반가구","category":"other"}]},{"lat":"37.23227238","long":"126.98117847","imageIndex":17,"items":[{"name":"비전스포츠","tel":"031-294-6559","addr":"경기도 화성시 기안동 92-9번지","indutype":"용역 서비스 - 종합용역","category":"other"}]},{"lat":"37.22999374","long":"126.98739926","imageIndex":17,"items":[{"name":"산적다육","tel":"031-234-9050","addr":"경기도 화성시 기안동 103-7","indutype":"문화.취미 - 화원","category":"other"},{"name":"성화림","tel":"031-222-0922","addr":"경기도 화성시 기안동 103-7번지","indutype":"문화.취미 - 화원","category":"other"},{"name":"승지농원","tel":"02-238-1101","addr":"경기도 화성시 기안동 103-7","indutype":"문화.취미 - 화원","category":"other"},{"name":"호매실분재","tel":"","addr":"경기도 화성시 기안동 103-7번지","indutype":"문화.취미 - 화원","category":"other"}]},{"lat":"37.226218177","long":"126.98575493","imageIndex":17,"items":[{"name":"삼미식품기계","tel":"031-222-7340","addr":"경기도 화성시 기안동 207번지","indutype":"주방용구 - 주방용구","category":"other"},{"name":"아이작퍼니처","tel":"031-8077-2018","addr":"경기도 화성시 기안동 207번지","indutype":"가구 - 일반가구","category":"other"}]},{"lat":"37.227740435","long":"126.98264462","imageIndex":17,"items":[{"name":"삼천케이(3000K)디자인","tel":"031-227-0109","addr":"경기도 화성시 기안동 190-12번지","indutype":"건축자재 - 인테리어전문","category":"other"}]},{"lat":"37.225323885","long":"126.97407057","imageIndex":17,"items":[{"name":"생수유통","tel":"031-236-6999","addr":"경기도 화성시 기안동 349번지 우림그린빌리지 102동 606호","indutype":"유통업 영리 - 기타유통업","category":"other"},{"name":"진로석수","tel":"","addr":"경기도 화성시 기안동 349번지 우림그린빌리지 102동 806호","indutype":"유통업 영리 - 기타유통업","category":"other"}]},{"lat":"37.228966582","long":"126.98756849","imageIndex":17,"items":[{"name":"서울엣칭제경사","tel":"031-225-5580","addr":"경기도 화성시 기안동 108-3번지","indutype":"건축자재 - 유리","category":"other"}]},{"lat":"37.214684425","long":"126.98264811","imageIndex":17,"items":[{"name":"성화환경","tel":"031-221-8147","addr":"경기도 화성시 기안동 457-40번지","indutype":"건축자재 - 기타건축자재","category":"other"},{"name":"자연속으로","tel":"031-223-5888","addr":"경기도 화성시 기안동 457-40번지","indutype":"문화.취미 - 화원","category":"other"},{"name":"한울북","tel":"031-503-1241","addr":"경기도 화성시 기안동 457-40번지 1호","indutype":"서적문구 - 일반서적","category":"other"}]},{"lat":"37.226353612","long":"126.98781691","imageIndex":17,"items":[{"name":"스마트핸드레일","tel":"031-225-9607","addr":"경기도 화성시 기안동 23-2번지","indutype":"용역 서비스 - 기타용역서비스","category":"other"}]},{"lat":"37.227885336","long":"126.98753491","imageIndex":17,"items":[{"name":"신성골재","tel":"","addr":"경기도 화성시 기안동 28번지","indutype":"건축자재 - 기타건축자재","category":"other"}]},{"lat":"37.22660587","long":"126.98756897","imageIndex":17,"items":[{"name":"신영공조","tel":"031-000-0000","addr":"경기도 화성시 기안동 23-1번지","indutype":"전기제품 - 냉열기기","category":"other"}]},{"lat":"37.227603199","long":"126.97284149","imageIndex":17,"items":[{"name":"씨유화성광도점","tel":"031-239-6693","addr":"경기도 화성시 기안동 328-1번지 1층 101호","indutype":"유통업 영리 - 편 의 점","category":"other"},{"name":"호랑디자인","tel":"031-8043-1633","addr":"경기도 화성시 기안동 328-1번지 104호","indutype":"용역 서비스 - 사무서비스","category":"other"},{"name":"화성네트워크","tel":"031-352-3800","addr":"경기도 화성시 기안동 328-1번지 광도와이드빌단지내상가 108호","indutype":"사무통신 - 컴퓨터","category":"other"}]},{"lat":"37.229966355","long":"126.98489769","imageIndex":17,"items":[{"name":"씨유화성기안주유소점","tel":"080-080-3663","addr":"경기도 화성시 기안동 100번지","indutype":"유통업 영리 - 편 의 점","category":"other"}]},{"lat":"37.228632903","long":"126.98542761","imageIndex":17,"items":[{"name":"아트그린","tel":"","addr":"경기도 화성시 기안동 129-1번지","indutype":"용역 서비스 - 종합용역","category":"other"}]},{"lat":"37.22307409","long":"126.98990202","imageIndex":17,"items":[{"name":"애플정보","tel":"031-238-0482","addr":"경기도 화성시 기안동 20-175번지 1층 103호","indutype":"사무통신 - 컴퓨터","category":"other"}]},{"lat":"37.226963273","long":"126.97209807","imageIndex":17,"items":[{"name":"엠지핸드폰아울렛(기안점)","tel":"","addr":"경기도 화성시 기안동 336-6번지 1층","indutype":"사무통신 - 통신기기","category":"other"}]},{"lat":"37.226180085","long":"126.97497167","imageIndex":17,"items":[{"name":"열정기획","tel":"070-7518-3241","addr":"경기도 화성시 기안동 290번지 광도와이드빌 112동 1702호","indutype":"문화.취미 - 티켓","category":"other"},{"name":"즐겨찾기","tel":"031-893-8052","addr":"경기도 화성시 기안동 290번지 광도와이드빌 112동 1002호","indutype":"회원제형태 - 기타4","category":"other"}]},{"lat":"37.228630228","long":"126.97225514","imageIndex":17,"items":[{"name":"영근전자","tel":"031-224-2089","addr":"경기도 화성시 기안동 333-4번지","indutype":"전기제품 - 가전제품","category":"other"},{"name":"주식회사 영진와이에스","tel":"031-224-2089","addr":"경기도 화성시 기안동 333-4번지","indutype":"전기제품 - 기타전기제품","category":"other"}]},{"lat":"37.214242821","long":"126.98209619","imageIndex":17,"items":[{"name":"예쁜꽃밭","tel":"031-225-9019","addr":"경기도 화성시 기안동 457-53번지","indutype":"문화.취미 - 화원","category":"other"}]},{"lat":"37.224683916","long":"126.97312434","imageIndex":17,"items":[{"name":"와우리가게","tel":"","addr":"경기도 화성시 기안동 355-16번지 A동 5호","indutype":"의류 - 기타의류","category":"other"}]},{"lat":"37.225966303","long":"126.98892123","imageIndex":17,"items":[{"name":"욕쟁이가구","tel":"031-221-1870","addr":"경기도 화성시 기안동 20-87번지 20동 252호","indutype":"가구 - 일반가구","category":"other"}]},{"lat":"37.22463037","long":"126.97525393","imageIndex":17,"items":[{"name":"우리마을샵협동조합","tel":"070-7582-4756","addr":"경기도 화성시 기안동 363-3번지","indutype":"의류 - 정장","category":"other"}]},{"lat":"37.224440698","long":"126.97337232","imageIndex":17,"items":[{"name":"우석지물인테리어","tel":"031-224-6550","addr":"경기도 화성시 기안동 355-8번지","indutype":"건축자재 - 인테리어전문","category":"other"}]},{"lat":"37.225521643","long":"126.97220006","imageIndex":17,"items":[{"name":"우진하우징","tel":"031-234-2034","addr":"경기도 화성시 기안동 338-4번지 101호","indutype":"건축자재 - 보일러·펌프·샷시","category":"other"}]},{"lat":"37.232047225","long":"126.98175324","imageIndex":17,"items":[{"name":"월드이벤트","tel":"031-296-3450","addr":"경기도 화성시 기안동 92-1번지","indutype":"용역 서비스 - 종합용역","category":"other"},{"name":"튼튼뮤직,웃는아이","tel":"031-292-3887","addr":"경기도 화성시 기안동 92-1번지 1층","indutype":"회원제형태 - 서적","category":"other"}]},{"lat":"37.226315474","long":"126.97598572","imageIndex":17,"items":[{"name":"은성전자","tel":"","addr":"경기도 화성시 기안동 290번지 광도와이드빌 115동 101호","indutype":"용역 서비스 - 기타용역서비스","category":"other"}]},{"lat":"37.225100622","long":"126.9839749","imageIndex":17,"items":[{"name":"이든오디오","tel":"031-223-7873","addr":"경기도 화성시 기안동 222-17번지","indutype":"전기제품 - 가전제품","category":"other"}]},{"lat":"37.226794856","long":"126.98586748","imageIndex":17,"items":[{"name":"이든주방","tel":"031-236-3982","addr":"경기도 화성시 기안동 210-8번지","indutype":"주방용구 - 주방용식기","category":"other"}]},{"lat":"37.215883002","long":"126.98384201","imageIndex":17,"items":[{"name":"이안퍼니쳐","tel":"031-891-8700","addr":"경기도 화성시 기안동 457-580","indutype":"가구 - 일반가구","category":"other"}]},{"lat":"37.227190708","long":"126.98209263","imageIndex":17,"items":[{"name":"인스토탈","tel":"031-227-0109","addr":"경기도 화성시 기안동 198-1번지 G동","indutype":"가구 - 일반가구","category":"other"}]},{"lat":"37.226675772","long":"126.97547854","imageIndex":17,"items":[{"name":"인트라랩","tel":"031-898-5373","addr":"경기도 화성시 기안동 290번지 광도와이드빌 111동 801호","indutype":"서적문구 - 과학기자재","category":"other"}]},{"lat":"37.228579498","long":"126.99067858","imageIndex":17,"items":[{"name":"정원하우징","tel":"031-267-2203","addr":"경기도 화성시 기안동 15번지","indutype":"건축자재 - 기타건축자재","category":"other"}]},{"lat":"37.229020243","long":"126.98472889","imageIndex":17,"items":[{"name":"제일쇼파","tel":"031-257-7052","addr":"경기도 화성시 기안동 132번지","indutype":"가구 - 일반가구","category":"other"}]},{"lat":"37.225353657","long":"126.98942839","imageIndex":17,"items":[{"name":"주식회사 다가실리콘","tel":"031-222-8878","addr":"경기도 화성시 기안동 20-190번지","indutype":"건축자재 - 기타건축자재","category":"other"}]},{"lat":"37.228629959","long":"126.97122974","imageIndex":17,"items":[{"name":"주식회사 태원씨앤씨","tel":"031-224-1274","addr":"경기도 화성시 기안동 333-1번지 3층","indutype":"용역 서비스 - 종합용역","category":"other"}]},{"lat":"37.225882587","long":"126.97431825","imageIndex":17,"items":[{"name":"채우다","tel":"070-7573-6668","addr":"경기도 화성시 기안동 349번지 우림그린빌리지","indutype":"의류 - 정장","category":"other"}]},{"lat":"37.221271516","long":"126.98592506","imageIndex":17,"items":[{"name":"코디톡","tel":"031-528-6263","addr":"경기도 화성시 기안동 904-2번지 JK빌리지 101동 101호","indutype":"의류 - 정장","category":"other"}]},{"lat":"37.224495779","long":"126.97778918","imageIndex":17,"items":[{"name":"태안꽃농원","tel":"031-223-0149","addr":"경기도 화성시 기안동 271번지","indutype":"문화.취미 - 화원","category":"other"}]},{"lat":"37.225794597","long":"126.98512404","imageIndex":17,"items":[{"name":"티제이산업(TJ산업)","tel":"000-0000-0000","addr":"경기도 화성시 기안동 205-7번지","indutype":"유통업 영리 - 기타유통업","category":"other"}]},{"lat":"37.227018042","long":"126.97494883","imageIndex":17,"items":[{"name":"피오레","tel":"070-2712-4300","addr":"경기도 화성시 기안동 290번지 광도와이드빌 107동 1102호","indutype":"의류 - 내의판매","category":"other"}]},{"lat":"37.22421579","long":"126.97481465","imageIndex":17,"items":[{"name":"한결종합상사","tel":"031-305-2976","addr":"경기도 화성시 기안동 360-5번지 1층 1호","indutype":"전기제품 - 기타전기제품","category":"other"}]},{"lat":"37.215495525","long":"126.98365058","imageIndex":17,"items":[{"name":"해당화협동조합","tel":"031-234-6067","addr":"경기도 화성시 기안동 457-51번지","indutype":"문화.취미 - 화원","category":"other"}]},{"lat":"37.224353417","long":"126.98865111","imageIndex":17,"items":[{"name":"현대건업","tel":"031-298-1612","addr":"경기도 화성시 기안동 21-41번지","indutype":"건축자재 - 기타건축자재","category":"other"}]},{"lat":"37.220684921","long":"126.98039311","imageIndex":17,"items":[{"name":"홈코코","tel":"031-248-0562","addr":"경기도 화성시 기안동 456-54번지 1층","indutype":"전기제품 - 기타전기제품","category":"other"}]},{"lat":"37.224127115","long":"126.98167658","imageIndex":17,"items":[{"name":"화성종합피아노","tel":"031-222-1171","addr":"경기도 화성시 기안동 443번지","indutype":"레져용품 - 피아노대리점","category":"other"}]},{"lat":"37.225244364","long":"126.98148472","imageIndex":17,"items":[{"name":"화인텍주식회사","tel":"031-353-1749","addr":"경기도 화성시 기안동 237-7번지 1층","indutype":"기타 - 기계공구","category":"other"}]},{"lat":"37.228073967","long":"126.9835347","imageIndex":17,"items":[{"name":"휴 company","tel":"","addr":"경기도 화성시 기안동 190-6번지 2층 206호","indutype":"용역 서비스 - 종합용역","category":"other"}]},{"lat":"37.227794646","long":"126.98353478","imageIndex":17,"items":[{"name":"희망노인전문요양원","tel":"031-267-1208","addr":"경기도 화성시 기안동 190-1번지","indutype":"기타의료기관 - 기타의료기관 및 기타","category":"other"}]}]