[{"lat":"37.138116914","long":"126.91223653","imageIndex":7,"items":[{"name":"21세기할인마트","tel":"031-8059-6316","addr":"경기도 화성시 향남읍 장짐리 218-5번지 1층","indutype":"유통업 영리 - 슈퍼마켓","category":"mart"}]},{"lat":"37.135113679","long":"126.90871753","imageIndex":7,"items":[{"name":"신양할인마트","tel":"031-352-1615","addr":"경기도 화성시 향남읍 장짐리 277-3번지 신양아파트 지하층","indutype":"유통업 영리 - 슈퍼마켓","category":"mart"}]},{"lat":"37.13825195","long":"126.9120788","imageIndex":17,"items":[{"name":"GS25발안신성점","tel":"","addr":"경기도 화성시 향남읍 장짐리 218-2번지","indutype":"유통업 영리 - 편 의 점","category":"other"}]},{"lat":"37.137448062","long":"126.89874305","imageIndex":17,"items":[{"name":"GS25향남서부점","tel":"","addr":"경기도 화성시 향남읍 장짐리 339-13번지 1층","indutype":"유통업 영리 - 편 의 점","category":"other"}]},{"lat":"37.136560751","long":"126.90427022","imageIndex":17,"items":[{"name":"경기철강","tel":"031-352-0253","addr":"경기도 화성시 향남읍 장짐리 196-1번지","indutype":"건축자재 - 기타건축자재","category":"other"},{"name":"마이컴","tel":"031-8059-1193","addr":"경기도 화성시 향남읍 장짐리 196-1번지","indutype":"수리서비스 - 사무·통신기기수리","category":"other"}]},{"lat":"37.135223265","long":"126.91057435","imageIndex":17,"items":[{"name":"공간","tel":"","addr":"경기도 화성시 향남읍 장짐리 273-3번지 106호","indutype":"직물 - 침구·수예점","category":"other"}]},{"lat":"37.137630434","long":"126.91234966","imageIndex":17,"items":[{"name":"그린상사","tel":"031-354-7746","addr":"경기도 화성시 향남읍 장짐리 216-4번지 A동 108호","indutype":"건축자재 - 페인트","category":"other"}]},{"lat":"37.135224171","long":"126.91174479","imageIndex":17,"items":[{"name":"꽃에반해향기에반해","tel":"031-366-2262","addr":"경기도 화성시 향남읍 장짐리 272번지","indutype":"문화.취미 - 화원","category":"other"}]},{"lat":"37.136416489","long":"126.90415786","imageIndex":17,"items":[{"name":"대신가스텍","tel":"031-354-6671","addr":"경기도 화성시 향남읍 장짐리 293-5번지","indutype":"기타 - 기계공구","category":"other"}]},{"lat":"37.139331497","long":"126.89902184","imageIndex":17,"items":[{"name":"대현휀스철물","tel":"031-8056-0555","addr":"경기도 화성시 향남읍 장짐리 359-5 외1필지 B","indutype":"건축자재 - 목재·석재·철물","category":"other"},{"name":"월드중고알뜰매장","tel":"031-366-2581","addr":"경기도 화성시 향남읍 장짐리 359-5번지","indutype":"전기제품 - 가전제품","category":"other"}]},{"lat":"37.139026463","long":"126.90054166","imageIndex":17,"items":[{"name":"대흥건설기계","tel":"031-354-0768","addr":"경기도 화성시 향남읍 장짐리 360-5번지 외1필지","indutype":"기타 - 기계공구","category":"other"},{"name":"한미종합축산","tel":"031-354-7614","addr":"경기도 화성시 향남읍 장짐리 360-5번지 상가 1층 102호","indutype":"농업 - 농기계","category":"other"}]},{"lat":"37.132750415","long":"126.90560312","imageIndex":17,"items":[{"name":"더씨엘","tel":"070-4065-7782","addr":"경기도 화성시 향남읍 장짐리 281-4번지","indutype":"유통업 영리 - 기타유통업","category":"other"}]},{"lat":"37.137557285","long":"126.91096543","imageIndex":17,"items":[{"name":"미소세탁소","tel":"031-8059-2385","addr":"경기도 화성시 향남읍 장짐리 409번지 신성단지 상가 1층 상가-102","indutype":"수리서비스 - 세탁소","category":"other"}]},{"lat":"37.138974065","long":"126.90248882","imageIndex":17,"items":[{"name":"민산분재원","tel":"031-353-0525","addr":"경기도 화성시 향남읍 장짐리 192-3번지","indutype":"문화.취미 - 화원","category":"other"}]},{"lat":"37.134920975","long":"126.9044299","imageIndex":17,"items":[{"name":"삼흥석재","tel":"031-353-2107","addr":"경기도 화성시 향남읍 장짐리 290-1","indutype":"건축자재 - 목재·석재·철물","category":"other"}]},{"lat":"37.136503485","long":"126.91151817","imageIndex":17,"items":[{"name":"성진종합상사","tel":"031-353-6594","addr":"경기도 화성시 향남읍 장짐리 270-10번지","indutype":"기타 - 기계공구","category":"other"}]},{"lat":"37.133111019","long":"126.90582774","imageIndex":17,"items":[{"name":"수원장식","tel":"031-353-4311","addr":"경기도 화성시 향남읍 장짐리 282-15번지","indutype":"직물 - 카페트,커튼,천막,지물","category":"other"}]},{"lat":"37.135115332","long":"126.91082207","imageIndex":17,"items":[{"name":"스타린","tel":"070-4007-5739","addr":"경기도 화성시 향남읍 장짐리 273-6번지","indutype":"의류 - 정장","category":"other"},{"name":"풍원타일","tel":"031-353-6607","addr":"경기도 화성시 향남읍 장짐리 273-6번지","indutype":"건축자재 - 건축용 요업제품","category":"other"}]},{"lat":"37.136422944","long":"126.91223855","imageIndex":17,"items":[{"name":"아름다운간판(광고)","tel":"031-366-6540","addr":"경기도 화성시 향남읍 장짐리 269-2번지 외1필지","indutype":"용역 서비스 - 종합용역","category":"other"}]},{"lat":"37.138865825","long":"126.9023539","imageIndex":17,"items":[{"name":"아미꽃도매","tel":"031-354-1298","addr":"경기도 화성시 향남읍 장짐리 192-4 1동2동 1","indutype":"문화.취미 - 화원","category":"other"}]},{"lat":"37.13925113","long":"126.89985481","imageIndex":17,"items":[{"name":"알파 오피스","tel":"031-352-5315","addr":"경기도 화성시 향남읍 장짐리 360-1번지 금탑프라자 1층 104호,2층 201호","indutype":"서적문구 - 문구용품","category":"other"}]},{"lat":"37.135277712","long":"126.91106947","imageIndex":17,"items":[{"name":"영디자인","tel":"031-353-6566","addr":"경기도 화성시 향남읍 장짐리 273-21번지","indutype":"건축자재 - 인테리어전문","category":"other"}]},{"lat":"37.136332182","long":"126.91138332","imageIndex":17,"items":[{"name":"우신부동산중개인사무소","tel":"031-353-0047","addr":"경기도 화성시 향남읍 장짐리 270-1번지 102호","indutype":"용역 서비스 - 부동산 중개·임대","category":"other"},{"name":"정컴퓨터","tel":"031-353-8523","addr":"경기도 화성시 향남읍 장짐리 270-1번지","indutype":"사무통신 - 컴퓨터","category":"other"}]},{"lat":"37.136611246","long":"126.91104535","imageIndex":17,"items":[{"name":"유진상사","tel":"031-8059-7634","addr":"경기도 화성시 향남읍 장짐리 213-13번지 302호","indutype":"서적문구 - 출판 및 인쇄물","category":"other"}]},{"lat":"37.141415242","long":"126.90170898","imageIndex":17,"items":[{"name":"음향,예술전문기업 리얼빅사운드","tel":"031-354-4300","addr":"경기도 화성시 향남읍 장짐리 85-9번지 1층","indutype":"전기제품 - 가전제품","category":"other"}]},{"lat":"37.139587715","long":"126.90360225","imageIndex":17,"items":[{"name":"주식회사 아성컨테이너","tel":"031-227-6777","addr":"경기도 화성시 향남읍 장짐리 108-4번지","indutype":"건축자재 - 기타건축자재","category":"other"}]},{"lat":"37.137278767","long":"126.91201244","imageIndex":17,"items":[{"name":"청구목재","tel":"031-353-0234","addr":"경기도 화성시 향남읍 장짐리 215-5번지 218-3","indutype":"건축자재 - 목재·석재·철물","category":"other"}]},{"lat":"37.137945266","long":"126.91165149","imageIndex":17,"items":[{"name":"청우드","tel":"031-353-0234","addr":"경기도 화성시 향남읍 장짐리 219-7번지 1층","indutype":"건축자재 - 목재·석재·철물","category":"other"}]},{"lat":"37.13808623","long":"126.89696393","imageIndex":17,"items":[{"name":"키움스포츠","tel":"031-356-5968","addr":"경기도 화성시 향남읍 장짐리 339-10번지","indutype":"레져용품 - 골프용품 전문점","category":"other"}]},{"lat":"37.138084072","long":"126.90493227","imageIndex":17,"items":[{"name":"토리다육","tel":"","addr":"경기도 화성시 향남읍 장짐리 197-5번지","indutype":"문화.취미 - 화원","category":"other"},{"name":"혜선정","tel":"031-366-6436","addr":"경기도 화성시 향남읍 장짐리 197-5번지 1호","indutype":"문화.취미 - 화원","category":"other"}]},{"lat":"37.13386687","long":"126.90457757","imageIndex":17,"items":[{"name":"한양창호","tel":"031-352-3446","addr":"경기도 화성시 향남읍 장짐리 303-4번지","indutype":"건축자재 - 인테리어전문","category":"other"}]},{"lat":"37.133362488","long":"126.90482581","imageIndex":17,"items":[{"name":"형진종합설비","tel":"031-353-0944","addr":"경기도 화성시 향남읍 장짐리 303-6번지 102호","indutype":"용역 서비스 - 기타용역서비스","category":"other"}]},{"lat":"37.135998872","long":"126.91148501","imageIndex":17,"items":[{"name":"화성아이나비","tel":"031-354-6447","addr":"경기도 화성시 향남읍 장짐리 271-2번지 1층","indutype":"전기제품 - 가전제품","category":"other"}]},{"lat":"37.138531651","long":"126.90143146","imageIndex":17,"items":[{"name":"화성자수","tel":"031-354-8355","addr":"경기도 화성시 향남읍 장짐리 343-4번지","indutype":"직물 - 침구·수예점","category":"other"}]},{"lat":"37.139026463","long":"126.90054166","imageIndex":7,"items":[{"name":"강남한우99","tel":"031-353-5545","addr":"경기도 화성시 향남읍 장짐리 360-5번지 2층 2호","indutype":"음료식품 - 정육점","category":"food"}]},{"lat":"37.135335251","long":"126.90418177","imageIndex":7,"items":[{"name":"그린물류","tel":"031-297-6055","addr":"경기도 화성시 향남읍 장짐리 289-4번지 1층 104호","indutype":"음료식품 - 기타음료식품","category":"food"}]},{"lat":"37.137557285","long":"126.91096543","imageIndex":7,"items":[{"name":"남양유업 화성 특판 대리점","tel":"031-8059-1077","addr":"경기도 화성시 향남읍 장짐리 409번지 신성미소지움 상가동 106호","indutype":"음료식품 - 기타음료식품","category":"food"}]},{"lat":"37.135502739","long":"126.91076533","imageIndex":7,"items":[{"name":"바다청과","tel":"031-353-9230","addr":"경기도 화성시 향남읍 장짐리 273-11번지","indutype":"음료식품 - 농·축·수산품","category":"food"}]},{"lat":"37.138116914","long":"126.91223653","imageIndex":7,"items":[{"name":"수베이커리","tel":"031-353-6592","addr":"경기도 화성시 향남읍 장짐리 218-5번지 101호","indutype":"음료식품 - 제과점","category":"food"}]},{"lat":"37.133192288","long":"126.90604146","imageIndex":7,"items":[{"name":"신창방앗간","tel":"031-353-3845","addr":"경기도 화성시 향남읍 장짐리 282-30번지","indutype":"음료식품 - 기타음료식품","category":"food"}]},{"lat":"37.139080981","long":"126.90107057","imageIndex":7,"items":[{"name":"아름다운농부네협동조합","tel":"031-354-2982","addr":"경기도 화성시 향남읍 장짐리 92-13번지","indutype":"음료식품 - 농·축·수산품","category":"food"}]},{"lat":"37.135223265","long":"126.91057435","imageIndex":7,"items":[{"name":"올인(all in)","tel":"031-353-5311","addr":"경기도 화성시 향남읍 장짐리 273-3","indutype":"음료식품 - 기타음료식품","category":"food"}]},{"lat":"37.139331497","long":"126.89902184","imageIndex":7,"items":[{"name":"재상목장","tel":"031-352-1547","addr":"경기도 화성시 향남읍 장짐리 359-5번지","indutype":"음료식품 - 정육점","category":"food"}]},{"lat":"37.139611717","long":"126.91101921","imageIndex":7,"items":[{"name":"향남농장","tel":"031-358-8866","addr":"경기도 화성시 향남읍 장짐리 228-1번지","indutype":"음료식품 - 농·축·수산품","category":"food"}]},{"lat":"37.138752129","long":"126.90649582","imageIndex":7,"items":[{"name":"화성중고등학교매점","tel":"031-352-7812","addr":"경기도 화성시 향남읍 장짐리 161번지","indutype":"음료식품 - 기타음료식품","category":"food"}]},{"lat":"37.139026463","long":"126.90054166","imageIndex":4,"items":[{"name":"강남한우99","tel":"02-353-5545","addr":"경기도 화성시 향남읍 장짐리 360-5번지 금탄빌딩 2층","indutype":"일반휴게음식 - 일반한식","category":"restaurant"},{"name":"랑렌바란","tel":"070-8947-4490","addr":"경기도 화성시 향남읍 장짐리 360-5번지","indutype":"일반휴게음식 - 일반한식","category":"restaurant"},{"name":"산드레곤드레","tel":"031-353-3966","addr":"경기도 화성시 향남읍 장짐리 360-5번지 1동 1층","indutype":"일반휴게음식 - 일반한식","category":"restaurant"}]},{"lat":"37.13636717","long":"126.89916095","imageIndex":4,"items":[{"name":"강쇠야장어먹자","tel":"031-352-3662","addr":"경기도 화성시 향남읍 장짐리 334번지","indutype":"일반휴게음식 - 일반한식","category":"restaurant"}]},{"lat":"37.13808623","long":"126.89696393","imageIndex":4,"items":[{"name":"그카페","tel":"","addr":"경기도 화성시 향남읍 장짐리 339-10번지","indutype":"일반휴게음식 - 서양음식","category":"restaurant"}]},{"lat":"37.13925113","long":"126.89985481","imageIndex":4,"items":[{"name":"김포손칼국수","tel":"031-352-2233","addr":"경기도 화성시 향남읍 장짐리 360-1번지","indutype":"일반휴게음식 - 일반한식","category":"restaurant"},{"name":"정든맛닭개장","tel":"031-353-9947","addr":"경기도 화성시 향남읍 장짐리 360-1번지","indutype":"일반휴게음식 - 일반한식","category":"restaurant"}]},{"lat":"37.139601949","long":"126.89917904","imageIndex":4,"items":[{"name":"논뚜렁","tel":"031-353-1341","addr":"경기도 화성시 향남읍 장짐리 359-5번지 외1필지비동109호","indutype":"일반휴게음식 - 일반한식","category":"restaurant"}]},{"lat":"37.139331497","long":"126.89902184","imageIndex":4,"items":[{"name":"다전구이집","tel":"031-352-1547","addr":"경기도 화성시 향남읍 장짐리 359-5번지 103 (B동)","indutype":"일반휴게음식 - 일반한식","category":"restaurant"}]},{"lat":"37.132750415","long":"126.90560312","imageIndex":4,"items":[{"name":"대포양꼬치","tel":"031-353-0709","addr":"경기도 화성시 향남읍 장짐리 281-4번지 1층 105호","indutype":"일반휴게음식 - 중국식","category":"restaurant"},{"name":"발안통닭","tel":"031-366-5373","addr":"경기도 화성시 향남읍 장짐리 281-4번지","indutype":"일반휴게음식 - 스넥","category":"restaurant"}]},{"lat":"37.137558376","long":"126.91238351","imageIndex":4,"items":[{"name":"도미노피자 (발안 향남점)","tel":"031-8059-3082","addr":"경기도 화성시 향남읍 장짐리 216-4번지 1층","indutype":"일반휴게음식 - 서양음식","category":"restaurant"},{"name":"페리카나","tel":"031-8059-1881","addr":"경기도 화성시 향남읍 장짐리 216-4번지 외2필지 B동 1층","indutype":"일반휴게음식 - 스넥","category":"restaurant"}]},{"lat":"37.138727717","long":"126.89893263","imageIndex":4,"items":[{"name":"명가","tel":"031-366-5341","addr":"경기도 화성시 향남읍 장짐리 343-8번지 1층","indutype":"일반휴게음식 - 일반한식","category":"restaurant"}]},{"lat":"37.133362488","long":"126.90482581","imageIndex":4,"items":[{"name":"오장식당","tel":"031-354-1245","addr":"경기도 화성시 향남읍 장짐리 303-6번지 1층4,5호","indutype":"일반휴게음식 - 일반한식","category":"restaurant"}]},{"lat":"37.133030017","long":"126.90594038","imageIndex":4,"items":[{"name":"인천매운탕","tel":"031-353-3502","addr":"경기도 화성시 향남읍 장짐리 282-31번지","indutype":"일반휴게음식 - 일반한식","category":"restaurant"}]},{"lat":"37.13898906","long":"126.89897729","imageIndex":4,"items":[{"name":"장수능이삼계탕","tel":"031-353-3545","addr":"경기도 화성시 향남읍 장짐리 344-1번지 A동 1층일부","indutype":"일반휴게음식 - 일반한식","category":"restaurant"}]},{"lat":"37.135223265","long":"126.91057435","imageIndex":4,"items":[{"name":"전기구이옛날통닭","tel":"031-352-3349","addr":"경기도 화성시 향남읍 장짐리 273-3번지","indutype":"일반휴게음식 - 스넥","category":"restaurant"}]},{"lat":"37.135998872","long":"126.91148501","imageIndex":4,"items":[{"name":"카페소예","tel":"070-8881-6000","addr":"경기도 화성시 향남읍 장짐리 271-2번지 카페소예","indutype":"일반휴게음식 - 서양음식","category":"restaurant"}]},{"lat":"37.13897093","long":"126.89885351","imageIndex":4,"items":[{"name":"황태랑동태랑","tel":"031-352-1060","addr":"경기도 화성시 향남읍 장짐리 344-1번지","indutype":"일반휴게음식 - 일반한식","category":"restaurant"}]},{"lat":"37.13897093","long":"126.89885351","imageIndex":13,"items":[{"name":"고래고래노래연습장","tel":"031-355-7943","addr":"경기도 화성시 향남읍 장짐리 344-1번지 A동","indutype":"레저업소 - 노 래 방","category":"leisure"}]},{"lat":"37.13808623","long":"126.89696393","imageIndex":13,"items":[{"name":"화성골프랜드","tel":"031-354-3061","addr":"경기도 화성시 향남읍 장짐리 339-10번지","indutype":"레저업소 - 골프연습장","category":"leisure"}]},{"lat":"37.13386687","long":"126.90457757","imageIndex":9,"items":[{"name":"대영가스상사","tel":"031-353-7122","addr":"경기도 화성시 향남읍 장짐리 303-4번지","indutype":"연료판매점 - LPG 취급점","category":"oil"}]},{"lat":"37.137025102","long":"126.89935138","imageIndex":9,"items":[{"name":"민들레주유소","tel":"031-353-9330","addr":"경기도 화성시 향남읍 장짐리 337-3번지","indutype":"연료판매점 - SK주유소","category":"oil"}]},{"lat":"37.134473333","long":"126.90796429","imageIndex":16,"items":[{"name":"도서출판 신나는 미술","tel":"031-354-4558","addr":"경기도 화성시 향남읍 장짐리 283-2","indutype":"학원 - 예·체능계학원","category":"study"}]},{"lat":"37.136029226","long":"126.90438345","imageIndex":16,"items":[{"name":"킨더포레어린이집[아이행복]","tel":"031-352-1491","addr":"경기도 화성시 향남읍 장짐리 289번지","indutype":"학원 - 유아원","category":"study"}]},{"lat":"37.138752129","long":"126.90649582","imageIndex":16,"items":[{"name":"화성중학교","tel":"031-353-7975","addr":"경기도 화성시 향남읍 장짐리 161번지 화성고등학교","indutype":"학원 - 초중고교육기관","category":"study"}]},{"lat":"37.137558376","long":"126.91238351","imageIndex":0,"items":[{"name":"미쉐린(화성발안점)","tel":"","addr":"경기도 화성시 향남읍 장짐리 216-4번지 110호","indutype":"자동차정비 유지 - 자동차시트·타이어","category":"car"}]},{"lat":"37.133110464","long":"126.9051525","imageIndex":0,"items":[{"name":"발안중고타이어","tel":"070-4228-9485","addr":"경기도 화성시 향남읍 장짐리 301번지","indutype":"자동차정비 유지 - 자동차시트·타이어","category":"car"}]},{"lat":"37.140281503","long":"126.90357883","imageIndex":0,"items":[{"name":"발안한세자동차시트","tel":"031-352-8981","addr":"경기도 화성시 향남읍 장짐리 86-44번지","indutype":"자동차정비 유지 - 자동차부품","category":"car"}]},{"lat":"37.137279385","long":"126.91282277","imageIndex":0,"items":[{"name":"수범종합카센타","tel":"031-352-8768","addr":"경기도 화성시 향남읍 장짐리 265-2","indutype":"자동차정비 유지 - 자동차정비","category":"car"}]},{"lat":"37.13808623","long":"126.89696393","imageIndex":0,"items":[{"name":"알피엠","tel":"031-354-7717","addr":"경기도 화성시 향남읍 장짐리 339-10번지 1층","indutype":"자동차정비 유지 - 세차장","category":"car"}]},{"lat":"37.139331497","long":"126.89902184","imageIndex":0,"items":[{"name":"애니카랜드 향남점","tel":"031-352-5367","addr":"경기도 화성시 향남읍 장짐리 359-5","indutype":"자동차정비 유지 - 자동차부품","category":"car"},{"name":"우리자동차정비공업사","tel":"031-352-9124","addr":"경기도 화성시 향남읍 장짐리 359-5번지","indutype":"자동차정비 유지 - 자동차부품","category":"car"},{"name":"주식회사 서울모터스","tel":"031-8059-4949","addr":"경기도 화성시 향남읍 장짐리 359-5번지 2층","indutype":"자동차판매 - 중고자동차판매","category":"car"},{"name":"초이스 전자","tel":"031-352-5553","addr":"경기도 화성시 향남읍 장짐리 359-5번지","indutype":"자동차정비 유지 - 자동차부품","category":"car"}]},{"lat":"37.138333661","long":"126.90171309","imageIndex":0,"items":[{"name":"유진씨알(C.R)","tel":"031-353-8582","addr":"경기도 화성시 향남읍 장짐리 316-2번지","indutype":"자동차정비 유지 - 자동차정비","category":"car"}]},{"lat":"37.139361587","long":"126.91385575","imageIndex":0,"items":[{"name":"으뜸손세차장","tel":"03-123-5214","addr":"경기도 화성시 향남읍 장짐리 245번지","indutype":"자동차정비 유지 - 세차장","category":"car"}]},{"lat":"37.139361689","long":"126.91399081","imageIndex":0,"items":[{"name":"주식회사 올포카 향남점","tel":"031-8047-0055","addr":"경기도 화성시 향남읍 장짐리 247-1번지","indutype":"자동차정비 유지 - 자동차부품","category":"car"}]},{"lat":"37.13897093","long":"126.89885351","imageIndex":0,"items":[{"name":"한진광택디테일샵","tel":"031-353-9129","addr":"경기도 화성시 향남읍 장짐리 344-1번지 A동 1층복도 오른쪽 전체","indutype":"자동차정비 유지 - 세차장","category":"car"}]},{"lat":"37.135223265","long":"126.91057435","imageIndex":13,"items":[{"name":"윤남성컷트 전문점","tel":"031-352-8992","addr":"경기도 화성시 향남읍 장짐리 273-3 1","indutype":"보건위생 - 미용원","category":"beauty"}]},{"lat":"37.13925113","long":"126.89985481","imageIndex":13,"items":[{"name":"제로화장품","tel":"02-1111-1111","addr":"경기도 화성시 향남읍 장짐리 360-1번지 2층 202호","indutype":"보건위생 - 화장품","category":"beauty"}]},{"lat":"37.13897093","long":"126.89885351","imageIndex":13,"items":[{"name":"천연효소발효원","tel":"031-354-8747","addr":"경기도 화성시 향남읍 장짐리 344-1번지 2층","indutype":"보건위생 - 피부미용실","category":"beauty"}]}]