[{"lat":"37.293188988","long":"127.53037521","imageIndex":7,"items":[{"name":"25시슈퍼마트","tel":"","addr":"경기도 이천시 부발읍 고백리 294-13번지","indutype":"유통업 영리 - 슈퍼마켓","category":"mart"},{"name":"극동마트","tel":"031-631-6360","addr":"경기도 이천시 부발읍 고백리 294-13번지","indutype":"유통업 영리 - 슈퍼마켓","category":"mart"}]},{"lat":"37.299468982","long":"127.52836636","imageIndex":17,"items":[{"name":"GM산업","tel":"070-8778-8560","addr":"경기도 이천시 부발읍 고백리 394번지","indutype":"유통업 영리 - 기타유통업","category":"other"}]},{"lat":"37.293826124","long":"127.53095482","imageIndex":17,"items":[{"name":"가구대통령-여주점","tel":"031-637-2418","addr":"경기도 이천시 부발읍 고백리 312-14번지","indutype":"가구 - 일반가구","category":"other"}]},{"lat":"37.293859545","long":"127.5315415","imageIndex":17,"items":[{"name":"가구보물창고","tel":"031-637-2418","addr":"경기도 이천시 부발읍 고백리 312-9번지","indutype":"가구 - 일반가구","category":"other"}]},{"lat":"37.294740613","long":"127.54195714","imageIndex":17,"items":[{"name":"고백자동차공업사","tel":"031-631-7375","addr":"경기도 이천시 부발읍 고백리 ,3, 3-2, 3-27","indutype":"기타 - 기계공구","category":"other"}]},{"lat":"37.302384116","long":"127.53734218","imageIndex":17,"items":[{"name":"마음을담아서","tel":"031-636-6980","addr":"경기도 이천시 부발읍 고백리 120-25번지","indutype":"문화.취미 - 민예·공예품","category":"other"}]},{"lat":"37.293720469","long":"127.53040147","imageIndex":17,"items":[{"name":"바른디자인","tel":"031-634-6181","addr":"경기도 이천시 부발읍 고백리 312-16번지","indutype":"건축자재 - 인테리어전문","category":"other"}]},{"lat":"37.294019405","long":"127.53206139","imageIndex":17,"items":[{"name":"이마트24 이천오늘점","tel":"","addr":"경기도 이천시 부발읍 고백리 312-7번지","indutype":"유통업 영리 - 편 의 점","category":"other"}]},{"lat":"37.29410271","long":"127.54155786","imageIndex":4,"items":[{"name":"구진포장어집","tel":"031-636-7875","addr":"경기도 이천시 부발읍 고백리 3-14번지","indutype":"일반휴게음식 - 일반한식","category":"restaurant"}]},{"lat":"37.294217014","long":"127.54217896","imageIndex":4,"items":[{"name":"두무재식당","tel":"031-636-5693","addr":"경기도 이천시 부발읍 고백리 2","indutype":"일반휴게음식 - 일반한식","category":"restaurant"}]},{"lat":"37.294440406","long":"127.53462441","imageIndex":4,"items":[{"name":"부흥로일번지","tel":"","addr":"경기도 이천시 부발읍 고백리 218-17번지 1층","indutype":"일반휴게음식 - 일반한식","category":"restaurant"}]},{"lat":"37.296220566","long":"127.53747902","imageIndex":4,"items":[{"name":"송림가든","tel":"031-634-1003","addr":"경기도 이천시 부발읍 고백리 27-1번지","indutype":"일반휴게음식 - 일반한식","category":"restaurant"}]},{"lat":"37.293269581","long":"127.52642859","imageIndex":4,"items":[{"name":"순이네","tel":"031-636-4692","addr":"경기도 이천시 부발읍 고백리 300-2번지","indutype":"일반휴게음식 - 일반한식","category":"restaurant"},{"name":"순이네","tel":"031-636-6944","addr":"경기도 이천시 부발읍 고백리 300-2번지","indutype":"일반휴게음식 - 일반한식","category":"restaurant"}]},{"lat":"37.293442284","long":"127.52812144","imageIndex":4,"items":[{"name":"숲속의짬뽕나라","tel":"031-635-1445","addr":"경기도 이천시 부발읍 고백리 295-1번지","indutype":"일반휴게음식 - 중국식","category":"restaurant"}]},{"lat":"37.295352206","long":"127.5362323","imageIndex":4,"items":[{"name":"신원칼국수","tel":"031-635-0270","addr":"경기도 이천시 부발읍 고백리 237-20번지","indutype":"일반휴게음식 - 일반한식","category":"restaurant"}]},{"lat":"37.294217014","long":"127.54217896","imageIndex":7,"items":[{"name":"동부상회","tel":"031-636-5693","addr":"경기도 이천시 부발읍 고백리 2번지","indutype":"음료식품 - 기타음료식품","category":"food"}]},{"lat":"37.294490134","long":"127.54156063","imageIndex":7,"items":[{"name":"수현상회","tel":"031-636-6907","addr":"경기도 이천시 부발읍 고백리 3-24","indutype":"음료식품 - 기타음료식품","category":"food"}]},{"lat":"37.294990266","long":"127.52648563","imageIndex":7,"items":[{"name":"이천시 고백 정미소","tel":"031-636-5477","addr":"경기도 이천시 부발읍 고백리 634-2번지","indutype":"음료식품 - 미곡상","category":"food"}]},{"lat":"37.295352206","long":"127.5362323","imageIndex":7,"items":[{"name":"힐링이야기","tel":"02-2249-0868","addr":"경기도 이천시 부발읍 고백리 237-20번지","indutype":"건강식품 - 기타건강식품","category":"food"}]},{"lat":"37.293720469","long":"127.53040147","imageIndex":0,"items":[{"name":"원명공업사","tel":"03-635-4180","addr":"경기도 이천시 부발읍 고백리 312-16번지","indutype":"자동차정비 유지 - 자동차정비","category":"car"},{"name":"원명상사","tel":"031-633-1361","addr":"경기도 이천시 부발읍 고백리 312-16번지","indutype":"자동차정비 유지 - 자동차부품","category":"car"}]},{"lat":"37.296909945","long":"127.53645758","imageIndex":13,"items":[{"name":"태극호스파크","tel":"031-8011-3806","addr":"경기도 이천시 부발읍 고백리 산 45-1 외5필지","indutype":"레저업소 - 기타레져업소","category":"leisure"}]},{"lat":"37.294081917","long":"127.53819694","imageIndex":5,"items":[{"name":"하트","tel":"031-634-1166","addr":"경기도 이천시 부발읍 고백리 165-2, 2층","indutype":"숙박업 - 여관/기타숙박업","category":"hotel"}]}]