[{"lat":"37.756730056","long":"127.03329393","imageIndex":7,"items":[{"name":"건강놀이터","tel":"031-837-5310","addr":"경기도 의정부시 녹양동 354-1번지 2층","indutype":"건강식품 - 기타건강식품","category":"food"}]},{"lat":"37.760124282","long":"127.04139799","imageIndex":7,"items":[{"name":"건강놀이터2","tel":"031-111-1111","addr":"경기도 의정부시 녹양동 412-10번지 센츄럴프라자 8층 801호","indutype":"건강식품 - 기타건강식품","category":"food"}]},{"lat":"37.756621883","long":"127.03352084","imageIndex":7,"items":[{"name":"고향축산","tel":"031-836-9289","addr":"경기도 의정부시 녹양동 354-6번지 1층 우","indutype":"음료식품 - 정육점","category":"food"}]},{"lat":"37.755260665","long":"127.03637986","imageIndex":7,"items":[{"name":"광동고등학교매점","tel":"070-8154-9468","addr":"경기도 의정부시 녹양동 126-1번지 의정부광동고등학교","indutype":"음료식품 - 기타음료식품","category":"food"},{"name":"의정부광동고 구내매점","tel":"031-849-5500","addr":"경기도 의정부시 녹양동 126-1번지 의정부광동고등학교 1층","indutype":"음료식품 - 기타음료식품","category":"food"}]},{"lat":"37.758124885","long":"127.03912736","imageIndex":7,"items":[{"name":"광어두마리","tel":"031-826-8522","addr":"경기도 의정부시 녹양동 328번지 1층","indutype":"음료식품 - 농·축·수산품","category":"food"}]},{"lat":"37.761397087","long":"127.03293268","imageIndex":7,"items":[{"name":"꿀잼점핑24 녹양점","tel":"","addr":"경기도 의정부시 녹양동 62-13번지 1층","indutype":"건강식품 - 기타건강식품","category":"food"}]},{"lat":"37.758008644","long":"127.03613144","imageIndex":7,"items":[{"name":"낙원떡방아간","tel":"031-879-0763","addr":"경기도 의정부시 녹양동 325-3번지","indutype":"음료식품 - 제과점","category":"food"},{"name":"정성담은건강원","tel":"031-879-3369","addr":"경기도 의정부시 녹양동 325-3번지","indutype":"건강식품 - 기타건강식품","category":"food"}]},{"lat":"37.75664895","long":"127.03337333","imageIndex":7,"items":[{"name":"녹양떡고을","tel":"031-873-7333","addr":"경기도 의정부시 녹양동 354-3번지 1층","indutype":"음료식품 - 제과점","category":"food"}]},{"lat":"37.76162179","long":"127.03496416","imageIndex":7,"items":[{"name":"다뺀다방(의정부녹양점)","tel":"","addr":"경기도 의정부시 녹양동 400-25번지 1층","indutype":"음료식품 - 기타음료식품","category":"food"}]},{"lat":"37.75662209","long":"127.03271515","imageIndex":7,"items":[{"name":"달콤아이스크림할인점","tel":"031-862-3331","addr":"경기도 의정부시 녹양동 146-14번지 102호","indutype":"음료식품 - 기타음료식품","category":"food"},{"name":"뚜레쥬르 의정부녹양(3)","tel":"031-825-4352","addr":"경기도 의정부시 녹양동 146-14번지 104호 , 대성빌딩1층104호~105호","indutype":"음료식품 - 제과점","category":"food"}]},{"lat":"37.757397044","long":"127.03218211","imageIndex":7,"items":[{"name":"담배와재털이","tel":"031-846-0609","addr":"경기도 의정부시 녹양동 145-13번지 1층","indutype":"음료식품 - 기타음료식품","category":"food"}]},{"lat":"37.757404808","long":"127.03682339","imageIndex":7,"items":[{"name":"대명축산물유통센터","tel":"031-879-4958","addr":"경기도 의정부시 녹양동 335-6번지","indutype":"음료식품 - 정육점","category":"food"}]},{"lat":"37.755612786","long":"127.0336339","imageIndex":7,"items":[{"name":"대성","tel":"031-876-0932","addr":"경기도 의정부시 녹양동 355번지 녹양힐스테이트 106동 706호","indutype":"음료식품 - 기타음료식품","category":"food"}]},{"lat":"37.759623005","long":"127.02962964","imageIndex":7,"items":[{"name":"대성농장","tel":"031-823-2974","addr":"경기도 의정부시 녹양동 384-1번지 킹하우스 1층 상가","indutype":"음료식품 - 농·축·수산품","category":"food"}]},{"lat":"37.758566608","long":"127.03828782","imageIndex":7,"items":[{"name":"대원건강원","tel":"031-876-4796","addr":"경기도 의정부시 녹양동 83-4번지","indutype":"건강식품 - 기타건강식품","category":"food"}]},{"lat":"37.758008692","long":"127.03596122","imageIndex":7,"items":[{"name":"두부박사","tel":"031-826-8144","addr":"경기도 의정부시 녹양동 325-2번지 오른편상가길 1층","indutype":"음료식품 - 기타음료식품","category":"food"}]},{"lat":"37.760043229","long":"127.04129581","imageIndex":7,"items":[{"name":"베스킨라빈스의정부녹양점","tel":"031-878-0331","addr":"경기도 의정부시 녹양동 412-9.1","indutype":"음료식품 - 제과점","category":"food"}]},{"lat":"37.757765128","long":"127.03703916","imageIndex":7,"items":[{"name":"보드레","tel":"","addr":"경기도 의정부시 녹양동 332번지 1층","indutype":"음료식품 - 기타음료식품","category":"food"}]},{"lat":"37.75792783","long":"127.03515548","imageIndex":7,"items":[{"name":"산채별미/나뚜루 의정부녹양점","tel":"031-855-6133","addr":"경기도 의정부시 녹양동 85-7번지 1층","indutype":"음료식품 - 제과점","category":"food"}]},{"lat":"37.75684651","long":"127.03579049","imageIndex":7,"items":[{"name":"서울우유녹양대리점","tel":"031-875-5234","addr":"경기도 의정부시 녹양동 343번지 1층","indutype":"음료식품 - 기타음료식품","category":"food"}]},{"lat":"37.757738171","long":"127.0367895","imageIndex":7,"items":[{"name":"식단해결사","tel":"031-872-6928","addr":"경기도 의정부시 녹양동 333-5번지","indutype":"음료식품 - 기타음료식품","category":"food"}]},{"lat":"37.759835995","long":"127.0413411","imageIndex":7,"items":[{"name":"식빵공방 녹양점","tel":"031-875-8821","addr":"경기도 의정부시 녹양동 412-7번지 키움프라자 102호","indutype":"음료식품 - 제과점","category":"food"}]},{"lat":"37.760480041","long":"127.02406926","imageIndex":7,"items":[{"name":"싱싱유통","tel":"031-872-6651","addr":"경기도 의정부시 녹양동 186-30","indutype":"음료식품 - 농·축·수산품","category":"food"}]},{"lat":"37.757036245","long":"127.03381605","imageIndex":7,"items":[{"name":"썬타바코(SUN TOBACCO)","tel":"","addr":"경기도 의정부시 녹양동 352-1번지 1층 101호","indutype":"음료식품 - 농·축·수산품","category":"food"}]},{"lat":"37.758035541","long":"127.03659672","imageIndex":7,"items":[{"name":"양주골한우도매센타","tel":"031-878-6222","addr":"경기도 의정부시 녹양동 325-6번지","indutype":"음료식품 - 정육점","category":"food"}]},{"lat":"37.761593614","long":"127.03893612","imageIndex":7,"items":[{"name":"엘지(LG)자판기","tel":"","addr":"경기도 의정부시 녹양동 401번지 녹양휴먼시아3단지 302동 1005호","indutype":"음료식품 - 기타음료식품","category":"food"}]},{"lat":"37.758008784","long":"127.03563213","imageIndex":7,"items":[{"name":"요리사가만든 반찬","tel":"070-4240-4002","addr":"경기도 의정부시 녹양동 325번지 1층","indutype":"음료식품 - 기타음료식품","category":"food"}]},{"lat":"37.758904218","long":"127.01867847","imageIndex":7,"items":[{"name":"조은상사","tel":"031-844-5888","addr":"경기도 의정부시 녹양동 297","indutype":"음료식품 - 기타음료식품","category":"food"}]},{"lat":"37.760036181","long":"127.03471381","imageIndex":7,"items":[{"name":"주식회사경기식품녹양지점","tel":"031-829-6600","addr":"경기도 의정부시 녹양동 378-3번지","indutype":"음료식품 - 기타음료식품","category":"food"}]},{"lat":"37.757035473","long":"127.03663031","imageIndex":7,"items":[{"name":"진성농수산물","tel":"031-878-4268","addr":"경기도 의정부시 녹양동 341-1번지","indutype":"음료식품 - 농·축·수산품","category":"food"},{"name":"토박이","tel":"031-367-4182","addr":"경기도 의정부시 녹양동 341-1번지 1층","indutype":"음료식품 - 기타음료식품","category":"food"}]},{"lat":"37.758341975","long":"127.03621102","imageIndex":7,"items":[{"name":"찰떡궁합","tel":"031-855-1117","addr":"경기도 의정부시 녹양동 83-53번지 1층","indutype":"음료식품 - 제과점","category":"food"}]},{"lat":"37.757620965","long":"127.03707314","imageIndex":7,"items":[{"name":"쿠키스토어","tel":"070-8031-0164","addr":"경기도 의정부시 녹양동 332-9번지 1층","indutype":"음료식품 - 제과점","category":"food"}]},{"lat":"37.757020943","long":"127.02066393","imageIndex":7,"items":[{"name":"터닝 점핑다이어트","tel":"","addr":"경기도 의정부시 녹양동 315-4번지 호명산빌리지 113동 205호","indutype":"음료식품 - 기타음료식품","category":"food"}]},{"lat":"37.758404922","long":"127.03663093","imageIndex":7,"items":[{"name":"파리바게트","tel":"031-877-5989","addr":"경기도 의정부시 녹양동 83-65번지","indutype":"음료식품 - 제과점","category":"food"}]},{"lat":"37.760872106","long":"127.04129624","imageIndex":7,"items":[{"name":"평창생고기","tel":"031-855-3329","addr":"경기도 의정부시 녹양동 412-12번지 녹양프라자 1층102호,2층201호,3층,7층702호","indutype":"음료식품 - 정육점","category":"food"}]},{"lat":"37.762066231","long":"127.02099425","imageIndex":7,"items":[{"name":"풀꽃서당꽃차연구소","tel":"031-829-6789","addr":"경기도 의정부시 녹양동 211-2번지","indutype":"음료식품 - 기타음료식품","category":"food"}]},{"lat":"37.756549013","long":"127.03643717","imageIndex":7,"items":[{"name":"풀무원식품","tel":"031-879-8565","addr":"경기도 의정부시 녹양동 355번지 녹양힐스테이트 115동 804호","indutype":"음료식품 - 농·축·수산품","category":"food"}]},{"lat":"37.756675914","long":"127.03362299","imageIndex":7,"items":[{"name":"풍년방앗간","tel":"031-875-4189","addr":"경기도 의정부시 녹양동 354-5번지","indutype":"음료식품 - 제과점","category":"food"}]},{"lat":"37.758071458","long":"127.03701661","imageIndex":7,"items":[{"name":"하나축산","tel":"031-826-1333","addr":"경기도 의정부시 녹양동 326번지","indutype":"음료식품 - 정육점","category":"food"}]},{"lat":"37.758234268","long":"127.03473574","imageIndex":7,"items":[{"name":"행복한빵집","tel":"031-836-0435","addr":"경기도 의정부시 녹양동 83-42번지 1층","indutype":"음료식품 - 제과점","category":"food"}]},{"lat":"37.757567949","long":"127.03327157","imageIndex":7,"items":[{"name":"형심대가","tel":"031-821-7872","addr":"경기도 의정부시 녹양동 143-8번지","indutype":"음료식품 - 농·축·수산품","category":"food"}]},{"lat":"37.760755411","long":"127.03995707","imageIndex":7,"items":[{"name":"휴먼시아마트","tel":"031-838-5666","addr":"경기도 의정부시 녹양동 411-1번지 녹양휴먼시아2단지 201동 103호","indutype":"음료식품 - 기타음료식품","category":"food"}]},{"lat":"37.758486741","long":"127.03396418","imageIndex":7,"items":[{"name":"흑산도아줌마반찬","tel":"031-829-8233","addr":"경기도 의정부시 녹양동 157-5번지 1층","indutype":"음료식품 - 기타음료식품","category":"food"}]}]