[{"lat":"37.559925234","long":"127.19925787","imageIndex":13,"items":[{"name":"015네일샵","tel":"","addr":"경기도 하남시 망월동 1188번지 1층","indutype":"보건위생 - 피부미용실","category":"beauty"}]},{"lat":"37.570846418","long":"127.18142439","imageIndex":13,"items":[{"name":"ANNE Skin (앤스킨)","tel":"031-791-2413","addr":"경기도 하남시 망월동 1015-8번지 1층 103호","indutype":"보건위생 - 피부미용실","category":"beauty"},{"name":"해피하남미사점","tel":"070-4649-1101","addr":"경기도 하남시 망월동 1015-8번지 1층 101호","indutype":"보건위생 - 미용원","category":"beauty"}]},{"lat":"37.574985863","long":"127.19050168","imageIndex":13,"items":[{"name":"J(제이)헤어#","tel":"031-794-3664","addr":"경기도 하남시 망월동 843-10번지 1층","indutype":"보건위생 - 미용원","category":"beauty"}]},{"lat":"37.568562021","long":"127.18464489","imageIndex":13,"items":[{"name":"J헤어","tel":"031-791-9948","addr":"경기도 하남시 망월동 968-1번지 2층 211,212호","indutype":"보건위생 - 미용원","category":"beauty"},{"name":"블루클럽","tel":"031-792-7668","addr":"경기도 하남시 망월동 968-1번지 미사센트럴프라자 104호","indutype":"보건위생 - 이용원","category":"beauty"}]},{"lat":"37.569199966","long":"127.1915059","imageIndex":13,"items":[{"name":"NEW LOVE (뉴러브)","tel":"031-594-7300","addr":"경기도 하남시 망월동 910번지 미사강변파밀리에 2층 201호","indutype":"보건위생 - 피부미용실","category":"beauty"},{"name":"제이(J)청담헤어","tel":"031-795-3225","addr":"경기도 하남시 망월동 910번지 미사강변파밀리에 상가동 201호","indutype":"보건위생 - 미용원","category":"beauty"}]},{"lat":"37.571593218","long":"127.18209403","imageIndex":13,"items":[{"name":"OBIT HAIR (오빛헤어)","tel":"031-792-5558","addr":"경기도 하남시 망월동 985번지 101호","indutype":"보건위생 - 미용원","category":"beauty"}]},{"lat":"37.565839933","long":"127.19111259","imageIndex":13,"items":[{"name":"RITA NAIL SALON (리타 네일 살롱)","tel":"","addr":"경기도 하남시 망월동 1093-1번지 미사푸르지오시티 A동 3층 320호","indutype":"보건위생 - 피부미용실","category":"beauty"},{"name":"예쁜걸 김재은 헤어콜렉션","tel":"031-796-5007","addr":"경기도 하남시 망월동 1093-1번지 미사푸르지오시티 A동 2층 S-204호","indutype":"보건위생 - 미용원","category":"beauty"}]},{"lat":"37.576203152","long":"127.18989344","imageIndex":13,"items":[{"name":"SOODA네일#","tel":"","addr":"경기도 하남시 망월동 849번지","indutype":"보건위생 - 피부미용실","category":"beauty"}]},{"lat":"37.56151188","long":"127.19319555","imageIndex":13,"items":[{"name":"SSO네일","tel":"031-528-6263","addr":"경기도 하남시 망월동 1117번지 미사강변노블레스 521호","indutype":"보건위생 - 피부미용실","category":"beauty"},{"name":"네일에끌려","tel":"02-1111-1111","addr":"경기도 하남시 망월동 1117번지 미사강변노블레스 5층 504호","indutype":"보건위생 - 피부미용실","category":"beauty"},{"name":"네일프레소","tel":"031-000-0000","addr":"경기도 하남시 망월동 1117번지 미사강변노블레스 321호","indutype":"보건위생 - 피부미용실","category":"beauty"},{"name":"뉴톤보청기 미사센터","tel":"","addr":"경기도 하남시 망월동 1117번지 미사강변노블레스 506호, 507호","indutype":"보건위생 - 의료용품","category":"beauty"},{"name":"미사마사지 릴렉스타임","tel":"031-796-6833","addr":"경기도 하남시 망월동 1117번지 미사강변노블레스 3층 305호,306호","indutype":"보건위생 - 피부미용실","category":"beauty"},{"name":"반스타트헤어","tel":"031-795-7347","addr":"경기도 하남시 망월동 1117번지 미사강변노블레스 207호","indutype":"보건위생 - 미용원","category":"beauty"},{"name":"샬롱드 시저스","tel":"031-793-8880","addr":"경기도 하남시 망월동 1117번지 망월동미사강변노블레스 2층 213호","indutype":"보건위생 - 미용원","category":"beauty"},{"name":"설향기 헤어","tel":"031-796-0388","addr":"경기도 하남시 망월동 1117번지 미사강변노블레스 2층 219호","indutype":"보건위생 - 미용원","category":"beauty"},{"name":"아이미속눈썹연장","tel":"","addr":"경기도 하남시 망월동 1117번지 미사강변노블레스 10층 1002호","indutype":"보건위생 - 피부미용실","category":"beauty"},{"name":"에츠헤어살롱","tel":"031-796-6399","addr":"경기도 하남시 망월동 1117번지 미사강변노블레스 311호","indutype":"보건위생 - 미용원","category":"beauty"}]},{"lat":"37.568758821","long":"127.18556222","imageIndex":13,"items":[{"name":"공이일 샵(021shop)","tel":"031-795-0210","addr":"경기도 하남시 망월동 976-4번지 명성빌딩 1층","indutype":"보건위생 - 피부미용실","category":"beauty"}]},{"lat":"37.56673309","long":"127.19036779","imageIndex":13,"items":[{"name":"공작","tel":"031-793-1211","addr":"경기도 하남시 망월동 1081번지 미사역 효성해링턴타워 더 퍼스트 2045호","indutype":"보건위생 - 화장품","category":"beauty"},{"name":"기분전환헤어샵","tel":"031-794-4199","addr":"경기도 하남시 망월동 1081번지 미사역효성해링턴타워더퍼스트 2058호","indutype":"보건위생 - 미용원","category":"beauty"},{"name":"미사왁싱","tel":"","addr":"경기도 하남시 망월동 1081번지 미사역효성해링턴타워더퍼스트 2층 2023호","indutype":"보건위생 - 피부미용실","category":"beauty"},{"name":"살롱 드 바비","tel":"031-795-9915","addr":"경기도 하남시 망월동 1081번지 미사역효성해밀턴타워 더 퍼스트 2056호","indutype":"보건위생 - 화장품","category":"beauty"},{"name":"숲에스테틱","tel":"02-1111-1111","addr":"경기도 하남시 망월동 1081번지 미사역효성해링턴타워더퍼스트 2층 2054호","indutype":"보건위생 - 피부미용실","category":"beauty"},{"name":"얼반스킨 미사점","tel":"02-417-1171","addr":"경기도 하남시 망월동 1081번지 미사역효성해리언타워더퍼스트 2층 2042호","indutype":"보건위생 - 피부미용실","category":"beauty"},{"name":"에이치수네일(H.SooNail)","tel":"02-4646-1646","addr":"경기도 하남시 망월동 1081번지 미사역효성해링턴타워더퍼스트 2층 2043호","indutype":"보건위생 - 피부미용실","category":"beauty"},{"name":"오빛헤어다뉴브점","tel":"031-791-5560","addr":"경기도 하남시 망월동 1081번지 미사역효성해링턴타워 더 퍼스트 1층 1069,1070호","indutype":"보건위생 - 미용원","category":"beauty"}]},{"lat":"37.570012003","long":"127.18503327","imageIndex":13,"items":[{"name":"구산테라피","tel":"031-792-8707","addr":"경기도 하남시 망월동 962-3번지 미사프라자 304호","indutype":"보건위생 - 피부미용실","category":"beauty"}]},{"lat":"37.575095291","long":"127.18967559","imageIndex":13,"items":[{"name":"그린리프 녹엽 미사점(GreenLeaf)","tel":"031-792-9602","addr":"경기도 하남시 망월동 843-15번지 1층","indutype":"보건위생 - 화장품","category":"beauty"}]},{"lat":"37.569788586","long":"127.1838442","imageIndex":13,"items":[{"name":"글라스스토리(미사지구점)","tel":"031-795-1995","addr":"경기도 하남시 망월동 962번지 미사메디프라자 105호","indutype":"보건위생 - 안경","category":"beauty"},{"name":"오케타니 모유육아 상담실","tel":"","addr":"경기도 하남시 망월동 962번지 미사메디프라자","indutype":"보건위생 - 기타대인서비스","category":"beauty"}]},{"lat":"37.56173064","long":"127.19162289","imageIndex":13,"items":[{"name":"글라스코드","tel":"031-791-5585","addr":"경기도 하남시 망월동 1110번지 미사신성타워 102호 101호,102호","indutype":"보건위생 - 안경","category":"beauty"}]},{"lat":"37.575482854","long":"127.18958599","imageIndex":13,"items":[{"name":"글로시뷰티 (Glossy Beauty)","tel":"070-4125-2912","addr":"경기도 하남시 망월동 845-2번지 B01호","indutype":"보건위생 - 화장품","category":"beauty"}]},{"lat":"37.568284213","long":"127.18367077","imageIndex":13,"items":[{"name":"꽁언니 눈썹방","tel":"070-4337-1255","addr":"경기도 하남시 망월동 1000-2번지 1층","indutype":"보건위생 - 피부미용실","category":"beauty"}]},{"lat":"37.566149478","long":"127.18908731","imageIndex":13,"items":[{"name":"꽃샘에스테틱","tel":"031-791-0102","addr":"경기도 하남시 망월동 1079-1번지 우성미사타워 1405호","indutype":"보건위생 - 화장품","category":"beauty"},{"name":"로즈","tel":"","addr":"경기도 하남시 망월동 1079-1번지 우성미사타워 7층 708호","indutype":"보건위생 - 화장품","category":"beauty"},{"name":"명사원풋샵","tel":"031-796-6799","addr":"경기도 하남시 망월동 1079-1번지 우성미사타워 1001호","indutype":"보건위생 - 피부미용실","category":"beauty"},{"name":"에리카","tel":"","addr":"경기도 하남시 망월동 1079-1번지 우성미사타워 3층 306-1,306-2호","indutype":"보건위생 - 화장품","category":"beauty"},{"name":"학습심리상담센터 티움","tel":"031-699-0040","addr":"경기도 하남시 망월동 1079-1번지 우성미사타워 1207호","indutype":"보건위생 - 기타대인서비스","category":"beauty"},{"name":"허그맘 허그인 심리상담 하남센터","tel":"031-8042-6255","addr":"경기도 하남시 망월동 1079-1번지 우성미사타워 9층 3호","indutype":"보건위생 - 기타대인서비스","category":"beauty"},{"name":"헤어살롱노이","tel":"031-795-0612","addr":"경기도 하남시 망월동 1079-1번지 우성미사타워 2층 204-2호","indutype":"보건위생 - 미용원","category":"beauty"}]},{"lat":"37.561537831","long":"127.19386338","imageIndex":13,"items":[{"name":"꾸밈","tel":"02-451-7373","addr":"경기도 하남시 망월동 1134-1번지 에스비비즈타워 202호","indutype":"보건위생 - 미용원","category":"beauty"},{"name":"리안헤어","tel":"031-792-8485","addr":"경기도 하남시 망월동 1134-1번지 3층 301,302호","indutype":"보건위생 - 미용원","category":"beauty"},{"name":"블루클럽 미사역점","tel":"031-793-8821","addr":"경기도 하남시 망월동 1134-1번지 SB BIZ타워 106호","indutype":"보건위생 - 미용원","category":"beauty"},{"name":"해네일","tel":"070-4661-0401","addr":"경기도 하남시 망월동 1134-1번지 에스비비즈타워 3층 305호","indutype":"보건위생 - 피부미용실","category":"beauty"}]},{"lat":"37.569175278","long":"127.18426153","imageIndex":13,"items":[{"name":"나이스가이","tel":"031-792-5355","addr":"경기도 하남시 망월동 966-1번지 한강트윈프라자1 1층 110호","indutype":"보건위생 - 미용원","category":"beauty"},{"name":"우리안경","tel":"031-792-2924","addr":"경기도 하남시 망월동 966-1번지 101호(한강트윈1 ,망월동)","indutype":"보건위생 - 안경","category":"beauty"},{"name":"파라나미사점","tel":"031-791-8485","addr":"경기도 하남시 망월동 966-1번지 한강트윈프라자1 6층 601,602호","indutype":"보건위생 - 화장품","category":"beauty"},{"name":"헤어팰리스","tel":"031-792-7114","addr":"경기도 하남시 망월동 966-1번지 한강트윈프라자1 2층 201호","indutype":"보건위생 - 미용원","category":"beauty"}]},{"lat":"37.56195407","long":"127.19275526","imageIndex":13,"items":[{"name":"나이스가이","tel":"031-794-6628","addr":"경기도 하남시 망월동 1116-1번지 미사역타워 118호","indutype":"보건위생 - 미용원","category":"beauty"},{"name":"비스타안경","tel":"031-796-2588","addr":"경기도 하남시 망월동 1116-1번지 미사역타워 106,107호","indutype":"보건위생 - 안경","category":"beauty"},{"name":"아임헤어","tel":"031-796-3933","addr":"경기도 하남시 망월동 1116-1번지 미사역타워 205호","indutype":"보건위생 - 미용원","category":"beauty"},{"name":"주식회사 어반코리아","tel":"031-792-6211","addr":"경기도 하남시 망월동 1116-1번지 미사역타워 6층 607호","indutype":"보건위생 - 화장품","category":"beauty"},{"name":"통합뇌휴먼 심리연구소","tel":"031-793-4377","addr":"경기도 하남시 망월동 1116-1번지 미사역타워 6층 606호","indutype":"보건위생 - 기타대인서비스","category":"beauty"}]},{"lat":"37.566258647","long":"127.18841977","imageIndex":13,"items":[{"name":"나이스가이","tel":"031-794-9688","addr":"경기도 하남시 망월동 1077-1번지 센트럴파크2 113호","indutype":"보건위생 - 미용원","category":"beauty"}]},{"lat":"37.575427953","long":"127.1901179","imageIndex":13,"items":[{"name":"네이쳐 앤 뷰티(Nature&Beauty)","tel":"031-796-3889","addr":"경기도 하남시 망월동 845-6번지","indutype":"보건위생 - 피부미용실","category":"beauty"},{"name":"휴스파","tel":"031-795-8885","addr":"경기도 하남시 망월동 845-6번지 1층","indutype":"보건위생 - 피부미용실","category":"beauty"}]},{"lat":"37.574957717","long":"127.19120346","imageIndex":13,"items":[{"name":"네일라인","tel":"02-1111-1111","addr":"경기도 하남시 망월동 872-3번지 1층 103호","indutype":"보건위생 - 피부미용실","category":"beauty"},{"name":"별꽃미장","tel":"031-795-4002","addr":"경기도 하남시 망월동 872-3번지 102호","indutype":"보건위생 - 미용원","category":"beauty"}]},{"lat":"37.571228707","long":"127.18478721","imageIndex":13,"items":[{"name":"네일리","tel":"031-792-8755","addr":"경기도 하남시 망월동 956번지 미사강변도시8단지 상가동 2층 204호","indutype":"보건위생 - 피부미용실","category":"beauty"},{"name":"미사랑헤어","tel":"031-795-2686","addr":"경기도 하남시 망월동 956번지 미사강변도시8단지 상가동 203호","indutype":"보건위생 - 미용원","category":"beauty"}]},{"lat":"37.563479148","long":"127.19681111","imageIndex":13,"items":[{"name":"네일반짝","tel":"031-792-7990","addr":"경기도 하남시 망월동 1140번지 미사강변도시씨3단지 2층 221호","indutype":"보건위생 - 피부미용실","category":"beauty"}]},{"lat":"37.564839612","long":"127.19125722","imageIndex":13,"items":[{"name":"네일아드망","tel":"","addr":"경기도 하남시 망월동 1096-1번지 미사푸르지오시티 B동 2층 B-210호","indutype":"보건위생 - 피부미용실","category":"beauty"},{"name":"다감에스테틱","tel":"070-4009-0090","addr":"경기도 하남시 망월동 1096-1번지 미사푸르지오시티B동 3층 B-311호","indutype":"보건위생 - 피부미용실","category":"beauty"},{"name":"비엘아드망","tel":"","addr":"경기도 하남시 망월동 1096-1번지 미사푸르지오시티 210호","indutype":"보건위생 - 피부미용실","category":"beauty"}]},{"lat":"37.575985191","long":"127.19097964","imageIndex":13,"items":[{"name":"네일을그리다","tel":"","addr":"경기도 하남시 망월동 857번지 1층","indutype":"보건위생 - 피부미용실","category":"beauty"}]},{"lat":"37.560093774","long":"127.20084281","imageIndex":13,"items":[{"name":"네일포레(Nail foret)","tel":"031-8028-1681","addr":"경기도 하남시 망월동 1194번지 1층 102호","indutype":"보건위생 - 피부미용실","category":"beauty"}]},{"lat":"37.560984199","long":"127.19076084","imageIndex":13,"items":[{"name":"누왓","tel":"","addr":"경기도 하남시 망월동 1104-1번지 미사파크뷰 304,305,306호","indutype":"보건위생 - 화장품","category":"beauty"},{"name":"더맨#남성컷트전문점","tel":"031-792-2259","addr":"경기도 하남시 망월동 1104-1번지 미사파크뷰 105호","indutype":"보건위생 - 미용원","category":"beauty"}]},{"lat":"37.561510032","long":"127.19981662","imageIndex":13,"items":[{"name":"대리기사","tel":"031-1544-7149","addr":"경기도 하남시 망월동 1170번지 미사강변효성해링턴플레이스엔에이치에프 2912동 904호","indutype":"보건위생 - 기타대인서비스","category":"beauty"}]},{"lat":"37.560374667","long":"127.19989285","imageIndex":13,"items":[{"name":"댄디가이","tel":"031-555-2678","addr":"경기도 하남시 망월동 1190번지 103호","indutype":"보건위생 - 미용원","category":"beauty"}]},{"lat":"37.566092369","long":"127.19101136","imageIndex":13,"items":[{"name":"더맑은스킨","tel":"031-796-6555","addr":"경기도 하남시 망월동 1093번지 경서타워 8층 802호","indutype":"보건위생 - 화장품","category":"beauty"},{"name":"라디앙","tel":"","addr":"경기도 하남시 망월동 1093번지 경서타워 8층 803호","indutype":"보건위생 - 피부미용실","category":"beauty"},{"name":"지노헤어","tel":"031-793-0051","addr":"경기도 하남시 망월동 1093번지 경서타워 2층","indutype":"보건위생 - 미용원","category":"beauty"}]},{"lat":"37.569704463","long":"127.18581356","imageIndex":13,"items":[{"name":"더풋샵미사강변점","tel":"031-792-3334","addr":"경기도 하남시 망월동 974번지 406,407호","indutype":"보건위생 - 화장품","category":"beauty"},{"name":"마음자람 심리상담 미사센터","tel":"031-791-8882","addr":"경기도 하남시 망월동 974번지 A+구산프라자 507호","indutype":"보건위생 - 기타대인서비스","category":"beauty"},{"name":"스파머시 하남점","tel":"031-793-8024","addr":"경기도 하남시 망월동 974번지 A+구산프라자 303호","indutype":"보건위생 - 피부미용실","category":"beauty"},{"name":"하남미사감각심리센터","tel":"031-794-9947","addr":"경기도 하남시 망월동 974번지 1,2,3호","indutype":"보건위생 - 기타대인서비스","category":"beauty"}]},{"lat":"37.566645408","long":"127.18883953","imageIndex":13,"items":[{"name":"라쥬뷰티","tel":"","addr":"경기도 하남시 망월동 1079번지 우성르보아파크 4층 402호","indutype":"보건위생 - 피부미용실","category":"beauty"},{"name":"모던헤어","tel":"031-794-2107","addr":"경기도 하남시 망월동 1079번지 우성르보아파크 2층 205-1호","indutype":"보건위생 - 미용원","category":"beauty"}]},{"lat":"37.562396984","long":"127.19186225","imageIndex":13,"items":[{"name":"레이블에스앤티","tel":"070-4320-9155","addr":"경기도 하남시 망월동 1106번지 힐스테이트 에코 미사 101동 1325호","indutype":"보건위생 - 화장품","category":"beauty"},{"name":"리오메드","tel":"031-111-1111","addr":"경기도 하남시 망월동 1106번지 힐스테이크에코미사 1530호","indutype":"보건위생 - 의료용품","category":"beauty"},{"name":"헤어 in 헤어 살롱(HAIR IN HAIR SALON)","tel":"031-792-1795","addr":"경기도 하남시 망월동 1106번지 힐스테이트에코미사 2층 216호","indutype":"보건위생 - 미용원","category":"beauty"}]},{"lat":"37.564732162","long":"127.19083816","imageIndex":13,"items":[{"name":"로이드밤 미사역점","tel":"031-795-3338","addr":"경기도 하남시 망월동 1096번지 3층 309, 310호","indutype":"보건위생 - 미용원","category":"beauty"},{"name":"유니크 네일 부띠끄","tel":"","addr":"경기도 하남시 망월동 1096번지 미사마이움센트럴아케이드 3층 308호","indutype":"보건위생 - 피부미용실","category":"beauty"}]},{"lat":"37.566121483","long":"127.18969845","imageIndex":13,"items":[{"name":"리븐벨르","tel":"","addr":"경기도 하남시 망월동 1079-2번지 성산타워 6층 23호","indutype":"보건위생 - 기타대인서비스","category":"beauty"},{"name":"리안헤어 미사역점","tel":"031-792-1555","addr":"경기도 하남시 망월동 1079-2번지 성산타워 2층 201호","indutype":"보건위생 - 미용원","category":"beauty"},{"name":"아름","tel":"","addr":"경기도 하남시 망월동 1079-2번지 성산타워 2층 209호","indutype":"보건위생 - 화장품","category":"beauty"},{"name":"안테나헤어","tel":"031-796-9622","addr":"경기도 하남시 망월동 1079-2번지 성산타워 207호","indutype":"보건위생 - 미용원","category":"beauty"}]},{"lat":"37.565672601","long":"127.18867865","imageIndex":13,"items":[{"name":"리빌트헤어즌","tel":"031-796-5595","addr":"경기도 하남시 망월동 1077-3번지 미사호수의아침 203호","indutype":"보건위생 - 미용원","category":"beauty"},{"name":"왓포","tel":"031-111-1111","addr":"경기도 하남시 망월동 1077-3번지 미사호수의아침 302호","indutype":"보건위생 - 화장품","category":"beauty"},{"name":"제이케이 (J.K)통상","tel":"031-9491-5535","addr":"경기도 하남시 망월동 1077-3번지 107호 B107호","indutype":"보건위생 - 미용재료","category":"beauty"}]},{"lat":"37.568868702","long":"127.18441925","imageIndex":13,"items":[{"name":"리안헤어미사강변점","tel":"031-796-4220","addr":"경기도 하남시 망월동 968번지 한강트윈프라자2 ,201호","indutype":"보건위생 - 미용원","category":"beauty"}]},{"lat":"37.56890254","long":"127.18584555","imageIndex":13,"items":[{"name":"마중물 언어심리센터","tel":"031-794-7975","addr":"경기도 하남시 망월동 976-5번지 라임프라자 301호","indutype":"보건위생 - 기타대인서비스","category":"beauty"},{"name":"안나블레스헤어 앤 메이크업","tel":"070-8150-9638","addr":"경기도 하남시 망월동 976-5번지 라임프라자 303호","indutype":"보건위생 - 미용원","category":"beauty"}]},{"lat":"37.574815163","long":"127.19019561","imageIndex":13,"items":[{"name":"문 코스메틱","tel":"031-794-1906","addr":"경기도 하남시 망월동 870-5번지 302호","indutype":"보건위생 - 미용재료","category":"beauty"}]},{"lat":"37.569483655","long":"127.1829266","imageIndex":13,"items":[{"name":"미사 SEED GYROTONIC CENTER","tel":"","addr":"경기도 하남시 망월동 1004번지 201호","indutype":"보건위생 - 기타대인서비스","category":"beauty"}]},{"lat":"37.570151773","long":"127.18201134","imageIndex":13,"items":[{"name":"미사네일","tel":"031-0000-0000","addr":"경기도 하남시 망월동 1018-6번지 1층","indutype":"보건위생 - 피부미용실","category":"beauty"}]},{"lat":"37.561451173","long":"127.19172404","imageIndex":13,"items":[{"name":"미사힐링스파 불가마싸우나","tel":"","addr":"경기도 하남시 망월동 1111번지 신성프라자 1001호","indutype":"보건위생 - 기타대인서비스","category":"beauty"},{"name":"미사힐링스파사우나","tel":"070-2911-0793","addr":"경기도 하남시 망월동 1111번지 10층","indutype":"보건위생 - 기타대인서비스","category":"beauty"},{"name":"토리헤어","tel":"031-794-6766","addr":"경기도 하남시 망월동 1111번지 3층 308,309호","indutype":"보건위생 - 미용원","category":"beauty"},{"name":"힐링헤어","tel":"031-6937-1560","addr":"경기도 하남시 망월동 1111번지 신성프라자 10층","indutype":"보건위생 - 미용원","category":"beauty"}]},{"lat":"37.569985444","long":"127.18472759","imageIndex":13,"items":[{"name":"바바헤어 미사강변점","tel":"031-794-0308","addr":"경기도 하남시 망월동 962-2번지 3층 301,302호","indutype":"보건위생 - 미용원","category":"beauty"},{"name":"아이데코 미사강변점","tel":"031-792-8447","addr":"경기도 하남시 망월동 962-2번지 예스프라자 203호","indutype":"보건위생 - 안경","category":"beauty"}]},{"lat":"37.564956125","long":"127.19164234","imageIndex":13,"items":[{"name":"바이롬","tel":"02-2671-8080","addr":"경기도 하남시 망월동 1096-2번지 우성르보아리버 204호","indutype":"보건위생 - 미용원","category":"beauty"}]},{"lat":"37.563319601","long":"127.19520349","imageIndex":13,"items":[{"name":"박승철헤어스투디오 하남미사역점","tel":"031-793-3529","addr":"경기도 하남시 망월동 1129-4번지 에코타워 2층 203호","indutype":"보건위생 - 미용원","category":"beauty"},{"name":"아이알다언어심리상담센터","tel":"031-796-1238","addr":"경기도 하남시 망월동 1129-4번지 에코타워 304호","indutype":"보건위생 - 기타대인서비스","category":"beauty"}]},{"lat":"37.561425156","long":"127.19109017","imageIndex":13,"items":[{"name":"반룬 코스메틱","tel":"","addr":"경기도 하남시 망월동 1108-1번지 미타워 608호","indutype":"보건위생 - 화장품","category":"beauty"},{"name":"별 그리고 Beauty","tel":"","addr":"경기도 하남시 망월동 1108-1번지 미타워 3층 305호","indutype":"보건위생 - 피부미용실","category":"beauty"},{"name":"엔씨제이 인터네셔널","tel":"031-794-5179","addr":"경기도 하남시 망월동 1108-1번지 미타워 5층 501호","indutype":"보건위생 - 화장품","category":"beauty"},{"name":"헤어바이반룬하우트","tel":"031-795-5335","addr":"경기도 하남시 망월동 1108-1번지 미타워 607,608호","indutype":"보건위생 - 미용원","category":"beauty"}]},{"lat":"37.574895099","long":"127.1909203","imageIndex":13,"items":[{"name":"반한네일","tel":"070-8031-4038","addr":"경기도 하남시 망월동 872-1번지 1층 101호","indutype":"보건위생 - 피부미용실","category":"beauty"}]},{"lat":"37.570593476","long":"127.18186524","imageIndex":13,"items":[{"name":"본네일","tel":"031-793-9955","addr":"경기도 하남시 망월동 1015-4번지 103호","indutype":"보건위생 - 피부미용실","category":"beauty"}]},{"lat":"37.560065571","long":"127.19611188","imageIndex":13,"items":[{"name":"뷰티헤어","tel":"031-793-9355","addr":"경기도 하남시 망월동 1162번지 미사강변도시28단지상가동 2층201-1호","indutype":"보건위생 - 미용원","category":"beauty"}]},{"lat":"37.571566618","long":"127.18181097","imageIndex":13,"items":[{"name":"블루가이","tel":"031-792-1435","addr":"경기도 하남시 망월동 1012-1번지 1층 101호","indutype":"보건위생 - 미용원","category":"beauty"},{"name":"푸아네일","tel":"031-791-7916","addr":"경기도 하남시 망월동 1012-1번지 102-1호","indutype":"보건위생 - 화장품","category":"beauty"}]},{"lat":"37.562146246","long":"127.19089957","imageIndex":13,"items":[{"name":"살롱 드 솔(Salon de Sol)","tel":"","addr":"경기도 하남시 망월동 1105번지 해링턴타워레이크파크 3층 306호","indutype":"보건위생 - 미용원","category":"beauty"}]},{"lat":"37.560478731","long":"127.19133678","imageIndex":13,"items":[{"name":"살롱0.02","tel":"031-699-1089","addr":"경기도 하남시 망월동 1119번지 스타파크 3층 307호","indutype":"보건위생 - 화장품","category":"beauty"},{"name":"오#네일아이","tel":"","addr":"경기도 하남시 망월동 1119번지 스타파크 3층 311호","indutype":"보건위생 - 피부미용실","category":"beauty"}]},{"lat":"37.565428213","long":"127.18939112","imageIndex":13,"items":[{"name":"살롱HM","tel":"031-794-5579","addr":"경기도 하남시 망월동 1083-1번지 미사강변안강프라이빗뷰 1층 106호","indutype":"보건위생 - 미용원","category":"beauty"},{"name":"아뜨레","tel":"031-000-0000","addr":"경기도 하남시 망월동 1083-1번지 미사강변안강프라이빗뷰 3층 307호","indutype":"보건위생 - 미용원","category":"beauty"},{"name":"아이엘 스튜디오","tel":"","addr":"경기도 하남시 망월동 1083-1번지 미사강변안강프라이빗뷰 207호","indutype":"보건위생 - 미용재료","category":"beauty"}]},{"lat":"37.560204782","long":"127.19911147","imageIndex":13,"items":[{"name":"살롱드라니","tel":"031-791-7948","addr":"경기도 하남시 망월동 1186-6번지 1층 101호","indutype":"보건위생 - 미용원","category":"beauty"}]},{"lat":"37.568870789","long":"127.1888677","imageIndex":13,"items":[{"name":"샬롱와이","tel":"031-791-6011","addr":"경기도 하남시 망월동 949번지 미사강변도시13단지 104호","indutype":"보건위생 - 미용원","category":"beauty"}]},{"lat":"37.568813475","long":"127.1851775","imageIndex":13,"items":[{"name":"선에스테스파","tel":"031-791-4483","addr":"경기도 하남시 망월동 976-2번지 디럭스프라자1 3층 305호","indutype":"보건위생 - 피부미용실","category":"beauty"},{"name":"토리헤어","tel":"031-792-6866","addr":"경기도 하남시 망월동 976-2번지 디럭스프라자1 303,304호","indutype":"보건위생 - 미용원","category":"beauty"},{"name":"한센스네일","tel":"031-792-8208","addr":"경기도 하남시 망월동 976-2번지 디럭스프라자1 3층 302호","indutype":"보건위생 - 피부미용실","category":"beauty"}]},{"lat":"37.567874096","long":"127.18081738","imageIndex":13,"items":[{"name":"스타일G헤어스튜디오","tel":"070-8869-6999","addr":"경기도 하남시 망월동 1034번지 미사강변 루나리움 상가동 202호","indutype":"보건위생 - 미용원","category":"beauty"},{"name":"헤어S","tel":"031-794-4764","addr":"경기도 하남시 망월동 1034번지 미사강변도시5단지근린상가 203호","indutype":"보건위생 - 미용원","category":"beauty"}]},{"lat":"37.562429305","long":"127.19417125","imageIndex":13,"items":[{"name":"아드망헤어","tel":"031-8082-8566","addr":"경기도 하남시 망월동 1132번지 2층 216,217호","indutype":"보건위생 - 미용원","category":"beauty"}]},{"lat":"37.569841845","long":"127.18436502","imageIndex":13,"items":[{"name":"앙포레 모리노 헤어","tel":"031-794-6451","addr":"경기도 하남시 망월동 962-1번지 송하프라자 203호","indutype":"보건위생 - 미용원","category":"beauty"}]},{"lat":"37.569395858","long":"127.19295526","imageIndex":13,"items":[{"name":"어나더뷰티","tel":"02-4348-4648","addr":"경기도 하남시 망월동 916-2번지 101호","indutype":"보건위생 - 피부미용실","category":"beauty"}]},{"lat":"37.560122997","long":"127.19953002","imageIndex":13,"items":[{"name":"에이블","tel":"","addr":"경기도 하남시 망월동 1188-2번지","indutype":"보건위생 - 미용원","category":"beauty"}]},{"lat":"37.567957685","long":"127.18508487","imageIndex":13,"items":[{"name":"에이치앤씨(HNC)네일살롱","tel":"031-8018-8166","addr":"경기도 하남시 망월동 968-4번지 리더스프라자 2층 204호","indutype":"보건위생 - 피부미용실","category":"beauty"},{"name":"이가자헤어비스 미사강변점","tel":"031-793-8322","addr":"경기도 하남시 망월동 968-4번지 하남리더스프라자 203호","indutype":"보건위생 - 미용원","category":"beauty"}]},{"lat":"37.563202385","long":"127.18964589","imageIndex":13,"items":[{"name":"에코","tel":"031-793-6010","addr":"경기도 하남시 망월동 1098-1번지 에코브리지2 2층 204호","indutype":"보건위생 - 화장품","category":"beauty"}]},{"lat":"37.576200233","long":"127.19172732","imageIndex":13,"items":[{"name":"엘리네일","tel":"","addr":"경기도 하남시 망월동 855-4번지 여현재 102호","indutype":"보건위생 - 피부미용실","category":"beauty"}]},{"lat":"37.56448138","long":"127.18989809","imageIndex":13,"items":[{"name":"엘리헤어","tel":"031-796-1200","addr":"경기도 하남시 망월동 1094번지 E편한세상시티미사 2층 212-2호","indutype":"보건위생 - 미용원","category":"beauty"}]},{"lat":"37.569122936","long":"127.1831408","imageIndex":13,"items":[{"name":"오땡큐염색샵","tel":"031-795-2585","addr":"경기도 하남시 망월동 1002번지 1층 101호","indutype":"보건위생 - 미용원","category":"beauty"}]},{"lat":"37.569678763","long":"127.18495323","imageIndex":13,"items":[{"name":"오투네일(O2네일)","tel":"031-793-7973","addr":"경기도 하남시 망월동 970-1번지 미사원프라자 1층 115호","indutype":"보건위생 - 미용원","category":"beauty"},{"name":"올가네일","tel":"031-793-3345","addr":"경기도 하남시 망월동 970-1번지 미사원프라자 303호","indutype":"보건위생 - 피부미용실","category":"beauty"},{"name":"올가뷰티","tel":"031-793-3345","addr":"경기도 하남시 망월동 970-1번지 미사원프라자 303호","indutype":"보건위생 - 피부미용실","category":"beauty"},{"name":"헤어살롱121미사점","tel":"031-794-8121","addr":"경기도 하남시 망월동 970-1번지 미사원프라자 202호","indutype":"보건위생 - 미용원","category":"beauty"}]},{"lat":"37.563625988","long":"127.1895564","imageIndex":13,"items":[{"name":"온스헤어","tel":"","addr":"경기도 하남시 망월동 1098번지 에코브리지 201호","indutype":"보건위생 - 미용원","category":"beauty"}]},{"lat":"37.559785598","long":"127.18520078","imageIndex":13,"items":[{"name":"올가드림뷰티","tel":"031-111-1111","addr":"경기도 하남시 망월동 1066-1번지 광장프라자 2층 203호","indutype":"보건위생 - 피부미용실","category":"beauty"}]},{"lat":"37.569400696","long":"127.18414888","imageIndex":13,"items":[{"name":"웰빙마사지 피부경락, 비만관리","tel":"","addr":"경기도 하남시 망월동 966번지 미사중앙프라자 7층 701호","indutype":"보건위생 - 피부미용실","category":"beauty"},{"name":"이니스프리 미사신도시점","tel":"031-796-2999","addr":"경기도 하남시 망월동 966번지 미사중앙프라자 104호","indutype":"보건위생 - 화장품","category":"beauty"}]},{"lat":"37.562011855","long":"127.19042387","imageIndex":13,"items":[{"name":"유노우 아이어블","tel":"031-795-8122","addr":"경기도 하남시 망월동 1102번지 미사리버에비뉴 2층 201호","indutype":"보건위생 - 안경","category":"beauty"},{"name":"헤이미쉬(Heimish)","tel":"031-793-0614","addr":"경기도 하남시 망월동 1102번지 203-2호","indutype":"보건위생 - 미용원","category":"beauty"}]},{"lat":"37.562562244","long":"127.19552978","imageIndex":13,"items":[{"name":"유니헤어(Yune hair)","tel":"02-111-1111","addr":"경기도 하남시 망월동 1138번지 퀸즈파크미사2차 2층 211호","indutype":"보건위생 - 미용원","category":"beauty"}]},{"lat":"37.569589136","long":"127.18464739","imageIndex":13,"items":[{"name":"이철헤어커커 미사1호점","tel":"031-793-2326","addr":"경기도 하남시 망월동 970번지 예스프라자미사 2층","indutype":"보건위생 - 미용원","category":"beauty"}]},{"lat":"37.575734859","long":"127.18975643","imageIndex":13,"items":[{"name":"장가계헤어","tel":"","addr":"경기도 하남시 망월동 847-2번지 1층 103호","indutype":"보건위생 - 미용원","category":"beauty"}]},{"lat":"37.557675317","long":"127.19772411","imageIndex":13,"items":[{"name":"정연헤어","tel":"031-794-6584","addr":"경기도 하남시 망월동 1177번지 하남미사부영사랑으로 상가 1층","indutype":"보건위생 - 미용원","category":"beauty"}]},{"lat":"37.564479804","long":"127.18514431","imageIndex":13,"items":[{"name":"정현희 헤어","tel":"031-795-0837","addr":"경기도 하남시 망월동 1060번지 하남미사 A19BL 단지내상가","indutype":"보건위생 - 미용원","category":"beauty"}]},{"lat":"37.560951231","long":"127.18300793","imageIndex":13,"items":[{"name":"조민서 펌&컷","tel":"031-796-5488","addr":"경기도 하남시 망월동 1050번지 미사강변도시18단지 201호","indutype":"보건위생 - 미용원","category":"beauty"}]},{"lat":"37.569285578","long":"127.18283557","imageIndex":13,"items":[{"name":"초이스뷰티","tel":"","addr":"경기도 하남시 망월동 1004-2번지 103호","indutype":"보건위생 - 피부미용실","category":"beauty"}]},{"lat":"37.560869884","long":"127.20008656","imageIndex":13,"items":[{"name":"플러피뷰티","tel":"","addr":"경기도 하남시 망월동 1184-2번지 101호","indutype":"보건위생 - 피부미용실","category":"beauty"}]},{"lat":"37.575588274","long":"127.19128429","imageIndex":13,"items":[{"name":"피부살리기","tel":"070-4327-1609","addr":"경기도 하남시 망월동 864-2번지 1층","indutype":"보건위생 - 피부미용실","category":"beauty"}]},{"lat":"37.565895216","long":"127.19034306","imageIndex":13,"items":[{"name":"피에프코리아","tel":"031-795-4520","addr":"경기도 하남시 망월동 1089번지 성산타워플러스 4층 404호","indutype":"보건위생 - 화장품","category":"beauty"},{"name":"휴&미사","tel":"031-796-7967","addr":"경기도 하남시 망월동 1089번지 성산플러스 9층 905호","indutype":"보건위생 - 기타대인서비스","category":"beauty"}]},{"lat":"37.569173149","long":"127.18564247","imageIndex":13,"items":[{"name":"하남미사에듀플렉스심리상담연구소","tel":"","addr":"경기도 하남시 망월동 976번지 파인빌딩 3층 303호","indutype":"보건위생 - 기타대인서비스","category":"beauty"}]},{"lat":"37.57036701","long":"127.18266838","imageIndex":13,"items":[{"name":"하이어 헤어살롱","tel":"","addr":"경기도 하남시 망월동 988-1번지 1층","indutype":"보건위생 - 미용원","category":"beauty"}]},{"lat":"37.569151572","long":"127.19358852","imageIndex":13,"items":[{"name":"한명선 뷰티 갤러리","tel":"031-000-0000","addr":"경기도 하남시 망월동 924-1번지 101호","indutype":"보건위생 - 미용원","category":"beauty"},{"name":"한지연헤어","tel":"02-481-1269","addr":"경기도 하남시 망월동 924-1번지","indutype":"보건위생 - 미용원","category":"beauty"}]},{"lat":"37.570952042","long":"127.19450999","imageIndex":13,"items":[{"name":"허브블라썸","tel":"033-000-0000","addr":"경기도 하남시 망월동 941번지 1층 A-6 ,7,8","indutype":"보건위생 - 화장품","category":"beauty"}]},{"lat":"37.574870101","long":"127.18964106","imageIndex":13,"items":[{"name":"헤어발란스","tel":"031-794-4320","addr":"경기도 하남시 망월동 870-1번지 1층","indutype":"보건위생 - 미용원","category":"beauty"}]},{"lat":"37.57572694","long":"127.18906587","imageIndex":13,"items":[{"name":"헤어살롱 리파인","tel":"031-792-3396","addr":"경기도 하남시 망월동 841번지 101호","indutype":"보건위생 - 미용원","category":"beauty"}]},{"lat":"37.569620625","long":"127.18172708","imageIndex":13,"items":[{"name":"헤어살롱 베르시","tel":"031-793-2327","addr":"경기도 하남시 망월동 1022-6번지 1층 102호","indutype":"보건위생 - 미용원","category":"beauty"}]},{"lat":"37.56837105","long":"127.18578766","imageIndex":13,"items":[{"name":"헤어살롱나루","tel":"031-793-7758","addr":"경기도 하남시 망월동 978번지 2층 203호","indutype":"보건위생 - 미용원","category":"beauty"}]},{"lat":"37.562508237","long":"127.18989316","imageIndex":13,"items":[{"name":"헤어살롱나루 미사테라스점","tel":"031-792-6618","addr":"경기도 하남시 망월동 1098-3번지 더퍼스트테라스 3층 301호","indutype":"보건위생 - 미용원","category":"beauty"}]},{"lat":"37.570620127","long":"127.18211433","imageIndex":13,"items":[{"name":"헤어스토리","tel":"032-612-1414","addr":"경기도 하남시 망월동 1010-5번지 1층","indutype":"보건위생 - 미용원","category":"beauty"}]},{"lat":"37.56100724","long":"127.19325085","imageIndex":13,"items":[{"name":"헤어식스","tel":"031-8027-8765","addr":"경기도 하남시 망월동 1121-2번지 미사랑데르III 2층 207호","indutype":"보건위생 - 미용원","category":"beauty"}]}]