[{"lat":"37.39722309","long":"127.2765532","imageIndex":8,"items":[{"name":"e-편한치과의원","tel":"031-768-2757","addr":"경기도 광주시 쌍령동 368-9번지 CMA상가 202호","indutype":"의원 - 치과의원","category":"medical"},{"name":"푸른가정의원","tel":"031-769-2814","addr":"경기도 광주시 쌍령동 368-9번지 CMA상가 2층 201호","indutype":"의원 - 의원","category":"medical"},{"name":"하나약국","tel":"031-765-0199","addr":"경기도 광주시 쌍령동 368-9번지","indutype":"약국 - 약국","category":"medical"}]},{"lat":"37.40164009","long":"127.2717242","imageIndex":8,"items":[{"name":"늘품약국","tel":"031-763-8102","addr":"경기도 광주시 쌍령동 238-1번지 이레타워 101호","indutype":"약국 - 약국","category":"medical"},{"name":"바른플란트치과의원","tel":"031-797-7522","addr":"경기도 광주시 쌍령동 238-1번지 3층 302호","indutype":"의원 - 치과의원","category":"medical"}]},{"lat":"37.39758483","long":"127.2759786","imageIndex":8,"items":[{"name":"사랑나무한의원","tel":"031-766-9760","addr":"경기도 광주시 쌍령동 347-1번지 2층","indutype":"의원 - 한의원","category":"medical"}]},{"lat":"37.40994406","long":"127.2651687","imageIndex":8,"items":[{"name":"서울훼밀리의원","tel":"031-947-6025","addr":"경기도 광주시 쌍령동 48-45번지 교하일번가 401호","indutype":"의원 - 의원","category":"medical"}]},{"lat":"37.39703477","long":"127.2761686","imageIndex":8,"items":[{"name":"세보한의원","tel":"031-798-4175","addr":"경기도 광주시 쌍령동 353-34번지 제일빌딩 2층","indutype":"의원 - 한의원","category":"medical"}]}]