[{"lat":"37.323678769","long":"127.07640889","imageIndex":17,"items":[{"name":"(주)리빙디자인","tel":"031-264-4600","addr":"경기도 용인시 수지구 신봉동 40-2 208호~210호","indutype":"가구 - 일반가구","category":"other"},{"name":"(주)베라카닷컴","tel":"031-898-2115","addr":"경기도 용인시 수지구 신봉동 40-9 신봉종합상사1층","indutype":"의류 - 정장","category":"other"},{"name":"(주)이룸비젼","tel":"031-889-9339","addr":"경기도 용인시 수지구 신봉동 40-2번지 신봉종합상가 503호","indutype":"서적문구 - 기타서적문구","category":"other"},{"name":"더에이치복싱짐","tel":"031-898-0505","addr":"경기도 용인시 수지구 신봉동 40-2번지 신봉종합상가 5층 508호","indutype":"회원제형태 - 레져업소","category":"other"},{"name":"더카스","tel":"031-896-9700","addr":"경기도 용인시 수지구 신봉동 40-2번지 신봉종합상가지 지하층 101호","indutype":"신변잡화 - 제화","category":"other"},{"name":"라파엘주얼리수리센터","tel":"","addr":"경기도 용인시 수지구 신봉동 40-2번지 303-A호","indutype":"수리서비스 - 신변잡화수리","category":"other"},{"name":"바이오플러스","tel":"031-262-7639","addr":"경기도 용인시 수지구 신봉동 40-2번지 신봉종합상가 303-B호","indutype":"서적문구 - 과학기자재","category":"other"},{"name":"빨강섬아쿠아","tel":"031-889-1977","addr":"경기도 용인시 수지구 신봉동 40-2번지 신봉종합상가 401호","indutype":"문화.취미 - 애완동물","category":"other"},{"name":"아이보람수지센터 주식회사","tel":"070-8114-6403","addr":"경기도 용인시 수지구 신봉동 40-2번지 상록신봉종합상가 509호","indutype":"서적문구 - 일반서적","category":"other"},{"name":"예스케어치매전담형주야간보호센터","tel":"031-264-0048","addr":"경기도 용인시 수지구 신봉동 40-2번지 상록신봉종합상가 503호","indutype":"기타의료기관 - 기타의료기관 및 기타","category":"other"},{"name":"용인신봉동작심스페이스","tel":"031-276-0990","addr":"경기도 용인시 수지구 신봉동 40-2번지 상록신봉종합상가 4층 409호","indutype":"용역 서비스 - 사무서비스","category":"other"},{"name":"주식회사엠와이씨코리아","tel":"031-266-0616","addr":"경기도 용인시 수지구 신봉동 40-2번지 신봉종합상가 504호","indutype":"회원제형태 - 서적","category":"other"},{"name":"카피온","tel":"070-8849-7512","addr":"경기도 용인시 수지구 신봉동 40-2번지 신봉종합상가 2층 231호","indutype":"사무통신 - 사무용 OA기기","category":"other"},{"name":"컴앤오피스","tel":"031-265-8141","addr":"경기도 용인시 수지구 신봉동 40-2번지 신봉종합상가 231호","indutype":"사무통신 - 컴퓨터","category":"other"},{"name":"코지그린","tel":"","addr":"경기도 용인시 수지구 신봉동 40-2번지 상록신봉종합상가 2층 207호","indutype":"문화.취미 - 화원","category":"other"},{"name":"현성철물건재","tel":"031-261-4608","addr":"경기도 용인시 수지구 신봉동 40-2번지 엘지프라자 101호","indutype":"건축자재 - 목재·석재·철물","category":"other"}]},{"lat":"37.323173271","long":"127.07788637","imageIndex":17,"items":[{"name":"(주)바이칼휘트니스","tel":"031-264-7945","addr":"경기도 용인시 수지구 신봉동 33번지 센트럴500상가 비01,비02호","indutype":"레져용품 - 스포츠·레져용품","category":"other"},{"name":"ILYN(아이린)","tel":"02-1111-1111","addr":"경기도 용인시 수지구 신봉동 33번지 센트럴500상가 외7필지 123A호","indutype":"의류 - 정장","category":"other"},{"name":"더 시크","tel":"031-262-0056","addr":"경기도 용인시 수지구 신봉동 33번지 센트럴500상가 123호","indutype":"의류 - 정장","category":"other"},{"name":"도나수이","tel":"070-4922-1261","addr":"경기도 용인시 수지구 신봉동 33번지 센트럴500 1층 104호","indutype":"의류 - 정장","category":"other"},{"name":"드림디포(신봉점)","tel":"031-896-0478","addr":"경기도 용인시 수지구 신봉동 33번지 센트럴500상가 146호","indutype":"서적문구 - 문구용품","category":"other"},{"name":"랑 (Lang)","tel":"031-000-0000","addr":"경기도 용인시 수지구 신봉동 33번지 센트럴500 1층 139호","indutype":"의류 - 정장","category":"other"},{"name":"룰루","tel":"","addr":"경기도 용인시 수지구 신봉동 33번지 센트럴500 1층 134호","indutype":"의류 - 정장","category":"other"},{"name":"바바라(BARBARA)","tel":"031-323-6016","addr":"경기도 용인시 수지구 신봉동 33번지 센트럴500 1층 38호","indutype":"의류 - 정장","category":"other"},{"name":"별난별","tel":"031-266-5644","addr":"경기도 용인시 수지구 신봉동 33번지 129 외7필지센트럴상가","indutype":"의류 - 정장","category":"other"},{"name":"북스토리","tel":"031-896-8677","addr":"경기도 용인시 수지구 신봉동 33번지 센트럴 상가 406호","indutype":"서적문구 - 일반서적","category":"other"},{"name":"블루마린","tel":"031-276-2058","addr":"경기도 용인시 수지구 신봉동 33번지 센트럴500상가 1층 110-2호","indutype":"의류 - 정장","category":"other"},{"name":"센스","tel":"050-5365-8572","addr":"경기도 용인시 수지구 신봉동 33번지 센트럴500 상가동 1층 131호","indutype":"의류 - 정장","category":"other"},{"name":"셀럽","tel":"031-264-0012","addr":"경기도 용인시 수지구 신봉동 33번지 상가동 1층 110-1호","indutype":"의류 - 정장","category":"other"},{"name":"슈슈앤크라","tel":"031-261-3393","addr":"경기도 용인시 수지구 신봉동 33번지 1층 122호 센트럴500상가","indutype":"의류 - 정장","category":"other"},{"name":"엔즈","tel":"031-265-5829","addr":"경기도 용인시 수지구 신봉동 33번지 외7필지센트럴500상가제1층103호","indutype":"의류 - 정장","category":"other"},{"name":"위드","tel":"070-4095-4735","addr":"경기도 용인시 수지구 신봉동 33번지 센트럴500상가 102호","indutype":"의류 - 정장","category":"other"},{"name":"유니원뷰티클럽","tel":"031-264-8666","addr":"경기도 용인시 수지구 신봉동 33번지 센트럴500쇼핑몰 217호","indutype":"회원제형태 - 기타4","category":"other"},{"name":"이트 (it)","tel":"","addr":"경기도 용인시 수지구 신봉동 33번지 센트럴500 1층 109호","indutype":"의류 - 정장","category":"other"},{"name":"일공일","tel":"031-444-7874","addr":"경기도 용인시 수지구 신봉동 33번지 센트럴500 상가동 1층 101호","indutype":"의류 - 아동의류","category":"other"},{"name":"자연대리점","tel":"031-276-9925","addr":"경기도 용인시 수지구 신봉동 33번지 109호 센트럴500상가","indutype":"전기제품 - 기타전기제품","category":"other"},{"name":"코코","tel":"070-4922-1261","addr":"경기도 용인시 수지구 신봉동 33번지 외7필지 센트럴500상가 1층 110-2호","indutype":"의류 - 정장","category":"other"},{"name":"코코선","tel":"050-5365-8572","addr":"경기도 용인시 수지구 신봉동 33번지 센트럴500 1층 131A호","indutype":"의류 - 정장","category":"other"},{"name":"코코썬","tel":"0505-365-8572","addr":"경기도 용인시 수지구 신봉동 33번지 센트럴500 1층 131호","indutype":"의류 - 정장","category":"other"},{"name":"키즈도서관","tel":"031-265-7990","addr":"경기도 용인시 수지구 신봉동 33번지 센트럴500상가 318호","indutype":"서적문구 - 일반서적","category":"other"},{"name":"파리의연인","tel":"","addr":"경기도 용인시 수지구 신봉동 33번지 센트럴500상가 143호","indutype":"의류 - 정장","category":"other"},{"name":"포인트(Point)","tel":"031-264-0889","addr":"경기도 용인시 수지구 신봉동 33번지 센트럴 상가 124호,125호","indutype":"의류 - 기타의류","category":"other"},{"name":"플라워마켓 벨라","tel":"","addr":"경기도 용인시 수지구 신봉동 33번지 센트럴500 1층 142호","indutype":"문화.취미 - 화원","category":"other"}]},{"lat":"37.327007872","long":"127.06905573","imageIndex":17,"items":[{"name":"(주)세정디앤씨","tel":"031-264-0054","addr":"경기도 용인시 수지구 신봉동 973번지 B201 파크프라자","indutype":"용역 서비스 - 사무서비스","category":"other"},{"name":"알파크린","tel":"031-265-0277","addr":"경기도 용인시 수지구 신봉동 973번지 파크프라자","indutype":"수리서비스 - 세탁소","category":"other"},{"name":"핸드폰 아울렛/그린모바일 2호점","tel":"031-264-0300","addr":"경기도 용인시 수지구 신봉동 973번지 파크프라자 상가 1층 112,113호","indutype":"사무통신 - 통신기기","category":"other"}]},{"lat":"37.322839347","long":"127.07874348","imageIndex":17,"items":[{"name":"ALLO(알로)","tel":"031-263-3010","addr":"경기도 용인시 수지구 신봉동 21-7번지 1층","indutype":"의류 - 정장","category":"other"}]},{"lat":"37.334286533","long":"127.05405451","imageIndex":17,"items":[{"name":"FLS서적","tel":"031-421-3505","addr":"경기도 용인시 수지구 신봉동 704번지 삼성쉐르빌","indutype":"서적문구 - 일반서적","category":"other"}]},{"lat":"37.329033823","long":"127.07141568","imageIndex":17,"items":[{"name":"GS25광교산자이점","tel":"","addr":"경기도 용인시 수지구 신봉동 940-5번지 신봉택지개발지구알2블럭6롯트","indutype":"유통업 영리 - 편 의 점","category":"other"}]},{"lat":"37.332727423","long":"127.05485459","imageIndex":17,"items":[{"name":"GS25수지서봉점","tel":"031-2006-2485","addr":"경기도 용인시 수지구 신봉동 576-2번지","indutype":"유통업 영리 - 편 의 점","category":"other"}]},{"lat":"37.329873068","long":"127.06913722","imageIndex":17,"items":[{"name":"GS25신봉늘푸른점","tel":"","addr":"경기도 용인시 수지구 신봉동 933-4번지","indutype":"유통업 영리 - 편 의 점","category":"other"},{"name":"릴리스 (Lily's)","tel":"070-7781-7621","addr":"경기도 용인시 수지구 신봉동 933-4번지 1층 102호","indutype":"의류 - 정장","category":"other"},{"name":"스트로베리힐 (Strawberryhill)","tel":"070-8833-4856","addr":"경기도 용인시 수지구 신봉동 933-4번지 1층 103호","indutype":"문화.취미 - 화원","category":"other"}]},{"lat":"37.323479675","long":"127.07779641","imageIndex":17,"items":[{"name":"GS25신봉자이점","tel":"031-305-9943","addr":"경기도 용인시 수지구 신봉동 39-2번지 외2필지 신원빌딩 202호","indutype":"유통업 영리 - 편 의 점","category":"other"}]},{"lat":"37.322957254","long":"127.07752512","imageIndex":17,"items":[{"name":"H스튜디오","tel":"031-263-1023","addr":"경기도 용인시 수지구 신봉동 32번지 2층","indutype":"광학제품 - 사진관","category":"other"},{"name":"유노하이텍(UNOHITECH)","tel":"031-266-4579","addr":"경기도 용인시 수지구 신봉동 32번지","indutype":"사무통신 - 통신기기","category":"other"}]},{"lat":"37.32659123","long":"127.07283509","imageIndex":17,"items":[{"name":"LG세탁반장","tel":"031-272-7780","addr":"경기도 용인시 수지구 신봉동 870번지 LG빌리지5차상가 110호","indutype":"수리서비스 - 세탁소","category":"other"},{"name":"국제시스템온칩설계학회 (ISOCC)","tel":"031-789-7100","addr":"경기도 용인시 수지구 신봉동 870번지 신봉마을엘지빌리지5차 502동 1604호","indutype":"용역 서비스 - 사무서비스","category":"other"},{"name":"늘푸른인테리어","tel":"031-000-0000","addr":"경기도 용인시 수지구 신봉동 870번지 신봉마을 엘지빌리지5차 상가동 106호","indutype":"건축자재 - 인테리어전문","category":"other"},{"name":"신봉엘지공인중개사","tel":"031-261-3344","addr":"경기도 용인시 수지구 신봉동 870 엘지빌리지 5차단지내상가 106","indutype":"용역 서비스 - 부동산 중개·임대","category":"other"},{"name":"싱크닥터","tel":"","addr":"경기도 용인시 수지구 신봉동 870번지 신봉마을엘지빌리지5차 502동 1701호","indutype":"전기제품 - 가전제품","category":"other"},{"name":"에스지에이","tel":"031-8202-3851","addr":"경기도 용인시 수지구 신봉동 870번지 신봉마을엘지빌리지5차 507동 1201호","indutype":"회원제형태 - 레져업소","category":"other"},{"name":"오밍(O. ming)","tel":"070-4095-2387","addr":"경기도 용인시 수지구 신봉동 870번지 신봉마을엘지빌리지5차","indutype":"신변잡화 - 액세서리","category":"other"}]},{"lat":"37.325119085","long":"127.07849756","imageIndex":17,"items":[{"name":"가인애드","tel":"031-757-2015","addr":"경기도 용인시 수지구 신봉동 873번지 신봉마을엘지자이1차아파트 108동 703호","indutype":"건축자재 - 인테리어전문","category":"other"}]},{"lat":"37.32820916","long":"127.07915507","imageIndex":17,"items":[{"name":"고충민원행정사","tel":"031-262-2068","addr":"경기도 용인시 수지구 신봉동 873번지 신봉마을엘지자이1차아파트","indutype":"용역 서비스 - 법률회계서비스(개인)","category":"other"}]},{"lat":"37.335060263","long":"127.05663908","imageIndex":17,"items":[{"name":"그린 그린","tel":"031-493-3889","addr":"경기도 용인시 수지구 신봉동 1024번지 305동 304호 광교산한양수자인더킨포크","indutype":"신변잡화 - 기타잡화","category":"other"},{"name":"홀리디자인","tel":"","addr":"경기도 용인시 수지구 신봉동 1024번지 광교산한양수자인더킨포크 404동 1층 1호","indutype":"용역 서비스 - 사무서비스","category":"other"}]},{"lat":"37.326564525","long":"127.07228221","imageIndex":17,"items":[{"name":"그린스포츠","tel":"031-758-1126","addr":"경기도 용인시 수지구 신봉동 870번지 신봉마을엘지빌리지5차 513동 1603호","indutype":"레져용품 - 스포츠·레져용품","category":"other"}]},{"lat":"37.328479907","long":"127.07846708","imageIndex":17,"items":[{"name":"금강고려건업","tel":"031-241-5971","addr":"경기도 용인시 수지구 신봉동 873번지 신봉마을엘지자이1차아파트","indutype":"건축자재 - 기타건축자재","category":"other"}]},{"lat":"37.323596044","long":"127.07899245","imageIndex":17,"items":[{"name":"꼭봄","tel":"070-7692-8212","addr":"경기도 용인시 수지구 신봉동 46-3번지 신봉프라자 117-2호","indutype":"문화.취미 - 화원","category":"other"},{"name":"스타일스파이","tel":"070-4192-0415","addr":"경기도 용인시 수지구 신봉동 46-3번지 신봉프라자 가동 117호","indutype":"의류 - 정장","category":"other"},{"name":"올리브그린","tel":"031-281-6354","addr":"경기도 용인시 수지구 신봉동 46-3번지 신봉프라자 115호","indutype":"의류 - 기타의류","category":"other"},{"name":"잉북스","tel":"02-1588-4071","addr":"경기도 용인시 수지구 신봉동 46-3번지 외4필지제가동1층109호","indutype":"서적문구 - 일반서적","category":"other"}]},{"lat":"37.338726258","long":"127.05911301","imageIndex":17,"items":[{"name":"꽃과나무와사람들","tel":"031-264-2524","addr":"경기도 용인시 수지구 신봉동 461-2","indutype":"문화.취미 - 화원","category":"other"}]},{"lat":"37.324644734","long":"127.07332971","imageIndex":17,"items":[{"name":"꿈","tel":"031-262-8489","addr":"경기도 용인시 수지구 신봉동 105-8번지 가동 107호","indutype":"의류 - 정장","category":"other"},{"name":"메인","tel":"031-272-3592","addr":"경기도 용인시 수지구 신봉동 105-8번지 가동 106호","indutype":"의류 - 정장","category":"other"},{"name":"예원","tel":"031-263-4601","addr":"경기도 용인시 수지구 신봉동 105-8번지 상가동 102호","indutype":"수리서비스 - 세탁소","category":"other"},{"name":"인디코코","tel":"","addr":"경기도 용인시 수지구 신봉동 105-8번지 가동 1층 101호","indutype":"의류 - 정장","category":"other"},{"name":"정평 송바이크","tel":"031-272-6379","addr":"경기도 용인시 수지구 신봉동 105-8번지 가동 103호","indutype":"레져용품 - 스포츠·레져용품","category":"other"},{"name":"플러스인테리어","tel":"031-261-5201","addr":"경기도 용인시 수지구 신봉동 105-8번지 1층 104호","indutype":"건축자재 - 인테리어전문","category":"other"}]},{"lat":"37.327673525","long":"127.07099697","imageIndex":17,"items":[{"name":"냄새잡는 아이트랩","tel":"031-1666-7993","addr":"경기도 용인시 수지구 신봉동 960번지 광교산자이 107동 1204호","indutype":"신변잡화 - 기타잡화","category":"other"},{"name":"바름캔들 (Verm candle)","tel":"","addr":"경기도 용인시 수지구 신봉동 960번지 광교산자이 104동 103호","indutype":"신변잡화 - 기타잡화","category":"other"},{"name":"아윤테크","tel":"","addr":"경기도 용인시 수지구 신봉동 960번지 104호 703호","indutype":"전기제품 - 가전제품","category":"other"},{"name":"에티엔느","tel":"","addr":"경기도 용인시 수지구 신봉동 960번지 광교신자이 105동 302호","indutype":"의류 - 정장","category":"other"},{"name":"폴앤필립디티에이","tel":"02-3437-8956","addr":"경기도 용인시 수지구 신봉동 960번지 광교산자이 104동 104호","indutype":"용역 서비스 - 사무서비스","category":"other"}]},{"lat":"37.325469654","long":"127.07978412","imageIndex":17,"items":[{"name":"넘버원콜밴서비스","tel":"","addr":"경기도 용인시 수지구 신봉동 873번지 신봉마을엘지자이1차아파트","indutype":"여행 - 기타교통수단","category":"other"}]},{"lat":"37.328340917","long":"127.06988056","imageIndex":17,"items":[{"name":"노블하라","tel":"070-8615-1269","addr":"경기도 용인시 수지구 신봉동 959번지 신봉마을센트레빌1차 101 101호1501동","indutype":"회원제형태 - 기타4","category":"other"},{"name":"지우개칠판","tel":"031-3444-7874","addr":"경기도 용인시 수지구 신봉동 244번지 신봉마을센트레빌1차 103동 301호","indutype":"회원제형태 - 기타4","category":"other"}]},{"lat":"37.32862288","long":"127.06502909","imageIndex":17,"items":[{"name":"느린오후","tel":"","addr":"경기도 용인시 수지구 신봉동 976번지 신봉마을동일하이빌4단지 402동 701호","indutype":"신변잡화 - 액세서리","category":"other"}]},{"lat":"37.323036923","long":"127.0797478","imageIndex":17,"items":[{"name":"다담D&I","tel":"031-266-4922","addr":"경기도 용인시 수지구 신봉동 50-2번지 뉴골드프라자 1동 107호","indutype":"건축자재 - 인테리어전문","category":"other"},{"name":"디케이통상","tel":"","addr":"경기도 용인시 수지구 신봉동 50-2번지 뉴골드프라자 1동 1층 115호","indutype":"의류 - 정장","category":"other"},{"name":"민이네컴퓨터","tel":"031-272-2223","addr":"경기도 용인시 수지구 신봉동 50-2번지 뉴골드프라자 A동 102호","indutype":"사무통신 - 컴퓨터","category":"other"},{"name":"이투스수학신봉학원","tel":"070-7724-0979","addr":"경기도 용인시 수지구 신봉동 50-2번지 뉴골드프라자 1동 303호","indutype":"용역 서비스 - 사무서비스","category":"other"},{"name":"한승","tel":"031-263-6149","addr":"경기도 용인시 수지구 신봉동 50-2번지 뉴골드프라자A동104호110동 A동 104호","indutype":"서적문구 - 문구용품","category":"other"},{"name":"히트정보통신","tel":"031-263-9966","addr":"경기도 용인시 수지구 신봉동 50-2번지 뉴골드프라자 제 1층 115호","indutype":"사무통신 - 통신기기","category":"other"}]},{"lat":"37.332731632","long":"127.06482937","imageIndex":17,"items":[{"name":"다해요리연구소","tel":"","addr":"경기도 용인시 수지구 신봉동 946번지 신봉마을동부센트레빌6단지","indutype":"문화.취미 - 문화취미기타","category":"other"},{"name":"제이앤엠 (J&M)교육사","tel":"031-262-1610","addr":"경기도 용인시 수지구 신봉동 946번지 신봉마을동부센트레빌6단지","indutype":"서적문구 - 일반서적","category":"other"}]},{"lat":"37.332147559","long":"127.06171462","imageIndex":17,"items":[{"name":"대동금속산업(주)","tel":"031-261-4679","addr":"경기도 용인시 수지구 신봉동 385-2번지","indutype":"건축자재 - 목재·석재·철물","category":"other"}]},{"lat":"37.329539754","long":"127.0690241","imageIndex":17,"items":[{"name":"대한민국세탁1번가","tel":"031-266-1544","addr":"경기도 용인시 수지구 신봉동 953번지","indutype":"수리서비스 - 세탁소","category":"other"}]},{"lat":"37.323495062","long":"127.08184677","imageIndex":17,"items":[{"name":"더 웰니스 컴퍼니","tel":"02-795-4698","addr":"경기도 용인시 수지구 신봉동 880번지 서홍마을한화꿈에그린","indutype":"회원제형태 - 레져업소","category":"other"}]},{"lat":"37.328790226","long":"127.07196833","imageIndex":17,"items":[{"name":"데즐","tel":"031-266-2601","addr":"경기도 용인시 수지구 신봉동 945번지 104호","indutype":"의류 - 정장","category":"other"}]},{"lat":"37.331227736","long":"127.06327102","imageIndex":17,"items":[{"name":"도도산업","tel":"031-276-8711","addr":"경기도 용인시 수지구 신봉동 377번지","indutype":"가구 - 일반가구","category":"other"}]},{"lat":"37.330762376","long":"127.07379804","imageIndex":17,"items":[{"name":"도연싸이언스","tel":"070-7528-3894","addr":"경기도 용인시 수지구 신봉동 911번지 신봉마을자이2차아파트","indutype":"회원제형태 - 서적","category":"other"},{"name":"재원싸이언스","tel":"031-264-3777","addr":"경기도 용인시 수지구 신봉동 911번지 신봉마을자이2차아파트","indutype":"서적문구 - 기타서적문구","category":"other"}]},{"lat":"37.322874864","long":"127.07955584","imageIndex":17,"items":[{"name":"동아문화센터","tel":"","addr":"경기도 용인시 수지구 신봉동 49-1번지 3층","indutype":"서적문구 - 일반서적","category":"other"}]},{"lat":"37.322785797","long":"127.07794239","imageIndex":17,"items":[{"name":"두나미스(DUNAMIS)","tel":"070-7420-6481","addr":"경기도 용인시 수지구 신봉동 23-1번지 인용빌딩 1층 104호 일부","indutype":"의류 - 정장","category":"other"},{"name":"엘도르","tel":"070-4232-3273","addr":"경기도 용인시 수지구 신봉동 23-1번지 인용빌딩 104호","indutype":"신변잡화 - 액세서리","category":"other"},{"name":"청담화랑","tel":"031-276-4241","addr":"경기도 용인시 수지구 신봉동 23-1번지 인용빌딩 112호","indutype":"문화.취미 - 화방·표구점","category":"other"},{"name":"토즈멤버십라운지 신봉센터","tel":"031-266-5379","addr":"경기도 용인시 수지구 신봉동 23-1번지 인용빌딩 3층 301호","indutype":"용역 서비스 - 사무서비스","category":"other"},{"name":"플람조명","tel":"031-263-7393","addr":"경기도 용인시 수지구 신봉동 23-1번지 인용빌딩 109호","indutype":"건축자재 - 조명기구","category":"other"},{"name":"하이점프스쿨","tel":"031-265-0101","addr":"경기도 용인시 수지구 신봉동 23-1번지 인용빌딩 203동 204호","indutype":"회원제형태 - 레져업소","category":"other"}]},{"lat":"37.323930077","long":"127.0779661","imageIndex":17,"items":[{"name":"두뇌로 D.F.G","tel":"070-3548-5691","addr":"경기도 용인시 수지구 신봉동 43-3번지 백산상가 1동 2층 202호","indutype":"서적문구 - 일반서적","category":"other"}]},{"lat":"37.324146707","long":"127.07735706","imageIndex":17,"items":[{"name":"드림비젼","tel":"070-8806-9016","addr":"경기도 용인시 수지구 신봉동 82-4번지 홍천말프라자 1층 107호 2호","indutype":"사무통신 - 통신기기","category":"other"}]},{"lat":"37.319061697","long":"127.08236109","imageIndex":17,"items":[{"name":"디엔디인테리어/디엔디아이디(주)","tel":"031-272-3444","addr":"경기도 용인시 수지구 신봉동 907번지 아농스빌딩 101호","indutype":"건축자재 - 인테리어전문","category":"other"},{"name":"디픽트 플라워","tel":"070-8880-1113","addr":"경기도 용인시 수지구 신봉동 907번지 아농스빌딩 105호","indutype":"문화.취미 - 화원","category":"other"},{"name":"라미야","tel":"070-4404-3695","addr":"경기도 용인시 수지구 신봉동 907번지 아농스빌딩 107호","indutype":"기타 - 기타 전문점","category":"other"},{"name":"분당과외클리닉(CLINIC)","tel":"031-262-4047","addr":"경기도 용인시 수지구 신봉동 907번지 아농스빌딩 303호","indutype":"회원제형태 - 기타4","category":"other"}]},{"lat":"37.322479011","long":"127.0786303","imageIndex":17,"items":[{"name":"라이팅피아","tel":"031-261-0024","addr":"경기도 용인시 수지구 신봉동 25-1번지 엘지프라자 1층 110호","indutype":"건축자재 - 조명기구","category":"other"},{"name":"리안하우스","tel":"031-889-7080","addr":"경기도 용인시 수지구 신봉동 25-1번지 LG프라자 105호","indutype":"신변잡화 - 기타잡화","category":"other"},{"name":"비비안펫샵","tel":"031-263-6332","addr":"경기도 용인시 수지구 신봉동 25-1번지 LG프라자 1층 103호","indutype":"문화.취미 - 애완동물","category":"other"},{"name":"신영GMB","tel":"031-281-6868","addr":"경기도 용인시 수지구 신봉동 25-1번지 LG프라자 B01호","indutype":"용역 서비스 - 사무서비스","category":"other"},{"name":"심플소잉엔씨씨 용인신봉점","tel":"031-264-3769","addr":"경기도 용인시 수지구 신봉동 25-1번지 LG프라자 108호","indutype":"직물 - 옷감·직물","category":"other"},{"name":"에스더 필라테스","tel":"031-272-8891","addr":"경기도 용인시 수지구 신봉동 25-1번지 엘지프라자 203호","indutype":"회원제형태 - 레져업소","category":"other"},{"name":"영이네 전자담배","tel":"031-272-7709","addr":"경기도 용인시 수지구 신봉동 25-1번지 LG프라자 104호","indutype":"기타 - 기타 전문점","category":"other"},{"name":"의류병원","tel":"031-261-7673","addr":"경기도 용인시 수지구 신봉동 25-1번지 LG프라자 107호","indutype":"수리서비스 - 세탁소","category":"other"},{"name":"주식회사 티엘에스","tel":"","addr":"경기도 용인시 수지구 신봉동 25-1번지 LG프라자 2층 204호","indutype":"서적문구 - 과학기자재","category":"other"},{"name":"퀀텀에너지 경기동부총판","tel":"031-262-1399","addr":"경기도 용인시 수지구 신봉동 25-1번지 외2필지 LG프라자 3층 305호","indutype":"직물 - 침구·수예점","category":"other"}]},{"lat":"37.31973683","long":"127.08329819","imageIndex":17,"items":[{"name":"로봇클럽&창의클럽수지점","tel":"031-265-2697","addr":"경기도 용인시 수지구 신봉동 909번지 수지이마트","indutype":"서적문구 - 과학기자재","category":"other"},{"name":"범우플라워","tel":"031-263-5374","addr":"경기도 용인시 수지구 신봉동 신봉택지개발지구17블럭이마트1층화원","indutype":"문화.취미 - 화원","category":"other"},{"name":"수지스피드서비스","tel":"031-276-8044","addr":"경기도 용인시 수지구 신봉동 909번지 E마트 3층","indutype":"건축자재 - 목재·석재·철물","category":"other"}]},{"lat":"37.329554343","long":"127.07490266","imageIndex":17,"items":[{"name":"로샤수지브랜드센터","tel":"070-2699-0807","addr":"경기도 용인시 수지구 신봉동 911번지 신봉마을자이2차아파트","indutype":"의류 - 내의판매","category":"other"}]},{"lat":"37.330928575","long":"127.06674607","imageIndex":17,"items":[{"name":"로아(ROA)","tel":"070-5022-4846","addr":"경기도 용인시 수지구 신봉동 949번지 신봉마을동부센트레빌5단지","indutype":"회원제형태 - 서적","category":"other"}]},{"lat":"37.325960809","long":"127.07233807","imageIndex":17,"items":[{"name":"리멤버휴","tel":"031-410-9529","addr":"경기도 용인시 수지구 신봉동 870번지 신봉마을엘지빌리지5차 511동 202호","indutype":"신변잡화 - 기타잡화","category":"other"}]},{"lat":"37.324730042","long":"127.08096803","imageIndex":17,"items":[{"name":"리온(REON)","tel":"031-263-0232","addr":"경기도 용인시 수지구 신봉동 874번지 서홍마을한일아파트","indutype":"회원제형태 - 기타4","category":"other"}]},{"lat":"37.330953871","long":"127.06988288","imageIndex":17,"items":[{"name":"맛보다 스튜디오","tel":"070-5111-5111","addr":"경기도 용인시 수지구 신봉동 235-5번지 205호","indutype":"광학제품 - 사진관","category":"other"}]},{"lat":"37.338617158","long":"127.06113287","imageIndex":17,"items":[{"name":"메르베일","tel":"031-266-4224","addr":"경기도 용인시 수지구 신봉동 455-12번지","indutype":"의류 - 내의판매","category":"other"}]},{"lat":"37.328032927","long":"127.07272359","imageIndex":17,"items":[{"name":"몽드(Monde)","tel":"031-000-0000","addr":"경기도 용인시 수지구 신봉동 138-1번지 1층","indutype":"의류 - 정장","category":"other"},{"name":"뮤제이(MUSEI)","tel":"02-1111-1111","addr":"경기도 용인시 수지구 신봉동 138-1번지","indutype":"의류 - 정장","category":"other"}]},{"lat":"37.331172066","long":"127.0464135","imageIndex":17,"items":[{"name":"몽마스튜디오","tel":"031-272-5164","addr":"경기도 용인시 수지구 신봉동 759-9번지","indutype":"광학제품 - 사진관","category":"other"}]},{"lat":"37.32809472","long":"127.07485614","imageIndex":17,"items":[{"name":"미니스톱수지신봉점","tel":"031-1577-9621","addr":"경기도 용인시 수지구 신봉동 925번지 웰스톤시티에비뉴 2동 B116호","indutype":"유통업 영리 - 편 의 점","category":"other"},{"name":"수지댁 (suj idack)","tel":"","addr":"경기도 용인시 수지구 신봉동 925번지 웰스톤시티 104동 409호","indutype":"신변잡화 - 액세서리","category":"other"},{"name":"희유","tel":"","addr":"경기도 용인시 수지구 신봉동 925번지 웰스톤시티 101동 415호","indutype":"신변잡화 - 기타잡화","category":"other"}]},{"lat":"37.327756032","long":"127.06849224","imageIndex":17,"items":[{"name":"미리(milee)","tel":"070-4686-1906","addr":"경기도 용인시 수지구 신봉동 969번지 동광프라자 108호","indutype":"의류 - 정장","category":"other"}]},{"lat":"37.325149338","long":"127.07327377","imageIndex":17,"items":[{"name":"밀라노","tel":"","addr":"경기도 용인시 수지구 신봉동 126-1번지 대흥빌딩","indutype":"의류 - 정장","category":"other"},{"name":"씨유수지LG빌리지점","tel":"031-262-5158","addr":"경기도 용인시 수지구 신봉동 126-1번지 대흥빌딩 1층 107호","indutype":"유통업 영리 - 편 의 점","category":"other"},{"name":"주식회사 밤톨디자인","tel":"031-266-4422","addr":"경기도 용인시 수지구 신봉동 126-1번지 대흥빌딩 103호","indutype":"건축자재 - 인테리어전문","category":"other"}]},{"lat":"37.32661612","long":"127.07636662","imageIndex":17,"items":[{"name":"반아컴퍼니(BAN.A Company)","tel":"","addr":"경기도 용인시 수지구 신봉동 873번지 신봉마을엘지자이1차아파트","indutype":"레져용품 - 스포츠·레져용품","category":"other"}]},{"lat":"37.323534028","long":"127.07733389","imageIndex":17,"items":[{"name":"베스트세탁소","tel":"031-263-0824","addr":"경기도 용인시 수지구 신봉동 39번지 에덴파크2상가동 109호","indutype":"수리서비스 - 세탁소","category":"other"},{"name":"아이스크림가게","tel":"031-266-2465","addr":"경기도 용인시 수지구 신봉동 39번지 에덴파크2 1층 109호","indutype":"유통업 영리 - 편 의 점","category":"other"}]},{"lat":"37.334726264","long":"127.05799292","imageIndex":17,"items":[{"name":"베스트올 수지신봉점","tel":"031-000-0000","addr":"경기도 용인시 수지구 신봉동 495-5번지 102호","indutype":"유통업 영리 - 편 의 점","category":"other"},{"name":"베스트올 신봉점","tel":"031-000-0000","addr":"경기도 용인시 수지구 신봉동 495-5번지 103호","indutype":"유통업 영리 - 편 의 점","category":"other"}]},{"lat":"37.325174405","long":"127.0765006","imageIndex":17,"items":[{"name":"보늬","tel":"070-4207-6995","addr":"경기도 용인시 수지구 신봉동 87-5번지 미래상가 116호","indutype":"신변잡화 - 액세서리","category":"other"},{"name":"유나","tel":"0505-922-1234","addr":"경기도 용인시 수지구 신봉동 87-5번지 미래 상가 205호","indutype":"용역 서비스 - 사무서비스","category":"other"}]},{"lat":"37.327762213","long":"127.0734116","imageIndex":17,"items":[{"name":"부동산써브신봉공인중개사","tel":"031-265-8900","addr":"경기도 용인시 수지구 신봉동 144번지 태천빌딩 103호","indutype":"용역 서비스 - 부동산 중개·임대","category":"other"}]},{"lat":"37.327355485","long":"127.07550984","imageIndex":17,"items":[{"name":"블럭아카데미수지신봉교육원","tel":"031-265-2321","addr":"경기도 용인시 수지구 신봉동 911번지 신봉마을자이2차아파트","indutype":"서적문구 - 완구점","category":"other"}]},{"lat":"37.326582039","long":"127.07313971","imageIndex":17,"items":[{"name":"비언","tel":"","addr":"경기도 용인시 수지구 신봉동 870번지 신봉마을LG빌리지5차 514동 103호","indutype":"의류 - 정장","category":"other"}]},{"lat":"37.327645429","long":"127.07282478","imageIndex":17,"items":[{"name":"사단법인 한국스포츠복지회","tel":"031-272-0047","addr":"경기도 용인시 수지구 신봉동 141-5번지 아트프라자 301호","indutype":"기타의료기관 - 기타의료기관 및 기타","category":"other"},{"name":"수지실버요양원","tel":"031-272-0047","addr":"경기도 용인시 수지구 신봉동 141-5번지 아트프라자 304호","indutype":"기타의료기관 - 기타의료기관 및 기타","category":"other"},{"name":"수지실버주야간보호센터","tel":"031-272-0047","addr":"경기도 용인시 수지구 신봉동 141-5번지 아트프라자 304호","indutype":"기타의료기관 - 기타의료기관 및 기타","category":"other"},{"name":"해피라이프 요양원","tel":"031-272-1024","addr":"경기도 용인시 수지구 신봉동 141-5번지 아트프라자 201,301호","indutype":"기타의료기관 - 기타의료기관 및 기타","category":"other"}]},{"lat":"37.333206135","long":"127.05211297","imageIndex":17,"items":[{"name":"사라","tel":"","addr":"경기도 용인시 수지구 신봉동 640-8번지 1층","indutype":"의류 - 정장","category":"other"}]},{"lat":"37.327924577","long":"127.07310711","imageIndex":17,"items":[{"name":"산봉엘지자이2차(크린토피아)","tel":"031-896-8256","addr":"경기도 용인시 수지구 신봉동 145-1번지","indutype":"수리서비스 - 세탁소","category":"other"}]},{"lat":"37.323872395","long":"127.08347183","imageIndex":17,"items":[{"name":"서울양재로타리클럽","tel":"031-702-8491","addr":"경기도 용인시 수지구 신봉동 876번지 서홍마을벽산블루밍 204동 1501호","indutype":"신변잡화 - 기타잡화","category":"other"},{"name":"지우개","tel":"031-251-5179","addr":"경기도 용인시 수지구 신봉동 876번지 서홍마을벽산블루밍","indutype":"회원제형태 - 기타3","category":"other"}]},{"lat":"37.333730946","long":"127.04644883","imageIndex":17,"items":[{"name":"세라믹스튜디오작연","tel":"031-761-7409","addr":"경기도 용인시 수지구 신봉동 752-9번지","indutype":"문화.취미 - 문화취미기타","category":"other"}]},{"lat":"37.326234678","long":"127.06597487","imageIndex":17,"items":[{"name":"세븐유통","tel":"070-7126-4942","addr":"경기도 용인시 수지구 신봉동 985번지 신봉마을동일하이빌3차 302동 401호","indutype":"회원제형태 - 기타1","category":"other"},{"name":"스마트-폼","tel":"031-890-1759","addr":"경기도 용인시 수지구 신봉동 985번지 신봉마을동일하이빌3차 304동 1301호","indutype":"회원제형태 - 기타4","category":"other"},{"name":"웬아이워즈영","tel":"070-8883-5612","addr":"경기도 용인시 수지구 신봉동 985번지 신봉마을동일하이빌3단지","indutype":"의류 - 정장","category":"other"}]},{"lat":"37.333894461","long":"127.04266884","imageIndex":17,"items":[{"name":"스노우폴코리아","tel":"031-222-0288","addr":"경기도 용인시 수지구 신봉동 765-17번지","indutype":"전기제품 - 가전제품","category":"other"}]},{"lat":"37.320181266","long":"127.07885363","imageIndex":17,"items":[{"name":"스마트냉열","tel":"","addr":"경기도 용인시 수지구 신봉동 912번지 신봉마을자이3차","indutype":"용역 서비스 - 기타용역서비스","category":"other"}]},{"lat":"37.327951775","long":"127.07282507","imageIndex":17,"items":[{"name":"스터디카페","tel":"031-266-8209","addr":"경기도 용인시 수지구 신봉동 138-2번지 5층","indutype":"용역 서비스 - 사무서비스","category":"other"}]},{"lat":"37.33365075","long":"127.04394378","imageIndex":17,"items":[{"name":"스튜디오헤롯","tel":"031-000-0000","addr":"경기도 용인시 수지구 신봉동 764번지 1층","indutype":"광학제품 - 사진관","category":"other"}]},{"lat":"37.330179754","long":"127.06852819","imageIndex":17,"items":[{"name":"스프리스","tel":"070-7848-9305","addr":"경기도 용인시 수지구 신봉동 933번지 1층","indutype":"의류 - 정장","category":"other"},{"name":"워시테리아 수지 신봉","tel":"","addr":"경기도 용인시 수지구 신봉동 933번지 1층 102호","indutype":"수리서비스 - 세탁소","category":"other"}]},{"lat":"37.323201362","long":"127.07619406","imageIndex":17,"items":[{"name":"신봉문고","tel":"031-896-2710","addr":"경기도 용인시 수지구 신봉동 109번지 101호","indutype":"서적문구 - 일반서적","category":"other"}]},{"lat":"37.333144449","long":"127.04866011","imageIndex":17,"items":[{"name":"신봉스크린골프","tel":"031-262-3118","addr":"경기도 용인시 수지구 신봉동 664번지","indutype":"회원제형태 - 레져업소","category":"other"}]},{"lat":"37.322872715","long":"127.08280511","imageIndex":17,"items":[{"name":"신봉퍼스트공인중개사사무소","tel":"031-265-6666","addr":"경기도 용인시 수지구 신봉동 1-1번지 도시개발사업지구동부센트레빌 상가 104호","indutype":"용역 서비스 - 부동산 중개·임대","category":"other"}]},{"lat":"37.320511191","long":"127.08405489","imageIndex":17,"items":[{"name":"씨엘파트너스(CL Partners)","tel":"070-4258-0808","addr":"경기도 용인시 수지구 신봉동 899번지 부광타워 5층 502호","indutype":"전기제품 - 가전제품","category":"other"}]},{"lat":"37.32900809","long":"127.06913646","imageIndex":17,"items":[{"name":"씨유수지신봉로점","tel":"031-754-6935","addr":"경기도 용인시 수지구 신봉동 955-2번지","indutype":"유통업 영리 - 편 의 점","category":"other"}]},{"lat":"37.323290788","long":"127.07727724","imageIndex":17,"items":[{"name":"알파용인신봉점","tel":"031-896-9823","addr":"경기도 용인시 수지구 신봉동 31번지 홍천말프라자 지하층 01호 제비","indutype":"서적문구 - 문구용품","category":"other"}]},{"lat":"37.325942342","long":"127.07309399","imageIndex":17,"items":[{"name":"에스디지교육(SDG Edu)","tel":"031-276-0568","addr":"경기도 용인시 수지구 신봉동 870번지 신봉마을엘지빌리지5차 510동 1001호","indutype":"서적문구 - 일반서적","category":"other"}]},{"lat":"37.332981918","long":"127.04955142","imageIndex":17,"items":[{"name":"에스엠라운지","tel":"031-896-3765","addr":"경기도 용인시 수지구 신봉동 663-10번지 파랑새 2층","indutype":"주방용구 - 주방용구","category":"other"}]},{"lat":"37.321313199","long":"127.08390909","imageIndex":17,"items":[{"name":"엘리시아디자인","tel":"031-266-7723","addr":"경기도 용인시 수지구 신봉동 888-3번지","indutype":"건축자재 - 인테리어전문","category":"other"}]},{"lat":"37.328671782","long":"127.0741797","imageIndex":17,"items":[{"name":"엠베스트SE용인지사","tel":"031-261-3366","addr":"경기도 용인시 수지구 신봉동 911번지 신봉마을자이2차아파트","indutype":"용역 서비스 - 사무서비스","category":"other"}]},{"lat":"37.319676171","long":"127.07966541","imageIndex":17,"items":[{"name":"엠비메탈(MB METALS CO.)","tel":"031-896-2344","addr":"경기도 용인시 수지구 신봉동 905번지 서홍마을우남퍼스트빌","indutype":"회원제형태 - 기타4","category":"other"}]},{"lat":"37.324261609","long":"127.08082088","imageIndex":17,"items":[{"name":"연희맘","tel":"031-307-4507","addr":"경기도 용인시 수지구 신봉동 874번지 서홍마을한일아파트","indutype":"신변잡화 - 액세서리","category":"other"}]},{"lat":"37.319179582","long":"127.08123305","imageIndex":17,"items":[{"name":"올리브파이","tel":"031-262-6508","addr":"경기도 용인시 수지구 신봉동 905번지 서홍마을우남퍼스트빌","indutype":"의류 - 정장","category":"other"}]},{"lat":"37.332258132","long":"127.0565581","imageIndex":17,"items":[{"name":"올인 스파르타 스터디 카페","tel":"031-262-0975","addr":"경기도 용인시 수지구 신봉동 602번지","indutype":"용역 서비스 - 사무서비스","category":"other"}]},{"lat":"37.33292803","long":"127.04911132","imageIndex":17,"items":[{"name":"요이(Yo.E)공방","tel":"031-272-0033","addr":"경기도 용인시 수지구 신봉동 663-9번지","indutype":"문화.취미 - 민예·공예품","category":"other"}]},{"lat":"37.327302274","long":"127.07411071","imageIndex":17,"items":[{"name":"웅산","tel":"02-414-1640","addr":"경기도 용인시 수지구 신봉동 870번지 신봉마을엘지빌리지5차 509동 1201호","indutype":"서적문구 - 과학기자재","category":"other"}]},{"lat":"37.327038133","long":"127.07869129","imageIndex":17,"items":[{"name":"은혜유통","tel":"031-302-9905","addr":"경기도 용인시 수지구 신봉동 873번지 신봉마을엘지자이1차아파트","indutype":"회원제형태 - 기타1","category":"other"}]},{"lat":"37.323803474","long":"127.07868804","imageIndex":17,"items":[{"name":"이안 인테리어","tel":"","addr":"경기도 용인시 수지구 신봉동 43번지 백산빌딩 3동 106호","indutype":"건축자재 - 인테리어전문","category":"other"},{"name":"크린토피아신봉점","tel":"031-272-9478","addr":"경기도 용인시 수지구 신봉동 43번지 백산 상가 3동 104호","indutype":"수리서비스 - 세탁소","category":"other"}]},{"lat":"37.331422132","long":"127.0703572","imageIndex":17,"items":[{"name":"인코블","tel":"031-262-9001","addr":"경기도 용인시 수지구 신봉동 234-10번지 1층 101호","indutype":"기타 - 기계공구","category":"other"}]},{"lat":"37.322262404","long":"127.07919419","imageIndex":17,"items":[{"name":"인테리어봄","tel":"031-264-0625","addr":"경기도 용인시 수지구 신봉동 26-2번지","indutype":"건축자재 - 인테리어전문","category":"other"}]},{"lat":"37.329464943","long":"127.07374041","imageIndex":17,"items":[{"name":"자매공간","tel":"031-000-0000","addr":"경기도 용인시 수지구 신봉동 911번지 신봉마을자이2차아파트","indutype":"신변잡화 - 액세서리","category":"other"}]},{"lat":"37.323893821","long":"127.07830453","imageIndex":17,"items":[{"name":"자이세탁","tel":"031-265-1502","addr":"경기도 용인시 수지구 신봉동 43-2번지 백산빌딩 2동 106호","indutype":"수리서비스 - 세탁소","category":"other"}]},{"lat":"37.333425523","long":"127.04386467","imageIndex":17,"items":[{"name":"제니공방","tel":"031-306-6715","addr":"경기도 용인시 수지구 신봉동 764-1번지","indutype":"문화.취미 - 문화취미기타","category":"other"}]},{"lat":"37.334038688","long":"127.04247709","imageIndex":17,"items":[{"name":"좋은성품리더십센터GICS","tel":"031-695-5435","addr":"경기도 용인시 수지구 신봉동 765-14번지","indutype":"용역 서비스 - 사무서비스","category":"other"}]},{"lat":"37.323370695","long":"127.0791389","imageIndex":17,"items":[{"name":"주식회사 소년공방","tel":"031-262-0079","addr":"경기도 용인시 수지구 신봉동 47-1번지 1층","indutype":"문화.취미 - 문화취미기타","category":"other"}]},{"lat":"37.327927344","long":"127.06827801","imageIndex":17,"items":[{"name":"주식회사 이룸산업개발","tel":"031-548-2778","addr":"경기도 용인시 수지구 신봉동 967번지 진성프라자 701호","indutype":"건축자재 - 부동산 분양","category":"other"},{"name":"크린토피아(동일하이빌점)","tel":"031-272-2555","addr":"경기도 용인시 수지구 신봉동 967번지 진성프라자2 1층 107호","indutype":"수리서비스 - 세탁소","category":"other"}]},{"lat":"37.334840141","long":"127.04380902","imageIndex":17,"items":[{"name":"주식회사더원프로젝트","tel":"031-897-9052","addr":"경기도 용인시 수지구 신봉동 746-6번지","indutype":"회원제형태 - 사무서비스","category":"other"}]},{"lat":"37.32985112","long":"127.07581689","imageIndex":17,"items":[{"name":"주야엔터테인먼트","tel":"031-573-2785","addr":"경기도 용인시 수지구 신봉동 911","indutype":"회원제형태 - 기타4","category":"other"}]},{"lat":"37.328158358","long":"127.07391971","imageIndex":17,"items":[{"name":"지안스(Jians)","tel":"","addr":"경기도 용인시 수지구 신봉동 911번지 신봉마을자이2차아파트","indutype":"신변잡화 - 액세서리","category":"other"}]},{"lat":"37.329996341","long":"127.0740794","imageIndex":17,"items":[{"name":"진프론티어","tel":"","addr":"경기도 용인시 수지구 신봉동 911번지 신봉마을자이2차아파트","indutype":"사무통신 - 통신기기","category":"other"}]},{"lat":"37.325782856","long":"127.06838898","imageIndex":17,"items":[{"name":"체리 컴퍼니","tel":"031-261-7611","addr":"경기도 용인시 수지구 신봉동 987번지 신봉마을동일하이빌2단지","indutype":"용역 서비스 - 종합용역","category":"other"}]},{"lat":"37.322595424","long":"127.07974735","imageIndex":17,"items":[{"name":"케이런스크린골프","tel":"031-261-2600","addr":"경기도 용인시 수지구 신봉동 19-2번지","indutype":"회원제형태 - 레져업소","category":"other"},{"name":"희망실버케어센터","tel":"","addr":"경기도 용인시 수지구 신봉동 19-2번지 2층","indutype":"기타의료기관 - 기타의료기관 및 기타","category":"other"}]},{"lat":"37.328716086","long":"127.0754096","imageIndex":17,"items":[{"name":"코코","tel":"","addr":"경기도 용인시 수지구 신봉동 911번지 신봉마을자이2차아파트","indutype":"신변잡화 - 가방","category":"other"}]},{"lat":"37.320404707","long":"127.08162919","imageIndex":17,"items":[{"name":"크린사이언스","tel":"031-276-5057","addr":"경기도 용인시 수지구 신봉동 893","indutype":"서적문구 - 과학기자재","category":"other"}]},{"lat":"37.323514302","long":"127.0799965","imageIndex":17,"items":[{"name":"크린토피아신봉동한화점","tel":"031-261-3884","addr":"경기도 용인시 수지구 신봉동 52-1번지 외5필지뉴골드파라자2 106호","indutype":"수리서비스 - 세탁소","category":"other"}]},{"lat":"37.324280906","long":"127.07885776","imageIndex":17,"items":[{"name":"타티아스","tel":"070-7602-3567","addr":"경기도 용인시 수지구 신봉동 873번지 신봉마을엘지자이1차아파트","indutype":"신변잡화 - 액세서리","category":"other"}]},{"lat":"37.333203965","long":"127.05707782","imageIndex":17,"items":[{"name":"파크하임","tel":"031-703-8119","addr":"경기도 용인시 수지구 신봉동 553-1번지 광교산파크하임테라스","indutype":"건축자재 - 부동산 분양","category":"other"}]},{"lat":"37.328426943","long":"127.07672944","imageIndex":17,"items":[{"name":"퍼니퍼니","tel":"","addr":"경기도 용인시 수지구 신봉동 911번지 신봉마을자이2차아파트","indutype":"서적문구 - 일반서적","category":"other"}]},{"lat":"37.334944115","long":"127.05442733","imageIndex":17,"items":[{"name":"호현방","tel":"031-000-0000","addr":"경기도 용인시 수지구 신봉동 708-2번지 삼성쉐르빌","indutype":"문화.취미 - 민예·공예품","category":"other"}]},{"lat":"37.32920622","long":"127.06930589","imageIndex":17,"items":[{"name":"화연(Wha Yean)","tel":"031-563-4859","addr":"경기도 용인시 수지구 신봉동 955번지","indutype":"의류 - 정장","category":"other"}]}]