[{"lat":"37.860668036","long":"127.20310984","imageIndex":0,"items":[{"name":"C-팩토리","tel":"070-4686-9412","addr":"경기도 포천시 군내면 유교리 280번지 1층","indutype":"자동차정비 유지 - 자동차부품","category":"car"}]},{"lat":"37.859698508","long":"127.20105042","imageIndex":0,"items":[{"name":"공주카센타","tel":"031-542-3368","addr":"경기도 포천시 군내면 유교리 298-1번지","indutype":"자동차정비 유지 - 자동차정비","category":"car"}]},{"lat":"37.859311948","long":"127.2005494","imageIndex":0,"items":[{"name":"기원모터스","tel":"031-542-5003","addr":"경기도 포천시 군내면 유교리 297-4번지","indutype":"자동차정비 유지 - 자동차정비","category":"car"}]},{"lat":"37.861637879","long":"127.20496477","imageIndex":0,"items":[{"name":"대성자동차공업사","tel":"031-542-2460","addr":"경기도 포천시 군내면 유교리 284-3번지","indutype":"자동차정비 유지 - 자동차정비","category":"car"}]},{"lat":"37.855918495","long":"127.20405148","imageIndex":0,"items":[{"name":"동양폐차장","tel":"031-541-4455","addr":"경기도 포천시 군내면 유교리 265번지","indutype":"자동차정비 유지 - 가타자동차서비스","category":"car"}]},{"lat":"37.850584885","long":"127.19874225","imageIndex":0,"items":[{"name":"오토월드카공업사","tel":"070-7736-2112","addr":"경기도 포천시 군내면 유교리 1043-5번지","indutype":"자동차정비 유지 - 자동차정비","category":"car"}]},{"lat":"37.859860255","long":"127.20130085","imageIndex":0,"items":[{"name":"유교종합카센타","tel":"031-533-5291","addr":"경기도 포천시 군내면 유교리 292-5번지 유교종합카센터","indutype":"자동차정비 유지 - 카인테리어","category":"car"}]},{"lat":"37.849948512","long":"127.19675221","imageIndex":0,"items":[{"name":"재벌 세차장","tel":"070-8222-0612","addr":"경기도 포천시 군내면 유교리 1041-11번지","indutype":"자동차정비 유지 - 세차장","category":"car"},{"name":"태광타이어","tel":"031-544-9953","addr":"경기도 포천시 군내면 유교리 1041-11","indutype":"자동차정비 유지 - 자동차시트·타이어","category":"car"}]},{"lat":"37.860227428","long":"127.20260865","imageIndex":0,"items":[{"name":"트러커 팩토리 (TRUCKER FACTORY)","tel":"031-111-1111","addr":"경기도 포천시 군내면 유교리 288번지 나동","indutype":"자동차정비 유지 - 자동차부품","category":"car"}]},{"lat":"37.850201278","long":"127.1964461","imageIndex":0,"items":[{"name":"현대기아공업사","tel":"031-541-6507","addr":"경기도 포천시 군내면 유교리 1041-1번지","indutype":"자동차정비 유지 - 자동차정비","category":"car"}]}]