[{"lat":"37.00249295","long":"127.10061258","imageIndex":0,"items":[{"name":"(주)번창자동차공업사","tel":"031-656-8851","addr":"경기도 평택시 비전동 405-6","indutype":"자동차정비 유지 - 자동차정비","category":"car"}]},{"lat":"37.000661453","long":"127.11352982","imageIndex":0,"items":[{"name":"(주)쏘울파크","tel":"031-652-6000","addr":"경기도 평택시 비전동 1092-2번지 쏘울스퀘어 3층 301호","indutype":"자동차정비 유지 - 주차장","category":"car"}]},{"lat":"36.998831264","long":"127.11461688","imageIndex":0,"items":[{"name":"(주)제이케이디앤씨","tel":"063-213-5660","addr":"경기도 평택시 비전동 1103-3번지","indutype":"자동차정비 유지 - 주차장","category":"car"},{"name":"(주)제이케이디앤씨","tel":"063-213-5660","addr":"경기도 평택시 비전동 1103-3번지","indutype":"자동차정비 유지 - 주차장","category":"car"}]},{"lat":"37.000131962","long":"127.08922917","imageIndex":0,"items":[{"name":"25시셀프세차장","tel":"031-652-3079","addr":"경기도 평택시 비전동 451번지","indutype":"자동차정비 유지 - 세차장","category":"car"},{"name":"승진공업사","tel":"031-653-0116","addr":"경기도 평택시 비전동 451번지","indutype":"자동차정비 유지 - 자동차정비","category":"car"}]},{"lat":"36.997636327","long":"127.08877699","imageIndex":0,"items":[{"name":"C클리어","tel":"","addr":"경기도 평택시 비전동 472-1번지 1층","indutype":"자동차정비 유지 - 카인테리어","category":"car"}]},{"lat":"37.003023179","long":"127.11253335","imageIndex":0,"items":[{"name":"TNC 평택 비전점","tel":"031-653-2017","addr":"경기도 평택시 비전동 1059-2번지","indutype":"자동차정비 유지 - 카인테리어","category":"car"}]},{"lat":"36.995939704","long":"127.09231371","imageIndex":0,"items":[{"name":"강토건설중기","tel":"031-651-4297","addr":"경기도 평택시 비전동 609-3번지","indutype":"자동차정비 유지 - 자동차부품","category":"car"},{"name":"의경중기","tel":"031-675-5256","addr":"경기도 평택시 비전동 609-3번지","indutype":"자동차정비 유지 - 중장비수리","category":"car"}]},{"lat":"36.994887158","long":"127.10153524","imageIndex":0,"items":[{"name":"경기렉카","tel":"031-618-4949","addr":"경기도 평택시 비전동 251-7번지","indutype":"자동차정비 유지 - 자동차부품","category":"car"},{"name":"평택종합밧데리","tel":"031-656-8272","addr":"경기도 평택시 비전동 251-7번지","indutype":"자동차정비 유지 - 자동차부품","category":"car"}]},{"lat":"36.996414353","long":"127.1069519","imageIndex":0,"items":[{"name":"극동자동차정비공업사","tel":"031-656-0685","addr":"경기도 평택시 비전동 825번지","indutype":"자동차정비 유지 - 자동차정비","category":"car"}]},{"lat":"36.995301743","long":"127.10142343","imageIndex":0,"items":[{"name":"기능장car전문정비센터","tel":"031-651-2102","addr":"경기도 평택시 비전동 259-4번지","indutype":"자동차정비 유지 - 자동차정비","category":"car"}]},{"lat":"36.999217865","long":"127.09458686","imageIndex":0,"items":[{"name":"김세호모터스","tel":"031-653-2308","addr":"경기도 평택시 비전동 487-28번지","indutype":"자동차정비 유지 - 자동차정비","category":"car"}]},{"lat":"36.998939241","long":"127.09366532","imageIndex":0,"items":[{"name":"다인자동차","tel":"031-656-4198","addr":"경기도 평택시 비전동 463-1번지","indutype":"자동차정비 유지 - 자동차정비","category":"car"}]},{"lat":"37.001823705","long":"127.11366632","imageIndex":0,"items":[{"name":"다인종합관리","tel":"031-654-6312","addr":"경기도 평택시 비전동 1094-1번지 좋은메디타워 703호","indutype":"자동차정비 유지 - 주차장","category":"car"},{"name":"다인종합관리","tel":"031-654-6312","addr":"경기도 평택시 비전동 1094-1번지 좋은메디타워 703호","indutype":"자동차정비 유지 - 주차장","category":"car"},{"name":"다인종합관리(스타타워)","tel":"031-654-6312","addr":"경기도 평택시 비전동 1094-1번지 좋은메디타워 404호","indutype":"자동차정비 유지 - 주차장","category":"car"}]},{"lat":"37.000550238","long":"127.0961388","imageIndex":0,"items":[{"name":"동광자동차공업사","tel":"031-650-8248","addr":"경기도 평택시 비전동 483-20번지","indutype":"서비스업 - 자동차정비","category":"car"},{"name":"성도카서비스","tel":"031-655-2791","addr":"경기도 평택시 비전동 483-20.35","indutype":"자동차정비 유지 - 자동차정비","category":"car"}]},{"lat":"36.990663982","long":"127.1086964","imageIndex":0,"items":[{"name":"동부자동차공업사","tel":"031-656-0707","addr":"경기도 평택시 비전동 855-5번지","indutype":"자동차정비 유지 - 자동차정비","category":"car"}]},{"lat":"37.000163298","long":"127.0954755","imageIndex":0,"items":[{"name":"동서남북카","tel":"031-657-4911","addr":"경기도 평택시 비전동 485-4번지","indutype":"자동차정비 유지 - 자동차정비","category":"car"},{"name":"비전모터풀","tel":"031-618-0951","addr":"경기도 평택시 비전동 485-4번지","indutype":"자동차정비 유지 - 자동차정비","category":"car"}]},{"lat":"36.998047935","long":"127.11397539","imageIndex":0,"items":[{"name":"동신공업사","tel":"031-652-0126","addr":"경기도 평택시 비전동 869번지","indutype":"자동차정비 유지 - 자동차정비","category":"car"}]},{"lat":"36.992134706","long":"127.10645181","imageIndex":0,"items":[{"name":"둥지카","tel":"031-658-0240","addr":"경기도 평택시 비전동 221-17번지","indutype":"서비스업 - 자동차정비","category":"car"},{"name":"둥지카센타","tel":"031-657-5122","addr":"경기도 평택시 비전동 221-17번지","indutype":"자동차정비 유지 - 자동차정비","category":"car"},{"name":"투제이상사","tel":"031-657-5122","addr":"경기도 평택시 비전동 221-17번지","indutype":"자동차정비 유지 - 자동차부품","category":"car"},{"name":"투제이상사","tel":"031-652-5580","addr":"경기도 평택시 비전동 221-17번지","indutype":"서비스업 - 자동차정비","category":"car"}]},{"lat":"36.991655408","long":"127.10841695","imageIndex":0,"items":[{"name":"명가틴트","tel":"031-000-0000","addr":"경기도 평택시 비전동 204-5번지 금안주택 나동 306호","indutype":"자동차정비 유지 - 카인테리어","category":"car"}]},{"lat":"36.997164909","long":"127.11395164","imageIndex":0,"items":[{"name":"명품세차장","tel":"031-657-3782","addr":"경기도 평택시 비전동 870번지","indutype":"자동차정비 유지 - 세차장","category":"car"}]},{"lat":"37.00013542","long":"127.09655397","imageIndex":0,"items":[{"name":"명품센터","tel":"031-652-7453","addr":"경기도 평택시 비전동 483-8번지 자연빌 401호","indutype":"자동차정비 유지 - 자동차부품","category":"car"}]},{"lat":"37.005934964","long":"127.10069563","imageIndex":0,"items":[{"name":"모터케이","tel":"","addr":"경기도 평택시 비전동 985번지 101호","indutype":"자동차정비 유지 - 카인테리어","category":"car"}]},{"lat":"37.001825182","long":"127.09030961","imageIndex":0,"items":[{"name":"베스트카서비스","tel":"031-655-1279","addr":"경기도 평택시 비전동 432-6번지","indutype":"서비스업 - 자동차정비","category":"car"}]},{"lat":"36.997798292","long":"127.08909173","imageIndex":0,"items":[{"name":"비전24시셀프세차타운","tel":"031-653-4321","addr":"경기도 평택시 비전동 472-3번지","indutype":"자동차정비 유지 - 세차장","category":"car"}]},{"lat":"36.993078752","long":"127.09817414","imageIndex":0,"items":[{"name":"비전모터스","tel":"031-692-3832","addr":"경기도 평택시 비전동 747-3,4","indutype":"자동차정비 유지 - 자동차정비","category":"car"}]},{"lat":"36.998853195","long":"127.09992264","imageIndex":0,"items":[{"name":"상하이주차장","tel":"031-656-0005","addr":"경기도 평택시 비전동 803-1번지","indutype":"자동차정비 유지 - 주차장","category":"car"}]},{"lat":"37.005852712","long":"127.10208869","imageIndex":0,"items":[{"name":"샵(#)스팀","tel":"","addr":"경기도 평택시 비전동 987번지 101호","indutype":"자동차정비 유지 - 세차장","category":"car"}]},{"lat":"36.993355806","long":"127.10097159","imageIndex":0,"items":[{"name":"세정세차장","tel":"031-52-0399","addr":"경기도 평택시 비전동 756-13번지","indutype":"자동차정비 유지 - 세차장","category":"car"}]},{"lat":"37.003303809","long":"127.11111816","imageIndex":0,"items":[{"name":"스팀보이게러지 소사벌점","tel":"","addr":"경기도 평택시 비전동 1045-3번지 101호","indutype":"자동차정비 유지 - 세차장","category":"car"}]},{"lat":"36.996380325","long":"127.093505","imageIndex":0,"items":[{"name":"스팀팩","tel":"031-653-2249","addr":"경기도 평택시 비전동 606-5번지","indutype":"자동차정비 유지 - 세차장","category":"car"}]},{"lat":"36.99163143","long":"127.10492342","imageIndex":0,"items":[{"name":"신평카센타","tel":"031-651-2990","addr":"경기도 평택시 비전동 763-26번지","indutype":"자동차정비 유지 - 자동차정비","category":"car"},{"name":"신평카센터","tel":"","addr":"경기도 평택시 비전동 763-26번지","indutype":"서비스업 - 자동차정비","category":"car"}]},{"lat":"36.9976364","long":"127.08867589","imageIndex":0,"items":[{"name":"아티잔","tel":"031-691-5258","addr":"경기도 평택시 비전동 471-4번지 영창빌딩 101호","indutype":"자동차정비 유지 - 자동차부품","category":"car"}]},{"lat":"37.000887002","long":"127.11322681","imageIndex":0,"items":[{"name":"엠에이치파트너스 주식회사","tel":"032-564-1321","addr":"경기도 평택시 비전동 1092-1번지 아토시티 603호","indutype":"자동차정비 유지 - 주차장","category":"car"}]},{"lat":"37.002886891","long":"127.1137465","imageIndex":0,"items":[{"name":"엠팸평택점","tel":"","addr":"경기도 평택시 비전동 1057-7번지 101호","indutype":"자동차정비 유지 - 세차장","category":"car"}]},{"lat":"37.002990744","long":"127.09789441","imageIndex":0,"items":[{"name":"오케이실내크리닝","tel":"031-000-0000","addr":"경기도 평택시 비전동 1008번지 엘에이치이곡마을3단지 311동 304호","indutype":"자동차정비 유지 - 카인테리어","category":"car"}]},{"lat":"37.00354585","long":"127.11247792","imageIndex":0,"items":[{"name":"원스팀","tel":"","addr":"경기도 평택시 비전동 1053-5번지 1층 1호","indutype":"자동차정비 유지 - 세차장","category":"car"}]},{"lat":"36.998407076","long":"127.0943612","imageIndex":0,"items":[{"name":"으뜸자동차정비공업사","tel":"031-652-7077","addr":"경기도 평택시 비전동 488-21번지","indutype":"자동차정비 유지 - 자동차정비","category":"car"}]},{"lat":"37.000018387","long":"127.09641901","imageIndex":0,"items":[{"name":"이태원 카워시","tel":"031-658-8388","addr":"경기도 평택시 비전동 483-2번지","indutype":"자동차정비 유지 - 세차장","category":"car"}]},{"lat":"36.995803959","long":"127.10425498","imageIndex":0,"items":[{"name":"자동차마을","tel":"031-632-0037","addr":"경기도 평택시 비전동 277-7번지","indutype":"자동차정비 유지 - 자동차정비","category":"car"},{"name":"자동차마을카센타","tel":"031-618-1915","addr":"경기도 평택시 비전동 277-7번지","indutype":"서비스업 - 자동차정비","category":"car"}]},{"lat":"37.000045852","long":"127.09586856","imageIndex":0,"items":[{"name":"제이바이크","tel":"031-656-5582","addr":"경기도 평택시 비전동 487-19번지","indutype":"자동차판매 - 이륜차판매","category":"car"}]},{"lat":"36.996162926","long":"127.10595175","imageIndex":0,"items":[{"name":"즐거운자동차","tel":"031-692-7227","addr":"경기도 평택시 비전동 823-2번지","indutype":"자동차정비 유지 - 자동차부품","category":"car"}]},{"lat":"36.994692492","long":"127.09714267","imageIndex":0,"items":[{"name":"지명카서비스","tel":"031-658-7278","addr":"경기도 평택시 비전동 742번지 우암빌라","indutype":"자동차정비 유지 - 자동차정비","category":"car"}]},{"lat":"36.99051969","long":"127.108831","imageIndex":0,"items":[{"name":"진바이크","tel":"031-657-0331","addr":"경기도 평택시 비전동 855-3번지","indutype":"자동차판매 - 이륜차판매","category":"car"}]},{"lat":"36.993635137","long":"127.10097195","imageIndex":0,"items":[{"name":"차이야기","tel":"","addr":"경기도 평택시 비전동 756-1번지","indutype":"자동차정비 유지 - 카인테리어","category":"car"}]},{"lat":"36.99743696","long":"127.10180814","imageIndex":0,"items":[{"name":"충혼산카인테리어","tel":"031-654-5218","addr":"경기도 평택시 비전동 808-9번지","indutype":"자동차정비 유지 - 자동차정비","category":"car"}]},{"lat":"36.997328766","long":"127.10188664","imageIndex":0,"items":[{"name":"충혼자동차공업사","tel":"031-618-7688","addr":"경기도 평택시 비전동 808-8번지","indutype":"서비스업 - 자동차정비","category":"car"}]},{"lat":"36.99538214","long":"127.11249991","imageIndex":0,"items":[{"name":"카아트존","tel":"031-650-6340","addr":"경기도 평택시 비전동 830-1번지 지하3층","indutype":"자동차정비 유지 - 세차장","category":"car"}]},{"lat":"37.00182535","long":"127.10158914","imageIndex":0,"items":[{"name":"카앤피플 평택3지점","tel":"","addr":"경기도 평택시 비전동 1028번지 LH배꽃마을4단지 409동 801호","indutype":"자동차정비 유지 - 세차장","category":"car"}]},{"lat":"36.991714529","long":"127.11277547","imageIndex":0,"items":[{"name":"카워시센터평택시청점","tel":"","addr":"경기도 평택시 비전동 846번지 평택시청","indutype":"자동차정비 유지 - 세차장","category":"car"},{"name":"평택시청","tel":"031-8024-3391","addr":"경기도 평택시 비전동 846번지 평택시청","indutype":"자동차정비 유지 - 주차장","category":"car"},{"name":"평택시청/회계과","tel":"031-8024-2795","addr":"경기도 평택시 비전동 846번지","indutype":"자동차정비 유지 - 주차장","category":"car"}]},{"lat":"36.999829964","long":"127.09539646","imageIndex":0,"items":[{"name":"카폐인워시 평택지점","tel":"031-667-0849","addr":"경기도 평택시 비전동 487번지 1층 3호","indutype":"자동차정비 유지 - 세차장","category":"car"}]},{"lat":"37.002383638","long":"127.09059111","imageIndex":0,"items":[{"name":"타이어프로비전점","tel":"031-651-8709","addr":"경기도 평택시 비전동 777번지 1층","indutype":"자동차정비 유지 - 자동차시트·타이어","category":"car"}]},{"lat":"36.999103584","long":"127.11247155","imageIndex":0,"items":[{"name":"탑디테일","tel":"","addr":"경기도 평택시 비전동 1104번지 B2001호","indutype":"자동차정비 유지 - 세차장","category":"car"}]},{"lat":"36.996522067","long":"127.10742386","imageIndex":0,"items":[{"name":"태양자동차공업사","tel":"031-652-9331","addr":"경기도 평택시 비전동 825-3번지","indutype":"자동차정비 유지 - 자동차정비","category":"car"}]},{"lat":"36.999137028","long":"127.09424973","imageIndex":0,"items":[{"name":"평안오토바이","tel":"031-653-9309","addr":"경기도 평택시 비전동 487-58번지","indutype":"자동차판매 - 이륜차판매","category":"car"}]},{"lat":"37.010577519","long":"127.10880265","imageIndex":0,"items":[{"name":"평택동서울자동차정비공장","tel":"031-651-2101","addr":"경기도 평택시 비전동 42-6번지","indutype":"자동차정비 유지 - 자동차정비","category":"car"}]},{"lat":"36.998606077","long":"127.0933616","imageIndex":0,"items":[{"name":"평택배터리할인매장구가네","tel":"031-654-3333","addr":"경기도 평택시 비전동 594-1번지","indutype":"자동차정비 유지 - 자동차부품","category":"car"}]},{"lat":"36.990992639","long":"127.1138865","imageIndex":0,"items":[{"name":"평택시문화예술회관","tel":"031-8024-5412","addr":"경기도 평택시 비전동 847번지","indutype":"자동차정비 유지 - 주차장","category":"car"}]},{"lat":"37.001470153","long":"127.09508388","imageIndex":0,"items":[{"name":"평택카센타","tel":"031-658-5151","addr":"경기도 평택시 비전동 795-3번지","indutype":"자동차정비 유지 - 자동차정비","category":"car"}]},{"lat":"37.001605783","long":"127.09447738","imageIndex":0,"items":[{"name":"현대부품평택센타","tel":"031-655-5888","addr":"경기도 평택시 비전동 786-9번지","indutype":"자동차정비 유지 - 자동차부품","category":"car"}]}]