[{"lat":"37.336318656","long":"127.09160975","imageIndex":7,"items":[{"name":"(주)선우엠티 앵거스박고기공장 수지점","tel":"031-264-2299","addr":"경기도 용인시 수지구 동천동 944번지 1층 101-103호","indutype":"음료식품 - 정육점","category":"food"}]},{"lat":"37.338148792","long":"127.10163253","imageIndex":7,"items":[{"name":"(주)씨드앤너츠","tel":"070-4801-3294","addr":"경기도 용인시 수지구 동천동 899번지 분당수지유타워 A동 2204호","indutype":"음료식품 - 농·축·수산품","category":"food"},{"name":"메티에(metier)","tel":"","addr":"경기도 용인시 수지구 동천동 899번지 분당수지 U-TOWER A동 1층 140호","indutype":"음료식품 - 제과점","category":"food"},{"name":"사르르","tel":"031-276-3838","addr":"경기도 용인시 수지구 동천동 899번지 분당수지 U-TOWER A동 598호","indutype":"음료식품 - 제과점","category":"food"},{"name":"우주라이프(life)","tel":"031-1600-2215","addr":"경기도 용인시 수지구 동천동 899번지 25.24호","indutype":"음료식품 - 농·축·수산품","category":"food"},{"name":"파리바게뜨 동천역유타워점","tel":"031-525-3331","addr":"경기도 용인시 수지구 동천동 899번지 분당수지 U-TOWER A동 1층 141호","indutype":"음료식품 - 제과점","category":"food"}]},{"lat":"37.337256786","long":"127.10163136","imageIndex":7,"items":[{"name":"(주)휴먼에코푸드","tel":"031-261-0117","addr":"경기도 용인시 수지구 동천동 900 1층","indutype":"음료식품 - 기타음료식품","category":"food"}]},{"lat":"37.333540087","long":"127.09607487","imageIndex":7,"items":[{"name":"1253타르트","tel":"031-1111-1111","addr":"경기도 용인시 수지구 동천동 883-11번지 1층 일부","indutype":"음료식품 - 제과점","category":"food"}]},{"lat":"37.333288298","long":"127.09544267","imageIndex":7,"items":[{"name":"Home&인테리어","tel":"031-261-2744","addr":"경기도 용인시 수지구 동천동 884번지","indutype":"음료식품 - 기타음료식품","category":"food"}]},{"lat":"37.333287687","long":"127.09622125","imageIndex":7,"items":[{"name":"국가대표 푸줏간","tel":"031-261-5697","addr":"경기도 용인시 수지구 동천동 884-5번지 1층 103호","indutype":"음료식품 - 정육점","category":"food"},{"name":"황금시루","tel":"031-272-8600","addr":"경기도 용인시 수지구 동천동 884-5번지 1층 101호","indutype":"음료식품 - 제과점","category":"food"}]},{"lat":"37.333914873","long":"127.08898907","imageIndex":7,"items":[{"name":"그린테이블","tel":"070-4113-8743","addr":"경기도 용인시 수지구 동천동 932번지 한빛마을래미안이스트팰리스3단지상가동제지2층제3블럭5호","indutype":"음료식품 - 기타음료식품","category":"food"},{"name":"윤호손수호두파이","tel":"031-272-5282","addr":"경기도 용인시 수지구 동천동 932번지 래미안이스트팰리스3단지 상가동 8호","indutype":"음료식품 - 제과점","category":"food"}]},{"lat":"37.347087909","long":"127.08876711","imageIndex":7,"items":[{"name":"대치정육점","tel":"031-000-0000","addr":"경기도 용인시 수지구 동천동 88-13번지 1층","indutype":"음료식품 - 정육점","category":"food"}]},{"lat":"37.335650605","long":"127.09332415","imageIndex":7,"items":[{"name":"도담도담식빵 용인동천점","tel":"070-8838-7879","addr":"경기도 용인시 수지구 동천동 873-4번지 에덴파크 103호","indutype":"음료식품 - 제과점","category":"food"},{"name":"새맛찬반찬","tel":"031-264-3863","addr":"경기도 용인시 수지구 동천동 873-4번지 에덴파크 101호","indutype":"음료식품 - 기타음료식품","category":"food"}]},{"lat":"37.340484352","long":"127.09929963","imageIndex":7,"items":[{"name":"동산떡집","tel":"031-266-8196","addr":"경기도 용인시 수지구 동천동 768-3번지 신동천부동산 4호","indutype":"음료식품 - 기타음료식품","category":"food"},{"name":"동산떡집","tel":"031-266-1077","addr":"경기도 용인시 수지구 동천동 768-3번지","indutype":"음료식품 - 제과점","category":"food"}]},{"lat":"37.336564264","long":"127.10010708","imageIndex":7,"items":[{"name":"동성식품","tel":"031-732-3287","addr":"경기도 용인시 수지구 동천동 902번지","indutype":"음료식품 - 기타음료식품","category":"food"}]},{"lat":"37.341590957","long":"127.10129849","imageIndex":7,"items":[{"name":"동천떡방앗간","tel":"031-266-9874","addr":"경기도 용인시 수지구 동천동 180-5번지 하나프라자 103호","indutype":"음료식품 - 제과점","category":"food"}]},{"lat":"37.336920779","long":"127.0936642","imageIndex":7,"items":[{"name":"동천점핑다이어트","tel":"031-263-1311","addr":"경기도 용인시 수지구 동천동 864번지 301동 지하1층 101호102호","indutype":"건강식품 - 기타건강식품","category":"food"}]},{"lat":"37.33581481","long":"127.09063873","imageIndex":7,"items":[{"name":"동천축산","tel":"031-276-0120","addr":"경기도 용인시 수지구 동천동 946-4번지 대영프라자","indutype":"음료식품 - 정육점","category":"food"},{"name":"주식회사 엘이로드","tel":"031-265-9966","addr":"경기도 용인시 수지구 동천동 946-4번지 대영프라자 501호","indutype":"음료식품 - 기타음료식품","category":"food"}]},{"lat":"37.340450344","long":"127.09677178","imageIndex":7,"items":[{"name":"뚜레쥬르","tel":"031-272-0034","addr":"경기도 용인시 수지구 동천동 174-14번지 105,106호","indutype":"음료식품 - 제과점","category":"food"}]},{"lat":"37.341177153","long":"127.10049672","imageIndex":7,"items":[{"name":"막내딸집 건어물 용인수지점","tel":"031-8001-0724","addr":"경기도 용인시 수지구 동천동 180-12번지 생명수교회 1층 7호","indutype":"음료식품 - 농·축·수산품","category":"food"}]},{"lat":"37.336518037","long":"127.09005276","imageIndex":7,"items":[{"name":"목우촌","tel":"031-261-1676","addr":"경기도 용인시 수지구 동천동 938번지 한빛마을래미안이스트팰리스2단지 상가동 22호","indutype":"음료식품 - 정육점","category":"food"},{"name":"서민반찬 수지동천가족점","tel":"031-262-0949","addr":"경기도 용인시 수지구 동천동 938번지 한빛마을래미안이스트팰리스2단지 상가동 13호","indutype":"음료식품 - 기타음료식품","category":"food"},{"name":"파리바게트 이스트팰리스","tel":"","addr":"경기도 용인시 수지구 동천동 938번지 한빛마을래미안이스트팰리스2단지 상가동 1층 3호,4호","indutype":"음료식품 - 제과점","category":"food"}]},{"lat":"37.335867458","long":"127.09252324","imageIndex":7,"items":[{"name":"미래축산","tel":"031-896-5522","addr":"경기도 용인시 수지구 동천동 873번지 1층","indutype":"음료식품 - 정육점","category":"food"}]},{"lat":"37.341394314","long":"127.09937978","imageIndex":7,"items":[{"name":"미성수산","tel":"032-264-8181","addr":"경기도 용인시 수지구 동천동 969번지 101호-106호","indutype":"음료식품 - 농·축·수산품","category":"food"},{"name":"우리동네 생선가게","tel":"031-1111-1111","addr":"경기도 용인시 수지구 동천동 969번지 동천파크뷰 101동 106호","indutype":"음료식품 - 농·축·수산품","category":"food"},{"name":"태성축산","tel":"","addr":"경기도 용인시 수지구 동천동 969번지 동천파크뷰 101동 106호","indutype":"음료식품 - 정육점","category":"food"}]},{"lat":"37.340288669","long":"127.09612835","imageIndex":7,"items":[{"name":"배가당 종로떡집","tel":"031-261-2261","addr":"경기도 용인시 수지구 동천동 174-9번지 센트럴 상가 105호","indutype":"음료식품 - 제과점","category":"food"}]},{"lat":"37.333512064","long":"127.09732734","imageIndex":7,"items":[{"name":"베스킨라빈스 용인동천점","tel":"02-0000-0000","addr":"경기도 용인시 수지구 동천동 887번지 101호","indutype":"음료식품 - 제과점","category":"food"},{"name":"스마일점핑 다이어트","tel":"031-266-6577","addr":"경기도 용인시 수지구 동천동 887번지 수지하우비 4층 401호","indutype":"건강식품 - 기타건강식품","category":"food"}]},{"lat":"37.340646874","long":"127.09888229","imageIndex":7,"items":[{"name":"베스킨라빈스용인동천2호점","tel":"031-262-3181","addr":"경기도 용인시 수지구 동천동 174-26번지 영재빌딩 101호","indutype":"음료식품 - 제과점","category":"food"}]},{"lat":"37.34070007","long":"127.09994314","imageIndex":7,"items":[{"name":"브레드스토리","tel":"031-264-9393","addr":"경기도 용인시 수지구 동천동 196번지 1","indutype":"음료식품 - 제과점","category":"food"},{"name":"파워점핑다이어트","tel":"031-265-5979","addr":"경기도 용인시 수지구 동천동 196번지 2층 일부","indutype":"건강식품 - 기타건강식품","category":"food"}]},{"lat":"37.335895076","long":"127.09174467","imageIndex":7,"items":[{"name":"블럭제빵소(수지동천점)","tel":"031-272-6662","addr":"경기도 용인시 수지구 동천동 948번지 113호","indutype":"음료식품 - 제과점","category":"food"}]},{"lat":"37.347095032","long":"127.091329","imageIndex":7,"items":[{"name":"상모수산","tel":"031-272-2863","addr":"경기도 용인시 수지구 동천동 115-2","indutype":"음료식품 - 농·축·수산품","category":"food"}]},{"lat":"37.340259684","long":"127.09857711","imageIndex":7,"items":[{"name":"소담두부","tel":"","addr":"경기도 용인시 수지구 동천동 371-5번지 동천코아프라자 105호","indutype":"음료식품 - 기타음료식품","category":"food"},{"name":"주박사고기주점","tel":"031-265-2292","addr":"경기도 용인시 수지구 동천동 371-5번지","indutype":"음료식품 - 정육점","category":"food"}]},{"lat":"37.335866892","long":"127.09326799","imageIndex":7,"items":[{"name":"수지복떡방","tel":"031-266-9407","addr":"경기도 용인시 수지구 동천동 873-3번지 동천타워1 103호","indutype":"음료식품 - 제과점","category":"food"}]},{"lat":"37.342813656","long":"127.06552604","imageIndex":7,"items":[{"name":"시골정육점","tel":"031-272-7665","addr":"경기도 용인시 수지구 동천동 596번지","indutype":"음료식품 - 정육점","category":"food"}]},{"lat":"37.333287562","long":"127.09637922","imageIndex":7,"items":[{"name":"신개념푸줏간","tel":"070-7778-3197","addr":"경기도 용인시 수지구 동천동 884-6번지 웰빙부동산 103호","indutype":"음료식품 - 정육점","category":"food"},{"name":"아이스비어","tel":"031-427-8068","addr":"경기도 용인시 수지구 동천동 884-6번지 웰빙부동산 1층 102호","indutype":"음료식품 - 기타음료식품","category":"food"}]},{"lat":"37.33231702","long":"127.0930832","imageIndex":7,"items":[{"name":"아싸비어 용인수지점","tel":"","addr":"경기도 용인시 수지구 동천동 282-6번지 트리플에이 1층 101호","indutype":"음료식품 - 기타음료식품","category":"food"}]},{"lat":"37.341033769","long":"127.0995486","imageIndex":7,"items":[{"name":"에이스마트","tel":"031-276-6296","addr":"경기도 용인시 수지구 동천동 198번지 상가 1층","indutype":"음료식품 - 농·축·수산품","category":"food"}]},{"lat":"37.340311138","long":"127.10174821","imageIndex":7,"items":[{"name":"엠지푸드","tel":"070-4123-5858","addr":"경기도 용인시 수지구 동천동 185-11번지 루채스타 505호","indutype":"음료식품 - 농·축·수산품","category":"food"}]},{"lat":"37.33328806","long":"127.09574733","imageIndex":7,"items":[{"name":"오레시피 용인수지동천점","tel":"031-0000-0000","addr":"경기도 용인시 수지구 동천동 884-2번지 행복부동산 1층 102호","indutype":"음료식품 - 기타음료식품","category":"food"}]},{"lat":"37.338677811","long":"127.08097118","imageIndex":7,"items":[{"name":"와인비","tel":"","addr":"경기도 용인시 수지구 동천동 497-10번지 지하2층 101호","indutype":"음료식품 - 주류 판매점","category":"food"}]},{"lat":"37.341414762","long":"127.09635544","imageIndex":7,"items":[{"name":"요거트맨","tel":"","addr":"경기도 용인시 수지구 동천동 914번지 동천마을동문굿모닝힐5차아파트","indutype":"음료식품 - 기타음료식품","category":"food"}]},{"lat":"37.343399596","long":"127.06499612","imageIndex":7,"items":[{"name":"우일상사","tel":"031-265-2336","addr":"경기도 용인시 수지구 동천동 594-2번지","indutype":"음료식품 - 농·축·수산품","category":"food"}]},{"lat":"37.351065608","long":"127.08274469","imageIndex":7,"items":[{"name":"이화상사","tel":"070-8796-4539","addr":"경기도 용인시 수지구 동천동 46-1번지 코스빌 B101호","indutype":"음료식품 - 농·축·수산품","category":"food"}]},{"lat":"37.339873141","long":"127.07130139","imageIndex":7,"items":[{"name":"주식회사 더블유스타일","tel":"031-263-0435","addr":"경기도 용인시 수지구 동천동 561번지 4층","indutype":"음료식품 - 기타음료식품","category":"food"}]},{"lat":"37.342311262","long":"127.10190882","imageIndex":7,"items":[{"name":"주식회사 시제이블록체인","tel":"","addr":"경기도 용인시 수지구 동천동 177-28번지","indutype":"건강식품 - 기타건강식품","category":"food"},{"name":"파이앤커피","tel":"070-8171-7200","addr":"경기도 용인시 수지구 동천동 177-28번지 3층","indutype":"음료식품 - 기타음료식품","category":"food"}]},{"lat":"37.34261521","long":"127.06594343","imageIndex":7,"items":[{"name":"진안고원2","tel":"031-266-1008","addr":"경기도 용인시 수지구 동천동 596-7번지","indutype":"음료식품 - 정육점","category":"food"}]},{"lat":"37.336447483","long":"127.08795381","imageIndex":7,"items":[{"name":"천석꾼","tel":"031-265-3441","addr":"경기도 용인시 수지구 동천동 935번지 한빛마을래미안이스트팰리스1단지 상가동 21호","indutype":"음료식품 - 기타음료식품","category":"food"},{"name":"해뜨래누룽지","tel":"031-111-1111","addr":"경기도 용인시 수지구 동천동 935번지 한빛마을래미안이스트팰리스1단지 상가동 19호","indutype":"음료식품 - 기타음료식품","category":"food"}]},{"lat":"37.340261372","long":"127.09646686","imageIndex":7,"items":[{"name":"천지양(수지1호점)","tel":"031-896-0389","addr":"경기도 용인시 수지구 동천동 174-15번지","indutype":"건강식품 - 홍삼제품","category":"food"}]},{"lat":"37.340367495","long":"127.09896093","imageIndex":7,"items":[{"name":"파리바게뜨(수지동문점)","tel":"031-896-8246","addr":"경기도 용인시 수지구 동천동 768-2번지 1층","indutype":"음료식품 - 제과점","category":"food"},{"name":"파리바게트(수지동문점)","tel":"031-896-0424","addr":"경기도 용인시 수지구 동천동 768-2번지","indutype":"음료식품 - 제과점","category":"food"}]},{"lat":"37.333287428","long":"127.09654848","imageIndex":7,"items":[{"name":"파비바게뜨동천점","tel":"031-265-4526","addr":"경기도 용인시 수지구 동천동 884-7번지 103호","indutype":"음료식품 - 제과점","category":"food"}]},{"lat":"37.335119004","long":"127.09332352","imageIndex":7,"items":[{"name":"팩토리디종(Factory DI JON)","tel":"031-262-0826","addr":"경기도 용인시 수지구 동천동 875-5번지 노블레스빌 102호 101호,102호","indutype":"음료식품 - 제과점","category":"food"}]},{"lat":"37.340122853","long":"127.10063077","imageIndex":7,"items":[{"name":"해피쿠키","tel":"031-272-2007","addr":"경기도 용인시 수지구 동천동 325-8 103호 104호","indutype":"음료식품 - 제과점","category":"food"}]},{"lat":"37.341894427","long":"127.0658864","imageIndex":7,"items":[{"name":"희립","tel":"031-897-9657","addr":"경기도 용인시 수지구 동천동 595-11번지","indutype":"음료식품 - 기타음료식품","category":"food"}]}]