[{"lat":"37.312091009","long":"126.84557413","imageIndex":4,"items":[{"name":"(주)신광케이터링","tel":"031-416-1709","addr":"경기도 안산시 상록구 이동 649-6번지","indutype":"일반휴게음식 - 일반한식","category":"restaurant"},{"name":"행복커피숍","tel":"031-438-5679","addr":"경기도 안산시 상록구 이동 649-6번지 101호","indutype":"일반휴게음식 - 서양음식","category":"restaurant"}]},{"lat":"37.307202998","long":"126.84902466","imageIndex":4,"items":[{"name":"(주)에이치아이","tel":"031-415-4565","addr":"경기도 안산시 상록구 이동 714-3번지 데코포스텔 103~107호","indutype":"일반휴게음식 - 서양음식","category":"restaurant"},{"name":"가마솥순대국","tel":"031-414-9777","addr":"경기도 안산시 상록구 이동 714-3번지 데코스포텔 127호","indutype":"일반휴게음식 - 일반한식","category":"restaurant"},{"name":"녹색한우(안산점)","tel":"031-408-1577","addr":"경기도 안산시 상록구 이동 714-3번지 데코스포텔 119호","indutype":"일반휴게음식 - 일반한식","category":"restaurant"},{"name":"디초콜릿커피/(주)에이치아이 한대점","tel":"031-415-4565","addr":"경기도 안산시 상록구 이동 714-3번지 데코스포텔 103동 107호","indutype":"일반휴게음식 - 서양음식","category":"restaurant"},{"name":"뷰","tel":"031-1577-9560","addr":"경기도 안산시 상록구 이동 714-3번지 2층 201-208호","indutype":"일반휴게음식 - 주점","category":"restaurant"},{"name":"수제매니아","tel":"031-409-1327","addr":"경기도 안산시 상록구 이동 714-3번지 데코스포텔 1층 123호","indutype":"일반휴게음식 - 일반한식","category":"restaurant"},{"name":"스프링왈츠","tel":"070-8833-0509","addr":"경기도 안산시 상록구 이동 714-3번지 데코스포텔 1층 118호","indutype":"일반휴게음식 - 서양음식","category":"restaurant"},{"name":"신굴사냥","tel":"031-418-9050","addr":"경기도 안산시 상록구 이동 714-3번지 테코스포텔 114호","indutype":"일반휴게음식 - 일반한식","category":"restaurant"},{"name":"육삼연탄불고기","tel":"","addr":"경기도 안산시 상록구 이동 714-3번지 데코스포텔 119호","indutype":"일반휴게음식 - 일반한식","category":"restaurant"},{"name":"정정아식당","tel":"031-408-8908","addr":"경기도 안산시 상록구 이동 714-3번지 데코스포텔 131.132호","indutype":"일반휴게음식 - 일반한식","category":"restaurant"},{"name":"제제나인 한대역점","tel":"031-1111-1111","addr":"경기도 안산시 상록구 이동 714-3번지 데코스포텔 1층 114호","indutype":"일반휴게음식 - 서양음식","category":"restaurant"},{"name":"지코바이동1호점","tel":"031-409-3220","addr":"경기도 안산시 상록구 이동 714-3번지 데코스포텔 134호","indutype":"일반휴게음식 - 스넥","category":"restaurant"},{"name":"찌게마을","tel":"031-000-0000","addr":"경기도 안산시 상록구 이동 714-3번지 데코스포텔 114호","indutype":"일반휴게음식 - 일반한식","category":"restaurant"},{"name":"푸줏간한우생고기","tel":"031-415-1369","addr":"경기도 안산시 상록구 이동 714-3번지 121,122호","indutype":"일반휴게음식 - 일반한식","category":"restaurant"}]},{"lat":"37.307594357","long":"126.85206944","imageIndex":4,"items":[{"name":"(주)우당","tel":"031-406-9233","addr":"경기도 안산시 상록구 이동 716-3번지 숭실프라자 204호","indutype":"일반휴게음식 - 일반한식","category":"restaurant"},{"name":"곱창보스","tel":"070-7576-3490","addr":"경기도 안산시 상록구 이동 716-3번지 숭실프라자 1층 101호","indutype":"일반휴게음식 - 일반한식","category":"restaurant"},{"name":"김밥세상","tel":"031-408-7490","addr":"경기도 안산시 상록구 이동 716-3번지 숭실프라자 1층 102호","indutype":"일반휴게음식 - 일반한식","category":"restaurant"},{"name":"랩오투(LAB O2)","tel":"","addr":"경기도 안산시 상록구 이동 716-3번지 숭실프라자 109호","indutype":"일반휴게음식 - 일반한식","category":"restaurant"},{"name":"맥주지상주의","tel":"031-416-8181","addr":"경기도 안산시 상록구 이동 716-3번지 숭실프라자 1층 116호","indutype":"일반휴게음식 - 주점","category":"restaurant"},{"name":"비앤에스푸드","tel":"031-408-9648","addr":"경기도 안산시 상록구 이동 716-3번지 숭실프라자 114호","indutype":"일반휴게음식 - 일반한식","category":"restaurant"},{"name":"솔토가","tel":"031-408-2588","addr":"경기도 안산시 상록구 이동 716-3번지 숭실프라자 109호","indutype":"일반휴게음식 - 일반한식","category":"restaurant"},{"name":"쇼부라멘(한대점)","tel":"031-438-8859","addr":"경기도 안산시 상록구 이동 716-3번지 숭실프라자 1층 117호","indutype":"일반휴게음식 - 스넥","category":"restaurant"},{"name":"이디야 한대앞역점","tel":"031-415-4343","addr":"경기도 안산시 상록구 이동 716-3번지 숭실프라자 118,119","indutype":"일반휴게음식 - 서양음식","category":"restaurant"},{"name":"청년식탁","tel":"","addr":"경기도 안산시 상록구 이동 716-3번지 숭실프라자 108호","indutype":"일반휴게음식 - 일반한식","category":"restaurant"},{"name":"한우누리소","tel":"031-416-9922","addr":"경기도 안산시 상록구 이동 716-3번지 숭실프라자 105,106호","indutype":"일반휴게음식 - 일반한식","category":"restaurant"}]},{"lat":"37.311839053","long":"126.84582282","imageIndex":4,"items":[{"name":"24정감자탕","tel":"031-406-0331","addr":"경기도 안산시 상록구 이동 663-4번지 영진빌딩 1층 101호","indutype":"일반휴게음식 - 일반한식","category":"restaurant"},{"name":"24정감자탕","tel":"031-406-0331","addr":"경기도 안산시 상록구 이동 663-4번지 영진빌딩 1층 101호","indutype":"일반휴게음식 - 일반한식","category":"restaurant"}]},{"lat":"37.308728864","long":"126.85145805","imageIndex":4,"items":[{"name":"30cm옛날왕돈까스","tel":"031-419-1919","addr":"경기도 안산시 상록구 이동 715-1번지 세종프라자 111호","indutype":"일반휴게음식 - 일반한식","category":"restaurant"},{"name":"김밥나라","tel":"031-407-7272","addr":"경기도 안산시 상록구 이동 715-1번지 세종타운 113호","indutype":"일반휴게음식 - 일반한식","category":"restaurant"},{"name":"달콤한닭강정","tel":"031-502-5235","addr":"경기도 안산시 상록구 이동 715-1번지 세종타운 114호","indutype":"일반휴게음식 - 일반한식","category":"restaurant"},{"name":"동대문엽기떡볶이","tel":"031-408-8592","addr":"경기도 안산시 상록구 이동 715-1번지 세종타운 108,109호","indutype":"일반휴게음식 - 스넥","category":"restaurant"},{"name":"동대문엽기떡볶이","tel":"031-409-8592","addr":"경기도 안산시 상록구 이동 715-1번지 세종타운 108동 109호","indutype":"일반휴게음식 - 스넥","category":"restaurant"},{"name":"미술관안산한대점","tel":"031-111-1111","addr":"경기도 안산시 상록구 이동 715-1번지 1층 104,105,106호","indutype":"일반휴게음식 - 일반한식","category":"restaurant"},{"name":"새마을식당(안산한대점)","tel":"031-416-0915","addr":"경기도 안산시 상록구 이동 715-1 세종타운 101~103호","indutype":"일반휴게음식 - 일반한식","category":"restaurant"},{"name":"신참떡볶이","tel":"031-483-6111","addr":"경기도 안산시 상록구 이동 715-1번지 세종타운 110호","indutype":"일반휴게음식 - 스넥","category":"restaurant"},{"name":"오봉통닭(한대앞역점)","tel":"031-408-5588","addr":"경기도 안산시 상록구 이동 715-1번지 104호 ,105,106호","indutype":"일반휴게음식 - 일반한식","category":"restaurant"},{"name":"커피와사람들","tel":"031-406-5756","addr":"경기도 안산시 상록구 이동 715-1번지 세종타운 112호","indutype":"일반휴게음식 - 서양음식","category":"restaurant"},{"name":"커피와사람들","tel":"031-406-5756","addr":"경기도 안산시 상록구 이동 715-1번지 세종타운 112호","indutype":"일반휴게음식 - 서양음식","category":"restaurant"}]},{"lat":"37.31003277","long":"126.84945883","imageIndex":4,"items":[{"name":"31혜자커피","tel":"031-407-4995","addr":"경기도 안산시 상록구 이동 705-8번지 1층","indutype":"일반휴게음식 - 서양음식","category":"restaurant"}]},{"lat":"37.310063544","long":"126.85963358","imageIndex":4,"items":[{"name":"3뻑","tel":"031-415-1223","addr":"경기도 안산시 상록구 이동 612-21번지","indutype":"일반휴게음식 - 주점","category":"restaurant"},{"name":"40번가커피(40st. coffee)","tel":"","addr":"경기도 안산시 상록구 이동 612-21번지 1층","indutype":"일반휴게음식 - 서양음식","category":"restaurant"},{"name":"다이꼬지","tel":"031-406-6261","addr":"경기도 안산시 상록구 이동 612-21번지 1층","indutype":"일반휴게음식 - 일반한식","category":"restaurant"}]},{"lat":"37.307729869","long":"126.85235117","imageIndex":4,"items":[{"name":"BBQ올리브떡볶이한대앞역점","tel":"031-409-2009","addr":"경기도 안산시 상록구 이동 716-2번지 한미오피스텔 105호","indutype":"일반휴게음식 - 스넥","category":"restaurant"},{"name":"꼬지사께(한대역점)","tel":"031-407-1937","addr":"경기도 안산시 상록구 이동 716-2번지 한미오피스텔 108호","indutype":"일반휴게음식 - 일반한식","category":"restaurant"},{"name":"두두반점","tel":"031-502-8282","addr":"경기도 안산시 상록구 이동 716-2번지 한미오피스텔 1층 109호","indutype":"일반휴게음식 - 일반한식","category":"restaurant"},{"name":"비비큐하우스(BBQ House)","tel":"070-3248-8533","addr":"경기도 안산시 상록구 이동 716-2번지 한미오피스텔 204호","indutype":"일반휴게음식 - 일반한식","category":"restaurant"},{"name":"스마크","tel":"031-406-9779","addr":"경기도 안산시 상록구 이동 716-2번지 한미오피스텔 2층 204호","indutype":"일반휴게음식 - 서양음식","category":"restaurant"},{"name":"친우양꼬치","tel":"031-413-7005","addr":"경기도 안산시 상록구 이동 716-2번지 한미오피스텔 105호","indutype":"일반휴게음식 - 중국식","category":"restaurant"}]},{"lat":"37.305010939","long":"126.86140277","imageIndex":4,"items":[{"name":"BHC(안산이동점)","tel":"031-408-3277","addr":"경기도 안산시 상록구 이동 577-6번지 1층","indutype":"일반휴게음식 - 주점","category":"restaurant"},{"name":"황제식당","tel":"031-505-2655","addr":"경기도 안산시 상록구 이동 577-6번지 1층","indutype":"일반휴게음식 - 일반한식","category":"restaurant"}]},{"lat":"37.308754649","long":"126.85048791","imageIndex":4,"items":[{"name":"Bell Live","tel":"031-407-2989","addr":"경기도 안산시 상록구 이동 715-7번지 진성프라자 305호","indutype":"일반휴게음식 - 스넥","category":"restaurant"},{"name":"도깨비왕감자탕","tel":"031-419-0487","addr":"경기도 안산시 상록구 이동 715-7진성프라자109,110,111","indutype":"일반휴게음식 - 일반한식","category":"restaurant"},{"name":"두드림치킨","tel":"031-407-2200","addr":"경기도 안산시 상록구 이동 715-7번지 진성프라자 104호","indutype":"일반휴게음식 - 주점","category":"restaurant"},{"name":"민카페","tel":"","addr":"경기도 안산시 상록구 이동 715-7번지 진성프라자 204호","indutype":"일반휴게음식 - 주점","category":"restaurant"},{"name":"삼남매손만두","tel":"031-409-6111","addr":"경기도 안산시 상록구 이동 715-7번지 진성프라자 1층 112호","indutype":"일반휴게음식 - 일반한식","category":"restaurant"},{"name":"썸","tel":"031-408-1644","addr":"경기도 안산시 상록구 이동 715-7번지 진성프라자 208호","indutype":"일반휴게음식 - 주점","category":"restaurant"},{"name":"앙띠","tel":"031-406-6329","addr":"경기도 안산시 상록구 이동 715-7번지 진성프라자 2층 201호","indutype":"일반휴게음식 - 주점","category":"restaurant"},{"name":"앙띠","tel":"","addr":"경기도 안산시 상록구 이동 715-7번지 진성프라자 2층 201호","indutype":"일반휴게음식 - 일반한식","category":"restaurant"},{"name":"왕매운닭발","tel":"031-000-0000","addr":"경기도 안산시 상록구 이동 715-7번지 진성프라자 105호","indutype":"일반휴게음식 - 주점","category":"restaurant"},{"name":"웰 (WELL)","tel":"031-407-7179","addr":"경기도 안산시 상록구 이동 715-7번지 진성프라자 202호","indutype":"일반휴게음식 - 주점","category":"restaurant"},{"name":"웰바","tel":"","addr":"경기도 안산시 상록구 이동 715-7번지 진성프라자 2층 202호","indutype":"일반휴게음식 - 일반한식","category":"restaurant"},{"name":"쪽갈비전문점쪽킹","tel":"031-408-9291","addr":"경기도 안산시 상록구 이동 715-7번지 진성프라자 107호","indutype":"일반휴게음식 - 일반한식","category":"restaurant"},{"name":"크라운","tel":"","addr":"경기도 안산시 상록구 이동 715-7번지 진성프라자 3층 303호","indutype":"일반휴게음식 - 일반한식","category":"restaurant"},{"name":"투걸스라이브","tel":"031-416-2900","addr":"경기도 안산시 상록구 이동 715-7번지 진성프라자 4층 403호","indutype":"일반휴게음식 - 일반한식","category":"restaurant"},{"name":"투걸스라이브","tel":"031-406-1882","addr":"경기도 안산시 상록구 이동 715-7번지 진성프라자 403호","indutype":"일반휴게음식 - 일반한식","category":"restaurant"},{"name":"포인트","tel":"031-419-9017","addr":"경기도 안산시 상록구 이동 715-7번지 진성프라자 3층 303호","indutype":"일반휴게음식 - 일반한식","category":"restaurant"},{"name":"폭시","tel":"031-403-2580","addr":"경기도 안산시 상록구 이동 715-7번지 진성프라자 302호","indutype":"일반휴게음식 - 일반한식","category":"restaurant"},{"name":"폭시","tel":"031-487-0337","addr":"경기도 안산시 상록구 이동 715-7번지 진성프라자 302호","indutype":"일반휴게음식 - 일반한식","category":"restaurant"},{"name":"화평동왕냉면돼지갈비주먹고기","tel":"031-419-1662","addr":"경기도 안산시 상록구 이동 715-7번지 진성프라자 102호","indutype":"일반휴게음식 - 일반한식","category":"restaurant"}]},{"lat":"37.309645916","long":"126.84991082","imageIndex":4,"items":[{"name":"EL DORADO","tel":"031-502-7450","addr":"경기도 안산시 상록구 이동 707-6번지","indutype":"일반휴게음식 - 서양음식","category":"restaurant"}]},{"lat":"37.308033732","long":"126.85041041","imageIndex":4,"items":[{"name":"Malibu","tel":"031-365-5202","addr":"경기도 안산시 상록구 이동 715-4번지 센타프라자 3층 303호 일부","indutype":"일반휴게음식 - 일반한식","category":"restaurant"},{"name":"긴죠우","tel":"031-407-0917","addr":"경기도 안산시 상록구 이동 715-4번지 센터프라자 205호","indutype":"일반휴게음식 - 일식·회집","category":"restaurant"},{"name":"김가네국수김밥","tel":"031-416-7757","addr":"경기도 안산시 상록구 이동 715-4번지 센타프라자 122호","indutype":"일반휴게음식 - 스넥","category":"restaurant"},{"name":"등대지기꼼장어","tel":"031-438-0708","addr":"경기도 안산시 상록구 이동 715-4번지 센터프라자 120호","indutype":"일반휴게음식 - 일반한식","category":"restaurant"},{"name":"레이싱","tel":"031-416-5882","addr":"경기도 안산시 상록구 이동 715-4번지 2층 206호, 206-1호","indutype":"일반휴게음식 - 주점","category":"restaurant"},{"name":"막상막하","tel":"031-409-0667","addr":"경기도 안산시 상록구 이동 715-4번지 센타프라자 101호","indutype":"일반휴게음식 - 주점","category":"restaurant"},{"name":"맥주광","tel":"","addr":"경기도 안산시 상록구 이동 715-4번지 센타프라자 3층 303호","indutype":"일반휴게음식 - 주점","category":"restaurant"},{"name":"맥주인","tel":"031-407-0526","addr":"경기도 안산시 상록구 이동 715-4번지 센타프라자 2층 202호","indutype":"일반휴게음식 - 일반한식","category":"restaurant"},{"name":"먹자주점황토골","tel":"031-416-3275","addr":"경기도 안산시 상록구 이동 715-4번지 센터프라자","indutype":"일반휴게음식 - 일반한식","category":"restaurant"},{"name":"멜팅그릴(안산한대앞역)","tel":"031-408-8835","addr":"경기도 안산시 상록구 이동 715-4번지 센타프라자 1동 119호","indutype":"일반휴게음식 - 서양음식","category":"restaurant"},{"name":"미스터오징어 한대앞역점","tel":"031-365-5507","addr":"경기도 안산시 상록구 이동 715-4번지 센타프라자 106,107호","indutype":"일반휴게음식 - 일식·회집","category":"restaurant"},{"name":"불끈풍천민물장어","tel":"031-419-3555","addr":"경기도 안산시 상록구 이동 715-4번지 102호, 103호","indutype":"일반휴게음식 - 일반한식","category":"restaurant"},{"name":"빽다방 안산한대앞역점","tel":"031-408-0403","addr":"경기도 안산시 상록구 이동 715-4번지 센타프라자 117호","indutype":"일반휴게음식 - 서양음식","category":"restaurant"},{"name":"신마포갈매기(한대역점)","tel":"031-418-6092","addr":"경기도 안산시 상록구 이동 715-4 센타프라자 106호~107호","indutype":"일반휴게음식 - 일반한식","category":"restaurant"},{"name":"안부자닭갈비","tel":"031-415-5119","addr":"경기도 안산시 상록구 이동 715-4번지 센타프라자 113호","indutype":"일반휴게음식 - 일반한식","category":"restaurant"},{"name":"연안식당","tel":"031-437-2877","addr":"경기도 안산시 상록구 이동 715-4번지 센타프라자 108호 109호","indutype":"일반휴게음식 - 일반한식","category":"restaurant"},{"name":"와바라이브","tel":"031-408-3382","addr":"경기도 안산시 상록구 이동 715-4번지 센타프라자 3층 302호","indutype":"일반휴게음식 - 일반한식","category":"restaurant"},{"name":"포차술짠","tel":"031-501-0405","addr":"경기도 안산시 상록구 이동 715-4번지 센타프라자 105호","indutype":"일반휴게음식 - 주점","category":"restaurant"},{"name":"하루방제주똥돼지","tel":"031-406-9191","addr":"경기도 안산시 상록구 이동 715-4센타프라자106호~107호","indutype":"일반휴게음식 - 일반한식","category":"restaurant"},{"name":"한양골","tel":"031-407-7488","addr":"경기도 안산시 상록구 이동 715-4번지 111,112호","indutype":"일반휴게음식 - 일반한식","category":"restaurant"},{"name":"한양순대국","tel":"031-407-0057","addr":"경기도 안산시 상록구 이동 715-4번지 센터프라자 104호","indutype":"일반휴게음식 - 일반한식","category":"restaurant"},{"name":"화난연통","tel":"031-407-6665","addr":"경기도 안산시 상록구 이동 715-4번지 센타프라자 2층 202호","indutype":"일반휴게음식 - 일반한식","category":"restaurant"}]},{"lat":"37.308954522","long":"126.85177344","imageIndex":4,"items":[{"name":"PUB PI Mc","tel":"031-408-2085","addr":"경기도 안산시 상록구 이동 715번지 엔타운 101동-1호","indutype":"일반휴게음식 - 서양음식","category":"restaurant"},{"name":"가마로강정(한대역점)","tel":"031-501-1356","addr":"경기도 안산시 상록구 이동 715번지 엔타운 102호","indutype":"일반휴게음식 - 일반한식","category":"restaurant"},{"name":"나이트마켓","tel":"070-4280-0835","addr":"경기도 안산시 상록구 이동 715번지 엔타운 1층 113호","indutype":"일반휴게음식 - 주점","category":"restaurant"},{"name":"리틀하노이베트남쌀국수(한대앞역점)","tel":"","addr":"경기도 안산시 상록구 이동 715번지 엔타운 101호","indutype":"일반휴게음식 - 일반한식","category":"restaurant"},{"name":"밀맥","tel":"031-406-9349","addr":"경기도 안산시 상록구 이동 715번지 엔타운 1층 117,118호","indutype":"일반휴게음식 - 주점","category":"restaurant"},{"name":"송호불백","tel":"031-407-7825","addr":"경기도 안산시 상록구 이동 715번지 엔타운 109호","indutype":"일반휴게음식 - 일반한식","category":"restaurant"},{"name":"신혼마","tel":"031-416-1118","addr":"경기도 안산시 상록구 이동 715 엔타운115호,116호","indutype":"일반휴게음식 - 일식·회집","category":"restaurant"},{"name":"심야포차","tel":"031-413-0505","addr":"경기도 안산시 상록구 이동 715번지 엔타운 114호","indutype":"일반휴게음식 - 일반한식","category":"restaurant"},{"name":"심야포차","tel":"031-417-0505","addr":"경기도 안산시 상록구 이동 715번지 엔타운 1층 114호","indutype":"일반휴게음식 - 일반한식","category":"restaurant"},{"name":"써브웨이 한대역점","tel":"031-418-1900","addr":"경기도 안산시 상록구 이동 715번지","indutype":"일반휴게음식 - 일반한식","category":"restaurant"},{"name":"에떼호프","tel":"031-419-2522","addr":"경기도 안산시 상록구 이동 715번지 연번지 204호","indutype":"일반휴게음식 - 주점","category":"restaurant"},{"name":"장수양꼬치","tel":"070-8940-6420","addr":"경기도 안산시 상록구 이동 715번지 엔타운 1층 112호","indutype":"일반휴게음식 - 일반한식","category":"restaurant"},{"name":"주촌","tel":"031-502-2788","addr":"경기도 안산시 상록구 이동 715번지 엔타운빌딩 204호","indutype":"일반휴게음식 - 일반한식","category":"restaurant"},{"name":"주촌","tel":"031-502-2788","addr":"경기도 안산시 상록구 이동 715번지 엔타운 204호","indutype":"일반휴게음식 - 일반한식","category":"restaurant"},{"name":"찜&닭","tel":"031-411-7970","addr":"경기도 안산시 상록구 이동 715번지 엔타운 1층 114호","indutype":"일반휴게음식 - 일반한식","category":"restaurant"}]},{"lat":"37.309115738","long":"126.85101735","imageIndex":4,"items":[{"name":"가스통","tel":"","addr":"경기도 안산시 상록구 이동 715-9번지 조강빌딩 지하 B01호","indutype":"일반휴게음식 - 일반한식","category":"restaurant"},{"name":"가스통","tel":"031-408-1986","addr":"경기도 안산시 상록구 이동 715-9번지 조강빌딩 B01호","indutype":"일반휴게음식 - 주점","category":"restaurant"},{"name":"가장맛있는족발","tel":"031-407-5849","addr":"경기도 안산시 상록구 이동 715-9번지 조강빌딩제1층102,103호","indutype":"일반휴게음식 - 일반한식","category":"restaurant"},{"name":"모가","tel":"031-416-5879","addr":"경기도 안산시 상록구 이동 715-9번지 조강빌딩 101호","indutype":"일반휴게음식 - 일반한식","category":"restaurant"},{"name":"삼곱식당","tel":"031-417-3992","addr":"경기도 안산시 상록구 이동 715-9번지 조강빌딩 105,106호","indutype":"일반휴게음식 - 일반한식","category":"restaurant"}]},{"lat":"37.313011125","long":"126.84638442","imageIndex":4,"items":[{"name":"가야족발","tel":"031-501-1236","addr":"경기도 안산시 상록구 이동 644-7번지 101호","indutype":"일반휴게음식 - 일반한식","category":"restaurant"}]},{"lat":"37.306844981","long":"126.85087528","imageIndex":4,"items":[{"name":"각시보쌈","tel":"031-407-8753","addr":"경기도 안산시 상록구 이동 718번지 미래주차타워 106동 107호","indutype":"일반휴게음식 - 일반한식","category":"restaurant"},{"name":"뒷돈생고기","tel":"031-407-3720","addr":"경기도 안산시 상록구 이동 718번지 미래주차타워 110호","indutype":"일반휴게음식 - 일반한식","category":"restaurant"},{"name":"시골밥상","tel":"031-418-4153","addr":"경기도 안산시 상록구 이동 718번지 미래주차타워 104호","indutype":"일반휴게음식 - 일반한식","category":"restaurant"},{"name":"아빠감자탕","tel":"031-409-0112","addr":"경기도 안산시 상록구 이동 718번지 미래주차타워 109호","indutype":"일반휴게음식 - 일반한식","category":"restaurant"},{"name":"장터생선구이","tel":"031-408-2775","addr":"경기도 안산시 상록구 이동 718번지 미래주차타워 1층 105호","indutype":"일반휴게음식 - 일반한식","category":"restaurant"}]},{"lat":"37.309035464","long":"126.85887976","imageIndex":4,"items":[{"name":"갈비명가서서갈비","tel":"031-418-5141","addr":"경기도 안산시 상록구 이동 594-1번지 1층","indutype":"일반휴게음식 - 일반한식","category":"restaurant"},{"name":"왕자수산센타","tel":"031-418-1189","addr":"경기도 안산시 상록구 이동 594-1번지 1층","indutype":"일반휴게음식 - 일식·회집","category":"restaurant"}]},{"lat":"37.307538839","long":"126.85093028","imageIndex":4,"items":[{"name":"갈비애드림","tel":"031-503-0066","addr":"경기도 안산시 상록구 이동 716-8번지 코로스프라자 203호","indutype":"일반휴게음식 - 일반한식","category":"restaurant"},{"name":"감탄(한대역점)","tel":"031-417-3506","addr":"경기도 안산시 상록구 이동 716-8번지 코로스프라자 110호","indutype":"일반휴게음식 - 스넥","category":"restaurant"},{"name":"깐부치킨(안산한대역앞점)","tel":"031-416-7656","addr":"경기도 안산시 상록구 이동 716-8번지 코로스프라자 119,120호","indutype":"일반휴게음식 - 스넥","category":"restaurant"},{"name":"명랑핫도그(한양대역점)","tel":"031-407-7706","addr":"경기도 안산시 상록구 이동 716-8번지 코로스프라자 108호","indutype":"일반휴게음식 - 일반한식","category":"restaurant"},{"name":"보틀비어","tel":"","addr":"경기도 안산시 상록구 이동 716-8번지","indutype":"일반휴게음식 - 주점","category":"restaurant"},{"name":"에이엑스(AX)","tel":"031-415-2003","addr":"경기도 안산시 상록구 이동 716-8번지 코로스프라자 3층 301호","indutype":"일반휴게음식 - 일반한식","category":"restaurant"},{"name":"이동고고갈비","tel":"031-418-9244","addr":"경기도 안산시 상록구 이동 716-8번지 코로스프라자 201호202호","indutype":"일반휴게음식 - 일반한식","category":"restaurant"},{"name":"춘천쌍둥이닭갈비(본점)","tel":"031-501-1045","addr":"경기도 안산시 상록구 이동 716-8번지 코로스프라자 112호","indutype":"일반휴게음식 - 일반한식","category":"restaurant"},{"name":"플레이걸앤스테이크","tel":"031-000-0000","addr":"경기도 안산시 상록구 이동 716-8번지 코로스프라자 3층 301호","indutype":"일반휴게음식 - 일반한식","category":"restaurant"},{"name":"피자마루안산한대역점","tel":"031-502-4433","addr":"경기도 안산시 상록구 이동 716-8번지 코로스프라자 109호","indutype":"일반휴게음식 - 서양음식","category":"restaurant"}]},{"lat":"37.307006133","long":"126.85007409","imageIndex":4,"items":[{"name":"강남돈까스","tel":"031-502-9080","addr":"경기도 안산시 상록구 이동 717-2번지 제1층109호~110호","indutype":"일반휴게음식 - 스넥","category":"restaurant"},{"name":"다사랑치킨피자","tel":"031-409-6611","addr":"경기도 안산시 상록구 이동 717-2번지 101호,102호","indutype":"일반휴게음식 - 일반한식","category":"restaurant"},{"name":"둘둘치킨","tel":"031-415-9249","addr":"경기도 안산시 상록구 이동 717-2번지 한양프라자 105호","indutype":"일반휴게음식 - 스넥","category":"restaurant"},{"name":"둘둘치킨","tel":"031-896-9932","addr":"경기도 안산시 상록구 이동 717-2번지 한양프라자 1층 105호","indutype":"일반휴게음식 - 주점","category":"restaurant"},{"name":"리얼치킨","tel":"031-407-9959","addr":"경기도 안산시 상록구 이동 717-2번지 한양프라자 201호 일부","indutype":"일반휴게음식 - 일반한식","category":"restaurant"},{"name":"배달삼겹직구삼(안산한대점)","tel":"031-409-9233","addr":"경기도 안산시 상록구 이동 717-2번지 한양프라자 103호","indutype":"일반휴게음식 - 일반한식","category":"restaurant"},{"name":"신 청춘닭발","tel":"031-405-4404","addr":"경기도 안산시 상록구 이동 717-2번지 한양프라자 103호","indutype":"일반휴게음식 - 일반한식","category":"restaurant"}]},{"lat":"37.307228542","long":"126.84788535","imageIndex":4,"items":[{"name":"강남동태찜(전국본점)","tel":"031-502-9332","addr":"경기도 안산시 상록구 이동 712-1 1,2층","indutype":"일반휴게음식 - 일반한식","category":"restaurant"},{"name":"강남한우","tel":"031-502-9332","addr":"경기도 안산시 상록구 이동 712-1번지 3층","indutype":"일반휴게음식 - 일반한식","category":"restaurant"},{"name":"커피품애","tel":"031-502-9336","addr":"경기도 안산시 상록구 이동 712-1번지 1층","indutype":"일반휴게음식 - 서양음식","category":"restaurant"}]},{"lat":"37.306565914","long":"126.85826409","imageIndex":4,"items":[{"name":"강릉교동짬뽕","tel":"031-414-0512","addr":"경기도 안산시 상록구 이동 586-3번지 1층","indutype":"일반휴게음식 - 중국식","category":"restaurant"},{"name":"강릉원조교동짬뽕","tel":"02-1111-1111","addr":"경기도 안산시 상록구 이동 586-3번지 1층","indutype":"일반휴게음식 - 중국식","category":"restaurant"}]},{"lat":"37.310422016","long":"126.85804237","imageIndex":4,"items":[{"name":"강릉회무침매운탕","tel":"070-8964-1257","addr":"경기도 안산시 상록구 이동 521-15번지 1층","indutype":"일반휴게음식 - 일반한식","category":"restaurant"},{"name":"대박연탄구이","tel":"031-503-8018","addr":"경기도 안산시 상록구 이동 521-15번지 1층","indutype":"일반휴게음식 - 일반한식","category":"restaurant"}]},{"lat":"37.30431749","long":"126.86168606","imageIndex":4,"items":[{"name":"갤러리카페몽땅","tel":"","addr":"경기도 안산시 상록구 이동 574-3번지 1층","indutype":"일반휴게음식 - 일반한식","category":"restaurant"},{"name":"광명생곱창","tel":"031-416-9277","addr":"경기도 안산시 상록구 이동 574-3번지 1층","indutype":"일반휴게음식 - 일반한식","category":"restaurant"},{"name":"마음을 담은 상록수점","tel":"031-505-1005","addr":"경기도 안산시 상록구 이동 574-3번지 101호","indutype":"일반휴게음식 - 일반한식","category":"restaurant"},{"name":"목포제일식당","tel":"03-100-0000","addr":"경기도 안산시 상록구 이동 574-3번지 1층","indutype":"일반휴게음식 - 일반한식","category":"restaurant"}]},{"lat":"37.306955176","long":"126.85976356","imageIndex":4,"items":[{"name":"거래처","tel":"031-503-8018","addr":"경기도 안산시 상록구 이동 601-10번지 1층","indutype":"일반휴게음식 - 일반한식","category":"restaurant"}]},{"lat":"37.311316493","long":"126.86007114","imageIndex":4,"items":[{"name":"거시기포차","tel":"031-406-2156","addr":"경기도 안산시 상록구 이동 537-8번지 1층 104호","indutype":"일반휴게음식 - 주점","category":"restaurant"},{"name":"불티닭발","tel":"031-406-2156","addr":"경기도 안산시 상록구 이동 537-8번지 104호","indutype":"일반휴게음식 - 일반한식","category":"restaurant"},{"name":"송어세상","tel":"070-2699-0393","addr":"경기도 안산시 상록구 이동 537-8번지 1층 101호","indutype":"일반휴게음식 - 일반한식","category":"restaurant"},{"name":"유초명가삼삼족발","tel":"031-418-3335","addr":"경기도 안산시 상록구 이동 537-8번지 102호","indutype":"일반휴게음식 - 일반한식","category":"restaurant"},{"name":"정든주막","tel":"031-480-8420","addr":"경기도 안산시 상록구 이동 537-8번지 1층","indutype":"일반휴게음식 - 주점","category":"restaurant"}]},{"lat":"37.307789947","long":"126.8500161","imageIndex":4,"items":[{"name":"걸스데이바","tel":"031-410-8864","addr":"경기도 안산시 상록구 이동 714번지 신화프라자 3층 302호","indutype":"일반휴게음식 - 일반한식","category":"restaurant"},{"name":"굴맨","tel":"031-408-9293","addr":"경기도 안산시 상록구 이동 714번지 신화프라자 107호","indutype":"일반휴게음식 - 일반한식","category":"restaurant"},{"name":"내담대구뽈탕찜","tel":"031-501-7492","addr":"경기도 안산시 상록구 이동 714번지 신화프라자 107호","indutype":"일반휴게음식 - 일반한식","category":"restaurant"},{"name":"맛깔참죽한대역점","tel":"031-417-6233","addr":"경기도 안산시 상록구 이동 714번지 신화프라자 102호","indutype":"일반휴게음식 - 일반한식","category":"restaurant"},{"name":"뮤직스토리","tel":"","addr":"경기도 안산시 상록구 이동 714번지 신화프라자 2층 202호","indutype":"일반휴게음식 - 일반한식","category":"restaurant"},{"name":"얀","tel":"031-406-2110","addr":"경기도 안산시 상록구 이동 714번지 심화프라자 205호","indutype":"일반휴게음식 - 일반한식","category":"restaurant"},{"name":"치킨더홈 안산한대점","tel":"031-406-7010","addr":"경기도 안산시 상록구 이동 714번지 신화프라자 101호","indutype":"일반휴게음식 - 스넥","category":"restaurant"},{"name":"해라","tel":"070-4135-4465","addr":"경기도 안산시 상록구 이동 714번지 신화프라자 204호","indutype":"일반휴게음식 - 일반한식","category":"restaurant"}]},{"lat":"37.308926206","long":"126.85076957","imageIndex":4,"items":[{"name":"경기안산지역자활센터/하나카페","tel":"031-438-9506","addr":"경기도 안산시 상록구 이동 715-8번지 조강프라자 505호","indutype":"일반휴게음식 - 서양음식","category":"restaurant"},{"name":"굴러들어온 복","tel":"031-408-4212","addr":"경기도 안산시 상록구 이동 715-8번지 조강프라자 112,113호","indutype":"일반휴게음식 - 일반한식","category":"restaurant"},{"name":"꼬꼬해","tel":"031-415-7777","addr":"경기도 안산시 상록구 이동 715-8번지 조강프라자 109동 111호","indutype":"일반휴게음식 - 스넥","category":"restaurant"},{"name":"원조마포생갈비","tel":"031-408-8006","addr":"경기도 안산시 상록구 이동 715-8번지 조강프라자 1층 106호","indutype":"일반휴게음식 - 일반한식","category":"restaurant"},{"name":"원조마포생갈비","tel":"031-408-8006","addr":"경기도 안산시 상록구 이동 715-8번지 조강프라자 106호","indutype":"일반휴게음식 - 일반한식","category":"restaurant"},{"name":"족발야시장","tel":"031-408-4969","addr":"경기도 안산시 상록구 이동 715-8번지 조강프라자 105호","indutype":"일반휴게음식 - 일반한식","category":"restaurant"},{"name":"추억의서서갈비","tel":"031-408-8025","addr":"경기도 안산시 상록구 이동 715-8번지 조강프라자 101,102,103호","indutype":"일반휴게음식 - 일반한식","category":"restaurant"},{"name":"투다리","tel":"031-406-5792","addr":"경기도 안산시 상록구 이동 715-8번지 조강프라자 1동 104호","indutype":"일반휴게음식 - 일반한식","category":"restaurant"},{"name":"투다리","tel":"031-406-5792","addr":"경기도 안산시 상록구 이동 715-8번지 조강프라자 104호","indutype":"일반휴게음식 - 주점","category":"restaurant"}]},{"lat":"37.311975683","long":"126.84693932","imageIndex":4,"items":[{"name":"경성짬뽕","tel":"031-407-3521","addr":"경기도 안산시 상록구 이동 654-10번지 1층","indutype":"일반휴게음식 - 중국식","category":"restaurant"}]},{"lat":"37.305011679","long":"126.86202314","imageIndex":4,"items":[{"name":"고기밥상","tel":"031-406-0577","addr":"경기도 안산시 상록구 이동 569번지 영빌딩 1층","indutype":"일반휴게음식 - 일반한식","category":"restaurant"}]},{"lat":"37.308367791","long":"126.8509399","imageIndex":4,"items":[{"name":"고래바","tel":"031-414-0486","addr":"경기도 안산시 상록구 이동 715-3번지 강우프라자 405호","indutype":"일반휴게음식 - 일반한식","category":"restaurant"},{"name":"고려족발","tel":"031-407-1027","addr":"경기도 안산시 상록구 이동 715-3번지 강우프라자 109호","indutype":"일반휴게음식 - 일반한식","category":"restaurant"},{"name":"깡촌","tel":"031-408-0202","addr":"경기도 안산시 상록구 이동 715-3번지 강우프라자 201호","indutype":"일반휴게음식 - 주점","category":"restaurant"},{"name":"막썰어식당","tel":"031-437-7211","addr":"경기도 안산시 상록구 이동 715-3번지 강우빌딩 107동 108호","indutype":"일반휴게음식 - 일식·회집","category":"restaurant"},{"name":"미소돈가스","tel":"031-438-8252","addr":"경기도 안산시 상록구 이동 715-3번지 강우빌딩 116호","indutype":"일반휴게음식 - 서양음식","category":"restaurant"},{"name":"바바리아","tel":"","addr":"경기도 안산시 상록구 이동 715-3번지 강우프라자 208호","indutype":"일반휴게음식 - 서양음식","category":"restaurant"},{"name":"보약족발","tel":"031-406-2311","addr":"경기도 안산시 상록구 이동 715-3번지 강우프라자 1층 101호","indutype":"일반휴게음식 - 일반한식","category":"restaurant"},{"name":"본죽","tel":"031-408-5888","addr":"경기도 안산시 상록구 이동 715-3번지 강우프라자 115호","indutype":"일반휴게음식 - 일반한식","category":"restaurant"},{"name":"비어펍","tel":"070-8260-3322","addr":"경기도 안산시 상록구 이동 715-3번지 강우프라자 3층 306호","indutype":"일반휴게음식 - 주점","category":"restaurant"},{"name":"빈대떡신사","tel":"031-415-9303","addr":"경기도 안산시 상록구 이동 715-3번지 강우프라자 109호","indutype":"일반휴게음식 - 일반한식","category":"restaurant"},{"name":"소문난김밥","tel":"031-502-0777","addr":"경기도 안산시 상록구 이동 715-3번지 강우빌딩 114호","indutype":"일반휴게음식 - 일반한식","category":"restaurant"},{"name":"스마크파티하우스","tel":"031-406-9779","addr":"경기도 안산시 상록구 이동 715-3번지 301호,302호,303호","indutype":"일반휴게음식 - 일반한식","category":"restaurant"},{"name":"어가","tel":"031-409-4083","addr":"경기도 안산시 상록구 이동 715-3번지 2층 205,206호","indutype":"일반휴게음식 - 일반한식","category":"restaurant"},{"name":"엄마곱창","tel":"031-418-0210","addr":"경기도 안산시 상록구 이동 715-3번지 강우빌딩 111호","indutype":"일반휴게음식 - 일반한식","category":"restaurant"},{"name":"에스디치킨호프(안산)","tel":"031-502-6607","addr":"경기도 안산시 상록구 이동 715-3번지 강우D/C 109호","indutype":"일반휴게음식 - 주점","category":"restaurant"},{"name":"연어이야기&육회","tel":"070-5654-6537","addr":"경기도 안산시 상록구 이동 715-3번지 강우프라자 1층 113호","indutype":"일반휴게음식 - 일반한식","category":"restaurant"},{"name":"오","tel":"","addr":"경기도 안산시 상록구 이동 715-3번지 강우프라자 2층 202호","indutype":"일반휴게음식 - 일반한식","category":"restaurant"},{"name":"쥬씨 한대역","tel":"070-4115-1028","addr":"경기도 안산시 상록구 이동 715-3번지 강우프라자 114호","indutype":"일반휴게음식 - 서양음식","category":"restaurant"},{"name":"콩툰만화카페","tel":"031-406-0077","addr":"경기도 안산시 상록구 이동 715-3번지 강우프라자 4층 408호","indutype":"일반휴게음식 - 서양음식","category":"restaurant"},{"name":"펀비어킹안산한대앞역점","tel":"031-406-9262","addr":"경기도 안산시 상록구 이동 715-3 강우프라자102호~105호","indutype":"일반휴게음식 - 주점","category":"restaurant"},{"name":"피쉬앤그릴","tel":"031-417-9494","addr":"경기도 안산시 상록구 이동 강우빌딩1층106","indutype":"일반휴게음식 - 칵테일바","category":"restaurant"}]},{"lat":"37.308729214","long":"126.85895931","imageIndex":4,"items":[{"name":"고바우왕족발보쌈","tel":"031-405-0045","addr":"경기도 안산시 상록구 이동 595-11번지 1층","indutype":"일반휴게음식 - 일반한식","category":"restaurant"}]},{"lat":"37.304067011","long":"126.86320924","imageIndex":4,"items":[{"name":"고박사네","tel":"031-406-9331","addr":"경기도 안산시 상록구 이동 570-6번지 103호","indutype":"일반휴게음식 - 일반한식","category":"restaurant"},{"name":"소우강호","tel":"031-759-4123","addr":"경기도 안산시 상록구 이동 570-6번지 103호","indutype":"일반휴게음식 - 일반한식","category":"restaurant"},{"name":"춘화네순대국","tel":"031-406-9331","addr":"경기도 안산시 상록구 이동 570-6번지 103호","indutype":"일반휴게음식 - 일반한식","category":"restaurant"},{"name":"한식포차","tel":"070-8917-1079","addr":"경기도 안산시 상록구 이동 570-6번지 103호","indutype":"일반휴게음식 - 일반한식","category":"restaurant"}]},{"lat":"37.309483937","long":"126.85006908","imageIndex":4,"items":[{"name":"고향집장독대","tel":"031-416-9944","addr":"경기도 안산시 상록구 이동 708-7번지 1층 102호","indutype":"일반휴게음식 - 일반한식","category":"restaurant"},{"name":"디랩안산점(DLab안산점)","tel":"","addr":"경기도 안산시 상록구 이동 708-7번지 101호","indutype":"일반휴게음식 - 일반한식","category":"restaurant"}]},{"lat":"37.307534889","long":"126.84788472","imageIndex":4,"items":[{"name":"고향집전주콩나물국밥","tel":"031-495-6321","addr":"경기도 안산시 상록구 이동 712번지 굿모닝오피스텔 108호","indutype":"일반휴게음식 - 일반한식","category":"restaurant"},{"name":"대궁","tel":"031-416-2552","addr":"경기도 안산시 상록구 이동 712번지 굿모닝오피스텔 111호","indutype":"일반휴게음식 - 중국식","category":"restaurant"},{"name":"서울면옥","tel":"031-437-1253","addr":"경기도 안산시 상록구 이동 712번지 굿모잉오피스텔 105,106,107호","indutype":"일반휴게음식 - 일반한식","category":"restaurant"},{"name":"어촌마을","tel":"031-406-6873","addr":"경기도 안산시 상록구 이동 712번지 굿모닝오피스텔 1층 101호,102호","indutype":"일반휴게음식 - 일반한식","category":"restaurant"},{"name":"진홀(JIN HALL)","tel":"031-405-5966","addr":"경기도 안산시 상록구 이동 712번지 굿모닝오피스텔 110호","indutype":"일반휴게음식 - 일반한식","category":"restaurant"}]},{"lat":"37.310621875","long":"126.85938435","imageIndex":4,"items":[{"name":"골목길포차","tel":"031-416-8555","addr":"경기도 안산시 상록구 이동 529번지 1층 104호","indutype":"일반휴게음식 - 주점","category":"restaurant"},{"name":"만나분식","tel":"031-111-1111","addr":"경기도 안산시 상록구 이동 529번지 104호","indutype":"일반휴게음식 - 일반한식","category":"restaurant"},{"name":"숯불대장군","tel":"031-406-8221","addr":"경기도 안산시 상록구 이동 529번지 102호","indutype":"일반휴게음식 - 일반한식","category":"restaurant"},{"name":"오구오구","tel":"031-502-5988","addr":"경기도 안산시 상록구 이동 529번지 1층","indutype":"일반휴게음식 - 일반한식","category":"restaurant"},{"name":"풍미양꼬치","tel":"031-408-8882","addr":"경기도 안산시 상록구 이동 529번지 1층 101호","indutype":"일반휴게음식 - 일반한식","category":"restaurant"}]},{"lat":"37.308197939","long":"126.85198928","imageIndex":4,"items":[{"name":"교동칼국수","tel":"031-408-7264","addr":"경기도 안산시 상록구 이동 716-11번지 덕성프라자 207호","indutype":"일반휴게음식 - 일반한식","category":"restaurant"},{"name":"김밥천국","tel":"031-407-1009","addr":"경기도 안산시 상록구 이동 716-11번지 덕성프라자 110호","indutype":"일반휴게음식 - 일반한식","category":"restaurant"},{"name":"나타","tel":"070-8861-7029","addr":"경기도 안산시 상록구 이동 716-11번지 덕성프라자 204호","indutype":"일반휴게음식 - 일반한식","category":"restaurant"},{"name":"소래포구","tel":"031-407-1738","addr":"경기도 안산시 상록구 이동 716-11 103호~104호","indutype":"일반휴게음식 - 일반한식","category":"restaurant"},{"name":"어썸 (Awesome)","tel":"031-407-6479","addr":"경기도 안산시 상록구 이동 716-11번지 덕성프라자 1층 101,102호","indutype":"일반휴게음식 - 서양음식","category":"restaurant"},{"name":"투썸플레이스 안산한대앞역점","tel":"031-409-3377","addr":"경기도 안산시 상록구 이동 716-11번지 덕성프라자 111,112,113호","indutype":"일반휴게음식 - 서양음식","category":"restaurant"},{"name":"투썸플레이스 안산한대앞역점","tel":"031-409-3377","addr":"경기도 안산시 상록구 이동 716-11번지 덕성프라자 1층 111-113호","indutype":"일반휴게음식 - 서양음식","category":"restaurant"},{"name":"형제곱창","tel":"031-408-5971","addr":"경기도 안산시 상록구 이동 716-11번지 덕성프라자 105호","indutype":"일반휴게음식 - 일반한식","category":"restaurant"},{"name":"회식의달인","tel":"031-419-9272","addr":"경기도 안산시 상록구 이동 716-11번지 2층 205,206호","indutype":"일반휴게음식 - 일반한식","category":"restaurant"}]},{"lat":"37.311172466","long":"126.86018422","imageIndex":4,"items":[{"name":"구구참치","tel":"031-406-1223","addr":"경기도 안산시 상록구 이동 537-10번지 1층","indutype":"일반휴게음식 - 일반한식","category":"restaurant"},{"name":"화룡양꼬치","tel":"","addr":"경기도 안산시 상록구 이동 537-10번지 101호","indutype":"일반휴게음식 - 중국식","category":"restaurant"}]},{"lat":"37.311976232","long":"126.84735669","imageIndex":4,"items":[{"name":"구룡포막회","tel":"031-415-1118","addr":"경기도 안산시 상록구 이동 654-8번지 금강빌딩","indutype":"일반휴게음식 - 일반한식","category":"restaurant"},{"name":"통통배","tel":"031-415-1118","addr":"경기도 안산시 상록구 이동 654-8번지 금강빌딩","indutype":"일반휴게음식 - 일반한식","category":"restaurant"}]},{"lat":"37.306810617","long":"126.85943672","imageIndex":4,"items":[{"name":"구어바","tel":"031-502-9285","addr":"경기도 안산시 상록구 이동 587-6번지 1층","indutype":"일반휴게음식 - 일반한식","category":"restaurant"}]},{"lat":"37.313561981","long":"126.84731959","imageIndex":4,"items":[{"name":"구주삼안산직영본점","tel":"031-415-8255","addr":"경기도 안산시 상록구 이동 642번지 1층","indutype":"일반휴게음식 - 일반한식","category":"restaurant"}]},{"lat":"37.306843585","long":"126.84979242","imageIndex":4,"items":[{"name":"국수한상","tel":"031-000-0000","addr":"경기도 안산시 상록구 이동 717-3번지 에이스프라자 1층 101호","indutype":"일반휴게음식 - 일반한식","category":"restaurant"},{"name":"대박한식뷔페","tel":"031-111-1111","addr":"경기도 안산시 상록구 이동 717-3번지 에이스프라자 107,108,109호","indutype":"일반휴게음식 - 일반한식","category":"restaurant"},{"name":"미가일식","tel":"031-502-2351","addr":"경기도 안산시 상록구 이동 717-3번지 에이스P/C 202동 203호","indutype":"일반휴게음식 - 일식·회집","category":"restaurant"},{"name":"성가네동태탕찜전문점","tel":"031-408-5999","addr":"경기도 안산시 상록구 이동 717-3번지 에이스프라자 110,111,112호","indutype":"일반휴게음식 - 일반한식","category":"restaurant"},{"name":"왔더펍","tel":"031-405-4404","addr":"경기도 안산시 상록구 이동 717-3번지 에이스프라자 1층 106호","indutype":"일반휴게음식 - 일반한식","category":"restaurant"},{"name":"왔더펍","tel":"","addr":"경기도 안산시 상록구 이동 717-3번지 에이스프라자 106호","indutype":"일반휴게음식 - 일반한식","category":"restaurant"},{"name":"토마토도시락","tel":"031-419-3679","addr":"경기도 안산시 상록구 이동 717-3번지 에이스프라자 105호","indutype":"일반휴게음식 - 일반한식","category":"restaurant"}]},{"lat":"37.311732507","long":"126.86135634","imageIndex":4,"items":[{"name":"굴다리잔치국수","tel":"031-409-4619","addr":"경기도 안산시 상록구 이동 539-14번지","indutype":"일반휴게음식 - 스넥","category":"restaurant"}]},{"lat":"37.311786573","long":"126.84701867","imageIndex":4,"items":[{"name":"굴마을굴국밥","tel":"031-501-9933","addr":"경기도 안산시 상록구 이동 661번지 1층","indutype":"일반휴게음식 - 일반한식","category":"restaurant"}]},{"lat":"37.308480293","long":"126.84737518","imageIndex":4,"items":[{"name":"굴세상","tel":"031-419-5990","addr":"경기도 안산시 상록구 이동 682번지 삼성빌딩 1층","indutype":"일반휴게음식 - 일반한식","category":"restaurant"},{"name":"맛있는초밥","tel":"031-417-6300","addr":"경기도 안산시 상록구 이동 682번지 삼성빌딩 2층","indutype":"일반휴게음식 - 일식·회집","category":"restaurant"}]},{"lat":"37.304622201","long":"126.86032067","imageIndex":4,"items":[{"name":"굽는치킨","tel":"031-418-9289","addr":"경기도 안산시 상록구 이동 576번지 103호","indutype":"일반휴게음식 - 스넥","category":"restaurant"},{"name":"야꼬닭","tel":"031-481-5995","addr":"경기도 안산시 상록구 이동 576번지 1층 101호","indutype":"일반휴게음식 - 일반한식","category":"restaurant"},{"name":"청담밥상","tel":"031-416-9632","addr":"경기도 안산시 상록구 이동 576번지 102호","indutype":"일반휴게음식 - 일반한식","category":"restaurant"}]},{"lat":"37.310873077","long":"126.85849272","imageIndex":4,"items":[{"name":"궁금하닭","tel":"031-438-9992","addr":"경기도 안산시 상록구 이동 526-4번지 102호","indutype":"일반휴게음식 - 일반한식","category":"restaurant"}]},{"lat":"37.312058344","long":"126.84813489","imageIndex":4,"items":[{"name":"궁뎅이","tel":"070-8816-8255","addr":"경기도 안산시 상록구 이동 655번지 1층","indutype":"일반휴게음식 - 주점","category":"restaurant"}]},{"lat":"37.308369593","long":"126.8523499","imageIndex":4,"items":[{"name":"그곳애","tel":"031-409-0433","addr":"경기도 안산시 상록구 이동 716-12번지","indutype":"일반휴게음식 - 주점","category":"restaurant"},{"name":"뉴욕","tel":"031-406-5177","addr":"경기도 안산시 상록구 이동 716-12번지 캠퍼스타운 603동 604호","indutype":"일반휴게음식 - 칵테일바","category":"restaurant"},{"name":"뉴욕","tel":"031-418-0058","addr":"경기도 안산시 상록구 이동 716-12캠퍼스타운6층603호,604호","indutype":"일반휴게음식 - 주점","category":"restaurant"},{"name":"또봉이통닭","tel":"031-408-5558","addr":"경기도 안산시 상록구 이동 716-12번지 캠퍼스타운 1층 122호","indutype":"일반휴게음식 - 스넥","category":"restaurant"},{"name":"라부마라탕","tel":"031-406-0521","addr":"경기도 안산시 상록구 이동 716-12번지 캠퍼스타운 105호","indutype":"일반휴게음식 - 일반한식","category":"restaurant"},{"name":"레드(RED)","tel":"031-419-5200","addr":"경기도 안산시 상록구 이동 716-12번지 캠퍼스타운 206호","indutype":"일반휴게음식 - 주점","category":"restaurant"},{"name":"미소김밥","tel":"031-480-1007","addr":"경기도 안산시 상록구 이동 716-12번지 캠퍼스타운 1층 120호","indutype":"일반휴게음식 - 일반한식","category":"restaurant"},{"name":"브이떡볶이 안산한대앞역점","tel":"031-416-3964","addr":"경기도 안산시 상록구 이동 716-12번지 캠퍼스타운 1층 102호","indutype":"일반휴게음식 - 스넥","category":"restaurant"},{"name":"빨간오징어","tel":"031-407-4874","addr":"경기도 안산시 상록구 이동 716-12번지 캠퍼스타운 102호","indutype":"일반휴게음식 - 일반한식","category":"restaurant"},{"name":"산울림","tel":"031-416-8876","addr":"경기도 안산시 상록구 이동 716-12번지 캠퍼스타운 209호","indutype":"일반휴게음식 - 주점","category":"restaurant"},{"name":"신촌설렁탕","tel":"031-406-2561","addr":"경기도 안산시 상록구 이동 716-12번지 갬퍼스타운 110호","indutype":"일반휴게음식 - 일반한식","category":"restaurant"},{"name":"오늘도","tel":"031-490-6023","addr":"경기도 안산시 상록구 이동 716-12번지 캠퍼스타운 102호","indutype":"일반휴게음식 - 서양음식","category":"restaurant"},{"name":"참고기집","tel":"","addr":"경기도 안산시 상록구 이동 716-12번지 캠퍼스타운 103,104호","indutype":"일반휴게음식 - 일반한식","category":"restaurant"},{"name":"참고기집","tel":"","addr":"경기도 안산시 상록구 이동 716-12번지 104호 103호","indutype":"일반휴게음식 - 일반한식","category":"restaurant"},{"name":"칸티뿌르레스토랑 주식회사","tel":"031-407-9563","addr":"경기도 안산시 상록구 이동 716-12번지 306호 307","indutype":"일반휴게음식 - 서양음식","category":"restaurant"},{"name":"피자스쿨한대앞역점","tel":"031-415-4077","addr":"경기도 안산시 상록구 이동 716-12번지 캠퍼스타운 1층 121호","indutype":"일반휴게음식 - 서양음식","category":"restaurant"}]},{"lat":"37.310587075","long":"126.86041093","imageIndex":4,"items":[{"name":"그옛날양푼김치찌개","tel":"031-437-5088","addr":"경기도 안산시 상록구 이동 538-5번지 1층","indutype":"일반휴게음식 - 일반한식","category":"restaurant"},{"name":"윤가네남원추어탕","tel":"031-406-5855","addr":"경기도 안산시 상록구 이동 538-5번지 1층","indutype":"일반휴게음식 - 일반한식","category":"restaurant"}]},{"lat":"37.31017266","long":"126.86045684","imageIndex":4,"items":[{"name":"김밥과 주먹밥","tel":"031-520-5203","addr":"경기도 안산시 상록구 이동 611-13 102","indutype":"일반휴게음식 - 스넥","category":"restaurant"}]},{"lat":"37.307088486","long":"126.84418585","imageIndex":4,"items":[{"name":"김밥마을","tel":"031-438-8116","addr":"경기도 안산시 상록구 이동 687번지 강남빌딩 104호","indutype":"일반휴게음식 - 스넥","category":"restaurant"}]},{"lat":"37.309594439","long":"126.8591607","imageIndex":4,"items":[{"name":"김밥천국","tel":"031-417-2238","addr":"경기도 안산시 상록구 이동 612-16번지 102호","indutype":"일반휴게음식 - 일반한식","category":"restaurant"},{"name":"김밥천국","tel":"031-417-2238","addr":"경기도 안산시 상록구 이동 612-16번지 102호","indutype":"일반휴게음식 - 스넥","category":"restaurant"}]},{"lat":"37.30667207","long":"126.84954462","imageIndex":4,"items":[{"name":"깜닭","tel":"","addr":"경기도 안산시 상록구 이동 717-4번지 네스트빌 101호","indutype":"일반휴게음식 - 스넥","category":"restaurant"},{"name":"디아(Dia)하루","tel":"","addr":"경기도 안산시 상록구 이동 717-4번지 네스트빌 1층 104호","indutype":"일반휴게음식 - 일반한식","category":"restaurant"},{"name":"마엑스포차(한대점)","tel":"070-7789-0044","addr":"경기도 안산시 상록구 이동 717-4번지 네스트빌 1층 102,103호","indutype":"일반휴게음식 - 주점","category":"restaurant"},{"name":"센스맘의김밥사랑","tel":"031-406-0055","addr":"경기도 안산시 상록구 이동 717-4번지 네스트빌 112호","indutype":"일반휴게음식 - 일반한식","category":"restaurant"},{"name":"정통춘천닭갈비","tel":"031-406-5282","addr":"경기도 안산시 상록구 이동 717-4번지 네스트빌 102,103호","indutype":"일반휴게음식 - 일반한식","category":"restaurant"},{"name":"탑국수집","tel":"031-408-8669","addr":"경기도 안산시 상록구 이동 717-4번지 네스트빌 105,106호","indutype":"일반휴게음식 - 일반한식","category":"restaurant"}]},{"lat":"37.30853207","long":"126.85985081","imageIndex":4,"items":[{"name":"꽃담","tel":"031-408-8553","addr":"경기도 안산시 상록구 이동 609-2번지 1층","indutype":"일반휴게음식 - 일반한식","category":"restaurant"},{"name":"꽃담","tel":"031-408-8553","addr":"경기도 안산시 상록구 이동 609-2번지","indutype":"일반휴게음식 - 서양음식","category":"restaurant"}]},{"lat":"37.311733431","long":"126.84771817","imageIndex":4,"items":[{"name":"꽃지향","tel":"031-501-0037","addr":"경기도 안산시 상록구 이동 661-4번지 2층","indutype":"일반휴게음식 - 일반한식","category":"restaurant"},{"name":"마늘통닭손칼국수","tel":"031-416-1010","addr":"경기도 안산시 상록구 이동 661-4번지 1층","indutype":"일반휴게음식 - 일반한식","category":"restaurant"},{"name":"열린음악라이브","tel":"","addr":"경기도 안산시 상록구 이동 661-4번지 3층","indutype":"일반휴게음식 - 주점","category":"restaurant"},{"name":"참소반쭈꾸미","tel":"031-416-8008","addr":"경기도 안산시 상록구 이동 661-4번지 1층","indutype":"일반휴게음식 - 일반한식","category":"restaurant"}]},{"lat":"37.309261459","long":"126.85948846","imageIndex":4,"items":[{"name":"남도보리밥","tel":"031-409-3291","addr":"경기도 안산시 상록구 이동 610-7번지 102호","indutype":"일반휴게음식 - 일반한식","category":"restaurant"},{"name":"양가해장국","tel":"031-409-4482","addr":"경기도 안산시 상록구 이동 610-7번지 102호","indutype":"일반휴게음식 - 일반한식","category":"restaurant"}]},{"lat":"37.311478853","long":"126.86021748","imageIndex":4,"items":[{"name":"남도포차","tel":"","addr":"경기도 안산시 상록구 이동 534-16번지 1층 103호","indutype":"일반휴게음식 - 일반한식","category":"restaurant"},{"name":"이모네밥&술","tel":"031-506-6285","addr":"경기도 안산시 상록구 이동 534-16번지 1층","indutype":"일반휴게음식 - 일반한식","category":"restaurant"},{"name":"친구호프","tel":"031-794-2048","addr":"경기도 안산시 상록구 이동 534-16번지 1층","indutype":"일반휴게음식 - 주점","category":"restaurant"},{"name":"친구호프","tel":"031-409-4382","addr":"경기도 안산시 상록구 이동 534-16번지 1층","indutype":"일반휴게음식 - 주점","category":"restaurant"}]},{"lat":"37.311230276","long":"126.84880213","imageIndex":4,"items":[{"name":"남도한식부페기사식당","tel":"031-501-5959","addr":"경기도 안산시 상록구 이동 695-4번지 1층","indutype":"일반휴게음식 - 일반한식","category":"restaurant"}]},{"lat":"37.310088777","long":"126.85815582","imageIndex":4,"items":[{"name":"네오피자 상록점","tel":"031-406-8255","addr":"경기도 안산시 상록구 이동 527-13번지 1층 102호","indutype":"일반휴게음식 - 서양음식","category":"restaurant"}]},{"lat":"37.311452853","long":"126.86107485","imageIndex":4,"items":[{"name":"노가리앤비어(이동점)","tel":"031-497-2292","addr":"경기도 안산시 상록구 이동 539-11번지 102호","indutype":"일반휴게음식 - 일반한식","category":"restaurant"}]},{"lat":"37.311840129","long":"126.86093875","imageIndex":4,"items":[{"name":"녹차왕노가리호프","tel":"031-438-6200","addr":"경기도 안산시 상록구 이동 534-10번지 101호","indutype":"일반휴게음식 - 일반한식","category":"restaurant"},{"name":"사임당맛집","tel":"031-407-7739","addr":"경기도 안산시 상록구 이동 534-10번지 101호","indutype":"일반휴게음식 - 스넥","category":"restaurant"}]},{"lat":"37.307480088","long":"126.84732084","imageIndex":4,"items":[{"name":"누베스커피","tel":"031-501-8383","addr":"경기도 안산시 상록구 이동 694-1번지 1층","indutype":"일반휴게음식 - 스넥","category":"restaurant"}]},{"lat":"37.309448231","long":"126.85032859","imageIndex":4,"items":[{"name":"눈부시게","tel":"","addr":"경기도 안산시 상록구 이동 708-5번지 1층","indutype":"일반휴게음식 - 서양음식","category":"restaurant"}]},{"lat":"37.311923663","long":"126.84849614","imageIndex":4,"items":[{"name":"뉴알지푸드","tel":"","addr":"경기도 안산시 상록구 이동 655-8번지 101호","indutype":"일반휴게음식 - 일반한식","category":"restaurant"}]},{"lat":"37.306373105","long":"126.84829317","imageIndex":4,"items":[{"name":"니뽕신짬뽕","tel":"031-502-8598","addr":"경기도 안산시 상록구 이동 720-2번지 동영센트럴타워 1층 103호","indutype":"일반휴게음식 - 중국식","category":"restaurant"},{"name":"덕사랑_동영종합건설(주)","tel":"031-501-3555","addr":"경기도 안산시 상록구 이동 720-2 동영센트럴타워101호~103호","indutype":"일반휴게음식 - 일반한식","category":"restaurant"},{"name":"데일리커피","tel":"031-223-5214","addr":"경기도 안산시 상록구 이동 720-2번지 동영센트럴타워","indutype":"일반휴게음식 - 서양음식","category":"restaurant"},{"name":"명장한우","tel":"031-415-0068","addr":"경기도 안산시 상록구 이동 720-2번지 동영센트럴타워 301호","indutype":"일반휴게음식 - 일반한식","category":"restaurant"},{"name":"명장한우","tel":"031-415-0068","addr":"경기도 안산시 상록구 이동 720-2번지 동영센트럴타워 301호","indutype":"일반휴게음식 - 일반한식","category":"restaurant"},{"name":"화로불민물장어","tel":"031-502-8592","addr":"경기도 안산시 상록구 이동 720-2번지 동영센트럴타워 102호","indutype":"일반휴게음식 - 일반한식","category":"restaurant"}]},{"lat":"37.309395633","long":"126.851468","imageIndex":4,"items":[{"name":"다랑어참치회","tel":"031-406-2551","addr":"경기도 안산시 상록구 이동 715-11번지","indutype":"일반휴게음식 - 일반한식","category":"restaurant"},{"name":"력(  )","tel":"031-409-8838","addr":"경기도 안산시 상록구 이동 715-11, 1층상가 103~105호","indutype":"일반휴게음식 - 일식·회집","category":"restaurant"}]},{"lat":"37.311812621","long":"126.8462741","imageIndex":4,"items":[{"name":"다미장어","tel":"031-406-2399","addr":"경기도 안산시 상록구 이동 662번지 1,2층","indutype":"일반휴게음식 - 일반한식","category":"restaurant"}]},{"lat":"37.305894343","long":"126.86173951","imageIndex":4,"items":[{"name":"다온맥콤한쭈꾸미","tel":"031-406-6599","addr":"경기도 안산시 상록구 이동 604-5번지 1층 101호","indutype":"일반휴게음식 - 일반한식","category":"restaurant"},{"name":"왕서방","tel":"031-417-6006","addr":"경기도 안산시 상록구 이동 604-5번지 102호","indutype":"일반휴게음식 - 중국식","category":"restaurant"}]},{"lat":"37.307369475","long":"126.84543732","imageIndex":4,"items":[{"name":"당산소바1055","tel":"031-417-1055","addr":"경기도 안산시 상록구 이동 688-4번지 1층","indutype":"일반휴게음식 - 일식·회집","category":"restaurant"}]},{"lat":"37.312650269","long":"126.84604675","imageIndex":4,"items":[{"name":"대게좋은집","tel":"031-501-6502","addr":"경기도 안산시 상록구 이동 650-2번지 1층 101호","indutype":"일반휴게음식 - 일반한식","category":"restaurant"}]},{"lat":"37.309475827","long":"126.85076846","imageIndex":4,"items":[{"name":"대박닭발","tel":"031-502-7378","addr":"경기도 안산시 상록구 이동 709-2번지 유진빌딩 1층","indutype":"일반휴게음식 - 일반한식","category":"restaurant"}]},{"lat":"37.303841729","long":"126.8631871","imageIndex":4,"items":[{"name":"대천부","tel":"031-501-8898","addr":"경기도 안산시 상록구 이동 570-8번지 2층 201호","indutype":"일반휴게음식 - 중국식","category":"restaurant"}]},{"lat":"37.313146278","long":"126.84638414","imageIndex":4,"items":[{"name":"대포항별미집","tel":"031-409-2791","addr":"경기도 안산시 상록구 이동 644-8번지 1층","indutype":"일반휴게음식 - 일반한식","category":"restaurant"}]},{"lat":"37.309647856","long":"126.85863043","imageIndex":4,"items":[{"name":"대풍진국순대","tel":"031-416-6162","addr":"경기도 안산시 상록구 이동 529-10번지 1층","indutype":"일반휴게음식 - 일반한식","category":"restaurant"}]},{"lat":"37.307258957","long":"126.85049093","imageIndex":4,"items":[{"name":"더밴티 안산한대앞점","tel":"031-407-4373","addr":"경기도 안산시 상록구 이동 717번지 로진메디칼 e행복한요양원 1층 105호","indutype":"일반휴게음식 - 서양음식","category":"restaurant"},{"name":"더벤티 안산한대앞점","tel":"031-407-4373","addr":"경기도 안산시 상록구 이동 717번지 로진메디칼 e행복한요양원 1층 105호","indutype":"일반휴게음식 - 일반한식","category":"restaurant"},{"name":"탐앤탐스한대앞역점","tel":"031-501-4565","addr":"경기도 안산시 상록구 이동 717번지 로진메디칼 108동 109호","indutype":"일반휴게음식 - 서양음식","category":"restaurant"}]},{"lat":"37.305317286","long":"126.8614022","imageIndex":4,"items":[{"name":"더하루 (THE HARU)","tel":"","addr":"경기도 안산시 상록구 이동 603-9번지 102호","indutype":"일반휴게음식 - 일반한식","category":"restaurant"}]},{"lat":"37.311979684","long":"126.84318288","imageIndex":4,"items":[{"name":"데이앤라잇/주식회사 플레이스안","tel":"031-000-0000","addr":"경기도 안산시 상록구 이동 636-2번지","indutype":"일반휴게음식 - 일반한식","category":"restaurant"}]},{"lat":"37.308339715","long":"126.85012779","imageIndex":4,"items":[{"name":"독도쭈꾸미","tel":"031-406-3510","addr":"경기도 안산시 상록구 이동 715-5번지 대성프라자 101호","indutype":"일반휴게음식 - 일반한식","category":"restaurant"},{"name":"땡기는포차","tel":"031-501-0552","addr":"경기도 안산시 상록구 이동 715-5번지 대성프라자 203호","indutype":"일반휴게음식 - 주점","category":"restaurant"},{"name":"안경할머니곱창(한대역점)","tel":"031-415-3835","addr":"경기도 안산시 상록구 이동 715-5번지 대성프라자 105호","indutype":"일반휴게음식 - 일반한식","category":"restaurant"},{"name":"에이씨뽕필(A.C bbong Feel)","tel":"070-8816-8255","addr":"경기도 안산시 상록구 이동 715-5번지 대성프라자 1층 109호","indutype":"일반휴게음식 - 주점","category":"restaurant"},{"name":"완도전복","tel":"","addr":"경기도 안산시 상록구 이동 715-5번지 대성프라자 106호","indutype":"일반휴게음식 - 일반한식","category":"restaurant"},{"name":"용팔이네","tel":"031-417-9253","addr":"경기도 안산시 상록구 이동 715-5번지 대성프라자 103,104호","indutype":"일반휴게음식 - 일반한식","category":"restaurant"},{"name":"울엄마김치찌개","tel":"031-407-7773","addr":"경기도 안산시 상록구 이동 715-5번지 대성프라자 110호","indutype":"일반휴게음식 - 일반한식","category":"restaurant"},{"name":"육회지존","tel":"031-408-6444","addr":"경기도 안산시 상록구 이동 715-5번지 대성프라자 102호","indutype":"일반휴게음식 - 일반한식","category":"restaurant"},{"name":"제주도생삼겹전문점","tel":"031-418-9292","addr":"경기도 안산시 상록구 이동 715-5번지 대성프라자 107호","indutype":"일반휴게음식 - 일반한식","category":"restaurant"},{"name":"진참치","tel":"031-417-1502","addr":"경기도 안산시 상록구 이동 715-5번지 대성프라자 108호","indutype":"일반휴게음식 - 일식·회집","category":"restaurant"},{"name":"진해원","tel":"031-417-4004","addr":"경기도 안산시 상록구 이동 715-5번지 대성프라자 111호","indutype":"일반휴게음식 - 중국식","category":"restaurant"},{"name":"태우리","tel":"031-415-1666","addr":"경기도 안산시 상록구 이동 715-5번지 대성프라자 1층 112호","indutype":"일반휴게음식 - 일반한식","category":"restaurant"},{"name":"포유","tel":"031-418-5436","addr":"경기도 안산시 상록구 이동 715-5번지 대성프라자 205호","indutype":"일반휴게음식 - 스넥","category":"restaurant"}]},{"lat":"37.312641662","long":"126.84635134","imageIndex":4,"items":[{"name":"돈사돈안산점","tel":"031-417-9200","addr":"경기도 안산시 상록구 이동 651-11번지 1층2층","indutype":"일반휴게음식 - 일반한식","category":"restaurant"}]},{"lat":"37.307344905","long":"126.84729855","imageIndex":4,"items":[{"name":"동경호프","tel":"031-416-7774","addr":"경기도 안산시 상록구 이동 694-2번지 봉현빌딩 1층","indutype":"일반휴게음식 - 주점","category":"restaurant"}]},{"lat":"37.306781896","long":"126.85804936","imageIndex":4,"items":[{"name":"동네까페","tel":"031-504-2223","addr":"경기도 안산시 상록구 이동 589-12번지 1층","indutype":"일반휴게음식 - 서양음식","category":"restaurant"},{"name":"파파스푸드","tel":"","addr":"경기도 안산시 상록구 이동 589-12번지 101호","indutype":"일반휴게음식 - 일반한식","category":"restaurant"}]},{"lat":"37.309674443","long":"126.85107263","imageIndex":4,"items":[{"name":"동해","tel":"031-501-5633","addr":"경기도 안산시 상록구 이동 709번지","indutype":"일반휴게음식 - 일반한식","category":"restaurant"},{"name":"이동골찹쌀순대","tel":"031-438-0032","addr":"경기도 안산시 상록구 이동 709번지 1층","indutype":"일반휴게음식 - 일반한식","category":"restaurant"}]},{"lat":"37.306976287","long":"126.84790842","imageIndex":4,"items":[{"name":"두거리우신탕 (이동점)","tel":"031-406-8424","addr":"경기도 안산시 상록구 이동 712-2번지 제스트프라자 1층 109,110호","indutype":"일반휴게음식 - 일반한식","category":"restaurant"},{"name":"스칼렛","tel":"031-415-6200","addr":"경기도 안산시 상록구 이동 712-2번지 114 ,115,116호","indutype":"일반휴게음식 - 일반한식","category":"restaurant"},{"name":"스칼렛","tel":"031-415-6200","addr":"경기도 안산시 상록구 이동 712-2번지 114,115,116호","indutype":"일반휴게음식 - 일반한식","category":"restaurant"},{"name":"천서방김밥","tel":"031-415-7979","addr":"경기도 안산시 상록구 이동 712-2번지 1층 제스트3 107호","indutype":"일반휴게음식 - 스넥","category":"restaurant"}]},{"lat":"37.306948056","long":"126.84699482","imageIndex":4,"items":[{"name":"두껍","tel":"070-7404-8255","addr":"경기도 안산시 상록구 이동 692-5번지 3층","indutype":"일반휴게음식 - 일반한식","category":"restaurant"},{"name":"장어가","tel":"070-7404-8285","addr":"경기도 안산시 상록구 이동 692-5번지 1층","indutype":"일반휴게음식 - 일반한식","category":"restaurant"}]},{"lat":"37.310033748","long":"126.85021461","imageIndex":4,"items":[{"name":"디에스","tel":"031-407-9828","addr":"경기도 안산시 상록구 이동 707-10번지 1층","indutype":"일반휴게음식 - 일반한식","category":"restaurant"}]},{"lat":"37.307647551","long":"126.85860041","imageIndex":4,"items":[{"name":"또봉이 (안산이동점)","tel":"031-437-5092","addr":"경기도 안산시 상록구 이동 592-4번지 1층 103호","indutype":"일반휴게음식 - 스넥","category":"restaurant"},{"name":"맛집","tel":"031-501-5341","addr":"경기도 안산시 상록구 이동 592-4번지","indutype":"일반휴게음식 - 일반한식","category":"restaurant"},{"name":"별미식당","tel":"031-407-9175","addr":"경기도 안산시 상록구 이동 592-4번지 1층 104호","indutype":"일반휴게음식 - 일반한식","category":"restaurant"}]},{"lat":"37.30698277","long":"126.84599084","imageIndex":4,"items":[{"name":"또와유청정명태간장조림","tel":"031-408-3738","addr":"경기도 안산시 상록구 이동 692-1번지 1층","indutype":"일반휴게음식 - 일반한식","category":"restaurant"}]},{"lat":"37.306420863","long":"126.85037983","imageIndex":4,"items":[{"name":"뚜껑열린최군","tel":"031-000-0000","addr":"경기도 안산시 상록구 이동 718-2번지 썬프라자 107,108,109호","indutype":"일반휴게음식 - 일반한식","category":"restaurant"},{"name":"할리스","tel":"031-419-2131","addr":"경기도 안산시 상록구 이동 718-2번지 썬프라자 1층 103~106호","indutype":"일반휴게음식 - 서양음식","category":"restaurant"}]},{"lat":"37.308008366","long":"126.85170766","imageIndex":4,"items":[{"name":"뚱딴지","tel":"031-0000-0000","addr":"경기도 안산시 상록구 이동 716-10번지 한빛프라자 107호","indutype":"일반휴게음식 - 일반한식","category":"restaurant"},{"name":"리민(Limin)","tel":"","addr":"경기도 안산시 상록구 이동 716-10번지 한빛프라자 109호","indutype":"일반휴게음식 - 서양음식","category":"restaurant"},{"name":"맘스터치 안산한대역점","tel":"031-416-7889","addr":"경기도 안산시 상록구 이동 716-10번지 한빛프라자 105,106호","indutype":"일반휴게음식 - 서양음식","category":"restaurant"},{"name":"석봉토스트","tel":"031-419-6984","addr":"경기도 안산시 상록구 이동 716-10번지 한빛프라자 110호","indutype":"일반휴게음식 - 스넥","category":"restaurant"},{"name":"알피엠","tel":"031-408-0387","addr":"경기도 안산시 상록구 이동 716-10번지 한빛프라자 2층 205호","indutype":"일반휴게음식 - 일반한식","category":"restaurant"},{"name":"엔제리너스 (안산한대역점)","tel":"031-409-3004","addr":"경기도 안산시 상록구 이동 716-10번지 한빛프라자 1-2층 103-104, 201-202호","indutype":"일반휴게음식 - 서양음식","category":"restaurant"},{"name":"연푸드","tel":"031-405-5805","addr":"경기도 안산시 상록구 이동 716-10번지 한빛프라자 112,113호","indutype":"일반휴게음식 - 일식·회집","category":"restaurant"},{"name":"오춘자비어","tel":"031-416-9619","addr":"경기도 안산시 상록구 이동 716-10번지 한빛프라자 110호","indutype":"일반휴게음식 - 일반한식","category":"restaurant"},{"name":"이춘봉인생치킨(안산한대앞역점)","tel":"031-406-2457","addr":"경기도 안산시 상록구 이동 716-10번지 한빛프라자 108호","indutype":"일반휴게음식 - 일반한식","category":"restaurant"},{"name":"찌개맛집","tel":"031-418-1777","addr":"경기도 안산시 상록구 이동 716-10번지 한빛프라자 107호","indutype":"일반휴게음식 - 일반한식","category":"restaurant"},{"name":"커피홀릭","tel":"031-406-2615","addr":"경기도 안산시 상록구 이동 716-10번지 한빛프라자 111호","indutype":"일반휴게음식 - 서양음식","category":"restaurant"},{"name":"태양도양꼬치","tel":"070-7516-3727","addr":"경기도 안산시 상록구 이동 716-10번지 한빛프라자 101호, 102호","indutype":"일반휴게음식 - 일반한식","category":"restaurant"},{"name":"화요리","tel":"","addr":"경기도 안산시 상록구 이동 716-10번지 113호 112호,113호","indutype":"일반휴게음식 - 일반한식","category":"restaurant"}]},{"lat":"37.313427819","long":"126.84807567","imageIndex":4,"items":[{"name":"뜨락","tel":"031-418-2082","addr":"경기도 안산시 상록구 이동 640-5번지","indutype":"일반휴게음식 - 일반한식","category":"restaurant"}]},{"lat":"37.304400389","long":"126.86320863","imageIndex":4,"items":[{"name":"래격마라탕","tel":"031-418-6989","addr":"경기도 안산시 상록구 이동 570-3번지 1층","indutype":"일반휴게음식 - 중국식","category":"restaurant"}]},{"lat":"37.308566363","long":"126.85121022","imageIndex":4,"items":[{"name":"롯데리아안산한양대역","tel":"031-501-7474","addr":"경기도 안산시 상록구 이동 715-2번지 한남빌딩 101,102,201호","indutype":"일반휴게음식 - 서양음식","category":"restaurant"},{"name":"명가 꼬치구이","tel":"031-502-8859","addr":"경기도 안산시 상록구 이동 715-2번지 한남빌딩 1층 107호","indutype":"일반휴게음식 - 일반한식","category":"restaurant"},{"name":"삼구포차한대역점","tel":"031-407-1832","addr":"경기도 안산시 상록구 이동 715-2번지 한남빌딩 2층 204호","indutype":"일반휴게음식 - 일반한식","category":"restaurant"},{"name":"역전할머니맥주 한대역점","tel":"031-501-7709","addr":"경기도 안산시 상록구 이동 715-2번지 108,109호","indutype":"일반휴게음식 - 일반한식","category":"restaurant"},{"name":"컨티(CONTI)","tel":"031-407-1779","addr":"경기도 안산시 상록구 이동 715-2번지 한남빌딩 106호","indutype":"일반휴게음식 - 서양음식","category":"restaurant"},{"name":"털보전풍경빈대떡","tel":"031-406-7171","addr":"경기도 안산시 상록구 이동 715-2번지","indutype":"일반휴게음식 - 일반한식","category":"restaurant"},{"name":"푸줏간 생고기","tel":"031-417-3892","addr":"경기도 안산시 상록구 이동 715-2번지 한남빌딩 112.113호","indutype":"일반휴게음식 - 일반한식","category":"restaurant"}]},{"lat":"37.306122886","long":"126.84988412","imageIndex":4,"items":[{"name":"루프앤커피","tel":"031-418-2923","addr":"경기도 안산시 상록구 이동 718-4번지 6층 602호","indutype":"일반휴게음식 - 서양음식","category":"restaurant"}]},{"lat":"37.30373334","long":"126.86296171","imageIndex":4,"items":[{"name":"룽화","tel":"031-502-8777","addr":"경기도 안산시 상록구 이동 570-10번지 102호","indutype":"일반휴게음식 - 주점","category":"restaurant"},{"name":"빨간치킨.포차","tel":"031-000-0000","addr":"경기도 안산시 상록구 이동 570-10번지 1층","indutype":"일반휴게음식 - 주점","category":"restaurant"}]},{"lat":"37.307422818","long":"126.85179907","imageIndex":4,"items":[{"name":"마당수산","tel":"031-437-0544","addr":"경기도 안산시 상록구 이동 716-4 고잔프라자106호~107호","indutype":"일반휴게음식 - 일반한식","category":"restaurant"},{"name":"비에치씨(한대앞역점)","tel":"031-416-7958","addr":"경기도 안산시 상록구 이동 716-4번지 고잔프라자 110호","indutype":"일반휴게음식 - 주점","category":"restaurant"},{"name":"신통치킨(이동점)","tel":"031-417-3338","addr":"경기도 안산시 상록구 이동 716-4번지 고잔프라자 114호","indutype":"일반휴게음식 - 스넥","category":"restaurant"},{"name":"우리옥밥상","tel":"031-418-8865","addr":"경기도 안산시 상록구 이동 716-4번지 고잔프라자 102호","indutype":"일반휴게음식 - 일반한식","category":"restaurant"},{"name":"진주","tel":"","addr":"경기도 안산시 상록구 이동 716-4번지 고잔프라자 108호","indutype":"일반휴게음식 - 서양음식","category":"restaurant"}]},{"lat":"37.304977082","long":"126.8632414","imageIndex":4,"items":[{"name":"마라상궈","tel":"031-405-4404","addr":"경기도 안산시 상록구 이동 569-6번지 1층","indutype":"일반휴게음식 - 중국식","category":"restaurant"},{"name":"밥포차","tel":"031-408-3827","addr":"경기도 안산시 상록구 이동 569-6번지","indutype":"일반휴게음식 - 일반한식","category":"restaurant"}]},{"lat":"37.309260191","long":"126.85124266","imageIndex":4,"items":[{"name":"마라선훠궈루","tel":"031-419-6688","addr":"경기도 안산시 상록구 이동 715-10번지 아트프라자 202호","indutype":"일반휴게음식 - 중국식","category":"restaurant"},{"name":"셀프맥주","tel":"","addr":"경기도 안산시 상록구 이동 715-10번지 아트프라자 104,105호","indutype":"일반휴게음식 - 주점","category":"restaurant"},{"name":"아이엔지","tel":"031-415-7711","addr":"경기도 안산시 상록구 이동 715-10번지 아트프라자 102호","indutype":"일반휴게음식 - 주점","category":"restaurant"},{"name":"양푼이","tel":"031-501-1092","addr":"경기도 안산시 상록구 이동 715-10번지 아트프라자 101호","indutype":"일반휴게음식 - 일반한식","category":"restaurant"},{"name":"오븐에빠진닭","tel":"031-407-5892","addr":"경기도 안산시 상록구 이동 715-10 아트프라자 104호,105호","indutype":"일반휴게음식 - 스넥","category":"restaurant"},{"name":"오징어나라(한대점)","tel":"031-415-7711","addr":"경기도 안산시 상록구 이동 715-10번지 아트프라자 102호","indutype":"일반휴게음식 - 일반한식","category":"restaurant"},{"name":"오키곱창","tel":"","addr":"경기도 안산시 상록구 이동 715-10번지 아트프라자 1층 103호","indutype":"일반휴게음식 - 일반한식","category":"restaurant"},{"name":"와인나라","tel":"031-406-5741","addr":"경기도 안산시 상록구 이동 715-10번지 아트프라자 202호","indutype":"일반휴게음식 - 주점","category":"restaurant"},{"name":"파도수산","tel":"031-419-9280","addr":"경기도 안산시 상록구 이동 715-10번지 1층 106,107호","indutype":"일반휴게음식 - 일반한식","category":"restaurant"},{"name":"팔덕식당 안산점","tel":"031-406-8049","addr":"경기도 안산시 상록구 이동 715-10번지 아트프라자 1층 108,109호","indutype":"일반휴게음식 - 일반한식","category":"restaurant"},{"name":"핫썬바비큐","tel":"031-418-3395","addr":"경기도 안산시 상록구 이동 715-10번지 아트프라자 107호","indutype":"일반휴게음식 - 주점","category":"restaurant"}]},{"lat":"37.305899668","long":"126.85868271","imageIndex":4,"items":[{"name":"마마앤파파","tel":"031-419-5386","addr":"경기도 안산시 상록구 이동 584번지 1층 101호","indutype":"일반휴게음식 - 서양음식","category":"restaurant"}]},{"lat":"37.310983048","long":"126.86001537","imageIndex":4,"items":[{"name":"마수저(maspoon)","tel":"","addr":"경기도 안산시 상록구 이동 537-12번지 101호","indutype":"일반휴게음식 - 서양음식","category":"restaurant"}]},{"lat":"37.308344011","long":"126.84651817","imageIndex":4,"items":[{"name":"만나캐터링 (주)","tel":"031-415-3077","addr":"경기도 안산시 상록구 이동 681-1번지 버전타운 101호","indutype":"일반휴게음식 - 위탁급식업","category":"restaurant"}]},{"lat":"37.308476158","long":"126.85832811","imageIndex":4,"items":[{"name":"만나한식부페","tel":"031-406-1965","addr":"경기도 안산시 상록구 이동 594-4 2층201호~203호","indutype":"일반휴게음식 - 일반한식","category":"restaurant"}]},{"lat":"37.311230055","long":"126.84863292","imageIndex":4,"items":[{"name":"말뚝이 덕장","tel":"031-415-8252","addr":"경기도 안산시 상록구 이동 695-3번지 101호","indutype":"일반휴게음식 - 일반한식","category":"restaurant"}]},{"lat":"37.306257747","long":"126.84965825","imageIndex":4,"items":[{"name":"맛수원왕갈비","tel":"031-417-6635","addr":"경기도 안산시 상록구 이동 718-7번지 1층","indutype":"일반휴게음식 - 일반한식","category":"restaurant"}]},{"lat":"37.30625836","long":"126.850132","imageIndex":4,"items":[{"name":"맛있는술&밥닭곰탕","tel":"031-418-2940","addr":"경기도 안산시 상록구 이동 718-3번지 월드프라자 105호","indutype":"일반휴게음식 - 일반한식","category":"restaurant"},{"name":"부어치킨안산이동점","tel":"031-418-7279","addr":"경기도 안산시 상록구 이동 718-3번지 월드프라자 105호","indutype":"일반휴게음식 - 스넥","category":"restaurant"},{"name":"투다리(중보로점)","tel":"031-406-1336","addr":"경기도 안산시 상록구 이동 718-3번지 월드프라자 1층 101호","indutype":"일반휴게음식 - 주점","category":"restaurant"},{"name":"할매안동조밥국시","tel":"031-406-1034","addr":"경기도 안산시 상록구 이동 718-3번지 월드프라자 105호","indutype":"일반휴게음식 - 일반한식","category":"restaurant"}]},{"lat":"37.31176024","long":"126.84754891","imageIndex":4,"items":[{"name":"머슴식당","tel":"031-418-8887","addr":"경기도 안산시 상록구 이동 661-3번지 1층","indutype":"일반휴게음식 - 일반한식","category":"restaurant"}]},{"lat":"37.313121974","long":"126.84845985","imageIndex":4,"items":[{"name":"메밀촌","tel":"031-417-9999","addr":"경기도 안산시 상록구 이동 659-1번지","indutype":"일반휴게음식 - 일반한식","category":"restaurant"}]},{"lat":"37.304091534","long":"126.86109995","imageIndex":4,"items":[{"name":"멕시칸치킨","tel":"031-408-5557","addr":"경기도 안산시 상록구 이동 575-6번지","indutype":"일반휴게음식 - 주점","category":"restaurant"}]},{"lat":"37.305062159","long":"126.85904525","imageIndex":4,"items":[{"name":"명인짬뽕","tel":"031-407-0052","addr":"경기도 안산시 상록구 이동 579-4번지 103호","indutype":"일반휴게음식 - 중국식","category":"restaurant"}]},{"lat":"37.304865408","long":"126.86026381","imageIndex":4,"items":[{"name":"모두의마카롱","tel":"031-0000-0000","addr":"경기도 안산시 상록구 이동 578-3번지","indutype":"일반휴게음식 - 서양음식","category":"restaurant"}]},{"lat":"37.312115157","long":"126.85740741","imageIndex":4,"items":[{"name":"모듬촌닭","tel":"070-7865-5951","addr":"경기도 안산시 상록구 이동 525-1번지 104호","indutype":"일반휴게음식 - 일반한식","category":"restaurant"}]},{"lat":"37.307648127","long":"126.85907417","imageIndex":4,"items":[{"name":"몽불닭발","tel":"031-409-1599","addr":"경기도 안산시 상록구 이동 598-8번지 1층","indutype":"일반휴게음식 - 일반한식","category":"restaurant"},{"name":"에라이포차","tel":"031-417-8344","addr":"경기도 안산시 상록구 이동 598-8번지 1층 101호","indutype":"일반휴게음식 - 일반한식","category":"restaurant"},{"name":"외갓집백반","tel":"031-409-1599","addr":"경기도 안산시 상록구 이동 598-8번지 1층","indutype":"일반휴게음식 - 일반한식","category":"restaurant"},{"name":"초연","tel":"031-416-4572","addr":"경기도 안산시 상록구 이동 598-8번지 1층","indutype":"일반휴게음식 - 주점","category":"restaurant"},{"name":"초연","tel":"031-416-4572","addr":"경기도 안산시 상록구 이동 598-8번지 1층","indutype":"일반휴게음식 - 주점","category":"restaurant"}]},{"lat":"37.307009546","long":"126.84579903","imageIndex":4,"items":[{"name":"무안뻘낙지","tel":"031-417-4418","addr":"경기도 안산시 상록구 이동 692번지 103호","indutype":"일반휴게음식 - 일반한식","category":"restaurant"}]},{"lat":"37.307171161","long":"126.85954883","imageIndex":4,"items":[{"name":"문순영영양탕","tel":"031-438-5888","addr":"경기도 안산시 상록구 이동 601-12번지 1층","indutype":"일반휴게음식 - 일반한식","category":"restaurant"}]},{"lat":"37.312786049","long":"126.84652026","imageIndex":4,"items":[{"name":"미니메이","tel":"070-7404-8255","addr":"경기도 안산시 상록구 이동 651-1번지 1층 101호","indutype":"일반휴게음식 - 일반한식","category":"restaurant"}]},{"lat":"37.309420357","long":"126.86429352","imageIndex":4,"items":[{"name":"미리쿡(miricook)","tel":"031-401-1382","addr":"경기도 안산시 상록구 이동 549-2번지 1층","indutype":"일반휴게음식 - 일반한식","category":"restaurant"}]},{"lat":"37.311733904","long":"126.84807915","imageIndex":4,"items":[{"name":"미추원주추어탕","tel":"031-417-1410","addr":"경기도 안산시 상록구 이동 660번지 1층","indutype":"일반휴게음식 - 일반한식","category":"restaurant"}]},{"lat":"37.312199715","long":"126.84601384","imageIndex":4,"items":[{"name":"민물공원","tel":"031-419-9191","addr":"경기도 안산시 상록구 이동 650-5번지 1층","indutype":"일반휴게음식 - 일반한식","category":"restaurant"}]},{"lat":"37.309865115","long":"126.85946475","imageIndex":4,"items":[{"name":"바다회수산","tel":"031-406-7832","addr":"경기도 안산시 상록구 이동 612-19번지 101호","indutype":"일반휴게음식 - 일반한식","category":"restaurant"},{"name":"바다회수산","tel":"031-406-7832","addr":"경기도 안산시 상록구 이동 612-19번지","indutype":"일반휴게음식 - 일반한식","category":"restaurant"},{"name":"한방전주콩나물국밥","tel":"031-409-1989","addr":"경기도 안산시 상록구 이동 612-19번지 102호","indutype":"일반휴게음식 - 일반한식","category":"restaurant"}]},{"lat":"37.314141915","long":"126.84302037","imageIndex":4,"items":[{"name":"바닷가재&킹크랩","tel":"031-418-4117","addr":"경기도 안산시 상록구 이동 623번지 1층","indutype":"일반휴게음식 - 일반한식","category":"restaurant"}]},{"lat":"37.307003937","long":"126.84838212","imageIndex":4,"items":[{"name":"바르바(BARVA)","tel":"070-4949-7118","addr":"경기도 안산시 상록구 이동 714-6번지 한사랑빌딩 1층 일부","indutype":"일반휴게음식 - 서양음식","category":"restaurant"}]},{"lat":"37.306423615","long":"126.8597984","imageIndex":4,"items":[{"name":"밤이고슬고슬","tel":"031-409-6280","addr":"경기도 안산시 상록구 이동 587-9번지 104호","indutype":"일반휴게음식 - 일반한식","category":"restaurant"}]},{"lat":"37.307567699","long":"126.84543691","imageIndex":4,"items":[{"name":"배달삼겹한패","tel":"031-401-4811","addr":"경기도 안산시 상록구 이동 689-5번지 1층","indutype":"일반휴게음식 - 일반한식","category":"restaurant"},{"name":"한패","tel":"031-401-4811","addr":"경기도 안산시 상록구 이동 689-5번지 1층","indutype":"일반휴게음식 - 일반한식","category":"restaurant"},{"name":"한패","tel":"031-401-4811","addr":"경기도 안산시 상록구 이동 689-5번지 1층","indutype":"일반휴게음식 - 일반한식","category":"restaurant"}]},{"lat":"37.313037782","long":"126.84610235","imageIndex":4,"items":[{"name":"백금당","tel":"","addr":"경기도 안산시 상록구 이동 645-6번지 1층","indutype":"일반휴게음식 - 서양음식","category":"restaurant"}]},{"lat":"37.306948412","long":"126.84726553","imageIndex":4,"items":[{"name":"백년순대","tel":"031-402-8570","addr":"경기도 안산시 상록구 이동 694-5번지 1층","indutype":"일반휴게음식 - 일반한식","category":"restaurant"}]},{"lat":"37.310144061","long":"126.85915966","imageIndex":4,"items":[{"name":"백두산양꼬치","tel":"031-417-7536","addr":"경기도 안산시 상록구 이동 529-5번지 2층","indutype":"일반휴게음식 - 중국식","category":"restaurant"},{"name":"참죽사랑","tel":"031-415-8283","addr":"경기도 안산시 상록구 이동 529-5번지","indutype":"일반휴게음식 - 일반한식","category":"restaurant"}]},{"lat":"37.306400797","long":"126.8488007","imageIndex":4,"items":[{"name":"변산아구찜 해물탕","tel":"031-438-5825","addr":"경기도 안산시 상록구 이동 720번지 신도프라자 101,102,103호","indutype":"일반휴게음식 - 일반한식","category":"restaurant"},{"name":"하루미즈","tel":"070-7578-5279","addr":"경기도 안산시 상록구 이동 720번지 신도프라자 106호","indutype":"일반휴게음식 - 서양음식","category":"restaurant"}]},{"lat":"37.303786907","long":"126.86254428","imageIndex":4,"items":[{"name":"보신촌","tel":"031-437-2770","addr":"경기도 안산시 상록구 이동 571-7번지","indutype":"일반휴게음식 - 일반한식","category":"restaurant"}]},{"lat":"37.307836826","long":"126.85143728","imageIndex":4,"items":[{"name":"봄날","tel":"","addr":"경기도 안산시 상록구 이동 716-9번지 한대프라자 1층 118호","indutype":"일반휴게음식 - 일반한식","category":"restaurant"},{"name":"오땅비어","tel":"031-417-0713","addr":"경기도 안산시 상록구 이동 716-9번지 한대프라자 115호","indutype":"일반휴게음식 - 일반한식","category":"restaurant"},{"name":"청담동말자싸롱(한대역점)","tel":"031-501-0927","addr":"경기도 안산시 상록구 이동 716-9번지 한대프라자","indutype":"일반휴게음식 - 스넥","category":"restaurant"}]},{"lat":"37.311698335","long":"126.8484402","imageIndex":4,"items":[{"name":"봉평한식부페","tel":"031-418-1153","addr":"경기도 안산시 상록구 이동 660-2번지 101호","indutype":"일반휴게음식 - 일반한식","category":"restaurant"}]},{"lat":"37.311534039","long":"126.86115366","imageIndex":4,"items":[{"name":"부산돼지머리국밥","tel":"031-407-7774","addr":"경기도 안산시 상록구 이동 539-12번지","indutype":"일반휴게음식 - 일반한식","category":"restaurant"}]},{"lat":"37.310035802","long":"126.85904706","imageIndex":4,"items":[{"name":"부용미쌘마라탕","tel":"","addr":"경기도 안산시 상록구 이동 529-6번지 1층","indutype":"일반휴게음식 - 중국식","category":"restaurant"},{"name":"치킨마루","tel":"02-1544-5194","addr":"경기도 안산시 상록구 이동 529-6번지 1층","indutype":"일반휴게음식 - 주점","category":"restaurant"}]},{"lat":"37.305317649","long":"126.86170675","imageIndex":4,"items":[{"name":"불러불러치킨앤호프","tel":"031-407-7191","addr":"경기도 안산시 상록구 이동 603-7번지 102호","indutype":"일반휴게음식 - 스넥","category":"restaurant"}]},{"lat":"37.308009787","long":"126.85282437","imageIndex":4,"items":[{"name":"블랙빈커피","tel":"031-000-0000","addr":"경기도 안산시 상록구 이동 716번지 한양대프라자 1층 111호","indutype":"일반휴게음식 - 서양음식","category":"restaurant"},{"name":"아미 (Ami)","tel":"031-417-9190","addr":"경기도 안산시 상록구 이동 716번지 한양대프라자 205호","indutype":"일반휴게음식 - 주점","category":"restaurant"},{"name":"아미(Ami)","tel":"031-417-9190","addr":"경기도 안산시 상록구 이동 716번지 한양대프라자 205호","indutype":"일반휴게음식 - 일반한식","category":"restaurant"},{"name":"제이(J)","tel":"031-417-9914","addr":"경기도 안산시 상록구 이동 716번지 한양대프라자 205호","indutype":"일반휴게음식 - 주점","category":"restaurant"},{"name":"카페(cafe)안산망개떡","tel":"031-419-9981","addr":"경기도 안산시 상록구 이동 716번지 한양대프라자 110호","indutype":"일반휴게음식 - 서양음식","category":"restaurant"}]},{"lat":"37.310951751","long":"126.84941184","imageIndex":4,"items":[{"name":"빅싸이즈카페","tel":"031-418-2227","addr":"경기도 안산시 상록구 이동 699-6번지 101호","indutype":"일반휴게음식 - 서양음식","category":"restaurant"}]},{"lat":"37.308143084","long":"126.85857691","imageIndex":4,"items":[{"name":"뼈해장국","tel":"031-406-3204","addr":"경기도 안산시 상록구 이동 597-8번지 101호","indutype":"일반휴게음식 - 일반한식","category":"restaurant"},{"name":"원샷","tel":"031-418-8006","addr":"경기도 안산시 상록구 이동 597-8번지","indutype":"일반휴게음식 - 일반한식","category":"restaurant"},{"name":"청화집","tel":"031-406-3204","addr":"경기도 안산시 상록구 이동 597-8번지 101호","indutype":"일반휴게음식 - 일반한식","category":"restaurant"}]},{"lat":"37.311281429","long":"126.8608834","imageIndex":4,"items":[{"name":"산가네고기굽는마을","tel":"031-501-2992","addr":"경기도 안산시 상록구 이동 539-9번지 1층","indutype":"일반휴게음식 - 일반한식","category":"restaurant"}]},{"lat":"37.313229949","long":"126.84834682","imageIndex":4,"items":[{"name":"산채정식","tel":"031-407-6344","addr":"경기도 안산시 상록구 이동 659번지 이레빌딩 101호","indutype":"일반휴게음식 - 일반한식","category":"restaurant"}]},{"lat":"37.309060501","long":"126.85010377","imageIndex":4,"items":[{"name":"삼사오","tel":"031-502-5345","addr":"경기도 안산시 상록구 이동 710-15번지 1층","indutype":"일반휴게음식 - 일반한식","category":"restaurant"}]},{"lat":"37.312590019","long":"126.8481902","imageIndex":4,"items":[{"name":"새벽순댓국","tel":"","addr":"경기도 안산시 상록구 이동 657-4번지 1층","indutype":"일반휴게음식 - 일반한식","category":"restaurant"}]},{"lat":"37.306563553","long":"126.84924028","imageIndex":4,"items":[{"name":"샐러드키친&스프레드모틀","tel":"070-4254-0160","addr":"경기도 안산시 상록구 이동 717-5번지 브라이튼오피스텔 112호","indutype":"일반휴게음식 - 서양음식","category":"restaurant"},{"name":"심봉사도로케 안산한대앞점","tel":"031-416-4860","addr":"경기도 안산시 상록구 이동 717-5번지 브라이튼빌오피스텔 114호","indutype":"일반휴게음식 - 스넥","category":"restaurant"},{"name":"옹고집족발보쌈","tel":"031-407-4203","addr":"경기도 안산시 상록구 이동 717-5번지 브라이튼빌오피스텔 1층 110호","indutype":"일반휴게음식 - 일반한식","category":"restaurant"},{"name":"제인jane","tel":"031-419-3085","addr":"경기도 안산시 상록구 이동 717-5번지 브라이튼빌오피스텔 110호","indutype":"일반휴게음식 - 서양음식","category":"restaurant"},{"name":"행복식당","tel":"031-406-1653","addr":"경기도 안산시 상록구 이동 717-5번지 112호 111 일부","indutype":"일반휴게음식 - 일반한식","category":"restaurant"}]},{"lat":"37.311091279","long":"126.86010541","imageIndex":4,"items":[{"name":"생각나","tel":"031-417-8113","addr":"경기도 안산시 상록구 이동 537-11번지","indutype":"일반휴게음식 - 일반한식","category":"restaurant"}]},{"lat":"37.308864572","long":"126.85912825","imageIndex":4,"items":[{"name":"생고기대학교이동점","tel":"02-1000-0000","addr":"경기도 안산시 상록구 이동 595번지 1층","indutype":"일반휴게음식 - 일반한식","category":"restaurant"}]},{"lat":"37.308035099","long":"126.85868991","imageIndex":4,"items":[{"name":"생방송(이동2호점)","tel":"031-415-1964","addr":"경기도 안산시 상록구 이동 597-7,101번지","indutype":"일반휴게음식 - 주점","category":"restaurant"},{"name":"전마을","tel":"031-407-6396","addr":"경기도 안산시 상록구 이동 597-7번지 1층 103호","indutype":"일반휴게음식 - 일반한식","category":"restaurant"}]},{"lat":"37.31150625","long":"126.860522","imageIndex":4,"items":[{"name":"생선구이시골밥상","tel":"031-407-3710","addr":"경기도 안산시 상록구 이동 534-14번지 1층","indutype":"일반휴게음식 - 일반한식","category":"restaurant"}]},{"lat":"37.314089538","long":"126.84427266","imageIndex":4,"items":[{"name":"생태와대구","tel":"031-415-5259","addr":"경기도 안산시 상록구 이동 624-2번지 1층","indutype":"일반휴게음식 - 일반한식","category":"restaurant"},{"name":"이동생태마을","tel":"031-415-5259","addr":"경기도 안산시 상록구 이동 624-2번지 1층","indutype":"일반휴게음식 - 일반한식","category":"restaurant"}]},{"lat":"37.310121655","long":"126.84852238","imageIndex":4,"items":[{"name":"생활관","tel":"","addr":"경기도 안산시 상록구 이동 710-3번지 1층","indutype":"일반휴게음식 - 일반한식","category":"restaurant"}]},{"lat":"37.308892177","long":"126.85960196","imageIndex":4,"items":[{"name":"서울장충동족발","tel":"031-437-3451","addr":"경기도 안산시 상록구 이동 609번지","indutype":"일반휴게음식 - 일반한식","category":"restaurant"},{"name":"주식시장","tel":"","addr":"경기도 안산시 상록구 이동 609번지 102호","indutype":"일반휴게음식 - 일반한식","category":"restaurant"}]},{"lat":"37.307865309","long":"126.8525765","imageIndex":4,"items":[{"name":"설렘케이크","tel":"","addr":"경기도 안산시 상록구 이동 716-1번지 삼성프라자 102호","indutype":"일반휴게음식 - 서양음식","category":"restaurant"},{"name":"신주쿠야끼한대앞역점","tel":"031-406-5467","addr":"경기도 안산시 상록구 이동 716-1번지 삼성프라자 106호","indutype":"일반휴게음식 - 주점","category":"restaurant"},{"name":"야피7080","tel":"031-406-9417","addr":"경기도 안산시 상록구 이동 716-1번지 삼성프라자 2층 202,203호","indutype":"일반휴게음식 - 주점","category":"restaurant"},{"name":"전가네면","tel":"031-410-6933","addr":"경기도 안산시 상록구 이동 716-1번지 삼성프라자 105호","indutype":"일반휴게음식 - 일반한식","category":"restaurant"},{"name":"친구네 영양탕","tel":"031-406-6048","addr":"경기도 안산시 상록구 이동 716-1번지 삼성프라자 108호","indutype":"일반휴게음식 - 일반한식","category":"restaurant"},{"name":"커피에반하다한대앞역점","tel":"031-406-5509","addr":"경기도 안산시 상록구 이동 716-1번지 삼성프라자 1층 101호","indutype":"일반휴게음식 - 서양음식","category":"restaurant"}]},{"lat":"37.308647401","long":"126.84429537","imageIndex":4,"items":[{"name":"송호동태전문점","tel":"031-408-2988","addr":"경기도 안산시 상록구 이동 676번지 1층","indutype":"일반휴게음식 - 일반한식","category":"restaurant"}]},{"lat":"37.314036849","long":"126.84529933","imageIndex":4,"items":[{"name":"송호황토마을","tel":"031-407-5292","addr":"경기도 안산시 상록구 이동 638번지 1층","indutype":"일반휴게음식 - 일반한식","category":"restaurant"}]},{"lat":"37.312283599","long":"126.84813442","imageIndex":4,"items":[{"name":"수가성순두부","tel":"031-406-1421","addr":"경기도 안산시 상록구 이동 656-8번지","indutype":"일반휴게음식 - 일반한식","category":"restaurant"},{"name":"화계","tel":"031-406-7592","addr":"경기도 안산시 상록구 이동 656-8번지 1층","indutype":"일반휴게음식 - 일반한식","category":"restaurant"}]},{"lat":"37.313676396","long":"126.84526624","imageIndex":4,"items":[{"name":"수성가마솥순대국","tel":"031-501-5154","addr":"경기도 안산시 상록구 이동 647-1번지 주안빌딩","indutype":"일반휴게음식 - 일반한식","category":"restaurant"}]},{"lat":"37.306620113","long":"126.85837678","imageIndex":4,"items":[{"name":"수준이다른치킨 안산상록점","tel":"031-419-5959","addr":"경기도 안산시 상록구 이동 586-4번지 1층 103호","indutype":"일반휴게음식 - 스넥","category":"restaurant"},{"name":"옛날가마솥보리밥","tel":"031-418-3416","addr":"경기도 안산시 상록구 이동 586-4번지","indutype":"일반휴게음식 - 일반한식","category":"restaurant"}]},{"lat":"37.30719876","long":"126.84579864","imageIndex":4,"items":[{"name":"수타신짬뽕","tel":"031-415-3385","addr":"경기도 안산시 상록구 이동 691-9번지 1층","indutype":"일반휴게음식 - 중국식","category":"restaurant"}]},{"lat":"37.304841929","long":"126.86324165","imageIndex":4,"items":[{"name":"술고픈날에는","tel":"031-418-8542","addr":"경기도 안산시 상록구 이동 569-7번지 101호","indutype":"일반휴게음식 - 주점","category":"restaurant"}]},{"lat":"37.305784626","long":"126.86040871","imageIndex":4,"items":[{"name":"숯불갈비앤찜","tel":"070-8250-7758","addr":"경기도 안산시 상록구 이동 583-5번지 1층","indutype":"일반휴게음식 - 일반한식","category":"restaurant"}]},{"lat":"37.310234259","long":"126.85923845","imageIndex":4,"items":[{"name":"시골밥상","tel":"031-415-8871","addr":"경기도 안산시 상록구 이동 529-4번지 1층","indutype":"일반휴게음식 - 일반한식","category":"restaurant"}]},{"lat":"37.311786276","long":"126.84679306","imageIndex":4,"items":[{"name":"신(  )가네의정부부대찌개","tel":"031-406-2533","addr":"경기도 안산시 상록구 이동 662-3번지 1층","indutype":"일반휴게음식 - 일반한식","category":"restaurant"}]},{"lat":"37.307092575","long":"126.84726524","imageIndex":4,"items":[{"name":"신참치통","tel":"031-410-2005","addr":"경기도 안산시 상록구 이동 694-4번지 태훈빌딩 103호","indutype":"일반휴게음식 - 일식·회집","category":"restaurant"},{"name":"커피엔줄리엣","tel":"031-409-9064","addr":"경기도 안산시 상록구 이동 694-4번지 태훈빌딩 101호","indutype":"일반휴게음식 - 서양음식","category":"restaurant"}]},{"lat":"37.307286786","long":"126.84424183","imageIndex":4,"items":[{"name":"싸리골영양탕","tel":"031-419-6161","addr":"경기도 안산시 상록구 이동 685-6번지","indutype":"일반휴게음식 - 일반한식","category":"restaurant"}]},{"lat":"37.309591417","long":"126.84957253","imageIndex":4,"items":[{"name":"아리향중화요리","tel":"031-418-1376","addr":"경기도 안산시 상록구 이동 710-10번지 1층","indutype":"일반휴게음식 - 중국식","category":"restaurant"}]},{"lat":"37.309032837","long":"126.85673654","imageIndex":4,"items":[{"name":"안산바다맛","tel":"031-793-2985","addr":"경기도 안산시 상록구 이동 528번지 2층","indutype":"일반휴게음식 - 일반한식","category":"restaurant"},{"name":"화개장터","tel":"031-486-4411","addr":"경기도 안산시 상록구 이동 528번지 관리동 1층","indutype":"일반휴게음식 - 일반한식","category":"restaurant"}]},{"lat":"37.312011456","long":"126.84673619","imageIndex":4,"items":[{"name":"안산불고기집","tel":"031-407-1717","addr":"경기도 안산시 상록구 이동 654-11번지 1층","indutype":"일반휴게음식 - 일반한식","category":"restaurant"}]},{"lat":"37.311253693","long":"126.86029687","imageIndex":4,"items":[{"name":"야우리호프","tel":"031-406-5799","addr":"경기도 안산시 상록구 이동 537-9번지 104호","indutype":"일반휴게음식 - 주점","category":"restaurant"}]},{"lat":"37.30381355","long":"126.86221713","imageIndex":4,"items":[{"name":"야호돈뭉치","tel":"031-415-4834","addr":"경기도 안산시 상록구 이동 571-9번지 1층","indutype":"일반휴게음식 - 일반한식","category":"restaurant"},{"name":"피자비토랩 이동점","tel":"031-501-3334","addr":"경기도 안산시 상록구 이동 571-9번지 1층","indutype":"일반휴게음식 - 서양음식","category":"restaurant"}]},{"lat":"37.310892809","long":"126.85990274","imageIndex":4,"items":[{"name":"약선족발","tel":"031-419-6689","addr":"경기도 안산시 상록구 이동 537-13번지 1층","indutype":"일반휴게음식 - 일반한식","category":"restaurant"}]},{"lat":"37.30784014","long":"126.84704938","imageIndex":4,"items":[{"name":"양주골화로구이","tel":"031-438-1592","addr":"경기도 안산시 상록구 이동 683-6번지 1층","indutype":"일반휴게음식 - 일반한식","category":"restaurant"},{"name":"지정환임실치즈피자","tel":"031-482-9233","addr":"경기도 안산시 상록구 이동 683-6번지 1층","indutype":"일반휴게음식 - 서양음식","category":"restaurant"}]},{"lat":"37.312344297","long":"126.8463294","imageIndex":4,"items":[{"name":"양푼애등갈비","tel":"031-501-8881","addr":"경기도 안산시 상록구 이동 651-9번지 1층","indutype":"일반휴게음식 - 일반한식","category":"restaurant"}]},{"lat":"37.311760017","long":"126.8473797","imageIndex":4,"items":[{"name":"양푼왕갈비","tel":"031-406-7800","addr":"경기도 안산시 상록구 이동 661-2번지 1층","indutype":"일반휴게음식 - 일반한식","category":"restaurant"}]},{"lat":"37.311119043","long":"126.8607145","imageIndex":4,"items":[{"name":"엄마뚝배기순대국","tel":"031-407-1690","addr":"경기도 안산시 상록구 이동 538번지 1층","indutype":"일반휴게음식 - 일반한식","category":"restaurant"}]},{"lat":"37.304226389","long":"126.86085155","imageIndex":4,"items":[{"name":"엉클짱왕해물찜탕","tel":"070-8877-4589","addr":"경기도 안산시 상록구 이동 576-5번지 1층","indutype":"일반휴게음식 - 일반한식","category":"restaurant"}]},{"lat":"37.310148243","long":"126.84818392","imageIndex":4,"items":[{"name":"에스티그라치아","tel":"070-8816-8255","addr":"경기도 안산시 상록구 이동 710-1번지 1층","indutype":"일반휴게음식 - 서양음식","category":"restaurant"}]},{"lat":"37.311838799","long":"126.84563105","imageIndex":4,"items":[{"name":"연평도게장","tel":"031-418-8831","addr":"경기도 안산시 상록구 이동 663-3번지 나라빌딩 101호","indutype":"일반휴게음식 - 일반한식","category":"restaurant"}]},{"lat":"37.312173312","long":"126.84648768","imageIndex":4,"items":[{"name":"옐로우호프","tel":"031-000-0000","addr":"경기도 안산시 상록구 이동 651-5번지 1층","indutype":"일반휴게음식 - 주점","category":"restaurant"}]},{"lat":"37.310370518","long":"126.86015189","imageIndex":4,"items":[{"name":"오두막","tel":"031-409-6616","addr":"경기도 안산시 상록구 이동 612-1번지","indutype":"일반휴게음식 - 일반한식","category":"restaurant"}]},{"lat":"37.310699466","long":"126.84941235","imageIndex":4,"items":[{"name":"올쿡코리아","tel":"031-406-9919","addr":"경기도 안산시 상록구 이동 704번지 101호","indutype":"일반휴게음식 - 일반한식","category":"restaurant"}]},{"lat":"37.309285465","long":"126.84987771","imageIndex":4,"items":[{"name":"용해수산","tel":"031-419-1888","addr":"경기도 안산시 상록구 이동 710-13번지","indutype":"일반휴게음식 - 주점","category":"restaurant"}]},{"lat":"37.306009609","long":"126.8601827","imageIndex":4,"items":[{"name":"우리분식","tel":"031-409-0779","addr":"경기도 안산시 상록구 이동 583-3번지 1층","indutype":"일반휴게음식 - 일반한식","category":"restaurant"}]},{"lat":"37.309510442","long":"126.84966293","imageIndex":4,"items":[{"name":"우미옥설렁탕","tel":"031-483-8384","addr":"경기도 안산시 상록구 이동 710-11번지 101호","indutype":"일반휴게음식 - 일반한식","category":"restaurant"}]},{"lat":"37.307036022","long":"126.84538162","imageIndex":4,"items":[{"name":"울엄마 양평해장국","tel":"031-417-7723","addr":"경기도 안산시 상록구 이동 687-6번지 1층","indutype":"일반휴게음식 - 일반한식","category":"restaurant"}]},{"lat":"37.312283126","long":"126.84777345","imageIndex":4,"items":[{"name":"원산갈비탕","tel":"031-408-0224","addr":"경기도 안산시 상록구 이동 653-6번지 1층","indutype":"일반휴게음식 - 일반한식","category":"restaurant"}]},{"lat":"37.311004977","long":"126.84876875","imageIndex":4,"items":[{"name":"원스푸드","tel":"031-408-0423","addr":"경기도 안산시 상록구 이동 699-2번지 103호","indutype":"일반휴게음식 - 일반한식","category":"restaurant"}]},{"lat":"37.311786067","long":"126.84663513","imageIndex":4,"items":[{"name":"월남쌈","tel":"031-406-2712","addr":"경기도 안산시 상록구 이동 662-2번지 1층","indutype":"일반휴게음식 - 일반한식","category":"restaurant"}]},{"lat":"37.312343923","long":"126.84604739","imageIndex":4,"items":[{"name":"월수금통돼지이동점","tel":"031-408-7296","addr":"경기도 안산시 상록구 이동 650-4번지 1층","indutype":"일반휴게음식 - 일반한식","category":"restaurant"}]},{"lat":"37.308341336","long":"126.85859909","imageIndex":4,"items":[{"name":"육덕봉","tel":"031-409-8954","addr":"경기도 안산시 상록구 이동 597번지","indutype":"일반휴게음식 - 일반한식","category":"restaurant"}]},{"lat":"37.311923147","long":"126.84810132","imageIndex":4,"items":[{"name":"이가네오리집","tel":"031-437-5292","addr":"경기도 안산시 상록구 이동 655-10번지 1층","indutype":"일반휴게음식 - 일반한식","category":"restaurant"}]},{"lat":"37.311594675","long":"126.85913433","imageIndex":4,"items":[{"name":"이가왕족발","tel":"031-408-8448","addr":"경기도 안산시 상록구 이동 536번지","indutype":"일반휴게음식 - 일반한식","category":"restaurant"}]},{"lat":"37.306954616","long":"126.85930108","imageIndex":4,"items":[{"name":"이동국수집","tel":"031-407-1344","addr":"경기도 안산시 상록구 이동 587-5번지 1층","indutype":"일반휴게음식 - 일반한식","category":"restaurant"},{"name":"참치랑연어","tel":"031-406-4403","addr":"경기도 안산시 상록구 이동 587-5번지 101호","indutype":"일반휴게음식 - 일반한식","category":"restaurant"},{"name":"피자나라치킨공주","tel":"031-408-9207","addr":"경기도 안산시 상록구 이동 587-5번지","indutype":"일반휴게음식 - 일반한식","category":"restaurant"}]},{"lat":"37.303706576","long":"126.86318735","imageIndex":4,"items":[{"name":"이동빈대떡","tel":"031-408-7221","addr":"경기도 안산시 상록구 이동 570-9번지 1층","indutype":"일반휴게음식 - 일반한식","category":"restaurant"},{"name":"호프여행","tel":"031-416-6952","addr":"경기도 안산시 상록구 이동 570-9번지 1층","indutype":"일반휴게음식 - 주점","category":"restaurant"},{"name":"호프여행","tel":"031-416-6952","addr":"경기도 안산시 상록구 이동 570-9번지","indutype":"일반휴게음식 - 일반한식","category":"restaurant"}]},{"lat":"37.307199015","long":"126.84599039","imageIndex":4,"items":[{"name":"이동장터국밥","tel":"031-411-0088","addr":"경기도 안산시 상록구 이동 691-8번지 1층","indutype":"일반휴게음식 - 일반한식","category":"restaurant"}]},{"lat":"37.308729556","long":"126.85924131","imageIndex":4,"items":[{"name":"인생돌곱창","tel":"","addr":"경기도 안산시 상록구 이동 595-1번지","indutype":"일반휴게음식 - 일반한식","category":"restaurant"}]},{"lat":"37.309954573","long":"126.85893441","imageIndex":4,"items":[{"name":"일품향","tel":"031-417-7300","addr":"경기도 안산시 상록구 이동 529-7번지 101호","indutype":"일반휴게음식 - 중국식","category":"restaurant"}]},{"lat":"37.304175134","long":"126.86320904","imageIndex":4,"items":[{"name":"일품향마라향솥","tel":"031-506-8999","addr":"경기도 안산시 상록구 이동 570-5번지 1층","indutype":"일반휴게음식 - 일반한식","category":"restaurant"}]},{"lat":"37.304535582","long":"126.86324221","imageIndex":4,"items":[{"name":"일품향오리목왕","tel":"031-4172-2992","addr":"경기도 안산시 상록구 이동 570-2번지","indutype":"일반휴게음식 - 중국식","category":"restaurant"}]},{"lat":"37.312257246","long":"126.84865339","imageIndex":4,"items":[{"name":"잇빠이소쿠리","tel":"031-8002-1117","addr":"경기도 안산시 상록구 이동 656-5번지 1층","indutype":"일반휴게음식 - 일식·회집","category":"restaurant"}]},{"lat":"37.310144759","long":"126.85973495","imageIndex":4,"items":[{"name":"자갈치식당앤하이꼬꼬","tel":"","addr":"경기도 안산시 상록구 이동 612-22번지 1층","indutype":"일반휴게음식 - 일반한식","category":"restaurant"},{"name":"추억속으로","tel":"031-416-7080","addr":"경기도 안산시 상록구 이동 612-22번지 지하1층","indutype":"일반휴게음식 - 일반한식","category":"restaurant"}]},{"lat":"37.311256615","long":"126.84827189","imageIndex":4,"items":[{"name":"장모집게장","tel":"031-415-0309","addr":"경기도 안산시 상록구 이동 695-1번지 1층","indutype":"일반휴게음식 - 일반한식","category":"restaurant"}]},{"lat":"37.310893517","long":"126.86048932","imageIndex":4,"items":[{"name":"장수통닭","tel":"031-409-7771","addr":"경기도 안산시 상록구 이동 538-8번지 1층 102호","indutype":"일반휴게음식 - 스넥","category":"restaurant"}]},{"lat":"37.31311769","long":"126.845211","imageIndex":4,"items":[{"name":"잭인뉴욕스테이크하우스","tel":"031-437-7077","addr":"경기도 안산시 상록구 이동 647-5번지 1층","indutype":"일반휴게음식 - 서양음식","category":"restaurant"}]},{"lat":"37.310647616","long":"126.85832395","imageIndex":4,"items":[{"name":"전주식당","tel":"031-438-0825","addr":"경기도 안산시 상록구 이동 526-6번지 101호","indutype":"일반휴게음식 - 일반한식","category":"restaurant"}]},{"lat":"37.311230481","long":"126.84896006","imageIndex":4,"items":[{"name":"전통안동찜닭2호점","tel":"031-415-8496","addr":"경기도 안산시 상록구 이동 695-5번지 101호","indutype":"일반휴게음식 - 일반한식","category":"restaurant"}]},{"lat":"37.30947754","long":"126.85935269","imageIndex":4,"items":[{"name":"정가네김치찌개","tel":"","addr":"경기도 안산시 상록구 이동 612-11번지 102호","indutype":"일반휴게음식 - 일반한식","category":"restaurant"}]},{"lat":"37.311256393","long":"126.84810269","imageIndex":4,"items":[{"name":"정글","tel":"031-417-1018","addr":"경기도 안산시 상록구 이동 695번지 2층","indutype":"일반휴게음식 - 주점","category":"restaurant"}]},{"lat":"37.31328146","long":"126.84640642","imageIndex":4,"items":[{"name":"정성찬 집밥","tel":"","addr":"경기도 안산시 상록구 이동 644-9번지 1층","indutype":"일반휴게음식 - 일반한식","category":"restaurant"}]},{"lat":"37.311947886","long":"126.86063398","imageIndex":4,"items":[{"name":"정숯불꼼장어","tel":"031-415-3338","addr":"경기도 안산시 상록구 이동 534-8번지 1층 101호","indutype":"일반휴게음식 - 일반한식","category":"restaurant"}]},{"lat":"37.305785154","long":"126.86084862","imageIndex":4,"items":[{"name":"정통가마솥설렁탕","tel":"031-418-1876","addr":"경기도 안산시 상록구 이동 603-14번지 1층","indutype":"일반휴게음식 - 일반한식","category":"restaurant"}]},{"lat":"37.3097893918","long":"126.8639657143","imageIndex":4,"items":[{"name":"정하이퍼","tel":"031-409-5046","addr":"경기도 안산시 상록구 이동 547-1번지","indutype":"도매 및 소매업 - 기타음식료품및일용","category":"restaurant"}]},{"lat":"37.303957041","long":"126.86165289","imageIndex":4,"items":[{"name":"종로해장국감자탕","tel":"031-418-8869","addr":"경기도 안산시 상록구 이동 574-5번지 1층","indutype":"일반휴게음식 - 일반한식","category":"restaurant"},{"name":"혜화동돈까스극장 상록점","tel":"031-501-2772","addr":"경기도 안산시 상록구 이동 574-5번지 102호","indutype":"일반휴게음식 - 일반한식","category":"restaurant"}]},{"lat":"37.313064004","long":"126.84549313","imageIndex":4,"items":[{"name":"주식회사 에이치엔푸드","tel":"031-406-5509","addr":"경기도 안산시 상록구 이동 646-7번지 101호","indutype":"일반휴게음식 - 일반한식","category":"restaurant"}]},{"lat":"37.312812273","long":"126.84591104","imageIndex":4,"items":[{"name":"주식회사 올리브외식산업","tel":"031-417-2800","addr":"경기도 안산시 상록구 이동 650번지 101,201호","indutype":"일반휴게음식 - 일반한식","category":"restaurant"}]},{"lat":"37.311953109","long":"126.84352135","imageIndex":4,"items":[{"name":"주식회사행복한플레이스","tel":"070-4211-7610","addr":"경기도 안산시 상록구 이동 636-4번지 1층","indutype":"일반휴게음식 - 일반한식","category":"restaurant"}]},{"lat":"37.308034548","long":"126.85823871","imageIndex":4,"items":[{"name":"진미식당","tel":"031-406-1739","addr":"경기도 안산시 상록구 이동 592-1번지 1층","indutype":"일반휴게음식 - 일반한식","category":"restaurant"}]},{"lat":"37.305978387","long":"126.84962498","imageIndex":4,"items":[{"name":"짱구스넥","tel":"031-502-0265","addr":"경기도 안산시 상록구 이동 718-5번지 금강프라자 108호","indutype":"일반휴게음식 - 스넥","category":"restaurant"}]},{"lat":"37.310259736","long":"126.85796372","imageIndex":4,"items":[{"name":"짱분식","tel":"031-407-6677","addr":"경기도 안산시 상록구 이동 521-16번지 1층","indutype":"일반휴게음식 - 일반한식","category":"restaurant"}]},{"lat":"37.312146654","long":"126.84676975","imageIndex":4,"items":[{"name":"찌개와볶음","tel":"031-406-4574","addr":"경기도 안산시 상록구 이동 654번지","indutype":"일반휴게음식 - 일반한식","category":"restaurant"}]},{"lat":"37.310400307","long":"126.8480142","imageIndex":4,"items":[{"name":"찜집","tel":"031-409-3592","addr":"경기도 안산시 상록구 이동 701-2번지 1층","indutype":"일반휴게음식 - 일반한식","category":"restaurant"}]},{"lat":"37.312173058","long":"126.84629591","imageIndex":4,"items":[{"name":"착한낙지","tel":"031-406-8264","addr":"경기도 안산시 상록구 이동 651-8번지 1층","indutype":"일반휴게음식 - 일반한식","category":"restaurant"}]},{"lat":"37.313202343","long":"126.84790693","imageIndex":4,"items":[{"name":"참항제주뚝배기","tel":"031-419-9252","addr":"경기도 안산시 상록구 이동 641-1번지 1층 101호","indutype":"일반휴게음식 - 일반한식","category":"restaurant"}]},{"lat":"37.304643704","long":"126.86324201","imageIndex":4,"items":[{"name":"창신족발","tel":"031-407-1550","addr":"경기도 안산시 상록구 이동 570-1번지 1층 전부","indutype":"일반휴게음식 - 일반한식","category":"restaurant"}]},{"lat":"37.3055872","long":"126.86107458","imageIndex":4,"items":[{"name":"청년육회","tel":"","addr":"경기도 안산시 상록구 이동 603-12번지 102호","indutype":"일반휴게음식 - 일반한식","category":"restaurant"}]},{"lat":"37.311812874","long":"126.84646587","imageIndex":4,"items":[{"name":"청담 갑오징어","tel":"031-501-9911","addr":"경기도 안산시 상록구 이동 662-1번지 백선빌딩 1층","indutype":"일반휴게음식 - 일반한식","category":"restaurant"},{"name":"청담갑오징어","tel":"031-501-9911","addr":"경기도 안산시 상록구 이동 662-1번지 백선빌딩 1층","indutype":"일반휴게음식 - 일반한식","category":"restaurant"}]},{"lat":"37.30726057","long":"126.844851","imageIndex":4,"items":[{"name":"최정숙명품수제왕족발보쌈","tel":"031-417-1334","addr":"경기도 안산시 상록구 이동 688-8번지 1층","indutype":"일반휴게음식 - 일반한식","category":"restaurant"}]},{"lat":"37.304956554","long":"126.86113217","imageIndex":4,"items":[{"name":"추억속에민속주점","tel":"031-419-7562","addr":"경기도 안산시 상록구 이동 577-4번지 1층","indutype":"일반휴게음식 - 일반한식","category":"restaurant"}]},{"lat":"37.310955143","long":"126.85929348","imageIndex":4,"items":[{"name":"춘자네고깃집","tel":"031-000-0000","addr":"경기도 안산시 상록구 이동 537-18번지","indutype":"일반휴게음식 - 일반한식","category":"restaurant"}]},{"lat":"37.307234276","long":"126.84540377","imageIndex":4,"items":[{"name":"카리스커피&베이커리","tel":"031-408-5494","addr":"경기도 안산시 상록구 이동 688-5번지","indutype":"일반휴게음식 - 서양음식","category":"restaurant"}]},{"lat":"37.309036177","long":"126.85946633","imageIndex":4,"items":[{"name":"카우카우(이동점)","tel":"031-406-9954","addr":"경기도 안산시 상록구 이동 610-5번지 101호","indutype":"일반휴게음식 - 일반한식","category":"restaurant"}]},{"lat":"37.307926564","long":"126.85835172","imageIndex":4,"items":[{"name":"카페 (cafe)592.2","tel":"031-000-0000","addr":"경기도 안산시 상록구 이동 592-2번지 1층","indutype":"일반휴게음식 - 서양음식","category":"restaurant"},{"name":"한끼보따리","tel":"031-509-8039","addr":"경기도 안산시 상록구 이동 592-2번지","indutype":"일반휴게음식 - 일반한식","category":"restaurant"},{"name":"호식이두마리치킨이동점","tel":"031-406-7254","addr":"경기도 안산시 상록구 이동 592-2번지 1층","indutype":"일반휴게음식 - 스넥","category":"restaurant"}]},{"lat":"37.311759795","long":"126.84721049","imageIndex":4,"items":[{"name":"카페(cafe)보노","tel":"","addr":"경기도 안산시 상록구 이동 661-1번지 2층 203호","indutype":"일반휴게음식 - 서양음식","category":"restaurant"}]},{"lat":"37.311865379","long":"126.84529258","imageIndex":4,"items":[{"name":"카페마루","tel":"031-406-4655","addr":"경기도 안산시 상록구 이동 663-1번지 1층","indutype":"일반휴게음식 - 스넥","category":"restaurant"}]},{"lat":"37.304981163","long":"126.85912436","imageIndex":4,"items":[{"name":"카페소풍","tel":"031-433-6245","addr":"경기도 안산시 상록구 이동 579-5번지 1층","indutype":"일반휴게음식 - 서양음식","category":"restaurant"}]},{"lat":"37.311949705","long":"126.84774029","imageIndex":4,"items":[{"name":"카페조기나루/(주)호현","tel":"031-405-3935","addr":"경기도 안산시 상록구 이동 654-6번지 1,2층","indutype":"일반휴게음식 - 서양음식","category":"restaurant"}]},{"lat":"37.306595177","long":"126.86010263","imageIndex":4,"items":[{"name":"카페클레스","tel":"031-407-9777","addr":"경기도 안산시 상록구 이동 601-7번지 1층","indutype":"일반휴게음식 - 일반한식","category":"restaurant"}]},{"lat":"37.311949454","long":"126.84754852","imageIndex":4,"items":[{"name":"커피&허브","tel":"031-501-8668","addr":"경기도 안산시 상록구 이동 654-7번지 1층","indutype":"일반휴게음식 - 서양음식","category":"restaurant"}]},{"lat":"37.306675628","long":"126.85957233","imageIndex":4,"items":[{"name":"커피가땡긴다","tel":"","addr":"경기도 안산시 상록구 이동 587-7번지 1층 103호","indutype":"일반휴게음식 - 서양음식","category":"restaurant"}]},{"lat":"37.313508689","long":"126.8479063","imageIndex":4,"items":[{"name":"커피볶는콩이","tel":"","addr":"경기도 안산시 상록구 이동 640-4번지 화정빌딩","indutype":"일반휴게음식 - 일반한식","category":"restaurant"}]},{"lat":"37.304534098","long":"126.8619902","imageIndex":4,"items":[{"name":"커피부루잉(coffee brewing)","tel":"","addr":"경기도 안산시 상록구 이동 573-9번지 1층","indutype":"일반휴게음식 - 서양음식","category":"restaurant"}]},{"lat":"37.305371185","long":"126.86126674","imageIndex":4,"items":[{"name":"커피향","tel":"031-520-9313","addr":"경기도 안산시 상록구 이동 603-10번지 1층 일부","indutype":"일반휴게음식 - 서양음식","category":"restaurant"}]},{"lat":"37.308205439","long":"126.85799023","imageIndex":4,"items":[{"name":"코다리가보쌈을만나는집","tel":"070-7404-8255","addr":"경기도 안산시 상록구 이동 593-6번지 1층 2호,3호","indutype":"일반휴게음식 - 일반한식","category":"restaurant"}]},{"lat":"37.30851069","long":"126.84995824","imageIndex":4,"items":[{"name":"클로버디카페","tel":"031-417-9300","addr":"경기도 안산시 상록구 이동 715-6번지 1층 일부","indutype":"일반휴게음식 - 서양음식","category":"restaurant"}]},{"lat":"37.304316085","long":"126.860513","imageIndex":4,"items":[{"name":"태화루","tel":"031-419-9999","addr":"경기도 안산시 상록구 이동 576-7번지 1층","indutype":"일반휴게음식 - 중국식","category":"restaurant"}]},{"lat":"37.312038129","long":"126.8464654","imageIndex":4,"items":[{"name":"토담청국장보리밥","tel":"031-408-2007","addr":"경기도 안산시 상록구 이동 651-6번지 1층","indutype":"일반휴게음식 - 일반한식","category":"restaurant"}]},{"lat":"37.309675668","long":"126.85927335","imageIndex":4,"items":[{"name":"페리카나치킨","tel":"031-418-7911","addr":"경기도 안산시 상록구 이동 612-17번지 연번지 102호","indutype":"일반휴게음식 - 스넥","category":"restaurant"}]},{"lat":"37.305037037","long":"126.86062444","imageIndex":4,"items":[{"name":"포차천국","tel":"031-416-5485","addr":"경기도 안산시 상록구 이동 578-1번지","indutype":"일반휴게음식 - 일반한식","category":"restaurant"}]},{"lat":"37.312090784","long":"126.84540492","imageIndex":4,"items":[{"name":"푸드스피드25맨러브레터","tel":"070-4922-1261","addr":"경기도 안산시 상록구 이동 649-7번지 1층","indutype":"일반휴게음식 - 일반한식","category":"restaurant"},{"name":"푸드스피드25시","tel":"031-501-0808","addr":"경기도 안산시 상록구 이동 649-7번지 101호","indutype":"일반휴게음식 - 일반한식","category":"restaurant"}]},{"lat":"37.314115325","long":"126.84334757","imageIndex":4,"items":[{"name":"프시케","tel":"031-418-5691","addr":"경기도 안산시 상록구 이동 623-2번지","indutype":"일반휴게음식 - 일반한식","category":"restaurant"}]},{"lat":"37.30981635","long":"126.84932391","imageIndex":4,"items":[{"name":"플러피멍","tel":"","addr":"경기도 안산시 상록구 이동 710-8번지 2층","indutype":"일반휴게음식 - 서양음식","category":"restaurant"}]},{"lat":"37.312949407","long":"126.84741109","imageIndex":4,"items":[{"name":"하루","tel":"031-414-5697","addr":"경기도 안산시 상록구 이동 642-5번지 101호","indutype":"일반휴게음식 - 일반한식","category":"restaurant"}]},{"lat":"37.309177488","long":"126.84999073","imageIndex":4,"items":[{"name":"하루","tel":"031-501-8771","addr":"경기도 안산시 상록구 이동 710-14번지 102,103호","indutype":"일반휴게음식 - 서양음식","category":"restaurant"}]},{"lat":"37.309926337","long":"126.85076756","imageIndex":4,"items":[{"name":"한가득족발","tel":"031-408-1999","addr":"경기도 안산시 상록구 이동 708번지 102호","indutype":"일반휴게음식 - 일반한식","category":"restaurant"}]},{"lat":"37.311698541","long":"126.84859812","imageIndex":4,"items":[{"name":"한양복국시","tel":"031-408-1217","addr":"경기도 안산시 상록구 이동 660-3번지 1층","indutype":"일반휴게음식 - 일반한식","category":"restaurant"}]},{"lat":"37.30619919","long":"126.86048689","imageIndex":4,"items":[{"name":"해마루","tel":"031-409-7122","addr":"경기도 안산시 상록구 이동 602-7번지 1층 101호","indutype":"일반휴게음식 - 중국식","category":"restaurant"}]},{"lat":"37.309504228","long":"126.85907063","imageIndex":4,"items":[{"name":"해마을감자탕","tel":"031-501-9291","addr":"경기도 안산시 상록구 이동 612-15번지 1층","indutype":"일반휴게음식 - 일반한식","category":"restaurant"}]},{"lat":"37.312205136","long":"126.84332905","imageIndex":4,"items":[{"name":"행복한한상/주식회사 플레이스안","tel":"","addr":"경기도 안산시 상록구 이동 634-10번지","indutype":"일반휴게음식 - 일반한식","category":"restaurant"}]},{"lat":"37.31078802","long":"126.86268919","imageIndex":4,"items":[{"name":"행운집","tel":"","addr":"경기도 안산시 상록구 이동 543-11번지","indutype":"일반휴게음식 - 일반한식","category":"restaurant"}]},{"lat":"37.304283256","long":"126.86320884","imageIndex":4,"items":[{"name":"허흑오리","tel":"031-501-6565","addr":"경기도 안산시 상록구 이동 570-4번지 1층 101호","indutype":"일반휴게음식 - 일반한식","category":"restaurant"}]},{"lat":"37.313199157","long":"126.84549285","imageIndex":4,"items":[{"name":"호세아오리바베큐(안산점)","tel":"031-486-5245","addr":"경기도 안산시 상록구 이동 646-8번지 101호","indutype":"일반휴게음식 - 일반한식","category":"restaurant"}]},{"lat":"37.309313281","long":"126.85048679","imageIndex":4,"items":[{"name":"홍계숯불닭갈비","tel":"031-408-3350","addr":"경기도 안산시 상록구 이동 709-4번지 102호","indutype":"일반휴게음식 - 일반한식","category":"restaurant"}]},{"lat":"37.312064562","long":"126.84601412","imageIndex":4,"items":[{"name":"홍익","tel":"031-409-6669","addr":"경기도 안산시 상록구 이동 650-6번지 송호4길2","indutype":"일반휴게음식 - 일반한식","category":"restaurant"}]},{"lat":"37.312037905","long":"126.84629619","imageIndex":4,"items":[{"name":"황금태 안산이동점","tel":"031-419-6669","addr":"경기도 안산시 상록구 이동 651-7번지 101호","indutype":"일반휴게음식 - 일반한식","category":"restaurant"}]},{"lat":"37.307006782","long":"126.86529057","imageIndex":4,"items":[{"name":"황소숯불곰장어","tel":"031-409-6623","addr":"경기도 안산시 상록구 이동 552-1번지","indutype":"일반휴게음식 - 일반한식","category":"restaurant"}]},{"lat":"37.304504864","long":"126.8601517","imageIndex":4,"items":[{"name":"황제상황버섯삼계탕","tel":"031-416-3377","addr":"경기도 안산시 상록구 이동 576-9번지","indutype":"일반휴게음식 - 일반한식","category":"restaurant"}]}]