[{"lat":"37.678468032","long":"126.95789001","imageIndex":13,"items":[{"name":"(주)북한산워터파크","tel":"02-388-0455","addr":"경기도 고양시 덕양구 효자동 48-8번지","indutype":"레저업소 - 수 영 장","category":"leisure"}]},{"lat":"37.678468032","long":"126.95789001","imageIndex":17,"items":[{"name":"(주)북한산워터파크","tel":"02-388-0455","addr":"경기도 고양시 덕양구 효자동 48-8번지","indutype":"","category":"other"}]},{"lat":"37.661436042","long":"126.94902636","imageIndex":17,"items":[{"name":"(주)아덴알앤씨(Athene R&C Co.,LTd)","tel":"02-355-1417","addr":"경기도 고양시 덕양구 효자동 140-6번지","indutype":"","category":"other"}]},{"lat":"37.670574348","long":"126.95480042","imageIndex":17,"items":[{"name":"개성집(북한산점)","tel":"02-387-1650","addr":"경기도 고양시 덕양구 효자동 103-5번지","indutype":"","category":"other"}]},{"lat":"37.675578553","long":"126.96538445","imageIndex":17,"items":[{"name":"경일상회","tel":"02-355-8522","addr":"경기도 고양시 덕양구 효자동 20번지","indutype":"","category":"other"},{"name":"덕신상회","tel":"02-387-2223","addr":"경기도 고양시 덕양구 효자동 20번지","indutype":"","category":"other"}]},{"lat":"37.677793966","long":"126.96247005","imageIndex":17,"items":[{"name":"골안상회","tel":"02-355-6715","addr":"경기도 고양시 덕양구 효자동 30번지","indutype":"","category":"other"}]},{"lat":"37.674683306","long":"126.95616933","imageIndex":17,"items":[{"name":"골프천국","tel":"","addr":"경기도 고양시 덕양구 효자동 62-1번지","indutype":"","category":"other"},{"name":"골프천국","tel":"","addr":"경기도 고양시 덕양구 효자동 62-1번지","indutype":"레져용품 - 골프용품 전문점","category":"other"},{"name":"만수식물","tel":"031-383-9416","addr":"경기도 고양시 덕양구 효자동 62-1번지","indutype":"","category":"other"}]},{"lat":"37.656075978","long":"126.95058278","imageIndex":17,"items":[{"name":"관광산장","tel":"031-386-2751","addr":"경기도 고양시 덕양구 효자동 217번지","indutype":"","category":"other"}]},{"lat":"37.66007544","long":"126.94872135","imageIndex":17,"items":[{"name":"남원추어탕","tel":"02-387-7556","addr":"경기도 고양시 덕양구 효자동 146-1번지","indutype":"","category":"other"},{"name":"원효레져","tel":"02-358-4533","addr":"경기도 고양시 덕양구 효자동 146-1번지","indutype":"레져용품 - 스포츠·레져용품","category":"other"},{"name":"원효레져","tel":"02-358-4533","addr":"경기도 고양시 덕양구 효자동 146-1번지","indutype":"","category":"other"},{"name":"원효레져","tel":"02-358-4533","addr":"경기도 고양시 덕양구 효자동 146-1번지","indutype":"","category":"other"},{"name":"원효레져","tel":"02-358-4533","addr":"경기도 고양시 덕양구 효자동 146-1번지","indutype":"","category":"other"}]},{"lat":"37.659913468","long":"126.94916346","imageIndex":17,"items":[{"name":"더매미골","tel":"031-0-0000","addr":"경기도 고양시 덕양구 효자동 175-5번지","indutype":"","category":"other"}]},{"lat":"37.671159912","long":"126.95464136","imageIndex":17,"items":[{"name":"된장예술","tel":"02-352-2111","addr":"경기도 고양시 덕양구 효자동 102-5번지","indutype":"","category":"other"},{"name":"송추추어탕","tel":"02-352-2111","addr":"경기도 고양시 덕양구 효자동 102-5번지","indutype":"","category":"other"}]},{"lat":"37.667492725","long":"126.95403168","imageIndex":17,"items":[{"name":"두꺼비농원","tel":"031-353-9677","addr":"경기도 고양시 덕양구 효자동 105-1번지","indutype":"","category":"other"},{"name":"두꺼비농원","tel":"031-353-9677","addr":"경기도 고양시 덕양구 효자동 105-1번지","indutype":"문화.취미 - 화원","category":"other"}]},{"lat":"37.673466598","long":"126.95516127","imageIndex":17,"items":[{"name":"두지리어부집","tel":"031-855-2918","addr":"경기도 고양시 덕양구 효자동 95-2번지","indutype":"","category":"other"},{"name":"임진강매운탕","tel":"031-855-2918","addr":"경기도 고양시 덕양구 효자동 95-2번지","indutype":"","category":"other"},{"name":"장원","tel":"02-354-6676","addr":"경기도 고양시 덕양구 효자동 95-2번지","indutype":"","category":"other"}]},{"lat":"37.674493922","long":"126.95571604","imageIndex":17,"items":[{"name":"미가정","tel":"02-388-3661","addr":"경기도 고양시 덕양구 효자동 96-1 북한산로","indutype":"","category":"other"}]},{"lat":"37.65838216","long":"126.94991252","imageIndex":17,"items":[{"name":"미루나무상회","tel":"02-358-0066","addr":"경기도 고양시 덕양구 효자동 202번지","indutype":"","category":"other"}]},{"lat":"37.674349904","long":"126.95605619","imageIndex":17,"items":[{"name":"바윗길","tel":"02-356-5950","addr":"경기도 고양시 덕양구 효자동 72번지","indutype":"","category":"other"}]},{"lat":"37.673384976","long":"126.9538578","imageIndex":17,"items":[{"name":"버드나무집","tel":"02-355-6244","addr":"경기도 고양시 덕양구 효자동 224","indutype":"","category":"other"},{"name":"윤철상회","tel":"02-386-4790","addr":"경기도 고양시 덕양구 효자동 224번지","indutype":"","category":"other"},{"name":"폭포수","tel":"02-385-9568","addr":"경기도 고양시 덕양구 효자동 224","indutype":"","category":"other"}]},{"lat":"37.671628786","long":"126.95555917","imageIndex":17,"items":[{"name":"본가냉면","tel":"02-355-8279","addr":"경기도 고양시 덕양구 효자동 82-4번지","indutype":"","category":"other"},{"name":"소양강","tel":"02-352-6258","addr":"경기도 고양시 덕양구 효자동 82-4번지","indutype":"","category":"other"}]},{"lat":"37.656662325","long":"126.95222558","imageIndex":17,"items":[{"name":"북한산매점","tel":"02-354-1070","addr":"경기도 고양시 덕양구 효자동 산37번지","indutype":"","category":"other"}]},{"lat":"37.660381847","long":"126.94889113","imageIndex":17,"items":[{"name":"북한산식당","tel":"02-385-1688","addr":"경기도 고양시 덕양구 효자동 144-4번지","indutype":"","category":"other"}]},{"lat":"37.672439168","long":"126.95435715","imageIndex":17,"items":[{"name":"북한산유황오리숯불갈비","tel":"031-358-1366","addr":"경기도 고양시 덕양구 효자동 92-3번지","indutype":"","category":"other"},{"name":"소원","tel":"02-333-6262","addr":"경기도 고양시 덕양구 효자동 92-3번지","indutype":"","category":"other"},{"name":"온새미","tel":"","addr":"경기도 고양시 덕양구 효자동 92-3번지","indutype":"","category":"other"}]},{"lat":"37.65771462","long":"126.9481111","imageIndex":17,"items":[{"name":"북한산효자가든","tel":"02-3157-7757","addr":"경기도 고양시 덕양구 효자동 160번지","indutype":"","category":"other"},{"name":"북한산효자가든","tel":"02-3157-7757","addr":"경기도 고양시 덕양구 효자동 160","indutype":"","category":"other"}]},{"lat":"37.67940537","long":"126.95877365","imageIndex":17,"items":[{"name":"사기막골파주집","tel":"02-381-1565","addr":"경기도 고양시 덕양구 효자동 46-2번지","indutype":"","category":"other"}]},{"lat":"37.670770603","long":"126.97741294","imageIndex":17,"items":[{"name":"사랑나눔","tel":"032-329-3367","addr":"경기도 고양시 덕양구 효자동 산1-4번지","indutype":"","category":"other"}]},{"lat":"37.678882945","long":"126.9591367","imageIndex":17,"items":[{"name":"사랑방","tel":"02-384-4005","addr":"경기도 고양시 덕양구 효자동 45-1번지","indutype":"","category":"other"},{"name":"원두막집","tel":"02-384-8902","addr":"경기도 고양시 덕양구 효자동 45-1 1층","indutype":"","category":"other"}]},{"lat":"37.662968937","long":"126.95183596","imageIndex":17,"items":[{"name":"사진속커피","tel":"070-4114-8455","addr":"경기도 고양시 덕양구 효자동 128-2번지","indutype":"문화.취미 - 애완동물","category":"other"},{"name":"사진속커피","tel":"070-4114-8455","addr":"경기도 고양시 덕양구 효자동 128-2번지","indutype":"","category":"other"},{"name":"사진속커피","tel":"070-4114-8455","addr":"경기도 고양시 덕양구 효자동 128-2번지","indutype":"","category":"other"},{"name":"사진속커피","tel":"070-4114-8455","addr":"경기도 고양시 덕양구 효자동 128-2번지","indutype":"","category":"other"}]},{"lat":"37.679432851","long":"126.95999792","imageIndex":17,"items":[{"name":"산골식당","tel":"02-355-8480","addr":"경기도 고양시 덕양구 효자동 38번지","indutype":"","category":"other"}]},{"lat":"37.663464262","long":"126.95135961","imageIndex":17,"items":[{"name":"샘터가든","tel":"02-384-9900","addr":"경기도 고양시 덕양구 효자동 126-5번지","indutype":"","category":"other"},{"name":"샘터가든","tel":"02-384-9900","addr":"경기도 고양시 덕양구 효자동 126-5번지","indutype":"","category":"other"},{"name":"샘터가든","tel":"02-384-9900","addr":"경기도 고양시 덕양구 효자동 126-5번지","indutype":"","category":"other"}]},{"lat":"37.665104265","long":"126.95191383","imageIndex":17,"items":[{"name":"송학","tel":"02-357-2989","addr":"경기도 고양시 덕양구 효자동 108번지","indutype":"","category":"other"}]},{"lat":"37.678495199","long":"126.95825274","imageIndex":17,"items":[{"name":"시골밥상","tel":"02-354-7657","addr":"경기도 고양시 덕양구 효자동 46-4번지","indutype":"","category":"other"}]},{"lat":"37.679162058","long":"126.95863776","imageIndex":17,"items":[{"name":"신도식품","tel":"02-385-6735","addr":"경기도 고양시 덕양구 효자동 46-13번지","indutype":"","category":"other"}]},{"lat":"37.660049835","long":"126.95191729","imageIndex":17,"items":[{"name":"애순네","tel":"031-359-2886","addr":"경기도 고양시 덕양구 효자동 산 34-1","indutype":"","category":"other"}]},{"lat":"37.659796009","long":"126.94843823","imageIndex":17,"items":[{"name":"여자만북한산성점","tel":"02-384-8848","addr":"경기도 고양시 덕양구 효자동 147-2번지","indutype":"","category":"other"}]},{"lat":"37.671628493","long":"126.95483374","imageIndex":17,"items":[{"name":"옛골멸치국수숯불고기","tel":"02-357-8892","addr":"경기도 고양시 덕양구 효자동 92-4번지","indutype":"","category":"other"}]},{"lat":"37.674547926","long":"126.95557999","imageIndex":17,"items":[{"name":"옥천","tel":"02-353-1769","addr":"경기도 고양시 덕양구 효자동 96-4번지","indutype":"신변잡화 - 기타잡화","category":"other"},{"name":"옥천","tel":"02-353-1769","addr":"경기도 고양시 덕양구 효자동 96-4번지","indutype":"","category":"other"},{"name":"옥천","tel":"02-353-1769","addr":"경기도 고양시 덕양구 효자동 96-4번지","indutype":"","category":"other"}]},{"lat":"37.671160261","long":"126.95550279","imageIndex":17,"items":[{"name":"와글와글보리밥부페","tel":"02-385-1681","addr":"경기도 고양시 덕양구 효자동 91-1번지","indutype":"","category":"other"},{"name":"우리상회","tel":"02-385-1681","addr":"경기도 고양시 덕양구 효자동 91-1번지","indutype":"","category":"other"}]},{"lat":"37.660498791","long":"126.94849438","imageIndex":17,"items":[{"name":"은행나무집","tel":"02-359-3106","addr":"경기도 고양시 덕양구 효자동 143-3번지","indutype":"","category":"other"}]},{"lat":"37.6578597","long":"126.95013955","imageIndex":17,"items":[{"name":"이가","tel":"02-386-1130","addr":"경기도 고양시 덕양구 효자동 206번지","indutype":"","category":"other"}]},{"lat":"37.660607037","long":"126.94877763","imageIndex":17,"items":[{"name":"장수촌","tel":"02-386-0257","addr":"경기도 고양시 덕양구 효자동 144-1번지","indutype":"","category":"other"}]},{"lat":"37.678270111","long":"126.95866096","imageIndex":17,"items":[{"name":"진미식당","tel":"02-387-8287","addr":"경기도 고양시 덕양구 효자동 50번지","indutype":"","category":"other"}]},{"lat":"37.663247871","long":"126.95099708","imageIndex":17,"items":[{"name":"천수만갑오징어와문어","tel":"02-385-5292","addr":"경기도 고양시 덕양구 효자동 127-1번지","indutype":"","category":"other"}]},{"lat":"37.671132984","long":"126.95489074","imageIndex":17,"items":[{"name":"커피와나무","tel":"02-384-8255","addr":"경기도 고양시 덕양구 효자동 103-3번지","indutype":"","category":"other"},{"name":"커피와나무","tel":"02-384-8255","addr":"경기도 고양시 덕양구 효자동 103-3번지","indutype":"","category":"other"}]},{"lat":"37.66590647","long":"126.95271799","imageIndex":17,"items":[{"name":"토담골","tel":"02-388-3090","addr":"경기도 고양시 덕양구 효자동 107-1번지","indutype":"","category":"other"}]},{"lat":"37.674439701","long":"126.95530801","imageIndex":17,"items":[{"name":"푸른공원","tel":"031-355-8569","addr":"경기도 고양시 덕양구 효자동 96-14번지","indutype":"","category":"other"},{"name":"효자아귀찜","tel":"","addr":"경기도 고양시 덕양구 효자동 96-14번지","indutype":"","category":"other"}]},{"lat":"37.672106308","long":"126.95558154","imageIndex":17,"items":[{"name":"함고집생바지락칼국수","tel":"02-356-1125","addr":"경기도 고양시 덕양구 효자동 81-4번지","indutype":"","category":"other"}]},{"lat":"37.660021625","long":"126.94925404","imageIndex":17,"items":[{"name":"효자구판장","tel":"02-353-6209","addr":"경기도 고양시 덕양구 효자동 175-4, 175-5","indutype":"","category":"other"}]},{"lat":"37.660021293","long":"126.94852873","imageIndex":17,"items":[{"name":"효자정","tel":"031-381-4474","addr":"경기도 고양시 덕양구 효자동 147-1번지","indutype":"","category":"other"},{"name":"효자정","tel":"02-385-9415","addr":"경기도 고양시 덕양구 효자동 147-1번지","indutype":"","category":"other"}]},{"lat":"37.670574348","long":"126.95480042","imageIndex":4,"items":[{"name":"김봉창코다리","tel":"02-387-1650","addr":"경기도 고양시 덕양구 효자동 103-5번지","indutype":"일반휴게음식 - 일반한식","category":"restaurant"}]},{"lat":"37.66007544","long":"126.94872135","imageIndex":4,"items":[{"name":"남원추어탕","tel":"02-387-7556","addr":"경기도 고양시 덕양구 효자동 146-1번지","indutype":"일반휴게음식 - 일반한식","category":"restaurant"}]},{"lat":"37.65838216","long":"126.94991252","imageIndex":4,"items":[{"name":"미루나무상회","tel":"02-358-0066","addr":"경기도 고양시 덕양구 효자동","indutype":"일반휴게음식 - 일반한식","category":"restaurant"}]},{"lat":"37.671628786","long":"126.95555917","imageIndex":4,"items":[{"name":"본가냉면","tel":"02-355-8279","addr":"경기도 고양시 덕양구 효자동 82-4번지","indutype":"일반휴게음식 - 일반한식","category":"restaurant"}]},{"lat":"37.65771462","long":"126.9481111","imageIndex":4,"items":[{"name":"북한산효자가든","tel":"02-3157-7757","addr":"경기도 고양시 덕양구 효자동 160번지","indutype":"일반휴게음식 - 일반한식","category":"restaurant"}]},{"lat":"37.67940537","long":"126.95877365","imageIndex":4,"items":[{"name":"사기막골파주집","tel":"02-381-1565","addr":"경기도 고양시 덕양구 효자동 46-2번지","indutype":"일반휴게음식 - 일반한식","category":"restaurant"}]},{"lat":"37.679432851","long":"126.95999792","imageIndex":4,"items":[{"name":"산골식당","tel":"02-355-8480","addr":"경기도 고양시 덕양구 효자동","indutype":"일반휴게음식 - 일반한식","category":"restaurant"}]},{"lat":"37.659796009","long":"126.94843823","imageIndex":4,"items":[{"name":"여자만북한산성점","tel":"02-384-8848","addr":"경기도 고양시 덕양구 효자동 147-2번지","indutype":"일반휴게음식 - 일반한식","category":"restaurant"}]},{"lat":"37.672439168","long":"126.95435715","imageIndex":4,"items":[{"name":"온새미","tel":"02-111-1111","addr":"경기도 고양시 덕양구 효자동 92-3번지","indutype":"일반휴게음식 - 일반한식","category":"restaurant"}]},{"lat":"37.671160261","long":"126.95550279","imageIndex":4,"items":[{"name":"와글와글보리밥부페","tel":"02-385-1681","addr":"경기도 고양시 덕양구 효자동 91-1번지","indutype":"일반휴게음식 - 일반한식","category":"restaurant"}]},{"lat":"37.660498791","long":"126.94849438","imageIndex":4,"items":[{"name":"은행나무집","tel":"02-359-3106","addr":"경기도 고양시 덕양구 효자동 143-3번지","indutype":"일반휴게음식 - 일반한식","category":"restaurant"}]},{"lat":"37.673466598","long":"126.95516127","imageIndex":4,"items":[{"name":"임진강매운탕","tel":"031-855-2918","addr":"경기도 고양시 덕양구 효자동 95-2번지","indutype":"일반휴게음식 - 일반한식","category":"restaurant"}]},{"lat":"37.660607037","long":"126.94877763","imageIndex":4,"items":[{"name":"장수촌","tel":"02-386-0257","addr":"경기도 고양시 덕양구 효자동 144-1번지","indutype":"일반휴게음식 - 일반한식","category":"restaurant"}]},{"lat":"37.671132984","long":"126.95489074","imageIndex":4,"items":[{"name":"커피와나무","tel":"02-384-8255","addr":"경기도 고양시 덕양구 효자동 103-3번지","indutype":"일반휴게음식 - 서양음식","category":"restaurant"}]},{"lat":"37.674439701","long":"126.95530801","imageIndex":4,"items":[{"name":"푸른공원","tel":"031-355-8569","addr":"경기도 고양시 덕양구 효자동 96-14번지","indutype":"일반휴게음식 - 한정식","category":"restaurant"},{"name":"효자아귀찜","tel":"","addr":"경기도 고양시 덕양구 효자동 96-14번지","indutype":"일반휴게음식 - 일반한식","category":"restaurant"}]},{"lat":"37.655886835","long":"126.9507189","imageIndex":4,"items":[{"name":"플레이(PLAY)","tel":"02-388-3838","addr":"경기도 고양시 덕양구 효자동 218-1번지","indutype":"일반휴게음식 - 서양음식","category":"restaurant"}]},{"lat":"37.660021293","long":"126.94852873","imageIndex":4,"items":[{"name":"효자정","tel":"02-385-9415","addr":"경기도 고양시 덕양구 효자동 147-1번지","indutype":"일반휴게음식 - 일반한식","category":"restaurant"}]},{"lat":"37.659913468","long":"126.94916346","imageIndex":7,"items":[{"name":"더매미골","tel":"031-000-0000","addr":"경기도 고양시 덕양구 효자동 175-5번지","indutype":"음료식품 - 기타음료식품","category":"food"}]},{"lat":"37.673466598","long":"126.95516127","imageIndex":7,"items":[{"name":"두지리어부집","tel":"031-855-2918","addr":"경기도 고양시 덕양구 효자동 95-2번지","indutype":"음료식품 - 농·축·수산품","category":"food"}]},{"lat":"37.674493922","long":"126.95571604","imageIndex":7,"items":[{"name":"미가정","tel":"02-388-3661","addr":"경기도 고양시 덕양구 효자동","indutype":"음료식품 - 기타음료식품","category":"food"}]},{"lat":"37.675773515","long":"126.95627067","imageIndex":7,"items":[{"name":"밤나무집","tel":"02-355-4438","addr":"경기도 고양시 덕양구 효자동","indutype":"음료식품 - 기타음료식품","category":"food"}]},{"lat":"37.656662325","long":"126.95222558","imageIndex":7,"items":[{"name":"북한산매점","tel":"02-354-1070","addr":"경기도 고양시 덕양구 효자동 산37번지","indutype":"음료식품 - 기타음료식품","category":"food"}]},{"lat":"37.678468032","long":"126.95789001","imageIndex":7,"items":[{"name":"북한산워터파크매점","tel":"02-388-0455","addr":"경기도 고양시 덕양구 효자동 48-8번지","indutype":"음료식품 - 기타음료식품","category":"food"}]},{"lat":"37.671160261","long":"126.95550279","imageIndex":7,"items":[{"name":"우리상회","tel":"02-385-1681","addr":"경기도 고양시 덕양구 효자동 91-1번지","indutype":"음료식품 - 기타음료식품","category":"food"}]},{"lat":"37.673384976","long":"126.9538578","imageIndex":7,"items":[{"name":"윤철상회","tel":"02-386-4790","addr":"경기도 고양시 덕양구 효자동 224번지","indutype":"음료식품 - 기타음료식품","category":"food"},{"name":"폭포수","tel":"02-385-9568","addr":"경기도 고양시 덕양구 효자동","indutype":"음료식품 - 기타음료식품","category":"food"}]},{"lat":"37.662743695","long":"126.95183611","imageIndex":13,"items":[{"name":"순화당","tel":"02-383-0260","addr":"경기도 고양시 덕양구 효자동 128-11번지","indutype":"보건위생 - 기타대인서비스","category":"beauty"}]},{"lat":"37.679162058","long":"126.95863776","imageIndex":7,"items":[{"name":"신도식품","tel":"02-385-6735","addr":"경기도 고양시 덕양구 효자동 46-13번지","indutype":"유통업 영리 - 슈퍼마켓","category":"mart"}]},{"lat":"37.660049835","long":"126.95191729","imageIndex":7,"items":[{"name":"애순네","tel":"031-359-2886","addr":"경기도 고양시 덕양구 효자동","indutype":"유통업 영리 - 슈퍼마켓","category":"mart"}]},{"lat":"37.660021625","long":"126.94925404","imageIndex":7,"items":[{"name":"효자구판장","tel":"02-353-6209","addr":"경기도 고양시 덕양구 효자동","indutype":"유통업 영리 - 슈퍼마켓","category":"mart"}]}]