[{"lat":"37.204970127","long":"127.07319582","imageIndex":5,"items":[{"name":"J 모텔","tel":"","addr":"경기도 화성시 반송동 91-7번지 월드프라자 702호","indutype":"숙박업 - 여관/기타숙박업","category":"hotel"},{"name":"모텔첼시","tel":"031-8003-0080","addr":"경기도 화성시 반송동 91-7번지 월드프라자 801,901,1001호","indutype":"숙박업 - 여관/기타숙박업","category":"hotel"}]},{"lat":"37.20519532","long":"127.07330867","imageIndex":5,"items":[{"name":"더스테이","tel":"031-8003-7300","addr":"경기도 화성시 반송동 91-6번지 5,8,9층","indutype":"숙박업 - 여관/기타숙박업","category":"hotel"},{"name":"더스테이(The Stay)","tel":"031-8003-7300","addr":"경기도 화성시 반송동 91-6번지 (501~506호(5층전체))","indutype":"숙박업 - 여관/기타숙박업","category":"hotel"},{"name":"더스테이2","tel":"031-8003-7300","addr":"경기도 화성시 반송동 91-6번지 901호","indutype":"숙박업 - 여관/기타숙박업","category":"hotel"}]},{"lat":"37.205690944","long":"127.07321901","imageIndex":5,"items":[{"name":"시크릿모텔","tel":"031-8015-4660","addr":"경기도 화성시 반송동 88-9번지 7층,8층,9층","indutype":"숙박업 - 여관/기타숙박업","category":"hotel"}]},{"lat":"37.201221722","long":"127.07333877","imageIndex":5,"items":[{"name":"애니콜 호텔","tel":"031-613-2883","addr":"경기도 화성시 반송동 106-2번지 화성동탄JO프라자 8,9,10층","indutype":"숙박업 - 여관/기타숙박업","category":"hotel"}]},{"lat":"37.205582652","long":"127.07350053","imageIndex":5,"items":[{"name":"큐(Q)모텔","tel":"031-613-8040","addr":"경기도 화성시 반송동 88-8번지 수성프라자 4층 402,403호","indutype":"숙박업 - 여관/기타숙박업","category":"hotel"}]},{"lat":"37.201078048","long":"127.0725051","imageIndex":5,"items":[{"name":"호텔코지","tel":"031-613-6818","addr":"경기도 화성시 반송동 104-6번지 프라임빌딩 8,9층","indutype":"숙박업 - 여관/기타숙박업","category":"hotel"}]}]