[{"lat":"37.634835778","long":"127.20789506","imageIndex":16,"items":[{"name":"GO캐드와맥스교습소","tel":"031-593-5509","addr":"경기도 남양주시 금곡동 402-4번지 좋은인상프라자 511호","indutype":"회원제형태 - 학원","category":"study"}]},{"lat":"37.634755949","long":"127.20716978","imageIndex":16,"items":[{"name":"TOP Design IT School컴퓨터학원","tel":"031-559-9003","addr":"경기도 남양주시 금곡동 404-56번지 2층","indutype":"학원 - 컴퓨터학원","category":"study"}]},{"lat":"37.635667885","long":"127.21624705","imageIndex":16,"items":[{"name":"개나리어린이집[아이행복]","tel":"031-559-3003","addr":"경기도 남양주시 금곡동 185-10번지 남양주시청제1청사","indutype":"학원 - 유아원","category":"study"}]},{"lat":"37.633783942","long":"127.21172138","imageIndex":16,"items":[{"name":"경문아트스쿨어린이집[아이행복]","tel":"031-592-3906","addr":"경기도 남양주시 금곡동 154-7번지","indutype":"학원 - 유아원","category":"study"}]},{"lat":"37.625975249","long":"127.19964672","imageIndex":16,"items":[{"name":"금곡2점사임당어린이집[아이행복]","tel":"031-594-8813","addr":"경기도 남양주시 금곡동 612번지 명지해드는터","indutype":"학원 - 유아원","category":"study"}]},{"lat":"37.634114473","long":"127.20819897","imageIndex":16,"items":[{"name":"금곡꼬마숲어린이집[아이행복]","tel":"","addr":"경기도 남양주시 금곡동 419-10번지 203동 104호","indutype":"학원 - 유아원","category":"study"}]},{"lat":"37.635699293","long":"127.21381134","imageIndex":16,"items":[{"name":"금곡사랑해 어린이집[아이행복]","tel":"","addr":"경기도 남양주시 금곡동 158-32번지 두승빌라 105호","indutype":"학원 - 유아원","category":"study"}]},{"lat":"37.635918048","long":"127.21239579","imageIndex":16,"items":[{"name":"금곡예손음악학원","tel":"031-591-9576","addr":"경기도 남양주시 금곡동 159-5번지 2층","indutype":"학원 - 예·체능계학원","category":"study"}]},{"lat":"37.634223515","long":"127.2076668","imageIndex":16,"items":[{"name":"김미연요리제과제빵학원","tel":"031-595-0560","addr":"경기도 남양주시 금곡동 416-1번지 금곡프라자 408호 306호","indutype":"학원 - 기능학원","category":"study"},{"name":"남양주평생교육문화센터평생교육시설","tel":"031-511-3588","addr":"경기도 남양주시 금곡동 416-1번지 금곡프라자 502호","indutype":"학원 - 기타 교육기관","category":"study"}]},{"lat":"37.635414752","long":"127.21169196","imageIndex":16,"items":[{"name":"남양주금곡초등학교병설유치원[아이행복]","tel":"031-592-9320","addr":"경기도 남양주시 금곡동 159-132번지","indutype":"학원 - 유치원","category":"study"}]},{"lat":"37.635088934","long":"127.20738594","imageIndex":16,"items":[{"name":"남양주미용요리학원","tel":"031-595-4410","addr":"경기도 남양주시 금곡동 404-91번지 4층","indutype":"회원제형태 - 학원","category":"study"}]},{"lat":"37.634945406","long":"127.21216647","imageIndex":16,"items":[{"name":"남양주시 합기도 연합회","tel":"031-592-1685","addr":"경기도 남양주시 금곡동 158-14 4층-2","indutype":"학원 - 예·체능계학원","category":"study"},{"name":"소리엘음악학원","tel":"031-591-1174","addr":"경기도 남양주시 금곡동 158-14번지","indutype":"학원 - 예·체능계학원","category":"study"},{"name":"임재근 권투체육관","tel":"031-567-2434","addr":"경기도 남양주시 금곡동 158-14번지 미금중앙종합상가 3층 7호","indutype":"회원제형태 - 학원","category":"study"},{"name":"하이플러스학원","tel":"031-592-3905","addr":"경기도 남양주시 금곡동 158-14번지 만복빌딩 2층 7호","indutype":"학원 - 보습학원","category":"study"}]},{"lat":"37.641834093","long":"127.20917195","imageIndex":16,"items":[{"name":"다산국악예술단","tel":"031-559-3528","addr":"경기도 남양주시 금곡동 378번지","indutype":"회원제형태 - 학원","category":"study"}]},{"lat":"37.633583769","long":"127.20769903","imageIndex":16,"items":[{"name":"다산어린이축구교실","tel":"070-4465-7760","addr":"경기도 남양주시 금곡동 430-11번지 금마루프라자 5층","indutype":"학원 - 예·체능계학원","category":"study"}]},{"lat":"37.634748217","long":"127.21158813","imageIndex":16,"items":[{"name":"더블에스","tel":"070-8243-9959","addr":"경기도 남양주시 금곡동 158-59번지","indutype":"학원 - 예·체능계학원","category":"study"}]},{"lat":"37.628499926","long":"127.20383349","imageIndex":16,"items":[{"name":"동곡초병설유치원[아이행복]","tel":"031-595-8220","addr":"경기도 남양주시 금곡동 624번지","indutype":"학원 - 유치원","category":"study"}]},{"lat":"37.634201183","long":"127.21013648","imageIndex":16,"items":[{"name":"동부드론교육원","tel":"031-846-5082","addr":"경기도 남양주시 금곡동 423-5번지 새마을금고 5층 A591호","indutype":"학원 - 기능학원","category":"study"}]},{"lat":"37.63466827","long":"127.21094215","imageIndex":16,"items":[{"name":"뮤엠영어금곡영어교습소","tel":"031-592-3353","addr":"경기도 남양주시 금곡동 158-20번지 세화빌딩 2층","indutype":"회원제형태 - 학원","category":"study"}]},{"lat":"37.627276859","long":"127.20250481","imageIndex":16,"items":[{"name":"뮤엠영어브루클린영어교습소","tel":"","addr":"경기도 남양주시 금곡동 651-1번지 다남프라자 상가동 3층 306호","indutype":"학원 - 외국어학원","category":"study"},{"name":"뮤엠영어브루클린영어교습소","tel":"031-8029-2725","addr":"경기도 남양주시 금곡동 651-1번지 다남프라자 306-1호","indutype":"학원 - 외국어학원","category":"study"},{"name":"오앤씨학원","tel":"031-592-6296","addr":"경기도 남양주시 금곡동 651-1번지 다남프라자 301호","indutype":"학원 - 보습학원","category":"study"},{"name":"용인대동곡태권도장","tel":"031-595-0008","addr":"경기도 남양주시 금곡동 651-1번지 다남프라자 418호","indutype":"학원 - 예·체능계학원","category":"study"},{"name":"햇빛요양보호사교육원","tel":"031-595-0691","addr":"경기도 남양주시 금곡동 651-1번지 다남프라자 416호","indutype":"회원제형태 - 학원","category":"study"}]},{"lat":"37.630257102","long":"127.20366829","imageIndex":16,"items":[{"name":"방이태권도","tel":"031-591-3003","addr":"경기도 남양주시 금곡동 664-6번지 2층","indutype":"학원 - 예·체능계학원","category":"study"}]},{"lat":"37.634894928","long":"127.21013841","imageIndex":16,"items":[{"name":"베스트아이캔학원","tel":"031-592-0393","addr":"경기도 남양주시 금곡동 159-122번지 예성빌딩 3층","indutype":"학원 - 보습학원","category":"study"},{"name":"한글컴퓨터학원","tel":"070-7581-8181","addr":"경기도 남양주시 금곡동 159-122번지 예성빌딩 2층","indutype":"회원제형태 - 학원","category":"study"}]},{"lat":"37.634916504","long":"127.21322001","imageIndex":16,"items":[{"name":"사단법인 다산국악예술진흥원","tel":"031-559-3528","addr":"경기도 남양주시 금곡동 158-52번지 이화빌딩 3층","indutype":"학원 - 예·체능계학원","category":"study"}]},{"lat":"37.635439528","long":"127.21296091","imageIndex":16,"items":[{"name":"사랑해어린이집[아이행복]","tel":"031-592-0079","addr":"경기도 남양주시 금곡동 158-7번지 금곡빌라 A동 101호","indutype":"학원 - 유아원","category":"study"}]},{"lat":"37.624337954","long":"127.20352777","imageIndex":16,"items":[{"name":"숲속마을어린이집[아이행복]","tel":"031-594-4377","addr":"경기도 남양주시 금곡동 641-5번지","indutype":"학원 - 유아원","category":"study"}]},{"lat":"37.622638169","long":"127.20700069","imageIndex":16,"items":[{"name":"시립금곡동어린이집[아이행복]","tel":"","addr":"경기도 남양주시 금곡동 504-1번지","indutype":"학원 - 유아원","category":"study"}]},{"lat":"37.634614791","long":"127.21061345","imageIndex":16,"items":[{"name":"용인대으뜸태권도","tel":"031-592-5104","addr":"경기도 남양주시 금곡동 157-5 금곡빌딩3층","indutype":"회원제형태 - 학원","category":"study"}]},{"lat":"37.637182685","long":"127.21054129","imageIndex":16,"items":[{"name":"이레어린이집[아이행복]","tel":"031-559-1024","addr":"경기도 남양주시 금곡동 776번지 신도브래뉴아파트 102동 102호","indutype":"학원 - 유아원","category":"study"}]},{"lat":"37.633976995","long":"127.20953542","imageIndex":16,"items":[{"name":"이지씨어터","tel":"031-559-2909","addr":"경기도 남양주시 금곡동 423-21번지 4층","indutype":"회원제형태 - 학원","category":"study"}]},{"lat":"37.631142509","long":"127.20222061","imageIndex":16,"items":[{"name":"자연샘어린이집[아이행복]","tel":"031-593-6635","addr":"경기도 남양주시 금곡동 677-2번지","indutype":"학원 - 유아원","category":"study"}]},{"lat":"37.634533608","long":"127.21572267","imageIndex":16,"items":[{"name":"중앙어린이집[아이행복]","tel":"031-592-2212","addr":"경기도 남양주시 금곡동 152-5번지","indutype":"학원 - 유아원","category":"study"}]},{"lat":"37.636421965","long":"127.21274842","imageIndex":16,"items":[{"name":"진명태권도장","tel":"031-592-8813","addr":"경기도 남양주시 금곡동 164-6번지","indutype":"회원제형태 - 학원","category":"study"}]},{"lat":"37.634225015","long":"127.2119492","imageIndex":16,"items":[{"name":"차일드유앤트리팜학원","tel":"031-559-0845","addr":"경기도 남양주시 금곡동 154-15번지 2층 3층","indutype":"학원 - 외국어학원","category":"study"}]},{"lat":"37.624864917","long":"127.20092382","imageIndex":16,"items":[{"name":"책여행(Journey to books)","tel":"031-595-5949","addr":"경기도 남양주시 금곡동 601-1번지 1층","indutype":"학원 - 독서실","category":"study"}]},{"lat":"37.630445919","long":"127.20389537","imageIndex":16,"items":[{"name":"캠브리지보습학원","tel":"031-592-5773","addr":"경기도 남양주시 금곡동 664-2번지 송정빌딩 3층","indutype":"학원 - 보습학원","category":"study"}]},{"lat":"37.635643842","long":"127.20950605","imageIndex":16,"items":[{"name":"토브어린이집[아이행복]","tel":"031-511-3634","addr":"경기도 남양주시 금곡동 399-19번지","indutype":"학원 - 유아원","category":"study"}]},{"lat":"37.638281994","long":"127.21552942","imageIndex":16,"items":[{"name":"플라이키즈","tel":"070-8223-4717","addr":"경기도 남양주시 금곡동 172-4번지 초원빌라 304호","indutype":"학원 - 기타 교육기관","category":"study"}]},{"lat":"37.633780346","long":"127.20863988","imageIndex":16,"items":[{"name":"한림보습학원","tel":"031-591-2787","addr":"경기도 남양주시 금곡동 427-23번지 대성빌딩 6층","indutype":"회원제형태 - 학원","category":"study"}]},{"lat":"37.629251394","long":"127.2016718","imageIndex":16,"items":[{"name":"햇살가득어린이집[아이행복]","tel":"031-591-0209","addr":"경기도 남양주시 금곡동 676-18번지","indutype":"학원 - 유아원","category":"study"}]}]