[{"lat":"38.00976535","long":"127.25314898","imageIndex":17,"items":[{"name":"(주)디와이전기산업","tel":"031-529-1130","addr":"경기도 포천시 영중면 양문리 409번지","indutype":"건축자재 - 조명기구","category":"other"}]},{"lat":"38.008958064","long":"127.2557082","imageIndex":17,"items":[{"name":"GS25포천양문공단","tel":"031-534-5610","addr":"경기도 포천시 영중면 양문리 445-2번지 1층","indutype":"편의점 - 편의점","category":"other"},{"name":"GS25포천양문공단점","tel":"","addr":"경기도 포천시 영중면 양문리 445-2번지 1층","indutype":"유통업 영리 - 편 의 점","category":"other"}]},{"lat":"38.001237262","long":"127.24279352","imageIndex":17,"items":[{"name":"GS25포천양문점","tel":"02-2006-2118","addr":"경기도 포천시 영중면 양문리 772-1","indutype":"유통업 영리 - 편 의 점","category":"other"},{"name":"북부종묘농약사","tel":"031-532-6619","addr":"경기도 포천시 영중면 양문리 772-1번지","indutype":"농업 - 비료,사료,종자","category":"other"}]},{"lat":"37.993261339","long":"127.27706776","imageIndex":17,"items":[{"name":"SHIM'S전기","tel":"031-866-5447","addr":"경기도 포천시 영중면 양문리 16-4번지","indutype":"기타 - 기계공구","category":"other"}]},{"lat":"38.011877243","long":"127.24707553","imageIndex":17,"items":[{"name":"SJT","tel":"031-532-0066","addr":"경기도 포천시 영중면 양문리 919-4번지","indutype":"건축자재 - 목재·석재·철물","category":"other"}]},{"lat":"38.014203718","long":"127.25878941","imageIndex":17,"items":[{"name":"그랜드쇼파","tel":"031-535-1338","addr":"경기도 포천시 영중면 양문리 1119번지","indutype":"수리서비스 - 가정용품수리","category":"other"}]},{"lat":"37.997681129","long":"127.24157516","imageIndex":17,"items":[{"name":"금성철물공구백화점","tel":"031-532-0989","addr":"경기도 포천시 영중면 양문리 730-6번지 외 1필지","indutype":"기타 - 기계공구","category":"other"}]},{"lat":"37.999787283","long":"127.24693297","imageIndex":17,"items":[{"name":"금주낚시","tel":"536-2553","addr":"경기도 포천시 영중면 양문리 613-2번지","indutype":"도소매 - 낚시터운영","category":"other"},{"name":"금주낚시","tel":"031-536-2553","addr":"경기도 포천시 영중면 양문리 613-2번지","indutype":"레져용품 - 스포츠·레져용품","category":"other"},{"name":"대신수도","tel":"031-531-2156","addr":"경기도 포천시 영중면 양문리 613-2번지","indutype":"건축자재 - 기타건축자재","category":"other"},{"name":"정우종합상사","tel":"031-532-1400","addr":"경기도 포천시 영중면 양문리 613-2번지","indutype":"건축자재 - 기타건축자재","category":"other"}]},{"lat":"38.003545417","long":"127.24190158","imageIndex":17,"items":[{"name":"농업회사법인 주식회사 에벤에셀","tel":"031-536-6439","addr":"경기도 포천시 영중면 양문리 846-1번지","indutype":"농업 - 비료,사료,종자","category":"other"}]},{"lat":"38.005988499","long":"127.24984558","imageIndex":17,"items":[{"name":"농원관광낚시터식당","tel":"532-5969","addr":"경기도 포천시 영중면 양문리 528-1번지","indutype":"서비스 - 낚시터운영","category":"other"}]},{"lat":"38.000957748","long":"127.24290647","imageIndex":17,"items":[{"name":"뉴현대공인중개사사무소","tel":"031-533-6976","addr":"경기도 포천시 영중면 양문리 772-4번지","indutype":"용역 서비스 - 부동산 중개·임대","category":"other"},{"name":"송백침구","tel":"031-532-0775","addr":"경기도 포천시 영중면 양문리 772-4번지","indutype":"직물 - 침구·수예점","category":"other"},{"name":"영플라워","tel":"031-534-8950","addr":"경기도 포천시 영중면 양문리 772-4번지","indutype":"문화.취미 - 화원","category":"other"},{"name":"행복떡집","tel":"535-8488","addr":"경기도 포천시 영중면 양문리 772-4번지 1층","indutype":"제조업 - 떡집","category":"other"}]},{"lat":"38.00492687","long":"127.26174026","imageIndex":17,"items":[{"name":"다남산업사","tel":"02-2264-6662","addr":"경기도 포천시 영중면 양문리 1003-7번지","indutype":"직물 - 침구·수예점","category":"other"}]},{"lat":"38.001626807","long":"127.24173595","imageIndex":17,"items":[{"name":"대한지물포","tel":"031-533-8333","addr":"경기도 포천시 영중면 양문리 803-12번지","indutype":"직물 - 카페트,커튼,천막,지물","category":"other"}]},{"lat":"37.999122332","long":"127.24609967","imageIndex":17,"items":[{"name":"동천정밀","tel":"031-542-8555","addr":"경기도 포천시 영중면 양문리 613-7","indutype":"기타 - 기타 전문점","category":"other"},{"name":"서울설비","tel":"031-534-9668","addr":"경기도 포천시 영중면 양문리 613-7","indutype":"용역 서비스 - 기타용역서비스","category":"other"},{"name":"포천풍선 페페","tel":"031-534-9668","addr":"경기도 포천시 영중면 양문리 613-7번지","indutype":"회원제형태 - 기타4","category":"other"}]},{"lat":"38.005517551","long":"127.24671286","imageIndex":17,"items":[{"name":"디자인도듬","tel":"031-541-1582","addr":"경기도 포천시 영중면 양문리 534번지","indutype":"용역 서비스 - 종합용역","category":"other"}]},{"lat":"37.99851616","long":"127.26001","imageIndex":17,"items":[{"name":"명신씽크","tel":"031-533-3051","addr":"경기도 포천시 영중면 양문리 313-4","indutype":"주방용구 - 주방용구","category":"other"}]},{"lat":"38.00075998","long":"127.24707282","imageIndex":17,"items":[{"name":"미주부속","tel":"031-531-9015","addr":"경기도 포천시 영중면 양문리 609-1번지","indutype":"기타 - 기계공구","category":"other"}]},{"lat":"38.001346947","long":"127.24201968","imageIndex":17,"items":[{"name":"보건약국","tel":"532-4251","addr":"경기도 포천시 영중면 양문리 803-26번지","indutype":"소매업 - 양약","category":"other"}]},{"lat":"38.003262956","long":"127.24346049","imageIndex":17,"items":[{"name":"생활용품전문점 영중도매스카이","tel":"031-531-0989","addr":"경기도 포천시 영중면 양문리 845-2번지","indutype":"신변잡화 - 기타잡화","category":"other"},{"name":"장군종합철물","tel":"031-531-0989","addr":"경기도 포천시 영중면 양문리 845-2번지","indutype":"건축자재 - 목재·석재·철물","category":"other"},{"name":"장군종합철물","tel":"531-0989","addr":"경기도 포천시 영중면 양문리 845-2번지","indutype":"도소매 - 철물.공구.건자재","category":"other"}]},{"lat":"37.999236432","long":"127.24318548","imageIndex":17,"items":[{"name":"석주건재","tel":"031-532-6483","addr":"경기도 포천시 영중면 양문리 974-31번지","indutype":"건축자재 - 기타건축자재","category":"other"}]},{"lat":"38.012013024","long":"127.26356432","imageIndex":17,"items":[{"name":"세한물산","tel":"031-544-3509","addr":"경기도 포천시 영중면 양문리 1157-2번지","indutype":"기타 - 기계공구","category":"other"}]},{"lat":"38.002017964","long":"127.2529291","imageIndex":17,"items":[{"name":"신세계 관광 협동조합","tel":"031-796-5028","addr":"경기도 포천시 영중면 양문리 290-5번지","indutype":"여행 - 관광여행","category":"other"}]},{"lat":"38.001985758","long":"127.24243163","imageIndex":17,"items":[{"name":"씨유포천양문점","tel":"031-533-5929","addr":"경기도 포천시 영중면 양문리 809-9번지","indutype":"유통업 영리 - 편 의 점","category":"other"}]},{"lat":"38.002040323","long":"127.24218133","imageIndex":17,"items":[{"name":"양문세탁소","tel":"031-531-7573","addr":"경기도 포천시 영중면 양문리 808-1","indutype":"수리서비스 - 세탁소","category":"other"}]},{"lat":"38.003315751","long":"127.24407549","imageIndex":17,"items":[{"name":"에이스렌탈","tel":"080-666-7322","addr":"경기도 포천시 영중면 양문리 828-7번지 1층","indutype":"신변잡화 - 기타잡화","category":"other"},{"name":"정인에너텍","tel":"031-534-7311","addr":"경기도 포천시 영중면 양문리 828-7","indutype":"건축자재 - 보일러·펌프·샷시","category":"other"}]},{"lat":"38.003009723","long":"127.24393786","imageIndex":17,"items":[{"name":"영중공인중개사","tel":"031-531-5007","addr":"경기도 포천시 영중면 양문리 828-11번지","indutype":"용역 서비스 - 부동산 중개·임대","category":"other"}]},{"lat":"38.005404055","long":"127.24495904","imageIndex":17,"items":[{"name":"영중면 주민자치센터","tel":"538-4498","addr":"경기도 포천시 영중면 양문리 833-2번지","indutype":"주민자치센터 - 주민자치센터","category":"other"}]},{"lat":"38.000237254","long":"127.24279027","imageIndex":17,"items":[{"name":"영중흥농종묘농약사","tel":"031-534-4977","addr":"경기도 포천시 영중면 양문리 772-9번지","indutype":"농업 - 비료,사료,종자","category":"other"}]},{"lat":"38.001516543","long":"127.24279443","imageIndex":17,"items":[{"name":"영플라워","tel":"534-8950","addr":"경기도 포천시 영중면 양문리 770-17번지","indutype":"소매업 - 꽃,생화","category":"other"}]},{"lat":"38.003126117","long":"127.24429119","imageIndex":17,"items":[{"name":"오렌지","tel":"031-532-7050","addr":"경기도 포천시 영중면 양문리 828-5번지 포천다세대주택 B동 302호","indutype":"의류 - 정장","category":"other"}]},{"lat":"38.000763344","long":"127.24103865","imageIndex":17,"items":[{"name":"오케이","tel":"031-531-4680","addr":"경기도 포천시 영중면 양문리 805-12","indutype":"의류 - 정장","category":"other"}]},{"lat":"38.000516419","long":"127.2428481","imageIndex":17,"items":[{"name":"우리치과의원","tel":"534-5566","addr":"경기도 포천시 영중면 양문리 772-7번지","indutype":"보건업 - 치과","category":"other"},{"name":"이마트24 포천양문점","tel":"","addr":"경기도 포천시 영중면 양문리 772-7번지 103호 102호,103호","indutype":"유통업 영리 - 편 의 점","category":"other"}]},{"lat":"38.001572012","long":"127.24210011","imageIndex":17,"items":[{"name":"유명가축약품","tel":"533-7740","addr":"경기도 포천시 영중면 양문리 803-11번지","indutype":"도소매 - 동물약품","category":"other"},{"name":"제이랭스튜디오","tel":"031-533-7740","addr":"경기도 포천시 영중면 양문리 803-11번지","indutype":"주방용구 - 주방용식기","category":"other"}]},{"lat":"38.002156583","long":"127.24260297","imageIndex":17,"items":[{"name":"이명순의상실","tel":"070-4090-2207","addr":"경기도 포천시 영중면 양문리 809-4번지","indutype":"수리서비스 - 세탁소","category":"other"},{"name":"이명순의상실","tel":"","addr":"경기도 포천시 영중면 양문리 809-4번지","indutype":"서비스 - 세탁소","category":"other"}]},{"lat":"37.999958065","long":"127.24274382","imageIndex":17,"items":[{"name":"전원휀스","tel":"031-533-9110","addr":"경기도 포천시 영중면 양문리 772-12 점포1동","indutype":"건축자재 - 기타건축자재","category":"other"}]},{"lat":"38.009264721","long":"127.25970594","imageIndex":17,"items":[{"name":"주식회사 원인터내셔날","tel":"031-541-7612","addr":"경기도 포천시 영중면 양문리 366-1번지","indutype":"직물 - 카페트,커튼,천막,지물","category":"other"}]},{"lat":"38.007263167","long":"127.2604049","imageIndex":17,"items":[{"name":"주식회사 천일에너지","tel":"070-4323-0437","addr":"경기도 포천시 영중면 양문리 982-1번지","indutype":"농업 - 비료,사료,종자","category":"other"}]},{"lat":"38.002815103","long":"127.24218384","imageIndex":17,"items":[{"name":"주식회사영신냉동건설","tel":"031-533-6630","addr":"경기도 포천시 영중면 양문리 847-15번지","indutype":"용역 서비스 - 기타용역서비스","category":"other"}]},{"lat":"37.99970764","long":"127.24623822","imageIndex":17,"items":[{"name":"태산철강","tel":"031-533-3223","addr":"경기도 포천시 영중면 양문리 613-22","indutype":"건축자재 - 기타건축자재","category":"other"}]},{"lat":"38.000651207","long":"127.24301932","imageIndex":17,"items":[{"name":"포천영중우체국","tel":"031-532-6500","addr":"경기도 포천시 영중면 양문리 772-19번지","indutype":"용역 서비스 - 공공요금대행서비스/소","category":"other"}]},{"lat":"38.001814817","long":"127.24231722","imageIndex":17,"items":[{"name":"학미사","tel":"031-531-6502","addr":"경기도 포천시 영중면 양문리 802-1번지","indutype":"서적문구 - 문구용품","category":"other"}]},{"lat":"37.999955294","long":"127.24409864","imageIndex":17,"items":[{"name":"한울냉동건설","tel":"031-531-8483","addr":"경기도 포천시 영중면 양문리 767-8번지","indutype":"용역 서비스 - 기타용역서비스","category":"other"}]},{"lat":"38.001571572","long":"127.24231643","imageIndex":17,"items":[{"name":"해피데이","tel":"031-532-8069","addr":"경기도 포천시 영중면 양문리 802-3번지","indutype":"의류 - 정장","category":"other"}]},{"lat":"38.000986529","long":"127.24643599","imageIndex":17,"items":[{"name":"호성기계","tel":"031-1111-1111","addr":"경기도 포천시 영중면 양문리 610-1번지","indutype":"기타 - 기계공구","category":"other"}]},{"lat":"38.001148748","long":"127.24201904","imageIndex":13,"items":[{"name":"OK노래연습장","tel":"031-533-3110","addr":"경기도 포천시 영중면 양문리 801-17","indutype":"레저업소 - 노 래 방","category":"leisure"}]},{"lat":"38.001237262","long":"127.24279352","imageIndex":13,"items":[{"name":"대명당구장","tel":"031-534-9742","addr":"경기도 포천시 영중면 양문리 772-1번지","indutype":"레저업소 - 당 구 장","category":"leisure"}]},{"lat":"38.001455404","long":"127.24184925","imageIndex":13,"items":[{"name":"대짱노래연습장","tel":"031-531-1288","addr":"경기도 포천시 영중면 양문리 803-24번지","indutype":"레저업소 - 노 래 방","category":"leisure"}]},{"lat":"38.001814817","long":"127.24231722","imageIndex":13,"items":[{"name":"미 노래연습장","tel":"031-531-7224","addr":"경기도 포천시 영중면 양문리 802-1번지 2층","indutype":"레저업소 - 노 래 방","category":"leisure"}]},{"lat":"38.001346947","long":"127.24201968","imageIndex":13,"items":[{"name":"애창노래연습장","tel":"031-534-2399","addr":"경기도 포천시 영중면 양문리 803-26번지","indutype":"레저업소 - 노 래 방","category":"leisure"}]},{"lat":"38.002156583","long":"127.24260297","imageIndex":13,"items":[{"name":"준 (JUN)당구클럽","tel":"070-7764-0308","addr":"경기도 포천시 영중면 양문리 809-4번지 3층","indutype":"레저업소 - 당 구 장","category":"leisure"}]},{"lat":"38.000148114","long":"127.24232319","imageIndex":4,"items":[{"name":"갤러리 카페801","tel":"031-535-0351","addr":"경기도 포천시 영중면 양문리 800-32번지 2층","indutype":"일반휴게음식 - 서양음식","category":"restaurant"},{"name":"갤러리카페801","tel":"-","addr":"경기도 포천시 영중면 양문리 800-32번지","indutype":"음식 - 커피 등","category":"restaurant"}]},{"lat":"38.000906866","long":"127.24134652","imageIndex":4,"items":[{"name":"곤드레만드레","tel":"031-536-3422","addr":"경기도 포천시 영중면 양문리 804-4번지","indutype":"일반휴게음식 - 일반한식","category":"restaurant"},{"name":"양문철판구이","tel":"031-531-7386","addr":"경기도 포천시 영중면 양문리 804-4번지","indutype":"일반휴게음식 - 일반한식","category":"restaurant"},{"name":"육해공철판구이집","tel":"531-7386","addr":"경기도 포천시 영중면 양문리 804-4번지","indutype":"음식 - 한식","category":"restaurant"},{"name":"태양레스토랑","tel":"031-532-7050","addr":"경기도 포천시 영중면 양문리 804-4번지","indutype":"일반휴게음식 - 서양음식","category":"restaurant"}]},{"lat":"37.988487608","long":"127.24362852","imageIndex":4,"items":[{"name":"곰고개식당","tel":"031-532-8571","addr":"경기도 포천시 영중면 양문리 686-5번지","indutype":"일반휴게음식 - 일반한식","category":"restaurant"},{"name":"곰고개식당","tel":"","addr":"경기도 포천시 영중면 양문리 686-5번지","indutype":"음식 - 한식","category":"restaurant"}]},{"lat":"38.002156583","long":"127.24260297","imageIndex":4,"items":[{"name":"광장","tel":"031-532-6610","addr":"경기도 포천시 영중면 양문리 809-4","indutype":"일반휴게음식 - 주점","category":"restaurant"},{"name":"호남식당","tel":"031-532-7157","addr":"경기도 포천시 영중면 양문리 809-4번지","indutype":"일반휴게음식 - 일반한식","category":"restaurant"}]},{"lat":"38.001123753","long":"127.24101705","imageIndex":4,"items":[{"name":"구공탄석쇠","tel":"031-531-1711","addr":"경기도 포천시 영중면 양문리 806-7번지","indutype":"일반휴게음식 - 일반한식","category":"restaurant"}]},{"lat":"38.000516419","long":"127.2428481","imageIndex":4,"items":[{"name":"굿즈커피(GOOD'S COFFEE)","tel":"031-532-8640","addr":"경기도 포천시 영중면 양문리 772-7번지 104호","indutype":"일반휴게음식 - 서양음식","category":"restaurant"},{"name":"양문수진건강원","tel":"533-9860","addr":"경기도 포천시 영중면 양문리 772-7번지","indutype":"음식 - 건강원","category":"restaurant"}]},{"lat":"38.00143353","long":"127.24373915","imageIndex":4,"items":[{"name":"김밥나라","tel":"031-532-1695","addr":"경기도 포천시 영중면 양문리 813번지","indutype":"일반휴게음식 - 스넥","category":"restaurant"},{"name":"김밥나라","tel":"532-1695","addr":"경기도 포천시 영중면 양문리 813번지","indutype":"음식 - 분식","category":"restaurant"}]},{"lat":"38.001815882","long":"127.24179349","imageIndex":4,"items":[{"name":"꽃돼지다방","tel":"","addr":"경기도 포천시 영중면 양문리 803-5번지","indutype":"음식 - 다방","category":"restaurant"},{"name":"꽃돼지다방","tel":"031-532-2233","addr":"경기도 포천시 영중면 양문리 803-5번지","indutype":"일반휴게음식 - 서양음식","category":"restaurant"},{"name":"일미순대국","tel":"031-533-7779","addr":"경기도 포천시 영중면 양문리 803-5번지","indutype":"일반휴게음식 - 일반한식","category":"restaurant"},{"name":"일미순대국","tel":"533-7779","addr":"경기도 포천시 영중면 양문리 803-5번지","indutype":"음식 - 한식","category":"restaurant"}]},{"lat":"38.000517672","long":"127.2422333","imageIndex":4,"items":[{"name":"네네치킨양문점","tel":"532-6608","addr":"경기도 포천시 영중면 양문리 801-35번지","indutype":"음식 - 치킨등","category":"restaurant"},{"name":"씨암룽르앙","tel":"031-827-9288","addr":"경기도 포천시 영중면 양문리 801-35번지","indutype":"일반휴게음식 - 서양음식","category":"restaurant"}]},{"lat":"38.005988499","long":"127.24984558","imageIndex":4,"items":[{"name":"능원관광낚시터식당","tel":"031-532-5969","addr":"경기도 포천시 영중면 양문리 528-1","indutype":"일반휴게음식 - 일반한식","category":"restaurant"}]},{"lat":"38.001184344","long":"127.24223547","imageIndex":4,"items":[{"name":"독일제과","tel":"534-8898","addr":"경기도 포천시 영중면 양문리 801-1번지","indutype":"음식 - 제과","category":"restaurant"},{"name":"멕시카나 치킨(포천 양문점)","tel":"534-0089","addr":"경기도 포천시 영중면 양문리 801-1번지","indutype":"음식 - 치킨등","category":"restaurant"},{"name":"멕시카나치킨","tel":"031-534-0089","addr":"경기도 포천시 영중면 양문리 801-1번지","indutype":"일반휴게음식 - 스넥","category":"restaurant"}]},{"lat":"38.006706819","long":"127.24668264","imageIndex":4,"items":[{"name":"돈김치","tel":"534-0501","addr":"경기도 포천시 영중면 양문리 890-2번지","indutype":"음식 - 한식","category":"restaurant"},{"name":"돈김치","tel":"031-534-0501","addr":"경기도 포천시 영중면 양문리 890-2번지","indutype":"일반휴게음식 - 일반한식","category":"restaurant"}]},{"lat":"38.002292345","long":"127.242296","imageIndex":4,"items":[{"name":"돼지부속","tel":"031-531-1044","addr":"경기도 포천시 영중면 양문리 809-3번지","indutype":"일반휴게음식 - 일반한식","category":"restaurant"}]},{"lat":"38.002599441","long":"127.24190989","imageIndex":4,"items":[{"name":"두충민물장어구이","tel":"533-3413","addr":"경기도 포천시 영중면 양문리 848-4번지","indutype":"음식 - 한식","category":"restaurant"},{"name":"두충민물장어구이","tel":"031-533-3413","addr":"경기도 포천시 영중면 양문리 848-4번지","indutype":"일반휴게음식 - 일반한식","category":"restaurant"},{"name":"수민이네밥집","tel":"070-8152-1033","addr":"경기도 포천시 영중면 양문리 848-4번지","indutype":"일반휴게음식 - 일반한식","category":"restaurant"}]},{"lat":"38.001318297","long":"127.24281656","imageIndex":4,"items":[{"name":"딸기방","tel":"031-532-2333","addr":"경기도 포천시 영중면 양문리 770-10번지","indutype":"일반휴게음식 - 일반한식","category":"restaurant"},{"name":"만두랑김밥이랑","tel":"031-534-8359","addr":"경기도 포천시 영중면 양문리 770-10번지","indutype":"일반휴게음식 - 스넥","category":"restaurant"},{"name":"페리카나 (영중체인점)","tel":"031-534-3849","addr":"경기도 포천시 영중면 양문리 770-10번지","indutype":"일반휴게음식 - 스넥","category":"restaurant"}]},{"lat":"37.999787797","long":"127.24229924","imageIndex":4,"items":[{"name":"또래오래피자캐리어","tel":"532-6536","addr":"경기도 포천시 영중면 양문리 800-4번지","indutype":"음식 - 치킨등","category":"restaurant"}]},{"lat":"38.002184074","long":"127.24237535","imageIndex":4,"items":[{"name":"런호프소주방","tel":"031-534-4199","addr":"경기도 포천시 영중면 양문리 809-2번지","indutype":"일반휴게음식 - 주점","category":"restaurant"},{"name":"사랑방","tel":"02-1111-1111","addr":"경기도 포천시 영중면 양문리 809-2번지","indutype":"일반휴게음식 - 일반한식","category":"restaurant"}]},{"lat":"38.001789294","long":"127.24157708","imageIndex":4,"items":[{"name":"명문생선구이","tel":"531-3526","addr":"경기도 포천시 영중면 양문리 803-3번지","indutype":"음식 - 한식","category":"restaurant"},{"name":"명문생선구이","tel":"031-531-3526","addr":"경기도 포천시 영중면 양문리 803-3번지","indutype":"일반휴게음식 - 일반한식","category":"restaurant"}]},{"lat":"38.001652932","long":"127.24218007","imageIndex":4,"items":[{"name":"목마르지","tel":"031-533-3500","addr":"경기도 포천시 영중면 양문리 802-7번지","indutype":"일반휴게음식 - 주점","category":"restaurant"}]},{"lat":"37.998400002","long":"127.24687145","imageIndex":4,"items":[{"name":"미락촌","tel":"031-531-2624","addr":"경기도 포천시 영중면 양문리 617번지","indutype":"일반휴게음식 - 일반한식","category":"restaurant"},{"name":"미락촌","tel":"531-2624","addr":"경기도 포천시 영중면 양문리 617번지","indutype":"음식 - 한식","category":"restaurant"}]},{"lat":"38.001068845","long":"127.24143813","imageIndex":4,"items":[{"name":"백조음식점","tel":"535-5769","addr":"경기도 포천시 영중면 양문리 804-14번지","indutype":"음식 - 한식","category":"restaurant"},{"name":"백조음식점","tel":"031-534-5769","addr":"경기도 포천시 영중면 양문리 804-14번지","indutype":"일반휴게음식 - 일반한식","category":"restaurant"}]},{"lat":"38.001148748","long":"127.24201904","imageIndex":4,"items":[{"name":"세꼬시와조개","tel":"031-535-4591","addr":"경기도 포천시 영중면 양문리 801-17번지","indutype":"일반휴게음식 - 일반한식","category":"restaurant"}]},{"lat":"38.001815142","long":"127.24215782","imageIndex":4,"items":[{"name":"송가네 감자탕","tel":"070-4217-4866","addr":"경기도 포천시 영중면 양문리 802-6번지 1층 일부","indutype":"일반휴게음식 - 일반한식","category":"restaurant"}]},{"lat":"38.001651633","long":"127.24281764","imageIndex":4,"items":[{"name":"수레스토랑","tel":"031-531-2182","addr":"경기도 포천시 영중면 양문리 770-2번지","indutype":"일반휴게음식 - 서양음식","category":"restaurant"},{"name":"수레스토랑(수카페)","tel":"531-2182","addr":"경기도 포천시 영중면 양문리 770-2번지","indutype":"음식 - 양식","category":"restaurant"},{"name":"옛날통닭","tel":"031-532-9293","addr":"경기도 포천시 영중면 양문리 770-2번지","indutype":"일반휴게음식 - 스넥","category":"restaurant"},{"name":"옛날통닭양문점","tel":"532-9293","addr":"경기도 포천시 영중면 양문리 770-2번지","indutype":"음식 - 치킨등","category":"restaurant"}]},{"lat":"38.000625781","long":"127.24223366","imageIndex":4,"items":[{"name":"수연카페","tel":"031-532-6888","addr":"경기도 포천시 영중면 양문리 801-34번지","indutype":"일반휴게음식 - 일반한식","category":"restaurant"},{"name":"수연카페","tel":"532-6888","addr":"경기도 포천시 영중면 양문리 801-34번지","indutype":"음식 - 한식","category":"restaurant"}]},{"lat":"38.001571572","long":"127.24231643","imageIndex":4,"items":[{"name":"순이네","tel":"031-531-1283","addr":"경기도 포천시 영중면 양문리 802-3번지 1층","indutype":"일반휴게음식 - 일반한식","category":"restaurant"}]},{"lat":"37.997293808","long":"127.24153975","imageIndex":4,"items":[{"name":"시골집","tel":"031-532-9269","addr":"경기도 포천시 영중면 양문리 730-7번지","indutype":"일반휴게음식 - 일반한식","category":"restaurant"}]},{"lat":"38.008514167","long":"127.25684532","imageIndex":4,"items":[{"name":"쏨쌔우","tel":"031-535-0825","addr":"경기도 포천시 영중면 양문리 442-1번지 1층","indutype":"일반휴게음식 - 서양음식","category":"restaurant"}]},{"lat":"38.001346947","long":"127.24201968","imageIndex":4,"items":[{"name":"앵두카페","tel":"031-531-1288","addr":"경기도 포천시 영중면 양문리 803-26번지 A동 1층","indutype":"일반휴게음식 - 일반한식","category":"restaurant"}]},{"lat":"38.003959407","long":"127.26331948","imageIndex":4,"items":[{"name":"약수터오리누룽지백숙","tel":"02-904-2404","addr":"경기도 포천시 영중면 양문리 11-2번지","indutype":"일반휴게음식 - 일반한식","category":"restaurant"}]},{"lat":"37.999905147","long":"127.24218577","imageIndex":4,"items":[{"name":"영중참갈비","tel":"533-5570","addr":"경기도 포천시 영중면 양문리 800-1번지","indutype":"음식 - 한식","category":"restaurant"}]},{"lat":"38.005517551","long":"127.24671286","imageIndex":4,"items":[{"name":"옛날손짜장","tel":"031-531-7227","addr":"경기도 포천시 영중면 양문리 534번지","indutype":"일반휴게음식 - 중국식","category":"restaurant"}]},{"lat":"38.001239116","long":"127.2418827","imageIndex":4,"items":[{"name":"울타리포장마차","tel":"031-532-6479","addr":"경기도 포천시 영중면 양문리 804-6","indutype":"일반휴게음식 - 일반한식","category":"restaurant"}]},{"lat":"38.003564845","long":"127.24120711","imageIndex":4,"items":[{"name":"일미족발","tel":"031-534-5401","addr":"경기도 포천시 영중면 양문리 849-36번지","indutype":"일반휴게음식 - 일반한식","category":"restaurant"}]},{"lat":"37.999122332","long":"127.24609967","imageIndex":4,"items":[{"name":"장비하우스","tel":"031-533-6267","addr":"경기도 포천시 영중면 양문리 613-7번지 1층","indutype":"일반휴게음식 - 일반한식","category":"restaurant"}]},{"lat":"38.003009723","long":"127.24393786","imageIndex":4,"items":[{"name":"차칸치킨","tel":"031-532-9331","addr":"경기도 포천시 영중면 양문리 828-11번지 나동 1층","indutype":"일반휴게음식 - 스넥","category":"restaurant"},{"name":"현도네이동숯불갈비","tel":"031-531-0592","addr":"경기도 포천시 영중면 양문리 828-11번지","indutype":"일반휴게음식 - 일반한식","category":"restaurant"}]},{"lat":"38.000788454","long":"127.24198371","imageIndex":4,"items":[{"name":"청궁","tel":"533-9646","addr":"경기도 포천시 영중면 양문리 801-36번지","indutype":"음식 - 중식","category":"restaurant"},{"name":"청궁","tel":"031-533-9645","addr":"경기도 포천시 영중면 양문리 801-36번지","indutype":"일반휴게음식 - 중국식","category":"restaurant"}]},{"lat":"38.002148478","long":"127.24215891","imageIndex":4,"items":[{"name":"최씨네쌈밥","tel":"070-4228-5612","addr":"경기도 포천시 영중면 양문리 808번지","indutype":"일반휴게음식 - 일반한식","category":"restaurant"}]},{"lat":"38.002651409","long":"127.24293476","imageIndex":4,"items":[{"name":"파주골토종순대국","tel":"031-532-5562","addr":"경기도 포천시 영중면 양문리 847-36번지","indutype":"일반휴게음식 - 일반한식","category":"restaurant"},{"name":"파주골토종순대국","tel":"532-5562","addr":"경기도 포천시 영중면 양문리 847-36번지","indutype":"음식 - 한식","category":"restaurant"}]},{"lat":"38.009759995","long":"127.24712544","imageIndex":4,"items":[{"name":"한식뷔페금강산","tel":"534-2585","addr":"경기도 포천시 영중면 양문리 885-3번지","indutype":"음식 - 한식","category":"restaurant"},{"name":"한식뷔페금강산","tel":"031-534-2585","addr":"경기도 포천시 영중면 양문리 885-3번지","indutype":"일반휴게음식 - 일반한식","category":"restaurant"}]},{"lat":"38.001678358","long":"127.24296574","imageIndex":4,"items":[{"name":"해와달","tel":"031-535-0825","addr":"경기도 포천시 영중면 양문리 770-1번지 1층","indutype":"일반휴게음식 - 일반한식","category":"restaurant"},{"name":"해와달","tel":"","addr":"경기도 포천시 영중면 양문리 770-1번지","indutype":"음식 - 한식","category":"restaurant"}]},{"lat":"38.001148308","long":"127.24223535","imageIndex":7,"items":[{"name":"고려상회","tel":"031-532-1142","addr":"경기도 포천시 영중면 양문리 801-3","indutype":"유통업 영리 - 슈퍼마켓","category":"mart"}]},{"lat":"38.001346947","long":"127.24201968","imageIndex":7,"items":[{"name":"세주마트","tel":"031-533-8539","addr":"경기도 포천시 영중면 양문리 803-26번지","indutype":"유통업 영리 - 슈퍼마켓","category":"mart"}]},{"lat":"38.008514167","long":"127.25684532","imageIndex":7,"items":[{"name":"쏨쌔우","tel":"031-535-0825","addr":"경기도 포천시 영중면 양문리 442-1번지 1층","indutype":"유통업 영리 - 슈퍼마켓","category":"mart"}]},{"lat":"38.008849416","long":"127.25595833","imageIndex":7,"items":[{"name":"우리슈퍼","tel":"080-8847-2447","addr":"경기도 포천시 영중면 양문리 444번지","indutype":"유통업 영리 - 슈퍼마켓","category":"mart"}]},{"lat":"37.999954938","long":"127.25710043","imageIndex":9,"items":[{"name":"대성에너지프라자","tel":"02-420-2633","addr":"경기도 포천시 영중면 양문리 307-4번지","indutype":"연료판매점 - LPG 취급점","category":"oil"}]},{"lat":"37.998154701","long":"127.26050967","imageIndex":9,"items":[{"name":"영중종합가스","tel":"031-532-3995","addr":"경기도 포천시 영중면 양문리 34-3번지","indutype":"연료판매점 - LPG 취급점","category":"oil"}]},{"lat":"38.003953758","long":"127.24487458","imageIndex":5,"items":[{"name":"동원파크","tel":"031-533-3100","addr":"경기도 포천시 영중면 양문리 832-10번지","indutype":"숙박업 - 여관/기타숙박업","category":"hotel"}]},{"lat":"38.008958064","long":"127.2557082","imageIndex":7,"items":[{"name":"라인04","tel":"070-8847-2447","addr":"경기도 포천시 영중면 양문리 445-2번지 2층","indutype":"음료식품 - 기타음료식품","category":"food"}]},{"lat":"38.001985758","long":"127.24243163","imageIndex":7,"items":[{"name":"믿음건강원","tel":"031-534-0403","addr":"경기도 포천시 영중면 양문리 809-9번지","indutype":"건강식품 - 기타건강식품","category":"food"}]},{"lat":"38.009903024","long":"127.25195385","imageIndex":7,"items":[{"name":"선옥상회","tel":"070-4190-6361","addr":"경기도 포천시 영중면 양문리 407-2번지","indutype":"음료식품 - 농·축·수산품","category":"food"}]},{"lat":"38.003126117","long":"127.24429119","imageIndex":7,"items":[{"name":"성진자판기","tel":"031-531-8973","addr":"경기도 포천시 영중면 양문리 828-5번지 포천다세대주택 A동 201호","indutype":"음료식품 - 기타음료식품","category":"food"}]},{"lat":"38.000516419","long":"127.2428481","imageIndex":7,"items":[{"name":"양문수진건강원","tel":"031-533-9860","addr":"경기도 포천시 영중면 양문리 772-7번지","indutype":"건강식품 - 기타건강식품","category":"food"}]},{"lat":"37.996959616","long":"127.2419599","imageIndex":7,"items":[{"name":"양문쌀상회","tel":"031-531-4028","addr":"경기도 포천시 영중면 양문리 744-8번지","indutype":"음료식품 - 미곡상","category":"food"}]},{"lat":"38.00203828","long":"127.24318324","imageIndex":7,"items":[{"name":"영중건강원","tel":"031-531-4762","addr":"경기도 포천시 영중면 양문리 811","indutype":"건강식품 - 기타건강식품","category":"food"}]},{"lat":"38.001815142","long":"127.24215782","imageIndex":7,"items":[{"name":"포천축산","tel":"031-531-8566","addr":"경기도 포천시 영중면 양문리 802-6번지","indutype":"음료식품 - 정육점","category":"food"}]},{"lat":"38.000957748","long":"127.24290647","imageIndex":7,"items":[{"name":"행복떡집","tel":"031-535-8488","addr":"경기도 포천시 영중면 양문리 772-4번지 1층","indutype":"음료식품 - 제과점","category":"food"}]},{"lat":"38.001346947","long":"127.24201968","imageIndex":13,"items":[{"name":"락헤어","tel":"-","addr":"경기도 포천시 영중면 양문리 803-26번지","indutype":"서비스 - 미용","category":"beauty"}]},{"lat":"38.00203828","long":"127.24318324","imageIndex":13,"items":[{"name":"락헤어","tel":"031-531-7321","addr":"경기도 포천시 영중면 양문리 811","indutype":"보건위생 - 미용원","category":"beauty"}]},{"lat":"38.002732328","long":"127.24301472","imageIndex":13,"items":[{"name":"미힐링 피부샵","tel":"031-532-1194","addr":"경기도 포천시 영중면 양문리 847-27번지","indutype":"보건위생 - 피부미용실","category":"beauty"},{"name":"유신미용실","tel":"031-534-0747","addr":"경기도 포천시 영중면 양문리 847-27번지","indutype":"보건위생 - 미용원","category":"beauty"}]},{"lat":"38.000957748","long":"127.24290647","imageIndex":13,"items":[{"name":"수(  )미용실","tel":"031-531-9927","addr":"경기도 포천시 영중면 양문리 772-4번지","indutype":"보건위생 - 미용원","category":"beauty"},{"name":"신데렐라","tel":"031-000-0000","addr":"경기도 포천시 영중면 양문리 772-4번지 14호","indutype":"보건위생 - 피부미용실","category":"beauty"},{"name":"신데렐라네일","tel":"","addr":"경기도 포천시 영중면 양문리 772-4번지","indutype":"서비스 - 미용","category":"beauty"}]},{"lat":"38.000788454","long":"127.24198371","imageIndex":13,"items":[{"name":"오백머리마을","tel":"031-531-4608","addr":"경기도 포천시 영중면 양문리 801-36번지","indutype":"보건위생 - 미용원","category":"beauty"}]},{"lat":"38.002148478","long":"127.24215891","imageIndex":13,"items":[{"name":"정미용실","tel":"031-534-8283","addr":"경기도 포천시 영중면 양문리 808","indutype":"보건위생 - 미용원","category":"beauty"}]},{"lat":"38.001318297","long":"127.24281656","imageIndex":13,"items":[{"name":"해민머리방","tel":"532-8209","addr":"경기도 포천시 영중면 양문리 770-10번지","indutype":"서비스 - 미용","category":"beauty"}]},{"lat":"38.001237262","long":"127.24279352","imageIndex":13,"items":[{"name":"해민머리방","tel":"031-532-8209","addr":"경기도 포천시 영중면 양문리 772-1","indutype":"보건위생 - 미용원","category":"beauty"}]},{"lat":"38.004986582","long":"127.24643784","imageIndex":0,"items":[{"name":"삼팔타이어수리","tel":"031-533-4909","addr":"경기도 포천시 영중면 양문리 546-2번지","indutype":"자동차정비 유지 - 자동차정비","category":"car"}]},{"lat":"38.003156182","long":"127.24718323","imageIndex":0,"items":[{"name":"서울자동차공업사","tel":"031-532-8093","addr":"경기도 포천시 영중면 양문리 550-6번지","indutype":"자동차정비 유지 - 자동차정비","category":"car"}]},{"lat":"38.00506705","long":"127.24673414","imageIndex":0,"items":[{"name":"엔진마을포천점","tel":"031-531-5073","addr":"경기도 포천시 영중면 양문리 535-1","indutype":"자동차정비 유지 - 자동차정비","category":"car"}]},{"lat":"38.003009723","long":"127.24393786","imageIndex":0,"items":[{"name":"현도네오토바이","tel":"031-531-5916","addr":"경기도 포천시 영중면 양문리 828-11번지 B동 101호","indutype":"자동차판매 - 이륜차판매","category":"car"}]},{"lat":"37.999905147","long":"127.24218577","imageIndex":8,"items":[{"name":"양문서울의원","tel":"031-533-8275","addr":"경기도 포천시 영중면 양문리 800-1","indutype":"의원 - 의원","category":"medical"}]},{"lat":"38.000516419","long":"127.2428481","imageIndex":8,"items":[{"name":"양문한의원","tel":"532-3175","addr":"경기도 포천시 영중면 양문리 772-7번지 평화빌딩 106호","indutype":"보건업 - 한의원","category":"medical"},{"name":"양문한의원","tel":"031-532-3175","addr":"경기도 포천시 영중면 양문리 772-7번지 1층 106호","indutype":"의원 - 한의원","category":"medical"},{"name":"우리치과의원","tel":"031-534-5566","addr":"경기도 포천시 영중면 양문리 772-7번지 2층","indutype":"의원 - 치과의원","category":"medical"}]},{"lat":"38.000237254","long":"127.24279027","imageIndex":8,"items":[{"name":"유명가축약품","tel":"031-533-7740","addr":"경기도 포천시 영중면 양문리 772-9번지","indutype":"기타의료기관 - 동물병원","category":"medical"}]},{"lat":"38.001323127","long":"127.24043704","imageIndex":16,"items":[{"name":"양문어린이집[아이행복]","tel":"031-531-0008","addr":"경기도 포천시 영중면 양문리 806번지","indutype":"학원 - 유아원","category":"study"}]},{"lat":"38.000097217","long":"127.24518069","imageIndex":16,"items":[{"name":"영중중학교","tel":"","addr":"경기도 포천시 영중면 양문리 611-3번지 영중중학교","indutype":"학원 - 초중고교육기관","category":"study"}]},{"lat":"38.001516543","long":"127.24279443","imageIndex":16,"items":[{"name":"정무태권도체육관","tel":"031-534-6739","addr":"경기도 포천시 영중면 양문리 770-17번지","indutype":"학원 - 예·체능계학원","category":"study"}]},{"lat":"38.001651633","long":"127.24281764","imageIndex":16,"items":[{"name":"지혜속셈학원","tel":"031-533-8914","addr":"경기도 포천시 영중면 양문리 770-2번지","indutype":"학원 - 보습학원","category":"study"}]}]