[{"lat":"37.705739784","long":"126.82436795","imageIndex":4,"items":[{"name":"대박","tel":"031-975-2442","addr":"경기도 고양시 일산동구 지영동 374-2번지","indutype":"일반휴게음식 - 일반한식","category":"restaurant"}]},{"lat":"37.713543744","long":"126.83786789","imageIndex":4,"items":[{"name":"대한식당","tel":"031-977-6163","addr":"경기도 고양시 일산동구 지영동 10-2번지","indutype":"일반휴게음식 - 일반한식","category":"restaurant"}]},{"lat":"37.71434784","long":"126.82695579","imageIndex":4,"items":[{"name":"맛있는밥상","tel":"031-975-9579","addr":"경기도 고양시 일산동구 지영동 300-1번지","indutype":"일반휴게음식 - 일반한식","category":"restaurant"}]},{"lat":"37.717347616","long":"126.8266765","imageIndex":4,"items":[{"name":"멍수푼","tel":"","addr":"경기도 고양시 일산동구 지영동 261-3번지","indutype":"일반휴게음식 - 서양음식","category":"restaurant"}]},{"lat":"37.709905664","long":"126.82072896","imageIndex":4,"items":[{"name":"밥이 보약 한식부페","tel":"031-977-9986","addr":"경기도 고양시 일산동구 지영동 399-7번지","indutype":"일반휴게음식 - 일반한식","category":"restaurant"}]},{"lat":"37.723516465","long":"126.82486974","imageIndex":4,"items":[{"name":"삼시세끼","tel":"031-976-6403","addr":"경기도 고양시 일산동구 지영동 208번지","indutype":"일반휴게음식 - 일반한식","category":"restaurant"},{"name":"수능이 버섯백숙","tel":"031-977-9984","addr":"경기도 고양시 일산동구 지영동 208번지","indutype":"일반휴게음식 - 일반한식","category":"restaurant"},{"name":"예뜰","tel":"031-257-3312","addr":"경기도 고양시 일산동구 지영동 208번지","indutype":"일반휴게음식 - 서양음식","category":"restaurant"}]},{"lat":"37.713818835","long":"126.82868091","imageIndex":4,"items":[{"name":"삼형제","tel":"031-977-8165","addr":"경기도 고양시 일산동구 지영동 304-6번지","indutype":"일반휴게음식 - 일반한식","category":"restaurant"}]},{"lat":"37.708268104","long":"126.82215051","imageIndex":4,"items":[{"name":"옛골","tel":"031-975-8820","addr":"경기도 고양시 일산동구 지영동 382-15번지","indutype":"일반휴게음식 - 일반한식","category":"restaurant"}]},{"lat":"37.713957382","long":"126.82492664","imageIndex":4,"items":[{"name":"지영영양탕","tel":"","addr":"경기도 고양시 일산동구 지영동 342-8번지","indutype":"일반휴게음식 - 일반한식","category":"restaurant"},{"name":"지영영양탕","tel":"031-977-2155","addr":"경기도 고양시 일산동구 지영동 342-8번지","indutype":"일반휴게음식 - 일반한식","category":"restaurant"}]},{"lat":"37.71981648","long":"126.83297687","imageIndex":4,"items":[{"name":"참나무오리","tel":"031-977-9403","addr":"경기도 고양시 일산동구 지영동 640-1번지","indutype":"일반휴게음식 - 일반한식","category":"restaurant"}]}]