[{"lat":"36.977494913","long":"127.07919676","imageIndex":17,"items":[{"name":"HJ무역","tel":"031-657-5360","addr":"경기도 평택시 팽성읍 평궁리 348-10번지","indutype":"농업 - 농기계","category":"other"}]},{"lat":"36.970777945","long":"127.08514197","imageIndex":17,"items":[{"name":"경기종합포장","tel":"031-691-0137","addr":"경기도 평택시 팽성읍 평궁리 283-14번지","indutype":"기타 - 기타 전문점","category":"other"}]},{"lat":"36.976549963","long":"127.07734272","imageIndex":17,"items":[{"name":"대동양봉원","tel":"031-691-6469","addr":"경기도 평택시 팽성읍 평궁리 355번지 양봉영농조합","indutype":"제조업 - 양봉","category":"other"}]},{"lat":"36.971967269","long":"127.08527801","imageIndex":17,"items":[{"name":"미림씽크","tel":"031-692-2936","addr":"경기도 평택시 팽성읍 평궁리 242번지","indutype":"주방용구 - 주방용구","category":"other"}]},{"lat":"36.976549963","long":"127.07734272","imageIndex":7,"items":[{"name":"대동양봉원","tel":"031-655-5233","addr":"경기도 평택시 팽성읍 평궁리 355번지","indutype":"건강식품 - 기타건강식품","category":"food"}]},{"lat":"36.973609099","long":"127.08252832","imageIndex":7,"items":[{"name":"떡방아랜드","tel":"031-691-2922","addr":"경기도 평택시 팽성읍 평궁리 320-9번지 A동","indutype":"음료식품 - 제과점","category":"food"}]},{"lat":"36.974575911","long":"127.07845263","imageIndex":7,"items":[{"name":"미라클자판기","tel":"031-654-5478","addr":"경기도 평택시 팽성읍 평궁리 337-7번지","indutype":"음료식품 - 기타음료식품","category":"food"}]},{"lat":"36.973775177","long":"127.07650896","imageIndex":7,"items":[{"name":"평택쌀연구회영농조합법인","tel":"031-692-0182","addr":"경기도 평택시 팽성읍 평궁리 352-6","indutype":"음료식품 - 미곡상","category":"food"}]},{"lat":"36.973609099","long":"127.08252832","imageIndex":0,"items":[{"name":"대원상사","tel":"031-1111-1111","addr":"경기도 평택시 팽성읍 평궁리 320-9번지 1층","indutype":"자동차정비 유지 - 자동차부품","category":"car"},{"name":"대원상사","tel":"031-651-9879","addr":"경기도 평택시 팽성읍 평궁리 320-9번지 1층","indutype":"도소매업 - 자동차부품","category":"car"}]},{"lat":"36.972028403","long":"127.08802948","imageIndex":0,"items":[{"name":"워시카","tel":"031-618-0905","addr":"경기도 평택시 팽성읍 평궁리 310-124번지 1층","indutype":"자동차정비 유지 - 자동차부품","category":"car"}]},{"lat":"36.974718867","long":"127.08033951","imageIndex":4,"items":[{"name":"솔밭","tel":"031-691-1115","addr":"경기도 평택시 팽성읍 평궁리 482-9번지","indutype":"일반휴게음식 - 일반한식","category":"restaurant"}]}]