[{"lat":"37.767212174","long":"127.54027236","imageIndex":13,"items":[{"name":"M3수상레져","tel":"070-8893-9088","addr":"경기도 가평군 가평읍 금대리 267-4번지","indutype":"레저업소 - 기타레져업소","category":"leisure"}]},{"lat":"37.746218724","long":"127.52455377","imageIndex":13,"items":[{"name":"마린보이수상레저","tel":"031-582-7441","addr":"경기도 가평군 가평읍 금대리 576-1번지","indutype":"레저업소 - 기타레져업소","category":"leisure"}]},{"lat":"37.774100305","long":"127.53521458","imageIndex":13,"items":[{"name":"모비딕 수상레저","tel":"070-8811-5222","addr":"경기도 가평군 가평읍 금대리 307-1","indutype":"레저업소 - 기타레져업소","category":"leisure"}]},{"lat":"37.746963069","long":"127.52533054","imageIndex":13,"items":[{"name":"무한도전 레저클럽","tel":"031-581-0202","addr":"경기도 가평군 가평읍 금대리 583-1번지","indutype":"레저업소 - 기타레져업소","category":"leisure"}]},{"lat":"37.753380157","long":"127.51865815","imageIndex":13,"items":[{"name":"북한강레저클럽","tel":"031-581-3660","addr":"경기도 가평군 가평읍 금대리 802, 836-3","indutype":"레저업소 - 기타레져업소","category":"leisure"}]},{"lat":"37.751830843","long":"127.53480538","imageIndex":13,"items":[{"name":"아레나수상레저","tel":"","addr":"경기도 가평군 가평읍 금대리 72-1번지","indutype":"레저업소 - 기타레져업소","category":"leisure"}]},{"lat":"37.750746974","long":"127.53341332","imageIndex":13,"items":[{"name":"욜로수상레저","tel":"031-582-2230","addr":"경기도 가평군 가평읍 금대리 535-3번지","indutype":"레저업소 - 기타레져업소","category":"leisure"}]},{"lat":"37.746800904","long":"127.5253294","imageIndex":13,"items":[{"name":"위더스","tel":"031-581-7894","addr":"경기도 가평군 가평읍 금대리 583-2번지","indutype":"레저업소 - 기타레져업소","category":"leisure"}]},{"lat":"37.762129718","long":"127.54249393","imageIndex":13,"items":[{"name":"유선장","tel":"031-581-2271","addr":"경기도 가평군 가평읍 금대리 45","indutype":"레저업소 - 기타레져업소","category":"leisure"}]},{"lat":"37.75577564","long":"127.53907758","imageIndex":13,"items":[{"name":"이뜨랜 수상레저","tel":"","addr":"경기도 가평군 가평읍 금대리 130-15번지 이뜨랜리조트내","indutype":"레저업소 - 기타레져업소","category":"leisure"}]},{"lat":"37.749525147","long":"127.53063604","imageIndex":13,"items":[{"name":"주식회사 엘리트기획","tel":"031-582-9939","addr":"경기도 가평군 가평읍 금대리 510","indutype":"레저업소 - 기타레져업소","category":"leisure"},{"name":"클럽보드워터파크(유)","tel":"031-581-0606","addr":"경기도 가평군 가평읍 금대리 510번지","indutype":"레저업소 - 기타레져업소","category":"leisure"}]},{"lat":"37.748133696","long":"127.52749457","imageIndex":13,"items":[{"name":"최고수상레저","tel":"031-0000-0000","addr":"경기도 가평군 가평읍 금대리 608-2번지","indutype":"레저업소 - 기타레져업소","category":"leisure"}]},{"lat":"37.759992445","long":"127.54096911","imageIndex":13,"items":[{"name":"클럽레드존","tel":"031-581-8999","addr":"경기도 가평군 가평읍 금대리 49-14번지","indutype":"레저업소 - 기타레져업소","category":"leisure"}]},{"lat":"37.747635969","long":"127.52799029","imageIndex":13,"items":[{"name":"클럽레벤","tel":"031-581-1132","addr":"경기도 가평군 가평읍 금대리 607","indutype":"레저업소 - 기타레져업소","category":"leisure"}]},{"lat":"37.756660256","long":"127.54068398","imageIndex":13,"items":[{"name":"클럽에덴(CLUB EDEN)","tel":"070-4405-2802","addr":"경기도 가평군 가평읍 금대리 56-24","indutype":"레저업소 - 기타레져업소","category":"leisure"}]},{"lat":"37.768658132","long":"127.53929542","imageIndex":13,"items":[{"name":"클럽카페리수상레저","tel":"031-582-2200","addr":"경기도 가평군 가평읍 금대리 272-9번지","indutype":"레저업소 - 기타레져업소","category":"leisure"}]}]