[{"lat":"37.254571413","long":"127.11966001","imageIndex":0,"items":[{"name":"(주)더블유지모터스","tel":"031-274-7389","addr":"경기도 용인시 기흥구 보라동 138번지","indutype":"자동차정비 유지 - 자동차정비","category":"car"},{"name":"민속24시 손 셀프 세차장","tel":"031-283-6852","addr":"경기도 용인시 기흥구 보라동 138번지 나동 101호","indutype":"자동차정비 유지 - 세차장","category":"car"},{"name":"민속자동차공업사","tel":"","addr":"경기도 용인시 기흥구 보라동 138번지","indutype":"자동차정비 유지 - 자동차정비","category":"car"}]},{"lat":"37.255598259","long":"127.11049733","imageIndex":0,"items":[{"name":"GT KOREA","tel":"031-285-6282","addr":"경기도 용인시 기흥구 보라동 296-12번지","indutype":"자동차정비 유지 - 카인테리어","category":"car"}]},{"lat":"37.256405162","long":"127.10486234","imageIndex":0,"items":[{"name":"골든휠타이어","tel":"031-282-0120","addr":"경기도 용인시 기흥구 보라동 392-12번지","indutype":"자동차정비 유지 - 자동차시트·타이어","category":"car"}]},{"lat":"37.254101086","long":"127.1214628","imageIndex":0,"items":[{"name":"만도플라자","tel":"031-287-3135","addr":"경기도 용인시 기흥구 보라동 167쇼핑이지디동B101호~B102호","indutype":"자동차정비 유지 - 자동차부품","category":"car"}]},{"lat":"37.25584793","long":"127.10321585","imageIndex":0,"items":[{"name":"메트로모터스(Metro motors)","tel":"031-275-5002","addr":"경기도 용인시 기흥구 보라동 377-5번지","indutype":"자동차정비 유지 - 자동차정비","category":"car"}]},{"lat":"37.252799626","long":"127.10649188","imageIndex":0,"items":[{"name":"배터리할인판매장","tel":"031-286-8003","addr":"경기도 용인시 기흥구 보라동 564번지 보라마을현대모닝사이드 제상가동 111호동 1층","indutype":"자동차정비 유지 - 자동차부품","category":"car"}]},{"lat":"37.253438206","long":"127.10780029","imageIndex":0,"items":[{"name":"보라월드프라자","tel":"","addr":"경기도 용인시 기흥구 보라동 575-2번지 보라월드프라자","indutype":"자동차정비 유지 - 주차장","category":"car"}]},{"lat":"37.255709412","long":"127.11688881","imageIndex":0,"items":[{"name":"보라자동차공업사","tel":"031-274-4408","addr":"경기도 용인시 기흥구 보라동 145-3번지 보라자동차공업사 102동 103호","indutype":"자동차정비 유지 - 자동차부품","category":"car"}]},{"lat":"37.255881116","long":"127.11635928","imageIndex":0,"items":[{"name":"비전카센타","tel":"031-274-6050","addr":"경기도 용인시 기흥구 보라동 144-4번지","indutype":"자동차정비 유지 - 자동차정비","category":"car"}]},{"lat":"37.254881535","long":"127.10588604","imageIndex":0,"items":[{"name":"서민오토바이센타","tel":"031-286-7496","addr":"경기도 용인시 기흥구 보라동 413-18번지","indutype":"자동차판매 - 이륜차판매","category":"car"}]},{"lat":"37.247520814","long":"127.10507579","imageIndex":0,"items":[{"name":"스피드메이트 이마트보라점","tel":"031-8005-6887","addr":"경기도 용인시 기흥구 보라동 623-1번지 보라지구EMART 3동","indutype":"자동차정비 유지 - 자동차정비","category":"car"},{"name":"카힐링(car healing)","tel":"070-8847-1258","addr":"경기도 용인시 기흥구 보라동 623-1번지","indutype":"자동차정비 유지 - 세차장","category":"car"}]},{"lat":"37.251765141","long":"127.10452921","imageIndex":0,"items":[{"name":"스피드메이트삼미보라점","tel":"031-282-0520","addr":"경기도 용인시 기흥구 보라동 459-1번지","indutype":"자동차정비 유지 - 자동차정비","category":"car"}]},{"lat":"37.254800059","long":"127.10632554","imageIndex":0,"items":[{"name":"쌍용차수리전문점","tel":"031-282-0645","addr":"경기도 용인시 기흥구 보라동 412-1번지","indutype":"자동차정비 유지 - 자동차정비","category":"car"},{"name":"용우모터스","tel":"031-274-2488","addr":"경기도 용인시 기흥구 보라동 412-1번지","indutype":"자동차정비 유지 - 자동차정비","category":"car"}]},{"lat":"37.253493529","long":"127.11620916","imageIndex":0,"items":[{"name":"씨에스나인(CS9)경기남부본부","tel":"","addr":"경기도 용인시 기흥구 보라동 553번지 민속마을쌍용아파트","indutype":"자동차정비 유지 - 세차장","category":"car"}]},{"lat":"37.255298082","long":"127.11357419","imageIndex":0,"items":[{"name":"아톰서비스(ATOMS4U)","tel":"031-275-5109","addr":"경기도 용인시 기흥구 보라동 289-14번지 102,103,104호","indutype":"자동차정비 유지 - 자동차부품","category":"car"},{"name":"티엔지자동차용품","tel":"031-287-7011","addr":"경기도 용인시 기흥구 보라동 289-14번지","indutype":"자동차정비 유지 - 자동차부품","category":"car"},{"name":"현서전자","tel":"031-693-7122","addr":"경기도 용인시 기흥구 보라동 289-14번지 코리아퀵빌딩","indutype":"자동차정비 유지 - 자동차부품","category":"car"}]},{"lat":"37.25387929","long":"127.10827432","imageIndex":0,"items":[{"name":"오토오아시스(보라점)","tel":"031-274-1204","addr":"경기도 용인시 기흥구 보라동 573-2 ,7","indutype":"자동차정비 유지 - 자동차정비","category":"car"}]},{"lat":"37.25590847","long":"127.11602115","imageIndex":0,"items":[{"name":"자동차밧데리전문할인매장","tel":"031-281-1156","addr":"경기도 용인시 기흥구 보라동 144-1번지","indutype":"자동차정비 유지 - 자동차부품","category":"car"}]},{"lat":"37.252460355","long":"127.11301773","imageIndex":0,"items":[{"name":"정윤모터스","tel":"031-286-5330","addr":"경기도 용인시 기흥구 보라동 592-2번지 1층","indutype":"자동차정비 유지 - 카인테리어","category":"car"}]},{"lat":"37.252321804","long":"127.10680683","imageIndex":0,"items":[{"name":"주식회사 이디엑스텍","tel":"070-8711-8802","addr":"경기도 용인시 기흥구 보라동 450번지 삼성래미안아파트","indutype":"자동차정비 유지 - 자동차부품","category":"car"}]},{"lat":"37.255328328","long":"127.11007988","imageIndex":0,"items":[{"name":"카스페이스 용인점","tel":"","addr":"경기도 용인시 기흥구 보라동 296-4번지 1층","indutype":"자동차정비 유지 - 세차장","category":"car"}]},{"lat":"37.255214118","long":"127.10679953","imageIndex":0,"items":[{"name":"카시스템","tel":"031-287-5677","addr":"경기도 용인시 기흥구 보라동 396-7번지","indutype":"자동차정비 유지 - 자동차정비","category":"car"}]},{"lat":"37.25066034","long":"127.11079464","imageIndex":0,"items":[{"name":"팀엠알에스","tel":"","addr":"경기도 용인시 기흥구 보라동 606번지 한보라마을휴먼시아4단지아파트","indutype":"자동차정비 유지 - 자동차부품","category":"car"}]},{"lat":"37.24937971","long":"127.11206646","imageIndex":0,"items":[{"name":"현대특수자동차","tel":"031-287-8204","addr":"경기도 용인시 기흥구 보라동 633번지 한보라마을화성파크드림","indutype":"자동차정비 유지 - 견인서비스","category":"car"}]}]