[{"lat":"36.985491043","long":"126.88660637","imageIndex":0,"items":[{"name":"FINEX","tel":"031-682-4175","addr":"경기도 평택시 포승읍 석정리 1121-1번지 1층 일부","indutype":"자동차정비 유지 - 자동차부품","category":"car"}]},{"lat":"36.987298268","long":"126.89191657","imageIndex":0,"items":[{"name":"만도상사","tel":"031-682-0712","addr":"경기도 평택시 포승읍 석정리 1114-2","indutype":"자동차정비 유지 - 자동차부품","category":"car"}]},{"lat":"36.983718746","long":"126.88044274","imageIndex":0,"items":[{"name":"안중자동차매매상사","tel":"031-683-7700","addr":"경기도 평택시 포승읍 석정리 1234-9번지","indutype":"자동차판매 - 중고자동차판매","category":"car"}]},{"lat":"36.985690286","long":"126.88763943","imageIndex":0,"items":[{"name":"엘피스모터스","tel":"031-681-5521","addr":"경기도 평택시 포승읍 석정리 1119-23번지","indutype":"서비스업 - 자동차정비","category":"car"}]},{"lat":"36.987127086","long":"126.89193929","imageIndex":0,"items":[{"name":"자동차와사람들","tel":"031-683-5353","addr":"경기도 평택시 포승읍 석정리 1114-3번지","indutype":"자동차정비 유지 - 자동차정비","category":"car"}]},{"lat":"37.001548407","long":"126.8965245","imageIndex":0,"items":[{"name":"짱출장빵꾸","tel":"031-683-0919","addr":"경기도 평택시 포승읍 석정리 530-1번지","indutype":"자동차정비 유지 - 자동차시트·타이어","category":"car"}]},{"lat":"36.984768324","long":"126.88472048","imageIndex":0,"items":[{"name":"포승자동차유리","tel":"031-682-2447","addr":"경기도 평택시 포승읍 석정리 1253-3","indutype":"자동차정비 유지 - 자동차부품","category":"car"}]},{"lat":"36.985022948","long":"126.88707884","imageIndex":0,"items":[{"name":"포승전자","tel":"031-681-0427","addr":"경기도 평택시 포승읍 석정리 1119-10번지 1층","indutype":"자동차정비 유지 - 자동차부품","category":"car"},{"name":"한라산업개발 주식회사","tel":"031-681-4400","addr":"경기도 평택시 포승읍 석정리 1119-10번지","indutype":"자동차정비 유지 - 자동차부품","category":"car"}]}]