[{"lat":"37.809027867","long":"126.84534348","imageIndex":17,"items":[{"name":"(주) 성광스틸","tel":"031-947-3886","addr":"경기도 파주시 광탄면 방축리 416-2번지","indutype":"가구 - 철제가구","category":"other"}]},{"lat":"37.807755757","long":"126.8734739","imageIndex":17,"items":[{"name":"(주)대원아스콘 지점 대원레미콘","tel":"031-850-7312","addr":"경기도 파주시 광탄면 방축리 5-6번지","indutype":"건축자재 - 기타건축자재","category":"other"}]},{"lat":"37.812168441","long":"126.86385882","imageIndex":17,"items":[{"name":"(주)시아테크놀로지","tel":"031-8071-3996","addr":"경기도 파주시 광탄면 방축리 209-6 가동,나동","indutype":"건축자재 - 목재·석재·철물","category":"other"}]},{"lat":"37.810280355","long":"126.85959253","imageIndex":17,"items":[{"name":"경진냉열","tel":"031-945-2157","addr":"경기도 파주시 광탄면 방축리 150-3번지","indutype":"전기제품 - 냉열기기","category":"other"}]},{"lat":"37.800811919","long":"126.86763845","imageIndex":17,"items":[{"name":"광탄레저타운","tel":"031-941-8513","addr":"경기도 파주시 광탄면 방축리 95번지","indutype":"레져용품 - 스포츠·레져용품","category":"other"}]},{"lat":"37.811555056","long":"126.84877902","imageIndex":17,"items":[{"name":"다온주방","tel":"031-8071-4985","addr":"경기도 파주시 광탄면 방축리 377-2번지","indutype":"주방용구 - 주방용식기","category":"other"}]},{"lat":"37.80783409","long":"126.84872998","imageIndex":17,"items":[{"name":"대일호스","tel":"031-943-8244","addr":"경기도 파주시 광탄면 방축리 386-33","indutype":"기타 - 기계공구","category":"other"}]},{"lat":"37.805895945","long":"126.87000243","imageIndex":17,"items":[{"name":"덕성개발주식회사","tel":"031-949-9151","addr":"경기도 파주시 광탄면 방축리 58-9","indutype":"건축자재 - 기타건축자재","category":"other"}]},{"lat":"37.811783351","long":"126.86583552","imageIndex":17,"items":[{"name":"미니스톱파주보광로점","tel":"031-1577-9621","addr":"경기도 파주시 광탄면 방축리 199-1번지","indutype":"유통업 영리 - 편 의 점","category":"other"},{"name":"유일통상","tel":"031-906-8858","addr":"경기도 파주시 광탄면 방축리 199-1번지","indutype":"의류 - 스포츠의류","category":"other"}]},{"lat":"37.805781624","long":"126.86460889","imageIndex":17,"items":[{"name":"반석데코","tel":"031-8071-0537","addr":"경기도 파주시 광탄면 방축리 123-12번지","indutype":"건축자재 - 목재·석재·철물","category":"other"}]},{"lat":"37.809616285","long":"126.84745442","imageIndex":17,"items":[{"name":"보아스 (BOAZ)","tel":"070-7758-0670","addr":"경기도 파주시 광탄면 방축리 407-12번지","indutype":"신변잡화 - 기타잡화","category":"other"}]},{"lat":"37.810972303","long":"126.85813762","imageIndex":17,"items":[{"name":"서울코퍼레이션","tel":"031-941-1114","addr":"경기도 파주시 광탄면 방축리 145-3번지","indutype":"신변잡화 - 기타잡화","category":"other"}]},{"lat":"37.81095074","long":"126.8482579","imageIndex":17,"items":[{"name":"성진오일","tel":"031-941-7060","addr":"경기도 파주시 광탄면 방축리 370-1번지","indutype":"용역 서비스 - 기타용역서비스","category":"other"}]},{"lat":"37.80702888","long":"126.84617668","imageIndex":17,"items":[{"name":"수유리","tel":"031-942-2779","addr":"경기도 파주시 광탄면 방축리 446-39번지","indutype":"건축자재 - 유리","category":"other"}]},{"lat":"37.80166994","long":"126.86949905","imageIndex":17,"items":[{"name":"신기목재소","tel":"031-941-0377","addr":"경기도 파주시 광탄면 방축리 101번지","indutype":"건축자재 - 목재·석재·철물","category":"other"}]},{"lat":"37.811059612","long":"126.84883683","imageIndex":17,"items":[{"name":"신흥기계공업","tel":"031-953-5490","addr":"경기도 파주시 광탄면 방축리 372-1","indutype":"기타 - 기계공구","category":"other"}]},{"lat":"37.806312044","long":"126.8636427","imageIndex":17,"items":[{"name":"씨유파주부흥로점","tel":"070-7574-2780","addr":"경기도 파주시 광탄면 방축리 123-1번지","indutype":"유통업 영리 - 편 의 점","category":"other"}]},{"lat":"37.806861847","long":"126.86383471","imageIndex":17,"items":[{"name":"이미지프로","tel":"02-1111-1111","addr":"경기도 파주시 광탄면 방축리 126-6번지","indutype":"사무통신 - 기타 사무용품","category":"other"}]},{"lat":"37.814081514","long":"126.85891515","imageIndex":17,"items":[{"name":"주식회사 손텍","tel":"031-957-4865","addr":"경기도 파주시 광탄면 방축리 233번지","indutype":"건축자재 - 기타건축자재","category":"other"}]},{"lat":"37.813137073","long":"126.86783174","imageIndex":17,"items":[{"name":"주식회사 제이엔씨코리아","tel":"070-4659-2564","addr":"경기도 파주시 광탄면 방축리 202-11번지","indutype":"신변잡화 - 기타잡화","category":"other"}]},{"lat":"37.807835246","long":"126.84961571","imageIndex":17,"items":[{"name":"팜스 편의점","tel":"031-957-4565","addr":"경기도 파주시 광탄면 방축리 386-39번지","indutype":"유통업 영리 - 편 의 점","category":"other"}]},{"lat":"37.809476316","long":"126.86530606","imageIndex":17,"items":[{"name":"한누리 편의점","tel":"031-957-5674","addr":"경기도 파주시 광탄면 방축리 36-3번지","indutype":"유통업 영리 - 편 의 점","category":"other"}]},{"lat":"37.813171935","long":"126.8668096","imageIndex":17,"items":[{"name":"휴그린보드","tel":"031-948-3784","addr":"경기도 파주시 광탄면 방축리 193-6번지","indutype":"사무통신 - 기타 사무용품","category":"other"}]},{"lat":"37.812641046","long":"126.86738975","imageIndex":7,"items":[{"name":"(주)푸디스","tel":"","addr":"경기도 파주시 광탄면 방축리 202-8번지","indutype":"음료식품 - 기타음료식품","category":"food"}]},{"lat":"37.80883224","long":"126.84728573","imageIndex":7,"items":[{"name":"대중","tel":"031-949-2015","addr":"경기도 파주시 광탄면 방축리 411","indutype":"음료식품 - 정육점","category":"food"}]},{"lat":"37.814334949","long":"126.86750022","imageIndex":7,"items":[{"name":"부용푸드","tel":"031-946-9293","addr":"경기도 파주시 광탄면 방축리 206-7번지","indutype":"음료식품 - 농·축·수산품","category":"food"}]},{"lat":"37.81169863","long":"126.8553653","imageIndex":7,"items":[{"name":"사군자푸드","tel":"031-943-1311","addr":"경기도 파주시 광탄면 방축리 307-1번지","indutype":"음료식품 - 기타음료식품","category":"food"}]},{"lat":"37.812506192","long":"126.86763983","imageIndex":7,"items":[{"name":"수지앤아티크","tel":"031-942-5455","addr":"경기도 파주시 광탄면 방축리 202-4번지","indutype":"음료식품 - 기타음료식품","category":"food"}]},{"lat":"37.811331561","long":"126.85722843","imageIndex":7,"items":[{"name":"유명종합상사","tel":"031-947-4604","addr":"경기도 파주시 광탄면 방축리 287번지","indutype":"음료식품 - 농·축·수산품","category":"food"}]},{"lat":"37.809447039","long":"126.8712225","imageIndex":7,"items":[{"name":"자판기114","tel":"031-969-3460","addr":"경기도 파주시 광탄면 방축리 산7-1","indutype":"음료식품 - 기타음료식품","category":"food"}]},{"lat":"37.811113267","long":"126.84853011","imageIndex":7,"items":[{"name":"주식회사 맘메이크","tel":"031-947-8485","addr":"경기도 파주시 광탄면 방축리 371번지","indutype":"음료식품 - 기타음료식품","category":"food"}]},{"lat":"37.800811919","long":"126.86763845","imageIndex":7,"items":[{"name":"광탄낚시터매점","tel":"031-941-8513","addr":"경기도 파주시 광탄면 방축리 95번지","indutype":"유통업 영리 - 슈퍼마켓","category":"mart"}]},{"lat":"37.811555056","long":"126.84877902","imageIndex":0,"items":[{"name":"광탄차량부품센타","tel":"031-944-1156","addr":"경기도 파주시 광탄면 방축리 377-2번지","indutype":"자동차정비 유지 - 자동차부품","category":"car"}]},{"lat":"37.812893023","long":"126.86713945","imageIndex":4,"items":[{"name":"농가","tel":"031-958-2772","addr":"경기도 파주시 광탄면 방축리 204-1번지","indutype":"일반휴게음식 - 일반한식","category":"restaurant"}]},{"lat":"37.811783351","long":"126.86583552","imageIndex":4,"items":[{"name":"담터","tel":"031-942-2889","addr":"경기도 파주시 광탄면 방축리 199-1번지","indutype":"일반휴게음식 - 일반한식","category":"restaurant"}]},{"lat":"37.812506192","long":"126.86763983","imageIndex":4,"items":[{"name":"로스팅 하우스","tel":"031-942-5455","addr":"경기도 파주시 광탄면 방축리 202-4번지","indutype":"일반휴게음식 - 서양음식","category":"restaurant"}]},{"lat":"37.806312044","long":"126.8636427","imageIndex":4,"items":[{"name":"메밀마당막국수&장단콩두부마을","tel":"031-947-5077","addr":"경기도 파주시 광탄면 방축리 123-1번지","indutype":"일반휴게음식 - 일반한식","category":"restaurant"},{"name":"은아네 한우소고기국밥","tel":"031-947-5219","addr":"경기도 파주시 광탄면 방축리 123-1번지","indutype":"일반휴게음식 - 일반한식","category":"restaurant"},{"name":"일품누룽지백숙","tel":"031-912-7834","addr":"경기도 파주시 광탄면 방축리 123-1번지","indutype":"일반휴게음식 - 일반한식","category":"restaurant"},{"name":"캘리포니아레스펍","tel":"031-947-5222","addr":"경기도 파주시 광탄면 방축리 123-1번지","indutype":"일반휴게음식 - 주점","category":"restaurant"},{"name":"파주광탄흑염소","tel":"","addr":"경기도 파주시 광탄면 방축리 123-1번지","indutype":"일반휴게음식 - 일반한식","category":"restaurant"}]},{"lat":"37.810693624","long":"126.85863783","imageIndex":4,"items":[{"name":"연못능이백숙가든","tel":"031-941-0750","addr":"경기도 파주시 광탄면 방축리 145-5번지","indutype":"일반휴게음식 - 일반한식","category":"restaurant"}]},{"lat":"37.813171935","long":"126.8668096","imageIndex":4,"items":[{"name":"우선생옛날불고기","tel":"031-111-1111","addr":"경기도 파주시 광탄면 방축리 193-6번지","indutype":"일반휴게음식 - 일반한식","category":"restaurant"}]},{"lat":"37.807248271","long":"126.86300503","imageIndex":4,"items":[{"name":"장독대","tel":"031-947-8182","addr":"경기도 파주시 광탄면 방축리 124-1번지","indutype":"일반휴게음식 - 일반한식","category":"restaurant"}]},{"lat":"37.806860825","long":"126.8629717","imageIndex":4,"items":[{"name":"파주방축골한우마을","tel":"031-942-6200","addr":"경기도 파주시 광탄면 방축리 124-6","indutype":"일반휴게음식 - 일반한식","category":"restaurant"}]},{"lat":"37.810837031","long":"126.86555337","imageIndex":4,"items":[{"name":"한메소머리곰탕","tel":"031-948-3236","addr":"경기도 파주시 광탄면 방축리 29-12번지","indutype":"일반휴게음식 - 일반한식","category":"restaurant"}]},{"lat":"37.811221312","long":"126.8417503","imageIndex":5,"items":[{"name":"돌산캠핑장","tel":"031-947-6988","addr":"경기도 파주시 광탄면 방축리 429-10번지","indutype":"숙박업 - 여관/기타숙박업","category":"hotel"}]},{"lat":"37.802140803","long":"126.87161017","imageIndex":9,"items":[{"name":"명진윤활유","tel":"031-941-5948","addr":"경기도 파주시 광탄면 방축리 84번지","indutype":"연료판매점 - 유류판매","category":"oil"}]},{"lat":"37.807171511","long":"126.8666957","imageIndex":13,"items":[{"name":"아보아테크","tel":"031-941-4670","addr":"경기도 파주시 광탄면 방축리 44-1번지","indutype":"보건위생 - 화장품","category":"beauty"}]},{"lat":"37.812506192","long":"126.86763983","imageIndex":16,"items":[{"name":"파주커피학원","tel":"070-7765-2313","addr":"경기도 파주시 광탄면 방축리 202-4번지","indutype":"회원제형태 - 학원","category":"study"}]}]