[{"lat":"37.140285367","long":"127.02292721","imageIndex":17,"items":[{"name":"(주)창성테크놀로지","tel":"031-366-2304","addr":"경기도 화성시 정남면 음양리 330-9번지","indutype":"기타 - 기계공구","category":"other"}]},{"lat":"37.144448528","long":"127.02094731","imageIndex":17,"items":[{"name":"대경","tel":"031-375-0449","addr":"경기도 화성시 정남면 음양리 610번지","indutype":"유통업 영리 - 기타유통업","category":"other"},{"name":"주식회사제이엠보트","tel":"031-233-3677","addr":"경기도 화성시 정남면 음양리 610번지","indutype":"레져용품 - 스포츠·레져용품","category":"other"}]},{"lat":"37.140528929","long":"127.02120524","imageIndex":17,"items":[{"name":"미니스톱정남대로점","tel":"031-1577-9621","addr":"경기도 화성시 정남면 음양리 638-2번지","indutype":"유통업 영리 - 편 의 점","category":"other"},{"name":"케이에스(KS)와이어컷팅","tel":"031-374-0446","addr":"경기도 화성시 정남면 음양리 638-2 외 2필지","indutype":"전기제품 - 기타전기제품","category":"other"}]},{"lat":"37.14134042","long":"127.01723236","imageIndex":17,"items":[{"name":"보일종합축산","tel":"031-373-6763","addr":"경기도 화성시 정남면 음양리 436번지 B동","indutype":"농업 - 농기계","category":"other"}]},{"lat":"37.151999735","long":"127.01784224","imageIndex":17,"items":[{"name":"에띠임3","tel":"031-352-2812","addr":"경기도 화성시 정남면 음양리 679번지","indutype":"의류 - 내의판매","category":"other"}]},{"lat":"37.140528846","long":"127.02173423","imageIndex":17,"items":[{"name":"유진엠알오","tel":"","addr":"경기도 화성시 정남면 음양리 367-5번지","indutype":"기타 - 기계공구","category":"other"}]},{"lat":"37.141367581","long":"127.0161181","imageIndex":17,"items":[{"name":"하나시스템","tel":"02-3482-4108","addr":"경기도 화성시 정남면 음양리 659번지","indutype":"사무통신 - 컴퓨터","category":"other"}]}]