[{"lat":"37.283526376","long":"127.486962","imageIndex":17,"items":[{"name":"(사단법인)한국B.B.S경기도연맹이천시지회","tel":"031-636-0300","addr":"경기도 이천시 부발읍 무촌리 168-8번지","indutype":"기타 - 비영리/비대상","category":"other"}]},{"lat":"37.28602466","long":"127.48192609","imageIndex":17,"items":[{"name":"(주)이티에스티","tel":"070-8780-1379","addr":"경기도 이천시 부발읍 무촌리 424번지 (주)이티에스티 101호","indutype":"수리서비스 - 사무·통신기기수리","category":"other"}]},{"lat":"37.287827296","long":"127.48621145","imageIndex":17,"items":[{"name":"D&H산업","tel":"031-631-1561","addr":"경기도 이천시 부발읍 무촌리 262-3번지","indutype":"건축자재 - 기타건축자재","category":"other"}]},{"lat":"37.280883677","long":"127.49634912","imageIndex":17,"items":[{"name":"GS25이천희망점","tel":"","addr":"경기도 이천시 부발읍 무촌리 106-14번지 블레싱타운 A동 101호","indutype":"유통업 영리 - 편 의 점","category":"other"}]},{"lat":"37.284324276","long":"127.47681841","imageIndex":17,"items":[{"name":"KBC베이스볼","tel":"","addr":"경기도 이천시 부발읍 무촌리 412번지","indutype":"레져용품 - 스포츠·레져용품","category":"other"},{"name":"태영상사","tel":"031-986-9914","addr":"경기도 이천시 부발읍 무촌리 412번지","indutype":"건축자재 - 기타건축자재","category":"other"},{"name":"태영하우징","tel":"031-631-7878","addr":"경기도 이천시 부발읍 무촌리 412번지","indutype":"건축자재 - 기타건축자재","category":"other"}]},{"lat":"37.286243817","long":"127.48120578","imageIndex":17,"items":[{"name":"가나안천막건설","tel":"031-634-0153","addr":"경기도 이천시 부발읍 무촌리 425-7번지","indutype":"용역 서비스 - 기타용역서비스","category":"other"}]},{"lat":"37.285607531","long":"127.48920809","imageIndex":17,"items":[{"name":"그루밍 107","tel":"070-3361-8445","addr":"경기도 이천시 부발읍 무촌리 230-5번지","indutype":"문화.취미 - 애완동물","category":"other"}]},{"lat":"37.287637186","long":"127.49082246","imageIndex":17,"items":[{"name":"나무마을","tel":"031-635-7793","addr":"경기도 이천시 부발읍 무촌리 237-1번지","indutype":"문화.취미 - 화원","category":"other"}]},{"lat":"37.285382282","long":"127.48920664","imageIndex":17,"items":[{"name":"노랑디자인","tel":"031-635-0924","addr":"경기도 이천시 부발읍 무촌리 225-17번지 2층 102호","indutype":"건축자재 - 인테리어전문","category":"other"}]},{"lat":"37.284575922","long":"127.48809636","imageIndex":17,"items":[{"name":"대동알파산업","tel":"031-634-2139","addr":"경기도 이천시 부발읍 무촌리 224-4번지","indutype":"레져용품 - 스포츠·레져용품","category":"other"},{"name":"오리엔탈마사지","tel":"031-634-5014","addr":"경기도 이천시 부발읍 무촌리 224-4번지","indutype":"신변잡화 - 기타잡화","category":"other"}]},{"lat":"37.282470737","long":"127.48731608","imageIndex":17,"items":[{"name":"드림","tel":"","addr":"경기도 이천시 부발읍 무촌리 166-32번지 2층","indutype":"의류 - 정장","category":"other"}]},{"lat":"37.284573425","long":"127.48870527","imageIndex":17,"items":[{"name":"멋내는 애견","tel":"031-632-1150","addr":"경기도 이천시 부발읍 무촌리 225-22번지","indutype":"문화.취미 - 애완동물","category":"other"}]},{"lat":"37.282991051","long":"127.48787194","imageIndex":17,"items":[{"name":"백양기계세탁","tel":"031-634-8840","addr":"경기도 이천시 부발읍 무촌리 166-91번지","indutype":"수리서비스 - 세탁소","category":"other"},{"name":"부발지업사","tel":"031-631-2813","addr":"경기도 이천시 부발읍 무촌리 166-91번지","indutype":"직물 - 카페트,커튼,천막,지물","category":"other"}]},{"lat":"37.283189039","long":"127.48792959","imageIndex":17,"items":[{"name":"부발부동산","tel":"031-636-5383","addr":"경기도 이천시 부발읍 무촌리 166-2","indutype":"용역 서비스 - 부동산 중개·임대","category":"other"}]},{"lat":"37.283386703","long":"127.48806618","imageIndex":17,"items":[{"name":"부발사료","tel":"031-633-9687","addr":"경기도 이천시 부발읍 무촌리 166-71","indutype":"농업 - 비료,사료,종자","category":"other"}]},{"lat":"37.285576719","long":"127.48793364","imageIndex":17,"items":[{"name":"부발열쇠","tel":"031-634-7767","addr":"경기도 이천시 부발읍 무촌리 221-1번지","indutype":"건축자재 - 목재·석재·철물","category":"other"}]},{"lat":"37.282659715","long":"127.48737367","imageIndex":17,"items":[{"name":"생활용품점","tel":"031-634-0200","addr":"경기도 이천시 부발읍 무촌리 166-66","indutype":"신변잡화 - 기타잡화","category":"other"}]},{"lat":"37.282660868","long":"127.48709177","imageIndex":17,"items":[{"name":"세명철물","tel":"031-634-9947","addr":"경기도 이천시 부발읍 무촌리 166-54","indutype":"건축자재 - 목재·석재·철물","category":"other"},{"name":"철든가게","tel":"031-634-9947","addr":"경기도 이천시 부발읍 무촌리 166-54번지","indutype":"건축자재 - 목재·석재·철물","category":"other"}]},{"lat":"37.279666058","long":"127.48792954","imageIndex":17,"items":[{"name":"세븐일레븐이천부발성공점","tel":"031-1577-0711","addr":"경기도 이천시 부발읍 무촌리 131-2번지 1층","indutype":"유통업 영리 - 편 의 점","category":"other"}]},{"lat":"37.282578548","long":"127.48518559","imageIndex":17,"items":[{"name":"세븐일레븐이천부발점","tel":"031-1577-0711","addr":"경기도 이천시 부발읍 무촌리 502번지 101호","indutype":"유통업 영리 - 편 의 점","category":"other"}]},{"lat":"37.282441313","long":"127.49445363","imageIndex":17,"items":[{"name":"세븐일레븐이천종합운동장점","tel":"","addr":"경기도 이천시 부발읍 무촌리 91-1번지 B동","indutype":"유통업 영리 - 편 의 점","category":"other"}]},{"lat":"37.284379202","long":"127.47884849","imageIndex":17,"items":[{"name":"센터폴이천점","tel":"031-633-3888","addr":"경기도 이천시 부발읍 무촌리 419-14번지","indutype":"의류 - 스포츠의류","category":"other"}]},{"lat":"37.284492567","long":"127.48864837","imageIndex":17,"items":[{"name":"신일서비스센타","tel":"031-634-9798","addr":"경기도 이천시 부발읍 무촌리 225-21","indutype":"수리서비스 - 가정용품수리","category":"other"}]},{"lat":"37.284352014","long":"127.48776791","imageIndex":17,"items":[{"name":"씨유이천부발점","tel":"031-631-7164","addr":"경기도 이천시 부발읍 무촌리 164-2번지 부발프라자 1층 101호","indutype":"유통업 영리 - 편 의 점","category":"other"}]},{"lat":"37.284090472","long":"127.48562374","imageIndex":17,"items":[{"name":"씨유이천부발주공점","tel":"02-1577-8007","addr":"경기도 이천시 부발읍 무촌리 544번지 휴먼시아 상가동 104-106호","indutype":"유통업 영리 - 편 의 점","category":"other"},{"name":"향기로운세탁소","tel":"031-636-3533","addr":"경기도 이천시 부발읍 무촌리 544번지 (휴먼시아상가동 201.202호)","indutype":"수리서비스 - 세탁소","category":"other"}]},{"lat":"37.289254235","long":"127.48979541","imageIndex":17,"items":[{"name":"아름이네이불","tel":"031-634-6860","addr":"경기도 이천시 부발읍 무촌리 250-6번지 진주로얄빌라 나동 402호","indutype":"회원제형태 - 기타4","category":"other"}]},{"lat":"37.277582542","long":"127.48845739","imageIndex":17,"items":[{"name":"아우름","tel":"031-635-1799","addr":"경기도 이천시 부발읍 무촌리 122-31번지 1동","indutype":"의류 - 정장","category":"other"}]},{"lat":"37.284676808","long":"127.48545834","imageIndex":17,"items":[{"name":"업소용식기세척기","tel":"031-632-6768","addr":"경기도 이천시 부발읍 무촌리 544번지 휴먼시아 104동 906호","indutype":"주방용구 - 주방용구","category":"other"}]},{"lat":"37.287045153","long":"127.48798817","imageIndex":17,"items":[{"name":"우리동네 홈케어","tel":"","addr":"경기도 이천시 부발읍 무촌리 195-56번지 103동 101호","indutype":"용역 서비스 - 종합용역","category":"other"}]},{"lat":"37.285267875","long":"127.47967727","imageIndex":17,"items":[{"name":"이레안전","tel":"031-633-8944","addr":"경기도 이천시 부발읍 무촌리 419-11","indutype":"기타 - 기계공구","category":"other"}]},{"lat":"37.286633271","long":"127.48293357","imageIndex":17,"items":[{"name":"이천DID벽지상사","tel":"031-632-8467","addr":"경기도 이천시 부발읍 무촌리 438-5번지","indutype":"직물 - 카페트,커튼,천막,지물","category":"other"}]},{"lat":"37.287220851","long":"127.49562368","imageIndex":17,"items":[{"name":"이천시연합동문회","tel":"031-631-3000","addr":"경기도 이천시 부발읍 무촌리 52-16번지","indutype":"기타 - 비영리/대상","category":"other"}]},{"lat":"37.280019447","long":"127.48523691","imageIndex":17,"items":[{"name":"중부액자","tel":"031-634-9296","addr":"경기도 이천시 부발읍 무촌리 513-3번지","indutype":"건축자재 - 인테리어전문","category":"other"}]},{"lat":"37.285214148","long":"127.48846131","imageIndex":17,"items":[{"name":"크린토피아 코인워시 이천부발점","tel":"","addr":"경기도 이천시 부발읍 무촌리 223-4번지","indutype":"수리서비스 - 세탁소","category":"other"}]},{"lat":"37.283664393","long":"127.48846263","imageIndex":17,"items":[{"name":"트리플케이","tel":"031-638-6005","addr":"경기도 이천시 부발읍 무촌리 166-90번지","indutype":"회원제형태 - 레져업소","category":"other"},{"name":"한일오토바이","tel":"031-634-4270","addr":"경기도 이천시 부발읍 무촌리 166-90","indutype":"수리서비스 - 레져용품수리","category":"other"}]},{"lat":"37.283745482","long":"127.48846315","imageIndex":17,"items":[{"name":"허브통신","tel":"031-631-7060","addr":"경기도 이천시 부발읍 무촌리 166-89 ,90호","indutype":"사무통신 - 통신기기","category":"other"}]},{"lat":"37.284317053","long":"127.48529817","imageIndex":17,"items":[{"name":"현성홈케어","tel":"","addr":"경기도 이천시 부발읍 무촌리 544번지 휴먼시아 103동 906호","indutype":"용역 서비스 - 종합용역","category":"other"}]},{"lat":"37.283775609","long":"127.48770783","imageIndex":4,"items":[{"name":"1번지포차","tel":"031-633-2933","addr":"경기도 이천시 부발읍 무촌리 166-38번지 1층","indutype":"일반휴게음식 - 주점","category":"restaurant"},{"name":"노미마쇼","tel":"031-633-9291","addr":"경기도 이천시 부발읍 무촌리 166-38번지","indutype":"일반휴게음식 - 일반한식","category":"restaurant"},{"name":"리우뒷고기","tel":"031-631-6606","addr":"경기도 이천시 부발읍 무촌리 166-38번지","indutype":"일반휴게음식 - 일반한식","category":"restaurant"},{"name":"박쉐프묵은지감자탕","tel":"031-636-6668","addr":"경기도 이천시 부발읍 무촌리 166-38번지","indutype":"일반휴게음식 - 일반한식","category":"restaurant"},{"name":"북경","tel":"031-633-8228","addr":"경기도 이천시 부발읍 무촌리 166-38","indutype":"일반휴게음식 - 중국식","category":"restaurant"}]},{"lat":"37.284773586","long":"127.48823295","imageIndex":4,"items":[{"name":"BBQ(부발점)","tel":"031-631-1166","addr":"경기도 이천시 부발읍 무촌리 224-2번지 1층","indutype":"일반휴게음식 - 스넥","category":"restaurant"},{"name":"요거프레소 부발점","tel":"031-631-1948","addr":"경기도 이천시 부발읍 무촌리 224-2번지 1층 101호","indutype":"일반휴게음식 - 서양음식","category":"restaurant"}]},{"lat":"37.282578548","long":"127.48518559","imageIndex":4,"items":[{"name":"BHC부발점","tel":"031-631-8906","addr":"경기도 이천시 부발읍 무촌리 502번지 1층","indutype":"일반휴게음식 - 스넥","category":"restaurant"},{"name":"큰맘할매순대국","tel":"031-631-8907","addr":"경기도 이천시 부발읍 무촌리 502번지","indutype":"일반휴게음식 - 일반한식","category":"restaurant"}]},{"lat":"37.284090472","long":"127.48562374","imageIndex":4,"items":[{"name":"금자네 식당","tel":"02-0000-0000","addr":"경기도 이천시 부발읍 무촌리 544번지 휴먼시아 1층 102호","indutype":"일반휴게음식 - 일반한식","category":"restaurant"},{"name":"다정치킨호프","tel":"031-631-5955","addr":"경기도 이천시 부발읍 무촌리 544번지 휴먼시아 상가동 205호","indutype":"일반휴게음식 - 스넥","category":"restaurant"},{"name":"똘이밥상","tel":"031-633-9430","addr":"경기도 이천시 부발읍 무촌리 544번지 부발휴먼시아 1층 103호","indutype":"일반휴게음식 - 일반한식","category":"restaurant"}]},{"lat":"37.282275147","long":"127.48446199","imageIndex":4,"items":[{"name":"기동이랑 만두랑","tel":"031-633-5440","addr":"경기도 이천시 부발읍 무촌리 501번지 1층","indutype":"일반휴게음식 - 일반한식","category":"restaurant"}]},{"lat":"37.285382282","long":"127.48920664","imageIndex":4,"items":[{"name":"김밥천국","tel":"031-634-1040","addr":"경기도 이천시 부발읍 무촌리 225-17","indutype":"일반휴게음식 - 일반한식","category":"restaurant"},{"name":"진수성찬","tel":"031-632-7903","addr":"경기도 이천시 부발읍 무촌리 225-17번지","indutype":"일반휴게음식 - 일반한식","category":"restaurant"},{"name":"황비홍","tel":"031-632-5383","addr":"경기도 이천시 부발읍 무촌리 225-17번지","indutype":"일반휴게음식 - 중국식","category":"restaurant"}]},{"lat":"37.287220851","long":"127.49562368","imageIndex":4,"items":[{"name":"꿈볶는 카페","tel":"031-631-0019","addr":"경기도 이천시 부발읍 무촌리 52-16번지 이천시종합운동장 1동 1층","indutype":"일반휴게음식 - 서양음식","category":"restaurant"}]},{"lat":"37.284162251","long":"127.48790201","imageIndex":4,"items":[{"name":"다도회","tel":"031-635-3308","addr":"경기도 이천시 부발읍 무촌리 165-5번지 1층 1호","indutype":"일반휴게음식 - 일반한식","category":"restaurant"},{"name":"효향촌","tel":"031-634-5806","addr":"경기도 이천시 부발읍 무촌리 165-5번지","indutype":"일반휴게음식 - 일반한식","category":"restaurant"}]},{"lat":"37.2806573","long":"127.49661826","imageIndex":4,"items":[{"name":"단골","tel":"031-635-0566","addr":"경기도 이천시 부발읍 무촌리 110-8번지 B동","indutype":"일반휴게음식 - 일반한식","category":"restaurant"}]},{"lat":"37.284663293","long":"127.48876223","imageIndex":4,"items":[{"name":"대게참좋은날","tel":"031-634-0188","addr":"경기도 이천시 부발읍 무촌리 225-27번지","indutype":"일반휴게음식 - 일반한식","category":"restaurant"}]},{"lat":"37.285323886","long":"127.48806734","imageIndex":4,"items":[{"name":"도깨비밥상","tel":"031-111-1111","addr":"경기도 이천시 부발읍 무촌리 218-3번지","indutype":"일반휴게음식 - 일반한식","category":"restaurant"}]},{"lat":"37.284575922","long":"127.48809636","imageIndex":4,"items":[{"name":"도니우니","tel":"031-633-3251","addr":"경기도 이천시 부발읍 무촌리 224-4번지","indutype":"일반휴게음식 - 일반한식","category":"restaurant"}]},{"lat":"37.284051034","long":"127.48865681","imageIndex":4,"items":[{"name":"또봉이통닭 부발점","tel":"031-632-2234","addr":"경기도 이천시 부발읍 무촌리 산37-8번지 102.103호","indutype":"일반휴게음식 - 일반한식","category":"restaurant"}]},{"lat":"37.283386703","long":"127.48806618","imageIndex":4,"items":[{"name":"마실","tel":"031-634-6312","addr":"경기도 이천시 부발읍 무촌리 166-71번지","indutype":"일반휴게음식 - 일반한식","category":"restaurant"},{"name":"퍼주는집","tel":"031-633-4037","addr":"경기도 이천시 부발읍 무촌리 166-71번지 2층","indutype":"일반휴게음식 - 일반한식","category":"restaurant"}]},{"lat":"37.277882597","long":"127.48779407","imageIndex":4,"items":[{"name":"매지울묵밥","tel":"031-631-7651","addr":"경기도 이천시 부발읍 무촌리 122-3번지","indutype":"일반휴게음식 - 일반한식","category":"restaurant"}]},{"lat":"37.282607592","long":"127.48689974","imageIndex":4,"items":[{"name":"무촌족발","tel":"031-633-4800","addr":"경기도 이천시 부발읍 무촌리 166-55번지","indutype":"일반휴게음식 - 일반한식","category":"restaurant"},{"name":"홍연탕샤브샤브","tel":"031-000-0000","addr":"경기도 이천시 부발읍 무촌리 166-55번지","indutype":"일반휴게음식 - 일반한식","category":"restaurant"}]},{"lat":"37.284352014","long":"127.48776791","imageIndex":4,"items":[{"name":"무촌쭈꾸미","tel":"031-637-4960","addr":"경기도 이천시 부발읍 무촌리 164-2번지 부발프라자","indutype":"일반휴게음식 - 일반한식","category":"restaurant"}]},{"lat":"37.283664393","long":"127.48846263","imageIndex":4,"items":[{"name":"민호프","tel":"031-636-1416","addr":"경기도 이천시 부발읍 무촌리 166-90번지 한나어린이집 A동 1층","indutype":"일반휴게음식 - 주점","category":"restaurant"}]},{"lat":"37.2850765","long":"127.48906935","imageIndex":4,"items":[{"name":"부발왕순대국","tel":"031-633-4833","addr":"경기도 이천시 부발읍 무촌리 225-28번지","indutype":"일반휴게음식 - 일반한식","category":"restaurant"},{"name":"위드치킨","tel":"","addr":"경기도 이천시 부발읍 무촌리 225-28번지 1층","indutype":"일반휴게음식 - 스넥","category":"restaurant"},{"name":"전통염소요리","tel":"031-632-6005","addr":"경기도 이천시 부발읍 무촌리 225-28번지 A동 1층","indutype":"일반휴게음식 - 일반한식","category":"restaurant"},{"name":"촌돼지","tel":"031-632-3988","addr":"경기도 이천시 부발읍 무촌리 225-28번지","indutype":"일반휴게음식 - 일반한식","category":"restaurant"}]},{"lat":"37.282441313","long":"127.49445363","imageIndex":4,"items":[{"name":"부자쟁반짜장","tel":"031-631-3746","addr":"경기도 이천시 부발읍 무촌리 91-1","indutype":"일반휴게음식 - 중국식","category":"restaurant"}]},{"lat":"37.283548327","long":"127.48820253","imageIndex":4,"items":[{"name":"새벽닭옛날통닭","tel":"031-632-9259","addr":"경기도 이천시 부발읍 무촌리 166-88번지 1동 1층 102호","indutype":"일반휴게음식 - 스넥","category":"restaurant"}]},{"lat":"37.284164421","long":"127.48737204","imageIndex":4,"items":[{"name":"소와돈","tel":"031-633-9291","addr":"경기도 이천시 부발읍 무촌리 166번지","indutype":"일반휴게음식 - 일반한식","category":"restaurant"}]},{"lat":"37.282470737","long":"127.48731608","imageIndex":4,"items":[{"name":"수원큰손갈비","tel":"031-633-0244","addr":"경기도 이천시 부발읍 무촌리 166-32번지 1층","indutype":"일반휴게음식 - 일반한식","category":"restaurant"}]},{"lat":"37.284713473","long":"127.48751087","imageIndex":4,"items":[{"name":"술비어","tel":"","addr":"경기도 이천시 부발읍 무촌리 170-1번지","indutype":"일반휴게음식 - 주점","category":"restaurant"}]},{"lat":"37.282660873","long":"127.49365446","imageIndex":4,"items":[{"name":"신원","tel":"031-635-0270","addr":"경기도 이천시 부발읍 무촌리 74-1번지","indutype":"일반휴게음식 - 일반한식","category":"restaurant"}]},{"lat":"37.288774203","long":"127.49040127","imageIndex":4,"items":[{"name":"신원사철식당","tel":"031-636-4641","addr":"경기도 이천시 부발읍 무촌리 251-4번지","indutype":"일반휴게음식 - 일반한식","category":"restaurant"}]},{"lat":"37.284081623","long":"127.48778873","imageIndex":4,"items":[{"name":"심언니분식","tel":"031-632-6020","addr":"경기도 이천시 부발읍 무촌리 165-7번지","indutype":"일반휴게음식 - 스넥","category":"restaurant"},{"name":"연서네분식","tel":"031-632-8006","addr":"경기도 이천시 부발읍 무촌리 165-7번지","indutype":"일반휴게음식 - 일반한식","category":"restaurant"}]},{"lat":"37.282412414","long":"127.48615427","imageIndex":4,"items":[{"name":"양평해장국무촌점","tel":"031-631-7238","addr":"경기도 이천시 부발읍 무촌리 166-85번지","indutype":"일반휴게음식 - 일반한식","category":"restaurant"}]},{"lat":"37.28563124","long":"127.48782123","imageIndex":4,"items":[{"name":"어신(부발회수산)","tel":"031-634-9288","addr":"경기도 이천시 부발읍 무촌리 214번지 1층","indutype":"일반휴게음식 - 일반한식","category":"restaurant"}]},{"lat":"37.283442564","long":"127.48762676","imageIndex":4,"items":[{"name":"전설의치킨(부발점)","tel":"031-631-8895","addr":"경기도 이천시 부발읍 무촌리 166-1번지","indutype":"일반휴게음식 - 스넥","category":"restaurant"}]},{"lat":"37.283629047","long":"127.48829326","imageIndex":4,"items":[{"name":"정육식당","tel":"031-632-5205","addr":"경기도 이천시 부발읍 무촌리 166-93번지","indutype":"일반휴게음식 - 일반한식","category":"restaurant"}]},{"lat":"37.282802627","long":"127.48767904","imageIndex":4,"items":[{"name":"카페 그리니쉬(cafe GREENISH)","tel":"","addr":"경기도 이천시 부발읍 무촌리 166-84번지","indutype":"일반휴게음식 - 서양음식","category":"restaurant"}]},{"lat":"37.283659403","long":"127.48748156","imageIndex":4,"items":[{"name":"향수","tel":"031-632-5175","addr":"경기도 이천시 부발읍 무촌리 167-3번지 1층","indutype":"일반휴게음식 - 주점","category":"restaurant"}]},{"lat":"37.289325179","long":"127.49443075","imageIndex":4,"items":[{"name":"홍등원","tel":"031-633-6454","addr":"경기도 이천시 부발읍 무촌리 30-8번지","indutype":"일반휴게음식 - 중국식","category":"restaurant"}]},{"lat":"37.285550829","long":"127.48985048","imageIndex":16,"items":[{"name":"MTA 튼튼태권도장","tel":"031-634-7954","addr":"경기도 이천시 부발읍 무촌리 230-4번지","indutype":"학원 - 예·체능계학원","category":"study"}]},{"lat":"37.285214148","long":"127.48846131","imageIndex":16,"items":[{"name":"가이던스음악학원","tel":"031-634-7703","addr":"경기도 이천시 부발읍 무촌리 223-4번지 2층","indutype":"학원 - 예·체능계학원","category":"study"},{"name":"뮤엠영어수학의달인이천부발학원","tel":"031-631-0105","addr":"경기도 이천시 부발읍 무촌리 223-4번지 2층","indutype":"학원 - 보습학원","category":"study"},{"name":"용인대라움검도관","tel":"031-631-2806","addr":"경기도 이천시 부발읍 무촌리 223-4번지 2층 202호","indutype":"학원 - 예·체능계학원","category":"study"}]},{"lat":"37.278275052","long":"127.48656756","imageIndex":16,"items":[{"name":"다원학교","tel":"031-645-6600","addr":"경기도 이천시 부발읍 무촌리 123번지 다원학교","indutype":"학원 - 초중고교육기관","category":"study"}]},{"lat":"37.283386703","long":"127.48806618","imageIndex":16,"items":[{"name":"대한속셈학원","tel":"031-634-1882","addr":"경기도 이천시 부발읍 무촌리 166-71번지 태광상사 3층","indutype":"학원 - 기타 교육기관","category":"study"}]},{"lat":"37.286602095","long":"127.48836874","imageIndex":16,"items":[{"name":"부발(백록분교장)초등학교","tel":"031-633-7631","addr":"경기도 이천시 부발읍 무촌리 195-5번지 부발초등학교","indutype":"학원 - 초중고교육기관","category":"study"}]},{"lat":"37.283526376","long":"127.486962","imageIndex":16,"items":[{"name":"부발어린이집[아이행복]","tel":"031-634-1894","addr":"경기도 이천시 부발읍 무촌리 168-8번지","indutype":"학원 - 유아원","category":"study"}]},{"lat":"37.285386811","long":"127.49465322","imageIndex":16,"items":[{"name":"부발중학교","tel":"031-631-9353","addr":"경기도 이천시 부발읍 무촌리 58-1번지 부발중학교","indutype":"학원 - 초중고교육기관","category":"study"}]},{"lat":"37.285713484","long":"127.48753984","imageIndex":16,"items":[{"name":"부발태권도체육관","tel":"031-633-3948","addr":"경기도 이천시 부발읍 무촌리 179-3","indutype":"학원 - 예·체능계학원","category":"study"}]},{"lat":"37.283325804","long":"127.48753581","imageIndex":16,"items":[{"name":"부발한솔플러스수학교습소","tel":"031-638-1800","addr":"경기도 이천시 부발읍 무촌리 166-50번지 3층","indutype":"회원제형태 - 학원","category":"study"}]},{"lat":"37.285382282","long":"127.48920664","imageIndex":16,"items":[{"name":"삼성영어학원","tel":"031-633-0369","addr":"경기도 이천시 부발읍 무촌리 225-17번지 3층 302호","indutype":"학원 - 외국어학원","category":"study"},{"name":"쎈수학러닝센터학원","tel":"","addr":"경기도 이천시 부발읍 무촌리 225-17번지 2층 202호","indutype":"학원 - 보습학원","category":"study"}]},{"lat":"37.284463371","long":"127.48476911","imageIndex":16,"items":[{"name":"신성문화센터","tel":"031-632-5011","addr":"경기도 이천시 부발읍 무촌리 477-7번지","indutype":"학원 - 기능학원","category":"study"}]},{"lat":"37.284352014","long":"127.48776791","imageIndex":16,"items":[{"name":"원형미술학원","tel":"031-634-1323","addr":"경기도 이천시 부발읍 무촌리 164-2번지 부발프라자 2층","indutype":"학원 - 예·체능계학원","category":"study"},{"name":"해법영어자기주도학습학원","tel":"031-631-3421","addr":"경기도 이천시 부발읍 무촌리 164-2번지 부발프라자 202호","indutype":"회원제형태 - 학원","category":"study"}]},{"lat":"37.28602466","long":"127.48192609","imageIndex":16,"items":[{"name":"은빛어린이집[아이행복]","tel":"031-631-3816","addr":"경기도 이천시 부발읍 무촌리 424번지","indutype":"학원 - 유아원","category":"study"}]},{"lat":"37.289245588","long":"127.49406936","imageIndex":16,"items":[{"name":"이천도자기","tel":"","addr":"경기도 이천시 부발읍 무촌리 30-1번지","indutype":"학원 - 기타 교육기관","category":"study"}]},{"lat":"37.284713473","long":"127.48751087","imageIndex":16,"items":[{"name":"초록미술교습소","tel":"031-631-3162","addr":"경기도 이천시 부발읍 무촌리 170-1번지 1층","indutype":"학원 - 예·체능계학원","category":"study"}]},{"lat":"37.282412414","long":"127.48615427","imageIndex":0,"items":[{"name":"TBA카센타","tel":"031-634-9986","addr":"경기도 이천시 부발읍 무촌리 166-85번지","indutype":"자동차정비 유지 - 자동차정비","category":"car"}]},{"lat":"37.285769385","long":"127.48928806","imageIndex":0,"items":[{"name":"네비&블랙박스세상","tel":"031-634-3194","addr":"경기도 이천시 부발읍 무촌리 230-3번지 1층","indutype":"자동차정비 유지 - 자동차부품","category":"car"}]},{"lat":"37.287466493","long":"127.48850961","imageIndex":0,"items":[{"name":"두원자동차공업사","tel":"031-632-8960","addr":"경기도 이천시 부발읍 무촌리 195-17번지","indutype":"자동차정비 유지 - 자동차정비","category":"car"}]},{"lat":"37.284164421","long":"127.48737204","imageIndex":0,"items":[{"name":"만도프라자","tel":"031-632-5047","addr":"경기도 이천시 부발읍 무촌리 166번지","indutype":"자동차정비 유지 - 자동차부품","category":"car"}]},{"lat":"37.284324276","long":"127.47681841","imageIndex":0,"items":[{"name":"설봉모터스","tel":"031-635-1608","addr":"경기도 이천시 부발읍 무촌리 412번지 A","indutype":"자동차정비 유지 - 자동차시트·타이어","category":"car"}]},{"lat":"37.288774203","long":"127.49040127","imageIndex":0,"items":[{"name":"종합라이닝","tel":"031-633-3335","addr":"경기도 이천시 부발읍 무촌리 251-4","indutype":"자동차정비 유지 - 자동차부품","category":"car"}]},{"lat":"37.284550463","long":"127.4877128","imageIndex":13,"items":[{"name":"고운이 치과 기공소","tel":"031-1111-1111","addr":"경기도 이천시 부발읍 무촌리 170-4번지","indutype":"보건위생 - 의료용품","category":"beauty"}]},{"lat":"37.282802627","long":"127.48767904","imageIndex":13,"items":[{"name":"네일도나","tel":"031-632-9048","addr":"경기도 이천시 부발읍 무촌리 166-84번지 1층","indutype":"보건위생 - 피부미용실","category":"beauty"}]},{"lat":"37.285214148","long":"127.48846131","imageIndex":13,"items":[{"name":"도트헤어","tel":"031-635-1246","addr":"경기도 이천시 부발읍 무촌리 223-4번지 1층","indutype":"보건위생 - 미용원","category":"beauty"}]},{"lat":"37.285607531","long":"127.48920809","imageIndex":13,"items":[{"name":"라라","tel":"070-8260-3322","addr":"경기도 이천시 부발읍 무촌리 230-5번지 1층 5호","indutype":"보건위생 - 미용원","category":"beauty"}]},{"lat":"37.284352014","long":"127.48776791","imageIndex":13,"items":[{"name":"부발옥사우나","tel":"031-634-4137","addr":"경기도 이천시 부발읍 무촌리 164-2번지 부발프라자","indutype":"보건위생 - 사우나","category":"beauty"}]},{"lat":"37.283386703","long":"127.48806618","imageIndex":13,"items":[{"name":"뷰티플러스미용실","tel":"031-631-4179","addr":"경기도 이천시 부발읍 무촌리 166-71번지 1층","indutype":"보건위생 - 미용원","category":"beauty"},{"name":"브릴랑스킨","tel":"","addr":"경기도 이천시 부발읍 무촌리 166-71번지","indutype":"보건위생 - 피부미용실","category":"beauty"}]},{"lat":"37.284713473","long":"127.48751087","imageIndex":13,"items":[{"name":"신나라헤어샵","tel":"031-632-8703","addr":"경기도 이천시 부발읍 무촌리 170-1번지","indutype":"보건위생 - 미용원","category":"beauty"}]},{"lat":"37.282828271","long":"127.48801749","imageIndex":13,"items":[{"name":"오땡큐천연머리염색","tel":"031-633-6323","addr":"경기도 이천시 부발읍 무촌리 166-41번지 오땡큐천연머리염색","indutype":"보건위생 - 미용원","category":"beauty"}]},{"lat":"37.285382282","long":"127.48920664","imageIndex":13,"items":[{"name":"이천건강힐링 cafe","tel":"031-632-5507","addr":"경기도 이천시 부발읍 무촌리 225-17번지","indutype":"보건위생 - 의료용품","category":"beauty"},{"name":"이천건강힐링카페","tel":"031-632-5507","addr":"경기도 이천시 부발읍 무촌리 225-17번지 202호","indutype":"보건위생 - 의료용품","category":"beauty"}]},{"lat":"37.283548327","long":"127.48820253","imageIndex":13,"items":[{"name":"정원아동청소년발달센터","tel":"031-632-5558","addr":"경기도 이천시 부발읍 무촌리 166-88번지","indutype":"보건위생 - 기타대인서비스","category":"beauty"},{"name":"하루헤어","tel":"070-5022-4846","addr":"경기도 이천시 부발읍 무촌리 166-88번지 1층 3호","indutype":"보건위생 - 미용원","category":"beauty"}]},{"lat":"37.283664393","long":"127.48846263","imageIndex":13,"items":[{"name":"파타야","tel":"031-632-3398","addr":"경기도 이천시 부발읍 무촌리 166-90번지 3층","indutype":"보건위생 - 화장품","category":"beauty"},{"name":"헤어컷","tel":"031-631-1240","addr":"경기도 이천시 부발읍 무촌리 166-90번지 1층","indutype":"보건위생 - 미용원","category":"beauty"}]},{"lat":"37.283664393","long":"127.48846263","imageIndex":13,"items":[{"name":"국제당구장","tel":"031-633-1209","addr":"경기도 이천시 부발읍 무촌리 166-90번지","indutype":"레저업소 - 당 구 장","category":"leisure"}]},{"lat":"37.283189039","long":"127.48792959","imageIndex":13,"items":[{"name":"부발당구장","tel":"031-633-5383","addr":"경기도 이천시 부발읍 무촌리 166-2번지 부발당구장","indutype":"레저업소 - 당 구 장","category":"leisure"}]},{"lat":"37.284359773","long":"127.49462398","imageIndex":13,"items":[{"name":"부발스크린골프","tel":"031-631-9748","addr":"경기도 이천시 부발읍 무촌리 61-5번지","indutype":"레저업소 - 스크린골프","category":"leisure"}]},{"lat":"37.284352014","long":"127.48776791","imageIndex":13,"items":[{"name":"부발청운특공무술","tel":"031-631-5678","addr":"경기도 이천시 부발읍 무촌리 164-2번지 부발프라자 301호","indutype":"레저업소 - 헬스클럽","category":"leisure"}]},{"lat":"37.282802627","long":"127.48767904","imageIndex":13,"items":[{"name":"앵콜노래연습장","tel":"031-632-3993","addr":"경기도 이천시 부발읍 무촌리 166-84번지","indutype":"레저업소 - 노 래 방","category":"leisure"}]},{"lat":"37.279553221","long":"127.48688018","imageIndex":13,"items":[{"name":"에이스골프연습장","tel":"031-633-3977","addr":"경기도 이천시 부발읍 무촌리 128-2","indutype":"레저업소 - 골프연습장","category":"leisure"}]},{"lat":"37.282607592","long":"127.48689974","imageIndex":13,"items":[{"name":"오디션노래연습장","tel":"031-633-8635","addr":"경기도 이천시 부발읍 무촌리 166-55번지 2층","indutype":"레저업소 - 노 래 방","category":"leisure"}]},{"lat":"37.283386703","long":"127.48806618","imageIndex":13,"items":[{"name":"올래노래연습장","tel":"031-882-0197","addr":"경기도 이천시 부발읍 무촌리 166-71번지","indutype":"레저업소 - 노 래 방","category":"leisure"}]},{"lat":"37.283775609","long":"127.48770783","imageIndex":13,"items":[{"name":"인마이소울노래연습장","tel":"031-632-6346","addr":"경기도 이천시 부발읍 무촌리 166-38번지 효양타운 B1층","indutype":"레저업소 - 노 래 방","category":"leisure"},{"name":"해피로(PC)","tel":"070-8912-4564","addr":"경기도 이천시 부발읍 무촌리 166-38번지 2층 2호","indutype":"레저업소 - 기타레져업소","category":"leisure"}]},{"lat":"37.284162251","long":"127.48790201","imageIndex":13,"items":[{"name":"효양 당구장","tel":"031-631-5458","addr":"경기도 이천시 부발읍 무촌리 165-5번지","indutype":"레저업소 - 당 구 장","category":"leisure"}]},{"lat":"37.285214148","long":"127.48846131","imageIndex":7,"items":[{"name":"델리아이스","tel":"031-632-6015","addr":"경기도 이천시 부발읍 무촌리 223-4번지 1층","indutype":"음료식품 - 기타음료식품","category":"food"},{"name":"이천약초건강원","tel":"031-636-1244","addr":"경기도 이천시 부발읍 무촌리 223-4번지","indutype":"건강식품 - 기타건강식품","category":"food"}]},{"lat":"37.284109577","long":"127.48756338","imageIndex":7,"items":[{"name":"부발마트정육점","tel":"031-633-9338","addr":"경기도 이천시 부발읍 무촌리 166-34","indutype":"음료식품 - 정육점","category":"food"}]},{"lat":"37.284773586","long":"127.48823295","imageIndex":7,"items":[{"name":"부발민속방아간","tel":"031-633-3151","addr":"경기도 이천시 부발읍 무촌리 224-2","indutype":"음료식품 - 제과점","category":"food"}]},{"lat":"37.283629047","long":"127.48829326","imageIndex":7,"items":[{"name":"여주정육점","tel":"031-632-5205","addr":"경기도 이천시 부발읍 무촌리 166-93번지","indutype":"음료식품 - 정육점","category":"food"}]},{"lat":"37.284358151","long":"127.49284231","imageIndex":7,"items":[{"name":"이천1등축산 도축장 직영점","tel":"031-631-7392","addr":"경기도 이천시 부발읍 무촌리 50-6번지 대원빌딩 1층 104~106호","indutype":"음료식품 - 정육점","category":"food"}]},{"lat":"37.282802627","long":"127.48767904","imageIndex":7,"items":[{"name":"이천제분제환소","tel":"031-632-7929","addr":"경기도 이천시 부발읍 무촌리 166-84번지","indutype":"음료식품 - 기타음료식품","category":"food"}]},{"lat":"37.284575922","long":"127.48809636","imageIndex":7,"items":[{"name":"파리바게뜨(이천부발점)","tel":"031-636-8887","addr":"경기도 이천시 부발읍 무촌리 224-4번지","indutype":"음료식품 - 제과점","category":"food"}]},{"lat":"37.282578548","long":"127.48518559","imageIndex":8,"items":[{"name":"미담치과","tel":"031-111-1111","addr":"경기도 이천시 부발읍 무촌리 502번지 201호","indutype":"의원 - 치과의원","category":"medical"}]},{"lat":"37.284352014","long":"127.48776791","imageIndex":8,"items":[{"name":"부발한의원","tel":"031-632-9087","addr":"경기도 이천시 부발읍 무촌리 164-2번지","indutype":"의원 - 한의원","category":"medical"},{"name":"서울 윤치과","tel":"031-633-2827","addr":"경기도 이천시 부발읍 무촌리 164-2번지 부발프라자 106호","indutype":"의원 - 치과의원","category":"medical"},{"name":"현대연합의원","tel":"031-635-7282","addr":"경기도 이천시 부발읍 무촌리 164-2번지 부발프라자 2층 201호","indutype":"의원 - 의원","category":"medical"}]},{"lat":"37.284575922","long":"127.48809636","imageIndex":8,"items":[{"name":"한마음약국","tel":"031-632-6885","addr":"경기도 이천시 부발읍 무촌리 224-4번지","indutype":"약국 - 약국","category":"medical"}]},{"lat":"37.283325804","long":"127.48753581","imageIndex":8,"items":[{"name":"행복치과","tel":"031-631-2726","addr":"경기도 이천시 부발읍 무촌리 166-50번지 1층","indutype":"의원 - 치과의원","category":"medical"}]},{"lat":"37.288575067","long":"127.48179566","imageIndex":7,"items":[{"name":"아이지에이마트부발무촌점","tel":"031-768-0708","addr":"경기도 이천시 부발읍 무촌리 369-18","indutype":"유통업 영리 - 슈퍼마켓","category":"mart"}]},{"lat":"37.278437276","long":"127.48434733","imageIndex":7,"items":[{"name":"효양마트","tel":"031-633-6682","addr":"경기도 이천시 부발읍 무촌리 128-6번지 단지 상가 101호","indutype":"유통업 영리 - 슈퍼마켓","category":"mart"}]}]