[{"lat":"37.099202376","long":"127.09106255","imageIndex":4,"items":[{"name":"도원","tel":"031-666-9271","addr":"경기도 평택시 진위면 봉남리 180-2번지","indutype":"음식점 - 한식","category":"restaurant"}]},{"lat":"37.101096686","long":"127.09991789","imageIndex":4,"items":[{"name":"동천마을","tel":"031-662-7221","addr":"경기도 평택시 진위면 봉남리 76-1번지","indutype":"일반휴게음식 - 일반한식","category":"restaurant"}]},{"lat":"37.099366201","long":"127.08883544","imageIndex":4,"items":[{"name":"마당소머리","tel":"031-663-0447","addr":"경기도 평택시 진위면 봉남리 338-1번지","indutype":"일반휴게음식 - 일반한식","category":"restaurant"}]},{"lat":"37.098199857","long":"127.09416605","imageIndex":4,"items":[{"name":"모리","tel":"031-667-1143","addr":"경기도 평택시 진위면 봉남리 170-1번지","indutype":"일반휴게음식 - 일반한식","category":"restaurant"},{"name":"선굼터","tel":"031-663-5954","addr":"경기도 평택시 진위면 봉남리 170-1번지 1층","indutype":"음식점 - 한식","category":"restaurant"},{"name":"선굼터","tel":"031-662-8252","addr":"경기도 평택시 진위면 봉남리 170-1번지 1층","indutype":"일반휴게음식 - 일반한식","category":"restaurant"},{"name":"카페모리","tel":"","addr":"경기도 평택시 진위면 봉남리 170-1번지 2층","indutype":"음식점 - 한식","category":"restaurant"}]},{"lat":"37.100205869","long":"127.08647408","imageIndex":4,"items":[{"name":"부산수산","tel":"031-662-6777","addr":"경기도 평택시 진위면 봉남리 375-1번지","indutype":"일반휴게음식 - 일반한식","category":"restaurant"}]},{"lat":"37.098759967","long":"127.09225442","imageIndex":4,"items":[{"name":"소도둑평택진위점","tel":"031-664-0701","addr":"경기도 평택시 진위면 봉남리 176-1번지","indutype":"일반휴게음식 - 일반한식","category":"restaurant"}]},{"lat":"37.101394965","long":"127.08689161","imageIndex":4,"items":[{"name":"어가촌","tel":"031-663-9244","addr":"경기도 평택시 진위면 봉남리 304-5번지","indutype":"일반휴게음식 - 일반한식","category":"restaurant"}]},{"lat":"37.099816589","long":"127.08902718","imageIndex":4,"items":[{"name":"옛날가마솥통닭","tel":"031-667-4588","addr":"경기도 평택시 진위면 봉남리 331-2번지","indutype":"일반휴게음식 - 스넥","category":"restaurant"}]},{"lat":"37.100096477","long":"127.08825131","imageIndex":4,"items":[{"name":"옛날재래식손두부","tel":"031-611-2289","addr":"경기도 평택시 진위면 봉남리 362-4번지","indutype":"일반휴게음식 - 일반한식","category":"restaurant"},{"name":"옛날재래식손두부","tel":"031-668-9272","addr":"경기도 평택시 진위면 봉남리 362-4번지","indutype":"음식점 - 한식","category":"restaurant"}]},{"lat":"37.101483389","long":"127.10082957","imageIndex":4,"items":[{"name":"오늘은소풍가는날","tel":"031-664-4522","addr":"경기도 평택시 진위면 봉남리 26-8번지","indutype":"일반휴게음식 - 일반한식","category":"restaurant"}]},{"lat":"37.09895125","long":"127.08947616","imageIndex":4,"items":[{"name":"온리쿡(only cook)","tel":"02-1577-0000","addr":"경기도 평택시 진위면 봉남리 336-3번지 1층","indutype":"일반휴게음식 - 서양음식","category":"restaurant"}]},{"lat":"37.101618287","long":"127.10114473","imageIndex":4,"items":[{"name":"우렁쌈밥","tel":"031-662-7563","addr":"경기도 평택시 진위면 봉남리 26-14번지","indutype":"일반휴게음식 - 일반한식","category":"restaurant"}]},{"lat":"37.098453524","long":"127.09236654","imageIndex":4,"items":[{"name":"정가네","tel":"","addr":"경기도 평택시 진위면 봉남리 147-3번지 1층","indutype":"일반휴게음식 - 일반한식","category":"restaurant"}]},{"lat":"37.101674507","long":"127.08658818","imageIndex":4,"items":[{"name":"진위면옥","tel":"031-611-2289","addr":"경기도 평택시 진위면 봉남리 304-11번지","indutype":"음식점 - 한식","category":"restaurant"},{"name":"진위면옥","tel":"031-611-7838","addr":"경기도 평택시 진위면 봉남리 304-11번지 1층","indutype":"일반휴게음식 - 일반한식","category":"restaurant"}]},{"lat":"37.098344852","long":"127.09308634","imageIndex":4,"items":[{"name":"진위장수촌","tel":"031-663-2175","addr":"경기도 평택시 진위면 봉남리 172-1번지","indutype":"일반휴게음식 - 일반한식","category":"restaurant"},{"name":"진위장수촌","tel":"031-611-9940","addr":"경기도 평택시 진위면 봉남리 172-1번지","indutype":"음식점 - 한식","category":"restaurant"}]},{"lat":"37.099563686","long":"127.08985932","imageIndex":4,"items":[{"name":"짱구네","tel":"031-663-0556","addr":"경기도 평택시 진위면 봉남리 331-13","indutype":"일반휴게음식 - 일반한식","category":"restaurant"}]},{"lat":"37.098788615","long":"127.09008341","imageIndex":4,"items":[{"name":"커피냅로스터스","tel":"031-666-4131","addr":"경기도 평택시 진위면 봉남리 181번지 1층","indutype":"일반휴게음식 - 서양음식","category":"restaurant"}]},{"lat":"37.098347156","long":"127.09000417","imageIndex":4,"items":[{"name":"통영신가네국밥","tel":"031-664-6172","addr":"경기도 평택시 진위면 봉남리 144-1번지","indutype":"일반휴게음식 - 일반한식","category":"restaurant"}]},{"lat":"37.10100813","long":"127.09800541","imageIndex":4,"items":[{"name":"황금바위골","tel":"031-664-9953","addr":"경기도 평택시 진위면 봉남리 48-3번지","indutype":"일반휴게음식 - 일반한식","category":"restaurant"}]}]