[{"lat":"37.090266358","long":"127.47744071","imageIndex":4,"items":[{"name":"BHC 안성일죽점","tel":"031-671-9288","addr":"경기도 안성시 일죽면 송천리 256-8","indutype":"일반휴게음식 - 서양음식","category":"restaurant"},{"name":"군산해물탕","tel":"031-674-4424","addr":"경기도 안성시 일죽면 송천리 256-8번지","indutype":"일반휴게음식 - 일반한식","category":"restaurant"}]},{"lat":"37.091153723","long":"127.47635522","imageIndex":4,"items":[{"name":"Ten to Ten(텐투텐)","tel":"031-677-0512","addr":"경기도 안성시 일죽면 송천리 241-9번지","indutype":"일반휴게음식 - 서양음식","category":"restaurant"}]},{"lat":"37.092404306","long":"127.47682416","imageIndex":4,"items":[{"name":"가장맛있는족발 족과의동침","tel":"031-671-9754","addr":"경기도 안성시 일죽면 송천리 19-13번지 105호","indutype":"일반휴게음식 - 일반한식","category":"restaurant"},{"name":"얌샘김밥","tel":"031-673-4088","addr":"경기도 안성시 일죽면 송천리 19-13번지 102호","indutype":"일반휴게음식 - 스넥","category":"restaurant"},{"name":"집밥포차","tel":"031-673-5530","addr":"경기도 안성시 일죽면 송천리 19-13번지 1층","indutype":"일반휴게음식 - 일반한식","category":"restaurant"},{"name":"큰맘할매순대국","tel":"031-1677-8634","addr":"경기도 안성시 일죽면 송천리 19-13번지","indutype":"일반휴게음식 - 일반한식","category":"restaurant"},{"name":"토고리옛날막창","tel":"","addr":"경기도 안성시 일죽면 송천리 19-13번지","indutype":"일반휴게음식 - 일반한식","category":"restaurant"},{"name":"투다리 일죽점","tel":"031-673-3685","addr":"경기도 안성시 일죽면 송천리 19-13번지","indutype":"일반휴게음식 - 주점","category":"restaurant"}]},{"lat":"37.09443318","long":"127.47418223","imageIndex":4,"items":[{"name":"강남꼬치구이","tel":"031-673-6683","addr":"경기도 안성시 일죽면 송천리 50-11번지 102호","indutype":"일반휴게음식 - 일반한식","category":"restaurant"},{"name":"전라도식조림&찌개전문점","tel":"031-672-2149","addr":"경기도 안성시 일죽면 송천리 50-11번지","indutype":"일반휴게음식 - 일반한식","category":"restaurant"}]},{"lat":"37.094069212","long":"127.47957906","imageIndex":4,"items":[{"name":"강변호프","tel":"031-672-5052","addr":"경기도 안성시 일죽면 송천리 2-3번지","indutype":"일반휴게음식 - 주점","category":"restaurant"}]},{"lat":"37.085959483","long":"127.47288136","imageIndex":4,"items":[{"name":"고바우순대국","tel":"031-673-3797","addr":"경기도 안성시 일죽면 송천리 316-1번지","indutype":"일반휴게음식 - 일반한식","category":"restaurant"},{"name":"수타루","tel":"031-672-5668","addr":"경기도 안성시 일죽면 송천리 316-1번지","indutype":"일반휴게음식 - 중국식","category":"restaurant"}]},{"lat":"37.092932806","long":"127.47760356","imageIndex":4,"items":[{"name":"금광식당","tel":"031-673-7417","addr":"경기도 안성시 일죽면 송천리 19-7번지","indutype":"일반휴게음식 - 일반한식","category":"restaurant"},{"name":"안성식당","tel":"031-674-4445","addr":"경기도 안성시 일죽면 송천리 19-7번지","indutype":"일반휴게음식 - 일반한식","category":"restaurant"}]},{"lat":"37.086048115","long":"127.46868681","imageIndex":4,"items":[{"name":"기와현","tel":"031-673-6938","addr":"경기도 안성시 일죽면 송천리 428-2번지","indutype":"일반휴게음식 - 일반한식","category":"restaurant"},{"name":"다담이천쌀밥","tel":"031-675-9202","addr":"경기도 안성시 일죽면 송천리 428-2번지 가동","indutype":"일반휴게음식 - 일반한식","category":"restaurant"},{"name":"웅골손두부","tel":"031-673-1554","addr":"경기도 안성시 일죽면 송천리 428-2번지","indutype":"일반휴게음식 - 일반한식","category":"restaurant"}]},{"lat":"37.091374506","long":"127.46838198","imageIndex":4,"items":[{"name":"김동숙칼국수.보리밥","tel":"031-643-2433","addr":"경기도 안성시 일죽면 송천리 486번지","indutype":"일반휴게음식 - 일반한식","category":"restaurant"}]},{"lat":"37.094017861","long":"127.47890385","imageIndex":4,"items":[{"name":"네네치킨","tel":"031-672-5648","addr":"경기도 안성시 일죽면 송천리 4-5번지","indutype":"일반휴게음식 - 스넥","category":"restaurant"}]},{"lat":"37.093878027","long":"127.47782317","imageIndex":4,"items":[{"name":"도깨비왕만두","tel":"031-672-7141","addr":"경기도 안성시 일죽면 송천리 28-6번지","indutype":"일반휴게음식 - 일반한식","category":"restaurant"},{"name":"수원손만두","tel":"031-677-3854","addr":"경기도 안성시 일죽면 송천리 28-6번지 1층","indutype":"일반휴게음식 - 스넥","category":"restaurant"},{"name":"오복가든","tel":"031-674-5010","addr":"경기도 안성시 일죽면 송천리 28-6번지","indutype":"일반휴게음식 - 일반한식","category":"restaurant"}]},{"lat":"37.094020598","long":"127.47596812","imageIndex":4,"items":[{"name":"디저트칸","tel":"031-000-0000","addr":"경기도 안성시 일죽면 송천리 42번지 103호","indutype":"일반휴게음식 - 서양음식","category":"restaurant"}]},{"lat":"37.093185318","long":"127.47754889","imageIndex":4,"items":[{"name":"또바기감자탕","tel":"031-672-6373","addr":"경기도 안성시 일죽면 송천리 19-3번지","indutype":"일반휴게음식 - 일반한식","category":"restaurant"},{"name":"마중민속주점","tel":"031-672-7188","addr":"경기도 안성시 일죽면 송천리 19-3번지","indutype":"일반휴게음식 - 일반한식","category":"restaurant"},{"name":"소라야식","tel":"031-674-2898","addr":"경기도 안성시 일죽면 송천리 19-3번지","indutype":"일반휴게음식 - 일반한식","category":"restaurant"}]},{"lat":"37.094263191","long":"127.47387748","imageIndex":4,"items":[{"name":"러브레터","tel":"031-672-1577","addr":"경기도 안성시 일죽면 송천리 50-2번지 1층","indutype":"일반휴게음식 - 서양음식","category":"restaurant"},{"name":"엄마네기사식당","tel":"031-672-9056","addr":"경기도 안성시 일죽면 송천리 50-2번지","indutype":"일반휴게음식 - 일반한식","category":"restaurant"},{"name":"전라도식당","tel":"031-673-9232","addr":"경기도 안성시 일죽면 송천리 50-2번지 1층","indutype":"일반휴게음식 - 일반한식","category":"restaurant"}]},{"lat":"37.089684897","long":"127.46726939","imageIndex":4,"items":[{"name":"러브썸(LOVE SOME)","tel":"031-672-1188","addr":"경기도 안성시 일죽면 송천리 461-1번지","indutype":"일반휴게음식 - 일반한식","category":"restaurant"},{"name":"전주돌솥한정식부페","tel":"031-674-1539","addr":"경기도 안성시 일죽면 송천리 461-1번지 외5필지","indutype":"일반휴게음식 - 일반한식","category":"restaurant"}]},{"lat":"37.091687033","long":"127.47593112","imageIndex":4,"items":[{"name":"만우정","tel":"031-677-3356","addr":"경기도 안성시 일죽면 송천리 241-23번지 1층,1층 일부호","indutype":"일반휴게음식 - 일반한식","category":"restaurant"}]},{"lat":"37.092627358","long":"127.47737669","imageIndex":4,"items":[{"name":"명품짬뽕나라","tel":"031-677-7721","addr":"경기도 안성시 일죽면 송천리 19-26번지 1층","indutype":"일반휴게음식 - 중국식","category":"restaurant"}]},{"lat":"37.091264234","long":"127.47121572","imageIndex":4,"items":[{"name":"베네치아","tel":"031-673-3633","addr":"경기도 안성시 일죽면 송천리 610-1번지","indutype":"일반휴게음식 - 일반한식","category":"restaurant"},{"name":"베네치아","tel":"031-675-8905","addr":"경기도 안성시 일죽면 송천리 610-1번지 일죽IC상가 105호","indutype":"일반휴게음식 - 주점","category":"restaurant"},{"name":"유진푸드","tel":"031-677-4777","addr":"경기도 안성시 일죽면 송천리 610-1번지 2층 203호","indutype":"일반휴게음식 - 일반한식","category":"restaurant"}]},{"lat":"37.093380119","long":"127.47840495","imageIndex":4,"items":[{"name":"불씨호프","tel":"031-672-5027","addr":"경기도 안성시 일죽면 송천리 15-2번지 2층","indutype":"일반휴게음식 - 주점","category":"restaurant"},{"name":"환상의성","tel":"031-672-5027","addr":"경기도 안성시 일죽면 송천리 15-2번지","indutype":"일반휴게음식 - 일반한식","category":"restaurant"}]},{"lat":"37.093180992","long":"127.47862867","imageIndex":4,"items":[{"name":"비틀즈","tel":"031-677-2496","addr":"경기도 안성시 일죽면 송천리 15-10번지 1층","indutype":"일반휴게음식 - 일반한식","category":"restaurant"}]},{"lat":"37.093012908","long":"127.47785151","imageIndex":4,"items":[{"name":"빙그레스넥","tel":"031-672-5078","addr":"경기도 안성시 일죽면 송천리 18-2","indutype":"일반휴게음식 - 스넥","category":"restaurant"}]},{"lat":"37.089543311","long":"127.47573784","imageIndex":4,"items":[{"name":"뼈마을감자탕","tel":"031-676-3938","addr":"경기도 안성시 일죽면 송천리 230-4번지","indutype":"일반휴게음식 - 일반한식","category":"restaurant"}]},{"lat":"37.093159177","long":"127.47957336","imageIndex":4,"items":[{"name":"뿌리식당","tel":"031-673-2587","addr":"경기도 안성시 일죽면 송천리 10-3번지 1층","indutype":"일반휴게음식 - 일반한식","category":"restaurant"}]},{"lat":"37.093819184","long":"127.47901509","imageIndex":4,"items":[{"name":"삼색칼국수","tel":"031-674-0690","addr":"경기도 안성시 일죽면 송천리 6-1번지","indutype":"일반휴게음식 - 일반한식","category":"restaurant"}]},{"lat":"37.093822974","long":"127.47807028","imageIndex":4,"items":[{"name":"삼성원식당","tel":"031-672-5070","addr":"경기도 안성시 일죽면 송천리 28-12번지","indutype":"일반휴게음식 - 일반한식","category":"restaurant"}]},{"lat":"37.092542572","long":"127.47829849","imageIndex":4,"items":[{"name":"서경양꼬치","tel":"031-677-2778","addr":"경기도 안성시 일죽면 송천리 18-1번지 1층","indutype":"일반휴게음식 - 중국식","category":"restaurant"}]},{"lat":"37.088853016","long":"127.47485626","imageIndex":4,"items":[{"name":"솔밭가든","tel":"031-676-0369","addr":"경기도 안성시 일죽면 송천리 225번지 1층 우호","indutype":"일반휴게음식 - 일반한식","category":"restaurant"}]},{"lat":"37.094296952","long":"127.47671222","imageIndex":4,"items":[{"name":"스토리","tel":"031-675-8905","addr":"경기도 안성시 일죽면 송천리 33-5번지 1층 우측호","indutype":"일반휴게음식 - 서양음식","category":"restaurant"}]},{"lat":"37.093043491","long":"127.4792127","imageIndex":4,"items":[{"name":"아이벗치킨","tel":"031-673-7249","addr":"경기도 안성시 일죽면 송천리 13-7번지","indutype":"일반휴게음식 - 스넥","category":"restaurant"}]},{"lat":"37.093047597","long":"127.47818917","imageIndex":4,"items":[{"name":"아지트","tel":"031-674-0376","addr":"경기도 안성시 일죽면 송천리 18-24번지","indutype":"일반휴게음식 - 일반한식","category":"restaurant"}]},{"lat":"37.090382861","long":"127.4775989","imageIndex":4,"items":[{"name":"안성순대","tel":"031-677-7727","addr":"경기도 안성시 일죽면 송천리 255-19번지","indutype":"일반휴게음식 - 일반한식","category":"restaurant"}]},{"lat":"37.093548426","long":"127.47912588","imageIndex":4,"items":[{"name":"연이네포차","tel":"031-675-8905","addr":"경기도 안성시 일죽면 송천리 5-13번지 1층","indutype":"일반휴게음식 - 일반한식","category":"restaurant"}]},{"lat":"37.093848336","long":"127.47848662","imageIndex":4,"items":[{"name":"영(0)시포차야식","tel":"031-674-9744","addr":"경기도 안성시 일죽면 송천리 5-4번지","indutype":"일반휴게음식 - 일반한식","category":"restaurant"}]},{"lat":"37.089933654","long":"127.47726992","imageIndex":4,"items":[{"name":"오래","tel":"031-675-6164","addr":"경기도 안성시 일죽면 송천리 256-18번지","indutype":"일반휴게음식 - 일반한식","category":"restaurant"}]},{"lat":"37.089348752","long":"127.47707507","imageIndex":4,"items":[{"name":"오리명가","tel":"031-671-5448","addr":"경기도 안성시 일죽면 송천리 256-14번지","indutype":"일반휴게음식 - 일반한식","category":"restaurant"},{"name":"오리명가","tel":"031-672-5448","addr":"경기도 안성시 일죽면 송천리 256-14","indutype":"일반휴게음식 - 일반한식","category":"restaurant"},{"name":"타임","tel":"031-672-9897","addr":"경기도 안성시 일죽면 송천리 256-14번지","indutype":"일반휴게음식 - 주점","category":"restaurant"}]},{"lat":"37.093407811","long":"127.47598681","imageIndex":4,"items":[{"name":"와우소문난감자탕일죽점","tel":"031-672-5129","addr":"경기도 안성시 일죽면 송천리 45번지","indutype":"일반휴게음식 - 일반한식","category":"restaurant"}]},{"lat":"37.093627856","long":"127.47729295","imageIndex":4,"items":[{"name":"요거프레소 일죽터미널점","tel":"031-673-5865","addr":"경기도 안성시 일죽면 송천리 21-6번지 1층","indutype":"일반휴게음식 - 서양음식","category":"restaurant"},{"name":"터미널식당","tel":"031-676-5388","addr":"경기도 안성시 일죽면 송천리 21-6번지 1층","indutype":"일반휴게음식 - 일반한식","category":"restaurant"}]},{"lat":"37.092626683","long":"127.47754541","imageIndex":4,"items":[{"name":"우렁쌈밥","tel":"031-673-4880","addr":"경기도 안성시 일죽면 송천리 19-8번지","indutype":"일반휴게음식 - 일반한식","category":"restaurant"}]},{"lat":"37.093907389","long":"127.47948806","imageIndex":4,"items":[{"name":"우리동네포차","tel":"031-673-8510","addr":"경기도 안성시 일죽면 송천리 7-1번지","indutype":"일반휴게음식 - 일반한식","category":"restaurant"}]},{"lat":"37.086851369","long":"127.46604867","imageIndex":4,"items":[{"name":"일죽IC풍천장어","tel":"031-674-7978","addr":"경기도 안성시 일죽면 송천리 447번지","indutype":"일반휴게음식 - 일반한식","category":"restaurant"}]},{"lat":"37.093875132","long":"127.47629341","imageIndex":4,"items":[{"name":"일죽양돈영농조합법인","tel":"031-672-8722","addr":"경기도 안성시 일죽면 송천리 23-6번지","indutype":"일반휴게음식 - 일반한식","category":"restaurant"},{"name":"일죽한돈회관","tel":"031-674-1335","addr":"경기도 안성시 일죽면 송천리 23-6번지","indutype":"일반휴게음식 - 일반한식","category":"restaurant"}]},{"lat":"37.093909738","long":"127.47890318","imageIndex":4,"items":[{"name":"일죽회관","tel":"031-672-8721","addr":"경기도 안성시 일죽면 송천리 5-1","indutype":"일반휴게음식 - 일반한식","category":"restaurant"}]},{"lat":"37.085874842","long":"127.46921435","imageIndex":4,"items":[{"name":"전주동태전골낙지철판","tel":"031-672-0570","addr":"경기도 안성시 일죽면 송천리 425-2번지 가동 1층","indutype":"일반휴게음식 - 일반한식","category":"restaurant"}]},{"lat":"37.093576986","long":"127.47649402","imageIndex":4,"items":[{"name":"정가네뽈찜","tel":"031-672-8894","addr":"경기도 안성시 일죽면 송천리 44-3","indutype":"일반휴게음식 - 일반한식","category":"restaurant"}]},{"lat":"37.092292629","long":"127.47771204","imageIndex":4,"items":[{"name":"좋은친구들","tel":"031-672-0603","addr":"경기도 안성시 일죽면 송천리 245-33번지","indutype":"일반휴게음식 - 주점","category":"restaurant"}]},{"lat":"37.089411059","long":"127.47726666","imageIndex":4,"items":[{"name":"차이야기","tel":"031-672-5977","addr":"경기도 안성시 일죽면 송천리 256-13번지","indutype":"일반휴게음식 - 일반한식","category":"restaurant"}]},{"lat":"37.090988865","long":"127.47021298","imageIndex":4,"items":[{"name":"채플린","tel":"031-671-8311","addr":"경기도 안성시 일죽면 송천리 478-3번지 1층 우측호","indutype":"일반휴게음식 - 주점","category":"restaurant"}]},{"lat":"37.092766746","long":"127.47856984","imageIndex":4,"items":[{"name":"청솔마당","tel":"031-674-6080","addr":"경기도 안성시 일죽면 송천리 18-9번지","indutype":"일반휴게음식 - 일반한식","category":"restaurant"}]},{"lat":"37.091154636","long":"127.46930294","imageIndex":4,"items":[{"name":"청학동냉면","tel":"031-603-0392","addr":"경기도 안성시 일죽면 송천리 480-5","indutype":"일반휴게음식 - 일반한식","category":"restaurant"}]},{"lat":"37.091741967","long":"127.4779673","imageIndex":4,"items":[{"name":"추억거리","tel":"031-672-7658","addr":"경기도 안성시 일죽면 송천리 249-9번지","indutype":"일반휴게음식 - 일반한식","category":"restaurant"}]},{"lat":"37.093489099","long":"127.47819192","imageIndex":4,"items":[{"name":"커피마마 일죽점","tel":"031-672-6905","addr":"경기도 안성시 일죽면 송천리 20-7번지 1층 우측 2,3호","indutype":"일반휴게음식 - 서양음식","category":"restaurant"}]},{"lat":"37.093410349","long":"127.47760654","imageIndex":4,"items":[{"name":"한잔어때","tel":"031-674-6665","addr":"경기도 안성시 일죽면 송천리 15-24번지","indutype":"일반휴게음식 - 주점","category":"restaurant"}]},{"lat":"37.092543789","long":"127.4779948","imageIndex":4,"items":[{"name":"한진식당","tel":"031-673-6890","addr":"경기도 안성시 일죽면 송천리 18-31번지","indutype":"일반휴게음식 - 일반한식","category":"restaurant"}]},{"lat":"37.089770898","long":"127.47515438","imageIndex":4,"items":[{"name":"호반닭갈비","tel":"031-677-3581","addr":"경기도 안성시 일죽면 송천리 231-6번지 1층","indutype":"일반휴게음식 - 일반한식","category":"restaurant"}]}]