[{"lat":"37.012994101","long":"127.23438204","imageIndex":17,"items":[{"name":"(사)안성청년회의소","tel":"031-675-4709","addr":"경기도 안성시 대덕면 건지리 385-4번지","indutype":"기타 - 비영리/비대상","category":"other"},{"name":"(사)안성청년회의소","tel":"031-675-4709","addr":"경기도 안성시 대덕면 건지리 385-4번지","indutype":"기타 - 비영리/비대상","category":"other"}]},{"lat":"37.013136585","long":"127.23059586","imageIndex":17,"items":[{"name":"(주)세종라이팅","tel":"031-671-5060","addr":"경기도 안성시 대덕면 건지리 380-11번지","indutype":"건축자재 - 조명기구","category":"other"},{"name":"비타스","tel":"031-757-1190","addr":"경기도 안성시 대덕면 건지리 380-11번지","indutype":"전기제품 - 가전제품","category":"other"}]},{"lat":"37.011269783","long":"127.24060153","imageIndex":17,"items":[{"name":"(주)에이스렌터카","tel":"070-4239-6794","addr":"경기도 안성시 대덕면 건지리 459번지","indutype":"여행 - 렌터카","category":"other"}]},{"lat":"37.022327468","long":"127.23979316","imageIndex":17,"items":[{"name":"(주)케이엠지","tel":"031-674-0188","addr":"경기도 안성시 대덕면 건지리 187-1번지 1층","indutype":"의류 - 정장","category":"other"}]},{"lat":"37.020713083","long":"127.23598992","imageIndex":17,"items":[{"name":"(주)한창엔프라/원격지","tel":"031-675-7661","addr":"경기도 안성시 대덕면 건지리 189-2","indutype":"기타 - 기타 전문점","category":"other"}]},{"lat":"37.012018382","long":"127.24024431","imageIndex":17,"items":[{"name":"거성하이테크","tel":"031-676-0073","addr":"경기도 안성시 대덕면 건지리 463-5번지 1층","indutype":"용역 서비스 - 기타용역서비스","category":"other"}]},{"lat":"37.020135566","long":"127.23641517","imageIndex":17,"items":[{"name":"나래공방","tel":"070-8991-4663","addr":"경기도 안성시 대덕면 건지리 194-5번지 대원빌라 나동 101호","indutype":"문화.취미 - 문화취미기타","category":"other"}]},{"lat":"37.013302828","long":"127.23776509","imageIndex":17,"items":[{"name":"다니엘가구","tel":"031-671-0438","addr":"경기도 안성시 대덕면 건지리 328-1번지 1층","indutype":"가구 - 일반가구","category":"other"},{"name":"아울렛종합가구","tel":"031-674-1923","addr":"경기도 안성시 대덕면 건지리 328-1번지","indutype":"가구 - 일반가구","category":"other"}]},{"lat":"37.017691612","long":"127.23746396","imageIndex":17,"items":[{"name":"다오레 가구 아울렛","tel":"031-674-3088","addr":"경기도 안성시 대덕면 건지리 211-5번지","indutype":"가구 - 일반가구","category":"other"}]},{"lat":"37.010692609","long":"127.24084692","imageIndex":17,"items":[{"name":"동보배관","tel":"031-674-5680","addr":"경기도 안성시 대덕면 건지리 456-1번지","indutype":"건축자재 - 보일러·펌프·샷시","category":"other"},{"name":"동보배관","tel":"031-674-5680","addr":"경기도 안성시 대덕면 건지리 456-1번지","indutype":"주방용구 - 정수기","category":"other"},{"name":"한길정보통신","tel":"031-675-8388","addr":"경기도 안성시 대덕면 건지리 456-1번지","indutype":"사무통신 - 통신기기","category":"other"}]},{"lat":"37.012715057","long":"127.23423512","imageIndex":17,"items":[{"name":"레위가구","tel":"031-674-3425","addr":"경기도 안성시 대덕면 건지리 388-4번지","indutype":"가구 - 일반가구","category":"other"}]},{"lat":"37.0130472","long":"127.23487659","imageIndex":17,"items":[{"name":"바커노이슨코리아","tel":"043-530-3301","addr":"경기도 안성시 대덕면 건지리 388-7번지","indutype":"기타 - 기계공구","category":"other"}]},{"lat":"37.013192181","long":"127.23446129","imageIndex":17,"items":[{"name":"벽과창,이대현한복","tel":"031-675-2199","addr":"경기도 안성시 대덕면 건지리 388-3번지 2층","indutype":"직물 - 카페트,커튼,천막,지물","category":"other"},{"name":"알레르망","tel":"031-675-2199","addr":"경기도 안성시 대덕면 건지리 388-3번지","indutype":"직물 - 침구·수예점","category":"other"}]},{"lat":"37.013276292","long":"127.23291095","imageIndex":17,"items":[{"name":"벽창호커텐","tel":"031-675-4314","addr":"경기도 안성시 대덕면 건지리 382-4번지","indutype":"직물 - 카페트,커튼,천막,지물","category":"other"}]},{"lat":"37.012826465","long":"127.23715687","imageIndex":17,"items":[{"name":"성광전기","tel":"031-676-1231","addr":"경기도 안성시 대덕면 건지리 420-3번지","indutype":"용역 서비스 - 기타용역서비스","category":"other"}]},{"lat":"37.012801315","long":"127.24074113","imageIndex":17,"items":[{"name":"세븐일레븐안성건지리점","tel":"031-1577-0711","addr":"경기도 안성시 대덕면 건지리 305-2번지","indutype":"유통업 영리 - 편 의 점","category":"other"}]},{"lat":"37.013081701","long":"127.23102267","imageIndex":17,"items":[{"name":"세븐일레븐안성대덕로드점","tel":"","addr":"경기도 안성시 대덕면 건지리 380-10번지","indutype":"유통업 영리 - 편 의 점","category":"other"}]},{"lat":"37.012354508","long":"127.23887455","imageIndex":17,"items":[{"name":"씨스페이스 안성대덕점","tel":"","addr":"경기도 안성시 대덕면 건지리 429-5번지 1층","indutype":"유통업 영리 - 편 의 점","category":"other"}]},{"lat":"37.013714577","long":"127.23457524","imageIndex":17,"items":[{"name":"아이삭홀딩스","tel":"070-7561-9561","addr":"경기도 안성시 대덕면 건지리 355-1번지 B동 104호","indutype":"전기제품 - 가전제품","category":"other"}]},{"lat":"37.012721456","long":"127.2401229","imageIndex":17,"items":[{"name":"아이엔지행정사무소","tel":"031-675-8426","addr":"경기도 안성시 대덕면 건지리 309-5번지","indutype":"용역 서비스 - 법률회계서비스(개인)","category":"other"},{"name":"영지대학교심리상담 연구소","tel":"031-672-1414","addr":"경기도 안성시 대덕면 건지리 309-5번지 신관 1동 오른쪽층","indutype":"서적문구 - 기타서적문구","category":"other"}]},{"lat":"37.012749206","long":"127.23976342","imageIndex":17,"items":[{"name":"안성로타리클럽","tel":"031-675-8432","addr":"경기도 안성시 대덕면 건지리 309-1번지","indutype":"기타 - 비영리/대상","category":"other"}]},{"lat":"37.013909466","long":"127.23165438","imageIndex":17,"items":[{"name":"안성악기사","tel":"031-672-7765","addr":"경기도 안성시 대덕면 건지리 373-1번지","indutype":"레져용품 - 악기점","category":"other"},{"name":"안성영창피아노","tel":"031-675-7798","addr":"경기도 안성시 대덕면 건지리 373-1번지","indutype":"레져용품 - 피아노대리점","category":"other"}]},{"lat":"37.012132522","long":"127.24173906","imageIndex":17,"items":[{"name":"애니컴퓨터","tel":"031-000-0000","addr":"경기도 안성시 대덕면 건지리 465-8번지 유석빌리지 401호","indutype":"사무통신 - 컴퓨터","category":"other"}]},{"lat":"37.011970125","long":"127.23732278","imageIndex":17,"items":[{"name":"양지어린이집","tel":"031-674-4522","addr":"경기도 안성시 대덕면 건지리 424번지","indutype":"기타 - 비영리/비대상","category":"other"}]},{"lat":"37.013908447","long":"127.23218249","imageIndex":17,"items":[{"name":"에이스스크린골프장","tel":"031-671-6776","addr":"경기도 안성시 대덕면 건지리 371-1 371-6","indutype":"회원제형태 - 레져업소","category":"other"}]},{"lat":"37.011636374","long":"127.24201841","imageIndex":17,"items":[{"name":"우림조경건설 주식회사","tel":"031-675-0046","addr":"경기도 안성시 대덕면 건지리 466-3번지 1층","indutype":"건축자재 - 인테리어전문","category":"other"}]},{"lat":"37.013828847","long":"127.23140694","imageIndex":17,"items":[{"name":"중앙계량소","tel":"031-676-8889","addr":"경기도 안성시 대덕면 건지리 374-1번지","indutype":"용역 서비스 - 사무서비스","category":"other"}]},{"lat":"37.013803607","long":"127.23512609","imageIndex":17,"items":[{"name":"평야타일","tel":"031-673-4515","addr":"경기도 안성시 대덕면 건지리 353-5번지","indutype":"건축자재 - 건축용 요업제품","category":"other"}]}]