[{"lat":"37.297067144","long":"127.2245127","imageIndex":0,"items":[{"name":"(주)아트라스비엑스모터스포츠","tel":"031-334-5804","addr":"경기도 용인시 처인구 포곡읍 유운리 138-2번지 1층","indutype":"자동차정비 유지 - 자동차정비","category":"car"}]},{"lat":"37.269376835","long":"127.21568274","imageIndex":0,"items":[{"name":"1석3조카센타","tel":"031-321-5211","addr":"경기도 용인시 처인구 포곡읍 둔전리 12-20번지","indutype":"자동차정비 유지 - 자동차정비","category":"car"}]},{"lat":"37.276515818","long":"127.1983502","imageIndex":0,"items":[{"name":"EDITION(에디션)","tel":"","addr":"경기도 용인시 처인구 포곡읍 마성리 44-1번지","indutype":"자동차정비 유지 - 자동차부품","category":"car"}]},{"lat":"37.296347126","long":"127.21920982","imageIndex":0,"items":[{"name":"GHP용인점","tel":"031-321-4884","addr":"경기도 용인시 처인구 포곡읍 유운리 343-4번지","indutype":"자동차정비 유지 - 자동차부품","category":"car"}]},{"lat":"37.29713","long":"127.2197647","imageIndex":0,"items":[{"name":"LUXON","tel":"031-336-6759","addr":"경기도 용인시 처인구 포곡읍 유운리346-3","indutype":"자동차정비 유지 - 자동차부품","category":"car"}]},{"lat":"37.298150912","long":"127.22315118","imageIndex":0,"items":[{"name":"R-TECH","tel":"031-335-3012","addr":"경기도 용인시 처인구 포곡읍 유운리321-9","indutype":"자동차정비 유지 - 자동차부품","category":"car"}]},{"lat":"37.272328195","long":"127.21790088","imageIndex":0,"items":[{"name":"SJ아트","tel":"070-8171-9655","addr":"경기도 용인시 처인구 포곡읍 둔전리 171-2번지 대두타운 106호","indutype":"자동차정비 유지 - 카인테리어","category":"car"}]},{"lat":"37.296020175","long":"127.22061866","imageIndex":0,"items":[{"name":"SL모터스포츠","tel":"","addr":"경기도 용인시 처인구 포곡읍 유운리 369-2번지","indutype":"자동차판매 - 기타운송","category":"car"}]},{"lat":"37.270576758","long":"127.21978999","imageIndex":0,"items":[{"name":"거산상사","tel":"031-336-7642","addr":"경기도 용인시 처인구 포곡읍 둔전리190-1","indutype":"자동차정비 유지 - 자동차부품","category":"car"}]},{"lat":"37.31365611","long":"127.21901123","imageIndex":0,"items":[{"name":"그리드","tel":"031-286-2501","addr":"경기도 용인시 처인구 포곡읍 신원리 253-11번지 가동","indutype":"자동차정비 유지 - 카인테리어","category":"car"},{"name":"그리드","tel":"031-286-2501","addr":"경기도 용인시 처인구 포곡읍 신원리 253-11번지 가동","indutype":"자동차정비 유지 - 카인테리어","category":"car"}]},{"lat":"37.294291587","long":"127.22473012","imageIndex":0,"items":[{"name":"그리핀모터스","tel":"070-7578-2599","addr":"경기도 용인시 처인구 포곡읍 유운리 79-4","indutype":"자동차판매 - 기타운송","category":"car"},{"name":"좋은친구들","tel":"070-4082-5869","addr":"경기도 용인시 처인구 포곡읍 유운리 79-4번지","indutype":"자동차정비 유지 - 자동차부품","category":"car"}]},{"lat":"37.286456977","long":"127.21751255","imageIndex":0,"items":[{"name":"기업카독크","tel":"031-332-0861","addr":"경기도 용인시 처인구 포곡읍 전대리191-51","indutype":"자동차정비 유지 - 자동차정비","category":"car"}]},{"lat":"37.279876652","long":"127.22395488","imageIndex":0,"items":[{"name":"동영자동차정비공업사","tel":"031-339-0904","addr":"경기도 용인시 처인구 포곡읍 전대리 110-3번지","indutype":"자동차정비 유지 - 자동차정비","category":"car"}]},{"lat":"37.270217112","long":"127.21937181","imageIndex":0,"items":[{"name":"둔전오토바이","tel":"031-333-9186","addr":"경기도 용인시 처인구 포곡읍 둔전리 190-6번지","indutype":"자동차판매 - 이륜차판매","category":"car"}]},{"lat":"37.31279407","long":"127.21739562","imageIndex":0,"items":[{"name":"맥가이버만물","tel":"031-334-8988","addr":"경기도 용인시 처인구 포곡읍 신원리 472-4번지 1층","indutype":"자동차정비 유지 - 카인테리어","category":"car"}]},{"lat":"37.306042411","long":"127.22392993","imageIndex":0,"items":[{"name":"명성공업사","tel":"031-322-8187","addr":"경기도 용인시 처인구 포곡읍 신원리 40-3","indutype":"자동차정비 유지 - 자동차시트·타이어","category":"car"}]},{"lat":"37.303679096","long":"127.2347286","imageIndex":0,"items":[{"name":"모터스피드","tel":"031-332-0502","addr":"경기도 용인시 처인구 포곡읍 삼계리 59-3번지 주성프라자 1층","indutype":"자동차정비 유지 - 자동차부품","category":"car"}]},{"lat":"37.295822322","long":"127.22526468","imageIndex":0,"items":[{"name":"바이퍼샵","tel":"031-000-0000","addr":"경기도 용인시 처인구 포곡읍 유운리 103-2번지 나동","indutype":"자동차정비 유지 - 자동차부품","category":"car"}]},{"lat":"37.2868181","long":"127.21711889","imageIndex":0,"items":[{"name":"버스마트,만물,앰프","tel":"031-323-2239","addr":"경기도 용인시 처인구 포곡읍 전대리 357-1번지 2층","indutype":"자동차정비 유지 - 자동차부품","category":"car"}]},{"lat":"37.300432135","long":"127.23178614","imageIndex":0,"items":[{"name":"북수원적재함","tel":"031-296-7702","addr":"경기도 용인시 처인구 포곡읍 유운리 11-3번지","indutype":"자동차정비 유지 - 자동차부품","category":"car"}]},{"lat":"37.315682342","long":"127.21959237","imageIndex":0,"items":[{"name":"브이에이지(VAG)","tel":"031-338-5639","addr":"경기도 용인시 처인구 포곡읍 신원리223-4","indutype":"자동차정비 유지 - 자동차부품","category":"car"}]},{"lat":"37.308931458","long":"127.22565297","imageIndex":0,"items":[{"name":"블루 스페이스쉽(Blue Spaceship)","tel":"","addr":"경기도 용인시 처인구 포곡읍 신원리 145-2번지","indutype":"자동차정비 유지 - 자동차부품","category":"car"}]},{"lat":"37.311787386","long":"127.22097997","imageIndex":0,"items":[{"name":"성공모터스","tel":"031-334-5677","addr":"경기도 용인시 처인구 포곡읍 신원리 299-5번지 3동","indutype":"자동차정비 유지 - 자동차시트·타이어","category":"car"}]},{"lat":"37.305456329","long":"127.22415381","imageIndex":0,"items":[{"name":"스토머레이싱","tel":"031-333-0551","addr":"경기도 용인시 처인구 포곡읍 신원리34-19","indutype":"자동차정비 유지 - 자동차정비","category":"car"}]},{"lat":"37.301517298","long":"127.23439487","imageIndex":0,"items":[{"name":"신경방3급자동차공업사","tel":"031-322-9285","addr":"경기도 용인시 처인구 포곡읍 삼계리 62-8번지","indutype":"자동차정비 유지 - 자동차정비","category":"car"},{"name":"차사랑모터스","tel":"031-322-9285","addr":"경기도 용인시 처인구 포곡읍 삼계리 62-8번지","indutype":"자동차정비 유지 - 자동차정비","category":"car"}]},{"lat":"37.28254358","long":"127.23345721","imageIndex":0,"items":[{"name":"신중앙세차장","tel":"031-332-0177","addr":"경기도 용인시 처인구 포곡읍 삼계리 479-26","indutype":"자동차정비 유지 - 세차장","category":"car"},{"name":"신중앙자동차부분정비공업사","tel":"031-332-3020","addr":"경기도 용인시 처인구 포곡읍 삼계리479-26","indutype":"자동차정비 유지 - 자동차정비","category":"car"}]},{"lat":"37.312099817","long":"127.21765311","imageIndex":0,"items":[{"name":"알지오(RGO)","tel":"070-7951-8851","addr":"경기도 용인시 처인구 포곡읍 신원리 471-5번지","indutype":"자동차정비 유지 - 자동차부품","category":"car"},{"name":"지피엑스 (GPX)","tel":"031-000-0000","addr":"경기도 용인시 처인구 포곡읍 신원리 471-5번지","indutype":"자동차정비 유지 - 자동차부품","category":"car"},{"name":"케이스메이커","tel":"031-637-7759","addr":"경기도 용인시 처인구 포곡읍 신원리 471-5번지","indutype":"자동차정비 유지 - 자동차부품","category":"car"}]},{"lat":"37.286485171","long":"127.21686986","imageIndex":0,"items":[{"name":"애버만물","tel":"031-333-9520","addr":"경기도 용인시 처인구 포곡읍 전대리 356-3번지 2층(358-3)","indutype":"자동차정비 유지 - 카인테리어","category":"car"},{"name":"해피버스","tel":"031-333-4399","addr":"경기도 용인시 처인구 포곡읍 전대리 356-3번지 2층","indutype":"자동차정비 유지 - 자동차부품","category":"car"}]},{"lat":"37.286601447","long":"127.21734381","imageIndex":0,"items":[{"name":"에버부여만물","tel":"031-335-9973","addr":"경기도 용인시 처인구 포곡읍 전대리 191-50번지","indutype":"자동차정비 유지 - 자동차부품","category":"car"},{"name":"진사운드만물","tel":"031-332-6036","addr":"경기도 용인시 처인구 포곡읍 전대리 191-50번지","indutype":"자동차정비 유지 - 자동차부품","category":"car"}]},{"lat":"37.285684404","long":"127.2162361","imageIndex":0,"items":[{"name":"에버셀프손세차","tel":"031-334-8724","addr":"경기도 용인시 처인구 포곡읍 전대리370-1","indutype":"자동차정비 유지 - 세차장","category":"car"}]},{"lat":"37.283378619","long":"127.22556636","imageIndex":0,"items":[{"name":"에스에스컴퍼니","tel":"070-7786-0979","addr":"경기도 용인시 처인구 포곡읍 전대리 64-35번지","indutype":"자동차정비 유지 - 자동차시트·타이어","category":"car"}]},{"lat":"37.295353115","long":"127.2256242","imageIndex":0,"items":[{"name":"에스에이치테크","tel":"031-328-7031","addr":"경기도 용인시 처인구 포곡읍 유운리 101번지","indutype":"자동차정비 유지 - 자동차정비","category":"car"}]},{"lat":"37.281213935","long":"127.22192912","imageIndex":0,"items":[{"name":"에이스모터스","tel":"031-322-5752","addr":"경기도 용인시 처인구 포곡읍 전대리 132-5번지","indutype":"자동차정비 유지 - 자동차부품","category":"car"}]},{"lat":"37.276300318","long":"127.22834176","imageIndex":0,"items":[{"name":"영동종합카센타","tel":"031-339-2788","addr":"경기도 용인시 처인구 포곡읍 둔전리 84-7번지","indutype":"자동차정비 유지 - 세차장","category":"car"}]},{"lat":"37.296601477","long":"127.22297749","imageIndex":0,"items":[{"name":"영오토","tel":"031-339-0467","addr":"경기도 용인시 처인구 포곡읍 유운리 86-7번지","indutype":"자동차정비 유지 - 자동차정비","category":"car"}]},{"lat":"37.266158452","long":"127.22639499","imageIndex":0,"items":[{"name":"오토월드","tel":"031-333-5131","addr":"경기도 용인시 처인구 포곡읍 금어리 722-17","indutype":"자동차정비 유지 - 자동차정비","category":"car"}]},{"lat":"37.29809748","long":"127.22281267","imageIndex":0,"items":[{"name":"움모터스포츠(UM)","tel":"070-4123-6363","addr":"경기도 용인시 처인구 포곡읍 유운리 321-5번지","indutype":"자동차정비 유지 - 자동차부품","category":"car"}]},{"lat":"37.279355353","long":"127.23273711","imageIndex":0,"items":[{"name":"워크스","tel":"031-339-9373","addr":"경기도 용인시 처인구 포곡읍 삼계리557-9","indutype":"자동차정비 유지 - 자동차정비","category":"car"}]},{"lat":"37.312624519","long":"127.22142234","imageIndex":0,"items":[{"name":"원레이싱","tel":"031-338-0852","addr":"경기도 용인시 처인구 포곡읍 신원리 295","indutype":"자동차정비 유지 - 자동차부품","category":"car"}]},{"lat":"37.268823432","long":"127.22268241","imageIndex":0,"items":[{"name":"유로커먼레일","tel":"031-322-0972","addr":"경기도 용인시 처인구 포곡읍 둔전리 123-4번지","indutype":"자동차정비 유지 - 자동차부품","category":"car"},{"name":"혁진카센타","tel":"031-335-0951","addr":"경기도 용인시 처인구 포곡읍 둔전리 123-4","indutype":"자동차정비 유지 - 자동차정비","category":"car"}]},{"lat":"37.303961","long":"127.22395768","imageIndex":0,"items":[{"name":"유운자동차정비공업사","tel":"031-332-0330","addr":"경기도 용인시 처인구 포곡읍 유운리239-1","indutype":"자동차정비 유지 - 자동차정비","category":"car"}]},{"lat":"37.283045936","long":"127.22034448","imageIndex":0,"items":[{"name":"장오카인테리어","tel":"031-333-4179","addr":"경기도 용인시 처인구 포곡읍 전대리 139-6번지","indutype":"자동차정비 유지 - 카인테리어","category":"car"}]},{"lat":"37.270043632","long":"127.21566207","imageIndex":0,"items":[{"name":"정현서비스","tel":"","addr":"경기도 용인시 처인구 포곡읍 둔전리 12번지 다복빌라 201동 402호","indutype":"자동차정비 유지 - 세차장","category":"car"}]},{"lat":"37.266544715","long":"127.23172863","imageIndex":0,"items":[{"name":"제이엘오토","tel":"031-335-4977","addr":"경기도 용인시 처인구 포곡읍 금어리 620-4번지 2동 1층","indutype":"자동차정비 유지 - 자동차부품","category":"car"}]},{"lat":"37.271128318","long":"127.21873178","imageIndex":0,"items":[{"name":"제일카(빵구)","tel":"031-334-5941","addr":"경기도 용인시 처인구 포곡읍 둔전리 187-4","indutype":"자동차정비 유지 - 자동차정비","category":"car"}]},{"lat":"37.267742086","long":"127.21281456","imageIndex":0,"items":[{"name":"주식회사 백향이앤씨","tel":"032-250-7050","addr":"경기도 용인시 처인구 포곡읍 둔전리 406-51번지 인정멜로디 상가 3층 305호","indutype":"자동차정비 유지 - 주차장","category":"car"}]},{"lat":"37.285624401","long":"127.20942485","imageIndex":0,"items":[{"name":"주식회사 앰코리아","tel":"031-000-0000","addr":"경기도 용인시 처인구 포곡읍 전대리 453번지","indutype":"자동차정비 유지 - 자동차부품","category":"car"}]},{"lat":"37.271460317","long":"127.21948812","imageIndex":0,"items":[{"name":"주식회사 우성엘앤에스","tel":"031-321-1151","addr":"경기도 용인시 처인구 포곡읍 둔전리 184-7번지 (비04호(글로벌타운))","indutype":"자동차정비 유지 - 자동차부품","category":"car"}]},{"lat":"37.269659457","long":"127.18682147","imageIndex":0,"items":[{"name":"주식회사 제이테크","tel":"031-336-3261","addr":"경기도 용인시 처인구 포곡읍 마성리 375-2번지 1층.2층","indutype":"자동차정비 유지 - 자동차부품","category":"car"}]},{"lat":"37.29665692","long":"127.22223329","imageIndex":0,"items":[{"name":"주식회사미산","tel":"031-333-0162","addr":"경기도 용인시 처인구 포곡읍 유운리 362-6번지","indutype":"자동차정비 유지 - 자동차부품","category":"car"}]},{"lat":"37.280683583","long":"127.18965599","imageIndex":0,"items":[{"name":"주식회사인모션모터스","tel":"031-338-8216","addr":"경기도 용인시 처인구 포곡읍 마성리 172-6번지","indutype":"자동차정비 유지 - 자동차부품","category":"car"}]},{"lat":"37.298235972","long":"127.22100851","imageIndex":0,"items":[{"name":"주식회사케이엠에스에이","tel":"031-332-3725","addr":"경기도 용인시 처인구 포곡읍 유운리323-2","indutype":"자동차정비 유지 - 가타자동차서비스","category":"car"},{"name":"펠롭스","tel":"031-322-8909","addr":"경기도 용인시 처인구 포곡읍 유운리 323-2","indutype":"자동차정비 유지 - 자동차정비","category":"car"}]},{"lat":"37.267523656","long":"127.21404281","imageIndex":0,"items":[{"name":"창유상사","tel":"031-339-6371","addr":"경기도 용인시 처인구 포곡읍 둔전리 405-19번지 대두 상가 101호","indutype":"자동차정비 유지 - 자동차부품","category":"car"}]},{"lat":"37.272132831","long":"127.22126016","imageIndex":0,"items":[{"name":"카메이크업","tel":"031-338-8755","addr":"경기도 용인시 처인구 포곡읍 둔전리 197-10번지","indutype":"자동차정비 유지 - 자동차정비","category":"car"}]},{"lat":"37.280264911","long":"127.22351626","imageIndex":0,"items":[{"name":"카배터리마트","tel":"031-332-5293","addr":"경기도 용인시 처인구 포곡읍 전대리 110-5번지","indutype":"자동차정비 유지 - 자동차부품","category":"car"}]},{"lat":"37.274934843","long":"127.20618226","imageIndex":0,"items":[{"name":"케이제이오토파츠","tel":"031-323-3246","addr":"경기도 용인시 처인구 포곡읍 영문리 81-3번지","indutype":"자동차정비 유지 - 자동차부품","category":"car"}]},{"lat":"37.282403838","long":"127.2264543","imageIndex":0,"items":[{"name":"코리아 칼라","tel":"031-322-6587","addr":"경기도 용인시 처인구 포곡읍 전대리 90-1번지","indutype":"자동차정비 유지 - 카인테리어","category":"car"}]},{"lat":"37.286463518","long":"127.2332098","imageIndex":0,"items":[{"name":"코리아현대모터스","tel":"031-333-6503","addr":"경기도 용인시 처인구 포곡읍 삼계리 407-5번지","indutype":"자동차정비 유지 - 자동차부품","category":"car"},{"name":"힘쎈지게차렌탈","tel":"","addr":"경기도 용인시 처인구 포곡읍 삼계리 407-5번지 1층","indutype":"자동차판매 - 기타운송","category":"car"}]},{"lat":"37.29601411","long":"127.23334042","imageIndex":0,"items":[{"name":"타이어세븐","tel":"031-323-3077","addr":"경기도 용인시 처인구 포곡읍 삼계리 91-6","indutype":"자동차정비 유지 - 자동차시트·타이어","category":"car"}]},{"lat":"37.303436197","long":"127.23453611","imageIndex":0,"items":[{"name":"타이어크레프트","tel":"031-322-0516","addr":"경기도 용인시 처인구 포곡읍 삼계리 602-1번지","indutype":"자동차정비 유지 - 자동차시트·타이어","category":"car"}]},{"lat":"37.288130009","long":"127.21410037","imageIndex":0,"items":[{"name":"타이어테크 에버랜드점","tel":"031-332-7793","addr":"경기도 용인시 처인구 포곡읍 전대리 347-4번지","indutype":"자동차정비 유지 - 자동차시트·타이어","category":"car"}]},{"lat":"37.295321385","long":"127.2184287","imageIndex":0,"items":[{"name":"토보더블탑","tel":"031-333-1309","addr":"경기도 용인시 처인구 포곡읍 유운리383-4","indutype":"자동차정비 유지 - 자동차부품","category":"car"}]},{"lat":"37.312517458","long":"127.22084671","imageIndex":0,"items":[{"name":"토스디자인","tel":"070-4113-8462","addr":"경기도 용인시 처인구 포곡읍 신원리 296-1번지 1동 1층","indutype":"자동차정비 유지 - 자동차부품","category":"car"}]},{"lat":"37.269601989","long":"127.21573975","imageIndex":0,"items":[{"name":"토탈지게차","tel":"031-8097-6792","addr":"경기도 용인시 처인구 포곡읍 둔전리 12-8번지 다복빌라 103동 103호","indutype":"자동차판매 - 기타운송","category":"car"}]},{"lat":"37.269937342","long":"127.21961905","imageIndex":0,"items":[{"name":"틴트어카 용인포곡","tel":"031-322-8468","addr":"경기도 용인시 처인구 포곡읍 둔전리 191-9번지","indutype":"자동차정비 유지 - 카인테리어","category":"car"}]},{"lat":"37.295206949","long":"127.22186818","imageIndex":0,"items":[{"name":"팀오메가레이싱","tel":"031-332-6639","addr":"경기도 용인시 처인구 포곡읍 유운리363-3","indutype":"자동차정비 유지 - 자동차부품","category":"car"}]},{"lat":"37.272770493","long":"127.22237819","imageIndex":0,"items":[{"name":"포곡블랙박스","tel":"031-338-0915","addr":"경기도 용인시 처인구 포곡읍 둔전리 201-1번지 4호","indutype":"자동차정비 유지 - 자동차부품","category":"car"}]},{"lat":"37.283932356","long":"127.23284124","imageIndex":0,"items":[{"name":"포곡자동차공업사","tel":"031-333-0229","addr":"경기도 용인시 처인구 포곡읍 삼계리 399-9번지","indutype":"자동차정비 유지 - 자동차정비","category":"car"}]},{"lat":"37.272627206","long":"127.22190424","imageIndex":0,"items":[{"name":"포곡점기아오토큐","tel":"031-333-8022","addr":"경기도 용인시 처인구 포곡읍 둔전리202-6","indutype":"자동차정비 유지 - 자동차정비","category":"car"}]},{"lat":"37.277852528","long":"127.23176286","imageIndex":0,"items":[{"name":"한국지게차","tel":"","addr":"경기도 용인시 처인구 포곡읍 삼계리 666-20번지 아르세움 B02호","indutype":"자동차정비 유지 - 자동차시트·타이어","category":"car"}]},{"lat":"37.2722927","long":"127.2225121","imageIndex":0,"items":[{"name":"한국타이어더타이어샵포곡점","tel":"070-8879-2208","addr":"경기도 용인시 처인구 포곡읍 둔전리 200-8번지","indutype":"자동차정비 유지 - 자동차정비","category":"car"}]},{"lat":"37.298318998","long":"127.23422717","imageIndex":0,"items":[{"name":"현대중앙자동차공업사","tel":"031-332-0232","addr":"경기도 용인시 처인구 포곡읍 삼계리 79-7번지","indutype":"자동차정비 유지 - 자동차정비","category":"car"}]}]