[{"lat":"37.653794601","long":"126.78418422","imageIndex":7,"items":[{"name":"(주)드림파이","tel":"031-903-8235","addr":"경기도 고양시 일산동구 마두동 781-1번지","indutype":"음료식품 - 제과점","category":"food"},{"name":"알지 톡톡샵","tel":"","addr":"경기도 고양시 일산동구 마두동 781-1번지","indutype":"건강식품 - 기타건강식품","category":"food"},{"name":"일산마두현대 파리바게뜨","tel":"031-905-0063","addr":"경기도 고양시 일산동구 마두동 781-1번지","indutype":"음료식품 - 제과점","category":"food"},{"name":"주식회사 더농부앤숲","tel":"070-7779-7401","addr":"경기도 고양시 일산동구 마두동 781-1번지","indutype":"음료식품 - 기타음료식품","category":"food"},{"name":"큰아빠네반찬","tel":"031-932-5577","addr":"경기도 고양시 일산동구 마두동 781-1번지","indutype":"음료식품 - 기타음료식품","category":"food"}]},{"lat":"37.663823695","long":"126.78490282","imageIndex":7,"items":[{"name":"(주)선우엠티 앵거스박고기공장 일산점","tel":"031-906-2255","addr":"경기도 고양시 일산동구 마두동 855-2번지","indutype":"음료식품 - 정육점","category":"food"}]},{"lat":"37.651019404","long":"126.7792631","imageIndex":7,"items":[{"name":"21세기떡집","tel":"031-905-8481","addr":"경기도 고양시 일산동구 마두동 804번지","indutype":"음료식품 - 제과점","category":"food"},{"name":"인성바이오일산","tel":"031-903-8509","addr":"경기도 고양시 일산동구 마두동 804번지","indutype":"건강식품 - 기타건강식품","category":"food"}]},{"lat":"37.661516841","long":"126.78962419","imageIndex":7,"items":[{"name":"Moon안디미로","tel":"031-907-8878","addr":"경기도 고양시 일산동구 마두동 868번지","indutype":"음료식품 - 제과점","category":"food"}]},{"lat":"37.64960667","long":"126.78020784","imageIndex":7,"items":[{"name":"seoleo설레오쇼콜라티에","tel":"031-901-6399","addr":"경기도 고양시 일산동구 마두동 806번지 강촌마을6단지아파트","indutype":"음료식품 - 기타음료식품","category":"food"},{"name":"썬라이더프렌차이즈스토어 자연속으로","tel":"031-902-9431","addr":"경기도 고양시 일산동구 마두동 806번지 강촌마을6단지아파트","indutype":"건강식품 - 기타건강식품","category":"food"},{"name":"아홉쌀베이킹스튜디오","tel":"031-000-0000","addr":"경기도 고양시 일산동구 마두동 806번지 강촌마을6단지아파트","indutype":"음료식품 - 제과점","category":"food"}]},{"lat":"37.659742317","long":"126.78490342","imageIndex":7,"items":[{"name":"가람생수","tel":"031-901-5735","addr":"경기도 고양시 일산동구 마두동 940-3번지","indutype":"음료식품 - 기타음료식품","category":"food"}]},{"lat":"37.661047931","long":"126.78939887","imageIndex":7,"items":[{"name":"건국우유정발산보급소","tel":"031-902-8838","addr":"경기도 고양시 일산동구 마두동 869-3번지","indutype":"음료식품 - 기타음료식품","category":"food"},{"name":"삼양이시돌","tel":"031-907--0597","addr":"경기도 고양시 일산동구 마두동","indutype":"음료식품 - 기타음료식품","category":"food"}]},{"lat":"37.654156099","long":"126.78971323","imageIndex":7,"items":[{"name":"고향떡집","tel":"031-902-0571","addr":"경기도 고양시 일산동구 마두동 736-1번지","indutype":"음료식품 - 제과점","category":"food"},{"name":"국과반찬","tel":"031-905-4245","addr":"경기도 고양시 일산동구 마두동 736-1번지","indutype":"음료식품 - 기타음료식품","category":"food"},{"name":"빚은","tel":"031-902-8688","addr":"경기도 고양시 일산동구 마두동 736-1번지","indutype":"음료식품 - 제과점","category":"food"}]},{"lat":"37.651802295","long":"126.77876215","imageIndex":7,"items":[{"name":"과일가게아저씨","tel":"","addr":"경기도 고양시 일산동구 마두동 802번지","indutype":"음료식품 - 농·축·수산품","category":"food"},{"name":"뚜레쥬르(마두역점)","tel":"031-932-1139","addr":"경기도 고양시 일산동구 마두동 802번지","indutype":"음료식품 - 제과점","category":"food"},{"name":"태평선식","tel":"031-907-6847","addr":"경기도 고양시 일산동구 마두동 802번지","indutype":"음료식품 - 기타음료식품","category":"food"}]},{"lat":"37.653799213","long":"126.77706767","imageIndex":7,"items":[{"name":"그린알로에","tel":"031-932-9400","addr":"경기도 고양시 일산동구 마두동 798-1번지","indutype":"건강식품 - 기타건강식품","category":"food"},{"name":"마두5번출구가판로또","tel":"","addr":"경기도 고양시 일산동구 마두동 798-1번지","indutype":"음료식품 - 기타음료식품","category":"food"},{"name":"에스에이치엠","tel":"031-1666-5625","addr":"경기도 고양시 일산동구 마두동 798-1번지","indutype":"음료식품 - 기타음료식품","category":"food"},{"name":"월드유통","tel":"031-905-3232","addr":"경기도 고양시 일산동구 마두동 798-1번지","indutype":"음료식품 - 기타음료식품","category":"food"}]},{"lat":"37.665129942","long":"126.78481966","imageIndex":7,"items":[{"name":"그린정육점","tel":"031-901-1470","addr":"경기도 고양시 일산동구 마두동 842-6번지","indutype":"음료식품 - 정육점","category":"food"}]},{"lat":"37.661237195","long":"126.78943232","imageIndex":7,"items":[{"name":"금산홍삼전문점","tel":"031-905-6640","addr":"경기도 고양시 일산동구 마두동 869-1번지","indutype":"건강식품 - 홍삼제품","category":"food"}]},{"lat":"37.661102194","long":"126.78951204","imageIndex":7,"items":[{"name":"급식나라","tel":"000-000-0000","addr":"경기도 고양시 일산동구 마두동","indutype":"음료식품 - 기타음료식품","category":"food"}]},{"lat":"37.656443018","long":"126.79388837","imageIndex":7,"items":[{"name":"기쁜소식(Good News)","tel":"","addr":"경기도 고양시 일산동구 마두동 734번지 백마마을4단지아파트","indutype":"음료식품 - 기타음료식품","category":"food"}]},{"lat":"37.652603204","long":"126.77826114","imageIndex":7,"items":[{"name":"길벗가게","tel":"031-953-7475","addr":"경기도 고양시 일산동구 마두동 801번지","indutype":"음료식품 - 농·축·수산품","category":"food"}]},{"lat":"37.664660562","long":"126.78434502","imageIndex":7,"items":[{"name":"김진호힐링촌","tel":"031-908-1318","addr":"경기도 고양시 일산동구 마두동 857번지","indutype":"회원제형태 - 건강식품","category":"food"},{"name":"선우메디","tel":"031-907-0065","addr":"경기도 고양시 일산동구 마두동 857번지","indutype":"건강식품 - 기타건강식품","category":"food"}]},{"lat":"37.653572719","long":"126.79096142","imageIndex":7,"items":[{"name":"낙원떡집","tel":"031-901-4488","addr":"경기도 고양시 일산동구 마두동 731번지","indutype":"음료식품 - 제과점","category":"food"},{"name":"베스킨라빈스","tel":"031-905-3120","addr":"경기도 고양시 일산동구 마두동 731번지","indutype":"음료식품 - 제과점","category":"food"}]},{"lat":"37.660938171","long":"126.78849253","imageIndex":7,"items":[{"name":"너울푸드","tel":"031-8076-0751","addr":"경기도 고양시 일산동구 마두동 872-1번지","indutype":"음료식품 - 농·축·수산품","category":"food"}]},{"lat":"37.654438267","long":"126.77673711","imageIndex":7,"items":[{"name":"뉴코아아울렛뺑드프랑스","tel":"031-932-1400","addr":"경기도 고양시 일산동구 마두동","indutype":"음료식품 - 제과점","category":"food"}]},{"lat":"37.664602502","long":"126.78706528","imageIndex":7,"items":[{"name":"달곰하여라","tel":"","addr":"경기도 고양시 일산동구 마두동 835-9번지","indutype":"음료식품 - 기타음료식품","category":"food"}]},{"lat":"37.653460362","long":"126.78370926","imageIndex":7,"items":[{"name":"달콤한오후","tel":"070-4142-5248","addr":"경기도 고양시 일산동구 마두동 785-2번지","indutype":"음료식품 - 제과점","category":"food"}]},{"lat":"37.657325259","long":"126.79348926","imageIndex":7,"items":[{"name":"당도 달콤한온도","tel":"02-382-6997","addr":"경기도 고양시 일산동구 마두동 745번지","indutype":"음료식품 - 기타음료식품","category":"food"}]},{"lat":"37.651657409","long":"126.77837731","imageIndex":7,"items":[{"name":"던킨도너츠 일산마두점","tel":"","addr":"경기도 고양시 일산동구 마두동 802-1번지","indutype":"음료식품 - 제과점","category":"food"},{"name":"베스킨라빈스마두점","tel":"031-811-0695","addr":"경기도 고양시 일산동구 마두동","indutype":"음료식품 - 제과점","category":"food"},{"name":"클럽밸런스5(마두점)","tel":"031-814-9503","addr":"경기도 고양시 일산동구 마두동 802-1번지","indutype":"건강식품 - 기타건강식품","category":"food"},{"name":"파리바게뜨(마두점)","tel":"031-905-1618","addr":"경기도 고양시 일산동구 마두동 802-1번지","indutype":"음료식품 - 제과점","category":"food"}]},{"lat":"37.654877627","long":"126.79013046","imageIndex":7,"items":[{"name":"뚜레쥬르 일산백마","tel":"031-908-6003","addr":"경기도 고양시 일산동구 마두동","indutype":"음료식품 - 제과점","category":"food"},{"name":"명가찬방","tel":"031-908-9939","addr":"경기도 고양시 일산동구 마두동 729번지","indutype":"음료식품 - 기타음료식품","category":"food"},{"name":"이두부야마두점","tel":"","addr":"경기도 고양시 일산동구 마두동 729번지","indutype":"음료식품 - 기타음료식품","category":"food"},{"name":"하나로축산","tel":"031-902-9970","addr":"경기도 고양시 일산동구 마두동 729번지","indutype":"음료식품 - 정육점","category":"food"}]},{"lat":"37.664049187","long":"126.78503816","imageIndex":7,"items":[{"name":"레인보우홍","tel":"031-905-4639","addr":"경기도 고양시 일산동구 마두동 854-4번지","indutype":"음료식품 - 제과점","category":"food"}]},{"lat":"37.665181969","long":"126.78862766","imageIndex":7,"items":[{"name":"리스나일산대리점","tel":"031-904-4466","addr":"경기도 고양시 일산동구 마두동 824-4번지","indutype":"음료식품 - 기타음료식품","category":"food"}]},{"lat":"37.657303609","long":"126.77687574","imageIndex":7,"items":[{"name":"만상물산","tel":"031-907-9648","addr":"경기도 고양시 일산동구 마두동 1004번지 정발마을7단지","indutype":"음료식품 - 기타음료식품","category":"food"}]},{"lat":"37.655632016","long":"126.78879109","imageIndex":7,"items":[{"name":"미루축산","tel":"031-902-0303","addr":"경기도 고양시 일산동구 마두동 738번지","indutype":"음료식품 - 정육점","category":"food"}]},{"lat":"37.665381498","long":"126.78443358","imageIndex":7,"items":[{"name":"민스쿠키","tel":"031-902-2129","addr":"경기도 고양시 일산동구 마두동 850-3번지","indutype":"음료식품 - 제과점","category":"food"}]},{"lat":"37.654549346","long":"126.78307145","imageIndex":7,"items":[{"name":"바닐라베이킹클래스","tel":"031-906-1402","addr":"경기도 고양시 일산동구 마두동 792번지","indutype":"음료식품 - 제과점","category":"food"}]},{"lat":"37.653160288","long":"126.77746623","imageIndex":7,"items":[{"name":"바푸리식빵 마두역점","tel":"031-902-7016","addr":"경기도 고양시 일산동구 마두동 798-5번지","indutype":"음료식품 - 제과점","category":"food"},{"name":"이이비 코리아(I. iwi Korea)","tel":"070-8711-4085","addr":"경기도 고양시 일산동구 마두동 798-5번지","indutype":"음료식품 - 기타음료식품","category":"food"},{"name":"주식회사 건강과 행복","tel":"031-1544-6357","addr":"경기도 고양시 일산동구 마두동 798-5번지","indutype":"음료식품 - 기타음료식품","category":"food"}]},{"lat":"37.653878598","long":"126.79071125","imageIndex":7,"items":[{"name":"백마 사거리 로또판매점","tel":"031-903-8376","addr":"경기도 고양시 일산동구 마두동 730-5번지","indutype":"음료식품 - 기타음료식품","category":"food"}]},{"lat":"37.655408643","long":"126.78982298","imageIndex":7,"items":[{"name":"백마건강원","tel":"031-902-4941","addr":"경기도 고양시 일산동구 마두동 728번지","indutype":"건강식품 - 기타건강식품","category":"food"}]},{"lat":"37.658879859","long":"126.791207","imageIndex":7,"items":[{"name":"백마떡방앗간","tel":"031-903-7885","addr":"경기도 고양시 일산동구 마두동","indutype":"음료식품 - 제과점","category":"food"}]},{"lat":"37.661159603","long":"126.78640659","imageIndex":7,"items":[{"name":"복시루","tel":"031-901-4699","addr":"경기도 고양시 일산동구 마두동","indutype":"음료식품 - 제과점","category":"food"}]},{"lat":"37.654409575","long":"126.79038111","imageIndex":7,"items":[{"name":"브레드앤밀","tel":"031-902-9089","addr":"경기도 고양시 일산동구 마두동 730-1번지","indutype":"음료식품 - 제과점","category":"food"}]},{"lat":"37.657243132","long":"126.78790253","imageIndex":7,"items":[{"name":"비타민청과","tel":"031-901-3360","addr":"경기도 고양시 일산동구 마두동 752번지","indutype":"음료식품 - 농·축·수산품","category":"food"},{"name":"파리바게뜨일산삼성점","tel":"031-905-8717","addr":"경기도 고양시 일산동구 마두동 752번지","indutype":"음료식품 - 제과점","category":"food"}]},{"lat":"37.664354592","long":"126.78453859","imageIndex":7,"items":[{"name":"생명나무 국립암센터점","tel":"031-905-7520","addr":"경기도 고양시 일산동구 마두동 857-2번지","indutype":"건강식품 - 기타건강식품","category":"food"}]},{"lat":"37.664792636","long":"126.78757474","imageIndex":7,"items":[{"name":"서울우유백마대리점","tel":"031-908-2115","addr":"경기도 고양시 일산동구 마두동 827-4번지","indutype":"음료식품 - 기타음료식품","category":"food"}]},{"lat":"37.665127561","long":"126.78843514","imageIndex":7,"items":[{"name":"신세기유통","tel":"031-901-2973","addr":"경기도 고양시 일산동구 마두동 825-3번지","indutype":"음료식품 - 기타음료식품","category":"food"}]},{"lat":"37.655155102","long":"126.7891211","imageIndex":7,"items":[{"name":"얼음과자","tel":"","addr":"경기도 고양시 일산동구 마두동 737번지","indutype":"음료식품 - 기타음료식품","category":"food"}]},{"lat":"37.663126911","long":"126.78815756","imageIndex":7,"items":[{"name":"엄마의소쿠리","tel":"070-8723-4242","addr":"경기도 고양시 일산동구 마두동 882-1번지","indutype":"음료식품 - 기타음료식품","category":"food"}]},{"lat":"37.664405616","long":"126.7877912","imageIndex":7,"items":[{"name":"영광유통","tel":"031-963-2999","addr":"경기도 고양시 일산동구 마두동 890-6번지","indutype":"음료식품 - 농·축·수산품","category":"food"}]},{"lat":"37.654739582","long":"126.78362617","imageIndex":7,"items":[{"name":"오군수제고로케","tel":"031-905-1359","addr":"경기도 고양시 일산동구 마두동 759번지","indutype":"음료식품 - 제과점","category":"food"}]},{"lat":"37.661183629","long":"126.78970447","imageIndex":7,"items":[{"name":"올레길우유 일산동구대리점","tel":"031-907-0597","addr":"경기도 고양시 일산동구 마두동 868-3번지","indutype":"음료식품 - 기타음료식품","category":"food"}]},{"lat":"37.664350233","long":"126.78706601","imageIndex":7,"items":[{"name":"올레떡방앗간","tel":"031-912-0888","addr":"경기도 고양시 일산동구 마두동 891-3번지","indutype":"음료식품 - 제과점","category":"food"},{"name":"우리상사","tel":"031-917-7289","addr":"경기도 고양시 일산동구 마두동 891-3번지","indutype":"음료식품 - 기타음료식품","category":"food"}]},{"lat":"37.654714143","long":"126.78940567","imageIndex":7,"items":[{"name":"우리동네식빵","tel":"031-901-0445","addr":"경기도 고양시 일산동구 마두동 737-3번지","indutype":"음료식품 - 제과점","category":"food"},{"name":"햇살과일","tel":"031-902-8800","addr":"경기도 고양시 일산동구 마두동 737-3번지","indutype":"음료식품 - 농·축·수산품","category":"food"}]},{"lat":"37.654557548","long":"126.79251113","imageIndex":7,"items":[{"name":"이레통상","tel":"031-912-1018","addr":"경기도 고양시 일산동구 마두동 732번지 백마마을3단지아파트","indutype":"건강식품 - 기타건강식품","category":"food"}]},{"lat":"37.661155554","long":"126.78912656","imageIndex":7,"items":[{"name":"일동후디스일산대리점","tel":"031-903-0550","addr":"경기도 고양시 일산동구 마두동 870-1번지","indutype":"음료식품 - 기타음료식품","category":"food"}]},{"lat":"37.658633238","long":"126.7748998","imageIndex":7,"items":[{"name":"일산구청매점","tel":"031-8075-6672","addr":"경기도 고양시 일산동구 마두동 815번지","indutype":"음료식품 - 기타음료식품","category":"food"}]},{"lat":"37.664936625","long":"126.78748366","imageIndex":7,"items":[{"name":"일산농산","tel":"031-901-0044","addr":"경기도 고양시 일산동구 마두동 827-5번지","indutype":"음료식품 - 미곡상","category":"food"},{"name":"하모네꼬","tel":"031-901-3551","addr":"경기도 고양시 일산동구 마두동 827-5번지","indutype":"음료식품 - 기타음료식품","category":"food"}]},{"lat":"37.661826253","long":"126.78637065","imageIndex":7,"items":[{"name":"일산유통","tel":"031-977-2131","addr":"경기도 고양시 일산동구 마두동 903-6번지","indutype":"음료식품 - 기타음료식품","category":"food"}]},{"lat":"37.665407708","long":"126.78399148","imageIndex":7,"items":[{"name":"주식회사원엔원","tel":"031-903-0715","addr":"경기도 고양시 일산동구 마두동 851번지","indutype":"음료식품 - 기타음료식품","category":"food"}]},{"lat":"37.657577664","long":"126.78854752","imageIndex":7,"items":[{"name":"착한횡성한우","tel":"031-904-0092","addr":"경기도 고양시 일산동구 마두동 723번지","indutype":"음료식품 - 정육점","category":"food"}]},{"lat":"37.664656829","long":"126.78721246","imageIndex":7,"items":[{"name":"초원흑염소","tel":"031-904-2277","addr":"경기도 고양시 일산동구 마두동 835-10번지","indutype":"건강식품 - 기타건강식품","category":"food"}]},{"lat":"37.657991287","long":"126.79310208","imageIndex":7,"items":[{"name":"케익휘셀","tel":"031-903-6196","addr":"경기도 고양시 일산동구 마두동 744번지","indutype":"음료식품 - 제과점","category":"food"}]},{"lat":"37.661073151","long":"126.78840148","imageIndex":7,"items":[{"name":"크렘유","tel":"","addr":"경기도 고양시 일산동구 마두동 872번지","indutype":"음료식품 - 기타음료식품","category":"food"}]},{"lat":"37.651103913","long":"126.78107591","imageIndex":7,"items":[{"name":"플로리안수제청","tel":"031-908-1119","addr":"경기도 고양시 일산동구 마두동 789번지 강촌마을5단지아파트","indutype":"음료식품 - 기타음료식품","category":"food"}]},{"lat":"37.665269609","long":"126.78240515","imageIndex":7,"items":[{"name":"한국경진학교 버섯재배","tel":"031-931-7928","addr":"경기도 고양시 일산동구 마두동 808번지","indutype":"음료식품 - 농·축·수산품","category":"food"}]},{"lat":"37.663935791","long":"126.78706721","imageIndex":7,"items":[{"name":"형제유통","tel":"070-8243-6887","addr":"경기도 고양시 일산동구 마두동 892-4번지","indutype":"음료식품 - 기타음료식품","category":"food"}]},{"lat":"37.661709502","long":"126.78657499","imageIndex":7,"items":[{"name":"호수유통","tel":"031-814-1700","addr":"경기도 고양시 일산동구 마두동 903-2번지","indutype":"음료식품 - 기타음료식품","category":"food"}]},{"lat":"37.653466225","long":"126.77726133","imageIndex":7,"items":[{"name":"힘내라고(주)마장축산","tel":"031-901-2006","addr":"경기도 고양시 일산동구 마두동 798-3번지","indutype":"음료식품 - 정육점","category":"food"}]}]