[{"lat":"37.64310854","long":"126.87609413","imageIndex":0,"items":[{"name":"(주)디원바이크","tel":"02-381-5280","addr":"경기도 고양시 덕양구 삼송동 361-3번지","indutype":"자동차판매 - 이륜차판매","category":"car"},{"name":"저스트오토바이","tel":"02-381-5282","addr":"경기도 고양시 덕양구 삼송동 361-3번지","indutype":"자동차판매 - 이륜차판매","category":"car"}]},{"lat":"37.648328859","long":"126.87958661","imageIndex":0,"items":[{"name":"LH운송","tel":"02-381-3451","addr":"경기도 고양시 덕양구 삼송동 332번지 삼송마을18단지","indutype":"자동차정비 유지 - 견인서비스","category":"car"}]},{"lat":"37.643912408","long":"126.87797364","imageIndex":0,"items":[{"name":"SM승합차자동문","tel":"032-864-1777","addr":"경기도 고양시 덕양구 삼송동 357-3번지","indutype":"자동차정비 유지 - 자동차정비","category":"car"}]},{"lat":"37.648081454","long":"126.8843348","imageIndex":0,"items":[{"name":"강남프라자 관리단","tel":"02-0000-0000","addr":"경기도 고양시 덕양구 삼송동 337-3번지","indutype":"자동차정비 유지 - 주차장","category":"car"}]},{"lat":"37.655300915","long":"126.89661887","imageIndex":0,"items":[{"name":"거성자동차공업사","tel":"02-381-6833","addr":"경기도 고양시 덕양구 삼송동 57-11번지","indutype":"자동차정비 유지 - 자동차정비","category":"car"}]},{"lat":"37.65210483","long":"126.88947305","imageIndex":0,"items":[{"name":"기아오토큐삼송점","tel":"031-381-5777","addr":"경기도 고양시 덕양구 삼송동 135-2번지","indutype":"자동차정비 유지 - 자동차정비","category":"car"}]},{"lat":"37.644693793","long":"126.8756722","imageIndex":0,"items":[{"name":"더비머","tel":"02-1111-1111","addr":"경기도 고양시 덕양구 삼송동 352-10번지","indutype":"자동차정비 유지 - 자동차부품","category":"car"}]},{"lat":"37.652466549","long":"126.89086632","imageIndex":0,"items":[{"name":"덕양구 배터리 가장싼곳","tel":"02-381-1118","addr":"경기도 고양시 덕양구 삼송동 135-50번지","indutype":"자동차정비 유지 - 자동차부품","category":"car"}]},{"lat":"37.644324152","long":"126.87544622","imageIndex":0,"items":[{"name":"덕양모터스","tel":"02-381-6348","addr":"경기도 고양시 덕양구 삼송동 351-3번지","indutype":"자동차정비 유지 - 자동차정비","category":"car"}]},{"lat":"37.654245288","long":"126.88553754","imageIndex":0,"items":[{"name":"레이노 삼송점","tel":"02-371-2225","addr":"경기도 고양시 덕양구 삼송동 299-5번지","indutype":"자동차정비 유지 - 자동차부품","category":"car"}]},{"lat":"37.646964393","long":"126.87581563","imageIndex":0,"items":[{"name":"르노삼성자동차삼송대리점","tel":"02-381-3232","addr":"경기도 고양시 덕양구 삼송동 345-2번지","indutype":"자동차판매 - 국산신차판매","category":"car"}]},{"lat":"37.6428832","long":"126.87600387","imageIndex":0,"items":[{"name":"맥스 커스텀","tel":"02-381-5690","addr":"경기도 고양시 덕양구 삼송동 361-5번지","indutype":"자동차정비 유지 - 자동차부품","category":"car"}]},{"lat":"37.644551483","long":"126.8773947","imageIndex":0,"items":[{"name":"메카7","tel":"02-381-7272","addr":"경기도 고양시 덕양구 삼송동 355-1번지","indutype":"자동차정비 유지 - 자동차정비","category":"car"}]},{"lat":"37.643135921","long":"126.87642267","imageIndex":0,"items":[{"name":"모터랩","tel":"070-8945-3313","addr":"경기도 고양시 덕양구 삼송동 362-3번지","indutype":"자동차정비 유지 - 카인테리어","category":"car"}]},{"lat":"37.656022956","long":"126.89803439","imageIndex":0,"items":[{"name":"바이크헌터","tel":"02-3144-1022","addr":"경기도 고양시 덕양구 삼송동 57-65번지","indutype":"자동차판매 - 이륜차판매","category":"car"},{"name":"스플랜도르","tel":"02-3144-1022","addr":"경기도 고양시 덕양구 삼송동 57-65번지","indutype":"자동차판매 - 이륜차판매","category":"car"}]},{"lat":"37.643856963","long":"126.87667072","imageIndex":0,"items":[{"name":"블랙시스 고양점","tel":"","addr":"경기도 고양시 덕양구 삼송동 355-8번지","indutype":"자동차정비 유지 - 자동차부품","category":"car"}]},{"lat":"37.652968367","long":"126.88803257","imageIndex":0,"items":[{"name":"블루비즈","tel":"02-6053-0101","addr":"경기도 고양시 덕양구 삼송동 303-8번지","indutype":"자동차정비 유지 - 세차장","category":"car"}]},{"lat":"37.647828818","long":"126.8839726","imageIndex":0,"items":[{"name":"삼송카센터","tel":"02-6052-5846","addr":"경기도 고양시 덕양구 삼송동 338번지","indutype":"자동차정비 유지 - 자동차정비","category":"car"},{"name":"카스페이스 고양삼송","tel":"02-371-1129","addr":"경기도 고양시 덕양구 삼송동 338번지","indutype":"자동차정비 유지 - 카인테리어","category":"car"}]},{"lat":"37.642630391","long":"126.87550576","imageIndex":0,"items":[{"name":"삼원로점 현대자동차","tel":"02-371-0808","addr":"경기도 고양시 덕양구 삼송동 365번지","indutype":"자동차정비 유지 - 자동차부품","category":"car"}]},{"lat":"37.641549253","long":"126.87553027","imageIndex":0,"items":[{"name":"솔라가드","tel":"031-1600-8373","addr":"경기도 고양시 덕양구 삼송동 370번지","indutype":"자동차정비 유지 - 세차장","category":"car"}]},{"lat":"37.644244804","long":"126.87706663","imageIndex":0,"items":[{"name":"싸군배터리","tel":"","addr":"경기도 고양시 덕양구 삼송동 355-4번지","indutype":"자동차정비 유지 - 자동차부품","category":"car"}]},{"lat":"37.644299513","long":"126.87767839","imageIndex":0,"items":[{"name":"쌍용자동차고양삼송서비스프라자","tel":"02-381-5581","addr":"경기도 고양시 덕양구 삼송동 356번지","indutype":"자동차정비 유지 - 자동차정비","category":"car"}]},{"lat":"37.644020032","long":"126.8775089","imageIndex":0,"items":[{"name":"아우토 플러스(Auto Plus)","tel":"02-381-9005","addr":"경기도 고양시 덕양구 삼송동 356-1번지","indutype":"자동차정비 유지 - 자동차부품","category":"car"}]},{"lat":"37.652851539","long":"126.88833872","imageIndex":0,"items":[{"name":"아우토반","tel":"031-919-9585","addr":"경기도 고양시 덕양구 삼송동 303-6번지","indutype":"자동차정비 유지 - 카인테리어","category":"car"}]},{"lat":"37.65282429","long":"126.88811212","imageIndex":0,"items":[{"name":"오토프라자","tel":"02-381-0021","addr":"경기도 고양시 덕양구 삼송동 303-7번지","indutype":"자동차정비 유지 - 자동차정비","category":"car"}]},{"lat":"37.65260898","long":"126.88906433","imageIndex":0,"items":[{"name":"와스팀손세차","tel":"031-111-1111","addr":"경기도 고양시 덕양구 삼송동 78-32번지","indutype":"자동차정비 유지 - 세차장","category":"car"}]},{"lat":"37.651275164","long":"126.88866976","imageIndex":0,"items":[{"name":"우동출","tel":"","addr":"경기도 고양시 덕양구 삼송동 313-3번지","indutype":"자동차정비 유지 - 세차장","category":"car"}]},{"lat":"37.652656589","long":"126.89174992","imageIndex":0,"items":[{"name":"우성경정비센타","tel":"02-381-4777","addr":"경기도 고양시 덕양구 삼송동 135-60번지","indutype":"자동차정비 유지 - 자동차정비","category":"car"}]},{"lat":"37.644443246","long":"126.87728158","imageIndex":0,"items":[{"name":"워시박스 삼송점","tel":"02-381-8282","addr":"경기도 고양시 덕양구 삼송동 355-2번지","indutype":"자동차정비 유지 - 세차장","category":"car"}]},{"lat":"37.654579141","long":"126.88603563","imageIndex":0,"items":[{"name":"주식회사 내꿈","tel":"031-0000-0000","addr":"경기도 고양시 덕양구 삼송동 298-2번지","indutype":"자동차정비 유지 - 자동차부품","category":"car"}]},{"lat":"37.653913219","long":"126.88684125","imageIndex":0,"items":[{"name":"카고스트","tel":"02-381-7643","addr":"경기도 고양시 덕양구 삼송동 300-2번지","indutype":"자동차정비 유지 - 카인테리어","category":"car"}]},{"lat":"37.650690441","long":"126.88961118","imageIndex":0,"items":[{"name":"카스테라","tel":"02-371-0622","addr":"경기도 고양시 덕양구 삼송동 317-2번지","indutype":"자동차정비 유지 - 자동차부품","category":"car"}]},{"lat":"37.642882761","long":"126.87559598","imageIndex":0,"items":[{"name":"타이어클라스","tel":"02-381-1986","addr":"경기도 고양시 덕양구 삼송동 360-6번지","indutype":"자동차정비 유지 - 자동차시트·타이어","category":"car"}]},{"lat":"37.652520876","long":"126.89114953","imageIndex":0,"items":[{"name":"현대자동차(삼송점)","tel":"02-381-8066","addr":"경기도 고양시 덕양구 삼송동 135-54번지","indutype":"자동차정비 유지 - 자동차정비","category":"car"}]},{"lat":"37.653830544","long":"126.89464918","imageIndex":0,"items":[{"name":"희성프라자","tel":"031-8800-8497","addr":"경기도 고양시 덕양구 삼송동 27-1번지","indutype":"자동차정비 유지 - 주차장","category":"car"}]}]