[{"lat":"37.243264193","long":"126.9500354","imageIndex":17,"items":[{"name":"(주)새론살수","tel":"031-293-2242","addr":"경기도 화성시 매송면 천천리 100-7번지","indutype":"용역 서비스 - 기타용역서비스","category":"other"},{"name":"신광캐스팅","tel":"031-477-0255","addr":"경기도 화성시 매송면 천천리 100-7번지 98-1호 97","indutype":"기타 - 기계공구","category":"other"}]},{"lat":"37.244963034","long":"126.94151366","imageIndex":17,"items":[{"name":"가온퍼니쳐","tel":"031-293-7995","addr":"경기도 화성시 매송면 천천리 349-1번지","indutype":"주방용구 - 주방용구","category":"other"}]},{"lat":"37.245405461","long":"126.9433166","imageIndex":17,"items":[{"name":"남양신발","tel":"","addr":"경기도 화성시 매송면 천천리 344-15번지 경인빌라3차 A동 202호","indutype":"신변잡화 - 신발","category":"other"}]},{"lat":"37.243847853","long":"126.94570716","imageIndex":17,"items":[{"name":"드림라인","tel":"","addr":"경기도 화성시 매송면 천천리 213-1번지 1층 3호","indutype":"용역 서비스 - 종합용역","category":"other"},{"name":"주식회사 명산조경","tel":"031-295-5175","addr":"경기도 화성시 매송면 천천리 213-1번지","indutype":"건축자재 - 인테리어전문","category":"other"}]},{"lat":"37.242985449","long":"126.95134295","imageIndex":17,"items":[{"name":"리엔메이","tel":"031-225-9564","addr":"경기도 화성시 매송면 천천리 96-1번지","indutype":"서적문구 - 기타서적문구","category":"other"},{"name":"아쿠아라이프","tel":"031-295-4674","addr":"경기도 화성시 매송면 천천리 96-1번지 2층","indutype":"문화.취미 - 수족관","category":"other"}]},{"lat":"37.243352947","long":"126.94709378","imageIndex":17,"items":[{"name":"삼성유통","tel":"02-3443-5171","addr":"경기도 화성시 매송면 천천리 223-2번지","indutype":"신변잡화 - 액세서리","category":"other"}]},{"lat":"37.247352122","long":"126.94418293","imageIndex":17,"items":[{"name":"삼성중부OA","tel":"031-892-3040","addr":"경기도 화성시 매송면 천천리 178번지","indutype":"사무통신 - 사무용 OA기기","category":"other"}]},{"lat":"37.247911631","long":"126.94596332","imageIndex":17,"items":[{"name":"상상공작소","tel":"","addr":"경기도 화성시 매송면 천천리 152-1번지 천천빌라 나동 101호","indutype":"서적문구 - 기타서적문구","category":"other"}]},{"lat":"37.243326227","long":"126.94775875","imageIndex":17,"items":[{"name":"서울종합상사","tel":"031-294-8395","addr":"경기도 화성시 매송면 천천리 224-2","indutype":"용역 서비스 - 기타용역서비스","category":"other"}]},{"lat":"37.243793573","long":"126.94525638","imageIndex":17,"items":[{"name":"세븐일레븐화성천천제일점","tel":"031-294-5276","addr":"경기도 화성시 매송면 천천리 210-8","indutype":"유통업 영리 - 편 의 점","category":"other"},{"name":"피싱마루","tel":"031-294-5276","addr":"경기도 화성시 매송면 천천리 210-8번지","indutype":"레져용품 - 스포츠·레져용품","category":"other"}]},{"lat":"37.249401242","long":"126.95237554","imageIndex":17,"items":[{"name":"싹쓰리마켓","tel":"031-293-8970","addr":"경기도 화성시 매송면 천천리 38-3번지","indutype":"의류 - 정장","category":"other"}]},{"lat":"37.243876139","long":"126.94836695","imageIndex":17,"items":[{"name":"씨유화성천천IC점","tel":"031-302-1231","addr":"경기도 화성시 매송면 천천리 108-6번지","indutype":"유통업 영리 - 편 의 점","category":"other"}]},{"lat":"37.244902033","long":"126.94565001","imageIndex":17,"items":[{"name":"에이제이테크","tel":"031-227-4435","addr":"경기도 화성시 매송면 천천리 191-4번지","indutype":"전기제품 - 기타전기제품","category":"other"},{"name":"토탈산업","tel":"031-293-0901","addr":"경기도 화성시 매송면 천천리 191-4","indutype":"주방용구 - 주방용구","category":"other"}]},{"lat":"37.243992891","long":"126.94754413","imageIndex":17,"items":[{"name":"원진산업사","tel":"031-294-5674","addr":"경기도 화성시 매송면 천천리 110-2","indutype":"건축자재 - 기타건축자재","category":"other"}]},{"lat":"37.24382143","long":"126.94698073","imageIndex":17,"items":[{"name":"웰파츠","tel":"031-294-9255","addr":"경기도 화성시 매송면 천천리 220-3번지 2층","indutype":"전기제품 - 기타전기제품","category":"other"},{"name":"주식회사 모두플래닛","tel":"031-294-9255","addr":"경기도 화성시 매송면 천천리 220-3번지 2층","indutype":"서적문구 - 기타서적문구","category":"other"}]},{"lat":"37.245848506","long":"126.94646078","imageIndex":17,"items":[{"name":"주산테크","tel":"070-4213-9115","addr":"경기도 화성시 매송면 천천리 162-10번지","indutype":"주방용구 - 정수기","category":"other"},{"name":"주산테크","tel":"031-235-9115","addr":"경기도 화성시 매송면 천천리 162-10번지","indutype":"주방용구 - 정수기","category":"other"},{"name":"주산테크","tel":"070-4213-9115","addr":"경기도 화성시 매송면 천천리 162-10번지","indutype":"주방용구 - 정수기","category":"other"},{"name":"주산테크","tel":"070-4213-9115","addr":"경기도 화성시 매송면 천천리 162-10번지","indutype":"주방용구 - 정수기","category":"other"}]},{"lat":"37.24498938","long":"126.94020625","imageIndex":17,"items":[{"name":"지에스알 주식회사","tel":"031-292-6677","addr":"경기도 화성시 매송면 천천리 371번지","indutype":"전기제품 - 냉열기기","category":"other"}]},{"lat":"37.244326825","long":"126.94873856","imageIndex":17,"items":[{"name":"창솔클리닝","tel":"031-294-8178","addr":"경기도 화성시 매송면 천천리 109","indutype":"수리서비스 - 세탁소","category":"other"}]},{"lat":"37.243352286","long":"126.94570753","imageIndex":17,"items":[{"name":"코디펫","tel":"031-293-0699","addr":"경기도 화성시 매송면 천천리 329-1번지","indutype":"문화.취미 - 애완동물","category":"other"}]},{"lat":"37.244677213","long":"126.94656309","imageIndex":17,"items":[{"name":"한진무역","tel":"031-239-1458","addr":"경기도 화성시 매송면 천천리 197-7번지 삼미타운 2동 상가","indutype":"신변잡화 - 기타잡화","category":"other"}]},{"lat":"37.244153348","long":"126.94396001","imageIndex":17,"items":[{"name":"해오현농원","tel":"031-293-9959","addr":"경기도 화성시 매송면 천천리 207-1","indutype":"문화.취미 - 화원","category":"other"}]}]