[{"lat":"36.993879603","long":"127.08775053","imageIndex":5,"items":[{"name":"갤러리","tel":"031-654-8911","addr":"경기도 평택시 평택동 35-27번지","indutype":"숙박업 - 여관/기타숙박업","category":"hotel"},{"name":"갤러리","tel":"031-654-8911","addr":"경기도 평택시 평택동 35-27번지","indutype":"숙박업 - 여관/기타숙박업","category":"hotel"}]},{"lat":"36.993331339","long":"127.08578408","imageIndex":5,"items":[{"name":"경동장","tel":"031-652-2561","addr":"경기도 평택시 평택동 60-5번지","indutype":"숙박업 - 여관/기타숙박업","category":"hotel"},{"name":"경동장여관","tel":"031-651-7233","addr":"경기도 평택시 평택동 60-5번지","indutype":"숙박업 - 여관","category":"hotel"}]},{"lat":"36.993689935","long":"127.08836815","imageIndex":5,"items":[{"name":"궁전파크 여인숙","tel":"031-655-3343","addr":"경기도 평택시 평택동 35-11번지","indutype":"숙박업 - 여관/기타숙박업","category":"hotel"}]},{"lat":"36.993998209","long":"127.08567247","imageIndex":5,"items":[{"name":"귀빈장모텔","tel":"031-652-2451","addr":"경기도 평택시 평택동 64-7번지","indutype":"숙박업 - 여관/기타숙박업","category":"hotel"}]},{"lat":"36.993050851","long":"127.08742384","imageIndex":5,"items":[{"name":"금호장여관","tel":"031-651-1711","addr":"경기도 평택시 평택동 37-5번지","indutype":"숙박업 - 여관/기타숙박업","category":"hotel"}]},{"lat":"36.992052055","long":"127.0854457","imageIndex":5,"items":[{"name":"남서울여인숙","tel":"031-656-7739","addr":"경기도 평택시 평택동 55-24번지","indutype":"숙박업 - 여관/기타숙박업","category":"hotel"}]},{"lat":"36.99019358","long":"127.08864506","imageIndex":5,"items":[{"name":"노블레스","tel":"031-658-4161","addr":"경기도 평택시 평택동 295번지","indutype":"숙박업 - 여관/기타숙박업","category":"hotel"},{"name":"벨르/(주)썬포트(벨르)","tel":"031-658-4161","addr":"경기도 평택시 평택동 295번지","indutype":"숙박업 - 여관/기타숙박업","category":"hotel"}]},{"lat":"36.990609619","long":"127.08647757","imageIndex":5,"items":[{"name":"동궁장","tel":"031-658-2495","addr":"경기도 평택시 평택동 185-263번지","indutype":"숙박업 - 여관/기타숙박업","category":"hotel"}]},{"lat":"36.99079694","long":"127.08913999","imageIndex":5,"items":[{"name":"레자망모텔","tel":"031-657-7083","addr":"경기도 평택시 평택동 293-11번지","indutype":"숙박업 - 여관/기타숙박업","category":"hotel"}]},{"lat":"36.990077654","long":"127.08694877","imageIndex":5,"items":[{"name":"로그인모텔","tel":"031-654-1160","addr":"경기도 평택시 평택동 185-286번지 2~7층","indutype":"숙박업 - 여관/기타숙박업","category":"hotel"}]},{"lat":"36.994601753","long":"127.08592026","imageIndex":5,"items":[{"name":"르네상스모텔","tel":"031-651-1051","addr":"경기도 평택시 평택동 68-43번지","indutype":"숙박업 - 여관/기타숙박업","category":"hotel"}]},{"lat":"36.990796514","long":"127.0897241","imageIndex":5,"items":[{"name":"리즈모텔","tel":"031-658-3364","addr":"경기도 평택시 평택동 294-2번지","indutype":"숙박업 - 여관/기타숙박업","category":"hotel"}]},{"lat":"36.993825675","long":"127.0875595","imageIndex":5,"items":[{"name":"모텔티파니","tel":"","addr":"경기도 평택시 평택동 35-26번지","indutype":"숙박업 - 모텔","category":"hotel"}]},{"lat":"36.994574525","long":"127.08620107","imageIndex":5,"items":[{"name":"몽2","tel":"031-655-0634","addr":"경기도 평택시 평택동 68-12번지","indutype":"숙박업 - 여관/기타숙박업","category":"hotel"}]},{"lat":"36.994304337","long":"127.08600981","imageIndex":5,"items":[{"name":"미사랑 모텔","tel":"031-653-9771","addr":"경기도 평택시 평택동 67-4번지","indutype":"숙박업 - 여관/기타숙박업","category":"hotel"},{"name":"사랑","tel":"031-653-9771","addr":"경기도 평택시 평택동 67-4번지","indutype":"숙박업 - 여관/기타숙박업","category":"hotel"}]},{"lat":"36.993025015","long":"127.08572758","imageIndex":5,"items":[{"name":"별장여인숙","tel":"031-692-3329","addr":"경기도 평택시 평택동 60-35번지 4,5호","indutype":"숙박업 - 여관/기타숙박업","category":"hotel"}]},{"lat":"36.990607568","long":"127.08934197","imageIndex":5,"items":[{"name":"보보스모텔","tel":"031-618-0306","addr":"경기도 평택시 평택동 294-4번지","indutype":"숙박업 - 여관/기타숙박업","category":"hotel"}]},{"lat":"36.992490344","long":"127.08997316","imageIndex":5,"items":[{"name":"세비야호텔","tel":"031-651-1962","addr":"경기도 평택시 평택동 288-35번지","indutype":"숙박업 - 여관/기타숙박업","category":"hotel"}]},{"lat":"36.991076929","long":"127.08823043","imageIndex":5,"items":[{"name":"세종장여관","tel":"031-652-7763","addr":"경기도 평택시 평택동 298-6번지","indutype":"숙박업 - 여관/기타숙박업","category":"hotel"}]},{"lat":"36.992184889","long":"127.08872593","imageIndex":5,"items":[{"name":"쇼호텔","tel":"","addr":"경기도 평택시 평택동 290-6번지","indutype":"숙박업 - 호텔","category":"hotel"}]},{"lat":"36.99307757","long":"127.08786197","imageIndex":5,"items":[{"name":"신라장여관","tel":"031-651-4264","addr":"경기도 평택시 평택동 44-9번지","indutype":"숙박업 - 여관/기타숙박업","category":"hotel"}]},{"lat":"36.99069066","long":"127.08655629","imageIndex":5,"items":[{"name":"썬모텔","tel":"031-655-1126","addr":"경기도 평택시 평택동 185-264번지","indutype":"숙박업 - 여관/기타숙박업","category":"hotel"}]},{"lat":"36.992248739","long":"127.08764762","imageIndex":5,"items":[{"name":"안성여관","tel":"031-655-2356","addr":"경기도 평택시 평택동 46-20번지","indutype":"숙박업 - 여관/기타숙박업","category":"hotel"}]},{"lat":"36.990798868","long":"127.08644408","imageIndex":5,"items":[{"name":"영빈여관","tel":"031-652-9061","addr":"경기도 평택시 평택동 185-259번지","indutype":"숙박업 - 여관/기타숙박업","category":"hotel"}]},{"lat":"36.990185839","long":"127.08687026","imageIndex":5,"items":[{"name":"영진파크","tel":"031-652-8787","addr":"경기도 평택시 평택동 185-284번지","indutype":"숙박업 - 여관/기타숙박업","category":"hotel"}]},{"lat":"36.993466617","long":"127.08561573","imageIndex":5,"items":[{"name":"유성장","tel":"031-655-4270","addr":"경기도 평택시 평택동 60-7번지","indutype":"숙박업 - 여관/기타숙박업","category":"hotel"}]},{"lat":"36.991827153","long":"127.0849175","imageIndex":5,"items":[{"name":"일광여인숙","tel":"031-651-3515","addr":"경기도 평택시 평택동 185-71번지","indutype":"숙박업 - 여관/기타숙박업","category":"hotel"}]},{"lat":"36.991637013","long":"127.08623157","imageIndex":5,"items":[{"name":"장미여관","tel":"031-657-6620","addr":"경기도 평택시 평택동 55-7번지 평택아케이드 3층 나동","indutype":"숙박업 - 여관/기타숙박업","category":"hotel"}]},{"lat":"36.990636437","long":"127.08678089","imageIndex":5,"items":[{"name":"천수장여관","tel":"031-651-3515","addr":"경기도 평택시 평택동 185-266번지","indutype":"숙박업 - 여관/기타숙박업","category":"hotel"}]},{"lat":"36.990465155","long":"127.08689303","imageIndex":5,"items":[{"name":"청주여인숙","tel":"031-618-5537","addr":"경기도 평택시 평택동 185-281번지","indutype":"숙박업 - 여관/기타숙박업","category":"hotel"}]},{"lat":"36.992304159","long":"127.0857268","imageIndex":5,"items":[{"name":"충남여관","tel":"031-655-3422","addr":"경기도 평택시 평택동 55-11번지","indutype":"숙박업 - 여관/기타숙박업","category":"hotel"}]},{"lat":"36.992718107","long":"127.08650234","imageIndex":5,"items":[{"name":"평택관광호텔","tel":"031-654-3333","addr":"경기도 평택시 평택동 62-10번지","indutype":"숙박업 - 2급 호텔","category":"hotel"},{"name":"평택스테이관광호텔","tel":"","addr":"경기도 평택시 평택동 62-10번지","indutype":"숙박업 - 호텔","category":"hotel"},{"name":"평택스테이관광호텔(PYEONGTAEK STAY HOTEL","tel":"031-654-3333","addr":"경기도 평택시 평택동 62-10번지","indutype":"숙박업 - 여관/기타숙박업","category":"hotel"}]},{"lat":"36.990715941","long":"127.0890051","imageIndex":5,"items":[{"name":"평택투헤븐호텔","tel":"","addr":"경기도 평택시 평택동 293-10번지","indutype":"숙박업 - 여관/기타숙박업","category":"hotel"}]},{"lat":"36.992214091","long":"127.08567054","imageIndex":5,"items":[{"name":"평화여관","tel":"031-652-5787","addr":"경기도 평택시 평택동 55-23번지","indutype":"숙박업 - 여관/기타숙박업","category":"hotel"}]},{"lat":"36.994241074","long":"127.08627934","imageIndex":5,"items":[{"name":"한남여관","tel":"031-655-7870","addr":"경기도 평택시 평택동 67-3번지","indutype":"숙박업 - 여관/기타숙박업","category":"hotel"}]},{"lat":"36.994413092","long":"127.08511125","imageIndex":5,"items":[{"name":"휴모텔","tel":"031-000-0000","addr":"경기도 평택시 평택동 70-7번지","indutype":"숙박업 - 여관/기타숙박업","category":"hotel"}]}]