[{"lat":"37.785204102","long":"126.91080492","imageIndex":7,"items":[{"name":"(주)돌샘식품","tel":"031-948-2352","addr":"경기도 파주시 광탄면 기산리 609번지","indutype":"음료식품 - 기타음료식품","category":"food"},{"name":"닥터호두","tel":"031-948-5207","addr":"경기도 파주시 광탄면 기산리 609번지","indutype":"음료식품 - 농·축·수산품","category":"food"}]},{"lat":"37.775561252","long":"126.93313223","imageIndex":7,"items":[{"name":"마당(식품)","tel":"031-956-0310","addr":"경기도 파주시 광탄면 기산리 387-7번지","indutype":"음료식품 - 기타음료식품","category":"food"},{"name":"호수가매점","tel":"031-3701-2426","addr":"경기도 파주시 광탄면 기산리 387-7번지","indutype":"음료식품 - 기타음료식품","category":"food"}]},{"lat":"37.771593814","long":"126.92783549","imageIndex":7,"items":[{"name":"마장호수 휴 캠핑장","tel":"031-000-0000","addr":"경기도 파주시 광탄면 기산리 459-5번지","indutype":"음료식품 - 기타음료식품","category":"food"}]},{"lat":"37.774614992","long":"126.93269045","imageIndex":7,"items":[{"name":"물댄동산","tel":"031-948-3565","addr":"경기도 파주시 광탄면 기산리 387-5번지","indutype":"음료식품 - 기타음료식품","category":"food"},{"name":"물댄동산","tel":"031-943-3928","addr":"경기도 파주시 광탄면 기산리 387-5번지","indutype":"음료식품 - 농·축·수산품","category":"food"}]},{"lat":"37.772979346","long":"126.92486033","imageIndex":7,"items":[{"name":"바람부는 언덕","tel":"031-941-7860","addr":"경기도 파주시 광탄면 기산리 460-2번지","indutype":"음료식품 - 기타음료식품","category":"food"},{"name":"일오삼","tel":"","addr":"경기도 파주시 광탄면 기산리 460-2번지","indutype":"음료식품 - 기타음료식품","category":"food"}]},{"lat":"37.775147455","long":"126.92019296","imageIndex":4,"items":[{"name":"h","tel":"031-111-1111","addr":"경기도 파주시 광탄면 기산리 516-8번지","indutype":"일반휴게음식 - 서양음식","category":"restaurant"}]},{"lat":"37.776395057","long":"126.91372164","imageIndex":4,"items":[{"name":"가야","tel":"031-946-7518","addr":"경기도 파주시 광탄면 기산리 567-1번지","indutype":"일반휴게음식 - 일반한식","category":"restaurant"}]},{"lat":"37.775900532","long":"126.91505026","imageIndex":4,"items":[{"name":"나드리국수집","tel":"070-8161-5678","addr":"경기도 파주시 광탄면 기산리 560번지","indutype":"일반휴게음식 - 일반한식","category":"restaurant"},{"name":"전라도밥상","tel":"031-948-9393","addr":"경기도 파주시 광탄면 기산리 560번지","indutype":"일반휴게음식 - 일반한식","category":"restaurant"}]},{"lat":"37.781454931","long":"126.90925441","imageIndex":4,"items":[{"name":"더 브릭하우스73 (The Brickhouse 73 cafe)","tel":"031-946-2224","addr":"경기도 파주시 광탄면 기산리 648번지","indutype":"일반휴게음식 - 서양음식","category":"restaurant"}]},{"lat":"37.775732423","long":"126.91927291","imageIndex":4,"items":[{"name":"산내들","tel":"031-948-5641","addr":"경기도 파주시 광탄면 기산리 502-5번지","indutype":"일반휴게음식 - 일반한식","category":"restaurant"}]},{"lat":"37.779897444","long":"126.91072069","imageIndex":4,"items":[{"name":"쇠장명가","tel":"031-957-0092","addr":"경기도 파주시 광탄면 기산리 577-1번지","indutype":"일반휴게음식 - 일반한식","category":"restaurant"}]},{"lat":"37.771899839","long":"126.91441939","imageIndex":4,"items":[{"name":"앵무봉참숯황토구이","tel":"031-947-2070","addr":"경기도 파주시 광탄면 기산리 544-9 외7필지","indutype":"일반휴게음식 - 일반한식","category":"restaurant"},{"name":"유진식당","tel":"031-948-6789","addr":"경기도 파주시 광탄면 기산리 544-9번지","indutype":"일반휴게음식 - 일반한식","category":"restaurant"}]},{"lat":"37.779811423","long":"126.92932556","imageIndex":4,"items":[{"name":"주식회사 진영씨엔씨 감사교육원점","tel":"031-323-5448","addr":"경기도 파주시 광탄면 기산리 산139-14번지","indutype":"일반휴게음식 - 위탁급식업","category":"restaurant"}]},{"lat":"37.77506656","long":"126.92046547","imageIndex":4,"items":[{"name":"착한쭝식","tel":"031-943-4881","addr":"경기도 파주시 광탄면 기산리 516-2번지","indutype":"일반휴게음식 - 중국식","category":"restaurant"}]},{"lat":"37.774561108","long":"126.91916072","imageIndex":4,"items":[{"name":"천하장사","tel":"031-947-7299","addr":"경기도 파주시 광탄면 기산리 520-1","indutype":"일반휴게음식 - 일반한식","category":"restaurant"}]},{"lat":"37.772979346","long":"126.92486033","imageIndex":4,"items":[{"name":"출렁다리국수","tel":"031-942-0027","addr":"경기도 파주시 광탄면 기산리 460-2번지","indutype":"일반휴게음식 - 스넥","category":"restaurant"}]},{"lat":"37.77550721","long":"126.91930722","imageIndex":4,"items":[{"name":"파주민물","tel":"031-948-4947","addr":"경기도 파주시 광탄면 기산리 502-6번지 나동","indutype":"일반휴게음식 - 일반한식","category":"restaurant"}]},{"lat":"37.776231524","long":"126.91193977","imageIndex":4,"items":[{"name":"필무드(fillmood)","tel":"","addr":"경기도 파주시 광탄면 기산리 570-1번지","indutype":"일반휴게음식 - 서양음식","category":"restaurant"}]},{"lat":"37.78623105","long":"126.91063336","imageIndex":4,"items":[{"name":"해든터","tel":"031-948-5544","addr":"경기도 파주시 광탄면 기산리 607번지","indutype":"일반휴게음식 - 일반한식","category":"restaurant"}]},{"lat":"37.775258481","long":"126.91191826","imageIndex":4,"items":[{"name":"황금유황장어","tel":"031-948-6396","addr":"경기도 파주시 광탄면 기산리 552","indutype":"일반휴게음식 - 일반한식","category":"restaurant"},{"name":"황금장어","tel":"031-948-6396","addr":"경기도 파주시 광탄면 기산리 552번지","indutype":"일반휴게음식 - 일반한식","category":"restaurant"}]},{"lat":"37.77525686","long":"126.92205434","imageIndex":13,"items":[{"name":"기산캠프","tel":"031-957-8010","addr":"경기도 파주시 광탄면 기산리 471-2번지","indutype":"레저업소 - 기타레져업소","category":"leisure"}]},{"lat":"37.772260508","long":"126.91480487","imageIndex":13,"items":[{"name":"유진랜드","tel":"031-948-6789","addr":"경기도 파주시 광탄면 기산리 544-7번지","indutype":"레저업소 - 수 영 장","category":"leisure"}]},{"lat":"37.777148494","long":"126.9093847","imageIndex":13,"items":[{"name":"캠프예그리나","tel":"031-948-5086","addr":"경기도 파주시 광탄면 기산리 658-4번지","indutype":"레저업소 - 기타레져업소","category":"leisure"}]},{"lat":"37.782419798","long":"126.9103316","imageIndex":13,"items":[{"name":"포에버스크린골프","tel":"031-941-3437","addr":"경기도 파주시 광탄면 기산리 648-3번지","indutype":"레저업소 - 스크린골프","category":"leisure"}]},{"lat":"37.773398486","long":"126.91860587","imageIndex":17,"items":[{"name":"꿈애","tel":"031-946-5703","addr":"경기도 파주시 광탄면 기산리 521번지","indutype":"문화.취미 - 애완동물","category":"other"}]},{"lat":"37.77525686","long":"126.92205434","imageIndex":17,"items":[{"name":"대진사이언스","tel":"031-963-2910","addr":"경기도 파주시 광탄면 기산리 471-2번지","indutype":"서적문구 - 기타서적문구","category":"other"}]},{"lat":"37.772781377","long":"126.92522374","imageIndex":17,"items":[{"name":"마장호수","tel":"031-941-0858","addr":"경기도 파주시 광탄면 기산리 460-1번지","indutype":"유통업 영리 - 편 의 점","category":"other"}]},{"lat":"37.77889778","long":"126.91122138","imageIndex":17,"items":[{"name":"성일화학","tel":"031-962-5575","addr":"경기도 파주시 광탄면 기산리 575-8번지","indutype":"서적문구 - 과학기자재","category":"other"}]},{"lat":"37.774089952","long":"126.91549507","imageIndex":17,"items":[{"name":"스테이지야(stage YAH)","tel":"031-946-4778","addr":"경기도 파주시 광탄면 기산리 548-8","indutype":"건축자재 - 기타건축자재","category":"other"}]},{"lat":"37.785176896","long":"126.91057791","imageIndex":17,"items":[{"name":"아세아식품","tel":"031-948-2352","addr":"경기도 파주시 광탄면 기산리 603번지","indutype":"기타 - 기타 전문점","category":"other"}]},{"lat":"37.77506656","long":"126.92046547","imageIndex":17,"items":[{"name":"이마트24 마장호수점","tel":"031-948-1881","addr":"경기도 파주시 광탄면 기산리 516-2번지","indutype":"유통업 영리 - 편 의 점","category":"other"},{"name":"이마트24 마장호수점","tel":"031-1111-1111","addr":"경기도 파주시 광탄면 기산리 516-2번지","indutype":"유통업 영리 - 편 의 점","category":"other"}]},{"lat":"37.775312792","long":"126.91224736","imageIndex":5,"items":[{"name":"더블유","tel":"031-948-5277","addr":"경기도 파주시 광탄면 기산리 552-4번지","indutype":"숙박업 - 여관/기타숙박업","category":"hotel"}]},{"lat":"37.771899839","long":"126.91441939","imageIndex":7,"items":[{"name":"유진매점","tel":"031-0000-0000","addr":"경기도 파주시 광탄면 기산리 544-9번지 외7필지","indutype":"유통업 영리 - 슈퍼마켓","category":"mart"}]},{"lat":"37.777148494","long":"126.9093847","imageIndex":7,"items":[{"name":"캠프예그리나","tel":"031-948-5086","addr":"경기도 파주시 광탄면 기산리 658-4","indutype":"유통업 영리 - 슈퍼마켓","category":"mart"}]}]