[{"lat":"37.274261346","long":"126.921319","imageIndex":4,"items":[{"name":"드림카페","tel":"031-293-5679","addr":"경기도 화성시 매송면 어천리 12","indutype":"일반휴게음식 - 서양음식","category":"restaurant"}]},{"lat":"37.259400781","long":"126.9176263","imageIndex":4,"items":[{"name":"뜨라네 명가","tel":"031-294-8464","addr":"경기도 화성시 매송면 어천리 107-2번지 1동 1층","indutype":"일반휴게음식 - 일반한식","category":"restaurant"}]},{"lat":"37.25118073","long":"126.91401741","imageIndex":4,"items":[{"name":"마당깊은집","tel":"031-293-1393","addr":"경기도 화성시 매송면 어천리 473번지","indutype":"일반휴게음식 - 일반한식","category":"restaurant"}]},{"lat":"37.254875096","long":"126.9142047","imageIndex":4,"items":[{"name":"만인매운탕","tel":"031-241-8982","addr":"경기도 화성시 매송면 어천리 247-1번지 (1층 2층)","indutype":"일반휴게음식 - 일반한식","category":"restaurant"}]},{"lat":"37.249574991","long":"126.91151708","imageIndex":4,"items":[{"name":"매송다방","tel":"031-291-2260","addr":"경기도 화성시 매송면 어천리 491번지 1층","indutype":"일반휴게음식 - 주점","category":"restaurant"}]},{"lat":"37.26576378","long":"126.92006552","imageIndex":4,"items":[{"name":"비눌치쉼터","tel":"031-293-6557","addr":"경기도 화성시 매송면 어천리 49번지","indutype":"일반휴게음식 - 일반한식","category":"restaurant"}]},{"lat":"37.255100278","long":"126.91410299","imageIndex":4,"items":[{"name":"쌍둥이식당","tel":"031-293-4543","addr":"경기도 화성시 매송면 어천리 245번지","indutype":"일반휴게음식 - 일반한식","category":"restaurant"}]},{"lat":"37.2525746","long":"126.91045392","imageIndex":4,"items":[{"name":"어천손두부","tel":"031-293-7974","addr":"경기도 화성시 매송면 어천리 372-1번지","indutype":"일반휴게음식 - 일반한식","category":"restaurant"}]},{"lat":"37.251928771","long":"126.91426451","imageIndex":4,"items":[{"name":"영원식당","tel":"031-294-4637","addr":"경기도 화성시 매송면 어천리 287-3번지 1층","indutype":"일반휴게음식 - 일반한식","category":"restaurant"}]},{"lat":"37.269766412","long":"126.92307137","imageIndex":4,"items":[{"name":"원두막 정든집","tel":"031-294-7628","addr":"경기도 화성시 매송면 어천리 35-6번지 1층","indutype":"일반휴게음식 - 일반한식","category":"restaurant"}]},{"lat":"37.249908006","long":"126.91104328","imageIndex":4,"items":[{"name":"체리카페","tel":"031-296-6999","addr":"경기도 화성시 매송면 어천리 428-1번지","indutype":"일반휴게음식 - 일반한식","category":"restaurant"}]},{"lat":"37.258796201","long":"126.91639827","imageIndex":4,"items":[{"name":"카페 몬테로사","tel":"031-293-2324","addr":"경기도 화성시 매송면 어천리 166번지","indutype":"일반휴게음식 - 서양음식","category":"restaurant"}]}]