[{"lat":"37.006775191","long":"127.13552619","imageIndex":0,"items":[{"name":"공임나라 평택점","tel":"031-658-7026","addr":"경기도 평택시 죽백동 136-56번지","indutype":"자동차정비 유지 - 자동차정비","category":"car"}]},{"lat":"37.003914614","long":"127.13113961","imageIndex":0,"items":[{"name":"넥센타이어(주)타이어테크평택죽백점","tel":"031-000-0000","addr":"경기도 평택시 죽백동 654-6번지 외1필지","indutype":"자동차정비 유지 - 자동차시트·타이어","category":"car"}]},{"lat":"37.011549946","long":"127.10961299","imageIndex":0,"items":[{"name":"스피드메이트평택비전점","tel":"031-692-3612","addr":"경기도 평택시 죽백동 521번지","indutype":"자동차정비 유지 - 자동차정비","category":"car"}]},{"lat":"37.013385956","long":"127.11199765","imageIndex":0,"items":[{"name":"아트런","tel":"031-656-7737","addr":"경기도 평택시 죽백동 485-4번지","indutype":"자동차정비 유지 - 자동차부품","category":"car"}]},{"lat":"37.003746681","long":"127.11921913","imageIndex":0,"items":[{"name":"주식회사 아스티즈","tel":"031-651-0801","addr":"경기도 평택시 죽백동 771-1번지 평택세무타워 501호","indutype":"자동차정비 유지 - 자동차부품","category":"car"}]},{"lat":"37.014051278","long":"127.11358293","imageIndex":0,"items":[{"name":"카닥터(Car Doctor)","tel":"031-653-5335","addr":"경기도 평택시 죽백동 479-17번지","indutype":"자동차정비 유지 - 자동차부품","category":"car"},{"name":"커스텀앰","tel":"031-653-5335","addr":"경기도 평택시 죽백동 479-17번지","indutype":"자동차정비 유지 - 자동차부품","category":"car"},{"name":"타이어스토어","tel":"","addr":"경기도 평택시 죽백동 479-17번지","indutype":"자동차정비 유지 - 자동차시트·타이어","category":"car"}]},{"lat":"37.016328138","long":"127.11658644","imageIndex":0,"items":[{"name":"타이어79 죽백점","tel":"031-656-1047","addr":"경기도 평택시 죽백동 426-2번지","indutype":"자동차정비 유지 - 자동차시트·타이어","category":"car"}]},{"lat":"37.013885477","long":"127.134752","imageIndex":0,"items":[{"name":"타이어넷","tel":"","addr":"경기도 평택시 죽백동 122번지","indutype":"자동차정비 유지 - 자동차시트·타이어","category":"car"}]},{"lat":"37.004157391","long":"127.13161189","imageIndex":0,"items":[{"name":"평택셀세모","tel":"031-691-3020","addr":"경기도 평택시 죽백동 654-9번지 외3필지","indutype":"자동차정비 유지 - 자동차부품","category":"car"}]},{"lat":"37.000962371","long":"127.11922613","imageIndex":0,"items":[{"name":"평택시도서관","tel":"031-8024-5491","addr":"경기도 평택시 죽백동 800번지","indutype":"자동차정비 유지 - 주차장","category":"car"}]}]