[{"lat":"37.685054165","long":"127.30848863","imageIndex":0,"items":[{"name":"153카모터스","tel":"031-595-4455","addr":"경기도 남양주시 화도읍 가곡리 136-3번지","indutype":"자동차정비 유지 - 카인테리어","category":"car"}]},{"lat":"37.684500377","long":"127.30662714","imageIndex":0,"items":[{"name":"39광택","tel":"031-796-2554","addr":"경기도 남양주시 화도읍 가곡리 279-14번지 영신아트빌라 301호","indutype":"자동차정비 유지 - 카인테리어","category":"car"},{"name":"출장스팀세차","tel":"","addr":"경기도 남양주시 화도읍 가곡리 279-14번지 영신아트빌라 203호","indutype":"자동차정비 유지 - 세차장","category":"car"}]},{"lat":"37.690776761","long":"127.30440788","imageIndex":0,"items":[{"name":"개러지모터스(GARAGE MOTORS)","tel":"","addr":"경기도 남양주시 화도읍 가곡리 319-16번지","indutype":"자동차판매 - 기타운송","category":"car"}]},{"lat":"37.681251381","long":"127.30173932","imageIndex":0,"items":[{"name":"금성타이어수리","tel":"031-543-9652","addr":"경기도 남양주시 화도읍 가곡리 167-10","indutype":"자동차정비 유지 - 자동차시트·타이어","category":"car"}]},{"lat":"37.683500087","long":"127.30671376","imageIndex":0,"items":[{"name":"브라더카센터","tel":"031-559-7052","addr":"경기도 남양주시 화도읍 가곡리 138-3번지","indutype":"자동차정비 유지 - 자동차정비","category":"car"}]},{"lat":"37.685415045","long":"127.30829739","imageIndex":0,"items":[{"name":"삼광카센타","tel":"031-593-5333","addr":"경기도 남양주시 화도읍 가곡리 136-1번지","indutype":"자동차정비 유지 - 자동차정비","category":"car"}]},{"lat":"37.681945948","long":"127.30141336","imageIndex":0,"items":[{"name":"에이스(ACE)광택","tel":"070-4028-0510","addr":"경기도 남양주시 화도읍 가곡리 241-6번지 110동 401호 예당","indutype":"자동차정비 유지 - 세차장","category":"car"}]},{"lat":"37.689827131","long":"127.30582123","imageIndex":0,"items":[{"name":"엠엔에스이브이(M&S EV)","tel":"031-567-8778","addr":"경기도 남양주시 화도읍 가곡리 327-3번지","indutype":"자동차정비 유지 - 자동차부품","category":"car"}]},{"lat":"37.682025163","long":"127.29857959","imageIndex":0,"items":[{"name":"제이엠(JM)","tel":"","addr":"경기도 남양주시 화도읍 가곡리 산87-1번지 신 87-1","indutype":"자동차정비 유지 - 자동차부품","category":"car"}]},{"lat":"37.67983242","long":"127.30349071","imageIndex":0,"items":[{"name":"제일자동차공업사세차장","tel":"031-594-6760","addr":"경기도 남양주시 화도읍 가곡리 169-1번지","indutype":"자동차정비 유지 - 세차장","category":"car"}]},{"lat":"37.679500828","long":"127.30279788","imageIndex":0,"items":[{"name":"카마스터","tel":"031-593-9070","addr":"경기도 남양주시 화도읍 가곡리 170-5번지","indutype":"자동차정비 유지 - 자동차정비","category":"car"}]},{"lat":"37.677580845","long":"127.30316423","imageIndex":0,"items":[{"name":"평내형제자동차공업사","tel":"031-591-0488","addr":"경기도 남양주시 화도읍 가곡리 173-2번지","indutype":"자동차정비 유지 - 자동차정비","category":"car"}]},{"lat":"37.688662266","long":"127.31715383","imageIndex":0,"items":[{"name":"현대카센타","tel":"031-511-0960","addr":"경기도 남양주시 화도읍 가곡리 47-4번지","indutype":"자동차정비 유지 - 자동차정비","category":"car"}]},{"lat":"37.680105532","long":"127.30238088","imageIndex":0,"items":[{"name":"현반장자동차공업사","tel":"031-594-8700","addr":"경기도 남양주시 화도읍 가곡리 169-16번지","indutype":"자동차정비 유지 - 자동차정비","category":"car"}]}]