[{"lat":"37.160469586","long":"126.69597732","imageIndex":17,"items":[{"name":"강산지원","tel":"031-111-1111","addr":"경기도 화성시 서신면 매화리 852번지 852-2","indutype":"신변잡화 - 기타잡화","category":"other"}]},{"lat":"37.169990098","long":"126.7052053","imageIndex":17,"items":[{"name":"매화건재","tel":"031-357-3844","addr":"경기도 화성시 서신면 매화리 351-1번지","indutype":"건축자재 - 목재·석재·철물","category":"other"}]},{"lat":"37.168881263","long":"126.70498447","imageIndex":17,"items":[{"name":"바바리알 명품","tel":"070-7716-8992","addr":"경기도 화성시 서신면 매화리 361-1번지 1층 2호","indutype":"용역 서비스 - 사무서비스","category":"other"}]},{"lat":"37.163968107","long":"126.7075932","imageIndex":17,"items":[{"name":"브이이엔에스(VENS)","tel":"070-4113-0515","addr":"경기도 화성시 서신면 매화리 440-6번지","indutype":"수리서비스 - 레져용품수리","category":"other"}]},{"lat":"37.167717657","long":"126.70448238","imageIndex":17,"items":[{"name":"서신공구용접","tel":"031-355-8695","addr":"경기도 화성시 서신면 매화리 386-2번지","indutype":"기타 - 기계공구","category":"other"}]},{"lat":"37.168717462","long":"126.70434333","imageIndex":17,"items":[{"name":"서신열쇠.문구","tel":"031-357-3322","addr":"경기도 화성시 서신면 매화리 365-3번지","indutype":"건축자재 - 목재·석재·철물","category":"other"}]},{"lat":"37.164245152","long":"126.70668018","imageIndex":17,"items":[{"name":"스크린코리아","tel":"031-401-5534","addr":"경기도 화성시 서신면 매화리 482번지","indutype":"서적문구 - 출판 및 인쇄물","category":"other"}]},{"lat":"37.167411221","long":"126.7044498","imageIndex":17,"items":[{"name":"식물약국농자재마트","tel":"031-357-2650","addr":"경기도 화성시 서신면 매화리 387-1번지","indutype":"농업 - 비료,사료,종자","category":"other"}]},{"lat":"37.164608261","long":"126.70775959","imageIndex":17,"items":[{"name":"씨유화성서신점","tel":"031-898-6568","addr":"경기도 화성시 서신면 매화리 438번지","indutype":"유통업 영리 - 편 의 점","category":"other"}]},{"lat":"37.168022248","long":"126.70737477","imageIndex":17,"items":[{"name":"우진선구","tel":"031-355-7338","addr":"경기도 화성시 서신면 매화리 304-1번지","indutype":"기타 - 기타 전문점","category":"other"}]},{"lat":"37.16846574","long":"126.70456951","imageIndex":17,"items":[{"name":"유신전파사","tel":"031-357-2724","addr":"경기도 화성시 서신면 매화리 384-1번지","indutype":"전기제품 - 기타전기제품","category":"other"}]},{"lat":"37.167832048","long":"126.70698144","imageIndex":17,"items":[{"name":"인화전기","tel":"031-357-3414","addr":"경기도 화성시 서신면 매화리 304-4번지","indutype":"기타 - 기계공구","category":"other"}]},{"lat":"37.16880322","long":"126.70620077","imageIndex":17,"items":[{"name":"칠성보일러","tel":"031-357-9797","addr":"경기도 화성시 서신면 매화리 340-2","indutype":"수리서비스 - 기타수리서비스","category":"other"}]},{"lat":"37.163492666","long":"126.69775518","imageIndex":17,"items":[{"name":"하희호","tel":"","addr":"경기도 화성시 서신면 매화리 777번지","indutype":"광학제품 - 사진관","category":"other"}]},{"lat":"37.168465372","long":"126.70442314","imageIndex":17,"items":[{"name":"현대도배장판","tel":"","addr":"경기도 화성시 서신면 매화리 384-4번지 1층","indutype":"직물 - 카페트,커튼,천막,지물","category":"other"}]},{"lat":"37.168575167","long":"126.705087","imageIndex":17,"items":[{"name":"흥농종묘","tel":"031-357-2625","addr":"경기도 화성시 서신면 매화리 322-6번지","indutype":"농업 - 비료,사료,종자","category":"other"}]}]