[{"lat":"37.706009277","long":"126.76298384","imageIndex":4,"items":[{"name":"(주)디오에이치/울디웨스턴돔점","tel":"070-4714-0672","addr":"경기도 파주시 야당동 147-51번지","indutype":"일반휴게음식 - 일반한식","category":"restaurant"}]},{"lat":"37.713733253","long":"126.75993085","imageIndex":4,"items":[{"name":"24시전주명가콩나물국밥","tel":"031-8071-2185","addr":"경기도 파주시 야당동 1070번지","indutype":"일반휴게음식 - 일반한식","category":"restaurant"},{"name":"더스파 한식당","tel":"031-942-2005","addr":"경기도 파주시 야당동 1070번지","indutype":"일반휴게음식 - 일반한식","category":"restaurant"},{"name":"맘스터치 야당역점","tel":"031-943-8080","addr":"경기도 파주시 야당동 1070번지","indutype":"일반휴게음식 - 서양음식","category":"restaurant"},{"name":"소담치킨","tel":"031-907-5019","addr":"경기도 파주시 야당동 1070번지","indutype":"일반휴게음식 - 일반한식","category":"restaurant"},{"name":"양평해장국 야당점","tel":"031-942-2599","addr":"경기도 파주시 야당동 1070번지","indutype":"일반휴게음식 - 일반한식","category":"restaurant"},{"name":"이디야커피야당역점","tel":"031-949-0982","addr":"경기도 파주시 야당동 1070번지","indutype":"일반휴게음식 - 서양음식","category":"restaurant"},{"name":"장혁민의부대찌개","tel":"031-957-7333","addr":"경기도 파주시 야당동 1070번지","indutype":"일반휴게음식 - 일반한식","category":"restaurant"}]},{"lat":"37.72470356","long":"126.76715445","imageIndex":4,"items":[{"name":"32공방","tel":"031-947-6757","addr":"경기도 파주시 야당동 295-9번지","indutype":"일반휴게음식 - 일반한식","category":"restaurant"},{"name":"회싸나이","tel":"031-941-6292","addr":"경기도 파주시 야당동 295-9번지","indutype":"일반휴게음식 - 일식·회집","category":"restaurant"}]},{"lat":"37.716536031","long":"126.76031865","imageIndex":4,"items":[{"name":"3번가","tel":"031-000-0000","addr":"경기도 파주시 야당동 1076번지","indutype":"일반휴게음식 - 주점","category":"restaurant"},{"name":"뉴욕 1990","tel":"","addr":"경기도 파주시 야당동 1076번지","indutype":"일반휴게음식 - 서양음식","category":"restaurant"},{"name":"주식회사 카페제이콥 (cafe jacob)","tel":"031-939-1194","addr":"경기도 파주시 야당동 1076번지","indutype":"일반휴게음식 - 서양음식","category":"restaurant"},{"name":"주식회사 카페제이콥(cafe jacob)","tel":"031-939-1194","addr":"경기도 파주시 야당동 1076번지","indutype":"일반휴게음식 - 서양음식","category":"restaurant"},{"name":"주키니","tel":"","addr":"경기도 파주시 야당동 1076번지","indutype":"일반휴게음식 - 일반한식","category":"restaurant"},{"name":"헬로퍼피","tel":"031-111-1111","addr":"경기도 파주시 야당동 1076번지","indutype":"일반휴게음식 - 서양음식","category":"restaurant"}]},{"lat":"37.710345322","long":"126.7597718","imageIndex":4,"items":[{"name":"65도씨 닭한마리","tel":"031-948-8239","addr":"경기도 파주시 야당동 1054번지","indutype":"일반휴게음식 - 일반한식","category":"restaurant"},{"name":"계림원 누릉지통닭 야당역점","tel":"031-941-9250","addr":"경기도 파주시 야당동 1054번지","indutype":"일반휴게음식 - 스넥","category":"restaurant"},{"name":"국수나무","tel":"031-945-1944","addr":"경기도 파주시 야당동 1054번지","indutype":"일반휴게음식 - 일반한식","category":"restaurant"},{"name":"대한맥주집 파주야당점","tel":"","addr":"경기도 파주시 야당동 1054번지","indutype":"일반휴게음식 - 주점","category":"restaurant"},{"name":"올바른옛날통닭파주야당점","tel":"031-925-9994","addr":"경기도 파주시 야당동 1054번지","indutype":"일반휴게음식 - 스넥","category":"restaurant"},{"name":"짝태랑노가리 야당점","tel":"070-5121-6771","addr":"경기도 파주시 야당동 1054번지","indutype":"일반휴게음식 - 일반한식","category":"restaurant"},{"name":"할리스커피 파주야당역점","tel":"031-946-4823","addr":"경기도 파주시 야당동 1054번지","indutype":"일반휴게음식 - 서양음식","category":"restaurant"},{"name":"호수꼬치(야당역점)","tel":"031-945-8295","addr":"경기도 파주시 야당동 1054번지","indutype":"일반휴게음식 - 일반한식","category":"restaurant"}]},{"lat":"37.724704625","long":"126.76768756","imageIndex":4,"items":[{"name":"7080뼈다귀감자탕","tel":"031-944-5063","addr":"경기도 파주시 야당동 296-4번지","indutype":"일반휴게음식 - 일반한식","category":"restaurant"},{"name":"역전포차","tel":"031-942-4875","addr":"경기도 파주시 야당동 296-4번지","indutype":"일반휴게음식 - 일반한식","category":"restaurant"}]},{"lat":"37.70773195","long":"126.75948549","imageIndex":4,"items":[{"name":"79치킨","tel":"031-941-7978","addr":"경기도 파주시 야당동 1048-1번지","indutype":"일반휴게음식 - 스넥","category":"restaurant"},{"name":"페이지/(주)하베스트코리아 파주운정야당지","tel":"","addr":"경기도 파주시 야당동 1048-1번지","indutype":"일반휴게음식 - 서양음식","category":"restaurant"},{"name":"페이지카페","tel":"031-941-7955","addr":"경기도 파주시 야당동 1048-1번지","indutype":"일반휴게음식 - 서양음식","category":"restaurant"}]},{"lat":"37.715429087","long":"126.75229253","imageIndex":4,"items":[{"name":"8800 켄터키치킨 한빛마을점","tel":"031-947-8892","addr":"경기도 파주시 야당동 982번지 한빛마을2단지휴먼빌레이크팰리스","indutype":"일반휴게음식 - 스넥","category":"restaurant"},{"name":"카노떡볶이","tel":"031-944-3676","addr":"경기도 파주시 야당동 982번지","indutype":"일반휴게음식 - 스넥","category":"restaurant"},{"name":"커피에 반하다(문정호수공원점)","tel":"031-549-1826","addr":"경기도 파주시 야당동 982번지 한빛마을2단지휴먼빌레이크팰리스","indutype":"일반휴게음식 - 서양음식","category":"restaurant"},{"name":"풍성호 운정한빛점","tel":"031-503-8018","addr":"경기도 파주시 야당동 982번지","indutype":"일반휴게음식 - 서양음식","category":"restaurant"},{"name":"피자마루 운정한빛점","tel":"031-944-1082","addr":"경기도 파주시 야당동 982번지 한빛마을2단지휴먼빌레이크팰리스","indutype":"일반휴게음식 - 일반한식","category":"restaurant"}]},{"lat":"37.709349856","long":"126.74912631","imageIndex":4,"items":[{"name":"BHC운정한빛점","tel":"031-957-9282","addr":"경기도 파주시 야당동 1023번지 한빛마을6단지","indutype":"일반휴게음식 - 일반한식","category":"restaurant"},{"name":"어원수산","tel":"031-946-7974","addr":"경기도 파주시 야당동 1023번지 한빛마을6단지","indutype":"일반휴게음식 - 일반한식","category":"restaurant"},{"name":"추억의옛날통닭","tel":"031-943-9244","addr":"경기도 파주시 야당동 1023번지 한빛마을6단지","indutype":"일반휴게음식 - 일반한식","category":"restaurant"}]},{"lat":"37.716094215","long":"126.76014997","imageIndex":4,"items":[{"name":"M(2호점)","tel":"070-7715-0379","addr":"경기도 파주시 야당동 1074번지","indutype":"일반휴게음식 - 일반한식","category":"restaurant"},{"name":"밥상차리는이모","tel":"031-953-8944","addr":"경기도 파주시 야당동 1074번지","indutype":"일반휴게음식 - 일반한식","category":"restaurant"},{"name":"엠카페","tel":"070-7715-0379","addr":"경기도 파주시 야당동 1074번지","indutype":"일반휴게음식 - 서양음식","category":"restaurant"},{"name":"엠카페(Mcafe)","tel":"070-7715-0379","addr":"경기도 파주시 야당동 1074번지","indutype":"일반휴게음식 - 서양음식","category":"restaurant"},{"name":"직화쭈꾸미하우스","tel":"031-947-0089","addr":"경기도 파주시 야당동 1074번지","indutype":"일반휴게음식 - 일반한식","category":"restaurant"}]},{"lat":"37.712288851","long":"126.76292958","imageIndex":4,"items":[{"name":"가마솥다주밥상","tel":"031-948-5953","addr":"경기도 파주시 야당동 192-2번지 벨라타운","indutype":"일반휴게음식 - 일반한식","category":"restaurant"},{"name":"서울뚝배기","tel":"031-000-0000","addr":"경기도 파주시 야당동 192-2번지 벨라타운","indutype":"일반휴게음식 - 일반한식","category":"restaurant"}]},{"lat":"37.710570735","long":"126.75126554","imageIndex":4,"items":[{"name":"가온족발보쌈","tel":"031-945-6778","addr":"경기도 파주시 야당동 1006-6번지","indutype":"일반휴게음식 - 일반한식","category":"restaurant"},{"name":"운정족발","tel":"031-949-4800","addr":"경기도 파주시 야당동 1006-6번지","indutype":"일반휴게음식 - 일반한식","category":"restaurant"},{"name":"짬뽕팩토리","tel":"031-945-1005","addr":"경기도 파주시 야당동 1006-6번지","indutype":"일반휴게음식 - 중국식","category":"restaurant"},{"name":"호치킨 파주 운정 야당점","tel":"031-946-5727","addr":"경기도 파주시 야당동 1006-6번지","indutype":"일반휴게음식 - 스넥","category":"restaurant"}]},{"lat":"37.709208814","long":"126.76354055","imageIndex":4,"items":[{"name":"감내토종닭","tel":"031-947-9275","addr":"경기도 파주시 야당동 423-10번지","indutype":"일반휴게음식 - 일반한식","category":"restaurant"}]},{"lat":"37.715265222","long":"126.76009597","imageIndex":4,"items":[{"name":"강순자옛맛김치찌개","tel":"031-949-5578","addr":"경기도 파주시 야당동 1074-2번지","indutype":"일반휴게음식 - 일반한식","category":"restaurant"},{"name":"강순자옛맛김치찌개 야당역점","tel":"031-949-5578","addr":"경기도 파주시 야당동 1074-2번지","indutype":"일반휴게음식 - 일반한식","category":"restaurant"},{"name":"명품7080","tel":"070-8874-4993","addr":"경기도 파주시 야당동 1074-2번지","indutype":"일반휴게음식 - 일반한식","category":"restaurant"},{"name":"쇼우","tel":"031-948-1306","addr":"경기도 파주시 야당동 1074-2번지","indutype":"일반휴게음식 - 일식·회집","category":"restaurant"},{"name":"하오판다","tel":"032-1111-1111","addr":"경기도 파주시 야당동 1074-2번지","indutype":"일반휴게음식 - 중국식","category":"restaurant"},{"name":"한솥도시락 파주야당역1호점","tel":"031-944-0155","addr":"경기도 파주시 야당동 1074-2번지","indutype":"일반휴게음식 - 일반한식","category":"restaurant"}]},{"lat":"37.708537513","long":"126.75693127","imageIndex":4,"items":[{"name":"고스트피자","tel":"031-949-5249","addr":"경기도 파주시 야당동 1031번지","indutype":"일반휴게음식 - 서양음식","category":"restaurant"},{"name":"디어커피 DEAR COFFEE","tel":"031-941-8853","addr":"경기도 파주시 야당동 1031번지","indutype":"일반휴게음식 - 서양음식","category":"restaurant"},{"name":"왕순이주먹밥김밥","tel":"031-948-6900","addr":"경기도 파주시 야당동 1031번지","indutype":"일반휴게음식 - 일반한식","category":"restaurant"}]},{"lat":"37.709793535","long":"126.76309639","imageIndex":4,"items":[{"name":"고양한우 돼지한마리","tel":"031-8071-2245","addr":"경기도 파주시 야당동 178-11번지 일신설비 나동","indutype":"일반휴게음식 - 일반한식","category":"restaurant"},{"name":"참고을누룽지통닭구이전문점","tel":"031-946-4850","addr":"경기도 파주시 야당동 178-11번지","indutype":"일반휴게음식 - 일반한식","category":"restaurant"}]},{"lat":"37.712120829","long":"126.7600722","imageIndex":4,"items":[{"name":"고향옥얼큰순대국","tel":"031-947-9270","addr":"경기도 파주시 야당동 1063번지","indutype":"일반휴게음식 - 일반한식","category":"restaurant"},{"name":"더첸","tel":"031-944-9469","addr":"경기도 파주시 야당동 1063번지","indutype":"일반휴게음식 - 중국식","category":"restaurant"},{"name":"투플레이스","tel":"031-948-1239","addr":"경기도 파주시 야당동 1063번지","indutype":"일반휴게음식 - 주점","category":"restaurant"},{"name":"파주한식뷔페","tel":"031-947-6647","addr":"경기도 파주시 야당동 1063번지","indutype":"일반휴게음식 - 일반한식","category":"restaurant"}]},{"lat":"37.712209896","long":"126.75957291","imageIndex":4,"items":[{"name":"곱창고","tel":"031-941-7373","addr":"경기도 파주시 야당동 1066-3번지","indutype":"일반휴게음식 - 일반한식","category":"restaurant"},{"name":"오늘은화난쭈꾸미","tel":"031-942-2626","addr":"경기도 파주시 야당동 1066-3번지","indutype":"일반휴게음식 - 일반한식","category":"restaurant"},{"name":"육회품은돼지","tel":"031-946-5002","addr":"경기도 파주시 야당동 1066-3번지","indutype":"일반휴게음식 - 일반한식","category":"restaurant"},{"name":"청담이상 운정점","tel":"031-944-0945","addr":"경기도 파주시 야당동 1066-3번지","indutype":"일반휴게음식 - 일반한식","category":"restaurant"},{"name":"크라운호프 파주야당점","tel":"031-949-2226","addr":"경기도 파주시 야당동 1066-3번지","indutype":"일반휴게음식 - 주점","category":"restaurant"}]},{"lat":"37.714427173","long":"126.76001931","imageIndex":4,"items":[{"name":"곱창이야기","tel":"","addr":"경기도 파주시 야당동 1072-1번지","indutype":"일반휴게음식 - 일반한식","category":"restaurant"},{"name":"메가엠지씨야당역점","tel":"","addr":"경기도 파주시 야당동 1072-1번지","indutype":"일반휴게음식 - 서양음식","category":"restaurant"},{"name":"메밀꽃","tel":"031-942-1068","addr":"경기도 파주시 야당동 1072-1번지","indutype":"일반휴게음식 - 일반한식","category":"restaurant"},{"name":"명가진참치","tel":"031-935-6511","addr":"경기도 파주시 야당동 1072-1번지","indutype":"일반휴게음식 - 일식·회집","category":"restaurant"},{"name":"미가편백 운정직영점","tel":"031-939-0929","addr":"경기도 파주시 야당동 1072-1번지","indutype":"일반휴게음식 - 일반한식","category":"restaurant"},{"name":"북창동순두부 야당역점","tel":"","addr":"경기도 파주시 야당동 1072-1번지","indutype":"일반휴게음식 - 일반한식","category":"restaurant"},{"name":"브런치빈","tel":"","addr":"경기도 파주시 야당동 1072-1번지","indutype":"일반휴게음식 - 서양음식","category":"restaurant"},{"name":"브루웍스 야당역점","tel":"","addr":"경기도 파주시 야당동 1072-1번지","indutype":"일반휴게음식 - 일반한식","category":"restaurant"},{"name":"유가네닭갈비 파주야당역점","tel":"031-926-3399","addr":"경기도 파주시 야당동 1072-1번지","indutype":"일반휴게음식 - 일반한식","category":"restaurant"},{"name":"진삿포로","tel":"031-926-3445","addr":"경기도 파주시 야당동 1072-1번지","indutype":"일반휴게음식 - 주점","category":"restaurant"},{"name":"칠칠켄터키","tel":"031-942-7688","addr":"경기도 파주시 야당동 1072-1번지","indutype":"일반휴게음식 - 스넥","category":"restaurant"},{"name":"푸라닭 파주야당역점","tel":"031-942-9206","addr":"경기도 파주시 야당동 1072-1번지","indutype":"일반휴게음식 - 일반한식","category":"restaurant"}]},{"lat":"37.714814303","long":"126.76429374","imageIndex":4,"items":[{"name":"귀찬","tel":"070-4354-8913","addr":"경기도 파주시 야당동 226-36번지","indutype":"일반휴게음식 - 일반한식","category":"restaurant"}]},{"lat":"37.717180343","long":"126.76704218","imageIndex":4,"items":[{"name":"그녀의파스타","tel":"","addr":"경기도 파주시 야당동 240-6번지","indutype":"일반휴게음식 - 일반한식","category":"restaurant"},{"name":"모리 아와세","tel":"","addr":"경기도 파주시 야당동 240-6번지","indutype":"일반휴게음식 - 일식·회집","category":"restaurant"}]},{"lat":"37.710258365","long":"126.76573727","imageIndex":4,"items":[{"name":"기절고기국수","tel":"031-947-5339","addr":"경기도 파주시 야당동 178-92번지","indutype":"일반휴게음식 - 일반한식","category":"restaurant"}]},{"lat":"37.713898392","long":"126.74852106","imageIndex":4,"items":[{"name":"김밥천국","tel":"031-942-5579","addr":"경기도 파주시 야당동 1000-4번지","indutype":"일반휴게음식 - 일반한식","category":"restaurant"},{"name":"신나go","tel":"031-941-1080","addr":"경기도 파주시 야당동 1000-4번지","indutype":"일반휴게음식 - 일반한식","category":"restaurant"},{"name":"우리갈비","tel":"031-947-2229","addr":"경기도 파주시 야당동 1000-4번지","indutype":"일반휴게음식 - 일반한식","category":"restaurant"},{"name":"퀴즈노스 파주운정점","tel":"031-941-3227","addr":"경기도 파주시 야당동 1000-4번지","indutype":"일반휴게음식 - 서양음식","category":"restaurant"}]},{"lat":"37.708182216","long":"126.75938195","imageIndex":4,"items":[{"name":"김밥천국","tel":"031-941-9877","addr":"경기도 파주시 야당동 1048번지","indutype":"일반휴게음식 - 스넥","category":"restaurant"},{"name":"무니베리","tel":"031-940-5831","addr":"경기도 파주시 야당동 1048번지","indutype":"일반휴게음식 - 서양음식","category":"restaurant"},{"name":"영자와병태야","tel":"031-948-9461","addr":"경기도 파주시 야당동 1048번지","indutype":"일반휴게음식 - 일반한식","category":"restaurant"},{"name":"짜장앤짬뽕","tel":"031-946-4333","addr":"경기도 파주시 야당동 1048번지","indutype":"일반휴게음식 - 중국식","category":"restaurant"},{"name":"커피에반하다 유미어스점","tel":"","addr":"경기도 파주시 야당동 1048번지","indutype":"일반휴게음식 - 서양음식","category":"restaurant"},{"name":"파주된장국밥","tel":"","addr":"경기도 파주시 야당동 1048번지","indutype":"일반휴게음식 - 일반한식","category":"restaurant"}]},{"lat":"37.722847374","long":"126.7670469","imageIndex":4,"items":[{"name":"김이닭발","tel":"031-946-1233","addr":"경기도 파주시 야당동 290-1번지","indutype":"일반휴게음식 - 일반한식","category":"restaurant"}]},{"lat":"37.725569312","long":"126.76757139","imageIndex":4,"items":[{"name":"까페쉼표","tel":"031-946-1926","addr":"경기도 파주시 야당동 296-21번지","indutype":"일반휴게음식 - 서양음식","category":"restaurant"},{"name":"아서원","tel":"031-945-3551","addr":"경기도 파주시 야당동 296-21번지","indutype":"일반휴게음식 - 중국식","category":"restaurant"}]},{"lat":"37.704815156","long":"126.75626318","imageIndex":4,"items":[{"name":"까페예스","tel":"031-950-1490","addr":"경기도 파주시 야당동 486-7번지","indutype":"일반휴게음식 - 서양음식","category":"restaurant"}]},{"lat":"37.716736875","long":"126.76604552","imageIndex":4,"items":[{"name":"꽃비공방카페","tel":"031-000-0000","addr":"경기도 파주시 야당동 240-85번지","indutype":"일반휴게음식 - 서양음식","category":"restaurant"}]},{"lat":"37.710265354","long":"126.75170886","imageIndex":4,"items":[{"name":"꽐라포차","tel":"031-957-2442","addr":"경기도 파주시 야당동 1006-8번지","indutype":"일반휴게음식 - 일반한식","category":"restaurant"},{"name":"죠스떡볶이","tel":"031-945-3774","addr":"경기도 파주시 야당동 1006-8번지","indutype":"일반휴게음식 - 스넥","category":"restaurant"},{"name":"죠스떡볶이(파주운정점)","tel":"031-945-3774","addr":"경기도 파주시 야당동 1006-8번지","indutype":"일반휴게음식 - 스넥","category":"restaurant"}]},{"lat":"37.706119994","long":"126.75552176","imageIndex":4,"items":[{"name":"나들목","tel":"031-947-5285","addr":"경기도 파주시 야당동 466-24번지","indutype":"일반휴게음식 - 일반한식","category":"restaurant"},{"name":"아미가그늘집","tel":"031-947-2420","addr":"경기도 파주시 야당동 466-24번지","indutype":"일반휴게음식 - 일반한식","category":"restaurant"},{"name":"아미가원두","tel":"031-942-5001","addr":"경기도 파주시 야당동 466-24 가동2층","indutype":"일반휴게음식 - 일반한식","category":"restaurant"},{"name":"카페700로드","tel":"031-123-4567","addr":"경기도 파주시 야당동 466-24번지","indutype":"일반휴게음식 - 일반한식","category":"restaurant"}]},{"lat":"37.722512613","long":"126.76634473","imageIndex":4,"items":[{"name":"낙지랑 아구랑","tel":"031-947-3880","addr":"경기도 파주시 야당동 45-19번지","indutype":"일반휴게음식 - 일반한식","category":"restaurant"}]},{"lat":"37.711345893","long":"126.76001803","imageIndex":4,"items":[{"name":"낭만포차","tel":"031-111-1111","addr":"경기도 파주시 야당동 1060번지","indutype":"일반휴게음식 - 일반한식","category":"restaurant"},{"name":"삼촌네 석쇠불고기","tel":"031-942-9620","addr":"경기도 파주시 야당동 1060번지","indutype":"일반휴게음식 - 일반한식","category":"restaurant"},{"name":"신 도쿠리","tel":"031-944-6859","addr":"경기도 파주시 야당동 1060번지","indutype":"일반휴게음식 - 주점","category":"restaurant"},{"name":"장수계란말이김밥","tel":"031-949-5082","addr":"경기도 파주시 야당동 1060번지","indutype":"일반휴게음식 - 일반한식","category":"restaurant"},{"name":"촌락","tel":"","addr":"경기도 파주시 야당동 1060번지","indutype":"일반휴게음식 - 일반한식","category":"restaurant"},{"name":"카페드롭탑 야당점","tel":"031-941-1458","addr":"경기도 파주시 야당동 1060번지","indutype":"일반휴게음식 - 서양음식","category":"restaurant"},{"name":"화레무운정점","tel":"031-945-3189","addr":"경기도 파주시 야당동 1060번지","indutype":"일반휴게음식 - 일반한식","category":"restaurant"}]},{"lat":"37.711070093","long":"126.75306704","imageIndex":4,"items":[{"name":"네네치킨운정3점","tel":"031-948-4472","addr":"경기도 파주시 야당동 976번지","indutype":"일반휴게음식 - 스넥","category":"restaurant"},{"name":"아브라함 김밥","tel":"031-944-4577","addr":"경기도 파주시 야당동 976번지","indutype":"일반휴게음식 - 스넥","category":"restaurant"}]},{"lat":"37.710984249","long":"126.75940681","imageIndex":4,"items":[{"name":"노가리세상","tel":"031-945-3374","addr":"경기도 파주시 야당동 1056-2번지","indutype":"일반휴게음식 - 일반한식","category":"restaurant"},{"name":"다루마","tel":"031-000-0000","addr":"경기도 파주시 야당동 1056-2번지","indutype":"일반휴게음식 - 일반한식","category":"restaurant"},{"name":"라이스셰프(rice shef)야당점","tel":"031-946-9883","addr":"경기도 파주시 야당동 1056-2번지","indutype":"일반휴게음식 - 일반한식","category":"restaurant"},{"name":"솜씨","tel":"","addr":"경기도 파주시 야당동 1056-2번지","indutype":"일반휴게음식 - 서양음식","category":"restaurant"},{"name":"썸즈업 (Thumbs up)","tel":"070-5214-0920","addr":"경기도 파주시 야당동 1056-2번지","indutype":"일반휴게음식 - 일반한식","category":"restaurant"}]},{"lat":"37.71047209","long":"126.75148135","imageIndex":4,"items":[{"name":"노걸대감자탕","tel":"031-945-4923","addr":"경기도 파주시 야당동 1006-7번지","indutype":"일반휴게음식 - 일반한식","category":"restaurant"},{"name":"동산만두","tel":"031-8071-1109","addr":"경기도 파주시 야당동 1006-7번지","indutype":"일반휴게음식 - 스넥","category":"restaurant"},{"name":"부어치킨한빛점앤푸드더하기","tel":"031-944-6412","addr":"경기도 파주시 야당동 1006-7번지","indutype":"일반휴게음식 - 일반한식","category":"restaurant"},{"name":"수철이네왕새우Beer운정점","tel":"000-000-0000","addr":"경기도 파주시 야당동 1006-7번지","indutype":"일반휴게음식 - 주점","category":"restaurant"},{"name":"아랑식당","tel":"","addr":"경기도 파주시 야당동 1006-7번지","indutype":"일반휴게음식 - 일반한식","category":"restaurant"}]},{"lat":"37.712480298","long":"126.75962873","imageIndex":4,"items":[{"name":"누나홀닭 야당점","tel":"031-941-8007","addr":"경기도 파주시 야당동 1066-2번지","indutype":"일반휴게음식 - 스넥","category":"restaurant"},{"name":"배부장찌개가(운정신도시점)","tel":"031-000-0000","addr":"경기도 파주시 야당동 1066-2번지","indutype":"일반휴게음식 - 일반한식","category":"restaurant"},{"name":"불타는 대구막창","tel":"070-3794-9001","addr":"경기도 파주시 야당동 1066-2번지","indutype":"일반휴게음식 - 일반한식","category":"restaurant"},{"name":"비앤비클럽(B&B CLUB)","tel":"070-2292-7360","addr":"경기도 파주시 야당동 1066-2번지","indutype":"일반휴게음식 - 주점","category":"restaurant"},{"name":"샵1088","tel":"031-8071-1088","addr":"경기도 파주시 야당동 1066-2번지","indutype":"일반휴게음식 - 서양음식","category":"restaurant"},{"name":"야당골숯불갈비","tel":"0507-1409-4021","addr":"경기도 파주시 야당동 1066-2번지","indutype":"일반휴게음식 - 일반한식","category":"restaurant"},{"name":"청원양꼬치","tel":"031-944-6536","addr":"경기도 파주시 야당동 1066-2번지","indutype":"일반휴게음식 - 일반한식","category":"restaurant"},{"name":"커피에반하다 야당점","tel":"031-947-4143","addr":"경기도 파주시 야당동 1066-2번지","indutype":"일반휴게음식 - 서양음식","category":"restaurant"}]},{"lat":"37.70770602","long":"126.76001857","imageIndex":4,"items":[{"name":"다섬","tel":"","addr":"경기도 파주시 야당동 1044-2번지","indutype":"일반휴게음식 - 일반한식","category":"restaurant"}]},{"lat":"37.714233961","long":"126.76245831","imageIndex":4,"items":[{"name":"단아한블러썸","tel":"02-1111-1111","addr":"경기도 파주시 야당동 224-14번지","indutype":"일반휴게음식 - 서양음식","category":"restaurant"},{"name":"로빈 (Robin)","tel":"031-941-6511","addr":"경기도 파주시 야당동 224-14번지","indutype":"일반휴게음식 - 일반한식","category":"restaurant"}]},{"lat":"37.714871106","long":"126.76565452","imageIndex":4,"items":[{"name":"달그리고","tel":"070-3350-1206","addr":"경기도 파주시 야당동 217-2번지","indutype":"일반휴게음식 - 서양음식","category":"restaurant"},{"name":"죠이엘리","tel":"031-942-8976","addr":"경기도 파주시 야당동 217-2번지","indutype":"일반휴게음식 - 일반한식","category":"restaurant"},{"name":"커픽","tel":"02-1111-1111","addr":"경기도 파주시 야당동 217-2번지","indutype":"일반휴게음식 - 서양음식","category":"restaurant"}]},{"lat":"37.712786669","long":"126.75965041","imageIndex":4,"items":[{"name":"달빛맥주 파주야당역점","tel":"02-1234-1234","addr":"경기도 파주시 야당동 1066-1번지","indutype":"일반휴게음식 - 주점","category":"restaurant"},{"name":"스톰에프엔비","tel":"032-957-6692","addr":"경기도 파주시 야당동 1066-1번지","indutype":"일반휴게음식 - 일반한식","category":"restaurant"},{"name":"오백년누룽지백숙(운정점)","tel":"031-948-9245","addr":"경기도 파주시 야당동 1066-1번지","indutype":"일반휴게음식 - 일반한식","category":"restaurant"},{"name":"파주닭국수운정야당역점","tel":"031-948-7722","addr":"경기도 파주시 야당동 1066-1번지","indutype":"일반휴게음식 - 일반한식","category":"restaurant"}]},{"lat":"37.706456769","long":"126.76151953","imageIndex":4,"items":[{"name":"당진아구 동태찜,탕","tel":"031-948-7123","addr":"경기도 파주시 야당동 469-8번지","indutype":"일반휴게음식 - 일반한식","category":"restaurant"}]},{"lat":"37.717540724","long":"126.76704104","imageIndex":4,"items":[{"name":"대박대패삼겹살","tel":"031-957-0906","addr":"경기도 파주시 야당동 240-18번지","indutype":"일반휴게음식 - 일반한식","category":"restaurant"},{"name":"주식회사 콤마앤콤마","tel":"070-8161-2404","addr":"경기도 파주시 야당동 240-18번지","indutype":"일반휴게음식 - 서양음식","category":"restaurant"}]},{"lat":"37.722791817","long":"126.76629847","imageIndex":4,"items":[{"name":"대박이네","tel":"031-968-3262","addr":"경기도 파주시 야당동 288-8번지","indutype":"일반휴게음식 - 일반한식","category":"restaurant"}]},{"lat":"37.724924482","long":"126.76951307","imageIndex":4,"items":[{"name":"대박집","tel":"031-947-5250","addr":"경기도 파주시 야당동 25-7번지","indutype":"일반휴게음식 - 일반한식","category":"restaurant"}]},{"lat":"37.714787601","long":"126.76004082","imageIndex":4,"items":[{"name":"더 홀릭(The holic)","tel":"","addr":"경기도 파주시 야당동 1072번지","indutype":"일반휴게음식 - 일반한식","category":"restaurant"},{"name":"브로드웨이야당에스티","tel":"02-000-0000","addr":"경기도 파주시 야당동 1072번지","indutype":"일반휴게음식 - 주점","category":"restaurant"},{"name":"소미김밥","tel":"031-943-9433","addr":"경기도 파주시 야당동 1072번지","indutype":"일반휴게음식 - 스넥","category":"restaurant"},{"name":"신현경짬뽕천국(야당본점)","tel":"031-943-5888","addr":"경기도 파주시 야당동 1072번지","indutype":"일반휴게음식 - 중국식","category":"restaurant"},{"name":"에스바","tel":"031-949-0873","addr":"경기도 파주시 야당동 1072번지","indutype":"일반휴게음식 - 일반한식","category":"restaurant"},{"name":"콘파스토 (CON PASTO)","tel":"031-948-7980","addr":"경기도 파주시 야당동 1072번지","indutype":"일반휴게음식 - 서양음식","category":"restaurant"},{"name":"콩밭뜰","tel":"","addr":"경기도 파주시 야당동 1072번지","indutype":"일반휴게음식 - 일반한식","category":"restaurant"},{"name":"쿨참치","tel":"031-949-8822","addr":"경기도 파주시 야당동 1072번지","indutype":"일반휴게음식 - 일식·회집","category":"restaurant"},{"name":"탐앤탐스파주야당역점","tel":"031-957-0770","addr":"경기도 파주시 야당동 1072번지","indutype":"일반휴게음식 - 서양음식","category":"restaurant"}]},{"lat":"37.724730861","long":"126.76729047","imageIndex":4,"items":[{"name":"덴버","tel":"031-947-8959","addr":"경기도 파주시 야당동 295-8번지","indutype":"일반휴게음식 - 일반한식","category":"restaurant"}]},{"lat":"37.724117739","long":"126.77160266","imageIndex":4,"items":[{"name":"돈까스 명인","tel":"031-957-7745","addr":"경기도 파주시 야당동 1-9번지","indutype":"일반휴게음식 - 일반한식","category":"restaurant"}]},{"lat":"37.711458669","long":"126.77129045","imageIndex":4,"items":[{"name":"돔(DOME)112-11","tel":"070-7700-9273","addr":"경기도 파주시 야당동 112-14번지","indutype":"일반휴게음식 - 서양음식","category":"restaurant"}]},{"lat":"37.708481807","long":"126.75187365","imageIndex":4,"items":[{"name":"돼지엄마족발보쌈","tel":"031-946-5512","addr":"경기도 파주시 야당동 1026번지 한빛마을7단지","indutype":"일반휴게음식 - 일반한식","category":"restaurant"},{"name":"주하우스","tel":"031-941-3533","addr":"경기도 파주시 야당동 1026번지 한빛마을7단지","indutype":"일반휴게음식 - 주점","category":"restaurant"},{"name":"커피에반하다 한빛마을점","tel":"031-943-4145","addr":"경기도 파주시 야당동 1026번지 한빛마을7단지","indutype":"일반휴게음식 - 서양음식","category":"restaurant"},{"name":"포차","tel":"070-8070-9930","addr":"경기도 파주시 야당동 1026번지 한빛마을7단지","indutype":"일반휴게음식 - 주점","category":"restaurant"}]},{"lat":"37.711091809","long":"126.75057199","imageIndex":4,"items":[{"name":"두레통닭(야당점)","tel":"031-944-3521","addr":"경기도 파주시 야당동 1006-2번지","indutype":"일반휴게음식 - 스넥","category":"restaurant"},{"name":"두이추","tel":"031-949-4959","addr":"경기도 파주시 야당동 1006-2번지","indutype":"일반휴게음식 - 중국식","category":"restaurant"},{"name":"한우대장간","tel":"031-943-3111","addr":"경기도 파주시 야당동 1006-2번지","indutype":"일반휴게음식 - 일반한식","category":"restaurant"}]},{"lat":"37.724903535","long":"126.76803856","imageIndex":4,"items":[{"name":"둥그리곱창","tel":"031-947-7732","addr":"경기도 파주시 야당동 296-36번지","indutype":"일반휴게음식 - 일반한식","category":"restaurant"}]},{"lat":"37.724813011","long":"126.76782333","imageIndex":4,"items":[{"name":"떡튀순","tel":"031-941-6866","addr":"경기도 파주시 야당동 296-2번지","indutype":"일반휴게음식 - 스넥","category":"restaurant"},{"name":"운정면","tel":"","addr":"경기도 파주시 야당동 296-2번지","indutype":"일반휴게음식 - 일반한식","category":"restaurant"}]},{"lat":"37.713341162","long":"126.76204158","imageIndex":4,"items":[{"name":"락돈","tel":"02-325-9436","addr":"경기도 파주시 야당동 421-17번지","indutype":"일반휴게음식 - 일반한식","category":"restaurant"},{"name":"심야노가리","tel":"","addr":"경기도 파주시 야당동 421-17번지","indutype":"일반휴게음식 - 주점","category":"restaurant"},{"name":"야당골국수터","tel":"031-946-2055","addr":"경기도 파주시 야당동 421-17번지","indutype":"일반휴게음식 - 일반한식","category":"restaurant"},{"name":"홍어전집","tel":"031-943-8038","addr":"경기도 파주시 야당동 421-17번지","indutype":"일반휴게음식 - 일반한식","category":"restaurant"}]},{"lat":"37.711872725","long":"126.76210303","imageIndex":4,"items":[{"name":"랍다","tel":"031-947-1217","addr":"경기도 파주시 야당동 421-44번지","indutype":"일반휴게음식 - 일반한식","category":"restaurant"}]},{"lat":"37.715538999","long":"126.76179629","imageIndex":4,"items":[{"name":"레넌카페W","tel":"031-000-0000","addr":"경기도 파주시 야당동 1081-2번지","indutype":"일반휴게음식 - 서양음식","category":"restaurant"}]},{"lat":"37.709958695","long":"126.76457014","imageIndex":4,"items":[{"name":"로뎀함바부페","tel":"070-4251-2031","addr":"경기도 파주시 야당동 178-13번지","indutype":"일반휴게음식 - 일반한식","category":"restaurant"}]},{"lat":"37.71550263","long":"126.75727117","imageIndex":4,"items":[{"name":"롱블랙커피","tel":"031-000-0000","addr":"경기도 파주시 야당동 991번지","indutype":"일반휴게음식 - 서양음식","category":"restaurant"}]},{"lat":"37.725506471","long":"126.76768502","imageIndex":4,"items":[{"name":"맛을새우다","tel":"031-944-1129","addr":"경기도 파주시 야당동 296-22번지","indutype":"일반휴게음식 - 일반한식","category":"restaurant"}]},{"lat":"37.704678007","long":"126.76404274","imageIndex":4,"items":[{"name":"맛있는포차","tel":"031-959-0033","addr":"경기도 파주시 야당동 146-8번지","indutype":"일반휴게음식 - 일반한식","category":"restaurant"},{"name":"티바두마리치킨(탄현점)","tel":"031-952-9229","addr":"경기도 파주시 야당동 146-8번지","indutype":"일반휴게음식 - 스넥","category":"restaurant"}]},{"lat":"37.711651118","long":"126.75948401","imageIndex":4,"items":[{"name":"매운집","tel":"031-946-0121","addr":"경기도 파주시 야당동 1056번지","indutype":"일반휴게음식 - 일반한식","category":"restaurant"},{"name":"미쓰닭","tel":"031-927-9219","addr":"경기도 파주시 야당동 1056번지","indutype":"일반휴게음식 - 스넥","category":"restaurant"},{"name":"바사칸왕새우튀김","tel":"031-943-9430","addr":"경기도 파주시 야당동 1056번지","indutype":"일반휴게음식 - 일반한식","category":"restaurant"},{"name":"본죽앤비빔밥카페","tel":"031-942-8280","addr":"경기도 파주시 야당동 1056번지","indutype":"일반휴게음식 - 일반한식","category":"restaurant"},{"name":"선산대한곱창&태백물닭갈비","tel":"031-944-8886","addr":"경기도 파주시 야당동 1056번지","indutype":"일반휴게음식 - 일반한식","category":"restaurant"},{"name":"소담","tel":"031-943-0071","addr":"경기도 파주시 야당동 1056번지","indutype":"일반휴게음식 - 일반한식","category":"restaurant"},{"name":"왕코등갈비","tel":"031-941-7730","addr":"경기도 파주시 야당동 1056번지","indutype":"일반휴게음식 - 일반한식","category":"restaurant"},{"name":"월남선생 파주야당점","tel":"02-0000-0000","addr":"경기도 파주시 야당동 1056번지","indutype":"일반휴게음식 - 서양음식","category":"restaurant"},{"name":"유씨네족발공장","tel":"031-944-5825","addr":"경기도 파주시 야당동 1056번지","indutype":"일반휴게음식 - 일반한식","category":"restaurant"},{"name":"천사곱창","tel":"031-943-8186","addr":"경기도 파주시 야당동 1056번지","indutype":"일반휴게음식 - 일반한식","category":"restaurant"},{"name":"훔친뒷고기","tel":"031-957-8833","addr":"경기도 파주시 야당동 1056번지","indutype":"일반휴게음식 - 일반한식","category":"restaurant"}]},{"lat":"37.709594263","long":"126.76257537","imageIndex":4,"items":[{"name":"맷돌순두부","tel":"031-957-3694","addr":"경기도 파주시 야당동 178-16번지","indutype":"일반휴게음식 - 일반한식","category":"restaurant"}]},{"lat":"37.707789958","long":"126.77037196","imageIndex":4,"items":[{"name":"무고레","tel":"031-959-9494","addr":"경기도 파주시 야당동 137번지","indutype":"일반휴게음식 - 일반한식","category":"restaurant"}]},{"lat":"37.71495857","long":"126.76434998","imageIndex":4,"items":[{"name":"무허가 스튜디오&까페","tel":"031-949-5636","addr":"경기도 파주시 야당동 226-13번지","indutype":"일반휴게음식 - 일반한식","category":"restaurant"}]},{"lat":"37.71448397","long":"126.76579185","imageIndex":4,"items":[{"name":"미니네밀가칼국수","tel":"","addr":"경기도 파주시 야당동 219번지","indutype":"일반휴게음식 - 일반한식","category":"restaurant"}]},{"lat":"37.709263446","long":"126.76382389","imageIndex":4,"items":[{"name":"미리내","tel":"031-942-3577","addr":"경기도 파주시 야당동 178-31,423-11","indutype":"일반휴게음식 - 일반한식","category":"restaurant"}]},{"lat":"37.711235548","long":"126.75037871","imageIndex":4,"items":[{"name":"미친곱창","tel":"031-945-9253","addr":"경기도 파주시 야당동 1006-1번지","indutype":"일반휴게음식 - 일반한식","category":"restaurant"},{"name":"바푸리","tel":"031-944-1665","addr":"경기도 파주시 야당동 1006-1번지","indutype":"일반휴게음식 - 스넥","category":"restaurant"},{"name":"사랑수산","tel":"031-945-8673","addr":"경기도 파주시 야당동 1006-1번지","indutype":"일반휴게음식 - 일반한식","category":"restaurant"}]},{"lat":"37.704928203","long":"126.75863283","imageIndex":4,"items":[{"name":"밥보다초밥","tel":"031-944-8725","addr":"경기도 파주시 야당동 486-25번지","indutype":"일반휴게음식 - 일식·회집","category":"restaurant"}]},{"lat":"37.723902089","long":"126.77189825","imageIndex":4,"items":[{"name":"밥상","tel":"031-957-6541","addr":"경기도 파주시 야당동 1-6번지","indutype":"일반휴게음식 - 일반한식","category":"restaurant"}]},{"lat":"37.715454827","long":"126.76471132","imageIndex":4,"items":[{"name":"밥앤국시","tel":"031-941-3906","addr":"경기도 파주시 야당동 226-41번지","indutype":"일반휴게음식 - 일반한식","category":"restaurant"},{"name":"얌얌","tel":"","addr":"경기도 파주시 야당동 226-41번지","indutype":"일반휴게음식 - 일반한식","category":"restaurant"},{"name":"케일리팜 치킨","tel":"031-946-3457","addr":"경기도 파주시 야당동 226-41번지","indutype":"일반휴게음식 - 스넥","category":"restaurant"}]},{"lat":"37.716040561","long":"126.76476615","imageIndex":4,"items":[{"name":"밥한술","tel":"031-941-0354","addr":"경기도 파주시 야당동 226-8번지","indutype":"일반휴게음식 - 일반한식","category":"restaurant"},{"name":"홍스취킨","tel":"031-941-8148","addr":"경기도 파주시 야당동 226-8번지","indutype":"일반휴게음식 - 일반한식","category":"restaurant"}]},{"lat":"37.716535305","long":"126.76437895","imageIndex":4,"items":[{"name":"베이지톤","tel":"031-944-0502","addr":"경기도 파주시 야당동 247-10번지","indutype":"일반휴게음식 - 서양음식","category":"restaurant"}]},{"lat":"37.712486044","long":"126.76242994","imageIndex":4,"items":[{"name":"베이징","tel":"031-947-1666","addr":"경기도 파주시 야당동 421-39번지","indutype":"일반휴게음식 - 중국식","category":"restaurant"}]},{"lat":"37.710538048","long":"126.76592917","imageIndex":4,"items":[{"name":"북경","tel":"031-943-8288","addr":"경기도 파주시 야당동 178-91번지","indutype":"일반휴게음식 - 중국식","category":"restaurant"},{"name":"집밥김밥","tel":"031-941-4408","addr":"경기도 파주시 야당동 178-91번지","indutype":"일반휴게음식 - 일반한식","category":"restaurant"}]},{"lat":"37.714426779","long":"126.76423827","imageIndex":4,"items":[{"name":"블루이쉬","tel":"","addr":"경기도 파주시 야당동 220-14번지","indutype":"일반휴게음식 - 서양음식","category":"restaurant"}]},{"lat":"37.706654979","long":"126.76151889","imageIndex":4,"items":[{"name":"산너머남촌","tel":"031-946-4060","addr":"경기도 파주시 야당동 469-125 2층","indutype":"일반휴게음식 - 일반한식","category":"restaurant"}]},{"lat":"37.71567973","long":"126.76012864","imageIndex":4,"items":[{"name":"서울집","tel":"031-941-3752","addr":"경기도 파주시 야당동 1074-1번지","indutype":"일반휴게음식 - 일반한식","category":"restaurant"},{"name":"집샤브일체","tel":"031-945-2340","addr":"경기도 파주시 야당동 1074-1번지","indutype":"일반휴게음식 - 일반한식","category":"restaurant"},{"name":"한식부페","tel":"","addr":"경기도 파주시 야당동 1074-1번지","indutype":"일반휴게음식 - 일반한식","category":"restaurant"}]},{"lat":"37.712430621","long":"126.761761","imageIndex":4,"items":[{"name":"셰프의초밥파주야당점","tel":"031-949-2538","addr":"경기도 파주시 야당동 421-41번지","indutype":"일반휴게음식 - 일식·회집","category":"restaurant"}]},{"lat":"37.71137535","long":"126.77015663","imageIndex":4,"items":[{"name":"소담골","tel":"031-957-2231","addr":"경기도 파주시 야당동 112번지","indutype":"일반휴게음식 - 일반한식","category":"restaurant"}]},{"lat":"37.715821115","long":"126.76317904","imageIndex":4,"items":[{"name":"솔로들의테이블","tel":"031-946-2284","addr":"경기도 파주시 야당동 226-155번지","indutype":"일반휴게음식 - 주점","category":"restaurant"},{"name":"이디야(야당점)","tel":"031-945-8586","addr":"경기도 파주시 야당동 226-155번지","indutype":"일반휴게음식 - 서양음식","category":"restaurant"}]},{"lat":"37.723209666","long":"126.77256961","imageIndex":4,"items":[{"name":"솔밭가든","tel":"031-941-3727","addr":"경기도 파주시 야당동 4-5번지","indutype":"일반휴게음식 - 일반한식","category":"restaurant"}]},{"lat":"37.713233627","long":"126.76232545","imageIndex":4,"items":[{"name":"송포돼지부속","tel":"031-945-1185","addr":"경기도 파주시 야당동 421-25번지","indutype":"일반휴게음식 - 일반한식","category":"restaurant"},{"name":"캠핑가든","tel":"031-875-2018","addr":"경기도 파주시 야당동 421-25번지","indutype":"일반휴게음식 - 일반한식","category":"restaurant"}]},{"lat":"37.713181094","long":"126.76307413","imageIndex":4,"items":[{"name":"송학692","tel":"031-944-0692","addr":"경기도 파주시 야당동 192-27번지","indutype":"일반휴게음식 - 일반한식","category":"restaurant"}]},{"lat":"37.710153201","long":"126.76274367","imageIndex":4,"items":[{"name":"스마일찰진꽈배기","tel":"031-948-3350","addr":"경기도 파주시 야당동 178-41번지","indutype":"일반휴게음식 - 일반한식","category":"restaurant"}]},{"lat":"37.722985026","long":"126.77287656","imageIndex":4,"items":[{"name":"신선쌈밥","tel":"031-945-7135","addr":"경기도 파주시 야당동 4-12번지","indutype":"일반휴게음식 - 일반한식","category":"restaurant"},{"name":"홍희통닭","tel":"02-111-1111","addr":"경기도 파주시 야당동 4-12번지","indutype":"일반휴게음식 - 스넥","category":"restaurant"}]},{"lat":"37.710958414","long":"126.75998527","imageIndex":4,"items":[{"name":"신참떡볶이 파주야당역점","tel":"031-942-8686","addr":"경기도 파주시 야당동 1059번지","indutype":"일반휴게음식 - 스넥","category":"restaurant"},{"name":"야당매운탕","tel":"","addr":"경기도 파주시 야당동 1059번지","indutype":"일반휴게음식 - 일반한식","category":"restaurant"},{"name":"용범이네인계동껍데기 운정신도시점","tel":"031-837-8223","addr":"경기도 파주시 야당동 1059번지","indutype":"일반휴게음식 - 일반한식","category":"restaurant"},{"name":"치킨의민족 야당역점","tel":"031-947-6993","addr":"경기도 파주시 야당동 1059번지","indutype":"일반휴게음식 - 스넥","category":"restaurant"}]},{"lat":"37.713932862","long":"126.74779511","imageIndex":4,"items":[{"name":"신통치킨운정1호점","tel":"031-944-7134","addr":"경기도 파주시 야당동 1000-1번지","indutype":"일반휴게음식 - 스넥","category":"restaurant"}]},{"lat":"37.715121131","long":"126.76454226","imageIndex":4,"items":[{"name":"심슨더스파이스","tel":"031-941-9267","addr":"경기도 파주시 야당동 226-14번지","indutype":"일반휴게음식 - 서양음식","category":"restaurant"}]},{"lat":"37.714897678","long":"126.7654276","imageIndex":4,"items":[{"name":"아재다방","tel":"031-944-6249","addr":"경기도 파주시 야당동 217번지","indutype":"일반휴게음식 - 서양음식","category":"restaurant"},{"name":"야로수길 분식집","tel":"070-5136-4458","addr":"경기도 파주시 야당동 217번지","indutype":"일반휴게음식 - 일반한식","category":"restaurant"},{"name":"야로수길 분식집","tel":"070-5136-4458","addr":"경기도 파주시 야당동 217번지","indutype":"일반휴게음식 - 일반한식","category":"restaurant"},{"name":"카페 마침내","tel":"031-1111-1111","addr":"경기도 파주시 야당동 217번지","indutype":"일반휴게음식 - 서양음식","category":"restaurant"}]},{"lat":"37.715428463","long":"126.7650403","imageIndex":4,"items":[{"name":"안단테","tel":"031-948-5188","addr":"경기도 파주시 야당동 226-18번지","indutype":"일반휴게음식 - 일반한식","category":"restaurant"}]},{"lat":"37.711370327","long":"126.75020814","imageIndex":4,"items":[{"name":"압구정족발","tel":"031-945-1599","addr":"경기도 파주시 야당동 1006번지","indutype":"일반휴게음식 - 일반한식","category":"restaurant"}]},{"lat":"37.709015313","long":"126.76143185","imageIndex":4,"items":[{"name":"야당고을양고기통바베큐","tel":"031-947-0027","addr":"경기도 파주시 야당동 427-1번지","indutype":"일반휴게음식 - 일반한식","category":"restaurant"}]},{"lat":"37.710064167","long":"126.76326563","imageIndex":4,"items":[{"name":"야당곱창닭갈비","tel":"031-942-0117","addr":"경기도 파주시 야당동 178-77번지","indutype":"일반휴게음식 - 일반한식","category":"restaurant"}]},{"lat":"37.706342417","long":"126.75418289","imageIndex":4,"items":[{"name":"야당리외식공간","tel":"031-948-0035","addr":"경기도 파주시 야당동 466-59번지","indutype":"일반휴게음식 - 일반한식","category":"restaurant"},{"name":"야당리외식공간 2관","tel":"031-948-6588","addr":"경기도 파주시 야당동 466-59번지","indutype":"일반휴게음식 - 일반한식","category":"restaurant"}]},{"lat":"37.710681151","long":"126.76540704","imageIndex":4,"items":[{"name":"야당한식부페","tel":"031-946-3075","addr":"경기도 파주시 야당동 178-99","indutype":"일반휴게음식 - 일반한식","category":"restaurant"}]},{"lat":"37.703704946","long":"126.75962339","imageIndex":4,"items":[{"name":"양촌리민물장어","tel":"031-943-0377","addr":"경기도 파주시 야당동 920번지","indutype":"일반휴게음식 - 일반한식","category":"restaurant"}]},{"lat":"37.724984418","long":"126.76793621","imageIndex":4,"items":[{"name":"어굼터","tel":"031-957-6110","addr":"경기도 파주시 야당동 296-49번지","indutype":"일반휴게음식 - 일반한식","category":"restaurant"}]},{"lat":"37.711760813","long":"126.75591128","imageIndex":4,"items":[{"name":"에프터 유 한빛로점","tel":"031-949-8484","addr":"경기도 파주시 야당동 1015번지 롯데캐슬파크타운II","indutype":"일반휴게음식 - 서양음식","category":"restaurant"},{"name":"요거프레소(야당롯데캐슬점)","tel":"031-943-6563","addr":"경기도 파주시 야당동 1015번지 롯데캐슬파크타운II","indutype":"일반휴게음식 - 서양음식","category":"restaurant"}]},{"lat":"37.715266131","long":"126.76496143","imageIndex":4,"items":[{"name":"오후세시(3:PM)","tel":"031-946-8619","addr":"경기도 파주시 야당동 226-75번지","indutype":"일반휴게음식 - 일반한식","category":"restaurant"}]},{"lat":"37.710432773","long":"126.76287886","imageIndex":4,"items":[{"name":"용정장어오리파크","tel":"031-946-7922","addr":"경기도 파주시 야당동 421-12번지","indutype":"일반휴게음식 - 일반한식","category":"restaurant"}]},{"lat":"37.706147708","long":"126.76460502","imageIndex":4,"items":[{"name":"우리감자탕","tel":"031-947-8230","addr":"경기도 파주시 야당동 153-34번지","indutype":"일반휴게음식 - 일반한식","category":"restaurant"}]},{"lat":"37.723757781","long":"126.7718193","imageIndex":4,"items":[{"name":"운정임진강매운탕","tel":"031-947-9293","addr":"경기도 파주시 야당동 1-3번지","indutype":"일반휴게음식 - 일반한식","category":"restaurant"}]},{"lat":"37.704564697","long":"126.76149165","imageIndex":4,"items":[{"name":"웰링턴램하우스","tel":"031-941-3328","addr":"경기도 파주시 야당동 469-64","indutype":"일반휴게음식 - 서양음식","category":"restaurant"}]},{"lat":"37.724844451","long":"126.77004643","imageIndex":4,"items":[{"name":"윤이네한식","tel":"","addr":"경기도 파주시 야당동 25-5번지","indutype":"일반휴게음식 - 일반한식","category":"restaurant"}]},{"lat":"37.71095703","long":"126.75074256","imageIndex":4,"items":[{"name":"이디야커피(파주운정점)","tel":"031-944-9005","addr":"경기도 파주시 야당동 1006-3번지","indutype":"일반휴게음식 - 서양음식","category":"restaurant"},{"name":"카페파스타&펀비어킹","tel":"031-944-2556","addr":"경기도 파주시 야당동 1006-3번지","indutype":"일반휴게음식 - 일반한식","category":"restaurant"},{"name":"함고집솥뚜껑김치삼겹살","tel":"031-943-1347","addr":"경기도 파주시 야당동 1006-3번지","indutype":"일반휴게음식 - 일반한식","category":"restaurant"}]},{"lat":"37.724234083","long":"126.77120531","imageIndex":4,"items":[{"name":"이레나주곰탕 운정점","tel":"031-957-8003","addr":"경기도 파주시 야당동 24번지","indutype":"일반휴게음식 - 일반한식","category":"restaurant"},{"name":"정은이네","tel":"031-945-1170","addr":"경기도 파주시 야당동 24","indutype":"일반휴게음식 - 일반한식","category":"restaurant"},{"name":"호야네한식부페","tel":"031-957-5929","addr":"경기도 파주시 야당동 24번지","indutype":"일반휴게음식 - 일반한식","category":"restaurant"}]},{"lat":"37.712233616","long":"126.76235137","imageIndex":4,"items":[{"name":"이집맛소","tel":"031-946-9392","addr":"경기도 파주시 야당동 421-37번지","indutype":"일반휴게음식 - 일반한식","category":"restaurant"}]},{"lat":"37.714591742","long":"126.76562138","imageIndex":4,"items":[{"name":"일식당","tel":"02-000-0000","addr":"경기도 파주시 야당동 226-88번지","indutype":"일반휴게음식 - 일식·회집","category":"restaurant"}]},{"lat":"37.724625572","long":"126.76870866","imageIndex":4,"items":[{"name":"일품 (콩요리전문)","tel":"","addr":"경기도 파주시 야당동 35-12번지","indutype":"일반휴게음식 - 일반한식","category":"restaurant"}]},{"lat":"37.707981614","long":"126.76707134","imageIndex":4,"items":[{"name":"장수오리","tel":"031-943-5256","addr":"경기도 파주시 야당동 160-1","indutype":"일반휴게음식 - 일반한식","category":"restaurant"}]},{"lat":"37.704875159","long":"126.76352047","imageIndex":4,"items":[{"name":"전원고기마을","tel":"02-000-0000","addr":"경기도 파주시 야당동 146-3번지","indutype":"일반휴게음식 - 일반한식","category":"restaurant"}]},{"lat":"37.705706951","long":"126.76495797","imageIndex":4,"items":[{"name":"정다운포차","tel":"031-948-9874","addr":"경기도 파주시 야당동 148-3번지","indutype":"일반휴게음식 - 주점","category":"restaurant"}]},{"lat":"37.70973116","long":"126.76343681","imageIndex":4,"items":[{"name":"주민상회","tel":"031-111-1111","addr":"경기도 파주시 야당동 178-27번지","indutype":"일반휴게음식 - 일반한식","category":"restaurant"},{"name":"행복한깜시","tel":"02-1111-1111","addr":"경기도 파주시 야당동 178-27번지","indutype":"일반휴게음식 - 스넥","category":"restaurant"}]},{"lat":"37.708012274","long":"126.75998355","imageIndex":4,"items":[{"name":"주식회사 하베스트코리아(송원)","tel":"031-947-7300","addr":"경기도 파주시 야당동 1044-1번지","indutype":"일반휴게음식 - 중국식","category":"restaurant"}]},{"lat":"37.709710786","long":"126.76673698","imageIndex":4,"items":[{"name":"중화식탁","tel":"070-4649-1101","addr":"경기도 파주시 야당동 171번지","indutype":"일반휴게음식 - 중국식","category":"restaurant"},{"name":"카페사르르","tel":"031-0000-0000","addr":"경기도 파주시 야당동 171번지","indutype":"일반휴게음식 - 서양음식","category":"restaurant"}]},{"lat":"37.704988655","long":"126.76173975","imageIndex":4,"items":[{"name":"쥐눈이콩마을야당리점","tel":"031-959-5555","addr":"경기도 파주시 야당동 469-33외1필지","indutype":"일반휴게음식 - 일반한식","category":"restaurant"}]},{"lat":"37.709819502","long":"126.76257464","imageIndex":4,"items":[{"name":"진한설렁탕","tel":"031-941-2650","addr":"경기도 파주시 야당동 178-14번지","indutype":"일반휴게음식 - 일반한식","category":"restaurant"}]},{"lat":"37.713098368","long":"126.76226918","imageIndex":4,"items":[{"name":"짝태앤노가리","tel":"","addr":"경기도 파주시 야당동 421-26번지","indutype":"일반휴게음식 - 주점","category":"restaurant"},{"name":"청년술집","tel":"02-1577-0000","addr":"경기도 파주시 야당동 421-26번지","indutype":"일반휴게음식 - 주점","category":"restaurant"}]},{"lat":"37.715285808","long":"126.74849364","imageIndex":4,"items":[{"name":"쭝일아찌빨강떡볶이","tel":"031-948-3449","addr":"경기도 파주시 야당동 981번지","indutype":"일반휴게음식 - 스넥","category":"restaurant"},{"name":"치킨마루한빛마을점","tel":"031-957-9696","addr":"경기도 파주시 야당동 981번지","indutype":"일반휴게음식 - 스넥","category":"restaurant"}]},{"lat":"37.718765997","long":"126.77157394","imageIndex":4,"items":[{"name":"초이카페","tel":"02-1111-1111","addr":"경기도 파주시 야당동 61-6번지","indutype":"일반휴게음식 - 서양음식","category":"restaurant"}]},{"lat":"37.713124771","long":"126.76196289","imageIndex":4,"items":[{"name":"추억의옛날통닭","tel":"031-943-9294","addr":"경기도 파주시 야당동 421-1번지","indutype":"일반휴게음식 - 일반한식","category":"restaurant"}]},{"lat":"37.704759437","long":"126.76421257","imageIndex":4,"items":[{"name":"취선향","tel":"031-947-8845","addr":"경기도 파주시 야당동 146-7번지","indutype":"일반휴게음식 - 중국식","category":"restaurant"}]},{"lat":"37.707457963","long":"126.76207196","imageIndex":4,"items":[{"name":"카페(cafe)431-3","tel":"031-111-1111","addr":"경기도 파주시 야당동 431-3번지","indutype":"일반휴게음식 - 서양음식","category":"restaurant"}]},{"lat":"37.71034757","long":"126.76529469","imageIndex":4,"items":[{"name":"카페포레","tel":"031-945-6224","addr":"경기도 파주시 야당동 178-87번지","indutype":"일반휴게음식 - 서양음식","category":"restaurant"}]},{"lat":"37.714788283","long":"126.76479284","imageIndex":4,"items":[{"name":"커피 블레이드","tel":"070-7766-6304","addr":"경기도 파주시 야당동 221번지","indutype":"일반휴게음식 - 서양음식","category":"restaurant"}]},{"lat":"37.709704844","long":"126.76378845","imageIndex":4,"items":[{"name":"커피방앗간","tel":"031-942-6567","addr":"경기도 파주시 야당동 178-28번지","indutype":"일반휴게음식 - 서양음식","category":"restaurant"}]},{"lat":"37.712927303","long":"126.76232644","imageIndex":4,"items":[{"name":"타맥","tel":"","addr":"경기도 파주시 야당동 421-27번지","indutype":"일반휴게음식 - 일반한식","category":"restaurant"}]},{"lat":"37.715763146","long":"126.76126252","imageIndex":4,"items":[{"name":"펀비어킹 야당역점","tel":"031-0000-0000","addr":"경기도 파주시 야당동 1085번지","indutype":"일반휴게음식 - 주점","category":"restaurant"}]},{"lat":"37.713008666","long":"126.76246227","imageIndex":4,"items":[{"name":"포차스미스","tel":"","addr":"경기도 파주시 야당동 421-28번지","indutype":"일반휴게음식 - 일반한식","category":"restaurant"}]},{"lat":"37.714569345","long":"126.76345526","imageIndex":4,"items":[{"name":"플라스틱소울","tel":"031-946-1224","addr":"경기도 파주시 야당동 222-1번지","indutype":"일반휴게음식 - 서양음식","category":"restaurant"}]},{"lat":"37.70983192","long":"126.76425301","imageIndex":4,"items":[{"name":"핀란드하우스(마리솔)","tel":"031-946-5478","addr":"경기도 파주시 야당동 178-29번지 신성그린빌","indutype":"일반휴게음식 - 일반한식","category":"restaurant"}]},{"lat":"37.705041923","long":"126.76135402","imageIndex":4,"items":[{"name":"하원황철오리","tel":"031-948-3553","addr":"경기도 파주시 야당동 469-30번지","indutype":"일반휴게음식 - 일반한식","category":"restaurant"}]},{"lat":"37.709154757","long":"126.76354073","imageIndex":4,"items":[{"name":"호반우","tel":"031-957-3315","addr":"경기도 파주시 야당동 178-55외1필지","indutype":"일반휴게음식 - 일반한식","category":"restaurant"}]},{"lat":"37.712260181","long":"126.76212446","imageIndex":4,"items":[{"name":"회각시소신랑","tel":"031-944-4764","addr":"경기도 파주시 야당동 421-135번지","indutype":"일반휴게음식 - 일반한식","category":"restaurant"}]}]