[{"lat":"37.358421368","long":"126.82049822","imageIndex":7,"items":[{"name":"강원제일유통","tel":"031-414-6020","addr":"경기도 안산시 단원구 화정동 597-3번지 1층","indutype":"음료식품 - 기타음료식품","category":"food"}]},{"lat":"37.351837715","long":"126.82229742","imageIndex":7,"items":[{"name":"다온다육","tel":"031-439-6825","addr":"경기도 안산시 단원구 화정동 423-5","indutype":"음료식품 - 정육점","category":"food"}]},{"lat":"37.348889019","long":"126.820747","imageIndex":7,"items":[{"name":"대운농산","tel":"031-446-5751","addr":"경기도 안산시 단원구 화정동 405-2","indutype":"건강식품 - 인삼제품","category":"food"}]},{"lat":"37.35746943","long":"126.82254354","imageIndex":7,"items":[{"name":"믿음한우''S 착한정육점","tel":"031-481-9355","addr":"경기도 안산시 단원구 화정동 472-3번지","indutype":"음료식품 - 정육점","category":"food"}]},{"lat":"37.360557041","long":"126.83277421","imageIndex":7,"items":[{"name":"사랑방","tel":"031-403-0082","addr":"경기도 안산시 단원구 화정동 25번지","indutype":"음료식품 - 정육점","category":"food"}]},{"lat":"37.352276164","long":"126.82624668","imageIndex":7,"items":[{"name":"앵매도리한우","tel":"031-362-6000","addr":"경기도 안산시 단원구 화정동 289-1번지 1층","indutype":"음료식품 - 정육점","category":"food"}]},{"lat":"37.358698905","long":"126.83135617","imageIndex":7,"items":[{"name":"주식회사 월드축산","tel":"031-411-3507","addr":"경기도 안산시 단원구 화정동 65번지 1층","indutype":"음료식품 - 정육점","category":"food"}]},{"lat":"37.359219998","long":"126.83032781","imageIndex":7,"items":[{"name":"주식회사상록오뚜기식품","tel":"031-403-6768","addr":"경기도 안산시 단원구 화정동 84","indutype":"음료식품 - 기타음료식품","category":"food"}]},{"lat":"37.349915328","long":"126.82612806","imageIndex":7,"items":[{"name":"토끼농장","tel":"031-482-0504","addr":"경기도 안산시 단원구 화정동 산33-11번지","indutype":"음료식품 - 농·축·수산품","category":"food"}]},{"lat":"37.358615661","long":"126.8298777","imageIndex":7,"items":[{"name":"하나로식품","tel":"031-505-8771","addr":"경기도 안산시 단원구 화정동 106번지","indutype":"음료식품 - 기타음료식품","category":"food"}]},{"lat":"37.36150423","long":"126.82737642","imageIndex":7,"items":[{"name":"화정갈매골농장","tel":"031-403-5191","addr":"경기도 안산시 단원구 화정동 507번지","indutype":"음료식품 - 정육점","category":"food"}]},{"lat":"37.358387386","long":"126.82782389","imageIndex":7,"items":[{"name":"화정참송이농장","tel":"031-483-1753","addr":"경기도 안산시 단원구 화정동 129번지","indutype":"음료식품 - 농·축·수산품","category":"food"}]}]