[{"lat":"37.215266953","long":"126.96890323","imageIndex":16,"items":[{"name":"강수학학원","tel":"031-236-2090","addr":"경기도 화성시 봉담읍 와우리 220-75번지 1동 4층 403호","indutype":"학원 - 보습학원","category":"study"},{"name":"닥터김 어학원","tel":"031-222-4556","addr":"경기도 화성시 봉담읍 와우리 220-75번지 미래프라자 304호","indutype":"학원 - 외국어학원","category":"study"},{"name":"로이음악학원","tel":"","addr":"경기도 화성시 봉담읍 와우리 220-75번지 미래프라자 4층 405호","indutype":"학원 - 예·체능계학원","category":"study"},{"name":"새한 더샵 음악학원","tel":"031-221-5777","addr":"경기도 화성시 봉담읍 와우리 220-75번지 501호","indutype":"학원 - 예·체능계학원","category":"study"},{"name":"아이맥영수학원","tel":"031-223-4007","addr":"경기도 화성시 봉담읍 와우리 220-75번지 미래프라자 4층 401호","indutype":"학원 - 보습학원","category":"study"},{"name":"크리아트봉담미술학원","tel":"031-237-1003","addr":"경기도 화성시 봉담읍 와우리 220-75번지 1동 4층 402호","indutype":"학원 - 예·체능계학원","category":"study"}]},{"lat":"37.217350293","long":"126.97654097","imageIndex":16,"items":[{"name":"그림별미술학원","tel":"031-224-4641","addr":"경기도 화성시 봉담읍 와우리 99-2번지 1층","indutype":"학원 - 예·체능계학원","category":"study"},{"name":"봉담꿈꾸는아이들어린이집[아이행복]","tel":"031-222-2255","addr":"경기도 화성시 봉담읍 와우리 99-2번지","indutype":"학원 - 유아원","category":"study"},{"name":"용인대현대체육관","tel":"031-225-0115","addr":"경기도 화성시 봉담읍 와우리 99-2번지 외2필지","indutype":"학원 - 예·체능계학원","category":"study"}]},{"lat":"37.213348435","long":"126.97140512","imageIndex":16,"items":[{"name":"꿈나무영재어린이집[아이행복]","tel":"031-3011-3966","addr":"경기도 화성시 봉담읍 와우리 590번지 아이파크 103동 103호","indutype":"학원 - 유아원","category":"study"}]},{"lat":"37.2140776","long":"126.96896009","imageIndex":16,"items":[{"name":"뉴욕파머스학원","tel":"","addr":"경기도 화성시 봉담읍 와우리 221-75번지 도원프라자 3층 306호","indutype":"학원 - 보습학원","category":"study"},{"name":"어린음악대어린화가들효행원 음악미술학원","tel":"031-222-5884","addr":"경기도 화성시 봉담읍 와우리 221-75번지 503-4호","indutype":"학원 - 예·체능계학원","category":"study"},{"name":"지니스토리영어학원","tel":"031-233-1618","addr":"경기도 화성시 봉담읍 와우리 221-75번지 도원프라자 4층 403호","indutype":"학원 - 외국어학원","category":"study"},{"name":"한솔러닝센터학원","tel":"031-222-3999","addr":"경기도 화성시 봉담읍 와우리 221-75번지 도원프라자 3층 307호","indutype":"학원 - 보습학원","category":"study"}]},{"lat":"37.212968893","long":"126.96748477","imageIndex":16,"items":[{"name":"뉴헨델음악학원","tel":"031-224-8440","addr":"경기도 화성시 봉담읍 와우리 597번지 봉담센트럴푸르지오 상가동 1동 101,102호","indutype":"학원 - 예·체능계학원","category":"study"},{"name":"뮤엠영어","tel":"031-267-1238","addr":"경기도 화성시 봉담읍 와우리 597번지 봉담센트럴푸르지오 107동 302호","indutype":"학원 - 기타 교육기관","category":"study"},{"name":"봉담푸르지오 해법영어교실","tel":"","addr":"경기도 화성시 봉담읍 와우리 597번지 봉담센트럴푸르지오 101동 103호","indutype":"학원 - 기타 교육기관","category":"study"},{"name":"용인대 현창 태권도","tel":"031-233-6893","addr":"경기도 화성시 봉담읍 와우리 597번지 봉담센트럴푸르지오 상가동 105,106호","indutype":"학원 - 예·체능계학원","category":"study"},{"name":"푸르지오 셀파","tel":"031-733-0233","addr":"경기도 화성시 봉담읍 와우리 221-100번지 봉담센트럴푸르지오 101동 204호","indutype":"학원 - 보습학원","category":"study"}]},{"lat":"37.213294961","long":"126.97370338","imageIndex":16,"items":[{"name":"닥터김영어중국어학원","tel":"031-222-4556","addr":"경기도 화성시 봉담읍 와우리 24-4번지 201호","indutype":"학원 - 보습학원","category":"study"}]},{"lat":"37.214322392","long":"126.97472819","imageIndex":16,"items":[{"name":"대명학원","tel":"031-225-6003","addr":"경기도 화성시 봉담읍 와우리 31-16번지 리젠트프라자 403호","indutype":"학원 - 보습학원","category":"study"},{"name":"베이직음악학원","tel":"031-232-4003","addr":"경기도 화성시 봉담읍 와우리 31-16번지 리젠트프라자 404호","indutype":"학원 - 예·체능계학원","category":"study"},{"name":"토즈스터디센터 봉담독서실","tel":"031-223-0306","addr":"경기도 화성시 봉담읍 와우리 31-16번지 리젠트프라자 120호","indutype":"학원 - 독서실","category":"study"}]},{"lat":"37.213961803","long":"126.9740073","imageIndex":16,"items":[{"name":"대치학원","tel":"031-221-1819","addr":"경기도 화성시 봉담읍 와우리 26-12번지 (태천센터빌딩411호,412호,와우리26-12외3필지)","indutype":"회원제형태 - 학원","category":"study"},{"name":"솔앤솔미술학원","tel":"031-222-0860","addr":"경기도 화성시 봉담읍 와우리 26-12번지 태천빌딩 413호","indutype":"학원 - 예·체능계학원","category":"study"},{"name":"쌤과통하는학원","tel":"031-225-4518","addr":"경기도 화성시 봉담읍 와우리 26-12번지 2층 205,210호","indutype":"학원 - 보습학원","category":"study"},{"name":"쌤통학원","tel":"031-225-4518","addr":"경기도 화성시 봉담읍 와우리 26-12번지 태천빌딩 205호","indutype":"학원 - 보습학원","category":"study"},{"name":"와우정무합기도","tel":"031-225-0780","addr":"경기도 화성시 봉담읍 와우리 26-12번지 태천빌딩 310,311호","indutype":"학원 - 예·체능계학원","category":"study"},{"name":"조타샘학원","tel":"031-234-1246","addr":"경기도 화성시 봉담읍 와우리 26-12번지 태천프라자 410호","indutype":"학원 - 보습학원","category":"study"},{"name":"주노피어음악학원","tel":"031-222-0536","addr":"경기도 화성시 봉담읍 와우리 26-12번지 태천센터빌딩 208호","indutype":"학원 - 예·체능계학원","category":"study"},{"name":"창언어논술학원","tel":"031-221-9303","addr":"경기도 화성시 봉담읍 와우리 26-12번지 태천빌딩 206호","indutype":"학원 - 기타 교육기관","category":"study"},{"name":"탑클래스학원","tel":"031-222-0155","addr":"경기도 화성시 봉담읍 와우리 26-12번지 414,415호","indutype":"학원 - 보습학원","category":"study"},{"name":"튼튼영어마스터클럽수원대점학원","tel":"031-236-0509","addr":"경기도 화성시 봉담읍 와우리 26-12번지 태천프라자 404호","indutype":"회원제형태 - 학원","category":"study"},{"name":"팀맥스와우캠퍼스","tel":"031-225-6911","addr":"경기도 화성시 봉담읍 와우리 26-12번지 태천센타 407호","indutype":"학원 - 보습학원","category":"study"},{"name":"하늘검도관","tel":"031-224-1116","addr":"경기도 화성시 봉담읍 와우리 26-12번지 태천빌딩 409호","indutype":"학원 - 예·체능계학원","category":"study"},{"name":"하늘검도관2","tel":"031-222-1116","addr":"경기도 화성시 봉담읍 와우리 26-12번지 태천빌딩 408호","indutype":"학원 - 예·체능계학원","category":"study"},{"name":"해밀학원","tel":"031-224-3454","addr":"경기도 화성시 봉담읍 와우리 26-12번지 태천센터 5층 513, 514호","indutype":"학원 - 보습학원","category":"study"}]},{"lat":"37.213880838","long":"126.97453683","imageIndex":16,"items":[{"name":"로제타스톤영어G1230수학학원","tel":"031-222-0564","addr":"경기도 화성시 봉담읍 와우리 31-1번지 남수원타운 202호","indutype":"학원 - 보습학원","category":"study"}]},{"lat":"37.214527764","long":"126.96774316","imageIndex":16,"items":[{"name":"멘토잉글리쉬","tel":"","addr":"경기도 화성시 봉담읍 와우리 602번지 봉담한신더휴에듀파크 103동 401호","indutype":"학원 - 기타 교육기관","category":"study"},{"name":"셀파우등생교실","tel":"","addr":"경기도 화성시 봉담읍 와우리 602번지 봉담한신더휴에듀파크 103동 602호","indutype":"학원 - 보습학원","category":"study"},{"name":"잉글리시아이 효행초점","tel":"","addr":"경기도 화성시 봉담읍 와우리 602번지 봉담한신더휴에듀파크 104동 301호","indutype":"학원 - 기타 교육기관","category":"study"},{"name":"한신에듀파크어린이집[아이행복]","tel":"031-222-7890","addr":"경기도 화성시 봉담읍 와우리 602번지 봉담한신더휴에듀파크 관리동 어린이집","indutype":"학원 - 유아원","category":"study"}]},{"lat":"37.215492954","long":"126.97159575","imageIndex":16,"items":[{"name":"뮤엠 영어수학 맨투맨학원","tel":"031-237-9777","addr":"경기도 화성시 봉담읍 와우리 589번지 2-202 봉담그대가3단지상가동2동 202호~203호","indutype":"학원 - 보습학원","category":"study"},{"name":"와우미술학원","tel":"031-292-6287","addr":"경기도 화성시 봉담읍 와우리 589 봉담그대가3단지2동305호~306호","indutype":"학원 - 예·체능계학원","category":"study"},{"name":"용인대해오름태권도","tel":"031-306-7899","addr":"경기도 화성시 봉담읍 와우리 589번지 307 (307호~309호)","indutype":"학원 - 예·체능계학원","category":"study"},{"name":"키즈브레인창의수학교습소","tel":"031-224-0333","addr":"경기도 화성시 봉담읍 와우리 589번지 봉담그대가 3단지 110호","indutype":"학원 - 보습학원","category":"study"},{"name":"하이영어교습소","tel":"","addr":"경기도 화성시 봉담읍 와우리 589번지 봉담그대가3단지 상가 201호","indutype":"학원 - 외국어학원","category":"study"},{"name":"해법영어전과목학원","tel":"031-222-2005","addr":"경기도 화성시 봉담읍 와우리 589번지 봉담그대가3단지 2층 209~211호","indutype":"학원 - 보습학원","category":"study"},{"name":"행복한피아니스트음악학원","tel":"031-226-2724","addr":"경기도 화성시 봉담읍 와우리 589번지 후문상가 303,304호","indutype":"학원 - 예·체능계학원","category":"study"}]},{"lat":"37.212906755","long":"126.97076315","imageIndex":16,"items":[{"name":"봉담리라어린이집[아이행복]","tel":"031-236-5664","addr":"경기도 화성시 봉담읍 와우리 590번지 봉담아이파크","indutype":"학원 - 유아원","category":"study"},{"name":"브레인에듀수학교습소","tel":"00-7670-0292","addr":"경기도 화성시 봉담읍 와우리 590번지 봉담아이파크 상가동 201호","indutype":"학원 - 보습학원","category":"study"},{"name":"아이뮤직음악교습소","tel":"070-8800-2219","addr":"경기도 화성시 봉담읍 와우리 590번지 봉담아이파크 상가동 2층 202호","indutype":"학원 - 예·체능계학원","category":"study"},{"name":"한쌤공부방","tel":"","addr":"경기도 화성시 봉담읍 와우리 590번지 봉담아이파크 196동 2004호","indutype":"학원 - 기타 교육기관","category":"study"},{"name":"해법봉담쌍용영어교습소","tel":"031-890-0582","addr":"경기도 화성시 봉담읍 와우리 590번지 봉담아이파크 상가 201호 일부","indutype":"회원제형태 - 학원","category":"study"}]},{"lat":"37.215151257","long":"126.9743561","imageIndex":16,"items":[{"name":"새벽별어린이집[아이행복]","tel":"031-221-2460","addr":"경기도 화성시 봉담읍 와우리 239번지 봉담그대가1단지 104동 101호","indutype":"학원 - 유아원","category":"study"},{"name":"키즈앤맘어린이집[아이행복]","tel":"031-893-7723","addr":"경기도 화성시 봉담읍 와우리 239번지 해오름마을봉담그대가1단지 104동 106호","indutype":"학원 - 유아원","category":"study"}]},{"lat":"37.214213452","long":"126.97148362","imageIndex":16,"items":[{"name":"새한체육관","tel":"031-223-9396","addr":"경기도 화성시 봉담읍 와우리 591번지 봉담휴먼빌 1층 상가동","indutype":"학원 - 예·체능계학원","category":"study"},{"name":"아이나라어린이집[아이행복]","tel":"031-232-8188","addr":"경기도 화성시 봉담읍 와우리 591번지 봉담휴먼빌 1층 관리동","indutype":"학원 - 유아원","category":"study"},{"name":"올림수학교습소","tel":"","addr":"경기도 화성시 봉담읍 와우리 591번지 봉담휴먼빌 상가동 B101호","indutype":"학원 - 보습학원","category":"study"},{"name":"지앤비(GnB)영어교습소","tel":"031-267-0502","addr":"경기도 화성시 봉담읍 와우리 591번지 봉담휴먼빌 상가동 B103호","indutype":"학원 - 외국어학원","category":"study"},{"name":"토브음악교습소","tel":"031-223-9904","addr":"경기도 화성시 봉담읍 와우리 591번지 봉담휴먼빌 상가동B층 202호","indutype":"학원 - 예·체능계학원","category":"study"},{"name":"홍선생해법독서논술교습소","tel":"031-269-7222","addr":"경기도 화성시 봉담읍 와우리 591번지 봉담휴먼빌 상가동 B102호","indutype":"학원 - 보습학원","category":"study"}]},{"lat":"37.213501402","long":"126.97062771","imageIndex":16,"items":[{"name":"생각을 키우는 아트스토리","tel":"","addr":"경기도 화성시 봉담읍 와우리 590번지 봉담아이파크 102동 303호","indutype":"학원 - 기타 교육기관","category":"study"}]},{"lat":"37.216989495","long":"126.97487366","imageIndex":16,"items":[{"name":"선인유도관","tel":"031-221-2880","addr":"경기도 화성시 봉담읍 와우리 91-3번지 4층","indutype":"학원 - 예·체능계학원","category":"study"}]},{"lat":"37.210572954","long":"126.97034732","imageIndex":16,"items":[{"name":"숙명뮤즈음악학원","tel":"031-224-2724","addr":"경기도 화성시 봉담읍 와우리 238번지 다온마을쌍용스윗닷홈 상가동 302호","indutype":"학원 - 예·체능계학원","category":"study"}]},{"lat":"37.217188061","long":"126.97633823","imageIndex":16,"items":[{"name":"시편23음악학원","tel":"031-223-4823","addr":"경기도 화성시 봉담읍 와우리 87-1번지 미쁘빌딩 2층","indutype":"학원 - 예·체능계학원","category":"study"}]},{"lat":"37.217125331","long":"126.97791555","imageIndex":16,"items":[{"name":"신일아이사랑어린이집[아이행복]","tel":"031-221-0244","addr":"경기도 화성시 봉담읍 와우리 237번지 신일해피트리2차 106동 101호","indutype":"학원 - 유아원","category":"study"}]},{"lat":"37.215186236","long":"126.97024394","imageIndex":16,"items":[{"name":"아드래따래어린이집[아이행복]","tel":"031-298-7994","addr":"경기도 화성시 봉담읍 와우리 589번지 봉담그대가3단지 316동 101호","indutype":"학원 - 유아원","category":"study"}]},{"lat":"37.213564267","long":"126.96987286","imageIndex":16,"items":[{"name":"아이파크어린이집[아이행복]","tel":"031-898-7230","addr":"경기도 화성시 봉담읍 와우리 590번지 봉담아이파크 101동 104호","indutype":"학원 - 유아원","category":"study"},{"name":"잎새어린이집[아이행복]","tel":"031-225-8110","addr":"경기도 화성시 봉담읍 와우리 590번지 현대아이파크 101동 105호","indutype":"학원 - 유아원","category":"study"}]},{"lat":"37.216800485","long":"126.97576378","imageIndex":16,"items":[{"name":"오아시스 팜","tel":"031-000-0000","addr":"경기도 화성시 봉담읍 와우리 85-3번지 우신그린맨션 나동 401호","indutype":"학원 - 기타 교육기관","category":"study"}]},{"lat":"37.216683298","long":"126.97553849","imageIndex":16,"items":[{"name":"와탑학원","tel":"031-546-8253","addr":"경기도 화성시 봉담읍 와우리 83-1번지","indutype":"회원제형태 - 학원","category":"study"}]},{"lat":"37.221747096","long":"126.97542399","imageIndex":16,"items":[{"name":"지니어스숲어린이집[아이행복]","tel":"031-225-8181","addr":"경기도 화성시 봉담읍 와우리 147-3","indutype":"학원 - 유아원","category":"study"}]},{"lat":"37.218989623","long":"126.97415185","imageIndex":16,"items":[{"name":"한국키즈태권도","tel":"031-226-7867","addr":"경기도 화성시 봉담읍 와우리 177-4번지 2층 201호","indutype":"학원 - 예·체능계학원","category":"study"}]},{"lat":"37.213979461","long":"126.97255398","imageIndex":16,"items":[{"name":"햇살마루어린이집[아이행복]","tel":"031-8081-4998","addr":"경기도 화성시 봉담읍 와우리 591번지 봉담휴먼빌 105동 103호","indutype":"학원 - 유아원","category":"study"}]},{"lat":"37.215852431","long":"126.96822699","imageIndex":16,"items":[{"name":"효행초등학교","tel":"031-224-2692","addr":"경기도 화성시 봉담읍 와우리 592번지","indutype":"학원 - 초중고교육기관","category":"study"}]},{"lat":"37.214114447","long":"126.9719005","imageIndex":16,"items":[{"name":"휴먼빌아띠어린이집[아이행복]","tel":"031-8081-4500","addr":"경기도 화성시 봉담읍 와우리 591번지 봉담휴먼빌 104동 103호","indutype":"학원 - 유아원","category":"study"}]}]