[{"lat":"37.528564934","long":"126.80293412","imageIndex":4,"items":[{"name":"59쌀피자","tel":"032-672-5982","addr":"경기도 부천시 원종동 470번지 원종금호어울림 301동 105호","indutype":"일반휴게음식 - 스넥","category":"restaurant"},{"name":"카페유앤아이(Cafe UNI)","tel":"070-8233-2405","addr":"경기도 부천시 원종동 470번지 원종동금호어울림 301동 1층 101호","indutype":"일반휴게음식 - 서양음식","category":"restaurant"}]},{"lat":"37.523867615","long":"126.8010688","imageIndex":4,"items":[{"name":"59쌀피자(원종중앙시장점)","tel":"032-674-5988","addr":"경기도 부천시 원종동 212번지 1층","indutype":"일반휴게음식 - 서양음식","category":"restaurant"}]},{"lat":"37.519533251","long":"126.80604633","imageIndex":4,"items":[{"name":"900냥왕노가리","tel":"032-672-6074","addr":"경기도 부천시 원종동 367번지 118,119호","indutype":"일반휴게음식 - 주점","category":"restaurant"},{"name":"고향마을","tel":"032-676-0337","addr":"경기도 부천시 원종동 367번지 130.131호원종시장","indutype":"일반휴게음식 - 일반한식","category":"restaurant"},{"name":"꼬꼬네","tel":"032-672-8292","addr":"경기도 부천시 원종동 367번지 원종시장 108,125,126호","indutype":"일반휴게음식 - 스넥","category":"restaurant"},{"name":"매일수산","tel":"032-682-6226","addr":"경기도 부천시 원종동 367번지제115호","indutype":"일반휴게음식 - 일반한식","category":"restaurant"},{"name":"왕십리곱창구이","tel":"032-681-2046","addr":"경기도 부천시 원종동 367번지","indutype":"일반휴게음식 - 일반한식","category":"restaurant"},{"name":"원종정육식당","tel":"02-1111-1111","addr":"경기도 부천시 원종동 367번지","indutype":"일반휴게음식 - 일반한식","category":"restaurant"},{"name":"원초밥","tel":"032-676-9461","addr":"경기도 부천시 원종동 367번지 원종시장 1층 111호","indutype":"일반휴게음식 - 일식·회집","category":"restaurant"},{"name":"제주생선구이","tel":"032-671-7588","addr":"경기도 부천시 원종동 367번지 105호-122호원종시장","indutype":"일반휴게음식 - 일반한식","category":"restaurant"},{"name":"포미스타","tel":"032-1111-1111","addr":"경기도 부천시 원종동 367번지 원종시장 116호","indutype":"일반휴게음식 - 일반한식","category":"restaurant"},{"name":"흥부전놀부전","tel":"","addr":"경기도 부천시 원종동 367번지 원종시장 102호","indutype":"일반휴게음식 - 일반한식","category":"restaurant"}]},{"lat":"37.519929364","long":"126.80585299","imageIndex":4,"items":[{"name":"CMP숯불바베큐","tel":"032-204-9282","addr":"경기도 부천시 원종동 365-18번지","indutype":"일반휴게음식 - 주점","category":"restaurant"},{"name":"발렌타인","tel":"032-674-1120","addr":"경기도 부천시 원종동 365-18번지","indutype":"일반휴게음식 - 주점","category":"restaurant"}]},{"lat":"37.52386985","long":"126.80238104","imageIndex":4,"items":[{"name":"Huggy (허기)","tel":"070-7368-7883","addr":"경기도 부천시 원종동 212-23번지 1층 일부","indutype":"일반휴게음식 - 일반한식","category":"restaurant"}]},{"lat":"37.526478544","long":"126.81071157","imageIndex":4,"items":[{"name":"KNC(케이엔씨)숯불바베큐","tel":"032-682-3292","addr":"경기도 부천시 원종동 340-2번지 1층","indutype":"일반휴게음식 - 스넥","category":"restaurant"}]},{"lat":"37.522784937","long":"126.80551742","imageIndex":4,"items":[{"name":"page","tel":"032-672-2679","addr":"경기도 부천시 원종동 280-17번지 1층 일부","indutype":"일반휴게음식 - 일반한식","category":"restaurant"}]},{"lat":"37.526728742","long":"126.80401374","imageIndex":4,"items":[{"name":"가루김밥떡볶이","tel":"032-671-9213","addr":"경기도 부천시 원종동 230-6번지 대창스페이스빌 103호","indutype":"일반휴게음식 - 스넥","category":"restaurant"}]},{"lat":"37.525121275","long":"126.80182337","imageIndex":4,"items":[{"name":"가야순대","tel":"032-678-6201","addr":"경기도 부천시 원종동 209-4번지 1층일부","indutype":"일반휴게음식 - 일반한식","category":"restaurant"}]},{"lat":"37.526313775","long":"126.8037094","imageIndex":4,"items":[{"name":"가정식 백반 부페","tel":"032-671-2926","addr":"경기도 부천시 원종동 220-1번지 영도빌딩","indutype":"일반휴게음식 - 일반한식","category":"restaurant"},{"name":"다미해","tel":"032-678-6678","addr":"경기도 부천시 원종동 220-1번지","indutype":"일반휴게음식 - 일반한식","category":"restaurant"},{"name":"닭발일번지","tel":"032-683-9958","addr":"경기도 부천시 원종동 220-1번지 영도 상가 102호","indutype":"일반휴게음식 - 일반한식","category":"restaurant"},{"name":"두텁이네","tel":"032-673-4270","addr":"경기도 부천시 원종동 220-1번지 영도빌딩 105호 ,106,107호","indutype":"일반휴게음식 - 일반한식","category":"restaurant"},{"name":"양마니명동찌개마을","tel":"032-681-3675","addr":"경기도 부천시 원종동 220-1번지 영도빌딩 101호","indutype":"일반휴게음식 - 일반한식","category":"restaurant"},{"name":"천하제일족발(부천원종점)","tel":"","addr":"경기도 부천시 원종동 220-1번지 영도빌딩 1층 107호","indutype":"일반휴게음식 - 일반한식","category":"restaurant"},{"name":"춤추는포차 차차차","tel":"032-679-2269","addr":"경기도 부천시 원종동 220-1번지 영도빌딩 2층 일부","indutype":"일반휴게음식 - 일반한식","category":"restaurant"}]},{"lat":"37.524451815","long":"126.80554697","imageIndex":4,"items":[{"name":"간도참치","tel":"032-678-1114","addr":"경기도 부천시 원종동 277-8번지","indutype":"일반휴게음식 - 일반한식","category":"restaurant"},{"name":"도식당","tel":"032-677-3244","addr":"경기도 부천시 원종동 277-8번지","indutype":"일반휴게음식 - 일반한식","category":"restaurant"},{"name":"미락식당","tel":"032-681-1947","addr":"경기도 부천시 원종동 277-8번지","indutype":"일반휴게음식 - 일식·회집","category":"restaurant"}]},{"lat":"37.525064956","long":"126.80582817","imageIndex":4,"items":[{"name":"개성칡냉면","tel":"032-675-4247","addr":"경기도 부천시 원종동 275번지 한덕빌딩 1층","indutype":"일반휴게음식 - 일반한식","category":"restaurant"},{"name":"군산아구","tel":"032-675-6368","addr":"경기도 부천시 원종동 275번지","indutype":"일반휴게음식 - 일반한식","category":"restaurant"},{"name":"떳다999","tel":"032-684-9180","addr":"경기도 부천시 원종동 275번지","indutype":"일반휴게음식 - 일반한식","category":"restaurant"},{"name":"명동보쌈","tel":"032-672-8001","addr":"경기도 부천시 원종동 275번지 한덕빌딩","indutype":"일반휴게음식 - 일반한식","category":"restaurant"},{"name":"홍미불닭발","tel":"032-676-9011","addr":"경기도 부천시 원종동 275번지 한덕빌딩 1층","indutype":"일반휴게음식 - 일반한식","category":"restaurant"}]},{"lat":"37.529367761","long":"126.80890536","imageIndex":4,"items":[{"name":"게스트","tel":"032-674-6244","addr":"경기도 부천시 원종동 310번지 1층 1호","indutype":"일반휴게음식 - 일반한식","category":"restaurant"}]},{"lat":"37.523873733","long":"126.79938324","imageIndex":4,"items":[{"name":"경희루","tel":"032-678-4144","addr":"경기도 부천시 원종동 151-22번지 2층","indutype":"일반휴게음식 - 중국식","category":"restaurant"},{"name":"깁밥나라","tel":"032-673-4188","addr":"경기도 부천시 원종동 151-22번지 1층","indutype":"일반휴게음식 - 스넥","category":"restaurant"}]},{"lat":"37.527810684","long":"126.80446339","imageIndex":4,"items":[{"name":"계절포차","tel":"032-671-6240","addr":"경기도 부천시 원종동 230-1번지 1층","indutype":"일반휴게음식 - 일반한식","category":"restaurant"},{"name":"돈돼지","tel":"","addr":"경기도 부천시 원종동 230-1번지 1층 2호","indutype":"일반휴게음식 - 일반한식","category":"restaurant"},{"name":"엄마손꼬마김밥","tel":"032-201-7771","addr":"경기도 부천시 원종동 230-1번지 1층","indutype":"일반휴게음식 - 일반한식","category":"restaurant"},{"name":"황금포차","tel":"032-671-0206","addr":"경기도 부천시 원종동 230-1번지 1층","indutype":"일반휴게음식 - 일반한식","category":"restaurant"}]},{"lat":"37.527783975","long":"126.81009732","imageIndex":4,"items":[{"name":"고강수제","tel":"","addr":"경기도 부천시 원종동 296-2번지 태산상가 1층 10호","indutype":"일반휴게음식 - 스넥","category":"restaurant"},{"name":"장수족발","tel":"032-673-3335","addr":"경기도 부천시 원종동 296-2번지 태산상가 1층 9호","indutype":"일반휴게음식 - 일반한식","category":"restaurant"},{"name":"제일마당","tel":"070-4007-0332","addr":"경기도 부천시 원종동 296-2번지 태산상가 3층 1호 일부","indutype":"일반휴게음식 - 일반한식","category":"restaurant"}]},{"lat":"37.5280868","long":"126.80795838","imageIndex":4,"items":[{"name":"고강페리카나","tel":"032-673-2342","addr":"경기도 부천시 원종동 238-10","indutype":"일반휴게음식 - 서양음식","category":"restaurant"}]},{"lat":"37.528199642","long":"126.80537872","imageIndex":4,"items":[{"name":"고기랑버섯이랑","tel":"032-673-5410","addr":"경기도 부천시 원종동 254-5","indutype":"일반휴게음식 - 일반한식","category":"restaurant"},{"name":"대가족발보쌈","tel":"032-672-5544","addr":"경기도 부천시 원종동 254-5번지","indutype":"일반휴게음식 - 일반한식","category":"restaurant"},{"name":"백미김밥","tel":"032-678-6767","addr":"경기도 부천시 원종동 254-5번지 성원빌딩 1층 9호","indutype":"일반휴게음식 - 스넥","category":"restaurant"},{"name":"우리한잔할까요","tel":"","addr":"경기도 부천시 원종동 254-5번지 성원빌딩 1층 10호","indutype":"일반휴게음식 - 주점","category":"restaurant"},{"name":"종가수제돈까스","tel":"032-673-2825","addr":"경기도 부천시 원종동 254-5번지 성원빌딩 1층 일부","indutype":"일반휴게음식 - 스넥","category":"restaurant"},{"name":"좋은친구들","tel":"031-679-0006","addr":"경기도 부천시 원종동 254-5번지 성원빌딩 G동 1층","indutype":"일반휴게음식 - 주점","category":"restaurant"}]},{"lat":"37.525118448","long":"126.80548865","imageIndex":4,"items":[{"name":"고기상회","tel":"032-681-5167","addr":"경기도 부천시 원종동 277-1번지","indutype":"일반휴게음식 - 일반한식","category":"restaurant"},{"name":"굴천국과복돼지","tel":"032-678-3999","addr":"경기도 부천시 원종동 277-1번지","indutype":"일반휴게음식 - 일반한식","category":"restaurant"},{"name":"마당포차","tel":"","addr":"경기도 부천시 원종동 277-1번지 1층","indutype":"일반휴게음식 - 일반한식","category":"restaurant"},{"name":"왕십리통통곱창","tel":"032-678-8037","addr":"경기도 부천시 원종동 277-1번지","indutype":"일반휴게음식 - 일반한식","category":"restaurant"},{"name":"정가네매운갈비찜","tel":"032-684-4197","addr":"경기도 부천시 원종동 277-1번지 1층","indutype":"일반휴게음식 - 일반한식","category":"restaurant"},{"name":"화로닭발","tel":"032-676-1531","addr":"경기도 부천시 원종동 277-1번지","indutype":"일반휴게음식 - 일반한식","category":"restaurant"}]},{"lat":"37.526143807","long":"126.80443387","imageIndex":4,"items":[{"name":"고기요리왕","tel":"","addr":"경기도 부천시 원종동 229-5번지 1층","indutype":"일반휴게음식 - 일반한식","category":"restaurant"}]},{"lat":"37.527843015","long":"126.80226858","imageIndex":4,"items":[{"name":"고릴라버거","tel":"032-679-7880","addr":"경기도 부천시 원종동 129-51번지 1층 108호","indutype":"일반휴게음식 - 일반한식","category":"restaurant"},{"name":"닭권브이치킨","tel":"032-678-3307","addr":"경기도 부천시 원종동 129-51번지 108호","indutype":"일반휴게음식 - 일반한식","category":"restaurant"},{"name":"떡볶이카페","tel":"032-678-7992","addr":"경기도 부천시 원종동 129-51번지 1층 105호","indutype":"일반휴게음식 - 스넥","category":"restaurant"}]},{"lat":"37.521783063","long":"126.80445673","imageIndex":4,"items":[{"name":"고브리또스원종점","tel":"032-679-7274","addr":"경기도 부천시 원종동 224-4번지 2층 전체","indutype":"일반휴게음식 - 서양음식","category":"restaurant"}]},{"lat":"37.526869184","long":"126.80181868","imageIndex":4,"items":[{"name":"고스트피자","tel":"032-675-3727","addr":"경기도 부천시 원종동 136번지","indutype":"일반휴게음식 - 서양음식","category":"restaurant"}]},{"lat":"37.525373266","long":"126.80701518","imageIndex":4,"items":[{"name":"고창고기랑두부랑김치구이","tel":"032-683-2992","addr":"경기도 부천시 원종동 268-13번지","indutype":"일반휴게음식 - 일반한식","category":"restaurant"},{"name":"짝태와맥주","tel":"070-7393-0394","addr":"경기도 부천시 원종동 268-13번지 1층 일부","indutype":"일반휴게음식 - 일반한식","category":"restaurant"}]},{"lat":"37.527177776","long":"126.80854902","imageIndex":4,"items":[{"name":"고흥홍어전문","tel":"032-671-1452","addr":"경기도 부천시 원종동 237-2번지 1층 2호","indutype":"일반휴게음식 - 일반한식","category":"restaurant"},{"name":"참치라이더 오정구점","tel":"032-673-3737","addr":"경기도 부천시 원종동 237-2번지 1층 104호","indutype":"일반휴게음식 - 일식·회집","category":"restaurant"}]},{"lat":"37.518872236","long":"126.80407984","imageIndex":4,"items":[{"name":"곤드레산채밥","tel":"","addr":"경기도 부천시 원종동 375-23번지 황산빌라 가동 103호","indutype":"일반휴게음식 - 일반한식","category":"restaurant"}]},{"lat":"37.525123514","long":"126.80854303","imageIndex":4,"items":[{"name":"곤지암소머리국밥","tel":"032-676-1123","addr":"경기도 부천시 원종동 271-1번지 1층","indutype":"일반휴게음식 - 일반한식","category":"restaurant"},{"name":"시인과농부","tel":"","addr":"경기도 부천시 원종동 271-1번지 1층 일부","indutype":"일반휴게음식 - 일반한식","category":"restaurant"},{"name":"시인과농부","tel":"032-672-1067","addr":"경기도 부천시 원종동 271-1번지","indutype":"일반휴게음식 - 일반한식","category":"restaurant"}]},{"lat":"37.518532743","long":"126.8058001","imageIndex":4,"items":[{"name":"골고루","tel":"","addr":"경기도 부천시 원종동 367-18번지 1층","indutype":"일반휴게음식 - 주점","category":"restaurant"}]},{"lat":"37.528090027","long":"126.80448528","imageIndex":4,"items":[{"name":"공감","tel":"032-677-2986","addr":"경기도 부천시 원종동 154-4번지","indutype":"일반휴게음식 - 서양음식","category":"restaurant"},{"name":"술나라신나라","tel":"032-671-6166","addr":"경기도 부천시 원종동 154-4번지 2층","indutype":"일반휴게음식 - 주점","category":"restaurant"}]},{"lat":"37.525395477","long":"126.80413041","imageIndex":4,"items":[{"name":"광어2마리","tel":"032-674-5492","addr":"경기도 부천시 원종동 229-10번지","indutype":"일반휴게음식 - 일반한식","category":"restaurant"},{"name":"김밥친구","tel":"032-675-2121","addr":"경기도 부천시 원종동 229-10번지 송암빌딩 101호","indutype":"일반휴게음식 - 스넥","category":"restaurant"},{"name":"오부장치킨(원종점)","tel":"032-679-9990","addr":"경기도 부천시 원종동 229-10번지 송암빌딩 1층","indutype":"일반휴게음식 - 스넥","category":"restaurant"}]},{"lat":"37.518593672","long":"126.80452173","imageIndex":4,"items":[{"name":"구'S","tel":"032-681-0513","addr":"경기도 부천시 원종동 375-8번지 1층","indutype":"일반휴게음식 - 서양음식","category":"restaurant"}]},{"lat":"37.525462434","long":"126.80110976","imageIndex":4,"items":[{"name":"구스카토","tel":"032-673-5988","addr":"경기도 부천시 원종동 208번지 선진그린빌 가동 1층 101호","indutype":"일반휴게음식 - 서양음식","category":"restaurant"}]},{"lat":"37.5247566","long":"126.79932428","imageIndex":4,"items":[{"name":"구어 구워","tel":"032-676-7170","addr":"경기도 부천시 원종동 141-17번지 1층","indutype":"일반휴게음식 - 일반한식","category":"restaurant"}]},{"lat":"37.524116511","long":"126.79909977","imageIndex":4,"items":[{"name":"구옥돌삼겹살백반","tel":"032-676-5714","addr":"경기도 부천시 원종동 141-4번지 1층","indutype":"일반휴게음식 - 일반한식","category":"restaurant"},{"name":"투다리(무궁화점)","tel":"032-678-9285","addr":"경기도 부천시 원종동 141-4,5수정상가1층2호","indutype":"일반휴게음식 - 칵테일바","category":"restaurant"}]},{"lat":"37.526115043","long":"126.80340448","imageIndex":4,"items":[{"name":"국기원","tel":"032-679-1485","addr":"경기도 부천시 원종동 220번지","indutype":"일반휴게음식 - 중국식","category":"restaurant"},{"name":"황재추어탕","tel":"032-681-2793","addr":"경기도 부천시 원종동 220번지 1층","indutype":"일반휴게음식 - 일반한식","category":"restaurant"}]},{"lat":"37.527567266","long":"126.80437353","imageIndex":4,"items":[{"name":"군산횟집","tel":"032-678-5000","addr":"경기도 부천시 원종동 230-17번지","indutype":"일반휴게음식 - 일반한식","category":"restaurant"}]},{"lat":"37.527284252","long":"126.80217958","imageIndex":4,"items":[{"name":"굽네치킨(원종2동점)","tel":"032-677-9299","addr":"경기도 부천시 원종동 131-4번지","indutype":"일반휴게음식 - 스넥","category":"restaurant"},{"name":"디어마이허니 (Dear my honey)","tel":"032-111-1111","addr":"경기도 부천시 원종동 131-4번지 1층 2호","indutype":"일반휴게음식 - 서양음식","category":"restaurant"},{"name":"멘가고토쿠","tel":"070-8832-3596","addr":"경기도 부천시 원종동 131-4번지 1층 9호","indutype":"일반휴게음식 - 일식·회집","category":"restaurant"},{"name":"파리에다녀온치킨","tel":"032-217-1023","addr":"경기도 부천시 원종동 131-4번지 1층 3호","indutype":"일반휴게음식 - 스넥","category":"restaurant"}]},{"lat":"37.524173529","long":"126.80615857","imageIndex":4,"items":[{"name":"굿맘할매순대국&해장국","tel":"032-671-7770","addr":"경기도 부천시 원종동 276-6번지 르네상스타워 101,102호","indutype":"일반휴게음식 - 일반한식","category":"restaurant"}]},{"lat":"37.525234647","long":"126.79962842","imageIndex":4,"items":[{"name":"궁중화요리","tel":"032-671-6568","addr":"경기도 부천시 원종동 140-3번지 원종코아빌라","indutype":"일반휴게음식 - 중국식","category":"restaurant"},{"name":"소문난바베큐","tel":"032-677-9647","addr":"경기도 부천시 원종동 140-3번지 원종코아빌라 103호","indutype":"일반휴게음식 - 일반한식","category":"restaurant"},{"name":"캠프","tel":"032-682-7906","addr":"경기도 부천시 원종동 140-3번지 원종코아빌라 1층","indutype":"일반휴게음식 - 주점","category":"restaurant"}]},{"lat":"37.525678747","long":"126.80115443","imageIndex":4,"items":[{"name":"귀족","tel":"032-293-8500","addr":"경기도 부천시 원종동 138-25번지 1층 일부","indutype":"일반휴게음식 - 일반한식","category":"restaurant"},{"name":"놀란곱창","tel":"032-678-4888","addr":"경기도 부천시 원종동 138-25번지 1층","indutype":"일반휴게음식 - 일반한식","category":"restaurant"},{"name":"초밥한입","tel":"032-675-8886","addr":"경기도 부천시 원종동 138-25번지 1층","indutype":"일반휴게음식 - 일반한식","category":"restaurant"},{"name":"하나도너츠","tel":"032-673-2835","addr":"경기도 부천시 원종동 138-25번지 1층","indutype":"일반휴게음식 - 스넥","category":"restaurant"}]},{"lat":"37.526730699","long":"126.80517896","imageIndex":4,"items":[{"name":"그때그시절","tel":"032-672-2512","addr":"경기도 부천시 원종동 232-3번지 지하층 1호","indutype":"일반휴게음식 - 주점","category":"restaurant"},{"name":"왕노가리호프","tel":"","addr":"경기도 부천시 원종동 232-3번지","indutype":"일반휴게음식 - 주점","category":"restaurant"},{"name":"집밥","tel":"032-671-7838","addr":"경기도 부천시 원종동 232-3번지 1층 1호","indutype":"일반휴게음식 - 일반한식","category":"restaurant"},{"name":"팔도민물장어","tel":"032-673-6055","addr":"경기도 부천시 원종동 232-3번지","indutype":"일반휴게음식 - 일반한식","category":"restaurant"}]},{"lat":"37.52287215","long":"126.80379773","imageIndex":4,"items":[{"name":"글라스하우스","tel":"","addr":"경기도 부천시 원종동 222-22번지 대성아트빌 1층 101호","indutype":"일반휴게음식 - 일반한식","category":"restaurant"}]},{"lat":"37.52843189","long":"126.79889571","imageIndex":4,"items":[{"name":"기발한치킨(원종점)","tel":"032-678-1961","addr":"경기도 부천시 원종동 126-11번지 효마을타운 2동 1층 103호","indutype":"일반휴게음식 - 스넥","category":"restaurant"},{"name":"타코팡팡(PANGPANG)","tel":"","addr":"경기도 부천시 원종동 126-11번지 효마을타운 2동 101호","indutype":"일반휴게음식 - 일반한식","category":"restaurant"}]},{"lat":"37.524229523","long":"126.80732361","imageIndex":4,"items":[{"name":"김민국의국산특허마늘곱창막창(원종점)","tel":"032-684-7657","addr":"경기도 부천시 원종동 272-12번지 2층일부","indutype":"일반휴게음식 - 일반한식","category":"restaurant"},{"name":"뉴챤스","tel":"032-673-5544","addr":"경기도 부천시 원종동 272-12번지 2층","indutype":"일반휴게음식 - 주점","category":"restaurant"},{"name":"무한장어(원종점)","tel":"031-676-8898","addr":"경기도 부천시 원종동 272-12번지 2층","indutype":"일반휴게음식 - 일반한식","category":"restaurant"},{"name":"벤스경양식","tel":"032-1111-1111","addr":"경기도 부천시 원종동 272-12번지","indutype":"일반휴게음식 - 주점","category":"restaurant"}]},{"lat":"37.531866701","long":"126.80540299","imageIndex":4,"items":[{"name":"김포한탄강부천점","tel":"032-682-1121","addr":"경기도 부천시 원종동 67-13번지","indutype":"일반휴게음식 - 일반한식","category":"restaurant"},{"name":"카페몬드","tel":"","addr":"경기도 부천시 원종동 67-13번지 현대빌딩","indutype":"일반휴게음식 - 서양음식","category":"restaurant"}]},{"lat":"37.519679061","long":"126.80167961","imageIndex":4,"items":[{"name":"깜꼬치킨 원종점","tel":"032-676-5897","addr":"경기도 부천시 원종동 388-13번지","indutype":"일반휴게음식 - 주점","category":"restaurant"},{"name":"청산골포차","tel":"032-111-1111","addr":"경기도 부천시 원종동 388-13번지","indutype":"일반휴게음식 - 일반한식","category":"restaurant"}]},{"lat":"37.524123291","long":"126.80846644","imageIndex":4,"items":[{"name":"깜꼬치킨(꼭대기점)","tel":"032-678-9800","addr":"경기도 부천시 원종동 271-7번지","indutype":"일반휴게음식 - 스넥","category":"restaurant"},{"name":"빅마마피자","tel":"032-678-3082","addr":"경기도 부천시 원종동 271-7번지 1층 일부","indutype":"일반휴게음식 - 서양음식","category":"restaurant"},{"name":"전주밥상","tel":"032-671-0979","addr":"경기도 부천시 원종동 271-7번지 1층","indutype":"일반휴게음식 - 일반한식","category":"restaurant"},{"name":"후레쉬팩토리","tel":"","addr":"경기도 부천시 원종동 271-7번지","indutype":"일반휴게음식 - 스넥","category":"restaurant"}]},{"lat":"37.519593062","long":"126.80410055","imageIndex":4,"items":[{"name":"깨비참숯닭발","tel":"032-677-2216","addr":"경기도 부천시 원종동 375번지 1층 일부호","indutype":"일반휴게음식 - 일반한식","category":"restaurant"},{"name":"보리수호프","tel":"032-677-4027","addr":"경기도 부천시 원종동 375번지 107호","indutype":"일반휴게음식 - 주점","category":"restaurant"},{"name":"토마토김밥","tel":"032-683-8482","addr":"경기도 부천시 원종동 375번지","indutype":"일반휴게음식 - 일반한식","category":"restaurant"},{"name":"홍어를좋아하는사람들","tel":"032-678-2270","addr":"경기도 부천시 원종동 375번지","indutype":"일반휴게음식 - 일반한식","category":"restaurant"}]},{"lat":"37.517339742","long":"126.80359752","imageIndex":4,"items":[{"name":"꼬꼬","tel":"032-679-6560","addr":"경기도 부천시 원종동 377-5번지","indutype":"일반휴게음식 - 일반한식","category":"restaurant"}]},{"lat":"37.52420532","long":"126.80362451","imageIndex":4,"items":[{"name":"꼬치사케(원종점)","tel":"032-672-7789","addr":"경기도 부천시 원종동 221-13번지 1층 2호","indutype":"일반휴게음식 - 주점","category":"restaurant"},{"name":"달달한술잔","tel":"032-455-4685","addr":"경기도 부천시 원종동 221-13번지 1층 일부호","indutype":"일반휴게음식 - 주점","category":"restaurant"},{"name":"명랑시대 부천원종사거리점","tel":"031-683-5622","addr":"경기도 부천시 원종동 221-13번지 1,층 1호","indutype":"일반휴게음식 - 스넥","category":"restaurant"},{"name":"신(  )쭈꾸미","tel":"031-678-9489","addr":"경기도 부천시 원종동 221-13번지 1층 2호","indutype":"일반휴게음식 - 일반한식","category":"restaurant"},{"name":"인생술집","tel":"032-111-1111","addr":"경기도 부천시 원종동 221-13번지 2층 1호","indutype":"일반휴게음식 - 주점","category":"restaurant"},{"name":"찌개부자","tel":"032-678-8988","addr":"경기도 부천시 원종동 221-13번지 1층 일부","indutype":"일반휴게음식 - 일반한식","category":"restaurant"},{"name":"피자마루(원종점)","tel":"032-673-1082","addr":"경기도 부천시 원종동 221-13번지 외2필지","indutype":"일반휴게음식 - 서양음식","category":"restaurant"}]},{"lat":"37.52476263","long":"126.80285377","imageIndex":4,"items":[{"name":"꼴통노가리","tel":"032-671-9847","addr":"경기도 부천시 원종동 218-5번지 13동 1호","indutype":"일반휴게음식 - 주점","category":"restaurant"},{"name":"명문식당","tel":"032-678-7112","addr":"경기도 부천시 원종동 218-5번지","indutype":"일반휴게음식 - 일반한식","category":"restaurant"},{"name":"왕십리돈곱창전문점","tel":"032-676-3664","addr":"경기도 부천시 원종동 218-5번지 8동 4,5,6호","indutype":"일반휴게음식 - 일반한식","category":"restaurant"},{"name":"용팔이양꼬치","tel":"031-677-1666","addr":"경기도 부천시 원종동 218-5번지 일부 2동 1층","indutype":"일반휴게음식 - 일반한식","category":"restaurant"}]},{"lat":"37.527172654","long":"126.80546061","imageIndex":4,"items":[{"name":"꽃바람","tel":"032-682-0013","addr":"경기도 부천시 원종동 231-7번지","indutype":"일반휴게음식 - 일반한식","category":"restaurant"}]},{"lat":"37.52786946","long":"126.80729148","imageIndex":4,"items":[{"name":"꾸러기분식","tel":"070-9213-4056","addr":"경기도 부천시 원종동 246-7번지 1층","indutype":"일반휴게음식 - 스넥","category":"restaurant"}]},{"lat":"37.519595395","long":"126.80549189","imageIndex":4,"items":[{"name":"꿀벌닭강정","tel":"032-677-6688","addr":"경기도 부천시 원종동 372-1번지","indutype":"일반휴게음식 - 스넥","category":"restaurant"}]},{"lat":"37.522476783","long":"126.80443227","imageIndex":4,"items":[{"name":"나고야참치","tel":"032-677-1117","addr":"경기도 부천시 원종동 224-1번지","indutype":"일반휴게음식 - 일식·회집","category":"restaurant"},{"name":"안동잔치국수","tel":"032-551-2070","addr":"경기도 부천시 원종동 224-1번지 1층","indutype":"일반휴게음식 - 일반한식","category":"restaurant"}]},{"lat":"37.523679172","long":"126.80687255","imageIndex":4,"items":[{"name":"나드리레스토랑","tel":"032-674-4343","addr":"경기도 부천시 원종동 313-10번지 부천프라자 2층","indutype":"일반휴게음식 - 서양음식","category":"restaurant"},{"name":"나드리호프","tel":"","addr":"경기도 부천시 원종동 313-10번지 부천프라자 7층 3호","indutype":"일반휴게음식 - 주점","category":"restaurant"},{"name":"백악관식당. 커피","tel":"032-685-8708","addr":"경기도 부천시 원종동 313-10번지 부천프라자 6층 1-1호","indutype":"일반휴게음식 - 일반한식","category":"restaurant"},{"name":"엉터리집","tel":"011-***-****","addr":"경기도 부천시 원종동 313-10번지 부천프라자 2층 일부","indutype":"일반휴게음식 - 일반한식","category":"restaurant"}]},{"lat":"37.523845935","long":"126.80965496","imageIndex":4,"items":[{"name":"나드리민물장어","tel":"032-683-0583","addr":"경기도 부천시 원종동 291번지","indutype":"일반휴게음식 - 일반한식","category":"restaurant"},{"name":"스마일딜리버리","tel":"032-672-9279","addr":"경기도 부천시 원종동 291번지 2층","indutype":"일반휴게음식 - 일반한식","category":"restaurant"},{"name":"스마일딜리버리 오정점","tel":"032-684-9279","addr":"경기도 부천시 원종동 291번지 2층 2호","indutype":"일반휴게음식 - 일반한식","category":"restaurant"}]},{"lat":"37.52445223","long":"126.80579584","imageIndex":4,"items":[{"name":"나드리식당","tel":"032-674-5993","addr":"경기도 부천시 원종동 276번지","indutype":"일반휴게음식 - 일반한식","category":"restaurant"},{"name":"시골보리밥","tel":"032-678-2114","addr":"경기도 부천시 원종동 276번지 1층 일부","indutype":"일반휴게음식 - 일반한식","category":"restaurant"},{"name":"아리랑","tel":"032-673-2398","addr":"경기도 부천시 원종동 276번지","indutype":"일반휴게음식 - 칵테일바","category":"restaurant"},{"name":"카리브","tel":"032-673-2398","addr":"경기도 부천시 원종동 276번지 1층","indutype":"일반휴게음식 - 주점","category":"restaurant"}]},{"lat":"37.528397442","long":"126.80512931","imageIndex":4,"items":[{"name":"나들목","tel":"032-207-5605","addr":"경기도 부천시 원종동 264-1번지 1층","indutype":"일반휴게음식 - 일반한식","category":"restaurant"}]},{"lat":"37.527063987","long":"126.80513283","imageIndex":4,"items":[{"name":"나주곰탕","tel":"032-672-7800","addr":"경기도 부천시 원종동 231-10번지","indutype":"일반휴게음식 - 일반한식","category":"restaurant"}]},{"lat":"37.522845673","long":"126.80412586","imageIndex":4,"items":[{"name":"나주곰탕 원종점","tel":"032-674-5151","addr":"경기도 부천시 원종동 227-6번지","indutype":"일반휴게음식 - 일반한식","category":"restaurant"},{"name":"송가네빈대떡","tel":"032-762-7622","addr":"경기도 부천시 원종동 227-6번지","indutype":"일반휴게음식 - 일반한식","category":"restaurant"},{"name":"원조숯불바베큐","tel":"032-682-4433","addr":"경기도 부천시 원종동 227-6번지","indutype":"일반휴게음식 - 서양음식","category":"restaurant"},{"name":"장터족발","tel":"032-684-4820","addr":"경기도 부천시 원종동 227-6번지 1층","indutype":"일반휴게음식 - 일반한식","category":"restaurant"}]},{"lat":"37.522593302","long":"126.80406997","imageIndex":4,"items":[{"name":"남도추어탕","tel":"032-682-8181","addr":"경기도 부천시 원종동 224번지 1층","indutype":"일반휴게음식 - 일반한식","category":"restaurant"},{"name":"팬더양꼬치","tel":"070-7315-8285","addr":"경기도 부천시 원종동 224번지 1층","indutype":"일반휴게음식 - 일반한식","category":"restaurant"},{"name":"한잔할까","tel":"032-683-1847","addr":"경기도 부천시 원종동 224번지 1층","indutype":"일반휴게음식 - 주점","category":"restaurant"}]},{"lat":"37.52808762","long":"126.80845615","imageIndex":4,"items":[{"name":"남원제일추어탕","tel":"032-676-9939","addr":"경기도 부천시 원종동 238-5번지 1층","indutype":"일반휴게음식 - 일반한식","category":"restaurant"},{"name":"동그라미김밥집밥","tel":"032-675-3432","addr":"경기도 부천시 원종동 238-5번지 1층","indutype":"일반휴게음식 - 스넥","category":"restaurant"},{"name":"원조영양탕","tel":"032-678-5526","addr":"경기도 부천시 원종동 238-5번지","indutype":"일반휴게음식 - 일반한식","category":"restaurant"}]},{"lat":"37.524449444","long":"126.80413292","imageIndex":4,"items":[{"name":"낭만포차","tel":"","addr":"경기도 부천시 원종동 228-12번지","indutype":"일반휴게음식 - 일반한식","category":"restaurant"},{"name":"봉구비어","tel":"032-677-0442","addr":"경기도 부천시 원종동 228-12번지","indutype":"일반휴게음식 - 주점","category":"restaurant"},{"name":"오일장","tel":"032-682-3401","addr":"경기도 부천시 원종동 228-12번지","indutype":"일반휴게음식 - 일반한식","category":"restaurant"},{"name":"우마이","tel":"032-217-3822","addr":"경기도 부천시 원종동 228-12번지","indutype":"일반휴게음식 - 일반한식","category":"restaurant"}]},{"lat":"37.528010379","long":"126.80534527","imageIndex":4,"items":[{"name":"내사랑","tel":"","addr":"경기도 부천시 원종동 231-1번지 1층 3호","indutype":"일반휴게음식 - 서양음식","category":"restaurant"},{"name":"둥지경양식","tel":"","addr":"경기도 부천시 원종동 231-1번지 1층 일부","indutype":"일반휴게음식 - 서양음식","category":"restaurant"},{"name":"밀양얼음골청국장","tel":"032-671-4135","addr":"경기도 부천시 원종동 231-1번지","indutype":"일반휴게음식 - 일반한식","category":"restaurant"},{"name":"산딸기","tel":"032-674-0159","addr":"경기도 부천시 원종동 231-1번지 1층","indutype":"일반휴게음식 - 주점","category":"restaurant"},{"name":"샤인경양식","tel":"070-4922-1261","addr":"경기도 부천시 원종동 231-1번지","indutype":"일반휴게음식 - 일반한식","category":"restaurant"},{"name":"설화","tel":"032-679-0375","addr":"경기도 부천시 원종동 231-1번지","indutype":"일반휴게음식 - 주점","category":"restaurant"},{"name":"설화","tel":"032-679-0375","addr":"경기도 부천시 원종동 231-1번지","indutype":"일반휴게음식 - 일반한식","category":"restaurant"},{"name":"헤라","tel":"032-674-4590","addr":"경기도 부천시 원종동 231-1번지","indutype":"일반휴게음식 - 주점","category":"restaurant"}]},{"lat":"37.523840579","long":"126.80640832","imageIndex":4,"items":[{"name":"내사랑","tel":"032-671-1171","addr":"경기도 부천시 원종동 467-1번지 1층","indutype":"일반휴게음식 - 주점","category":"restaurant"},{"name":"모임클럽","tel":"032-672-7752","addr":"경기도 부천시 원종동 467-1번지","indutype":"일반휴게음식 - 주점","category":"restaurant"},{"name":"작은공간","tel":"032-678-2432","addr":"경기도 부천시 원종동 467-1번지","indutype":"일반휴게음식 - 주점","category":"restaurant"}]},{"lat":"37.523843377","long":"126.80270917","imageIndex":4,"items":[{"name":"너와나","tel":"032-681-7700","addr":"경기도 부천시 원종동 217번지 2층","indutype":"일반휴게음식 - 일반한식","category":"restaurant"},{"name":"압구정김밥 (원종점)","tel":"032-683-8703","addr":"경기도 부천시 원종동 217번지 1층 일부","indutype":"일반휴게음식 - 스넥","category":"restaurant"}]},{"lat":"37.5253378","long":"126.80199248","imageIndex":4,"items":[{"name":"네네치킨","tel":"032-675-5592","addr":"경기도 부천시 원종동 208-9번지 우성하이츠 1동 101호","indutype":"일반휴게음식 - 주점","category":"restaurant"}]},{"lat":"37.525065785","long":"126.80632592","imageIndex":4,"items":[{"name":"노가리story","tel":"","addr":"경기도 부천시 원종동 275-2번지 한울팰리스 105호","indutype":"일반휴게음식 - 주점","category":"restaurant"}]},{"lat":"37.525815975","long":"126.80237583","imageIndex":4,"items":[{"name":"노가리포차","tel":"070-1332-9171","addr":"경기도 부천시 원종동 208-20번지 남양빌딩 1층","indutype":"일반휴게음식 - 주점","category":"restaurant"},{"name":"대박싱싱통닭","tel":"031-251-0490","addr":"경기도 부천시 원종동 208-20번지 남양빌딩 1층 일부","indutype":"일반휴게음식 - 스넥","category":"restaurant"},{"name":"왕대박연탄불생고기","tel":"032-677-8884","addr":"경기도 부천시 원종동 208-20번지 남양빌딩 1층 3,4,5호","indutype":"일반휴게음식 - 일반한식","category":"restaurant"},{"name":"혜화동돈까스극장","tel":"032-678-8430","addr":"경기도 부천시 원종동 208-20번지 남양빌딩 1층","indutype":"일반휴게음식 - 서양음식","category":"restaurant"}]},{"lat":"37.519262578","long":"126.80582081","imageIndex":4,"items":[{"name":"노다지분식","tel":"032-678-8707","addr":"경기도 부천시 원종동 367-1번지 1층","indutype":"일반휴게음식 - 스넥","category":"restaurant"}]},{"lat":"37.524401296","long":"126.80230043","imageIndex":4,"items":[{"name":"노랑빨강분식찰순대","tel":"032-674-0512","addr":"경기도 부천시 원종동 211-4번지","indutype":"일반휴게음식 - 스넥","category":"restaurant"},{"name":"땅개왕돼지식당","tel":"032-683-7335","addr":"경기도 부천시 원종동 211-4번지 1층","indutype":"일반휴게음식 - 일반한식","category":"restaurant"},{"name":"원조할머니빈대떡","tel":"032-675-6080","addr":"경기도 부천시 원종동 211-4번지 1층","indutype":"일반휴게음식 - 일반한식","category":"restaurant"}]},{"lat":"37.524702271","long":"126.80446031","imageIndex":4,"items":[{"name":"노블레스","tel":"032-684-2961","addr":"경기도 부천시 원종동 228-8번지","indutype":"일반휴게음식 - 주점","category":"restaurant"},{"name":"엘케이(주)","tel":"032-678-5555","addr":"경기도 부천시 원종동 228-8번지","indutype":"일반휴게음식 - 서양음식","category":"restaurant"}]},{"lat":"37.534065345","long":"126.80554427","imageIndex":4,"items":[{"name":"노블레스 n-food","tel":"032-323-0120","addr":"경기도 부천시 원종동 9-10번지 1층 전체","indutype":"일반휴게음식 - 일반한식","category":"restaurant"},{"name":"덕소숯불고기","tel":"032-672-3892","addr":"경기도 부천시 원종동 9-10번지 외 9-82, 봉오대로 409, 1층","indutype":"일반휴게음식 - 일반한식","category":"restaurant"}]},{"lat":"37.527509882","long":"126.80240523","imageIndex":4,"items":[{"name":"놀러와포차","tel":"070-7363-7708","addr":"경기도 부천시 원종동 132번지 1층 일부호","indutype":"일반휴게음식 - 일반한식","category":"restaurant"},{"name":"토담갈비","tel":"032-678-0905","addr":"경기도 부천시 원종동 132번지","indutype":"일반휴게음식 - 일반한식","category":"restaurant"}]},{"lat":"37.528256752","long":"126.80721128","imageIndex":4,"items":[{"name":"놀부분식","tel":"","addr":"경기도 부천시 원종동 238-13번지 1층 일부호","indutype":"일반휴게음식 - 스넥","category":"restaurant"}]},{"lat":"37.526087363","long":"126.80301993","imageIndex":4,"items":[{"name":"놀이마당","tel":"032-672-3077","addr":"경기도 부천시 원종동 219-1번지","indutype":"일반휴게음식 - 주점","category":"restaurant"},{"name":"토향","tel":"032-683-6008","addr":"경기도 부천시 원종동 219-1번지","indutype":"일반휴게음식 - 일반한식","category":"restaurant"}]},{"lat":"37.525873512","long":"126.80443458","imageIndex":4,"items":[{"name":"농실가","tel":"032-675-3232","addr":"경기도 부천시 원종동 229-6번지","indutype":"일반휴게음식 - 일반한식","category":"restaurant"},{"name":"마루터뼈다귀감자탕","tel":"032-677-2545","addr":"경기도 부천시 원종동 229-6번지 132층","indutype":"일반휴게음식 - 일반한식","category":"restaurant"}]},{"lat":"37.525094374","long":"126.80726479","imageIndex":4,"items":[{"name":"눈물떡볶이(오정구점)","tel":"032-672-1016","addr":"경기도 부천시 원종동 272번지 1층 일부","indutype":"일반휴게음식 - 스넥","category":"restaurant"},{"name":"비어타임","tel":"032-677-7344","addr":"경기도 부천시 원종동 272번지","indutype":"일반휴게음식 - 주점","category":"restaurant"},{"name":"왕포차(  포차)","tel":"","addr":"경기도 부천시 원종동 272번지 1층 2호","indutype":"일반휴게음식 - 일반한식","category":"restaurant"},{"name":"전주식당","tel":"032-682-4196","addr":"경기도 부천시 원종동 272번지 1층 일부","indutype":"일반휴게음식 - 일반한식","category":"restaurant"}]},{"lat":"37.52367454","long":"126.80410104","imageIndex":4,"items":[{"name":"뉴욕야시장 원종점","tel":"","addr":"경기도 부천시 원종동 227-13번지 1층 101호","indutype":"일반휴게음식 - 일반한식","category":"restaurant"},{"name":"천사곱창","tel":"032-682-5933","addr":"경기도 부천시 원종동 227-13번지 1층","indutype":"일반휴게음식 - 일반한식","category":"restaurant"}]},{"lat":"37.51945067","long":"126.80515292","imageIndex":4,"items":[{"name":"늘푸른김밥","tel":"032-675-8552","addr":"경기도 부천시 원종동 372번지 1층 3호","indutype":"일반휴게음식 - 일반한식","category":"restaurant"},{"name":"연안식당(부천원종점)","tel":"032-202-2500","addr":"경기도 부천시 원종동 372번지","indutype":"일반휴게음식 - 일반한식","category":"restaurant"},{"name":"이디야커피성곡사거리점","tel":"032-671-0188","addr":"경기도 부천시 원종동 372번지 1층 4,5,6호","indutype":"일반휴게음식 - 서양음식","category":"restaurant"}]},{"lat":"37.52383822","long":"126.79968877","imageIndex":4,"items":[{"name":"다비두","tel":"032-678-9685","addr":"경기도 부천시 원종동 199번지 1층 상가 일부","indutype":"일반휴게음식 - 서양음식","category":"restaurant"},{"name":"막썰어회집","tel":"032-673-9941","addr":"경기도 부천시 원종동 199번지","indutype":"일반휴게음식 - 일반한식","category":"restaurant"}]},{"lat":"37.519566584","long":"126.80442866","imageIndex":4,"items":[{"name":"다우가","tel":"032-678-0542","addr":"경기도 부천시 원종동 375-1번지 스카이빌딩 1층 107호","indutype":"일반휴게음식 - 스넥","category":"restaurant"},{"name":"커피에반하다","tel":"032-681-8320","addr":"경기도 부천시 원종동 375-1번지 스카이빌딩 101호","indutype":"일반휴게음식 - 서양음식","category":"restaurant"},{"name":"콩심","tel":"032-672-4001","addr":"경기도 부천시 원종동 375-1번지 스카이빌딩 1층 110호","indutype":"일반휴게음식 - 일반한식","category":"restaurant"}]},{"lat":"37.528038353","long":"126.80591085","imageIndex":4,"items":[{"name":"다이슬","tel":"070-7333-9590","addr":"경기도 부천시 원종동 253-7번지","indutype":"일반휴게음식 - 주점","category":"restaurant"},{"name":"승아의기묘한떡볶이 원종점","tel":"032-683-3345","addr":"경기도 부천시 원종동 253-7번지 1층 104호","indutype":"일반휴게음식 - 스넥","category":"restaurant"}]},{"lat":"37.525171959","long":"126.80516045","imageIndex":4,"items":[{"name":"단무지더(The)","tel":"032-675-9455","addr":"경기도 부천시 원종동 277번지 202호","indutype":"일반휴게음식 - 중국식","category":"restaurant"},{"name":"본가닭탕","tel":"032-682-2663","addr":"경기도 부천시 원종동 277번지 1층","indutype":"일반휴게음식 - 일반한식","category":"restaurant"},{"name":"왕염이양푼동태탕","tel":"032-677-3284","addr":"경기도 부천시 원종동 277번지","indutype":"일반휴게음식 - 일반한식","category":"restaurant"}]},{"lat":"37.525643846","long":"126.80182197","imageIndex":4,"items":[{"name":"닭발의신","tel":"032-678-8295","addr":"경기도 부천시 원종동 208-16번지 1층 일부호","indutype":"일반휴게음식 - 일반한식","category":"restaurant"},{"name":"응급실국물떡볶이 오정원종점","tel":"032-678-0119","addr":"경기도 부천시 원종동 208-16번지 1층 일부호","indutype":"일반휴게음식 - 일반한식","category":"restaurant"}]},{"lat":"37.522565396","long":"126.80354968","imageIndex":4,"items":[{"name":"닭발자국","tel":"032-677-1212","addr":"경기도 부천시 원종동 223-5번지 한울팰리스 1층 101호","indutype":"일반휴게음식 - 일반한식","category":"restaurant"}]},{"lat":"37.532508022","long":"126.80637427","imageIndex":4,"items":[{"name":"대박숯불장어구이","tel":"032-674-0368","addr":"경기도 부천시 원종동 186-3번지 1층","indutype":"일반휴게음식 - 일반한식","category":"restaurant"}]},{"lat":"37.519289155","long":"126.80554925","imageIndex":4,"items":[{"name":"대박홍두깨칼국수","tel":"","addr":"경기도 부천시 원종동 372-14번지 1층","indutype":"일반휴게음식 - 일반한식","category":"restaurant"},{"name":"아빠손엄마손순대국","tel":"032-682-0911","addr":"경기도 부천시 원종동 372-14번지","indutype":"일반휴게음식 - 일반한식","category":"restaurant"}]},{"lat":"37.527810376","long":"126.80971261","imageIndex":4,"items":[{"name":"대성식당","tel":"032-673-1328","addr":"경기도 부천시 원종동 296번지","indutype":"일반휴게음식 - 일반한식","category":"restaurant"},{"name":"시장까페","tel":"","addr":"경기도 부천시 원종동 296번지 2층","indutype":"일반휴게음식 - 서양음식","category":"restaurant"},{"name":"어묵선생","tel":"032-676-3100","addr":"경기도 부천시 원종동 296번지 1층","indutype":"일반휴게음식 - 일반한식","category":"restaurant"},{"name":"청수코다리","tel":"031-682-2008","addr":"경기도 부천시 원종동 296번지 1층 5호","indutype":"일반휴게음식 - 일반한식","category":"restaurant"}]},{"lat":"37.526090905","long":"126.80512408","imageIndex":4,"items":[{"name":"더카페부천원종점","tel":"032-677-4003","addr":"경기도 부천시 원종동 233-13번지 진영빌딩 1층","indutype":"일반휴게음식 - 서양음식","category":"restaurant"},{"name":"이오시","tel":"032-673-9288","addr":"경기도 부천시 원종동 233-13번지 진영빌딩","indutype":"일반휴게음식 - 일반한식","category":"restaurant"}]},{"lat":"37.5240072","long":"126.79841001","imageIndex":4,"items":[{"name":"더큰치킨","tel":"032-676-0234","addr":"경기도 부천시 원종동 148-8번지 1층","indutype":"일반휴게음식 - 주점","category":"restaurant"}]},{"lat":"37.522981334","long":"126.80443093","imageIndex":4,"items":[{"name":"도둑고기 원종점","tel":"032-673-1006","addr":"경기도 부천시 원종동 227-4번지 1층","indutype":"일반휴게음식 - 일반한식","category":"restaurant"}]},{"lat":"37.524225715","long":"126.8104911","imageIndex":4,"items":[{"name":"도란도란호프","tel":"032-682-9687","addr":"경기도 부천시 원종동 341-18번지 우성빌라 나동 101호","indutype":"일반휴게음식 - 주점","category":"restaurant"},{"name":"아방궁육개장","tel":"032-678-9996","addr":"경기도 부천시 원종동 341-18번지 우성빌라 나동 102호","indutype":"일반휴게음식 - 일반한식","category":"restaurant"}]},{"lat":"37.524199445","long":"126.80549107","imageIndex":4,"items":[{"name":"도리찜닭","tel":"032-201-6007","addr":"경기도 부천시 원종동 277-10번지 1층","indutype":"일반휴게음식 - 일반한식","category":"restaurant"},{"name":"산까치레스토랑","tel":"032-673-8187","addr":"경기도 부천시 원종동 277-10번지","indutype":"일반휴게음식 - 서양음식","category":"restaurant"},{"name":"이모네빈대떡순대국","tel":"032-677-5010","addr":"경기도 부천시 원종동 277-10번지 1층","indutype":"일반휴게음식 - 일반한식","category":"restaurant"},{"name":"칠성메들리호프","tel":"031-3514-4969","addr":"경기도 부천시 원종동 277-10번지 3층","indutype":"일반휴게음식 - 주점","category":"restaurant"}]},{"lat":"37.526755314","long":"126.80374216","imageIndex":4,"items":[{"name":"도모다찌","tel":"","addr":"경기도 부천시 원종동 134-7번지 1층 일부","indutype":"일반휴게음식 - 일반한식","category":"restaurant"},{"name":"부천시오정노인복지관늘해랑만두","tel":"032-683-9294","addr":"경기도 부천시 원종동 134-7번지 수정상가 1층 5호","indutype":"일반휴게음식 - 스넥","category":"restaurant"},{"name":"셰프의 돈까스","tel":"032-673-7895","addr":"경기도 부천시 원종동 134-7번지 수정상가 1층 9호","indutype":"일반휴게음식 - 일반한식","category":"restaurant"},{"name":"피자생","tel":"032-672-4643","addr":"경기도 부천시 원종동 134-7수정상가1층2","indutype":"일반휴게음식 - 서양음식","category":"restaurant"}]},{"lat":"37.525006833","long":"126.80340743","imageIndex":4,"items":[{"name":"도올생고기전문점","tel":"032-683-2220","addr":"경기도 부천시 원종동 221번지 수성빌딩 1층 102호","indutype":"일반휴게음식 - 일반한식","category":"restaurant"},{"name":"우가네집밥","tel":"032-677-5328","addr":"경기도 부천시 원종동 221번지 수성빌딩 101호","indutype":"일반휴게음식 - 일반한식","category":"restaurant"},{"name":"홍대불닭발","tel":"032-679-0905","addr":"경기도 부천시 원종동 221번지 수성빌딩 105호,106호일부","indutype":"일반휴게음식 - 일반한식","category":"restaurant"},{"name":"효정돌곱창","tel":"032-674-1148","addr":"경기도 부천시 원종동 221번지","indutype":"일반휴게음식 - 일반한식","category":"restaurant"}]},{"lat":"37.526312552","long":"126.80298539","imageIndex":4,"items":[{"name":"돈방석","tel":"032-682-0620","addr":"경기도 부천시 원종동 135-13번지","indutype":"일반휴게음식 - 일반한식","category":"restaurant"}]},{"lat":"37.519924814","long":"126.8085452","imageIndex":4,"items":[{"name":"돈방석보쌈","tel":"070-7398-1481","addr":"경기도 부천시 원종동 362-27번지 1층","indutype":"일반휴게음식 - 일반한식","category":"restaurant"}]},{"lat":"37.519484391","long":"126.8037728","imageIndex":4,"items":[{"name":"돈실내포장마차","tel":"032-678-9864","addr":"경기도 부천시 원종동 382-7번지 1층","indutype":"일반휴게음식 - 주점","category":"restaurant"},{"name":"처갓집양념치킨 원종점","tel":"032-675-4578","addr":"경기도 부천시 원종동 382-7번지 1층 일부","indutype":"일반휴게음식 - 스넥","category":"restaurant"}]},{"lat":"37.523790409","long":"126.80335411","imageIndex":4,"items":[{"name":"돈치킨호프구운치킨","tel":"032-676-9295","addr":"경기도 부천시 원종동 222번지","indutype":"일반휴게음식 - 스넥","category":"restaurant"},{"name":"뜰안","tel":"","addr":"경기도 부천시 원종동 222번지 2층","indutype":"일반휴게음식 - 일반한식","category":"restaurant"}]},{"lat":"37.523843856","long":"126.80299197","imageIndex":4,"items":[{"name":"돌쇠퓨전주막","tel":"032-207-8325","addr":"경기도 부천시 원종동 217-1번지 지하1층","indutype":"일반휴게음식 - 주점","category":"restaurant"},{"name":"맷돌빈대떡","tel":"032-672-0649","addr":"경기도 부천시 원종동 217-1번지","indutype":"일반휴게음식 - 일반한식","category":"restaurant"},{"name":"오리지널87닭강정","tel":"032-679-8788","addr":"경기도 부천시 원종동 217-1번지 1층","indutype":"일반휴게음식 - 일반한식","category":"restaurant"},{"name":"작","tel":"032-557-5856","addr":"경기도 부천시 원종동 217-1번지 1층 좌측 1호","indutype":"일반휴게음식 - 주점","category":"restaurant"}]},{"lat":"37.52540006","long":"126.80151718","imageIndex":4,"items":[{"name":"돌판삼겹과 양푼찌개","tel":"032-672-8070","addr":"경기도 부천시 원종동 208-13번지 삼양빌딩 1층 일부","indutype":"일반휴게음식 - 일반한식","category":"restaurant"}]},{"lat":"37.528372678","long":"126.80648694","imageIndex":4,"items":[{"name":"동구네생선구이전문","tel":"032-683-7271","addr":"경기도 부천시 원종동 253-2번지 1층 일부","indutype":"일반휴게음식 - 일반한식","category":"restaurant"},{"name":"몬스터떡볶이","tel":"070-8624-5464","addr":"경기도 부천시 원종동 253-2번지 1층 1호","indutype":"일반휴게음식 - 스넥","category":"restaurant"},{"name":"배달의 쌀국수 부천오정점","tel":"032-677-1316","addr":"경기도 부천시 원종동 253-2번지 B동 2호","indutype":"일반휴게음식 - 중국식","category":"restaurant"}]},{"lat":"37.526422465","long":"126.80404849","imageIndex":4,"items":[{"name":"동그리전집","tel":"032-672-2292","addr":"경기도 부천시 원종동 229번지 성진그린타운 1동 105호","indutype":"일반휴게음식 - 일반한식","category":"restaurant"},{"name":"큰맘할매순대국","tel":"070-8666-4178","addr":"경기도 부천시 원종동 229번지 성진그린타운 1동 101호","indutype":"일반휴게음식 - 일반한식","category":"restaurant"}]},{"lat":"37.526004663","long":"126.80206988","imageIndex":4,"items":[{"name":"동치미막국수","tel":"032-672-5122","addr":"경기도 부천시 원종동 135-11번지 1층 일부","indutype":"일반휴게음식 - 일반한식","category":"restaurant"},{"name":"만리장성","tel":"032-676-2240","addr":"경기도 부천시 원종동 135-11번지 1층","indutype":"일반휴게음식 - 중국식","category":"restaurant"}]},{"lat":"37.51834278","long":"126.80534814","imageIndex":4,"items":[{"name":"동태가족","tel":"032-672-8719","addr":"경기도 부천시 원종동 371-27번지 1층","indutype":"일반휴게음식 - 일반한식","category":"restaurant"}]},{"lat":"37.517452654","long":"126.806459","imageIndex":4,"items":[{"name":"두메한우","tel":"032-672-7706","addr":"경기도 부천시 원종동 369 장미상가 103","indutype":"일반휴게음식 - 일반한식","category":"restaurant"},{"name":"밀사랑손칼국수","tel":"032-678-4812","addr":"경기도 부천시 원종동 369 장미상가 105호","indutype":"일반휴게음식 - 스넥","category":"restaurant"}]},{"lat":"37.52534588","long":"126.80680031","imageIndex":4,"items":[{"name":"두찜부천원종점","tel":"031-674-1456","addr":"경기도 부천시 원종동 268-15번지","indutype":"일반휴게음식 - 일반한식","category":"restaurant"}]},{"lat":"37.518730393","long":"126.80546023","imageIndex":4,"items":[{"name":"둥굴관식당","tel":"032-672-4965","addr":"경기도 부천시 원종동 372-3번지 동명 B동 201호","indutype":"일반휴게음식 - 일반한식","category":"restaurant"},{"name":"옛날우동잔치국수","tel":"070-7317-6785","addr":"경기도 부천시 원종동 372-3번지 1층","indutype":"일반휴게음식 - 스넥","category":"restaurant"},{"name":"장우왕족발","tel":"032-672-9181","addr":"경기도 부천시 원종동 372-3,4","indutype":"일반휴게음식 - 일반한식","category":"restaurant"}]},{"lat":"37.523837794","long":"126.81018666","imageIndex":4,"items":[{"name":"등촌샤브샤브칼국수","tel":"032-684-6969","addr":"경기도 부천시 원종동 291-44번지","indutype":"일반휴게음식 - 일반한식","category":"restaurant"},{"name":"유가네돌솥설렁탕","tel":"032-677-0665","addr":"경기도 부천시 원종동 291-44번지","indutype":"일반휴게음식 - 갈비전문점","category":"restaurant"}]},{"lat":"37.523288883","long":"126.8051541","imageIndex":4,"items":[{"name":"디비 피씨방내 휴게음식점","tel":"070-4735-0678","addr":"경기도 부천시 원종동 280-13번지 우진빌딩 B1층","indutype":"일반휴게음식 - 일반한식","category":"restaurant"}]},{"lat":"37.517316262","long":"126.80571281","imageIndex":4,"items":[{"name":"디비디(DBD)153치킨","tel":"032-682-9253","addr":"경기도 부천시 원종동 371-29번지 성산타운 B동 1층 102호","indutype":"일반휴게음식 - 스넥","category":"restaurant"}]},{"lat":"37.524205235","long":"126.8089866","imageIndex":4,"items":[{"name":"땡긴닭","tel":"032-671-5592","addr":"경기도 부천시 원종동 293-27번지 청담힐스아파트 상가 103호","indutype":"일반휴게음식 - 스넥","category":"restaurant"}]},{"lat":"37.527172112","long":"126.7998268","imageIndex":4,"items":[{"name":"떡볶이쥬쥬","tel":"032-672-6492","addr":"경기도 부천시 원종동 130번지 진영주택 가동 지층 1호","indutype":"일반휴게음식 - 일반한식","category":"restaurant"}]},{"lat":"37.518534437","long":"126.80681814","imageIndex":4,"items":[{"name":"또또와분식","tel":"","addr":"경기도 부천시 원종동 366-7번지 1층 일부","indutype":"일반휴게음식 - 스넥","category":"restaurant"}]},{"lat":"37.524340754","long":"126.80379383","imageIndex":4,"items":[{"name":"뚱보집","tel":"032-675-9095","addr":"경기도 부천시 원종동 221-11번지 1층","indutype":"일반휴게음식 - 일반한식","category":"restaurant"}]},{"lat":"37.522143161","long":"126.79899202","imageIndex":4,"items":[{"name":"로망스커피","tel":"032-111-1111","addr":"경기도 부천시 원종동 153-3번지 스타팰리스 101동 101호","indutype":"일반휴게음식 - 서양음식","category":"restaurant"}]},{"lat":"37.526150636","long":"126.80854037","imageIndex":4,"items":[{"name":"리빈(LIVIN)","tel":"032-683-5882","addr":"경기도 부천시 원종동 270-6번지 3층","indutype":"일반휴게음식 - 주점","category":"restaurant"},{"name":"본스튜감자탕 (원종점)","tel":"032-678-7756","addr":"경기도 부천시 원종동 270-6번지","indutype":"일반휴게음식 - 일반한식","category":"restaurant"}]},{"lat":"37.525344299","long":"126.80585006","imageIndex":4,"items":[{"name":"마구잡이횟집","tel":"032-683-3092","addr":"경기도 부천시 원종동 236-21번지 예건베르빌 1층 101호","indutype":"일반휴게음식 - 일식·회집","category":"restaurant"},{"name":"착한노가리","tel":"032-677-7179","addr":"경기도 부천시 원종동 236-21번지 예건베르빌 103호","indutype":"일반휴게음식 - 주점","category":"restaurant"},{"name":"쿠이켄","tel":"032-111-1111","addr":"경기도 부천시 원종동 236-21번지 예건베르빌 상가 102호","indutype":"일반휴게음식 - 주점","category":"restaurant"}]},{"lat":"37.524189952","long":"126.81066088","imageIndex":4,"items":[{"name":"마산아구찜.굴","tel":"032-682-8356","addr":"경기도 부천시 원종동 341-17번지 우성빌라 가동 102호","indutype":"일반휴게음식 - 일반한식","category":"restaurant"}]},{"lat":"37.525366519","long":"126.80298791","imageIndex":4,"items":[{"name":"마시아","tel":"032-0000-0000","addr":"경기도 부천시 원종동 219-2번지 대풍빌딩 1층 1호","indutype":"일반휴게음식 - 서양음식","category":"restaurant"}]},{"lat":"37.525033251","long":"126.80304536","imageIndex":4,"items":[{"name":"마왕족발 원종사거리점","tel":"032-682-4417","addr":"경기도 부천시 원종동 218-4번지 1층","indutype":"일반휴게음식 - 일반한식","category":"restaurant"},{"name":"옛골(원종3호점)","tel":"032-681-7350","addr":"경기도 부천시 원종동 218-4번지","indutype":"일반휴게음식 - 일반한식","category":"restaurant"},{"name":"우리둘이","tel":"031-0000-0000","addr":"경기도 부천시 원종동 218-4번지 1층","indutype":"일반휴게음식 - 서양음식","category":"restaurant"},{"name":"원종해장국","tel":"032-677-7938","addr":"경기도 부천시 원종동 218-4번지","indutype":"일반휴게음식 - 일반한식","category":"restaurant"},{"name":"탕탕탕 해물포차","tel":"032-677-9980","addr":"경기도 부천시 원종동 218-4번지","indutype":"일반휴게음식 - 주점","category":"restaurant"},{"name":"피자파자","tel":"032-682-8001","addr":"경기도 부천시 원종동 218-4번지 1층","indutype":"일반휴게음식 - 서양음식","category":"restaurant"}]},{"lat":"37.524951549","long":"126.80268358","imageIndex":4,"items":[{"name":"마이치킨","tel":"032-677-0538","addr":"경기도 부천시 원종동 218-1번지 1층 일부호","indutype":"일반휴게음식 - 스넥","category":"restaurant"},{"name":"빨간튀떡","tel":"032-678-2004","addr":"경기도 부천시 원종동 218-1번지 1층 일부","indutype":"일반휴게음식 - 일반한식","category":"restaurant"}]},{"lat":"37.523839051","long":"126.80549202","imageIndex":4,"items":[{"name":"마일드치킨","tel":"032-673-6705","addr":"경기도 부천시 원종동 280-1번지 한성연립 104호","indutype":"일반휴게음식 - 칵테일바","category":"restaurant"}]},{"lat":"37.531120828","long":"126.80657024","imageIndex":4,"items":[{"name":"마티네","tel":"02-1111-1111","addr":"경기도 부천시 원종동 186-38번지 102호","indutype":"일반휴게음식 - 서양음식","category":"restaurant"}]},{"lat":"37.522838825","long":"126.81087928","imageIndex":4,"items":[{"name":"만나(MANNa)","tel":"032-327-4509","addr":"경기도 부천시 원종동 344-23번지 한울아파트","indutype":"일반휴게음식 - 서양음식","category":"restaurant"},{"name":"조은사람들","tel":"","addr":"경기도 부천시 원종동 344-23번지 한울아파트 1층 6호","indutype":"일반휴게음식 - 일반한식","category":"restaurant"}]},{"lat":"37.523698663","long":"126.80238149","imageIndex":4,"items":[{"name":"만찬정","tel":"032-676-5642","addr":"경기도 부천시 원종동 212-35번지 진도빌라트 B02호","indutype":"일반휴게음식 - 일반한식","category":"restaurant"}]},{"lat":"37.518818063","long":"126.80401211","imageIndex":4,"items":[{"name":"맘스터치","tel":"032-683-8712","addr":"경기도 부천시 원종동 375-12번지 황산빌라 가동101,102호","indutype":"일반휴게음식 - 서양음식","category":"restaurant"}]},{"lat":"37.525344619","long":"126.80604237","imageIndex":4,"items":[{"name":"맛들의축제","tel":"02-2175-3011","addr":"경기도 부천시 원종동 236-22번지 1층 일부","indutype":"일반휴게음식 - 일반한식","category":"restaurant"},{"name":"원동중화요리","tel":"032-673-6485","addr":"경기도 부천시 원종동 236-22번지 1층","indutype":"일반휴게음식 - 중국식","category":"restaurant"}]},{"lat":"37.528088773","long":"126.80915756","imageIndex":4,"items":[{"name":"맛보러 오세요","tel":"032-677-7465","addr":"경기도 부천시 원종동 299-2번지 112호","indutype":"일반휴게음식 - 주점","category":"restaurant"},{"name":"생고기맛집","tel":"032-343-8550","addr":"경기도 부천시 원종동 299-2번지 금흥빌딩 109호","indutype":"일반휴게음식 - 일반한식","category":"restaurant"},{"name":"순대랑왕족발","tel":"032-682-4609","addr":"경기도 부천시 원종동 299-2번지 1층","indutype":"일반휴게음식 - 일반한식","category":"restaurant"},{"name":"제일손칼국수","tel":"032-671-4484","addr":"경기도 부천시 원종동 299-2번지 1층","indutype":"일반휴게음식 - 일반한식","category":"restaurant"}]},{"lat":"37.521865271","long":"126.80512392","imageIndex":4,"items":[{"name":"맛있는이야기","tel":"032-678-3700","addr":"경기도 부천시 원종동 281-15번지","indutype":"일반휴게음식 - 일반한식","category":"restaurant"},{"name":"쥬키즈카페","tel":"031-000-0000","addr":"경기도 부천시 원종동 281-15번지 정복빌딩 4층","indutype":"일반휴게음식 - 서양음식","category":"restaurant"},{"name":"참치&회","tel":"032-678-0937","addr":"경기도 부천시 원종동 281-15번지 정복빌딩 2층","indutype":"일반휴게음식 - 일식·회집","category":"restaurant"}]},{"lat":"37.518843794","long":"126.80324286","imageIndex":4,"items":[{"name":"맛짱돈","tel":"032-677-1024","addr":"경기도 부천시 원종동 469번지 원종E편한세상 상가동 1층 101호","indutype":"일반휴게음식 - 일반한식","category":"restaurant"}]},{"lat":"37.525151454","long":"126.80909728","imageIndex":4,"items":[{"name":"맥시칸","tel":"032-672-0028","addr":"경기도 부천시 원종동 293-1번지 1층 3호","indutype":"일반휴게음식 - 일반한식","category":"restaurant"},{"name":"이모네도시락","tel":"032-678-9905","addr":"경기도 부천시 원종동 293-1번지","indutype":"일반휴게음식 - 일반한식","category":"restaurant"},{"name":"행복한야식","tel":"032-673-8592","addr":"경기도 부천시 원종동 293-1번지 1층 일부","indutype":"일반휴게음식 - 일반한식","category":"restaurant"}]},{"lat":"37.518727545","long":"126.8037635","imageIndex":4,"items":[{"name":"먹을만한 족발","tel":"032-673-8889","addr":"경기도 부천시 원종동 379-3번지","indutype":"일반휴게음식 - 일반한식","category":"restaurant"},{"name":"묵은지김치찌개","tel":"032-677-9933","addr":"경기도 부천시 원종동 379-3번지 1층","indutype":"일반휴게음식 - 일반한식","category":"restaurant"},{"name":"짜장생각","tel":"032-683-7002","addr":"경기도 부천시 원종동 379-3번지 1층","indutype":"일반휴게음식 - 중국식","category":"restaurant"},{"name":"한잔하고픈호프","tel":"032-208-8488","addr":"경기도 부천시 원종동 379-3번지 102호","indutype":"일반휴게음식 - 주점","category":"restaurant"}]},{"lat":"37.522568512","long":"126.80540487","imageIndex":4,"items":[{"name":"멕시칸양념치킨","tel":"032-683-7345","addr":"경기도 부천시 원종동 281-1번지","indutype":"일반휴게음식 - 서양음식","category":"restaurant"},{"name":"병천순대","tel":"032-672-7769","addr":"경기도 부천시 원종동 281-1번지 진주빌딩 104,105호","indutype":"일반휴게음식 - 일반한식","category":"restaurant"}]},{"lat":"37.527036288","long":"126.81017844","imageIndex":4,"items":[{"name":"면과함께주안상","tel":"032-672-6566","addr":"경기도 부천시 원종동 296-24번지 1층","indutype":"일반휴게음식 - 일반한식","category":"restaurant"}]},{"lat":"37.525122736","long":"126.80268312","imageIndex":4,"items":[{"name":"명가식품","tel":"032-684-5642","addr":"경기도 부천시 원종동 218번지 만호빌딩 1층 2호","indutype":"일반휴게음식 - 일반한식","category":"restaurant"}]},{"lat":"37.527648236","long":"126.80973566","imageIndex":4,"items":[{"name":"명가죽","tel":"032-671-5006","addr":"경기도 부천시 원종동 296-16번지 유성스카이빌 1층","indutype":"일반휴게음식 - 일반한식","category":"restaurant"}]},{"lat":"37.523701777","long":"126.80965533","imageIndex":4,"items":[{"name":"명가추어탕","tel":"032-679-8924","addr":"경기도 부천시 원종동 291-1번지","indutype":"일반휴게음식 - 일반한식","category":"restaurant"}]},{"lat":"37.517088171","long":"126.80401671","imageIndex":4,"items":[{"name":"명동찌개마을","tel":"032-674-1833","addr":"경기도 부천시 원종동 376-14번지","indutype":"일반휴게음식 - 일반한식","category":"restaurant"}]},{"lat":"37.525397715","long":"126.80546529","imageIndex":4,"items":[{"name":"명불허전","tel":"070-7318-9852","addr":"경기도 부천시 원종동 233-9번지 1층","indutype":"일반휴게음식 - 일반한식","category":"restaurant"},{"name":"정통뼈다귀","tel":"032-682-5877","addr":"경기도 부천시 원종동 233-9번지","indutype":"일반휴게음식 - 일반한식","category":"restaurant"},{"name":"짱가네춘천숯불닭갈비","tel":"032-677-3735","addr":"경기도 부천시 원종동 233-9번지 1층","indutype":"일반휴게음식 - 일반한식","category":"restaurant"}]},{"lat":"37.526704047","long":"126.80540528","imageIndex":4,"items":[{"name":"명태어장","tel":"032-681-1552","addr":"경기도 부천시 원종동 232-9번지","indutype":"일반휴게음식 - 일반한식","category":"restaurant"}]},{"lat":"37.51920619","long":"126.80442962","imageIndex":4,"items":[{"name":"명태어장","tel":"032-678-3916","addr":"경기도 부천시 원종동 375-3번지 그린메디칼프라자 1층","indutype":"일반휴게음식 - 일반한식","category":"restaurant"},{"name":"병천토속순대","tel":"032-676-1700","addr":"경기도 부천시 원종동 375-3번지 그린메디칼프라자 1층 106호","indutype":"일반휴게음식 - 일반한식","category":"restaurant"},{"name":"호치킨하우스","tel":"032-684-5727","addr":"경기도 부천시 원종동 375-3번지 그린메디칼프라자 108호","indutype":"일반휴게음식 - 주점","category":"restaurant"}]},{"lat":"37.524259613","long":"126.79848851","imageIndex":4,"items":[{"name":"몬스터푸드","tel":"032-671-1008","addr":"경기도 부천시 원종동 148-2번지 1층 일부","indutype":"일반휴게음식 - 일반한식","category":"restaurant"}]},{"lat":"37.526484595","long":"126.80890151","imageIndex":4,"items":[{"name":"무릉도원","tel":"032-675-9999","addr":"경기도 부천시 원종동 294번지","indutype":"일반휴게음식 - 일반한식","category":"restaurant"}]},{"lat":"37.525345034","long":"126.80629125","imageIndex":4,"items":[{"name":"미뇽","tel":"032-672-5390","addr":"경기도 부천시 원종동 236-24번지 1층","indutype":"일반휴게음식 - 일반한식","category":"restaurant"}]},{"lat":"37.519926997","long":"126.80443902","imageIndex":4,"items":[{"name":"미성커피숍","tel":"032-661-6317","addr":"경기도 부천시 원종동 374-4번지 지층","indutype":"일반휴게음식 - 서양음식","category":"restaurant"},{"name":"봉구스밥버거(성곡사거리점)","tel":"032-676-0979","addr":"경기도 부천시 원종동 374-4번지 1층 봉구스밥버거","indutype":"일반휴게음식 - 서양음식","category":"restaurant"}]},{"lat":"37.527594953","long":"126.81021094","imageIndex":4,"items":[{"name":"미소식당","tel":"","addr":"경기도 부천시 원종동 296-19번지 1층","indutype":"일반휴게음식 - 서양음식","category":"restaurant"},{"name":"빈나이스푸드","tel":"032-111-1111","addr":"경기도 부천시 원종동 296-19번지","indutype":"일반휴게음식 - 서양음식","category":"restaurant"}]},{"lat":"37.528344914","long":"126.8060458","imageIndex":4,"items":[{"name":"미소호프","tel":"032-678-5497","addr":"경기도 부천시 원종동 255-9번지","indutype":"일반휴게음식 - 주점","category":"restaurant"},{"name":"야화","tel":"032-684-5552","addr":"경기도 부천시 원종동 255-9번지","indutype":"일반휴게음식 - 일반한식","category":"restaurant"},{"name":"연화","tel":"032-671-3738","addr":"경기도 부천시 원종동 255-9번지 1층","indutype":"일반휴게음식 - 주점","category":"restaurant"}]},{"lat":"37.527844411","long":"126.80849072","imageIndex":4,"items":[{"name":"미스터(mr)짱닭치킨","tel":"032-682-7201","addr":"경기도 부천시 원종동 237-15번지","indutype":"일반휴게음식 - 스넥","category":"restaurant"}]},{"lat":"37.5278106836","long":"126.8044633892","imageIndex":4,"items":[{"name":"미스터꼼장어","tel":"032-676-8592","addr":"경기도 부천시 원종동 230-1번지 1층일부/1","indutype":"일반휴게음식 - 일반한식","category":"restaurant"}]},{"lat":"37.524620059","long":"126.80379309","imageIndex":4,"items":[{"name":"미쓰족발","tel":"032-676-3330","addr":"경기도 부천시 원종동 221-6번지 1층","indutype":"일반휴게음식 - 일반한식","category":"restaurant"}]},{"lat":"37.517150821","long":"126.80376769","imageIndex":4,"items":[{"name":"바다가있는왕해물탕찜","tel":"032-678-7323","addr":"경기도 부천시 원종동 377-4번지","indutype":"일반휴게음식 - 일반한식","category":"restaurant"}]},{"lat":"37.522838296","long":"126.80509873","imageIndex":4,"items":[{"name":"바불리 옛날 왕만두","tel":"","addr":"경기도 부천시 원종동 280-9번지 1층 4호","indutype":"일반휴게음식 - 일반한식","category":"restaurant"},{"name":"삼촌네 춘천닭갈비","tel":"031-111-1111","addr":"경기도 부천시 원종동 280-9번지 토수프라자 108호","indutype":"일반휴게음식 - 일반한식","category":"restaurant"}]},{"lat":"37.526260935","long":"126.80443356","imageIndex":4,"items":[{"name":"바비","tel":"032-677-7544","addr":"경기도 부천시 원종동 229-4번지 해연빌딩 3층","indutype":"일반휴게음식 - 주점","category":"restaurant"},{"name":"블랙엔화이트","tel":"070-7398-4213","addr":"경기도 부천시 원종동 229-4번지 해연빌딩 2층","indutype":"일반휴게음식 - 주점","category":"restaurant"},{"name":"송담추어탕","tel":"032-682-3434","addr":"경기도 부천시 원종동 229-4번지 해연빌딩","indutype":"일반휴게음식 - 일반한식","category":"restaurant"},{"name":"카리브","tel":"070-4963-1740","addr":"경기도 부천시 원종동 229-4번지 해연빌딩 지하1층","indutype":"일반휴게음식 - 주점","category":"restaurant"}]},{"lat":"37.52426238","long":"126.81087563","imageIndex":4,"items":[{"name":"배달삼겹직구삼고강원종점","tel":"032-674-1911","addr":"경기도 부천시 원종동 341-7번지 성호빌딩 1층","indutype":"일반휴게음식 - 일반한식","category":"restaurant"},{"name":"피자에땅 오븐에빠진닭","tel":"032-681-2083","addr":"경기도 부천시 원종동 341-7번지","indutype":"일반휴게음식 - 스넥","category":"restaurant"}]},{"lat":"37.524174394","long":"126.80667894","imageIndex":4,"items":[{"name":"백년갈비 숯불화로구이","tel":"070-8990-5893","addr":"경기도 부천시 원종동 276-3번지 상도빌딩 1층","indutype":"일반휴게음식 - 일반한식","category":"restaurant"}]},{"lat":"37.523756181","long":"126.80442888","imageIndex":4,"items":[{"name":"버무리 떡볶이","tel":"032-683-1002","addr":"경기도 부천시 원종동 227-1번지 11호","indutype":"일반휴게음식 - 스넥","category":"restaurant"},{"name":"웃어라청춘","tel":"032-673-5586","addr":"경기도 부천시 원종동 227-1번지","indutype":"일반휴게음식 - 칵테일바","category":"restaurant"},{"name":"이삭토스트(부천원종사거리점)","tel":"032-672-2345","addr":"경기도 부천시 원종동 227-1번지 1층 11호","indutype":"일반휴게음식 - 스넥","category":"restaurant"}]},{"lat":"37.528066757","long":"126.80673663","imageIndex":4,"items":[{"name":"베이징","tel":"032-684-1114","addr":"경기도 부천시 원종동 253-11번지 대하그린타운 1동 101호","indutype":"일반휴게음식 - 중국식","category":"restaurant"}]},{"lat":"37.519984666","long":"126.80659942","imageIndex":4,"items":[{"name":"별봄차이나","tel":"032-682-1726","addr":"경기도 부천시 원종동 365-11번지 대원블루힐아파트 1층 101호","indutype":"일반휴게음식 - 중국식","category":"restaurant"}]},{"lat":"37.526816355","long":"126.80254284","imageIndex":4,"items":[{"name":"별이네떡볶이","tel":"032-675-3617","addr":"경기도 부천시 원종동 136-2번지 1층","indutype":"일반휴게음식 - 스넥","category":"restaurant"},{"name":"삼겹통","tel":"031-908-1501","addr":"경기도 부천시 원종동 136-2번지","indutype":"일반휴게음식 - 일반한식","category":"restaurant"},{"name":"참살이원조장충족발(보쌈)","tel":"032-671-3678","addr":"경기도 부천시 원종동 136-2번지","indutype":"일반휴게음식 - 일반한식","category":"restaurant"},{"name":"참새방앗간","tel":"032-683-5223","addr":"경기도 부천시 원종동 136-2번지","indutype":"일반휴게음식 - 주점","category":"restaurant"}]},{"lat":"37.519922742","long":"126.8072896","imageIndex":4,"items":[{"name":"별이빛나는밤에","tel":"032-681-1303","addr":"경기도 부천시 원종동 362-13번지 부원리츠빌 103호","indutype":"일반휴게음식 - 주점","category":"restaurant"}]},{"lat":"37.528370941","long":"126.81091035","imageIndex":4,"items":[{"name":"병천순대","tel":"032-675-2887","addr":"경기도 부천시 원종동 338-5번지","indutype":"일반휴게음식 - 일반한식","category":"restaurant"}]},{"lat":"37.525368999","long":"126.80445854","imageIndex":4,"items":[{"name":"보드람치킨","tel":"032-678-9922","addr":"경기도 부천시 원종동 229-9번지 1층 3호","indutype":"일반휴게음식 - 스넥","category":"restaurant"},{"name":"쥬스스토리","tel":"032-681-7733","addr":"경기도 부천시 원종동 229-9번지 1층 일부","indutype":"일반휴게음식 - 서양음식","category":"restaurant"}]},{"lat":"37.525144184","long":"126.81016068","imageIndex":4,"items":[{"name":"보리밭호프","tel":"070-4204-0796","addr":"경기도 부천시 원종동 292-18번지","indutype":"일반휴게음식 - 주점","category":"restaurant"}]},{"lat":"37.527865801","long":"126.81054963","imageIndex":4,"items":[{"name":"복사골죽전문점","tel":"032-674-1888","addr":"경기도 부천시 원종동 339번지 대림베스트타운","indutype":"일반휴게음식 - 일반한식","category":"restaurant"},{"name":"쌈바찹쌀강정","tel":"032-672-8985","addr":"경기도 부천시 원종동 339번지 대림베스트타운 1층 107호","indutype":"일반휴게음식 - 일반한식","category":"restaurant"},{"name":"제일빈대떡","tel":"032-677-0997","addr":"경기도 부천시 원종동 339번지 대림베스터타운 105호","indutype":"일반휴게음식 - 일반한식","category":"restaurant"}]},{"lat":"37.525505739","long":"126.81087244","imageIndex":4,"items":[{"name":"본가김밥천국","tel":"032-673-0666","addr":"경기도 부천시 원종동 340-29번지 하이캐슬 2동 102호","indutype":"일반휴게음식 - 스넥","category":"restaurant"},{"name":"신가옥","tel":"032-679-9328","addr":"경기도 부천시 원종동 340-29번지 외1필지 하이캐슬 2동 101호","indutype":"일반휴게음식 - 일반한식","category":"restaurant"}]},{"lat":"37.522234674","long":"126.80512295","imageIndex":4,"items":[{"name":"본죽&비빔밥","tel":"032-681-6288","addr":"경기도 부천시 원종동 281-6번지 1층 105호,106호","indutype":"일반휴게음식 - 일반한식","category":"restaurant"}]},{"lat":"37.51953552","long":"126.80204197","imageIndex":4,"items":[{"name":"부어치킨","tel":"070-7529-8843","addr":"경기도 부천시 원종동 388-25번지 J펠리스빌 가동 1층 101호","indutype":"일반휴게음식 - 스넥","category":"restaurant"}]},{"lat":"37.522810204","long":"126.80446532","imageIndex":4,"items":[{"name":"부천원종중앙점빽다방","tel":"032-672-0798","addr":"경기도 부천시 원종동 227-5번지","indutype":"일반휴게음식 - 서양음식","category":"restaurant"},{"name":"한솥도시락 부천원종사거리점","tel":"032-672-0793","addr":"경기도 부천시 원종동 227-5번지","indutype":"일반휴게음식 - 일반한식","category":"restaurant"}]},{"lat":"37.524817049","long":"126.80846464","imageIndex":4,"items":[{"name":"부흥식당","tel":"032-673-6055","addr":"경기도 부천시 원종동 271-2번지","indutype":"일반휴게음식 - 일반한식","category":"restaurant"}]},{"lat":"37.523595218","long":"126.80515329","imageIndex":4,"items":[{"name":"북경짜장2900(원종점)","tel":"032-673-1416","addr":"경기도 부천시 원종동 280-15번지 한성빌딩 2층 204호","indutype":"일반휴게음식 - 중국식","category":"restaurant"},{"name":"소담촌","tel":"032-676-5522","addr":"경기도 부천시 원종동 280-15번지 한성빌딩 4층 402호","indutype":"일반휴게음식 - 일반한식","category":"restaurant"}]},{"lat":"37.521981279","long":"126.8044562","imageIndex":4,"items":[{"name":"북촌순두부&보쌈","tel":"031-528-6263","addr":"경기도 부천시 원종동 224-3번지 L빌딩 102호","indutype":"일반휴게음식 - 일반한식","category":"restaurant"},{"name":"팽현자 당진 아구 동태찜탕","tel":"031-111-1111","addr":"경기도 부천시 원종동 224-3번지 L빌딩","indutype":"일반휴게음식 - 일반한식","category":"restaurant"},{"name":"흥부네쌈밥촌","tel":"032-672-7740","addr":"경기도 부천시 원종동 224-3번지 L빌딩 201호","indutype":"일반휴게음식 - 일반한식","category":"restaurant"}]},{"lat":"37.52378201","long":"126.80371613","imageIndex":4,"items":[{"name":"불닭발동대문엽기떡볶기원종점","tel":"032-678-8592","addr":"경기도 부천시 원종동 222-2번지 1층","indutype":"일반휴게음식 - 일반한식","category":"restaurant"},{"name":"일동설렁탕","tel":"032-684-5533","addr":"경기도 부천시 원종동 222-2번지","indutype":"일반휴게음식 - 일반한식","category":"restaurant"},{"name":"호미곱창","tel":"032-672-8808","addr":"경기도 부천시 원종동 222-2번지 1층일부","indutype":"일반휴게음식 - 일반한식","category":"restaurant"}]},{"lat":"37.519453085","long":"126.80660081","imageIndex":4,"items":[{"name":"불도장","tel":"031-681-4010","addr":"경기도 부천시 원종동 366-19번지 1층","indutype":"일반휴게음식 - 중국식","category":"restaurant"}]},{"lat":"37.530567141","long":"126.804128","imageIndex":4,"items":[{"name":"불로만숯불바베큐원종2호점","tel":"032-671-3400","addr":"경기도 부천시 원종동 70-1동문상가1층4호","indutype":"일반휴게음식 - 칵테일바","category":"restaurant"}]},{"lat":"37.524144126","long":"126.79943907","imageIndex":4,"items":[{"name":"불먹은도야지초벌구이전문점","tel":"070-8829-6215","addr":"경기도 부천시 원종동 141-3번지 중앙프라자 1층","indutype":"일반휴게음식 - 일반한식","category":"restaurant"},{"name":"원종 손칼국수 냉면","tel":"032-672-6688","addr":"경기도 부천시 원종동 141-3번지 중앙프라자 1층 103호","indutype":"일반휴게음식 - 일반한식","category":"restaurant"}]},{"lat":"37.524061494","long":"126.79854561","imageIndex":4,"items":[{"name":"불스떡볶이","tel":"032-677-3690","addr":"경기도 부천시 원종동 148-9번지","indutype":"일반휴게음식 - 스넥","category":"restaurant"}]},{"lat":"37.527010666","long":"126.80557417","imageIndex":4,"items":[{"name":"비비큐치킨","tel":"032-674-0577","addr":"경기도 부천시 원종동 232-6번지","indutype":"일반휴게음식 - 서양음식","category":"restaurant"},{"name":"호식이두마리치킨원종점","tel":"032-678-4195","addr":"경기도 부천시 원종동 232-6번지 송림그린빌 나-101","indutype":"일반휴게음식 - 스넥","category":"restaurant"}]},{"lat":"37.524173389","long":"126.80073992","imageIndex":4,"items":[{"name":"비에이치씨(원종2동점)","tel":"032-683-8592","addr":"경기도 부천시 원종동 206-3번지 1층","indutype":"일반휴게음식 - 스넥","category":"restaurant"},{"name":"페리카나","tel":"032-678-7275","addr":"경기도 부천시 원종동 206-3번지","indutype":"일반휴게음식 - 서양음식","category":"restaurant"},{"name":"하우돈곱창(원종점)","tel":"032-213-1562","addr":"경기도 부천시 원종동 206-3번지 1층","indutype":"일반휴게음식 - 일반한식","category":"restaurant"}]},{"lat":"37.518374574","long":"126.80282558","imageIndex":4,"items":[{"name":"비에이치씨치킨","tel":"032-683-9293","addr":"경기도 부천시 원종동 378번지 1층","indutype":"일반휴게음식 - 스넥","category":"restaurant"},{"name":"엄마밥상","tel":"032-683-5056","addr":"경기도 부천시 원종동 378번지 1층","indutype":"일반휴게음식 - 일반한식","category":"restaurant"}]},{"lat":"37.527701309","long":"126.80371702","imageIndex":4,"items":[{"name":"뼈담","tel":"032-677-6335","addr":"경기도 부천시 원종동 132-3번지 1층 4호","indutype":"일반휴게음식 - 일반한식","category":"restaurant"},{"name":"삼선포차","tel":"032-675-6761","addr":"경기도 부천시 원종동 132-3번지","indutype":"일반휴게음식 - 일반한식","category":"restaurant"},{"name":"싱싱횟집","tel":"070-6233-8800","addr":"경기도 부천시 원종동 132-3번지 1층","indutype":"일반휴게음식 - 일반한식","category":"restaurant"},{"name":"청년피자 원종고강점","tel":"070-4922-1261","addr":"경기도 부천시 원종동 132-3번지","indutype":"일반휴게음식 - 서양음식","category":"restaurant"},{"name":"후라이드 참 잘하는집(원종점)","tel":"032-673-9291","addr":"경기도 부천시 원종동 132-3번지 1층","indutype":"일반휴게음식 - 스넥","category":"restaurant"}]},{"lat":"37.528449303","long":"126.79854496","imageIndex":4,"items":[{"name":"뽀떡","tel":"032-679-8727","addr":"경기도 부천시 원종동 126-12번지 효마을타운 102호","indutype":"일반휴게음식 - 스넥","category":"restaurant"}]},{"lat":"37.522560578","long":"126.80604969","imageIndex":4,"items":[{"name":"사계절식당","tel":"032-684-4209","addr":"경기도 부천시 원종동 283-1번지","indutype":"일반휴게음식 - 일반한식","category":"restaurant"}]},{"lat":"37.526393957","long":"126.80857368","imageIndex":4,"items":[{"name":"사랑방식당","tel":"032-677-2228","addr":"경기도 부천시 원종동 270-8번지 성원빌라","indutype":"일반휴게음식 - 일반한식","category":"restaurant"}]},{"lat":"37.523872149","long":"126.80915715","imageIndex":4,"items":[{"name":"사이공카페 (SAI GON CAFE)","tel":"","addr":"경기도 부천시 원종동 290번지 A1동 7호 먼마루상가","indutype":"일반휴게음식 - 서양음식","category":"restaurant"},{"name":"현텐동","tel":"","addr":"경기도 부천시 원종동 290번지 먼마루상가아파트 1동 1층 105호","indutype":"일반휴게음식 - 일식·회집","category":"restaurant"}]},{"lat":"37.520064512","long":"126.80585263","imageIndex":4,"items":[{"name":"산더미","tel":"032-672-9090","addr":"경기도 부천시 원종동 365-16번지 한울팰리스 1층 101호","indutype":"일반휴게음식 - 일반한식","category":"restaurant"}]},{"lat":"37.517457994","long":"126.80426457","imageIndex":4,"items":[{"name":"살렘각","tel":"032-672-9220","addr":"경기도 부천시 원종동 376-7번지 2층 일부","indutype":"일반휴게음식 - 중국식","category":"restaurant"}]},{"lat":"37.522817423","long":"126.80340195","imageIndex":4,"items":[{"name":"살롱드세이 (salon de sei)","tel":"032-111-1111","addr":"경기도 부천시 원종동 222-7번지 한울팰리스 104호","indutype":"일반휴게음식 - 스넥","category":"restaurant"},{"name":"원기정(원종점)","tel":"032-676-6764","addr":"경기도 부천시 원종동 222-7번지 한울팰리스 1층 103호","indutype":"일반휴게음식 - 일반한식","category":"restaurant"},{"name":"피자샵","tel":"032-672-6698","addr":"경기도 부천시 원종동 222-7번지 한울팰리스 103호","indutype":"일반휴게음식 - 서양음식","category":"restaurant"}]},{"lat":"37.519644771","long":"126.80270907","imageIndex":4,"items":[{"name":"삼태기빈대떡","tel":"032-675-9295","addr":"경기도 부천시 원종동 382번지 1층","indutype":"일반휴게음식 - 일반한식","category":"restaurant"}]},{"lat":"37.529564303","long":"126.79726352","imageIndex":4,"items":[{"name":"서래옥설렁탕","tel":"032-672-5292","addr":"경기도 부천시 원종동 121-3 샤인빌라 206-101,102호","indutype":"일반휴게음식 - 일반한식","category":"restaurant"},{"name":"서래옥설렁탕","tel":"032-672-5292","addr":"경기도 부천시 원종동 121-3번지 샤인빌라 206동 101호,102호","indutype":"일반휴게음식 - 일반한식","category":"restaurant"}]},{"lat":"37.524923809","long":"126.80226509","imageIndex":4,"items":[{"name":"서울식당","tel":"032-684-1738","addr":"경기도 부천시 원종동 209-5번지 1층 28호","indutype":"일반휴게음식 - 일반한식","category":"restaurant"},{"name":"소래포구","tel":"032-672-6662","addr":"경기도 부천시 원종동 209-5번지 1층 26호","indutype":"일반휴게음식 - 일반한식","category":"restaurant"},{"name":"와커치킨","tel":"032-683-3534","addr":"경기도 부천시 원종동 209-5번지 1층 3호","indutype":"일반휴게음식 - 주점","category":"restaurant"},{"name":"은혜족발","tel":"032-681-0100","addr":"경기도 부천시 원종동 209-5번지 원종중앙시장 1층 41호","indutype":"일반휴게음식 - 일반한식","category":"restaurant"},{"name":"중앙가마솥왕족발","tel":"032-684-2999","addr":"경기도 부천시 원종동 209-5번지 중앙시장 102호","indutype":"일반휴게음식 - 일반한식","category":"restaurant"},{"name":"쿠웨이트 떡볶이 (원종점)","tel":"032-673-3393","addr":"경기도 부천시 원종동 209-5번지 1층 52호","indutype":"일반휴게음식 - 일반한식","category":"restaurant"}]},{"lat":"37.519754267","long":"126.80352322","imageIndex":4,"items":[{"name":"석천매운탕","tel":"032-672-5635","addr":"경기도 부천시 원종동 382-4번지 청용 A-103호","indutype":"일반휴게음식 - 일반한식","category":"restaurant"}]},{"lat":"37.529241475","long":"126.80340747","imageIndex":4,"items":[{"name":"세시","tel":"031-983-5413","addr":"경기도 부천시 원종동 160-2번지 마메든빌 가동 102호","indutype":"일반휴게음식 - 일반한식","category":"restaurant"}]},{"lat":"37.526754034","long":"126.80298421","imageIndex":4,"items":[{"name":"셰프의돈까스&김밥","tel":"032-672-8999","addr":"경기도 부천시 원종동 133-7번지 1층 일부호","indutype":"일반휴게음식 - 스넥","category":"restaurant"}]},{"lat":"37.524980967","long":"126.80409757","imageIndex":4,"items":[{"name":"소문난볼테기찜탕","tel":"032-673-0606","addr":"경기도 부천시 원종동 228번지 한울아파트","indutype":"일반휴게음식 - 일반한식","category":"restaurant"}]},{"lat":"37.525147927","long":"126.80695921","imageIndex":4,"items":[{"name":"송가네맛밥","tel":"032-675-2558","addr":"경기도 부천시 원종동 275-5번지","indutype":"일반휴게음식 - 일반한식","category":"restaurant"},{"name":"정희영양탕","tel":"032-677-4265","addr":"경기도 부천시 원종동 275-5번지 1층","indutype":"일반휴게음식 - 일반한식","category":"restaurant"}]},{"lat":"37.52732718","long":"126.80627473","imageIndex":4,"items":[{"name":"송주불냉면","tel":"032-671-7003","addr":"경기도 부천시 원종동 250-7번지 한마을타운 1동 102호","indutype":"일반휴게음식 - 일반한식","category":"restaurant"},{"name":"유로코피자","tel":"032-673-1828","addr":"경기도 부천시 원종동 250-7번지 한마을타운 1동 103호","indutype":"일반휴게음식 - 서양음식","category":"restaurant"}]},{"lat":"37.520063302","long":"126.80512868","imageIndex":4,"items":[{"name":"솥뚜껑 삼겹살","tel":"032-682-0222","addr":"경기도 부천시 원종동 373-11번지 1층","indutype":"일반휴게음식 - 일반한식","category":"restaurant"}]},{"lat":"37.518729844","long":"126.8051322","imageIndex":4,"items":[{"name":"수내닭꼬치","tel":"070-7614-3579","addr":"경기도 부천시 원종동 372-5번지 1층 일부","indutype":"일반휴게음식 - 일반한식","category":"restaurant"}]},{"lat":"37.525373513","long":"126.80180007","imageIndex":4,"items":[{"name":"수제비탕칼국수","tel":"032-675-6110","addr":"경기도 부천시 원종동 208-18번지","indutype":"일반휴게음식 - 일반한식","category":"restaurant"}]},{"lat":"37.526088162","long":"126.80890254","imageIndex":4,"items":[{"name":"수제탕수육명가홍탕","tel":"032-682-5958","addr":"경기도 부천시 원종동 294-10번지","indutype":"일반휴게음식 - 중국식","category":"restaurant"}]},{"lat":"37.527828075","long":"126.80409001","imageIndex":4,"items":[{"name":"숙성삼삼육","tel":"031-677-3360","addr":"경기도 부천시 원종동 230번지 삼성그린빌라 가동 1층 101호","indutype":"일반휴게음식 - 일반한식","category":"restaurant"}]},{"lat":"37.519041111","long":"126.80271068","imageIndex":4,"items":[{"name":"숙이네시골밥상","tel":"032-667-6586","addr":"경기도 부천시 원종동 379번지 천지빌딩 1층 일부","indutype":"일반휴게음식 - 일반한식","category":"restaurant"}]},{"lat":"37.524510623","long":"126.80301282","imageIndex":4,"items":[{"name":"술값내기포차","tel":"","addr":"경기도 부천시 원종동 218-7번지 1층","indutype":"일반휴게음식 - 일반한식","category":"restaurant"}]},{"lat":"37.518180186","long":"126.80509971","imageIndex":4,"items":[{"name":"숲(soop)","tel":"032-682-9990","addr":"경기도 부천시 원종동 371-1번지","indutype":"일반휴게음식 - 일반한식","category":"restaurant"}]},{"lat":"37.525150149","long":"126.8029093","imageIndex":4,"items":[{"name":"스마일명품찹쌀꽈배기","tel":"","addr":"경기도 부천시 원종동 218-3번지 코리아넥트워크센타 1층 일부호","indutype":"일반휴게음식 - 스넥","category":"restaurant"}]},{"lat":"37.527700698","long":"126.80335501","imageIndex":4,"items":[{"name":"스마일찹쌀꽈배기","tel":"032-672-3819","addr":"경기도 부천시 원종동 132-6번지 1층 일부","indutype":"일반휴게음식 - 스넥","category":"restaurant"}]},{"lat":"37.519872367","long":"126.80409981","imageIndex":4,"items":[{"name":"스미돈","tel":"032-212-5484","addr":"경기도 부천시 원종동 374-5번지 1층","indutype":"일반휴게음식 - 스넥","category":"restaurant"},{"name":"오구피자성곡사거리점","tel":"032-673-6277","addr":"경기도 부천시 원종동 374-5번지","indutype":"일반휴게음식 - 서양음식","category":"restaurant"}]},{"lat":"37.52384296","long":"126.80784499","imageIndex":4,"items":[{"name":"스타","tel":"032-674-3988","addr":"경기도 부천시 원종동 313-23번지","indutype":"일반휴게음식 - 주점","category":"restaurant"}]},{"lat":"37.51967109","long":"126.80229046","imageIndex":4,"items":[{"name":"시골집","tel":"032-681-7302","addr":"경기도 부천시 원종동 388-2번지 금성연립 101호","indutype":"일반휴게음식 - 일반한식","category":"restaurant"}]},{"lat":"37.529088861","long":"126.80373596","imageIndex":4,"items":[{"name":"시골홍두깨칼국수","tel":"032-677-4075","addr":"경기도 부천시 원종동 160-5번지","indutype":"일반휴게음식 - 일반한식","category":"restaurant"}]},{"lat":"37.527342641","long":"126.81018896","imageIndex":4,"items":[{"name":"신명동닭갈비","tel":"032-673-8676","addr":"경기도 부천시 원종동 296-21번지","indutype":"일반휴게음식 - 일반한식","category":"restaurant"}]},{"lat":"37.522565052","long":"126.80334606","imageIndex":4,"items":[{"name":"신세계(  세계)","tel":"070-7576-3577","addr":"경기도 부천시 원종동 223번지 1층","indutype":"일반휴게음식 - 일반한식","category":"restaurant"}]},{"lat":"37.523398211","long":"126.8058778","imageIndex":4,"items":[{"name":"싸다!돼지마을","tel":"032-672-5009","addr":"경기도 부천시 원종동 353-1번지 1층","indutype":"일반휴게음식 - 일반한식","category":"restaurant"},{"name":"홍콩반점","tel":"032-673-3232","addr":"경기도 부천시 원종동 353-1번지","indutype":"일반휴게음식 - 중국식","category":"restaurant"}]},{"lat":"37.527371569","long":"126.80587867","imageIndex":4,"items":[{"name":"쌍둥이김밥 (즉석떡볶이)","tel":"02-674-2530","addr":"경기도 부천시 원종동 266-1번지 1층 일부","indutype":"일반휴게음식 - 일반한식","category":"restaurant"},{"name":"와라와라 토스트앤커피","tel":"070-8252-8552","addr":"경기도 부천시 원종동 266-1번지 1층","indutype":"일반휴게음식 - 서양음식","category":"restaurant"}]},{"lat":"37.519673598","long":"126.8037723","imageIndex":4,"items":[{"name":"써니함박","tel":"032-678-1117","addr":"경기도 부천시 원종동 382-5번지 1층","indutype":"일반휴게음식 - 서양음식","category":"restaurant"}]},{"lat":"37.522929095","long":"126.80551704","imageIndex":4,"items":[{"name":"쐬기골화로구이","tel":"032-678-9959","addr":"경기도 부천시 원종동 280-7번지 동호하이빌아파트","indutype":"일반휴게음식 - 서양음식","category":"restaurant"}]},{"lat":"37.529010676","long":"126.81093134","imageIndex":4,"items":[{"name":"씨에스씨(C.S.C)숯불바베큐(원종점)","tel":"032-671-9229","addr":"경기도 부천시 원종동 337-9번지 102호","indutype":"일반휴게음식 - 주점","category":"restaurant"},{"name":"코코앤코","tel":"032-202-0005","addr":"경기도 부천시 원종동 337-9번지 5층 일부","indutype":"일반휴게음식 - 서양음식","category":"restaurant"}]},{"lat":"37.524484778","long":"126.80371426","imageIndex":4,"items":[{"name":"아란치니","tel":"070-7548-9909","addr":"경기도 부천시 원종동 221-7번지 신촌빌라 104호","indutype":"일반휴게음식 - 일반한식","category":"restaurant"}]},{"lat":"37.518845796","long":"126.80443057","imageIndex":4,"items":[{"name":"아리랑수제핫도그 부천원종점","tel":"032-671-0386","addr":"경기도 부천시 원종동 375-6번지 1층","indutype":"일반휴게음식 - 스넥","category":"restaurant"}]},{"lat":"37.523944855","long":"126.79882874","imageIndex":4,"items":[{"name":"압구정본가불닭발","tel":"032-679-8288","addr":"경기도 부천시 원종동 151번지 킹덤하우스 A동 102호","indutype":"일반휴게음식 - 일반한식","category":"restaurant"}]},{"lat":"37.517873852","long":"126.80510052","imageIndex":4,"items":[{"name":"애니데이","tel":"032-681-6729","addr":"경기도 부천시 원종동 371-2번지 성진프라자 1층 106호","indutype":"일반휴게음식 - 서양음식","category":"restaurant"}]},{"lat":"37.525756384","long":"126.80443489","imageIndex":4,"items":[{"name":"애프터커피","tel":"031-648-7670","addr":"경기도 부천시 원종동 229-7번지 1층 101호","indutype":"일반휴게음식 - 서양음식","category":"restaurant"}]},{"lat":"37.527118216","long":"126.8052345","imageIndex":4,"items":[{"name":"어머니밥상","tel":"032-683-3790","addr":"경기도 부천시 원종동 231-9번지 1층","indutype":"일반휴게음식 - 일반한식","category":"restaurant"}]},{"lat":"37.522531961","long":"126.80509954","imageIndex":4,"items":[{"name":"어사출또(원종점)","tel":"032-213-9908","addr":"경기도 부천시 원종동 281번지 성연빌딩 1층","indutype":"일반휴게음식 - 일반한식","category":"restaurant"},{"name":"왕냉면돈까스김밥","tel":"032-675-3864","addr":"경기도 부천시 원종동 281번지 성연빌딩","indutype":"일반휴게음식 - 스넥","category":"restaurant"}]},{"lat":"37.527900402","long":"126.80423689","imageIndex":4,"items":[{"name":"어화생선구이산꼼장어","tel":"070-7392-9292","addr":"경기도 부천시 원종동 230-18번지 삼성그린빌라 다동 1층 102호","indutype":"일반휴게음식 - 일반한식","category":"restaurant"}]},{"lat":"37.526927016","long":"126.80404715","imageIndex":4,"items":[{"name":"엄지보양촌","tel":"032-673-6550","addr":"경기도 부천시 원종동 230-7번지","indutype":"일반휴게음식 - 일반한식","category":"restaurant"}]},{"lat":"37.525506806","long":"126.8007137","imageIndex":4,"items":[{"name":"여기가좋겠네식당","tel":"032-682-0326","addr":"경기도 부천시 원종동 140-9번지 대상하이츠","indutype":"일반휴게음식 - 칵테일바","category":"restaurant"}]},{"lat":"37.524623002","long":"126.80554652","imageIndex":4,"items":[{"name":"역전퓨전포차","tel":"070-7377-7741","addr":"경기도 부천시 원종동 277-4번지 1층","indutype":"일반휴게음식 - 일반한식","category":"restaurant"}]},{"lat":"37.528928928","long":"126.80507134","imageIndex":4,"items":[{"name":"역전할머니맥주(원종점)","tel":"031-1111-1111","addr":"경기도 부천시 원종동 262-2번지 유림빌딩 1층 103호","indutype":"일반휴게음식 - 주점","category":"restaurant"}]},{"lat":"37.528567643","long":"126.80454058","imageIndex":4,"items":[{"name":"연장전","tel":"032-261-0076","addr":"경기도 부천시 원종동 155-1번지 1층","indutype":"일반휴게음식 - 일반한식","category":"restaurant"},{"name":"임창정의모서리족발부천원종점","tel":"032-673-3309","addr":"경기도 부천시 원종동 155-1번지 1층 일부","indutype":"일반휴게음식 - 일반한식","category":"restaurant"},{"name":"황소돌곱창","tel":"032-678-2276","addr":"경기도 부천시 원종동 155-1번지 1층","indutype":"일반휴게음식 - 일반한식","category":"restaurant"}]},{"lat":"37.526421187","long":"126.80329054","imageIndex":4,"items":[{"name":"영자네김밥집","tel":"032-677-3717","addr":"경기도 부천시 원종동 134-9번지 1층 일부 105호","indutype":"일반휴게음식 - 스넥","category":"restaurant"}]},{"lat":"37.525813798","long":"126.8010975","imageIndex":4,"items":[{"name":"옛날통닭","tel":"","addr":"경기도 부천시 원종동 138-23번지 1층","indutype":"일반휴게음식 - 주점","category":"restaurant"}]},{"lat":"37.526838477","long":"126.81042783","imageIndex":4,"items":[{"name":"옛날포차","tel":"070-7377-4084","addr":"경기도 부천시 원종동 339-15번지","indutype":"일반휴게음식 - 주점","category":"restaurant"},{"name":"원종일번지","tel":"032-683-3379","addr":"경기도 부천시 원종동 339-15번지 101호","indutype":"일반휴게음식 - 일반한식","category":"restaurant"}]},{"lat":"37.519678541","long":"126.80137419","imageIndex":4,"items":[{"name":"옛집생선구이","tel":"032-677-0141","addr":"경기도 부천시 원종동 388번지","indutype":"일반휴게음식 - 일반한식","category":"restaurant"},{"name":"청자골","tel":"032-671-6553","addr":"경기도 부천시 원종동 388번지","indutype":"일반휴게음식 - 일반한식","category":"restaurant"}]},{"lat":"37.519592032","long":"126.80348972","imageIndex":4,"items":[{"name":"오뎅사께","tel":"032-674-7950","addr":"경기도 부천시 원종동 382-3번지 청룡연립 B동 105호","indutype":"일반휴게음식 - 칵테일바","category":"restaurant"}]},{"lat":"37.519979933","long":"126.80377148","imageIndex":4,"items":[{"name":"오빠갈비찜","tel":"032-671-7736","addr":"경기도 부천시 원종동 383-11번지","indutype":"일반휴게음식 - 일반한식","category":"restaurant"}]},{"lat":"37.528033245","long":"126.80826397","imageIndex":4,"items":[{"name":"오오카미","tel":"032-111-1111","addr":"경기도 부천시 원종동 238-1번지","indutype":"일반휴게음식 - 일반한식","category":"restaurant"}]},{"lat":"37.525782767","long":"126.80405019","imageIndex":4,"items":[{"name":"왕주먹고기","tel":"032-683-2152","addr":"경기도 부천시 원종동 229-17번지 1층","indutype":"일반휴게음식 - 일반한식","category":"restaurant"}]},{"lat":"37.524179148","long":"126.80413363","imageIndex":4,"items":[{"name":"외인구단","tel":"032-675-8123","addr":"경기도 부천시 원종동 228-4번지","indutype":"일반휴게음식 - 칵테일바","category":"restaurant"},{"name":"이디야 부천원종점","tel":"","addr":"경기도 부천시 원종동 228-4번지","indutype":"일반휴게음식 - 서양음식","category":"restaurant"},{"name":"청년꼬치","tel":"032-213-9813","addr":"경기도 부천시 원종동 228-4번지 2층","indutype":"일반휴게음식 - 일반한식","category":"restaurant"}]},{"lat":"37.527036712","long":"126.81043863","imageIndex":4,"items":[{"name":"우라빠진짜닭강정","tel":"032-678-0108","addr":"경기도 부천시 원종동 339-27번지","indutype":"일반휴게음식 - 일반한식","category":"restaurant"}]},{"lat":"37.524174075","long":"126.80648663","imageIndex":4,"items":[{"name":"우리가족닭한마리","tel":"032-243-2004","addr":"경기도 부천시 원종동 276-4번지 용주그린힐타운 1층 103호","indutype":"일반휴게음식 - 일반한식","category":"restaurant"}]},{"lat":"37.525922631","long":"126.80151578","imageIndex":4,"items":[{"name":"우생가","tel":"032-675-2124","addr":"경기도 부천시 원종동 138-30번지 상가 103호","indutype":"일반휴게음식 - 일반한식","category":"restaurant"},{"name":"이춘봉인생치킨원종점","tel":"032-679-9991","addr":"경기도 부천시 원종동 138-30번지 상가동 1층 101호","indutype":"일반휴게음식 - 스넥","category":"restaurant"},{"name":"쪼계찜닭","tel":"031-111-1111","addr":"경기도 부천시 원종동 138-30번지 105호","indutype":"일반휴게음식 - 일반한식","category":"restaurant"}]},{"lat":"37.525702593","long":"126.79929909","imageIndex":4,"items":[{"name":"원더풀숟가락스시락 (원종점)","tel":"032-655-0444","addr":"경기도 부천시 원종동 139-10번지 신성베스티아 101호","indutype":"일반휴게음식 - 일식·회집","category":"restaurant"}]},{"lat":"37.519151484","long":"126.80404516","imageIndex":4,"items":[{"name":"원모어프로포즈","tel":"032-111-1111","addr":"경기도 부천시 원종동 375-16번지 1층","indutype":"일반휴게음식 - 서양음식","category":"restaurant"}]},{"lat":"37.525061446","long":"126.80373535","imageIndex":4,"items":[{"name":"원사즉석우동짜장","tel":"032-684-0085","addr":"경기도 부천시 원종동 221-18번지","indutype":"일반휴게음식 - 일반한식","category":"restaurant"}]},{"lat":"37.527198983","long":"126.80504197","imageIndex":4,"items":[{"name":"원종참숯불갈비","tel":"032-676-7508","addr":"경기도 부천시 원종동 231-12번지","indutype":"일반휴게음식 - 일반한식","category":"restaurant"}]},{"lat":"37.527537983","long":"126.80843495","imageIndex":4,"items":[{"name":"원짬뽕","tel":"032-677-9919","addr":"경기도 부천시 원종동 237-13번지 동일빌딩 102호","indutype":"일반휴게음식 - 중국식","category":"restaurant"}]},{"lat":"37.528144239","long":"126.8100172","imageIndex":4,"items":[{"name":"유명한지짐이","tel":"032-675-4221","addr":"경기도 부천시 원종동 300-3번지 삼오주택 1층 105호","indutype":"일반휴게음식 - 일반한식","category":"restaurant"}]},{"lat":"37.5241232908","long":"126.8084664404","imageIndex":4,"items":[{"name":"유하경양식","tel":"032-681-8173","addr":"경기도 부천시 원종동 271-7,8번지","indutype":"일반휴게음식 - 칵테일바","category":"restaurant"}]},{"lat":"37.526731224","long":"126.81095981","imageIndex":4,"items":[{"name":"육봉달 (원종점)","tel":"070-7848-5653","addr":"경기도 부천시 원종동 339-21번지 밝은빌딩 1층","indutype":"일반휴게음식 - 일반한식","category":"restaurant"}]},{"lat":"37.519922292","long":"126.80701812","imageIndex":4,"items":[{"name":"육선포차","tel":"032-678-2656","addr":"경기도 부천시 원종동 365-9번지 1층","indutype":"일반휴게음식 - 주점","category":"restaurant"}]},{"lat":"37.525344808","long":"126.8061555","imageIndex":4,"items":[{"name":"은혜식당","tel":"032-672-1541","addr":"경기도 부천시 원종동 236-23번지 1층 일부","indutype":"일반휴게음식 - 일반한식","category":"restaurant"}]},{"lat":"37.524532298","long":"126.80518476","imageIndex":4,"items":[{"name":"의정부부대찌게","tel":"032-676-0808","addr":"경기도 부천시 원종동 277-15번지","indutype":"일반휴게음식 - 일반한식","category":"restaurant"}]},{"lat":"37.524144128","long":"126.81018588","imageIndex":4,"items":[{"name":"이모네식당","tel":"032-671-9967","addr":"경기도 부천시 원종동 292-16번지 1층","indutype":"일반휴게음식 - 일반한식","category":"restaurant"},{"name":"이야기호프","tel":"032-677-5659","addr":"경기도 부천시 원종동 292-16번지","indutype":"일반휴게음식 - 칵테일바","category":"restaurant"}]},{"lat":"37.524706501","long":"126.8069943","imageIndex":4,"items":[{"name":"인심좋은 양씨네","tel":"032-671-9227","addr":"경기도 부천시 원종동 275-9번지 1층 일부호","indutype":"일반휴게음식 - 일반한식","category":"restaurant"}]},{"lat":"37.526900633","long":"126.80443186","imageIndex":4,"items":[{"name":"장군보쌈","tel":"032-678-8555","addr":"경기도 부천시 원종동 230-4번지","indutype":"일반휴게음식 - 일반한식","category":"restaurant"},{"name":"죽이야기(원종점)","tel":"032-678-4691","addr":"경기도 부천시 원종동 230-4번지 1층 1호","indutype":"일반휴게음식 - 일반한식","category":"restaurant"}]},{"lat":"37.523868812","long":"126.80177017","imageIndex":4,"items":[{"name":"장모족발","tel":"032-683-0385","addr":"경기도 부천시 원종동 212-28번지 1층 일부","indutype":"일반휴게음식 - 일반한식","category":"restaurant"}]},{"lat":"37.526979596","long":"126.80857216","imageIndex":4,"items":[{"name":"저팔계콧구몽","tel":"032-677-5892","addr":"경기도 부천시 원종동 237-11번지","indutype":"일반휴게음식 - 일반한식","category":"restaurant"}]},{"lat":"37.522235349","long":"126.81099395","imageIndex":4,"items":[{"name":"정성이가득찬집밥","tel":"","addr":"경기도 부천시 원종동 345-10번지 미소더테라스 1층 102호,103호","indutype":"일반휴게음식 - 일반한식","category":"restaurant"}]},{"lat":"37.525147399","long":"126.80129161","imageIndex":4,"items":[{"name":"제주연탄구이","tel":"032-677-9028","addr":"경기도 부천시 원종동 209-11번지 1층","indutype":"일반휴게음식 - 일반한식","category":"restaurant"}]},{"lat":"37.526700254","long":"126.80855026","imageIndex":4,"items":[{"name":"젠틀맨","tel":"032-678-2091","addr":"경기도 부천시 원종동 235-15번지 1층","indutype":"일반휴게음식 - 주점","category":"restaurant"}]},{"lat":"37.525594245","long":"126.80445795","imageIndex":4,"items":[{"name":"조마루감자탕","tel":"032-675-7394","addr":"경기도 부천시 원종동 229-8번지 뉴월드프라자 105호","indutype":"일반휴게음식 - 일반한식","category":"restaurant"}]},{"lat":"37.524733852","long":"126.80182441","imageIndex":4,"items":[{"name":"진주식당","tel":"032-672-1636","addr":"경기도 부천시 원종동 209-8번지 성심빌딩 1층","indutype":"일반휴게음식 - 일반한식","category":"restaurant"}]},{"lat":"37.524803746","long":"126.80587411","imageIndex":4,"items":[{"name":"쫄병식당","tel":"032-673-2587","addr":"경기도 부천시 원종동 275-28보강쉐르빌 B-101호","indutype":"일반휴게음식 - 일반한식","category":"restaurant"}]},{"lat":"37.521593856","long":"126.80445723","imageIndex":4,"items":[{"name":"착한쭝식(부천원종점)","tel":"032-671-8689","addr":"경기도 부천시 원종동 224-5번지 1층","indutype":"일반휴게음식 - 중국식","category":"restaurant"}]},{"lat":"37.526593994","long":"126.80425167","imageIndex":4,"items":[{"name":"착한초밥","tel":"032-678-5332","addr":"경기도 부천시 원종동 229-21번지 성진그린타운 3동 101호","indutype":"일반휴게음식 - 일식·회집","category":"restaurant"}]},{"lat":"37.529675586","long":"126.80437926","imageIndex":4,"items":[{"name":"천지연랜드식당","tel":"032-673-3578","addr":"경기도 부천시 원종동 163번지 천지연랜드 3층","indutype":"일반휴게음식 - 일반한식","category":"restaurant"}]},{"lat":"37.523757829","long":"126.81087692","imageIndex":4,"items":[{"name":"청담","tel":"032-671-0330","addr":"경기도 부천시 원종동 344-1번지","indutype":"일반휴게음식 - 일반한식","category":"restaurant"}]},{"lat":"37.519090238","long":"126.80513125","imageIndex":4,"items":[{"name":"청진동해장국","tel":"032-682-7169","addr":"경기도 부천시 원종동 372-6번지","indutype":"일반휴게음식 - 일반한식","category":"restaurant"}]},{"lat":"37.524956586","long":"126.80035318","imageIndex":4,"items":[{"name":"청하반점","tel":"032-679-7979","addr":"경기도 부천시 원종동 207","indutype":"일반휴게음식 - 중국식","category":"restaurant"}]},{"lat":"37.524173057","long":"126.80587576","imageIndex":4,"items":[{"name":"치킨매니아","tel":"032-684-1411","addr":"경기도 부천시 원종동 276-7번지 털보빌딩","indutype":"일반휴게음식 - 스넥","category":"restaurant"},{"name":"털보김수환낙지아구전문점","tel":"032-676-5756","addr":"경기도 부천시 원종동 276-7번지 털보빌딩 1층","indutype":"일반휴게음식 - 일반한식","category":"restaurant"}]},{"lat":"37.523171755","long":"126.80515441","imageIndex":4,"items":[{"name":"카스타운원종점","tel":"032-672-9236","addr":"경기도 부천시 원종동 280-12번지","indutype":"일반휴게음식 - 일반한식","category":"restaurant"}]},{"lat":"37.529145259","long":"126.80512733","imageIndex":4,"items":[{"name":"카페 보니또 원종점","tel":"032-684-7600","addr":"경기도 부천시 원종동 262-1번지 1층","indutype":"일반휴게음식 - 서양음식","category":"restaurant"},{"name":"홍정훠궈","tel":"032-675-8181","addr":"경기도 부천시 원종동 262-1번지 주건축물제 1동 2층","indutype":"일반휴게음식 - 일반한식","category":"restaurant"}]},{"lat":"37.527649547","long":"126.81053887","imageIndex":4,"items":[{"name":"카페,그믐","tel":"","addr":"경기도 부천시 원종동 339-18번지 B동 1층 1호","indutype":"일반휴게음식 - 서양음식","category":"restaurant"}]},{"lat":"37.518563551","long":"126.80268933","imageIndex":4,"items":[{"name":"카페슬로우","tel":"031-1111-1111","addr":"경기도 부천시 원종동 379-12번지 J팰리스빌 101호 일부","indutype":"일반휴게음식 - 서양음식","category":"restaurant"}]},{"lat":"37.526206172","long":"126.80401513","imageIndex":4,"items":[{"name":"카페올리브","tel":"032-675-2290","addr":"경기도 부천시 원종동 229-12번지 썬트리하우스 101호","indutype":"일반휴게음식 - 서양음식","category":"restaurant"}]},{"lat":"37.519615957","long":"126.80701892","imageIndex":4,"items":[{"name":"캡틴떡볶킹","tel":"032-679-5009","addr":"경기도 부천시 원종동 366-2번지","indutype":"일반휴게음식 - 스넥","category":"restaurant"}]},{"lat":"37.528475787","long":"126.80890767","imageIndex":4,"items":[{"name":"커피공방","tel":"032-675-5611","addr":"경기도 부천시 원종동 299번지 대성원종타운 A동 101호","indutype":"일반휴게음식 - 서양음식","category":"restaurant"}]},{"lat":"37.527534481","long":"126.80631944","imageIndex":4,"items":[{"name":"커피보니/(주)에이엠코퍼레이션","tel":"02-6961-5025","addr":"경기도 부천시 원종동 265-3번지 1층","indutype":"일반휴게음식 - 서양음식","category":"restaurant"}]},{"lat":"37.523920215","long":"126.80553706","imageIndex":4,"items":[{"name":"커피에반하다(부천원종점)","tel":"032-682-4744","addr":"경기도 부천시 원종동 280-1번지 한성연립 가동 1층 103호","indutype":"일반휴게음식 - 서양음식","category":"restaurant"}]},{"lat":"37.518534775","long":"126.80702175","imageIndex":4,"items":[{"name":"커피집","tel":"032-000-0000","addr":"경기도 부천시 원종동 366-5번지 1층","indutype":"일반휴게음식 - 서양음식","category":"restaurant"}]},{"lat":"37.527845415","long":"126.80910162","imageIndex":4,"items":[{"name":"커피향기","tel":"032-2673-4593","addr":"경기도 부천시 원종동 298번지 1동 102호","indutype":"일반휴게음식 - 서양음식","category":"restaurant"}]},{"lat":"37.523872757","long":"126.80410051","imageIndex":4,"items":[{"name":"컴포즈커피 부천원동동점","tel":"031-000-0000","addr":"경기도 부천시 원종동 227번지","indutype":"일반휴게음식 - 서양음식","category":"restaurant"}]},{"lat":"37.528421133","long":"126.80854579","imageIndex":4,"items":[{"name":"쿠라","tel":"070-4355-0247","addr":"경기도 부천시 원종동 238-3번지 세원렉스빌 102호","indutype":"일반휴게음식 - 주점","category":"restaurant"}]},{"lat":"37.526704274","long":"126.80554104","imageIndex":4,"items":[{"name":"태능숯불갈비","tel":"032-681-1999","addr":"경기도 부천시 원종동 232-8번지 1층 전체","indutype":"일반휴게음식 - 일반한식","category":"restaurant"}]},{"lat":"37.524176006","long":"126.80765181","imageIndex":4,"items":[{"name":"토닥토닥","tel":"032-677-2866","addr":"경기도 부천시 원종동 272-10번지 한울아파트 107호","indutype":"일반휴게음식 - 주점","category":"restaurant"}]},{"lat":"37.524340468","long":"126.80362415","imageIndex":4,"items":[{"name":"토담불닭발","tel":"032-679-8877","addr":"경기도 부천시 원종동 221-12번지 지하1층","indutype":"일반휴게음식 - 일반한식","category":"restaurant"}]},{"lat":"37.52256398","long":"126.80271258","imageIndex":4,"items":[{"name":"토박이감자탕","tel":"032-681-5522","addr":"경기도 부천시 원종동 216번지 일흥빌딩","indutype":"일반휴게음식 - 일반한식","category":"restaurant"}]},{"lat":"37.529423216","long":"126.80432336","imageIndex":4,"items":[{"name":"통통숯불갈비","tel":"032-682-0052","addr":"경기도 부천시 원종동 162-1번지 썬타운 1층 102호","indutype":"일반휴게음식 - 일반한식","category":"restaurant"},{"name":"해를품은짬뽕","tel":"032-671-5813","addr":"경기도 부천시 원종동 162-1번지 썬타운 101호","indutype":"일반휴게음식 - 중국식","category":"restaurant"}]},{"lat":"37.525482209","long":"126.80751265","imageIndex":4,"items":[{"name":"푸드 배달","tel":"032-676-3277","addr":"경기도 부천시 원종동 269-2번지 태양아파트","indutype":"일반휴게음식 - 일반한식","category":"restaurant"}]},{"lat":"37.517456774","long":"126.80354065","imageIndex":4,"items":[{"name":"풍년어탕국수","tel":"032-677-3378","addr":"경기도 부천시 원종동 377-6번지 1층","indutype":"일반휴게음식 - 일반한식","category":"restaurant"}]},{"lat":"37.523873382","long":"126.79917962","imageIndex":4,"items":[{"name":"퓨전포차나야나","tel":"032-673-7033","addr":"경기도 부천시 원종동 151-1번지 1층","indutype":"일반휴게음식 - 주점","category":"restaurant"}]},{"lat":"37.526811655","long":"126.80509955","imageIndex":4,"items":[{"name":"프롬비(from:B)","tel":"032-677-2673","addr":"경기도 부천시 원종동 232번지 1층","indutype":"일반휴게음식 - 서양음식","category":"restaurant"}]},{"lat":"37.526259404","long":"126.80893603","imageIndex":4,"items":[{"name":"피자와치킨의러브레터","tel":"032-678-9253","addr":"경기도 부천시 원종동 294-11번지","indutype":"일반휴게음식 - 스넥","category":"restaurant"}]},{"lat":"37.522869758","long":"126.80238371","imageIndex":4,"items":[{"name":"피자탑 원종점","tel":"032-676-7589","addr":"경기도 부천시 원종동 213-3번지 신진타워맨션 1층 101호","indutype":"일반휴게음식 - 서양음식","category":"restaurant"}]},{"lat":"37.523897989","long":"126.80843309","imageIndex":4,"items":[{"name":"핑크블라썸","tel":"","addr":"경기도 부천시 원종동 319-3번지 1층 일부호","indutype":"일반휴게음식 - 서양음식","category":"restaurant"}]},{"lat":"37.522565758","long":"126.80376461","imageIndex":4,"items":[{"name":"하루엔소쿠(부천원종점)","tel":"032-679-7707","addr":"경기도 부천시 원종동 223-6번지 1층","indutype":"일반휴게음식 - 일반한식","category":"restaurant"},{"name":"한우곱창1번지","tel":"032-673-8378","addr":"경기도 부천시 원종동 223-6번지 1층","indutype":"일반휴게음식 - 일반한식","category":"restaurant"},{"name":"행복한밥상","tel":"032-679-0552","addr":"경기도 부천시 원종동 223-6번지","indutype":"일반휴게음식 - 일반한식","category":"restaurant"}]},{"lat":"37.517451278","long":"126.80563327","imageIndex":4,"items":[{"name":"한결남원추어탕","tel":"032-674-9096","addr":"경기도 부천시 원종동 371-12번지 1층","indutype":"일반휴게음식 - 일반한식","category":"restaurant"}]},{"lat":"37.530202013","long":"126.80668578","imageIndex":4,"items":[{"name":"한국관","tel":"032-675-0395","addr":"경기도 부천시 원종동 178-38번지","indutype":"일반휴게음식 - 중국식","category":"restaurant"}]},{"lat":"37.523838483","long":"126.80515265","imageIndex":4,"items":[{"name":"한스델리부천원종점","tel":"032-678-9700","addr":"경기도 부천시 원종동 280번지 2층","indutype":"일반휴게음식 - 서양음식","category":"restaurant"}]},{"lat":"37.523812626","long":"126.80585409","imageIndex":4,"items":[{"name":"한우한돈구이전문점","tel":"032-674-5789","addr":"경기도 부천시 원종동 297-3번지 1층","indutype":"일반휴게음식 - 일반한식","category":"restaurant"}]},{"lat":"37.528700531","long":"126.80860163","imageIndex":4,"items":[{"name":"해적단","tel":"053-357-7800","addr":"경기도 부천시 원종동 204-1번지 1,2,층","indutype":"일반휴게음식 - 일반한식","category":"restaurant"}]},{"lat":"37.520091031","long":"126.80554714","imageIndex":4,"items":[{"name":"행복한맛집","tel":"032-678-8693","addr":"경기도 부천시 원종동 373-8번지 1층","indutype":"일반휴게음식 - 일반한식","category":"restaurant"}]},{"lat":"37.525366059","long":"126.80271641","imageIndex":4,"items":[{"name":"향운설렁탕&냉면(원종2호점)","tel":"032-671-3573","addr":"경기도 부천시 원종동 219-14번지","indutype":"일반휴게음식 - 일반한식","category":"restaurant"}]},{"lat":"37.520088051","long":"126.8037712","imageIndex":4,"items":[{"name":"향육식당","tel":"032-677-3207","addr":"경기도 부천시 원종동 383-19번지 금강팰리스","indutype":"일반휴게음식 - 일반한식","category":"restaurant"}]},{"lat":"37.525343912","long":"126.80029557","imageIndex":4,"items":[{"name":"홍천옷닭삼계탕","tel":"032-671-3444","addr":"경기도 부천시 원종동 140-5번지","indutype":"일반휴게음식 - 일반한식","category":"restaurant"}]},{"lat":"37.520235189","long":"126.80554676","imageIndex":4,"items":[{"name":"홍초롱양꼬치","tel":"032-000-0000","addr":"경기도 부천시 원종동 373-4번지 1층 일부","indutype":"일반휴게음식 - 일반한식","category":"restaurant"}]},{"lat":"37.528283219","long":"126.80687182","imageIndex":4,"items":[{"name":"화기애애","tel":"032-671-3593","addr":"경기도 부천시 원종동 253-10번지 대하그린타운 5동 102호","indutype":"일반휴게음식 - 주점","category":"restaurant"}]},{"lat":"37.5253995","long":"126.80118912","imageIndex":4,"items":[{"name":"화선명품쟁반짜장.짬뽕","tel":"032-675-6888","addr":"경기도 부천시 원종동 208-22번지 선진그린빌 나동 101호","indutype":"일반휴게음식 - 중국식","category":"restaurant"}]},{"lat":"37.520012934","long":"126.80734593","imageIndex":4,"items":[{"name":"황금복돼지","tel":"032-676-7664","addr":"경기도 부천시 원종동 362-13번지 부원리츠빌 1동 1층 101호","indutype":"일반휴게음식 - 일반한식","category":"restaurant"}]},{"lat":"37.525116362","long":"126.80424427","imageIndex":4,"items":[{"name":"황소곱창구이","tel":"032-681-3134","addr":"경기도 부천시 원종동 228-1번지","indutype":"일반휴게음식 - 일반한식","category":"restaurant"}]}]