[{"lat":"37.007553813","long":"127.26782459","imageIndex":17,"items":[{"name":"(주)바이더웨이-안성하평플리스점","tel":"031-671-0582","addr":"경기도 안성시 석정동 22-1번지 하평플리스 107호","indutype":"유통업 영리 - 편 의 점","category":"other"},{"name":"사모당","tel":"031-673-4704","addr":"경기도 안성시 석정동 22-1번지","indutype":"신변잡화 - 시계","category":"other"},{"name":"세븐일레븐안성하평플리스점","tel":"031-1577-0711","addr":"경기도 안성시 석정동 22-1번지 하평플리스 107호","indutype":"유통업 영리 - 편 의 점","category":"other"},{"name":"아모레카운셀러","tel":"031-676-1998","addr":"경기도 안성시 석정동 22-1번지 하평플리스 503호","indutype":"의류 - 정장","category":"other"},{"name":"엘레강스스포츠","tel":"031-675-4679","addr":"경기도 안성시 석정동 22-1번지 1층 108하평플리스","indutype":"레져용품 - 스포츠·레져용품","category":"other"}]},{"lat":"37.012524647","long":"127.2568529","imageIndex":17,"items":[{"name":"(주)삼원스틸","tel":"031-677-3586","addr":"경기도 안성시 석정동 146-1","indutype":"기타 - 기타 전문점","category":"other"}]},{"lat":"37.010775632","long":"127.26146503","imageIndex":17,"items":[{"name":"(주)청담코디센 안성점","tel":"","addr":"경기도 안성시 석정동 247-5번지","indutype":"직물 - 침구·수예점","category":"other"},{"name":"이브자리 한경대점","tel":"031-677-7141","addr":"경기도 안성시 석정동 247-5번지","indutype":"직물 - 침구·수예점","category":"other"},{"name":"이브자리코디센 안성점","tel":"031-677-7141","addr":"경기도 안성시 석정동 247-5번지","indutype":"직물 - 침구·수예점","category":"other"},{"name":"코아본점","tel":"031-673-1300","addr":"경기도 안성시 석정동 247-5번지","indutype":"서적문구 - 문구용품","category":"other"}]},{"lat":"37.008077129","long":"127.26751181","imageIndex":17,"items":[{"name":"(주)해정관광","tel":"031-675-7550","addr":"경기도 안성시 석정동 13-5","indutype":"여행 - 관광여행","category":"other"}]},{"lat":"37.01210951","long":"127.25715489","imageIndex":17,"items":[{"name":"CGV 안성","tel":"02-1544-1122","addr":"경기도 안성시 석정동 139-1번지","indutype":"문화.취미 - 영화관","category":"other"}]},{"lat":"37.007995157","long":"127.26790477","imageIndex":17,"items":[{"name":"GOPHOTO","tel":"031-677-3516","addr":"경기도 안성시 석정동 5-3번지","indutype":"광학제품 - 사진관","category":"other"}]},{"lat":"37.008744295","long":"127.26326707","imageIndex":17,"items":[{"name":"GS25안성내혜홀점","tel":"080-555-2525","addr":"경기도 안성시 석정동 266-29번지","indutype":"유통업 영리 - 편 의 점","category":"other"}]},{"lat":"37.007717056","long":"127.26735327","imageIndex":17,"items":[{"name":"GS25안성타워점","tel":"02-2006-2118","addr":"경기도 안성시 석정동 24-1번지 크리스탈빌딩 101호","indutype":"유통업 영리 - 편 의 점","category":"other"},{"name":"사진마을","tel":"031-674-4651","addr":"경기도 안성시 석정동 24-1번지 크리스탈빌딩 1001호","indutype":"광학제품 - 사진관","category":"other"}]},{"lat":"37.012023014","long":"127.26379512","imageIndex":17,"items":[{"name":"GS25한경대기숙사점","tel":"","addr":"경기도 안성시 석정동 63-1번지 BTL기숙사내 매점 1층","indutype":"유통업 영리 - 편 의 점","category":"other"},{"name":"레디언티","tel":"","addr":"경기도 안성시 석정동 63-1번지 한경대학교 산학협력관동 5층 506-2호","indutype":"문화.취미 - 애완동물","category":"other"},{"name":"씨유한경대점","tel":"080-080-3663","addr":"경기도 안성시 석정동 63-1번지 한경대학교학생휴게공간 1층","indutype":"유통업 영리 - 편 의 점","category":"other"},{"name":"인 커뮤니케이션","tel":"","addr":"경기도 안성시 석정동 63-1번지 한경대학교 506-1호 산업협력관","indutype":"신변잡화 - 기타잡화","category":"other"},{"name":"주식회사클론","tel":"031-670-5104","addr":"경기도 안성시 석정동 67 한경대학교아이동320호","indutype":"용역 서비스 - 사무서비스","category":"other"},{"name":"투린","tel":"031-111-1111","addr":"경기도 안성시 석정동 63-1번지 한경대학교 산학협력관 1층","indutype":"서적문구 - 과학기자재","category":"other"},{"name":"한경대학교","tel":"031-670-5532","addr":"경기도 안성시 석정동 63-1번지 한경대학교","indutype":"서적문구 - 과학기자재","category":"other"}]},{"lat":"37.008250306","long":"127.2666248","imageIndex":17,"items":[{"name":"JDX 안성점","tel":"031-675-1951","addr":"경기도 안성시 석정동 16번지","indutype":"레져용품 - 스포츠·레져용품","category":"other"}]},{"lat":"37.009605405","long":"127.26093298","imageIndex":17,"items":[{"name":"M.J(마중)","tel":"031-111-1111","addr":"경기도 안성시 석정동 255-4번지 강스빌 1층 101호","indutype":"의류 - 정장","category":"other"}]},{"lat":"37.007999431","long":"127.26598352","imageIndex":17,"items":[{"name":"S2정보통신","tel":"031-675-1019","addr":"경기도 안성시 석정동 33-5번지 정림빌딩 1층","indutype":"사무통신 - 통신기기","category":"other"},{"name":"안성상사","tel":"031-675-3544","addr":"경기도 안성시 석정동 33-5번지 정림빌딩","indutype":"직물 - 옷감·직물","category":"other"},{"name":"처음스튜디오","tel":"031-672-6770","addr":"경기도 안성시 석정동 33-5번지 정림빌딩4층","indutype":"광학제품 - 사진관","category":"other"}]},{"lat":"37.008414042","long":"127.26592877","imageIndex":17,"items":[{"name":"YS코퍼레이션","tel":"070-8052-0007","addr":"경기도 안성시 석정동 21-1번지 원형빌딩","indutype":"사무통신 - 통신기기","category":"other"}]},{"lat":"37.007274485","long":"127.26782362","imageIndex":17,"items":[{"name":"가방나라","tel":"031-674-9955","addr":"경기도 안성시 석정동 26-8번지","indutype":"신변잡화 - 가방","category":"other"}]},{"lat":"37.008277962","long":"127.26634401","imageIndex":17,"items":[{"name":"가자주류.크레빅","tel":"031-675-1951","addr":"경기도 안성시 석정동 17-1번지","indutype":"의류 - 정장","category":"other"}]},{"lat":"37.008554014","long":"127.26781682","imageIndex":17,"items":[{"name":"갈샘갤러리","tel":"031-8052-4775","addr":"경기도 안성시 석정동 7번지 2층","indutype":"문화.취미 - 화랑","category":"other"}]},{"lat":"37.008053918","long":"127.2657927","imageIndex":17,"items":[{"name":"감성텔레콤","tel":"031-674-4458","addr":"경기도 안성시 석정동 33-7번지 101호","indutype":"사무통신 - 통신기기","category":"other"},{"name":"우경한복연구실","tel":"031-677-4930","addr":"경기도 안성시 석정동 33-7번지","indutype":"의류 - 맞춤복점","category":"other"},{"name":"주식회사주광(피자헛안성점)","tel":"031-671-6300","addr":"경기도 안성시 석정동 33-7번지","indutype":"유통업 영리 - 인터넷 Mall","category":"other"}]},{"lat":"37.006910368","long":"127.26542923","imageIndex":17,"items":[{"name":"굿프라이스","tel":"031-258-4236","addr":"경기도 안성시 석정동 278-29번지 101호","indutype":"신변잡화 - 기타잡화","category":"other"}]},{"lat":"37.014298625","long":"127.26154438","imageIndex":17,"items":[{"name":"꽃처럼","tel":"","addr":"경기도 안성시 석정동 332번지 한보빌리지 1층 3호","indutype":"문화.취미 - 화원","category":"other"},{"name":"시매쓰","tel":"031-672-8683","addr":"경기도 안성시 석정동 332번지 한보빌리지 2층 1호","indutype":"서적문구 - 기타서적문구","category":"other"}]},{"lat":"37.009074771","long":"127.264594","imageIndex":17,"items":[{"name":"농협지하가구","tel":"031-676-2912","addr":"경기도 안성시 석정동 339번지","indutype":"가구 - 일반가구","category":"other"},{"name":"안성농업협동조합석정지점","tel":"031-676-0492","addr":"경기도 안성시 석정동 339번지","indutype":"유통업 비영리 - 농,축협 직영매장","category":"other"}]},{"lat":"37.007193766","long":"127.26765481","imageIndex":17,"items":[{"name":"담다디전열ENG","tel":"031-676-0510","addr":"경기도 안성시 석정동 26-4번지","indutype":"전기제품 - 냉열기기","category":"other"}]},{"lat":"37.008603541","long":"127.26170485","imageIndex":17,"items":[{"name":"동안성로타리클럽","tel":"031-677-3600","addr":"경기도 안성시 석정동 262-10번지","indutype":"기타 - 비영리/대상","category":"other"},{"name":"세븐일레븐안성석정중앙점","tel":"","addr":"경기도 안성시 석정동 262-10번지","indutype":"유통업 영리 - 편 의 점","category":"other"}]},{"lat":"37.007548204","long":"127.26629655","imageIndex":17,"items":[{"name":"드림디포 안성점","tel":"031-672-0000","addr":"경기도 안성시 석정동 32-2번지","indutype":"서적문구 - 문구용품","category":"other"},{"name":"채워드림","tel":"031-672-0000","addr":"경기도 안성시 석정동 32-2번지","indutype":"서적문구 - 문구용품","category":"other"}]},{"lat":"37.013192547","long":"127.26051813","imageIndex":17,"items":[{"name":"디자인캐스트","tel":"070-4106-4856","addr":"경기도 안성시 석정동 330-10번지 201호","indutype":"서적문구 - 출판 및 인쇄물","category":"other"}]},{"lat":"37.013245463","long":"127.26104641","imageIndex":17,"items":[{"name":"디자인허브","tel":"031-676-6990","addr":"경기도 안성시 석정동 330-4번지 A","indutype":"용역 서비스 - 종합용역","category":"other"}]},{"lat":"37.006690224","long":"127.26718118","imageIndex":17,"items":[{"name":"럭셔리갤러리","tel":"031-672-2023","addr":"경기도 안성시 석정동 286-1번지 안성농업협동조합 B동 1호","indutype":"가구 - 기타가구","category":"other"},{"name":"스마일 침구","tel":"031-677-2249","addr":"경기도 안성시 석정동 286-1번지","indutype":"직물 - 침구·수예점","category":"other"},{"name":"안성농업협동조합","tel":"031-677-1981","addr":"경기도 안성시 석정동 286-1번지","indutype":"유통업 비영리 - 농,축협 직영매장","category":"other"},{"name":"안성농업협동조합","tel":"031-677-1981","addr":"경기도 안성시 석정동 286-1번지","indutype":"용역 서비스 - 가례서비스업","category":"other"},{"name":"주식회사그린로즈","tel":"031-677-4542","addr":"경기도 안성시 석정동 286-1번지 2층","indutype":"용역 서비스 - 혼례서비스","category":"other"}]},{"lat":"37.007826609","long":"127.26671322","imageIndex":17,"items":[{"name":"모바일면세점2","tel":"031-673-6030","addr":"경기도 안성시 석정동 29-2","indutype":"사무통신 - 통신기기","category":"other"},{"name":"폰살롱","tel":"031-672-0096","addr":"경기도 안성시 석정동 29-2번지 엘리시아 1층 106호","indutype":"사무통신 - 통신기기","category":"other"}]},{"lat":"37.007662517","long":"127.26756655","imageIndex":17,"items":[{"name":"모아산후조리원","tel":"031-674-7759","addr":"경기도 안성시 석정동 23번지 (25-17층)","indutype":"기타의료기관 - 산후조리원","category":"other"}]},{"lat":"37.008131869","long":"127.26720864","imageIndex":17,"items":[{"name":"미림화원","tel":"031-673-0915","addr":"경기도 안성시 석정동 11-3번지","indutype":"문화.취미 - 화원","category":"other"}]},{"lat":"37.0071592","long":"127.2669918","imageIndex":17,"items":[{"name":"바다","tel":"031-675-6716","addr":"경기도 안성시 석정동 28-6번지","indutype":"레져용품 - 스포츠·레져용품","category":"other"}]},{"lat":"37.008444581","long":"127.26840069","imageIndex":17,"items":[{"name":"베비라","tel":"031-672-1907","addr":"경기도 안성시 석정동 1-4번지","indutype":"의류 - 아동의류","category":"other"}]},{"lat":"37.007943312","long":"127.26282616","imageIndex":17,"items":[{"name":"본데로 옷수선","tel":"031-674-3076","addr":"경기도 안성시 석정동 264-19번지 2층","indutype":"수리서비스 - 세탁소","category":"other"}]},{"lat":"37.009775089","long":"127.26163017","imageIndex":17,"items":[{"name":"뿌리아트홀","tel":"031-673-3950","addr":"경기도 안성시 석정동 256-23번지","indutype":"용역 서비스 - 사무서비스","category":"other"}]},{"lat":"37.007937277","long":"127.26556759","imageIndex":17,"items":[{"name":"산타바이크","tel":"031-673-2003","addr":"경기도 안성시 석정동 275-11번지","indutype":"레져용품 - 스포츠·레져용품","category":"other"}]},{"lat":"37.008357384","long":"127.26709707","imageIndex":17,"items":[{"name":"삼성시스템","tel":"031-677-3119","addr":"경기도 안성시 석정동 10-2번지","indutype":"사무통신 - 컴퓨터","category":"other"}]},{"lat":"37.012610408","long":"127.25887569","imageIndex":17,"items":[{"name":"삼성전자서비스(주)모바일안성센터","tel":"031-225-9147","addr":"경기도 안성시 석정동 129-6번지","indutype":"수리서비스 - 가정용품수리","category":"other"},{"name":"삼성전자판매(주)안성점","tel":"031-671-0091","addr":"경기도 안성시 석정동 129-6번지","indutype":"전기제품 - 가전제품","category":"other"}]},{"lat":"37.008213764","long":"127.26684939","imageIndex":17,"items":[{"name":"삼성전자판매(주)안성중앙모바일","tel":"031-673-9595","addr":"경기도 안성시 석정동 15-1번지","indutype":"전기제품 - 가전제품","category":"other"},{"name":"삼성전자판매(주)휴대폰안성중앙로점","tel":"031-677-9847","addr":"경기도 안성시 석정동 15-1번지","indutype":"전기제품 - 가전제품","category":"other"}]},{"lat":"37.012885263","long":"127.25676421","imageIndex":17,"items":[{"name":"삼원철강","tel":"031-675-3585","addr":"경기도 안성시 석정동 145-8번지","indutype":"건축자재 - 기타건축자재","category":"other"},{"name":"이씨엠(ECM)","tel":"031-677-4445","addr":"경기도 안성시 석정동 145-8번지","indutype":"기타 - 기타 전문점","category":"other"}]},{"lat":"37.009940674","long":"127.26006896","imageIndex":17,"items":[{"name":"세븐일레븐석정점","tel":"031-1577-0711","addr":"경기도 안성시 석정동 232-11번지 1층 101호","indutype":"유통업 영리 - 편 의 점","category":"other"}]},{"lat":"37.009194652","long":"127.26334726","imageIndex":17,"items":[{"name":"세븐일레븐안성석정제일점","tel":"031-1577-0711","addr":"경기도 안성시 석정동 266-6번지","indutype":"유통업 영리 - 편 의 점","category":"other"}]},{"lat":"37.013164123","long":"127.2611585","imageIndex":17,"items":[{"name":"세븐일레븐안성한경스타점","tel":"","addr":"경기도 안성시 석정동 330-8번지","indutype":"유통업 영리 - 편 의 점","category":"other"}]},{"lat":"37.012801493","long":"127.25801114","imageIndex":17,"items":[{"name":"송월타월안성중앙점","tel":"031-674-3921","addr":"경기도 안성시 석정동 142-16번지 1층","indutype":"직물 - 옷감·직물","category":"other"}]},{"lat":"37.008111617","long":"127.26820853","imageIndex":17,"items":[{"name":"수시스템","tel":"031-674-8668","addr":"경기도 안성시 석정동 4-1번지 명성빌딩 1층","indutype":"사무통신 - 통신기기","category":"other"},{"name":"옷바구니","tel":"031-674-7812","addr":"경기도 안성시 석정동 4-1번지 명성빌딩 1층","indutype":"의류 - 정장","category":"other"}]},{"lat":"37.008277712","long":"127.26645637","imageIndex":17,"items":[{"name":"스카이모바일","tel":"031-677-2836","addr":"경기도 안성시 석정동 17-2번지 스카이모바일","indutype":"사무통신 - 통신기기","category":"other"}]},{"lat":"37.013802626","long":"127.26173371","imageIndex":17,"items":[{"name":"신안전기제어","tel":"031-676-9605","addr":"경기도 안성시 석정동 333번지 중앙빌라 1동 103호","indutype":"용역 서비스 - 기타용역서비스","category":"other"}]},{"lat":"37.009298629","long":"127.26112295","imageIndex":17,"items":[{"name":"씨유안성석정원룸점","tel":"031-898-6568","addr":"경기도 안성시 석정동 260-17번지 101호","indutype":"유통업 영리 - 편 의 점","category":"other"}]},{"lat":"37.007720401","long":"127.26584773","imageIndex":17,"items":[{"name":"아드레날린 전자담배","tel":"","addr":"경기도 안성시 석정동 276번지","indutype":"기타 - 기타 전문점","category":"other"},{"name":"평수네 휴대폰","tel":"031-675-2011","addr":"경기도 안성시 석정동 276번지","indutype":"사무통신 - 통신기기","category":"other"}]},{"lat":"37.007135011","long":"127.26571089","imageIndex":17,"items":[{"name":"안성농협하나로마트","tel":"031-677-1887","addr":"경기도 안성시 석정동 278-1번지","indutype":"유통업 비영리 - 농,축협 직영매장","category":"other"},{"name":"자연흙침대","tel":"031-567-8878","addr":"경기도 안성시 석정동 278-1번지 하나로마트 지하1층","indutype":"가구 - 일반가구","category":"other"}]},{"lat":"37.008659466","long":"127.26496335","imageIndex":17,"items":[{"name":"안성도매문구사","tel":"031-677-0161","addr":"경기도 안성시 석정동 339-2번지","indutype":"서적문구 - 문구용품","category":"other"}]},{"lat":"37.00902313","long":"127.26349274","imageIndex":17,"items":[{"name":"안성문화사","tel":"031-673-8894","addr":"경기도 안성시 석정동 267-6번지","indutype":"용역 서비스 - 사무서비스","category":"other"},{"name":"안성제일복싱클럽","tel":"031-676-0985","addr":"경기도 안성시 석정동 267-6","indutype":"회원제형태 - 레져업소","category":"other"}]},{"lat":"37.012661774","long":"127.25593199","imageIndex":17,"items":[{"name":"안성스피드서비스","tel":"031-671-4215","addr":"경기도 안성시 석정동 149-3번지 안성E-MART","indutype":"건축자재 - 목재·석재·철물","category":"other"}]},{"lat":"37.008524009","long":"127.26509772","imageIndex":17,"items":[{"name":"안성으뜸광고","tel":"031-675-9039","addr":"경기도 안성시 석정동 339-4번지","indutype":"용역 서비스 - 종합용역","category":"other"},{"name":"형콜렉션","tel":"031-677-7278","addr":"경기도 안성시 석정동 339-4번지","indutype":"레져용품 - 스포츠·레져용품","category":"other"}]},{"lat":"37.012330886","long":"127.25896464","imageIndex":17,"items":[{"name":"안성캐리어","tel":"031-677-4747","addr":"경기도 안성시 석정동 127-28번지","indutype":"전기제품 - 냉열기기","category":"other"}]},{"lat":"37.008437052","long":"127.26773777","imageIndex":17,"items":[{"name":"알레르망,우먼로드","tel":"031-675-2198","addr":"경기도 안성시 석정동 7-4번지 1층","indutype":"직물 - 침구·수예점","category":"other"}]},{"lat":"37.008685958","long":"127.26109841","imageIndex":17,"items":[{"name":"얼룩빼기이박사","tel":"031-677-5079","addr":"경기도 안성시 석정동 356번지 신원아침도시 상가 103호","indutype":"수리서비스 - 세탁소","category":"other"},{"name":"크린토피아","tel":"031-676-5600","addr":"경기도 안성시 석정동 356번지 신원아침도시 상가동 701동 107호","indutype":"수리서비스 - 세탁소","category":"other"}]},{"lat":"37.00679995","long":"127.2664625","imageIndex":17,"items":[{"name":"엄마 인테리어","tel":"031-677-8982","addr":"경기도 안성시 석정동 281-6번지","indutype":"건축자재 - 인테리어전문","category":"other"}]},{"lat":"37.006575184","long":"127.26623702","imageIndex":17,"items":[{"name":"연일유리","tel":"031-676-2206","addr":"경기도 안성시 석정동 280-5번지","indutype":"건축자재 - 유리","category":"other"}]},{"lat":"37.006466009","long":"127.26670852","imageIndex":17,"items":[{"name":"영운전자","tel":"031-672-4019","addr":"경기도 안성시 석정동 278-14번지","indutype":"전기제품 - 가전제품","category":"other"},{"name":"우리지업사","tel":"031-676-7706","addr":"경기도 안성시 석정동 278-14번지","indutype":"직물 - 카페트,커튼,천막,지물","category":"other"},{"name":"한성에너텍안성대리점","tel":"031-675-8088","addr":"경기도 안성시 석정동 278-14번지","indutype":"건축자재 - 보일러·펌프·샷시","category":"other"}]},{"lat":"37.00794437","long":"127.26643275","imageIndex":17,"items":[{"name":"예인스튜디오","tel":"031-676-3302","addr":"경기도 안성시 석정동 30-1번지 3층","indutype":"광학제품 - 사진관","category":"other"}]},{"lat":"37.011248304","long":"127.25956775","imageIndex":17,"items":[{"name":"우남드라이크리닝","tel":"031-671-8845","addr":"경기도 안성시 석정동 343번지 우남퍼스트빌단지 상가 108호","indutype":"수리서비스 - 세탁소","category":"other"}]},{"lat":"37.008194402","long":"127.26337755","imageIndex":17,"items":[{"name":"운현정 샵","tel":"031-671-8818","addr":"경기도 안성시 석정동 269-25번지","indutype":"회원제형태 - 기타4","category":"other"}]},{"lat":"37.012966257","long":"127.26098929","imageIndex":17,"items":[{"name":"은혜네복사마을","tel":"031-676-5468","addr":"경기도 안성시 석정동 330-5번지 1층","indutype":"용역 서비스 - 사무서비스","category":"other"}]},{"lat":"37.007833238","long":"127.26371338","imageIndex":17,"items":[{"name":"이화아트센터","tel":"031-675-8121","addr":"경기도 안성시 석정동 269-10번지 1층","indutype":"문화.취미 - 문화취미기타","category":"other"}]},{"lat":"37.008908279","long":"127.26653719","imageIndex":17,"items":[{"name":"주식회사 시민","tel":"031-675-0922","addr":"경기도 안성시 석정동 42-25번지","indutype":"서적문구 - 출판 및 인쇄물","category":"other"}]},{"lat":"37.010664411","long":"127.25873433","imageIndex":17,"items":[{"name":"크린&드라이","tel":"031-671-7780","addr":"경기도 안성시 석정동 236-2번지 가동 201호","indutype":"수리서비스 - 세탁소","category":"other"}]},{"lat":"37.009966805","long":"127.26048477","imageIndex":17,"items":[{"name":"태영스크린","tel":"031-674-7800","addr":"경기도 안성시 석정동 232-1 (중앙로302번길 13) 외2필지","indutype":"회원제형태 - 레져업소","category":"other"}]},{"lat":"37.007799102","long":"127.2669266","imageIndex":17,"items":[{"name":"튼튼영어 안성공도지사","tel":"031-676-0579","addr":"경기도 안성시 석정동 29-1번지","indutype":"서적문구 - 기타서적문구","category":"other"}]},{"lat":"37.009190917","long":"127.26093158","imageIndex":17,"items":[{"name":"파티크라운","tel":"031-675-5077","addr":"경기도 안성시 석정동 260-10번지 세종 102호","indutype":"용역 서비스 - 혼례서비스","category":"other"}]},{"lat":"37.007940918","long":"127.26798323","imageIndex":17,"items":[{"name":"폰샵","tel":"031-675-5656","addr":"경기도 안성시 석정동 5-2번지","indutype":"사무통신 - 통신기기","category":"other"}]},{"lat":"37.008273556","long":"127.26832145","imageIndex":17,"items":[{"name":"하늘담쟁이","tel":"031-673-1001","addr":"경기도 안성시 석정동 1-2번지","indutype":"문화.취미 - 화원","category":"other"}]}]