[{"lat":"37.839781841","long":"126.98435298","imageIndex":17,"items":[{"name":"(주)스페이스","tel":"031-855-7600","addr":"경기도 양주시 광적면 석우리 212-2번지","indutype":"직물 - 침구·수예점","category":"other"}]},{"lat":"37.82911415","long":"126.98118653","imageIndex":17,"items":[{"name":"365DECO","tel":"031-879-8608","addr":"경기도 양주시 광적면 석우리 398-3번지 삼성그린 201호","indutype":"직물 - 카페트,커튼,천막,지물","category":"other"}]},{"lat":"37.828060163","long":"126.98182292","imageIndex":17,"items":[{"name":"C&T 테크","tel":"","addr":"경기도 양주시 광적면 석우리 709-13번지 32호","indutype":"기타 - 기계공구","category":"other"}]},{"lat":"37.82597895","long":"126.98163042","imageIndex":17,"items":[{"name":"EM engineering","tel":"031-855-3233","addr":"경기도 양주시 광적면 석우리 718-3","indutype":"전기제품 - 기타전기제품","category":"other"}]},{"lat":"37.829807624","long":"126.97985733","imageIndex":17,"items":[{"name":"GS25양주석우점","tel":"080-555-2525","addr":"경기도 양주시 광적면 석우리 382-2번지","indutype":"유통업 영리 - 편 의 점","category":"other"}]},{"lat":"37.834728101","long":"126.98818246","imageIndex":17,"items":[{"name":"GS25양주유명점","tel":"","addr":"경기도 양주시 광적면 석우리 133-4번지","indutype":"유통업 영리 - 편 의 점","category":"other"}]},{"lat":"37.838860432","long":"126.97254982","imageIndex":17,"items":[{"name":"SMC (에스엠씨)","tel":"031-829-7663","addr":"경기도 양주시 광적면 석우리 485-3번지","indutype":"신변잡화 - 기타잡화","category":"other"}]},{"lat":"37.836832904","long":"126.97099433","imageIndex":17,"items":[{"name":"경원콤프레샤","tel":"031-855-9986","addr":"경기도 양주시 광적면 석우리 613-3번지","indutype":"기타 - 기계공구","category":"other"},{"name":"천성전기공구","tel":"031-837-0945","addr":"경기도 양주시 광적면 석우리 613-3번지","indutype":"건축자재 - 목재·석재·철물","category":"other"}]},{"lat":"37.827060366","long":"126.98326574","imageIndex":17,"items":[{"name":"곰세마리","tel":"070-4007-0548","addr":"경기도 양주시 광적면 석우리 721-2번지 대림홈타운 4동 202호","indutype":"의류 - 정장","category":"other"}]},{"lat":"37.825196074","long":"126.98774138","imageIndex":17,"items":[{"name":"공항스카이투어 주식회사","tel":"031-877-8259","addr":"경기도 양주시 광적면 석우리 69-1번지","indutype":"여행 - 관광여행","category":"other"}]},{"lat":"37.825421428","long":"126.98868407","imageIndex":17,"items":[{"name":"광적정밀","tel":"031-836-9817","addr":"경기도 양주시 광적면 석우리 73-3번지","indutype":"기타 - 기계공구","category":"other"}]},{"lat":"37.827186522","long":"126.98341337","imageIndex":17,"items":[{"name":"꽁양","tel":"031-553-8113","addr":"경기도 양주시 광적면 석우리 721-2번지 대림홈타운 3동 203호","indutype":"의류 - 정장","category":"other"}]},{"lat":"37.835997399","long":"126.98146851","imageIndex":17,"items":[{"name":"나라상사","tel":"031-848-2547","addr":"경기도 양주시 광적면 석우리 296-11번지","indutype":"기타 - 기타 전문점","category":"other"}]},{"lat":"37.83427763","long":"126.98818255","imageIndex":17,"items":[{"name":"나로앤텍","tel":"031-829-7893","addr":"경기도 양주시 광적면 석우리 129-32번지","indutype":"농업 - 농기계","category":"other"}]},{"lat":"37.838139621","long":"126.97232291","imageIndex":17,"items":[{"name":"다에뉴","tel":"031-855-3367","addr":"경기도 양주시 광적면 석우리 611-5번지","indutype":"신변잡화 - 신발","category":"other"}]},{"lat":"37.838282772","long":"126.96868757","imageIndex":17,"items":[{"name":"대동머신","tel":"031-855-8000","addr":"경기도 양주시 광적면 석우리 618-2번지 가동 ,나동","indutype":"기타 - 기타 전문점","category":"other"},{"name":"태웅건업","tel":"070-8813-7370","addr":"경기도 양주시 광적면 석우리 618-2번지 1층","indutype":"건축자재 - 기타건축자재","category":"other"}]},{"lat":"37.837220141","long":"126.97038072","imageIndex":17,"items":[{"name":"대운정밀테크","tel":"031-838-5692","addr":"경기도 양주시 광적면 석우리 615-3번지","indutype":"기타 - 기계공구","category":"other"}]},{"lat":"37.840746591","long":"126.98990808","imageIndex":17,"items":[{"name":"대일전기","tel":"031-877-2886","addr":"경기도 양주시 광적면 석우리 12-7번지","indutype":"전기제품 - 기타전기제품","category":"other"},{"name":"동양건축","tel":"031-862-5785","addr":"경기도 양주시 광적면 석우리 12-7번지","indutype":"용역 서비스 - 기타용역서비스","category":"other"}]},{"lat":"37.825889758","long":"126.98741185","imageIndex":17,"items":[{"name":"대진 산업기계","tel":"070-4131-0596","addr":"경기도 양주시 광적면 석우리 71-1번지","indutype":"기타 - 기계공구","category":"other"}]},{"lat":"37.830645218","long":"126.9784599","imageIndex":17,"items":[{"name":"대한볼트","tel":"031-855-9594","addr":"경기도 양주시 광적면 석우리 376-3번지 광장빌딩","indutype":"기타 - 기계공구","category":"other"}]},{"lat":"37.837275774","long":"126.97670826","imageIndex":17,"items":[{"name":"더디자인","tel":"031-965-3325","addr":"경기도 양주시 광적면 석우리 509번지","indutype":"가구 - 일반가구","category":"other"}]},{"lat":"37.829609458","long":"126.98007321","imageIndex":17,"items":[{"name":"디자림","tel":"031-876-0154","addr":"경기도 양주시 광적면 석우리 382-21번지","indutype":"건축자재 - 인테리어전문","category":"other"}]},{"lat":"37.835968827","long":"126.97420955","imageIndex":17,"items":[{"name":"디지털랜드","tel":"","addr":"경기도 양주시 광적면 석우리 464-4번지 1동","indutype":"전기제품 - 가전제품","category":"other"}]},{"lat":"37.838779441","long":"126.97291338","imageIndex":17,"items":[{"name":"레인악기","tel":"031-871-6662","addr":"경기도 양주시 광적면 석우리 485-8번지 2층","indutype":"레져용품 - 악기점","category":"other"}]},{"lat":"37.839303234","long":"126.978298","imageIndex":17,"items":[{"name":"명도종합정비기기","tel":"031-852-0988","addr":"경기도 양주시 광적면 석우리 525-1","indutype":"기타 - 기계공구","category":"other"}]},{"lat":"37.827276441","long":"126.98237972","imageIndex":17,"items":[{"name":"미니스톱양주가래비점","tel":"031-1577-9621","addr":"경기도 양주시 광적면 석우리 714-3번지 1층","indutype":"유통업 영리 - 편 의 점","category":"other"}]},{"lat":"37.828555494","long":"126.98080049","imageIndex":17,"items":[{"name":"미래인쇄","tel":"0031-829-3327","addr":"경기도 양주시 광적면 석우리 395-1번지 (3호)","indutype":"서적문구 - 출판 및 인쇄물","category":"other"},{"name":"창성기획인쇄.대산공인중개사사무소","tel":"031-878-6660","addr":"경기도 양주시 광적면 석우리 395-1번지","indutype":"서적문구 - 출판 및 인쇄물","category":"other"},{"name":"천가유리","tel":"031-855-5483","addr":"경기도 양주시 광적면 석우리 395-1번지","indutype":"건축자재 - 유리","category":"other"}]},{"lat":"37.834167137","long":"126.97501678","imageIndex":17,"items":[{"name":"바움","tel":"031-532-3880","addr":"경기도 양주시 광적면 석우리 464-60번지 2층","indutype":"건축자재 - 기타건축자재","category":"other"}]},{"lat":"37.837969077","long":"126.97487903","imageIndex":17,"items":[{"name":"삼성테크롤","tel":"02-2679-6605","addr":"경기도 양주시 광적면 석우리 500-1번지","indutype":"직물 - 기타직물","category":"other"}]},{"lat":"37.83250052","long":"126.9755513","imageIndex":17,"items":[{"name":"삼우기업(주)","tel":"031-855-8053","addr":"경기도 양주시 광적면 석우리 437-4","indutype":"신변잡화 - 가방","category":"other"}]},{"lat":"37.824862866","long":"126.98887727","imageIndex":17,"items":[{"name":"삼인타공","tel":"031-855-0176","addr":"경기도 양주시 광적면 석우리 66-3","indutype":"건축자재 - 목재·석재·철물","category":"other"}]},{"lat":"37.828168035","long":"126.98051664","imageIndex":17,"items":[{"name":"상원전기콘트롤주식회사","tel":"031-837-1470","addr":"경기도 양주시 광적면 석우리 711-1번지 4호","indutype":"전기제품 - 기타전기제품","category":"other"}]},{"lat":"37.828393473","long":"126.98160701","imageIndex":17,"items":[{"name":"성일코퍼레이션","tel":"031-855-8226","addr":"경기도 양주시 광적면 석우리 401-6번지 1층","indutype":"용역 서비스 - 종합용역","category":"other"}]},{"lat":"37.826861933","long":"126.98195957","imageIndex":17,"items":[{"name":"세진인쇄사","tel":"031-836-4707","addr":"경기도 양주시 광적면 석우리 715-9번지","indutype":"서적문구 - 출판 및 인쇄물","category":"other"}]},{"lat":"37.826474336","long":"126.98090334","imageIndex":17,"items":[{"name":"세탁풍경","tel":"031-855-0026","addr":"경기도 양주시 광적면 석우리 717-3번지 1층","indutype":"수리서비스 - 세탁소","category":"other"}]},{"lat":"37.831556191","long":"126.98401426","imageIndex":17,"items":[{"name":"수미플랜","tel":"031-713-2096","addr":"경기도 양주시 광적면 석우리 350-14번지","indutype":"건축자재 - 인테리어전문","category":"other"}]},{"lat":"37.833500934","long":"126.9771867","imageIndex":17,"items":[{"name":"신한농자재","tel":"031-876-1002","addr":"경기도 양주시 광적면 석우리 444번지","indutype":"농업 - 기타농업관련","category":"other"}]},{"lat":"37.834085577","long":"126.97307432","imageIndex":17,"items":[{"name":"씨앤피케미칼","tel":"031-855-7242","addr":"경기도 양주시 광적면 석우리 646-6번지","indutype":"건축자재 - 페인트","category":"other"}]},{"lat":"37.837112548","long":"126.97232334","imageIndex":17,"items":[{"name":"씨오엘(COL)","tel":"","addr":"경기도 양주시 광적면 석우리 474-1번지","indutype":"건축자재 - 조명기구","category":"other"}]},{"lat":"37.827276363","long":"126.98193673","imageIndex":17,"items":[{"name":"씨유양주석우리점","tel":"031-829-3018","addr":"경기도 양주시 광적면 석우리 712-4번지","indutype":"유통업 영리 - 편 의 점","category":"other"}]},{"lat":"37.823340139","long":"126.98779855","imageIndex":17,"items":[{"name":"씨유양주석우중앙점","tel":"031-836-0338","addr":"경기도 양주시 광적면 석우리 67-16번지","indutype":"유통업 영리 - 편 의 점","category":"other"}]},{"lat":"37.839337792","long":"126.97201569","imageIndex":17,"items":[{"name":"양주몰드레이져","tel":"031-829-0407","addr":"경기도 양주시 광적면 석우리 606-1번지 1층","indutype":"기타 - 기계공구","category":"other"}]},{"lat":"37.837697516","long":"126.96993746","imageIndex":17,"items":[{"name":"에어테크","tel":"031-845-0240","addr":"경기도 양주시 광적면 석우리 621-7번지","indutype":"기타 - 기계공구","category":"other"}]},{"lat":"37.834942006","long":"126.9752664","imageIndex":17,"items":[{"name":"에이치에스이앤지","tel":"031-829-1017","addr":"경기도 양주시 광적면 석우리 464-24번지","indutype":"건축자재 - 기타건축자재","category":"other"}]},{"lat":"37.832942913","long":"126.97991315","imageIndex":17,"items":[{"name":"에이프럴 트리(April Tree)","tel":"031-826-5563","addr":"경기도 양주시 광적면 석우리 338-6번지","indutype":"가구 - 기타가구","category":"other"},{"name":"케이티지(KTG)","tel":"032-836-0390","addr":"경기도 양주시 광적면 석우리 338-6번지","indutype":"전기제품 - 기타전기제품","category":"other"}]},{"lat":"37.829664721","long":"126.98751329","imageIndex":17,"items":[{"name":"엠앤에이","tel":"070-8810-8774","addr":"경기도 양주시 광적면 석우리 95-2번지","indutype":"유통업 영리 - 기타유통업","category":"other"}]},{"lat":"37.829969842","long":"126.98010718","imageIndex":17,"items":[{"name":"우성산업","tel":"031-855-4915","addr":"경기도 양주시 광적면 석우리 382-1","indutype":"기타 - 기계공구","category":"other"}]},{"lat":"37.841249143","long":"126.97771796","imageIndex":17,"items":[{"name":"월드네오","tel":"031-879-2530","addr":"경기도 양주시 광적면 석우리 525-12번지","indutype":"전기제품 - 기타전기제품","category":"other"}]},{"lat":"37.827249522","long":"126.9830158","imageIndex":17,"items":[{"name":"이지스마트팜","tel":"","addr":"경기도 양주시 광적면 석우리 721-1번지 대림홈타운 6동 302호","indutype":"용역 서비스 - 소프트웨어","category":"other"}]},{"lat":"37.83947456","long":"126.97901365","imageIndex":17,"items":[{"name":"정화산업","tel":"031-879-7292","addr":"경기도 양주시 광적면 석우리 266-6번지","indutype":"주방용구 - 주방용구","category":"other"}]},{"lat":"37.837804845","long":"126.96724505","imageIndex":17,"items":[{"name":"제이 디 블루","tel":"031-111-1111","addr":"경기도 양주시 광적면 석우리 620-22번지","indutype":"문화.취미 - 화원","category":"other"}]},{"lat":"37.842309354","long":"126.96660668","imageIndex":17,"items":[{"name":"중고재활용센터 땡큐","tel":"","addr":"경기도 양주시 광적면 석우리 702-4번지","indutype":"가구 - 일반가구","category":"other"}]},{"lat":"37.824304285","long":"126.98891145","imageIndex":17,"items":[{"name":"카스전자저울경기북부점","tel":"031-963-9455","addr":"경기도 양주시 광적면 석우리 66-9","indutype":"주방용구 - 주방용구","category":"other"}]},{"lat":"37.827474342","long":"126.98068723","imageIndex":17,"items":[{"name":"케이엠(KM)바이오서비스","tel":"","addr":"경기도 양주시 광적면 석우리 711-3번지 인창더파크뷰 102동 602호","indutype":"수리서비스 - 기타수리서비스","category":"other"}]},{"lat":"37.838473658","long":"126.97510604","imageIndex":17,"items":[{"name":"한국ENG","tel":"031-836-4252","addr":"경기도 양주시 광적면 석우리 515-1번지","indutype":"건축자재 - 기타건축자재","category":"other"}]},{"lat":"37.838727442","long":"126.98254695","imageIndex":17,"items":[{"name":"한꽃담","tel":"","addr":"경기도 양주시 광적면 석우리 233-2번지","indutype":"용역 서비스 - 사무서비스","category":"other"}]},{"lat":"37.842444478","long":"126.96654981","imageIndex":17,"items":[{"name":"현기획&타이어프린터","tel":"031-829-8193","addr":"경기도 양주시 광적면 석우리 702-1번지","indutype":"용역 서비스 - 기타용역서비스","category":"other"}]},{"lat":"37.837499175","long":"126.96946042","imageIndex":17,"items":[{"name":"형제산소","tel":"031-836-3848","addr":"경기도 양주시 광적면 석우리 624-13번지","indutype":"기타 - 기타 전문점","category":"other"}]}]