[{"lat":"37.818810347","long":"127.06623271","imageIndex":16,"items":[{"name":"GL교육(Global Leader Education)","tel":"","addr":"경기도 양주시 고암동 493-55번지","indutype":"학원 - 기타 교육기관","category":"study"}]},{"lat":"37.831557021","long":"127.06926515","imageIndex":16,"items":[{"name":"IL수학학원","tel":"031-858-1166","addr":"경기도 양주시 고암동 129-1번지 재성빌딩 202호","indutype":"회원제형태 - 학원","category":"study"},{"name":"칸타빌레음악학원","tel":"031-857-5535","addr":"경기도 양주시 고암동 129-1번지","indutype":"회원제형태 - 학원","category":"study"}]},{"lat":"37.831557492","long":"127.06842457","imageIndex":16,"items":[{"name":"가온누리태권도-양주관","tel":"031-863-5962","addr":"경기도 양주시 고암동 128-4번지 행전빌딩 301호","indutype":"학원 - 예·체능계학원","category":"study"},{"name":"스마트영어전문학원","tel":"031-857-6872","addr":"경기도 양주시 고암동 128-4번지 행전빌딩 2층 201호","indutype":"학원 - 외국어학원","category":"study"}]},{"lat":"37.835889968","long":"127.07029142","imageIndex":16,"items":[{"name":"고운소리 피아노","tel":"031-858-0066","addr":"경기도 양주시 고암동 121-2번지 주원마을 219동 103호","indutype":"학원 - 예·체능계학원","category":"study"}]},{"lat":"37.834833614","long":"127.07411869","imageIndex":16,"items":[{"name":"골드독서실","tel":"031-861-0953","addr":"경기도 양주시 고암동 580-8번지 302호 301호, 302호","indutype":"학원 - 독서실","category":"study"},{"name":"수학의달인프라임영어덕정학원","tel":"","addr":"경기도 양주시 고암동 580-8번지 골드프라자 3층 307,308호","indutype":"학원 - 보습학원","category":"study"},{"name":"엠스터디학원","tel":"031-858-8949","addr":"경기도 양주시 고암동 580-8번지 골드프라자 306 3층 305","indutype":"학원 - 보습학원","category":"study"},{"name":"연세대혁승태권도장","tel":"031-858-7060","addr":"경기도 양주시 고암동 580-8 골드프라자 4층 405,406호","indutype":"회원제형태 - 학원","category":"study"},{"name":"영어서당학원","tel":"031-1234-5678","addr":"경기도 양주시 고암동 580-8번지 골드프라자 303,304호","indutype":"학원 - 보습학원","category":"study"},{"name":"청어람153영어교습소","tel":"031-864-1533","addr":"경기도 양주시 고암동 580-8번지 골드프라자","indutype":"회원제형태 - 학원","category":"study"},{"name":"클라라슈만음악학원","tel":"031-861-1636","addr":"경기도 양주시 고암동 580-8번지 골드프라자 4층 407,408호","indutype":"학원 - 예·체능계학원","category":"study"},{"name":"풀앤에듀학원","tel":"031-1111-1111","addr":"경기도 양주시 고암동 580-8번지 골드프라자 4층 409,410호","indutype":"학원 - 보습학원","category":"study"},{"name":"하랑교육","tel":"031-864-7070","addr":"경기도 양주시 고암동 580-8번지 골드프라자 2층 203호","indutype":"학원 - 학습지 교육","category":"study"}]},{"lat":"37.831557181","long":"127.06898117","imageIndex":16,"items":[{"name":"국제어린이외국어학원덕정캠퍼스","tel":"031-859-3459","addr":"경기도 양주시 고암동 129동아프라자3.4층","indutype":"회원제형태 - 학원","category":"study"},{"name":"영실용음악학원","tel":"031-859-1303","addr":"경기도 양주시 고암동 129번지 3층","indutype":"학원 - 예·체능계학원","category":"study"}]},{"lat":"37.835318683","long":"127.07645927","imageIndex":16,"items":[{"name":"그레이스 피아노","tel":"","addr":"경기도 양주시 고암동 582번지 덕정중흥에스클래스 105동 301호","indutype":"학원 - 기타 교육기관","category":"study"}]},{"lat":"37.831557365","long":"127.06865175","imageIndex":16,"items":[{"name":"더블유학원","tel":"031-861-7778","addr":"경기도 양주시 고암동 128-5번지 양덕프라자 201호","indutype":"학원 - 보습학원","category":"study"},{"name":"매티스학원","tel":"031-861-0234","addr":"경기도 양주시 고암동 128-5번지 3층","indutype":"학원 - 보습학원","category":"study"}]},{"lat":"37.831556738","long":"127.06976496","imageIndex":16,"items":[{"name":"박범진검도관","tel":"031-861-8881","addr":"경기도 양주시 고암동 129-3번지 5층","indutype":"회원제형태 - 학원","category":"study"}]},{"lat":"37.830170512","long":"127.06757142","imageIndex":16,"items":[{"name":"세현중국어교실","tel":"031-861-5509","addr":"경기도 양주시 고암동 157-7번지 킴스빌리지 302호","indutype":"학원 - 외국어학원","category":"study"}]},{"lat":"37.831169584","long":"127.0693216","imageIndex":16,"items":[{"name":"아마데우스모차르트음악학원2관","tel":"031-859-1303","addr":"경기도 양주시 고암동 146-2번지 상가 1층","indutype":"회원제형태 - 학원","category":"study"}]},{"lat":"37.836223652","long":"127.06970101","imageIndex":16,"items":[{"name":"아소비 교육원","tel":"","addr":"경기도 양주시 고암동 121-2번지 주원마을 220동 705호","indutype":"학원 - 기타 교육기관","category":"study"}]},{"lat":"37.825972364","long":"127.06712478","imageIndex":16,"items":[{"name":"아이스토리","tel":"070-8031-4038","addr":"경기도 양주시 고암동 540-1번지 나동 3호","indutype":"학원 - 기타 교육기관","category":"study"}]},{"lat":"37.834862595","long":"127.07081303","imageIndex":16,"items":[{"name":"용인대꿈나무태권도","tel":"031-862-5677","addr":"경기도 양주시 고암동 121-7번지 주원마을 유치원 3층","indutype":"회원제형태 - 학원","category":"study"}]},{"lat":"37.831557612","long":"127.06820875","imageIndex":16,"items":[{"name":"제시카영어학원","tel":"070-8612-1633","addr":"경기도 양주시 고암동 128-3번지 두언비젼센터 301호","indutype":"학원 - 보습학원","category":"study"},{"name":"하늘소리음악학원","tel":"031-859-0101","addr":"경기도 양주시 고암동 128-3번지 두언비젼센터 2층","indutype":"회원제형태 - 학원","category":"study"}]},{"lat":"37.832743766","long":"127.07356007","imageIndex":16,"items":[{"name":"지혜교육","tel":"031-853-8007","addr":"경기도 양주시 고암동 583번지 하늘빛마을 706동 203호","indutype":"학원 - 기타 교육기관","category":"study"}]},{"lat":"37.834464028","long":"127.07444776","imageIndex":16,"items":[{"name":"하늘빛수학","tel":"","addr":"경기도 양주시 고암동 583번지 하늘빛마을 702동 502호","indutype":"학원 - 기타 교육기관","category":"study"}]},{"lat":"37.836223992","long":"127.06909893","imageIndex":16,"items":[{"name":"해법영어","tel":"","addr":"경기도 양주시 고암동 121-5번지 주공마을 주상가 205호","indutype":"학원 - 외국어학원","category":"study"}]}]