[{"lat":"37.623022579","long":"126.82473584","imageIndex":7,"items":[{"name":"능곡빵집","tel":"070-7535-2880","addr":"경기도 고양시 덕양구 지도로","indutype":"음료식품 - 제과점","category":"food"}]},{"lat":"37.619048478","long":"126.82420164","imageIndex":4,"items":[{"name":"돈부돈","tel":"","addr":"경기도 고양시 덕양구 지도로","indutype":"일반휴게음식 - 일반한식","category":"restaurant"}]},{"lat":"37.626021814","long":"126.82407167","imageIndex":4,"items":[{"name":"이디야커피","tel":"031-813-0147","addr":"경기도 고양시 덕양구 지도로","indutype":"일반휴게음식 - 서양음식","category":"restaurant"}]},{"lat":"37.622112","long":"126.82434156","imageIndex":16,"items":[{"name":"멘토학원","tel":"070-7552-5608","addr":"경기도 고양시 덕양구 지도로","indutype":"학원 - 보습학원","category":"study"}]},{"lat":"37.625300351","long":"126.82362029","imageIndex":16,"items":[{"name":"청운왕보습학원","tel":"031-970-0505","addr":"경기도 고양시 덕양구 지도로","indutype":"학원 - 보습학원","category":"study"}]},{"lat":"37.621111837","long":"126.82428732","imageIndex":13,"items":[{"name":"백호헤어샵","tel":"031-970-0534","addr":"경기도 고양시 덕양구 지도로","indutype":"보건위생 - 미용원","category":"beauty"}]},{"lat":"37.621049437","long":"126.82472922","imageIndex":13,"items":[{"name":"프리픽스","tel":"070-4848-4994","addr":"경기도 고양시 덕양구 지도로","indutype":"보건위생 - 미용재료","category":"beauty"}]},{"lat":"37.625471501","long":"126.82359722","imageIndex":17,"items":[{"name":"사실래요파실래요","tel":"031-971-4989","addr":"경기도 고양시 덕양구 지도로","indutype":"전기제품 - 가전제품","category":"other"}]},{"lat":"37.622581223","long":"126.82481619","imageIndex":17,"items":[{"name":"샐리네 스튜디오","tel":"070-7763-9054","addr":"경기도 고양시 덕양구 지도로","indutype":"광학제품 - 사진관","category":"other"}]},{"lat":"37.617382402","long":"126.82468134","imageIndex":17,"items":[{"name":"태극낚시총포","tel":"031-974-2337","addr":"경기도 고양시 덕양구 지도로","indutype":"레져용품 - 총포류판매점","category":"other"}]},{"lat":"37.626940253","long":"126.82370697","imageIndex":0,"items":[{"name":"엔진마을일산점","tel":"00-0000-0000","addr":"경기도 고양시 덕양구 지도로","indutype":"자동차정비 유지 - 자동차정비","category":"car"}]}]