[{"lat":"37.142472984","long":"127.0322022","imageIndex":4,"items":[{"name":"금이야옥이야","tel":"031-374-0403","addr":"경기도 오산시 벌음동 318-4번지","indutype":"일반휴게음식 - 일반한식","category":"restaurant"}]},{"lat":"37.138696186","long":"127.03742297","imageIndex":4,"items":[{"name":"기찬교동반점","tel":"031-376-1128","addr":"경기도 오산시 벌음동 167-14번지 카맨샵 B동 101호","indutype":"일반휴게음식 - 중국식","category":"restaurant"}]},{"lat":"37.136416884","long":"127.0361952","imageIndex":4,"items":[{"name":"남춘식당","tel":"031-376-3441","addr":"경기도 오산시 벌음동 140-2번지 1층 일부호","indutype":"일반휴게음식 - 일반한식","category":"restaurant"}]},{"lat":"37.140254804","long":"127.03808772","imageIndex":4,"items":[{"name":"노블카페","tel":"031-377-8007","addr":"경기도 오산시 벌음동 107-1번지 1층","indutype":"일반휴게음식 - 서양음식","category":"restaurant"}]},{"lat":"37.141526953","long":"127.03192045","imageIndex":4,"items":[{"name":"돌담시골보리밥","tel":"031-377-6525","addr":"경기도 오산시 벌음동 339번지","indutype":"일반휴게음식 - 일반한식","category":"restaurant"}]},{"lat":"37.139035582","long":"127.0465283","imageIndex":4,"items":[{"name":"바오","tel":"031-374-4749","addr":"경기도 오산시 벌음동 288번지 1층","indutype":"일반휴게음식 - 서양음식","category":"restaurant"}]},{"lat":"37.140201435","long":"127.03566787","imageIndex":4,"items":[{"name":"사랑채","tel":"031-373-6546","addr":"경기도 오산시 벌음동 123번지","indutype":"일반휴게음식 - 일반한식","category":"restaurant"}]},{"lat":"37.136867655","long":"127.03530629","imageIndex":4,"items":[{"name":"연탄직화초벌구이","tel":"031-372-0777","addr":"경기도 오산시 벌음동 134-18번지","indutype":"일반휴게음식 - 일반한식","category":"restaurant"}]},{"lat":"37.138254672","long":"127.03742277","imageIndex":4,"items":[{"name":"우리식당","tel":"031-376-9796","addr":"경기도 오산시 벌음동 131-5번지 1층","indutype":"일반휴게음식 - 일반한식","category":"restaurant"}]},{"lat":"37.140668738","long":"127.03988873","imageIndex":4,"items":[{"name":"은행나무순대국","tel":"031-377-9295","addr":"경기도 오산시 벌음동 189-16번지 1층","indutype":"일반휴게음식 - 일반한식","category":"restaurant"}]},{"lat":"37.141588736","long":"127.03678274","imageIndex":4,"items":[{"name":"인","tel":"031-375-0410","addr":"경기도 오산시 벌음동 54-1번지","indutype":"일반휴게음식 - 일반한식","category":"restaurant"}]},{"lat":"37.140479595","long":"127.03964103","imageIndex":4,"items":[{"name":"장군보쌈","tel":"031-375-3359","addr":"경기도 오산시 벌음동 185-1번지 1층","indutype":"일반휴게음식 - 일반한식","category":"restaurant"}]},{"lat":"37.139146824","long":"127.03702925","imageIndex":4,"items":[{"name":"전주집","tel":"031-377-6808","addr":"경기도 오산시 벌음동 120-3번지 1층","indutype":"일반휴게음식 - 일반한식","category":"restaurant"}]},{"lat":"37.141561775","long":"127.03653511","imageIndex":4,"items":[{"name":"정담채","tel":"031-374-7708","addr":"경기도 오산시 벌음동 54-3번지 1층","indutype":"일반휴게음식 - 일반한식","category":"restaurant"}]},{"lat":"37.141642656","long":"127.03727799","imageIndex":4,"items":[{"name":"코기조은집","tel":"031-373-7792","addr":"경기도 오산시 벌음동 54-2번지 주윤빌딩 1층","indutype":"일반휴게음식 - 일반한식","category":"restaurant"}]},{"lat":"37.141084084","long":"127.03700761","imageIndex":4,"items":[{"name":"호아빈오산점","tel":"031-374-0369","addr":"경기도 오산시 벌음동 97번지 1층","indutype":"일반휴게음식 - 서양음식","category":"restaurant"}]}]