[{"lat":"37.31223487","long":"127.09097229","imageIndex":7,"items":[{"name":"가자할인마트","tel":"031-265-7449","addr":"경기도 용인시 수지구 상현동 17-1번지 상현프라자 139호","indutype":"유통업 영리 - 슈퍼마켓","category":"mart"}]},{"lat":"37.30287177","long":"127.08018972","imageIndex":7,"items":[{"name":"금호마트","tel":"031-262-5682","addr":"경기도 용인시 수지구 상현동 832번지 금호베스트2단지 상가 102호","indutype":"유통업 영리 - 슈퍼마켓","category":"mart"}]},{"lat":"37.306873604","long":"127.07818601","imageIndex":7,"items":[{"name":"금호마트","tel":"031-262-6530","addr":"경기도 용인시 수지구 상현동 867금호베스트빌상가105","indutype":"유통업 영리 - 슈퍼마켓","category":"mart"}]},{"lat":"37.31326469","long":"127.08732981","imageIndex":7,"items":[{"name":"동보마트","tel":"031-262-2991","addr":"경기도 용인시 수지구 상현동 1번지 동보2차 상가 106호","indutype":"유통업 영리 - 슈퍼마켓","category":"mart"}]},{"lat":"37.312732773","long":"127.08776916","imageIndex":7,"items":[{"name":"스타25시","tel":"031-262-2752","addr":"경기도 용인시 수지구 상현동 12번지","indutype":"유통업 영리 - 슈퍼마켓","category":"mart"}]},{"lat":"37.306508413","long":"127.08535957","imageIndex":7,"items":[{"name":"싱싱마트","tel":"031-264-6459","addr":"경기도 용인시 수지구 상현동 263번지 미래프라자 101,102호","indutype":"유통업 영리 - 슈퍼마켓","category":"mart"}]},{"lat":"37.30420707","long":"127.09055687","imageIndex":7,"items":[{"name":"엘지자이마트","tel":"031-276-2949","addr":"경기도 용인시 수지구 상현동 869번지 만현마을엘지상현자이 상가동 101호","indutype":"유통업 영리 - 슈퍼마켓","category":"mart"}]},{"lat":"37.297264832","long":"127.06960487","imageIndex":7,"items":[{"name":"초록마을 상현역점","tel":"031-214-6289","addr":"경기도 용인시 수지구 상현동 1131-5번지 에스타워 109호","indutype":"유통업 영리 - 슈퍼마켓","category":"mart"}]},{"lat":"37.297682072","long":"127.0644961","imageIndex":7,"items":[{"name":"프라임할인마트광교2호점","tel":"031-211-7766","addr":"경기도 용인시 수지구 상현동 1113번지 단지내상가101,102호","indutype":"유통업 영리 - 슈퍼마켓","category":"mart"}]},{"lat":"37.308097559","long":"127.08040939","imageIndex":7,"items":[{"name":"현대마트","tel":"031-262-2733","addr":"경기도 용인시 수지구 상현동 860번지 서원마을3단지아이파크 상가동 101호","indutype":"유통업 영리 - 슈퍼마켓","category":"mart"}]}]