[{"lat":"37.488140187","long":"127.59104742","imageIndex":7,"items":[{"name":"꼬순누룽지","tel":"","addr":"경기도 양평군 용문면 다문리 675-6번지 1층 102호","indutype":"음료식품 - 기타음료식품","category":"food"}]},{"lat":"37.487496889","long":"127.59357509","imageIndex":7,"items":[{"name":"농업회사법인 (주)우림미트 우리고기","tel":"031-773-6401","addr":"경기도 양평군 용문면 다문리 619-2번지","indutype":"음료식품 - 정육점","category":"food"}]},{"lat":"37.486831315","long":"127.59693923","imageIndex":7,"items":[{"name":"다비축산유통","tel":"031-774-8384","addr":"경기도 양평군 용문면 다문리 364-2번지","indutype":"음료식품 - 정육점","category":"food"}]},{"lat":"37.483667241","long":"127.59366931","imageIndex":7,"items":[{"name":"단월상회","tel":"031-773-3490","addr":"경기도 양평군 용문면 다문리 734-9번지","indutype":"음료식품 - 기타음료식품","category":"food"}]},{"lat":"37.483467676","long":"127.59393908","imageIndex":7,"items":[{"name":"대성축산","tel":"031-792-9295","addr":"경기도 양평군 용문면 다문리 733-8번지","indutype":"음료식품 - 정육점","category":"food"}]},{"lat":"37.485420299","long":"127.59444064","imageIndex":7,"items":[{"name":"뚜레쥬르 양평용문점","tel":"031-775-6674","addr":"경기도 양평군 용문면 다문리 331-15번지","indutype":"음료식품 - 제과점","category":"food"}]},{"lat":"37.486059448","long":"127.59094065","imageIndex":7,"items":[{"name":"반듯한찬거리","tel":"031-772-1131","addr":"경기도 양평군 용문면 다문리 639-6번지 105호","indutype":"음료식품 - 기타음료식품","category":"food"}]},{"lat":"37.484029202","long":"127.59335558","imageIndex":7,"items":[{"name":"방아소리","tel":"031-774-8830","addr":"경기도 양평군 용문면 다문리 731-12번지","indutype":"음료식품 - 제과점","category":"food"}]},{"lat":"37.484467727","long":"127.59394696","imageIndex":7,"items":[{"name":"베스킨라빈스 양평용문점","tel":"031-771-4040","addr":"경기도 양평군 용문면 다문리 729-11번지 1층","indutype":"음료식품 - 제과점","category":"food"}]},{"lat":"37.483781197","long":"127.59430335","imageIndex":7,"items":[{"name":"부자기름집","tel":"031-773-3397","addr":"경기도 양평군 용문면 다문리 733-31번지","indutype":"음료식품 - 기타음료식품","category":"food"}]},{"lat":"37.486247691","long":"127.59113434","imageIndex":7,"items":[{"name":"사계유통","tel":"031-775-5243","addr":"경기도 양평군 용문면 다문리 639-4번지 109호","indutype":"음료식품 - 정육점","category":"food"}]},{"lat":"37.499830117","long":"127.57552189","imageIndex":7,"items":[{"name":"사회적협동조합올투","tel":"031-770-1371","addr":"경기도 양평군 용문면 다문리 산25번지 1동 (4)","indutype":"음료식품 - 기타음료식품","category":"food"}]},{"lat":"37.489889319","long":"127.59080107","imageIndex":7,"items":[{"name":"승용쌀상회","tel":"031-774-4581","addr":"경기도 양평군 용문면 다문리 658-10번지","indutype":"음료식품 - 미곡상","category":"food"}]},{"lat":"37.483083167","long":"127.59155047","imageIndex":7,"items":[{"name":"시골떡방앗간","tel":"031-773-8811","addr":"경기도 양평군 용문면 다문리 705-7번지","indutype":"음료식품 - 제과점","category":"food"}]},{"lat":"37.48322343","long":"127.59233169","imageIndex":7,"items":[{"name":"시골방앗간","tel":"031-774-0057","addr":"경기도 양평군 용문면 다문리 742-8번지","indutype":"음료식품 - 기타음료식품","category":"food"}]},{"lat":"37.484106528","long":"127.59230471","imageIndex":7,"items":[{"name":"시장정육점","tel":"031-774-1430","addr":"경기도 양평군 용문면 다문리 721-11","indutype":"음료식품 - 정육점","category":"food"},{"name":"여명상회","tel":"031-771-9049","addr":"경기도 양평군 용문면 다문리 721-11번지","indutype":"음료식품 - 농·축·수산품","category":"food"}]},{"lat":"37.483859548","long":"127.59304898","imageIndex":7,"items":[{"name":"시흥청과","tel":"031-771-8835","addr":"경기도 양평군 용문면 다문리 739-11","indutype":"음료식품 - 농·축·수산품","category":"food"}]},{"lat":"37.486772882","long":"127.59241611","imageIndex":7,"items":[{"name":"쌍둥이네집반찬","tel":"031-771-4553","addr":"경기도 양평군 용문면 다문리 631-8번지 1층","indutype":"음료식품 - 농·축·수산품","category":"food"}]},{"lat":"37.480553568","long":"127.5893034","imageIndex":7,"items":[{"name":"양평군종합사회복지관","tel":"031-775-7741","addr":"경기도 양평군 용문면 다문리 793-8번지","indutype":"음료식품 - 기타음료식품","category":"food"}]},{"lat":"37.483860074","long":"127.59474492","imageIndex":7,"items":[{"name":"양평친환경로컬푸드협동조합 용문점","tel":"031-773-6355","addr":"경기도 양평군 용문면 다문리 307-5번지","indutype":"음료식품 - 농·축·수산품","category":"food"}]},{"lat":"37.484669455","long":"127.59143855","imageIndex":7,"items":[{"name":"영주(떡)방아간","tel":"031-774-3090","addr":"경기도 양평군 용문면 다문리 708-6번지","indutype":"음료식품 - 제과점","category":"food"}]},{"lat":"37.482275065","long":"127.59279909","imageIndex":7,"items":[{"name":"용문 농수산물","tel":"","addr":"경기도 양평군 용문면 다문리 737-44번지","indutype":"음료식품 - 농·축·수산품","category":"food"}]},{"lat":"37.488329225","long":"127.59468972","imageIndex":7,"items":[{"name":"용문건강원","tel":"031-772-2052","addr":"경기도 양평군 용문면 다문리 611-1","indutype":"건강식품 - 기타건강식품","category":"food"}]},{"lat":"37.483613071","long":"127.59369149","imageIndex":7,"items":[{"name":"용문고추집","tel":"031-771-4463","addr":"경기도 양평군 용문면 다문리 734-4번지","indutype":"음료식품 - 농·축·수산품","category":"food"}]},{"lat":"37.484468993","long":"127.59188923","imageIndex":7,"items":[{"name":"용문산몸과마음건강원","tel":"031-774-5789","addr":"경기도 양평군 용문면 다문리 716-7번지","indutype":"건강식품 - 기타건강식품","category":"food"}]},{"lat":"37.486692079","long":"127.59235894","imageIndex":7,"items":[{"name":"용문축산","tel":"031-774-4212","addr":"경기도 양평군 용문면 다문리 631-10번지 1층","indutype":"음료식품 - 정육점","category":"food"}]},{"lat":"37.484579011","long":"127.58969666","imageIndex":7,"items":[{"name":"용문축산","tel":"031-774-4111","addr":"경기도 양평군 용문면 다문리 699-1번지 1층","indutype":"음료식품 - 정육점","category":"food"}]},{"lat":"37.482774059","long":"127.59391101","imageIndex":7,"items":[{"name":"용문토박이","tel":"031-774-4287","addr":"경기도 양평군 용문면 다문리 736-13번지","indutype":"음료식품 - 농·축·수산품","category":"food"}]},{"lat":"37.485975261","long":"127.59516864","imageIndex":7,"items":[{"name":"유일","tel":"","addr":"경기도 양평군 용문면 다문리 331-18번지","indutype":"음료식품 - 기타음료식품","category":"food"}]},{"lat":"37.483306883","long":"127.59185749","imageIndex":7,"items":[{"name":"정애반찬","tel":"031-774-6902","addr":"경기도 양평군 용문면 다문리 716-14번지 1층","indutype":"음료식품 - 기타음료식품","category":"food"}]},{"lat":"37.48355458","long":"127.59277523","imageIndex":7,"items":[{"name":"제일식육점","tel":"031-774-3204","addr":"경기도 양평군 용문면 다문리 739-7","indutype":"음료식품 - 정육점","category":"food"}]},{"lat":"37.48377801","long":"127.59313879","imageIndex":7,"items":[{"name":"천리향농산","tel":"031-774-4586","addr":"경기도 양평군 용문면 다문리 739-4번지","indutype":"음료식품 - 농·축·수산품","category":"food"}]},{"lat":"37.484578668","long":"127.59338252","imageIndex":7,"items":[{"name":"파리바게트 용문점","tel":"031-771-8996","addr":"경기도 양평군 용문면 다문리 728-3번지","indutype":"음료식품 - 제과점","category":"food"}]},{"lat":"37.483586177","long":"127.59185968","imageIndex":7,"items":[{"name":"풍기홍삼","tel":"031-773-3539","addr":"경기도 양평군 용문면 다문리 716-12번지","indutype":"건강식품 - 홍삼제품","category":"food"}]},{"lat":"37.484419829","long":"127.5927142","imageIndex":7,"items":[{"name":"형제수산","tel":"031-772-8854","addr":"경기도 양평군 용문면 다문리 721-2번지","indutype":"음료식품 - 농·축·수산품","category":"food"}]}]