[{"lat":"37.748657397","long":"127.51286139","imageIndex":4,"items":[{"name":"가평숯불막국수","tel":"031-582-1110","addr":"경기도 가평군 가평읍 산유리 113-2번지 1층","indutype":"일반휴게음식 - 일반한식","category":"restaurant"}]},{"lat":"37.754858417","long":"127.51227985","imageIndex":4,"items":[{"name":"가평중앙바지락칼국수,막국수,할매순대국","tel":"031-581-9548","addr":"경기도 가평군 가평읍 산유리 195-9번지 1층","indutype":"일반휴게음식 - 일반한식","category":"restaurant"}]},{"lat":"37.7611017","long":"127.49322343","imageIndex":4,"items":[{"name":"귀곡산장","tel":"031-562-8759","addr":"경기도 가평군 가평읍 산유리 742-1","indutype":"일반휴게음식 - 일반한식","category":"restaurant"}]},{"lat":"37.748297619","long":"127.51272277","imageIndex":4,"items":[{"name":"디커피숍","tel":"031-581-0731","addr":"경기도 가평군 가평읍 산유리 106-10번지","indutype":"일반휴게음식 - 서양음식","category":"restaurant"}]},{"lat":"37.745934375","long":"127.51127696","imageIndex":4,"items":[{"name":"뜰","tel":"031-581-3975","addr":"경기도 가평군 가평읍 산유리 431-5번지 1층","indutype":"일반휴게음식 - 일반한식","category":"restaurant"}]},{"lat":"37.745522871","long":"127.51683365","imageIndex":4,"items":[{"name":"리버52로드(RIVER52ROAD)","tel":"031-581-0018","addr":"경기도 가평군 가평읍 산유리 16-1번지 16-3","indutype":"일반휴게음식 - 서양음식","category":"restaurant"}]},{"lat":"37.751191405","long":"127.49535931","imageIndex":4,"items":[{"name":"마리오","tel":"070-7778-2759","addr":"경기도 가평군 가평읍 산유리 728번지","indutype":"일반휴게음식 - 일반한식","category":"restaurant"}]},{"lat":"37.750992491","long":"127.49552819","imageIndex":4,"items":[{"name":"메종(masion)","tel":"","addr":"경기도 가평군 가평읍 산유리 728-17번지 2층","indutype":"일반휴게음식 - 서양음식","category":"restaurant"}]},{"lat":"37.746942133","long":"127.51157885","imageIndex":4,"items":[{"name":"어부의집","tel":"031-582-0968","addr":"경기도 가평군 가평읍 산유리 103-1번지","indutype":"일반휴게음식 - 일반한식","category":"restaurant"}]},{"lat":"37.748551462","long":"127.51443782","imageIndex":4,"items":[{"name":"유동오리","tel":"031-582-0961","addr":"경기도 가평군 가평읍 산유리 73-11번지","indutype":"일반휴게음식 - 일반한식","category":"restaurant"}]},{"lat":"37.750991779","long":"127.49569839","imageIndex":4,"items":[{"name":"카페테라","tel":"031-582-8789","addr":"경기도 가평군 가평읍 산유리 728-10번지","indutype":"일반휴게음식 - 서양음식","category":"restaurant"}]},{"lat":"37.746053374","long":"127.51707559","imageIndex":4,"items":[{"name":"품에","tel":"031-582-8249","addr":"경기도 가평군 가평읍 산유리 11번지","indutype":"일반휴게음식 - 서양음식","category":"restaurant"}]}]