[{"lat":"37.12022635","long":"127.07406255","imageIndex":17,"items":[{"name":"(주)세렉트론","tel":"031-374-1713","addr":"경기도 평택시 진위면 갈곶리 284","indutype":"기타 - 기타 전문점","category":"other"}]},{"lat":"37.127447143","long":"127.06819518","imageIndex":17,"items":[{"name":"㈜우리식품","tel":"031-610-9996","addr":"경기도 평택시 진위면 갈곶리 382-8번지","indutype":"제조업 - 떡","category":"other"}]},{"lat":"37.124285478","long":"127.06631327","imageIndex":17,"items":[{"name":"개미식물원","tel":"031-377-1073","addr":"경기도 평택시 진위면 갈곶리 305-3","indutype":"문화.취미 - 화원","category":"other"},{"name":"꽃들의 향연","tel":"031-375-6726","addr":"경기도 평택시 진위면 갈곶리 305-3번지","indutype":"문화.취미 - 화원","category":"other"},{"name":"미다육","tel":"031-377-4649","addr":"경기도 평택시 진위면 갈곶리 305-3","indutype":"문화.취미 - 화원","category":"other"}]},{"lat":"37.125371367","long":"127.07403361","imageIndex":17,"items":[{"name":"광명상사","tel":"031-378-7005","addr":"경기도 평택시 진위면 갈곶리 248-2","indutype":"건축자재 - 보일러·펌프·샷시","category":"other"}]},{"lat":"37.122699928","long":"127.06574932","imageIndex":17,"items":[{"name":"꽃가람","tel":"070-4412-6922","addr":"경기도 평택시 진위면 갈곶리 330-13","indutype":"문화.취미 - 화원","category":"other"}]},{"lat":"37.122864084","long":"127.07786835","imageIndex":17,"items":[{"name":"대성엔텍주식회사","tel":"031-375-1370","addr":"경기도 평택시 진위면 갈곶리 110-1번지","indutype":"건축자재 - 조명기구","category":"other"}]},{"lat":"37.125091492","long":"127.07494482","imageIndex":17,"items":[{"name":"미래화학","tel":"031-686-7765","addr":"경기도 평택시 진위면 갈곶리 130번지","indutype":"용역 서비스 - 기타용역서비스","category":"other"}]},{"lat":"37.124565162","long":"127.06563834","imageIndex":17,"items":[{"name":"바다수조산업","tel":"031-378-0395","addr":"경기도 평택시 진위면 갈곶리 347-6번지","indutype":"문화.취미 - 수족관","category":"other"}]},{"lat":"37.127645063","long":"127.068758","imageIndex":17,"items":[{"name":"세븐일레븐평택진위갈곶점","tel":"031-1577-0711","addr":"경기도 평택시 진위면 갈곶리 239-1번지","indutype":"유통업 영리 - 편 의 점","category":"other"}]},{"lat":"37.125037681","long":"127.07452842","imageIndex":17,"items":[{"name":"수인산업","tel":"","addr":"경기도 평택시 진위면 갈곶리 130-7번지 외1필지","indutype":"건축자재 - 목재·석재·철물","category":"other"}]},{"lat":"37.125145315","long":"127.07533872","imageIndex":17,"items":[{"name":"엠텍(M Tech)","tel":"031-233-5110","addr":"경기도 평택시 진위면 갈곶리 130-8번지","indutype":"기타 - 기계공구","category":"other"}]},{"lat":"37.126225965","long":"127.07633001","imageIndex":17,"items":[{"name":"영선플라워","tel":"031-378-0363","addr":"경기도 평택시 진위면 갈곶리 150번지","indutype":"문화.취미 - 화원","category":"other"}]},{"lat":"37.127087671","long":"127.06645064","imageIndex":17,"items":[{"name":"영진전기조명","tel":"031-373-0484","addr":"경기도 평택시 진위면 갈곶리 374-1번지 외1필지","indutype":"전기제품 - 기타전기제품","category":"other"}]},{"lat":"37.119731208","long":"127.07333071","imageIndex":17,"items":[{"name":"창대상사","tel":"02-897-6021","addr":"경기도 평택시 진위면 갈곶리 289번지","indutype":"유통업 영리 - 기타유통업","category":"other"}]},{"lat":"37.124141651","long":"127.06567174","imageIndex":17,"items":[{"name":"평화농원","tel":"031-374-5957","addr":"경기도 평택시 진위면 갈곶리 350-1","indutype":"문화.취미 - 화원","category":"other"}]}]