[{"lat":"37.32681117","long":"127.3355095","imageIndex":7,"items":[{"name":"JS식품","tel":"031-797-6160","addr":"경기도 광주시 도척면 진우리 222-14번지 현대파크빌","indutype":"음료식품 - 농·축·수산품","category":"food"}]},{"lat":"37.33334811","long":"127.3370842","imageIndex":7,"items":[{"name":"달달해","tel":"031-761-3994","addr":"경기도 광주시 도척면 진우리 64-2번지 1층","indutype":"음료식품 - 농·축·수산품","category":"food"}]},{"lat":"37.32687956","long":"127.3400004","imageIndex":7,"items":[{"name":"대박농장","tel":"031-762-5381","addr":"경기도 광주시 도척면 진우리 157-3번지","indutype":"음료식품 - 농·축·수산품","category":"food"}]},{"lat":"37.32389928","long":"127.3360834","imageIndex":7,"items":[{"name":"도척약초","tel":"031-798-1089","addr":"경기도 광주시 도척면 진우리 207-11번지 4호","indutype":"음료식품 - 농·축·수산품","category":"food"},{"name":"도척한방생약원","tel":"031-762-5199","addr":"경기도 광주시 도척면 진우리 207-11번지 3호","indutype":"건강식품 - 기타건강식품","category":"food"}]},{"lat":"37.3167932","long":"127.3507176","imageIndex":7,"items":[{"name":"성분도보호작업장","tel":"031-799-0341","addr":"경기도 광주시 도척면 진우리 661번지","indutype":"음료식품 - 기타음료식품","category":"food"}]},{"lat":"37.32759469","long":"127.3324215","imageIndex":7,"items":[{"name":"주식회사 희망플러스","tel":"031-763-1177","addr":"경기도 광주시 도척면 진우리 105번지","indutype":"음료식품 - 미곡상","category":"food"}]},{"lat":"37.32515069","long":"127.3364387","imageIndex":7,"items":[{"name":"태화산건강원","tel":"031-763-5532","addr":"경기도 광주시 도척면 진우리 214-4번지","indutype":"건강식품 - 기타건강식품","category":"food"}]},{"lat":"37.3189583","long":"127.3467227","imageIndex":7,"items":[{"name":"한국비엘 주식회사","tel":"02-3296-4560","addr":"경기도 광주시 도척면 진우리 732-5번지","indutype":"음료식품 - 기타음료식품","category":"food"}]}]