[{"lat":"37.491204555","long":"126.75282867","imageIndex":13,"items":[{"name":"(주)광성리츠","tel":"032-324-9300","addr":"경기도 부천시 상동 401번지 세원빌딩 603호","indutype":"보건위생 - 의료용품","category":"beauty"},{"name":"(주)태진디앤시","tel":"032-324-9300","addr":"경기도 부천시 상동 401번지 세원빌딩 601-2호","indutype":"보건위생 - 의료용품","category":"beauty"},{"name":"아리따움송내수와진점","tel":"032-326-4777","addr":"경기도 부천시 상동 401번지 세원빌딩 105호","indutype":"보건위생 - 화장품","category":"beauty"}]},{"lat":"37.489148639","long":"126.75632943","imageIndex":13,"items":[{"name":"(주)브레인온메디컬","tel":"070-5147-6499","addr":"경기도 부천시 상동 459-2번지 송내프라자 3층 304호","indutype":"보건위생 - 의료용품","category":"beauty"},{"name":"라일왁싱","tel":"032-253-7855","addr":"경기도 부천시 상동 459-2번지 송내프라자 2층 201호","indutype":"보건위생 - 화장품","category":"beauty"},{"name":"메디라인","tel":"070-4259-7619","addr":"경기도 부천시 상동 459-2번지 송내프라자 4층 401호","indutype":"보건위생 - 의료용품","category":"beauty"},{"name":"메디온셀랩","tel":"","addr":"경기도 부천시 상동 459-2번지 송내프라자 4층 406-27호","indutype":"보건위생 - 화장품","category":"beauty"},{"name":"아이퀸눈썹","tel":"032-528-8181","addr":"경기도 부천시 상동 459-2번지 송내프라자 106호","indutype":"보건위생 - 피부미용실","category":"beauty"},{"name":"진메디텍","tel":"02-000-0000","addr":"경기도 부천시 상동 459-2번지 송내프라자 4층 401-26호","indutype":"보건위생 - 의료용품","category":"beauty"},{"name":"퀸스","tel":"032-327-3900","addr":"경기도 부천시 상동 459-2번지 송내프라자 2층 205호","indutype":"보건위생 - 화장품","category":"beauty"},{"name":"통곡산후케어","tel":"032-455-1900","addr":"경기도 부천시 상동 459-2번지 송내프라자 4층 419호","indutype":"보건위생 - 기타대인서비스","category":"beauty"}]},{"lat":"37.487651184","long":"126.75980557","imageIndex":13,"items":[{"name":"(주)신원환경","tel":"032-662-0300","addr":"경기도 부천시 상동 321-7번지","indutype":"보건위생 - 기타대인서비스","category":"beauty"}]},{"lat":"37.496950547","long":"126.74338969","imageIndex":13,"items":[{"name":"(주)아산메디","tel":"070-4236-1237","addr":"경기도 부천시 상동 573-6번지 대림프라자 112호","indutype":"보건위생 - 의료용품","category":"beauty"}]},{"lat":"37.489679057","long":"126.7514995","imageIndex":13,"items":[{"name":"(주)코모스","tel":"032-324-9985","addr":"경기도 부천시 상동 408-4번지 우신프라자 507호","indutype":"보건위생 - 미용재료","category":"beauty"},{"name":"건강미인센타","tel":"032-323-7889","addr":"경기도 부천시 상동 408-4번지 외1필지 우신프라자 206호","indutype":"보건위생 - 화장품","category":"beauty"},{"name":"동아미용실","tel":"032-323-2018","addr":"경기도 부천시 상동 408-4번지 우신PLAZA 106호","indutype":"보건위생 - 미용원","category":"beauty"},{"name":"드루와피부샵","tel":"032-322-7402","addr":"경기도 부천시 상동 408-4번지 우신프라자 204호","indutype":"보건위생 - 피부미용실","category":"beauty"},{"name":"보니따","tel":"032-326-3556","addr":"경기도 부천시 상동 408-4번지 우신프라자 103호","indutype":"보건위생 - 미용원","category":"beauty"},{"name":"킴스쓰리엔에스","tel":"032-324-5450","addr":"경기도 부천시 상동 408-4번지 우신프라자 502호","indutype":"보건위생 - 기타대인서비스","category":"beauty"}]},{"lat":"37.506175225","long":"126.75530081","imageIndex":13,"items":[{"name":"(주)태평양송내영업소박수희","tel":"032-327-4697","addr":"경기도 부천시 상동 535-9번지 시그마타워 3층 301호","indutype":"보건위생 - 화장품","category":"beauty"},{"name":"소금스파","tel":"031-000-0000","addr":"경기도 부천시 상동 535-9번지 시그마타워 603호","indutype":"보건위생 - 화장품","category":"beauty"},{"name":"스와니코코 부천상동","tel":"032-323-7893","addr":"경기도 부천시 상동 535-9번지 시그마타워 1층 104호","indutype":"보건위생 - 화장품","category":"beauty"},{"name":"씨유안경콘택트","tel":"032-322-1123","addr":"경기도 부천시 상동 535-9번지 시그마타워 106호","indutype":"보건위생 - 안경","category":"beauty"},{"name":"아모레","tel":"","addr":"경기도 부천시 상동 535-9번지 시그마타워 3층","indutype":"보건위생 - 화장품","category":"beauty"},{"name":"아모레 카운셀러","tel":"","addr":"경기도 부천시 상동 535-9번지 시그마타워 301호","indutype":"보건위생 - 화장품","category":"beauty"},{"name":"아모레 카운셀러","tel":"032-327-6363","addr":"경기도 부천시 상동 535-9번지 시그마타워 301호","indutype":"보건위생 - 화장품","category":"beauty"},{"name":"아모레 카운셀러","tel":"032-327-6363","addr":"경기도 부천시 상동 535-9번지 시그마타워 301호","indutype":"보건위생 - 화장품","category":"beauty"},{"name":"아모레 카운셀러","tel":"032-327-6363","addr":"경기도 부천시 상동 535-9번지 시그마타워 301호","indutype":"보건위생 - 화장품","category":"beauty"},{"name":"아모레 카운셀러","tel":"032-327-6363","addr":"경기도 부천시 상동 535-9번지 시그마타워 301호","indutype":"보건위생 - 화장품","category":"beauty"},{"name":"아모레카운셀러","tel":"032-327-6363","addr":"경기도 부천시 상동 535-9번지 시그마타워 3층 301호","indutype":"보건위생 - 화장품","category":"beauty"},{"name":"아모레카운셀러","tel":"032-327-6363","addr":"경기도 부천시 상동 535-9번지 시그마타워 301호","indutype":"보건위생 - 화장품","category":"beauty"},{"name":"아모레카운셀러","tel":"032-327-6363","addr":"경기도 부천시 상동 535-9번지 시그마타워 301호","indutype":"보건위생 - 화장품","category":"beauty"},{"name":"아모레카운셀러","tel":"032-327-6363","addr":"경기도 부천시 상동 535-9번지 시그마타워 301호","indutype":"보건위생 - 화장품","category":"beauty"},{"name":"아모레카운셀러","tel":"032-327-6363","addr":"경기도 부천시 상동 535-9번지 시그마타워 301호","indutype":"보건위생 - 화장품","category":"beauty"},{"name":"아모레카운셀러","tel":"032-327-6363","addr":"경기도 부천시 상동 535-9번지 시그마타워 301호","indutype":"보건위생 - 화장품","category":"beauty"},{"name":"아모레카운셀러","tel":"032-327-6363","addr":"경기도 부천시 상동 535-9번지 시그마타워 301호","indutype":"보건위생 - 화장품","category":"beauty"},{"name":"아모레카운셀러","tel":"032-327-6363","addr":"경기도 부천시 상동 535-9번지 시그마타워 301호","indutype":"보건위생 - 화장품","category":"beauty"},{"name":"아모레카운셀러","tel":"032-327-6363","addr":"경기도 부천시 상동 535-9번지 시그마타워 301호","indutype":"보건위생 - 화장품","category":"beauty"},{"name":"아모레카운셀러","tel":"032-327-6363","addr":"경기도 부천시 상동 535-9번지 시그마타워 301호","indutype":"보건위생 - 화장품","category":"beauty"},{"name":"아모레카운셀러","tel":"032-327-6363","addr":"경기도 부천시 상동 535-9번지 시그마타워 301호","indutype":"보건위생 - 화장품","category":"beauty"},{"name":"아모레카운셀러","tel":"032-327-6363","addr":"경기도 부천시 상동 535-9번지 시그마타워 3층 301호","indutype":"보건위생 - 화장품","category":"beauty"},{"name":"아모레카운셀러","tel":"032-663-3979","addr":"경기도 부천시 상동 535-9번지 시그마타워 301호","indutype":"보건위생 - 화장품","category":"beauty"},{"name":"아모레카운셀러","tel":"032-327-6363","addr":"경기도 부천시 상동 535-9번지 시그마타워 301호","indutype":"보건위생 - 화장품","category":"beauty"},{"name":"아모레카운셀러","tel":"032-327-6363","addr":"경기도 부천시 상동 535-9번지 시그마타워 301호","indutype":"보건위생 - 화장품","category":"beauty"},{"name":"아모레카운셀러","tel":"032-327-6363","addr":"경기도 부천시 상동 535-9번지 시그마타워 301호","indutype":"보건위생 - 화장품","category":"beauty"},{"name":"아모레카운셀러","tel":"032-327-6363","addr":"경기도 부천시 상동 535-9번지 시그마타워 301호","indutype":"보건위생 - 화장품","category":"beauty"},{"name":"아모레카운셀러","tel":"032-327-6363","addr":"경기도 부천시 상동 535-9번지 시그마타워 301호","indutype":"보건위생 - 화장품","category":"beauty"},{"name":"아모레카운셀러","tel":"032-327-6363","addr":"경기도 부천시 상동 535-9번지 시그마타워 301호","indutype":"보건위생 - 화장품","category":"beauty"},{"name":"아모레카운셀러","tel":"032-327-6363","addr":"경기도 부천시 상동 535-9번지 시그마타워 301호","indutype":"보건위생 - 화장품","category":"beauty"},{"name":"아모레카운셀러","tel":"032-327-6363","addr":"경기도 부천시 상동 535-9번지 시그마타워 301호","indutype":"보건위생 - 화장품","category":"beauty"},{"name":"아모레카운셀러","tel":"032-327-6363","addr":"경기도 부천시 상동 535-9번지 시그마타워 301호","indutype":"보건위생 - 화장품","category":"beauty"},{"name":"아모레카운셀러","tel":"032-327-6363","addr":"경기도 부천시 상동 535-9번지 시그마타워 301호","indutype":"보건위생 - 화장품","category":"beauty"},{"name":"아모레카운셀러","tel":"032-327-6363","addr":"경기도 부천시 상동 535-9번지 시그마타워 301호","indutype":"보건위생 - 화장품","category":"beauty"},{"name":"아모레카운셀러","tel":"032-327-6363","addr":"경기도 부천시 상동 535-9번지 시그마타워 301호","indutype":"보건위생 - 화장품","category":"beauty"},{"name":"아모레카운셀러","tel":"032-327-6363","addr":"경기도 부천시 상동 535-9번지 시그마타워 3층 301호","indutype":"보건위생 - 화장품","category":"beauty"},{"name":"아모레카운셀러","tel":"032-327-6363","addr":"경기도 부천시 상동 535-9번지 시그마타워 3층 301호","indutype":"보건위생 - 화장품","category":"beauty"},{"name":"아모레카운셀러","tel":"032-327-6363","addr":"경기도 부천시 상동 535-9번지 시그마타워 301호","indutype":"보건위생 - 화장품","category":"beauty"},{"name":"아모레카운셀러","tel":"032-327-6363","addr":"경기도 부천시 상동 535-9번지 시그마타워 301호","indutype":"보건위생 - 화장품","category":"beauty"},{"name":"아모레카운셀터","tel":"032-327-6363","addr":"경기도 부천시 상동 535-9번지 시그마타워 3층 301호","indutype":"보건위생 - 화장품","category":"beauty"},{"name":"아모레카운셀터","tel":"032-327-6363","addr":"경기도 부천시 상동 535-9번지 시그마타워 301호","indutype":"보건위생 - 화장품","category":"beauty"},{"name":"아모레카운셀터","tel":"032-327-6363","addr":"경기도 부천시 상동 535-9번지 시그마타워 301호","indutype":"보건위생 - 화장품","category":"beauty"},{"name":"아모레카운셀터","tel":"032-327-6363","addr":"경기도 부천시 상동 535-9번지 시그마타워 301호","indutype":"보건위생 - 화장품","category":"beauty"},{"name":"아모레카운셀터","tel":"032-656-3469","addr":"경기도 부천시 상동 535-9번지 시그마타워 3층 301호","indutype":"보건위생 - 화장품","category":"beauty"},{"name":"아모레카운셀터","tel":"032-814-6996","addr":"경기도 부천시 상동 535-9번지 시그마타워 301호","indutype":"보건위생 - 화장품","category":"beauty"},{"name":"아모레카운셀터","tel":"032-327-6363","addr":"경기도 부천시 상동 535-9번지 시그마타워 301호","indutype":"보건위생 - 화장품","category":"beauty"},{"name":"아모레카운셀터","tel":"032-327-6363","addr":"경기도 부천시 상동 535-9번지 시그마타워 301호","indutype":"보건위생 - 화장품","category":"beauty"},{"name":"아모레카운셀터","tel":"032-327-6363","addr":"경기도 부천시 상동 535-9번지 시그마타워 301호","indutype":"보건위생 - 화장품","category":"beauty"},{"name":"아모레카운셀터","tel":"032-327-6363","addr":"경기도 부천시 상동 535-9번지 시그마타워 301호","indutype":"보건위생 - 화장품","category":"beauty"},{"name":"이준경락스포츠맛사지","tel":"032-322-7510","addr":"경기도 부천시 상동 535-9번지 시그마타워 307호","indutype":"보건위생 - 기타대인서비스","category":"beauty"},{"name":"인스타일","tel":"032-323-9717","addr":"경기도 부천시 상동 535-9번지 시그마타워 602호","indutype":"보건위생 - 화장품","category":"beauty"},{"name":"휴","tel":"032-321-5322","addr":"경기도 부천시 상동 535-9번지 시그마타워 505호 내 517호","indutype":"보건위생 - 화장품","category":"beauty"},{"name":"힐링-존","tel":"","addr":"경기도 부천시 상동 535-9번지 시그마타워 8층 대량온천랜드 내","indutype":"보건위생 - 기타대인서비스","category":"beauty"}]},{"lat":"37.491230122","long":"126.75213883","imageIndex":13,"items":[{"name":"(주)태평양송내영업소이동점","tel":"032-327-4698","addr":"경기도 부천시 상동 400-1번지 투원프라자 3층","indutype":"보건위생 - 화장품","category":"beauty"},{"name":"(주)태평양송내영엽소정옥자","tel":"032-327-4698","addr":"경기도 부천시 상동 400-1번지 투원프라자 3층","indutype":"보건위생 - 화장품","category":"beauty"},{"name":"미인(  in)","tel":"032-323-5210","addr":"경기도 부천시 상동 400-1번지 두원프라자 205호","indutype":"보건위생 - 피부미용실","category":"beauty"},{"name":"아름다운네일","tel":"031-329-1484","addr":"경기도 부천시 상동 400-1번지 투원21C빌딩 제1층 107호","indutype":"보건위생 - 화장품","category":"beauty"},{"name":"아모레","tel":"032-327-4697","addr":"경기도 부천시 상동 400-1번지 투원빌라 301호","indutype":"보건위생 - 화장품","category":"beauty"},{"name":"아모레","tel":"032-327-4697","addr":"경기도 부천시 상동 400-1번지 투원프라자 301호","indutype":"보건위생 - 화장품","category":"beauty"},{"name":"아모레송내특약점","tel":"032-327-4697","addr":"경기도 부천시 상동 400-1번지 투원프라자","indutype":"보건위생 - 화장품","category":"beauty"},{"name":"아모레송내특약점","tel":"032-327-4697","addr":"경기도 부천시 상동 400-1번지 투원프라자 3층","indutype":"보건위생 - 화장품","category":"beauty"},{"name":"아모레카운셀러","tel":"032-327-4697","addr":"경기도 부천시 상동 400-1번지 투원프라자 3층","indutype":"보건위생 - 화장품","category":"beauty"},{"name":"아모레카운셀러","tel":"032-327-4697","addr":"경기도 부천시 상동 400-1번지 투원프라자 3층 301호","indutype":"보건위생 - 화장품","category":"beauty"},{"name":"아모레카운셀러","tel":"032-327-4698","addr":"경기도 부천시 상동 400-1번지 투원프라자 3층 301호","indutype":"보건위생 - 화장품","category":"beauty"},{"name":"아모레카운셀러","tel":"032-327-4697","addr":"경기도 부천시 상동 400-1번지 투원프라자 301호","indutype":"보건위생 - 화장품","category":"beauty"},{"name":"아모레카운셀러","tel":"032-327-4697","addr":"경기도 부천시 상동 400-1번지 투원프라자 301호","indutype":"보건위생 - 화장품","category":"beauty"},{"name":"아모레카운셀러","tel":"032-327-4697","addr":"경기도 부천시 상동 400-1번지 투원프라자 301호","indutype":"보건위생 - 화장품","category":"beauty"},{"name":"아모레카운셀러","tel":"032-327-4697","addr":"경기도 부천시 상동 400-1번지 투원프라자 3층 301호","indutype":"보건위생 - 화장품","category":"beauty"},{"name":"아모레카운셀러","tel":"032-327-4697","addr":"경기도 부천시 상동 400-1번지 투원프라자 301호","indutype":"보건위생 - 화장품","category":"beauty"},{"name":"아모레카운셀터","tel":"032-327-4697","addr":"경기도 부천시 상동 400-1번지 투원프라자 301호","indutype":"보건위생 - 화장품","category":"beauty"},{"name":"아모레카운셀터","tel":"032-327-4697","addr":"경기도 부천시 상동 400-1번지 투원프라자 301호","indutype":"보건위생 - 화장품","category":"beauty"},{"name":"아모레카운셀터","tel":"032-327-4697","addr":"경기도 부천시 상동 400-1번지 투원프라자 3층 301호","indutype":"보건위생 - 화장품","category":"beauty"},{"name":"아모레카운셀터","tel":"032-327-4697","addr":"경기도 부천시 상동 400-1번지 투원프라자 301호","indutype":"보건위생 - 화장품","category":"beauty"}]},{"lat":"37.492676154","long":"126.74999685","imageIndex":13,"items":[{"name":"(주)태평양송내영업소장명순","tel":"032-327-4698","addr":"경기도 부천시 상동 397번지 반달마을 건영,동아,선경아파트","indutype":"보건위생 - 화장품","category":"beauty"},{"name":"JH뷰티","tel":"031-000-0000","addr":"경기도 부천시 상동 397번지 반달마을 건영,동아,선경아파트","indutype":"보건위생 - 미용재료","category":"beauty"},{"name":"머리못하는집","tel":"032-327-5527","addr":"경기도 부천시 상동 397번지 반달마을 116호~117호","indutype":"보건위생 - 미용원","category":"beauty"},{"name":"블링블링헤어아트","tel":"032-322-3993","addr":"경기도 부천시 상동 397번지 반달마을 종합상가 205호","indutype":"보건위생 - 미용원","category":"beauty"}]},{"lat":"37.507595122","long":"126.74932448","imageIndex":13,"items":[{"name":"(주)해달테크","tel":"032-610-4557","addr":"경기도 부천시 상동 530-1번지 디아뜨갤러리4 1315호","indutype":"보건위생 - 의료용품","category":"beauty"},{"name":"두얼-안","tel":"032-324-3319","addr":"경기도 부천시 상동 530-1번지 111호 일부","indutype":"보건위생 - 미용원","category":"beauty"},{"name":"매난국죽","tel":"","addr":"경기도 부천시 상동 530-1번지 디아뜨갤러리4차 1203호","indutype":"보건위생 - 미용재료","category":"beauty"},{"name":"뮤즈헤어(muse hair)","tel":"","addr":"경기도 부천시 상동 530-1번지 디아뜨갤러리4 122호","indutype":"보건위생 - 미용원","category":"beauty"},{"name":"부천슬링아동발달센터","tel":"032-344-5476","addr":"경기도 부천시 상동 530-1번지 디아뜨갤러리 41031호","indutype":"보건위생 - 기타대인서비스","category":"beauty"},{"name":"세명에이스메디칼","tel":"032-326-4244","addr":"경기도 부천시 상동 530-1번지 상동디아뜨갤러리4차오피스텔 743호","indutype":"보건위생 - 의료용품","category":"beauty"},{"name":"에스","tel":"032-327-4551","addr":"경기도 부천시 상동 530-1번지 디아뜨갤러리4차 1107호","indutype":"보건위생 - 화장품","category":"beauty"},{"name":"주식회사코스모스인터내셔널","tel":"070-7378-8627","addr":"경기도 부천시 상동 530-1번지 디아뜨갤러리4차 13층 1316호","indutype":"보건위생 - 화장품","category":"beauty"},{"name":"커스텀아이디 부천점","tel":"070-8288-6815","addr":"경기도 부천시 상동 530-1번지 437호 디아뜨갤러리4","indutype":"보건위생 - 미용재료","category":"beauty"},{"name":"휴먼티슈서비스","tel":"032-325-8975","addr":"경기도 부천시 상동 530-1번지 디아뜨갤러리4차 850호","indutype":"보건위생 - 의료용품","category":"beauty"}]},{"lat":"37.488094062","long":"126.76491489","imageIndex":13,"items":[{"name":"1001안경마트중동점","tel":"032-656-8776","addr":"경기도 부천시 상동 328-12번지","indutype":"보건위생 - 안경","category":"beauty"},{"name":"조은소리독일보청기부천센터","tel":"032-656-8776","addr":"경기도 부천시 상동 328-12번지 1층 6호","indutype":"보건위생 - 의료용품","category":"beauty"}]},{"lat":"37.502679766","long":"126.75121843","imageIndex":13,"items":[{"name":"88헤어","tel":"","addr":"경기도 부천시 상동 550-3번지 행복한마을서해그랑블 상가동 106호","indutype":"보건위생 - 미용원","category":"beauty"},{"name":"선헤어샵","tel":"032-326-4244","addr":"경기도 부천시 상동 550-3번지 행복한마을 상가 104호","indutype":"보건위생 - 미용원","category":"beauty"},{"name":"어반헤어","tel":"032-677-8945","addr":"경기도 부천시 상동 550-3번지 행복한마을단지 상가 104호","indutype":"보건위생 - 미용원","category":"beauty"}]},{"lat":"37.505149905","long":"126.75188871","imageIndex":13,"items":[{"name":"CHARMANT DESIGN HAIR","tel":"032-328-1032","addr":"경기도 부천시 상동 544-3번지 해피플러스 1층 107호","indutype":"보건위생 - 미용원","category":"beauty"},{"name":"곽재우작명원","tel":"032-228-1800","addr":"경기도 부천시 상동 544-3번지 해피플러스 406호","indutype":"보건위생 - 기타대인서비스","category":"beauty"},{"name":"리베왁싱","tel":"031-7502-2253","addr":"경기도 부천시 상동 544-3번지 해피플러스 704호","indutype":"보건위생 - 피부미용실","category":"beauty"},{"name":"리본테라피","tel":"032-327-1230","addr":"경기도 부천시 상동 544-3번지 해피플러스 401호","indutype":"보건위생 - 피부미용실","category":"beauty"},{"name":"말과놀이아동발달센터","tel":"032-323-6496","addr":"경기도 부천시 상동 544-3번지 해피플러스 5층 508호,509호","indutype":"보건위생 - 기타대인서비스","category":"beauty"},{"name":"문스파","tel":"","addr":"경기도 부천시 상동 544-3번지 706,707,708호","indutype":"보건위생 - 기타대인서비스","category":"beauty"},{"name":"박영아의 1:1 바디케어","tel":"032-328-8833","addr":"경기도 부천시 상동 544-3번지 해피플러스 405호","indutype":"보건위생 - 피부미용실","category":"beauty"},{"name":"브이네일(V.nail)","tel":"031-000-0000","addr":"경기도 부천시 상동 544-3번지 해피플러스 116호","indutype":"보건위생 - 피부미용실","category":"beauty"},{"name":"알파미용재료","tel":"032-323-2605","addr":"경기도 부천시 상동 544-3번지 해피플러스 104호","indutype":"보건위생 - 미용재료","category":"beauty"},{"name":"오케타니(통곡)모유육아상담실","tel":"032-321-5280","addr":"경기도 부천시 상동 544-3번지 해피플러스 109호","indutype":"보건위생 - 기타대인서비스","category":"beauty"}]},{"lat":"37.490426924","long":"126.75151961","imageIndex":13,"items":[{"name":"ES코스메틱","tel":"032-321-4999","addr":"경기도 부천시 상동 407-1번지 대양훼미리코아 107호","indutype":"보건위생 - 미용재료","category":"beauty"},{"name":"솜씨","tel":"032-329-1739","addr":"경기도 부천시 상동 407-1번지 대양빌딩 104호","indutype":"보건위생 - 화장품","category":"beauty"},{"name":"아로마체험실","tel":"032-324-4588","addr":"경기도 부천시 상동 407-1번지 대양훼미리코아 302호","indutype":"보건위생 - 화장품","category":"beauty"}]},{"lat":"37.489875975","long":"126.74257743","imageIndex":13,"items":[{"name":"JANG.E.M","tel":"032-321-5797","addr":"경기도 부천시 상동 614-5번지","indutype":"보건위생 - 미용원","category":"beauty"}]},{"lat":"37.503867641","long":"126.75054719","imageIndex":13,"items":[{"name":"JnK헤어스튜디오","tel":"032-328-7951","addr":"경기도 부천시 상동 546-6번지 서해프라자 207호","indutype":"보건위생 - 미용원","category":"beauty"},{"name":"더에이치사롱","tel":"032-325-2584","addr":"경기도 부천시 상동 546-6번지 서해프라자 109호","indutype":"보건위생 - 미용원","category":"beauty"},{"name":"두잉헤어","tel":"032-213-8123","addr":"경기도 부천시 상동 546-6번지 서해프라자 105호","indutype":"보건위생 - 미용원","category":"beauty"},{"name":"비욘드네일","tel":"032-327-5772","addr":"경기도 부천시 상동 546-6번지 서해프라자 103호","indutype":"보건위생 - 피부미용실","category":"beauty"},{"name":"친환경세상","tel":"032-329-3365","addr":"경기도 부천시 상동 546-6번지 서해프라자 113호","indutype":"보건위생 - 화장품","category":"beauty"}]},{"lat":"37.504736437","long":"126.75235378","imageIndex":13,"items":[{"name":"KS메드","tel":"032-329-8225","addr":"경기도 부천시 상동 544-5번지 그랜드프라자 701호","indutype":"보건위생 - 의료용품","category":"beauty"},{"name":"라마","tel":"032-322-5535","addr":"경기도 부천시 상동 544-5번지 그랜드프라자 3층 301호","indutype":"보건위생 - 기타대인서비스","category":"beauty"},{"name":"미스터힐링","tel":"070-9148-5353","addr":"경기도 부천시 상동 544-5번지 그랜드프라자 403호","indutype":"보건위생 - 기타대인서비스","category":"beauty"},{"name":"미파인드","tel":"070-8810-6401","addr":"경기도 부천시 상동 544-5번지 그랜드프라자 702호 일부","indutype":"보건위생 - 피부미용실","category":"beauty"},{"name":"브로우갤 (BROW GAL)","tel":"032-322-7780","addr":"경기도 부천시 상동 544-5번지 그랜드프라자","indutype":"보건위생 - 화장품","category":"beauty"},{"name":"올리브","tel":"031-521-6768","addr":"경기도 부천시 상동 544-5번지 그랜드프라자 104호","indutype":"보건위생 - 피부미용실","category":"beauty"},{"name":"조연우메이크업","tel":"031-000-0000","addr":"경기도 부천시 상동 544-5번지 그랜드프라자 7층 702-5호","indutype":"보건위생 - 화장품","category":"beauty"}]},{"lat":"37.502008442","long":"126.75330155","imageIndex":13,"items":[{"name":"K조헤어공작소","tel":"070-7465-0733","addr":"경기도 부천시 상동 553-5번지 1층 ,102","indutype":"보건위생 - 미용원","category":"beauty"},{"name":"러브네일","tel":"032-322-4142","addr":"경기도 부천시 상동 553-5번지 1층","indutype":"보건위생 - 피부미용실","category":"beauty"}]},{"lat":"37.492869707","long":"126.7436865","imageIndex":13,"items":[{"name":"NEW(뉴)헤어","tel":"032-322-2356","addr":"경기도 부천시 상동 600-4번지 1층 일부","indutype":"보건위생 - 미용원","category":"beauty"},{"name":"블룸네일","tel":"031-983-5413","addr":"경기도 부천시 상동 600-4번지 1층 101호","indutype":"보건위생 - 피부미용실","category":"beauty"}]},{"lat":"37.503982809","long":"126.74963074","imageIndex":13,"items":[{"name":"SLD_hair","tel":"","addr":"경기도 부천시 상동 546-2번지 두성프라자 101호","indutype":"보건위생 - 미용원","category":"beauty"},{"name":"민케어","tel":"","addr":"경기도 부천시 상동 546-2번지 두성프라자 3층 301호","indutype":"보건위생 - 피부미용실","category":"beauty"},{"name":"수뷰티살롱","tel":"02-2679-6605","addr":"경기도 부천시 상동 546-2번지 두성프라자 101호","indutype":"보건위생 - 미용원","category":"beauty"},{"name":"주식회사레브케어","tel":"070-5029-6323","addr":"경기도 부천시 상동 546-2번지 두성프라자 302호","indutype":"보건위생 - 화장품","category":"beauty"},{"name":"하나안마원","tel":"032-321-7954","addr":"경기도 부천시 상동 546-2번지 두성프라자 303호","indutype":"보건위생 - 안마시술소","category":"beauty"}]},{"lat":"37.500619683","long":"126.75271811","imageIndex":13,"items":[{"name":"가비주헤어","tel":"032-323-5288","addr":"경기도 부천시 상동 556-3번지","indutype":"보건위생 - 미용원","category":"beauty"},{"name":"다나디톡스족욕","tel":"032-327-0426","addr":"경기도 부천시 상동 556-3번지 1층 좌측","indutype":"보건위생 - 기타대인서비스","category":"beauty"}]},{"lat":"37.490651253","long":"126.75535206","imageIndex":13,"items":[{"name":"가우림스코리아","tel":"032-865-6655","addr":"경기도 부천시 상동 453번지 송화빌딩 706호","indutype":"보건위생 - 화장품","category":"beauty"}]},{"lat":"37.493376122","long":"126.75291189","imageIndex":13,"items":[{"name":"가위손헤어클럽","tel":"032-323-1430","addr":"경기도 부천시 상동 395번지 반달마을삼익 상가 112호","indutype":"보건위생 - 미용원","category":"beauty"},{"name":"머리만들기","tel":"032-328-8207","addr":"경기도 부천시 상동 395,반달삼익상가203호","indutype":"보건위생 - 미용원","category":"beauty"},{"name":"정아미용실","tel":"032-325-0249","addr":"경기도 부천시 상동 395번지 반달마을삼익 상가 204호","indutype":"보건위생 - 미용원","category":"beauty"}]},{"lat":"37.48906826","long":"126.7523835","imageIndex":13,"items":[{"name":"가티헤어","tel":"070-7804-0062","addr":"경기도 부천시 상동 413번지 상동스카이뷰자이 215호","indutype":"보건위생 - 미용원","category":"beauty"},{"name":"마음셈 심리상담센터","tel":"032-326-9879","addr":"경기도 부천시 상동 413번지 상동스카이뷰자이 2층 204호","indutype":"보건위생 - 기타대인서비스","category":"beauty"},{"name":"미니살롱(MINI salon)","tel":"","addr":"경기도 부천시 상동 413번지 상동스카이뷰자이 109호","indutype":"보건위생 - 미용원","category":"beauty"},{"name":"스카이뷰티","tel":"","addr":"경기도 부천시 상동 413번지 상동스카이뷰자이 상가 2층 221호","indutype":"보건위생 - 피부미용실","category":"beauty"},{"name":"헤어바이 반룬하우트(부천송내점)","tel":"032-325-1278","addr":"경기도 부천시 상동 413번지 상동스카이뷰자이 220호","indutype":"보건위생 - 미용원","category":"beauty"}]},{"lat":"37.492481823","long":"126.76487835","imageIndex":13,"items":[{"name":"강남족욕","tel":"","addr":"경기도 부천시 상동 236-45번지 1층","indutype":"보건위생 - 기타대인서비스","category":"beauty"}]},{"lat":"37.489986975","long":"126.74388868","imageIndex":13,"items":[{"name":"갤러리아","tel":"032-505-7112","addr":"경기도 부천시 상동 610-5번지","indutype":"보건위생 - 화장품","category":"beauty"}]},{"lat":"37.504177707","long":"126.7522991","imageIndex":13,"items":[{"name":"건영셀트리온스킨큐어부천점","tel":"032-201-0790","addr":"경기도 부천시 상동 544-9번지 수석프라자 5층 504호","indutype":"보건위생 - 화장품","category":"beauty"},{"name":"에스뷰티","tel":"032-327-7942","addr":"경기도 부천시 상동 544-9번지 수석프라자 3층 303호","indutype":"보건위생 - 피부미용실","category":"beauty"},{"name":"오렌즈 상동점","tel":"032-323-1041","addr":"경기도 부천시 상동 544-9번지 수석프라자 1층 101호","indutype":"보건위생 - 안경","category":"beauty"},{"name":"으뜸플러스 상동점","tel":"032-321-0535","addr":"경기도 부천시 상동 544-9번지 수석프라자 402호","indutype":"보건위생 - 안경","category":"beauty"}]},{"lat":"37.506926978","long":"126.75288934","imageIndex":13,"items":[{"name":"결이고은 에스테틱 (부천점)","tel":"032-322-6265","addr":"경기도 부천시 상동 534-3번지 상동프라자 4동 405층","indutype":"보건위생 - 피부미용실","category":"beauty"},{"name":"구성커뮤니케이션즈(구성심리상담센터)","tel":"070-7862-6967","addr":"경기도 부천시 상동 534-3번지 상동프라자 505호","indutype":"보건위생 - 기타대인서비스","category":"beauty"},{"name":"남대문안경","tel":"032-325-3270","addr":"경기도 부천시 상동 534-3번지 상동프라자 207호","indutype":"보건위생 - 안경","category":"beauty"},{"name":"네일숲","tel":"032-323-3039","addr":"경기도 부천시 상동 534-3번지 상동프라자 116호","indutype":"보건위생 - 화장품","category":"beauty"},{"name":"네일앤태닝","tel":"","addr":"경기도 부천시 상동 534-3번지 상동프라자 406호 일부","indutype":"보건위생 - 피부미용실","category":"beauty"},{"name":"뉴뷰티클리닉","tel":"032-329-9146","addr":"경기도 부천시 상동 534-3번지 상동프라자 6층 603호","indutype":"보건위생 - 화장품","category":"beauty"},{"name":"르바디","tel":"032-322-8776","addr":"경기도 부천시 상동 534-3번지 상동프라자 401호","indutype":"보건위생 - 피부미용실","category":"beauty"},{"name":"메디브릿지","tel":"070-9274-3807","addr":"경기도 부천시 상동 534-3번지 상동프라자 703호","indutype":"보건위생 - 의료용품","category":"beauty"},{"name":"모튬헤어살롱","tel":"032-322-9919","addr":"경기도 부천시 상동 534-3번지 상동프라자 203호","indutype":"보건위생 - 미용원","category":"beauty"},{"name":"미단","tel":"032-326-7276","addr":"경기도 부천시 상동 534-3번지 상동프라자 2층 206호","indutype":"보건위생 - 기타대인서비스","category":"beauty"},{"name":"베레쉬트가족심리상담센터","tel":"032-322-6644","addr":"경기도 부천시 상동 534-3번지 상동프라자 406호","indutype":"보건위생 - 기타대인서비스","category":"beauty"},{"name":"성원 케어텍","tel":"031-111-1111","addr":"경기도 부천시 상동 534-3번지 701,702호","indutype":"보건위생 - 의료용품","category":"beauty"},{"name":"엘룩스헤어","tel":"032-661-9973","addr":"경기도 부천시 상동 534-3번지 상동프라자 211호","indutype":"보건위생 - 미용원","category":"beauty"},{"name":"크레이지왁싱 부천점","tel":"032-321-7663","addr":"경기도 부천시 상동 534-3번지 상동프라자 4층 406호","indutype":"보건위생 - 피부미용실","category":"beauty"},{"name":"해피","tel":"032-323-1988","addr":"경기도 부천시 상동 534-3번지 상동프라자 2층 206호","indutype":"보건위생 - 화장품","category":"beauty"},{"name":"효소체험힐링타운","tel":"032-322-3213","addr":"경기도 부천시 상동 534-3번지 상동프라자 4층 409호","indutype":"보건위생 - 피부미용실","category":"beauty"}]},{"lat":"37.487540619","long":"126.76301709","imageIndex":13,"items":[{"name":"경 힐링","tel":"070-4409-8573","addr":"경기도 부천시 상동 327-31번지 1층 일부","indutype":"보건위생 - 피부미용실","category":"beauty"}]},{"lat":"37.490120588","long":"126.75152064","imageIndex":13,"items":[{"name":"경인건강생활","tel":"032-326-3788","addr":"경기도 부천시 상동 408번지 나진빌딩 6층 603호","indutype":"보건위생 - 화장품","category":"beauty"}]},{"lat":"37.504451757","long":"126.74983273","imageIndex":13,"items":[{"name":"계림체형관리","tel":"032-322-3030","addr":"경기도 부천시 상동 545-18번지 대야하이빌 401호","indutype":"보건위생 - 피부미용실","category":"beauty"}]},{"lat":"37.501839877","long":"126.75454611","imageIndex":13,"items":[{"name":"공감헤어","tel":"02-0000-0000","addr":"경기도 부천시 상동 564-8번지 102호","indutype":"보건위생 - 미용원","category":"beauty"},{"name":"서남숙헤어갤러리","tel":"032-325-1746","addr":"경기도 부천시 상동 564-8번지 102호","indutype":"보건위생 - 미용원","category":"beauty"}]},{"lat":"37.506811218","long":"126.74930452","imageIndex":13,"items":[{"name":"공살롱","tel":"032-322-4131","addr":"경기도 부천시 상동 531-3번지 광장프라자 106호","indutype":"보건위생 - 미용원","category":"beauty"},{"name":"더플러스","tel":"032-571-7041","addr":"경기도 부천시 상동 531-3번지 광장프라자 4층 410호","indutype":"보건위생 - 의료용품","category":"beauty"}]},{"lat":"37.505063614","long":"126.75368722","imageIndex":13,"items":[{"name":"괄사피부마사지","tel":"02-111-1111","addr":"경기도 부천시 상동 541-1번지 메가플러스빌딩 2층 206호","indutype":"보건위생 - 피부미용실","category":"beauty"},{"name":"네일1215(nail1215)","tel":"032-326-0554","addr":"경기도 부천시 상동 541-1번지 메가플러스 136호","indutype":"보건위생 - 피부미용실","category":"beauty"},{"name":"네일플레이","tel":"032-324-0991","addr":"경기도 부천시 상동 541-1번지 메가플러스빌딩 140호","indutype":"보건위생 - 미용재료","category":"beauty"},{"name":"다움 심리상담연구소","tel":"032-329-0012","addr":"경기도 부천시 상동 541-1번지 메가플러스제3층306-1호","indutype":"보건위생 - 기타대인서비스","category":"beauty"},{"name":"더블리뷰티살롱","tel":"","addr":"경기도 부천시 상동 541-1번지 메가플러스빌딩 213호","indutype":"보건위생 - 피부미용실","category":"beauty"},{"name":"더블유티메소드","tel":"032-322-3233","addr":"경기도 부천시 상동 541-1번지 메가플러스빌딩 305호","indutype":"보건위생 - 화장품","category":"beauty"},{"name":"도연선원","tel":"032-223-6600","addr":"경기도 부천시 상동 541-1번지 메가플러스빌딩 507호","indutype":"보건위생 - 기타대인서비스","category":"beauty"},{"name":"무민하우스아동전문심리발달센터","tel":"032-322-4798","addr":"경기도 부천시 상동 541-1번지 메가플러스 503호 메가플러스","indutype":"보건위생 - 기타대인서비스","category":"beauty"},{"name":"미셀코리아협동조합","tel":"032-326-8844","addr":"경기도 부천시 상동 541-1번지 메가플러스 502호 메가플러스","indutype":"보건위생 - 화장품","category":"beauty"},{"name":"블링블링","tel":"032-324-1771","addr":"경기도 부천시 상동 541-1번지 메가플러스빌딩 1층 135호","indutype":"보건위생 - 피부미용실","category":"beauty"},{"name":"비너스","tel":"","addr":"경기도 부천시 상동 541-1번지 메가플러스빌딩 11층 1101호","indutype":"보건위생 - 화장품","category":"beauty"},{"name":"쁘띠뜨메종","tel":"032-325-7143","addr":"경기도 부천시 상동 541-1번지 메가플러스 131호","indutype":"보건위생 - 미용원","category":"beauty"},{"name":"사운드바디사운드스킨","tel":"032-322-6009","addr":"경기도 부천시 상동 541-1번지 메가플러스빌딩 218호","indutype":"보건위생 - 피부미용실","category":"beauty"},{"name":"새로움 메이크업","tel":"032-323-0321","addr":"경기도 부천시 상동 541-1번지 메가플러스 2층 216호","indutype":"보건위생 - 미용원","category":"beauty"},{"name":"스킨위드브런치","tel":"070-7349-2343","addr":"경기도 부천시 상동 541-1번지 메가플러스(등기상213호) 221호","indutype":"보건위생 - 피부미용실","category":"beauty"},{"name":"시암","tel":"070-1111-1111","addr":"경기도 부천시 상동 541-1번지 메가플러스빌딩 2층 207호","indutype":"보건위생 - 화장품","category":"beauty"},{"name":"예신","tel":"032-327-6766","addr":"경기도 부천시 상동 541-1번지 메가플러스 412-1호","indutype":"보건위생 - 화장품","category":"beauty"},{"name":"우노네일","tel":"032-326-6001","addr":"경기도 부천시 상동 541-1번지 메가플러스빌딩 130호","indutype":"보건위생 - 피부미용실","category":"beauty"},{"name":"유앤유왁싱","tel":"070-7778-6577","addr":"경기도 부천시 상동 541-1번지 메가플러스빌딩 314호 일부","indutype":"보건위생 - 피부미용실","category":"beauty"},{"name":"이니스프리 상동점","tel":"032-752-8888","addr":"경기도 부천시 상동 541-1번지 메가플러스빌딩 124호","indutype":"보건위생 - 화장품","category":"beauty"},{"name":"이지모맞춤가발","tel":"032-325-9969","addr":"경기도 부천시 상동 541-1번지 메가플러스 407호 메가플러스","indutype":"보건위생 - 미용재료","category":"beauty"},{"name":"인앤아웃","tel":"032-233-8999","addr":"경기도 부천시 상동 541-1번지 메가플러스빌딩 2동 3층 314-1호","indutype":"보건위생 - 피부미용실","category":"beauty"},{"name":"행복나눔안경 주식회사","tel":"032-327-9990","addr":"경기도 부천시 상동 541-1번지 메가플러스 101호","indutype":"보건위생 - 안경","category":"beauty"},{"name":"헬로스마일부천점","tel":"032-326-5412","addr":"경기도 부천시 상동 541-1번지 메가플러스빌딩 3층 321호","indutype":"보건위생 - 기타대인서비스","category":"beauty"},{"name":"현준헤어","tel":"032-328-1452","addr":"경기도 부천시 상동 541-1번지 메가플러스 104호","indutype":"보건위생 - 미용원","category":"beauty"}]},{"lat":"37.492344162","long":"126.76363495","imageIndex":13,"items":[{"name":"구피샵","tel":"032-657-2999","addr":"경기도 부천시 상동 235-9번지","indutype":"보건위생 - 화장품","category":"beauty"}]},{"lat":"37.506259339","long":"126.75246179","imageIndex":13,"items":[{"name":"구행쑥뜸","tel":"032-327-8578","addr":"경기도 부천시 상동 534-6번지 비잔티움 2층 209호","indutype":"보건위생 - 피부미용실","category":"beauty"},{"name":"금성사","tel":"032-549-7775","addr":"경기도 부천시 상동 534-6번지 비잔티움상동이스트타워 1004호","indutype":"보건위생 - 기타대인서비스","category":"beauty"},{"name":"네일eun늘","tel":"02-111-1111","addr":"경기도 부천시 상동 534-6번지 비잔티움 219호","indutype":"보건위생 - 피부미용실","category":"beauty"},{"name":"네일앤유 (Nail&U)","tel":"031-000-0000","addr":"경기도 부천시 상동 534-6번지 비잔티움 214호","indutype":"보건위생 - 피부미용실","category":"beauty"},{"name":"도도샵","tel":"032-429-0130","addr":"경기도 부천시 상동 534-6번지 비잔티움","indutype":"보건위생 - 화장품","category":"beauty"},{"name":"미스파","tel":"","addr":"경기도 부천시 상동 534-6번지 비잔티움 223호","indutype":"보건위생 - 피부미용실","category":"beauty"},{"name":"설레임뷰티","tel":"","addr":"경기도 부천시 상동 534-6번지 비잔티움 2층 212호","indutype":"보건위생 - 피부미용실","category":"beauty"},{"name":"소중한아이클리닉부설심리언어연구소","tel":"032-326-3555","addr":"경기도 부천시 상동 534-6번지 비잔티움 상가 213호","indutype":"보건위생 - 기타대인서비스","category":"beauty"},{"name":"안경마을","tel":"032-351-2222","addr":"경기도 부천시 상동 534-6,7번지비잔티움1층110호","indutype":"보건위생 - 안경","category":"beauty"},{"name":"제오헤어(상동점)","tel":"032-329-7570","addr":"경기도 부천시 상동 534-6번지 비잔티움상동 2층 202,224호","indutype":"보건위생 - 미용원","category":"beauty"},{"name":"클릭안경","tel":"032-221-0078","addr":"경기도 부천시 상동 534-6번지 비잔티움상동 118호","indutype":"보건위생 - 안경","category":"beauty"},{"name":"해수아동발달연구소","tel":"032-715-5808","addr":"경기도 부천시 상동 534-6번지 5층 504,505호","indutype":"보건위생 - 기타대인서비스","category":"beauty"}]},{"lat":"37.507430282","long":"126.75229954","imageIndex":13,"items":[{"name":"굿아이안경","tel":"032-326-4007","addr":"경기도 부천시 상동 533-11번지 부건프라자 102호","indutype":"보건위생 - 안경","category":"beauty"},{"name":"로이드밤 상동점","tel":"032-657-8588","addr":"경기도 부천시 상동 533-11번지 부건프라자 302호","indutype":"보건위생 - 미용원","category":"beauty"},{"name":"명손체형관리","tel":"032-324-3588","addr":"경기도 부천시 상동 533-11번지 부건프라자 3층 301호","indutype":"보건위생 - 피부미용실","category":"beauty"},{"name":"신리쯔헤어","tel":"032-328-8080","addr":"경기도 부천시 상동 533-11번지 부건프라자 202호","indutype":"보건위생 - 미용원","category":"beauty"},{"name":"예영로지스","tel":"032-321-3951","addr":"경기도 부천시 상동 533-11번지 부건프라자 201호","indutype":"보건위생 - 화장품","category":"beauty"},{"name":"창","tel":"032-322-1970","addr":"경기도 부천시 상동 533-11번지 부건프라자 304,305호","indutype":"보건위생 - 기타대인서비스","category":"beauty"}]},{"lat":"37.506008898","long":"126.75763115","imageIndex":13,"items":[{"name":"귀족피부관리","tel":"032-321-8007","addr":"경기도 부천시 상동 538-4번지 그린힐 721호","indutype":"보건위생 - 화장품","category":"beauty"},{"name":"네일앓이","tel":"","addr":"경기도 부천시 상동 538-4번지 상록그린힐빌딩 114호","indutype":"보건위생 - 피부미용실","category":"beauty"},{"name":"루라네일(RuRa nail)","tel":"","addr":"경기도 부천시 상동 538-4번지 상록그린힐빌딩 7층 702호 일부","indutype":"보건위생 - 피부미용실","category":"beauty"},{"name":"문(MOON)","tel":"032-322-3133","addr":"경기도 부천시 상동 538-4번지 상록그린힐빌딩 104호","indutype":"보건위생 - 미용원","category":"beauty"},{"name":"심리상담센터 마음소풍","tel":"032-323-1753","addr":"경기도 부천시 상동 538-4번지 상록그린힐빌딩 502호","indutype":"보건위생 - 기타대인서비스","category":"beauty"},{"name":"안스헤어","tel":"032-321-3369","addr":"경기도 부천시 상동 538-4번지 그린힐 106호","indutype":"보건위생 - 미용원","category":"beauty"},{"name":"토러스치과기공소","tel":"032-322-2804","addr":"경기도 부천시 상동 538-4번지 그린힐 302호","indutype":"보건위생 - 의료용품","category":"beauty"}]},{"lat":"37.507094062","long":"126.75521861","imageIndex":13,"items":[{"name":"그곳헤어","tel":"032-322-6227","addr":"경기도 부천시 상동 536-4번지 한솔프라자 116호","indutype":"보건위생 - 미용원","category":"beauty"},{"name":"에코네일","tel":"032-322-9988","addr":"경기도 부천시 상동 536-4번지 한솔프라자 110호","indutype":"보건위생 - 피부미용실","category":"beauty"},{"name":"주식회사아이비에스코리아","tel":"032-326-2345","addr":"경기도 부천시 상동 536-4번지 한솔프라자","indutype":"보건위생 - 화장품","category":"beauty"}]},{"lat":"37.505175323","long":"126.75113089","imageIndex":13,"items":[{"name":"그리미네일","tel":"","addr":"경기도 부천시 상동 544-1번지 로얄타워 303호","indutype":"보건위생 - 피부미용실","category":"beauty"}]},{"lat":"37.503672916","long":"126.7521877","imageIndex":13,"items":[{"name":"그리심마인드허그","tel":"070-7797-1112","addr":"경기도 부천시 상동 544-11번지 새롬프라자 805호","indutype":"보건위생 - 기타대인서비스","category":"beauty"},{"name":"네일이든","tel":"03-232-1502","addr":"경기도 부천시 상동 544-11번지 새롬프라자15차 107호 일부","indutype":"보건위생 - 피부미용실","category":"beauty"},{"name":"디아르떼보스 상동점","tel":"032-328-0778","addr":"경기도 부천시 상동 544-11번지 새롬프라자15차 205호","indutype":"보건위생 - 미용원","category":"beauty"},{"name":"디아르떼뷰띠크","tel":"032-328-0778","addr":"경기도 부천시 상동 544-11번지 새롬프라자15차 2층 205호","indutype":"보건위생 - 미용재료","category":"beauty"},{"name":"밝은눈안경","tel":"032-327-9229","addr":"경기도 부천시 상동 544-11번지 새롬프라자15차 5차 1층 114호","indutype":"보건위생 - 안경","category":"beauty"},{"name":"일칠공헤어(170헤어)","tel":"032-323-0170","addr":"경기도 부천시 상동 544-11번지 새롬프라자15차 203호","indutype":"보건위생 - 미용원","category":"beauty"},{"name":"코리아나피부","tel":"032-327-2167","addr":"경기도 부천시 상동 544-11번지 세롬프라자 407호","indutype":"보건위생 - 화장품","category":"beauty"},{"name":"행복한마을화장품","tel":"032-328-6826","addr":"경기도 부천시 상동 544-11번지 새롬15차프라자 102호","indutype":"보건위생 - 화장품","category":"beauty"},{"name":"화이트케어","tel":"070-4197-8833","addr":"경기도 부천시 상동 544-11번지 새롬프라자15차 305호","indutype":"보건위생 - 피부미용실","category":"beauty"}]},{"lat":"37.490043382","long":"126.75335267","imageIndex":13,"items":[{"name":"글라라미용실","tel":"032-325-3548","addr":"경기도 부천시 상동 412번지 금강리빙스텔 1층 102호","indutype":"보건위생 - 미용원","category":"beauty"},{"name":"글라라헤어샵","tel":"032-325-3548","addr":"경기도 부천시 상동 412번지 금강리빙스텔 102호","indutype":"보건위생 - 미용원","category":"beauty"},{"name":"마음드림심리상담센터","tel":"032-228-2122","addr":"경기도 부천시 상동 412번지 금강리빙스텔 401호","indutype":"보건위생 - 기타대인서비스","category":"beauty"},{"name":"아모레","tel":"032-327-4697","addr":"경기도 부천시 상동 412번지 금강리빙스텔 303호","indutype":"보건위생 - 화장품","category":"beauty"},{"name":"아모레","tel":"032-327-4697","addr":"경기도 부천시 상동 412번지 금강리빙텔 303호","indutype":"보건위생 - 화장품","category":"beauty"},{"name":"아모레","tel":"032-327-4697","addr":"경기도 부천시 상동 412번지 금강리빙스텔 303호","indutype":"보건위생 - 화장품","category":"beauty"},{"name":"아모레 송내특약점","tel":"032-327-4697","addr":"경기도 부천시 상동 412번지 금강리빙스텔 303호","indutype":"보건위생 - 화장품","category":"beauty"},{"name":"아모레 카운셀러","tel":"032-327-4697","addr":"경기도 부천시 상동 412번지 금강리빙스텔 303호","indutype":"보건위생 - 화장품","category":"beauty"},{"name":"아모레 퍼시픽","tel":"032-327-4697","addr":"경기도 부천시 상동 412번지 금강리빙스텔 3층 303호","indutype":"보건위생 - 화장품","category":"beauty"},{"name":"아모레송내특약점","tel":"032-327-4697","addr":"경기도 부천시 상동 412번지 금강리빙스텔 303호","indutype":"보건위생 - 화장품","category":"beauty"},{"name":"아모레송내특약점","tel":"032-327-4697","addr":"경기도 부천시 상동 412번지 금강리빙스텔 303호","indutype":"보건위생 - 화장품","category":"beauty"},{"name":"아모레송내특약점","tel":"032-327-4697","addr":"경기도 부천시 상동 412번지 금강리빙스텔 303호","indutype":"보건위생 - 화장품","category":"beauty"},{"name":"아모레카운셀러","tel":"032-327-4697","addr":"경기도 부천시 상동 412번지 금강리빙스텔 303호","indutype":"보건위생 - 화장품","category":"beauty"},{"name":"아모레카운셀러","tel":"032-327-4697","addr":"경기도 부천시 상동 412번지 금강리빙스텔 303호","indutype":"보건위생 - 화장품","category":"beauty"},{"name":"아모레카운셀러","tel":"032-327-4697","addr":"경기도 부천시 상동 412번지 금강리빙스텔 303호","indutype":"보건위생 - 화장품","category":"beauty"},{"name":"아모레카운셀러","tel":"032-327-4697","addr":"경기도 부천시 상동 412번지 금강리빙스텔 303호","indutype":"보건위생 - 화장품","category":"beauty"},{"name":"아모레카운셀러","tel":"032-327-4697","addr":"경기도 부천시 상동 412번지 금강리빙스텔 303호","indutype":"보건위생 - 화장품","category":"beauty"},{"name":"아모레카운셀러","tel":"032-327-4697","addr":"경기도 부천시 상동 412번지 금강리빙스텔 303호","indutype":"보건위생 - 화장품","category":"beauty"},{"name":"아모레카운셀러","tel":"032-327-4697","addr":"경기도 부천시 상동 412번지 금강리빙스텔 303호","indutype":"보건위생 - 화장품","category":"beauty"},{"name":"아모레카운셀러","tel":"032-362-0573","addr":"경기도 부천시 상동 412번지 금강리빙스텔 303호","indutype":"보건위생 - 화장품","category":"beauty"},{"name":"아모레카운셀러","tel":"032-327-4697","addr":"경기도 부천시 상동 412번지 금강리빙스텔 303동 304호","indutype":"보건위생 - 화장품","category":"beauty"},{"name":"아모레카운셀러","tel":"032-327-4697","addr":"경기도 부천시 상동 412번지 금강리빙스텔 303동 304호","indutype":"보건위생 - 화장품","category":"beauty"},{"name":"아모레카운셀러","tel":"032-327-4697","addr":"경기도 부천시 상동 412번지 금강리빙스텔 303호","indutype":"보건위생 - 화장품","category":"beauty"},{"name":"아모레카운셀러","tel":"032-327-4697","addr":"경기도 부천시 상동 412번지 금강리빙스텔 303호","indutype":"보건위생 - 화장품","category":"beauty"},{"name":"아모레카운셀러","tel":"032-327-4697","addr":"경기도 부천시 상동 412번지 금강리빙스텔 303호","indutype":"보건위생 - 화장품","category":"beauty"},{"name":"아모레카운셀러","tel":"032-327-4697","addr":"경기도 부천시 상동 412번지 금강리빙스텔 303동 304호","indutype":"보건위생 - 화장품","category":"beauty"},{"name":"아모레카운셀러","tel":"032-327-4697","addr":"경기도 부천시 상동 412번지 금강리빙스텔 303호","indutype":"보건위생 - 화장품","category":"beauty"},{"name":"아모레카운셀러","tel":"032-327-4697","addr":"경기도 부천시 상동 412번지 금강리빙스텔 303호","indutype":"보건위생 - 화장품","category":"beauty"},{"name":"아모레카운셀러","tel":"032-327-4697","addr":"경기도 부천시 상동 412번지 금강리빙스텔 303호","indutype":"보건위생 - 화장품","category":"beauty"},{"name":"아모레카운셀터","tel":"032-327-4697","addr":"경기도 부천시 상동 412번지 금강리빙스텔 303호","indutype":"보건위생 - 화장품","category":"beauty"},{"name":"아모레퍼시픽","tel":"032-327-4697","addr":"경기도 부천시 상동 412번지 금강리빙스텔 303호","indutype":"보건위생 - 화장품","category":"beauty"},{"name":"아모레퍼시픽","tel":"032-327-4697","addr":"경기도 부천시 상동 412번지 금강리빙스텔 303호","indutype":"보건위생 - 화장품","category":"beauty"},{"name":"아모레퍼시픽","tel":"032-327-4697","addr":"경기도 부천시 상동 412번지 금강리빙스텔 303호","indutype":"보건위생 - 화장품","category":"beauty"},{"name":"아모레퍼시픽","tel":"032-327-4697","addr":"경기도 부천시 상동 412번지 금강리빙스텔 303호","indutype":"보건위생 - 화장품","category":"beauty"},{"name":"아모레퍼시픽","tel":"032-327-4697","addr":"경기도 부천시 상동 412번지 금강리빙스텔 303호","indutype":"보건위생 - 화장품","category":"beauty"},{"name":"아모레퍼시픽","tel":"032-327-4697","addr":"경기도 부천시 상동 412번지 금강리빙스텔 303호","indutype":"보건위생 - 화장품","category":"beauty"},{"name":"아모레퍼시픽","tel":"032-327-4697","addr":"경기도 부천시 상동 412번지 금강리빙스텔 303호","indutype":"보건위생 - 화장품","category":"beauty"},{"name":"아모레퍼시픽","tel":"032-327-4697","addr":"경기도 부천시 상동 412번지 금강리빙스텔 303호","indutype":"보건위생 - 화장품","category":"beauty"},{"name":"트윈엔젤","tel":"032-461-2233","addr":"경기도 부천시 상동 412번지 금강리빙스텔 1113호","indutype":"보건위생 - 화장품","category":"beauty"},{"name":"한국일면심리발달센타","tel":"032-325-8375","addr":"경기도 부천시 상동 412번지 금강리빙스텔 202호","indutype":"보건위생 - 기타대인서비스","category":"beauty"}]},{"lat":"37.488126854","long":"126.7545802","imageIndex":13,"items":[{"name":"금강보청기(상동점)","tel":"032-329-9275","addr":"경기도 부천시 상동 464-3번지 유은빌딩 706호","indutype":"보건위생 - 의료용품","category":"beauty"},{"name":"미인본가 에스테틱","tel":"032-321-6321","addr":"경기도 부천시 상동 464-3번지 유은빌딩 901호","indutype":"보건위생 - 화장품","category":"beauty"},{"name":"이한헤어","tel":"032-323-7497","addr":"경기도 부천시 상동 464-3번지 유은빌딩 1층 103호","indutype":"보건위생 - 미용원","category":"beauty"}]},{"lat":"37.503929888","long":"126.75016246","imageIndex":13,"items":[{"name":"김경규미용실","tel":"032-325-2060","addr":"경기도 부천시 상동 546-4번지 금호프라자 203호","indutype":"보건위생 - 미용원","category":"beauty"},{"name":"대한불교조계종대륜사","tel":"032-323-7713","addr":"경기도 부천시 상동 546-4번지 금호프라자 401호","indutype":"보건위생 - 기타대인서비스","category":"beauty"}]},{"lat":"37.488183089","long":"126.76438318","imageIndex":13,"items":[{"name":"김종임헤어코디","tel":"032-205-9654","addr":"경기도 부천시 상동 328번지 1층","indutype":"보건위생 - 미용원","category":"beauty"}]},{"lat":"37.4955915641","long":"126.7524408753","imageIndex":13,"items":[{"name":"김준미용실","tel":"032-325-0267","addr":"경기도 부천시 상동 393번지","indutype":"보건위생 - 미용원","category":"beauty"}]},{"lat":"37.490063804","long":"126.75024311","imageIndex":13,"items":[{"name":"까사헤어필","tel":"032-327-7770","addr":"경기도 부천시 상동 399반달마을상가204","indutype":"보건위생 - 미용원","category":"beauty"},{"name":"하나헤어","tel":"032-327-7672","addr":"경기도 부천시 상동 399 반달마을신라상가 116","indutype":"보건위생 - 미용원","category":"beauty"}]},{"lat":"37.490011431","long":"126.76404946","imageIndex":13,"items":[{"name":"깜냥깜냥미용실","tel":"070-4922-1261","addr":"경기도 부천시 상동 246-7번지 월드에스클래스","indutype":"보건위생 - 미용원","category":"beauty"}]},{"lat":"37.507040998","long":"126.75569379","imageIndex":13,"items":[{"name":"꽃보다네일","tel":"","addr":"경기도 부천시 상동 536-6번지 보람씨티프라자 101호","indutype":"보건위생 - 피부미용실","category":"beauty"},{"name":"미스터파마","tel":"031-000-0000","addr":"경기도 부천시 상동 536-6번지 보람씨티프라자 106호","indutype":"보건위생 - 미용원","category":"beauty"},{"name":"바프미용재료","tel":"032-327-1471","addr":"경기도 부천시 상동 536-6번지 보람씨티프라자 105호","indutype":"보건위생 - 미용재료","category":"beauty"},{"name":"왁싱플레이스","tel":"031-326-0303","addr":"경기도 부천시 상동 536-6번지 보람씨티프라자 4층 401호","indutype":"보건위생 - 피부미용실","category":"beauty"},{"name":"퀸즈","tel":"031-326-9479","addr":"경기도 부천시 상동 536-6번지 보람씨티프라자 505호","indutype":"보건위생 - 기타대인서비스","category":"beauty"},{"name":"행복칸오보코(OVOCO)헤어","tel":"032-321-7579","addr":"경기도 부천시 상동 536-6번지 보람씨티프라자 202호","indutype":"보건위생 - 미용원","category":"beauty"}]},{"lat":"37.501231233","long":"126.75647065","imageIndex":13,"items":[{"name":"꾸미는여자(본점)","tel":"032-328-4306","addr":"경기도 부천시 상동 567-3번지 1층","indutype":"보건위생 - 피부미용실","category":"beauty"},{"name":"꾸미는여자(상동)","tel":"032-328-4306","addr":"경기도 부천시 상동 567-3번지","indutype":"보건위생 - 피부미용실","category":"beauty"},{"name":"꾸미는여자/주식회사 와이비코스메디칼","tel":"032-328-4306","addr":"경기도 부천시 상동 567-3번지 1층 일부","indutype":"보건위생 - 화장품","category":"beauty"}]},{"lat":"37.501481524","long":"126.75551987","imageIndex":13,"items":[{"name":"끄레소헤어","tel":"032-323-8800","addr":"경기도 부천시 상동 560-1번지 1층 일부","indutype":"보건위생 - 미용원","category":"beauty"}]},{"lat":"37.506901931","long":"126.75382813","imageIndex":13,"items":[{"name":"끌랑뷰티라운지","tel":"032-321-0031","addr":"경기도 부천시 상동 535-3번지 썬프라자 3층 301호","indutype":"보건위생 - 피부미용실","category":"beauty"},{"name":"신궁중","tel":"032-321-7157","addr":"경기도 부천시 상동 535-3번지 썬프라자 306호,307호","indutype":"보건위생 - 화장품","category":"beauty"},{"name":"얼밥스킨샵 (#)","tel":"032-325-2285","addr":"경기도 부천시 상동 535-3번지 썬프라자 3층 305호","indutype":"보건위생 - 피부미용실","category":"beauty"}]},{"lat":"37.50512386","long":"126.75235249","imageIndex":13,"items":[{"name":"끌리메에스테틱","tel":"032-328-0026","addr":"경기도 부천시 상동 544-4번지 가나베스트타운 308호","indutype":"보건위생 - 화장품","category":"beauty"},{"name":"박승철위그스투디오부천지점","tel":"032-328-5119","addr":"경기도 부천시 상동 544-4번지 가나베스트타운3 507호","indutype":"보건위생 - 미용재료","category":"beauty"},{"name":"버터플라이","tel":"032-347-8188","addr":"경기도 부천시 상동 544-4번지 가나베스트타운3 3층 307호","indutype":"보건위생 - 화장품","category":"beauty"},{"name":"보탬","tel":"032-323-4967","addr":"경기도 부천시 상동 544-4번지 가나베스트타운3 3층 313호","indutype":"보건위생 - 화장품","category":"beauty"},{"name":"소리샘보청기부천점","tel":"032-322-7782","addr":"경기도 부천시 상동 544-4번지 가나베스트타운 302호","indutype":"보건위생 - 의료용품","category":"beauty"},{"name":"주식회사 파동칩과힐링칩","tel":"","addr":"경기도 부천시 상동 544-4번지 가나베스트타운3 10층 10호","indutype":"보건위생 - 미용재료","category":"beauty"}]},{"lat":"37.511117028","long":"126.75310157","imageIndex":13,"items":[{"name":"끌림 스킨앤바디","tel":"032-323-0801","addr":"경기도 부천시 상동 525-3번지 라일락마을 상가동 106호","indutype":"보건위생 - 피부미용실","category":"beauty"},{"name":"이민정헤어샵","tel":"032-327-0322","addr":"경기도 부천시 상동 525-3번지 라일락마을 상가동 104호","indutype":"보건위생 - 미용원","category":"beauty"}]},{"lat":"37.5087011","long":"126.75249888","imageIndex":13,"items":[{"name":"끌림헤어","tel":"032-321-8333","addr":"경기도 부천시 상동 528-3번지 상동라일락마을 103호 상가","indutype":"보건위생 - 미용원","category":"beauty"}]},{"lat":"37.487180453","long":"126.76313131","imageIndex":13,"items":[{"name":"나래미용실","tel":"032-666-9101","addr":"경기도 부천시 상동 327-26번지 1층","indutype":"보건위생 - 미용원","category":"beauty"}]},{"lat":"37.512478181","long":"126.75341373","imageIndex":13,"items":[{"name":"나론 뷰티샵","tel":"032-326-2358","addr":"경기도 부천시 상동 524-1번지","indutype":"보건위생 - 미용원","category":"beauty"}]},{"lat":"37.503788097","long":"126.75127126","imageIndex":13,"items":[{"name":"나우청소년.가족치료연구소","tel":"032-328-7739","addr":"경기도 부천시 상동 546-9번지 청죽타워빌딩 504호","indutype":"보건위생 - 기타대인서비스","category":"beauty"},{"name":"에이치엠헬스케어","tel":"032-290-7325","addr":"경기도 부천시 상동 546-9번지 청죽타워빌딩 704호 중일부","indutype":"보건위생 - 의료용품","category":"beauty"}]},{"lat":"37.489869682","long":"126.75216599","imageIndex":13,"items":[{"name":"나인 헤어","tel":"032-322-3067","addr":"경기도 부천시 상동 409번지 서련코아 107호","indutype":"보건위생 - 미용원","category":"beauty"},{"name":"속눈썹퀸","tel":"070-7325-6215","addr":"경기도 부천시 상동 409번지 서련코아 107호","indutype":"보건위생 - 피부미용실","category":"beauty"},{"name":"엔비원 코스메틱","tel":"032-330-2208","addr":"경기도 부천시 상동 409번지 서련코아 402호","indutype":"보건위생 - 화장품","category":"beauty"}]},{"lat":"37.490844687","long":"126.75307863","imageIndex":13,"items":[{"name":"네오나오송내점","tel":"032-327-6676","addr":"경기도 부천시 상동 403번지 서진프라자 2층 202호","indutype":"보건위생 - 미용원","category":"beauty"},{"name":"탑쓰리헤어(TOP3HAIR)","tel":"032-324-6482","addr":"경기도 부천시 상동 403번지 서진프라자 2층 201호","indutype":"보건위생 - 미용원","category":"beauty"}]},{"lat":"37.503396269","long":"126.75344395","imageIndex":13,"items":[{"name":"네일(Nail)물들이다","tel":"032-231-1212","addr":"경기도 부천시 상동 542-6번지 굿닥터스빌딩 104호","indutype":"보건위생 - 화장품","category":"beauty"},{"name":"부천음악치료연구소","tel":"032-324-9578","addr":"경기도 부천시 상동 542-6번지 메디위즈 502호","indutype":"보건위생 - 기타대인서비스","category":"beauty"},{"name":"상하이중국전통마사지","tel":"032-328-2388","addr":"경기도 부천시 상동 542-6번지 굿닥터스빌딩 403호","indutype":"보건위생 - 피부미용실","category":"beauty"}]},{"lat":"37.503952341","long":"126.75224331","imageIndex":13,"items":[{"name":"네일바이썬(NAIL BY SUN)","tel":"032-329-6765","addr":"경기도 부천시 상동 544-10번지 한빛프라자 107호","indutype":"보건위생 - 피부미용실","category":"beauty"},{"name":"마론뷰티","tel":"032-322-4141","addr":"경기도 부천시 상동 544-10번지 한빛프라자 3층 307호","indutype":"보건위생 - 피부미용실","category":"beauty"},{"name":"벨르아이래쉬","tel":"070-8232-2241","addr":"경기도 부천시 상동 544-10번지 한빛프라자 104호 일부","indutype":"보건위생 - 피부미용실","category":"beauty"},{"name":"벨톤보청기","tel":"032-328-2800","addr":"경기도 부천시 상동 544-10번지 한빛프라자 306호","indutype":"보건위생 - 의료용품","category":"beauty"},{"name":"블루클럽","tel":"032-219-5004","addr":"경기도 부천시 상동 544-10번지 한빛프라자 1층 101호","indutype":"보건위생 - 미용원","category":"beauty"},{"name":"샤인바이스타일","tel":"031-321-2035","addr":"경기도 부천시 상동 544-10번지 한빛프라자 1층 109호","indutype":"보건위생 - 미용원","category":"beauty"},{"name":"아이러브탠","tel":"070-4212-9961","addr":"경기도 부천시 상동 544-10번지 한빛프라자 501호","indutype":"보건위생 - 화장품","category":"beauty"},{"name":"하얀피부","tel":"032-323-0377","addr":"경기도 부천시 상동 544-10번지 한빛프라자 4층 403호","indutype":"보건위생 - 미용재료","category":"beauty"},{"name":"화원","tel":"032-329-8882","addr":"경기도 부천시 상동 544-10번지 한빛프라자 2층 206호","indutype":"보건위생 - 화장품","category":"beauty"}]},{"lat":"37.506784331","long":"126.75791136","imageIndex":13,"items":[{"name":"네일베리","tel":"070-4982-2752","addr":"경기도 부천시 상동 538-1번지 효성프라자 112호","indutype":"보건위생 - 화장품","category":"beauty"},{"name":"더채움(The채움)","tel":"032-326-5955","addr":"경기도 부천시 상동 538-1번지 효성프라자 113호","indutype":"보건위생 - 피부미용실","category":"beauty"},{"name":"성금주헤어","tel":"032-324-0283","addr":"경기도 부천시 상동 538-1번지 효성프라자 1층 110호","indutype":"보건위생 - 미용원","category":"beauty"},{"name":"원케이메디칼(One K Medical)","tel":"032-326-6662","addr":"경기도 부천시 상동 538-1번지 효성프라자 501호내 5호","indutype":"보건위생 - 의료용품","category":"beauty"},{"name":"쮸샵 속눈썹 네일 왁싱","tel":"032-236-3433","addr":"경기도 부천시 상동 538-1번지 효성프라자 118호","indutype":"보건위생 - 피부미용실","category":"beauty"},{"name":"파마미장","tel":"032-327-7133","addr":"경기도 부천시 상동 538-1번지 효성프라자 117호","indutype":"보건위생 - 미용원","category":"beauty"},{"name":"흑룡강피부샵","tel":"","addr":"경기도 부천시 상동 538-1번지 효성프라자 207호","indutype":"보건위생 - 피부미용실","category":"beauty"}]},{"lat":"37.498208832","long":"126.75027221","imageIndex":13,"items":[{"name":"네일봉봉","tel":"032-322-5828","addr":"경기도 부천시 상동 571-4번지 백송마을 상가동","indutype":"보건위생 - 피부미용실","category":"beauty"},{"name":"헤어카페","tel":"032-324-1208","addr":"경기도 부천시 상동 571-4번지 백송마을 상가동 107호","indutype":"보건위생 - 미용원","category":"beauty"}]},{"lat":"37.487426693","long":"126.76460041","imageIndex":13,"items":[{"name":"네일블리","tel":"","addr":"경기도 부천시 상동 329-12번지 1층 일부","indutype":"보건위생 - 피부미용실","category":"beauty"},{"name":"더맨","tel":"032-652-6125","addr":"경기도 부천시 상동 329-12번지 1층 일부 형제빌딩","indutype":"보건위생 - 미용원","category":"beauty"}]},{"lat":"37.5076517","long":"126.75050052","imageIndex":13,"items":[{"name":"네일크리스탈(Nail Crystal)","tel":"032-327-0526","addr":"경기도 부천시 상동 533-3번지 아트프라자 1층 108호","indutype":"보건위생 - 피부미용실","category":"beauty"},{"name":"미에스테틱","tel":"032-259-3166","addr":"경기도 부천시 상동 533-3번지 아트프라자 115호","indutype":"보건위생 - 피부미용실","category":"beauty"},{"name":"상동체형교정센터","tel":"032-324-1888","addr":"경기도 부천시 상동 533-3번지 아트프라자 405호","indutype":"보건위생 - 기타대인서비스","category":"beauty"},{"name":"어딕션","tel":"032-329-3120","addr":"경기도 부천시 상동 533-3번지 아트프라자 105호","indutype":"보건위생 - 피부미용실","category":"beauty"},{"name":"장루이헤어","tel":"","addr":"경기도 부천시 상동 533-3번지 아트프라자 1층 106호","indutype":"보건위생 - 미용원","category":"beauty"},{"name":"지디(GD)코스메틱","tel":"","addr":"경기도 부천시 상동 533-3번지 아트프라자 5층 507호","indutype":"보건위생 - 화장품","category":"beauty"},{"name":"한주화장품","tel":"032-323-5310","addr":"경기도 부천시 상동 533-3번지 아트프라자 507호","indutype":"보건위생 - 화장품","category":"beauty"}]},{"lat":"37.500176302","long":"126.75610092","imageIndex":13,"items":[{"name":"네일품(NAIL PUM)","tel":"031-000-0000","addr":"경기도 부천시 상동 569-4번지 1층 일부","indutype":"보건위생 - 피부미용실","category":"beauty"}]},{"lat":"37.491205248","long":"126.75315658","imageIndex":13,"items":[{"name":"녹십초송내지사","tel":"032-326-4332","addr":"경기도 부천시 상동 401-1번지 송내부건프라자 6층 605호","indutype":"보건위생 - 화장품","category":"beauty"},{"name":"발보드레","tel":"032-322-0775","addr":"경기도 부천시 상동 401-1번지 송내부건프라자 2동 204층","indutype":"보건위생 - 화장품","category":"beauty"},{"name":"유니베라부천상동","tel":"032-326-2300","addr":"경기도 부천시 상동 401-1번지 부건프라자 501호","indutype":"보건위생 - 화장품","category":"beauty"},{"name":"윤인지심리발달센터","tel":"031-326-5287","addr":"경기도 부천시 상동 401-1번지 송내부건프라자 606호","indutype":"보건위생 - 기타대인서비스","category":"beauty"},{"name":"진메디칼","tel":"031-000-0000","addr":"경기도 부천시 상동 401-1번지 송내부건프라자 601호","indutype":"보건위생 - 의료용품","category":"beauty"},{"name":"헤어갤러리","tel":"001-0000-0000","addr":"경기도 부천시 상동 401-1번지 송내부건프라자 205호","indutype":"보건위생 - 미용원","category":"beauty"}]},{"lat":"37.506069188","long":"126.75629641","imageIndex":13,"items":[{"name":"눈보라속눈썹","tel":"","addr":"경기도 부천시 상동 538-7번지 다승프라자 405-4호","indutype":"보건위생 - 피부미용실","category":"beauty"},{"name":"닥터멜라백스","tel":"032-543-6481","addr":"경기도 부천시 상동 538-7번지 다승프라자 201호","indutype":"보건위생 - 화장품","category":"beauty"},{"name":"미애샵","tel":"032-327-2182","addr":"경기도 부천시 상동 538-7번지 다승프라자 307호","indutype":"보건위생 - 화장품","category":"beauty"},{"name":"바디케어센터","tel":"","addr":"경기도 부천시 상동 538-7번지 다승프라자 403호","indutype":"보건위생 - 기타대인서비스","category":"beauty"},{"name":"일성헬스케어","tel":"032-327-9100","addr":"경기도 부천시 상동 538-7번지 다승프라자 9층 902호 일부","indutype":"보건위생 - 의료용품","category":"beauty"},{"name":"청담","tel":"032-323-6375","addr":"경기도 부천시 상동 538-7번지 다승프라자 3층 311호","indutype":"보건위생 - 피부미용실","category":"beauty"},{"name":"코지밸런스","tel":"032-325-7780","addr":"경기도 부천시 상동 538-7번지 다승프라자 302호","indutype":"보건위생 - 화장품","category":"beauty"}]},{"lat":"37.507483813","long":"126.75205055","imageIndex":13,"items":[{"name":"니눈썸","tel":"032-508-0854","addr":"경기도 부천시 상동 533-10번지 토성프라자텔 105호","indutype":"보건위생 - 화장품","category":"beauty"},{"name":"다솔메디칼","tel":"032-325-5407","addr":"경기도 부천시 상동 533-10번지 토성프라자 104호","indutype":"보건위생 - 의료용품","category":"beauty"},{"name":"애플하우스","tel":"032-323-8640","addr":"경기도 부천시 상동 533-10번지 토성프라자텔 304,305호","indutype":"보건위생 - 피부미용실","category":"beauty"},{"name":"위드메디칼","tel":"032-324-8651","addr":"경기도 부천시 상동 533-10번지 토성프라자 402호","indutype":"보건위생 - 의료용품","category":"beauty"}]},{"lat":"37.499818971","long":"126.74488383","imageIndex":13,"items":[{"name":"니피엘","tel":"032-325-8256","addr":"경기도 부천시 상동 572-1번지 부천체육문화센터 3층 골프연습장동","indutype":"보건위생 - 화장품","category":"beauty"},{"name":"베네피아 향수","tel":"","addr":"경기도 부천시 상동 572-1번지 웅진플레이도시 1층 101호","indutype":"보건위생 - 화장품","category":"beauty"}]},{"lat":"37.495591564","long":"126.75244088","imageIndex":13,"items":[{"name":"다만지화장품","tel":"070-8860-1997","addr":"경기도 부천시 상동 393번지 한아름마을 동성,동아,삼환아파트","indutype":"보건위생 - 화장품","category":"beauty"}]},{"lat":"37.491237883","long":"126.75155082","imageIndex":13,"items":[{"name":"다모아","tel":"032-322-3440","addr":"경기도 부천시 상동 400번지 다모아빌딩 지층 01호","indutype":"보건위생 - 사우나","category":"beauty"},{"name":"로데오피트센터","tel":"032-439-5849","addr":"경기도 부천시 상동 400번지 중동다모아쇼핑타운 401호","indutype":"보건위생 - 화장품","category":"beauty"},{"name":"리안헤어","tel":"032-323-7865","addr":"경기도 부천시 상동 400번지","indutype":"보건위생 - 미용원","category":"beauty"},{"name":"벨르바디","tel":"032-326-8974","addr":"경기도 부천시 상동 400번지 다모아빌딩 2층 204호","indutype":"보건위생 - 화장품","category":"beauty"},{"name":"소통테라피(화장품도소매)","tel":"","addr":"경기도 부천시 상동 400번지 다모아빌딩 606호","indutype":"보건위생 - 화장품","category":"beauty"},{"name":"헤어포인트","tel":"032-321-7801","addr":"경기도 부천시 상동 400번지 중동다모아쇼핑타운 104호","indutype":"보건위생 - 미용원","category":"beauty"}]},{"lat":"37.503845996","long":"126.75308056","imageIndex":13,"items":[{"name":"다비치안경원부천상동역점","tel":"032-328-3579","addr":"경기도 부천시 상동 542-4번지 상동동양파라곤 103호","indutype":"보건위생 - 안경","category":"beauty"},{"name":"닥터모락 상동점","tel":"032-329-5875","addr":"경기도 부천시 상동 542-4번지 상동동양파라곤 104호","indutype":"보건위생 - 화장품","category":"beauty"},{"name":"준오헤어 부천상동","tel":"032-323-9605","addr":"경기도 부천시 상동 542-4번지 상동동양파라곤 2동 212층","indutype":"보건위생 - 미용원","category":"beauty"}]},{"lat":"37.501760379","long":"126.75530408","imageIndex":13,"items":[{"name":"다오네일","tel":"","addr":"경기도 부천시 상동 564-14번지","indutype":"보건위생 - 피부미용실","category":"beauty"}]},{"lat":"37.507678246","long":"126.75027424","imageIndex":13,"items":[{"name":"다온헬스케어","tel":"","addr":"경기도 부천시 상동 533-2번지 동양프라자텔 602호","indutype":"보건위생 - 의료용품","category":"beauty"},{"name":"아우라스튜디오","tel":"032-344-3106","addr":"경기도 부천시 상동 533-2번지 동양프라자텔 501호","indutype":"보건위생 - 화장품","category":"beauty"},{"name":"최영헤어","tel":"032-328-3188","addr":"경기도 부천시 상동 533-2번지 동양프라자텔 103호","indutype":"보건위생 - 미용원","category":"beauty"}]},{"lat":"37.507032841","long":"126.75182586","imageIndex":13,"items":[{"name":"다움디자인","tel":"070-8200-1177","addr":"경기도 부천시 상동 532-8번지 우진프라자 지하1층","indutype":"보건위생 - 미용재료","category":"beauty"},{"name":"뷰티포톤피아","tel":"032-213-9862","addr":"경기도 부천시 상동 532-8번지 우진프라자 3층 301호","indutype":"보건위생 - 피부미용실","category":"beauty"},{"name":"프롬제이(From.J)","tel":"070-7337-9151","addr":"경기도 부천시 상동 532-8번지 우진프라자 101호","indutype":"보건위생 - 피부미용실","category":"beauty"}]},{"lat":"37.491203668","long":"126.7524103","imageIndex":13,"items":[{"name":"다은에스테틱","tel":"070-4225-8889","addr":"경기도 부천시 상동 400-3번지 삼희월드프라자 207호","indutype":"보건위생 - 피부미용실","category":"beauty"},{"name":"마임부천송내지사","tel":"032-323-3213","addr":"경기도 부천시 상동 400-3번지 삼희월드프라자 제 3층 308호","indutype":"보건위생 - 화장품","category":"beauty"},{"name":"엔캐슬(Ncastle)","tel":"","addr":"경기도 부천시 상동 400-3번지 상희월드프라자 1층 101호","indutype":"보건위생 - 미용원","category":"beauty"}]},{"lat":"37.488430134","long":"126.76180439","imageIndex":13,"items":[{"name":"댕기머리헤어","tel":"032-683-2282","addr":"경기도 부천시 상동 319-39번지 동해그랑빌 107동 102호","indutype":"보건위생 - 미용원","category":"beauty"}]},{"lat":"37.493201447","long":"126.75987805","imageIndex":13,"items":[{"name":"더네일","tel":"070-4327-1609","addr":"경기도 부천시 상동 420-5번지","indutype":"보건위생 - 피부미용실","category":"beauty"}]},{"lat":"37.490346621","long":"126.75616719","imageIndex":13,"items":[{"name":"더뷰티사이언스","tel":"070-7378-1589","addr":"경기도 부천시 상동 450-1번지 3층 309호","indutype":"보건위생 - 미용재료","category":"beauty"},{"name":"에이엔씨","tel":"032-323-5779","addr":"경기도 부천시 상동 450-1번지 4층","indutype":"보건위생 - 화장품","category":"beauty"}]},{"lat":"37.50373464","long":"126.75155417","imageIndex":13,"items":[{"name":"더블유앰왁싱뷰티(WM왁싱뷰티)","tel":"032-322-9683","addr":"경기도 부천시 상동 546-10번지 월드프라자 303호","indutype":"보건위생 - 피부미용실","category":"beauty"},{"name":"더블유엠(WM)뷰티","tel":"032-325-1177","addr":"경기도 부천시 상동 546-10번지 월드프라자 3층 303호","indutype":"보건위생 - 화장품","category":"beauty"},{"name":"벤자롱스파","tel":"","addr":"경기도 부천시 상동 546-10번지 월드프라자 203호","indutype":"보건위생 - 피부미용실","category":"beauty"},{"name":"슬로우바디(Slow Body)","tel":"032-223-7772","addr":"경기도 부천시 상동 546-10번지 월드프라자 703호","indutype":"보건위생 - 피부미용실","category":"beauty"},{"name":"에이치제이(HJ)헤어클래식","tel":"032-651-2525","addr":"경기도 부천시 상동 546-10번지 월드프라자 111호","indutype":"보건위생 - 미용원","category":"beauty"},{"name":"이철헤어커커 상동점","tel":"032-656-2326","addr":"경기도 부천시 상동 546-10번지 월드프라자 2층 204호","indutype":"보건위생 - 미용원","category":"beauty"}]},{"lat":"37.504396289","long":"126.7534067","imageIndex":13,"items":[{"name":"더시크릿","tel":"032-326-2015","addr":"경기도 부천시 상동 542-1번지 2층 일부 205호","indutype":"보건위생 - 피부미용실","category":"beauty"},{"name":"독일보청기부천센터","tel":"032-328-3222","addr":"경기도 부천시 상동 542-1번지 엠플러스 2층 204호","indutype":"보건위생 - 의료용품","category":"beauty"},{"name":"아리따움상동역점","tel":"032-324-3340","addr":"경기도 부천시 상동 542-1번지 영플러스 127호","indutype":"보건위생 - 화장품","category":"beauty"},{"name":"예쁜여우","tel":"032-322-5421","addr":"경기도 부천시 상동 542-1번지 영플러스 117호","indutype":"보건위생 - 피부미용실","category":"beauty"},{"name":"이가자헤어비스","tel":"032-325-8322","addr":"경기도 부천시 상동 542-1번지 영플러스 203호","indutype":"보건위생 - 미용원","category":"beauty"},{"name":"플러스지압안마원","tel":"031-225-7587","addr":"경기도 부천시 상동 542-1번지 영플러스 2층 206호","indutype":"보건위생 - 안마시술소","category":"beauty"}]},{"lat":"37.513620491","long":"126.75249375","imageIndex":13,"items":[{"name":"더제니샵","tel":"","addr":"경기도 부천시 상동 520-8번지 1층","indutype":"보건위생 - 미용원","category":"beauty"}]},{"lat":"37.504731715","long":"126.75013714","imageIndex":13,"items":[{"name":"더케이메디칼(The-K Medical)","tel":"031-979-6210","addr":"경기도 부천시 상동 545-4번지 맘모스타워 801호내 831호","indutype":"보건위생 - 의료용품","category":"beauty"},{"name":"아이비","tel":"032-822-4546","addr":"경기도 부천시 상동 545-4번지 맘모스타워 404호","indutype":"보건위생 - 화장품","category":"beauty"},{"name":"에이스 코스메틱","tel":"032-326-5232","addr":"경기도 부천시 상동 545-4번지 맘모스타워 302호 일부","indutype":"보건위생 - 화장품","category":"beauty"},{"name":"퍼스트메드","tel":"032-321-5054","addr":"경기도 부천시 상동 545-4번지 맘모스타워 802호의826호","indutype":"보건위생 - 의료용품","category":"beauty"},{"name":"하나미용실","tel":"02-1577-0000","addr":"경기도 부천시 상동 545-4번지 맘모스타워 104호","indutype":"보건위생 - 미용원","category":"beauty"}]},{"lat":"37.504617604","long":"126.75155121","imageIndex":13,"items":[{"name":"더클라씨","tel":"031-111-1111","addr":"경기도 부천시 상동 545-11번지 상동타운 403호","indutype":"보건위생 - 피부미용실","category":"beauty"},{"name":"디앤제이코리아","tel":"","addr":"경기도 부천시 상동 545-11번지 상동타운 602호 일부호 622호","indutype":"보건위생 - 의료용품","category":"beauty"},{"name":"멜라스킨케어","tel":"032-324-2608","addr":"경기도 부천시 상동 545-11번지 상동타운 405호 일부","indutype":"보건위생 - 피부미용실","category":"beauty"},{"name":"쏙!눈썹","tel":"032-684-4019","addr":"경기도 부천시 상동 545-11번지 상동타운 402호","indutype":"보건위생 - 기타대인서비스","category":"beauty"},{"name":"아네모네","tel":"032-321-8871","addr":"경기도 부천시 상동 545-11번지 403-12호","indutype":"보건위생 - 피부미용실","category":"beauty"},{"name":"홍대힐링 체형관리소","tel":"","addr":"경기도 부천시 상동 545-11번지 상동타운 504호","indutype":"보건위생 - 피부미용실","category":"beauty"},{"name":"홍샵","tel":"032-213-4182","addr":"경기도 부천시 상동 545-11번지 상동타운 206호","indutype":"보건위생 - 피부미용실","category":"beauty"}]},{"lat":"37.490758518","long":"126.76368524","imageIndex":13,"items":[{"name":"더페이스샵 상동시장점","tel":"032-612-6440","addr":"경기도 부천시 상동 245-39번지 1층","indutype":"보건위생 - 화장품","category":"beauty"}]},{"lat":"37.501284064","long":"126.75588241","imageIndex":13,"items":[{"name":"더헤어샵","tel":"032-3354-2887","addr":"경기도 부천시 상동 568-14번지 1층","indutype":"보건위생 - 미용원","category":"beauty"}]},{"lat":"37.493148434","long":"126.76038707","imageIndex":13,"items":[{"name":"데일리헤어","tel":"032-000-0000","addr":"경기도 부천시 상동 419번지 1층","indutype":"보건위생 - 미용원","category":"beauty"}]},{"lat":"37.504511143","long":"126.75233192","imageIndex":13,"items":[{"name":"도도한나","tel":"02-6944-2663","addr":"경기도 부천시 상동 544-6번지 센타프라자 504호","indutype":"보건위생 - 피부미용실","category":"beauty"},{"name":"러버블 라운지(LOVABLE LOUNGE)","tel":"032-326-7716","addr":"경기도 부천시 상동 544-6번지 센타프라자 501호 센터프라자","indutype":"보건위생 - 피부미용실","category":"beauty"},{"name":"박선우살롱드헤어(Salon de Hair)","tel":"032-322-6721","addr":"경기도 부천시 상동 544-6번지 센터프라자 103호","indutype":"보건위생 - 미용원","category":"beauty"},{"name":"하나끌레르","tel":"070-8833-0204","addr":"경기도 부천시 상동 544-6번지 센타프라자 307호","indutype":"보건위생 - 미용원","category":"beauty"}]},{"lat":"37.507147439","long":"126.75063794","imageIndex":13,"items":[{"name":"디엔팜(DN팜)","tel":"032-244-4635","addr":"경기도 부천시 상동 532-3번지 대야복합타워 4층 401호","indutype":"보건위생 - 의료용품","category":"beauty"},{"name":"에스오 에스 메디칼","tel":"032-324-5051","addr":"경기도 부천시 상동 532-3번지 대야복합타워 4층 401-2호","indutype":"보건위생 - 의료용품","category":"beauty"},{"name":"케어프러스","tel":"032-323-0040","addr":"경기도 부천시 상동 532-3 대야복합타워 202-1","indutype":"보건위생 - 의료용품","category":"beauty"},{"name":"티에스케이메디칼","tel":"032-326-2139","addr":"경기도 부천시 상동 532-3번지 대야복합타워 2층 202호","indutype":"보건위생 - 의료용품","category":"beauty"},{"name":"한국리바이탈","tel":"032-329-1045","addr":"경기도 부천시 상동 532-3번지 대야복합타워 402호","indutype":"보건위생 - 화장품","category":"beauty"}]},{"lat":"37.495846118","long":"126.7578227","imageIndex":13,"items":[{"name":"띵스네일(Things nail)","tel":"","addr":"경기도 부천시 상동 415번지 상가동 1층 114호","indutype":"보건위생 - 피부미용실","category":"beauty"},{"name":"율 심리연구소","tel":"032-340-2231","addr":"경기도 부천시 상동 415번지 사랑마을 벽산,삼익,선경아파트","indutype":"보건위생 - 기타대인서비스","category":"beauty"},{"name":"조숙미용실","tel":"032-323-9005","addr":"경기도 부천시 상동 415번지 사랑마을제상가동 2층 210호","indutype":"보건위생 - 미용원","category":"beauty"},{"name":"헤어그라피","tel":"032-207-0150","addr":"경기도 부천시 상동 415번지 111호","indutype":"보건위생 - 미용원","category":"beauty"}]},{"lat":"37.507174154","long":"126.75474333","imageIndex":13,"items":[{"name":"라벨르","tel":"032-327-1007","addr":"경기도 부천시 상동 536-2번지 외1필지 월드컵타운 2층 203호","indutype":"보건위생 - 화장품","category":"beauty"},{"name":"승승장구미용실","tel":"032-322-0040","addr":"경기도 부천시 상동 536-2번지 월드컵타운 207호","indutype":"보건위생 - 미용원","category":"beauty"},{"name":"씨엔씨헤어","tel":"032-323-6160","addr":"경기도 부천시 상동 536-2번지 월드컵타운 108호","indutype":"보건위생 - 미용원","category":"beauty"}]},{"lat":"37.501756644","long":"126.75352857","imageIndex":13,"items":[{"name":"라움헤어","tel":"032-322-2308","addr":"경기도 부천시 상동 563-1번지 1층","indutype":"보건위생 - 미용원","category":"beauty"}]},{"lat":"37.491012121","long":"126.75557701","imageIndex":13,"items":[{"name":"라임코스","tel":"","addr":"경기도 부천시 상동 447번지 송내리거스텔 414호","indutype":"보건위생 - 화장품","category":"beauty"},{"name":"박정화연구소","tel":"032-249-8733","addr":"경기도 부천시 상동 447번지 송내리더스텔 417호","indutype":"보건위생 - 기타대인서비스","category":"beauty"},{"name":"일승화장품","tel":"011-***-****","addr":"경기도 부천시 상동 447번지 송내리더스텔 519호","indutype":"보건위생 - 화장품","category":"beauty"}]},{"lat":"37.499264153","long":"126.75507484","imageIndex":13,"items":[{"name":"라진헤어","tel":"032-321-0045","addr":"경기도 부천시 상동 570-3번지 하얀마을 상가 104호","indutype":"보건위생 - 미용원","category":"beauty"}]},{"lat":"37.504679782","long":"126.75113255","imageIndex":13,"items":[{"name":"라파레이","tel":"032-678-7411","addr":"경기도 부천시 상동 545-9번지 한림프라자 6층 605호","indutype":"보건위생 - 화장품","category":"beauty"},{"name":"아이더테크","tel":"032-613-6345","addr":"경기도 부천시 상동 545-9번지 한림프라자 8층 803호","indutype":"보건위생 - 미용재료","category":"beauty"},{"name":"약손","tel":"032-321-2133","addr":"경기도 부천시 상동 545-9번지 한림프라자 405호","indutype":"보건위생 - 피부미용실","category":"beauty"}]},{"lat":"37.487847138","long":"126.76310656","imageIndex":13,"items":[{"name":"라파의료기","tel":"032-655-7582","addr":"경기도 부천시 상동 326-4번지 2층","indutype":"보건위생 - 의료용품","category":"beauty"}]},{"lat":"37.501760071","long":"126.75515706","imageIndex":13,"items":[{"name":"라헬피부사랑","tel":"032-324-8852","addr":"경기도 부천시 상동 564-13번지 일부 1층","indutype":"보건위생 - 화장품","category":"beauty"}]},{"lat":"37.489425272","long":"126.75505081","imageIndex":13,"items":[{"name":"래쉬홀릭","tel":"070-7455-7496","addr":"경기도 부천시 상동 455번지 삼원타운 107호","indutype":"보건위생 - 미용재료","category":"beauty"},{"name":"아이러브네일","tel":"032-326-4665","addr":"경기도 부천시 상동 455번지 삼원타운 1층 108호","indutype":"보건위생 - 피부미용실","category":"beauty"},{"name":"아이맥스안경","tel":"032-321-6200","addr":"경기도 부천시 상동 455번지 삼원빌딩 201호","indutype":"보건위생 - 안경","category":"beauty"},{"name":"아이블링(Eye Bling)","tel":"032-261-3051","addr":"경기도 부천시 상동 455번지 삼원타운 101호","indutype":"보건위생 - 기타대인서비스","category":"beauty"}]},{"lat":"37.489759111","long":"126.75527585","imageIndex":13,"items":[{"name":"레인보우","tel":"032-321-0281","addr":"경기도 부천시 상동 456번지 일번지프라자 1층 117호","indutype":"보건위생 - 피부미용실","category":"beauty"},{"name":"블룸미","tel":"","addr":"경기도 부천시 상동 456번지 일번지프라자 2층 201호","indutype":"보건위생 - 피부미용실","category":"beauty"}]},{"lat":"37.493623375","long":"126.7422478","imageIndex":13,"items":[{"name":"령스헤어(령's Hair)","tel":"032-323-7786","addr":"경기도 부천시 상동 593-1번지 1층 일부","indutype":"보건위생 - 미용원","category":"beauty"}]},{"lat":"37.503982314","long":"126.75363426","imageIndex":13,"items":[{"name":"로얄풋(Royalfoot)","tel":"032-326-0733","addr":"경기도 부천시 상동 543-1번지 승재밀레니엄오피스텔 826호","indutype":"보건위생 - 화장품","category":"beauty"},{"name":"마이헤어샵","tel":"032-323-1177","addr":"경기도 부천시 상동 543-1번지 승재밀레니엄오피스텔 114호","indutype":"보건위생 - 미용원","category":"beauty"},{"name":"미즈","tel":"032-328-0809","addr":"경기도 부천시 상동 543-1번지 승재밀레니엄오피스텔 705호","indutype":"보건위생 - 화장품","category":"beauty"},{"name":"스킨엔(Skin N)","tel":"070-8688-5010","addr":"경기도 부천시 상동 543-1번지 승재밀레니엄오피스텔 2층 205호","indutype":"보건위생 - 화장품","category":"beauty"},{"name":"심설 심리상담센터","tel":"","addr":"경기도 부천시 상동 543-1번지 승재밀레니엄오피스텔 425호","indutype":"보건위생 - 기타대인서비스","category":"beauty"},{"name":"예쁜머리","tel":"032-327-5972","addr":"경기도 부천시 상동 543-1번지 승재밀레니엄오피스텔 2층 204호","indutype":"보건위생 - 미용원","category":"beauty"},{"name":"이쁜이발관리","tel":"032-543-2254","addr":"경기도 부천시 상동 543-1번지 송재밀레니엄 809호","indutype":"보건위생 - 화장품","category":"beauty"},{"name":"퀸즈속눈썹","tel":"070-7522-7715","addr":"경기도 부천시 상동 543-1번지 승재밀레니엄오피스텔 상가 1층 121호","indutype":"보건위생 - 기타대인서비스","category":"beauty"},{"name":"프롬왁싱(from waxing)","tel":"031-111-1111","addr":"경기도 부천시 상동 543-1번지 승재밀레니엄오피스텔 2층 207호","indutype":"보건위생 - 피부미용실","category":"beauty"}]},{"lat":"37.492263984","long":"126.74275006","imageIndex":13,"items":[{"name":"루다헤어","tel":"032-326-0320","addr":"경기도 부천시 상동 599-14번지 1층","indutype":"보건위생 - 미용원","category":"beauty"}]},{"lat":"37.501511849","long":"126.75280561","imageIndex":13,"items":[{"name":"류네일","tel":"032-328-6706","addr":"경기도 부천시 상동 554-4번지 1층 4호","indutype":"보건위생 - 피부미용실","category":"beauty"},{"name":"퀸즈헤나","tel":"032-231-8884","addr":"경기도 부천시 상동 554-4번지 101호","indutype":"보건위생 - 미용원","category":"beauty"}]},{"lat":"37.506952742","long":"126.75657625","imageIndex":13,"items":[{"name":"르네셀","tel":"032-328-1448","addr":"경기도 부천시 상동 537-2번지 아름다운프라자 1층 102호","indutype":"보건위생 - 화장품","category":"beauty"},{"name":"쎄봉에스테틱","tel":"032-325-2555","addr":"경기도 부천시 상동 537-2번지 아름다운프라자 2층 204호","indutype":"보건위생 - 피부미용실","category":"beauty"},{"name":"엘에스테틱","tel":"032-322-0634","addr":"경기도 부천시 상동 537-2번지 아름다운프라자 504호","indutype":"보건위생 - 피부미용실","category":"beauty"},{"name":"헤어컴","tel":"032-325-5828","addr":"경기도 부천시 상동 537-2번지 아름다운프라자 101호 일부","indutype":"보건위생 - 미용원","category":"beauty"}]},{"lat":"37.507262396","long":"126.75386087","imageIndex":13,"items":[{"name":"르레브(LEREVE)","tel":"","addr":"경기도 부천시 상동 535-1번지 뱅뱅프라자 2층 208호","indutype":"보건위생 - 피부미용실","category":"beauty"},{"name":"리나앤보스","tel":"032-218-3000","addr":"경기도 부천시 상동 535-1번지 뱅뱅프라자 205호","indutype":"보건위생 - 미용원","category":"beauty"},{"name":"블루클럽","tel":"032-219-5005","addr":"경기도 부천시 상동 535-1번지 뱅뱅프라자 116호","indutype":"보건위생 - 이용원","category":"beauty"},{"name":"아이세이(I SAY)발달심리연구소","tel":"032-328-1239","addr":"경기도 부천시 상동 535-1번지 뱅뱅프라자 408호","indutype":"보건위생 - 기타대인서비스","category":"beauty"},{"name":"한빛나노메디칼","tel":"032-326-2333","addr":"경기도 부천시 상동 535-1번지 뱅뱅프라자 3층 308호","indutype":"보건위생 - 의료용품","category":"beauty"}]},{"lat":"37.504679372","long":"126.75094029","imageIndex":13,"items":[{"name":"리더스","tel":"","addr":"경기도 부천시 상동 545-8번지 유원프라자 7층","indutype":"보건위생 - 미용재료","category":"beauty"}]},{"lat":"37.508318831","long":"126.75494312","imageIndex":13,"items":[{"name":"리본에스테틱","tel":"032-4203-5429","addr":"경기도 부천시 상동 527-1번지 진달래마을써미트빌 상가동 2층 201호","indutype":"보건위생 - 피부미용실","category":"beauty"},{"name":"에스테틱수","tel":"032-321-5411","addr":"경기도 부천시 상동 527-1번지 진달래마을써미트빌 상가동 201호","indutype":"보건위생 - 피부미용실","category":"beauty"},{"name":"폭스헤어메이크","tel":"032-321-1583","addr":"경기도 부천시 상동 527-1번지 진달래마을써미트빌상가 2층","indutype":"보건위생 - 미용원","category":"beauty"}]},{"lat":"37.500788286","long":"126.75577095","imageIndex":13,"items":[{"name":"리지현헤어박스","tel":"032-325-3565","addr":"경기도 부천시 상동 568-11번지 101호","indutype":"보건위생 - 미용원","category":"beauty"}]},{"lat":"37.504036286","long":"126.74935914","imageIndex":13,"items":[{"name":"리코너13(leecorner13)","tel":"032-321-1377","addr":"경기도 부천시 상동 546-1번지 태영메디칼 1층 109호","indutype":"보건위생 - 미용원","category":"beauty"},{"name":"이안메디칼","tel":"032-322-9893","addr":"경기도 부천시 상동 546-1번지 태영메디칼 602호","indutype":"보건위생 - 의료용품","category":"beauty"}]},{"lat":"37.506593303","long":"126.75274342","imageIndex":13,"items":[{"name":"마법의약손안마원","tel":"032-326-8875","addr":"경기도 부천시 상동 534-5번지 현해프라자 504호","indutype":"보건위생 - 안마시술소","category":"beauty"},{"name":"뷰티랜드","tel":"070-4240-3466","addr":"경기도 부천시 상동 534-5번지 현해프라자 501호","indutype":"보건위생 - 미용재료","category":"beauty"},{"name":"웰킨부천점","tel":"032-327-3038","addr":"경기도 부천시 상동 534-5번지 현해프라자 202호","indutype":"보건위생 - 화장품","category":"beauty"},{"name":"퀸멀티샵","tel":"070-4126-8008","addr":"경기도 부천시 상동 534-5번지 현해프라자 501호","indutype":"보건위생 - 화장품","category":"beauty"},{"name":"헤어뷰","tel":"032-321-4534","addr":"경기도 부천시 상동 534-5번지 현해프라자 201호","indutype":"보건위생 - 미용원","category":"beauty"}]},{"lat":"37.492206581","long":"126.76243679","imageIndex":13,"items":[{"name":"마실머리방","tel":"","addr":"경기도 부천시 상동 232-1번지 1층 일부","indutype":"보건위생 - 미용원","category":"beauty"},{"name":"뷰티달콩","tel":"070-4645-2558","addr":"경기도 부천시 상동 232-1번지 1층 일부","indutype":"보건위생 - 피부미용실","category":"beauty"}]},{"lat":"37.507563314","long":"126.75130383","imageIndex":13,"items":[{"name":"마음으로만드는머리소년","tel":"032-321-2515","addr":"경기도 부천시 상동 533-7번지 진성프라자 204호","indutype":"보건위생 - 미용원","category":"beauty"},{"name":"미나언니붙임머리","tel":"","addr":"경기도 부천시 상동 533-7번지 진성프라자 401호 일부","indutype":"보건위생 - 미용원","category":"beauty"},{"name":"호산테크","tel":"032-323-9664","addr":"경기도 부천시 상동 533-7번지 진성프라자 401호","indutype":"보건위생 - 미용재료","category":"beauty"}]},{"lat":"37.488458062","long":"126.76224528","imageIndex":13,"items":[{"name":"말짜헤어살롱","tel":"032-663-0533","addr":"경기도 부천시 상동 318-13번지 1층","indutype":"보건위생 - 미용원","category":"beauty"}]},{"lat":"37.507704743","long":"126.75002533","imageIndex":13,"items":[{"name":"매일홈스쿨","tel":"02-701-3525","addr":"경기도 부천시 상동 533-1번지 드라마씨티 7동","indutype":"보건위생 - 기타대인서비스","category":"beauty"},{"name":"애프터눈(after brow)","tel":"032-328-2254","addr":"경기도 부천시 상동 533-1번지 드라마씨티 1층 102호일부","indutype":"보건위생 - 피부미용실","category":"beauty"},{"name":"오에스메디칼","tel":"032-327-9888","addr":"경기도 부천시 상동 533-1번지 201-B","indutype":"보건위생 - 의료용품","category":"beauty"},{"name":"좋은사람들","tel":"032-324-8194","addr":"경기도 부천시 상동 533-1번지 드라마씨티 201호","indutype":"보건위생 - 의료용품","category":"beauty"}]},{"lat":"37.506703667","long":"126.75380617","imageIndex":13,"items":[{"name":"머리못하는집","tel":"","addr":"경기도 부천시 상동 535-4번지 다인타운 107호","indutype":"보건위생 - 미용원","category":"beauty"},{"name":"바바헤어","tel":"032-322-5586","addr":"경기도 부천시 상동 535-4번지 다인타운 201호","indutype":"보건위생 - 미용원","category":"beauty"}]},{"lat":"37.492798833","long":"126.76125889","imageIndex":13,"items":[{"name":"머리하는날","tel":"070-6017-5525","addr":"경기도 부천시 상동 226-18번지 현대훼미리타운 가동 101호","indutype":"보건위생 - 미용원","category":"beauty"}]},{"lat":"37.491460376","long":"126.75883209","imageIndex":13,"items":[{"name":"메베코(mebeco)","tel":"032-323-0319","addr":"경기도 부천시 상동 425-11번지 1층","indutype":"보건위생 - 미용원","category":"beauty"}]},{"lat":"37.505289599","long":"126.74979597","imageIndex":13,"items":[{"name":"명인","tel":"032-322-3434","addr":"경기도 부천시 상동 548-6번지 강산타운 1동 206호","indutype":"보건위생 - 피부미용실","category":"beauty"},{"name":"스마트메디케어","tel":"032-322-8013","addr":"경기도 부천시 상동 548-6번지 강산타운 6209호","indutype":"보건위생 - 의료용품","category":"beauty"},{"name":"주식회사 세움메디","tel":"032-321-7305","addr":"경기도 부천시 상동 548-6번지 강산타운 6층 602호 일부","indutype":"보건위생 - 의료용품","category":"beauty"},{"name":"필위그","tel":"032-324-6222","addr":"경기도 부천시 상동 548-6번지 강산타운 403호","indutype":"보건위생 - 미용재료","category":"beauty"}]},{"lat":"37.506591547","long":"126.75619291","imageIndex":13,"items":[{"name":"명품케어","tel":"032-111-1111","addr":"경기도 부천시 상동 537-12번지 반도프라자 4층","indutype":"보건위생 - 화장품","category":"beauty"}]},{"lat":"37.501703325","long":"126.75387933","imageIndex":13,"items":[{"name":"모든헤어살롱","tel":"032-323-3315","addr":"경기도 부천시 상동 562-1번지 101호","indutype":"보건위생 - 미용원","category":"beauty"}]},{"lat":"37.493842795","long":"126.74369444","imageIndex":13,"items":[{"name":"모모방","tel":"032-508-0016","addr":"경기도 부천시 상동 592-1번지 107호","indutype":"보건위생 - 화장품","category":"beauty"},{"name":"민헤어(MIN HAIR)","tel":"","addr":"경기도 부천시 상동 592-1번지","indutype":"보건위생 - 미용원","category":"beauty"}]},{"lat":"37.506230148","long":"126.75144402","imageIndex":13,"items":[{"name":"모모아이아동발달연구소","tel":"032-327-7995","addr":"경기도 부천시 상동 534-9번지 모건시티 502호","indutype":"보건위생 - 기타대인서비스","category":"beauty"},{"name":"아모레퍼시픽뷰레이터","tel":"032-323-7236","addr":"경기도 부천시 상동 534-9번지 모건시티 6층 602호","indutype":"보건위생 - 화장품","category":"beauty"},{"name":"아모레퍼시픽뷰레이터","tel":"032-323-7236","addr":"경기도 부천시 상동 534-9번지 모건시티 3층 303호","indutype":"보건위생 - 화장품","category":"beauty"},{"name":"유향가인","tel":"032-329-3911","addr":"경기도 부천시 상동 534-9번지 모건시티 6층 606호","indutype":"보건위생 - 화장품","category":"beauty"},{"name":"주식회사수앤","tel":"032-1522-0941","addr":"경기도 부천시 상동 534-9번지 모건시티 4층 406호","indutype":"보건위생 - 화장품","category":"beauty"},{"name":"판타스킨","tel":"031-1577-8171","addr":"경기도 부천시 상동 534-9번지 모건시티 405호","indutype":"보건위생 - 화장품","category":"beauty"},{"name":"한국실존치료연구소","tel":"032-322-7275","addr":"경기도 부천시 상동 534-9번지 모건시티 2층 209,210호","indutype":"보건위생 - 기타대인서비스","category":"beauty"}]},{"lat":"37.489927413","long":"126.75821518","imageIndex":13,"items":[{"name":"모찌수(Mozzisu)","tel":"032-725-1379","addr":"경기도 부천시 상동 440-7번지","indutype":"보건위생 - 화장품","category":"beauty"}]},{"lat":"37.506761005","long":"126.75110294","imageIndex":13,"items":[{"name":"무궁화대리운전","tel":"032-1577-1444","addr":"경기도 부천시 상동 532-16 세진프라자201-1호","indutype":"보건위생 - 기타대인서비스","category":"beauty"},{"name":"아모레퍼시픽뷰레이터","tel":"032-323-7236","addr":"경기도 부천시 상동 532-16번지 세진프라자 201호","indutype":"보건위생 - 화장품","category":"beauty"}]},{"lat":"37.507395657","long":"126.75296694","imageIndex":13,"items":[{"name":"뮤즈","tel":"032-327-3566","addr":"경기도 부천시 상동 534-1번지 승재프라자 409호","indutype":"보건위생 - 화장품","category":"beauty"},{"name":"뷰티바 (Beauty Bar)","tel":"","addr":"경기도 부천시 상동 534-1번지 승재프라자 305호","indutype":"보건위생 - 피부미용실","category":"beauty"},{"name":"뷰티바 (Beauty Bar)","tel":"","addr":"경기도 부천시 상동 534-1번지 승재프라자 305호 일부","indutype":"보건위생 - 화장품","category":"beauty"},{"name":"뷰티프렌즈 왁싱","tel":"070-7717-5808","addr":"경기도 부천시 상동 534-1번지 승재프라자 306호","indutype":"보건위생 - 피부미용실","category":"beauty"},{"name":"상동에듀플렉스","tel":"032-327-7908","addr":"경기도 부천시 상동 534-1번지 승재프라자 702호","indutype":"보건위생 - 기타대인서비스","category":"beauty"},{"name":"제인샵","tel":"032-326-4140","addr":"경기도 부천시 상동 534-1번지 승재프라자 2층 208호","indutype":"보건위생 - 피부미용실","category":"beauty"},{"name":"쿨안경원","tel":"032-328-5536","addr":"경기도 부천시 상동 534-1번지 1층 112,113호","indutype":"보건위생 - 안경","category":"beauty"}]},{"lat":"37.504811374","long":"126.74946961","imageIndex":13,"items":[{"name":"미(  )헤어","tel":"032-323-3335","addr":"경기도 부천시 상동 545-1번지 대양프라자 103호,104호","indutype":"보건위생 - 미용원","category":"beauty"}]},{"lat":"37.506979206","long":"126.75630473","imageIndex":13,"items":[{"name":"미나헤어","tel":"032-329-0958","addr":"경기도 부천시 상동 537-1번지 크라운빌딩 101호","indutype":"보건위생 - 미용원","category":"beauty"},{"name":"쉼","tel":"","addr":"경기도 부천시 상동 537-1번지 크라운빌딩 2층 202호","indutype":"보건위생 - 기타대인서비스","category":"beauty"}]},{"lat":"37.488118652","long":"126.75496467","imageIndex":13,"items":[{"name":"미다미","tel":"032-321-6258","addr":"경기도 부천시 상동 463번지 대명그린프라자","indutype":"보건위생 - 화장품","category":"beauty"},{"name":"바른체형교정센터","tel":"032-321-3302","addr":"경기도 부천시 상동 463번지 그린프라자 5층 502호","indutype":"보건위생 - 기타대인서비스","category":"beauty"},{"name":"파파야향기에스테틱","tel":"032-000-0000","addr":"경기도 부천시 상동 463번지 그린프라자 601호","indutype":"보건위생 - 피부미용실","category":"beauty"}]},{"lat":"37.5075368145","long":"126.7515527324","imageIndex":13,"items":[{"name":"미랑컬","tel":"032-327-1955","addr":"경기도 부천시 상동 533-8번지 9,1층 1","indutype":"보건위생 - 미용원","category":"beauty"}]},{"lat":"37.492096364","long":"126.76140815","imageIndex":13,"items":[{"name":"미랑헤어","tel":"032-661-6880","addr":"경기도 부천시 상동 232-24번지 베스트빌 1층","indutype":"보건위생 - 미용원","category":"beauty"}]},{"lat":"37.494375961","long":"126.75708118","imageIndex":13,"items":[{"name":"미사랑헤어","tel":"032-329-7969","addr":"경기도 부천시 상동 417 사랑마을상가2층 203","indutype":"보건위생 - 미용원","category":"beauty"},{"name":"유나미용실","tel":"032-251-8365","addr":"경기도 부천시 상동 417 사랑마을청구상가B9호","indutype":"보건위생 - 미용원","category":"beauty"}]},{"lat":"37.490122245","long":"126.75230083","imageIndex":13,"items":[{"name":"미샤","tel":"032-322-4060","addr":"경기도 부천시 상동 410번지 무궁화 3층 304호","indutype":"보건위생 - 화장품","category":"beauty"}]},{"lat":"37.508035195","long":"126.75718343","imageIndex":13,"items":[{"name":"미소테라피","tel":"032-327-7863","addr":"경기도 부천시 상동 527-3번지 상가동 2층 204호","indutype":"보건위생 - 피부미용실","category":"beauty"},{"name":"수속눈썹","tel":"032-321-7677","addr":"경기도 부천시 상동 527-3번지 진달래상가 201호","indutype":"보건위생 - 기타대인서비스","category":"beauty"},{"name":"퓨리뷰티","tel":"","addr":"경기도 부천시 상동 527-3번지 진달래마을효성센트럴 2224동 2001호","indutype":"보건위생 - 미용재료","category":"beauty"}]},{"lat":"37.490764299","long":"126.75771492","imageIndex":13,"items":[{"name":"미앤박 헤어살롱","tel":"032-327-0999","addr":"경기도 부천시 상동 442-1번지 상동대우마이빌 115호","indutype":"보건위생 - 미용원","category":"beauty"}]},{"lat":"37.493263958","long":"126.75960646","imageIndex":13,"items":[{"name":"미창조","tel":"032-0000-0000","addr":"경기도 부천시 상동 420-3번지 상가 1층","indutype":"보건위생 - 화장품","category":"beauty"}]},{"lat":"37.508957835","long":"126.75036041","imageIndex":13,"items":[{"name":"미헤어","tel":"","addr":"경기도 부천시 상동 528-1번지 라일락마을 상가동 106호","indutype":"보건위생 - 미용원","category":"beauty"},{"name":"뷰티앤","tel":"070-8816-6044","addr":"경기도 부천시 상동 528-1번지 상가동 205호","indutype":"보건위생 - 미용원","category":"beauty"}]},{"lat":"37.492370229","long":"126.76315995","imageIndex":13,"items":[{"name":"미화장품","tel":"","addr":"경기도 부천시 상동 235-17번지 1층","indutype":"보건위생 - 화장품","category":"beauty"},{"name":"하모니(harmony)","tel":"","addr":"경기도 부천시 상동 235-17번지 1층","indutype":"보건위생 - 화장품","category":"beauty"}]},{"lat":"37.502061856","long":"126.75299603","imageIndex":13,"items":[{"name":"박금주헤어","tel":"032-326-7960","addr":"경기도 부천시 상동 553-3","indutype":"보건위생 - 미용원","category":"beauty"}]},{"lat":"37.514255145","long":"126.75869002","imageIndex":13,"items":[{"name":"박진선헤어갤러리","tel":"032-321-4614","addr":"경기도 부천시 상동 500-4번지 103호 상가","indutype":"보건위생 - 미용원","category":"beauty"}]},{"lat":"37.490871022","long":"126.75275063","imageIndex":13,"items":[{"name":"밝은눈안경","tel":"032-343-3339","addr":"경기도 부천시 상동 404번지 1층","indutype":"보건위생 - 안경","category":"beauty"}]},{"lat":"37.500594231","long":"126.75346458","imageIndex":13,"items":[{"name":"백두산사우나","tel":"032-329-6680","addr":"경기도 부천시 상동 557-4번지 늘푸른종합상가 지하1층","indutype":"보건위생 - 사우나","category":"beauty"},{"name":"헤어피플","tel":"032-323-0059","addr":"경기도 부천시 상동 557-4번지 늘푸른종합상가 112호","indutype":"보건위생 - 미용원","category":"beauty"}]},{"lat":"37.491570663","long":"126.76430456","imageIndex":13,"items":[{"name":"버르장머리미용실","tel":"032-661-0042","addr":"경기도 부천시 상동 237-44번지 1층","indutype":"보건위생 - 미용원","category":"beauty"}]},{"lat":"37.504398642","long":"126.75027398","imageIndex":13,"items":[{"name":"벗지","tel":"032-326-7780","addr":"경기도 부천시 상동 545-16번지 삼성프라자 201호","indutype":"보건위생 - 미용재료","category":"beauty"},{"name":"삼덴탈","tel":"070-7432-3897","addr":"경기도 부천시 상동 545-16번지 삼성프라자401,422호","indutype":"보건위생 - 의료용품","category":"beauty"}]},{"lat":"37.48801346","long":"126.76072026","imageIndex":13,"items":[{"name":"부천서부대리점","tel":"032-203-5285","addr":"경기도 부천시 상동 322번지 혜신빌딩 4층","indutype":"보건위생 - 화장품","category":"beauty"}]},{"lat":"37.490011506","long":"126.75533155","imageIndex":13,"items":[{"name":"뷰티시그널","tel":"","addr":"경기도 부천시 상동 452-4번지 양지프라자 304호","indutype":"보건위생 - 피부미용실","category":"beauty"},{"name":"하얀피부","tel":"032-322-9915","addr":"경기도 부천시 상동 452-4번지 양지프라자 지하1층 101호","indutype":"보건위생 - 화장품","category":"beauty"}]},{"lat":"37.487065568","long":"126.76423974","imageIndex":13,"items":[{"name":"뷰티크레딧","tel":"032-668-7500","addr":"경기도 부천시 상동 329-5번지 1층","indutype":"보건위생 - 화장품","category":"beauty"}]},{"lat":"37.488126673","long":"126.76321874","imageIndex":13,"items":[{"name":"뷰티페이스","tel":"032-327-9903","addr":"경기도 부천시 상동 326번지","indutype":"보건위생 - 화장품","category":"beauty"}]},{"lat":"37.50134059","long":"126.75277225","imageIndex":13,"items":[{"name":"블랙슈가링","tel":"","addr":"경기도 부천시 상동 554-5번지 1층 101호","indutype":"보건위생 - 피부미용실","category":"beauty"}]},{"lat":"37.506787335","long":"126.75077487","imageIndex":13,"items":[{"name":"블루","tel":"032-329-1009","addr":"경기도 부천시 상동 532-17번지 중앙프라자 7층","indutype":"보건위생 - 미용재료","category":"beauty"},{"name":"청담케어도소매","tel":"032-321-1527","addr":"경기도 부천시 상동 532-17번지 중앙프라자 7층 701호","indutype":"보건위생 - 화장품","category":"beauty"}]},{"lat":"37.490401623","long":"126.75233382","imageIndex":13,"items":[{"name":"블루크럽","tel":"032-324-6011","addr":"경기도 부천시 상동 405-3번지","indutype":"보건위생 - 미용원","category":"beauty"},{"name":"새로고침","tel":"031-000-0000","addr":"경기도 부천시 상동 405-3번지 무궁화 208호","indutype":"보건위생 - 피부미용실","category":"beauty"},{"name":"우리치과기공소","tel":"032-326-7572","addr":"경기도 부천시 상동 405-3번지 3층 304호 (3층)","indutype":"보건위생 - 의료용품","category":"beauty"}]},{"lat":"37.506979671","long":"126.7522445","imageIndex":13,"items":[{"name":"비비왁싱","tel":"032-324-0573","addr":"경기도 부천시 상동 532-10번지 태평양프라자 2층 204호","indutype":"보건위생 - 피부미용실","category":"beauty"}]},{"lat":"37.501618468","long":"126.7563789","imageIndex":13,"items":[{"name":"비아이메디코스","tel":"070-7715-5675","addr":"경기도 부천시 상동 565-4번지","indutype":"보건위생 - 화장품","category":"beauty"}]},{"lat":"37.505342178","long":"126.74910591","imageIndex":13,"items":[{"name":"비투에이 (B2A)왁싱","tel":"032-888-7450","addr":"경기도 부천시 상동 548-4번지 숫모닝오피스텔 302호,303호","indutype":"보건위생 - 피부미용실","category":"beauty"},{"name":"원메디칼","tel":"032-329-7959","addr":"경기도 부천시 상동 548-4번지 굿모닝오피스텔 117호","indutype":"보건위생 - 의료용품","category":"beauty"}]},{"lat":"37.502622114","long":"126.75377449","imageIndex":13,"items":[{"name":"사브리나미용실","tel":"032-323-0661","addr":"경기도 부천시 상동 551-1푸른마을상가2층201","indutype":"보건위생 - 미용원","category":"beauty"},{"name":"헤어카페","tel":"032-507-4957","addr":"경기도 부천시 상동 551-1번지 푸른마을 상가 102호","indutype":"보건위생 - 미용원","category":"beauty"}]},{"lat":"37.490147104","long":"126.75554594","imageIndex":13,"items":[{"name":"산소","tel":"","addr":"경기도 부천시 상동 452-3번지 우진프라자 3층 301호","indutype":"보건위생 - 화장품","category":"beauty"}]},{"lat":"37.490541617","long":"126.76335802","imageIndex":13,"items":[{"name":"산소방미용실","tel":"032-653-7474","addr":"경기도 부천시 상동 244-4번지","indutype":"보건위생 - 미용원","category":"beauty"},{"name":"아라종합화장품","tel":"032-653-6748","addr":"경기도 부천시 상동 244-4번지","indutype":"보건위생 - 화장품","category":"beauty"}]},{"lat":"37.489599298","long":"126.7564071","imageIndex":13,"items":[{"name":"살롱드포레스타","tel":"032-322-2237","addr":"경기도 부천시 상동 459번지 이데아시티 204호","indutype":"보건위생 - 미용원","category":"beauty"}]},{"lat":"37.503814596","long":"126.75102236","imageIndex":13,"items":[{"name":"살롱디아뜨","tel":"032-321-2982","addr":"경기도 부천시 상동 546-8번지 그린프라자 103호","indutype":"보건위생 - 미용원","category":"beauty"},{"name":"실버케어114","tel":"032-323-8106","addr":"경기도 부천시 상동 546-8번지 그린프라자 109호","indutype":"보건위생 - 의료용품","category":"beauty"},{"name":"힐링터치스포츠재활센터","tel":"070-5022-4846","addr":"경기도 부천시 상동 546-8번지 그린프라자 603호","indutype":"보건위생 - 기타대인서비스","category":"beauty"}]},{"lat":"37.489790987","long":"126.75329698","imageIndex":13,"items":[{"name":"상동네일 삼육오(365)","tel":"","addr":"경기도 부천시 상동 412-1번지 하이센스빌 107호","indutype":"보건위생 - 피부미용실","category":"beauty"},{"name":"컬리 브라운","tel":"032-326-5455","addr":"경기도 부천시 상동 412-1번지 하이센스빌 206호","indutype":"보건위생 - 미용원","category":"beauty"}]},{"lat":"37.49257069","long":"126.76426746","imageIndex":13,"items":[{"name":"상동더 (THE)안경","tel":"032-111-1111","addr":"경기도 부천시 상동 236-52번지 1층","indutype":"보건위생 - 안경","category":"beauty"}]},{"lat":"37.492370849","long":"126.76346525","imageIndex":13,"items":[{"name":"상동약수탕","tel":"032-654-7571","addr":"경기도 부천시 상동 235-13번지","indutype":"보건위생 - 사우나","category":"beauty"}]},{"lat":"37.498510943","long":"126.74830351","imageIndex":13,"items":[{"name":"서미경헤어샵","tel":"032-327-6273","addr":"경기도 부천시 상동 571-6번지 백송마을상가 1층","indutype":"보건위생 - 미용원","category":"beauty"},{"name":"수연헤어커커","tel":"032-325-7735","addr":"경기도 부천시 상동 571-6번지","indutype":"보건위생 - 미용원","category":"beauty"},{"name":"아이원헤어샵","tel":"032-875-7744","addr":"경기도 부천시 상동 571-6번지 백송마을풍림아이원 상가동 107호","indutype":"보건위생 - 미용원","category":"beauty"},{"name":"이주산업","tel":"032-652-2540","addr":"경기도 부천시 상동 571-6번지 백송마을 2724동 1002호","indutype":"보건위생 - 의료용품","category":"beauty"}]},{"lat":"37.491568007","long":"126.7629929","imageIndex":13,"items":[{"name":"선 (SUN)헤어","tel":"070-4334-7094","addr":"경기도 부천시 상동 240-2번지 1층","indutype":"보건위생 - 미용원","category":"beauty"}]},{"lat":"37.487011966","long":"126.76446605","imageIndex":13,"items":[{"name":"세종당안경","tel":"032-611-2100","addr":"경기도 부천시 상동 329-8번지","indutype":"보건위생 - 안경","category":"beauty"},{"name":"안경마을부천중동역점","tel":"032-655-4728","addr":"경기도 부천시 상동 329-8번지 1층","indutype":"보건위생 - 안경","category":"beauty"}]},{"lat":"37.501594348","long":"126.75347257","imageIndex":13,"items":[{"name":"손길","tel":"032-322-0969","addr":"경기도 부천시 상동 563-8번지","indutype":"보건위생 - 피부미용실","category":"beauty"},{"name":"컷트클럽","tel":"032-329-6383","addr":"경기도 부천시 상동 563-8번지 1층","indutype":"보건위생 - 이용원","category":"beauty"}]},{"lat":"37.489538543","long":"126.75321867","imageIndex":13,"items":[{"name":"솔뱅드살롱","tel":"032-328-6428","addr":"경기도 부천시 상동 412-2번지 대명앤스빌 204호","indutype":"보건위생 - 미용원","category":"beauty"},{"name":"이비자태닝","tel":"032-324-8474","addr":"경기도 부천시 상동 412-2번지 대명앤스빌 2층 203호","indutype":"보건위생 - 화장품","category":"beauty"}]},{"lat":"37.501479602","long":"126.75460385","imageIndex":13,"items":[{"name":"솔헤어","tel":"032-325-8383","addr":"경기도 부천시 상동 562-16번지 례화빌딩 지상 1층 일부호","indutype":"보건위생 - 미용원","category":"beauty"}]},{"lat":"37.492652253","long":"126.74313318","imageIndex":13,"items":[{"name":"수연코스메틱","tel":"032-665-7735","addr":"경기도 부천시 상동 598-11번지 1층","indutype":"보건위생 - 화장품","category":"beauty"}]},{"lat":"37.487174417","long":"126.76460122","imageIndex":13,"items":[{"name":"수정헤어샵","tel":"032-666-3200","addr":"경기도 부천시 상동 329-13번지","indutype":"보건위생 - 미용원","category":"beauty"}]},{"lat":"37.491985163","long":"126.76432586","imageIndex":13,"items":[{"name":"수파동 체형관리","tel":"","addr":"경기도 부천시 상동 237-5번지","indutype":"보건위생 - 피부미용실","category":"beauty"}]},{"lat":"37.500176609","long":"126.75624794","imageIndex":13,"items":[{"name":"수파동테라피","tel":"","addr":"경기도 부천시 상동 569-5번지 1층","indutype":"보건위생 - 피부미용실","category":"beauty"}]},{"lat":"37.501257318","long":"126.7560182","imageIndex":13,"items":[{"name":"순수미인","tel":"070-2699-0807","addr":"경기도 부천시 상동 568-3번지 1층 일부","indutype":"보건위생 - 화장품","category":"beauty"}]},{"lat":"37.501755752","long":"126.74888056","imageIndex":13,"items":[{"name":"숨헤어","tel":"032-321-5477","addr":"경기도 부천시 상동 550-7번지 101호","indutype":"보건위생 - 미용원","category":"beauty"}]},{"lat":"37.500124435","long":"126.74863729","imageIndex":13,"items":[{"name":"슈퍼맘 산후도우미","tel":"","addr":"경기도 부천시 상동 571-1번지 백송마을상동자이 2702동 403호","indutype":"보건위생 - 기타대인서비스","category":"beauty"}]},{"lat":"37.487260762","long":"126.76274662","imageIndex":13,"items":[{"name":"스마일헤어","tel":"","addr":"경기도 부천시 상동 324-30번지 지하1층 일부","indutype":"보건위생 - 미용원","category":"beauty"}]},{"lat":"37.510874655","long":"126.75783013","imageIndex":13,"items":[{"name":"스킨케어","tel":"032-325-6275","addr":"경기도 부천시 상동 526-4번지 진달래마을대림e-편한세상","indutype":"보건위생 - 화장품","category":"beauty"}]},{"lat":"37.487679084","long":"126.76465615","imageIndex":13,"items":[{"name":"승리미용재료","tel":"032-612-8434","addr":"경기도 부천시 상동 328-9번지","indutype":"보건위생 - 화장품","category":"beauty"}]},{"lat":"37.487595206","long":"126.76327697","imageIndex":13,"items":[{"name":"승리사","tel":"032-1522-5988","addr":"경기도 부천시 상동 327-7번지","indutype":"보건위생 - 미용재료","category":"beauty"}]},{"lat":"37.492122725","long":"126.76552403","imageIndex":13,"items":[{"name":"신데렐라","tel":"032-652-1630","addr":"경기도 부천시 상동 236-32번지 1층","indutype":"보건위생 - 화장품","category":"beauty"}]},{"lat":"37.490069036","long":"126.75699353","imageIndex":13,"items":[{"name":"신안","tel":"032-322-8697","addr":"경기도 부천시 상동 443-8번지","indutype":"보건위생 - 이용원","category":"beauty"}]},{"lat":"37.487877415","long":"126.76471205","imageIndex":13,"items":[{"name":"신영메디칼","tel":"032-661-8522","addr":"경기도 부천시 상동 328-10번지 경촌빌딩 404호","indutype":"보건위생 - 의료용품","category":"beauty"}]},{"lat":"37.51178825","long":"126.75097295","imageIndex":13,"items":[{"name":"써니엘유통","tel":"032-323-4401","addr":"경기도 부천시 상동 525-1번지 라일락마을경남아너스빌","indutype":"보건위생 - 화장품","category":"beauty"}]},{"lat":"37.510616248","long":"126.75063758","imageIndex":13,"items":[{"name":"아띠헤어","tel":"032-326-5446","addr":"경기도 부천시 상동 525-6라일락마을상가103","indutype":"보건위생 - 미용원","category":"beauty"}]},{"lat":"37.49026262","long":"126.75477666","imageIndex":13,"items":[{"name":"아모레카운셀러","tel":"032-327-4697","addr":"경기도 부천시 상동 446-3번지","indutype":"보건위생 - 화장품","category":"beauty"}]},{"lat":"37.5061752248","long":"126.7553008090","imageIndex":13,"items":[{"name":"아모레카운셀러","tel":"032-327-6363","addr":"경기도 부천시 상동 535-9 시그마타워 301","indutype":"보건위생 - 화장품","category":"beauty"}]},{"lat":"37.500593227","long":"126.75298961","imageIndex":13,"items":[{"name":"아이시선플러스","tel":"032-321-1001","addr":"경기도 부천시 상동 556-5번지","indutype":"보건위생 - 안경","category":"beauty"}]},{"lat":"37.512726621","long":"126.7516032","imageIndex":13,"items":[{"name":"아이엠헤어","tel":"032-321-0335","addr":"경기도 부천시 상동 523-3번지 대동프라자 108호","indutype":"보건위생 - 미용원","category":"beauty"}]},{"lat":"37.4912294741","long":"126.7518335300","imageIndex":13,"items":[{"name":"안경박사안경점(상동점)","tel":"032-323-7270","addr":"경기도 부천시 상동 400-1,2번지 투원프라자 103","indutype":"보건위생 - 안경","category":"beauty"}]},{"lat":"37.492571032","long":"126.76443707","imageIndex":13,"items":[{"name":"알파미용재료","tel":"032-205-9885","addr":"경기도 부천시 상동 236-51번지 1층","indutype":"보건위생 - 미용재료","category":"beauty"},{"name":"염색편의점(중동본점)","tel":"032-663-5708","addr":"경기도 부천시 상동 236-51번지","indutype":"보건위생 - 화장품","category":"beauty"}]},{"lat":"37.490708845","long":"126.75275117","imageIndex":13,"items":[{"name":"약손 바디스킨케어","tel":"032-326-8255","addr":"경기도 부천시 상동 404-1번지 송내부건프라자 301호","indutype":"보건위생 - 피부미용실","category":"beauty"}]},{"lat":"37.488014393","long":"126.75252271","imageIndex":13,"items":[{"name":"약손명가 에스테틱(부천점)","tel":"032-328-0055","addr":"경기도 부천시 상동 464-1번지 대명시티프라자 4층 2호","indutype":"보건위생 - 피부미용실","category":"beauty"},{"name":"희망이룸심리센터","tel":"032-325-9500","addr":"경기도 부천시 상동 464-1번지 대명시티프라자 3층 302호","indutype":"보건위생 - 기타대인서비스","category":"beauty"}]},{"lat":"37.506564966","long":"126.75640788","imageIndex":13,"items":[{"name":"에르모사","tel":"032-821-1955","addr":"경기도 부천시 상동 537-11번지 성원프라자 106호","indutype":"보건위생 - 미용원","category":"beauty"}]},{"lat":"37.488596309","long":"126.76377128","imageIndex":13,"items":[{"name":"에벤에셀","tel":"032-613-6577","addr":"경기도 부천시 상동 317-8번지","indutype":"보건위생 - 미용원","category":"beauty"},{"name":"코코네일(COCO Nail)","tel":"","addr":"경기도 부천시 상동 317-8번지","indutype":"보건위생 - 피부미용실","category":"beauty"}]},{"lat":"37.504345766","long":"126.75082832","imageIndex":13,"items":[{"name":"에이(A)  (아름다운 미인)","tel":"032-325-5282","addr":"경기도 부천시 상동 545-14번지 로데오타운 1층 105호","indutype":"보건위생 - 미용원","category":"beauty"}]},{"lat":"37.488902974","long":"126.75951884","imageIndex":13,"items":[{"name":"에이스코리아치과기공소","tel":"033-325-1506","addr":"경기도 부천시 상동 432-2번지 대광빌딩 6층 601호","indutype":"보건위생 - 의료용품","category":"beauty"}]},{"lat":"37.489816964","long":"126.75279937","imageIndex":13,"items":[{"name":"엠즈(M's)","tel":"031-0000-0000","addr":"경기도 부천시 상동 411-2번지 금강플라자 202호","indutype":"보건위생 - 피부미용실","category":"beauty"}]},{"lat":"37.490872839","long":"126.75360998","imageIndex":13,"items":[{"name":"연우 뷰티샵","tel":"032-321-8805","addr":"경기도 부천시 상동 402-1번지 상동아크로텔 1227호","indutype":"보건위생 - 화장품","category":"beauty"}]},{"lat":"37.489952112","long":"126.75279892","imageIndex":13,"items":[{"name":"예빈","tel":"032-323-1633","addr":"경기도 부천시 상동 411-1번지 현대프라자 3층 301호","indutype":"보건위생 - 화장품","category":"beauty"},{"name":"준헤어","tel":"032-328-4838","addr":"경기도 부천시 상동 411-1번지 현대프라자 202호","indutype":"보건위생 - 미용원","category":"beauty"}]},{"lat":"37.501125047","long":"126.75310093","imageIndex":13,"items":[{"name":"예쁜손톱","tel":"032-327-1797","addr":"경기도 부천시 상동 555-6번지 1층","indutype":"보건위생 - 피부미용실","category":"beauty"}]},{"lat":"37.501014478","long":"126.75622256","imageIndex":13,"items":[{"name":"올가스킨케어","tel":"032-321-2474","addr":"경기도 부천시 상동 567-14번지 1층","indutype":"보건위생 - 화장품","category":"beauty"}]},{"lat":"37.489904303","long":"126.75149875","imageIndex":13,"items":[{"name":"올댓시니어스","tel":"032-322-0147","addr":"경기도 부천시 상동 408-5번지 동성프라자 502호","indutype":"보건위생 - 의료용품","category":"beauty"},{"name":"초록소리","tel":"032-323-7866","addr":"경기도 부천시 상동 408-5번지 동성프라자 403호","indutype":"보건위생 - 기타대인서비스","category":"beauty"},{"name":"헤어프라임","tel":"032-324-7488","addr":"경기도 부천시 상동 408-5번지 동성프라자 1층 104호","indutype":"보건위생 - 미용원","category":"beauty"}]},{"lat":"37.490427166","long":"126.75590685","imageIndex":13,"items":[{"name":"왕부","tel":"032-322-6027","addr":"경기도 부천시 상동 451-1번지 테마프라자 502호","indutype":"보건위생 - 화장품","category":"beauty"}]},{"lat":"37.503956385","long":"126.74991357","imageIndex":13,"items":[{"name":"우리동네 차칸","tel":"032-322-4540","addr":"경기도 부천시 상동 546-3번지 대맥프라자 401호","indutype":"보건위생 - 화장품","category":"beauty"},{"name":"주식회사한생인","tel":"032-322-7897","addr":"경기도 부천시 상동 546-3번지 대맥프라자 702-1호","indutype":"보건위생 - 화장품","category":"beauty"}]},{"lat":"37.492455203","long":"126.76508198","imageIndex":13,"items":[{"name":"웰니스 앤 뷰티라이프","tel":"032-613-3007","addr":"경기도 부천시 상동 236-44번지 1층","indutype":"보건위생 - 피부미용실","category":"beauty"}]},{"lat":"37.507536815","long":"126.75155273","imageIndex":13,"items":[{"name":"위드왁싱앤뷰티","tel":"032-324-4563","addr":"경기도 부천시 상동 533-8번지 대림타운 202호","indutype":"보건위생 - 피부미용실","category":"beauty"},{"name":"체스헤어","tel":"032-212-2851","addr":"경기도 부천시 상동 533-8번지 대림타운 106호","indutype":"보건위생 - 미용원","category":"beauty"}]},{"lat":"37.506424135","long":"126.74946416","imageIndex":13,"items":[{"name":"유림헤어","tel":"02-2679-6605","addr":"경기도 부천시 상동 531-4번지 스타팰리스2 121호","indutype":"보건위생 - 미용원","category":"beauty"}]},{"lat":"37.5076516998","long":"126.7505005242","imageIndex":13,"items":[{"name":"유명한미용실","tel":"032-328-5454","addr":"경기도 부천시 상동 533-3,4번지 아트프라자 203호","indutype":"보건위생 - 미용원","category":"beauty"}]},{"lat":"37.514619472","long":"126.75624566","imageIndex":13,"items":[{"name":"유민헤어모드","tel":"032-321-0407","addr":"경기도 부천시 상동 500-1번지 다정한마을 상가동 101호","indutype":"보건위생 - 미용원","category":"beauty"}]},{"lat":"37.490785845","long":"126.76383215","imageIndex":13,"items":[{"name":"유민헤어존","tel":"032-612-1221","addr":"경기도 부천시 상동 245-1번지","indutype":"보건위생 - 미용원","category":"beauty"}]},{"lat":"37.492485887","long":"126.76243589","imageIndex":13,"items":[{"name":"유진헤어","tel":"032-656-7979","addr":"경기도 부천시 상동 231-35번지","indutype":"보건위생 - 미용원","category":"beauty"}]},{"lat":"37.493841926","long":"126.74329867","imageIndex":13,"items":[{"name":"유헤어(U-HAIR)","tel":"032-322-3384","addr":"경기도 부천시 상동 593-8번지 1층 일부","indutype":"보건위생 - 미용원","category":"beauty"},{"name":"헤어공방","tel":"032-322-3384","addr":"경기도 부천시 상동 593-8번지 1층","indutype":"보건위생 - 미용원","category":"beauty"}]},{"lat":"37.49551463","long":"126.75440874","imageIndex":13,"items":[{"name":"은하머리방","tel":"032-323-7828","addr":"경기도 부천시 상동 394-1 동원상가 102","indutype":"보건위생 - 미용원","category":"beauty"}]},{"lat":"37.501289991","long":"126.75441222","imageIndex":13,"items":[{"name":"이가안교","tel":"032-324-3345","addr":"경기도 부천시 상동 561-5번지 1층","indutype":"보건위생 - 피부미용실","category":"beauty"}]},{"lat":"37.490292168","long":"126.76032846","imageIndex":13,"items":[{"name":"이너메디칼","tel":"032-321-8945","addr":"경기도 부천시 상동 296-9번지 3층","indutype":"보건위생 - 의료용품","category":"beauty"},{"name":"자연치유연구소","tel":"032-661-5849","addr":"경기도 부천시 상동 296-9번지 1층","indutype":"보건위생 - 화장품","category":"beauty"}]},{"lat":"37.504372385","long":"126.75063597","imageIndex":13,"items":[{"name":"이노보청기","tel":"070-8822-2994","addr":"경기도 부천시 상동 545-15번지 에이원프라자 6층 607호","indutype":"보건위생 - 의료용품","category":"beauty"}]},{"lat":"37.492843234","long":"126.76094213","imageIndex":13,"items":[{"name":"이노티안경부천점","tel":"032-322-5055","addr":"경기도 부천시 상동 226-1번지 동빌딩 1층","indutype":"보건위생 - 안경","category":"beauty"}]},{"lat":"37.490537634","long":"126.75274043","imageIndex":13,"items":[{"name":"이니스프리부천송내점","tel":"032-321-7872","addr":"경기도 부천시 상동 404-2번지 102호","indutype":"보건위생 - 화장품","category":"beauty"}]},{"lat":"37.506228287","long":"126.75482563","imageIndex":13,"items":[{"name":"이동주학습심리상담센터","tel":"032-236-5757","addr":"경기도 부천시 상동 535-8번지 센타프라자 403호 센터프라자","indutype":"보건위생 - 기타대인서비스","category":"beauty"}]},{"lat":"37.490377279","long":"126.76229566","imageIndex":13,"items":[{"name":"이민애헤어월드","tel":"032-665-1279","addr":"경기도 부천시 상동 247번지","indutype":"보건위생 - 미용원","category":"beauty"}]},{"lat":"37.492677528","long":"126.76363389","imageIndex":13,"items":[{"name":"이상열헤어아트","tel":"032-613-1053","addr":"경기도 부천시 상동 235-3번지","indutype":"보건위생 - 미용원","category":"beauty"}]},{"lat":"37.487705406","long":"126.76430555","imageIndex":13,"items":[{"name":"정동문통합변화연구소","tel":"032-321-4733","addr":"경기도 부천시 상동 328-8번지 2층","indutype":"보건위생 - 기타대인서비스","category":"beauty"},{"name":"행복한머리 염색방","tel":"032-667-9375","addr":"경기도 부천시 상동 328-8번지 영화빌딩 1층","indutype":"보건위생 - 미용원","category":"beauty"}]},{"lat":"37.487927722","long":"126.76285755","imageIndex":13,"items":[{"name":"정헤어","tel":"","addr":"경기도 부천시 상동 325-20번지 1층","indutype":"보건위생 - 미용원","category":"beauty"}]},{"lat":"37.487065134","long":"126.76402491","imageIndex":13,"items":[{"name":"정헤어필","tel":"032-666-2502","addr":"경기도 부천시 상동 329-4번지 1층","indutype":"보건위생 - 미용원","category":"beauty"}]},{"lat":"37.491373699","long":"126.74352206","imageIndex":13,"items":[{"name":"제이그라피","tel":"070-7333-9628","addr":"경기도 부천시 상동 606-7번지 이례빌딩 1층 일부","indutype":"보건위생 - 미용원","category":"beauty"}]},{"lat":"37.501620828","long":"126.75321237","imageIndex":13,"items":[{"name":"제이네일바(J Nail Bar)","tel":"032-323-8384","addr":"경기도 부천시 상동 555-3번지 1층 북측","indutype":"보건위생 - 피부미용실","category":"beauty"}]},{"lat":"37.489985683","long":"126.75590831","imageIndex":13,"items":[{"name":"제이앤래쉬","tel":"","addr":"경기도 부천시 상동 451-3번지 훼미리타운 2층 213호","indutype":"보건위생 - 피부미용실","category":"beauty"},{"name":"제이앤코스메틱(J&Cosmetic)","tel":"","addr":"경기도 부천시 상동 451-3번지 훼미리타운 1동 2층 213호","indutype":"보건위생 - 미용재료","category":"beauty"}]},{"lat":"37.512593371","long":"126.75249719","imageIndex":13,"items":[{"name":"좋은하루","tel":"032-324-1110","addr":"경기도 부천시 상동 523-8번지 에이스프라자 1층 106호","indutype":"보건위생 - 안경","category":"beauty"}]},{"lat":"37.506231134","long":"126.75190771","imageIndex":13,"items":[{"name":"주식회사 일조메디칼","tel":"070-4155-8575","addr":"경기도 부천시 상동 534-8번지 에이플러스 3층 302호 일부","indutype":"보건위생 - 의료용품","category":"beauty"},{"name":"케이에스(K.S)안경원","tel":"032-328-7910","addr":"경기도 부천시 상동 534-8번지 에이플러스 상가 101호","indutype":"보건위생 - 안경","category":"beauty"}]},{"lat":"37.492736988","long":"126.7618584","imageIndex":13,"items":[{"name":"주식회사 지덴탈","tel":"02-1111-1111","addr":"경기도 부천시 상동 231-16번지 3층","indutype":"보건위생 - 의료용품","category":"beauty"}]},{"lat":"37.490093803","long":"126.74330034","imageIndex":13,"items":[{"name":"지원덴탈 (G1 DENTAL)","tel":"032-328-2275","addr":"경기도 부천시 상동 612-4번지 1층 일부","indutype":"보건위생 - 의료용품","category":"beauty"}]},{"lat":"37.490288836","long":"126.76311007","imageIndex":13,"items":[{"name":"진선미피부","tel":"","addr":"경기도 부천시 상동 247-3번지 1층","indutype":"보건위생 - 피부미용실","category":"beauty"}]},{"lat":"37.50720066","long":"126.75449442","imageIndex":13,"items":[{"name":"쭈리히헤어클럽","tel":"032-327-1147","addr":"경기도 부천시 상동 536-1번지 보람프라자 202호","indutype":"보건위생 - 미용원","category":"beauty"}]},{"lat":"37.501505989","long":"126.75429842","imageIndex":13,"items":[{"name":"차밍뷰티아트","tel":"031-903-0676","addr":"경기도 부천시 상동 562-18번지 202호","indutype":"보건위생 - 화장품","category":"beauty"}]},{"lat":"37.506007181","long":"126.75680555","imageIndex":13,"items":[{"name":"차바타이","tel":"032-321-7666","addr":"경기도 부천시 상동 538-6번지 대신스카이빌 3층 301호","indutype":"보건위생 - 화장품","category":"beauty"},{"name":"황제","tel":"032-328-3336","addr":"경기도 부천시 상동 538-6번지 2층 204호, 205호 전부","indutype":"보건위생 - 기타대인서비스","category":"beauty"}]},{"lat":"37.492257918","long":"126.76554621","imageIndex":13,"items":[{"name":"채정운샵","tel":"","addr":"경기도 부천시 상동 236-34번지","indutype":"보건위생 - 미용원","category":"beauty"}]},{"lat":"37.4900638038","long":"126.7502431056","imageIndex":13,"items":[{"name":"초이피부관리실","tel":"032-324-1131","addr":"경기도 부천시 상동 399번지 신라쇼핑 2층 213호","indutype":"보건위생 - 피부미용실","category":"beauty"}]},{"lat":"37.49026487","long":"126.75585085","imageIndex":13,"items":[{"name":"콘타이","tel":"052-233-5457","addr":"경기도 부천시 상동 451-2번지 청수프라자 2층","indutype":"보건위생 - 화장품","category":"beauty"}]},{"lat":"37.501263247","long":"126.75454802","imageIndex":13,"items":[{"name":"클럽므두셀라(Club Methuselah)","tel":"032-329-1543","addr":"경기도 부천시 상동 561-6번지","indutype":"보건위생 - 피부미용실","category":"beauty"}]},{"lat":"37.490427524","long":"126.75180229","imageIndex":13,"items":[{"name":"타밈코스메틱","tel":"070-4413-0999","addr":"경기도 부천시 상동 407-2번지 2층","indutype":"보건위생 - 미용재료","category":"beauty"}]},{"lat":"37.490123371","long":"126.75283227","imageIndex":13,"items":[{"name":"타이랜드","tel":"032-323-3085","addr":"경기도 부천시 상동 411번지 정원빌딩 지하2층","indutype":"보건위생 - 화장품","category":"beauty"}]},{"lat":"37.512451963","long":"126.75379838","imageIndex":13,"items":[{"name":"탈렌트미용실","tel":"032-324-5455","addr":"경기도 부천시 상동 524-4번지","indutype":"보건위생 - 미용원","category":"beauty"}]},{"lat":"37.501314039","long":"126.75299852","imageIndex":13,"items":[{"name":"태후사랑","tel":"032-321-2322","addr":"경기도 부천시 상동 555-12번지 102호","indutype":"보건위생 - 화장품","category":"beauty"},{"name":"해일리스풀리","tel":"02-111-1111","addr":"경기도 부천시 상동 555-12번지 104호","indutype":"보건위생 - 피부미용실","category":"beauty"}]},{"lat":"37.490375767","long":"126.75288797","imageIndex":13,"items":[{"name":"토리헤어 (송내점)","tel":"032-322-8985","addr":"경기도 부천시 상동 404-3번지 3층","indutype":"보건위생 - 미용원","category":"beauty"}]},{"lat":"37.495009004","long":"126.74966105","imageIndex":13,"items":[{"name":"티티헤어살롱","tel":"032-325-3452","addr":"경기도 부천시 상동 392 한아름라이프상가2층207호","indutype":"보건위생 - 미용원","category":"beauty"},{"name":"푸드하우스","tel":"032-328-9843","addr":"경기도 부천시 상동 392번지 한아름마을 라이프,현대1차아파트","indutype":"보건위생 - 기타대인서비스","category":"beauty"}]},{"lat":"37.487875338","long":"126.75494286","imageIndex":13,"items":[{"name":"페이스터치","tel":"02-2617-8117","addr":"경기도 부천시 상동 463-1번지 은혜빌딩 701호","indutype":"보건위생 - 화장품","category":"beauty"}]},{"lat":"37.501955195","long":"126.75368624","imageIndex":13,"items":[{"name":"프로헤어월드","tel":"032-329-2158","addr":"경기도 부천시 상동 564-2번지 1층","indutype":"보건위생 - 미용원","category":"beauty"},{"name":"플로라네일","tel":"032-321-3200","addr":"경기도 부천시 상동 564-2번지 상동주택 1층","indutype":"보건위생 - 피부미용실","category":"beauty"}]},{"lat":"37.489847008","long":"126.76294187","imageIndex":13,"items":[{"name":"플러스미용실","tel":"032-665-4481","addr":"경기도 부천시 상동 247-21번지 1층 102호","indutype":"보건위생 - 미용원","category":"beauty"}]},{"lat":"37.491037006","long":"126.7588787","imageIndex":13,"items":[{"name":"플로렌스안경","tel":"032-321-9203","addr":"경기도 부천시 상동 425-7번지","indutype":"보건위생 - 안경","category":"beauty"}]},{"lat":"37.496903831","long":"126.74263219","imageIndex":13,"items":[{"name":"필(  )척추운동","tel":"032-324-2826","addr":"경기도 부천시 상동 573-2번지 송림프라자 4층 402호","indutype":"보건위생 - 기타대인서비스","category":"beauty"}]},{"lat":"37.510842414","long":"126.75533064","imageIndex":13,"items":[{"name":"하비헤어","tel":"032-324-2585","addr":"경기도 부천시 상동 526-1번지 105호","indutype":"보건위생 - 미용원","category":"beauty"}]},{"lat":"37.50112184","long":"126.75586032","imageIndex":13,"items":[{"name":"한나헤어클리닉","tel":"032-0000-0000","addr":"경기도 부천시 상동 568-13번지","indutype":"보건위생 - 미용원","category":"beauty"}]},{"lat":"37.488154826","long":"126.76377269","imageIndex":13,"items":[{"name":"한빛나노의료기","tel":"032-654-2995","addr":"경기도 부천시 상동 326-16번지 부림빌딩 3층 일부","indutype":"보건위생 - 의료용품","category":"beauty"}]},{"lat":"37.493015449","long":"126.75707433","imageIndex":13,"items":[{"name":"해와달","tel":"032-321-6577","addr":"경기도 부천시 상동 445번지 202호 , 꿈동산제상가동","indutype":"보건위생 - 미용원","category":"beauty"}]},{"lat":"37.506291142","long":"126.75047118","imageIndex":13,"items":[{"name":"허그맘 부천점","tel":"032-713-9119","addr":"경기도 부천시 상동 531-7번지 리파인빌 213호","indutype":"보건위생 - 기타대인서비스","category":"beauty"}]},{"lat":"37.488125985","long":"126.76287953","imageIndex":13,"items":[{"name":"헤베니케","tel":"","addr":"경기도 부천시 상동 325-22번지 3층","indutype":"보건위생 - 화장품","category":"beauty"}]},{"lat":"37.490680566","long":"126.76080211","imageIndex":13,"items":[{"name":"헤어5.5","tel":"032-655-5228","addr":"경기도 부천시 상동 242-11번지 1층","indutype":"보건위생 - 미용원","category":"beauty"}]},{"lat":"37.501623831","long":"126.7546373","imageIndex":13,"items":[{"name":"헤어리즈","tel":"032-326-3556","addr":"경기도 부천시 상동 562-6번지 1층","indutype":"보건위생 - 미용원","category":"beauty"}]},{"lat":"37.500318969","long":"126.755388","imageIndex":13,"items":[{"name":"헤어빈","tel":"032-327-9090","addr":"경기도 부천시 상동 559-3번지 세종프라자 1층 105호","indutype":"보건위생 - 미용원","category":"beauty"},{"name":"헤어플러스","tel":"032-325-9057","addr":"경기도 부천시 상동 559-3번지 세종프라자 101호","indutype":"보건위생 - 미용원","category":"beauty"}]},{"lat":"37.502035113","long":"126.75313183","imageIndex":13,"items":[{"name":"헤어스케치","tel":"032-324-6777","addr":"경기도 부천시 상동 553-4번지 1층 101호","indutype":"보건위생 - 미용원","category":"beauty"}]},{"lat":"37.501792087","long":"126.75324573","imageIndex":13,"items":[{"name":"헤어컨셉카라","tel":"","addr":"경기도 부천시 상동 555-2번지","indutype":"보건위생 - 미용원","category":"beauty"}]},{"lat":"37.489952707","long":"126.75737836","imageIndex":13,"items":[{"name":"헤어컬렉션","tel":"032-329-0289","addr":"경기도 부천시 상동 440-13번지","indutype":"보건위생 - 미용원","category":"beauty"}]},{"lat":"37.490566049","long":"126.76208021","imageIndex":13,"items":[{"name":"헤어큐(Q) 미용실","tel":"032-612-1739","addr":"경기도 부천시 상동 243-29번지 1층 일부","indutype":"보건위생 - 미용원","category":"beauty"}]},{"lat":"37.489201825","long":"126.75591089","imageIndex":13,"items":[{"name":"헤어플러스","tel":"032-321-3907","addr":"경기도 부천시 상동 458-1번지 금강빌딩 105호","indutype":"보건위생 - 미용원","category":"beauty"},{"name":"환이 코스메디","tel":"","addr":"경기도 부천시 상동 458-1번지 금강빌딩 5층 501호","indutype":"보건위생 - 화장품","category":"beauty"}]},{"lat":"37.506700198","long":"126.75216627","imageIndex":13,"items":[{"name":"헤어하고","tel":"","addr":"경기도 부천시 상동 532-11번지 일부 201호","indutype":"보건위생 - 미용원","category":"beauty"}]},{"lat":"37.496515033","long":"126.75455243","imageIndex":13,"items":[{"name":"헤어하우스","tel":"032-323-9344","addr":"경기도 부천시 상동 394한아름한국상가103","indutype":"보건위생 - 미용원","category":"beauty"}]},{"lat":"37.506733266","long":"126.75502753","imageIndex":13,"items":[{"name":"홍콩","tel":"032-321-5105","addr":"경기도 부천시 상동 536-8번지 상동국천빌딩 207호","indutype":"보건위생 - 피부미용실","category":"beauty"}]},{"lat":"37.489126425","long":"126.76304594","imageIndex":13,"items":[{"name":"화이트화장품 부천1호점","tel":"032-661-9787","addr":"경기도 부천시 상동 315-10번지","indutype":"보건위생 - 화장품","category":"beauty"}]},{"lat":"37.507589573","long":"126.75094182","imageIndex":13,"items":[{"name":"황실","tel":"032-328-8588","addr":"경기도 부천시 상동 533-5번지 신주프라자 203호","indutype":"보건위생 - 화장품","category":"beauty"}]},{"lat":"37.507236111","long":"126.74997036","imageIndex":13,"items":[{"name":"황후모","tel":"","addr":"경기도 부천시 상동 532-1번지 굿모닝위너스빌 314호","indutype":"보건위생 - 미용재료","category":"beauty"}]},{"lat":"37.513203818","long":"126.75571871","imageIndex":13,"items":[{"name":"힐링헤어","tel":"032-326-9701","addr":"경기도 부천시 상동 500-2번지 다정한마을 상가 104호","indutype":"보건위생 - 미용원","category":"beauty"}]},{"lat":"37.490759389","long":"126.74277789","imageIndex":13,"items":[{"name":"힐빙케어","tel":"032-322-6585","addr":"경기도 부천시 상동 608-1번지","indutype":"보건위생 - 의료용품","category":"beauty"}]}]