[{"lat":"37.915158755","long":"127.06190287","imageIndex":17,"items":[{"name":"(주) 한양건설","tel":"031-861-1115","addr":"경기도 동두천시 보산동 397-12번지","indutype":"용역 서비스 - 기타용역서비스","category":"other"}]},{"lat":"37.916385957","long":"127.05790082","imageIndex":17,"items":[{"name":"(주)스카이트래블","tel":"031-864-0900","addr":"경기도 동두천시 보산동 361번지","indutype":"여행 - 관광여행","category":"other"}]},{"lat":"37.91493528","long":"127.05828639","imageIndex":17,"items":[{"name":"(주)클린현대","tel":"031-861-4056","addr":"경기도 동두천시 보산동 365-31번지","indutype":"용역 서비스 - 종합용역","category":"other"}]},{"lat":"37.916936039","long":"127.05678675","imageIndex":17,"items":[{"name":"88전자담배","tel":"031-865-1991","addr":"경기도 동두천시 보산동 437-13번지","indutype":"기타 - 기타 전문점","category":"other"},{"name":"애플텔레콤,솔로몬컴퓨터","tel":"070-7524-4276","addr":"경기도 동두천시 보산동 437-13번지","indutype":"사무통신 - 통신기기","category":"other"}]},{"lat":"37.914548676","long":"127.05656894","imageIndex":17,"items":[{"name":"Awesome","tel":"031-867-3319","addr":"경기도 동두천시 보산동 426-20번지","indutype":"의류 - 정장","category":"other"}]},{"lat":"37.91508024","long":"127.05653521","imageIndex":17,"items":[{"name":"Boston shop","tel":"031-865-3438","addr":"경기도 동두천시 보산동 429-8번지","indutype":"신변잡화 - 가방","category":"other"}]},{"lat":"37.913745028","long":"127.06042341","imageIndex":17,"items":[{"name":"GS25동두천보산점","tel":"","addr":"경기도 동두천시 보산동 407-48번지","indutype":"유통업 영리 - 편 의 점","category":"other"},{"name":"고성섬유","tel":"031-865-6875","addr":"경기도 동두천시 보산동 407-48번지","indutype":"직물 - 침구·수예점","category":"other"}]},{"lat":"37.916241309","long":"127.05895833","imageIndex":17,"items":[{"name":"GS25동두천스타점","tel":"","addr":"경기도 동두천시 보산동 358-5번지","indutype":"유통업 영리 - 편 의 점","category":"other"}]},{"lat":"37.916747098","long":"127.05622936","imageIndex":17,"items":[{"name":"Gg 갤러리","tel":"031-834-7301","addr":"경기도 동두천시 보산동 429-14번지","indutype":"문화.취미 - 화랑","category":"other"}]},{"lat":"37.914465621","long":"127.06073101","imageIndex":17,"items":[{"name":"GreenfieldandCompany","tel":"031-864-2430","addr":"경기도 동두천시 보산동 384-10번지","indutype":"기타 - 기타 전문점","category":"other"}]},{"lat":"37.916269289","long":"127.05692273","imageIndex":17,"items":[{"name":"KP,CRAFTS(케이피 크래프트)","tel":"031-875-7300","addr":"경기도 동두천시 보산동 418-5번지","indutype":"직물 - 침구·수예점","category":"other"}]},{"lat":"37.914602722","long":"127.05659172","imageIndex":17,"items":[{"name":"KT&T","tel":"031-862-8460","addr":"경기도 동두천시 보산동 426-19번지 나이스텔레콤","indutype":"사무통신 - 통신기기","category":"other"}]},{"lat":"37.916656725","long":"127.0568434","imageIndex":17,"items":[{"name":"OK텔레콤","tel":"031-868-2299","addr":"경기도 동두천시 보산동 437-16번지 103호","indutype":"사무통신 - 통신기기","category":"other"}]},{"lat":"37.928240555","long":"127.06125363","imageIndex":17,"items":[{"name":"SK설비","tel":"031-837-6818","addr":"경기도 동두천시 보산동 232번지","indutype":"기타 - 기타 전문점","category":"other"}]},{"lat":"37.916377411","long":"127.05690006","imageIndex":17,"items":[{"name":"USA이불","tel":"031-865-4828","addr":"경기도 동두천시 보산동 418-4번지","indutype":"직물 - 침구·수예점","category":"other"},{"name":"레인보우모바일","tel":"","addr":"경기도 동두천시 보산동 418-4번지","indutype":"사무통신 - 통신기기","category":"other"},{"name":"마틴ART","tel":"031-866-0058","addr":"경기도 동두천시 보산동 418-4번지 2층","indutype":"문화.취미 - 화랑","category":"other"},{"name":"킹콩","tel":"031-868-2707","addr":"경기도 동두천시 보산동 418-4번지 102호","indutype":"신변잡화 - 액세서리","category":"other"},{"name":"해피텔레콤","tel":"031-862-0803","addr":"경기도 동두천시 보산동 418-4번지 1층","indutype":"사무통신 - 통신기기","category":"other"}]},{"lat":"37.917296839","long":"127.0558431","imageIndex":17,"items":[{"name":"겨를","tel":"","addr":"경기도 동두천시 보산동 436-10번지","indutype":"주방용구 - 주방용식기","category":"other"}]},{"lat":"37.913160668","long":"127.05781882","imageIndex":17,"items":[{"name":"경기세아열쇠","tel":"031-866-2708","addr":"경기도 동두천시 보산동 412-26번지","indutype":"기타 - 기계공구","category":"other"}]},{"lat":"37.914853759","long":"127.05920746","imageIndex":17,"items":[{"name":"경인건축설비","tel":"031-867-4828","addr":"경기도 동두천시 보산동 368-9번지","indutype":"건축자재 - 기타건축자재","category":"other"}]},{"lat":"37.914853348","long":"127.06006036","imageIndex":17,"items":[{"name":"고려지물","tel":"031-865-3734","addr":"경기도 동두천시 보산동 376-10번지","indutype":"직물 - 카페트,커튼,천막,지물","category":"other"}]},{"lat":"37.917494946","long":"127.05605932","imageIndex":17,"items":[{"name":"공예품제작소 두두리","tel":"031-1111-1111","addr":"경기도 동두천시 보산동 436-16번지","indutype":"문화.취미 - 문화취미기타","category":"other"},{"name":"카리스뮤직","tel":"031-868-4113","addr":"경기도 동두천시 보산동 436-16번지","indutype":"레져용품 - 악기점","category":"other"}]},{"lat":"37.91613415","long":"127.05692263","imageIndex":17,"items":[{"name":"그린스파테라피","tel":"070-7559-2002","addr":"경기도 동두천시 보산동 414-6번지 2층","indutype":"회원제형태 - 기타4","category":"other"}]},{"lat":"37.916413233","long":"127.05736635","imageIndex":17,"items":[{"name":"뉴코인SHOP","tel":"031-862-9398","addr":"경기도 동두천시 보산동 438-13번지","indutype":"신변잡화 - 기념품점","category":"other"}]},{"lat":"37.917350981","long":"127.05564981","imageIndex":17,"items":[{"name":"더 보테가","tel":"031-943-2806","addr":"경기도 동두천시 보산동 435-21번지","indutype":"신변잡화 - 가방","category":"other"}]},{"lat":"37.91728389","long":"127.06397434","imageIndex":17,"items":[{"name":"동두천당구재료","tel":"031-863-9200","addr":"경기도 동두천시 보산동 304-32번지 파크타운 102동 201호","indutype":"회원제형태 - 기타4","category":"other"}]},{"lat":"37.917269408","long":"127.05673013","imageIndex":17,"items":[{"name":"드레곤스포츠","tel":"031-865-8292","addr":"경기도 동두천시 보산동 437-9번지","indutype":"의류 - 정장","category":"other"},{"name":"드레곤자수","tel":"031-865-8292","addr":"경기도 동두천시 보산동 437-9번지","indutype":"직물 - 침구·수예점","category":"other"}]},{"lat":"37.914936179","long":"127.05634178","imageIndex":17,"items":[{"name":"또와","tel":"031-866-0058","addr":"경기도 동두천시 보산동 429-28번지","indutype":"신변잡화 - 기타잡화","category":"other"}]},{"lat":"37.915710864","long":"127.05659253","imageIndex":17,"items":[{"name":"라이크띵스 (Like things)","tel":"031-863-1433","addr":"경기도 동두천시 보산동 429-153번지","indutype":"문화.취미 - 문화취미기타","category":"other"},{"name":"미화상회","tel":"031-861-2268","addr":"경기도 동두천시 보산동 429-153번지","indutype":"신변잡화 - 액세서리","category":"other"}]},{"lat":"37.913268753","long":"127.05787576","imageIndex":17,"items":[{"name":"레드썬중고백화점","tel":"070-2603-0733","addr":"경기도 동두천시 보산동 412-5번지","indutype":"신변잡화 - 기타잡화","category":"other"}]},{"lat":"37.915548273","long":"127.05751355","imageIndex":17,"items":[{"name":"리치삽","tel":"031-867-9777","addr":"경기도 동두천시 보산동 416-9번지","indutype":"의류 - 정장","category":"other"}]},{"lat":"37.915215364","long":"127.05656942","imageIndex":17,"items":[{"name":"마르비엠","tel":"031-123-4567","addr":"경기도 동두천시 보산동 429-50번지","indutype":"문화.취미 - 문화취미기타","category":"other"},{"name":"에이지양복점","tel":"031-863-0178","addr":"경기도 동두천시 보산동 429-50번지","indutype":"의류 - 정장","category":"other"},{"name":"오색공방","tel":"031-000-0000","addr":"경기도 동두천시 보산동 429-50번지","indutype":"문화.취미 - 문화취미기타","category":"other"}]},{"lat":"37.91338589","long":"127.05784173","imageIndex":17,"items":[{"name":"명인재활용센터","tel":"031-857-8272","addr":"경기도 동두천시 보산동 412-18번지","indutype":"신변잡화 - 기타잡화","category":"other"}]},{"lat":"37.920044459","long":"127.05631136","imageIndex":17,"items":[{"name":"반석열쇠.동두천열쇠.연천열쇠.전곡열쇠.양","tel":"031-841-1313","addr":"경기도 동두천시 보산동 447-5번지 1층","indutype":"수리서비스 - 기타수리서비스","category":"other"},{"name":"반석인쇄","tel":"031-855-3008","addr":"경기도 동두천시 보산동 447-5번지","indutype":"서적문구 - 출판 및 인쇄물","category":"other"}]},{"lat":"37.916990094","long":"127.05678678","imageIndex":17,"items":[{"name":"베스트 모바일","tel":"031-000-0000","addr":"경기도 동두천시 보산동 437-20번지","indutype":"사무통신 - 통신기기","category":"other"}]},{"lat":"37.917044368","long":"127.05630919","imageIndex":17,"items":[{"name":"베스트우드버닝","tel":"031-865-5725","addr":"경기도 동두천시 보산동 436-35번지","indutype":"문화.취미 - 화랑","category":"other"}]},{"lat":"37.916242057","long":"127.05736622","imageIndex":17,"items":[{"name":"베이프 스타(Vape Star)","tel":"070-8814-2555","addr":"경기도 동두천시 보산동 417-15번지 1층","indutype":"기타 - 기타 전문점","category":"other"}]},{"lat":"37.917718384","long":"127.05989199","imageIndex":17,"items":[{"name":"보드랑","tel":"031-864-3847","addr":"경기도 동두천시 보산동 354-2번지","indutype":"직물 - 침구·수예점","category":"other"}]},{"lat":"37.915990276","long":"127.0563198","imageIndex":17,"items":[{"name":"보산 운동복점","tel":"031-867-4881","addr":"경기도 동두천시 보산동 429-74번지","indutype":"신변잡화 - 기타잡화","category":"other"}]},{"lat":"37.91452155","long":"127.05678498","imageIndex":17,"items":[{"name":"보산동426","tel":"031-867-6600","addr":"경기도 동두천시 보산동 426-15번지 1,2층","indutype":"문화.취미 - 문화취미기타","category":"other"}]},{"lat":"37.914710983","long":"127.05626201","imageIndex":17,"items":[{"name":"보스톤엡샵","tel":"031-861-0426","addr":"경기도 동두천시 보산동 429-31번지","indutype":"의류 - 정장","category":"other"}]},{"lat":"37.9155488","long":"127.05636497","imageIndex":17,"items":[{"name":"브이아이피(VIP)악세사리","tel":"031-863-0198","addr":"경기도 동두천시 보산동 429-45번지 1층","indutype":"신변잡화 - 액세서리","category":"other"}]},{"lat":"37.916684146","long":"127.05597913","imageIndex":17,"items":[{"name":"비비디바비디부(BIBBIDIBOBBIDIBOO)","tel":"","addr":"경기도 동두천시 보산동 429-18번지","indutype":"문화.취미 - 문화취미기타","category":"other"}]},{"lat":"37.912880768","long":"127.05911499","imageIndex":17,"items":[{"name":"빨래박사","tel":"031-861-6116","addr":"경기도 동두천시 보산동 410-20번지","indutype":"수리서비스 - 세탁소","category":"other"}]},{"lat":"37.913358601","long":"127.05839893","imageIndex":17,"items":[{"name":"삼화페인트","tel":"031-864-2077","addr":"경기도 동두천시 보산동 410-6번지 1층","indutype":"건축자재 - 페인트","category":"other"}]},{"lat":"37.914350575","long":"127.05634135","imageIndex":17,"items":[{"name":"선물의집","tel":"031-865-2803","addr":"경기도 동두천시 보산동 428-20번지","indutype":"의류 - 정장","category":"other"}]},{"lat":"37.915746519","long":"127.05742272","imageIndex":17,"items":[{"name":"세일사","tel":"031-863-5464","addr":"경기도 동두천시 보산동 362-13번지","indutype":"문화.취미 - 민예·공예품","category":"other"}]},{"lat":"37.916161468","long":"127.0562858","imageIndex":17,"items":[{"name":"소예한복","tel":"","addr":"경기도 동두천시 보산동 429-72번지 1층 소예한복","indutype":"의류 - 맞춤복점","category":"other"}]},{"lat":"37.917350492","long":"127.05673019","imageIndex":17,"items":[{"name":"신세계","tel":"031-862-1255","addr":"경기도 동두천시 보산동 437-8번지","indutype":"직물 - 침구·수예점","category":"other"}]},{"lat":"37.914322962","long":"127.05761499","imageIndex":17,"items":[{"name":"신용물물","tel":"031-862-2949","addr":"경기도 동두천시 보산동 413-3번지","indutype":"가구 - 일반가구","category":"other"},{"name":"중앙애견","tel":"031-865-0072","addr":"경기도 동두천시 보산동 413-3번지","indutype":"문화.취미 - 애완동물","category":"other"}]},{"lat":"37.915548478","long":"127.05707004","imageIndex":17,"items":[{"name":"씨유동두천타운점","tel":"080-080-3663","addr":"경기도 동두천시 보산동 419-2번지","indutype":"유통업 영리 - 편 의 점","category":"other"}]},{"lat":"37.915494703","long":"127.0564559","imageIndex":17,"items":[{"name":"아름다운선물","tel":"031-865-6678","addr":"경기도 동두천시 보산동 429-5번지","indutype":"의류 - 기타의류","category":"other"}]},{"lat":"37.915935139","long":"127.05865105","imageIndex":17,"items":[{"name":"아이비광고","tel":"070-8699-1379","addr":"경기도 동두천시 보산동 364-1번지","indutype":"용역 서비스 - 종합용역","category":"other"}]},{"lat":"37.916188048","long":"127.05726383","imageIndex":17,"items":[{"name":"아이템플","tel":"001-0000-0000","addr":"경기도 동두천시 보산동 417-16번지 3층","indutype":"회원제형태 - 서적","category":"other"}]},{"lat":"37.917440595","long":"127.05670751","imageIndex":17,"items":[{"name":"에스오에스","tel":"031-865-3591","addr":"경기도 동두천시 보산동 437-7번지","indutype":"전기제품 - 기타전기제품","category":"other"}]},{"lat":"37.914467696","long":"127.05634144","imageIndex":17,"items":[{"name":"엠클레식","tel":"031-862-5033","addr":"경기도 동두천시 보산동 428-18번지","indutype":"의류 - 기타의류","category":"other"}]},{"lat":"37.914439988","long":"127.05781977","imageIndex":17,"items":[{"name":"영진조명","tel":"031-868-3532","addr":"경기도 동두천시 보산동 365-15번지 1층","indutype":"건축자재 - 조명기구","category":"other"}]},{"lat":"37.914683779","long":"127.05664864","imageIndex":17,"items":[{"name":"원더플","tel":"031-865-3039","addr":"경기도 동두천시 보산동 426-11번지","indutype":"신변잡화 - 제화","category":"other"}]},{"lat":"37.917575936","long":"127.05626408","imageIndex":17,"items":[{"name":"유에스에이밀리터리","tel":"031-866-0058","addr":"경기도 동두천시 보산동 436-13번지","indutype":"신변잡화 - 기타잡화","category":"other"}]},{"lat":"37.913683186","long":"127.0578647","imageIndex":17,"items":[{"name":"이마트24 보산역점","tel":"","addr":"경기도 동두천시 보산동 412-11번지","indutype":"유통업 영리 - 편 의 점","category":"other"}]},{"lat":"37.914521674","long":"127.05651206","imageIndex":17,"items":[{"name":"이천상회","tel":"031-864-0178","addr":"경기도 동두천시 보산동 426-22번지","indutype":"신변잡화 - 기타잡화","category":"other"}]},{"lat":"37.917080198","long":"127.05676411","imageIndex":17,"items":[{"name":"이태리양복","tel":"031-866-5352","addr":"경기도 동두천시 보산동 437-12번지","indutype":"의류 - 맞춤복점","category":"other"}]},{"lat":"37.915017263","long":"127.05634184","imageIndex":17,"items":[{"name":"이태리양화점","tel":"031-866-2509","addr":"경기도 동두천시 보산동 429-52번지","indutype":"신변잡화 - 제화","category":"other"},{"name":"포지션","tel":"031-862-7430","addr":"경기도 동두천시 보산동 429-52번지","indutype":"의류 - 정장","category":"other"}]},{"lat":"37.91360256","long":"127.05687529","imageIndex":17,"items":[{"name":"제이아트 (J-ART)","tel":"070-4960-5367","addr":"경기도 동두천시 보산동 425-3번지 1층","indutype":"용역 서비스 - 사무서비스","category":"other"}]},{"lat":"37.917521679","long":"127.05670757","imageIndex":17,"items":[{"name":"조박사파운숍","tel":"031-862-7724","addr":"경기도 동두천시 보산동 437-6번지","indutype":"사무통신 - 컴퓨터","category":"other"}]},{"lat":"37.916322971","long":"127.05773019","imageIndex":17,"items":[{"name":"지온뷰티팔러 앤 푸드 서프스","tel":"","addr":"경기도 동두천시 보산동 361-2번지","indutype":"신변잡화 - 기타잡화","category":"other"}]},{"lat":"37.917404837","long":"127.05609337","imageIndex":17,"items":[{"name":"치어스","tel":"031-865-2679","addr":"경기도 동두천시 보산동 436-20번지","indutype":"신변잡화 - 액세서리","category":"other"}]},{"lat":"37.917602778","long":"127.05667351","imageIndex":17,"items":[{"name":"케이시(casey)슈퍼","tel":"031-868-0606","addr":"경기도 동두천시 보산동 437-5번지 1층","indutype":"사무통신 - 통신기기","category":"other"}]},{"lat":"37.914881958","long":"127.05670564","imageIndex":17,"items":[{"name":"쿵후","tel":"031-865-4023","addr":"경기도 동두천시 보산동 426-6번지","indutype":"의류 - 정장","category":"other"}]},{"lat":"37.916323024","long":"127.05761647","imageIndex":17,"items":[{"name":"크랙샵#(CRACK SHOP#)","tel":"","addr":"경기도 동두천시 보산동 417-1번지 1층 4호","indutype":"의류 - 정장","category":"other"},{"name":"키미엔노아","tel":"031-865-4739","addr":"경기도 동두천시 보산동 417-1번지","indutype":"문화.취미 - 화방·표구점","category":"other"}]},{"lat":"37.914936013","long":"127.05670568","imageIndex":17,"items":[{"name":"킴스숍","tel":"031-862-1462","addr":"경기도 동두천시 보산동 426-5번지","indutype":"의류 - 기타의류","category":"other"}]},{"lat":"37.914440704","long":"127.05626182","imageIndex":17,"items":[{"name":"탑맨","tel":"031-857-0774","addr":"경기도 동두천시 보산동 428-19번지","indutype":"의류 - 정장","category":"other"}]},{"lat":"37.916683981","long":"127.05634304","imageIndex":17,"items":[{"name":"패션","tel":"031-865-3871","addr":"경기도 동두천시 보산동 429-15번지","indutype":"의류 - 정장","category":"other"}]},{"lat":"37.915827985","long":"127.05659261","imageIndex":17,"items":[{"name":"플래티늄(Platinum)","tel":"031-865-3438","addr":"경기도 동두천시 보산동 429-151번지","indutype":"신변잡화 - 가방","category":"other"}]},{"lat":"37.915321842","long":"127.06003798","imageIndex":17,"items":[{"name":"하꾸나마루다","tel":"031-111-1111","addr":"경기도 동두천시 보산동 370번지 자유타운","indutype":"문화.취미 - 애완동물","category":"other"}]},{"lat":"37.915016635","long":"127.05770648","imageIndex":17,"items":[{"name":"헬로행정사사무소","tel":"031-868-7948","addr":"경기도 동두천시 보산동 365-4번지 보산새마을금고 13호","indutype":"용역 서비스 - 법률회계서비스(개인)","category":"other"}]},{"lat":"37.9177109","long":"127.05665084","imageIndex":17,"items":[{"name":"홈보이(1)원","tel":"031-865-2475","addr":"경기도 동두천시 보산동 437-3번지","indutype":"신변잡화 - 기타잡화","category":"other"}]},{"lat":"37.917323692","long":"127.05622978","imageIndex":17,"items":[{"name":"홈타운","tel":"031-868-2475","addr":"경기도 동두천시 보산동 436-2번지","indutype":"의류 - 기타의류","category":"other"}]},{"lat":"37.91460281","long":"127.0563984","imageIndex":17,"items":[{"name":"화방","tel":"031-865-2068","addr":"경기도 동두천시 보산동 428-15번지 1층","indutype":"문화.취미 - 화랑","category":"other"}]},{"lat":"37.913214452","long":"127.05839882","imageIndex":17,"items":[{"name":"화용맛집 철물","tel":"031-862-5290","addr":"경기도 동두천시 보산동 410-3번지","indutype":"건축자재 - 기타건축자재","category":"other"}]},{"lat":"37.913492918","long":"127.06011617","imageIndex":4,"items":[{"name":"(진)닭곰탕","tel":"031-868-2225","addr":"경기도 동두천시 보산동 407-47번지","indutype":"일반휴게음식 - 일반한식","category":"restaurant"}]},{"lat":"37.915908713","long":"127.05736598","imageIndex":4,"items":[{"name":"Jul서시오1950","tel":"031-425-9110","addr":"경기도 동두천시 보산동 417-18번지","indutype":"일반휴게음식 - 일반한식","category":"restaurant"}]},{"lat":"37.916017013","long":"127.05695666","imageIndex":4,"items":[{"name":"고자매식당","tel":"031-866-0058","addr":"경기도 동두천시 보산동 418-19번지","indutype":"일반휴게음식 - 스넥","category":"restaurant"},{"name":"케밥&그릴","tel":"031-000-0000","addr":"경기도 동두천시 보산동 418-19번지 104호","indutype":"일반휴게음식 - 서양음식","category":"restaurant"},{"name":"해피웍","tel":"031-866-0403","addr":"경기도 동두천시 보산동 418-19번지","indutype":"일반휴게음식 - 스넥","category":"restaurant"}]},{"lat":"37.916855219","long":"127.0562067","imageIndex":4,"items":[{"name":"골든호프","tel":"031-867-1515","addr":"경기도 동두천시 보산동 429-33번지","indutype":"일반휴게음식 - 주점","category":"restaurant"},{"name":"골든호프","tel":"031-867-1515","addr":"경기도 동두천시 보산동 429-33번지","indutype":"일반휴게음식 - 주점","category":"restaurant"},{"name":"핫피자&버거","tel":"031-865-6888","addr":"경기도 동두천시 보산동 429-33번지","indutype":"일반휴게음식 - 서양음식","category":"restaurant"}]},{"lat":"37.916493477","long":"127.05915185","imageIndex":4,"items":[{"name":"깜밥집","tel":"031-862-2226","addr":"경기도 동두천시 보산동 354-4번지","indutype":"일반휴게음식 - 일반한식","category":"restaurant"}]},{"lat":"37.920044459","long":"127.05631136","imageIndex":4,"items":[{"name":"꼬리별cafe","tel":"031-855-3006","addr":"경기도 동두천시 보산동 447-5번지 102,103호","indutype":"일반휴게음식 - 서양음식","category":"restaurant"}]},{"lat":"37.916322592","long":"127.05853762","imageIndex":4,"items":[{"name":"너마스데다지마할","tel":"031-866-4695","addr":"경기도 동두천시 보산동 358-10번지","indutype":"일반휴게음식 - 서양음식","category":"restaurant"}]},{"lat":"37.915215364","long":"127.05656942","imageIndex":4,"items":[{"name":"뉴뽀빠이튀김","tel":"031-868-2248","addr":"경기도 동두천시 보산동 429-50","indutype":"일반휴게음식 - 스넥","category":"restaurant"}]},{"lat":"37.916385957","long":"127.05790082","imageIndex":4,"items":[{"name":"다다원","tel":"031-862-4100","addr":"경기도 동두천시 보산동 361번지","indutype":"일반휴게음식 - 중국식","category":"restaurant"}]},{"lat":"37.913745028","long":"127.06042341","imageIndex":4,"items":[{"name":"돈돈아","tel":"031-857-8075","addr":"경기도 동두천시 보산동 407-48번지","indutype":"일반휴게음식 - 일반한식","category":"restaurant"}]},{"lat":"37.913746325","long":"127.05770554","imageIndex":4,"items":[{"name":"동두천원조 태능갈비","tel":"031-865-4578","addr":"경기도 동두천시 보산동 412-21번지","indutype":"일반휴게음식 - 일반한식","category":"restaurant"}]},{"lat":"37.915546724","long":"127.0607546","imageIndex":4,"items":[{"name":"라이라이","tel":"031-865-1202","addr":"경기도 동두천시 보산동 390-9번지","indutype":"일반휴게음식 - 중국식","category":"restaurant"}]},{"lat":"37.91718863","long":"127.0560591","imageIndex":4,"items":[{"name":"라티노","tel":"031-859-3730","addr":"경기도 동두천시 보산동 436-56번지","indutype":"일반휴게음식 - 스넥","category":"restaurant"}]},{"lat":"37.914683191","long":"127.0579223","imageIndex":4,"items":[{"name":"럭키스","tel":"070-1111-1111","addr":"경기도 동두천시 보산동 365-9번지","indutype":"일반휴게음식 - 일반한식","category":"restaurant"}]},{"lat":"37.916747098","long":"127.05622936","imageIndex":4,"items":[{"name":"로씨레스토랑","tel":"","addr":"경기도 동두천시 보산동 429-14번지","indutype":"일반휴게음식 - 서양음식","category":"restaurant"}]},{"lat":"37.915746708","long":"127.05701332","imageIndex":4,"items":[{"name":"리와플하우스","tel":"070-7571-1064","addr":"경기도 동두천시 보산동 414-26번지","indutype":"일반휴게음식 - 서양음식","category":"restaurant"},{"name":"하스푸드","tel":"031-862-3869","addr":"경기도 동두천시 보산동 414-26","indutype":"일반휴게음식 - 일반한식","category":"restaurant"}]},{"lat":"37.916602959","long":"127.05620652","imageIndex":4,"items":[{"name":"마츄피츄","tel":"031-866-2503","addr":"경기도 동두천시 보산동 429-64번지","indutype":"일반휴게음식 - 일반한식","category":"restaurant"}]},{"lat":"37.915016635","long":"127.05770648","imageIndex":4,"items":[{"name":"마티스","tel":"031-862-0255","addr":"경기도 동두천시 보산동 365-4번지 2층","indutype":"일반휴게음식 - 서양음식","category":"restaurant"},{"name":"에버델리","tel":"031-863-2581","addr":"경기도 동두천시 보산동 365-4번지","indutype":"일반휴게음식 - 일반한식","category":"restaurant"}]},{"lat":"37.915548478","long":"127.05707004","imageIndex":4,"items":[{"name":"맘스터치/씨유 동두천타운","tel":"031-858-4727","addr":"경기도 동두천시 보산동 419-2번지","indutype":"일반휴게음식 - 서양음식","category":"restaurant"}]},{"lat":"37.915548273","long":"127.05751355","imageIndex":4,"items":[{"name":"베러댄와플 동두천보산점","tel":"070-4001-0122","addr":"경기도 동두천시 보산동 416-9번지","indutype":"일반휴게음식 - 서양음식","category":"restaurant"}]},{"lat":"37.916080359","long":"127.05634261","imageIndex":4,"items":[{"name":"보름달","tel":"031-859-4311","addr":"경기도 동두천시 보산동 429-23번지 1층","indutype":"일반휴게음식 - 일반한식","category":"restaurant"}]},{"lat":"37.916855348","long":"127.05592239","imageIndex":4,"items":[{"name":"보산세아","tel":"031-824-4518","addr":"경기도 동두천시 보산동 429-60번지","indutype":"일반휴게음식 - 스넥","category":"restaurant"}]},{"lat":"37.913962142","long":"127.05856996","imageIndex":4,"items":[{"name":"브이에프더블유","tel":"031-863-9710","addr":"경기도 동두천시 보산동 411-4번지","indutype":"일반휴게음식 - 서양음식","category":"restaurant"}]},{"lat":"37.914691949","long":"127.05845679","imageIndex":4,"items":[{"name":"비버스바베큐","tel":"031-866-0058","addr":"경기도 동두천시 보산동 368-2번지","indutype":"일반휴게음식 - 주점","category":"restaurant"}]},{"lat":"37.91369115","long":"127.06005946","imageIndex":4,"items":[{"name":"뽀빠이치킨","tel":"031-864-0084","addr":"경기도 동두천시 보산동 407-2번지","indutype":"일반휴게음식 - 스넥","category":"restaurant"}]},{"lat":"37.915719386","long":"127.05765014","imageIndex":4,"items":[{"name":"서브웨이","tel":"031-863-2270","addr":"경기도 동두천시 보산동 362-14","indutype":"일반휴게음식 - 서양음식","category":"restaurant"}]},{"lat":"37.916936039","long":"127.05678675","imageIndex":4,"items":[{"name":"세크레투스","tel":"031-866-0731","addr":"경기도 동두천시 보산동 437-13번지 2층","indutype":"일반휴게음식 - 서양음식","category":"restaurant"}]},{"lat":"37.914024299","long":"127.06045774","imageIndex":4,"items":[{"name":"스마일","tel":"031-865-6664","addr":"경기도 동두천시 보산동 381-7번지","indutype":"일반휴게음식 - 일반한식","category":"restaurant"}]},{"lat":"37.917215337","long":"127.0567642","imageIndex":4,"items":[{"name":"스타레스토랑(STAR RESTAURANT)인도카레음","tel":"031-861-8832","addr":"경기도 동두천시 보산동 437-10번지","indutype":"일반휴게음식 - 서양음식","category":"restaurant"},{"name":"칠리 (chillis)","tel":"031-861-8832","addr":"경기도 동두천시 보산동 437-10번지 1층","indutype":"일반휴게음식 - 서양음식","category":"restaurant"}]},{"lat":"37.915629075","long":"127.05811633","imageIndex":4,"items":[{"name":"아나벨레스토랑","tel":"031-864-0683","addr":"경기도 동두천시 보산동 363-18번지","indutype":"일반휴게음식 - 서양음식","category":"restaurant"}]},{"lat":"37.916080078","long":"127.0569567","imageIndex":4,"items":[{"name":"아임이스탄블(IM ISTANBUL)","tel":"031-866-0058","addr":"경기도 동두천시 보산동 418-14번지","indutype":"일반휴게음식 - 일반한식","category":"restaurant"},{"name":"이디아커피 캠프케이시점","tel":"","addr":"경기도 동두천시 보산동 418-14번지 캠프케이시 버스터미널 내","indutype":"일반휴게음식 - 서양음식","category":"restaurant"},{"name":"힐스바","tel":"031-858-9797","addr":"경기도 동두천시 보산동 418-14번지 2층 201호","indutype":"일반휴게음식 - 칵테일바","category":"restaurant"}]},{"lat":"37.914683779","long":"127.05664864","imageIndex":4,"items":[{"name":"알파걸즈","tel":"031-865-8257","addr":"경기도 동두천시 보산동 426-11번지","indutype":"일반휴게음식 - 주점","category":"restaurant"}]},{"lat":"37.914413563","long":"127.05651198","imageIndex":4,"items":[{"name":"엔젤레스토랑","tel":"031-865-3219","addr":"경기도 동두천시 보산동 426-25번지","indutype":"일반휴게음식 - 서양음식","category":"restaurant"}]},{"lat":"37.914602722","long":"127.05659172","imageIndex":4,"items":[{"name":"엘링컨","tel":"031-865-2656","addr":"경기도 동두천시 보산동 426-19번지","indutype":"일반휴게음식 - 서양음식","category":"restaurant"}]},{"lat":"37.91613415","long":"127.05692263","imageIndex":4,"items":[{"name":"엘제이(LJ)","tel":"031-866-0058","addr":"경기도 동두천시 보산동 414-6번지 1층","indutype":"일반휴게음식 - 일반한식","category":"restaurant"}]},{"lat":"37.913295643","long":"127.05817145","imageIndex":4,"items":[{"name":"예막걸리촌","tel":"031-867-1864","addr":"경기도 동두천시 보산동 412-46번지","indutype":"일반휴게음식 - 일반한식","category":"restaurant"},{"name":"정아네","tel":"031-865-8825","addr":"경기도 동두천시 보산동 412-46번지","indutype":"일반휴게음식 - 일반한식","category":"restaurant"}]},{"lat":"37.913691971","long":"127.05834232","imageIndex":4,"items":[{"name":"오미숯불갈비","tel":"031-862-9593","addr":"경기도 동두천시 보산동 412-49번지","indutype":"일반휴게음식 - 일반한식","category":"restaurant"}]},{"lat":"37.916187085","long":"127.05931083","imageIndex":4,"items":[{"name":"우리동네","tel":"031-866-9991","addr":"경기도 동두천시 보산동 358-2번지 1층","indutype":"일반휴게음식 - 일반한식","category":"restaurant"}]},{"lat":"37.913133342","long":"127.05845562","imageIndex":4,"items":[{"name":"제베나커피","tel":"031-867-2233","addr":"경기도 동두천시 보산동 410-28번지","indutype":"일반휴게음식 - 일반한식","category":"restaurant"}]},{"lat":"37.915989521","long":"127.05795739","imageIndex":4,"items":[{"name":"제이에이이젠마인터내셔날","tel":"070-4962-6432","addr":"경기도 동두천시 보산동 362-7번지 1층","indutype":"일반휴게음식 - 서양음식","category":"restaurant"}]},{"lat":"37.913160605","long":"127.05795528","imageIndex":4,"items":[{"name":"중국관","tel":"031-862-5739","addr":"경기도 동두천시 보산동 412-27번지","indutype":"일반휴게음식 - 중국식","category":"restaurant"}]},{"lat":"37.91749513","long":"127.05564991","imageIndex":4,"items":[{"name":"카페엣","tel":"031-861-5330","addr":"경기도 동두천시 보산동 435-6번지","indutype":"일반휴게음식 - 일반한식","category":"restaurant"}]},{"lat":"37.917521679","long":"127.05670757","imageIndex":4,"items":[{"name":"코리안바베큐(보산점)","tel":"031-866-9202","addr":"경기도 동두천시 보산동 437-6번지","indutype":"일반휴게음식 - 일반한식","category":"restaurant"}]},{"lat":"37.916323024","long":"127.05761647","imageIndex":4,"items":[{"name":"크랙치킨(crack chicken)","tel":"031-111-1111","addr":"경기도 동두천시 보산동 417-1번지 1층","indutype":"일반휴게음식 - 스넥","category":"restaurant"}]},{"lat":"37.916052846","long":"127.0574002","imageIndex":4,"items":[{"name":"타코하우스멕시칸그릴 보산동점","tel":"","addr":"경기도 동두천시 보산동 417-12번지","indutype":"일반휴게음식 - 서양음식","category":"restaurant"}]},{"lat":"37.917080198","long":"127.05676411","imageIndex":4,"items":[{"name":"필라델피아","tel":"031-858-6168","addr":"경기도 동두천시 보산동 437-12번지 1층","indutype":"일반휴게음식 - 서양음식","category":"restaurant"}]},{"lat":"37.921711135","long":"127.05640355","imageIndex":4,"items":[{"name":"해방촌국수부흥국수","tel":"031-862-1945","addr":"경기도 동두천시 보산동 449-7번지","indutype":"일반휴게음식 - 일반한식","category":"restaurant"}]},{"lat":"37.913494001","long":"127.05784181","imageIndex":4,"items":[{"name":"화부와술이있는곳","tel":"031-861-1090","addr":"경기도 동두천시 보산동 412-13번지","indutype":"일반휴게음식 - 일반한식","category":"restaurant"}]},{"lat":"37.914683073","long":"127.05817248","imageIndex":4,"items":[{"name":"히든","tel":"031-866-3044","addr":"경기도 동두천시 보산동 365-12번지","indutype":"일반휴게음식 - 주점","category":"restaurant"}]},{"lat":"37.913880356","long":"127.06003687","imageIndex":4,"items":[{"name":"힐링캠프","tel":"031-859-3636","addr":"경기도 동두천시 보산동 381-9번지","indutype":"일반휴게음식 - 일반한식","category":"restaurant"}]},{"lat":"37.917602778","long":"127.05667351","imageIndex":13,"items":[{"name":"KC'S헤어토탈","tel":"031-866-6434","addr":"경기도 동두천시 보산동 437-5번지","indutype":"보건위생 - 미용원","category":"beauty"}]},{"lat":"37.91613415","long":"127.05692263","imageIndex":13,"items":[{"name":"뉴홍콩안경","tel":"031-868-2433","addr":"경기도 동두천시 보산동 414-6번지","indutype":"보건위생 - 안경","category":"beauty"},{"name":"뷰티 그린","tel":"070-7559-2002","addr":"경기도 동두천시 보산동 414-6번지 1층","indutype":"보건위생 - 화장품","category":"beauty"}]},{"lat":"37.915828125","long":"127.05628556","imageIndex":13,"items":[{"name":"더봄아뜰리에","tel":"031-000-0000","addr":"경기도 동두천시 보산동 429-3번지 1호","indutype":"보건위생 - 화장품","category":"beauty"}]},{"lat":"37.914322962","long":"127.05761499","imageIndex":13,"items":[{"name":"미스박헤어","tel":"031-868-0909","addr":"경기도 동두천시 보산동 413-3번지","indutype":"보건위생 - 미용원","category":"beauty"}]},{"lat":"37.91369132","long":"127.05970694","imageIndex":13,"items":[{"name":"삐삐머리방","tel":"031-865-6039","addr":"경기도 동두천시 보산동 407-4번지","indutype":"보건위생 - 미용원","category":"beauty"}]},{"lat":"37.917242572","long":"127.05630933","imageIndex":13,"items":[{"name":"썬헤어","tel":"1111-1111-1111","addr":"경기도 동두천시 보산동 436-33번지","indutype":"보건위생 - 미용원","category":"beauty"}]},{"lat":"37.916657041","long":"127.05614969","imageIndex":13,"items":[{"name":"아트닷컴","tel":"031-838-6202","addr":"경기도 동두천시 보산동 429-65번지","indutype":"보건위생 - 기타대인서비스","category":"beauty"},{"name":"아트닷컴","tel":"031-838-6202","addr":"경기도 동두천시 보산동 429-65번지","indutype":"보건위생 - 기타대인서비스","category":"beauty"}]},{"lat":"37.917404965","long":"127.05580906","imageIndex":13,"items":[{"name":"아트스튜디오","tel":"031-838-6202","addr":"경기도 동두천시 보산동 435-7번지","indutype":"보건위생 - 기타대인서비스","category":"beauty"}]},{"lat":"37.917044368","long":"127.05630919","imageIndex":13,"items":[{"name":"안헤어샵","tel":"031-866-9234","addr":"경기도 동두천시 보산동 436-35번지 2호","indutype":"보건위생 - 미용원","category":"beauty"}]},{"lat":"37.914079669","long":"127.05770578","imageIndex":13,"items":[{"name":"예쁜손(네일아트)","tel":"031-857-8668","addr":"경기도 동두천시 보산동 413-5번지","indutype":"보건위생 - 피부미용실","category":"beauty"}]},{"lat":"37.916377411","long":"127.05690006","imageIndex":13,"items":[{"name":"오닉스","tel":"070-4922-1261","addr":"경기도 동두천시 보산동 418-4번지 101호","indutype":"보건위생 - 피부미용실","category":"beauty"},{"name":"티스파&네일","tel":"","addr":"경기도 동두천시 보산동 418-4번지 왼쪽계단 2동 1층","indutype":"보건위생 - 화장품","category":"beauty"},{"name":"티스파&네일(TSP&NAIL)","tel":"","addr":"경기도 동두천시 보산동 418-4번지 2동 1층 왼쪽계단 2층","indutype":"보건위생 - 화장품","category":"beauty"}]},{"lat":"37.91369115","long":"127.06005946","imageIndex":13,"items":[{"name":"웰라미용실","tel":"031-867-4498","addr":"경기도 동두천시 보산동 407-2번지","indutype":"보건위생 - 미용원","category":"beauty"}]},{"lat":"37.917323692","long":"127.05622978","imageIndex":13,"items":[{"name":"유니크 헤어샵","tel":"","addr":"경기도 동두천시 보산동 436-2번지","indutype":"보건위생 - 미용원","category":"beauty"}]},{"lat":"37.913492768","long":"127.06042321","imageIndex":13,"items":[{"name":"이진미용실","tel":"031-866-7189","addr":"경기도 동두천시 보산동 407-49번지","indutype":"보건위생 - 미용원","category":"beauty"}]},{"lat":"37.916242004","long":"127.05747994","imageIndex":13,"items":[{"name":"초이스바버샵","tel":"031-866-6236","addr":"경기도 동두천시 보산동 417-14번지","indutype":"보건위생 - 이용원","category":"beauty"}]},{"lat":"37.916133945","long":"127.05736614","imageIndex":13,"items":[{"name":"킴스바버샵","tel":"031-864-2718","addr":"경기도 동두천시 보산동 417-13번지","indutype":"보건위생 - 이용원","category":"beauty"}]},{"lat":"37.917080198","long":"127.05676411","imageIndex":13,"items":[{"name":"킹바버샵","tel":"031-866-6766","addr":"경기도 동두천시 보산동 437-12번지","indutype":"보건위생 - 미용원","category":"beauty"}]},{"lat":"37.913466263","long":"127.05934287","imageIndex":13,"items":[{"name":"토모토모헤어","tel":"070-8877-8885","addr":"경기도 동두천시 보산동 410-26번지","indutype":"보건위생 - 미용원","category":"beauty"}]},{"lat":"37.914935344","long":"127.05814993","imageIndex":13,"items":[{"name":"티파니미용실","tel":"031-864-0480","addr":"경기도 동두천시 보산동 365-18번지","indutype":"보건위생 - 미용원","category":"beauty"}]},{"lat":"37.9177109","long":"127.05665084","imageIndex":13,"items":[{"name":"홈보이","tel":"031-868-2234","addr":"경기도 동두천시 보산동 437-3번지 2층","indutype":"보건위생 - 미용재료","category":"beauty"},{"name":"홈보이미용실","tel":"031-828-2234","addr":"경기도 동두천시 보산동 437-3번지 2층","indutype":"보건위생 - 미용원","category":"beauty"}]},{"lat":"37.913492768","long":"127.06042321","imageIndex":7,"items":[{"name":"경원축산유통2호점","tel":"031-866-9940","addr":"경기도 동두천시 보산동 407-49번지","indutype":"음료식품 - 정육점","category":"food"}]},{"lat":"37.920630047","long":"127.0563459","imageIndex":7,"items":[{"name":"달공작업실","tel":"031-861-9210","addr":"경기도 동두천시 보산동 448-37번지","indutype":"음료식품 - 기타음료식품","category":"food"}]},{"lat":"37.914908808","long":"127.05709231","imageIndex":7,"items":[{"name":"마차산건강원","tel":"031-862-8693","addr":"경기도 동두천시 보산동 422번지","indutype":"건강식품 - 기타건강식품","category":"food"}]},{"lat":"37.913295643","long":"127.05817145","imageIndex":7,"items":[{"name":"반찬공방","tel":"070-7571-0232","addr":"경기도 동두천시 보산동 412-46번지","indutype":"음료식품 - 기타음료식품","category":"food"}]},{"lat":"37.9177109","long":"127.05665084","imageIndex":7,"items":[{"name":"사보리","tel":"031-859-3730","addr":"경기도 동두천시 보산동 437-3번지","indutype":"음료식품 - 기타음료식품","category":"food"}]},{"lat":"37.915548273","long":"127.05751355","imageIndex":7,"items":[{"name":"수키(SUKEY)","tel":"031-866-5984","addr":"경기도 동두천시 보산동 416-9번지 2층","indutype":"음료식품 - 기타음료식품","category":"food"}]},{"lat":"37.914881958","long":"127.05670564","imageIndex":7,"items":[{"name":"스위트로빈","tel":"","addr":"경기도 동두천시 보산동 426-6번지","indutype":"음료식품 - 제과점","category":"food"}]},{"lat":"37.914825661","long":"127.06140224","imageIndex":7,"items":[{"name":"우리농산물","tel":"031-856-7795","addr":"경기도 동두천시 보산동 400-13번지","indutype":"음료식품 - 농·축·수산품","category":"food"}]},{"lat":"37.914691368","long":"127.05967359","imageIndex":7,"items":[{"name":"일오상사","tel":"031-865-4695","addr":"경기도 동두천시 보산동 370-2번지 101호","indutype":"음료식품 - 기타음료식품","category":"food"}]},{"lat":"37.91746784","long":"127.05622989","imageIndex":7,"items":[{"name":"킹덤","tel":"031-863-1240","addr":"경기도 동두천시 보산동 436-18번지 1층","indutype":"음료식품 - 기타음료식품","category":"food"}]},{"lat":"37.915267559","long":"127.0605042","imageIndex":0,"items":[{"name":"경환카서비스","tel":"031-862-6865","addr":"경기도 동두천시 보산동 387-7번지","indutype":"자동차정비 유지 - 세차장","category":"car"}]},{"lat":"37.91335764","long":"127.06040036","imageIndex":0,"items":[{"name":"광산카센타","tel":"031-865-1396","addr":"경기도 동두천시 보산동 407-53번지","indutype":"자동차정비 유지 - 자동차정비","category":"car"}]},{"lat":"37.913159909","long":"127.05942224","imageIndex":0,"items":[{"name":"대성카센타","tel":"031-864-0942","addr":"경기도 동두천시 보산동 407-5번지","indutype":"자동차정비 유지 - 자동차정비","category":"car"}]},{"lat":"37.913719143","long":"127.0580353","imageIndex":0,"items":[{"name":"대성카프라자","tel":"031-000-0000","addr":"경기도 동두천시 보산동 412-24번지 대성카프라자","indutype":"자동차정비 유지 - 자동차정비","category":"car"}]},{"lat":"37.913267845","long":"127.05978622","imageIndex":0,"items":[{"name":"보산세차장","tel":"031-861-4782","addr":"경기도 동두천시 보산동 407-12번지","indutype":"자동차정비 유지 - 세차장","category":"car"}]},{"lat":"37.916133945","long":"127.05736614","imageIndex":0,"items":[{"name":"켄치디스인베스트먼트 주식회사","tel":"070-0000-0000","addr":"경기도 동두천시 보산동 417-13번지 1층(1층)","indutype":"자동차판매 - 중고자동차판매","category":"car"}]},{"lat":"37.914719418","long":"127.05751294","imageIndex":13,"items":[{"name":"구슬모아","tel":"","addr":"경기도 동두천시 보산동 365-37번지 동두천쇼핑 2층","indutype":"레저업소 - 당 구 장","category":"leisure"}]},{"lat":"37.914086723","long":"127.06175418","imageIndex":13,"items":[{"name":"레크레이션 언리미티드","tel":"","addr":"경기도 동두천시 보산동 400-1번지 주공 102동 205호","indutype":"레저업소 - 수 영 장","category":"leisure"}]},{"lat":"37.914683073","long":"127.05817248","imageIndex":16,"items":[{"name":"동두천 아메리칸외국어학원","tel":"031-861-0836","addr":"경기도 동두천시 보산동 365-12번지 2-3층","indutype":"회원제형태 - 학원","category":"study"}]},{"lat":"37.913683186","long":"127.0578647","imageIndex":16,"items":[{"name":"두드림요양보호사교육원","tel":"031-863-0604","addr":"경기도 동두천시 보산동 412-11번지 2층","indutype":"학원 - 기능학원","category":"study"}]},{"lat":"37.917798578","long":"127.06170028","imageIndex":16,"items":[{"name":"보산어린이집[아이행복]","tel":"031-864-1280","addr":"경기도 동두천시 보산동 314-7번지","indutype":"학원 - 유아원","category":"study"}]},{"lat":"37.922630297","long":"127.05592654","imageIndex":16,"items":[{"name":"서머힐어린이집[아이행복]","tel":"031-868-4576","addr":"경기도 동두천시 보산동 459-43번지","indutype":"학원 - 유아원","category":"study"}]},{"lat":"37.914719418","long":"127.05751294","imageIndex":7,"items":[{"name":"동두천쇼핑","tel":"031-865-4555","addr":"경기도 동두천시 보산동 365-37번지","indutype":"유통업 영리 - 슈퍼마켓","category":"mart"}]},{"lat":"37.915104994","long":"127.06131148","imageIndex":7,"items":[{"name":"보산슈퍼","tel":"031-863-3447","addr":"경기도 동두천시 보산동 400-3번지","indutype":"유통업 영리 - 슈퍼마켓","category":"mart"}]},{"lat":"37.915990276","long":"127.0563198","imageIndex":7,"items":[{"name":"보산슈퍼마켓","tel":"031-857-0059","addr":"경기도 동두천시 보산동 429-74번지","indutype":"유통업 영리 - 슈퍼마켓","category":"mart"},{"name":"월드마켓","tel":"031-865-9267","addr":"경기도 동두천시 보산동 429-74번지","indutype":"유통업 영리 - 슈퍼마켓","category":"mart"}]},{"lat":"37.913718589","long":"127.0592066","imageIndex":9,"items":[{"name":"동원연탄","tel":"070-4155-2709","addr":"경기도 동두천시 보산동 410-1번지 대성주택 201호","indutype":"연료판매점 - 기타연료","category":"oil"}]},{"lat":"37.915016635","long":"127.05770648","imageIndex":8,"items":[{"name":"사랑동물병원","tel":"031-863-0075","addr":"경기도 동두천시 보산동 365-4번지","indutype":"기타의료기관 - 동물병원","category":"medical"}]},{"lat":"37.91457509","long":"127.05789948","imageIndex":5,"items":[{"name":"하와이장여관","tel":"031-866-8178","addr":"경기도 동두천시 보산동 365-10번지","indutype":"숙박업 - 여관/기타숙박업","category":"hotel"}]}]