[{"lat":"36.95683633","long":"127.19013098","imageIndex":0,"items":[{"name":"(주)대일특장","tel":"031-677-0056","addr":"경기도 안성시 미양면 개정리 556번지","indutype":"자동차판매 - 기타운송","category":"car"}]},{"lat":"36.964337178","long":"127.18175001","imageIndex":17,"items":[{"name":"(주)삼일하우징","tel":"031-673-5522","addr":"경기도 안성시 미양면 개정리 509-66번지","indutype":"건축자재 - 기타건축자재","category":"other"}]},{"lat":"36.95683633","long":"127.19013098","imageIndex":17,"items":[{"name":"대일기획","tel":"031-677-2792","addr":"경기도 안성시 미양면 개정리 556번지","indutype":"용역 서비스 - 종합용역","category":"other"}]},{"lat":"36.963861085","long":"127.19241644","imageIndex":17,"items":[{"name":"세븐일레븐안성개정점","tel":"","addr":"경기도 안성시 미양면 개정리 350-7번지 1층","indutype":"유통업 영리 - 편 의 점","category":"other"}]},{"lat":"36.961055179","long":"127.18897354","imageIndex":17,"items":[{"name":"지산","tel":"031-673-8313","addr":"경기도 안성시 미양면 개정리 306-4번지","indutype":"주방용구 - 주방용식기","category":"other"}]},{"lat":"36.963861085","long":"127.19241644","imageIndex":9,"items":[{"name":"개정주유소","tel":"031-672-6902","addr":"경기도 안성시 미양면 개정리 350-7번지","indutype":"연료판매점 - 현대정유(오일뱅크)","category":"oil"}]},{"lat":"36.959941105","long":"127.18688234","imageIndex":9,"items":[{"name":"미양농협주유소","tel":"031-674-8774","addr":"경기도 안성시 미양면 개정리 531-1번지 1층","indutype":"연료판매점 - 주유소","category":"oil"}]},{"lat":"36.96056038","long":"127.18846705","imageIndex":16,"items":[{"name":"개정초등학교","tel":"","addr":"경기도 안성시 미양면 개정리 304-1번지 개정초등학교","indutype":"학원 - 초중고교육기관","category":"study"}]},{"lat":"36.957831732","long":"127.19868924","imageIndex":4,"items":[{"name":"공단식당","tel":"031-677-0505","addr":"경기도 안성시 미양면 개정리 768","indutype":"일반휴게음식 - 일반한식","category":"restaurant"}]},{"lat":"36.966835381","long":"127.19752198","imageIndex":4,"items":[{"name":"노다지가든","tel":"031-674-3305","addr":"경기도 안성시 미양면 개정리 35-1번지","indutype":"일반휴게음식 - 일반한식","category":"restaurant"}]},{"lat":"36.962698884","long":"127.19230127","imageIndex":4,"items":[{"name":"노들관광농장","tel":"031-677-5252","addr":"경기도 안성시 미양면 개정리 348-32번지","indutype":"일반휴게음식 - 일반한식","category":"restaurant"}]},{"lat":"36.963858638","long":"127.19394358","imageIndex":4,"items":[{"name":"춘추관&또봉이통닭미양점","tel":"031-673-4177","addr":"경기도 안성시 미양면 개정리 348-49번지","indutype":"일반휴게음식 - 중국식","category":"restaurant"},{"name":"춘추관&또봉이통닭미양점","tel":"031-673-3177","addr":"경기도 안성시 미양면 개정리 348-49번지","indutype":"일반휴게음식 - 중국식","category":"restaurant"}]},{"lat":"36.957831732","long":"127.19868924","imageIndex":7,"items":[{"name":"공단편의점","tel":"031-677-0505","addr":"경기도 안성시 미양면 개정리 768","indutype":"음료식품 - 기타음료식품","category":"food"}]},{"lat":"36.965919161","long":"127.18432522","imageIndex":7,"items":[{"name":"농업회사법인주식회사인터팜","tel":"031-673-1900","addr":"경기도 안성시 미양면 개정리 740-3번지","indutype":"음료식품 - 농·축·수산품","category":"food"}]}]