[{"lat":"37.777199067","long":"126.70602239","imageIndex":0,"items":[{"name":"BOP헤이리","tel":"02-1544-6072","addr":"경기도 파주시 탄현면 법흥리 497-110번지","indutype":"자동차정비 유지 - 자동차정비","category":"car"}]},{"lat":"37.776922368","long":"126.71432094","imageIndex":0,"items":[{"name":"갈현자동차공업사","tel":"031-947-4079","addr":"경기도 파주시 탄현면 법흥리 169-5","indutype":"자동차정비 유지 - 자동차정비","category":"car"}]},{"lat":"37.777950078","long":"126.71457801","imageIndex":0,"items":[{"name":"국제자동차보링공업사","tel":"031-947-0380","addr":"경기도 파주시 탄현면 법흥리 158-2","indutype":"자동차정비 유지 - 자동차정비","category":"car"}]},{"lat":"37.77849997","long":"126.7110457","imageIndex":0,"items":[{"name":"스트리모","tel":"031-944-4262","addr":"경기도 파주시 탄현면 법흥리 498-23번지","indutype":"자동차정비 유지 - 자동차부품","category":"car"}]},{"lat":"37.779284995","long":"126.70790969","imageIndex":0,"items":[{"name":"양지바른정비마당","tel":"031-957-1255","addr":"경기도 파주시 탄현면 법흥리 481번지","indutype":"자동차정비 유지 - 자동차정비","category":"car"}]},{"lat":"37.770309636","long":"126.70357567","imageIndex":0,"items":[{"name":"제이오일","tel":"","addr":"경기도 파주시 탄현면 법흥리 1587-2번지","indutype":"자동차정비 유지 - 자동차부품","category":"car"}]},{"lat":"37.778668368","long":"126.70632299","imageIndex":0,"items":[{"name":"주식회사 한강모터스","tel":"031-946-0999","addr":"경기도 파주시 탄현면 법흥리 500-4번지","indutype":"자동차정비 유지 - 자동차정비","category":"car"}]},{"lat":"37.768533551","long":"126.69957645","imageIndex":0,"items":[{"name":"통일오토카센타","tel":"031-944-8419","addr":"경기도 파주시 탄현면 법흥리 1601-9번지","indutype":"자동차정비 유지 - 자동차정비","category":"car"}]},{"lat":"37.786248218","long":"126.6968817","imageIndex":0,"items":[{"name":"트라이벌카본","tel":"","addr":"경기도 파주시 탄현면 법흥리 1652-366번지","indutype":"자동차정비 유지 - 자동차부품","category":"car"}]},{"lat":"37.774639163","long":"126.70199186","imageIndex":0,"items":[{"name":"현대자동차공업사","tel":"031-949-0991","addr":"경기도 파주시 탄현면 법흥리 1724번지 정동빌딩 101호","indutype":"자동차정비 유지 - 자동차정비","category":"car"}]}]