[{"lat":"37.707601134","long":"127.16522916","imageIndex":16,"items":[{"name":"MIT학원","tel":"031-575-7994","addr":"경기도 남양주시 진접읍 내각리 192번지 원일대궐터 상가동 201호,202호","indutype":"학원 - 보습학원","category":"study"}]},{"lat":"37.706602208","long":"127.16439915","imageIndex":16,"items":[{"name":"그린꿈미술교습소","tel":"070-8153-4158","addr":"경기도 남양주시 진접읍 내각리 188-54번지","indutype":"학원 - 예·체능계학원","category":"study"}]},{"lat":"37.70749428","long":"127.16431037","imageIndex":16,"items":[{"name":"내각해법영어교습소","tel":"070-7516-6424","addr":"경기도 남양주시 진접읍 내각리 188-9번지 107호","indutype":"회원제형태 - 학원","category":"study"},{"name":"토닉음악학원","tel":"031-529-7585","addr":"경기도 남양주시 진접읍 내각리 188-9번지","indutype":"학원 - 예·체능계학원","category":"study"}]},{"lat":"37.703379003","long":"127.16275926","imageIndex":16,"items":[{"name":"문화예술어린이집[아이행복]","tel":"031-573-3774","addr":"경기도 남양주시 진접읍 내각리 732-17번지","indutype":"학원 - 유아원","category":"study"}]},{"lat":"37.705827431","long":"127.16436345","imageIndex":16,"items":[{"name":"삐아제어린이집[아이행복]","tel":"031-573-2553","addr":"경기도 남양주시 진접읍 내각리 756-6","indutype":"학원 - 유아원","category":"study"}]},{"lat":"37.706824697","long":"127.1663955","imageIndex":16,"items":[{"name":"예성어린이집[아이행복]","tel":"031-528-2824","addr":"경기도 남양주시 진접읍 내각리 252-34번지","indutype":"학원 - 유아원","category":"study"}]},{"lat":"37.704544312","long":"127.16708222","imageIndex":16,"items":[{"name":"와이티보습학원","tel":"031-527-3779","addr":"경기도 남양주시 진접읍 내각리 273","indutype":"학원 - 보습학원","category":"study"}]},{"lat":"37.702047086","long":"127.16164513","imageIndex":16,"items":[{"name":"풍양초등학교병설유치원[아이행복]","tel":"031-571-2214","addr":"경기도 남양주시 진접읍 내각리 640-3번지 풍양초등학교","indutype":"학원 - 유치원","category":"study"}]},{"lat":"37.704796927","long":"127.1668333","imageIndex":16,"items":[{"name":"한길로학원","tel":"031-515-6054","addr":"경기도 남양주시 진접읍 내각리 274-1번지 유민스테인레스(주) 201호","indutype":"학원 - 보습학원","category":"study"}]}]