[{"lat":"36.984358256","long":"127.30278794","imageIndex":17,"items":[{"name":"H.S 씽크탑","tel":"031-676-5586","addr":"경기도 안성시 금광면 개산리 177번지","indutype":"주방용구 - 주방용구","category":"other"}]},{"lat":"36.983635931","long":"127.30336916","imageIndex":17,"items":[{"name":"금광농업협동조합개산지소","tel":"031-674-3774","addr":"경기도 안성시 금광면 개산리 184-5번지","indutype":"유통업 비영리 - 농협하나로클럽","category":"other"},{"name":"금광농업협동조합개산지소","tel":"031-674-3774","addr":"경기도 안성시 금광면 개산리 184-5","indutype":"농업 - 비료,사료,종자","category":"other"}]},{"lat":"36.980976296","long":"127.30395397","imageIndex":17,"items":[{"name":"대승팩","tel":"031-675-0918","addr":"경기도 안성시 금광면 개산리 204-6번지 외2필지","indutype":"유통업 영리 - 기타유통업","category":"other"}]},{"lat":"36.98422162","long":"127.30337147","imageIndex":17,"items":[{"name":"세븐일레븐안성개산점","tel":"031-1577-0711","addr":"경기도 안성시 금광면 개산리 175번지","indutype":"유통업 영리 - 편 의 점","category":"other"}]},{"lat":"36.980000907","long":"127.29401039","imageIndex":17,"items":[{"name":"안성토탈사무기","tel":"031-675-3667","addr":"경기도 안성시 금광면 개산리 526-7번지","indutype":"사무통신 - 사무용 OA기기","category":"other"}]},{"lat":"36.985749116","long":"127.30151293","imageIndex":17,"items":[{"name":"이승재 식물원","tel":"031-672-7644","addr":"경기도 안성시 금광면 개산리 157-1번지","indutype":"문화.취미 - 화원","category":"other"}]},{"lat":"36.981615336","long":"127.30423728","imageIndex":17,"items":[{"name":"주식회사 대승팩","tel":"031-675-0918","addr":"경기도 안성시 금광면 개산리 204-3번지 4동","indutype":"유통업 영리 - 기타유통업","category":"other"}]},{"lat":"36.983027038","long":"127.30185048","imageIndex":17,"items":[{"name":"한지나라 보담갤러리","tel":"031-675-9082","addr":"경기도 안성시 금광면 개산리 214-8번지 1층","indutype":"문화.취미 - 문화취미기타","category":"other"}]}]