[{"lat":"37.822928607","long":"127.34076732","imageIndex":5,"items":[{"name":"M모텔","tel":"031-585-9887","addr":"경기도 가평군 조종면 현리 170-4번지","indutype":"숙박업 - 여관/기타숙박업","category":"hotel"}]},{"lat":"37.835812902","long":"127.35281068","imageIndex":5,"items":[{"name":"구름위산책","tel":"","addr":"경기도 가평군 조종면 현리 2-4번지 1동","indutype":"숙박업 - 여관/기타숙박업","category":"hotel"}]},{"lat":"37.818151896","long":"127.35064895","imageIndex":5,"items":[{"name":"대원장여관","tel":"031-585-3309","addr":"경기도 가평군 조종면 현리 259-3번지","indutype":"숙박업 - 여관/기타숙박업","category":"hotel"}]},{"lat":"37.818757661","long":"127.34992493","imageIndex":5,"items":[{"name":"더모텔","tel":"031-585-9101","addr":"경기도 가평군 조종면 현리 263-16번지","indutype":"숙박업 - 여관/기타숙박업","category":"hotel"},{"name":"더모텔","tel":"031-585-9101","addr":"경기도 가평군 조종면 현리 263-16번지","indutype":"숙박업 - 여관/기타숙박업","category":"hotel"}]},{"lat":"37.819701562","long":"127.34756702","imageIndex":5,"items":[{"name":"로얄파크","tel":"031-585-4880","addr":"경기도 가평군 조종면 현리 270-4번지 로얄파크","indutype":"숙박업 - 여관/기타숙박업","category":"hotel"},{"name":"로얄파크","tel":"031-585-6869","addr":"경기도 가평군 조종면 현리 270-4번지 2,3층","indutype":"숙박업 - 여관/기타숙박업","category":"hotel"}]},{"lat":"37.805369465","long":"127.35304172","imageIndex":5,"items":[{"name":"모텔엠","tel":"031-585-3562","addr":"경기도 가평군 조종면 현리 521-4","indutype":"숙박업 - 여관/기타숙박업","category":"hotel"},{"name":"모텔엠","tel":"031-585-3562","addr":"경기도 가평군 조종면 현리 521-4번지","indutype":"숙박업 - 여관/기타숙박업","category":"hotel"},{"name":"모텔엠(M)","tel":"031-585-3562","addr":"경기도 가평군 조종면 현리 521-4번지","indutype":"숙박업 - 여관/기타숙박업","category":"hotel"}]},{"lat":"37.829340599","long":"127.34170526","imageIndex":5,"items":[{"name":"솔잎향기펜션","tel":"031-584-7719","addr":"경기도 가평군 조종면 현리 117-13","indutype":"숙박업 - 여관/기타숙박업","category":"hotel"}]},{"lat":"37.819903243","long":"127.34945328","imageIndex":5,"items":[{"name":"유길장","tel":"031-585-0246","addr":"경기도 가평군 조종면 현리 262-41번지","indutype":"숙박업 - 여관/기타숙박업","category":"hotel"}]},{"lat":"37.833150938","long":"127.34503964","imageIndex":5,"items":[{"name":"이등병펜션","tel":"031-584-2672","addr":"경기도 가평군 조종면 현리 49-10번지","indutype":"숙박업 - 여관/기타숙박업","category":"hotel"}]},{"lat":"37.819370359","long":"127.34990508","imageIndex":5,"items":[{"name":"청운장여관","tel":"031-585-0103","addr":"경기도 가평군 조종면 현리 263-1번지 청운장","indutype":"숙박업 - 여관/기타숙박업","category":"hotel"}]},{"lat":"37.818624461","long":"127.34926559","imageIndex":5,"items":[{"name":"호텔타루","tel":"031-584-7808","addr":"경기도 가평군 조종면 현리 264-22번지","indutype":"숙박업 - 여관/기타숙박업","category":"hotel"}]}]