[{"lat":"37.220288781","long":"126.62982402","imageIndex":13,"items":[{"name":"대부선감어촌계영어조합법인","tel":"032-886-6133","addr":"경기도 안산시 단원구 선감동 208-17번지 1층","indutype":"레저업소 - 기타레져업소","category":"leisure"},{"name":"선감체험마을영어조합법인","tel":"032-886-6133","addr":"경기도 안산시 단원구 선감동 208-17번지 1층","indutype":"레저업소 - 기타레져업소","category":"leisure"}]},{"lat":"37.205683769","long":"126.64465265","imageIndex":13,"items":[{"name":"세종도예원","tel":"032-325-6699","addr":"경기도 안산시 단원구 선감동 680-5번지 3층","indutype":"레저업소 - 기타레져업소","category":"leisure"},{"name":"하늘노래연습장","tel":"032-885-4951","addr":"경기도 안산시 단원구 선감동 680-5번지 1층","indutype":"레저업소 - 노 래 방","category":"leisure"}]},{"lat":"37.205684518","long":"126.64490047","imageIndex":13,"items":[{"name":"소리바다노래연습장","tel":"032-882-3117","addr":"경기도 안산시 단원구 선감동 680-4 2층","indutype":"레저업소 - 노 래 방","category":"leisure"}]},{"lat":"37.19274125","long":"126.64642574","imageIndex":13,"items":[{"name":"안산요트아카데미","tel":"031-406-3388","addr":"경기도 안산시 단원구 선감동 산 160-2","indutype":"레저업소 - 기타레져업소","category":"leisure"}]},{"lat":"37.199376518","long":"126.64464866","imageIndex":13,"items":[{"name":"에스(S)노래연습장","tel":"","addr":"경기도 안산시 단원구 선감동 683-81번지","indutype":"레저업소 - 노 래 방","category":"leisure"}]},{"lat":"37.201656749","long":"126.6448519","imageIndex":13,"items":[{"name":"주식회사 대부도캠핑시티","tel":"02-1644-3655","addr":"경기도 안산시 단원구 선감동 683-3번지","indutype":"레저업소 - 기타레져업소","category":"leisure"}]},{"lat":"37.192404953","long":"126.64545873","imageIndex":13,"items":[{"name":"탄도어촌계","tel":"032-885-3745","addr":"경기도 안산시 단원구 선감동 717-2번지","indutype":"레저업소 - 기타레져업소","category":"leisure"}]},{"lat":"37.194323996","long":"126.64540463","imageIndex":13,"items":[{"name":"탄도힐링오토캠핑장","tel":"032-888-0711","addr":"경기도 안산시 단원구 선감동 717-10","indutype":"레저업소 - 기타레져업소","category":"leisure"}]}]