[{"lat":"37.313309334","long":"126.61270326","imageIndex":7,"items":[{"name":"(주)대청산업개발 시화조력문화관휴게소","tel":"031-509-4941","addr":"경기도 안산시 단원구 대부동동 2098번지","indutype":"음료식품 - 기타음료식품","category":"food"}]},{"lat":"37.239404881","long":"126.6174008","imageIndex":7,"items":[{"name":"(주)우이당","tel":"031-403-2131","addr":"경기도 안산시 단원구 대부동동 85-1번지","indutype":"음료식품 - 기타음료식품","category":"food"}]},{"lat":"37.246262634","long":"126.59613187","imageIndex":7,"items":[{"name":"군자농협대부포도직거래판매점","tel":"032-886-6097","addr":"경기도 안산시 단원구 대부동동 1001-3번지","indutype":"음료식품 - 농·축·수산품","category":"food"}]},{"lat":"37.240233919","long":"126.60382773","imageIndex":7,"items":[{"name":"달맞이유통","tel":"032-883-6073","addr":"경기도 안산시 단원구 대부동동 571-1번지","indutype":"음료식품 - 기타음료식품","category":"food"}]},{"lat":"37.23920415","long":"126.60843118","imageIndex":7,"items":[{"name":"대부과일","tel":"031-5686-4882","addr":"경기도 안산시 단원구 대부동동 221-4번지 (외222-6번지)","indutype":"음료식품 - 농·축·수산품","category":"food"}]},{"lat":"37.241153235","long":"126.60124207","imageIndex":7,"items":[{"name":"대부과일","tel":"","addr":"경기도 안산시 단원구 대부동동 555-3번지","indutype":"음료식품 - 농·축·수산품","category":"food"},{"name":"대부과일","tel":"070-8943-3642","addr":"경기도 안산시 단원구 대부동동 555-3번지","indutype":"음료식품 - 농·축·수산품","category":"food"}]},{"lat":"37.236238324","long":"126.58951436","imageIndex":7,"items":[{"name":"대부도수산","tel":"032-887-6625","addr":"경기도 안산시 단원구 대부동동 1567-77번지","indutype":"음료식품 - 농·축·수산품","category":"food"}]},{"lat":"37.24331612","long":"126.59871732","imageIndex":7,"items":[{"name":"대부버섯농원","tel":"032-886-7292","addr":"경기도 안산시 단원구 대부동동 859-1","indutype":"음료식품 - 농·축·수산품","category":"food"}]},{"lat":"37.241069859","long":"126.59009655","imageIndex":7,"items":[{"name":"대부수산","tel":"032-885-9996","addr":"경기도 안산시 단원구 대부동동 1492-1번지 대한아트빌 401호","indutype":"음료식품 - 농·축·수산품","category":"food"}]},{"lat":"37.233544534","long":"126.60271357","imageIndex":7,"items":[{"name":"동주염전영어조합법인","tel":"032-886-0900","addr":"경기도 안산시 단원구 대부동동 산 253","indutype":"음료식품 - 기타음료식품","category":"food"}]},{"lat":"37.236452376","long":"126.62106707","imageIndex":7,"items":[{"name":"동환네","tel":"032-886-6464","addr":"경기도 안산시 단원구 대부동동 79-65번지","indutype":"음료식품 - 농·축·수산품","category":"food"},{"name":"바다수산","tel":"032-886-3737","addr":"경기도 안산시 단원구 대부동동 79-65번지 바다횟집 1층 113호","indutype":"음료식품 - 농·축·수산품","category":"food"}]},{"lat":"37.242373192","long":"126.59438336","imageIndex":7,"items":[{"name":"바다향기대부포도농장","tel":"032-886-1421","addr":"경기도 안산시 단원구 대부동동 1424-2번지","indutype":"음료식품 - 농·축·수산품","category":"food"}]},{"lat":"37.249401728","long":"126.59193339","imageIndex":7,"items":[{"name":"씨엘관광농원","tel":"032-881-0750","addr":"경기도 안산시 단원구 대부동동 1241번지","indutype":"음료식품 - 기타음료식품","category":"food"}]},{"lat":"37.253014228","long":"126.61307077","imageIndex":7,"items":[{"name":"안산건강원","tel":"032-529-2626","addr":"경기도 안산시 단원구 대부동동 348-2번지","indutype":"건강식품 - 기타건강식품","category":"food"}]},{"lat":"37.240652877","long":"126.62159811","imageIndex":7,"items":[{"name":"오딧세이","tel":"032-886-2233","addr":"경기도 안산시 단원구 대부동동 68-3번지","indutype":"음료식품 - 농·축·수산품","category":"food"}]},{"lat":"37.242177456","long":"126.5951057","imageIndex":7,"items":[{"name":"와인 앤","tel":"","addr":"경기도 안산시 단원구 대부동동 1425-1번지","indutype":"음료식품 - 주류 판매점","category":"food"}]},{"lat":"37.241071233","long":"126.59049099","imageIndex":7,"items":[{"name":"장수포도즙건강원","tel":"032-888-1824","addr":"경기도 안산시 단원구 대부동동 1476-1번지","indutype":"음료식품 - 기타음료식품","category":"food"}]},{"lat":"37.247815288","long":"126.59435399","imageIndex":7,"items":[{"name":"주식회사디망","tel":"032-880-2009","addr":"경기도 안산시 단원구 대부동동 1230-2번지","indutype":"음료식품 - 제과점","category":"food"}]},{"lat":"37.241979311","long":"126.58735297","imageIndex":7,"items":[{"name":"천연담배","tel":"032-890-4109","addr":"경기도 안산시 단원구 대부동동 1720-1번지 101호","indutype":"음료식품 - 기타음료식품","category":"food"}]},{"lat":"37.237204352","long":"126.62234798","imageIndex":7,"items":[{"name":"해송수산","tel":"032-882-8477","addr":"경기도 안산시 단원구 대부동동 74-11","indutype":"음료식품 - 농·축·수산품","category":"food"}]},{"lat":"37.247375387","long":"126.59481847","imageIndex":7,"items":[{"name":"황금목장","tel":"032-882-0600","addr":"경기도 안산시 단원구 대부동동 1229-7번지","indutype":"음료식품 - 정육점","category":"food"}]}]