[{"lat":"37.44401752","long":"126.8459312","imageIndex":0,"items":[{"name":"MJ글로벌","tel":"02-2611-4330","addr":"경기도 광명시 노온사동 354-4번지 1층","indutype":"자동차정비 유지 - 자동차부품","category":"car"}]},{"lat":"37.43210734","long":"126.8467356","imageIndex":0,"items":[{"name":"광명 아이씨점 기아오토큐","tel":"02-2619-2929","addr":"경기도 광명시 노온사동 631번지","indutype":"자동차정비 유지 - 자동차정비","category":"car"}]},{"lat":"37.44210669","long":"126.8454041","imageIndex":0,"items":[{"name":"광명남부점현대자동차","tel":"02-2619-0050","addr":"경기도 광명시 노온사동 375-3번지","indutype":"자동차정비 유지 - 자동차정비","category":"car"}]},{"lat":"37.44146092","long":"126.8476315","imageIndex":0,"items":[{"name":"광명넘버원","tel":"02-2616-4767","addr":"경기도 광명시 노온사동 404-3번지","indutype":"자동차정비 유지 - 카인테리어","category":"car"}]},{"lat":"37.43593476","long":"126.8453492","imageIndex":0,"items":[{"name":"광명명가썬팅","tel":"02-2613-1008","addr":"경기도 광명시 노온사동 572-106번지","indutype":"자동차정비 유지 - 자동차부품","category":"car"}]},{"lat":"37.44188207","long":"126.8392347","imageIndex":0,"items":[{"name":"그린카서비스","tel":"02-2618-5005","addr":"경기도 광명시 노온사동 542-1번지","indutype":"자동차정비 유지 - 자동차정비","category":"car"}]},{"lat":"37.44251476","long":"126.8473807","imageIndex":0,"items":[{"name":"네비가","tel":"02-2611-5956","addr":"경기도 광명시 노온사동 407번지 1층","indutype":"자동차정비 유지 - 자동차부품","category":"car"}]},{"lat":"37.44360512","long":"126.8474915","imageIndex":0,"items":[{"name":"눈","tel":"02-2066-2001","addr":"경기도 광명시 노온사동 409-7번지","indutype":"자동차정비 유지 - 카인테리어","category":"car"}]},{"lat":"37.44216085","long":"126.8388499","imageIndex":0,"items":[{"name":"대신","tel":"02-2625-4537","addr":"경기도 광명시 노온사동 544-2번지","indutype":"자동차정비 유지 - 자동차정비","category":"car"}]},{"lat":"37.43324352","long":"126.8474338","imageIndex":0,"items":[{"name":"동화 밧데리","tel":"02-2683-0533","addr":"경기도 광명시 노온사동 636-4번지 외필지","indutype":"자동차정비 유지 - 자동차부품","category":"car"},{"name":"동화공업사","tel":"02-618-6002","addr":"경기도 광명시 노온사동 636-4번지 외4필지","indutype":"자동차정비 유지 - 자동차정비","category":"car"},{"name":"동화타이어","tel":"","addr":"경기도 광명시 노온사동 636-4번지","indutype":"자동차정비 유지 - 자동차시트·타이어","category":"car"}]},{"lat":"37.42382701","long":"126.8466512","imageIndex":0,"items":[{"name":"두성","tel":"02-2617-2162","addr":"경기도 광명시 노온사동 940-3번지","indutype":"자동차정비 유지 - 중장비수리","category":"car"},{"name":"씽씽타이어","tel":"02-2681-2683","addr":"경기도 광명시 노온사동 940-3번지","indutype":"자동차정비 유지 - 자동차시트·타이어","category":"car"}]},{"lat":"37.44143157","long":"126.8392357","imageIndex":0,"items":[{"name":"드림자동차서비스","tel":"02-2611-6475","addr":"경기도 광명시 노온사동 542-3번지","indutype":"자동차정비 유지 - 자동차정비","category":"car"},{"name":"서영상사","tel":"02-2681-4700","addr":"경기도 광명시 노온사동 542-3번지","indutype":"자동차정비 유지 - 자동차부품","category":"car"}]},{"lat":"37.42635026","long":"126.8469848","imageIndex":0,"items":[{"name":"만스게러지","tel":"031-6124-6055","addr":"경기도 광명시 노온사동 760-2번지 외1필지","indutype":"자동차정비 유지 - 자동차부품","category":"car"}]},{"lat":"37.44146689","long":"126.8387158","imageIndex":0,"items":[{"name":"매직윈도우","tel":"02-804-6862","addr":"경기도 광명시 노온사동 550-8번지","indutype":"자동차정비 유지 - 카인테리어","category":"car"},{"name":"크리폴(크리스탈폴리싱)","tel":"02-859-9326","addr":"경기도 광명시 노온사동 550-8번지","indutype":"자동차정비 유지 - 카인테리어","category":"car"}]},{"lat":"37.44804502","long":"126.8459567","imageIndex":0,"items":[{"name":"명인자동차공업사","tel":"02-2611-6843","addr":"경기도 광명시 노온사동 250-1번지","indutype":"자동차정비 유지 - 자동차부품","category":"car"}]},{"lat":"37.42813315","long":"126.8461564","imageIndex":0,"items":[{"name":"비제이타이어(BJ TYRE)","tel":"02-2619-9004","addr":"경기도 광명시 노온사동 744번지","indutype":"자동차정비 유지 - 자동차시트·타이어","category":"car"},{"name":"비제이타이어(BJ TYRE)","tel":"02-2619-9004","addr":"경기도 광명시 노온사동 744번지","indutype":"자동차정비 유지 - 자동차부품","category":"car"},{"name":"비제이타이어(BJ TYRE)","tel":"02-2619-9004","addr":"경기도 광명시 노온사동 744번지","indutype":"자동차정비 유지 - 자동차부품","category":"car"}]},{"lat":"37.44377333","long":"126.8452424","imageIndex":0,"items":[{"name":"비젼카마스터","tel":"","addr":"경기도 광명시 노온사동 364-2번지 1층","indutype":"자동차정비 유지 - 견인서비스","category":"car"},{"name":"선진특수렉카","tel":"031-311-3143","addr":"경기도 광명시 노온사동 364-2번지","indutype":"자동차정비 유지 - 견인서비스","category":"car"},{"name":"스피드메이트","tel":"02-2613-8672","addr":"경기도 광명시 노온사동 364-2번지 1층","indutype":"자동차정비 유지 - 견인서비스","category":"car"},{"name":"으랏차차","tel":"02-2613-8672","addr":"경기도 광명시 노온사동 364-2번지 1층","indutype":"자동차정비 유지 - 견인서비스","category":"car"},{"name":"파워렉커","tel":"031-000-0000","addr":"경기도 광명시 노온사동 364-2번지","indutype":"자동차정비 유지 - 견인서비스","category":"car"},{"name":"홍카와아이들","tel":"","addr":"경기도 광명시 노온사동 364-2번지","indutype":"자동차정비 유지 - 자동차정비","category":"car"}]},{"lat":"37.449018","long":"126.8458755","imageIndex":0,"items":[{"name":"성삼자동차공업사","tel":"02-2615-4456","addr":"경기도 광명시 노온사동 217-5번지","indutype":"자동차정비 유지 - 자동차정비","category":"car"}]},{"lat":"37.44996364","long":"126.8455684","imageIndex":0,"items":[{"name":"성호자동차공업사","tel":"031-2683-1975","addr":"경기도 광명시 노온사동 207-3번지","indutype":"자동차정비 유지 - 자동차정비","category":"car"}]},{"lat":"37.44232201","long":"126.8447143","imageIndex":0,"items":[{"name":"쌍용자동차서비스프라자광명","tel":"031-2617-6318","addr":"경기도 광명시 노온사동 376-9번지","indutype":"자동차정비 유지 - 자동차정비","category":"car"}]},{"lat":"37.44202012","long":"126.8480711","imageIndex":0,"items":[{"name":"애기능카공업사","tel":"02-2686-3349","addr":"경기도 광명시 노온사동 425-6번지","indutype":"자동차정비 유지 - 자동차정비","category":"car"}]},{"lat":"37.43582679","long":"126.8454624","imageIndex":0,"items":[{"name":"오토티엠","tel":"02-899-1996","addr":"경기도 광명시 노온사동 572-108번지","indutype":"자동차정비 유지 - 자동차정비","category":"car"}]},{"lat":"37.4547163","long":"126.8489038","imageIndex":0,"items":[{"name":"우영특장","tel":"02-2617-7231","addr":"경기도 광명시 노온사동 44-2번지","indutype":"자동차판매 - 기타운송","category":"car"}]},{"lat":"37.44373676","long":"126.8448469","imageIndex":0,"items":[{"name":"주식회사 에코이브이","tel":"02-2060-2646","addr":"경기도 광명시 노온사동 368-2번지","indutype":"자동차판매 - 기타운송","category":"car"}]},{"lat":"37.4518544","long":"126.8445699","imageIndex":0,"items":[{"name":"카오디오다이하드","tel":"02-484-9649","addr":"경기도 광명시 노온사동 145-3번지","indutype":"자동차정비 유지 - 자동차부품","category":"car"}]},{"lat":"37.45410261","long":"126.8414006","imageIndex":0,"items":[{"name":"타이어119","tel":"02-2683-7770","addr":"경기도 광명시 노온사동 116-2번지 1층","indutype":"자동차정비 유지 - 자동차시트·타이어","category":"car"}]},{"lat":"37.43221626","long":"126.8473455","imageIndex":0,"items":[{"name":"타이어버디","tel":"070-4142-7900","addr":"경기도 광명시 노온사동 633번지","indutype":"자동차정비 유지 - 자동차시트·타이어","category":"car"}]},{"lat":"37.45024287","long":"126.8455113","imageIndex":0,"items":[{"name":"형진오토","tel":"02-2617-0556","addr":"경기도 광명시 노온사동 207-1번지","indutype":"자동차정비 유지 - 자동차정비","category":"car"}]},{"lat":"37.43346867","long":"126.8473542","imageIndex":0,"items":[{"name":"휠스핀코리아","tel":"02-6938-7118","addr":"경기도 광명시 노온사동 638번지","indutype":"자동차정비 유지 - 자동차시트·타이어","category":"car"}]}]