[{"lat":"37.592784754","long":"127.13368318","imageIndex":8,"items":[{"name":"건국동물병원","tel":"031-569-0277","addr":"경기도 구리시 교문동 765 대명상가107","indutype":"기타의료기관 - 동물병원","category":"medical"}]},{"lat":"37.601643477","long":"127.13176226","imageIndex":8,"items":[{"name":"경희 함약국","tel":"031-565-1452","addr":"경기도 구리시 교문동 256-13번지 대원빌딩 103호","indutype":"약국 - 약국","category":"medical"}]},{"lat":"37.587787126","long":"127.13112697","imageIndex":8,"items":[{"name":"구리강남밝은안과의원","tel":"031-555-7888","addr":"경기도 구리시 교문동 807-9번지 3층","indutype":"의원 - 의원","category":"medical"}]},{"lat":"37.600307426","long":"127.13412666","imageIndex":8,"items":[{"name":"나인빌 치과의원","tel":"031-565-2275","addr":"경기도 구리시 교문동 216-6번지","indutype":"의원 - 치과의원","category":"medical"},{"name":"약천한의원","tel":"031-567-1075","addr":"경기도 구리시 교문동 216-6번지 3층","indutype":"의원 - 한의원","category":"medical"}]},{"lat":"37.590117988","long":"127.13356529","imageIndex":8,"items":[{"name":"명약국","tel":"031-563-0733","addr":"경기도 구리시 교문동 808덕현상가112","indutype":"약국 - 약국","category":"medical"},{"name":"문가정의원","tel":"031-557-3376","addr":"경기도 구리시 교문동 808번지 덕현상가 2층 202호","indutype":"의원 - 의원","category":"medical"},{"name":"우리치과의원","tel":"031-565-2872","addr":"경기도 구리시 교문동 808번지 덕현상가 2층 201호","indutype":"의원 - 치과의원","category":"medical"}]},{"lat":"37.5970336","long":"127.13704236","imageIndex":8,"items":[{"name":"서울삼성치과","tel":"031-567-2870","addr":"경기도 구리시 교문동 830번지 3층 302호","indutype":"의원 - 치과의원","category":"medical"},{"name":"서울탑연합의원","tel":"031-555-3375","addr":"경기도 구리시 교문동 830번지 일군타워 402-5호","indutype":"의원 - 의원","category":"medical"},{"name":"한세약국","tel":"031-595-6717","addr":"경기도 구리시 교문동 830번지 외7필지 일군타워 1층 105호","indutype":"약국 - 약국","category":"medical"}]},{"lat":"37.594920756","long":"127.13306415","imageIndex":8,"items":[{"name":"선구원한약방","tel":"031-551-3116","addr":"경기도 구리시 교문동 751-8번지","indutype":"약국 - 한약방","category":"medical"}]},{"lat":"37.592037781","long":"127.13292325","imageIndex":8,"items":[{"name":"시티종합동물병원","tel":"031-555-7588","addr":"경기도 구리시 교문동 764-10번지","indutype":"기타의료기관 - 동물병원","category":"medical"}]},{"lat":"37.600979133","long":"127.12956424","imageIndex":8,"items":[{"name":"신망애한의원","tel":"031-563-2783","addr":"경기도 구리시 교문동 260-1번지","indutype":"의원 - 한의원","category":"medical"}]},{"lat":"37.600528706","long":"127.12950686","imageIndex":8,"items":[{"name":"아마존동물병원","tel":"031-564-0075","addr":"경기도 구리시 교문동 270-2번지","indutype":"기타의료기관 - 동물병원","category":"medical"}]},{"lat":"37.600390365","long":"127.13245086","imageIndex":8,"items":[{"name":"위생치과의원","tel":"031-566-5849","addr":"경기도 구리시 교문동 207-4번지","indutype":"의원 - 치과의원","category":"medical"}]},{"lat":"37.587921607","long":"127.1317386","imageIndex":8,"items":[{"name":"이헌혁한의원","tel":"031-552-1975","addr":"경기도 구리시 교문동 807-5번지","indutype":"의원 - 한의원","category":"medical"}]},{"lat":"37.592001979","long":"127.13270806","imageIndex":8,"items":[{"name":"정경진한의원","tel":"031-568-2020","addr":"경기도 구리시 교문동 764-12번지 1층","indutype":"의원 - 한의원","category":"medical"}]},{"lat":"37.596782531","long":"127.13597751","imageIndex":8,"items":[{"name":"제이메디케어","tel":"","addr":"경기도 구리시 교문동 735-9번지 다건씨티오피스텔 203호","indutype":"약국 - 제약회사","category":"medical"}]},{"lat":"37.600310724","long":"127.13112582","imageIndex":8,"items":[{"name":"조아약국","tel":"031-553-2133","addr":"경기도 구리시 교문동 199-1번지 대성빌딩","indutype":"약국 - 약국","category":"medical"}]},{"lat":"37.59536412","long":"127.13134379","imageIndex":8,"items":[{"name":"조약국","tel":"","addr":"경기도 구리시 교문동 754-2번지 1층","indutype":"약국 - 약국","category":"medical"}]},{"lat":"37.600362438","long":"127.13326613","imageIndex":8,"items":[{"name":"좋은사람치과의원","tel":"031-566-2828","addr":"경기도 구리시 교문동 216번지 엔케이빌 3층","indutype":"의원 - 치과의원","category":"medical"}]},{"lat":"37.598618066","long":"127.13003584","imageIndex":8,"items":[{"name":"지앤비메디칼","tel":"031-551-1005","addr":"경기도 구리시 교문동 285-24번지 중앙하이츠티움 4층 401호","indutype":"약국 - 제약회사","category":"medical"}]},{"lat":"37.599089055","long":"127.13595897","imageIndex":8,"items":[{"name":"참편한약국","tel":"031-557-5255","addr":"경기도 구리시 교문동 228-19번지 근린생활,의료,업무시설 104호","indutype":"약국 - 약국","category":"medical"}]},{"lat":"37.600389842","long":"127.13292646","imageIndex":8,"items":[{"name":"한양한의원","tel":"031-569-0965","addr":"경기도 구리시 교문동 206-3번지 도양빌딩 3층","indutype":"의원 - 한의원","category":"medical"}]},{"lat":"37.590926759","long":"127.13545757","imageIndex":8,"items":[{"name":"현대치과의원","tel":"031-562-9556","addr":"경기도 구리시 교문동 809번지 한가람상가 301호","indutype":"의원 - 치과의원","category":"medical"}]}]