[{"lat":"37.170389352","long":"126.98306527","imageIndex":0,"items":[{"name":"밧데리24시할인마트","tel":"031-8059-5959","addr":"경기도 화성시 정남면 괘랑리 1061-6번지 1층 2호","indutype":"자동차정비 유지 - 자동차부품","category":"car"}]},{"lat":"37.179805948","long":"126.98779238","imageIndex":0,"items":[{"name":"우리카센타","tel":"031-352-4322","addr":"경기도 화성시 정남면 괘랑리 731-1번지","indutype":"자동차정비 유지 - 자동차정비","category":"car"}]},{"lat":"37.170028892","long":"126.98281765","imageIndex":0,"items":[{"name":"정남세차장.용품","tel":"031-111-1111","addr":"경기도 화성시 정남면 괘랑리 1059-3번지","indutype":"자동차정비 유지 - 세차장","category":"car"},{"name":"정남카공업사","tel":"031-352-2524","addr":"경기도 화성시 정남면 괘랑리 1059-3번지","indutype":"자동차정비 유지 - 자동차정비","category":"car"}]},{"lat":"37.183501049","long":"126.99728505","imageIndex":0,"items":[{"name":"정남제일자동차공업사","tel":"031-353-8182","addr":"경기도 화성시 정남면 괘랑리 86번지","indutype":"자동차정비 유지 - 자동차정비","category":"car"}]},{"lat":"37.177446147","long":"127.00014567","imageIndex":0,"items":[{"name":"주찬산업","tel":"031-378-5374","addr":"경기도 화성시 정남면 괘랑리 1194번지","indutype":"자동차정비 유지 - 자동차부품","category":"car"},{"name":"주찬상사","tel":"031-378-5374","addr":"경기도 화성시 정남면 괘랑리 1194번지","indutype":"자동차정비 유지 - 자동차부품","category":"car"},{"name":"주찬필터","tel":"031-296-5374","addr":"경기도 화성시 정남면 괘랑리 1194번지","indutype":"자동차정비 유지 - 자동차부품","category":"car"}]},{"lat":"37.188330764","long":"127.00303965","imageIndex":0,"items":[{"name":"탄탄불스","tel":"031-354-9783","addr":"경기도 화성시 정남면 괘랑리 20번지 1층","indutype":"자동차정비 유지 - 자동차부품","category":"car"}]},{"lat":"37.176246569","long":"126.98586757","imageIndex":0,"items":[{"name":"태양지게차매매","tel":"","addr":"경기도 화성시 정남면 괘랑리 873-10번지","indutype":"자동차판매 - 기타운송","category":"car"}]},{"lat":"37.180995485","long":"126.98912095","imageIndex":0,"items":[{"name":"한국윤활유","tel":"031-8059-5111","addr":"경기도 화성시 정남면 괘랑리 233-5번지 1층","indutype":"자동차정비 유지 - 윤활유 전문 판매","category":"car"}]}]