[{"lat":"37.818606293","long":"126.73212583","imageIndex":4,"items":[{"name":"BHC파주LCD점","tel":"031-949-9298","addr":"경기도 파주시 탄현면 축현리 155-11","indutype":"일반휴게음식 - 주점","category":"restaurant"}]},{"lat":"37.802780693","long":"126.71851247","imageIndex":4,"items":[{"name":"달팽이커피","tel":"031-949-8648","addr":"경기도 파주시 탄현면 축현리 502-8번지","indutype":"일반휴게음식 - 서양음식","category":"restaurant"},{"name":"두꺼비분식","tel":"031-942-1603","addr":"경기도 파주시 탄현면 축현리 502-8번지","indutype":"일반휴게음식 - 일반한식","category":"restaurant"}]},{"lat":"37.809332778","long":"126.71571653","imageIndex":4,"items":[{"name":"대성한우소고기국밥","tel":"031-943-0692","addr":"경기도 파주시 탄현면 축현리 859-1번지","indutype":"일반휴게음식 - 일반한식","category":"restaurant"}]},{"lat":"37.80436312","long":"126.74448667","imageIndex":4,"items":[{"name":"대원한식뷔페 축현점","tel":"031-943-7431","addr":"경기도 파주시 탄현면 축현리 959번지","indutype":"일반휴게음식 - 일반한식","category":"restaurant"},{"name":"커피공장휴","tel":"070-7729-9778","addr":"경기도 파주시 탄현면 축현리 959번지","indutype":"일반휴게음식 - 서양음식","category":"restaurant"}]},{"lat":"37.802609734","long":"126.71860396","imageIndex":4,"items":[{"name":"덕수식당","tel":"031-942-7062","addr":"경기도 파주시 탄현면 축현리 502-6번지","indutype":"일반휴게음식 - 일반한식","category":"restaurant"}]},{"lat":"37.804527986","long":"126.71829002","imageIndex":4,"items":[{"name":"도연식당","tel":"031-944-5559","addr":"경기도 파주시 탄현면 축현리 491-15번지","indutype":"일반휴게음식 - 일반한식","category":"restaurant"},{"name":"빅테이블커피","tel":"031-0000-0000","addr":"경기도 파주시 탄현면 축현리 491-15번지","indutype":"일반휴게음식 - 서양음식","category":"restaurant"}]},{"lat":"37.802030087","long":"126.71734581","imageIndex":4,"items":[{"name":"맛나식당","tel":"031-949-1616","addr":"경기도 파주시 탄현면 축현리 485-6번지","indutype":"일반휴게음식 - 일반한식","category":"restaurant"},{"name":"수다.방","tel":"031-949-8707","addr":"경기도 파주시 탄현면 축현리 485-6번지","indutype":"일반휴게음식 - 일반한식","category":"restaurant"}]},{"lat":"37.819192475","long":"126.73237355","imageIndex":4,"items":[{"name":"베스트맛집","tel":"031-948-2268","addr":"경기도 파주시 탄현면 축현리 153-8번지","indutype":"일반휴게음식 - 일반한식","category":"restaurant"}]},{"lat":"37.802718914","long":"126.71904638","imageIndex":4,"items":[{"name":"복경이네","tel":"031-942-1609","addr":"경기도 파주시 탄현면 축현리 502-19번지","indutype":"일반휴게음식 - 일반한식","category":"restaurant"}]},{"lat":"37.80589114","long":"126.73481803","imageIndex":4,"items":[{"name":"소울원(Soul One)","tel":"031-945-4261","addr":"경기도 파주시 탄현면 축현리 122-4번지 1,2,3층","indutype":"일반휴게음식 - 서양음식","category":"restaurant"}]},{"lat":"37.804582919","long":"126.71865317","imageIndex":4,"items":[{"name":"스마일찹쌀꽈배기","tel":"031-944-7781","addr":"경기도 파주시 탄현면 축현리 557-1번지","indutype":"일반휴게음식 - 일반한식","category":"restaurant"},{"name":"진미식당","tel":"031-942-9504","addr":"경기도 파주시 탄현면 축현리 557-1번지","indutype":"일반휴게음식 - 일반한식","category":"restaurant"}]},{"lat":"37.803087641","long":"126.71877245","imageIndex":4,"items":[{"name":"옛날밥집","tel":"031-949-8678","addr":"경기도 파주시 탄현면 축현리 501-24","indutype":"일반휴게음식 - 일반한식","category":"restaurant"}]},{"lat":"37.80616334","long":"126.71648961","imageIndex":4,"items":[{"name":"왕십리불곱창","tel":"031-942-8583","addr":"경기도 파주시 탄현면 축현리 867-8번지","indutype":"일반휴게음식 - 일반한식","category":"restaurant"}]},{"lat":"37.801750742","long":"126.71732418","imageIndex":4,"items":[{"name":"요리는중화다","tel":"031-948-6336","addr":"경기도 파주시 탄현면 축현리 920-3번지","indutype":"일반휴게음식 - 중국식","category":"restaurant"}]},{"lat":"37.805023857","long":"126.71843573","imageIndex":4,"items":[{"name":"우리집","tel":"031-944-4876","addr":"경기도 파주시 탄현면 축현리 556-1번지","indutype":"일반휴게음식 - 일반한식","category":"restaurant"}]},{"lat":"37.803114121","long":"126.71854525","imageIndex":4,"items":[{"name":"진차이","tel":"031-942-9669","addr":"경기도 파주시 탄현면 축현리 501-18번지","indutype":"일반휴게음식 - 중국식","category":"restaurant"},{"name":"태백","tel":"031-942-9669","addr":"경기도 파주시 탄현면 축현리 501-18번지 1층","indutype":"일반휴게음식 - 중국식","category":"restaurant"}]},{"lat":"37.803449365","long":"126.73871022","imageIndex":4,"items":[{"name":"탄현우리셀프식당","tel":"031-942-1373","addr":"경기도 파주시 탄현면 축현리 76-2번지","indutype":"일반휴게음식 - 일반한식","category":"restaurant"}]},{"lat":"37.813800786","long":"126.73453959","imageIndex":4,"items":[{"name":"테라카페 테라펜션","tel":"031-949-3840","addr":"경기도 파주시 탄현면 축현리 137-1번지","indutype":"일반휴게음식 - 일반한식","category":"restaurant"}]},{"lat":"37.816751047","long":"126.73242789","imageIndex":4,"items":[{"name":"한아름한식뷔페","tel":"031-946-5335","addr":"경기도 파주시 탄현면 축현리 162번지","indutype":"일반휴게음식 - 일반한식","category":"restaurant"}]},{"lat":"37.801805733","long":"126.71771003","imageIndex":4,"items":[{"name":"헤이리국수","tel":"031-941-2270","addr":"경기도 파주시 탄현면 축현리 920-1번지","indutype":"일반휴게음식 - 일반한식","category":"restaurant"}]}]