[{"lat":"37.33508428","long":"126.76433771","imageIndex":0,"items":[{"name":"(주)자동차마을","tel":"031-494-9003","addr":"경기도 안산시 단원구 신길동 1419-6번지","indutype":"자동차정비 유지 - 자동차정비","category":"car"}]},{"lat":"37.322782945","long":"126.78650093","imageIndex":0,"items":[{"name":"autoOasis안산공단점","tel":"02-465-3988","addr":"경기도 안산시 단원구 신길동 1230번지 GS안산공단주유소내","indutype":"자동차정비 유지 - 자동차부품","category":"car"}]},{"lat":"37.335916195","long":"126.77036081","imageIndex":0,"items":[{"name":"고려덴트칼라안산공단점","tel":"031-492-6373","addr":"경기도 안산시 단원구 신길동 586-3번지","indutype":"자동차정비 유지 - 카인테리어","category":"car"}]},{"lat":"37.337584149","long":"126.76189238","imageIndex":0,"items":[{"name":"금강사","tel":"031-432-1770","addr":"경기도 안산시 단원구 신길동 1385-1번지 102호","indutype":"자동차정비 유지 - 자동차정비","category":"car"}]},{"lat":"37.32852995","long":"126.74944228","imageIndex":0,"items":[{"name":"금호타이어시화공단대리점","tel":"031-495-1250","addr":"경기도 안산시 단원구 신길동 283-9번지","indutype":"자동차정비 유지 - 자동차시트·타이어","category":"car"}]},{"lat":"37.329034013","long":"126.78541111","imageIndex":0,"items":[{"name":"금호타이어안산점","tel":"031-480-7114","addr":"경기도 안산시 단원구 신길동 1203-2번지","indutype":"자동차정비 유지 - 자동차시트·타이어","category":"car"}]},{"lat":"37.337168834","long":"126.76147619","imageIndex":0,"items":[{"name":"내차야 사랑해","tel":"031-520-2528","addr":"경기도 안산시 단원구 신길동 1385-5번지 1층","indutype":"자동차정비 유지 - 자동차정비","category":"car"}]},{"lat":"37.337419356","long":"126.78371685","imageIndex":0,"items":[{"name":"뉴월드카정비세차","tel":"031-493-5336","addr":"경기도 안산시 단원구 신길동 26-7번지","indutype":"자동차정비 유지 - 자동차정비","category":"car"}]},{"lat":"37.329867849","long":"126.78318591","imageIndex":0,"items":[{"name":"대명오토카센타","tel":"031-491-9812","addr":"경기도 안산시 단원구 신길동 912-2","indutype":"자동차정비 유지 - 자동차정비","category":"car"}]},{"lat":"37.335226869","long":"126.76355866","imageIndex":0,"items":[{"name":"대원전자","tel":"031-508-5370","addr":"경기도 안산시 단원구 신길동 1420-3번지 101호","indutype":"자동차정비 유지 - 자동차부품","category":"car"}]},{"lat":"37.338806265","long":"126.783363","imageIndex":0,"items":[{"name":"도일카센타","tel":"031-491-6115","addr":"경기도 안산시 단원구 신길동 5-3번지","indutype":"자동차정비 유지 - 자동차정비","category":"car"}]},{"lat":"37.323200941","long":"126.77871499","imageIndex":0,"items":[{"name":"디지털 카 플라자","tel":"031-310-8655","addr":"경기도 안산시 단원구 신길동 1123번지 안산디지털파크 1053호","indutype":"자동차정비 유지 - 자동차정비","category":"car"},{"name":"이젠커머스","tel":"070-4694-0059","addr":"경기도 안산시 단원구 신길동 1123번지 안산디지털파크 2층 2004호","indutype":"자동차정비 유지 - 자동차부품","category":"car"}]},{"lat":"37.334113843","long":"126.76566099","imageIndex":0,"items":[{"name":"락카오디오용품점","tel":"031-495-8489","addr":"경기도 안산시 단원구 신길동 420번지 1층","indutype":"자동차정비 유지 - 자동차부품","category":"car"}]},{"lat":"37.328144349","long":"126.75030108","imageIndex":0,"items":[{"name":"만해카센타","tel":"031-495-8688","addr":"경기도 안산시 단원구 신길동 283-75번지","indutype":"자동차정비 유지 - 자동차정비","category":"car"}]},{"lat":"37.338257046","long":"126.78357901","imageIndex":0,"items":[{"name":"백마모터샵","tel":"031-491-7578","addr":"경기도 안산시 단원구 신길동 6-6번지","indutype":"자동차판매 - 이륜차판매","category":"car"}]},{"lat":"37.336168298","long":"126.76127627","imageIndex":0,"items":[{"name":"삼사자동차","tel":"031-431-3434","addr":"경기도 안산시 단원구 신길동 1423-2번지","indutype":"자동차정비 유지 - 자동차정비","category":"car"}]},{"lat":"37.339138626","long":"126.75979976","imageIndex":0,"items":[{"name":"성호모터스","tel":"031-492-7131","addr":"경기도 안산시 단원구 신길동 1378번지","indutype":"자동차정비 유지 - 자동차정비","category":"car"}]},{"lat":"37.332003189","long":"126.78805419","imageIndex":0,"items":[{"name":"스피드메이트 안산점","tel":"031-494-8585","addr":"경기도 안산시 단원구 신길동 1588번지","indutype":"자동차정비 유지 - 자동차정비","category":"car"},{"name":"스피드메이트안산점","tel":"031-494-8585","addr":"경기도 안산시 단원구 신길동 1588번지","indutype":"자동차정비 유지 - 카인테리어","category":"car"}]},{"lat":"37.336615023","long":"126.77294274","imageIndex":0,"items":[{"name":"승진자동차공업사","tel":"031-492-3307","addr":"경기도 안산시 단원구 신길동 643번지 1동","indutype":"자동차정비 유지 - 자동차부품","category":"car"}]},{"lat":"37.337804273","long":"126.75938654","imageIndex":0,"items":[{"name":"시화,안산중고타이어","tel":"031-493-3124","addr":"경기도 안산시 단원구 신길동 1393-5번지","indutype":"자동차정비 유지 - 자동차시트·타이어","category":"car"}]},{"lat":"37.335666901","long":"126.76283508","imageIndex":0,"items":[{"name":"신길배터리","tel":"031-491-8985","addr":"경기도 안산시 단원구 신길동 1397-5번지 103호","indutype":"자동차정비 유지 - 자동차부품","category":"car"}]},{"lat":"37.336394402","long":"126.76169307","imageIndex":0,"items":[{"name":"신길카오디오용품점","tel":"031-520-7766","addr":"경기도 안산시 단원구 신길동 1396-3번지 1층","indutype":"자동차정비 유지 - 카인테리어","category":"car"}]},{"lat":"37.337058936","long":"126.76060765","imageIndex":0,"items":[{"name":"신성오토카써비스","tel":"031-491-8773","addr":"경기도 안산시 단원구 신길동 1395-2번지","indutype":"자동차정비 유지 - 자동차정비","category":"car"}]},{"lat":"37.3357537","long":"126.77482981","imageIndex":0,"items":[{"name":"안산복지매장","tel":"031-491-9496","addr":"경기도 안산시 단원구 신길동 1454번지 안산개인택시운송사업조합","indutype":"자동차정비 유지 - 자동차부품","category":"car"},{"name":"주식회사 평우서비스/안산조합점","tel":"031-763-2946","addr":"경기도 안산시 단원구 신길동 1454번지 안산개인택시조합정비사업소내","indutype":"자동차정비 유지 - 자동차부품","category":"car"}]},{"lat":"37.335027847","long":"126.76316435","imageIndex":0,"items":[{"name":"안산중고타이어","tel":"031-402-9277","addr":"경기도 안산시 단원구 신길동 1421-2번지 1층","indutype":"자동차정비 유지 - 자동차시트·타이어","category":"car"}]},{"lat":"37.336033607","long":"126.76150239","imageIndex":0,"items":[{"name":"에이티에스(ATS)","tel":"031-493-1479","addr":"경기도 안산시 단원구 신길동 1423-4번지 1층 101호","indutype":"자동차정비 유지 - 자동차부품","category":"car"},{"name":"프로덴트칼라","tel":"031-497-6245","addr":"경기도 안산시 단원구 신길동 1423-4번지 상가1층 1","indutype":"자동차정비 유지 - 카인테리어","category":"car"}]},{"lat":"37.335970766","long":"126.76161543","imageIndex":0,"items":[{"name":"유천자동차공업사","tel":"031-493-6314","addr":"경기도 안산시 단원구 신길동 1423-5번지","indutype":"자동차정비 유지 - 카인테리어","category":"car"}]},{"lat":"37.335396026","long":"126.76255385","imageIndex":0,"items":[{"name":"인치업매니아","tel":"031-505-8699","addr":"경기도 안산시 단원구 신길동 1422-5번지 1층상가","indutype":"자동차정비 유지 - 자동차시트·타이어","category":"car"}]},{"lat":"37.325005446","long":"126.7848586","imageIndex":0,"items":[{"name":"재경산업","tel":"031-494-9371","addr":"경기도 안산시 단원구 신길동 1228-1번지 정우벤처타운 7층 724호","indutype":"자동차정비 유지 - 자동차부품","category":"car"}]},{"lat":"37.324143405","long":"126.76757649","imageIndex":0,"items":[{"name":"주식회사 신광테크놀러지","tel":"031-499-1121","addr":"경기도 안산시 단원구 신길동 1051-3번지 (주)신광테크놀러지","indutype":"자동차정비 유지 - 자동차부품","category":"car"}]},{"lat":"37.334283177","long":"126.75594503","imageIndex":0,"items":[{"name":"주식회사 유일이엔티 안산 ll","tel":"031-493-0790","addr":"경기도 안산시 단원구 신길동 249-21번지","indutype":"자동차정비 유지 - 자동차부품","category":"car"},{"name":"티플러스텍","tel":"031-493-0790","addr":"경기도 안산시 단원구 신길동 249-21번지","indutype":"자동차정비 유지 - 자동차시트·타이어","category":"car"}]},{"lat":"37.336249158","long":"126.76116317","imageIndex":0,"items":[{"name":"케이원특수렉카","tel":"031-111-1111","addr":"경기도 안산시 단원구 신길동 1423-1번지","indutype":"자동차정비 유지 - 견인서비스","category":"car"}]},{"lat":"37.338222383","long":"126.76561422","imageIndex":0,"items":[{"name":"코레일네트웍스(주)신길온천","tel":"02-3271-0715","addr":"경기도 안산시 단원구 신길동 216-2번지","indutype":"자동차정비 유지 - 주차장","category":"car"}]},{"lat":"37.330444707","long":"126.78329706","imageIndex":0,"items":[{"name":"타이어뱅크안산역점","tel":"031-508-0330","addr":"경기도 안산시 단원구 신길동 911-3번지","indutype":"자동차정비 유지 - 자동차시트·타이어","category":"car"}]},{"lat":"37.335002346","long":"126.76392046","imageIndex":0,"items":[{"name":"타이어테크 안산점","tel":"031-491-4903","addr":"경기도 안산시 단원구 신길동 1420-6번지","indutype":"자동차정비 유지 - 자동차시트·타이어","category":"car"}]},{"lat":"37.334368202","long":"126.76669831","imageIndex":0,"items":[{"name":"타이어프로 서안산점","tel":"031-493-8688","addr":"경기도 안산시 단원구 신길동 216-315번지","indutype":"자동차정비 유지 - 자동차시트·타이어","category":"car"}]},{"lat":"37.328339318","long":"126.76169625","imageIndex":0,"items":[{"name":"하나로카프라자","tel":"031-494-7274","addr":"경기도 안산시 단원구 신길동 332-22번지","indutype":"자동차정비 유지 - 자동차정비","category":"car"},{"name":"하나모터스","tel":"031-494-7274","addr":"경기도 안산시 단원구 신길동 332-22번지","indutype":"자동차정비 유지 - 자동차시트·타이어","category":"car"}]},{"lat":"37.335478353","long":"126.76316292","imageIndex":0,"items":[{"name":"한국전지산업(배터리마트)","tel":"031-491-2223","addr":"경기도 안산시 단원구 신길동 1420번지","indutype":"자동차정비 유지 - 자동차부품","category":"car"}]},{"lat":"37.335756774","long":"126.76272196","imageIndex":0,"items":[{"name":"현대자동차광택","tel":"031-492-8818","addr":"경기도 안산시 단원구 신길동 1397-4번지 1층 101호","indutype":"자동차정비 유지 - 카인테리어","category":"car"}]},{"lat":"37.335420715","long":"126.76585999","imageIndex":0,"items":[{"name":"현우중기센타","tel":"031-494-0008","addr":"경기도 안산시 단원구 신길동 1417-15번지","indutype":"자동차정비 유지 - 자동차부품","category":"car"}]},{"lat":"37.338145517","long":"126.7588325","imageIndex":0,"items":[{"name":"휠튠","tel":"","addr":"경기도 안산시 단원구 신길동 1393번지 상가동 101호","indutype":"자동차정비 유지 - 자동차시트·타이어","category":"car"}]}]