[{"lat":"36.99921675","long":"127.17000205","imageIndex":8,"items":[{"name":"공도강약국","tel":"031-618-1963","addr":"경기도 안성시 공도읍 만정리 417-88번지","indutype":"약국 - 약국","category":"medical"},{"name":"성바오로의원","tel":"031-651-9150","addr":"경기도 안성시 공도읍 만정리 417-88번지","indutype":"의원 - 의원","category":"medical"}]},{"lat":"36.999550934","long":"127.16944107","imageIndex":8,"items":[{"name":"공도약국","tel":"031-657-1880","addr":"경기도 안성시 공도읍 만정리 417-18 1층3,4호","indutype":"약국 - 약국","category":"medical"},{"name":"서울스타비뇨기과의원","tel":"031-651-0889","addr":"경기도 안성시 공도읍 만정리 417-18번지","indutype":"의원 - 의원","category":"medical"},{"name":"이야기한의원","tel":"031-657-1275","addr":"경기도 안성시 공도읍 만정리 417-18번지 나동","indutype":"의원 - 한의원","category":"medical"},{"name":"푸른이비인후과","tel":"031-657-4835","addr":"경기도 안성시 공도읍 만정리 417-18번지 2층","indutype":"의원 - 의원","category":"medical"}]},{"lat":"37.000385192","long":"127.17208297","imageIndex":8,"items":[{"name":"공도오케이치과","tel":"031-691-2877","addr":"경기도 안성시 공도읍 만정리 817-2번지 우성메디컬상가 304동 305호","indutype":"의원 - 치과의원","category":"medical"},{"name":"눈사람안과의원","tel":"031-618-6477","addr":"경기도 안성시 공도읍 만정리 817-2번지 우성메디컬프라자 306호","indutype":"의원 - 의원","category":"medical"},{"name":"드림의원","tel":"031-655-7958","addr":"경기도 안성시 공도읍 만정리 817-2 우성메디칼307호,308호","indutype":"의원 - 의원","category":"medical"},{"name":"수온누리약국","tel":"031-652-0360","addr":"경기도 안성시 공도읍 만정리 817-2번지 우성메디컬프라자 1동 105호","indutype":"약국 - 약국","category":"medical"}]},{"lat":"37.001354241","long":"127.17493868","imageIndex":8,"items":[{"name":"길한의원","tel":"031-652-7511","addr":"경기도 안성시 공도읍 만정리 274-3번지 305호 골드일번가","indutype":"의원 - 한의원","category":"medical"},{"name":"도담소아청소년과","tel":"031-655-0852","addr":"경기도 안성시 공도읍 만정리 274-3번지 304호","indutype":"의원 - 의원","category":"medical"},{"name":"안성연세의원","tel":"031-653-5579","addr":"경기도 안성시 공도읍 만정리 274-3번지 303호 골드1번가","indutype":"의원 - 의원","category":"medical"},{"name":"햇살약국","tel":"031-618-0171","addr":"경기도 안성시 공도읍 만정리 274-3번지 110호","indutype":"약국 - 약국","category":"medical"},{"name":"화이트치과","tel":"031-691-2275","addr":"경기도 안성시 공도읍 만정리 274-3","indutype":"의원 - 치과의원","category":"medical"}]},{"lat":"37.000026187","long":"127.17108232","imageIndex":8,"items":[{"name":"김내과의원","tel":"031-691-7975","addr":"경기도 안성시 공도읍 만정리 821 성지프라자 2층","indutype":"의원 - 의원","category":"medical"},{"name":"서울소아청소년과의원","tel":"031-6584-7600","addr":"경기도 안성시 공도읍 만정리 821-1번지 성지프라자 2층 202호","indutype":"의원 - 의원","category":"medical"},{"name":"은유약국","tel":"031-657-5673","addr":"경기도 안성시 공도읍 만정리 821-1번지 성지프라자 103호","indutype":"약국 - 약국","category":"medical"}]},{"lat":"37.001720238","long":"127.17105235","imageIndex":8,"items":[{"name":"늘푸른치과","tel":"031-652-7524","addr":"경기도 안성시 공도읍 만정리 808-2","indutype":"의원 - 치과의원","category":"medical"}]},{"lat":"36.999108938","long":"127.16977714","imageIndex":8,"items":[{"name":"안성 휴통재활의학과의원","tel":"031-651-3575","addr":"경기도 안성시 공도읍 만정리 417-36번지 외 1필지 201호","indutype":"의원 - 의원","category":"medical"}]},{"lat":"36.999912325","long":"127.17508148","imageIndex":8,"items":[{"name":"연세본치과의원","tel":"031-654-2879","addr":"경기도 안성시 공도읍 만정리 880번지 1동2층 202호,203호,204호","indutype":"의원 - 치과의원","category":"medical"}]},{"lat":"36.999775031","long":"127.1702729","imageIndex":8,"items":[{"name":"연세올바른내과의원","tel":"","addr":"경기도 안성시 공도읍 만정리 820-2번지 3층","indutype":"의원 - 의원","category":"medical"}]},{"lat":"36.999360462","long":"127.17032816","imageIndex":8,"items":[{"name":"제일한의원","tel":"031-651-7533","addr":"경기도 안성시 공도읍 만정리 417-83번지","indutype":"의원 - 한의원","category":"medical"},{"name":"하얀이치과","tel":"031-691-2804","addr":"경기도 안성시 공도읍 만정리 417-83번지","indutype":"의원 - 치과의원","category":"medical"}]},{"lat":"36.998935785","long":"127.17115856","imageIndex":8,"items":[{"name":"하나약국","tel":"031-652-6368","addr":"경기도 안성시 공도읍 만정리 424-43번지 외1필지","indutype":"약국 - 약국","category":"medical"}]},{"lat":"36.999970076","long":"127.17252019","imageIndex":8,"items":[{"name":"현대정형외과의원","tel":"031-656-3114","addr":"경기도 안성시 공도읍 만정리 424-55번지","indutype":"의원 - 의원","category":"medical"}]}]