[{"lat":"37.46249237","long":"127.247448","imageIndex":17,"items":[{"name":"(주)대정티엔에스","tel":"031-792-2588","addr":"경기도 광주시 남한산성면 광지원리 94-1번지 1층","indutype":"기타 - 기타 전문점","category":"other"}]},{"lat":"37.46399519","long":"127.2483346","imageIndex":17,"items":[{"name":"광주시육아종합지원센터","tel":"031-765-6010","addr":"경기도 광주시 남한산성면 광지원리 186-1번지","indutype":"서적문구 - 완구점","category":"other"},{"name":"광주시육아종합지원센터","tel":"031-765-6010","addr":"경기도 광주시 남한산성면 광지원리 186-1번지","indutype":"서적문구 - 완구점","category":"other"}]},{"lat":"37.46177465","long":"127.2459537","imageIndex":17,"items":[{"name":"남한산성 아웃도어 팩토리","tel":"031-797-8639","addr":"경기도 광주시 남한산성면 광지원리 103-7번지","indutype":"레져용품 - 스포츠·레져용품","category":"other"},{"name":"황제유통","tel":"031-1588-6269","addr":"경기도 광주시 남한산성면 광지원리 103-7 4/","indutype":"회원제형태 - 기타1","category":"other"}]},{"lat":"37.45819311","long":"127.2524749","imageIndex":17,"items":[{"name":"들꽃농원","tel":"031-768-0128","addr":"경기도 광주시 남한산성면 광지원리 264번지","indutype":"문화.취미 - 화원","category":"other"}]},{"lat":"37.46244134","long":"127.2459784","imageIndex":17,"items":[{"name":"목요공방","tel":"070-4219-0063","addr":"경기도 광주시 남한산성면 광지원리 107번지 1층","indutype":"가구 - 기타가구","category":"other"},{"name":"산성철물","tel":"031-764-1118","addr":"경기도 광주시 남한산성면 광지원리 107번지 1층","indutype":"건축자재 - 목재·석재·철물","category":"other"}]},{"lat":"37.46074282","long":"127.2525286","imageIndex":17,"items":[{"name":"수정의료기","tel":"031-793-6246","addr":"경기도 광주시 남한산성면 광지원리 248-2번지","indutype":"가구 - 기타가구","category":"other"}]},{"lat":"37.46318683","long":"127.2471112","imageIndex":17,"items":[{"name":"엔블리스","tel":"","addr":"경기도 광주시 남한산성면 광지원리 164-4번지","indutype":"가구 - 일반가구","category":"other"}]},{"lat":"37.46377483","long":"127.2459714","imageIndex":17,"items":[{"name":"왕실흙돌침대","tel":"031-763-9178","addr":"경기도 광주시 남한산성면 광지원리 156-2번지","indutype":"가구 - 일반가구","category":"other"}]},{"lat":"37.46327393","long":"127.2485583","imageIndex":17,"items":[{"name":"창대함종합상사","tel":"031-762-4416","addr":"경기도 광주시 남한산성면 광지원리 176-1번지","indutype":"건축자재 - 기타건축자재","category":"other"}]},{"lat":"37.4628057","long":"127.2484211","imageIndex":17,"items":[{"name":"한빛강재","tel":"031-797-5072","addr":"경기도 광주시 남한산성면 광지원리 84번지","indutype":"건축자재 - 기타건축자재","category":"other"}]}]