[{"lat":"37.643383791","long":"126.80720429","imageIndex":17,"items":[{"name":"(주)왕개미무역","tel":"031-966-3789","addr":"경기도 고양시 덕양구 내곡동 269-10번지","indutype":"","category":"other"}]},{"lat":"37.642303028","long":"126.81296293","imageIndex":17,"items":[{"name":"(주)정상코퍼레이션","tel":"031-822-6121","addr":"경기도 고양시 덕양구 내곡동 산12-4번지","indutype":"","category":"other"}]},{"lat":"37.640801048","long":"126.80904654","imageIndex":17,"items":[{"name":"E.D.P화정점","tel":"031-978-8282","addr":"경기도 고양시 덕양구 내곡동 96-1번지","indutype":"","category":"other"}]},{"lat":"37.643328962","long":"126.80673989","imageIndex":17,"items":[{"name":"J 헤어","tel":"031-968-5820","addr":"경기도 고양시 덕양구 내곡동 284-1번지","indutype":"","category":"other"},{"name":"궁수타해물짬뽕내곡동점","tel":"031-969-9828","addr":"경기도 고양시 덕양구 내곡동 284-1번지","indutype":"","category":"other"}]},{"lat":"37.628158991","long":"126.7975473","imageIndex":17,"items":[{"name":"MINET","tel":"031-970-6369","addr":"경기도 고양시 덕양구 내곡동 490-4번지","indutype":"","category":"other"},{"name":"비앤씨","tel":"031-970-6368","addr":"경기도 고양시 덕양구 내곡동 490-4번지","indutype":"","category":"other"},{"name":"월드산업","tel":"031-974-1780","addr":"경기도 고양시 덕양구 내곡동 490-4번지","indutype":"가구 - 기타가구","category":"other"},{"name":"월드산업","tel":"031-974-1780","addr":"경기도 고양시 덕양구 내곡동 490-4번지","indutype":"","category":"other"}]},{"lat":"37.642907348","long":"126.80785137","imageIndex":17,"items":[{"name":"Scamp/주식회사 디오코인터내셔날","tel":"031-967-8094","addr":"경기도 고양시 덕양구 내곡동 266번지","indutype":"레져용품 - 스포츠·레져용품","category":"other"},{"name":"Scamp/주식회사 디오코인터내셔날","tel":"031-967-8094","addr":"경기도 고양시 덕양구 내곡동 266번지","indutype":"","category":"other"}]},{"lat":"37.643354815","long":"126.81150995","imageIndex":17,"items":[{"name":"그린","tel":"070-8959-2585","addr":"경기도 고양시 덕양구 내곡동 58-2번지","indutype":"","category":"other"}]},{"lat":"37.643712766","long":"126.8100134","imageIndex":17,"items":[{"name":"내곡리식당","tel":"031-964-1164","addr":"경기도 고양시 덕양구 내곡동 50-1번지","indutype":"","category":"other"}]},{"lat":"37.640104687","long":"126.80746215","imageIndex":17,"items":[{"name":"내곡편의점","tel":"031-979-5238","addr":"경기도 고양시 덕양구 내곡동","indutype":"유통업 영리 - 편 의 점","category":"other"},{"name":"내곡편의점","tel":"031-979-5238","addr":"경기도 고양시 덕양구 내곡동 229-1","indutype":"","category":"other"},{"name":"대우자동차고양정비","tel":"031-963-3344","addr":"경기도 고양시 덕양구 내곡동 229-1번지","indutype":"","category":"other"},{"name":"순활력정형요법연구소","tel":"031-966-0102","addr":"경기도 고양시 덕양구 내곡동 229-1 14/3","indutype":"","category":"other"}]},{"lat":"37.64407736","long":"126.80174113","imageIndex":17,"items":[{"name":"뉴타운","tel":"031-932-3434","addr":"경기도 고양시 덕양구 내곡동 116-19번지","indutype":"","category":"other"}]},{"lat":"37.645189032","long":"126.8092051","imageIndex":17,"items":[{"name":"느티나무집","tel":"031-964-6699","addr":"경기도 고양시 덕양구 내곡동 11-6번지","indutype":"","category":"other"}]},{"lat":"37.642686109","long":"126.81028798","imageIndex":17,"items":[{"name":"단 스포츠","tel":"031-966-0771","addr":"경기도 고양시 덕양구 내곡동 42-17번지","indutype":"레져용품 - 스포츠·레져용품","category":"other"},{"name":"단 스포츠","tel":"031-966-0771","addr":"경기도 고양시 덕양구 내곡동 42-17번지","indutype":"","category":"other"}]},{"lat":"37.641581219","long":"126.80682379","imageIndex":17,"items":[{"name":"더블유스포츠클럽","tel":"031-971-3636","addr":"경기도 고양시 덕양구 내곡동 249-1번지","indutype":"","category":"other"}]},{"lat":"37.638909924","long":"126.80417964","imageIndex":17,"items":[{"name":"덕일영농조합법인","tel":"031-1588-5998","addr":"경기도 고양시 덕양구 내곡동 191-17번지","indutype":"","category":"other"},{"name":"한송이꽃","tel":"031-1588-5998","addr":"경기도 고양시 덕양구 내곡동 191-17번지","indutype":"문화.취미 - 화원","category":"other"},{"name":"한송이꽃","tel":"031-1588-5998","addr":"경기도 고양시 덕양구 내곡동 191-17번지","indutype":"","category":"other"}]},{"lat":"37.639800416","long":"126.80870924","imageIndex":17,"items":[{"name":"도성","tel":"031-965-8500","addr":"경기도 고양시 덕양구 내곡동 96-7번지","indutype":"","category":"other"},{"name":"도성한우","tel":"031-965-8500","addr":"경기도 고양시 덕양구 내곡동 96-7번지","indutype":"","category":"other"}]},{"lat":"37.630328524","long":"126.79651044","imageIndex":17,"items":[{"name":"돈까스하우스","tel":"031-979-4676","addr":"경기도 고양시 덕양구 내곡동 485-12번지","indutype":"","category":"other"},{"name":"호림농원","tel":"031-979-4676","addr":"경기도 고양시 덕양구 내곡동 485-12번지","indutype":"","category":"other"}]},{"lat":"37.639935505","long":"126.8086749","imageIndex":17,"items":[{"name":"림공방","tel":"031-967-6190","addr":"경기도 고양시 덕양구 내곡동 96-20번지","indutype":"","category":"other"},{"name":"림공방","tel":"031-967-6190","addr":"경기도 고양시 덕양구 내곡동 96-20번지","indutype":"문화.취미 - 민예·공예품","category":"other"}]},{"lat":"37.640907877","long":"126.80826449","imageIndex":17,"items":[{"name":"미래정보통신","tel":"031-1544-1638","addr":"경기도 고양시 덕양구 내곡동 68-5번지","indutype":"사무통신 - 통신기기","category":"other"},{"name":"미래정보통신","tel":"031-1544-1638","addr":"경기도 고양시 덕양구 내곡동 68-5번지","indutype":"","category":"other"}]},{"lat":"37.640941194","long":"126.80662153","imageIndex":17,"items":[{"name":"미소","tel":"031-968-5945","addr":"경기도 고양시 덕양구 내곡동 248-4번지","indutype":"","category":"other"}]},{"lat":"37.643051993","long":"126.80276363","imageIndex":17,"items":[{"name":"보물섬낚시터","tel":"031-968-1161","addr":"경기도 고양시 덕양구 내곡동 303번지","indutype":"","category":"other"}]},{"lat":"37.631054404","long":"126.79428802","imageIndex":17,"items":[{"name":"서오릉다슬기","tel":"031-938-1199","addr":"경기도 고양시 덕양구 내곡동 500-3번지","indutype":"","category":"other"}]},{"lat":"37.627969334","long":"126.79728727","imageIndex":17,"items":[{"name":"서포트럭(Supportruck)","tel":"031-974-8325","addr":"경기도 고양시 덕양구 내곡동 490-26번지","indutype":"","category":"other"}]},{"lat":"37.630081899","long":"126.79459661","imageIndex":17,"items":[{"name":"섬마을영양탕","tel":"031-972-3232","addr":"경기도 고양시 덕양구 내곡동 495-3번지","indutype":"","category":"other"}]},{"lat":"37.643187377","long":"126.80829253","imageIndex":17,"items":[{"name":"수리119","tel":"070-8953-0119","addr":"경기도 고양시 덕양구 내곡동 26번지","indutype":"","category":"other"},{"name":"수리119","tel":"070-8953-0119","addr":"경기도 고양시 덕양구 내곡동 26번지","indutype":"건축자재 - 인테리어전문","category":"other"}]},{"lat":"37.643330214","long":"126.80212838","imageIndex":17,"items":[{"name":"수지농원","tel":"031-965-8386","addr":"경기도 고양시 덕양구 내곡동 125-1번지","indutype":"문화.취미 - 화원","category":"other"},{"name":"수지농원","tel":"031-965-8386","addr":"경기도 고양시 덕양구 내곡동 125-1번지","indutype":"","category":"other"}]},{"lat":"37.642660666","long":"126.81126246","imageIndex":17,"items":[{"name":"쉼터","tel":"031-969-6868","addr":"경기도 고양시 덕양구 내곡동 60번지","indutype":"","category":"other"}]},{"lat":"37.642491703","long":"126.80712732","imageIndex":17,"items":[{"name":"영주산마을협동조합","tel":"070-4129-8689","addr":"경기도 고양시 덕양구 내곡동 259-1번지","indutype":"","category":"other"},{"name":"핸디맨목공방","tel":"031-966-5585","addr":"경기도 고양시 덕양구 내곡동 259-1번지","indutype":"","category":"other"},{"name":"핸디맨목공방","tel":"031-966-5585","addr":"경기도 고양시 덕양구 내곡동 259-1번지","indutype":"가구 - 일반가구","category":"other"}]},{"lat":"37.644267084","long":"126.80204654","imageIndex":17,"items":[{"name":"요한타운할인매장","tel":"031-932-3434","addr":"경기도 고양시 덕양구 내곡동 116-17번지","indutype":"가구 - 일반가구","category":"other"},{"name":"요한타운할인매장","tel":"031-932-3434","addr":"경기도 고양시 덕양구 내곡동 116-17번지","indutype":"","category":"other"}]},{"lat":"37.640329459","long":"126.80717831","imageIndex":17,"items":[{"name":"원옥미가든능이버섯백숙","tel":"031-963-2248","addr":"경기도 고양시 덕양구 내곡동 241-1번지","indutype":"","category":"other"}]},{"lat":"37.643497311","long":"126.81048984","imageIndex":17,"items":[{"name":"위드썸(withsome)","tel":"","addr":"경기도 고양시 덕양구 내곡동 51-4번지","indutype":"","category":"other"},{"name":"위드썸(withsome)","tel":"000-000-0000","addr":"경기도 고양시 덕양구 내곡동 51-4번지","indutype":"신변잡화 - 기타잡화","category":"other"}]},{"lat":"37.639629722","long":"126.8035999","imageIndex":17,"items":[{"name":"은혜화원","tel":"031-905-4770","addr":"경기도 고양시 덕양구 내곡동","indutype":"문화.취미 - 화원","category":"other"}]},{"lat":"37.64147034","long":"126.8106197","imageIndex":17,"items":[{"name":"일산장금이","tel":"031-964-7565","addr":"경기도 고양시 덕양구 내곡동 68-26번지","indutype":"","category":"other"}]},{"lat":"37.642218659","long":"126.81093502","imageIndex":17,"items":[{"name":"주식회사 기림물류","tel":"031-932-4888","addr":"경기도 고양시 덕양구 내곡동 42-7번지","indutype":"","category":"other"}]},{"lat":"37.642435884","long":"126.8115463","imageIndex":17,"items":[{"name":"친환경 꽃우물","tel":"031-979-6262","addr":"경기도 고양시 덕양구 내곡동 61-18번지","indutype":"","category":"other"}]},{"lat":"37.642383305","long":"126.80695765","imageIndex":17,"items":[{"name":"캠핑팩토리","tel":"070-7724-0960","addr":"경기도 고양시 덕양구 내곡동 259-8번지","indutype":"","category":"other"},{"name":"캠핑팩토리","tel":"070-7724-0960","addr":"경기도 고양시 덕양구 내곡동 259-8번지","indutype":"레져용품 - 스포츠·레져용품","category":"other"}]},{"lat":"37.629550668","long":"126.79479067","imageIndex":17,"items":[{"name":"형제농장","tel":"031-973-3244","addr":"경기도 고양시 덕양구 내곡동 495-9번지","indutype":"","category":"other"}]},{"lat":"37.640801048","long":"126.80904654","imageIndex":7,"items":[{"name":"E.D.P화정점","tel":"031-978-8282","addr":"경기도 고양시 덕양구 내곡동 96-1번지","indutype":"음료식품 - 기타음료식품","category":"food"}]},{"lat":"37.644267084","long":"126.80204654","imageIndex":7,"items":[{"name":"엘컨코리아","tel":"02-1877-5923","addr":"경기도 고양시 덕양구 내곡동 116-17번지","indutype":"음료식품 - 기타음료식품","category":"food"}]},{"lat":"37.629550668","long":"126.79479067","imageIndex":7,"items":[{"name":"형제농장","tel":"031-973-3244","addr":"경기도 고양시 덕양구 내곡동 495-9번지","indutype":"음료식품 - 농·축·수산품","category":"food"}]},{"lat":"37.643328962","long":"126.80673989","imageIndex":13,"items":[{"name":"J 헤어","tel":"031-968-5820","addr":"경기도 고양시 덕양구 내곡동 284-1번지","indutype":"보건위생 - 미용원","category":"beauty"}]},{"lat":"37.640104687","long":"126.80746215","imageIndex":13,"items":[{"name":"순활력정형요법연구소","tel":"031-966-0102","addr":"경기도 고양시 덕양구 내곡동","indutype":"보건위생 - 기타대인서비스","category":"beauty"}]},{"lat":"37.643328962","long":"126.80673989","imageIndex":4,"items":[{"name":"궁수타해물짬뽕내곡동점","tel":"031-969-9828","addr":"경기도 고양시 덕양구 내곡동 284-1번지","indutype":"일반휴게음식 - 중국식","category":"restaurant"}]},{"lat":"37.643712766","long":"126.8100134","imageIndex":4,"items":[{"name":"내곡리식당","tel":"031-964-1164","addr":"경기도 고양시 덕양구 내곡동 50-1번지","indutype":"일반휴게음식 - 일반한식","category":"restaurant"}]},{"lat":"37.645107908","long":"126.80918265","imageIndex":4,"items":[{"name":"느티나무집","tel":"031-964-6699","addr":"경기도 고양시 덕양구 내곡동 11-6번지","indutype":"일반휴게음식 - 일반한식","category":"restaurant"}]},{"lat":"37.639800416","long":"126.80870924","imageIndex":4,"items":[{"name":"도성한우","tel":"031-965-8500","addr":"경기도 고양시 덕양구 내곡동 96-7번지","indutype":"일반휴게음식 - 일반한식","category":"restaurant"}]},{"lat":"37.640941194","long":"126.80662153","imageIndex":4,"items":[{"name":"미소","tel":"031-968-5945","addr":"경기도 고양시 덕양구 내곡동 248-4번지","indutype":"일반휴게음식 - 일반한식","category":"restaurant"}]},{"lat":"37.631054404","long":"126.79428802","imageIndex":4,"items":[{"name":"서오릉다슬기","tel":"031-938-1199","addr":"경기도 고양시 덕양구 내곡동 500-3번지","indutype":"일반휴게음식 - 일반한식","category":"restaurant"}]},{"lat":"37.630081899","long":"126.79459661","imageIndex":4,"items":[{"name":"섬마을영양탕","tel":"031-972-3232","addr":"경기도 고양시 덕양구 내곡동 495-3번지","indutype":"일반휴게음식 - 일반한식","category":"restaurant"}]},{"lat":"37.630328524","long":"126.79651044","imageIndex":4,"items":[{"name":"장어일번지","tel":"031-971-1391","addr":"경기도 고양시 덕양구 내곡동 485-12번지","indutype":"일반휴게음식 - 일반한식","category":"restaurant"},{"name":"호림농원","tel":"031-979-4676","addr":"경기도 고양시 덕양구 내곡동 485-12번지","indutype":"일반휴게음식 - 일반한식","category":"restaurant"}]},{"lat":"37.640104687","long":"126.80746215","imageIndex":0,"items":[{"name":"대우자동차고양정비","tel":"031-963-3344","addr":"경기도 고양시 덕양구 내곡동","indutype":"자동차정비 유지 - 자동차정비","category":"car"}]},{"lat":"37.641581219","long":"126.80682379","imageIndex":13,"items":[{"name":"더블유스포츠클럽","tel":"031-971-3636","addr":"경기도 고양시 덕양구 내곡동 249-1번지","indutype":"레저업소 - 기타레져업소","category":"leisure"}]},{"lat":"37.643051993","long":"126.80276363","imageIndex":13,"items":[{"name":"보물섬낚시터","tel":"031-968-1161","addr":"경기도 고양시 덕양구 내곡동 303번지","indutype":"레저업소 - 기타레져업소","category":"leisure"}]},{"lat":"37.642435884","long":"126.8115463","imageIndex":7,"items":[{"name":"친환경 꽃우물","tel":"031-979-6262","addr":"경기도 고양시 덕양구 내곡동 61-18번지","indutype":"유통업 영리 - 슈퍼마켓","category":"mart"}]}]