[{"lat":"37.479488034","long":"126.80298582","imageIndex":17,"items":[{"name":"(주) 에스엠션전자","tel":"032-344-0391","addr":"경기도 부천시 괴안동 7-12번지 풍산빌딩 2층 201호","indutype":"전기제품 - 가전제품","category":"other"},{"name":"경찰정보신문사","tel":"032-345-9002","addr":"경기도 부천시 괴안동 7-12번지","indutype":"서적문구 - 출판 및 인쇄물","category":"other"},{"name":"티엔아이 코포레이션","tel":"032-343-8898","addr":"경기도 부천시 괴안동 7-12번지","indutype":"신변잡화 - 가방","category":"other"},{"name":"한성디텍/원격지","tel":"032-345-7451","addr":"경기도 부천시 괴안동 7-12번지 풍산빌딩 3층","indutype":"기타 - 기타 전문점","category":"other"},{"name":"효진하드웨어","tel":"032-343-0113","addr":"경기도 부천시 괴안동 7-12번지 풍산빌딩 101호","indutype":"건축자재 - 목재·석재·철물","category":"other"}]},{"lat":"37.487266489","long":"126.82151966","imageIndex":17,"items":[{"name":"(주)고성도서유통 유한대점","tel":"02-2060-7764","addr":"경기도 부천시 괴안동 185-34번지 유한대학 5121호 유한대학나눔관","indutype":"서적문구 - 일반서적","category":"other"},{"name":"선우전기/원격지","tel":"032-344-6037","addr":"경기도 부천시 괴안동 185-34,유한대학2호관B2208","indutype":"기타 - 기타 전문점","category":"other"},{"name":"씨 초이스 (C. CHOIS)","tel":"031-000-0000","addr":"경기도 부천시 괴안동 185-34번지 유한대학 산학협력관 B102호","indutype":"의류 - 정장","category":"other"},{"name":"에프알테크","tel":"070-8881-1807","addr":"경기도 부천시 괴안동 185-34번지 유한대학교창업보육센터B2215호","indutype":"전기제품 - 기타전기제품","category":"other"},{"name":"유한대학교산학협력단","tel":"02-2610-0343","addr":"경기도 부천시 괴안동 185-34번지","indutype":"용역 서비스 - 사무서비스","category":"other"},{"name":"잇걸","tel":"032-349-4262","addr":"경기도 부천시 괴안동 185-34번지 유한대학 산학협력단","indutype":"의류 - 정장","category":"other"}]},{"lat":"37.482847826","long":"126.80782723","imageIndex":17,"items":[{"name":"(주)대한테크원","tel":"032-348-0363","addr":"경기도 부천시 괴안동 111-65번지","indutype":"기타 - 기계공구","category":"other"},{"name":"럭키시스템","tel":"032-347-5525","addr":"경기도 부천시 괴안동 111-65번지 대영빌딩 1층","indutype":"건축자재 - 기타건축자재","category":"other"},{"name":"삼성항공경인판매(주)","tel":"032-348-0363","addr":"경기도 부천시 괴안동 111-65번지","indutype":"기타 - 기계공구","category":"other"}]},{"lat":"37.482266378","long":"126.80493438","imageIndex":17,"items":[{"name":"(주)삼정유리창호건설지점","tel":"032-343-6205","addr":"경기도 부천시 괴안동 1-21번지","indutype":"건축자재 - 유리","category":"other"},{"name":"주식회사 삼정유리창호건설","tel":"032-343-6205","addr":"경기도 부천시 괴안동 1-21번지","indutype":"건축자재 - 기타건축자재","category":"other"}]},{"lat":"37.484541019","long":"126.8186318","imageIndex":17,"items":[{"name":"(주)세온씨앤씨","tel":"032-344-7119","addr":"경기도 부천시 괴안동 183-2번지 흥농빌딩 2층","indutype":"사무통신 - 통신기기","category":"other"}]},{"lat":"37.485350815","long":"126.8179288","imageIndex":17,"items":[{"name":"(주)지천건설","tel":"032-346-0505","addr":"경기도 부천시 괴안동 184-10번지","indutype":"건축자재 - 기타건축자재","category":"other"},{"name":"다인토탈인테리어","tel":"070-7746-3035","addr":"경기도 부천시 괴안동 184-10번지 1층","indutype":"건축자재 - 인테리어전문","category":"other"}]},{"lat":"37.476928688","long":"126.80806872","imageIndex":17,"items":[{"name":"100세요양원","tel":"032-349-9938","addr":"경기도 부천시 괴안동 87-1번지 홈타운프라자 5층 501호","indutype":"기타의료기관 - 기타의료기관 및 기타","category":"other"},{"name":"ms스크린골프존","tel":"032-347-0700","addr":"경기도 부천시 괴안동 87-1번지 홈타운프라자 201호","indutype":"회원제형태 - 레져업소","category":"other"},{"name":"부천수족관","tel":"032-684-0202","addr":"경기도 부천시 괴안동 87-1번지 홈타운프라자 108호","indutype":"문화.취미 - 수족관","category":"other"},{"name":"슈가","tel":"032-345-5920","addr":"경기도 부천시 괴안동 87-1번지 홈타운프라자 109호","indutype":"신변잡화 - 제화","category":"other"},{"name":"씨유부천괴안점","tel":"032-343-7976","addr":"경기도 부천시 괴안동 87-1번지 홈타운프라자 105호","indutype":"유통업 영리 - 편 의 점","category":"other"},{"name":"참사랑전문요양원","tel":"032-667-2525","addr":"경기도 부천시 괴안동 87-1번지 301호,302호, 303호","indutype":"기타의료기관 - 기타의료기관 및 기타","category":"other"},{"name":"펫츠Be","tel":"032-349-7975","addr":"경기도 부천시 괴안동 87-1번지 홈타운프라자 101호","indutype":"문화.취미 - 애완동물","category":"other"}]},{"lat":"37.48764804","long":"126.81773092","imageIndex":17,"items":[{"name":"24시수도설비","tel":"","addr":"경기도 부천시 괴안동 189-30번지 예림빌라 2동 202호","indutype":"수리서비스 - 기타수리서비스","category":"other"}]},{"lat":"37.474129841","long":"126.80460538","imageIndex":17,"items":[{"name":"ASTECH","tel":"032-344-3502","addr":"경기도 부천시 괴안동 238-9번지 1층","indutype":"수리서비스 - 가정용품수리","category":"other"}]},{"lat":"37.481176028","long":"126.8048468","imageIndex":17,"items":[{"name":"CH메디팜","tel":"02-6956-6900","addr":"경기도 부천시 괴안동 4-8번지 청석빌라 301호","indutype":"레져용품 - 스포츠·레져용품","category":"other"}]},{"lat":"37.482953829","long":"126.80654935","imageIndex":17,"items":[{"name":"DS에어컨","tel":"02-2616-4069","addr":"경기도 부천시 괴안동 2-11번지 우승빌라트 402호","indutype":"용역 서비스 - 기타용역서비스","category":"other"},{"name":"KD에어컨","tel":"070-711-0775","addr":"경기도 부천시 괴안동 2-11번지 우승빌라트 402호","indutype":"용역 서비스 - 기타용역서비스","category":"other"}]},{"lat":"37.480375229","long":"126.81096537","imageIndex":17,"items":[{"name":"GS25괴안타운점","tel":"","addr":"경기도 부천시 괴안동 99-41번지","indutype":"유통업 영리 - 편 의 점","category":"other"}]},{"lat":"37.478844031","long":"126.80579132","imageIndex":17,"items":[{"name":"GS25부천괴안점","tel":"080-555-2525","addr":"경기도 부천시 괴안동 71번지","indutype":"유통업 영리 - 편 의 점","category":"other"},{"name":"명성스튜디오","tel":"032-341-7117","addr":"경기도 부천시 괴안동 71번지","indutype":"광학제품 - 사진관","category":"other"},{"name":"에스에스 (SS)모바일 (부천점)","tel":"032-345-3019","addr":"경기도 부천시 괴안동 71번지 1층","indutype":"사무통신 - 통신기기","category":"other"}]},{"lat":"37.485231108","long":"126.81628964","imageIndex":17,"items":[{"name":"GS25소사괴안점","tel":"","addr":"경기도 부천시 괴안동 175번지 1층","indutype":"유통업 영리 - 편 의 점","category":"other"}]},{"lat":"37.481236451","long":"126.81424189","imageIndex":17,"items":[{"name":"GS25소사부광로점","tel":"","addr":"경기도 부천시 괴안동 119-9번지 노블하우스 1층 101호","indutype":"유통업 영리 - 편 의 점","category":"other"},{"name":"더플랜컴퍼니","tel":"","addr":"경기도 부천시 괴안동 119-9번지 노블하우스 602호","indutype":"용역 서비스 - 종합용역","category":"other"}]},{"lat":"37.476792038","long":"126.80179464","imageIndex":17,"items":[{"name":"GS25소사삼익점","tel":"02-2006-2118","addr":"경기도 부천시 괴안동 30-4삼익세라믹상가110","indutype":"유통업 영리 - 편 의 점","category":"other"},{"name":"그린코리아","tel":"032-343-0070","addr":"경기도 부천시 괴안동 30-4 105","indutype":"용역 서비스 - 종합용역","category":"other"},{"name":"주식회사 휴앤조이","tel":"070-7799-5666","addr":"경기도 부천시 괴안동 30-4 외10필지삼익세라믹상가동 106","indutype":"레져용품 - 스포츠·레져용품","category":"other"}]},{"lat":"37.483984311","long":"126.81413323","imageIndex":17,"items":[{"name":"GS25소사타운점","tel":"","addr":"경기도 부천시 괴안동 130-4번지 1층 106호","indutype":"유통업 영리 - 편 의 점","category":"other"},{"name":"킴씨리빙","tel":"070-7535-9265","addr":"경기도 부천시 괴안동 130-4번지 1층","indutype":"주방용구 - 주방용구","category":"other"}]},{"lat":"37.483624724","long":"126.8090689","imageIndex":17,"items":[{"name":"GS25역곡빌리지점","tel":"","addr":"경기도 부천시 괴안동 112-24번지 1층","indutype":"유통업 영리 - 편 의 점","category":"other"},{"name":"오케이편의점마트","tel":"032-684-0761","addr":"경기도 부천시 괴안동 112-24번지 1층","indutype":"유통업 영리 - 편 의 점","category":"other"}]},{"lat":"37.487677329","long":"126.81917813","imageIndex":17,"items":[{"name":"GS25유한대점","tel":"02-2006-2118","addr":"경기도 부천시 괴안동 190-13번지","indutype":"유통업 영리 - 편 의 점","category":"other"},{"name":"대도문구","tel":"032-344-7278","addr":"경기도 부천시 괴안동 190-13번지","indutype":"서적문구 - 문구용품","category":"other"}]},{"lat":"37.478738331","long":"126.81276714","imageIndex":17,"items":[{"name":"IF디자인","tel":"032-349-0455","addr":"경기도 부천시 괴안동 101-8 트윈파크 101","indutype":"가구 - 일반가구","category":"other"},{"name":"개편한세상","tel":"032-346-5672","addr":"경기도 부천시 괴안동 101-4번지 트윈파크빌 101호","indutype":"문화.취미 - 애완동물","category":"other"}]},{"lat":"37.4857329","long":"126.81454717","imageIndex":17,"items":[{"name":"J&H 모바일","tel":"032-219-4949","addr":"경기도 부천시 괴안동 169-2번지 1층","indutype":"사무통신 - 통신기기","category":"other"},{"name":"고운눈길한복집","tel":"032-342-2795","addr":"경기도 부천시 괴안동 169-2번지 2층","indutype":"의류 - 맞춤복점","category":"other"},{"name":"파파앤드류","tel":"","addr":"경기도 부천시 괴안동 169-2번지 2층","indutype":"서적문구 - 기타서적문구","category":"other"}]},{"lat":"37.481428684","long":"126.80507226","imageIndex":17,"items":[{"name":"J.uno(제이우노)","tel":"032-349-7873","addr":"경기도 부천시 괴안동 4-6번지 301호","indutype":"회원제형태 - 기타1","category":"other"}]},{"lat":"37.483873507","long":"126.81246017","imageIndex":17,"items":[{"name":"JI정보통신","tel":"032-348-1010","addr":"경기도 부천시 괴안동 114-8번지","indutype":"사무통신 - 통신기기","category":"other"},{"name":"코코","tel":"032-343-4525","addr":"경기도 부천시 괴안동 114-8번지 1층","indutype":"의류 - 정장","category":"other"},{"name":"코코","tel":"032-343-4525","addr":"경기도 부천시 괴안동 114-8번지 6호","indutype":"의류 - 정장","category":"other"}]},{"lat":"37.481462276","long":"126.81460312","imageIndex":17,"items":[{"name":"OL컴퍼니","tel":"","addr":"경기도 부천시 괴안동 122-9번지 상경하이빌 B동 303호","indutype":"신변잡화 - 기타잡화","category":"other"}]},{"lat":"37.484149977","long":"126.81070697","imageIndex":17,"items":[{"name":"PNP","tel":"02-352-7575","addr":"경기도 부천시 괴안동 113-10번지","indutype":"서적문구 - 출판 및 인쇄물","category":"other"},{"name":"라젤로","tel":"032-351-2700","addr":"경기도 부천시 괴안동 113-10번지 1층","indutype":"의류 - 정장","category":"other"},{"name":"마루모바일","tel":"032-555-5555","addr":"경기도 부천시 괴안동 113-10번지 1층 에츠","indutype":"사무통신 - 통신기기","category":"other"},{"name":"사운드바디사운드스킨","tel":"032-344-5002","addr":"경기도 부천시 괴안동 113-10번지","indutype":"회원제형태 - 기타4","category":"other"},{"name":"주식회사동광투어","tel":"032-345-6666","addr":"경기도 부천시 괴안동 113-10번지 2층","indutype":"여행 - 관광여행","category":"other"},{"name":"진매딕스","tel":"032-343-5094","addr":"경기도 부천시 괴안동 113-10번지 3층","indutype":"의류 - 기타의류","category":"other"},{"name":"테이트","tel":"032-343-0960","addr":"경기도 부천시 괴안동 113-10번지","indutype":"레져용품 - 스포츠·레져용품","category":"other"}]},{"lat":"37.48005793","long":"126.80976777","imageIndex":17,"items":[{"name":"SM. 오토메탈","tel":"032-345-0876","addr":"경기도 부천시 괴안동 99번지 아주아파트","indutype":"회원제형태 - 기타4","category":"other"}]},{"lat":"37.483376025","long":"126.81126296","imageIndex":17,"items":[{"name":"WS테크","tel":"032-346-0511","addr":"경기도 부천시 괴안동 114-12번지 미성주상복합 601호","indutype":"전기제품 - 기타전기제품","category":"other"},{"name":"무지개주방","tel":"032-664-1198","addr":"경기도 부천시 괴안동 114-12번지","indutype":"주방용구 - 주방용식기","category":"other"},{"name":"씨엠씨(CMC)","tel":"032-341-6050","addr":"경기도 부천시 괴안동 114-12번지 연지빌딩 502호","indutype":"사무통신 - 통신기기","category":"other"},{"name":"애니플러스","tel":"032-322-3929","addr":"경기도 부천시 괴안동 114-12번지 미성주상빌딩 5층 506호","indutype":"신변잡화 - 기타잡화","category":"other"}]},{"lat":"37.48500912","long":"126.81268341","imageIndex":17,"items":[{"name":"W컨벤션웨딩부페","tel":"032-341-5757","addr":"경기도 부천시 괴안동 128-1번지 역곡프라자 7,8,9층","indutype":"용역 서비스 - 혼례서비스","category":"other"},{"name":"신흥사","tel":"070-4044-0043","addr":"경기도 부천시 괴안동 128-1번지 역곡프라자 1층","indutype":"건축자재 - 목재·석재·철물","category":"other"},{"name":"한국마케팅창업진흥원","tel":"070-4177-9963","addr":"경기도 부천시 괴안동 128-1번지 역곡프라자 6층 601-2호","indutype":"용역 서비스 - 사무서비스","category":"other"}]},{"lat":"37.481456092","long":"126.8052983","imageIndex":17,"items":[{"name":"가구월드","tel":"032-344-1283","addr":"경기도 부천시 괴안동 4-14번지","indutype":"가구 - 일반가구","category":"other"}]},{"lat":"37.486739224","long":"126.81849072","imageIndex":17,"items":[{"name":"가르시아 신사복","tel":"032-344-7472","addr":"경기도 부천시 괴안동 187-2번지 1층 일부","indutype":"의류 - 정장","category":"other"}]},{"lat":"37.479875938","long":"126.80326743","imageIndex":17,"items":[{"name":"가왕바스","tel":"032-345-5601","addr":"경기도 부천시 괴안동 7-1번지 A동 1호","indutype":"건축자재 - 인테리어전문","category":"other"},{"name":"누리종합공사","tel":"032-347-0482","addr":"경기도 부천시 괴안동 7-1번지 A동 1호","indutype":"건축자재 - 인테리어전문","category":"other"}]},{"lat":"37.485789687","long":"126.81626564","imageIndex":17,"items":[{"name":"간판사용안함","tel":"032-343-0726","addr":"경기도 부천시 괴안동 170-1번지","indutype":"용역 서비스 - 기타용역서비스","category":"other"},{"name":"신명낚시","tel":"032-347-1733","addr":"경기도 부천시 괴안동 170-1번지 1층 107호","indutype":"레져용품 - 스포츠·레져용품","category":"other"},{"name":"용신제화","tel":"032-343-5455","addr":"경기도 부천시 괴안동 170-1번지 1층","indutype":"신변잡화 - 제화","category":"other"},{"name":"일성노비아","tel":"032-343-3698","addr":"경기도 부천시 괴안동 170-1번지 104호 , 상가","indutype":"유통업 영리 - 기타유통업","category":"other"},{"name":"일조인테리어","tel":"032-349-4400","addr":"경기도 부천시 괴안동 170-1번지 용진 상가 105호","indutype":"건축자재 - 건축용 요업제품","category":"other"}]},{"lat":"37.483934555","long":"126.81684688","imageIndex":17,"items":[{"name":"건영아트","tel":"032-202-8896","addr":"경기도 부천시 괴안동 166-5 2층","indutype":"직물 - 침구·수예점","category":"other"}]},{"lat":"37.487207139","long":"126.81810513","imageIndex":17,"items":[{"name":"게이트맨프라자만선테크","tel":"032-343-6688","addr":"경기도 부천시 괴안동 188-7번지 오즈빌딩 1층","indutype":"기타 - 기계공구","category":"other"},{"name":"굿퍼니가구","tel":"02-1588-7553","addr":"경기도 부천시 괴안동 188-7번지 오즈빌딩 1층 A-4호","indutype":"가구 - 일반가구","category":"other"},{"name":"저스트포그전자담배역곡점","tel":"032-349-7937","addr":"경기도 부천시 괴안동 188-7번지 1층","indutype":"기타 - 기타 전문점","category":"other"},{"name":"정진산업","tel":"032-345-6372","addr":"경기도 부천시 괴안동 188-7오즈빌딩지층및1층A-5호","indutype":"주방용구 - 주방용구","category":"other"},{"name":"태두상사","tel":"032-349-7736","addr":"경기도 부천시 괴안동 188-7번지","indutype":"건축자재 - 페인트","category":"other"}]},{"lat":"37.483128418","long":"126.80860663","imageIndex":17,"items":[{"name":"경기부천소사지역자활센터","tel":"032-345-0017","addr":"경기도 부천시 괴안동 111-45번지 원진빌딩 4층","indutype":"직물 - 침구·수예점","category":"other"},{"name":"경기부천소사지역자활센터","tel":"032-345-0017","addr":"경기도 부천시 괴안동 111-45번지 원진빌딩 4층","indutype":"용역 서비스 - 종합용역","category":"other"},{"name":"경기부천소사지역자활센터","tel":"032-349-2355","addr":"경기도 부천시 괴안동 111-45번지","indutype":"서적문구 - 완구점","category":"other"}]},{"lat":"37.481927019","long":"126.80674424","imageIndex":17,"items":[{"name":"경기천막사","tel":"032-344-6539","addr":"경기도 부천시 괴안동 3-40번지","indutype":"직물 - 카페트,커튼,천막,지물","category":"other"}]},{"lat":"37.481981435","long":"126.80695891","imageIndex":17,"items":[{"name":"경일합판목재","tel":"032-351-8771","addr":"경기도 부천시 괴안동 3-15번지","indutype":"건축자재 - 기타건축자재","category":"other"},{"name":"대양건업","tel":"032-612-0344","addr":"경기도 부천시 괴안동 3-15번지","indutype":"용역 서비스 - 기타용역서비스","category":"other"}]},{"lat":"37.481842759","long":"126.81029456","imageIndex":17,"items":[{"name":"경호유통","tel":"032-342-3502","addr":"경기도 부천시 괴안동 107-14번지 우성빌딩 지층","indutype":"주방용구 - 기타주방용구","category":"other"}]},{"lat":"37.48070827","long":"126.80530027","imageIndex":17,"items":[{"name":"계수나무","tel":"070-8826-6789","addr":"경기도 부천시 괴안동 39-3번지 1층","indutype":"회원제형태 - 기타4","category":"other"},{"name":"비엔와이","tel":"","addr":"경기도 부천시 괴안동 39-3번지 1층 일부","indutype":"문화.취미 - 문화취미기타","category":"other"},{"name":"양진개발상사","tel":"032-341-7712","addr":"경기도 부천시 괴안동 39-3번지","indutype":"수리서비스 - 기타수리서비스","category":"other"}]},{"lat":"37.478595764","long":"126.80821136","imageIndex":17,"items":[{"name":"과일나라","tel":"032-351-4303","addr":"경기도 부천시 괴안동 89-4번지 괴안동금광포란재아파트","indutype":"회원제형태 - 기타1","category":"other"}]},{"lat":"37.478206264","long":"126.80695746","imageIndex":17,"items":[{"name":"괴안동 주민자치위원회","tel":"032-710-8951","addr":"경기도 부천시 괴안동 72번지 2층","indutype":"문화.취미 - 문화취미기타","category":"other"}]},{"lat":"37.483266823","long":"126.81621539","imageIndex":17,"items":[{"name":"구르미","tel":"031-520-2542","addr":"경기도 부천시 괴안동 165번지 성우아파트","indutype":"신변잡화 - 기타잡화","category":"other"}]},{"lat":"37.47737685","long":"126.8121601","imageIndex":17,"items":[{"name":"굿 다육","tel":"070-7572-2698","addr":"경기도 부천시 괴안동 254-1번지 금경스트라이크 102호","indutype":"문화.취미 - 화원","category":"other"},{"name":"굿라이트","tel":"032-345-9698","addr":"경기도 부천시 괴안동 254-1번지 102호","indutype":"건축자재 - 조명기구","category":"other"},{"name":"다입소(Daibso)","tel":"070-7563-4711","addr":"경기도 부천시 괴안동 254-1번지 1층 105호","indutype":"의류 - 정장","category":"other"},{"name":"테라스크린범박휴먼시아","tel":"032-343-8253","addr":"경기도 부천시 괴안동 254-1번지 115호","indutype":"수리서비스 - 세탁소","category":"other"}]},{"lat":"37.485850641","long":"126.81493131","imageIndex":17,"items":[{"name":"귀뚜라미소사대리점","tel":"032-343-9000","addr":"경기도 부천시 괴안동 169-23번지 1층","indutype":"건축자재 - 보일러·펌프·샷시","category":"other"}]},{"lat":"37.474570624","long":"126.80418594","imageIndex":17,"items":[{"name":"그 목공방","tel":"","addr":"경기도 부천시 괴안동 236-5번지 1층","indutype":"가구 - 일반가구","category":"other"},{"name":"천보금속","tel":"032-344-1369","addr":"경기도 부천시 괴안동 236-5번지 1층","indutype":"문화.취미 - 민예·공예품","category":"other"}]},{"lat":"37.478678745","long":"126.80393764","imageIndex":17,"items":[{"name":"그린공인중개사","tel":"032-342-0880","addr":"경기도 부천시 괴안동 31-1","indutype":"용역 서비스 - 부동산 중개·임대","category":"other"},{"name":"대청","tel":"032-346-7272","addr":"경기도 부천시 괴안동 31-1번지","indutype":"건축자재 - 목재·석재·철물","category":"other"},{"name":"윈스컴솔루션","tel":"032-213-4697","addr":"경기도 부천시 괴안동 31-1번지 헌철빌딩 104호","indutype":"사무통신 - 컴퓨터","category":"other"}]},{"lat":"37.484094554","long":"126.8154671","imageIndex":17,"items":[{"name":"금광당","tel":"032-343-4117","addr":"경기도 부천시 괴안동 130-57번지","indutype":"신변잡화 - 시계","category":"other"},{"name":"금광당","tel":"032-654-4117","addr":"경기도 부천시 괴안동 130-57번지","indutype":"신변잡화 - 시계","category":"other"},{"name":"원목공예가구","tel":"032-344-4408","addr":"경기도 부천시 괴안동 130-57번지 1층","indutype":"가구 - 일반가구","category":"other"}]},{"lat":"37.483537855","long":"126.81104773","imageIndex":17,"items":[{"name":"금보석","tel":"032-344-1791","addr":"경기도 부천시 괴안동 114번지","indutype":"신변잡화 - 시계","category":"other"},{"name":"김민제아동복","tel":"032-341-3819","addr":"경기도 부천시 괴안동 114번지 1층","indutype":"의류 - 아동의류","category":"other"},{"name":"소래화원","tel":"032-446-8875","addr":"경기도 부천시 괴안동 114번지","indutype":"문화.취미 - 화원","category":"other"},{"name":"아날도바시니 부천역곡점","tel":"032-662-5201","addr":"경기도 부천시 괴안동 114번지 1층","indutype":"의류 - 정장","category":"other"},{"name":"에스제이속옷란제리","tel":"","addr":"경기도 부천시 괴안동 114번지 1층 일부","indutype":"의류 - 내의판매","category":"other"}]},{"lat":"37.480400056","long":"126.80418181","imageIndex":17,"items":[{"name":"금호전자/세라젬구매","tel":"032-349-9117","addr":"경기도 부천시 괴안동 38-2번지","indutype":"기타 - 기타 전문점","category":"other"},{"name":"마운티아 소사점","tel":"","addr":"경기도 부천시 괴안동 38-2번지","indutype":"의류 - 스포츠의류","category":"other"},{"name":"명륜당표구사","tel":"032-341-1477","addr":"경기도 부천시 괴안동 38-2번지","indutype":"문화.취미 - 화방·표구점","category":"other"}]},{"lat":"37.478906871","long":"126.8111274","imageIndex":17,"items":[{"name":"기타러브","tel":"","addr":"경기도 부천시 괴안동 100-22번지 삼성골든빌라 4층 502호","indutype":"레져용품 - 악기점","category":"other"}]},{"lat":"37.486261999","long":"126.8186841","imageIndex":17,"items":[{"name":"기타인","tel":"070-4243-1079","addr":"경기도 부천시 괴안동 184-43번지 201호","indutype":"레져용품 - 악기점","category":"other"},{"name":"대일건재사","tel":"032-343-1672","addr":"경기도 부천시 괴안동 184-43번지","indutype":"건축자재 - 기타건축자재","category":"other"}]},{"lat":"37.481240176","long":"126.80549107","imageIndex":17,"items":[{"name":"김영희한복가게","tel":"032-348-1116","addr":"경기도 부천시 괴안동 3-1번지","indutype":"의류 - 맞춤복점","category":"other"}]},{"lat":"37.483204121","long":"126.81082246","imageIndex":17,"items":[{"name":"까치사진관","tel":"070-7360-8283","addr":"경기도 부천시 괴안동 109-10번지 2층","indutype":"광학제품 - 사진관","category":"other"},{"name":"까치스튜디오","tel":"032-343-9733","addr":"경기도 부천시 괴안동 109-10번지","indutype":"광학제품 - 사진관","category":"other"}]},{"lat":"37.482873884","long":"126.80723924","imageIndex":17,"items":[{"name":"꼬꼬마","tel":"","addr":"경기도 부천시 괴안동 111-56번지 더캐슬 A동 4층 402호","indutype":"레져용품 - 음반/영상물","category":"other"}]},{"lat":"37.479123677","long":"126.80599409","imageIndex":17,"items":[{"name":"꾸밈","tel":"","addr":"경기도 부천시 괴안동 70-17번지","indutype":"의류 - 기타의류","category":"other"},{"name":"모모","tel":"032-342-3660","addr":"경기도 부천시 괴안동 70-17번지 1층","indutype":"의류 - 정장","category":"other"}]},{"lat":"37.480653226","long":"126.80471251","imageIndex":17,"items":[{"name":"끌리네","tel":"032-347-1267","addr":"경기도 부천시 괴안동 39번지 NY VIEW 101호","indutype":"의류 - 정장","category":"other"}]},{"lat":"37.485961446","long":"126.81662703","imageIndex":17,"items":[{"name":"나누리재활용쎈타","tel":"032-348-7282","addr":"경기도 부천시 괴안동 170-2 1층","indutype":"신변잡화 - 기타잡화","category":"other"},{"name":"더(THE)하다 칵테일공방","tel":"032-342-4520","addr":"경기도 부천시 괴안동 170-2번지 영근빌딩 2층 202호","indutype":"문화.취미 - 문화취미기타","category":"other"},{"name":"마가데코","tel":"032-663-3704","addr":"경기도 부천시 괴안동 170-2","indutype":"직물 - 카페트,커튼,천막,지물","category":"other"},{"name":"제이 어스","tel":"","addr":"경기도 부천시 괴안동 170-2번지 영근빌딩 지하 우측","indutype":"가구 - 일반가구","category":"other"}]},{"lat":"37.483709483","long":"126.81131864","imageIndex":17,"items":[{"name":"나래주단","tel":"032-654-2007","addr":"경기도 부천시 괴안동 114-3번지 2층","indutype":"의류 - 맞춤복점","category":"other"},{"name":"이지가구","tel":"032-343-7786","addr":"경기도 부천시 괴안동 114-3번지","indutype":"신변잡화 - 기타잡화","category":"other"}]},{"lat":"37.486375027","long":"126.81607197","imageIndex":17,"items":[{"name":"남도전기","tel":"032-342-5114","addr":"경기도 부천시 괴안동 169-17번지","indutype":"전기제품 - 기타전기제품","category":"other"},{"name":"해성설비공사","tel":"032-343-4105","addr":"경기도 부천시 괴안동 169-17번지","indutype":"용역 서비스 - 기타용역서비스","category":"other"}]},{"lat":"37.488651066","long":"126.81960542","imageIndex":17,"items":[{"name":"내의류","tel":"032-343-3424","addr":"경기도 부천시 괴안동 200-2번지 역곡한증원내부","indutype":"의류 - 정장","category":"other"}]},{"lat":"37.475295742","long":"126.80677288","imageIndex":17,"items":[{"name":"네비마을","tel":"032-349-1337","addr":"경기도 부천시 괴안동 242-9번지 1층","indutype":"회원제형태 - 기타3","category":"other"}]},{"lat":"37.475205362","long":"126.80660354","imageIndex":17,"items":[{"name":"네비야","tel":"032-341-5580","addr":"경기도 부천시 괴안동 242-6번지 종우빌딩 1층","indutype":"회원제형태 - 기타3","category":"other"}]},{"lat":"37.488237293","long":"126.8200474","imageIndex":17,"items":[{"name":"노벨교육","tel":"070-7503-1194","addr":"경기도 부천시 괴안동 199-2","indutype":"회원제형태 - 서적","category":"other"},{"name":"아이캠퍼스","tel":"032-344-0068","addr":"경기도 부천시 괴안동 199-2","indutype":"서적문구 - 과학기자재","category":"other"},{"name":"예띠임","tel":"031-989-1928","addr":"경기도 부천시 괴안동 199-2 동신상가 102","indutype":"의류 - 내의판매","category":"other"}]},{"lat":"37.475923269","long":"126.80487197","imageIndex":17,"items":[{"name":"노을","tel":"070-4068-9745","addr":"경기도 부천시 괴안동 164-6번지 염광아파트","indutype":"신변잡화 - 기타잡화","category":"other"}]},{"lat":"37.477740767","long":"126.81435243","imageIndex":17,"items":[{"name":"누리코리아","tel":"032-588-0097","addr":"경기도 부천시 괴안동 251-1번지 범박휴먼시아1단지","indutype":"서적문구 - 기타서적문구","category":"other"},{"name":"대찬유리","tel":"","addr":"경기도 부천시 괴안동 251-1번지 범박휴먼시아1단지","indutype":"용역 서비스 - 기타용역서비스","category":"other"},{"name":"명품세탁소","tel":"032-351-2002","addr":"경기도 부천시 괴안동 251-1번지 상가동 1층 101호","indutype":"수리서비스 - 세탁소","category":"other"},{"name":"미니스톱 범박휴먼시아점","tel":"031-1577-9621","addr":"경기도 부천시 괴안동 251-1번지 범박휴먼시아1단지 1층","indutype":"유통업 영리 - 편 의 점","category":"other"},{"name":"은혜","tel":"","addr":"경기도 부천시 괴안동 251-1번지 범박휴먼시아1단지","indutype":"의류 - 정장","category":"other"},{"name":"인애유통","tel":"032-552-9900","addr":"경기도 부천시 괴안동 251-1번지 범박휴먼시아1단지","indutype":"유통업 영리 - 기타유통업","category":"other"},{"name":"튜닝아트","tel":"070-4319-9507","addr":"경기도 부천시 괴안동 251-1번지 범박휴먼시아1단지","indutype":"회원제형태 - 기타4","category":"other"}]},{"lat":"37.477981952","long":"126.80752332","imageIndex":17,"items":[{"name":"뉴월드모바일괴안점","tel":"031-111-1111","addr":"경기도 부천시 괴안동 88-30번지 1층","indutype":"사무통신 - 통신기기","category":"other"}]},{"lat":"37.481068704","long":"126.80532194","imageIndex":17,"items":[{"name":"늑대와여우컴퓨터(괴안점)","tel":"032-341-6119","addr":"경기도 부천시 괴안동 3번지 1층","indutype":"사무통신 - 컴퓨터","category":"other"},{"name":"러브골든","tel":"032-343-4864","addr":"경기도 부천시 괴안동 3번지 3층","indutype":"신변잡화 - 귀금속","category":"other"},{"name":"성지사","tel":"032-343-4865","addr":"경기도 부천시 괴안동 3번지","indutype":"신변잡화 - 시계","category":"other"}]},{"lat":"37.47857076","long":"126.80401707","imageIndex":17,"items":[{"name":"늘봄조경공사","tel":"02-2615-2338","addr":"경기도 부천시 괴안동 31-25번지","indutype":"문화.취미 - 화원","category":"other"}]},{"lat":"37.484487399","long":"126.81321614","imageIndex":17,"items":[{"name":"늘솜씨가좋은","tel":"032-1811-9199","addr":"경기도 부천시 괴안동 127-2번지 위드프러스타워 1004호","indutype":"건축자재 - 조명기구","category":"other"},{"name":"모바일 코리아","tel":"070-4213-5044","addr":"경기도 부천시 괴안동 127-2번지 위드프러스타워 3층 310호","indutype":"수리서비스 - 사무·통신기기수리","category":"other"},{"name":"법무사 정원용","tel":"032-719-4448","addr":"경기도 부천시 괴안동 127-2번지 위드프러스타워 501호","indutype":"용역 서비스 - 법률회계서비스(개인)","category":"other"},{"name":"언더파스크린골프","tel":"032-345-0202","addr":"경기도 부천시 괴안동 127-2번지 위드프러스타워 비102,103호","indutype":"회원제형태 - 레져업소","category":"other"},{"name":"전자담배백화점","tel":"032-341-3255","addr":"경기도 부천시 괴안동 127-2번지 위드프러스타워 301호","indutype":"기타 - 기타 전문점","category":"other"},{"name":"하우투비웰빙(HOW TO BE WELL BEING)","tel":"032-348-2358","addr":"경기도 부천시 괴안동 127-2번지 워드플러스타워 5층","indutype":"가구 - 일반가구","category":"other"}]},{"lat":"37.481739577","long":"126.81334745","imageIndex":17,"items":[{"name":"니모닉 (MNEMONIC)","tel":"070-8031-4038","addr":"경기도 부천시 괴안동 118-26번지 2층","indutype":"신변잡화 - 액세서리","category":"other"}]},{"lat":"37.476315415","long":"126.80232726","imageIndex":17,"items":[{"name":"다와컴퍼니","tel":"070-7493-7009","addr":"경기도 부천시 괴안동 204-5번지 삼익세라믹아파트","indutype":"용역 서비스 - 종합용역","category":"other"},{"name":"도배랑 부천점","tel":"032-345-8704","addr":"경기도 부천시 괴안동 204-5번지 삼익세라믹 1층 104호","indutype":"건축자재 - 인테리어전문","category":"other"},{"name":"삼익세탁소","tel":"032-341-8412","addr":"경기도 부천시 괴안동 204-5번지 삼익 상가 1층","indutype":"수리서비스 - 세탁소","category":"other"},{"name":"엠아이티 (MIT)","tel":"031-1599-5309","addr":"경기도 부천시 괴안동 204-5번지 삼익세라믹아파트","indutype":"주방용구 - 정수기","category":"other"},{"name":"원정보통신","tel":"032-345-0407","addr":"경기도 부천시 괴안동 204-5번지 삼익세라믹아파트","indutype":"사무통신 - 통신기기","category":"other"},{"name":"프리미어뮤직 부천","tel":"","addr":"경기도 부천시 괴안동 204-5번지 삼익세라믹아파트","indutype":"서적문구 - 일반서적","category":"other"}]},{"lat":"37.478957386","long":"126.80354121","imageIndex":17,"items":[{"name":"다움유기공방","tel":"032-342-6261","addr":"경기도 부천시 괴안동 28-2번지 기풍빌딩 5층 504호","indutype":"주방용구 - 주방용식기","category":"other"}]},{"lat":"37.477012117","long":"126.80949297","imageIndex":17,"items":[{"name":"다인하이테크","tel":"032-344-9154","addr":"경기도 부천시 괴안동 95-2번지 101호","indutype":"주방용구 - 정수기","category":"other"}]},{"lat":"37.479097214","long":"126.81182787","imageIndex":17,"items":[{"name":"다인하이텍","tel":"032-351-0119","addr":"경기도 부천시 괴안동 100-42번지 위프정수기 1층","indutype":"주방용구 - 정수기","category":"other"},{"name":"이프고무","tel":"","addr":"경기도 부천시 괴안동 100-42번지","indutype":"직물 - 카페트,커튼,천막,지물","category":"other"}]},{"lat":"37.484348562","long":"126.81093259","imageIndex":17,"items":[{"name":"다크호스 댄스(DARKHORSE DANCE)","tel":"032-349-2020","addr":"경기도 부천시 괴안동 113-1번지 역곡하이뷰 607-2호","indutype":"용역 서비스 - 사무서비스","category":"other"},{"name":"산다라폰","tel":"070-4121-8880","addr":"경기도 부천시 괴안동 113-1번지 역곡하이뷰 1층 115호","indutype":"사무통신 - 통신기기","category":"other"},{"name":"샤이니리본(부천역곡점)","tel":"032-343-6365","addr":"경기도 부천시 괴안동 113-1번지 역곡하이뷰 104호","indutype":"의류 - 정장","category":"other"},{"name":"이마트24 역곡역점","tel":"","addr":"경기도 부천시 괴안동 113-1번지 역곡하이뷰 102호","indutype":"유통업 영리 - 편 의 점","category":"other"},{"name":"이마트24 역곡역점","tel":"032-342-9004","addr":"경기도 부천시 괴안동 113-1번지 역곡하이뷰 102호","indutype":"유통업 영리 - 편 의 점","category":"other"},{"name":"주식회사 큐피드모바일","tel":"032-342-8010","addr":"경기도 부천시 괴안동 113-1번지 105호 106호","indutype":"사무통신 - 통신기기","category":"other"},{"name":"하이뷰스크린골프","tel":"032-348-0755","addr":"경기도 부천시 괴안동 113-1번지 역곡하이뷰 5층","indutype":"회원제형태 - 레져업소","category":"other"}]},{"lat":"37.48393315","long":"126.81034573","imageIndex":17,"items":[{"name":"대광유통","tel":"","addr":"경기도 부천시 괴안동 112-20번지 1층","indutype":"신변잡화 - 신발","category":"other"}]},{"lat":"37.47862337","long":"126.80315771","imageIndex":17,"items":[{"name":"대동샷다","tel":"032-348-0409","addr":"경기도 부천시 괴안동 31번지","indutype":"건축자재 - 기타건축자재","category":"other"}]},{"lat":"37.479934513","long":"126.80595805","imageIndex":17,"items":[{"name":"대무종합체육관","tel":"032-343-0021","addr":"경기도 부천시 괴안동 40-13번지 2층","indutype":"회원제형태 - 레져업소","category":"other"},{"name":"아미상사","tel":"032-341-0350","addr":"경기도 부천시 괴안동 40-13번지","indutype":"가구 - 일반가구","category":"other"}]},{"lat":"37.484794106","long":"126.81915127","imageIndex":17,"items":[{"name":"대성공인중개사사무소","tel":"070-4140-6485","addr":"경기도 부천시 괴안동 182-11번지 1층","indutype":"용역 서비스 - 부동산 중개·임대","category":"other"}]},{"lat":"37.48221139","long":"126.80438052","imageIndex":17,"items":[{"name":"대성종합주방","tel":"032-341-3112","addr":"경기도 부천시 괴안동 1-24번지","indutype":"주방용구 - 주방용식기","category":"other"}]},{"lat":"37.486537902","long":"126.81651253","imageIndex":17,"items":[{"name":"대신자전거","tel":"032-348-3008","addr":"경기도 부천시 괴안동 169-13번지","indutype":"레져용품 - 스포츠·레져용품","category":"other"}]},{"lat":"37.487091949","long":"126.81934917","imageIndex":17,"items":[{"name":"대진에코플랜주식회사","tel":"032-349-0556","addr":"경기도 부천시 괴안동 185-2번지","indutype":"건축자재 - 페인트","category":"other"},{"name":"오딤웍스","tel":"070-8862-7411","addr":"경기도 부천시 괴안동 185-2번지 유한대학교산학협력관공동보육실B102호","indutype":"기타 - 기계공구","category":"other"},{"name":"코어3D(Kore3D)","tel":"070-7783-9919","addr":"경기도 부천시 괴안동 185-2번지 유한대학교 산학협력관 B102호 B실","indutype":"사무통신 - 컴퓨터","category":"other"}]},{"lat":"37.480376939","long":"126.80652218","imageIndex":17,"items":[{"name":"대진지물설비","tel":"032-341-2795","addr":"경기도 부천시 괴안동 171-6번지","indutype":"수리서비스 - 기타수리서비스","category":"other"}]},{"lat":"37.480210239","long":"126.80382053","imageIndex":17,"items":[{"name":"대형타일","tel":"032-349-9026","addr":"경기도 부천시 괴안동 38번지 1층","indutype":"건축자재 - 건축용 요업제품","category":"other"},{"name":"유일통상","tel":"070-4079-8542","addr":"경기도 부천시 괴안동 38번지 1층","indutype":"건축자재 - 건축용 요업제품","category":"other"}]},{"lat":"37.479504247","long":"126.81281042","imageIndex":17,"items":[{"name":"더존에어","tel":"032-343-7225","addr":"경기도 부천시 괴안동 102-2번지 대현아파트","indutype":"용역 서비스 - 기타용역서비스","category":"other"}]},{"lat":"37.477184676","long":"126.80487995","imageIndex":17,"items":[{"name":"덕산오토메이션","tel":"032-348-4542","addr":"경기도 부천시 괴안동 34","indutype":"기타 - 기계공구","category":"other"}]},{"lat":"37.478871532","long":"126.80607389","imageIndex":17,"items":[{"name":"도그앤도그","tel":"032-345-1044","addr":"경기도 부천시 괴안동 71-18번지 1층","indutype":"문화.취미 - 애완동물","category":"other"}]},{"lat":"37.482289453","long":"126.81351566","imageIndex":17,"items":[{"name":"동국전기","tel":"032-341-8202","addr":"경기도 부천시 괴안동 117-4번지","indutype":"전기제품 - 기타전기제품","category":"other"},{"name":"목 인테리어","tel":"032-343-8492","addr":"경기도 부천시 괴안동 117-4번지","indutype":"건축자재 - 인테리어전문","category":"other"}]},{"lat":"37.484320893","long":"126.81615623","imageIndex":17,"items":[{"name":"동부전자","tel":"032-343-2342","addr":"경기도 부천시 괴안동 167-12번지","indutype":"전기제품 - 기타전기제품","category":"other"},{"name":"어쿠스틱뮤직","tel":"070-7620-5105","addr":"경기도 부천시 괴안동 167-12번지","indutype":"레져용품 - 악기점","category":"other"},{"name":"원플인테리어","tel":"032-344-9982","addr":"경기도 부천시 괴안동 167-12번지 덕문빌딩 3층","indutype":"건축자재 - 인테리어전문","category":"other"}]},{"lat":"37.484929307","long":"126.81918486","imageIndex":17,"items":[{"name":"동서메디칼","tel":"032-343-3138","addr":"경기도 부천시 괴안동 182-2번지 1층","indutype":"용역 서비스 - 기타용역서비스","category":"other"}]},{"lat":"37.476377888","long":"126.80734661","imageIndex":17,"items":[{"name":"동아기업","tel":"032-344-7030","addr":"경기도 부천시 괴안동 156-4번지","indutype":"용역 서비스 - 종합용역","category":"other"}]},{"lat":"37.482571251","long":"126.80948995","imageIndex":17,"items":[{"name":"동안피부관리","tel":"032-346-9014","addr":"경기도 부천시 괴안동 110-29,2","indutype":"회원제형태 - 기타4","category":"other"},{"name":"우댄스퍼","tel":"032-977-2246","addr":"경기도 부천시 괴안동 110-29번지 2층 201호","indutype":"회원제형태 - 기타4","category":"other"},{"name":"원영토탈인테리어","tel":"032-343-0321","addr":"경기도 부천시 괴안동 110-29번지","indutype":"건축자재 - 인테리어전문","category":"other"}]},{"lat":"37.474156016","long":"126.8040966","imageIndex":17,"items":[{"name":"동인서점","tel":"032-342-4001","addr":"경기도 부천시 괴안동 237-7번지","indutype":"서적문구 - 일반서적","category":"other"}]},{"lat":"37.479154725","long":"126.80302062","imageIndex":17,"items":[{"name":"동진엘텍","tel":"032-347-1107","addr":"경기도 부천시 괴안동 28번지 삼익자동차공업사 A동 3호","indutype":"건축자재 - 기타건축자재","category":"other"},{"name":"크린메이드","tel":"070-4789-2382","addr":"경기도 부천시 괴안동 28번지 삼익자동차공업사 D동 1층","indutype":"수리서비스 - 세탁소","category":"other"}]},{"lat":"37.481626543","long":"126.80485692","imageIndex":17,"items":[{"name":"동창씽크","tel":"032-341-5197","addr":"경기도 부천시 괴안동 4-1번지","indutype":"주방용구 - 주방용구","category":"other"},{"name":"부라더종합미싱","tel":"032-341-3301","addr":"경기도 부천시 괴안동 4-1번지","indutype":"수리서비스 - 가정용품수리","category":"other"},{"name":"실로암애드컴","tel":"032-349-1808","addr":"경기도 부천시 괴안동 4-1번지 1층 8,9호","indutype":"용역 서비스 - 종합용역","category":"other"},{"name":"한백전기조명","tel":"032-344-8409","addr":"경기도 부천시 괴안동 4-1번지","indutype":"건축자재 - 조명기구","category":"other"}]},{"lat":"37.477823009","long":"126.80949088","imageIndex":17,"items":[{"name":"동한마트","tel":"032-342-3648","addr":"경기도 부천시 괴안동 93-14번지","indutype":"용역 서비스 - 부동산 중개·임대","category":"other"}]},{"lat":"37.482066911","long":"126.81521213","imageIndex":17,"items":[{"name":"두리애견샵","tel":"032-343-3058","addr":"경기도 부천시 괴안동 122-2번지 조양맨션 상가 102호","indutype":"문화.취미 - 애완동물","category":"other"}]},{"lat":"37.477873328","long":"126.80721836","imageIndex":17,"items":[{"name":"둘로스1호노인요양공동생활가정","tel":"032-346-1616","addr":"경기도 부천시 괴안동 72-1번지 승보프라자","indutype":"기타의료기관 - 기타의료기관 및 기타","category":"other"},{"name":"엠에이댄스짐","tel":"032-341-8949","addr":"경기도 부천시 괴안동 72-1번지 승보프라자 401호","indutype":"회원제형태 - 레져업소","category":"other"}]},{"lat":"37.485959156","long":"126.81517978","imageIndex":17,"items":[{"name":"드림아쿠아","tel":"","addr":"경기도 부천시 괴안동 169-28번지 지하1층","indutype":"문화.취미 - 수족관","category":"other"},{"name":"백대앙카","tel":"032-343-0295","addr":"경기도 부천시 괴안동 169-28번지","indutype":"기타 - 기계공구","category":"other"}]},{"lat":"37.480705389","long":"126.8145711","imageIndex":17,"items":[{"name":"디자인베라","tel":"032-344-6303","addr":"경기도 부천시 괴안동 120-6번지 준영빌딩 1층","indutype":"건축자재 - 인테리어전문","category":"other"}]},{"lat":"37.480544595","long":"126.80440754","imageIndex":17,"items":[{"name":"라인전기","tel":"032-341-9319","addr":"경기도 부천시 괴안동 38-10번지 엔와이빌딩 1층 101호","indutype":"전기제품 - 기타전기제품","category":"other"},{"name":"예일","tel":"032-230-9478","addr":"경기도 부천시 괴안동 38-10번지 엔와이빌딩 5층","indutype":"주방용구 - 주방용구","category":"other"},{"name":"화이트바닐라","tel":"","addr":"경기도 부천시 괴안동 38-10번지 2층 2-2","indutype":"의류 - 정장","category":"other"}]},{"lat":"37.48439788","long":"126.81357817","imageIndex":17,"items":[{"name":"라피에스타","tel":"032-348-3752","addr":"경기도 부천시 괴안동 127-4번지 지하1층","indutype":"용역 서비스 - 사무서비스","category":"other"}]},{"lat":"37.477787376","long":"126.80973969","imageIndex":17,"items":[{"name":"락희상사","tel":"032-342-7564","addr":"경기도 부천시 괴안동 96번지 1층","indutype":"서적문구 - 과학기자재","category":"other"}]},{"lat":"37.482905578","long":"126.81007701","imageIndex":17,"items":[{"name":"란가버드스쿨","tel":"032-344-7477","addr":"경기도 부천시 괴안동 109-16번지 예그리나4차","indutype":"문화.취미 - 화원","category":"other"}]},{"lat":"37.483095468","long":"126.81049486","imageIndex":17,"items":[{"name":"러브홀릭","tel":"070-7337-8458","addr":"경기도 부천시 괴안동 109-12번지","indutype":"의류 - 정장","category":"other"}]},{"lat":"37.484373376","long":"126.81516113","imageIndex":17,"items":[{"name":"럭키세탁소","tel":"032-343-1677","addr":"경기도 부천시 괴안동 130-9번지 1층","indutype":"수리서비스 - 세탁소","category":"other"},{"name":"임마누엘숙녀복","tel":"032-343-3053","addr":"경기도 부천시 괴안동 130-9번지 4","indutype":"의류 - 정장","category":"other"},{"name":"하은문구","tel":"032-344-1565","addr":"경기도 부천시 괴안동 130-9번지","indutype":"서적문구 - 문구용품","category":"other"}]},{"lat":"37.478900458","long":"126.80721568","imageIndex":17,"items":[{"name":"럭키지물포","tel":"032-341-7414","addr":"경기도 부천시 괴안동 89번지","indutype":"직물 - 카페트,커튼,천막,지물","category":"other"}]},{"lat":"37.477648809","long":"126.80765986","imageIndex":17,"items":[{"name":"레드캐비넷","tel":"032-344-0483","addr":"경기도 부천시 괴안동 88-11번지","indutype":"의류 - 정장","category":"other"},{"name":"레드캐비넷","tel":"02-1111-1111","addr":"경기도 부천시 괴안동 88-11번지 1층","indutype":"의류 - 정장","category":"other"},{"name":"명랑","tel":"070-7808-4541","addr":"경기도 부천시 괴안동 88-11번지 1층","indutype":"사무통신 - 통신기기","category":"other"}]},{"lat":"37.476954803","long":"126.80751469","imageIndex":17,"items":[{"name":"레이크 컴퍼니","tel":"032-229-1100","addr":"경기도 부천시 괴안동 86-4번지 그린홈프라자 1층 104호","indutype":"사무통신 - 통신기기","category":"other"},{"name":"소사노인요양전문요양원","tel":"032-349-7866","addr":"경기도 부천시 괴안동 86-4번지 그린홈프라자 4층","indutype":"기타의료기관 - 기타의료기관 및 기타","category":"other"},{"name":"썬룩스조명","tel":"031-341-1077","addr":"경기도 부천시 괴안동 86-4번지 그린홈프라자 2층 205호","indutype":"건축자재 - 조명기구","category":"other"},{"name":"투독스","tel":"031-1666-9688","addr":"경기도 부천시 괴안동 86-4번지 그린홈프라자 304호","indutype":"회원제형태 - 기타4","category":"other"}]},{"lat":"37.478621338","long":"126.80732946","imageIndex":17,"items":[{"name":"로마","tel":"032-000-0000","addr":"경기도 부천시 괴안동 89-10번지","indutype":"의류 - 정장","category":"other"}]},{"lat":"37.477315629","long":"126.80777378","imageIndex":17,"items":[{"name":"룰라바이","tel":"031-000-0000","addr":"경기도 부천시 괴안동 88-15번지 다인빌딩 5층 503호","indutype":"의류 - 아동의류","category":"other"},{"name":"페이지","tel":"032-341-5118","addr":"경기도 부천시 괴안동 88-15번지","indutype":"의류 - 정장","category":"other"},{"name":"픽미업(PICK ME UP)","tel":"070-8800-0909","addr":"경기도 부천시 괴안동 88-15번지 다인빌딩 5층 502호 6층일부","indutype":"의류 - 정장","category":"other"}]},{"lat":"37.483847424","long":"126.81304816","imageIndex":17,"items":[{"name":"림스텍","tel":"070-7804-9787","addr":"경기도 부천시 괴안동 126-1번지 대원빌딩 6층","indutype":"사무통신 - 컴퓨터","category":"other"}]},{"lat":"37.481320717","long":"126.80516299","imageIndex":17,"items":[{"name":"마르코폴로 아동복","tel":"032-469-5596","addr":"경기도 부천시 괴안동 4-15번지 1층","indutype":"의류 - 아동의류","category":"other"},{"name":"폴로아동복","tel":"032-469-5596","addr":"경기도 부천시 괴안동 4-15번지","indutype":"의류 - 아동의류","category":"other"}]},{"lat":"37.484620344","long":"126.81184772","imageIndex":17,"items":[{"name":"마미산후조리원","tel":"032-341-3567","addr":"경기도 부천시 괴안동 113-8번지 역곡대덕빌딩 제401,403호","indutype":"기타의료기관 - 산후조리원","category":"other"},{"name":"월드포토","tel":"032-664-0915","addr":"경기도 부천시 괴안동 113-8번지","indutype":"광학제품 - 카메라","category":"other"},{"name":"크린에이드역곡남부역점","tel":"032-341-3138","addr":"경기도 부천시 괴안동 113-8번지 역곡noon빌딩 1층 21호","indutype":"수리서비스 - 세탁소","category":"other"}]},{"lat":"37.478899389","long":"126.80657126","imageIndex":17,"items":[{"name":"마음&선물","tel":"070-7869-2629","addr":"경기도 부천시 괴안동 71-2번지","indutype":"유통업 영리 - 기타유통업","category":"other"}]},{"lat":"37.480038078","long":"126.80324439","imageIndex":17,"items":[{"name":"마이스타일","tel":"","addr":"경기도 부천시 괴안동 7번지 1층","indutype":"의류 - 정장","category":"other"},{"name":"제철패션","tel":"032-347-4034","addr":"경기도 부천시 괴안동 7번지 2층","indutype":"의류 - 정장","category":"other"}]},{"lat":"37.482959859","long":"126.81021255","imageIndex":17,"items":[{"name":"마제스틱 코리아","tel":"032-344-7479","addr":"경기도 부천시 괴안동 109-15번지","indutype":"전기제품 - 가전제품","category":"other"},{"name":"아이네트.모아","tel":"032-343-6911","addr":"경기도 부천시 괴안동 109-15번지","indutype":"사무통신 - 통신기기","category":"other"}]},{"lat":"37.481211651","long":"126.80459798","imageIndex":17,"items":[{"name":"만물보세2호점","tel":"032-347-3501","addr":"경기도 부천시 괴안동 4-17번지","indutype":"의류 - 정장","category":"other"}]},{"lat":"37.483765248","long":"126.81804577","imageIndex":17,"items":[{"name":"메모아 드 플레르(memoire de fleur)","tel":"","addr":"경기도 부천시 괴안동 178-5번지 1층","indutype":"문화.취미 - 화원","category":"other"},{"name":"하비VIP","tel":"032-344-8805","addr":"경기도 부천시 괴안동 178-5번지 1층","indutype":"서적문구 - 완구점","category":"other"}]},{"lat":"37.474210322","long":"126.80424342","imageIndex":17,"items":[{"name":"메이카스튜디오","tel":"070-7692-5579","addr":"경기도 부천시 괴안동 237-6번지","indutype":"광학제품 - 사진관","category":"other"}]},{"lat":"37.481845292","long":"126.81185479","imageIndex":17,"items":[{"name":"명랑전파사","tel":"032-341-7927","addr":"경기도 부천시 괴안동 105-2번지 대현 상가 1층 9호","indutype":"수리서비스 - 기타수리서비스","category":"other"},{"name":"별이네애견용품","tel":"031-111-1111","addr":"경기도 부천시 괴안동 105-2번지 1층 105호","indutype":"문화.취미 - 애완동물","category":"other"}]},{"lat":"37.482321737","long":"126.81118651","imageIndex":17,"items":[{"name":"모리아수산","tel":"070-4216-7037","addr":"경기도 부천시 괴안동 107-7번지 청수1차아파트","indutype":"회원제형태 - 기타1","category":"other"}]},{"lat":"37.477684344","long":"126.80735452","imageIndex":17,"items":[{"name":"미래컴퓨터","tel":"032-347-0012","addr":"경기도 부천시 괴안동 72-2.1층5","indutype":"사무통신 - 컴퓨터","category":"other"},{"name":"하나의류(HANA)","tel":"031-291-3029","addr":"경기도 부천시 괴안동 72-2번지 지하층","indutype":"의류 - 정장","category":"other"}]},{"lat":"37.482898316","long":"126.81115112","imageIndex":17,"items":[{"name":"미선상회","tel":"032-343-8432","addr":"경기도 부천시 괴안동 108-5번지","indutype":"의류 - 정장","category":"other"}]},{"lat":"37.483818096","long":"126.81162364","imageIndex":17,"items":[{"name":"미지트","tel":"032-344-9962","addr":"경기도 부천시 괴안동 114-5번지","indutype":"가구 - 일반가구","category":"other"},{"name":"여성크로커다일 역곡점","tel":"032-351-2007","addr":"경기도 부천시 괴안동 114-5번지 1층","indutype":"레져용품 - 스포츠·레져용품","category":"other"},{"name":"팬텀","tel":"032-349-4111","addr":"경기도 부천시 괴안동 114-5번지","indutype":"레져용품 - 스포츠·레져용품","category":"other"}]},{"lat":"37.482153503","long":"126.80748985","imageIndex":17,"items":[{"name":"민성기업","tel":"032-351-3236","addr":"경기도 부천시 괴안동 110번지","indutype":"건축자재 - 페인트","category":"other"}]},{"lat":"37.474318289","long":"126.80415269","imageIndex":17,"items":[{"name":"밀라노","tel":"032-343-2714","addr":"경기도 부천시 괴안동 237-3번지","indutype":"의류 - 정장","category":"other"}]},{"lat":"37.477069775","long":"126.80621428","imageIndex":17,"items":[{"name":"반딧불이","tel":"070-8930-5559","addr":"경기도 부천시 괴안동 산14번지 덕림현대아파트","indutype":"용역 서비스 - 종합용역","category":"other"}]},{"lat":"37.481177239","long":"126.80557038","imageIndex":17,"items":[{"name":"백조씽크","tel":"032-343-6048","addr":"경기도 부천시 괴안동 3-2번지","indutype":"주방용구 - 주방용구","category":"other"}]},{"lat":"37.478899952","long":"126.80691043","imageIndex":17,"items":[{"name":"버들텔레콤","tel":"032-344-9400","addr":"경기도 부천시 괴안동 71-3번지 1층","indutype":"사무통신 - 통신기기","category":"other"}]},{"lat":"37.483126533","long":"126.81868049","imageIndex":17,"items":[{"name":"범양냉난방설비","tel":"032-343-3849","addr":"경기도 부천시 괴안동 179-22금호타운상가2","indutype":"전기제품 - 냉열기기","category":"other"}]},{"lat":"37.484511877","long":"126.81163318","imageIndex":17,"items":[{"name":"법무사이갑진","tel":"032-343-1978","addr":"경기도 부천시 괴안동 113-6번지","indutype":"용역 서비스 - 법률회계서비스(개인)","category":"other"}]},{"lat":"37.481900283","long":"126.81243126","imageIndex":17,"items":[{"name":"베베떼떼","tel":"032-328-6428","addr":"경기도 부천시 괴안동 117번지 삼협연립 1층 206호","indutype":"의류 - 아동의류","category":"other"},{"name":"엘피이노베이션","tel":"","addr":"경기도 부천시 괴안동 117번지 삼협연립 나동 205호","indutype":"의류 - 아동의류","category":"other"}]},{"lat":"37.485205219","long":"126.81701333","imageIndex":17,"items":[{"name":"보니스토리","tel":"032-347-0823","addr":"경기도 부천시 괴안동 175-6번지 대성 104호","indutype":"의류 - 아동의류","category":"other"}]},{"lat":"37.481683244","long":"126.80643961","imageIndex":17,"items":[{"name":"보물섬","tel":"032-343-0058","addr":"경기도 부천시 괴안동 3-26번지 썬빌딩 3층","indutype":"용역 서비스 - 종합용역","category":"other"}]},{"lat":"37.482430949","long":"126.81751767","imageIndex":17,"items":[{"name":"보아스","tel":"070-7869-2629","addr":"경기도 부천시 괴안동 162-2번지 태송팰리채아파트","indutype":"유통업 영리 - 기타유통업","category":"other"}]},{"lat":"37.483348408","long":"126.81090123","imageIndex":17,"items":[{"name":"복권방","tel":"032-344-0498","addr":"경기도 부천시 괴안동 109-8번지","indutype":"기타 - 기타 전문점","category":"other"}]},{"lat":"37.483315348","long":"126.81274424","imageIndex":17,"items":[{"name":"부곡피부관리실","tel":"032-348-9310","addr":"경기도 부천시 괴안동 115-9번지 3층 마사지실","indutype":"회원제형태 - 기타4","category":"other"}]},{"lat":"37.485676954","long":"126.81906997","imageIndex":17,"items":[{"name":"부광강화도어","tel":"032-341-0387","addr":"경기도 부천시 괴안동 185-22번지 1층","indutype":"건축자재 - 기타건축자재","category":"other"}]},{"lat":"37.480294232","long":"126.81102211","imageIndex":17,"items":[{"name":"부안사","tel":"032-348-3227","addr":"경기도 부천시 괴안동 99-42번지 1층","indutype":"수리서비스 - 세탁소","category":"other"},{"name":"진아트팬시","tel":"032-343-9814","addr":"경기도 부천시 괴안동 99-42번지","indutype":"서적문구 - 문구용품","category":"other"}]},{"lat":"37.476954466","long":"126.80194117","imageIndex":17,"items":[{"name":"뷰티팜","tel":"032-343-2575","addr":"경기도 부천시 괴안동 30-3번지 가산빌딩 3층","indutype":"회원제형태 - 기타4","category":"other"},{"name":"중앙인테리어","tel":"032-345-1958","addr":"경기도 부천시 괴안동 30-3번지 104호","indutype":"건축자재 - 인테리어전문","category":"other"}]},{"lat":"37.478456063","long":"126.81093636","imageIndex":17,"items":[{"name":"뷰티하우스","tel":"032-1688-0439","addr":"경기도 부천시 괴안동 98-8번지","indutype":"건축자재 - 인테리어전문","category":"other"},{"name":"씨유소사베스트점","tel":"032-341-2923","addr":"경기도 부천시 괴안동 98-8번지 1층","indutype":"유통업 영리 - 편 의 점","category":"other"}]},{"lat":"37.48226015","long":"126.81210247","imageIndex":17,"items":[{"name":"블랙","tel":"070-8877-0469","addr":"경기도 부천시 괴안동 116-12번지","indutype":"의류 - 정장","category":"other"}]},{"lat":"37.486148812","long":"126.81546197","imageIndex":17,"items":[{"name":"비엠케이경기지사","tel":"02-1588-2198","addr":"경기도 부천시 괴안동 169-25번지","indutype":"전기제품 - 기타전기제품","category":"other"}]},{"lat":"37.483975907","long":"126.80894363","imageIndex":17,"items":[{"name":"빈이샘물","tel":"032-552-9900","addr":"경기도 부천시 괴안동 112번지 영광아트빌 B동 202호","indutype":"유통업 영리 - 기타유통업","category":"other"}]},{"lat":"37.479790731","long":"126.80618454","imageIndex":17,"items":[{"name":"빈티지스토리","tel":"070-7311-0024","addr":"경기도 부천시 괴안동 40-15번지 1층","indutype":"의류 - 정장","category":"other"}]},{"lat":"37.48181587","long":"126.81599287","imageIndex":17,"items":[{"name":"사인통","tel":"032-344-1394","addr":"경기도 부천시 괴안동 159-13번지 극동프라임빌 401호","indutype":"회원제형태 - 기타4","category":"other"}]},{"lat":"37.480761629","long":"126.80488182","imageIndex":17,"items":[{"name":"삼보타일.인테리어","tel":"032-344-5600","addr":"경기도 부천시 괴안동 39-1번지 1층 1호","indutype":"건축자재 - 건축용 요업제품","category":"other"},{"name":"한양문구인쇄","tel":"032-341-0471","addr":"경기도 부천시 괴안동 39-1번지","indutype":"서적문구 - 문구용품","category":"other"}]},{"lat":"37.485210848","long":"126.81487638","imageIndex":17,"items":[{"name":"삼성플러스공인중개사사무소","tel":"032-6338-1272","addr":"경기도 부천시 괴안동 168번지","indutype":"용역 서비스 - 부동산 중개·임대","category":"other"},{"name":"세븐일레븐부천역곡점","tel":"032-349-0206","addr":"경기도 부천시 괴안동 168번지","indutype":"유통업 영리 - 편 의 점","category":"other"},{"name":"한양상사","tel":"032-348-8519","addr":"경기도 부천시 괴안동 168번지","indutype":"건축자재 - 페인트","category":"other"}]},{"lat":"37.478511643","long":"126.81187458","imageIndex":17,"items":[{"name":"삼진코킹","tel":"032-343-3138","addr":"경기도 부천시 괴안동 100-9번지 101호","indutype":"건축자재 - 기타건축자재","category":"other"}]},{"lat":"37.487123813","long":"126.81668068","imageIndex":17,"items":[{"name":"상아정밀공업사","tel":"032-342-6421","addr":"경기도 부천시 괴안동 189-1번지","indutype":"기타 - 기계공구","category":"other"}]},{"lat":"37.487683476","long":"126.8173464","imageIndex":17,"items":[{"name":"선일엔지니어링","tel":"032-344-3092","addr":"경기도 부천시 괴안동 189-18번지 현대그린빌 301호","indutype":"건축자재 - 기타건축자재","category":"other"}]},{"lat":"37.484819456","long":"126.81240123","imageIndex":17,"items":[{"name":"섬일정보통신","tel":"032-342-5557","addr":"경기도 부천시 괴안동 128번지 1층 109호","indutype":"사무통신 - 통신기기","category":"other"},{"name":"세무사변영일사무소","tel":"032-344-7001","addr":"경기도 부천시 괴안동 128번지","indutype":"용역 서비스 - 법률회계서비스(개인)","category":"other"},{"name":"한샘역곡","tel":"032-343-5753","addr":"경기도 부천시 괴안동 128번지","indutype":"가구 - 일반가구","category":"other"}]},{"lat":"37.482267544","long":"126.81673795","imageIndex":17,"items":[{"name":"세광교역","tel":"032-342-8831","addr":"경기도 부천시 괴안동 159-8번지","indutype":"주방용구 - 주방용구","category":"other"}]},{"lat":"37.47973525","long":"126.81079742","imageIndex":17,"items":[{"name":"세라악세서리","tel":"031-591-4709","addr":"경기도 부천시 괴안동 99-5번지 풍원주택 101호","indutype":"신변잡화 - 액세서리","category":"other"},{"name":"와이씨공조","tel":"","addr":"경기도 부천시 괴안동 99-5번지 풍원주택 지층 1호","indutype":"용역 서비스 - 기타용역서비스","category":"other"}]},{"lat":"37.481787963","long":"126.81543895","imageIndex":17,"items":[{"name":"세븐일레븐 부천청우점","tel":"031-1577-0711","addr":"경기도 부천시 괴안동 122-3번지 1층","indutype":"유통업 영리 - 편 의 점","category":"other"}]},{"lat":"37.488903851","long":"126.81993271","imageIndex":17,"items":[{"name":"세제공방","tel":"032-614-1512","addr":"경기도 부천시 괴안동 200-4번지 4층","indutype":"신변잡화 - 기타잡화","category":"other"}]},{"lat":"37.482851279","long":"126.80993017","imageIndex":17,"items":[{"name":"소소롱 플라워 스튜디오","tel":"","addr":"경기도 부천시 괴안동 109-17번지 삼우빌라 1층 101호","indutype":"문화.취미 - 화원","category":"other"}]},{"lat":"37.475955207","long":"126.80782253","imageIndex":17,"items":[{"name":"수 바이크","tel":"032-347-5416","addr":"경기도 부천시 괴안동 155-2번지 1층","indutype":"레져용품 - 스포츠·레져용품","category":"other"}]},{"lat":"37.482291584","long":"126.81484977","imageIndex":17,"items":[{"name":"스마일베베","tel":"032-346-8926","addr":"경기도 부천시 괴안동 123-4번지 청수이지빌 상가동 2층 1호","indutype":"의류 - 아동의류","category":"other"}]},{"lat":"37.48628954","long":"126.81901193","imageIndex":17,"items":[{"name":"스테이지6","tel":"","addr":"경기도 부천시 괴안동 185-13번지 유한빌딩 304호","indutype":"문화.취미 - 티켓","category":"other"}]},{"lat":"37.483489854","long":"126.80923885","imageIndex":17,"items":[{"name":"스파클하이테크","tel":"032-349-2345","addr":"경기도 부천시 괴안동 112-25번지 성화 203호","indutype":"기타 - 기타 전문점","category":"other"}]},{"lat":"37.484071233","long":"126.81215439","imageIndex":17,"items":[{"name":"시암테라피","tel":"032-345-3336","addr":"경기도 부천시 괴안동 114-7번지 3층 303호","indutype":"신변잡화 - 기타잡화","category":"other"}]},{"lat":"37.479460069","long":"126.81335321","imageIndex":17,"items":[{"name":"시원하수구","tel":"032-886-8038","addr":"경기도 부천시 괴안동 102-3번지 명성홈타운 201호","indutype":"용역 서비스 - 기타용역서비스","category":"other"}]},{"lat":"37.482178385","long":"126.81168435","imageIndex":17,"items":[{"name":"시장디씨아울렛","tel":"032-349-2122","addr":"경기도 부천시 괴안동 107-9번지 삼협연립 1호","indutype":"신변잡화 - 기타잡화","category":"other"},{"name":"엄마옷패션","tel":"032-343-6764","addr":"경기도 부천시 괴안동 107-9번지 삼협연립","indutype":"의류 - 정장","category":"other"},{"name":"역곡상사","tel":"032-345-3729","addr":"경기도 부천시 괴안동 107-9번지 삼협 B동 105호","indutype":"의류 - 내의판매","category":"other"}]},{"lat":"37.483318258","long":"126.80899055","imageIndex":17,"items":[{"name":"신광샷시철물","tel":"032-434-8609","addr":"경기도 부천시 괴안동 111-41번지","indutype":"기타 - 기계공구","category":"other"}]},{"lat":"37.477264672","long":"126.8096619","imageIndex":17,"items":[{"name":"신광종합환경","tel":"032-323-6156","addr":"경기도 부천시 괴안동 95-10번지 대준 블루인 1층 1호","indutype":"신변잡화 - 기타잡화","category":"other"}]},{"lat":"37.481677449","long":"126.81393552","imageIndex":17,"items":[{"name":"신앙촌 상회","tel":"032-341-0739","addr":"경기도 부천시 괴안동 118-33번지 대성빌딩 2층 2호","indutype":"직물 - 침구·수예점","category":"other"}]},{"lat":"37.481040425","long":"126.80457582","imageIndex":17,"items":[{"name":"신애종합광고","tel":"032-652-4206","addr":"경기도 부천시 괴안동 4-11번지 우학빌딩 1층","indutype":"건축자재 - 인테리어전문","category":"other"},{"name":"제일종합철물","tel":"032-343-9559","addr":"경기도 부천시 괴안동 4-11번지 1층","indutype":"건축자재 - 목재·석재·철물","category":"other"}]},{"lat":"37.483845859","long":"126.8177403","imageIndex":17,"items":[{"name":"신용종합설비","tel":"032-343-8880","addr":"경기도 부천시 괴안동 178-25","indutype":"회원제형태 - 기타4","category":"other"}]},{"lat":"37.484376094","long":"126.8168797","imageIndex":17,"items":[{"name":"신일철물건재","tel":"032-343-9810","addr":"경기도 부천시 괴안동 176-9번지","indutype":"건축자재 - 목재·석재·철물","category":"other"}]},{"lat":"37.482178878","long":"126.81198961","imageIndex":17,"items":[{"name":"실짱뜨개방","tel":"032-345-3943","addr":"경기도 부천시 괴안동 116-13번지 1층","indutype":"직물 - 침구·수예점","category":"other"}]},{"lat":"37.480873826","long":"126.81285218","imageIndex":17,"items":[{"name":"씨유괴안범안점","tel":"02-1577-8007","addr":"경기도 부천시 괴안동 119번지 1층","indutype":"유통업 영리 - 편 의 점","category":"other"}]},{"lat":"37.485755641","long":"126.81753207","imageIndex":17,"items":[{"name":"씨유괴안스마트점","tel":"080-080-3663","addr":"경기도 부천시 괴안동 175-4번지 스마트타운 가동 101호","indutype":"유통업 영리 - 편 의 점","category":"other"}]},{"lat":"37.48401402","long":"126.8158178","imageIndex":17,"items":[{"name":"씨유역곡대성점","tel":"032-342-3334","addr":"경기도 부천시 괴안동 166번지","indutype":"유통업 영리 - 편 의 점","category":"other"}]},{"lat":"37.482956096","long":"126.81345744","imageIndex":17,"items":[{"name":"씨유역곡지영점","tel":"080-080-3663","addr":"경기도 부천시 괴안동 125-5번지 인광빌딩 106,107호","indutype":"유통업 영리 - 편 의 점","category":"other"},{"name":"케이스튜디오","tel":"031-5184-5818","addr":"경기도 부천시 괴안동 125-5번지 인광빌딩 4층","indutype":"광학제품 - 사진관","category":"other"},{"name":"코디","tel":"","addr":"경기도 부천시 괴안동 125-5번지 인광빌딩 102호","indutype":"의류 - 정장","category":"other"}]},{"lat":"37.479651949","long":"126.8040142","imageIndex":17,"items":[{"name":"아담&이브","tel":"032-348-8120","addr":"경기도 부천시 괴안동 37,조공1차상가공유지분1~3호","indutype":"의류 - 정장","category":"other"}]},{"lat":"37.483568749","long":"126.8079045","imageIndex":17,"items":[{"name":"아란플라워","tel":"","addr":"경기도 부천시 괴안동 111-24번지 대림홈타운 301호","indutype":"문화.취미 - 화원","category":"other"}]},{"lat":"37.486681543","long":"126.81618428","imageIndex":17,"items":[{"name":"아리디자인","tel":"02-764-8087","addr":"경기도 부천시 괴안동 169-11번지","indutype":"서적문구 - 출판 및 인쇄물","category":"other"}]},{"lat":"37.479517963","long":"126.81015355","imageIndex":17,"items":[{"name":"아미(Ami)","tel":"032-345-1843","addr":"경기도 부천시 괴안동 99-1번지 신일해피트리아파트","indutype":"의류 - 정장","category":"other"}]},{"lat":"37.476430133","long":"126.81174421","imageIndex":17,"items":[{"name":"아유오케이 (Areyouok)","tel":"032-348-5805","addr":"경기도 부천시 괴안동 257-1번지 2동 202호","indutype":"문화.취미 - 문화취미기타","category":"other"}]},{"lat":"37.480627232","long":"126.81079514","imageIndex":17,"items":[{"name":"아이스포츠","tel":"070-7868-7981","addr":"경기도 부천시 괴안동 99-26번지 상가 1층","indutype":"레져용품 - 스포츠·레져용품","category":"other"}]},{"lat":"37.479291095","long":"126.80374382","imageIndex":17,"items":[{"name":"아이지에이마트 부천괴안점","tel":"031-000-0000","addr":"경기도 부천시 괴안동 28-1번지 1층","indutype":"유통업 영리 - 편 의 점","category":"other"}]},{"lat":"37.478566754","long":"126.80701305","imageIndex":17,"items":[{"name":"아쿠아워터","tel":"032-349-8457","addr":"경기도 부천시 괴안동 71-31번지","indutype":"수리서비스 - 가정용품수리","category":"other"}]},{"lat":"37.4847315","long":"126.81373562","imageIndex":17,"items":[{"name":"알루에멜(Alu et Mel)","tel":"032-720-0577","addr":"경기도 부천시 괴안동 129번지 네오빌 1211호","indutype":"가구 - 일반가구","category":"other"}]},{"lat":"37.478711847","long":"126.81310638","imageIndex":17,"items":[{"name":"알림광고기획","tel":"032-345-1750","addr":"경기도 부천시 괴안동 76-20번지 명진자원 101호","indutype":"용역 서비스 - 종합용역","category":"other"},{"name":"역곡종합골재","tel":"032-342-3176","addr":"경기도 부천시 괴안동 76-20번지","indutype":"건축자재 - 기타건축자재","category":"other"}]},{"lat":"37.481238263","long":"126.80434918","imageIndex":17,"items":[{"name":"애완용품할인마트","tel":"032-344-0776","addr":"경기도 부천시 괴안동 5-9번지 1층 2호","indutype":"문화.취미 - 애완동물","category":"other"}]},{"lat":"37.481176238","long":"126.81603969","imageIndex":17,"items":[{"name":"양지문구점","tel":"032-349-9526","addr":"경기도 부천시 괴안동 26-1번지 1층","indutype":"서적문구 - 문구용품","category":"other"}]},{"lat":"37.478265308","long":"126.80998719","imageIndex":17,"items":[{"name":"언니네 옷장","tel":"032-341-6352","addr":"경기도 부천시 괴안동 97번지","indutype":"의류 - 정장","category":"other"}]},{"lat":"37.480042311","long":"126.80576556","imageIndex":17,"items":[{"name":"에스지테크","tel":"032-351-9887","addr":"경기도 부천시 괴안동 40-5번지 지층","indutype":"주방용구 - 주방용구","category":"other"}]},{"lat":"37.479704486","long":"126.80851374","imageIndex":17,"items":[{"name":"에이치와이정보통신","tel":"032-341-2713","addr":"경기도 부천시 괴안동 91번지 태림슈어빌 1층 101호","indutype":"사무통신 - 통신기기","category":"other"}]},{"lat":"37.478871852","long":"126.80626608","imageIndex":17,"items":[{"name":"에이치케이이엔비(HK_E&B)","tel":"032-342-1606","addr":"경기도 부천시 괴안동 71-1번지 지하층","indutype":"서적문구 - 일반서적","category":"other"}]},{"lat":"37.478066277","long":"126.80949026","imageIndex":17,"items":[{"name":"에프씨전기","tel":"032-343-6917","addr":"경기도 부천시 괴안동 92-5번지","indutype":"전기제품 - 기타전기제품","category":"other"}]},{"lat":"37.484092863","long":"126.81440431","imageIndex":17,"items":[{"name":"여정속옷","tel":"02-857-6889","addr":"경기도 부천시 괴안동 130-23번지 태림아트빌 301호","indutype":"의류 - 내의판매","category":"other"}]},{"lat":"37.482545311","long":"126.81015708","imageIndex":17,"items":[{"name":"역곡3동주민자치위원회","tel":"032-343-2600","addr":"경기도 부천시 괴안동 108-1번지","indutype":"문화.취미 - 문화취미기타","category":"other"}]},{"lat":"37.484457488","long":"126.8114298","imageIndex":17,"items":[{"name":"역곡남부작심스페이스","tel":"","addr":"경기도 부천시 괴안동 113-3번지","indutype":"용역 서비스 - 사무서비스","category":"other"}]},{"lat":"37.482816695","long":"126.81082345","imageIndex":17,"items":[{"name":"역곡신발","tel":"032-347-1311","addr":"경기도 부천시 괴안동 108-3번지 1층 101호","indutype":"신변잡화 - 신발","category":"other"}]},{"lat":"37.48273924","long":"126.80754486","imageIndex":17,"items":[{"name":"역곡철강","tel":"032-343-6195","addr":"경기도 부천시 괴안동 111-63번지","indutype":"건축자재 - 기타건축자재","category":"other"}]},{"lat":"37.484238389","long":"126.81526323","imageIndex":17,"items":[{"name":"역곡프라자","tel":"032-344-7777","addr":"경기도 부천시 괴안동 130-38번지 1층","indutype":"전기제품 - 가전제품","category":"other"}]},{"lat":"37.484009147","long":"126.81276509","imageIndex":17,"items":[{"name":"역전출물","tel":"032-343-6834","addr":"경기도 부천시 괴안동 127-8번지","indutype":"건축자재 - 목재·석재·철물","category":"other"}]},{"lat":"37.476094287","long":"126.80476977","imageIndex":17,"items":[{"name":"영광종합전자","tel":"032-341-5559","addr":"경기도 부천시 괴안동 164-6번지 염광상가","indutype":"전기제품 - 가전제품","category":"other"}]},{"lat":"37.485014084","long":"126.8157927","imageIndex":17,"items":[{"name":"영구청소114호점","tel":"02-2066-1258","addr":"경기도 부천시 괴안동 167-5삼보그린빌201,5/4","indutype":"용역 서비스 - 종합용역","category":"other"}]},{"lat":"37.480211323","long":"126.80446495","imageIndex":17,"items":[{"name":"영덕건설","tel":"070-7862-1510","addr":"경기도 부천시 괴안동 38-12번지 일신주택 다동 101호","indutype":"건축자재 - 인테리어전문","category":"other"}]},{"lat":"37.482208067","long":"126.80779497","imageIndex":17,"items":[{"name":"영림창호","tel":"032-343-5081","addr":"경기도 부천시 괴안동 110-2번지 1층","indutype":"건축자재 - 기타건축자재","category":"other"}]},{"lat":"37.482739278","long":"126.81309619","imageIndex":17,"items":[{"name":"예쁘지아","tel":"03-111-1111","addr":"경기도 부천시 괴안동 116-7번지 가호","indutype":"의류 - 정장","category":"other"},{"name":"윤쥬스","tel":"070-7359-4564","addr":"경기도 부천시 괴안동 116-7번지 가호","indutype":"의류 - 정장","category":"other"}]},{"lat":"37.478039432","long":"126.80960338","imageIndex":17,"items":[{"name":"예심사랑요양원 요양센터 주야간보호센터","tel":"032-347-1125","addr":"경기도 부천시 괴안동 92-16번지 1층","indutype":"기타의료기관 - 기타의료기관 및 기타","category":"other"}]},{"lat":"37.478929573","long":"126.80307775","imageIndex":17,"items":[{"name":"예원스튜디오","tel":"032-347-9924","addr":"경기도 부천시 괴안동 28-3번지 태양빌딩 1층 102호","indutype":"광학제품 - 사진관","category":"other"}]},{"lat":"37.480432648","long":"126.80751694","imageIndex":17,"items":[{"name":"예진네돗집","tel":"032-344-8380","addr":"경기도 부천시 괴안동 171-8번지 거산아파트","indutype":"의류 - 정장","category":"other"}]},{"lat":"37.480486127","long":"126.81268357","imageIndex":17,"items":[{"name":"오래뜰","tel":"031-461-0569","addr":"경기도 부천시 괴안동 104-1번지 트윈파크아파트","indutype":"서적문구 - 기타서적문구","category":"other"}]},{"lat":"37.480455236","long":"126.80484871","imageIndex":17,"items":[{"name":"오아시스","tel":"032-341-5419","addr":"경기도 부천시 괴안동 39-6번지","indutype":"의류 - 정장","category":"other"},{"name":"조공의류","tel":"032-345-7751","addr":"경기도 부천시 괴안동 39-6번지 1층 6호","indutype":"의류 - 내의판매","category":"other"}]},{"lat":"37.485262463","long":"126.81904837","imageIndex":17,"items":[{"name":"온수기닷컴","tel":"032-345-5859","addr":"경기도 부천시 괴안동 182-18번지","indutype":"건축자재 - 보일러·펌프·샷시","category":"other"}]},{"lat":"37.476565684","long":"126.81199258","imageIndex":17,"items":[{"name":"온스테이지(onstage)","tel":"","addr":"경기도 부천시 괴안동 257-3번지","indutype":"서적문구 - 기타서적문구","category":"other"}]},{"lat":"37.48645642","long":"126.81626398","imageIndex":17,"items":[{"name":"온양침장","tel":"032-664-8144","addr":"경기도 부천시 괴안동 169-15번지 ***연번지,16","indutype":"직물 - 침구·수예점","category":"other"}]},{"lat":"37.485370053","long":"126.81870891","imageIndex":17,"items":[{"name":"와우디자인","tel":"032-347-4001","addr":"경기도 부천시 괴안동 184-20번지 우성빌라 1층 101호","indutype":"용역 서비스 - 종합용역","category":"other"}]},{"lat":"37.480121129","long":"126.80440866","imageIndex":17,"items":[{"name":"우리기업","tel":"","addr":"경기도 부천시 괴안동 38-12번지 제1층 102호","indutype":"건축자재 - 목재·석재·철물","category":"other"}]},{"lat":"37.482427776","long":"126.80990865","imageIndex":17,"items":[{"name":"우리의취향","tel":"","addr":"경기도 부천시 괴안동 108번지 청수빌딩 1호","indutype":"의류 - 정장","category":"other"},{"name":"태양지물포","tel":"031-349-5678","addr":"경기도 부천시 괴안동 108번지 1층","indutype":"직물 - 카페트,커튼,천막,지물","category":"other"}]},{"lat":"37.474344634","long":"126.80374564","imageIndex":17,"items":[{"name":"우성자동문","tel":"070-4553-9213","addr":"경기도 부천시 괴안동 236-8번지 302호","indutype":"수리서비스 - 기타수리서비스","category":"other"},{"name":"우성자동문","tel":"033-662-2242","addr":"경기도 부천시 괴안동 236-8번지 302호","indutype":"건축자재 - 목재·석재·철물","category":"other"}]},{"lat":"37.478295537","long":"126.80645979","imageIndex":17,"items":[{"name":"워시피플 셀프빨래방 부천 괴안점","tel":"","addr":"경기도 부천시 괴안동 73-3번지 정안스타빌 상가 1층","indutype":"수리서비스 - 세탁소","category":"other"}]},{"lat":"37.478651048","long":"126.80354202","imageIndex":17,"items":[{"name":"원일종합인테리어","tel":"032-344-0639","addr":"경기도 부천시 괴안동 31-21번지","indutype":"직물 - 카페트,커튼,천막,지물","category":"other"}]},{"lat":"37.478598625","long":"126.80451444","imageIndex":17,"items":[{"name":"웰빙홈케어","tel":"","addr":"경기도 부천시 괴안동 32번지 역곡조공2차아파트","indutype":"용역 서비스 - 종합용역","category":"other"},{"name":"준아동복","tel":"032-341-7005","addr":"경기도 부천시 괴안동 32번지 역곡조공2차아파트","indutype":"의류 - 정장","category":"other"},{"name":"행복역꽃방","tel":"032-224-1655","addr":"경기도 부천시 괴안동 32번지 역곡조공2차아파트","indutype":"회원제형태 - 기타4","category":"other"}]},{"lat":"37.478705574","long":"126.80923989","imageIndex":17,"items":[{"name":"유아교육사","tel":"032-662-2052","addr":"경기도 부천시 괴안동 91-16번지","indutype":"회원제형태 - 서적","category":"other"}]},{"lat":"37.486764075","long":"126.81709992","imageIndex":17,"items":[{"name":"유진의상실","tel":"032-343-2418","addr":"경기도 부천시 괴안동 188-18번지","indutype":"의류 - 맞춤복점","category":"other"},{"name":"제이앤씨","tel":"032-343-9839","addr":"경기도 부천시 괴안동 188-18번지 2층","indutype":"직물 - 카페트,커튼,천막,지물","category":"other"},{"name":"초원꽃집","tel":"070-8913-0389","addr":"경기도 부천시 괴안동 188-18번지 1층","indutype":"문화.취미 - 화원","category":"other"}]},{"lat":"37.48806558","long":"126.81970861","imageIndex":17,"items":[{"name":"유한문구","tel":"032-341-6500","addr":"경기도 부천시 괴안동 199-1번지","indutype":"서적문구 - 문구용품","category":"other"}]},{"lat":"37.48040182","long":"126.80523325","imageIndex":17,"items":[{"name":"이꼬신꼬","tel":"032-341-2642","addr":"경기도 부천시 괴안동 40번지 화성연립 A동 201호","indutype":"신변잡화 - 신발","category":"other"}]},{"lat":"37.481709623","long":"126.81718027","imageIndex":17,"items":[{"name":"이레옷방","tel":"032-341-1107","addr":"경기도 부천시 괴안동 160-12번지","indutype":"의류 - 정장","category":"other"}]},{"lat":"37.486072315","long":"126.81837929","imageIndex":17,"items":[{"name":"이레테크","tel":"032-344-3710","addr":"경기도 부천시 괴안동 184-38번지 세종홈타운 303호","indutype":"전기제품 - 기타전기제품","category":"other"}]},{"lat":"37.482458885","long":"126.80691244","imageIndex":17,"items":[{"name":"이마트24 괴안MS점","tel":"032-1111-1111","addr":"경기도 부천시 괴안동 2-20번지 MS타워","indutype":"유통업 영리 - 편 의 점","category":"other"},{"name":"이마트24 괴안MS점/주식회사 엠에스커뮤니","tel":"","addr":"경기도 부천시 괴안동 2-20번지 MS타워","indutype":"유통업 영리 - 편 의 점","category":"other"}]},{"lat":"37.483071219","long":"126.81787789","imageIndex":17,"items":[{"name":"이마트24 부천괴안점","tel":"032-1111-1111","addr":"경기도 부천시 괴안동 178-17번지","indutype":"유통업 영리 - 편 의 점","category":"other"}]},{"lat":"37.482958732","long":"126.80952287","imageIndex":17,"items":[{"name":"이브자리코디샌역곡점","tel":"032-343-2229","addr":"경기도 부천시 괴안동 109번지 SECO프라자 102호","indutype":"직물 - 침구·수예점","category":"other"}]},{"lat":"37.479264675","long":"126.80410568","imageIndex":17,"items":[{"name":"이삭만물보세","tel":"070-4714-3514","addr":"경기도 부천시 괴안동 36번지 역곡조공1차아파트","indutype":"의류 - 정장","category":"other"},{"name":"제이에스생활건강","tel":"","addr":"경기도 부천시 괴안동 36번지 역곡조공1차아파트","indutype":"신변잡화 - 기타잡화","category":"other"},{"name":"한아름과일","tel":"032-341-3317","addr":"경기도 부천시 괴안동 36번지 역곡조공1차아파트","indutype":"회원제형태 - 기타1","category":"other"}]},{"lat":"37.488678639","long":"126.81995587","imageIndex":17,"items":[{"name":"이펙스","tel":"032-344-3897","addr":"경기도 부천시 괴안동 200-5번지","indutype":"주방용구 - 주방용구","category":"other"}]},{"lat":"37.487071548","long":"126.8178228","imageIndex":17,"items":[{"name":"일오삼부러쉬","tel":"032-343-6364","addr":"경기도 부천시 괴안동 188-12번지","indutype":"기타 - 기타 전문점","category":"other"}]},{"lat":"37.483789398","long":"126.81621409","imageIndex":17,"items":[{"name":"자유유통","tel":"02-2615-2080","addr":"경기도 부천시 괴안동 166-14번지 102호","indutype":"유통업 영리 - 기타유통업","category":"other"}]},{"lat":"37.475377057","long":"126.80690832","imageIndex":17,"items":[{"name":"자전거카페","tel":"032-341-5890","addr":"경기도 부천시 괴안동 242-10번지","indutype":"수리서비스 - 레져용품수리","category":"other"}]},{"lat":"37.482989267","long":"126.80618746","imageIndex":17,"items":[{"name":"작은숲","tel":"070-8654-4335","addr":"경기도 부천시 괴안동 2-5번지 명성빌라 401호","indutype":"문화.취미 - 화원","category":"other"}]},{"lat":"37.482817997","long":"126.81162619","imageIndex":17,"items":[{"name":"장미꽃","tel":"032-341-1183","addr":"경기도 부천시 괴안동 115-13번지 유영연립내가건물꽃집","indutype":"문화.취미 - 화원","category":"other"}]},{"lat":"37.483153515","long":"126.81295947","imageIndex":17,"items":[{"name":"장미네","tel":"070-4325-8007","addr":"경기도 부천시 괴안동 116-40번지 조양그랜드맨션 103동 101호","indutype":"의류 - 정장","category":"other"},{"name":"주식회사 제이원에프","tel":"032-348-1110","addr":"경기도 부천시 괴안동 116-40번지 조양그랜드맨션 103동 102호","indutype":"사무통신 - 컴퓨터","category":"other"}]},{"lat":"37.482677187","long":"126.81370688","imageIndex":17,"items":[{"name":"정동빌딩(세원정보시스템)","tel":"032-341-6200","addr":"경기도 부천시 괴안동 124번지","indutype":"사무통신 - 컴퓨터","category":"other"},{"name":"주식회사 메시","tel":"032-345-2473","addr":"경기도 부천시 괴안동 124번지 정동빌딩 302호","indutype":"용역 서비스 - 종합용역","category":"other"}]},{"lat":"37.479875141","long":"126.81373656","imageIndex":17,"items":[{"name":"정문기획","tel":"032-344-3196","addr":"경기도 부천시 괴안동 120-20번지","indutype":"신변잡화 - 기타잡화","category":"other"}]},{"lat":"37.485622296","long":"126.81868567","imageIndex":17,"items":[{"name":"제일산업","tel":"032-344-8550","addr":"경기도 부천시 괴안동 184-14번지","indutype":"건축자재 - 기타건축자재","category":"other"}]},{"lat":"37.481176085","long":"126.80488072","imageIndex":17,"items":[{"name":"제일종합인테리어","tel":"032-344-1681","addr":"경기도 부천시 괴안동 4-8번지 청석빌라 가동 103호","indutype":"건축자재 - 인테리어전문","category":"other"}]},{"lat":"37.480149561","long":"126.80524522","imageIndex":17,"items":[{"name":"조공화원","tel":"032-341-3858","addr":"경기도 부천시 괴안동 40번지 화성연립 D동 102호","indutype":"문화.취미 - 화원","category":"other"}]},{"lat":"37.483231426","long":"126.81099198","imageIndex":17,"items":[{"name":"죠다쉬의류","tel":"032-653-7278","addr":"경기도 부천시 괴안동 109-9번지","indutype":"의류 - 정장","category":"other"}]},{"lat":"37.481510379","long":"126.80543383","imageIndex":17,"items":[{"name":"죠셉의작업실","tel":"032-343-1925","addr":"경기도 부천시 괴안동 4-5번지","indutype":"가구 - 기타가구","category":"other"}]},{"lat":"37.485208319","long":"126.81329346","imageIndex":17,"items":[{"name":"주식회사 디자인하는집","tel":"070-8821-0078","addr":"경기도 부천시 괴안동 128-2번지 역곡두진아파트","indutype":"서적문구 - 출판 및 인쇄물","category":"other"},{"name":"줌스튜디오","tel":"032-341-2553","addr":"경기도 부천시 괴안동 128-2번지 온누리프라자 6층","indutype":"광학제품 - 사진관","category":"other"},{"name":"파티앤블리스","tel":"032-343-5955","addr":"경기도 부천시 괴안동 128-2번지 온누리프라자 6층","indutype":"용역 서비스 - 혼례서비스","category":"other"}]},{"lat":"37.482316652","long":"126.80807734","imageIndex":17,"items":[{"name":"주식회사스카이아울렛","tel":"032-351-7783","addr":"경기도 부천시 괴안동 110-3번지 자유빌딩 1~2층","indutype":"레져용품 - 스포츠·레져용품","category":"other"}]},{"lat":"37.483239074","long":"126.8101553","imageIndex":17,"items":[{"name":"주식회사아람인포마트","tel":"032-345-1001","addr":"경기도 부천시 괴안동 109-4번지 1층","indutype":"건축자재 - 부동산 분양","category":"other"}]},{"lat":"37.487260791","long":"126.81784494","imageIndex":17,"items":[{"name":"주식회사오즈네트웍스","tel":"032-1688-3991","addr":"경기도 부천시 괴안동 188-35번지 2층","indutype":"사무통신 - 컴퓨터","category":"other"}]},{"lat":"37.479316581","long":"126.81377188","imageIndex":17,"items":[{"name":"중산문화사","tel":"032-351-0958","addr":"경기도 부천시 괴안동 101-14번지 명성홈타운 502호","indutype":"서적문구 - 출판 및 인쇄물","category":"other"}]},{"lat":"37.478678364","long":"126.80371153","imageIndex":17,"items":[{"name":"지그프리(ZIGFREE)","tel":"070-4067-3354","addr":"경기도 부천시 괴안동 31-23번지","indutype":"사무통신 - 컴퓨터","category":"other"}]},{"lat":"37.48165215","long":"126.81502096","imageIndex":17,"items":[{"name":"지니어스","tel":"032-342-6844","addr":"경기도 부천시 괴안동 122-6번지 중앙하이츠맨션 103동 301호","indutype":"의류 - 정장","category":"other"}]},{"lat":"37.485599603","long":"126.81571209","imageIndex":17,"items":[{"name":"지퍼스사무용가구","tel":"032-344-0520","addr":"경기도 부천시 괴안동 168-4번지 글래드빌","indutype":"가구 - 일반가구","category":"other"},{"name":"힐링아쿠아","tel":"032-344-1059","addr":"경기도 부천시 괴안동 168-4번지 글래드빌 1층","indutype":"문화.취미 - 수족관","category":"other"}]},{"lat":"37.476406113","long":"126.80807008","imageIndex":17,"items":[{"name":"진성철물","tel":"032-676-5169","addr":"경기도 부천시 괴안동 150-19번지 효림빌딩 1층","indutype":"건축자재 - 목재·석재·철물","category":"other"}]},{"lat":"37.474182684","long":"126.80388173","imageIndex":17,"items":[{"name":"진스포츠","tel":"032-341-8391","addr":"경기도 부천시 괴안동 237-1번지 3층","indutype":"신변잡화 - 기념품점","category":"other"}]},{"lat":"37.477208909","long":"126.803218","imageIndex":17,"items":[{"name":"진우기획","tel":"032-216-7370","addr":"경기도 부천시 괴안동 204-3번지 삼익3차 212동 405호","indutype":"용역 서비스 - 종합용역","category":"other"}]},{"lat":"37.483572499","long":"126.81579629","imageIndex":17,"items":[{"name":"짜임","tel":"032-349-9265","addr":"경기도 부천시 괴안동 130-66번지 301호","indutype":"신변잡화 - 기타잡화","category":"other"}]},{"lat":"37.480850034","long":"126.814876","imageIndex":17,"items":[{"name":"참만나푸드","tel":"032-347-9281","addr":"경기도 부천시 괴안동 121-16그린아트빌지하-1","indutype":"유통업 영리 - 기타유통업","category":"other"}]},{"lat":"37.482648861","long":"126.8073755","imageIndex":17,"items":[{"name":"창신철강","tel":"032-344-0695","addr":"경기도 부천시 괴안동 111-62번지","indutype":"기타 - 기계공구","category":"other"}]},{"lat":"37.482793524","long":"126.80768039","imageIndex":17,"items":[{"name":"천지철강(주)","tel":"032-344-3265","addr":"경기도 부천시 괴안동 111-64번지","indutype":"건축자재 - 기타건축자재","category":"other"}]},{"lat":"37.486067418","long":"126.81526996","imageIndex":17,"items":[{"name":"청명정밀/원격지","tel":"011-****-****","addr":"경기도 부천시 괴안동 169-26번지","indutype":"기타 - 기타 전문점","category":"other"},{"name":"한국실업","tel":"032-344-4220","addr":"경기도 부천시 괴안동 169-26번지","indutype":"건축자재 - 보일러·펌프·샷시","category":"other"}]},{"lat":"37.481765571","long":"126.8071856","imageIndex":17,"items":[{"name":"취향제작실","tel":"","addr":"경기도 부천시 괴안동 3-16번지 한아름아파트","indutype":"신변잡화 - 액세서리","category":"other"}]},{"lat":"37.476982475","long":"126.80251767","imageIndex":17,"items":[{"name":"카논(KANON)","tel":"032-1688-1433","addr":"경기도 부천시 괴안동 204-1번지 삼익아파트","indutype":"회원제형태 - 기타4","category":"other"},{"name":"해피바디","tel":"","addr":"경기도 부천시 괴안동 204-1번지 삼익아파트","indutype":"의류 - 내의판매","category":"other"}]},{"lat":"37.479279199","long":"126.81293536","imageIndex":17,"items":[{"name":"캠초","tel":"070-4125-9945","addr":"경기도 부천시 괴안동 102-6번지 동원주택 가동 201호","indutype":"회원제형태 - 기타4","category":"other"}]},{"lat":"37.483097735","long":"126.81754994","imageIndex":17,"items":[{"name":"케이엠엘리 (보석십자수)","tel":"","addr":"경기도 부천시 괴안동 163-13번지 1층 일부","indutype":"직물 - 침구·수예점","category":"other"}]},{"lat":"37.476181237","long":"126.80829676","imageIndex":17,"items":[{"name":"코코 (COCO)빈티지","tel":"032-9333-2995","addr":"경기도 부천시 괴안동 150-21번지 파트너팰리스 1층 102호","indutype":"의류 - 정장","category":"other"}]},{"lat":"37.479511213","long":"126.81154417","imageIndex":17,"items":[{"name":"쿠르치코스튜디오","tel":"032-246-8984","addr":"경기도 부천시 괴안동 100-2번지 1층","indutype":"광학제품 - 사진관","category":"other"}]},{"lat":"37.479727379","long":"126.80601512","imageIndex":17,"items":[{"name":"큐네일아트","tel":"02-2083-2079","addr":"경기도 부천시 괴안동 40-8번지 한빛빌라 B동 B01호","indutype":"회원제형태 - 기타1","category":"other"}]},{"lat":"37.474344119","long":"126.80344041","imageIndex":17,"items":[{"name":"크린토피아소사괴안점","tel":"032-346-1418","addr":"경기도 부천시 괴안동 235-4번지 101호","indutype":"수리서비스 - 세탁소","category":"other"}]},{"lat":"37.48301414","long":"126.81034808","imageIndex":17,"items":[{"name":"크린토피아역곡남부점","tel":"032-349-3355","addr":"경기도 부천시 괴안동 109-14번지 하늘채 1층","indutype":"수리서비스 - 세탁소","category":"other"}]},{"lat":"37.47923285","long":"126.80662692","imageIndex":17,"items":[{"name":"키친마트","tel":"032-341-7130","addr":"경기도 부천시 괴안동 70-13번지","indutype":"주방용구 - 주방용구","category":"other"}]},{"lat":"37.482404262","long":"126.8065734","imageIndex":17,"items":[{"name":"태광주방","tel":"032-662-6395","addr":"경기도 부천시 괴안동 2-31번지","indutype":"주방용구 - 주방용구","category":"other"}]},{"lat":"37.482928486","long":"126.81309571","imageIndex":17,"items":[{"name":"태영조명","tel":"032-347-0492","addr":"경기도 부천시 괴안동 116-6번지","indutype":"건축자재 - 조명기구","category":"other"}]},{"lat":"37.482084642","long":"126.80944598","imageIndex":17,"items":[{"name":"토탈공예공방","tel":"070-4062-4954","addr":"경기도 부천시 괴안동 171-19번지 복지아파트","indutype":"문화.취미 - 문화취미기타","category":"other"}]},{"lat":"37.47393092","long":"126.80418763","imageIndex":17,"items":[{"name":"트라이일흥상사","tel":"032-351-0163","addr":"경기도 부천시 괴안동 238-6번지 1층","indutype":"의류 - 내의판매","category":"other"}]},{"lat":"37.481039684","long":"126.80413489","imageIndex":17,"items":[{"name":"파랑새","tel":"","addr":"경기도 부천시 괴안동 6-4번지","indutype":"문화.취미 - 문화취미기타","category":"other"}]},{"lat":"37.482430351","long":"126.8114915","imageIndex":17,"items":[{"name":"풍년건어물","tel":"032-344-2933","addr":"경기도 부천시 괴안동 107-8번지 유영연립","indutype":"회원제형태 - 기타1","category":"other"},{"name":"해피랜드상설매장","tel":"032-344-5783","addr":"경기도 부천시 괴안동 107-8번지 유용연립 D동 203호","indutype":"의류 - 정장","category":"other"}]},{"lat":"37.479934239","long":"126.81127175","imageIndex":17,"items":[{"name":"플라워스토리","tel":"032-349-2850","addr":"경기도 부천시 괴안동 100-48번지","indutype":"문화.취미 - 화원","category":"other"}]},{"lat":"37.481705484","long":"126.80357913","imageIndex":17,"items":[{"name":"피그말리온","tel":"032-349-8767","addr":"경기도 부천시 괴안동 5-1번지 1층","indutype":"신변잡화 - 기타잡화","category":"other"}]},{"lat":"37.482181516","long":"126.81362899","imageIndex":17,"items":[{"name":"필 여성의류","tel":"070-4499-3805","addr":"경기도 부천시 괴안동 117-5번지","indutype":"의류 - 정장","category":"other"}]},{"lat":"37.483621357","long":"126.81253995","imageIndex":17,"items":[{"name":"하나종합악기","tel":"02-2616-3222","addr":"경기도 부천시 괴안동 115-6번지 2층","indutype":"레져용품 - 악기점","category":"other"}]},{"lat":"37.481931084","long":"126.80920895","imageIndex":17,"items":[{"name":"하람GL","tel":"","addr":"경기도 부천시 괴안동 171-19번지 복지아파트","indutype":"건축자재 - 보일러·펌프·샷시","category":"other"}]},{"lat":"37.485292207","long":"126.81504577","imageIndex":17,"items":[{"name":"하이텍","tel":"032-348-0185","addr":"경기도 부천시 괴안동 168-8번지","indutype":"건축자재 - 보일러·펌프·샷시","category":"other"}]},{"lat":"37.476234421","long":"126.80776528","imageIndex":17,"items":[{"name":"하이플라워","tel":"032-341-5553","addr":"경기도 부천시 괴안동 155-8번지 세경프라자 107호","indutype":"문화.취미 - 화원","category":"other"}]},{"lat":"37.482513503","long":"126.81276888","imageIndex":17,"items":[{"name":"한국LED전광","tel":"","addr":"경기도 부천시 괴안동 116-30번지 B01호","indutype":"건축자재 - 인테리어전문","category":"other"}]},{"lat":"37.473985208","long":"126.80432315","imageIndex":17,"items":[{"name":"한국문구","tel":"032-341-7707","addr":"경기도 부천시 괴안동 238-7번지 상가 1층","indutype":"서적문구 - 문구용품","category":"other"}]},{"lat":"37.479155476","long":"126.80887694","imageIndex":17,"items":[{"name":"한길미디어","tel":"02-6228-5656","addr":"경기도 부천시 괴안동 91-2번지 청암아파트","indutype":"용역 서비스 - 기타용역서비스","category":"other"}]},{"lat":"37.474934237","long":"126.80610683","imageIndex":17,"items":[{"name":"한빛LED전기조명","tel":"032-341-1131","addr":"경기도 부천시 괴안동 242-2번지","indutype":"전기제품 - 기타전기제품","category":"other"}]},{"lat":"37.483179214","long":"126.81779848","imageIndex":17,"items":[{"name":"한서체크포스","tel":"032-344-8230","addr":"경기도 부천시 괴안동 178-18번지 1층","indutype":"사무통신 - 통신기기","category":"other"}]},{"lat":"37.48148433","long":"126.80602181","imageIndex":17,"items":[{"name":"한양종합인쇄","tel":"032-345-0470","addr":"경기도 부천시 괴안동 3-10번지","indutype":"서적문구 - 문구용품","category":"other"}]},{"lat":"37.483072244","long":"126.81284661","imageIndex":17,"items":[{"name":"행복충전소","tel":"070-8232-6647","addr":"경기도 부천시 괴안동 116-39번지 조양그랜드맨션 102동 502호","indutype":"회원제형태 - 기타4","category":"other"}]},{"lat":"37.478572346","long":"126.81041601","imageIndex":17,"items":[{"name":"헤이 베이스볼(Hay BaseBall)","tel":"032-343-0916","addr":"경기도 부천시 괴안동 98-26번지 대림화이트빌 가동 502호","indutype":"회원제형태 - 기타4","category":"other"}]},{"lat":"37.483737775","long":"126.81209871","imageIndex":17,"items":[{"name":"현대씽크","tel":"032-343-2823","addr":"경기도 부천시 괴안동 114-9번지","indutype":"주방용구 - 주방용구","category":"other"}]},{"lat":"37.48009999","long":"126.81348726","imageIndex":17,"items":[{"name":"현대종합설비","tel":"032-351-2553","addr":"경기도 부천시 괴안동 120-19번지 명성스마트빌 1층","indutype":"건축자재 - 보일러·펌프·샷시","category":"other"}]},{"lat":"37.477874412","long":"126.80787407","imageIndex":17,"items":[{"name":"현대통신강서서비스","tel":"02-2614-1087","addr":"경기도 부천시 괴안동 88-6번지 401호","indutype":"사무통신 - 통신기기","category":"other"}]},{"lat":"37.481961599","long":"126.81698744","imageIndex":17,"items":[{"name":"혜솜정밀","tel":"032-347-1962","addr":"경기도 부천시 괴안동 159-11번지","indutype":"기타 - 기계공구","category":"other"}]},{"lat":"37.480545619","long":"126.80501806","imageIndex":17,"items":[{"name":"홈마트","tel":"032-342-6463","addr":"경기도 부천시 괴안동 39-5번지 지하1층","indutype":"신변잡화 - 기타잡화","category":"other"}]},{"lat":"37.483648155","long":"126.81806867","imageIndex":17,"items":[{"name":"홈인테리어","tel":"070-2137-0725","addr":"경기도 부천시 괴안동 178-6번지 1층","indutype":"건축자재 - 기타건축자재","category":"other"}]},{"lat":"37.476845885","long":"126.81254583","imageIndex":17,"items":[{"name":"효드림요양원","tel":"031-345-3545","addr":"경기도 부천시 괴안동 254-3번지 5층","indutype":"기타의료기관 - 기타의료기관 및 기타","category":"other"}]}]