[{"lat":"37.786753413","long":"126.99499203","imageIndex":13,"items":[{"name":"나비노래연습장","tel":"031-000-0000","addr":"경기도 양주시 백석읍 복지리 39-1번지 2층","indutype":"레저업소 - 노 래 방","category":"leisure"}]},{"lat":"37.788564068","long":"126.99184716","imageIndex":13,"items":[{"name":"뉴느티나무당구장","tel":"031-864-8570","addr":"경기도 양주시 백석읍 복지리 152-1번지","indutype":"레저업소 - 당 구 장","category":"leisure"},{"name":"블루스크린","tel":"","addr":"경기도 양주시 백석읍 복지리 152-1번지","indutype":"레저업소 - 스크린골프","category":"leisure"},{"name":"영헬스","tel":"031-855-1889","addr":"경기도 양주시 백석읍 복지리 152-1번지 1층","indutype":"레저업소 - 헬스클럽","category":"leisure"}]},{"lat":"37.786229608","long":"126.98396903","imageIndex":13,"items":[{"name":"더샵피씨(PC)방","tel":"","addr":"경기도 양주시 백석읍 복지리 296-5번지 지하동 2호","indutype":"레저업소 - 기타레져업소","category":"leisure"},{"name":"브이아이피 (VIP)노래연습장","tel":"","addr":"경기도 양주시 백석읍 복지리 296-5번지","indutype":"레저업소 - 노 래 방","category":"leisure"},{"name":"피망당구장","tel":"031-836-0702","addr":"경기도 양주시 백석읍 복지리 296-5번지 2층","indutype":"레저업소 - 당 구 장","category":"leisure"}]},{"lat":"37.786364701","long":"126.98366248","imageIndex":13,"items":[{"name":"땡큐노래방","tel":"031-855-1512","addr":"경기도 양주시 백석읍 복지리 296-3번지 1층","indutype":"레저업소 - 노 래 방","category":"leisure"}]},{"lat":"37.786978459","long":"126.99251719","imageIndex":13,"items":[{"name":"빅스타 복싱클럽","tel":"031-873-1282","addr":"경기도 양주시 백석읍 복지리 130-7번지 3층","indutype":"레저업소 - 헬스클럽","category":"leisure"}]},{"lat":"37.787086618","long":"126.99305073","imageIndex":13,"items":[{"name":"빌리아드2000","tel":"031-111-1111","addr":"경기도 양주시 백석읍 복지리 134-1번지 2층 202호","indutype":"레저업소 - 당 구 장","category":"leisure"}]},{"lat":"37.792257771","long":"126.99001875","imageIndex":13,"items":[{"name":"삼희골프클럽","tel":"031-829-3259","addr":"경기도 양주시 백석읍 복지리 202-6번지","indutype":"레저업소 - 골프연습장","category":"leisure"}]},{"lat":"37.785481821","long":"126.98396922","imageIndex":13,"items":[{"name":"육체미 휘트니스","tel":"","addr":"경기도 양주시 백석읍 복지리 295-1번지","indutype":"레저업소 - 헬스클럽","category":"leisure"}]},{"lat":"37.787311822","long":"126.99265337","imageIndex":13,"items":[{"name":"케이팝노래연습장","tel":"031-879-8258","addr":"경기도 양주시 백석읍 복지리 134-17번지 2층","indutype":"레저업소 - 노 래 방","category":"leisure"}]},{"lat":"37.786789469","long":"126.99526448","imageIndex":13,"items":[{"name":"팡팡조이","tel":"02-000-0000","addr":"경기도 양주시 백석읍 복지리 39-11번지 2층","indutype":"레저업소 - 기타레져업소","category":"leisure"}]},{"lat":"37.785455676","long":"126.99065565","imageIndex":13,"items":[{"name":"헬로방방","tel":"031-836-8129","addr":"경기도 양주시 백석읍 복지리 107-14번지","indutype":"레저업소 - 기타레져업소","category":"leisure"}]},{"lat":"37.786645021","long":"126.99157499","imageIndex":13,"items":[{"name":"황실당구장","tel":"031-879-1241","addr":"경기도 양주시 백석읍 복지리 128-2번지 2층","indutype":"레저업소 - 당 구 장","category":"leisure"}]}]