[{"lat":"37.080427179","long":"127.05612141","imageIndex":4,"items":[{"name":"(구)시골집","tel":"031-663-5760","addr":"경기도 평택시 지산동 764-6번지","indutype":"일반휴게음식 - 일반한식","category":"restaurant"},{"name":"구)시골집","tel":"031-662-4805","addr":"경기도 평택시 지산동 764-6번지","indutype":"음식점 - 한식","category":"restaurant"}]},{"lat":"37.079035722","long":"127.0640601","imageIndex":4,"items":[{"name":"BHC송탄지산점","tel":"031-662-0265","addr":"경기도 평택시 지산동 1134번지 미주2차아파트","indutype":"음식점 - 치킨","category":"restaurant"}]},{"lat":"37.075372567","long":"127.05539817","imageIndex":4,"items":[{"name":"SERAPH COFFEE","tel":"031-664-5688","addr":"경기도 평택시 지산동 830-10번지 1층","indutype":"일반휴게음식 - 서양음식","category":"restaurant"},{"name":"세라프카페","tel":"031-662-3675","addr":"경기도 평택시 지산동 830-10번지","indutype":"음식점 - 카페","category":"restaurant"}]},{"lat":"37.076786044","long":"127.05800814","imageIndex":4,"items":[{"name":"right as rain(라잇애즈레인)","tel":"031-665-6252","addr":"경기도 평택시 지산동 796-1번지 1층","indutype":"음식점 - 커피","category":"restaurant"},{"name":"라잇애즈레인(right as rain)","tel":"031-8094-0326","addr":"경기도 평택시 지산동 796-1번지 1층","indutype":"일반휴게음식 - 서양음식","category":"restaurant"}]},{"lat":"37.081930042","long":"127.06020491","imageIndex":4,"items":[{"name":"가래골묵은지","tel":"031-666-1071","addr":"경기도 평택시 지산동 998번지","indutype":"음식점 - 한식","category":"restaurant"},{"name":"가래골묵은지","tel":"031-662-4536","addr":"경기도 평택시 지산동 998번지","indutype":"일반휴게음식 - 일반한식","category":"restaurant"},{"name":"현주네포차","tel":"031-668-8911","addr":"경기도 평택시 지산동 998번지","indutype":"일반휴게음식 - 일반한식","category":"restaurant"}]},{"lat":"37.082598072","long":"127.05756248","imageIndex":4,"items":[{"name":"가보자횟집","tel":"031-663-2340","addr":"경기도 평택시 지산동 735-36번지","indutype":"음식점 - 일식","category":"restaurant"},{"name":"가보자횟집","tel":"031-668-7821","addr":"경기도 평택시 지산동 735-36번지","indutype":"일반휴게음식 - 일식·회집","category":"restaurant"},{"name":"의형","tel":"031-666-3210","addr":"경기도 평택시 지산동 735-36번지 상가 C동","indutype":"일반휴게음식 - 중국식","category":"restaurant"},{"name":"조은식당","tel":"031-667-9487","addr":"경기도 평택시 지산동 735-36번지","indutype":"일반휴게음식 - 일반한식","category":"restaurant"}]},{"lat":"37.077037951","long":"127.0588405","imageIndex":4,"items":[{"name":"감나무집","tel":"031-663-0909","addr":"경기도 평택시 지산동 788번지","indutype":"일반휴게음식 - 일반한식","category":"restaurant"},{"name":"감나무집","tel":"031-663-5760","addr":"경기도 평택시 지산동 788번지","indutype":"음식점 - 한식","category":"restaurant"}]},{"lat":"37.074677976","long":"127.08784047","imageIndex":4,"items":[{"name":"강산영양탕","tel":"031-664-5414","addr":"경기도 평택시 지산동 228-1번지","indutype":"일반휴게음식 - 일반한식","category":"restaurant"},{"name":"강산영양탕","tel":"031-664-2468","addr":"경기도 평택시 지산동 228-1번지","indutype":"음식점 - 한식","category":"restaurant"}]},{"lat":"37.081264699","long":"127.05714541","imageIndex":4,"items":[{"name":"개미분식","tel":"031-667-1331","addr":"경기도 평택시 지산동 756-52번지","indutype":"음식점 - 분식","category":"restaurant"},{"name":"보령식당","tel":"","addr":"경기도 평택시 지산동 756-52번지","indutype":"음식점 - 한식","category":"restaurant"},{"name":"보령식당","tel":"031-611-9905","addr":"경기도 평택시 지산동 756-52번지","indutype":"일반휴게음식 - 일반한식","category":"restaurant"}]},{"lat":"37.076203983","long":"127.08322025","imageIndex":4,"items":[{"name":"개성손만두","tel":"031-665-4907","addr":"경기도 평택시 지산동 276번지","indutype":"음식점 - 분식","category":"restaurant"},{"name":"개성손만두","tel":"031-665-2227","addr":"경기도 평택시 지산동 276번지 1층","indutype":"일반휴게음식 - 스넥","category":"restaurant"},{"name":"물텀벙","tel":"031-611-7114","addr":"경기도 평택시 지산동 276번지 2층","indutype":"일반휴게음식 - 일반한식","category":"restaurant"}]},{"lat":"37.082173759","long":"127.05930538","imageIndex":4,"items":[{"name":"고기구이 야식","tel":"031-664-8119","addr":"경기도 평택시 지산동 749-2번지","indutype":"일반휴게음식 - 일반한식","category":"restaurant"}]},{"lat":"37.076426795","long":"127.05542139","imageIndex":4,"items":[{"name":"고덕연탄구이","tel":"031-662-8407","addr":"경기도 평택시 지산동 828-9번지 1층","indutype":"일반휴게음식 - 일반한식","category":"restaurant"}]},{"lat":"37.08098384","long":"127.06039538","imageIndex":4,"items":[{"name":"고순네","tel":"031-668-9113","addr":"경기도 평택시 지산동 1015번지","indutype":"일반휴게음식 - 일반한식","category":"restaurant"},{"name":"고순네","tel":"031-663-7619","addr":"경기도 평택시 지산동 1015번지 1층","indutype":"음식점 - 한식","category":"restaurant"}]},{"lat":"37.081317247","long":"127.0603619","imageIndex":4,"items":[{"name":"골뺑이","tel":"031-611-6766","addr":"경기도 평택시 지산동 1012번지 우측상가","indutype":"일반휴게음식 - 주점","category":"restaurant"},{"name":"하나맘스","tel":"031-664-1990","addr":"경기도 평택시 지산동 1012번지","indutype":"일반휴게음식 - 일반한식","category":"restaurant"},{"name":"하나맘스","tel":"031-666-6198","addr":"경기도 평택시 지산동 1012번지","indutype":"음식점 - 양식","category":"restaurant"}]},{"lat":"37.079598716","long":"127.05497374","imageIndex":4,"items":[{"name":"공주네건강보리밥집","tel":"031-668-7233","addr":"경기도 평택시 지산동 767-4번지","indutype":"일반휴게음식 - 일반한식","category":"restaurant"}]},{"lat":"37.08211947","long":"127.05977769","imageIndex":4,"items":[{"name":"교촌치킨송탄2호점","tel":"031-668-9949","addr":"경기도 평택시 지산동 995번지","indutype":"일반휴게음식 - 서양음식","category":"restaurant"},{"name":"평택왕닭발","tel":"031-665-0184","addr":"경기도 평택시 지산동 995번지","indutype":"일반휴게음식 - 일반한식","category":"restaurant"}]},{"lat":"37.077620571","long":"127.06500361","imageIndex":4,"items":[{"name":"구어조은닭","tel":"031-663-0079","addr":"경기도 평택시 지산동 1135번지 아주아파트","indutype":"음식점 - 치킨","category":"restaurant"},{"name":"만두나라","tel":"031-5611-1049","addr":"경기도 평택시 지산동 1135 아주1차상가1-112","indutype":"일반휴게음식 - 스넥","category":"restaurant"},{"name":"신전떡볶이 지산점","tel":"031-665-0744","addr":"경기도 평택시 지산동 1135번지 아주상가 106,107호","indutype":"일반휴게음식 - 스넥","category":"restaurant"}]},{"lat":"37.080814041","long":"127.05742625","imageIndex":4,"items":[{"name":"구이박사","tel":"031-667-4700","addr":"경기도 평택시 지산동 757-6번지 1층","indutype":"일반휴게음식 - 중국식","category":"restaurant"}]},{"lat":"37.07481305","long":"127.0573095","imageIndex":4,"items":[{"name":"굽네치킨 지산신장점","tel":"031-666-5959","addr":"경기도 평택시 지산동 851-29번지 1층","indutype":"일반휴게음식 - 스넥","category":"restaurant"}]},{"lat":"37.078958607","long":"127.05578301","imageIndex":4,"items":[{"name":"궁","tel":"031-666-0333","addr":"경기도 평택시 지산동 809-2번지","indutype":"일반휴게음식 - 중국식","category":"restaurant"}]},{"lat":"37.081069286","long":"127.06931374","imageIndex":4,"items":[{"name":"그랜드식당","tel":"031-665-7227","addr":"경기도 평택시 지산동 579번지","indutype":"일반휴게음식 - 일반한식","category":"restaurant"}]},{"lat":"37.077011517","long":"127.05755847","imageIndex":4,"items":[{"name":"김네집 지산점","tel":"031-611-1041","addr":"경기도 평택시 지산동 798-13번지","indutype":"일반휴게음식 - 일반한식","category":"restaurant"}]},{"lat":"37.082400133","long":"127.05692129","imageIndex":4,"items":[{"name":"김밥나라송탄지산점","tel":"031-664-7874","addr":"경기도 평택시 지산동 743-4번지","indutype":"일반휴게음식 - 스넥","category":"restaurant"}]},{"lat":"37.082291702","long":"127.05758476","imageIndex":4,"items":[{"name":"깨숙이포차","tel":"031-663-3267","addr":"경기도 평택시 지산동 744-3번지","indutype":"일반휴게음식 - 주점","category":"restaurant"},{"name":"깨숙이포차","tel":"031-665-4944","addr":"경기도 평택시 지산동 744-3번지 화신노블레스1 1층","indutype":"음식점 - 일반","category":"restaurant"},{"name":"맘짜글이","tel":"031-667-1442","addr":"경기도 평택시 지산동 744-3번지 화신노블레스1차 1층 107호","indutype":"일반휴게음식 - 일반한식","category":"restaurant"},{"name":"얼큰이찌개마을 송탄점","tel":"031-663-1217","addr":"경기도 평택시 지산동 744-3번지","indutype":"음식점 - 한식","category":"restaurant"},{"name":"얼큰이찌개마을 송탄점","tel":"031-666-2508","addr":"경기도 평택시 지산동 744-3번지 화신노블레스1 104호","indutype":"일반휴게음식 - 일반한식","category":"restaurant"},{"name":"화신노블레스호프","tel":"","addr":"경기도 평택시 지산동 744-3번지 화신노블레스1 106호","indutype":"일반휴게음식 - 주점","category":"restaurant"}]},{"lat":"37.081812959","long":"127.06009236","imageIndex":4,"items":[{"name":"낭랑호프","tel":"031-662-1409","addr":"경기도 평택시 지산동 1003번지","indutype":"일반휴게음식 - 일반한식","category":"restaurant"}]},{"lat":"37.078174082","long":"127.05712072","imageIndex":4,"items":[{"name":"내고향한식부페","tel":"031-668-9199","addr":"경기도 평택시 지산동 779-3번지","indutype":"일반휴게음식 - 일반한식","category":"restaurant"},{"name":"사랑방한식과생삼겹살","tel":"031-667-1147","addr":"경기도 평택시 지산동 779-3번지 덕천빌딩 1층","indutype":"일반휴게음식 - 일반한식","category":"restaurant"}]},{"lat":"37.080286727","long":"127.06683891","imageIndex":4,"items":[{"name":"네네치킨지산점","tel":"031-667-4492","addr":"경기도 평택시 지산동 647-5번지","indutype":"일반휴게음식 - 스넥","category":"restaurant"}]},{"lat":"37.080009975","long":"127.06186789","imageIndex":4,"items":[{"name":"노란꼬마김밥","tel":"031-666-5245","addr":"경기도 평택시 지산동 714-15번지","indutype":"음식점 - 분식","category":"restaurant"},{"name":"노란꼬마김밥","tel":"031-664-7368","addr":"경기도 평택시 지산동 714-15번지 B동 1층","indutype":"일반휴게음식 - 스넥","category":"restaurant"}]},{"lat":"37.081237257","long":"127.05803385","imageIndex":4,"items":[{"name":"노을호프","tel":"031-0000-0000","addr":"경기도 평택시 지산동 752-20번지 2층","indutype":"일반휴게음식 - 주점","category":"restaurant"}]},{"lat":"37.08059086","long":"127.07084281","imageIndex":4,"items":[{"name":"놋그릇","tel":"031-667-6111","addr":"경기도 평택시 지산동 582-1번지","indutype":"일반휴게음식 - 일반한식","category":"restaurant"},{"name":"놋그릇","tel":"031-668-2622","addr":"경기도 평택시 지산동 582-1번지","indutype":"음식점 - 한식","category":"restaurant"}]},{"lat":"37.077257976","long":"127.08358123","imageIndex":4,"items":[{"name":"다루지산점","tel":"031-663-6757","addr":"경기도 평택시 지산동 343-16번지","indutype":"음식점 - 한식","category":"restaurant"},{"name":"다루지산점","tel":"031-662-2005","addr":"경기도 평택시 지산동 343-16번지 나동 1호 ,2,3,4호","indutype":"일반휴게음식 - 일반한식","category":"restaurant"},{"name":"밥먹는집","tel":"031-663-3353","addr":"경기도 평택시 지산동 343-16상아상가,가-7","indutype":"일반휴게음식 - 일반한식","category":"restaurant"}]},{"lat":"37.080012028","long":"127.05758312","imageIndex":4,"items":[{"name":"다우생삼겹살","tel":"031-611-5102","addr":"경기도 평택시 지산동 761-18번지 1층","indutype":"일반휴게음식 - 일반한식","category":"restaurant"}]},{"lat":"37.076596796","long":"127.05806423","imageIndex":4,"items":[{"name":"다인삼겹","tel":"","addr":"경기도 평택시 지산동 796-9번지 1층","indutype":"일반휴게음식 - 일반한식","category":"restaurant"}]},{"lat":"37.077426919","long":"127.05553454","imageIndex":4,"items":[{"name":"달레나순대국(신장점)","tel":"031-611-9317","addr":"경기도 평택시 지산동 818-11번지","indutype":"음식점 - 한식","category":"restaurant"},{"name":"달레나순대국(신장점)","tel":"031-667-5848","addr":"경기도 평택시 지산동 818-11번지 1층","indutype":"일반휴게음식 - 일반한식","category":"restaurant"}]},{"lat":"37.080066308","long":"127.05711082","imageIndex":4,"items":[{"name":"달빛포차","tel":"031-665-4115","addr":"경기도 평택시 지산동 761-17번지","indutype":"일반휴게음식 - 일반한식","category":"restaurant"}]},{"lat":"37.079397245","long":"127.06188991","imageIndex":4,"items":[{"name":"대구태영생막창","tel":"031-667-7017","addr":"경기도 평택시 지산동 1084번지","indutype":"음식점 - 한식","category":"restaurant"},{"name":"대구태영생막창","tel":"031-000-0000","addr":"경기도 평택시 지산동 1084번지","indutype":"일반휴게음식 - 일반한식","category":"restaurant"},{"name":"투다리지산점","tel":"031-663-6825","addr":"경기도 평택시 지산동 1084번지","indutype":"일반휴게음식 - 스넥","category":"restaurant"},{"name":"호식이두마리치킨지산점","tel":"031-662-9293","addr":"경기도 평택시 지산동 1084번지","indutype":"일반휴게음식 - 스넥","category":"restaurant"}]},{"lat":"37.082236672","long":"127.05964282","imageIndex":4,"items":[{"name":"대박이네","tel":"031-666-1964","addr":"경기도 평택시 지산동 994번지","indutype":"일반휴게음식 - 일반한식","category":"restaurant"},{"name":"참좋은날","tel":"031-662-8366","addr":"경기도 평택시 지산동 994번지 1층","indutype":"일반휴게음식 - 주점","category":"restaurant"}]},{"lat":"37.081372866","long":"127.05705552","imageIndex":4,"items":[{"name":"대박집","tel":"031-663-1704","addr":"경기도 평택시 지산동 754-20번지","indutype":"일반휴게음식 - 일반한식","category":"restaurant"}]},{"lat":"37.081237831","long":"127.05678551","imageIndex":4,"items":[{"name":"대성식당","tel":"031-611-5288","addr":"경기도 평택시 지산동 756-80번지","indutype":"음식점 - 한식","category":"restaurant"},{"name":"대성식당","tel":"031-611-4517","addr":"경기도 평택시 지산동 756-80번지","indutype":"일반휴게음식 - 일반한식","category":"restaurant"},{"name":"우호도너스집","tel":"031-662-5741","addr":"경기도 평택시 지산동 756-80","indutype":"일반휴게음식 - 일반한식","category":"restaurant"},{"name":"우호도너츠","tel":"031-663-2772","addr":"경기도 평택시 지산동 756-80번지","indutype":"음식점 - 분식","category":"restaurant"}]},{"lat":"37.0742106","long":"127.0721753","imageIndex":4,"items":[{"name":"대육칼","tel":"031-662-8856","addr":"경기도 평택시 지산동 541번지","indutype":"일반휴게음식 - 일반한식","category":"restaurant"}]},{"lat":"37.076931387","long":"127.05542174","imageIndex":4,"items":[{"name":"더(The)참치","tel":"031-663-0111","addr":"경기도 평택시 지산동 824-4번지 1층","indutype":"일반휴게음식 - 일식·회집","category":"restaurant"}]},{"lat":"37.0775923","long":"127.08219835","imageIndex":4,"items":[{"name":"더갈비","tel":"031-667-1278","addr":"경기도 평택시 지산동 321-1번지","indutype":"음식점 - 한식","category":"restaurant"},{"name":"더갈비","tel":"031-667-8295","addr":"경기도 평택시 지산동 321-1번지 외 1필지","indutype":"일반휴게음식 - 일반한식","category":"restaurant"}]},{"lat":"37.074372987","long":"127.07183809","imageIndex":4,"items":[{"name":"더말랑(The mallang)","tel":"031-663-2541","addr":"경기도 평택시 지산동 550-5번지 1층","indutype":"일반휴게음식 - 서양음식","category":"restaurant"}]},{"lat":"37.074452801","long":"127.0569269","imageIndex":4,"items":[{"name":"더힐846 (The hill 846)","tel":"070-8621-3082","addr":"경기도 평택시 지산동 846-4번지 ,1-2층","indutype":"일반휴게음식 - 서양음식","category":"restaurant"}]},{"lat":"37.080152818","long":"127.0644771","imageIndex":4,"items":[{"name":"도담","tel":"031-667-0972","addr":"경기도 평택시 지산동 642-3번지 1층","indutype":"일반휴게음식 - 일반한식","category":"restaurant"},{"name":"어울림무한리필고기뷔페","tel":"031-663-0407","addr":"경기도 평택시 지산동 642-3번지 2층","indutype":"일반휴게음식 - 일반한식","category":"restaurant"}]},{"lat":"37.08059837","long":"127.05614403","imageIndex":4,"items":[{"name":"도심속정원","tel":"031-663-2659","addr":"경기도 평택시 지산동 763-4번지 1층","indutype":"일반휴게음식 - 서양음식","category":"restaurant"}]},{"lat":"37.076479674","long":"127.05803041","imageIndex":4,"items":[{"name":"도자기속커피","tel":"031-665-0805","addr":"경기도 평택시 지산동 796-11번지","indutype":"음식점 - 카페","category":"restaurant"},{"name":"도자기속커피","tel":"031-665-1400","addr":"경기도 평택시 지산동 796-11번지 1층","indutype":"일반휴게음식 - 서양음식","category":"restaurant"}]},{"lat":"37.080063014","long":"127.06389223","imageIndex":4,"items":[{"name":"돈벼락우리가쏠께","tel":"031-664-8811","addr":"경기도 평택시 지산동 1127번지 B동","indutype":"일반휴게음식 - 일반한식","category":"restaurant"},{"name":"앤호프","tel":"031-666-7922","addr":"경기도 평택시 지산동 1127번지 1층 10호 (1130)","indutype":"일반휴게음식 - 주점","category":"restaurant"},{"name":"투다리 송북점","tel":"031-665-0107","addr":"경기도 평택시 지산동 1127번지 외 1필지","indutype":"일반휴게음식 - 주점","category":"restaurant"},{"name":"페리카나 지산점","tel":"031-664-7272","addr":"경기도 평택시 지산동 1127번지 1층","indutype":"일반휴게음식 - 스넥","category":"restaurant"},{"name":"페리카나 지산점","tel":"031-668-7821","addr":"경기도 평택시 지산동 1127번지 1층","indutype":"음식점 - 치킨","category":"restaurant"}]},{"lat":"37.081759058","long":"127.05975493","imageIndex":4,"items":[{"name":"돈이돈이","tel":"031-667-9978","addr":"경기도 평택시 지산동 1009번지","indutype":"일반휴게음식 - 일반한식","category":"restaurant"}]},{"lat":"37.079841406","long":"127.05631219","imageIndex":4,"items":[{"name":"동남식당","tel":"031-663-1880","addr":"경기도 평택시 지산동 768-49번지","indutype":"일반휴게음식 - 일반한식","category":"restaurant"}]},{"lat":"37.080899281","long":"127.06714307","imageIndex":4,"items":[{"name":"돼지가매력있소","tel":"031-611-9849","addr":"경기도 평택시 지산동 631-20번지","indutype":"일반휴게음식 - 일반한식","category":"restaurant"}]},{"lat":"37.082065455","long":"127.05967643","imageIndex":4,"items":[{"name":"두꺼비섬","tel":"031-611-8381","addr":"경기도 평택시 지산동 1007번지","indutype":"일반휴게음식 - 일반한식","category":"restaurant"}]},{"lat":"37.074903945","long":"127.07297435","imageIndex":4,"items":[{"name":"두루두루","tel":"031-665-2221","addr":"경기도 평택시 지산동 545번지","indutype":"일반휴게음식 - 일반한식","category":"restaurant"},{"name":"미당","tel":"031-663-3959","addr":"경기도 평택시 지산동 545번지 1층","indutype":"일반휴게음식 - 일반한식","category":"restaurant"}]},{"lat":"37.080763927","long":"127.06750283","imageIndex":4,"items":[{"name":"들리다","tel":"070-6564-5468","addr":"경기도 평택시 지산동 631-24번지 1층 롯데슈퍼내 일부","indutype":"일반휴게음식 - 서양음식","category":"restaurant"},{"name":"들리다","tel":"","addr":"경기도 평택시 지산동 631-24번지","indutype":"음식점 - 한식","category":"restaurant"},{"name":"들리다","tel":"","addr":"경기도 평택시 지산동 631-24번지 1층 롯데슈퍼내 일부","indutype":"일반휴게음식 - 서양음식","category":"restaurant"},{"name":"아지매떡볶이","tel":"031-611-9912","addr":"경기도 평택시 지산동 631-24번지","indutype":"일반휴게음식 - 일반한식","category":"restaurant"},{"name":"활어시장","tel":"031-666-7376","addr":"경기도 평택시 지산동 631-24번지 A동","indutype":"음식점 - 횟집","category":"restaurant"},{"name":"활어시장","tel":"031-668-8882","addr":"경기도 평택시 지산동 631-24번지 A동","indutype":"일반휴게음식 - 일식·회집","category":"restaurant"}]},{"lat":"37.083318282","long":"127.07553508","imageIndex":4,"items":[{"name":"들뫼 약산흑염소","tel":"031-662-2571","addr":"경기도 평택시 지산동 391-13번지","indutype":"음식점 - 한식","category":"restaurant"},{"name":"들뫼약산흑염소전문점","tel":"031-611-0778","addr":"경기도 평택시 지산동 391-13번지","indutype":"일반휴게음식 - 일반한식","category":"restaurant"}]},{"lat":"37.080009107","long":"127.06358854","imageIndex":4,"items":[{"name":"등촌샤브칼국수","tel":"031-665-8821","addr":"경기도 평택시 지산동 1125번지 지층","indutype":"일반휴게음식 - 일반한식","category":"restaurant"},{"name":"포테이토데이","tel":"031-664-5032","addr":"경기도 평택시 지산동 1125번지","indutype":"일반휴게음식 - 일반한식","category":"restaurant"},{"name":"하노버","tel":"031-611-0747","addr":"경기도 평택시 지산동 1125번지 2층","indutype":"일반휴게음식 - 주점","category":"restaurant"}]},{"lat":"37.081426672","long":"127.05761787","imageIndex":4,"items":[{"name":"땅스부대찌개(송북시장점)","tel":"031-665-9112","addr":"경기도 평택시 지산동 753-15번지 1층","indutype":"음식점 - 일반","category":"restaurant"}]},{"lat":"37.07981931","long":"127.06470176","imageIndex":4,"items":[{"name":"떡볶이바삭","tel":"031-662-0608","addr":"경기도 평택시 지산동 644-3번지 1층","indutype":"일반휴게음식 - 스넥","category":"restaurant"},{"name":"떡볶이바삭","tel":"031-611-0582","addr":"경기도 평택시 지산동 644-3번지","indutype":"음식점 - 분식","category":"restaurant"}]},{"lat":"37.080344784","long":"127.05894414","imageIndex":4,"items":[{"name":"또봉이통닭지산점","tel":"031-611-7833","addr":"경기도 평택시 지산동 726-3번지 101호","indutype":"일반휴게음식 - 스넥","category":"restaurant"}]},{"lat":"37.075514703","long":"127.05980649","imageIndex":4,"items":[{"name":"라비","tel":"031-663-4214","addr":"경기도 평택시 지산동 684-2번지","indutype":"음식점 - 카페","category":"restaurant"},{"name":"라비","tel":"070-5135-0607","addr":"경기도 평택시 지산동 684-2번지","indutype":"일반휴게음식 - 일반한식","category":"restaurant"}]},{"lat":"37.079704081","long":"127.06092298","imageIndex":4,"items":[{"name":"로드1071카페","tel":"","addr":"경기도 평택시 지산동 1071번지 1층","indutype":"음식점 - 카페","category":"restaurant"},{"name":"로드1071카페(Rood1071cafe)","tel":"031-611-2933","addr":"경기도 평택시 지산동 1071번지 1층","indutype":"일반휴게음식 - 서양음식","category":"restaurant"},{"name":"베이스캠프레스토랑","tel":"031-667-7861","addr":"경기도 평택시 지산동 1071번지","indutype":"일반휴게음식 - 서양음식","category":"restaurant"}]},{"lat":"37.080595499","long":"127.06219448","imageIndex":4,"items":[{"name":"로우그린","tel":"","addr":"경기도 평택시 지산동 1065번지 1층","indutype":"일반휴게음식 - 서양음식","category":"restaurant"},{"name":"로우그린","tel":"031-663-7766","addr":"경기도 평택시 지산동 1065번지 1층","indutype":"음식점 - 커피","category":"restaurant"}]},{"lat":"37.076676731","long":"127.06050459","imageIndex":4,"items":[{"name":"루디아커피","tel":"031-3355-6659","addr":"경기도 평택시 지산동 693-2번지","indutype":"일반휴게음식 - 서양음식","category":"restaurant"}]},{"lat":"37.07395816","long":"127.08638903","imageIndex":4,"items":[{"name":"마로카페","tel":"031-611-8585","addr":"경기도 평택시 지산동 238-1번지","indutype":"음식점 - 카페","category":"restaurant"},{"name":"마로카페","tel":"031-665-3114","addr":"경기도 평택시 지산동 238-1번지","indutype":"일반휴게음식 - 서양음식","category":"restaurant"},{"name":"태평궁","tel":"031-663-0047","addr":"경기도 평택시 지산동 238-1번지","indutype":"음식점 - 한식","category":"restaurant"},{"name":"태평궁","tel":"031-611-8585","addr":"경기도 평택시 지산동 238-1번지 1동","indutype":"일반휴게음식 - 일반한식","category":"restaurant"}]},{"lat":"37.079986057","long":"127.05523266","imageIndex":4,"items":[{"name":"만원이네","tel":"031-667-5989","addr":"경기도 평택시 지산동 766-4번지 1층","indutype":"일반휴게음식 - 일반한식","category":"restaurant"}]},{"lat":"37.080895658","long":"127.05627919","imageIndex":4,"items":[{"name":"만주분식","tel":"070-8966-6992","addr":"경기도 평택시 지산동 757-16번지","indutype":"일반휴게음식 - 스넥","category":"restaurant"}]},{"lat":"37.078481291","long":"127.05523163","imageIndex":4,"items":[{"name":"망향비빔국수","tel":"031-662-1730","addr":"경기도 평택시 지산동 812-6번지","indutype":"일반휴게음식 - 일반한식","category":"restaurant"}]},{"lat":"37.082317831","long":"127.05950792","imageIndex":4,"items":[{"name":"멕시카나 지산2호점","tel":"031-666-4225","addr":"경기도 평택시 지산동 993번지 1층","indutype":"일반휴게음식 - 스넥","category":"restaurant"}]},{"lat":"37.075871902","long":"127.06617171","imageIndex":4,"items":[{"name":"멕시카나치킨지산점","tel":"031-665-9768","addr":"경기도 평택시 지산동 1185번지","indutype":"일반휴게음식 - 서양음식","category":"restaurant"}]},{"lat":"37.081374972","long":"127.07050612","imageIndex":4,"items":[{"name":"모이라이","tel":"","addr":"경기도 평택시 지산동 614-7번지","indutype":"일반휴게음식 - 서양음식","category":"restaurant"}]},{"lat":"37.082705606","long":"127.05883342","imageIndex":4,"items":[{"name":"모자식당","tel":"031-668-7330","addr":"경기도 평택시 지산동 747-3번지 1층","indutype":"음식점 - 한식","category":"restaurant"},{"name":"모자식당엔포차","tel":"","addr":"경기도 평택시 지산동 747-3번지 1층","indutype":"일반휴게음식 - 일반한식","category":"restaurant"},{"name":"중국성","tel":"031-611-2822","addr":"경기도 평택시 지산동 747-3번지 1층","indutype":"음식점 - 중식","category":"restaurant"},{"name":"중국성","tel":"031-666-0002","addr":"경기도 평택시 지산동 747-3번지 1층","indutype":"일반휴게음식 - 중국식","category":"restaurant"},{"name":"포항막창","tel":"031-664-5414","addr":"경기도 평택시 지산동 747-3번지","indutype":"음식점 - 한식","category":"restaurant"},{"name":"포항막창","tel":"031-663-9707","addr":"경기도 평택시 지산동 747-3번지","indutype":"일반휴게음식 - 일반한식","category":"restaurant"}]},{"lat":"37.080237509","long":"127.05711094","imageIndex":4,"items":[{"name":"목포식당","tel":"031-611-0866","addr":"경기도 평택시 지산동 762-19번지","indutype":"일반휴게음식 - 일반한식","category":"restaurant"},{"name":"목포식당","tel":"031-662-6094","addr":"경기도 평택시 지산동 762-19번지","indutype":"음식점 - 한식","category":"restaurant"},{"name":"신통치킨지산점","tel":"031-611-8295","addr":"경기도 평택시 지산동 762-19번지 1층","indutype":"일반휴게음식 - 스넥","category":"restaurant"}]},{"lat":"37.080375163","long":"127.0698642","imageIndex":4,"items":[{"name":"무공해","tel":"031-665-9088","addr":"경기도 평택시 지산동 578번지","indutype":"일반휴게음식 - 일반한식","category":"restaurant"}]},{"lat":"37.075955829","long":"127.09011349","imageIndex":4,"items":[{"name":"문화촌","tel":"031-8054-7623","addr":"경기도 평택시 지산동 159-2번지 1층","indutype":"일반휴게음식 - 일반한식","category":"restaurant"},{"name":"카페모모","tel":"070-7543-9745","addr":"경기도 평택시 지산동 159-2번지 2동 1층","indutype":"일반휴게음식 - 서양음식","category":"restaurant"}]},{"lat":"37.072487331","long":"127.0594219","imageIndex":4,"items":[{"name":"미구앙","tel":"031-111-1111","addr":"경기도 평택시 지산동 864-77번지","indutype":"일반휴게음식 - 일반한식","category":"restaurant"}]},{"lat":"37.08051526","long":"127.0767245","imageIndex":4,"items":[{"name":"바늘꽃","tel":"031-666-6197","addr":"경기도 평택시 지산동 1237-6번지","indutype":"일반휴게음식 - 서양음식","category":"restaurant"}]},{"lat":"37.081398658","long":"127.07614055","imageIndex":4,"items":[{"name":"바니메이드","tel":"","addr":"경기도 평택시 지산동 400-5번지","indutype":"일반휴게음식 - 서양음식","category":"restaurant"}]},{"lat":"37.08101469","long":"127.07025838","imageIndex":4,"items":[{"name":"바오돈까스","tel":"031-662-2230","addr":"경기도 평택시 지산동 580번지","indutype":"일반휴게음식 - 일반한식","category":"restaurant"},{"name":"바오돈까스","tel":"031-611-4260","addr":"경기도 평택시 지산동 580번지","indutype":"음식점 - 양식","category":"restaurant"}]},{"lat":"37.080674005","long":"127.06716537","imageIndex":4,"items":[{"name":"박군치킨지산점","tel":"031-663-9945","addr":"경기도 평택시 지산동 631-5번지","indutype":"일반휴게음식 - 스넥","category":"restaurant"},{"name":"박군치킨지산점","tel":"031-667-6111","addr":"경기도 평택시 지산동 631-5번지","indutype":"음식점 - 치킨","category":"restaurant"}]},{"lat":"37.081841365","long":"127.05716832","imageIndex":4,"items":[{"name":"반찬나라","tel":"031-663-6104","addr":"경기도 평택시 지산동 745-9번지","indutype":"일반휴게음식 - 일반한식","category":"restaurant"},{"name":"좋은사이","tel":"031-666-9825","addr":"경기도 평택시 지산동 745-9번지","indutype":"음식점 - 한식","category":"restaurant"},{"name":"좋은사이","tel":"031-663-3343","addr":"경기도 평택시 지산동 745-9번지 1층 103호","indutype":"일반휴게음식 - 일반한식","category":"restaurant"}]},{"lat":"37.081929977","long":"127.06033987","imageIndex":4,"items":[{"name":"배꼽시계","tel":"031-611-9665","addr":"경기도 평택시 지산동 999번지 1층 2호","indutype":"일반휴게음식 - 일반한식","category":"restaurant"}]},{"lat":"37.08067914","long":"127.05686384","imageIndex":4,"items":[{"name":"복댕이식당","tel":"031-664-9917","addr":"경기도 평택시 지산동 757-36번지 1층","indutype":"일반휴게음식 - 일반한식","category":"restaurant"}]},{"lat":"37.07918071","long":"127.06245204","imageIndex":4,"items":[{"name":"복주네쌈밥","tel":"031-662-5580","addr":"경기도 평택시 지산동 1081번지","indutype":"일반휴게음식 - 일반한식","category":"restaurant"},{"name":"수신닭발(지산분점)","tel":"070-4249-1578","addr":"경기도 평택시 지산동 1081번지 1동 2호","indutype":"일반휴게음식 - 스넥","category":"restaurant"}]},{"lat":"37.081038767","long":"127.05858478","imageIndex":4,"items":[{"name":"본전식당","tel":"031-666-6294","addr":"경기도 평택시 지산동 759-34번지","indutype":"일반휴게음식 - 일반한식","category":"restaurant"}]},{"lat":"37.080125961","long":"127.0641397","imageIndex":4,"items":[{"name":"본죽&비빔밥(평택지산점)","tel":"031-667-6282","addr":"경기도 평택시 지산동 1128번지 1층","indutype":"일반휴게음식 - 일반한식","category":"restaurant"},{"name":"아이러브키즈카페","tel":"031-668-7984","addr":"경기도 평택시 지산동 1128번지 초원빌딩 4층","indutype":"일반휴게음식 - 서양음식","category":"restaurant"}]},{"lat":"37.083229044","long":"127.05705684","imageIndex":4,"items":[{"name":"봉봉연탄불생고기","tel":"","addr":"경기도 평택시 지산동 740-9번지","indutype":"일반휴게음식 - 일반한식","category":"restaurant"},{"name":"봉봉연탄불생고기","tel":"031-663-2814","addr":"경기도 평택시 지산동 740-9번지","indutype":"음식점 - 한식","category":"restaurant"}]},{"lat":"37.077759524","long":"127.05727787","imageIndex":4,"items":[{"name":"봉이치킨","tel":"031-667-0180","addr":"경기도 평택시 지산동 781-9번지 101호","indutype":"음식점 - 치킨","category":"restaurant"},{"name":"봉이치킨(지산점)","tel":"031-666-9957","addr":"경기도 평택시 지산동 781-9번지 101호","indutype":"일반휴게음식 - 스넥","category":"restaurant"},{"name":"투썸플레이스 (송탄렉스빌점)","tel":"031-662-7400","addr":"경기도 평택시 지산동 781-9번지 109,110,111,112호","indutype":"일반휴게음식 - 서양음식","category":"restaurant"},{"name":"투썸플레이스 송탄렉스빌점","tel":"031-668-0706","addr":"경기도 평택시 지산동 781-9번지","indutype":"음식점 - 휴게음식","category":"restaurant"}]},{"lat":"37.073596849","long":"127.07391775","imageIndex":4,"items":[{"name":"부락산원두막","tel":"031-666-9954","addr":"경기도 평택시 지산동 536-2번지 2층","indutype":"일반휴게음식 - 일반한식","category":"restaurant"}]},{"lat":"37.073453288","long":"127.0728943","imageIndex":4,"items":[{"name":"부락산주막","tel":"031-611-2229","addr":"경기도 평택시 지산동 537-4번지 1층","indutype":"일반휴게음식 - 일반한식","category":"restaurant"}]},{"lat":"37.072291377","long":"127.08613982","imageIndex":4,"items":[{"name":"부락산케이투","tel":"031-666-0664","addr":"경기도 평택시 지산동 246-4번지","indutype":"일반휴게음식 - 일반한식","category":"restaurant"}]},{"lat":"37.074174865","long":"127.07164674","imageIndex":4,"items":[{"name":"부락산포장마차","tel":"031-663-6673","addr":"경기도 평택시 지산동 528-5번지","indutype":"일반휴게음식 - 일반한식","category":"restaurant"}]},{"lat":"37.082093594","long":"127.0573147","imageIndex":4,"items":[{"name":"부산아지매국밥","tel":"001-0000-0000","addr":"경기도 평택시 지산동 745-10번지 1층","indutype":"일반휴게음식 - 일반한식","category":"restaurant"}]},{"lat":"37.081625336","long":"127.05667332","imageIndex":4,"items":[{"name":"부산아지매식당","tel":"031-666-9198","addr":"경기도 평택시 지산동 754-5번지 1층","indutype":"일반휴게음식 - 일반한식","category":"restaurant"}]},{"lat":"37.076841267","long":"127.05545541","imageIndex":4,"items":[{"name":"브라더치킨","tel":"070-5135-0607","addr":"경기도 평택시 지산동 824-10번지","indutype":"음식점 - 치킨","category":"restaurant"},{"name":"브라더치킨","tel":"031-611-9145","addr":"경기도 평택시 지산동 824-10번지","indutype":"일반휴게음식 - 스넥","category":"restaurant"}]},{"lat":"37.07975809","long":"127.06103548","imageIndex":4,"items":[{"name":"비어사케","tel":"031-664-7368","addr":"경기도 평택시 지산동 1070번지","indutype":"음식점 - 호프","category":"restaurant"},{"name":"비어사케(지산점)","tel":"031-663-2933","addr":"경기도 평택시 지산동 1070번지","indutype":"일반휴게음식 - 주점","category":"restaurant"},{"name":"피자스쿨(송탄지산점)","tel":"031-663-2577","addr":"경기도 평택시 지산동 1070번지","indutype":"음식점 - 양식","category":"restaurant"},{"name":"피자스쿨송탄지산점","tel":"031-663-0303","addr":"경기도 평택시 지산동 1070번지","indutype":"일반휴게음식 - 서양음식","category":"restaurant"}]},{"lat":"37.076710136","long":"127.06570009","imageIndex":4,"items":[{"name":"빵구","tel":"031-665-5664","addr":"경기도 평택시 지산동 1145번지","indutype":"음식점 - 카페","category":"restaurant"},{"name":"빵구","tel":"031-664-0206","addr":"경기도 평택시 지산동 1145번지","indutype":"일반휴게음식 - 서양음식","category":"restaurant"}]},{"lat":"37.080092011","long":"127.05994486","imageIndex":4,"items":[{"name":"뽀까뽀까야채곱창","tel":"031-611-1541","addr":"경기도 평택시 지산동 1028번지 제일아파트 6호","indutype":"일반휴게음식 - 일반한식","category":"restaurant"}]},{"lat":"37.078876472","long":"127.05806588","imageIndex":4,"items":[{"name":"산울림","tel":"031-662-6143","addr":"경기도 평택시 지산동 775-11번지 지하층","indutype":"일반휴게음식 - 일반한식","category":"restaurant"}]},{"lat":"37.081538547","long":"127.06803207","imageIndex":4,"items":[{"name":"산촌미꾸라지매운탕","tel":"031-665-5220","addr":"경기도 평택시 지산동 630-2번지","indutype":"일반휴게음식 - 일반한식","category":"restaurant"}]},{"lat":"37.079787898","long":"127.05506384","imageIndex":4,"items":[{"name":"삼국지","tel":"031-611-0235","addr":"경기도 평택시 지산동 766-11번지","indutype":"일반휴게음식 - 중국식","category":"restaurant"}]},{"lat":"37.081209104","long":"127.06039555","imageIndex":4,"items":[{"name":"삼척생선전문점","tel":"031-668-7330","addr":"경기도 평택시 지산동 1013번지","indutype":"일반휴게음식 - 일반한식","category":"restaurant"},{"name":"삼척생선전문점","tel":"031-611-1344","addr":"경기도 평택시 지산동 1013번지","indutype":"음식점 - 한식","category":"restaurant"},{"name":"조쌩커피","tel":"031-378-0447","addr":"경기도 평택시 지산동 1013번지","indutype":"일반휴게음식 - 서양음식","category":"restaurant"}]},{"lat":"37.08106983","long":"127.06833532","imageIndex":4,"items":[{"name":"삼천리강산","tel":"031-666-6777","addr":"경기도 평택시 지산동 629-2번지","indutype":"일반휴게음식 - 일반한식","category":"restaurant"}]},{"lat":"37.075786478","long":"127.08756057","imageIndex":4,"items":[{"name":"삼태기마을","tel":"031-611-0207","addr":"경기도 평택시 지산동 216-1번지 1동","indutype":"일반휴게음식 - 일반한식","category":"restaurant"}]},{"lat":"37.081341012","long":"127.06674982","imageIndex":4,"items":[{"name":"상구닭발","tel":"031-668-3958","addr":"경기도 평택시 지산동 636-10번지 나동","indutype":"일반휴게음식 - 일반한식","category":"restaurant"},{"name":"서창서서갈비","tel":"","addr":"경기도 평택시 지산동 636-10번지","indutype":"음식점 - 한식","category":"restaurant"},{"name":"서창서서갈비(송탄점)","tel":"031-667-6668","addr":"경기도 평택시 지산동 636-10번지 가동","indutype":"일반휴게음식 - 일반한식","category":"restaurant"},{"name":"총각수산","tel":"031-668-1395","addr":"경기도 평택시 지산동 636-10번지 나동","indutype":"음식점 - 일식","category":"restaurant"},{"name":"총각수산송탄2호점","tel":"031-666-8810","addr":"경기도 평택시 지산동 636-10번지 나동","indutype":"일반휴게음식 - 일식·회집","category":"restaurant"}]},{"lat":"37.078261462","long":"127.07855539","imageIndex":4,"items":[{"name":"서포칼국수","tel":"031-611-9797","addr":"경기도 평택시 지산동 456-2번지","indutype":"음식점 - 한식","category":"restaurant"},{"name":"서포칼국수","tel":"031-665-1441","addr":"경기도 평택시 지산동 456-2번지 1층","indutype":"일반휴게음식 - 일반한식","category":"restaurant"}]},{"lat":"37.079201406","long":"127.05686279","imageIndex":4,"items":[{"name":"선유아구탕","tel":"031-662-9996","addr":"경기도 평택시 지산동 807-5번지 205호","indutype":"일반휴게음식 - 일반한식","category":"restaurant"},{"name":"편백소리아","tel":"","addr":"경기도 평택시 지산동 807-5번지","indutype":"일반휴게음식 - 서양음식","category":"restaurant"}]},{"lat":"37.074932329","long":"127.07064659","imageIndex":4,"items":[{"name":"세계명상화치료센터","tel":"031-665-1182","addr":"경기도 평택시 지산동 551-4번지","indutype":"일반휴게음식 - 일반한식","category":"restaurant"}]},{"lat":"37.0793176","long":"127.0588984","imageIndex":4,"items":[{"name":"소담고을","tel":"031-665-5840","addr":"경기도 평택시 지산동 716-4번지","indutype":"일반휴게음식 - 일반한식","category":"restaurant"},{"name":"소담고을","tel":"031-663-6693","addr":"경기도 평택시 지산동 716-4번지","indutype":"음식점 - 한식","category":"restaurant"},{"name":"어머니생선구이","tel":"031-666-8765","addr":"경기도 평택시 지산동 716-4번지","indutype":"음식점 - 한식","category":"restaurant"},{"name":"어머니생선구이.백반","tel":"031-663-6693","addr":"경기도 평택시 지산동 716-4번지 1층","indutype":"일반휴게음식 - 일반한식","category":"restaurant"}]},{"lat":"37.076038015","long":"127.05833372","imageIndex":4,"items":[{"name":"소랑돼지랑","tel":"","addr":"경기도 평택시 지산동 793-11번지","indutype":"음식점 - 한식","category":"restaurant"}]},{"lat":"37.081812839","long":"127.06033978","imageIndex":4,"items":[{"name":"소문난감자탕","tel":"031-611-1344","addr":"경기도 평택시 지산동 1000번지","indutype":"일반휴게음식 - 일반한식","category":"restaurant"},{"name":"소문난감자탕","tel":"","addr":"경기도 평택시 지산동 1000번지","indutype":"음식점 - 한식","category":"restaurant"}]},{"lat":"37.071704038","long":"127.07489429","imageIndex":4,"items":[{"name":"솔밭마을","tel":"031-663-5787","addr":"경기도 평택시 지산동 519-3번지 1층","indutype":"일반휴게음식 - 일반한식","category":"restaurant"}]},{"lat":"37.080063971","long":"127.06200288","imageIndex":4,"items":[{"name":"송북감자탕과쭈꾸미삼겹살","tel":"031-662-7013","addr":"경기도 평택시 지산동 714-16번지","indutype":"음식점 - 한식","category":"restaurant"},{"name":"송북감자탕과쭈꾸미삼겹살","tel":"031-664-8705","addr":"경기도 평택시 지산동 714-16번지","indutype":"일반휴게음식 - 일반한식","category":"restaurant"}]},{"lat":"37.081120795","long":"127.0565605","imageIndex":4,"items":[{"name":"송북시장상인회 송북카페","tel":"031-662-3368","addr":"경기도 평택시 지산동 756-28번지","indutype":"일반휴게음식 - 스넥","category":"restaurant"}]},{"lat":"37.074596306","long":"127.0583664","imageIndex":4,"items":[{"name":"송탄수산","tel":"031-111-1111","addr":"경기도 평택시 지산동 857-11번지 1층 101호","indutype":"일반휴게음식 - 일반한식","category":"restaurant"},{"name":"아빠돈가스전문점","tel":"031-662-1311","addr":"경기도 평택시 지산동 857-11번지 1층","indutype":"음식점 - 양식","category":"restaurant"}]},{"lat":"37.079399074","long":"127.05808875","imageIndex":4,"items":[{"name":"송탄터미널 마포갈매기","tel":"031-663-0303","addr":"경기도 평택시 지산동 773-1번지 1층","indutype":"음식점 - 한식","category":"restaurant"},{"name":"시나브로","tel":"","addr":"경기도 평택시 지산동 773-1번지 2층","indutype":"일반휴게음식 - 주점","category":"restaurant"},{"name":"신마포갈매기송탄터미널점","tel":"031-663-6092","addr":"경기도 평택시 지산동 773-1번지 1층","indutype":"일반휴게음식 - 일반한식","category":"restaurant"},{"name":"창민돼지불백","tel":"031-662-9289","addr":"경기도 평택시 지산동 773-1번지 송탄빌딩","indutype":"일반휴게음식 - 일반한식","category":"restaurant"},{"name":"창민송탄연탄불생고기","tel":"031-667-8295","addr":"경기도 평택시 지산동 773-1번지","indutype":"음식점 - 양식","category":"restaurant"},{"name":"평택원조김밥나라","tel":"031-611-1144","addr":"경기도 평택시 지산동 773-1번지","indutype":"음식점 - 분식","category":"restaurant"},{"name":"평택원조김밥나라","tel":"031-664-5053","addr":"경기도 평택시 지산동 773-1번지 송탄빌딩 1층","indutype":"일반휴게음식 - 일반한식","category":"restaurant"}]},{"lat":"37.079264991","long":"127.05572699","imageIndex":4,"items":[{"name":"수다한식뷔페","tel":"031-666-3562","addr":"경기도 평택시 지산동 767-7번지","indutype":"일반휴게음식 - 일반한식","category":"restaurant"}]},{"lat":"37.077065388","long":"127.0579746","imageIndex":4,"items":[{"name":"순이가 차려주는 밥상","tel":"031-611-0677","addr":"경기도 평택시 지산동 795-5번지","indutype":"일반휴게음식 - 일반한식","category":"restaurant"},{"name":"순이가차려주는밥상","tel":"031-665-6902","addr":"경기도 평택시 지산동 795-5번지","indutype":"음식점 - 한식","category":"restaurant"}]},{"lat":"37.080118661","long":"127.06073211","imageIndex":4,"items":[{"name":"순이네3호점","tel":"031-666-7500","addr":"경기도 평택시 지산동 1034번지","indutype":"음식점 - 한식","category":"restaurant"},{"name":"순이네3호점","tel":"031-666-0207","addr":"경기도 평택시 지산동 1034번지","indutype":"일반휴게음식 - 일반한식","category":"restaurant"}]},{"lat":"37.079760113","long":"127.05675073","imageIndex":4,"items":[{"name":"순이네포차","tel":"031-665-0819","addr":"경기도 평택시 지산동 768-2","indutype":"일반휴게음식 - 일반한식","category":"restaurant"}]},{"lat":"37.081012428","long":"127.057089","imageIndex":4,"items":[{"name":"순자네포차","tel":"031-668-1119","addr":"경기도 평택시 지산동 756-62번지","indutype":"일반휴게음식 - 일반한식","category":"restaurant"},{"name":"순자포차","tel":"","addr":"경기도 평택시 지산동 756-62번지","indutype":"음식점 - 한식","category":"restaurant"}]},{"lat":"37.078153771","long":"127.07786929","imageIndex":4,"items":[{"name":"숯불이야기","tel":"031-611-4512","addr":"경기도 평택시 지산동 465-1번지 2층","indutype":"일반휴게음식 - 일반한식","category":"restaurant"},{"name":"숯불이야기","tel":"031-611-4511","addr":"경기도 평택시 지산동 465-1번지","indutype":"음식점 - 한식","category":"restaurant"}]},{"lat":"37.074759038","long":"127.05719701","imageIndex":4,"items":[{"name":"쉬어가는주막","tel":"031-667-0706","addr":"경기도 평택시 지산동 848번지 1층","indutype":"일반휴게음식 - 주점","category":"restaurant"},{"name":"자담치킨(지산점)","tel":"031-663-2844","addr":"경기도 평택시 지산동 848번지","indutype":"일반휴게음식 - 스넥","category":"restaurant"}]},{"lat":"37.079980337","long":"127.06689488","imageIndex":4,"items":[{"name":"쉬즈카페산책","tel":"031-668-0518","addr":"경기도 평택시 지산동 647-18번지 1동","indutype":"일반휴게음식 - 서양음식","category":"restaurant"}]},{"lat":"37.079208566","long":"127.06078765","imageIndex":4,"items":[{"name":"스터디카페씨엔티","tel":"031-666-2525","addr":"경기도 평택시 지산동 1072번지 2층 201호","indutype":"일반휴게음식 - 일반한식","category":"restaurant"}]},{"lat":"37.077399677","long":"127.05600684","imageIndex":4,"items":[{"name":"신맛골","tel":"031-665-5643","addr":"경기도 평택시 지산동 820-1번지","indutype":"일반휴게음식 - 일반한식","category":"restaurant"}]},{"lat":"37.083175032","long":"127.05694434","imageIndex":4,"items":[{"name":"신차이","tel":"031-667-6637","addr":"경기도 평택시 지산동 740-10번지 1층","indutype":"일반휴게음식 - 중국식","category":"restaurant"}]},{"lat":"37.081985056","long":"127.05820309","imageIndex":4,"items":[{"name":"신화식당","tel":"031-667-8824","addr":"경기도 평택시 지산동 735-27번지","indutype":"일반휴게음식 - 일반한식","category":"restaurant"}]},{"lat":"37.081651926","long":"127.05764053","imageIndex":4,"items":[{"name":"쌍둥이네손만두","tel":"031-666-8777","addr":"경기도 평택시 지산동 753-39번지 1층","indutype":"일반휴게음식 - 일반한식","category":"restaurant"}]},{"lat":"37.07992903","long":"127.06156418","imageIndex":4,"items":[{"name":"아리랑핫도그(송탄지산점)","tel":"070-4384-1003","addr":"경기도 평택시 지산동 714-13번지","indutype":"일반휴게음식 - 서양음식","category":"restaurant"}]},{"lat":"37.077759176","long":"127.05803133","imageIndex":4,"items":[{"name":"아싸족발","tel":"031-616-3310","addr":"경기도 평택시 지산동 782-4번지","indutype":"일반휴게음식 - 일반한식","category":"restaurant"}]},{"lat":"37.080264298","long":"127.05763953","imageIndex":4,"items":[{"name":"아우네옛날순대","tel":"031-662-1757","addr":"경기도 평택시 지산동 762-22번지","indutype":"일반휴게음식 - 일반한식","category":"restaurant"}]},{"lat":"37.079262276","long":"127.06150744","imageIndex":4,"items":[{"name":"야한밤영상포차","tel":"031-662-1022","addr":"경기도 평택시 지산동 1086번지 1층 2호","indutype":"일반휴게음식 - 주점","category":"restaurant"},{"name":"큰맘할매순대국","tel":"031-668-0505","addr":"경기도 평택시 지산동 1086번지","indutype":"음식점 - 한식","category":"restaurant"},{"name":"큰맘할매순대국 평택지산점","tel":"031-662-1022","addr":"경기도 평택시 지산동 1086번지 1층","indutype":"일반휴게음식 - 일반한식","category":"restaurant"}]},{"lat":"37.081316769","long":"127.06134032","imageIndex":4,"items":[{"name":"약선닭발","tel":"031-667-8878","addr":"경기도 평택시 지산동 1029번지 삼익아파트 120호","indutype":"음식점 - 한식","category":"restaurant"},{"name":"카페나날","tel":"031-663-1171","addr":"경기도 평택시 지산동 1029번지 삼익아파트 상가동 1층 110호","indutype":"음식점 - 커피","category":"restaurant"}]},{"lat":"37.079868163","long":"127.0569195","imageIndex":4,"items":[{"name":"언니네실내포차","tel":"031-662-6440","addr":"경기도 평택시 지산동 768-96번지","indutype":"일반휴게음식 - 일반한식","category":"restaurant"},{"name":"추억의포차","tel":"","addr":"경기도 평택시 지산동 768-96번지 1층 1호","indutype":"일반휴게음식 - 주점","category":"restaurant"}]},{"lat":"37.082318525","long":"127.05803463","imageIndex":4,"items":[{"name":"언더스텐","tel":"031-667-7298","addr":"경기도 평택시 지산동 735-28번지","indutype":"일반휴게음식 - 일반한식","category":"restaurant"}]},{"lat":"37.079345534","long":"127.05695286","imageIndex":4,"items":[{"name":"여인포차","tel":"031-662-5188","addr":"경기도 평택시 지산동 807-1번지 1층","indutype":"일반휴게음식 - 일반한식","category":"restaurant"},{"name":"연분포차","tel":"031-611-3818","addr":"경기도 평택시 지산동 807-1번지 대성빌딩","indutype":"일반휴게음식 - 일반한식","category":"restaurant"},{"name":"진달래","tel":"031-666-2775","addr":"경기도 평택시 지산동 807-1번지 대성빌딩","indutype":"일반휴게음식 - 중국식","category":"restaurant"}]},{"lat":"37.081201712","long":"127.05695418","imageIndex":4,"items":[{"name":"연정식당","tel":"031-611-0775","addr":"경기도 평택시 지산동 756-42번지","indutype":"일반휴게음식 - 일반한식","category":"restaurant"}]},{"lat":"37.081093498","long":"127.05714529","imageIndex":4,"items":[{"name":"영양칼국수","tel":"031-665-5335","addr":"경기도 평택시 지산동 756-61번지","indutype":"음식점 - 한식","category":"restaurant"},{"name":"영양칼국수","tel":"031-611-5288","addr":"경기도 평택시 지산동 756-61번지","indutype":"일반휴게음식 - 일반한식","category":"restaurant"}]},{"lat":"37.078732318","long":"127.05803204","imageIndex":4,"items":[{"name":"옛골마당","tel":"031-667-8883","addr":"경기도 평택시 지산동 776-2번지","indutype":"일반휴게음식 - 일반한식","category":"restaurant"}]},{"lat":"37.081624554","long":"127.05837152","imageIndex":4,"items":[{"name":"오뚜기식당","tel":"031-611-3613","addr":"경기도 평택시 지산동 759-1번지 1층","indutype":"일반휴게음식 - 일반한식","category":"restaurant"}]},{"lat":"37.077093428","long":"127.05575922","imageIndex":4,"items":[{"name":"오산조은참치 평택송탄점","tel":"031-611-9145","addr":"경기도 평택시 지산동 824-1번지 명진쉐르빌 1층","indutype":"음식점 - 일식","category":"restaurant"}]},{"lat":"37.081958487","long":"127.05720214","imageIndex":4,"items":[{"name":"옵시롱감시롱","tel":"031-662-5741","addr":"경기도 평택시 지산동 745-8번지","indutype":"음식점 - 한식","category":"restaurant"},{"name":"옵시롱감시롱","tel":"070-8966-6992","addr":"경기도 평택시 지산동 745-8번지","indutype":"일반휴게음식 - 일반한식","category":"restaurant"}]},{"lat":"37.079343276","long":"127.06169868","imageIndex":4,"items":[{"name":"왕궁뼈다구탕대박","tel":"031-611-1165","addr":"경기도 평택시 지산동 1085번지","indutype":"일반휴게음식 - 일반한식","category":"restaurant"},{"name":"작은뚱이네","tel":"031-611-7958","addr":"경기도 평택시 지산동 1085번지 1층","indutype":"일반휴게음식 - 일반한식","category":"restaurant"},{"name":"참새골","tel":"031-667-1150","addr":"경기도 평택시 지산동 1085번지","indutype":"일반휴게음식 - 일반한식","category":"restaurant"}]},{"lat":"37.078210001","long":"127.05739065","imageIndex":4,"items":[{"name":"왕삼돈 평택점/유한회사애플이엔씨","tel":"031-611-6498","addr":"경기도 평택시 지산동 779-16번지","indutype":"일반휴게음식 - 일반한식","category":"restaurant"}]},{"lat":"37.081345896","long":"127.05692055","imageIndex":4,"items":[{"name":"왕손곱창","tel":"","addr":"경기도 평택시 지산동 754-26번지","indutype":"음식점 - 한식","category":"restaurant"}]},{"lat":"37.081426966","long":"127.05697683","imageIndex":4,"items":[{"name":"왕손곱창","tel":"070-8966-6992","addr":"경기도 평택시 지산동 754-24번지","indutype":"일반휴게음식 - 일반한식","category":"restaurant"},{"name":"정유네해장국","tel":"070-4148-2111","addr":"경기도 평택시 지산동 754-24번지","indutype":"일반휴게음식 - 일반한식","category":"restaurant"},{"name":"정유네해장국","tel":"031-662-7476","addr":"경기도 평택시 지산동 754-24번지","indutype":"음식점 - 한식","category":"restaurant"}]},{"lat":"37.074650616","long":"127.05783791","imageIndex":4,"items":[{"name":"왕창닭발","tel":"031-655-2217","addr":"경기도 평택시 지산동 850-69번지","indutype":"일반휴게음식 - 일반한식","category":"restaurant"}]},{"lat":"37.081201511","long":"127.05739279","imageIndex":4,"items":[{"name":"욕쟁이","tel":"031-666-0346","addr":"경기도 평택시 지산동 756-67번지 1층","indutype":"일반휴게음식 - 주점","category":"restaurant"}]},{"lat":"37.078841778","long":"127.05508568","imageIndex":4,"items":[{"name":"용천관","tel":"1577-9621","addr":"경기도 평택시 지산동 811-15번지","indutype":"음식점 - 중식","category":"restaurant"},{"name":"용천관","tel":"031-611-7900","addr":"경기도 평택시 지산동 811-15번지","indutype":"일반휴게음식 - 중국식","category":"restaurant"}]},{"lat":"37.080731609","long":"127.06026024","imageIndex":4,"items":[{"name":"우리숯불닭바베큐","tel":"031-662-8750","addr":"경기도 평택시 지산동 1018번지 1층","indutype":"일반휴게음식 - 일반한식","category":"restaurant"},{"name":"우리쪽갈비","tel":"031-691-9080","addr":"경기도 평택시 지산동 1018번지","indutype":"음식점 - 한식","category":"restaurant"},{"name":"우리쪽갈비엔꼬미닭도리탕","tel":"031-662-5189","addr":"경기도 평택시 지산동 1018번지","indutype":"일반휴게음식 - 일반한식","category":"restaurant"}]},{"lat":"37.077119948","long":"127.05689506","imageIndex":4,"items":[{"name":"우리집포차","tel":"031-664-4757","addr":"경기도 평택시 지산동 800-2번지 외1필지 1층","indutype":"일반휴게음식 - 일반한식","category":"restaurant"}]},{"lat":"37.080958793","long":"127.05614428","imageIndex":4,"items":[{"name":"원조성환장터국밥","tel":"031-662-1794","addr":"경기도 평택시 지산동 757-4번지","indutype":"음식점 - 한식","category":"restaurant"},{"name":"원조성환장터국밥","tel":"031-668-5555","addr":"경기도 평택시 지산동 757-4번지","indutype":"일반휴게음식 - 일반한식","category":"restaurant"}]},{"lat":"37.076230387","long":"127.08414241","imageIndex":4,"items":[{"name":"원포레스트","tel":"","addr":"경기도 평택시 지산동 341-1번지 1층,2층","indutype":"일반휴게음식 - 서양음식","category":"restaurant"}]},{"lat":"37.083093071","long":"127.05881121","imageIndex":4,"items":[{"name":"윤가네토종순대국","tel":"031-667-7667","addr":"경기도 평택시 지산동 733-6번지 1동 1층","indutype":"일반휴게음식 - 일반한식","category":"restaurant"}]},{"lat":"37.074425862","long":"127.05672447","imageIndex":4,"items":[{"name":"은하수쉼터","tel":"031-665-8984","addr":"경기도 평택시 지산동 842번지 1층","indutype":"일반휴게음식 - 일반한식","category":"restaurant"}]},{"lat":"37.074542743","long":"127.05728681","imageIndex":4,"items":[{"name":"이모네맛집","tel":"031-618-1238","addr":"경기도 평택시 지산동 846번지 1층 좌측호","indutype":"일반휴게음식 - 일반한식","category":"restaurant"}]},{"lat":"37.073704259","long":"127.05836575","imageIndex":4,"items":[{"name":"이모네불닭발","tel":"031-611-9592","addr":"경기도 평택시 지산동 864-11번지 1층","indutype":"일반휴게음식 - 일반한식","category":"restaurant"}]},{"lat":"37.081984176","long":"127.06005875","imageIndex":4,"items":[{"name":"이프","tel":"","addr":"경기도 평택시 지산동 997번지","indutype":"일반휴게음식 - 주점","category":"restaurant"}]},{"lat":"37.078543107","long":"127.05800941","imageIndex":4,"items":[{"name":"자연한식부페","tel":"031-665-4742","addr":"경기도 평택시 지산동 778-1번지","indutype":"음식점 - 한식","category":"restaurant"},{"name":"자연한식부페","tel":"031-667-1003","addr":"경기도 평택시 지산동 778-1번지 1층 1호2-4호","indutype":"일반휴게음식 - 일반한식","category":"restaurant"},{"name":"자연한식부페","tel":"031-667-1003","addr":"경기도 평택시 지산동 778-1번지","indutype":"일반휴게음식 - 일반한식","category":"restaurant"}]},{"lat":"37.079292173","long":"127.05538963","imageIndex":4,"items":[{"name":"작은공원분식","tel":"031-662-3030","addr":"경기도 평택시 지산동 767-6번지","indutype":"일반휴게음식 - 일반한식","category":"restaurant"}]},{"lat":"37.079535493","long":"127.05531108","imageIndex":4,"items":[{"name":"장미식당","tel":"031-668-7933","addr":"경기도 평택시 지산동 767-101번지","indutype":"일반휴게음식 - 일반한식","category":"restaurant"}]},{"lat":"37.07631379","long":"127.06547486","imageIndex":4,"items":[{"name":"장수전","tel":"","addr":"경기도 평택시 지산동 1166번지","indutype":"일반휴게음식 - 일반한식","category":"restaurant"}]},{"lat":"37.080787251","long":"127.05689766","imageIndex":4,"items":[{"name":"장충족발","tel":"031-665-8288","addr":"경기도 평택시 지산동 757-11번지","indutype":"일반휴게음식 - 일반한식","category":"restaurant"},{"name":"한방장충족발","tel":"","addr":"경기도 평택시 지산동 757-11번지","indutype":"음식점 - 한식","category":"restaurant"}]},{"lat":"37.074875634","long":"127.05836661","imageIndex":4,"items":[{"name":"정성이가득찬집밥","tel":"031-667-0147","addr":"경기도 평택시 지산동 857-4번지 1층","indutype":"일반휴게음식 - 일반한식","category":"restaurant"}]},{"lat":"37.072180901","long":"127.08942323","imageIndex":4,"items":[{"name":"정이가교동짬뽕","tel":"031-664-0078","addr":"경기도 평택시 지산동 248-3번지 A동","indutype":"일반휴게음식 - 중국식","category":"restaurant"},{"name":"정이가교동짬뽕","tel":"031-662-1254","addr":"경기도 평택시 지산동 248-3번지","indutype":"음식점 - 중식","category":"restaurant"}]},{"lat":"37.080678591","long":"127.05805594","imageIndex":4,"items":[{"name":"정택이네 김밥","tel":"02-1111-1111","addr":"경기도 평택시 지산동 758-48번지","indutype":"일반휴게음식 - 일반한식","category":"restaurant"}]},{"lat":"37.080010523","long":"127.06075452","imageIndex":4,"items":[{"name":"제일식당","tel":"031-611-2799","addr":"경기도 평택시 지산동 1035번지","indutype":"일반휴게음식 - 일반한식","category":"restaurant"},{"name":"피오치킨지산점","tel":"031-667-5580","addr":"경기도 평택시 지산동 1035번지","indutype":"일반휴게음식 - 스넥","category":"restaurant"},{"name":"피오치킨지산점","tel":"","addr":"경기도 평택시 지산동 1035번지","indutype":"음식점 - 치킨","category":"restaurant"}]},{"lat":"37.080235798","long":"127.0607322","imageIndex":4,"items":[{"name":"제일식당","tel":"031-667-7791","addr":"경기도 평택시 지산동 1033번지","indutype":"음식점 - 한식","category":"restaurant"}]},{"lat":"37.079678428","long":"127.05803272","imageIndex":4,"items":[{"name":"주모리","tel":"031-665-7340","addr":"경기도 평택시 지산동 773-8번지 2층","indutype":"일반휴게음식 - 주점","category":"restaurant"}]},{"lat":"37.077263605","long":"127.05800848","imageIndex":4,"items":[{"name":"주왕산얼음막걸리지산점","tel":"031-668-9428","addr":"경기도 평택시 지산동 794-2번지","indutype":"일반휴게음식 - 주점","category":"restaurant"}]},{"lat":"37.079848101","long":"127.06122674","imageIndex":4,"items":[{"name":"죽마을 지산점","tel":"031-667-1509","addr":"경기도 평택시 지산동 714-11번지","indutype":"음식점 - 한식","category":"restaurant"},{"name":"죽마을지산점","tel":"031-667-7791","addr":"경기도 평택시 지산동 714-11번지 외1필지중앙빌딩 101호","indutype":"일반휴게음식 - 일반한식","category":"restaurant"}]},{"lat":"37.080092472","long":"127.0589777","imageIndex":4,"items":[{"name":"지산골목식당","tel":"031-611-5218","addr":"경기도 평택시 지산동 725-3번지","indutype":"일반휴게음식 - 일반한식","category":"restaurant"}]},{"lat":"37.081679487","long":"127.05648217","imageIndex":4,"items":[{"name":"지산투다리","tel":"031-664-6484","addr":"경기도 평택시 지산동 754-38번지 1층","indutype":"일반휴게음식 - 주점","category":"restaurant"},{"name":"팔도다방","tel":"031-654-4466","addr":"경기도 평택시 지산동 754-38번지","indutype":"음식점 - 카페","category":"restaurant"}]},{"lat":"37.077570477","long":"127.05689537","imageIndex":4,"items":[{"name":"지산한식뷔페","tel":"031-666-7377","addr":"경기도 평택시 지산동 801-6번지","indutype":"일반휴게음식 - 일반한식","category":"restaurant"}]},{"lat":"37.077903345","long":"127.05803144","imageIndex":4,"items":[{"name":"지산해장국","tel":"031-665-8896","addr":"경기도 평택시 지산동 782-3번지","indutype":"음식점 - 한식","category":"restaurant"},{"name":"지산해장국","tel":"031-667-1591","addr":"경기도 평택시 지산동 782-3번지","indutype":"일반휴게음식 - 일반한식","category":"restaurant"}]},{"lat":"37.081566409","long":"127.06650259","imageIndex":4,"items":[{"name":"지성원","tel":"031-665-5966","addr":"경기도 평택시 지산동 636-9번지","indutype":"일반휴게음식 - 중국식","category":"restaurant"}]},{"lat":"37.080930898","long":"127.05803363","imageIndex":4,"items":[{"name":"쫑아분식","tel":"031-611-8289","addr":"경기도 평택시 지산동 758-26번지","indutype":"일반휴게음식 - 스넥","category":"restaurant"}]},{"lat":"37.082480193","long":"127.05914815","imageIndex":4,"items":[{"name":"착한돈","tel":"031-611-2822","addr":"경기도 평택시 지산동 748-1번지","indutype":"일반휴게음식 - 일반한식","category":"restaurant"},{"name":"착한돈","tel":"070-8918-3323","addr":"경기도 평택시 지산동 748-1번지","indutype":"음식점 - 한식","category":"restaurant"}]},{"lat":"37.081705481","long":"127.05873147","imageIndex":4,"items":[{"name":"참구이씨","tel":"031-664-3128","addr":"경기도 평택시 지산동 751-12번지 1층","indutype":"일반휴게음식 - 일반한식","category":"restaurant"}]},{"lat":"37.075237374","long":"127.0554768","imageIndex":4,"items":[{"name":"참맛있는집","tel":"031-667-6611","addr":"경기도 평택시 지산동 830-14","indutype":"일반휴게음식 - 일반한식","category":"restaurant"}]},{"lat":"37.081038962","long":"127.05816866","imageIndex":4,"items":[{"name":"창민돼지고기불백","tel":"031-667-7854","addr":"경기도 평택시 지산동 758-4번지","indutype":"일반휴게음식 - 일반한식","category":"restaurant"},{"name":"창민돼지고기불백","tel":"031-665-0682","addr":"경기도 평택시 지산동 758-4번지","indutype":"음식점 - 양식","category":"restaurant"}]},{"lat":"37.081704712","long":"127.0603397","imageIndex":4,"items":[{"name":"챤스(지산2점)","tel":"031-665-1266","addr":"경기도 평택시 지산동 1001번지 1층","indutype":"일반휴게음식 - 주점","category":"restaurant"},{"name":"토프레소 평택지산점","tel":"070-8918-3323","addr":"경기도 평택시 지산동 1001번지","indutype":"일반휴게음식 - 서양음식","category":"restaurant"},{"name":"토프레소 평택지산점","tel":"031-663-9707","addr":"경기도 평택시 지산동 1001번지","indutype":"음식점 - 카페","category":"restaurant"}]},{"lat":"37.074206354","long":"127.06347147","imageIndex":4,"items":[{"name":"청솔호프","tel":"031-666-5419","addr":"경기도 평택시 지산동 1093번지 한양청솔 상가 106호","indutype":"일반휴게음식 - 주점","category":"restaurant"}]},{"lat":"37.079900795","long":"127.06394833","imageIndex":4,"items":[{"name":"청호반점","tel":"031-668-1081","addr":"경기도 평택시 지산동 1130번지","indutype":"일반휴게음식 - 중국식","category":"restaurant"}]},{"lat":"37.081760295","long":"127.05711203","imageIndex":4,"items":[{"name":"초이스호프","tel":"031-664-2476","addr":"경기도 평택시 지산동 753-32번지","indutype":"일반휴게음식 - 주점","category":"restaurant"}]},{"lat":"37.080452069","long":"127.06069863","imageIndex":4,"items":[{"name":"치킨뱅이(송탄점)","tel":"031-666-2968","addr":"경기도 평택시 지산동 1031번지 1층","indutype":"일반휴게음식 - 일반한식","category":"restaurant"}]},{"lat":"37.073539366","long":"127.07941658","imageIndex":4,"items":[{"name":"카페영글다","tel":"031-665-8902","addr":"경기도 평택시 지산동 509번지 1,2층","indutype":"일반휴게음식 - 서양음식","category":"restaurant"}]},{"lat":"37.07740343","long":"127.08166961","imageIndex":4,"items":[{"name":"카페커핑","tel":"031-666-7825","addr":"경기도 평택시 지산동 324-2번지","indutype":"음식점 - 카페","category":"restaurant"},{"name":"카페커핑(본점)","tel":"031-668-1395","addr":"경기도 평택시 지산동 324-2번지","indutype":"일반휴게음식 - 서양음식","category":"restaurant"}]},{"lat":"37.079930724","long":"127.05803291","imageIndex":4,"items":[{"name":"커피볶는집여섯번째이야기","tel":"031-666-2149","addr":"경기도 평택시 지산동 770-2번지 외1필지 2층","indutype":"일반휴게음식 - 서양음식","category":"restaurant"}]},{"lat":"37.080126972","long":"127.06214913","imageIndex":4,"items":[{"name":"커피식스쥬스식스 송탄지산점","tel":"070-8283-0905","addr":"경기도 평택시 지산동 714-17번지 C동","indutype":"일반휴게음식 - 서양음식","category":"restaurant"}]},{"lat":"37.079370569","long":"127.06117014","imageIndex":4,"items":[{"name":"코미니 꼬마김밥 지산점","tel":"031-663-0049","addr":"경기도 평택시 지산동 1073번지","indutype":"음식점 - 분식","category":"restaurant"},{"name":"코미니지산점","tel":"031-611-5814","addr":"경기도 평택시 지산동 1073번지","indutype":"일반휴게음식 - 스넥","category":"restaurant"},{"name":"한촌설렁탕","tel":"031-663-4294","addr":"경기도 평택시 지산동 1073번지 1층","indutype":"일반휴게음식 - 일반한식","category":"restaurant"},{"name":"한촌설렁탕 평택지산점","tel":"031-664-8705","addr":"경기도 평택시 지산동 1073번지 1층","indutype":"음식점 - 한식","category":"restaurant"}]},{"lat":"37.078287274","long":"127.08044472","imageIndex":4,"items":[{"name":"콩미가손두부","tel":"031-611-4512","addr":"경기도 평택시 지산동 311번지","indutype":"음식점 - 한식","category":"restaurant"},{"name":"황금코다리 송탄점","tel":"031-662-5898","addr":"경기도 평택시 지산동 311번지","indutype":"일반휴게음식 - 일반한식","category":"restaurant"}]},{"lat":"37.076847905","long":"127.06056094","imageIndex":4,"items":[{"name":"큰집멸치국수","tel":"031-667-0510","addr":"경기도 평택시 지산동 692-12번지","indutype":"음식점 - 한식","category":"restaurant"},{"name":"큰집멸치국수","tel":"031-663-4214","addr":"경기도 평택시 지산동 692-12번지 1층","indutype":"일반휴게음식 - 일반한식","category":"restaurant"}]},{"lat":"37.080733478","long":"127.05625658","imageIndex":4,"items":[{"name":"탕화쿵푸마라탕","tel":"031-611-7565","addr":"경기도 평택시 지산동 763-6번지 1층","indutype":"일반휴게음식 - 중국식","category":"restaurant"},{"name":"탕화쿵푸마라탕","tel":"031-666-7688","addr":"경기도 평택시 지산동 763-6번지","indutype":"음식점 - 중식","category":"restaurant"}]},{"lat":"37.081678723","long":"127.05814664","imageIndex":4,"items":[{"name":"태양횟집","tel":"031-664-1143","addr":"경기도 평택시 지산동 752-15번지 1층","indutype":"일반휴게음식 - 일식·회집","category":"restaurant"}]},{"lat":"37.080344387","long":"127.07619576","imageIndex":4,"items":[{"name":"태화루","tel":"031-666-3858","addr":"경기도 평택시 지산동 1235-7번지","indutype":"일반휴게음식 - 중국식","category":"restaurant"}]},{"lat":"37.078292059","long":"127.05525399","imageIndex":4,"items":[{"name":"토담우렁쌈밥","tel":"031-611-7071","addr":"경기도 평택시 지산동 812-2번지","indutype":"일반휴게음식 - 서양음식","category":"restaurant"}]},{"lat":"37.082868734","long":"127.05680916","imageIndex":4,"items":[{"name":"퍼플-케이(PURPLE-K)","tel":"031-000-0000","addr":"경기도 평택시 지산동 740-12번지 1층 1,2호","indutype":"일반휴게음식 - 서양음식","category":"restaurant"}]},{"lat":"37.076760077","long":"127.05566903","imageIndex":4,"items":[{"name":"평산닭발","tel":"031-667-8892","addr":"경기도 평택시 지산동 824-12번지","indutype":"일반휴게음식 - 일반한식","category":"restaurant"},{"name":"평산닭발","tel":"031-663-1601","addr":"경기도 평택시 지산동 824-12번지","indutype":"음식점 - 한식","category":"restaurant"}]},{"lat":"37.080814649","long":"127.05608795","imageIndex":4,"items":[{"name":"평성물칼국수","tel":"031-665-3456","addr":"경기도 평택시 지산동 763-5번지 1층 7호","indutype":"일반휴게음식 - 일반한식","category":"restaurant"}]},{"lat":"37.078814538","long":"127.05555799","imageIndex":4,"items":[{"name":"포시즌","tel":"031-663-3330","addr":"경기도 평택시 지산동 812-17번지","indutype":"일반휴게음식 - 주점","category":"restaurant"}]},{"lat":"37.076507875","long":"127.05545518","imageIndex":4,"items":[{"name":"풍미식당","tel":"","addr":"경기도 평택시 지산동 828-8번지","indutype":"일반휴게음식 - 일반한식","category":"restaurant"}]},{"lat":"37.075010961","long":"127.05800685","imageIndex":4,"items":[{"name":"프렌들리","tel":"031-663-2369","addr":"경기도 평택시 지산동 851-16번지","indutype":"일반휴게음식 - 일반한식","category":"restaurant"}]},{"lat":"37.082093835","long":"127.05678612","imageIndex":4,"items":[{"name":"한우마을","tel":"031-668-3939","addr":"경기도 평택시 지산동 742-4번지 한우마을","indutype":"일반휴게음식 - 일반한식","category":"restaurant"},{"name":"한우마을","tel":"031-668-3579","addr":"경기도 평택시 지산동 742-4번지","indutype":"음식점 - 한식","category":"restaurant"}]},{"lat":"37.08431909","long":"127.05756372","imageIndex":4,"items":[{"name":"현대추어탕","tel":"031-664-6500","addr":"경기도 평택시 지산동 737-5번지","indutype":"일반휴게음식 - 일반한식","category":"restaurant"}]},{"lat":"37.078182658","long":"127.05806538","imageIndex":4,"items":[{"name":"홍이치킨(지산점)","tel":"031-611-1800","addr":"경기도 평택시 지산동 782-16번지 1층","indutype":"일반휴게음식 - 스넥","category":"restaurant"}]},{"lat":"37.073487666","long":"127.05908528","imageIndex":4,"items":[{"name":"화개장터","tel":"031-655-9229","addr":"경기도 평택시 지산동 864-6번지","indutype":"일반휴게음식 - 일반한식","category":"restaurant"}]},{"lat":"37.081399702","long":"127.0574829","imageIndex":4,"items":[{"name":"화정식당","tel":"031-668-9222","addr":"경기도 평택시 지산동 753-13번지","indutype":"음식점 - 한식","category":"restaurant"}]},{"lat":"37.079535592","long":"127.05508615","imageIndex":4,"items":[{"name":"황제탕","tel":"031-666-0724","addr":"경기도 평택시 지산동 767-100번지","indutype":"일반휴게음식 - 일반한식","category":"restaurant"}]},{"lat":"37.080343942","long":"127.06069855","imageIndex":4,"items":[{"name":"회뜨는사람들","tel":"031-611-0288","addr":"경기도 평택시 지산동 1032번지","indutype":"일반휴게음식 - 일반한식","category":"restaurant"}]},{"lat":"37.079429034","long":"127.06989711","imageIndex":4,"items":[{"name":"흑염소 토속마을","tel":"031-666-2519","addr":"경기도 평택시 지산동 576-4번지","indutype":"일반휴게음식 - 일반한식","category":"restaurant"}]}]