[{"lat":"37.48090059","long":"126.8570356","imageIndex":7,"items":[{"name":"(주)곰할인마트","tel":"02-2683-5525","addr":"경기도 광명시 광명동 136-19번지 1층","indutype":"유통업 영리 - 슈퍼마켓","category":"mart"}]},{"lat":"37.47254455","long":"126.8539883","imageIndex":7,"items":[{"name":"O.K할인마트","tel":"02-2612-8297","addr":"경기도 광명시 광명동 334-23번지","indutype":"유통업 영리 - 슈퍼마켓","category":"mart"}]},{"lat":"37.47182093","long":"126.8517627","imageIndex":7,"items":[{"name":"e-편한마트","tel":"02-2619-5837","addr":"경기도 광명시 광명동 324-21번지 2층 홀","indutype":"유통업 영리 - 슈퍼마켓","category":"mart"}]},{"lat":"37.48428981","long":"126.8582388","imageIndex":7,"items":[{"name":"가든슈퍼","tel":"02-2614-3921","addr":"경기도 광명시 광명동 60-1번지 점포 1층","indutype":"유통업 영리 - 슈퍼마켓","category":"mart"}]},{"lat":"37.48585089","long":"126.8601805","imageIndex":7,"items":[{"name":"경인유통","tel":"02-2619-1725","addr":"경기도 광명시 광명동 12-7번지","indutype":"유통업 영리 - 슈퍼마켓","category":"mart"}]},{"lat":"37.47823902","long":"126.8614612","imageIndex":7,"items":[{"name":"광명 마트","tel":"02-2611-7336","addr":"경기도 광명시 광명동 32-143번지 LG베스트빌 101호","indutype":"유통업 영리 - 슈퍼마켓","category":"mart"}]},{"lat":"37.47801748","long":"126.8570977","imageIndex":7,"items":[{"name":"광명마트","tel":"02-687-7696","addr":"경기도 광명시 광명동 158-484번지 취송빌딩 1층","indutype":"유통업 영리 - 슈퍼마켓","category":"mart"}]},{"lat":"37.47424023","long":"126.8483777","imageIndex":7,"items":[{"name":"광명홈할인마트","tel":"02-2614-4411","addr":"경기도 광명시 광명동 262-15번지 중앙빌딩 1층,2층","indutype":"유통업 영리 - 슈퍼마켓","category":"mart"},{"name":"하모니마트","tel":"02-2615-3725","addr":"경기도 광명시 광명동 262-15번지 중앙빌딩","indutype":"유통업 영리 - 슈퍼마켓","category":"mart"}]},{"lat":"37.48087333","long":"126.849732","imageIndex":7,"items":[{"name":"그린마트","tel":"02-2688-2825","addr":"경기도 광명시 광명동 158-971번지 1층","indutype":"유통업 영리 - 슈퍼마켓","category":"mart"}]},{"lat":"37.47767781","long":"126.8593143","imageIndex":7,"items":[{"name":"글로벌DC마트","tel":"02-2625-8199","addr":"경기도 광명시 광명동 158-1185번지 1층","indutype":"유통업 영리 - 슈퍼마켓","category":"mart"}]},{"lat":"37.47659592","long":"126.8515383","imageIndex":7,"items":[{"name":"금강마트","tel":"02-2060-9716","addr":"경기도 광명시 광명동 288-24번지","indutype":"유통업 영리 - 슈퍼마켓","category":"mart"}]},{"lat":"37.48378895","long":"126.8612925","imageIndex":7,"items":[{"name":"대성슈퍼","tel":"02-2060-9006","addr":"경기도 광명시 광명동 71-19번지","indutype":"유통업 영리 - 슈퍼마켓","category":"mart"}]},{"lat":"37.47790761","long":"126.8556848","imageIndex":7,"items":[{"name":"대성할인마트","tel":"02-2060-8210","addr":"경기도 광명시 광명동 158-567번지 1층","indutype":"유통업 영리 - 슈퍼마켓","category":"mart"}]},{"lat":"37.47901046","long":"126.8514317","imageIndex":7,"items":[{"name":"대성할인마트","tel":"02-2682-8898","addr":"경기도 광명시 광명동 189-3번지","indutype":"유통업 영리 - 슈퍼마켓","category":"mart"}]},{"lat":"37.47554106","long":"126.8581765","imageIndex":7,"items":[{"name":"두리슈퍼","tel":"","addr":"경기도 광명시 광명동 41-302번지 1층","indutype":"유통업 영리 - 슈퍼마켓","category":"mart"}]},{"lat":"37.47723491","long":"126.8581507","imageIndex":7,"items":[{"name":"롯데슈퍼","tel":"02-2618-2740","addr":"경기도 광명시 광명동 158-336번지 진주빌라 101호","indutype":"유통업 영리 - 슈퍼마켓","category":"mart"}]},{"lat":"37.48295701","long":"126.8587954","imageIndex":7,"items":[{"name":"만물상할인마트","tel":"02-2615-6086","addr":"경기도 광명시 광명동 63-16 1층 102호, 103호","indutype":"유통업 영리 - 슈퍼마켓","category":"mart"}]},{"lat":"37.46907462","long":"126.8531247","imageIndex":7,"items":[{"name":"모닝25","tel":"02-2688-2943","addr":"경기도 광명시 광명동 724-4번지","indutype":"유통업 영리 - 슈퍼마켓","category":"mart"}]},{"lat":"37.47523917","long":"126.8544917","imageIndex":7,"items":[{"name":"미니 마트","tel":"02-2618-6485","addr":"경기도 광명시 광명동 49-79번지 1층","indutype":"유통업 영리 - 슈퍼마켓","category":"mart"}]},{"lat":"37.47081694","long":"126.855823","imageIndex":7,"items":[{"name":"보령슈퍼","tel":"02-2618-8361","addr":"경기도 광명시 광명동 716-11번지","indutype":"유통업 영리 - 슈퍼마켓","category":"mart"}]},{"lat":"37.47729558","long":"126.856206","imageIndex":7,"items":[{"name":"부자슈퍼","tel":"02-2066-8979","addr":"경기도 광명시 광명동 158-621번지 1층 101호","indutype":"유통업 영리 - 슈퍼마켓","category":"mart"}]},{"lat":"37.47545831","long":"126.8497092","imageIndex":7,"items":[{"name":"사랑마트","tel":"02-2613-3632","addr":"경기도 광명시 광명동 277-29번지","indutype":"유통업 영리 - 슈퍼마켓","category":"mart"}]},{"lat":"37.48112543","long":"126.8495959","imageIndex":7,"items":[{"name":"삼영지앤씨","tel":"","addr":"경기도 광명시 광명동 159-5번지","indutype":"유통업 영리 - 슈퍼마켓","category":"mart"}]},{"lat":"37.47392855","long":"126.8512045","imageIndex":7,"items":[{"name":"새마을공판장","tel":"02-2614-5013","addr":"경기도 광명시 광명동 290-52번지","indutype":"유통업 영리 - 슈퍼마켓","category":"mart"}]},{"lat":"37.48437829","long":"126.8569271","imageIndex":7,"items":[{"name":"생활용품D/C백화점","tel":"02-2687-4000","addr":"경기도 광명시 광명동 50-7번지","indutype":"유통업 영리 - 슈퍼마켓","category":"mart"}]},{"lat":"37.47290838","long":"126.8496239","imageIndex":7,"items":[{"name":"선미슈퍼마켓","tel":"02-2685-4702","addr":"경기도 광명시 광명동 348-14","indutype":"유통업 영리 - 슈퍼마켓","category":"mart"}]},{"lat":"37.47734451","long":"126.8593714","imageIndex":7,"items":[{"name":"성경슈퍼","tel":"02-2619-0822","addr":"경기도 광명시 광명동 158-276번지","indutype":"유통업 영리 - 슈퍼마켓","category":"mart"}]},{"lat":"37.47601725","long":"126.8499567","imageIndex":7,"items":[{"name":"싱글벙글할인마트","tel":"02-2616-8176","addr":"경기도 광명시 광명동 276-44번지 금반석시티빌 상가 102호","indutype":"유통업 영리 - 슈퍼마켓","category":"mart"}]},{"lat":"37.48379538","long":"126.8591556","imageIndex":7,"items":[{"name":"싱싱유통","tel":"02-2689-6356","addr":"경기도 광명시 광명동 62-20번지","indutype":"유통업 영리 - 슈퍼마켓","category":"mart"}]},{"lat":"37.46946304","long":"126.853904","imageIndex":7,"items":[{"name":"에스케이 식자재마트","tel":"02-2611-4546","addr":"경기도 광명시 광명동 720-11번지 한성빌딩","indutype":"유통업 영리 - 슈퍼마켓","category":"mart"}]},{"lat":"37.47892977","long":"126.8589614","imageIndex":7,"items":[{"name":"에이스슈퍼","tel":"02-2686-2287","addr":"경기도 광명시 광명동 126-26번지","indutype":"유통업 영리 - 슈퍼마켓","category":"mart"}]},{"lat":"37.47548616","long":"126.8503422","imageIndex":7,"items":[{"name":"영광슈퍼","tel":"02-2614-9354","addr":"경기도 광명시 광명동 281-57번지 1층","indutype":"유통업 영리 - 슈퍼마켓","category":"mart"}]},{"lat":"37.47418296","long":"126.8528771","imageIndex":7,"items":[{"name":"영슈퍼","tel":"02-2684-9281","addr":"경기도 광명시 광명동 296-11번지","indutype":"유통업 영리 - 슈퍼마켓","category":"mart"},{"name":"영슈퍼","tel":"02-2618-7303","addr":"경기도 광명시 광명동 296-11번지","indutype":"유통업 영리 - 슈퍼마켓","category":"mart"}]},{"lat":"37.47940218","long":"126.8548226","imageIndex":7,"items":[{"name":"우리할인마트","tel":"02-3666-9760","addr":"경기도 광명시 광명동 158-85번지 외1필지 내제101호 지하","indutype":"유통업 영리 - 슈퍼마켓","category":"mart"}]},{"lat":"37.47771072","long":"126.8496481","imageIndex":7,"items":[{"name":"우정이마트","tel":"02-2689-1254","addr":"경기도 광명시 광명동 211-1번지","indutype":"유통업 영리 - 슈퍼마켓","category":"mart"}]},{"lat":"37.48037757","long":"126.8495748","imageIndex":7,"items":[{"name":"월드마트","tel":"02-2611-3677","addr":"경기도 광명시 광명동 158-924번지","indutype":"유통업 영리 - 슈퍼마켓","category":"mart"}]},{"lat":"37.47679009","long":"126.8484063","imageIndex":7,"items":[{"name":"월드슈퍼","tel":"02-2618-0340","addr":"경기도 광명시 광명동 270-10,270-11호지층1호","indutype":"유통업 영리 - 슈퍼마켓","category":"mart"}]},{"lat":"37.47440161","long":"126.8477669","imageIndex":7,"items":[{"name":"웰빙할인마트","tel":"02-2685-2444","addr":"경기도 광명시 광명동 247-24번지","indutype":"유통업 영리 - 슈퍼마켓","category":"mart"}]},{"lat":"37.47593121","long":"126.846181","imageIndex":7,"items":[{"name":"인더라인","tel":"02-2688-6219","addr":"경기도 광명시 광명동 233-3번지 현월프라자 102호","indutype":"유통업 영리 - 슈퍼마켓","category":"mart"}]},{"lat":"37.48328826","long":"126.8570649","imageIndex":7,"items":[{"name":"인더라인25(광명1호점)","tel":"","addr":"경기도 광명시 광명동 91-1번지","indutype":"유통업 영리 - 슈퍼마켓","category":"mart"}]},{"lat":"37.47571041","long":"126.849573","imageIndex":7,"items":[{"name":"자연유기농","tel":"02-2684-8984","addr":"경기도 광명시 광명동 277-40번지 1층","indutype":"유통업 영리 - 슈퍼마켓","category":"mart"}]},{"lat":"37.47934965","long":"126.8560437","imageIndex":7,"items":[{"name":"자유쇼핑주식회사","tel":"02-2685-8865","addr":"경기도 광명시 광명동 150-50번지","indutype":"유통업 영리 - 슈퍼마켓","category":"mart"}]},{"lat":"37.47910184","long":"126.8596846","imageIndex":7,"items":[{"name":"제일상회","tel":"02-2685-2331","addr":"경기도 광명시 광명동 30-1번지","indutype":"유통업 영리 - 슈퍼마켓","category":"mart"}]},{"lat":"37.47373927","long":"126.8511484","imageIndex":7,"items":[{"name":"주식회사중앙할인마트","tel":"02-2688-1095","addr":"경기도 광명시 광명동 342-13번지","indutype":"유통업 영리 - 슈퍼마켓","category":"mart"}]},{"lat":"37.47726446","long":"126.8602308","imageIndex":7,"items":[{"name":"준희슈퍼","tel":"02-2685-2153","addr":"경기도 광명시 광명동 158-246번지 대성빌라 101호","indutype":"유통업 영리 - 슈퍼마켓","category":"mart"}]},{"lat":"37.47907154","long":"126.8570165","imageIndex":7,"items":[{"name":"중국슈퍼","tel":"02-2671-8080","addr":"경기도 광명시 광명동 157-14번지 1층","indutype":"유통업 영리 - 슈퍼마켓","category":"mart"}]},{"lat":"37.47684696","long":"126.8577331","imageIndex":7,"items":[{"name":"중국식품","tel":"02-3281-5233","addr":"경기도 광명시 광명동 158-439번지 신라연립 101호","indutype":"유통업 영리 - 슈퍼마켓","category":"mart"}]},{"lat":"37.47306664","long":"126.8466279","imageIndex":7,"items":[{"name":"진로마트","tel":"02-2618-4700","addr":"경기도 광명시 광명동 354-24 일원한진해모루이연A단지내상가1층114,115,116호","indutype":"유통업 영리 - 슈퍼마켓","category":"mart"}]},{"lat":"37.4759358","long":"126.8567965","imageIndex":7,"items":[{"name":"초원농축산물할인마트","tel":"02-2619-2702","addr":"경기도 광명시 광명동 43-58번지","indutype":"유통업 영리 - 슈퍼마켓","category":"mart"}]},{"lat":"37.48420759","long":"126.8573231","imageIndex":7,"items":[{"name":"충북상회","tel":"02-2682-5597","addr":"경기도 광명시 광명동 58-15번지","indutype":"유통업 영리 - 슈퍼마켓","category":"mart"}]},{"lat":"37.47929122","long":"126.852573","imageIndex":7,"items":[{"name":"코리아마트","tel":"02-2613-8786","addr":"경기도 광명시 광명동 158-845번지","indutype":"유통업 영리 - 슈퍼마켓","category":"mart"}]},{"lat":"37.47779203","long":"126.8498175","imageIndex":7,"items":[{"name":"코사마트(광명점)","tel":"02-2682-1444","addr":"경기도 광명시 광명동 208-27번지","indutype":"유통업 영리 - 슈퍼마켓","category":"mart"}]},{"lat":"37.48112243","long":"126.861648","imageIndex":7,"items":[{"name":"코사마트동네점","tel":"02-2681-9646","addr":"경기도 광명시 광명동 22-4번지","indutype":"유통업 영리 - 슈퍼마켓","category":"mart"}]},{"lat":"37.47548738","long":"126.8584819","imageIndex":7,"items":[{"name":"코사마트은하점","tel":"031-111-1111","addr":"경기도 광명시 광명동 41-298번지 109호","indutype":"유통업 영리 - 슈퍼마켓","category":"mart"}]},{"lat":"37.47793591","long":"126.8496024","imageIndex":7,"items":[{"name":"코사할인판매장","tel":"02-2682-1444","addr":"경기도 광명시 광명동 176-20번지","indutype":"유통업 영리 - 슈퍼마켓","category":"mart"}]},{"lat":"37.49007113","long":"126.8631803","imageIndex":7,"items":[{"name":"크로바마트","tel":"02-2619-6813","addr":"경기도 광명시 광명동 6-48번지 1층","indutype":"유통업 영리 - 슈퍼마켓","category":"mart"}]},{"lat":"37.47807483","long":"126.8597883","imageIndex":7,"items":[{"name":"큰빛할인마트","tel":"02-2686-6420","addr":"경기도 광명시 광명동 38-12번지","indutype":"유통업 영리 - 슈퍼마켓","category":"mart"}]},{"lat":"37.47626379","long":"126.8597579","imageIndex":7,"items":[{"name":"태안슈퍼","tel":"02-2613-3203","addr":"경기도 광명시 광명동 158-286번지 송림빌리지 지층 B02호","indutype":"유통업 영리 - 슈퍼마켓","category":"mart"}]},{"lat":"37.47453972","long":"126.8571723","imageIndex":7,"items":[{"name":"펠리스마트","tel":"02-2611-8766","addr":"경기도 광명시 광명동 782번지 팰리스필2차 103동 101호","indutype":"유통업 영리 - 슈퍼마켓","category":"mart"}]},{"lat":"37.47379158","long":"126.8497917","imageIndex":7,"items":[{"name":"하모니마트 광명해모로점","tel":"02-2060-9961","addr":"경기도 광명시 광명동 348-38번지 1층 일부","indutype":"유통업 영리 - 슈퍼마켓","category":"mart"}]},{"lat":"37.48187907","long":"126.8541507","imageIndex":7,"items":[{"name":"한아름슈퍼","tel":"02-2617-4448","addr":"경기도 광명시 광명동 145-1번지","indutype":"유통업 영리 - 슈퍼마켓","category":"mart"}]},{"lat":"37.4814044","long":"126.8564354","imageIndex":7,"items":[{"name":"해천한중슈퍼","tel":"070-7614-3579","addr":"경기도 광명시 광명동 105-9번지","indutype":"유통업 영리 - 슈퍼마켓","category":"mart"}]},{"lat":"37.47634967","long":"126.8563209","imageIndex":7,"items":[{"name":"행운슈퍼마트","tel":"02-2616-8331","addr":"경기도 광명시 광명동 158-692번지","indutype":"유통업 영리 - 슈퍼마켓","category":"mart"}]}]