[{"lat":"37.302933019","long":"127.46932174","imageIndex":0,"items":[{"name":"경도자동차공업사","tel":"031-634-5178","addr":"경기도 이천시 백사면 모전리 540","indutype":"자동차정비 유지 - 자동차정비","category":"car"}]},{"lat":"37.303048951","long":"127.47190538","imageIndex":0,"items":[{"name":"랑ENG","tel":"031-637-6645","addr":"경기도 이천시 백사면 모전리 512-3번지","indutype":"자동차판매 - 기타운송","category":"car"}]},{"lat":"37.302215742","long":"127.47298299","imageIndex":0,"items":[{"name":"빌드어카(Build a Car)","tel":"","addr":"경기도 이천시 백사면 모전리 585-3번지 1층","indutype":"자동차정비 유지 - 자동차부품","category":"car"}]},{"lat":"37.305851576","long":"127.47178743","imageIndex":0,"items":[{"name":"세븐광택","tel":"031-633-6147","addr":"경기도 이천시 백사면 모전리 520-30번지 풍경마을 103동 401호","indutype":"자동차정비 유지 - 카인테리어","category":"car"}]},{"lat":"37.301826998","long":"127.46646133","imageIndex":0,"items":[{"name":"세진공업사","tel":"031-638-9560","addr":"경기도 이천시 백사면 모전리 752-1번지","indutype":"자동차정비 유지 - 자동차정비","category":"car"},{"name":"세진공업사","tel":"031-638-9560","addr":"경기도 이천시 백사면 모전리 752-1번지","indutype":"자동차정비 유지 - 자동차정비","category":"car"},{"name":"세진공업사","tel":"031-638-9560","addr":"경기도 이천시 백사면 모전리 752-1번지","indutype":"자동차정비 유지 - 자동차정비","category":"car"},{"name":"세진오토월드","tel":"031-638-9560","addr":"경기도 이천시 백사면 모전리 752-1번지","indutype":"자동차정비 유지 - 자동차정비","category":"car"}]},{"lat":"37.319464224","long":"127.46993154","imageIndex":0,"items":[{"name":"엠디오토 이천점","tel":"031-635-2235","addr":"경기도 이천시 백사면 모전리 2-17번지 102동 801호","indutype":"자동차정비 유지 - 세차장","category":"car"}]},{"lat":"37.302134528","long":"127.46615869","imageIndex":0,"items":[{"name":"유진광택","tel":"031-638-4884","addr":"경기도 이천시 백사면 모전리 746-6번지","indutype":"자동차정비 유지 - 카인테리어","category":"car"}]}]