[{"lat":"37.301005682","long":"126.86504209","imageIndex":16,"items":[{"name":"(주)힐링안산캠프","tel":"070-8829-3382","addr":"경기도 안산시 상록구 본오동 873-9번지 덕암빌딩 501호일부 502호","indutype":"학원 - 기능학원","category":"study"}]},{"lat":"37.2883999099","long":"126.8646591150","imageIndex":16,"items":[{"name":"21세기미래보습학원","tel":"031-409-9999","addr":"경기도 안산시 상록구 본오동 667-1번지","indutype":"교육서비스업 - 보습학원,서점","category":"study"}]},{"lat":"37.28839991","long":"126.86465911","imageIndex":16,"items":[{"name":"21세기미래보습학원","tel":"031-409-9999","addr":"경기도 안산시 상록구 본오동 667-1번지","indutype":"학원 - 기타 교육기관","category":"study"}]},{"lat":"37.288093647","long":"126.85721685","imageIndex":16,"items":[{"name":"BML봉수학","tel":"031-509-5119","addr":"경기도 안산시 상록구 본오동 939-15번지 301호","indutype":"회원제형태 - 학원","category":"study"}]},{"lat":"37.291679026","long":"126.86413435","imageIndex":16,"items":[{"name":"D.S 개인과외","tel":"","addr":"경기도 안산시 상록구 본오동 906-1번지","indutype":"학원 - 기타 교육기관","category":"study"},{"name":"에스엠음악교습소","tel":"031-409-9450","addr":"경기도 안산시 상록구 본오동 906-1번지 102호 101호, 102호","indutype":"학원 - 예·체능계학원","category":"study"}]},{"lat":"37.29106495","long":"126.86296262","imageIndex":16,"items":[{"name":"IBP잉글리쉬PAL본원영어교습소","tel":"070-4126-0509","addr":"경기도 안산시 상록구 본오동 904-16번지 103호","indutype":"회원제형태 - 학원","category":"study"},{"name":"다원태권도","tel":"031-406-8080","addr":"경기도 안산시 상록구 본오동 904-16번지 202호","indutype":"학원 - 예·체능계학원","category":"study"},{"name":"크리아트창의미술학원","tel":"","addr":"경기도 안산시 상록구 본오동 904-16번지 202호","indutype":"학원 - 예·체능계학원","category":"study"}]},{"lat":"37.291871071","long":"126.86656995","imageIndex":16,"items":[{"name":"SR실용음악학원","tel":"031-506-3885","addr":"경기도 안산시 상록구 본오동 860-15번지 2층","indutype":"학원 - 예·체능계학원","category":"study"}]},{"lat":"37.295285311","long":"126.87404116","imageIndex":16,"items":[{"name":"THE BEST CLASS헤윰","tel":"070-8632-5652","addr":"경기도 안산시 상록구 본오동 766-6번지 크라운캐슬","indutype":"회원제형태 - 학원","category":"study"}]},{"lat":"37.301118597","long":"126.86146646","imageIndex":16,"items":[{"name":"가석서예한자학원","tel":"031-408-9095","addr":"경기도 안산시 상록구 본오동 878-10번지 우석빌딩 4층 405호","indutype":"학원 - 예·체능계학원","category":"study"}]},{"lat":"37.290396059","long":"126.86890702","imageIndex":16,"items":[{"name":"각골어린이집[아이행복]","tel":"031-419-3390","addr":"경기도 안산시 상록구 본오동 850-6번지","indutype":"학원 - 유아원","category":"study"}]},{"lat":"37.29273463","long":"126.87332373","imageIndex":16,"items":[{"name":"각골초등학교","tel":"031-502-1744","addr":"경기도 안산시 상록구 본오동 728-6번지 각골초등학교","indutype":"학원 - 초중고교육기관","category":"study"},{"name":"각골초등학교_수업료","tel":"031-502-1744","addr":"경기도 안산시 상록구 본오동 728-6번지 각골초등학교","indutype":"학원 - 초중고교육기관","category":"study"}]},{"lat":"37.293284006","long":"126.87309724","imageIndex":16,"items":[{"name":"각골태권도장","tel":"031-415-9770","addr":"경기도 안산시 상록구 본오동 777-16번지","indutype":"학원 - 예·체능계학원","category":"study"},{"name":"은성어린이집[아이행복]","tel":"031-437-5255","addr":"경기도 안산시 상록구 본오동 777-16번지","indutype":"학원 - 유아원","category":"study"}]},{"lat":"37.291233862","long":"126.86104514","imageIndex":16,"items":[{"name":"갈릴리어린이집[아이행복]","tel":"031-409-2646","addr":"경기도 안산시 상록구 본오동 899-8번지","indutype":"학원 - 유아원","category":"study"}]},{"lat":"37.2857635691","long":"126.8601532751","imageIndex":16,"items":[{"name":"강''s 공부방","tel":"070-7869-7502","addr":"경기도 안산시 상록구 본오동 957-2번지","indutype":"교육서비스업 - 학원강사,과외교습자","category":"study"}]},{"lat":"37.293958006","long":"126.87149462","imageIndex":16,"items":[{"name":"강남고시원","tel":"031-418-4778","addr":"경기도 안산시 상록구 본오동 781-3번지 2층","indutype":"학원 - 기타 교육기관","category":"study"}]},{"lat":"37.285208194","long":"126.86288325","imageIndex":16,"items":[{"name":"개인과외","tel":"031-419-1554","addr":"경기도 안산시 상록구 본오동 989-1번지","indutype":"회원제형태 - 학원","category":"study"},{"name":"다온교육","tel":"","addr":"경기도 안산시 상록구 본오동 989-1번지","indutype":"학원 - 기타 교육기관","category":"study"}]},{"lat":"37.28765466","long":"126.86690459","imageIndex":16,"items":[{"name":"개인과외","tel":"031-402-5044","addr":"경기도 안산시 상록구 본오동 716번지 주현아트빌 A동 302호","indutype":"회원제형태 - 학원","category":"study"}]},{"lat":"37.287624935","long":"126.85707116","imageIndex":16,"items":[{"name":"개인과외","tel":"031-411-7042","addr":"경기도 안산시 상록구 본오동 959-1번지 동산아트빌 402호","indutype":"학원 - 기타 교육기관","category":"study"}]},{"lat":"37.295673619","long":"126.8667661","imageIndex":16,"items":[{"name":"거성정보처리컴퓨터학원","tel":"031-502-0500","addr":"경기도 안산시 상록구 본오동 819번지 3층","indutype":"회원제형태 - 학원","category":"study"},{"name":"상록수바둑학원","tel":"031-409-9922","addr":"경기도 안산시 상록구 본오동 819번지 2층 일부","indutype":"학원 - 예·체능계학원","category":"study"}]},{"lat":"37.293202492","long":"126.86476311","imageIndex":16,"items":[{"name":"경희대고려태권도","tel":"031-409-0162","addr":"경기도 안산시 상록구 본오동 862번지 2층","indutype":"학원 - 예·체능계학원","category":"study"}]},{"lat":"37.294430117","long":"126.86668939","imageIndex":16,"items":[{"name":"고려대최강태권도","tel":"031-408-9913","addr":"경기도 안산시 상록구 본오동 822-12번지","indutype":"학원 - 예·체능계학원","category":"study"}]},{"lat":"37.295124668","long":"126.86735354","imageIndex":16,"items":[{"name":"구름빵어린이집[아이행복]","tel":"031-406-0115","addr":"경기도 안산시 상록구 본오동 819-10번지 1층","indutype":"학원 - 유아원","category":"study"},{"name":"아이티컴퓨터학원","tel":"031-407-7105","addr":"경기도 안산시 상록구 본오동 819-10번지 2층","indutype":"회원제형태 - 학원","category":"study"}]},{"lat":"37.283481515","long":"126.85812785","imageIndex":16,"items":[{"name":"굿맘사랑어린이집[아이행복]","tel":"031-407-1228","addr":"경기도 안산시 상록구 본오동 975-7번지","indutype":"학원 - 유아원","category":"study"}]},{"lat":"37.290090225","long":"126.86159987","imageIndex":16,"items":[{"name":"귀염둥이어린이집[아이행복]","tel":"031-417-5759","addr":"경기도 안산시 상록구 본오동 930-2번지","indutype":"학원 - 유아원","category":"study"}]},{"lat":"37.298679158","long":"126.8634335","imageIndex":16,"items":[{"name":"그림숲미술학원","tel":"031-417-7177","addr":"경기도 안산시 상록구 본오동 872-11번지 대승프라자 203호","indutype":"학원 - 예·체능계학원","category":"study"},{"name":"엠베스트이상록수캠퍼스학원","tel":"031-407-2311","addr":"경기도 안산시 상록구 본오동 872-11번지 대승프라자 201호","indutype":"학원 - 보습학원","category":"study"}]},{"lat":"37.29409113","long":"126.86967865","imageIndex":16,"items":[{"name":"기백용인대태권도장","tel":"031-502-5754","addr":"경기도 안산시 상록구 본오동 789-7번지 1층","indutype":"학원 - 예·체능계학원","category":"study"}]},{"lat":"37.295010528","long":"126.86999281","imageIndex":16,"items":[{"name":"기초탄탄보습학원","tel":"031-502-9920","addr":"경기도 안산시 상록구 본오동 790-18번지 201호","indutype":"학원 - 기타 교육기관","category":"study"},{"name":"수미술학원","tel":"031-418-9710","addr":"경기도 안산시 상록구 본오동 790-18번지 102호","indutype":"학원 - 예·체능계학원","category":"study"},{"name":"와이비엠잉글루본오제1보습지점","tel":"031-407-0296","addr":"경기도 안산시 상록구 본오동 790-18번지 202호","indutype":"회원제형태 - 학원","category":"study"},{"name":"판다푼다영어수학국어학원","tel":"031-416-0933","addr":"경기도 안산시 상록구 본오동 790-18번지 101호","indutype":"학원 - 보습학원","category":"study"}]},{"lat":"37.2997874808","long":"126.8634878465","imageIndex":16,"items":[{"name":"기타앤보컬실용음악학원","tel":"","addr":"경기도 안산시 상록구 본오동 872-6번지","indutype":"교육서비스업 - 음악학원","category":"study"}]},{"lat":"37.299787481","long":"126.86348785","imageIndex":16,"items":[{"name":"기타앤보컬실용음악학원","tel":"031-409-1331","addr":"경기도 안산시 상록구 본오동 872-6번지 안산석천빌딩 202호","indutype":"회원제형태 - 학원","category":"study"}]},{"lat":"37.297617803","long":"126.86501444","imageIndex":16,"items":[{"name":"김선미수학교습소","tel":"031-419-8409","addr":"경기도 안산시 상록구 본오동 872-20우성상가2층208-1호","indutype":"학원 - 보습학원","category":"study"},{"name":"상록삼성영어교습소","tel":"031-502-0910","addr":"경기도 안산시 상록구 본오동 872-20번지 2층 208호-2","indutype":"학원 - 외국어학원","category":"study"},{"name":"신나는홍익미술교습소","tel":"031-407-2963","addr":"경기도 안산시 상록구 본오동 872-20번지 우성아파트 207호","indutype":"학원 - 예·체능계학원","category":"study"},{"name":"월피삼성영어수학전문학원","tel":"031-502-0910","addr":"경기도 안산시 상록구 본오동 872-20 우성상가208호","indutype":"회원제형태 - 학원","category":"study"},{"name":"육영웅변스피치보습아카데미학원","tel":"031-417-6512","addr":"경기도 안산시 상록구 본오동 872-20번지 우성 상가 209호","indutype":"학원 - 보습학원","category":"study"},{"name":"허샘독서논술교습소","tel":"031-417-3379","addr":"경기도 안산시 상록구 본오동 872-20 208-1호","indutype":"회원제형태 - 학원","category":"study"}]},{"lat":"37.291924625","long":"126.86613003","imageIndex":16,"items":[{"name":"김진선영어교습소","tel":"031-406-3373","addr":"경기도 안산시 상록구 본오동 864-6번지 401호","indutype":"학원 - 보습학원","category":"study"},{"name":"유하정학원","tel":"031-407-1142","addr":"경기도 안산시 상록구 본오동 864-6번지 301호","indutype":"학원 - 보습학원","category":"study"},{"name":"창조태권도","tel":"031-501-4588","addr":"경기도 안산시 상록구 본오동 864-6번지","indutype":"학원 - 예·체능계학원","category":"study"}]},{"lat":"37.289398736","long":"126.86354085","imageIndex":16,"items":[{"name":"꼬마오케스트라","tel":"","addr":"경기도 안산시 상록구 본오동 923-10번지","indutype":"학원 - 기타 교육기관","category":"study"},{"name":"꼬마오케스트라","tel":"031-409-8953","addr":"경기도 안산시 상록구 본오동 923-10번지","indutype":"학원 - 기타 교육기관","category":"study"},{"name":"꼬마오케스트라","tel":"031-409-8953","addr":"경기도 안산시 상록구 본오동 923-10번지","indutype":"학원 - 기타 교육기관","category":"study"}]},{"lat":"37.295036682","long":"126.86921458","imageIndex":16,"items":[{"name":"꿈마루어린이집[아이행복]","tel":"031-408-0803","addr":"경기도 안산시 상록구 본오동 820-15번지 1층","indutype":"학원 - 유아원","category":"study"},{"name":"아이러브피아노교습소","tel":"031-418-7270","addr":"경기도 안산시 상록구 본오동 820-15번지 지층 101호","indutype":"학원 - 예·체능계학원","category":"study"}]},{"lat":"37.289541527","long":"126.86237903","imageIndex":16,"items":[{"name":"꿈을주는어린이집[아이행복]","tel":"031-408-0778","addr":"경기도 안산시 상록구 본오동 925-1번지","indutype":"학원 - 유아원","category":"study"}]},{"lat":"37.291260501","long":"126.86071804","imageIndex":16,"items":[{"name":"꿈의숲어린이집[아이행복]","tel":"031-406-9964","addr":"경기도 안산시 상록구 본오동 899-10번지 1층 101호","indutype":"학원 - 유아원","category":"study"}]},{"lat":"37.29473179","long":"126.86268516","imageIndex":16,"items":[{"name":"꿈자람독서실","tel":"031-418-3390","addr":"경기도 안산시 상록구 본오동 880-10번지 정주빌딩 201호","indutype":"학원 - 독서실","category":"study"},{"name":"해법영어교습소","tel":"031-409-8543","addr":"경기도 안산시 상록구 본오동 880-10번지 정주빌딩 202호","indutype":"회원제형태 - 학원","category":"study"}]},{"lat":"37.2959579","long":"126.86329191","imageIndex":16,"items":[{"name":"나온솔하나태권도장","tel":"031-409-3200","addr":"경기도 안산시 상록구 본오동 871-4번지 청록빌딩 201호 202호","indutype":"학원 - 예·체능계학원","category":"study"},{"name":"라뮤지카음악학원","tel":"031-407-2069","addr":"경기도 안산시 상록구 본오동 871-4번지 청록빌딩 203호","indutype":"학원 - 예·체능계학원","category":"study"},{"name":"본오파란입시학원","tel":"031-408-1800","addr":"경기도 안산시 상록구 본오동 871-4번지 청록빌딩 204호","indutype":"학원 - 보습학원","category":"study"}]},{"lat":"37.2959579000","long":"126.8632919060","imageIndex":16,"items":[{"name":"나온솔하나태권도장","tel":"","addr":"경기도 안산시 상록구 본오동 871-4번지","indutype":"교육서비스업 - 태권도학원","category":"study"}]},{"lat":"37.291539063","long":"126.86776597","imageIndex":16,"items":[{"name":"날개수학교습소","tel":"031-408-2213","addr":"경기도 안산시 상록구 본오동 855-7번지 103호 상가전면","indutype":"회원제형태 - 학원","category":"study"}]},{"lat":"37.29776005","long":"126.8633788","imageIndex":16,"items":[{"name":"노벨탑학원","tel":"031-407-5687","addr":"경기도 안산시 상록구 본오동 872-15번지 화정빌딩 202호","indutype":"학원 - 기타 교육기관","category":"study"}]},{"lat":"37.2977600497","long":"126.8633788034","imageIndex":16,"items":[{"name":"노벨탑학원","tel":"031-407-5678","addr":"경기도 안산시 상록구 본오동 872-15번지","indutype":"교육서비스업 - 보습학원","category":"study"}]},{"lat":"37.300978073","long":"126.86454587","imageIndex":16,"items":[{"name":"노블하우스","tel":"070-4215-6954","addr":"경기도 안산시 상록구 본오동 873-10번지 해동빌딩 5층","indutype":"학원 - 독서실","category":"study"}]},{"lat":"37.297789858","long":"126.8737662","imageIndex":16,"items":[{"name":"뉴강남음악학원","tel":"031-501-7793","addr":"경기도 안산시 상록구 본오동 756-8번지 1층","indutype":"학원 - 예·체능계학원","category":"study"}]},{"lat":"37.2849252227","long":"126.8598278391","imageIndex":16,"items":[{"name":"뉴연세음악학원","tel":"031-418-4654","addr":"경기도 안산시 상록구 본오동 983번지","indutype":"교육서비스업 - 음악학원","category":"study"}]},{"lat":"37.284925223","long":"126.85982784","imageIndex":16,"items":[{"name":"뉴연세음악학원","tel":"031-418-4654","addr":"경기도 안산시 상록구 본오동 983번지 뉴연세음학학원 101호","indutype":"학원 - 예·체능계학원","category":"study"}]},{"lat":"37.296203331","long":"126.8731035","imageIndex":16,"items":[{"name":"뉴줄리아드음악학원","tel":"031-406-8999","addr":"경기도 안산시 상록구 본오동 762-1번지","indutype":"학원 - 예·체능계학원","category":"study"}]},{"lat":"37.30186982","long":"126.86431865","imageIndex":16,"items":[{"name":"뉴홈고시텔","tel":"031-471-2113","addr":"경기도 안산시 상록구 본오동 874-12번지 신영빌딩 403,402","indutype":"학원 - 독서실","category":"study"}]},{"lat":"37.287453638","long":"126.86449169","imageIndex":16,"items":[{"name":"늘솔어린이집[아이행복]","tel":"031-408-7006","addr":"경기도 안산시 상록구 본오동 670-6번지","indutype":"학원 - 유아원","category":"study"},{"name":"샛별ABC어린이집[아이행복]","tel":"031-408-7006","addr":"경기도 안산시 상록구 본오동 670-6번지","indutype":"학원 - 유아원","category":"study"}]},{"lat":"37.288708286","long":"126.8664065","imageIndex":16,"items":[{"name":"다빈치어학원","tel":"031-501-7905","addr":"경기도 안산시 상록구 본오동 720-8번지 2층","indutype":"학원 - 외국어학원","category":"study"}]},{"lat":"37.297505124","long":"126.86115743","imageIndex":16,"items":[{"name":"다샘유치원[아이행복]","tel":"031-406-9800","addr":"경기도 안산시 상록구 본오동 879-16","indutype":"학원 - 유치원","category":"study"}]},{"lat":"37.295040814","long":"126.86496275","imageIndex":16,"items":[{"name":"대성제넥스학원","tel":"031-406-4210","addr":"경기도 안산시 상록구 본오동 871신안프라자314,315","indutype":"회원제형태 - 학원","category":"study"},{"name":"롱앤민보컬전문아카데미학원","tel":"031-409-7500","addr":"경기도 안산시 상록구 본오동 871번지 신안프라자 126동 302호","indutype":"학원 - 예·체능계학원","category":"study"},{"name":"신안유치원","tel":"031-407-6100","addr":"경기도 안산시 상록구 본오동 871","indutype":"학원 - 유치원","category":"study"},{"name":"신예원음악교습소","tel":"031-408-5141","addr":"경기도 안산시 상록구 본오동 871번지 신안코아 301호","indutype":"학원 - 예·체능계학원","category":"study"},{"name":"초이스댄스아카데미학원","tel":"031-409-9621","addr":"경기도 안산시 상록구 본오동 871번지 신안프라자 303호","indutype":"학원 - 예·체능계학원","category":"study"}]},{"lat":"37.296755324","long":"126.86718144","imageIndex":16,"items":[{"name":"대영보습학원","tel":"031-502-7905","addr":"경기도 안산시 상록구 본오동 813-10번지 2층","indutype":"학원 - 보습학원","category":"study"}]},{"lat":"37.289373681","long":"126.85768803","imageIndex":16,"items":[{"name":"대치우리학원","tel":"070-7495-7855","addr":"경기도 안산시 상록구 본오동 934-20번지 2층","indutype":"학원 - 보습학원","category":"study"}]},{"lat":"37.289762872","long":"126.86674291","imageIndex":16,"items":[{"name":"동방어린이집[아이행복]","tel":"031-406-2535","addr":"경기도 안산시 상록구 본오동 722-5번지","indutype":"학원 - 유아원","category":"study"}]},{"lat":"37.289008228","long":"126.8609591","imageIndex":16,"items":[{"name":"동화나라어린이집[아이행복]","tel":"031-505-4544","addr":"경기도 안산시 상록구 본오동 927-3번지 102호","indutype":"학원 - 유아원","category":"study"}]},{"lat":"37.28601134","long":"126.8639305","imageIndex":16,"items":[{"name":"두란노총회신학연구원","tel":"031-408-8591","addr":"경기도 안산시 상록구 본오동 678번지 3층","indutype":"회원제형태 - 학원","category":"study"}]},{"lat":"37.294429315","long":"126.87402006","imageIndex":16,"items":[{"name":"드림해법영어교습소","tel":"031-408-0582","addr":"경기도 안산시 상록구 본오동 770-8번지 103호","indutype":"회원제형태 - 학원","category":"study"}]},{"lat":"37.293229273","long":"126.86454878","imageIndex":16,"items":[{"name":"디앤제이댄스아카데미학원","tel":"031-509-1008","addr":"경기도 안산시 상록구 본오동 870-10번지 301호","indutype":"학원 - 예·체능계학원","category":"study"},{"name":"레인실용음악학원","tel":"031-503-6190","addr":"경기도 안산시 상록구 본오동 870-10번지 4층","indutype":"회원제형태 - 학원","category":"study"}]},{"lat":"37.292398036","long":"126.86259927","imageIndex":16,"items":[{"name":"디즈니수학교습소","tel":"031-501-3753","addr":"경기도 안산시 상록구 본오동 885-3번지","indutype":"학원 - 보습학원","category":"study"},{"name":"디즈니학원","tel":"031-501-3753","addr":"경기도 안산시 상록구 본오동 885-3번지 2층","indutype":"학원 - 기타 교육기관","category":"study"}]},{"lat":"37.290869199","long":"126.86507186","imageIndex":16,"items":[{"name":"따사로미어린이집[아이행복]","tel":"031-502-1789","addr":"경기도 안산시 상록구 본오동 910-1번지 이화빌라","indutype":"학원 - 유아원","category":"study"},{"name":"따사로미어린이집[아이행복]","tel":"031-502-1789","addr":"경기도 안산시 상록구 본오동 910-1번지 이화빌라 102호","indutype":"학원 - 유아원","category":"study"}]},{"lat":"37.2938748848","long":"126.8696790270","imageIndex":16,"items":[{"name":"라온음악학원","tel":"031-502-5755","addr":"경기도 안산시 상록구 본오동 784번지","indutype":"교육서비스업 - 예체능계 학원","category":"study"}]},{"lat":"37.293874885","long":"126.86967903","imageIndex":16,"items":[{"name":"라온음악학원","tel":"031-502-5755","addr":"경기도 안산시 상록구 본오동 784번지 102동 104호","indutype":"학원 - 예·체능계학원","category":"study"}]},{"lat":"37.290319903","long":"126.8653548","imageIndex":16,"items":[{"name":"랑음악학원","tel":"031-419-9890","addr":"경기도 안산시 상록구 본오동 913-14번지 1층","indutype":"학원 - 예·체능계학원","category":"study"},{"name":"손문영어수학학원","tel":"031-407-8105","addr":"경기도 안산시 상록구 본오동 913-14번지 1층","indutype":"학원 - 보습학원","category":"study"}]},{"lat":"37.2932292729","long":"126.8645487800","imageIndex":16,"items":[{"name":"레인실용음악학원","tel":"031-503-6190","addr":"경기도 안산시 상록구 본오동 870-10번지","indutype":"교육서비스업 - 음악학원","category":"study"}]},{"lat":"37.2950408144","long":"126.8649627505","imageIndex":16,"items":[{"name":"롱앤민보컬전문아카데미학원","tel":"031-409-7500","addr":"경기도 안산시 상록구 본오동 871번지 신안1차아파트","indutype":"교육서비스업 - 음악학원","category":"study"},{"name":"에이블학원","tel":"031-417-2292","addr":"경기도 안산시 상록구 본오동 871번지","indutype":"교육서비스업 - 보육학원","category":"study"},{"name":"예원음악교습소","tel":"031-408-4151","addr":"경기도 안산시 상록구 본오동 871번지","indutype":"교육서비스업 - 음악학원","category":"study"}]},{"lat":"37.295759675","long":"126.86329227","imageIndex":16,"items":[{"name":"리더스학원","tel":"","addr":"경기도 안산시 상록구 본오동 871-5번지 우남빌딩 204호","indutype":"학원 - 보습학원","category":"study"}]},{"lat":"37.295291117","long":"126.86327058","imageIndex":16,"items":[{"name":"리더스학원","tel":"031-415-8887","addr":"경기도 안산시 상록구 본오동 871-7번지 202호","indutype":"학원 - 보습학원","category":"study"},{"name":"리사영어학원","tel":"031-501-8460","addr":"경기도 안산시 상록구 본오동 871-7번지 2층 201호","indutype":"학원 - 외국어학원","category":"study"}]},{"lat":"37.295755442","long":"126.87551779","imageIndex":16,"items":[{"name":"리틀창조어린이집[아이행복]","tel":"070-8113-6138","addr":"경기도 안산시 상록구 본오동 763-9번지 102호","indutype":"학원 - 유아원","category":"study"}]},{"lat":"37.291617441","long":"126.86540882","imageIndex":16,"items":[{"name":"리틀펀어린이집[아이행복]","tel":"031-501-5897","addr":"경기도 안산시 상록구 본오동 912번지","indutype":"학원 - 유아원","category":"study"}]},{"lat":"37.2863145072","long":"126.8612460780","imageIndex":16,"items":[{"name":"리틀피아니스트 음악학원","tel":"031-437-5456","addr":"경기도 안산시 상록구 본오동 955-15번지","indutype":"교육서비스업 - 예체능계 학원","category":"study"}]},{"lat":"37.286314507","long":"126.86124608","imageIndex":16,"items":[{"name":"리틀피아니스트학원","tel":"031-437-5456","addr":"경기도 안산시 상록구 본오동 955-15번지 1층","indutype":"학원 - 예·체능계학원","category":"study"}]},{"lat":"37.282896057","long":"126.85829811","imageIndex":16,"items":[{"name":"맑은수정어린이집[아이행복]","tel":"031-418-5851","addr":"경기도 안산시 상록구 본오동 978-8번지","indutype":"학원 - 유아원","category":"study"}]},{"lat":"37.295092852","long":"126.86323711","imageIndex":16,"items":[{"name":"매듭아트","tel":"031-417-0456","addr":"경기도 안산시 상록구 본오동 871-8 대신빌딩 301 15/1","indutype":"회원제형태 - 학원","category":"study"},{"name":"사단법인매듭문화협회","tel":"031-417-0456","addr":"경기도 안산시 상록구 본오동 871-8번지 대신빌딩 301호","indutype":"회원제형태 - 학원","category":"study"}]},{"lat":"37.295123995","long":"126.86676709","imageIndex":16,"items":[{"name":"매쓰크리닉전문수학교습소","tel":"031-504-4668","addr":"경기도 안산시 상록구 본오동 819-14번지 4층","indutype":"학원 - 보습학원","category":"study"},{"name":"스터디플러스영수학원","tel":"031-406-7542","addr":"경기도 안산시 상록구 본오동 819-14번지 4층","indutype":"회원제형태 - 학원","category":"study"},{"name":"열공독서실","tel":"031-504-4668","addr":"경기도 안산시 상록구 본오동 819-14번지 4층","indutype":"학원 - 독서실","category":"study"},{"name":"푸른바다음악학원","tel":"031-407-3070","addr":"경기도 안산시 상록구 본오동 819-14번지 2층","indutype":"학원 - 예·체능계학원","category":"study"},{"name":"푸른바다음악학원","tel":"031-407-3070","addr":"경기도 안산시 상록구 본오동 819-14번지 2층 201호","indutype":"학원 - 예·체능계학원","category":"study"}]},{"lat":"37.294790552","long":"126.8667113","imageIndex":16,"items":[{"name":"명성수학교습소","tel":"031-406-8986","addr":"경기도 안산시 상록구 본오동 822번지 201호","indutype":"학원 - 보습학원","category":"study"}]},{"lat":"37.297565868","long":"126.86685291","imageIndex":16,"items":[{"name":"모던실용음악학원","tel":"031-437-7705","addr":"경기도 안산시 상록구 본오동 813-18번지 2층","indutype":"학원 - 예·체능계학원","category":"study"},{"name":"비욘드영어전문안산상록캠퍼스학원","tel":"031-418-0594","addr":"경기도 안산시 상록구 본오동 813-18번지 4층","indutype":"학원 - 보습학원","category":"study"}]},{"lat":"37.285728437","long":"126.86090888","imageIndex":16,"items":[{"name":"뮤엠이호점영어교습소","tel":"031-407-0502","addr":"경기도 안산시 상록구 본오동 957-7번지 1층 101호","indutype":"학원 - 보습학원","category":"study"},{"name":"일대오학원","tel":"031-502-7966","addr":"경기도 안산시 상록구 본오동 957-7번지 102호","indutype":"학원 - 보습학원","category":"study"}]},{"lat":"37.2990936678","long":"126.8634665696","imageIndex":16,"items":[{"name":"미라벨음악학원","tel":"031-409-1250","addr":"경기도 안산시 상록구 본오동 872-9번지","indutype":"교육서비스업 - 예체능계 학원","category":"study"}]},{"lat":"37.299093668","long":"126.86346657","imageIndex":16,"items":[{"name":"미라벨음악학원","tel":"031-409-1250","addr":"경기도 안산시 상록구 본오동 872-9번지 융창빌딩 201호","indutype":"학원 - 예·체능계학원","category":"study"}]},{"lat":"37.301119095","long":"126.86188378","imageIndex":16,"items":[{"name":"미래비전평생교육원","tel":"031-401-3896","addr":"경기도 안산시 상록구 본오동 878-9번지 206호","indutype":"회원제형태 - 학원","category":"study"}]},{"lat":"37.286620606","long":"126.86876712","imageIndex":16,"items":[{"name":"바른어린이집[아이행복]","tel":"031-418-5233","addr":"경기도 안산시 상록구 본오동 714-7번지","indutype":"학원 - 유아원","category":"study"}]},{"lat":"37.293263578","long":"126.86307133","imageIndex":16,"items":[{"name":"박경호언어심리치료실","tel":"031-419-8640","addr":"경기도 안산시 상록구 본오동 870번지201호","indutype":"학원 - 기타 교육기관","category":"study"}]},{"lat":"37.297705336","long":"126.86282626","imageIndex":16,"items":[{"name":"박상주정보처리학원","tel":"031-406-7353","addr":"경기도 안산시 상록구 본오동 879-10번지 초원빌딩 2층","indutype":"회원제형태 - 학원","category":"study"}]},{"lat":"37.2961464615","long":"126.8627389256","imageIndex":16,"items":[{"name":"박상주정보처리학원","tel":"031-406-7353","addr":"경기도 안산시 상록구 본오동 880-3번지","indutype":"교육서비스업 - 평생직업교육학원, 정","category":"study"}]},{"lat":"37.287590952","long":"126.86635213","imageIndex":16,"items":[{"name":"반월제2체육관","tel":"031-409-6855","addr":"경기도 안산시 상록구 본오동 719-11번지 신협 2층 신반월체육관","indutype":"학원 - 예·체능계학원","category":"study"}]},{"lat":"37.2996468778","long":"126.8665446411","imageIndex":16,"items":[{"name":"베스트홍익미술학원","tel":"","addr":"경기도 안산시 상록구 본오동 872-23번지","indutype":"교육서비스업 - 미술학원","category":"study"},{"name":"오카리나숲 음악학원","tel":"031-419-0703","addr":"경기도 안산시 상록구 본오동 872-23번지","indutype":"교육서비스업 - 음악학원","category":"study"}]},{"lat":"37.28687333","long":"126.86140291","imageIndex":16,"items":[{"name":"본오동 팝콘미술학원","tel":"031-419-9092","addr":"경기도 안산시 상록구 본오동 956-1번지 2층","indutype":"학원 - 예·체능계학원","category":"study"},{"name":"최강영수학원","tel":"031-520-5924","addr":"경기도 안산시 상록구 본오동 956-1번지 2층","indutype":"학원 - 보습학원","category":"study"}]},{"lat":"37.293368486","long":"126.86037574","imageIndex":16,"items":[{"name":"본오세종태권도","tel":"031-415-3374","addr":"경기도 안산시 상록구 본오동 889-3번지 3층","indutype":"학원 - 예·체능계학원","category":"study"}]},{"lat":"37.292006224","long":"126.86656971","imageIndex":16,"items":[{"name":"본오세종학원","tel":"031-438-7733","addr":"경기도 안산시 상록구 본오동 860번지 2층","indutype":"학원 - 보습학원","category":"study"}]},{"lat":"37.291704716","long":"126.86299527","imageIndex":16,"items":[{"name":"본오스피킹클럽학원","tel":"031-502-4599","addr":"경기도 안산시 상록구 본오동 903번지 2층","indutype":"회원제형태 - 학원","category":"study"},{"name":"예본음악학원","tel":"031-409-4599","addr":"경기도 안산시 상록구 본오동 903번지 3층","indutype":"학원 - 예·체능계학원","category":"study"}]},{"lat":"37.295898913","long":"126.86679953","imageIndex":16,"items":[{"name":"본오씨앤씨(C&C)미술학원","tel":"031-415-1599","addr":"경기도 안산시 상록구 본오동 814-16번지 외1필지,402호","indutype":"학원 - 예·체능계학원","category":"study"}]},{"lat":"37.289759159","long":"126.86355146","imageIndex":16,"items":[{"name":"본오유치원[아이행복]","tel":"031-408-7922","addr":"경기도 안산시 상록구 본오동 923-5번지","indutype":"학원 - 유치원","category":"study"}]},{"lat":"37.287395492","long":"126.86104107","imageIndex":16,"items":[{"name":"본오종합사회복지관","tel":"070-5011-7133","addr":"경기도 안산시 상록구 본오동 523-1번지","indutype":"학원 - 기타 교육기관","category":"study"}]},{"lat":"37.29267372","long":"126.86721133","imageIndex":16,"items":[{"name":"본오중학교","tel":"031-400-8606","addr":"경기도 안산시 상록구 본오동 861번지","indutype":"학원 - 초중고교육기관","category":"study"}]},{"lat":"37.294450354","long":"126.86862916","imageIndex":16,"items":[{"name":"본오초등학교","tel":"031-487-5570","addr":"경기도 안산시 상록구 본오동 821번지","indutype":"학원 - 초중고교육기관","category":"study"}]},{"lat":"37.292680975","long":"126.86568883","imageIndex":16,"items":[{"name":"본오키즈스쿨어린이집[아이행복]","tel":"031-406-2300","addr":"경기도 안산시 상록구 본오동 863-8번지","indutype":"학원 - 유아원","category":"study"}]},{"lat":"37.300790272","long":"126.87377235","imageIndex":16,"items":[{"name":"본오해닮은어린이집[아이행복]","tel":"031-415-0080","addr":"경기도 안산시 상록구 본오동 1129-4번지 1층","indutype":"학원 - 유아원","category":"study"}]},{"lat":"37.290037944","long":"126.86309985","imageIndex":16,"items":[{"name":"본원반올림음악학원","tel":"031-407-2468","addr":"경기도 안산시 상록구 본오동 923.","indutype":"학원 - 예·체능계학원","category":"study"}]},{"lat":"37.291507633","long":"126.8639655","imageIndex":16,"items":[{"name":"본원어린이집[아이행복]","tel":"031-408-6200","addr":"경기도 안산시 상록구 본오동 906-15번지","indutype":"학원 - 유아원","category":"study"}]},{"lat":"37.2913443069","long":"126.8629959379","imageIndex":16,"items":[{"name":"본원영수학원","tel":"031-409-2580","addr":"경기도 안산시 상록구 본오동 904번지","indutype":"교육서비스업 - 보습학원","category":"study"}]},{"lat":"37.291344307","long":"126.86299594","imageIndex":16,"items":[{"name":"본원영수학원","tel":"031-409-2580","addr":"경기도 안산시 상록구 본오동 904번지","indutype":"회원제형태 - 학원","category":"study"},{"name":"새서울피아노교습소","tel":"031-409-7570","addr":"경기도 안산시 상록구 본오동 904번지 104호","indutype":"학원 - 예·체능계학원","category":"study"}]},{"lat":"37.291090763","long":"126.86193633","imageIndex":16,"items":[{"name":"본원초등학교","tel":"031-487-3973","addr":"경기도 안산시 상록구 본오동 902번지","indutype":"학원 - 초중고교육기관","category":"study"}]},{"lat":"37.292063167","long":"126.86134808","imageIndex":16,"items":[{"name":"본원해법영어교습소","tel":"031-416-0582","addr":"경기도 안산시 상록구 본오동 885-14번지 101호","indutype":"회원제형태 - 학원","category":"study"}]},{"lat":"37.294894628","long":"126.86323748","imageIndex":16,"items":[{"name":"북꼬리독서상록학원","tel":"031-408-7324","addr":"경기도 안산시 상록구 본오동 871-9번지 202호","indutype":"학원 - 보습학원","category":"study"},{"name":"와이제이엘리트학원","tel":"031-406-0830","addr":"경기도 안산시 상록구 본오동 871-9번지 203호","indutype":"학원 - 보습학원","category":"study"},{"name":"케이수학학원","tel":"031-501-6700","addr":"경기도 안산시 상록구 본오동 871-9번지 201호","indutype":"학원 - 보습학원","category":"study"}]},{"lat":"37.2948946276","long":"126.8632374806","imageIndex":16,"items":[{"name":"북스테이크해법독서논술","tel":"","addr":"경기도 안산시 상록구 본오동 871-9번지","indutype":"교육서비스업 - 학원","category":"study"},{"name":"와이제이엘리트학원","tel":"031-406-0830","addr":"경기도 안산시 상록구 본오동 871-9번지","indutype":"교육서비스업 - 보습학원","category":"study"}]},{"lat":"37.29320392","long":"126.86599238","imageIndex":16,"items":[{"name":"비타민독서실","tel":"031-406-6333","addr":"경기도 안산시 상록구 본오동 862-8번지 4층","indutype":"학원 - 독서실","category":"study"}]},{"lat":"37.2916213426","long":"126.8610782451","imageIndex":16,"items":[{"name":"삼성영어본원영어교습소","tel":"031-520-8991","addr":"경기도 안산시 상록구 본오동 898-8번지","indutype":"교육서비스업 - 영어학원","category":"study"}]},{"lat":"37.291621343","long":"126.86107825","imageIndex":16,"items":[{"name":"삼성영어본원영어교습소","tel":"031-520-8991","addr":"경기도 안산시 상록구 본오동 898-8번지 1층 103호","indutype":"회원제형태 - 학원","category":"study"}]},{"lat":"37.299060692","long":"126.87412495","imageIndex":16,"items":[{"name":"상록고등학교","tel":"031-364-6800","addr":"경기도 안산시 상록구 본오동 산198번지 상록고등학교","indutype":"학원 - 초중고교육기관","category":"study"},{"name":"상록고등학교_수업료","tel":"031-364-6800","addr":"경기도 안산시 상록구 본오동 산198번지 상록고등학교","indutype":"학원 - 초중고교육기관","category":"study"}]},{"lat":"37.292648873","long":"126.86138081","imageIndex":16,"items":[{"name":"상록소망피아노교습소","tel":"031-409-8587","addr":"경기도 안산시 상록구 본오동 884번지 102호","indutype":"학원 - 예·체능계학원","category":"study"}]},{"lat":"37.302039381","long":"126.86293102","imageIndex":16,"items":[{"name":"상록수고시텔","tel":"031-111-1111","addr":"경기도 안산시 상록구 본오동 877-8번지 4층","indutype":"학원 - 독서실","category":"study"},{"name":"서울고시텔","tel":"031-415-1757","addr":"경기도 안산시 상록구 본오동 877-8 보노피아빌딩314,315-320호","indutype":"학원 - 독서실","category":"study"}]},{"lat":"37.298561373","long":"126.86288107","imageIndex":16,"items":[{"name":"상록스터디","tel":"031-501-3111","addr":"경기도 안산시 상록구 본오동 879-6번지 지하3,4호","indutype":"학원 - 독서실","category":"study"}]},{"lat":"37.292311294","long":"126.86546395","imageIndex":16,"items":[{"name":"상록이레어린이집[아이행복]","tel":"031-408-4694","addr":"경기도 안산시 상록구 본오동 863-12번지","indutype":"학원 - 유아원","category":"study"}]},{"lat":"37.299894231","long":"126.87013084","imageIndex":16,"items":[{"name":"상록중학교","tel":"031-487-7622","addr":"경기도 안산시 상록구 본오동 1122번지 상록중학교","indutype":"학원 - 초중고교육기관","category":"study"}]},{"lat":"37.298763108","long":"126.8658808","imageIndex":16,"items":[{"name":"상록초등학교","tel":"031-487-5742","addr":"경기도 안산시 상록구 본오동 872-1번지","indutype":"학원 - 초중고교육기관","category":"study"}]},{"lat":"37.286537686","long":"126.85952031","imageIndex":16,"items":[{"name":"상상학원","tel":"031-418-2632","addr":"경기도 안산시 상록구 본오동 960-15번지 3층","indutype":"학원 - 보습학원","category":"study"}]},{"lat":"37.286288887","long":"126.86243018","imageIndex":16,"items":[{"name":"새들꽃들어린이집[아이행복]","tel":"031-406-0775","addr":"경기도 안산시 상록구 본오동 955-8번지","indutype":"학원 - 유아원","category":"study"}]},{"lat":"37.295372574","long":"126.87145832","imageIndex":16,"items":[{"name":"샤론어린이집[아이행복]","tel":"031-407-9055","addr":"경기도 안산시 상록구 본오동 792-9번지","indutype":"학원 - 유아원","category":"study"}]},{"lat":"37.295506709","long":"126.86271756","imageIndex":16,"items":[{"name":"서울수학학원","tel":"070-8253-3605","addr":"경기도 안산시 상록구 본오동 880-6번지 203호","indutype":"회원제형태 - 학원","category":"study"},{"name":"향기교육","tel":"031-408-7324","addr":"경기도 안산시 상록구 본오동 880-6번지 502호","indutype":"학원 - 학습지 교육","category":"study"}]},{"lat":"37.294930015","long":"126.86268479","imageIndex":16,"items":[{"name":"서윤해법중국어교습소","tel":"031-407-1668","addr":"경기도 안산시 상록구 본오동 880-9번지 돈스쿨 204호","indutype":"학원 - 외국어학원","category":"study"}]},{"lat":"37.29097815","long":"126.85821498","imageIndex":16,"items":[{"name":"서현필즈학원","tel":"031-415-1237","addr":"경기도 안산시 상록구 본오동 895-1번지 301호","indutype":"학원 - 기타 교육기관","category":"study"}]},{"lat":"37.288146421","long":"126.86363337","imageIndex":16,"items":[{"name":"성우태권도","tel":"031-416-2715","addr":"경기도 안산시 상록구 본오동 948-23번지 5층","indutype":"학원 - 예·체능계학원","category":"study"}]},{"lat":"37.29456871","long":"126.86971164","imageIndex":16,"items":[{"name":"소라어린이집[아이행복]","tel":"031-416-0011","addr":"경기도 안산시 상록구 본오동 789-10번지","indutype":"학원 - 유아원","category":"study"}]},{"lat":"37.287841828","long":"126.86513377","imageIndex":16,"items":[{"name":"솔로몬독서실","tel":"031-409-8568","addr":"경기도 안산시 상록구 본오동 668-14 2,3층","indutype":"학원 - 독서실","category":"study"}]},{"lat":"37.29429025","long":"126.86265215","imageIndex":16,"items":[{"name":"숙명음악학원","tel":"031-438-5618","addr":"경기도 안산시 상록구 본오동 880-12번지 굿모닝리빙프라자 II 202호","indutype":"학원 - 예·체능계학원","category":"study"},{"name":"스카이학원","tel":"031-409-0908","addr":"경기도 안산시 상록구 본오동 880-12번지 굿모닝리빙프라자 II 203호","indutype":"회원제형태 - 학원","category":"study"}]},{"lat":"37.287760158","long":"126.85712728","imageIndex":16,"items":[{"name":"스카이독서실","tel":"031-418-1103","addr":"경기도 안산시 상록구 본오동 959번지","indutype":"학원 - 독서실","category":"study"}]},{"lat":"37.29306958","long":"126.85907937","imageIndex":16,"items":[{"name":"스타컴퍼니","tel":"02-1111-1111","addr":"경기도 안산시 상록구 본오동 891-10번지 204호","indutype":"학원 - 기타 교육기관","category":"study"}]},{"lat":"37.2951239953","long":"126.8667670870","imageIndex":16,"items":[{"name":"스터디플러스영수학원","tel":"031-406-7542","addr":"경기도 안산시 상록구 본오동 819-14번지","indutype":"교육서비스업 - 학원,서적","category":"study"}]},{"lat":"37.288508326","long":"126.85738521","imageIndex":16,"items":[{"name":"시대정신학원","tel":"031-419-0922","addr":"경기도 안산시 상록구 본오동 939-5번지 2층 3층","indutype":"학원 - 보습학원","category":"study"}]},{"lat":"37.299980822","long":"126.87512719","imageIndex":16,"items":[{"name":"시립루씨어린이집((사)루씨최용신선생기념[","tel":"031-406-7137","addr":"경기도 안산시 상록구 본오동 1138-1번지","indutype":"학원 - 유아원","category":"study"}]},{"lat":"37.286592434","long":"126.86776354","imageIndex":16,"items":[{"name":"시립본오어린이집[아이행복]","tel":"031-419-4912","addr":"경기도 안산시 상록구 본오동 714번지","indutype":"학원 - 유아원","category":"study"}]},{"lat":"37.299318923","long":"126.86346615","imageIndex":16,"items":[{"name":"신안일본어교습","tel":"031-419-1700","addr":"경기도 안산시 상록구 본오동 872-8번지 신웅빌딩 206호","indutype":"회원제형태 - 학원","category":"study"}]},{"lat":"37.293645389","long":"126.87398756","imageIndex":16,"items":[{"name":"신에덴어린이집[아이행복]","tel":"031-408-3232","addr":"경기도 안산시 상록구 본오동 774-7번지","indutype":"학원 - 유아원","category":"study"}]},{"lat":"37.293874516","long":"126.86935197","imageIndex":16,"items":[{"name":"심포니음악교습소","tel":"031-416-3285","addr":"경기도 안산시 상록구 본오동 827-13번지 104호","indutype":"학원 - 예·체능계학원","category":"study"},{"name":"심포니음악교습소","tel":"031-416-3285","addr":"경기도 안산시 상록구 본오동 827-13번지 104호","indutype":"학원 - 예·체능계학원","category":"study"}]},{"lat":"37.293755499","long":"126.87582567","imageIndex":16,"items":[{"name":"아마빌레음악학원","tel":"031-406-2070","addr":"경기도 안산시 상록구 본오동 736-2번지 102호,103호,104호","indutype":"학원 - 예·체능계학원","category":"study"}]},{"lat":"37.286596528","long":"126.86352346","imageIndex":16,"items":[{"name":"아미어린이집","tel":"031-417-7117","addr":"경기도 안산시 상록구 본오동 949-6번지","indutype":"학원 - 유치원","category":"study"},{"name":"아미어린이집[아이행복]","tel":"031-417-7117","addr":"경기도 안산시 상록구 본오동 949-6번지","indutype":"학원 - 유아원","category":"study"},{"name":"안산타일전문기술학원","tel":"031-406-5554","addr":"경기도 안산시 상록구 본오동 949-6번지 아미어린이집 201호","indutype":"학원 - 기능학원","category":"study"}]},{"lat":"37.2921769374","long":"126.8661521278","imageIndex":16,"items":[{"name":"아에엠영수학원","tel":"031-505-9023","addr":"경기도 안산시 상록구 본오동 864-4번지","indutype":"교육서비스업 - 학원","category":"study"}]},{"lat":"37.285869709","long":"126.85851796","imageIndex":16,"items":[{"name":"아이나라어린이집[아이행복]","tel":"031-409-9123","addr":"경기도 안산시 상록구 본오동 964-2번지","indutype":"학원 - 유아원","category":"study"}]},{"lat":"37.294262362","long":"126.86971218","imageIndex":16,"items":[{"name":"아이네트학원","tel":"031-416-4616","addr":"경기도 안산시 상록구 본오동 789-8번지 2층","indutype":"학원 - 보습학원","category":"study"}]},{"lat":"37.292200305","long":"126.86301691","imageIndex":16,"items":[{"name":"아이비스터디안산학원","tel":"031-501-6610","addr":"경기도 안산시 상록구 본오동 868-15번지 크리아틈빌딩 2층","indutype":"회원제형태 - 학원","category":"study"},{"name":"엠티에이(MTA) 태권도","tel":"031-419-9545","addr":"경기도 안산시 상록구 본오동 868-15번지 4층","indutype":"학원 - 예·체능계학원","category":"study"}]},{"lat":"37.293284192","long":"126.8732664","imageIndex":16,"items":[{"name":"아이사랑미술교습소","tel":"031-407-6970","addr":"경기도 안산시 상록구 본오동 777-15번지 102호","indutype":"학원 - 예·체능계학원","category":"study"},{"name":"안녕피아노교습소","tel":"070-4123-1255","addr":"경기도 안산시 상록구 본오동 777-15번지 1층 101호","indutype":"학원 - 예·체능계학원","category":"study"}]},{"lat":"37.292176937","long":"126.86615213","imageIndex":16,"items":[{"name":"아이엠영수학원","tel":"070-7809-9023","addr":"경기도 안산시 상록구 본오동 864-4번지 2층 201호","indutype":"학원 - 보습학원","category":"study"}]},{"lat":"37.291929675","long":"126.87057339","imageIndex":16,"items":[{"name":"아이와숲어린이집[아이행복]","tel":"031-437-8866","addr":"경기도 안산시 상록구 본오동 837-1번지","indutype":"학원 - 유아원","category":"study"},{"name":"아이와숲어린이집[아이행복]","tel":"031-437-8866","addr":"경기도 안산시 상록구 본오동 837-1번지","indutype":"학원 - 유아원","category":"study"}]},{"lat":"37.297985345","long":"126.86341222","imageIndex":16,"items":[{"name":"아이웰학원","tel":"031-437-4333","addr":"경기도 안산시 상록구 본오동 872-14번지 송림빌딩 201호","indutype":"회원제형태 - 학원","category":"study"}]},{"lat":"37.28915343","long":"126.86182717","imageIndex":16,"items":[{"name":"아이잼어린이집[아이행복]","tel":"031-406-1220","addr":"경기도 안산시 상록구 본오동 928-6번지 아르보빌","indutype":"학원 - 유아원","category":"study"}]},{"lat":"37.290064281","long":"126.86251338","imageIndex":16,"items":[{"name":"아트시그널학원","tel":"031-504-0232","addr":"경기도 안산시 상록구 본오동 924-1번지 2층","indutype":"학원 - 예·체능계학원","category":"study"}]},{"lat":"37.294981337","long":"126.87624089","imageIndex":16,"items":[{"name":"안데르센어린이집[아이행복]","tel":"031-418-7659","addr":"경기도 안산시 상록구 본오동 741-10번지 101호","indutype":"학원 - 유아원","category":"study"}]},{"lat":"37.301954799","long":"126.86767966","imageIndex":16,"items":[{"name":"안산간호조무사학원","tel":"031-419-1907","addr":"경기도 안산시 상록구 본오동 1112-4번지 1층","indutype":"학원 - 기타 교육기관","category":"study"}]},{"lat":"37.299976735","long":"126.86352133","imageIndex":16,"items":[{"name":"안산검도관","tel":"031-406-4060","addr":"경기도 안산시 상록구 본오동 872-5번지 뉴경남빌딩 B102호","indutype":"학원 - 예·체능계학원","category":"study"}]},{"lat":"37.29692206","long":"126.86334652","imageIndex":16,"items":[{"name":"안산고교논술연구소","tel":"031-410-2801","addr":"경기도 안산시 상록구 본오동 872-19번지 한미상가 302호","indutype":"학원 - 보습학원","category":"study"}]},{"lat":"37.286706778","long":"126.85779464","imageIndex":16,"items":[{"name":"안산동산고등학교","tel":"031-490-3362","addr":"경기도 안산시 상록구 본오동 968-1번지 동산고등학교","indutype":"학원 - 초중고교육기관","category":"study"}]},{"lat":"37.297201961","long":"126.8717371","imageIndex":16,"items":[{"name":"안산디자인문화고등학교","tel":"031-400-3100","addr":"경기도 안산시 상록구 본오동 798번지 안산디자인문화고등학교","indutype":"학원 - 초중고교육기관","category":"study"}]},{"lat":"37.293902783","long":"126.86263031","imageIndex":16,"items":[{"name":"안산라이프러리독서실","tel":"031-502-2005","addr":"경기도 안산시 상록구 본오동 880-14번지 우성프라자 201동 202호","indutype":"학원 - 독서실","category":"study"},{"name":"안산라이프러리독서실","tel":"031-502-2005","addr":"경기도 안산시 상록구 본오동 880-14번지 우성프라자 201,202호","indutype":"학원 - 독서실","category":"study"}]},{"lat":"37.292234402","long":"126.86138159","imageIndex":16,"items":[{"name":"안산본원해법수학교습소","tel":"031-520-1233","addr":"경기도 안산시 상록구 본오동 885-15번지 101호","indutype":"회원제형태 - 학원","category":"study"}]},{"lat":"37.293736291","long":"126.86665681","imageIndex":16,"items":[{"name":"안산칸학원","tel":"031-417-1156","addr":"경기도 안산시 상록구 본오동 823-12번지 3층","indutype":"학원 - 보습학원","category":"study"},{"name":"에듀성지학원","tel":"031-406-6055","addr":"경기도 안산시 상록구 본오동 823-12번지 4층","indutype":"학원 - 보습학원","category":"study"},{"name":"키즈홉오감통합놀이학원","tel":"031-416-5501","addr":"경기도 안산시 상록구 본오동 823-12번지 2층","indutype":"회원제형태 - 학원","category":"study"}]},{"lat":"37.298509923","long":"126.87307698","imageIndex":16,"items":[{"name":"안산힘찬태권도","tel":"031-415-9414","addr":"경기도 안산시 상록구 본오동 759-6번지 1","indutype":"학원 - 예·체능계학원","category":"study"}]},{"lat":"37.293871445","long":"126.86665657","imageIndex":16,"items":[{"name":"알파수학학원","tel":"031-418-8254","addr":"경기도 안산시 상록구 본오동 823-13번지 4층","indutype":"학원 - 보습학원","category":"study"}]},{"lat":"37.294985297","long":"126.87160561","imageIndex":16,"items":[{"name":"애플베베어린이집[아이행복]","tel":"031-407-8291","addr":"경기도 안산시 상록구 본오동 791-9번지 1층","indutype":"학원 - 유아원","category":"study"}]},{"lat":"37.286485702","long":"126.86124576","imageIndex":16,"items":[{"name":"애플트리학원","tel":"070-8749-6967","addr":"경기도 안산시 상록구 본오동 955번지 2층","indutype":"학원 - 보습학원","category":"study"},{"name":"올림픽태권도장","tel":"031-417-8886","addr":"경기도 안산시 상록구 본오동 955번지 3층","indutype":"학원 - 예·체능계학원","category":"study"}]},{"lat":"37.28558961","long":"126.86543107","imageIndex":16,"items":[{"name":"에이플러스알파학원","tel":"031-409-7030","addr":"경기도 안산시 상록구 본오동 680-3번지","indutype":"학원 - 보습학원","category":"study"}]},{"lat":"37.2912338624","long":"126.8610451399","imageIndex":16,"items":[{"name":"에이플러스알파학원","tel":"031-409-7030","addr":"경기도 안산시 상록구 본오동 899-8번지","indutype":"교육서비스업 - 보습학원,서적","category":"study"}]},{"lat":"37.2986791581","long":"126.8634334989","imageIndex":16,"items":[{"name":"엠베스트에스이상록수캠퍼스학원","tel":"","addr":"경기도 안산시 상록구 본오동 872-11번지","indutype":"교육서비스업 - 일반교과학원","category":"study"}]},{"lat":"37.299589256","long":"126.86348821","imageIndex":16,"items":[{"name":"엠앤이학원","tel":"031-407-5511","addr":"경기도 안산시 상록구 본오동 872-7번지 영광프라자 201,202호","indutype":"회원제형태 - 학원","category":"study"}]},{"lat":"37.287653156","long":"126.85804092","imageIndex":16,"items":[{"name":"연세수호수학교습소","tel":"","addr":"경기도 안산시 상록구 본오동 960-27번지 101호","indutype":"학원 - 보습학원","category":"study"}]},{"lat":"37.2917047159","long":"126.8629952706","imageIndex":16,"items":[{"name":"예본음악학원","tel":"031-409-4599","addr":"경기도 안산시 상록구 본오동 903번지","indutype":"교육서비스업 - 음악학원","category":"study"}]},{"lat":"37.283542534","long":"126.85645884","imageIndex":16,"items":[{"name":"예쁜손어린이집[아이행복]","tel":"031-415-2032","addr":"경기도 안산시 상록구 본오동 970-15번지","indutype":"학원 - 유아원","category":"study"}]},{"lat":"37.297839712","long":"126.86996528","imageIndex":16,"items":[{"name":"예손어린이집[아이행복]","tel":"031-407-8900","addr":"경기도 안산시 상록구 본오동 801-9번지","indutype":"학원 - 유아원","category":"study"}]},{"lat":"37.290701523","long":"126.86812834","imageIndex":16,"items":[{"name":"예원유치원[아이행복]","tel":"031-419-6166","addr":"경기도 안산시 상록구 본오동 852-1","indutype":"학원 - 유치원","category":"study"}]},{"lat":"37.294287027","long":"126.86762572","imageIndex":16,"items":[{"name":"예일학원","tel":"031-418-0900","addr":"경기도 안산시 상록구 본오동 825-2번지 1층","indutype":"학원 - 보습학원","category":"study"}]},{"lat":"37.290372279","long":"126.8639112","imageIndex":16,"items":[{"name":"오렌지숲속어린이집[아이행복]","tel":"031-406-1255","addr":"경기도 안산시 상록구 본오동 909-9번지","indutype":"학원 - 유아원","category":"study"}]},{"lat":"37.288264585","long":"126.86451276","imageIndex":16,"items":[{"name":"오즈어린이집[아이행복]","tel":"031-418-3100","addr":"경기도 안산시 상록구 본오동 667-21번지","indutype":"학원 - 유아원","category":"study"}]},{"lat":"37.299646878","long":"126.86654464","imageIndex":16,"items":[{"name":"오카리나 숲 음악학원","tel":"031-419-0703","addr":"경기도 안산시 상록구 본오동 872-23번지 샘골빌딩 401호","indutype":"학원 - 예·체능계학원","category":"study"}]},{"lat":"37.298874541","long":"126.86104207","imageIndex":16,"items":[{"name":"와이비엠(YBM)잉글루상록영수전문학원","tel":"031-409-0504","addr":"경기도 안산시 상록구 본오동 879-15번지 태영A상가201호,207호","indutype":"학원 - 보습학원","category":"study"}]},{"lat":"37.297925588","long":"126.87429606","imageIndex":16,"items":[{"name":"용신어린이집[아이행복]","tel":"031-416-6242","addr":"경기도 안산시 상록구 본오동 756-3번지","indutype":"학원 - 유아원","category":"study"}]},{"lat":"37.294652194","long":"126.87185431","imageIndex":16,"items":[{"name":"용인대안산유도체육관","tel":"031-438-0504","addr":"경기도 안산시 상록구 본오동 780-1번지 301호","indutype":"학원 - 예·체능계학원","category":"study"}]},{"lat":"37.294091998","long":"126.86262996","imageIndex":16,"items":[{"name":"용인대청룡태권도장","tel":"031-408-6451","addr":"경기도 안산시 상록구 본오동 880-13번지 굿모닝리빙프라자 제 2층 201호","indutype":"학원 - 예·체능계학원","category":"study"},{"name":"제니어스에듀","tel":"031-502-0582","addr":"경기도 안산시 상록구 본오동 880-13번지 굿모닝리빙프라자 2층 202,203호","indutype":"학원 - 보습학원","category":"study"},{"name":"제이앤제이정진학원","tel":"031-502-0582","addr":"경기도 안산시 상록구 본오동 880-13번지 202호 203 본오동굿모닝리빙프라자1","indutype":"학원 - 보습학원","category":"study"}]},{"lat":"37.294923595","long":"126.8728463","imageIndex":16,"items":[{"name":"우리동네영수학원","tel":"031-505-7725","addr":"경기도 안산시 상록구 본오동 769-20번지 3층","indutype":"학원 - 보습학원","category":"study"}]},{"lat":"37.2949235948","long":"126.8728463024","imageIndex":16,"items":[{"name":"우리동네영수학원","tel":"","addr":"경기도 안산시 상록구 본오동 769-20번지","indutype":"교육서비스업 - 학원","category":"study"}]},{"lat":"37.287455784","long":"126.85874047","imageIndex":16,"items":[{"name":"위너스학원","tel":"031-418-9555","addr":"경기도 안산시 상록구 본오동 960-7번지 1층","indutype":"학원 - 외국어학원","category":"study"}]},{"lat":"37.28556605","long":"126.86074003","imageIndex":16,"items":[{"name":"유니랭스어학원(본원학원)","tel":"031-408-0860","addr":"경기도 안산시 상록구 본오동 957-9번지","indutype":"학원 - 보습학원","category":"study"}]},{"lat":"37.293755643","long":"126.86781839","imageIndex":16,"items":[{"name":"으뜸공부방","tel":"","addr":"경기도 안산시 상록구 본오동 826-17번지 203호","indutype":"학원 - 기타 교육기관","category":"study"}]},{"lat":"37.286286626","long":"126.8682377","imageIndex":16,"items":[{"name":"은빛둥지","tel":"031-438-4088","addr":"경기도 안산시 상록구 본오동 713번지","indutype":"학원 - 기타 교육기관","category":"study"}]},{"lat":"37.2973178565","long":"126.8627931443","imageIndex":16,"items":[{"name":"이비엘영어학원","tel":"031-415-0579","addr":"경기도 안산시 상록구 본오동 879-12번지","indutype":"교육서비스업 - 보습학원","category":"study"}]},{"lat":"37.292089374","long":"126.8606601","imageIndex":16,"items":[{"name":"이삭음악교습소","tel":"031-408-9220","addr":"경기도 안산시 상록구 본오동 886-12번지 102호","indutype":"학원 - 예·체능계학원","category":"study"}]},{"lat":"37.295957247","long":"126.86273928","imageIndex":16,"items":[{"name":"이엘학원","tel":"031-438-0579","addr":"경기도 안산시 상록구 본오동 880-4번지 혜연빌딩 202,203,204호","indutype":"학원 - 보습학원","category":"study"}]},{"lat":"37.293367983","long":"126.85995847","imageIndex":16,"items":[{"name":"이지수학영어학원","tel":"031-501-0550","addr":"경기도 안산시 상록구 본오동 889번지 2층","indutype":"학원 - 보습학원","category":"study"},{"name":"홍강수수학전문학원","tel":"","addr":"경기도 안산시 상록구 본오동 889번지 3층","indutype":"학원 - 보습학원","category":"study"}]},{"lat":"37.297783096","long":"126.86770969","imageIndex":16,"items":[{"name":"이해법수학교습소","tel":"031-415-1211","addr":"경기도 안산시 상록구 본오동 811-10번지 101호","indutype":"학원 - 보습학원","category":"study"}]},{"lat":"37.286065622","long":"126.85663437","imageIndex":16,"items":[{"name":"이호중학교","tel":"031-415-2757","addr":"경기도 안산시 상록구 본오동 산98-1번지 이호중학교","indutype":"학원 - 초중고교육기관","category":"study"}]},{"lat":"37.28645767","long":"126.86041133","imageIndex":16,"items":[{"name":"이호초등학교","tel":"031-487-0775","addr":"경기도 안산시 상록구 본오동 958번지","indutype":"학원 - 초중고교육기관","category":"study"}]},{"lat":"37.286649337","long":"126.86246334","imageIndex":16,"items":[{"name":"이호피아노전문학원","tel":"031-417-9565","addr":"경기도 안산시 상록구 본오동 956-9번지 102호","indutype":"학원 - 예·체능계학원","category":"study"}]},{"lat":"37.285348267","long":"126.85946619","imageIndex":16,"items":[{"name":"이호해법영어학원","tel":"031-407-0405","addr":"경기도 안산시 상록구 본오동 965-4번지 201호","indutype":"학원 - 외국어학원","category":"study"}]},{"lat":"37.294897392","long":"126.87360197","imageIndex":16,"items":[{"name":"이화루체음악학원","tel":"031-418-0687","addr":"경기도 안산시 상록구 본오동 769-15번지 1동","indutype":"학원 - 예·체능계학원","category":"study"}]},{"lat":"37.293257531","long":"126.87360478","imageIndex":16,"items":[{"name":"인아학원","tel":"031-415-7388","addr":"경기도 안산시 상록구 본오동 777-13번지 1층","indutype":"학원 - 기타 교육기관","category":"study"}]},{"lat":"37.2933196881","long":"126.8727701186","imageIndex":16,"items":[{"name":"인아학원","tel":"031-438-6631","addr":"경기도 안산시 상록구 본오동 777-18번지","indutype":"교육서비스업 - 학원","category":"study"}]},{"lat":"37.289256479","long":"126.85763187","imageIndex":16,"items":[{"name":"일성TMS학원","tel":"070-7495-7856","addr":"경기도 안산시 상록구 본오동 934-21번지 2층","indutype":"학원 - 보습학원","category":"study"}]},{"lat":"37.287095746","long":"126.85904563","imageIndex":16,"items":[{"name":"잉글리쉬 벨","tel":"","addr":"경기도 안산시 상록구 본오동 960-20번지 201호","indutype":"학원 - 기타 교육기관","category":"study"}]},{"lat":"37.29481845","long":"126.86746687","imageIndex":16,"items":[{"name":"잉글리쉬무무본오제1학원","tel":"031-438-9905","addr":"경기도 안산시 상록구 본오동 822-4번지 2층","indutype":"회원제형태 - 학원","category":"study"}]},{"lat":"37.291533522","long":"126.86299559","imageIndex":16,"items":[{"name":"잉글리쉬무무본오제3학원","tel":"031-415-0545","addr":"경기도 안산시 상록구 본오동 903-9번지","indutype":"학원 - 보습학원","category":"study"},{"name":"토리노리놀이교육학원","tel":"031-502-3245","addr":"경기도 안산시 상록구 본오동 903-9번지 2층","indutype":"학원 - 보습학원","category":"study"}]},{"lat":"37.292985751","long":"126.8722632","imageIndex":16,"items":[{"name":"잉글리쉬무무본오제4학원","tel":"031-416-5905","addr":"경기도 안산시 상록구 본오동 829-6번지 2층","indutype":"회원제형태 - 학원","category":"study"}]},{"lat":"37.294479464","long":"126.86265179","imageIndex":16,"items":[{"name":"정석보습학원","tel":"031-416-8088","addr":"경기도 안산시 상록구 본오동 880-11번지 우석프라자 201호 203호","indutype":"학원 - 보습학원","category":"study"}]},{"lat":"37.297317857","long":"126.86279314","imageIndex":16,"items":[{"name":"제2캠퍼스플립에듀학원","tel":"031-415-0579","addr":"경기도 안산시 상록구 본오동 879-12번지 유창빌딩 203호","indutype":"학원 - 보습학원","category":"study"},{"name":"플립에듀학원","tel":"031-419-8465","addr":"경기도 안산시 상록구 본오동 879-12번지 유창빌딩 202호","indutype":"학원 - 보습학원","category":"study"}]},{"lat":"37.301173593","long":"126.87004964","imageIndex":16,"items":[{"name":"제3관모던실용음악학원","tel":"031-406-2040","addr":"경기도 안산시 상록구 본오동 1111-1번지 3층","indutype":"회원제형태 - 학원","category":"study"}]},{"lat":"37.2940919979","long":"126.8626299577","imageIndex":16,"items":[{"name":"제니어스에듀학원","tel":"031-502-0582","addr":"경기도 안산시 상록구 본오동 880-13번지 굿모닝리빙프라자","indutype":"교육서비스업 - 학원","category":"study"}]},{"lat":"37.297286513","long":"126.86681958","imageIndex":16,"items":[{"name":"제이무용학원","tel":"031-408-7752","addr":"경기도 안산시 상록구 본오동 813-16번지 4층","indutype":"학원 - 예·체능계학원","category":"study"}]},{"lat":"37.301565568","long":"126.87415451","imageIndex":16,"items":[{"name":"좋은나무어린이집[아이행복]","tel":"031-409-2830","addr":"경기도 안산시 상록구 본오동 1128-4번지","indutype":"학원 - 유아원","category":"study"}]},{"lat":"37.291982649","long":"126.86960342","imageIndex":16,"items":[{"name":"주니어동물체험","tel":"031-223-5276","addr":"경기도 안산시 상록구 본오동 838-11번지 203호","indutype":"학원 - 기타 교육기관","category":"study"}]},{"lat":"37.289979975","long":"126.85982955","imageIndex":16,"items":[{"name":"주니어동물체험학습","tel":"02-1577-0000","addr":"경기도 안산시 상록구 본오동 932-12번지 103호","indutype":"학원 - 기타 교육기관","category":"study"}]},{"lat":"37.298255652","long":"126.86341172","imageIndex":16,"items":[{"name":"지캠프클래스안산본오학원","tel":"031-409-5117","addr":"경기도 안산시 상록구 본오동 872-13번지 상록빌딩 202동 203호","indutype":"학원 - 보습학원","category":"study"}]},{"lat":"37.283508339","long":"126.85795865","imageIndex":16,"items":[{"name":"지혜와 사랑 심리상담연구소","tel":"","addr":"경기도 안산시 상록구 본오동 975-8번지 선앤파크빌라 501호","indutype":"학원 - 기타 교육기관","category":"study"}]},{"lat":"37.295088821","long":"126.86752278","imageIndex":16,"items":[{"name":"창조어린이집[아이행복]","tel":"031-416-0231","addr":"경기도 안산시 상록구 본오동 819-9번지","indutype":"학원 - 유아원","category":"study"}]},{"lat":"37.298372118","long":"126.86284758","imageIndex":16,"items":[{"name":"청록태권도제2관","tel":"031-409-6577","addr":"경기도 안산시 상록구 본오동 879-7번지","indutype":"학원 - 예·체능계학원","category":"study"}]},{"lat":"37.294818036","long":"126.86710598","imageIndex":16,"items":[{"name":"청맥학원","tel":"031-419-2633","addr":"경기도 안산시 상록구 본오동 822-2번지 2층","indutype":"학원 - 기타 교육기관","category":"study"}]},{"lat":"37.293063532","long":"126.86929701","imageIndex":16,"items":[{"name":"청탑학원","tel":"031-417-4684","addr":"경기도 안산시 상록구 본오동 857-9번지 2층","indutype":"학원 - 보습학원","category":"study"}]},{"lat":"37.2903981932","long":"126.8629638575","imageIndex":16,"items":[{"name":"청현영재학원","tel":"031-520-4300","addr":"경기도 안산시 상록구 본오동 904-12번지","indutype":"교육서비스업 - 보습학원,서적","category":"study"}]},{"lat":"37.290398193","long":"126.86296386","imageIndex":16,"items":[{"name":"청현영재학원","tel":"031-520-4300","addr":"경기도 안산시 상록구 본오동 904-12번지 2층","indutype":"학원 - 보습학원","category":"study"}]},{"lat":"37.292011489","long":"126.86335559","imageIndex":16,"items":[{"name":"초록나무음악교습소","tel":"","addr":"경기도 안산시 상록구 본오동 868-9번지","indutype":"학원 - 예·체능계학원","category":"study"}]},{"lat":"37.289590023","long":"126.85776655","imageIndex":16,"items":[{"name":"최강샘의과수원학원","tel":"031-438-5600","addr":"경기도 안산시 상록구 본오동 934-18번지 2층","indutype":"학원 - 보습학원","category":"study"}]},{"lat":"37.292840097","long":"126.86307211","imageIndex":16,"items":[{"name":"충무합기도해동검도","tel":"031-418-8279","addr":"경기도 안산시 상록구 본오동 870-14번지","indutype":"학원 - 예·체능계학원","category":"study"}]},{"lat":"37.292062871","long":"126.86109997","imageIndex":16,"items":[{"name":"칸타빌레음악학원","tel":"031-418-7595","addr":"경기도 안산시 상록구 본오동 886-9번지","indutype":"학원 - 예·체능계학원","category":"study"}]},{"lat":"37.2910649499","long":"126.8629626228","imageIndex":16,"items":[{"name":"크리아트창의미술학원","tel":"","addr":"경기도 안산시 상록구 본오동 904-16번지","indutype":"교육서비스업 - 미술학원","category":"study"}]},{"lat":"37.290450999","long":"126.86968506","imageIndex":16,"items":[{"name":"큰사랑어린이집[아이행복]","tel":"031-409-1775","addr":"경기도 안산시 상록구 본오동 848-3번지","indutype":"학원 - 유아원","category":"study"}]},{"lat":"37.301646119","long":"126.8736581","imageIndex":16,"items":[{"name":"킹어린이집[아이행복]","tel":"031-406-7001","addr":"경기도 안산시 상록구 본오동 1127-3번지","indutype":"학원 - 유아원","category":"study"}]},{"lat":"37.296146462","long":"126.86273893","imageIndex":16,"items":[{"name":"탑고려학원","tel":"031-406-3769","addr":"경기도 안산시 상록구 본오동 880-3번지 광림빌딩 202호","indutype":"학원 - 보습학원","category":"study"}]},{"lat":"37.28678577","long":"126.86354566","imageIndex":16,"items":[{"name":"태령관합기도","tel":"031-415-4416","addr":"경기도 안산시 상록구 본오동 949-5번지 301호","indutype":"학원 - 예·체능계학원","category":"study"}]},{"lat":"37.293315831","long":"126.86154873","imageIndex":16,"items":[{"name":"포르테피아노음악교습소","tel":"031-502-8272","addr":"경기도 안산시 상록구 본오동 882-1번지 1층 104호","indutype":"학원 - 예·체능계학원","category":"study"}]},{"lat":"37.29359266","long":"126.87521694","imageIndex":16,"items":[{"name":"푸른꿈어린이집[아이행복]","tel":"031-501-7572","addr":"경기도 안산시 상록구 본오동 776-18번지 101호","indutype":"학원 - 유아원","category":"study"}]},{"lat":"37.293063214","long":"126.86901507","imageIndex":16,"items":[{"name":"푸른독서실","tel":"031-469-5409","addr":"경기도 안산시 상록구 본오동 857-7,3,4층","indutype":"학원 - 독서실","category":"study"}]},{"lat":"37.294897244","long":"126.87346664","imageIndex":16,"items":[{"name":"푸른보습학원","tel":"031-487-4567","addr":"경기도 안산시 상록구 본오동 769-16번지","indutype":"학원 - 보습학원","category":"study"}]},{"lat":"37.293177111","long":"126.86618415","imageIndex":16,"items":[{"name":"풍성한 요양보호사교육원","tel":"031-409-9182","addr":"경기도 안산시 상록구 본오동 862-9번지 3층","indutype":"회원제형태 - 학원","category":"study"}]},{"lat":"37.286645809","long":"126.85952011","imageIndex":16,"items":[{"name":"프라임음악교습소","tel":"031-402-5822","addr":"경기도 안산시 상록구 본오동 960-14번지 201호","indutype":"학원 - 예·체능계학원","category":"study"}]},{"lat":"37.301954451","long":"126.86737513","imageIndex":16,"items":[{"name":"프로펫애완동물관리학원","tel":"031-438-9114","addr":"경기도 안산시 상록구 본오동 1112-2번지","indutype":"회원제형태 - 학원","category":"study"}]},{"lat":"37.283704341","long":"126.85615406","imageIndex":16,"items":[{"name":"피네무용학원","tel":"02-3666-8100","addr":"경기도 안산시 상록구 본오동 970번지 201호","indutype":"학원 - 예·체능계학원","category":"study"}]},{"lat":"37.301398908","long":"126.86230058","imageIndex":16,"items":[{"name":"피닉스리더십센터 주식회사","tel":"031-501-9550","addr":"경기도 안산시 상록구 본오동 878-6번지","indutype":"회원제형태 - 학원","category":"study"}]},{"lat":"37.294151525","long":"126.87543027","imageIndex":16,"items":[{"name":"필하모니음악학원","tel":"031-418-2797","addr":"경기도 안산시 상록구 본오동 771-9번지 1층","indutype":"학원 - 예·체능계학원","category":"study"}]},{"lat":"37.297926342","long":"126.86690866","imageIndex":16,"items":[{"name":"하늘태권도체육관","tel":"031-418-8867","addr":"경기도 안산시 상록구 본오동 810-2번지 2층","indutype":"학원 - 예·체능계학원","category":"study"}]},{"lat":"37.295811","long":"126.86871697","imageIndex":16,"items":[{"name":"하영어린이집[아이행복]","tel":"031-502-7955","addr":"경기도 안산시 상록구 본오동 816-10번지 일신빌리지","indutype":"학원 - 유아원","category":"study"}]},{"lat":"37.287756061","long":"126.8689117","imageIndex":16,"items":[{"name":"한국선진학교","tel":"031-400-8199","addr":"경기도 안산시 상록구 본오동 723-2번지 한국선진학교","indutype":"학원 - 초중고교육기관","category":"study"}]},{"lat":"37.294177831","long":"126.86668985","imageIndex":16,"items":[{"name":"한국외대하우디영어학원","tel":"031-503-0886","addr":"경기도 안산시 상록구 본오동 823번지 2층","indutype":"학원 - 외국어학원","category":"study"}]},{"lat":"37.294589608","long":"126.87229426","imageIndex":16,"items":[{"name":"한양대태권도장","tel":"","addr":"경기도 안산시 상록구 본오동 779번지 연지프라자 204호","indutype":"학원 - 예·체능계학원","category":"study"}]},{"lat":"37.295117038","long":"126.86084612","imageIndex":16,"items":[{"name":"한양유치원[아이행복]","tel":"031-407-9507","addr":"경기도 안산시 상록구 본오동 880","indutype":"학원 - 유치원","category":"study"}]},{"lat":"37.2979263419","long":"126.8669086576","imageIndex":16,"items":[{"name":"한양컴퓨터전산회계학원","tel":"031-437-9300","addr":"경기도 안산시 상록구 본오동 810-2번지","indutype":"교육서비스업 - 컴퓨터학원","category":"study"}]},{"lat":"37.29512419","long":"126.86693626","imageIndex":16,"items":[{"name":"한얼합기도","tel":"031-407-1376","addr":"경기도 안산시 상록구 본오동 819-13번지 2층","indutype":"학원 - 예·체능계학원","category":"study"}]},{"lat":"37.293368228","long":"126.86016147","imageIndex":16,"items":[{"name":"한오름영수전문학원","tel":"031-408-1501","addr":"경기도 안산시 상록구 본오동 889-1번지 4층","indutype":"회원제형태 - 학원","category":"study"},{"name":"한오름영수전문학원","tel":"031-408-1501","addr":"경기도 안산시 상록구 본오동 889-1번지 4층","indutype":"학원 - 보습학원","category":"study"}]},{"lat":"37.291791534","long":"126.86024339","imageIndex":16,"items":[{"name":"해냄어린이집[아이행복]","tel":"031-416-2161","addr":"경기도 안산시 상록구 본오동 898-2번지","indutype":"학원 - 유아원","category":"study"}]},{"lat":"37.296317098","long":"126.87006946","imageIndex":16,"items":[{"name":"해동검도초심검도관","tel":"031-416-9879","addr":"경기도 안산시 상록구 본오동 797-1번지 3층","indutype":"학원 - 예·체능계학원","category":"study"}]},{"lat":"37.295759712","long":"126.87118698","imageIndex":16,"items":[{"name":"해맑은어린이집[아이행복]","tel":"031-409-1477","addr":"경기도 안산시 상록구 본오동 794-7번지","indutype":"학원 - 유아원","category":"study"}]},{"lat":"37.290929797","long":"126.86296287","imageIndex":16,"items":[{"name":"해법공부방","tel":"","addr":"경기도 안산시 상록구 본오동 904-15번지 라이온미싱 203호","indutype":"학원 - 기타 교육기관","category":"study"}]},{"lat":"37.289094315","long":"126.86518787","imageIndex":16,"items":[{"name":"해사랑어린이집[아이행복]","tel":"031-417-8772","addr":"경기도 안산시 상록구 본오동 917-8번지 경호빌라 101호","indutype":"학원 - 유아원","category":"study"}]},{"lat":"37.298480933","long":"126.86343386","imageIndex":16,"items":[{"name":"혜원음악교습소","tel":"031-502-3375","addr":"경기도 안산시 상록구 본오동 872-12번지 201호","indutype":"학원 - 예·체능계학원","category":"study"}]},{"lat":"37.2931766026","long":"126.8657443192","imageIndex":16,"items":[{"name":"힐베르트수학전문학원","tel":"031-409-1119","addr":"경기도 안산시 상록구 본오동 862-7번지","indutype":"교육서비스업 - 보습학원,서적","category":"study"}]},{"lat":"37.293176603","long":"126.86574432","imageIndex":16,"items":[{"name":"힐베르트수학전문학원","tel":"031-409-1119","addr":"경기도 안산시 상록구 본오동 862-7번지 201호","indutype":"학원 - 보습학원","category":"study"}]}]