[{"lat":"37.341591643","long":"126.86082635","imageIndex":0,"items":[{"name":"(주)삼화타이어","tel":"031-413-2294","addr":"경기도 안산시 상록구 부곡동 115-8번지","indutype":"자동차정비 유지 - 자동차시트·타이어","category":"car"}]},{"lat":"37.326120725","long":"126.86046059","imageIndex":0,"items":[{"name":"LG휘센시스템에어컨","tel":"070-4090-6443","addr":"경기도 안산시 상록구 부곡동 614-8번지","indutype":"자동차정비 유지 - 세차장","category":"car"},{"name":"게러지코리아","tel":"","addr":"경기도 안산시 상록구 부곡동 614-8번지 101,102","indutype":"자동차정비 유지 - 자동차부품","category":"car"}]},{"lat":"37.3312856299","long":"126.8621884920","imageIndex":0,"items":[{"name":"강원카인테리어","tel":"031-416-8145","addr":"경기도 안산시 상록구 부곡동 670-5번지","indutype":"도매 및 소매업 - 자동차내장품","category":"car"}]},{"lat":"37.329870065","long":"126.86137874","imageIndex":0,"items":[{"name":"강원카인테리어","tel":"031-416-8145","addr":"경기도 안산시 상록구 부곡동 673-10번지","indutype":"자동차정비 유지 - 카인테리어","category":"car"}]},{"lat":"37.322954948","long":"126.85782653","imageIndex":0,"items":[{"name":"그러니까두루현대모터클럽안산점","tel":"031-416-0930","addr":"경기도 안산시 상록구 부곡동 695번지","indutype":"자동차정비 유지 - 자동차정비","category":"car"}]},{"lat":"37.339837858","long":"126.86351542","imageIndex":0,"items":[{"name":"대웅세차장","tel":"","addr":"경기도 안산시 상록구 부곡동 214-21번지 1층 일부호","indutype":"자동차정비 유지 - 세차장","category":"car"}]},{"lat":"37.33647739","long":"126.86379245","imageIndex":0,"items":[{"name":"부곡모터스","tel":"031-407-0848","addr":"경기도 안산시 상록구 부곡동 654-12번지","indutype":"자동차정비 유지 - 자동차정비","category":"car"},{"name":"애니카랜드 부곡점","tel":"031-413-4086","addr":"경기도 안산시 상록구 부곡동 654-12번지","indutype":"자동차정비 유지 - 자동차정비","category":"car"}]},{"lat":"37.332254145","long":"126.85838411","imageIndex":0,"items":[{"name":"부곡중고타이어","tel":"031-475-7868","addr":"경기도 안산시 상록구 부곡동 737-3번지","indutype":"자동차정비 유지 - 자동차시트·타이어","category":"car"}]},{"lat":"37.335422484","long":"126.86318506","imageIndex":0,"items":[{"name":"삼진사","tel":"031-407-0039","addr":"경기도 안산시 상록구 부곡동 656-16번지","indutype":"자동차정비 유지 - 자동차부품","category":"car"}]},{"lat":"37.329750897","long":"126.85968648","imageIndex":0,"items":[{"name":"서안산정비","tel":"031-437-9943","addr":"경기도 안산시 상록구 부곡동 679-4번지","indutype":"자동차정비 유지 - 자동차정비","category":"car"}]},{"lat":"37.332979043","long":"126.86176784","imageIndex":0,"items":[{"name":"서진카인테리어","tel":"031-416-8225","addr":"경기도 안산시 상록구 부곡동 667번지","indutype":"자동차정비 유지 - 자동차정비","category":"car"}]},{"lat":"37.332782333","long":"126.86304326","imageIndex":0,"items":[{"name":"선우모터스","tel":"070-8724-9533","addr":"경기도 안산시 상록구 부곡동 665-6번지 현진에버빌 302호","indutype":"자동차정비 유지 - 자동차부품","category":"car"}]},{"lat":"37.327560138","long":"126.85863004","imageIndex":0,"items":[{"name":"세계텐트칼라(세덴)","tel":"031-406-5008","addr":"경기도 안산시 상록구 부곡동 681-8번지 1층","indutype":"자동차정비 유지 - 카인테리어","category":"car"}]},{"lat":"37.326310102","long":"126.86059562","imageIndex":0,"items":[{"name":"세나카독크","tel":"043-263-1193","addr":"경기도 안산시 상록구 부곡동 614-10번지 경진아트빌 502호","indutype":"자동차정비 유지 - 자동차정비","category":"car"}]},{"lat":"37.334144714","long":"126.85710541","imageIndex":0,"items":[{"name":"시낭카마스타","tel":"031-485-8383","addr":"경기도 안산시 상록구 부곡동 734번지 시낭원룸","indutype":"자동차정비 유지 - 자동차정비","category":"car"}]},{"lat":"37.336838681","long":"126.85704379","imageIndex":0,"items":[{"name":"싼카","tel":"","addr":"경기도 안산시 상록구 부곡동 713-8번지 부곡그린빌 402호","indutype":"자동차정비 유지 - 자동차부품","category":"car"}]},{"lat":"37.328479711","long":"126.85906832","imageIndex":0,"items":[{"name":"오토클럽","tel":"031-416-4361","addr":"경기도 안산시 상록구 부곡동 681번지","indutype":"자동차정비 유지 - 카인테리어","category":"car"}]},{"lat":"37.338945401","long":"126.8631334","imageIndex":0,"items":[{"name":"웅카센타","tel":"031-411-7676","addr":"경기도 안산시 상록구 부곡동 216-3번지 5","indutype":"자동차정비 유지 - 자동차정비","category":"car"}]},{"lat":"37.33386717","long":"126.85855028","imageIndex":0,"items":[{"name":"자동차출장써비스","tel":"031-439-8076","addr":"경기도 안산시 상록구 부곡동 730-13번지 운암빌리지 402호","indutype":"자동차정비 유지 - 자동차정비","category":"car"}]},{"lat":"37.334784657","long":"126.86479985","imageIndex":0,"items":[{"name":"제일카센타","tel":"031-417-5782","addr":"경기도 안산시 상록구 부곡동 644-11번지","indutype":"자동차정비 유지 - 자동차정비","category":"car"},{"name":"좋은사람","tel":"","addr":"경기도 안산시 상록구 부곡동 644-11번지 2호","indutype":"자동차정비 유지 - 자동차부품","category":"car"}]},{"lat":"37.3347846566","long":"126.8647998494","imageIndex":0,"items":[{"name":"좋은사람","tel":"","addr":"경기도 안산시 상록구 부곡동 644-11번지","indutype":"도매 및 소매업 - 자동차부품판매","category":"car"}]},{"lat":"37.333724692","long":"126.85993846","imageIndex":0,"items":[{"name":"지바트","tel":"031-482-3996","addr":"경기도 안산시 상록구 부곡동 730-1번지","indutype":"자동차정비 유지 - 카인테리어","category":"car"}]},{"lat":"37.330698297","long":"126.86079045","imageIndex":0,"items":[{"name":"태진카서비스","tel":"031-414-6792","addr":"경기도 안산시 상록구 부곡동 673-1번지","indutype":"자동차정비 유지 - 자동차정비","category":"car"}]},{"lat":"37.331836426","long":"126.86318042","imageIndex":0,"items":[{"name":"털보카마스타","tel":"031-418-6974","addr":"경기도 안산시 상록구 부곡동 628-1번지","indutype":"자동차정비 유지 - 자동차정비","category":"car"}]},{"lat":"37.329778663","long":"126.86029572","imageIndex":0,"items":[{"name":"튜닝사령부","tel":"031-8044-5417","addr":"경기도 안산시 상록구 부곡동 676-10번지 그림아트빌 202호","indutype":"자동차정비 유지 - 자동차부품","category":"car"}]},{"lat":"37.330005312","long":"126.86145747","imageIndex":0,"items":[{"name":"한결카써비스","tel":"031-415-0079","addr":"경기도 안산시 상록구 부곡동 673-9번지","indutype":"자동차정비 유지 - 자동차정비","category":"car"}]},{"lat":"37.3229549475","long":"126.8578265268","imageIndex":0,"items":[{"name":"현대모터클럽안산점","tel":"031-416-0930","addr":"경기도 안산시 상록구 부곡동 695번지","indutype":"도매 및 소매업 - 자동차수리,타이어","category":"car"}]},{"lat":"37.336585777","long":"126.86401794","imageIndex":0,"items":[{"name":"현대지바트","tel":"031-501-4178","addr":"경기도 안산시 상록구 부곡동 654-2번지 대광아트빌 201호","indutype":"자동차정비 유지 - 자동차부품","category":"car"}]},{"lat":"37.334812528","long":"126.86552197","imageIndex":0,"items":[{"name":"현대지바트광택","tel":"031-548-9210","addr":"경기도 안산시 상록구 부곡동 645-2번지 201호","indutype":"자동차정비 유지 - 세차장","category":"car"}]},{"lat":"37.324946196","long":"126.8578227","imageIndex":0,"items":[{"name":"협동1급카서비스","tel":"031-414-1997","addr":"경기도 안산시 상록구 부곡동 689번지","indutype":"자동차정비 유지 - 자동차정비","category":"car"}]},{"lat":"37.334698551","long":"126.86056852","imageIndex":0,"items":[{"name":"협성카인테리어","tel":"031-403-7488","addr":"경기도 안산시 상록구 부곡동 726-1번지 산호아트","indutype":"자동차정비 유지 - 자동차정비","category":"car"}]}]