[{"lat":"37.03884795","long":"127.13205258","imageIndex":4,"items":[{"name":"궁전코다리찜","tel":"031-657-3692","addr":"경기도 안성시 원곡면 외가천리 114-3번지 가동 1층","indutype":"일반휴게음식 - 일반한식","category":"restaurant"}]},{"lat":"37.041737177","long":"127.13494627","imageIndex":4,"items":[{"name":"김재철순대국","tel":"031-654-5652","addr":"경기도 안성시 원곡면 외가천리 161-3번지 103호","indutype":"일반휴게음식 - 일반한식","category":"restaurant"}]},{"lat":"37.034986848","long":"127.12788744","imageIndex":4,"items":[{"name":"김주방장 중화요리","tel":"031-652-9300","addr":"경기도 안성시 원곡면 외가천리 252-1번지","indutype":"일반휴게음식 - 중국식","category":"restaurant"},{"name":"별난돼지김치","tel":"031-656-2288","addr":"경기도 안성시 원곡면 외가천리 252-1번지 101호","indutype":"일반휴게음식 - 일반한식","category":"restaurant"},{"name":"옛날아우내순대","tel":"031-653-9997","addr":"경기도 안성시 원곡면 외가천리 252-1번지 1층 103,104호","indutype":"일반휴게음식 - 일반한식","category":"restaurant"}]},{"lat":"37.04237678","long":"127.13508227","imageIndex":4,"items":[{"name":"김포한탄강메기매운탕","tel":"031-653-0711","addr":"경기도 안성시 원곡면 외가천리 146-5","indutype":"일반휴게음식 - 중국식","category":"restaurant"}]},{"lat":"37.040490788","long":"127.1293577","imageIndex":4,"items":[{"name":"깡통치킨","tel":"031-658-4939","addr":"경기도 안성시 원곡면 외가천리 200-2번지 1층 2호","indutype":"일반휴게음식 - 스넥","category":"restaurant"},{"name":"원조마포소금구이","tel":"031-618-1692","addr":"경기도 안성시 원곡면 외가천리 200-2번지 나동 1층","indutype":"일반휴게음식 - 일반한식","category":"restaurant"},{"name":"장터마당","tel":"031-655-8050","addr":"경기도 안성시 원곡면 외가천리 200-2번지 가동 1층 1호","indutype":"일반휴게음식 - 일반한식","category":"restaurant"}]},{"lat":"37.042350273","long":"127.13461012","imageIndex":4,"items":[{"name":"나주곰탕","tel":"031-658-9500","addr":"경기도 안성시 원곡면 외가천리 146-23번지","indutype":"일반휴게음식 - 일반한식","category":"restaurant"}]},{"lat":"37.038041484","long":"127.12785873","imageIndex":4,"items":[{"name":"동삭골","tel":"031-654-5077","addr":"경기도 안성시 원곡면 외가천리 259-18번지 1층","indutype":"일반휴게음식 - 일반한식","category":"restaurant"}]},{"lat":"37.038596677","long":"127.131108","imageIndex":4,"items":[{"name":"마산아구찜","tel":"031-651-8592","addr":"경기도 안성시 원곡면 외가천리 114-20번지","indutype":"일반휴게음식 - 일반한식","category":"restaurant"}]},{"lat":"37.037408581","long":"127.1298921","imageIndex":4,"items":[{"name":"마왕족발","tel":"031-655-0201","addr":"경기도 안성시 원곡면 외가천리 229-23번지 나동 1층","indutype":"일반휴게음식 - 일반한식","category":"restaurant"}]},{"lat":"37.039545235","long":"127.12882784","imageIndex":4,"items":[{"name":"만세식당","tel":"031-651-6268","addr":"경기도 안성시 원곡면 외가천리 269-2번지","indutype":"일반휴게음식 - 일반한식","category":"restaurant"}]},{"lat":"37.040715429","long":"127.12994257","imageIndex":4,"items":[{"name":"맛있는엘피스존","tel":"031-653-6474","addr":"경기도 안성시 원곡면 외가천리 199-4번지 1층","indutype":"일반휴게음식 - 서양음식","category":"restaurant"}]},{"lat":"37.038770286","long":"127.12886028","imageIndex":4,"items":[{"name":"명동김밥마을 만두나라","tel":"031-339-3510","addr":"경기도 안성시 원곡면 외가천리 266-5번지 명동김밥마을 만두나라","indutype":"일반휴게음식 - 스넥","category":"restaurant"},{"name":"명동김밥마을 만두나라","tel":"031-657-5025","addr":"경기도 안성시 원곡면 외가천리 266-5번지","indutype":"일반휴게음식 - 일반한식","category":"restaurant"},{"name":"명동김밥마을 만두나라","tel":"031-657-5025","addr":"경기도 안성시 원곡면 외가천리 266-5번지","indutype":"일반휴게음식 - 일반한식","category":"restaurant"}]},{"lat":"37.036464531","long":"127.12794606","imageIndex":4,"items":[{"name":"무봉리토종순대국 서안성점","tel":"031-658-9295","addr":"경기도 안성시 원곡면 외가천리 258-15번지 1층","indutype":"일반휴게음식 - 일반한식","category":"restaurant"}]},{"lat":"37.03574426","long":"127.12739414","imageIndex":4,"items":[{"name":"미성삼색장어어죽","tel":"031-681-3533","addr":"경기도 안성시 원곡면 외가천리 255-9번지 1층","indutype":"일반휴게음식 - 일반한식","category":"restaurant"}]},{"lat":"37.039714925","long":"127.13024438","imageIndex":4,"items":[{"name":"미친곱창&미친닭도리탕","tel":"031-674-0166","addr":"경기도 안성시 원곡면 외가천리 218-5번지","indutype":"일반휴게음식 - 일반한식","category":"restaurant"}]},{"lat":"37.03849192","long":"127.12794938","imageIndex":4,"items":[{"name":"밍이네국수","tel":"031-657-8875","addr":"경기도 안성시 원곡면 외가천리 262번지","indutype":"일반휴게음식 - 일반한식","category":"restaurant"},{"name":"비비큐치킨","tel":"031-652-3048","addr":"경기도 안성시 원곡면 외가천리 262번지 1층","indutype":"일반휴게음식 - 스넥","category":"restaurant"}]},{"lat":"37.034464752","long":"127.12739205","imageIndex":4,"items":[{"name":"박가네","tel":"031-656-9219","addr":"경기도 안성시 원곡면 외가천리 248-3번지","indutype":"일반휴게음식 - 일반한식","category":"restaurant"}]},{"lat":"37.034320263","long":"127.12769528","imageIndex":4,"items":[{"name":"백제갈비","tel":"031-691-4592","addr":"경기도 안성시 원곡면 외가천리 248-8번지","indutype":"일반휴게음식 - 일반한식","category":"restaurant"}]},{"lat":"37.037214247","long":"127.12619388","imageIndex":4,"items":[{"name":"별난팔도해장국","tel":"031-655-9333","addr":"경기도 안성시 원곡면 외가천리 303-6번지","indutype":"일반휴게음식 - 일반한식","category":"restaurant"},{"name":"봉학골 황태 전문점/봉학골 주식회사","tel":"031-656-0906","addr":"경기도 안성시 원곡면 외가천리 303-6번지 가동","indutype":"일반휴게음식 - 일반한식","category":"restaurant"}]},{"lat":"37.038542248","long":"127.1314451","imageIndex":4,"items":[{"name":"병천 정가네 순대","tel":"031-656-0428","addr":"경기도 안성시 원곡면 외가천리 114-4번지","indutype":"일반휴게음식 - 일반한식","category":"restaurant"}]},{"lat":"37.036796303","long":"127.12947521","imageIndex":4,"items":[{"name":"비어사케 원곡점","tel":"","addr":"경기도 안성시 원곡면 외가천리 229-68번지 1층 103호","indutype":"일반휴게음식 - 주점","category":"restaurant"},{"name":"이디야커피 안성원곡점","tel":"031-654-4277","addr":"경기도 안성시 원곡면 외가천리 229-68번지 108호","indutype":"일반휴게음식 - 서양음식","category":"restaurant"},{"name":"푸릴리안성원곡점","tel":"031-654-6765","addr":"경기도 안성시 원곡면 외가천리 229-68번지 JS프라자 1층 1동 101,102호","indutype":"일반휴게음식 - 일반한식","category":"restaurant"}]},{"lat":"37.039965511","long":"127.13182967","imageIndex":4,"items":[{"name":"새벽옛날통닭","tel":"031-663-0447","addr":"경기도 안성시 원곡면 외가천리 211번지 1층","indutype":"일반휴게음식 - 스넥","category":"restaurant"},{"name":"쌍령해장국","tel":"","addr":"경기도 안성시 원곡면 외가천리 211번지 1층","indutype":"일반휴게음식 - 일반한식","category":"restaurant"}]},{"lat":"37.034772252","long":"127.12630233","imageIndex":4,"items":[{"name":"수라간 코다리","tel":"031-658-6670","addr":"경기도 안성시 원곡면 외가천리 333-3번지","indutype":"일반휴게음식 - 일반한식","category":"restaurant"}]},{"lat":"37.041208032","long":"127.13269728","imageIndex":4,"items":[{"name":"쉐농","tel":"031-652-1015","addr":"경기도 안성시 원곡면 외가천리 173-2번지","indutype":"일반휴게음식 - 서양음식","category":"restaurant"}]},{"lat":"37.041519148","long":"127.1365308","imageIndex":4,"items":[{"name":"신사부대찌개 품격삼겹살 안성원곡점","tel":"031-655-6566","addr":"경기도 안성시 원곡면 외가천리 147-5번지","indutype":"일반휴게음식 - 일반한식","category":"restaurant"}]},{"lat":"37.041155958","long":"127.13086501","imageIndex":4,"items":[{"name":"신통치킨(원곡점)","tel":"031-658-9277","addr":"경기도 안성시 원곡면 외가천리 195-3번지 1층","indutype":"일반휴게음식 - 스넥","category":"restaurant"}]},{"lat":"37.039047717","long":"127.13063667","imageIndex":4,"items":[{"name":"예당어죽","tel":"031-692-6556","addr":"경기도 안성시 원곡면 외가천리 221-9번지 1동","indutype":"일반휴게음식 - 일반한식","category":"restaurant"}]},{"lat":"37.039965779","long":"127.13158239","imageIndex":4,"items":[{"name":"옥이네막국수","tel":"031-328-7556","addr":"경기도 안성시 원곡면 외가천리 210-5번지","indutype":"일반휴게음식 - 일반한식","category":"restaurant"}]},{"lat":"37.041513603","long":"127.13341719","imageIndex":4,"items":[{"name":"원곡교동짬뽕","tel":"031-654-8250","addr":"경기도 안성시 원곡면 외가천리 176-22번지 A동 1층 우측호","indutype":"일반휴게음식 - 중국식","category":"restaurant"}]},{"lat":"37.035488183","long":"127.13094542","imageIndex":4,"items":[{"name":"좋구먼안성점","tel":"031-665-9800","addr":"경기도 안성시 원곡면 외가천리 235-1","indutype":"일반휴게음식 - 일반한식","category":"restaurant"}]},{"lat":"37.037985537","long":"127.12963454","imageIndex":4,"items":[{"name":"주식회사 소담고을 (원곡지점)","tel":"031-658-9250","addr":"경기도 안성시 원곡면 외가천리 229-20번지","indutype":"일반휴게음식 - 일반한식","category":"restaurant"}]},{"lat":"37.036320562","long":"127.12775475","imageIndex":4,"items":[{"name":"중국성","tel":"031-656-3307","addr":"경기도 안성시 원곡면 외가천리 258-16","indutype":"일반휴게음식 - 중국식","category":"restaurant"}]},{"lat":"37.041457723","long":"127.13505819","imageIndex":4,"items":[{"name":"카페달 CAFE DAR","tel":"","addr":"경기도 안성시 원곡면 외가천리 161-7번지 1층","indutype":"일반휴게음식 - 서양음식","category":"restaurant"}]},{"lat":"37.036436237","long":"127.12913742","imageIndex":4,"items":[{"name":"통큰손쭈꾸미마을","tel":"031-655-6656","addr":"경기도 안성시 원곡면 외가천리 233-5번지 1층","indutype":"일반휴게음식 - 일반한식","category":"restaurant"}]},{"lat":"37.04071018","long":"127.13475341","imageIndex":4,"items":[{"name":"하루","tel":"031-657-2541","addr":"경기도 안성시 원곡면 외가천리 160-9번지 1층","indutype":"일반휴게음식 - 일반한식","category":"restaurant"}]},{"lat":"37.041432841","long":"127.13311356","imageIndex":4,"items":[{"name":"한식기사뷔페","tel":"031-652-0024","addr":"경기도 안성시 원곡면 외가천리 176-3번지","indutype":"일반휴게음식 - 일반한식","category":"restaurant"}]},{"lat":"37.041826882","long":"127.13530613","imageIndex":4,"items":[{"name":"화진포생선구이","tel":"031-651-9293","addr":"경기도 안성시 원곡면 외가천리 161-34번지 1층","indutype":"일반휴게음식 - 일반한식","category":"restaurant"}]},{"lat":"37.035347071","long":"127.1280791","imageIndex":4,"items":[{"name":"힘찬추어탕","tel":"031-656-1410","addr":"경기도 안성시 원곡면 외가천리 253-1번지","indutype":"일반휴게음식 - 일반한식","category":"restaurant"}]}]