[{"lat":"37.031682236","long":"127.12569042","imageIndex":0,"items":[{"name":"H-모터스","tel":"031-618-4464","addr":"경기도 평택시 청룡동 53-2번지","indutype":"자동차정비 유지 - 자동차부품","category":"car"},{"name":"굿타이어 청룡판매","tel":"031-652-0679","addr":"경기도 평택시 청룡동 53-2번지","indutype":"자동차정비 유지 - 자동차시트·타이어","category":"car"}]},{"lat":"37.032187261","long":"127.12527539","imageIndex":0,"items":[{"name":"OK 타이어","tel":"031-611-6622","addr":"경기도 평택시 청룡동 85-1번지 1층","indutype":"자동차정비 유지 - 자동차시트·타이어","category":"car"},{"name":"아파치(충남지사)","tel":"031-653-0121","addr":"경기도 평택시 청룡동 85-1번지 1층","indutype":"자동차정비 유지 - 자동차시트·타이어","category":"car"}]},{"lat":"37.022828447","long":"127.12208011","imageIndex":0,"items":[{"name":"서울자동차서비스타이어스테이션","tel":"031-654-3314","addr":"경기도 평택시 청룡동 225-10번지","indutype":"자동차정비 유지 - 자동차정비","category":"car"}]},{"lat":"37.022214623","long":"127.1231692","imageIndex":0,"items":[{"name":"송전자동차공업사","tel":"031-653-0077","addr":"경기도 평택시 청룡동 224-12번지 외2필지","indutype":"자동차정비 유지 - 자동차정비","category":"car"}]},{"lat":"37.022051724","long":"127.12386567","imageIndex":0,"items":[{"name":"아우토하임AutoHeym","tel":"031-000-0000","addr":"경기도 평택시 청룡동 223-1번지","indutype":"자동차정비 유지 - 자동차부품","category":"car"}]},{"lat":"37.021717767","long":"127.12441578","imageIndex":0,"items":[{"name":"오천자동차정비공장","tel":"031-653-1188","addr":"경기도 평택시 청룡동 220번지","indutype":"자동차정비 유지 - 자동차정비","category":"car"}]},{"lat":"37.022575413","long":"127.12281016","imageIndex":0,"items":[{"name":"원진사 상명","tel":"031-667-6692","addr":"경기도 평택시 청룡동 224-2번지","indutype":"자동차정비 유지 - 자동차정비","category":"car"},{"name":"윤활유총판","tel":"031-618-5138","addr":"경기도 평택시 청룡동 224-2번지","indutype":"자동차정비 유지 - 윤활유 전문 판매","category":"car"},{"name":"평택최고덴트집","tel":"","addr":"경기도 평택시 청룡동 224-2번지 B동 1호","indutype":"자동차정비 유지 - 카인테리어","category":"car"}]},{"lat":"37.025459328","long":"127.12230898","imageIndex":0,"items":[{"name":"하이브자동차정비공업사","tel":"031-667-6612","addr":"경기도 평택시 청룡동 196-9번지","indutype":"자동차정비 유지 - 자동차정비","category":"car"}]},{"lat":"37.021601077","long":"127.12397733","imageIndex":0,"items":[{"name":"한도하이테크","tel":"031-656-6888","addr":"경기도 평택시 청룡동 222번지","indutype":"자동차정비 유지 - 자동차정비","category":"car"}]}]