[{"lat":"37.51895579","long":"126.80555013","imageIndex":7,"items":[{"name":"E편한마트","tel":"032-674-5077","addr":"경기도 부천시 원종동 372-9번지 1층","indutype":"유통업 영리 - 슈퍼마켓","category":"mart"}]},{"lat":"37.526670177","long":"126.80135539","imageIndex":7,"items":[{"name":"가정슈퍼","tel":"032-674-2029","addr":"경기도 부천시 원종동 138-12","indutype":"유통업 영리 - 슈퍼마켓","category":"mart"}]},{"lat":"37.520400189","long":"126.80724311","imageIndex":7,"items":[{"name":"개미슈퍼","tel":"032-684-2278","addr":"경기도 부천시 원종동 362번지 녹십초골든빌 101동 102호","indutype":"유통업 영리 - 슈퍼마켓","category":"mart"}]},{"lat":"37.518816547","long":"126.80851414","imageIndex":7,"items":[{"name":"고객마트","tel":"032-684-6305","addr":"경기도 부천시 원종동 360-6번지","indutype":"유통업 영리 - 슈퍼마켓","category":"mart"}]},{"lat":"37.519955884","long":"126.8055475","imageIndex":7,"items":[{"name":"굿모닝마트","tel":"032-678-0740","addr":"경기도 부천시 원종동 373-9번지 굿모닝마트 1층","indutype":"유통업 영리 - 슈퍼마켓","category":"mart"}]},{"lat":"37.528283219","long":"126.80687182","imageIndex":7,"items":[{"name":"그린마트","tel":"032-682-4932","addr":"경기도 부천시 원종동 253-10번지 대하그린타운 5동 1층 101호","indutype":"유통업 영리 - 슈퍼마켓","category":"mart"}]},{"lat":"37.522287884","long":"126.79931968","imageIndex":7,"items":[{"name":"다은마트","tel":"032-672-8997","addr":"경기도 부천시 원종동 198번지 1층","indutype":"유통업 영리 - 슈퍼마켓","category":"mart"}]},{"lat":"37.519262578","long":"126.80582081","imageIndex":7,"items":[{"name":"대림하이퍼마트","tel":"032-677-8811","addr":"경기도 부천시 원종동 367-1번지 지하층","indutype":"유통업 영리 - 슈퍼마켓","category":"mart"}]},{"lat":"37.525065785","long":"126.80632592","imageIndex":7,"items":[{"name":"대성할인마트","tel":"032-661-3075","addr":"경기도 부천시 원종동 275-2번지 한울팰리스","indutype":"유통업 영리 - 슈퍼마켓","category":"mart"}]},{"lat":"37.518565367","long":"126.80376393","imageIndex":7,"items":[{"name":"럭키할인마트","tel":"032-676-6977","addr":"경기도 부천시 원종동 379-4번지","indutype":"유통업 영리 - 슈퍼마켓","category":"mart"}]},{"lat":"37.529367761","long":"126.80890536","imageIndex":7,"items":[{"name":"명성슈퍼","tel":"032-674-8663","addr":"경기도 부천시 원종동 310번지","indutype":"유통업 영리 - 슈퍼마켓","category":"mart"}]},{"lat":"37.517012653","long":"126.80735375","imageIndex":7,"items":[{"name":"보람마트","tel":"032-674-4622","addr":"경기도 부천시 원종동 352번지","indutype":"유통업 영리 - 슈퍼마켓","category":"mart"}]},{"lat":"37.519754267","long":"126.80352322","imageIndex":7,"items":[{"name":"삼원슈퍼","tel":"032-674-6395","addr":"경기도 부천시 원종동 382-4번지 청룡주택 A동 101호","indutype":"유통업 영리 - 슈퍼마켓","category":"mart"}]},{"lat":"37.528118666","long":"126.810911","imageIndex":7,"items":[{"name":"삽다리할인마트","tel":"032-671-3034","addr":"경기도 부천시 원종동 338-7번지 1층","indutype":"유통업 영리 - 슈퍼마켓","category":"mart"}]},{"lat":"37.525117597","long":"126.81043225","imageIndex":7,"items":[{"name":"수정마트","tel":"032-684-1963","addr":"경기도 부천시 원종동 341번지 수정타운 101호","indutype":"유통업 영리 - 슈퍼마켓","category":"mart"}]},{"lat":"37.519647013","long":"126.80946218","imageIndex":7,"items":[{"name":"씨앤디 마트","tel":"","addr":"경기도 부천시 원종동 343-3번지 월드맨션 B동 101호","indutype":"유통업 영리 - 슈퍼마켓","category":"mart"}]},{"lat":"37.522568512","long":"126.80540487","imageIndex":7,"items":[{"name":"아이지에이마트다솔원종점","tel":"031-768-0708","addr":"경기도 부천시 원종동 281-1번지","indutype":"유통업 영리 - 슈퍼마켓","category":"mart"}]},{"lat":"37.522593302","long":"126.80406997","imageIndex":7,"items":[{"name":"영일슈퍼","tel":"032-679-8104","addr":"경기도 부천시 원종동 224번지","indutype":"유통업 영리 - 슈퍼마켓","category":"mart"}]},{"lat":"37.526480062","long":"126.8008242","imageIndex":7,"items":[{"name":"오렌지마트","tel":"032-214-7757","addr":"경기도 부천시 원종동 138-32번지","indutype":"유통업 영리 - 슈퍼마켓","category":"mart"},{"name":"오렌지할인마트","tel":"032-683-7757","addr":"경기도 부천시 원종동 138-32번지 1층","indutype":"유통업 영리 - 슈퍼마켓","category":"mart"}]},{"lat":"37.525234647","long":"126.79962842","imageIndex":7,"items":[{"name":"원종슈퍼","tel":"032-672-2862","addr":"경기도 부천시 원종동 140-3번지 원종코아상가 1층 104호","indutype":"유통업 영리 - 슈퍼마켓","category":"mart"}]},{"lat":"37.52956359","long":"126.80745676","imageIndex":7,"items":[{"name":"원종슈퍼","tel":"032-673-9828","addr":"경기도 부천시 원종동 241번지 삼림주택","indutype":"유통업 영리 - 슈퍼마켓","category":"mart"}]},{"lat":"37.530866061","long":"126.80507754","imageIndex":7,"items":[{"name":"장군슈퍼","tel":"032-672-5256","addr":"경기도 부천시 원종동 70-8번지","indutype":"유통업 영리 - 슈퍼마켓","category":"mart"}]},{"lat":"37.518342421","long":"126.80513322","imageIndex":7,"items":[{"name":"장터D/C아울렛","tel":"032-683-1400","addr":"경기도 부천시 원종동 371번지","indutype":"유통업 영리 - 슈퍼마켓","category":"mart"}]},{"lat":"37.522594878","long":"126.81046135","imageIndex":7,"items":[{"name":"제일유통","tel":"032-684-8174","addr":"경기도 부천시 원종동 345번지","indutype":"유통업 영리 - 슈퍼마켓","category":"mart"}]},{"lat":"37.518343064","long":"126.80551781","imageIndex":7,"items":[{"name":"주식회사 에이스마트","tel":"032-675-4566","addr":"경기도 부천시 원종동 371-26번지 1층","indutype":"유통업 영리 - 슈퍼마켓","category":"mart"}]},{"lat":"37.52412203","long":"126.8023238","imageIndex":7,"items":[{"name":"청정마트","tel":"032-673-5783","addr":"경기도 부천시 원종동 211-2번지 1층","indutype":"유통업 영리 - 슈퍼마켓","category":"mart"}]},{"lat":"37.52445223","long":"126.80579584","imageIndex":7,"items":[{"name":"충남쌀슈퍼","tel":"032-672-1661","addr":"경기도 부천시 원종동 276번지","indutype":"유통업 영리 - 슈퍼마켓","category":"mart"}]},{"lat":"37.526484595","long":"126.80890151","imageIndex":7,"items":[{"name":"코끼리마트","tel":"032-682-6002","addr":"경기도 부천시 원종동 294번지","indutype":"유통업 영리 - 슈퍼마켓","category":"mart"}]},{"lat":"37.517511122","long":"126.80912835","imageIndex":7,"items":[{"name":"행복한마트","tel":"070-6215-8878","addr":"경기도 부천시 원종동 359-10번지 1층","indutype":"유통업 영리 - 슈퍼마켓","category":"mart"}]},{"lat":"37.528089625","long":"126.80967795","imageIndex":7,"items":[{"name":"현대유통","tel":"032-673-7108","addr":"경기도 부천시 원종동 300-4번지","indutype":"유통업 영리 - 슈퍼마켓","category":"mart"},{"name":"현대유통","tel":"032-673-7108","addr":"경기도 부천시 원종동 300-4번지 지하1층 2층","indutype":"유통업 영리 - 슈퍼마켓","category":"mart"}]},{"lat":"37.529675586","long":"126.80437926","imageIndex":7,"items":[{"name":"홈사랑마트","tel":"032-677-8899","addr":"경기도 부천시 원종동 163번지","indutype":"유통업 영리 - 슈퍼마켓","category":"mart"}]},{"lat":"37.528449303","long":"126.79854496","imageIndex":7,"items":[{"name":"효소비자마트","tel":"032-674-4217","addr":"경기도 부천시 원종동 126-12번지 효마을타운 101,102,103호","indutype":"유통업 영리 - 슈퍼마켓","category":"mart"}]}]