[{"lat":"37.380301209","long":"126.80035894","imageIndex":4,"items":[{"name":"74떡뽀끼","tel":"031-311-8815","addr":"경기도 시흥시 장현동 541-4번지 장현1 엔플러스빌 106호.107호","indutype":"음식점업 - 분식","category":"restaurant"},{"name":"뉴욕버거 시흥시청점","tel":"031-316-1393","addr":"경기도 시흥시 장현동 541-4번지 1층 117, 118호","indutype":"음식점업 - 햄버거","category":"restaurant"},{"name":"맥코윈숯불바베큐","tel":"031-317-8557","addr":"경기도 시흥시 장현동 541-4번지 장현1엔플러스빌 104호","indutype":"음식점업 - 치킨, 호프","category":"restaurant"},{"name":"우가뚝배기","tel":"031-317-3384","addr":"경기도 시흥시 장현동 541-4번지 유호엔플러스빌 1동","indutype":"음식점업 - 음식","category":"restaurant"},{"name":"이디야 시흥시청점","tel":"031-315-7776","addr":"경기도 시흥시 장현동 541-4번지 1동 1층 115,116호","indutype":"음식점업 - 커피","category":"restaurant"}]},{"lat":"37.380914742","long":"126.80085409","imageIndex":4,"items":[{"name":"고기와 면","tel":"031-318-6696","addr":"경기도 시흥시 장현동 545-5번지 봉빈빌딩 304호","indutype":"음식점업 - 한식","category":"restaurant"},{"name":"송탄부대찌개","tel":"031-318-5377","addr":"경기도 시흥시 장현동 545-5번지","indutype":"음식점업 - 한식","category":"restaurant"}]},{"lat":"37.380076903","long":"126.80091279","imageIndex":4,"items":[{"name":"국수나무","tel":"031-509-8595","addr":"경기도 시흥시 장현동 542번지 장현2엔플러스빌 B동 103호","indutype":"음식점업 - 한식","category":"restaurant"},{"name":"요거프레소","tel":"","addr":"경기도 시흥시 장현동 542번지 N플러스빌 B동 102호","indutype":"음식점업 - 커피전문점","category":"restaurant"}]},{"lat":"37.380743975","long":"126.80110295","imageIndex":4,"items":[{"name":"김가네낙지전문점","tel":"031-317-0688","addr":"경기도 시흥시 장현동 544-5번지","indutype":"음식점업 - 한식","category":"restaurant"},{"name":"시흥감자탕","tel":"031-318-5237","addr":"경기도 시흥시 장현동 544-5번지 장현빌딩 101호","indutype":"음식점업 - 한식","category":"restaurant"},{"name":"존슨부대찌개 시흥시청점","tel":"031-404-2515","addr":"경기도 시흥시 장현동 544-5번지 장현빌딩 1층 103호","indutype":"음식점업 - 한식","category":"restaurant"}]},{"lat":"37.379855429","long":"126.80313765","imageIndex":4,"items":[{"name":"나는카페 시흥점","tel":"031-852-9203","addr":"경기도 시흥시 장현동 300번지","indutype":"음식점업 - 커피전문점","category":"restaurant"}]},{"lat":"37.381998218","long":"126.80218352","imageIndex":4,"items":[{"name":"노랑황태","tel":"031-413-4050","addr":"경기도 시흥시 장현동 548-3번지 이즈라이프","indutype":"음식점업 - 한식","category":"restaurant"},{"name":"늘품","tel":"","addr":"경기도 시흥시 장현동 548-3번지 이즈라이프 104,105호","indutype":"음식점업 - 음식","category":"restaurant"},{"name":"스테이크푸드트럭","tel":"","addr":"경기도 시흥시 장현동 548-3번지 이즈라이프 206호","indutype":"음식점업 - 휴게음식","category":"restaurant"},{"name":"장현가정식뷔페","tel":"","addr":"경기도 시흥시 장현동 548-3번지 이즈라이프 103호","indutype":"음식점업 - 한식","category":"restaurant"}]},{"lat":"37.380940207","long":"126.79993946","imageIndex":4,"items":[{"name":"대돈단결","tel":"031-317-4151","addr":"경기도 시흥시 장현동 537-6번지 101호","indutype":"음식점업 - 음식","category":"restaurant"}]},{"lat":"37.381554784","long":"126.80104432","imageIndex":4,"items":[{"name":"뜨는청국장시대","tel":"","addr":"경기도 시흥시 장현동 534-1번지 다성빌딩 2층","indutype":"음식점업 - 기타음식,청국장","category":"restaurant"},{"name":"장현족발","tel":"031-317-8989","addr":"경기도 시흥시 장현동 534-1번지","indutype":"음식점업 - 한식","category":"restaurant"},{"name":"황태마을","tel":"031-317-1610","addr":"경기도 시흥시 장현동 534-1번지","indutype":"음식점업 - 한식","category":"restaurant"}]},{"lat":"37.381914492","long":"126.80063688","imageIndex":4,"items":[{"name":"마주생태탕","tel":"031-317-1500","addr":"경기도 시흥시 장현동 533-2번지 일호주택 1층","indutype":"음식점업 - 음식","category":"restaurant"}]},{"lat":"37.380635623","long":"126.80096775","imageIndex":4,"items":[{"name":"만나김밥","tel":"031-318-6753","addr":"경기도 시흥시 장현동 544-6번지","indutype":"음식점업 - 분식","category":"restaurant"}]},{"lat":"37.381943025","long":"126.8015175","imageIndex":4,"items":[{"name":"만리장성","tel":"031-435-9001","addr":"경기도 시흥시 장현동 530-5번지","indutype":"음식점업 - 중식","category":"restaurant"}]},{"lat":"37.380663693","long":"126.80157738","imageIndex":4,"items":[{"name":"붐비어","tel":"031-317-6778","addr":"경기도 시흥시 장현동 543-4번지 제이파크 상가 103호","indutype":"음식점업 - 간이주점","category":"restaurant"},{"name":"뿅 닭도리탕&찜닭","tel":"031-503-9282","addr":"경기도 시흥시 장현동 543-4번지 J-PARK (주상복합아파트) 104호","indutype":"음식점업 - 닭","category":"restaurant"},{"name":"탕이랑회랑","tel":"031-504-2230","addr":"경기도 시흥시 장현동 543-4번지 J-PARK (주상복합아파트) 101호","indutype":"음식점업 - 음식","category":"restaurant"}]},{"lat":"37.381330053","long":"126.80134978","imageIndex":4,"items":[{"name":"삼형제 시골순대","tel":"","addr":"경기도 시흥시 장현동 545-1번지 1층 102,103,105호","indutype":"음식점업 - 한식","category":"restaurant"}]},{"lat":"37.38169155","long":"126.80199239","imageIndex":4,"items":[{"name":"선도아구찜탕","tel":"031-404-1730","addr":"경기도 시흥시 장현동 546-1번지 드림펠리스 115호","indutype":"음식점업 - 한식","category":"restaurant"},{"name":"초심 (시흥연성점)","tel":"031-435-7778","addr":"경기도 시흥시 장현동 546-1 드림팰리스 111호","indutype":"음식점업 - 한식","category":"restaurant"},{"name":"크리에이티브커피랩(creative coffeelab)","tel":"031-317-9379","addr":"경기도 시흥시 장현동 546-1번지 드림펠리스 1층 106호","indutype":"음식점업 - 카페","category":"restaurant"},{"name":"큰집가마솥순대국","tel":"","addr":"경기도 시흥시 장현동 546-1번지 드림펠리스 1층 113호","indutype":"음식점업 - 한식","category":"restaurant"}]},{"lat":"37.381250191","long":"126.80207261","imageIndex":4,"items":[{"name":"소풍caf?","tel":"031-318-0560","addr":"경기도 시흥시 장현동 547-6번지 해솔프라자 104호","indutype":"음식점업 - 샌드위치,음료","category":"restaurant"},{"name":"장수국수","tel":"031-314-7057","addr":"경기도 시흥시 장현동 547-6번지 해솔프라자 102호","indutype":"음식점업 - 기타음식","category":"restaurant"}]},{"lat":"37.379668643","long":"126.79927673","imageIndex":4,"items":[{"name":"슬립인하노이","tel":"031-313-3002","addr":"경기도 시흥시 장현동 540번지 대동A 상가 102호","indutype":"음식점업 - 음식점","category":"restaurant"}]},{"lat":"37.380885468","long":"126.79954443","imageIndex":4,"items":[{"name":"신통치킨 장현점","tel":"031-318-8555","addr":"경기도 시흥시 장현동 538-3번지 1층 101호","indutype":"음식점업 - 치킨","category":"restaurant"}]},{"lat":"37.380772294","long":"126.80185936","imageIndex":4,"items":[{"name":"아리오돌뼈신닭발","tel":"031-312-9258","addr":"경기도 시흥시 장현동 543-3번지 제이파크주상복합 102호","indutype":"음식점업 - 한식","category":"restaurant"}]},{"lat":"37.381052219","long":"126.80221992","imageIndex":4,"items":[{"name":"오!왕서방","tel":"031-404-3700","addr":"경기도 시흥시 장현동 547-5번지 1층","indutype":"음식점업 - 중식","category":"restaurant"}]},{"lat":"37.381021491","long":"126.80005215","imageIndex":4,"items":[{"name":"온율스시","tel":"031-317-5442","addr":"경기도 시흥시 장현동 537-5번지 1층 103호","indutype":"음식점업 - 일식","category":"restaurant"}]},{"lat":"37.381743726","long":"126.80088574","imageIndex":4,"items":[{"name":"장현뼈다귀해장국","tel":"031-404-4095","addr":"경기도 시흥시 장현동 533-4번지","indutype":"음식점업 - 한식","category":"restaurant"}]},{"lat":"37.381499972","long":"126.80060412","imageIndex":4,"items":[{"name":"참맛나정육식당","tel":"031-318-2818","addr":"경기도 시흥시 장현동 535-4번지","indutype":"음식점업 - 한식","category":"restaurant"}]},{"lat":"37.381521642","long":"126.80274934","imageIndex":4,"items":[{"name":"카페 베르","tel":"031-315-4006","addr":"경기도 시흥시 장현동 548-7번지 102호","indutype":"음식점업 - 퓨전음식","category":"restaurant"}]},{"lat":"37.382466146","long":"126.80183225","imageIndex":4,"items":[{"name":"카페섬김","tel":"031-317-3805","addr":"경기도 시흥시 장현동 529-5번지 1층","indutype":"음식점업 - 커피,음료","category":"restaurant"}]},{"lat":"37.380859639","long":"126.80024453","imageIndex":4,"items":[{"name":"파티세리마레","tel":"031-503-7202","addr":"경기도 시흥시 장현동 539-1번지 은성빌딩 102호","indutype":"음식점업 - 커피숍","category":"restaurant"}]},{"lat":"37.382051338","long":"126.80163012","imageIndex":4,"items":[{"name":"함흥면옥","tel":"031-318-5562","addr":"경기도 시흥시 장현동 530-4번지 조현빌딩","indutype":"음식점업 - 한식,냉면","category":"restaurant"}]}]