[{"lat":"37.295658289","long":"127.43463066","imageIndex":8,"items":[{"name":"E편한치과의원","tel":"031-631-2831","addr":"경기도 이천시 송정동 315번지","indutype":"의원 - 치과의원","category":"medical"},{"name":"송정온누리약국","tel":"031-631-2855","addr":"경기도 이천시 송정동 315번지","indutype":"약국 - 약국","category":"medical"},{"name":"송정한빛의원","tel":"031-633-4377","addr":"경기도 이천시 송정동 315번지","indutype":"의원 - 의원","category":"medical"},{"name":"이편한치과","tel":"031-631-2831","addr":"경기도 이천시 송정동 315번지 106호","indutype":"의원 - 치과의원","category":"medical"}]},{"lat":"37.294960069","long":"127.43337482","imageIndex":8,"items":[{"name":"메디홈즈의원","tel":"031-631-5191","addr":"경기도 이천시 송정동 375-9번지 102호","indutype":"의원 - 의원","category":"medical"},{"name":"송정우리약국","tel":"031-634-0173","addr":"경기도 이천시 송정동 375-9번지","indutype":"약국 - 약국","category":"medical"}]},{"lat":"37.29482258","long":"127.43401687","imageIndex":8,"items":[{"name":"목이당한의원","tel":"031-634-7977","addr":"경기도 이천시 송정동 375-40번지 대용빌딩 1층","indutype":"의원 - 한의원","category":"medical"}]},{"lat":"37.296295487","long":"127.43532227","imageIndex":8,"items":[{"name":"송정푸른솔한의원","tel":"031-631-8902","addr":"경기도 이천시 송정동 317-4번지 중앙프라자 2층 1호","indutype":"의원 - 한의원","category":"medical"}]},{"lat":"37.297209984","long":"127.4390155","imageIndex":8,"items":[{"name":"에스엘치과의원","tel":"031-635-7528","addr":"경기도 이천시 송정동 343번지 송정치과 102호","indutype":"의원 - 치과의원","category":"medical"}]}]