[{"lat":"37.19960962","long":"127.0720532","imageIndex":13,"items":[{"name":"(주)엠엘씨","tel":"070-4141-5336","addr":"경기도 화성시 반송동 107-7번지 아시아프라자 7층","indutype":"레저업소 - 골프연습장","category":"leisure"},{"name":"지앤아이 스크린골프","tel":"031-8015-1191","addr":"경기도 화성시 반송동 107-7번지 아시아프라자 5층 501호","indutype":"레저업소 - 스크린골프","category":"leisure"}]},{"lat":"37.205439026","long":"127.07258796","imageIndex":13,"items":[{"name":"3층노래연습장","tel":"031-8003-5963","addr":"경기도 화성시 반송동 91-2번지 로하스애비뉴 301호","indutype":"레저업소 - 노 래 방","category":"leisure"},{"name":"SBS당구클럽","tel":"031-613-6655","addr":"경기도 화성시 반송동 91-2번지 로하스애비뉴 4층 403호","indutype":"레저업소 - 당 구 장","category":"leisure"},{"name":"아이센스PC방","tel":"","addr":"경기도 화성시 반송동 91-2번지 로하스애비뉴 503호","indutype":"레저업소 - 기타레져업소","category":"leisure"},{"name":"에스비에스노래연습장","tel":"031-663-0447","addr":"경기도 화성시 반송동 91-2번지 로하스애비뉴 203호","indutype":"레저업소 - 노 래 방","category":"leisure"}]},{"lat":"37.20591653","long":"127.07266725","imageIndex":13,"items":[{"name":"COINDAY 동전노래연습장","tel":"","addr":"경기도 화성시 반송동 88-12번지 리더스프라자 2층 203호","indutype":"레저업소 - 노 래 방","category":"leisure"},{"name":"고길동 당구클럽","tel":"070-8115-2888","addr":"경기도 화성시 반송동 88-12번지 리더스프라자 504호,505호,506호","indutype":"레저업소 - 당 구 장","category":"leisure"},{"name":"더엑스","tel":"031-8058-9999","addr":"경기도 화성시 반송동 88-12번지 리더스프라자 6층 601,602,603호","indutype":"레저업소 - 기타레져업소","category":"leisure"},{"name":"라이또","tel":"031-8058-9999","addr":"경기도 화성시 반송동 88-12번지 리더스프라자 6층 604호605호","indutype":"레저업소 - 기타레져업소","category":"leisure"}]},{"lat":"37.200528534","long":"127.07230184","imageIndex":13,"items":[{"name":"OK당구장","tel":"031-8015-3490","addr":"경기도 화성시 반송동 104-9번지 에스엠프라자 8층 801,802호","indutype":"레저업소 - 당 구 장","category":"leisure"},{"name":"화이트짐","tel":"031-8003-4040","addr":"경기도 화성시 반송동 104-9번지 SM프라자 7층","indutype":"레저업소 - 헬스클럽","category":"leisure"},{"name":"화이트짐","tel":"031-1111-1111","addr":"경기도 화성시 반송동 104-9번지 SM프라자 7층","indutype":"레저업소 - 헬스클럽","category":"leisure"}]},{"lat":"37.208769858","long":"127.06150607","imageIndex":13,"items":[{"name":"PC토랑","tel":"031-0000-0000","addr":"경기도 화성시 반송동 43-1번지 토마토프라자 601호","indutype":"레저업소 - 기타레져업소","category":"leisure"},{"name":"나나점핑","tel":"031-8015-0916","addr":"경기도 화성시 반송동 43-1번지 토마토프라자 201호","indutype":"레저업소 - 헬스클럽","category":"leisure"},{"name":"에이스당구클럽","tel":"031-8003-1185","addr":"경기도 화성시 반송동 43-1번지 토마토프라자 602호","indutype":"레저업소 - 당 구 장","category":"leisure"},{"name":"파인콘노래연습장","tel":"031-8003-0268","addr":"경기도 화성시 반송동 43-1번지 토마토프라자 301,302,303호","indutype":"레저업소 - 노 래 방","category":"leisure"},{"name":"해성탁구클럽","tel":"031-8003-0873","addr":"경기도 화성시 반송동 43-1번지 토마토프라자 5층 501호","indutype":"레저업소 - 기타레져업소","category":"leisure"}]},{"lat":"37.205690944","long":"127.07321901","imageIndex":13,"items":[{"name":"W노래연습장","tel":"031-8003-8887","addr":"경기도 화성시 반송동 88-9번지 삼성파크뷰 502호","indutype":"레저업소 - 노 래 방","category":"leisure"},{"name":"앨리스","tel":"031-8003-0430","addr":"경기도 화성시 반송동 88-9번지 삼성파크뷰 604호","indutype":"레저업소 - 노 래 방","category":"leisure"}]},{"lat":"37.202249983","long":"127.07150366","imageIndex":13,"items":[{"name":"강지만골프아카데미","tel":"031-8015-8055","addr":"경기도 화성시 반송동 93-9번지 동탄현대하이페리온 지하1층 1-04호","indutype":"레저업소 - 골프연습장","category":"leisure"}]},{"lat":"37.20646595","long":"127.07302823","imageIndex":13,"items":[{"name":"갤러리노래연습장","tel":"070-4234-3876","addr":"경기도 화성시 반송동 88-2번지 필프라자 502호","indutype":"레저업소 - 노 래 방","category":"leisure"},{"name":"드림원룸","tel":"031-8015-1959","addr":"경기도 화성시 반송동 88-2번지 필프라자 10층","indutype":"레저업소 - 노 래 방","category":"leisure"},{"name":"명품","tel":"031-221-6404","addr":"경기도 화성시 반송동 88-2번지 필프라자 304호","indutype":"레저업소 - 헬스클럽","category":"leisure"},{"name":"코인싱어 동전노래연습장","tel":"","addr":"경기도 화성시 반송동 88-2번지 필프라자 202호, 203호","indutype":"레저업소 - 노 래 방","category":"leisure"},{"name":"테마노래연습장","tel":"031-111-1111","addr":"경기도 화성시 반송동 88-2번지 필프라자 301호","indutype":"레저업소 - 노 래 방","category":"leisure"},{"name":"필 노래연습장","tel":"031-613-1471","addr":"경기도 화성시 반송동 88-2번지 필프라자 501,502호","indutype":"레저업소 - 노 래 방","category":"leisure"}]},{"lat":"37.200465672","long":"127.07194134","imageIndex":13,"items":[{"name":"고고당구클럽","tel":"031-613-3969","addr":"경기도 화성시 반송동 104-11번지 월드프라자 603동 604호","indutype":"레저업소 - 당 구 장","category":"leisure"},{"name":"퀸스에비뉴노래연습장","tel":"031-613-1251","addr":"경기도 화성시 반송동 104-11번지 월드프라자 401~405호","indutype":"레저업소 - 노 래 방","category":"leisure"}]},{"lat":"37.208444423","long":"127.0636124","imageIndex":13,"items":[{"name":"공원노래연습장","tel":"031-613-9709","addr":"경기도 화성시 반송동 42-1번지 동탄삼성프라자 201호","indutype":"레저업소 - 노 래 방","category":"leisure"},{"name":"점핑몬스터","tel":"031-613-2203","addr":"경기도 화성시 반송동 42-1번지 동탄삼성프라자 5층 501,502,503,504호","indutype":"레저업소 - 기타레져업소","category":"leisure"},{"name":"팀윤동탄점","tel":"031-613-5253","addr":"경기도 화성시 반송동 42-1번지 동탄삼성프라자 301동 302호","indutype":"레저업소 - 헬스클럽","category":"leisure"},{"name":"퍼플펍","tel":"070-7795-1212","addr":"경기도 화성시 반송동 42-1번지 동탄삼성프라자 6층 퍼플펍PC","indutype":"레저업소 - 기타레져업소","category":"leisure"}]},{"lat":"37.201024381","long":"127.07182921","imageIndex":13,"items":[{"name":"구떼 피씨(PC)카페","tel":"070-6323-9572","addr":"경기도 화성시 반송동 104-3번지 동탄미래도프라자 4층 401,402호","indutype":"레저업소 - 기타레져업소","category":"leisure"},{"name":"디아망동탄점","tel":"031-8077-2324","addr":"경기도 화성시 반송동 104-3번지 동탄미래도프라자 8층 801호","indutype":"레저업소 - 기타레져업소","category":"leisure"},{"name":"프로방스노래연습장동탄점","tel":"031-111-1111","addr":"경기도 화성시 반송동 104-3번지 동탄미래도프라자 3층302,303호","indutype":"레저업소 - 노 래 방","category":"leisure"}]},{"lat":"37.199943344","long":"127.07146778","imageIndex":13,"items":[{"name":"글램스튜디오","tel":"070-5044-9012","addr":"경기도 화성시 반송동 107-1번지 쎈타프라자 3층 301호","indutype":"레저업소 - 헬스클럽","category":"leisure"},{"name":"동탄 리요가","tel":"031-613-8666","addr":"경기도 화성시 반송동 107-1번지 쎈타프라자 604호","indutype":"레저업소 - 헬스클럽","category":"leisure"},{"name":"플라잉점프파크","tel":"070-4106-1559","addr":"경기도 화성시 반송동 107-1번지 센터프라자 9층 905호~906호","indutype":"레저업소 - 기타레져업소","category":"leisure"}]},{"lat":"37.203915745","long":"127.07347645","imageIndex":13,"items":[{"name":"김윤영 필라테스 스튜디오","tel":"070-7420-4745","addr":"경기도 화성시 반송동 92-2번지 마젤란오피스텔 2007호","indutype":"레저업소 - 헬스클럽","category":"leisure"}]},{"lat":"37.192661998","long":"127.07308304","imageIndex":13,"items":[{"name":"나루노래연습장","tel":"031-613-0456","addr":"경기도 화성시 반송동 216-2번지 샹그릴라 301호,302호","indutype":"레저업소 - 노 래 방","category":"leisure"},{"name":"레인보우 팡팡","tel":"031-8015-5915","addr":"경기도 화성시 반송동 216-2번지 샹그릴라 201호, 202호","indutype":"레저업소 - 기타레져업소","category":"leisure"},{"name":"아트당구장","tel":"031-8015-2451","addr":"경기도 화성시 반송동 216-2번지 303,304호","indutype":"레저업소 - 당 구 장","category":"leisure"}]},{"lat":"37.202354457","long":"127.06152363","imageIndex":13,"items":[{"name":"난다(NADNDA)플라잉요가","tel":"","addr":"경기도 화성시 반송동 67-8번지 1층","indutype":"레저업소 - 헬스클럽","category":"leisure"}]},{"lat":"37.201411861","long":"127.07177324","imageIndex":13,"items":[{"name":"놀러와노래연습장","tel":"031-8003-5533","addr":"경기도 화성시 반송동 103-9번지 승재빌딩 4층","indutype":"레저업소 - 노 래 방","category":"leisure"},{"name":"스트라이크존 동탄남광장점","tel":"031-613-3412","addr":"경기도 화성시 반송동 103-9번지 2층 전체","indutype":"레저업소 - 기타레져업소","category":"leisure"},{"name":"킹이스케이프","tel":"031-613-7898","addr":"경기도 화성시 반송동 103-9번지 302호","indutype":"레저업소 - 기타레져업소","category":"leisure"}]},{"lat":"37.19402232","long":"127.07350103","imageIndex":13,"items":[{"name":"놀숲 동탄점","tel":"031-8015-5201","addr":"경기도 화성시 반송동 220-3번지 삼성미즈빌딩 1층 104호","indutype":"레저업소 - 기타레져업소","category":"leisure"},{"name":"카툰앤북카페놀숲","tel":"031-631-5204","addr":"경기도 화성시 반송동 220-3번지 삼성미즈빌딩 103호","indutype":"레저업소 - 기타레져업소","category":"leisure"}]},{"lat":"37.201051182","long":"127.07222347","imageIndex":13,"items":[{"name":"다은당구클럽","tel":"031-8003-3252","addr":"경기도 화성시 반송동 104-5 광장타워6층 2,3,4호","indutype":"레저업소 - 당 구 장","category":"leisure"}]},{"lat":"37.201221722","long":"127.07333877","imageIndex":13,"items":[{"name":"다함께야구왕 동탄점","tel":"031-613-0099","addr":"경기도 화성시 반송동 106-2번지 화성동탄JO프라자 2층","indutype":"레저업소 - 기타레져업소","category":"leisure"}]},{"lat":"37.202411213","long":"127.07313712","imageIndex":13,"items":[{"name":"더윈드락볼링센터","tel":"","addr":"경기도 화성시 반송동 92-6번지 지하1층","indutype":"레저업소 - 볼 링 장","category":"leisure"}]},{"lat":"37.208742019","long":"127.06311697","imageIndex":13,"items":[{"name":"동탄 다이어트 복싱 낙무아이짐","tel":"031-8003-7587","addr":"경기도 화성시 반송동 41-6번지 303,304호","indutype":"레저업소 - 헬스클럽","category":"leisure"},{"name":"버디노래연습장","tel":"031-000-0000","addr":"경기도 화성시 반송동 41-6번지 반송프라자 3층 302호","indutype":"레저업소 - 노 래 방","category":"leisure"}]},{"lat":"37.203582449","long":"127.0733297","imageIndex":13,"items":[{"name":"동탄 휴 필라테스","tel":"031-8015-0395","addr":"경기도 화성시 반송동 92-3번지 1106호","indutype":"레저업소 - 헬스클럽","category":"leisure"},{"name":"수옴 요가 스튜디오(SUOM Yoga Studio)","tel":"","addr":"경기도 화성시 반송동 92-3번지 21층 2105호","indutype":"레저업소 - 헬스클럽","category":"leisure"}]},{"lat":"37.206717993","long":"127.07344526","imageIndex":13,"items":[{"name":"동탄김석탁구교실","tel":"031-8003-9556","addr":"경기도 화성시 반송동 87-7번지 네오프라자 601호","indutype":"레저업소 - 기타레져업소","category":"leisure"},{"name":"미쉘노래연습장","tel":"","addr":"경기도 화성시 반송동 87-7번지 네오프라자 301호","indutype":"레저업소 - 노 래 방","category":"leisure"},{"name":"본 주짓수 동탄","tel":"031-613-4847","addr":"경기도 화성시 반송동 87-7번지 네오프라자 404호","indutype":"레저업소 - 헬스클럽","category":"leisure"}]},{"lat":"37.207303553","long":"127.07363731","imageIndex":13,"items":[{"name":"동탄스크린 골프존","tel":"031-8003-3044","addr":"경기도 화성시 반송동 86-4번지 위너스타 1013호 1014,1015호","indutype":"레저업소 - 스크린골프","category":"leisure"},{"name":"컬트만화카페","tel":"070-7012-4552","addr":"경기도 화성시 반송동 86-4번지 위너스타 6층 601호","indutype":"레저업소 - 기타레져업소","category":"leisure"}]},{"lat":"37.204970127","long":"127.07319582","imageIndex":13,"items":[{"name":"동탄탁구클럽","tel":"031-8015-4712","addr":"경기도 화성시 반송동 91-7번지 월드프라자5층 502호","indutype":"레저업소 - 기타레져업소","category":"leisure"}]},{"lat":"37.206853081","long":"127.07355804","imageIndex":13,"items":[{"name":"디엔에이당구클럽","tel":"031-613-0759","addr":"경기도 화성시 반송동 87-1번지 304,305호","indutype":"레저업소 - 당 구 장","category":"leisure"},{"name":"점핑파크 동탄지점","tel":"031-8003-3010","addr":"경기도 화성시 반송동 87-1번지 가희프라자 501호","indutype":"레저업소 - 기타레져업소","category":"leisure"}]},{"lat":"37.20163731","long":"127.07144678","imageIndex":13,"items":[{"name":"랭커PC방 동탄점","tel":"","addr":"경기도 화성시 반송동 103-2번지 천년프라자 602호 601호, 602호","indutype":"레저업소 - 기타레져업소","category":"leisure"}]},{"lat":"37.205051387","long":"127.07291427","imageIndex":13,"items":[{"name":"레드핏휘트니스","tel":"031-8003-7759","addr":"경기도 화성시 반송동 91-8번지 삼현빌딩 204호 203호","indutype":"레저업소 - 헬스클럽","category":"leisure"}]},{"lat":"37.200608955","long":"127.07343958","imageIndex":13,"items":[{"name":"롤러와동탄(Rollerwa) 동탄","tel":"070-8015-0010","addr":"경기도 화성시 반송동 106-5번지 유정프라자 201호~205호","indutype":"레저업소 - 기타레져업소","category":"leisure"}]},{"lat":"37.194327854","long":"127.07486414","imageIndex":13,"items":[{"name":"리발란스 필라테스(rebalance pilates)","tel":"061-8015-4461","addr":"경기도 화성시 반송동 218-1번지 계림개발 4층 405-405호","indutype":"레저업소 - 헬스클럽","category":"leisure"}]},{"lat":"37.200969418","long":"127.07336107","imageIndex":13,"items":[{"name":"리얼야구존 동탄남광장점","tel":"031-613-1031","addr":"경기도 화성시 반송동 106-3번지 돌모루프라자 제3층 302호,303호,304호","indutype":"레저업소 - 기타레져업소","category":"leisure"},{"name":"챔피언","tel":"031-613-0606","addr":"경기도 화성시 반송동 106-3번지 돌모루프라자 7층 701호","indutype":"레저업소 - 스크린골프","category":"leisure"}]},{"lat":"37.202799584","long":"127.07156048","imageIndex":13,"items":[{"name":"리윰필라테스 동탄","tel":"","addr":"경기도 화성시 반송동 93-10번지 2층 211,212,213호","indutype":"레저업소 - 헬스클럽","category":"leisure"},{"name":"필라테스투유","tel":"070-8171-8170","addr":"경기도 화성시 반송동 93-10번지 동탄지웰에스테이트 B동 1101호","indutype":"레저업소 - 헬스클럽","category":"leisure"}]},{"lat":"37.199528801","long":"127.07158004","imageIndex":13,"items":[{"name":"마스터스크린골프장","tel":"031-8003-7559","addr":"경기도 화성시 반송동 107-8번지 9층","indutype":"레저업소 - 스크린골프","category":"leisure"}]},{"lat":"37.208219531","long":"127.06289125","imageIndex":13,"items":[{"name":"마이올필라테스&요가","tel":"031-8055-8220","addr":"경기도 화성시 반송동 43-6번지 골드프라자 505호","indutype":"레저업소 - 헬스클럽","category":"leisure"},{"name":"센츄럴노래연습장","tel":"031-8003-8461","addr":"경기도 화성시 반송동 43-6번지 골드프라자 401동 402호","indutype":"레저업소 - 노 래 방","category":"leisure"},{"name":"센츄럴노래연습장","tel":"031-613-3582","addr":"경기도 화성시 반송동 43-6번지 골드프라자 401 ,402,403호","indutype":"레저업소 - 노 래 방","category":"leisure"}]},{"lat":"37.206970531","long":"127.0730287","imageIndex":13,"items":[{"name":"맥락테라피","tel":"031-613-9602","addr":"경기도 화성시 반송동 86-1번지 아인슈타인프라자 5층 503호","indutype":"레저업소 - 헬스클럽","category":"leisure"}]},{"lat":"37.20274212","long":"127.06108463","imageIndex":13,"items":[{"name":"메꿀다이어트","tel":"","addr":"경기도 화성시 반송동 64-10번지 101호","indutype":"레저업소 - 헬스클럽","category":"leisure"}]},{"lat":"37.193274424","long":"127.07355665","imageIndex":13,"items":[{"name":"몬스터PC방","tel":"031-213-4501","addr":"경기도 화성시 반송동 217-5번지 금탑프라자 202,203,204호","indutype":"레저업소 - 기타레져업소","category":"leisure"}]},{"lat":"37.205582652","long":"127.07350053","imageIndex":13,"items":[{"name":"무비이스케이프 방탈출동탄점","tel":"031-613-9788","addr":"경기도 화성시 반송동 88-8번지 수성프라자 5층 501호","indutype":"레저업소 - 기타레져업소","category":"leisure"}]},{"lat":"37.205826293","long":"127.07289246","imageIndex":13,"items":[{"name":"무한도전노래연습장","tel":"031-8015-3457","addr":"경기도 화성시 반송동 88-11번지 씨티플러스 3층 303호","indutype":"레저업소 - 노 래 방","category":"leisure"},{"name":"시그널헌터 동탄점(시그널헌터)","tel":"031-613-3074","addr":"경기도 화성시 반송동 88-11번지 씨티플러스 1동 6층 1호","indutype":"레저업소 - 기타레져업소","category":"leisure"},{"name":"씨엘노래연습장","tel":"031-8015-3948","addr":"경기도 화성시 반송동 88-11번지 씨티플러스 205호","indutype":"레저업소 - 노 래 방","category":"leisure"}]},{"lat":"37.193112877","long":"127.07247526","imageIndex":13,"items":[{"name":"미스트롯송가인노래연습장","tel":"","addr":"경기도 화성시 반송동 221-2번지 서건프라자 303호","indutype":"레저업소 - 노 래 방","category":"leisure"}]},{"lat":"37.209805454","long":"127.06270099","imageIndex":13,"items":[{"name":"바디앤발란스(Body&Balance)","tel":"","addr":"경기도 화성시 반송동 39-3번지 1층","indutype":"레저업소 - 헬스클럽","category":"leisure"}]},{"lat":"37.204078446","long":"127.07260923","imageIndex":13,"items":[{"name":"바디얼라인","tel":"070-7420-9681","addr":"경기도 화성시 반송동 93-3번지 동탄파라곤 2층 243호","indutype":"레저업소 - 헬스클럽","category":"leisure"},{"name":"조은발달센터","tel":"","addr":"경기도 화성시 반송동 93-3번지 동탄파라곤 2층 237호","indutype":"레저업소 - 헬스클럽","category":"leisure"},{"name":"주식회사 엘리펀","tel":"031-8015-3114","addr":"경기도 화성시 반송동 93-3번지 동탄파라곤 2층","indutype":"레저업소 - 기타레져업소","category":"leisure"},{"name":"테니스핏동탄","tel":"031-8015-0519","addr":"경기도 화성시 반송동 93-3번지 동탄파라곤 2층 252,253호","indutype":"레저업소 - 테니스장","category":"leisure"}]},{"lat":"37.206583231","long":"127.07278051","imageIndex":13,"items":[{"name":"바론필라테스 동탄점","tel":"031-613-9637","addr":"경기도 화성시 반송동 88-1번지 동탄제일프라자 404호","indutype":"레저업소 - 헬스클럽","category":"leisure"},{"name":"바론필라테스 동탄점","tel":"031-613-9637","addr":"경기도 화성시 반송동 88-1번지 동탄제일프라자 303호","indutype":"레저업소 - 헬스클럽","category":"leisure"},{"name":"캠프VR 동탄","tel":"","addr":"경기도 화성시 반송동 88-1번지 동탄제일프라자 3층 301호","indutype":"레저업소 - 기타레져업소","category":"leisure"},{"name":"피트니스914(FITNESS914)","tel":"031-8015-1914","addr":"경기도 화성시 반송동 88-1번지 동탄제일프라자 205호","indutype":"레저업소 - 헬스클럽","category":"leisure"}]},{"lat":"37.193859702","long":"127.07422171","imageIndex":13,"items":[{"name":"방가노래연습장","tel":"070-8834-8628","addr":"경기도 화성시 반송동 217-1번지 리첸프라자 2층 208호","indutype":"레저업소 - 노 래 방","category":"leisure"},{"name":"보니따필라테스 동탄반송점","tel":"031-8003-1926","addr":"경기도 화성시 반송동 217-1번지 리첸프라자 2층 208호","indutype":"레저업소 - 헬스클럽","category":"leisure"}]},{"lat":"37.202715631","long":"127.05996944","imageIndex":13,"items":[{"name":"방방스타동탄점","tel":"031-372-4640","addr":"경기도 화성시 반송동 65-12번지","indutype":"레저업소 - 기타레져업소","category":"leisure"}]},{"lat":"37.206357692","long":"127.07325343","imageIndex":13,"items":[{"name":"배클킹","tel":"070-4100-0324","addr":"경기도 화성시 반송동 88-3번지 중앙프라자 2층 203호","indutype":"레저업소 - 기타레져업소","category":"leisure"},{"name":"샹떼PC방 화성반송점","tel":"","addr":"경기도 화성시 반송동 88-3번지 중앙프라자 8층","indutype":"레저업소 - 기타레져업소","category":"leisure"},{"name":"스카이당구회관","tel":"031-8003-0789","addr":"경기도 화성시 반송동 88-3중앙프라자501,502,503호","indutype":"레저업소 - 당 구 장","category":"leisure"},{"name":"스타노래연습장","tel":"031-613-2154","addr":"경기도 화성시 반송동 88-3번지 중앙프라자 701,702호","indutype":"레저업소 - 노 래 방","category":"leisure"},{"name":"스타노래연습장","tel":"031-613-2154","addr":"경기도 화성시 반송동 88-3중앙프라자701~702호","indutype":"레저업소 - 노 래 방","category":"leisure"},{"name":"입큰개구리 노래연습장","tel":"031-8003-2852","addr":"경기도 화성시 반송동 88-3번지 중앙프라자 603, 604호","indutype":"레저업소 - 노 래 방","category":"leisure"},{"name":"휴 노래연습장","tel":"031-000-0000","addr":"경기도 화성시 반송동 88-3번지 중앙프라자 304호","indutype":"레저업소 - 노 래 방","category":"leisure"}]},{"lat":"37.200438798","long":"127.07167098","imageIndex":13,"items":[{"name":"밸런스브레인 동탄지점","tel":"031-8015-5532","addr":"경기도 화성시 반송동 104-12번지 동탄프라자 202호 일부","indutype":"레저업소 - 기타레져업소","category":"leisure"},{"name":"커브스 동탄클럽","tel":"031-8003-3070","addr":"경기도 화성시 반송동 104-12번지 동탄프라자 3층 304호","indutype":"레저업소 - 헬스클럽","category":"leisure"}]},{"lat":"37.206688871","long":"127.06067086","imageIndex":13,"items":[{"name":"블랙핏 주식회사","tel":"031-8077-2613","addr":"경기도 화성시 반송동 52-19번지 1층","indutype":"레저업소 - 헬스클럽","category":"leisure"}]},{"lat":"37.201024538","long":"127.07155887","imageIndex":13,"items":[{"name":"비엠더블유노래연습장","tel":"","addr":"경기도 화성시 반송동 104-2번지 한솔프라자 504호,505호","indutype":"레저업소 - 노 래 방","category":"leisure"},{"name":"스카이뷰 당구장","tel":"070-7743-7479","addr":"경기도 화성시 반송동 104-2번지 한솔프라자 10층","indutype":"레저업소 - 당 구 장","category":"leisure"},{"name":"아이언팜스클라이밍센터","tel":"031-8015-5054","addr":"경기도 화성시 반송동 104-2번지 한솔프라자 903,904호","indutype":"레저업소 - 기타레져업소","category":"leisure"},{"name":"잇츠PC (동탄점)","tel":"070-3922-6266","addr":"경기도 화성시 반송동 104-2번지 한솔프라자 지하1층","indutype":"레저업소 - 기타레져업소","category":"leisure"}]},{"lat":"37.208020663","long":"127.06414152","imageIndex":13,"items":[{"name":"비온필라테스","tel":"031-8003-4441","addr":"경기도 화성시 반송동 42-3번지 하나로프라자 503호","indutype":"레저업소 - 헬스클럽","category":"leisure"},{"name":"썬당구장","tel":"031-613-3949","addr":"경기도 화성시 반송동 42-3번지 하나로프라자 501동 502-1호","indutype":"레저업소 - 당 구 장","category":"leisure"},{"name":"파브노래연습장","tel":"031-613-8596","addr":"경기도 화성시 반송동 42-3번지 하나로프라자 201호","indutype":"레저업소 - 노 래 방","category":"leisure"},{"name":"헬로방방동탄점","tel":"031-613-8740","addr":"경기도 화성시 반송동 42-3번지 하나로프라자 401,402,403호","indutype":"레저업소 - 기타레져업소","category":"leisure"}]},{"lat":"37.20210486","long":"127.07313684","imageIndex":13,"items":[{"name":"스타골프존","tel":"031-8003-0075","addr":"경기도 화성시 반송동 92-7번지 스타프라자 5층 502호, 503호, 504호","indutype":"레저업소 - 스크린골프","category":"leisure"}]},{"lat":"37.204465813","long":"127.07274477","imageIndex":13,"items":[{"name":"씨포스짐","tel":"031-8012-2282","addr":"경기도 화성시 반송동 93-2번지 6층 동탄SR 604,605,606호","indutype":"레저업소 - 헬스클럽","category":"leisure"}]},{"lat":"37.199997132","long":"127.07194091","imageIndex":13,"items":[{"name":"아이엠코인 노래연습장","tel":"","addr":"경기도 화성시 반송동 107-2번지 워터밸리 2층 201호","indutype":"레저업소 - 노 래 방","category":"leisure"},{"name":"탑 플레이스 동탄점","tel":"070-9287-2898","addr":"경기도 화성시 반송동 107-2번지 워터밸리 206,207호","indutype":"레저업소 - 기타레져업소","category":"leisure"},{"name":"퍼펙트바디(PERFECTBODY)","tel":"031-8003-4986","addr":"경기도 화성시 반송동 107-2번지 5층 워터밸리 501-507호","indutype":"레저업소 - 헬스클럽","category":"leisure"}]},{"lat":"37.19308534","long":"127.07333121","imageIndex":13,"items":[{"name":"아크(ARK PC)","tel":"","addr":"경기도 화성시 반송동 217-6번지 거택프라자 201,202호","indutype":"레저업소 - 기타레져업소","category":"leisure"}]},{"lat":"37.201637133","long":"127.07175091","imageIndex":13,"items":[{"name":"안녕,요가원","tel":"031-613-0772","addr":"경기도 화성시 반송동 103-3번지 디앤씨빌딩 3층 303호,304호","indutype":"레저업소 - 헬스클럽","category":"leisure"}]},{"lat":"37.205159724","long":"127.07255391","imageIndex":13,"items":[{"name":"앵콜노래연습장","tel":"031-613-5168","addr":"경기도 화성시 반송동 91-9번지 금정프라자 602호","indutype":"레저업소 - 노 래 방","category":"leisure"},{"name":"지인진복싱스포츠","tel":"031-8015-1213","addr":"경기도 화성시 반송동 91-9 금정프라자702호~703호","indutype":"레저업소 - 헬스클럽","category":"leisure"}]},{"lat":"37.2061863","long":"127.07357995","imageIndex":13,"items":[{"name":"에스엠당구장(SM당구장)","tel":"","addr":"경기도 화성시 반송동 88-5번지 성진빌딩 3층","indutype":"레저업소 - 당 구 장","category":"leisure"},{"name":"청담미","tel":"031-613-1369","addr":"경기도 화성시 반송동 88-5번지 성진빌딩 7층","indutype":"레저업소 - 헬스클럽","category":"leisure"}]},{"lat":"37.205637486","long":"127.07219387","imageIndex":13,"items":[{"name":"와코짐","tel":"031-8003-8425","addr":"경기도 화성시 반송동 91-1번지 아인슈타인타워","indutype":"레저업소 - 헬스클럽","category":"leisure"}]},{"lat":"37.207159669","long":"127.07316405","imageIndex":13,"items":[{"name":"유노점프 (동탄점)","tel":"070-4922-1261","addr":"경기도 화성시 반송동 86-2번지 동탄센타타워 303,304호","indutype":"레저업소 - 헬스클럽","category":"leisure"}]},{"lat":"37.209965469","long":"127.06685804","imageIndex":13,"items":[{"name":"이공미닛짐","tel":"031-8058-1232","addr":"경기도 화성시 반송동 16-4번지 1층","indutype":"레저업소 - 헬스클럽","category":"leisure"}]},{"lat":"37.195965873","long":"127.07788426","imageIndex":13,"items":[{"name":"장 탁구클럽","tel":"","addr":"경기도 화성시 반송동 131-4번지 1층","indutype":"레저업소 - 기타레져업소","category":"leisure"}]},{"lat":"37.201078048","long":"127.0725051","imageIndex":13,"items":[{"name":"정의철의 운동놀이터","tel":"031-613-1716","addr":"경기도 화성시 반송동 104-6번지 프라임빌딩 7층","indutype":"레저업소 - 헬스클럽","category":"leisure"},{"name":"파브노래연습장","tel":"031-613-6627","addr":"경기도 화성시 반송동 104-6성민프라자402호~403호","indutype":"레저업소 - 노 래 방","category":"leisure"}]},{"lat":"37.206942787","long":"127.07422275","imageIndex":13,"items":[{"name":"제닉스아레나 PC방","tel":"031-8043-1264","addr":"경기도 화성시 반송동 86-7번지 오피스타워 204,204-1,205호","indutype":"레저업소 - 기타레져업소","category":"leisure"}]},{"lat":"37.194220415","long":"127.07372647","imageIndex":13,"items":[{"name":"주식회사더랩스피블릭","tel":"031-8003-8661","addr":"경기도 화성시 반송동 220-1번지 훼미리빌딩 505,506","indutype":"레저업소 - 헬스클럽","category":"leisure"}]},{"lat":"37.196632884","long":"127.07750196","imageIndex":13,"items":[{"name":"진스 피트니스 앤 댄스","tel":"070-8286-9531","addr":"경기도 화성시 반송동 130-1번지 성원프라자 5층","indutype":"레저업소 - 헬스클럽","category":"leisure"}]},{"lat":"37.198579057","long":"127.07761651","imageIndex":13,"items":[{"name":"캐빈","tel":"031-111-1111","addr":"경기도 화성시 반송동 112-6번지 101호","indutype":"레저업소 - 기타레져업소","category":"leisure"}]},{"lat":"37.209634023","long":"127.06316274","imageIndex":13,"items":[{"name":"캠프마린레저","tel":"031-613-3187","addr":"경기도 화성시 반송동 39-6번지 102호","indutype":"레저업소 - 기타레져업소","category":"leisure"}]},{"lat":"37.206078021","long":"127.07383894","imageIndex":13,"items":[{"name":"킹덤(King dom)","tel":"031-8003-5969","addr":"경기도 화성시 반송동 88-6번지 세림프라자 502호","indutype":"레저업소 - 헬스클럽","category":"leisure"}]},{"lat":"37.199942594","long":"127.07275186","imageIndex":13,"items":[{"name":"킹스짐","tel":"031-613-1751","addr":"경기도 화성시 반송동 107-5번지 동진프라자 2~6층","indutype":"레저업소 - 헬스클럽","category":"leisure"}]},{"lat":"37.204556352","long":"127.07200139","imageIndex":13,"items":[{"name":"팀 제이(Team J)스포츠","tel":"031-613-9015","addr":"경기도 화성시 반송동 93-1번지 풍성 위버폴리스 비주거용휘트니스센터 5층","indutype":"레저업소 - 헬스클럽","category":"leisure"}]},{"lat":"37.196470944","long":"127.07710759","imageIndex":13,"items":[{"name":"파코스 당구클럽","tel":"031-8015-2727","addr":"경기도 화성시 반송동 130-4번지 세교프라자 2층","indutype":"레저업소 - 당 구 장","category":"leisure"},{"name":"팡팡노래연습장","tel":"070-4105-8877","addr":"경기도 화성시 반송동 130-4번지 세교프라자 5층","indutype":"레저업소 - 노 래 방","category":"leisure"}]},{"lat":"37.202910616","long":"127.0663452","imageIndex":13,"items":[{"name":"필라테스 (pilates)","tel":"","addr":"경기도 화성시 반송동 80번지 다은마을월드메르디앙반도유보라 333동 1804호","indutype":"레저업소 - 헬스클럽","category":"leisure"}]},{"lat":"37.207605899","long":"127.06469317","imageIndex":13,"items":[{"name":"허브 노래연습장","tel":"031-0000-0000","addr":"경기도 화성시 반송동 42-5번지 하나로오피스텔 201호","indutype":"레저업소 - 노 래 방","category":"leisure"}]},{"lat":"37.196416457","long":"127.07778333","imageIndex":13,"items":[{"name":"헬로키즈풀","tel":"031-666-6666","addr":"경기도 화성시 반송동 129-1번지 101호","indutype":"레저업소 - 수 영 장","category":"leisure"}]},{"lat":"37.206663634","long":"127.07394087","imageIndex":13,"items":[{"name":"힐링노래연습장","tel":"070-8947-4490","addr":"경기도 화성시 반송동 87-3번지 로드프라자 201호","indutype":"레저업소 - 노 래 방","category":"leisure"}]}]