[{"lat":"37.637937698","long":"126.83359402","imageIndex":7,"items":[{"name":"24시편의점","tel":"031-969-4696","addr":"경기도 고양시 덕양구 화정동 908번지","indutype":"유통업 영리 - 슈퍼마켓","category":"mart"}]},{"lat":"37.629884206","long":"126.82823128","imageIndex":7,"items":[{"name":"건영마트","tel":"031-973-5500","addr":"경기도 고양시 덕양구 화정동","indutype":"유통업 영리 - 슈퍼마켓","category":"mart"}]},{"lat":"37.63396446","long":"126.83362569","imageIndex":7,"items":[{"name":"뉴하나마트","tel":"031-979-7223","addr":"경기도 고양시 덕양구 화정동 974번지","indutype":"유통업 영리 - 슈퍼마켓","category":"mart"}]},{"lat":"37.63866383","long":"126.83106583","imageIndex":7,"items":[{"name":"두배로마트","tel":"031-967-0202","addr":"경기도 고양시 덕양구 화정동 928-8번지","indutype":"유통업 영리 - 슈퍼마켓","category":"mart"}]},{"lat":"37.635388234","long":"126.8337924","imageIndex":7,"items":[{"name":"보미식자재마트/주식회사원신산업","tel":"031-966-4322","addr":"경기도 고양시 덕양구 화정동 964-3번지","indutype":"유통업 영리 - 슈퍼마켓","category":"mart"}]},{"lat":"37.628745826","long":"126.83223282","imageIndex":7,"items":[{"name":"부영 슈퍼","tel":"031-971-2323","addr":"경기도 고양시 덕양구 화정동 1004번지 옥빛마을14단지아파트","indutype":"유통업 영리 - 슈퍼마켓","category":"mart"}]},{"lat":"37.642518398","long":"126.82998057","imageIndex":7,"items":[{"name":"성연마트","tel":"031-969-5778","addr":"경기도 고양시 덕양구 화정동 695-7번지","indutype":"유통업 영리 - 슈퍼마켓","category":"mart"}]},{"lat":"37.630158622","long":"126.8310401","imageIndex":7,"items":[{"name":"세띠앙25마트","tel":"031-978-8555","addr":"경기도 고양시 덕양구 화정동 1002-7번지","indutype":"유통업 영리 - 슈퍼마켓","category":"mart"}]},{"lat":"37.639324717","long":"126.83326231","imageIndex":7,"items":[{"name":"어울림마트","tel":"031-964-4885","addr":"경기도 고양시 덕양구 화정동 892-6번지","indutype":"유통업 영리 - 슈퍼마켓","category":"mart"}]},{"lat":"37.63205356","long":"126.83304093","imageIndex":7,"items":[{"name":"예스24","tel":"031-971-0461","addr":"경기도 고양시 덕양구 화정동 977번지","indutype":"유통업 영리 - 슈퍼마켓","category":"mart"}]},{"lat":"37.63843685","long":"126.82987673","imageIndex":7,"items":[{"name":"오송슈퍼","tel":"031-965-5177","addr":"경기도 고양시 덕양구 화정동 930번지","indutype":"유통업 영리 - 슈퍼마켓","category":"mart"}]},{"lat":"37.637831218","long":"126.83473856","imageIndex":7,"items":[{"name":"착한마트","tel":"031-969-6646","addr":"경기도 고양시 덕양구 화정동","indutype":"유통업 영리 - 슈퍼마켓","category":"mart"}]},{"lat":"37.63047111","long":"126.83532157","imageIndex":7,"items":[{"name":"코사마트 봉봉점","tel":"031-972-0083","addr":"경기도 고양시 덕양구 화정동 993번지","indutype":"유통업 영리 - 슈퍼마켓","category":"mart"}]},{"lat":"37.640582015","long":"126.83046092","imageIndex":7,"items":[{"name":"코사마트(용정점)","tel":"031-964-2868","addr":"경기도 고양시 덕양구 화정동 917-15번지","indutype":"유통업 영리 - 슈퍼마켓","category":"mart"}]},{"lat":"37.631992858","long":"126.82848691","imageIndex":7,"items":[{"name":"한양마트","tel":"031-974-5949","addr":"경기도 고양시 덕양구 화정동","indutype":"유통업 영리 - 슈퍼마켓","category":"mart"}]},{"lat":"37.641548866","long":"126.83239615","imageIndex":7,"items":[{"name":"현대슈퍼","tel":"031-967-6341","addr":"경기도 고양시 덕양구 화정동","indutype":"유통업 영리 - 슈퍼마켓","category":"mart"}]},{"lat":"37.64007403","long":"126.83431429","imageIndex":7,"items":[{"name":"현대유통","tel":"031-966-6352","addr":"경기도 고양시 덕양구 화정동 886-4번지","indutype":"유통업 영리 - 슈퍼마켓","category":"mart"}]},{"lat":"37.630159195","long":"126.82534188","imageIndex":7,"items":[{"name":"화정수퍼","tel":"031-971-5832","addr":"경기도 고양시 덕양구 화정동","indutype":"유통업 영리 - 슈퍼마켓","category":"mart"}]}]