[{"lat":"37.787338804","long":"126.99213115","imageIndex":7,"items":[{"name":"(주)아프로마트","tel":"","addr":"경기도 양주시 백석읍 복지리 132-6번지","indutype":"유통업 영리 - 슈퍼마켓","category":"mart"}]},{"lat":"37.785671929","long":"126.99090536","imageIndex":7,"items":[{"name":"세븐365마트","tel":"031-877-3726","addr":"경기도 양주시 백석읍 복지리 107-13 A동 2,3호","indutype":"유통업 영리 - 슈퍼마켓","category":"mart"}]},{"lat":"37.791537262","long":"126.99255061","imageIndex":16,"items":[{"name":"DS생각발전소학원","tel":"","addr":"경기도 양주시 백석읍 복지리 184-1번지","indutype":"학원 - 보습학원","category":"study"}]},{"lat":"37.787843083","long":"126.98965623","imageIndex":16,"items":[{"name":"그레이스 음악학원","tel":"031-829-3553","addr":"경기도 양주시 백석읍 복지리 155-1번지 세영빌딩 2층","indutype":"학원 - 예·체능계학원","category":"study"},{"name":"이엠(EM)학원","tel":"031-000-0000","addr":"경기도 양주시 백석읍 복지리 155-1번지 3층","indutype":"학원 - 보습학원","category":"study"}]},{"lat":"37.783589821","long":"126.98393565","imageIndex":16,"items":[{"name":"레인보우아트미술학원","tel":"031-855-4279","addr":"경기도 양주시 백석읍 복지리 290번지 204 (동화은하수큰마을제1지구204~209호)","indutype":"학원 - 예·체능계학원","category":"study"}]},{"lat":"37.781328203","long":"126.98252864","imageIndex":16,"items":[{"name":"마이클레프음악교습소","tel":"031-878-7328","addr":"경기도 양주시 백석읍 복지리 567번지 동화6차옥시죤 상가 202호","indutype":"학원 - 예·체능계학원","category":"study"}]},{"lat":"37.783149315","long":"126.99134849","imageIndex":16,"items":[{"name":"매쓰트리수학교습소","tel":"031-829-8286","addr":"경기도 양주시 백석읍 복지리 80번지 가야써니빌5차아파트 1층 106호","indutype":"회원제형태 - 학원","category":"study"},{"name":"키즈앳8플레이","tel":"","addr":"경기도 양주시 백석읍 복지리 80번지 가야5차써니빌 상가동 2층 206호","indutype":"학원 - 학습지 교육","category":"study"}]},{"lat":"37.787419631","long":"126.98959954","imageIndex":16,"items":[{"name":"백석종로엠보습학원","tel":"031-826-8266","addr":"경기도 양주시 백석읍 복지리 155-2번지 2층","indutype":"학원 - 보습학원","category":"study"}]},{"lat":"37.786726319","long":"126.99407249","imageIndex":16,"items":[{"name":"양주바리스타학원백석점","tel":"031-871-1177","addr":"경기도 양주시 백석읍 복지리 134-23번지 2층","indutype":"학원 - 기능학원","category":"study"}]},{"lat":"37.78589719","long":"126.99113237","imageIndex":16,"items":[{"name":"용인대청룡태권도","tel":"031-875-4568","addr":"경기도 양주시 백석읍 복지리 107-1번지 1 (2층)","indutype":"학원 - 예·체능계학원","category":"study"}]},{"lat":"37.782229397","long":"126.98399275","imageIndex":16,"items":[{"name":"이담학원","tel":"031-879-6222","addr":"경기도 양주시 백석읍 복지리 322-4번지 동화은하수초록마을아파트 402호 401호,402호","indutype":"학원 - 보습학원","category":"study"}]},{"lat":"37.785454892","long":"126.98460495","imageIndex":16,"items":[{"name":"이플러스보습학원","tel":"031-879-6223","addr":"경기도 양주시 백석읍 복지리 294-2번지 2층","indutype":"학원 - 보습학원","category":"study"}]},{"lat":"37.78664484","long":"126.98982673","imageIndex":16,"items":[{"name":"청담예스(YES)전문학원","tel":"031-928-5668","addr":"경기도 양주시 백석읍 복지리 123-1번지","indutype":"학원 - 예·체능계학원","category":"study"}]},{"lat":"37.787230659","long":"126.99180195","imageIndex":16,"items":[{"name":"프리미엄 채움 독서실","tel":"070-8286-5145","addr":"경기도 양주시 백석읍 복지리 132-5번지 2층 좌측","indutype":"학원 - 독서실","category":"study"}]},{"lat":"37.786005701","long":"126.99621815","imageIndex":16,"items":[{"name":"해동검도백석본관","tel":"031-829-5739","addr":"경기도 양주시 백석읍 복지리 43-1번지 2층 201호","indutype":"회원제형태 - 학원","category":"study"}]},{"lat":"37.786816457","long":"126.99466281","imageIndex":16,"items":[{"name":"해커스아카데미컴퓨터학원","tel":"031-829-7007","addr":"경기도 양주시 백석읍 복지리 135번지 선진빌딩 2층","indutype":"학원 - 컴퓨터학원","category":"study"}]},{"lat":"37.785338584","long":"126.99096217","imageIndex":16,"items":[{"name":"형제독서실","tel":"031-829-3156","addr":"경기도 양주시 백석읍 복지리 100-3번지 2층","indutype":"학원 - 독서실","category":"study"}]},{"lat":"37.786753323","long":"126.99374327","imageIndex":16,"items":[{"name":"화랑경호무술원","tel":"031-879-0655","addr":"경기도 양주시 백석읍 복지리 134-4","indutype":"학원 - 예·체능계학원","category":"study"}]},{"lat":"37.786815931","long":"126.98904339","imageIndex":16,"items":[{"name":"힐스쿨어학원","tel":"031-878-3445","addr":"경기도 양주시 백석읍 복지리 265-2번지 1층,3층","indutype":"학원 - 외국어학원","category":"study"}]},{"lat":"37.782229397","long":"126.98399275","imageIndex":17,"items":[{"name":"GS25백석은하수점","tel":"","addr":"경기도 양주시 백석읍 복지리 322-4번지 샤도베르 상가동 101,102-1호","indutype":"유통업 영리 - 편 의 점","category":"other"},{"name":"크린토피아","tel":"031-836-8771","addr":"경기도 양주시 백석읍 복지리 322-4번지 (초록마을샤또베르상가102-2-103-1호)","indutype":"수리서비스 - 세탁소","category":"other"}]},{"lat":"37.787843083","long":"126.98965623","imageIndex":17,"items":[{"name":"NANAMI","tel":"070-4232-3545","addr":"경기도 양주시 백석읍 복지리 155-1번지 102호","indutype":"의류 - 정장","category":"other"},{"name":"백석복싱체육관","tel":"031-824-3799","addr":"경기도 양주시 백석읍 복지리 155-1번지 3층","indutype":"회원제형태 - 레져업소","category":"other"},{"name":"아미고스 플라워 (AMIGOS FLOWER)","tel":"070-4015-8944","addr":"경기도 양주시 백석읍 복지리 155-1번지 1층","indutype":"문화.취미 - 화원","category":"other"}]},{"lat":"37.790618282","long":"126.99240315","imageIndex":17,"items":[{"name":"unitech(유니테크)","tel":"031-829-6231","addr":"경기도 양주시 백석읍 복지리 171-2번지","indutype":"건축자재 - 조명기구","category":"other"},{"name":"원광고기획","tel":"031-829-7848","addr":"경기도 양주시 백석읍 복지리 171-2번지","indutype":"건축자재 - 인테리어전문","category":"other"},{"name":"원시큐리티","tel":"031-877-0519","addr":"경기도 양주시 백석읍 복지리 171-2번지 5호","indutype":"용역 서비스 - 기타용역서비스","category":"other"},{"name":"탑 갤러리","tel":"","addr":"경기도 양주시 백석읍 복지리 171-2번지","indutype":"의류 - 정장","category":"other"},{"name":"형제철물","tel":"031-879-6608","addr":"경기도 양주시 백석읍 복지리 171-2번지 1층","indutype":"건축자재 - 목재·석재·철물","category":"other"}]},{"lat":"37.785455676","long":"126.99065565","imageIndex":17,"items":[{"name":"가야태권도장","tel":"031-878-6992","addr":"경기도 양주시 백석읍 복지리 107-14번지 2층","indutype":"회원제형태 - 레져업소","category":"other"}]},{"lat":"37.786950867","long":"126.98738591","imageIndex":17,"items":[{"name":"광산전기공사","tel":"031-855-1088","addr":"경기도 양주시 백석읍 복지리 238-3","indutype":"건축자재 - 조명기구","category":"other"},{"name":"명품주방용품&잡화","tel":"070-7755-1528","addr":"경기도 양주시 백석읍 복지리 238-3번지 3호","indutype":"주방용구 - 주방용구","category":"other"},{"name":"쌍둥이 종묘사","tel":"031-877-4092","addr":"경기도 양주시 백석읍 복지리 238-3번지 102호","indutype":"농업 - 비료,사료,종자","category":"other"},{"name":"양주방문요양센터","tel":"031-836-0180","addr":"경기도 양주시 백석읍 복지리 238-3","indutype":"기타의료기관 - 기타의료기관 및 기타","category":"other"}]},{"lat":"37.786005701","long":"126.99621815","imageIndex":17,"items":[{"name":"금오냉난방","tel":"031-829-4985","addr":"경기도 양주시 백석읍 복지리 43-1번지","indutype":"용역 서비스 - 기타용역서비스","category":"other"},{"name":"씨유양주복지리점","tel":"031-826-3725","addr":"경기도 양주시 백석읍 복지리 43-1번지","indutype":"유통업 영리 - 편 의 점","category":"other"},{"name":"아가솝","tel":"","addr":"경기도 양주시 백석읍 복지리 43-1번지 2층","indutype":"문화.취미 - 문화취미기타","category":"other"},{"name":"예인 인테리어","tel":"031-877-8353","addr":"경기도 양주시 백석읍 복지리 43-1번지 106호","indutype":"직물 - 카페트,커튼,천막,지물","category":"other"}]},{"lat":"37.781328203","long":"126.98252864","imageIndex":17,"items":[{"name":"내스타일","tel":"070-7579-0410","addr":"경기도 양주시 백석읍 복지리 567번지 동화6차옥시죤아파트","indutype":"의류 - 정장","category":"other"},{"name":"세븐일레븐백석복지점","tel":"","addr":"경기도 양주시 백석읍 복지리 567 동화6차상가1층 101","indutype":"유통업 영리 - 편 의 점","category":"other"}]},{"lat":"37.788564068","long":"126.99184716","imageIndex":17,"items":[{"name":"느티나무","tel":"031-855-1160","addr":"경기도 양주시 백석읍 복지리 152-1번지","indutype":"회원제형태 - 기타4","category":"other"}]},{"lat":"37.775679843","long":"126.98635536","imageIndex":17,"items":[{"name":"다독도서","tel":"031-829-2706","addr":"경기도 양주시 백석읍 복지리 426-8번지 A","indutype":"회원제형태 - 서적","category":"other"}]},{"lat":"37.781590597","long":"126.99059953","imageIndex":17,"items":[{"name":"대명버티컬","tel":"031-879-7867","addr":"경기도 양주시 백석읍 복지리 394번지","indutype":"직물 - 카페트,커튼,천막,지물","category":"other"}]},{"lat":"37.788816447","long":"126.99312997","imageIndex":17,"items":[{"name":"대성복층유리","tel":"031-879-3948","addr":"경기도 양주시 백석읍 복지리 148-3번지","indutype":"건축자재 - 유리","category":"other"}]},{"lat":"37.775643684","long":"126.98551542","imageIndex":17,"items":[{"name":"대성하이텍","tel":"","addr":"경기도 양주시 백석읍 복지리 426-23번지","indutype":"건축자재 - 조명기구","category":"other"},{"name":"씨앤디","tel":"031-856-9006","addr":"경기도 양주시 백석읍 복지리 426-23번지 나동","indutype":"전기제품 - 냉열기기","category":"other"}]},{"lat":"37.787699235","long":"126.99271008","imageIndex":17,"items":[{"name":"댓걸에이전시","tel":"031-826-1507","addr":"경기도 양주시 백석읍 복지리 134-3번지 2호","indutype":"신변잡화 - 기타잡화","category":"other"}]},{"lat":"37.786509895","long":"126.99174529","imageIndex":17,"items":[{"name":"도깨비사진관","tel":"031-877-3444","addr":"경기도 양주시 백석읍 복지리 128-1번지 B동 1호","indutype":"광학제품 - 사진관","category":"other"},{"name":"우진골드","tel":"","addr":"경기도 양주시 백석읍 복지리 128-1번지 2동 103호","indutype":"신변잡화 - 귀금속","category":"other"}]},{"lat":"37.787230659","long":"126.99180195","imageIndex":17,"items":[{"name":"모닝글로리(백석점)","tel":"031-879-6200","addr":"경기도 양주시 백석읍 복지리 132-5번지","indutype":"서적문구 - 문구용품","category":"other"}]},{"lat":"37.785671929","long":"126.99090536","imageIndex":17,"items":[{"name":"박안나","tel":"070-7435-3993","addr":"경기도 양주시 백석읍 복지리 107-13번지 B동 5호","indutype":"의류 - 정장","category":"other"}]},{"lat":"37.790284965","long":"126.99280055","imageIndex":17,"items":[{"name":"백석바이크","tel":"070-5022-4846","addr":"경기도 양주시 백석읍 복지리 175-6번지","indutype":"레져용품 - 스포츠·레져용품","category":"other"}]},{"lat":"37.787311953","long":"126.99429947","imageIndex":17,"items":[{"name":"베네치아","tel":"080-336-0030","addr":"경기도 양주시 백석읍 복지리 137-2","indutype":"수리서비스 - 가정용품수리","category":"other"},{"name":"힐링씽크","tel":"031-855-1199","addr":"경기도 양주시 백석읍 복지리 137-2번지 외1필지","indutype":"가구 - 일반가구","category":"other"}]},{"lat":"37.786843348","long":"126.99288048","imageIndex":17,"items":[{"name":"복지리세탁소","tel":"031-841-3120","addr":"경기도 양주시 백석읍 복지리 130-1번지 1층","indutype":"수리서비스 - 세탁소","category":"other"}]},{"lat":"37.786672065","long":"126.99174527","imageIndex":17,"items":[{"name":"복지사거리","tel":"031-829-0244","addr":"경기도 양주시 백석읍 복지리 128-7","indutype":"수리서비스 - 신변잡화수리","category":"other"}]},{"lat":"37.786977828","long":"126.9868864","imageIndex":17,"items":[{"name":"부광농원","tel":"031-879-5088","addr":"경기도 양주시 백석읍 복지리 239-2번지","indutype":"문화.취미 - 화원","category":"other"},{"name":"자양꽃직매장","tel":"031-826-3491","addr":"경기도 양주시 백석읍 복지리 239-2번지","indutype":"문화.취미 - 화원","category":"other"}]},{"lat":"37.7907805","long":"126.99295942","imageIndex":17,"items":[{"name":"산넘어봄향기","tel":"031-855-7002","addr":"경기도 양주시 백석읍 복지리 182-5번지","indutype":"문화.취미 - 화원","category":"other"}]},{"lat":"37.785788968","long":"126.99009933","imageIndex":17,"items":[{"name":"서연농장","tel":"031-879-2833","addr":"경기도 양주시 백석읍 복지리 112번지","indutype":"회원제형태 - 기타1","category":"other"}]},{"lat":"37.791338883","long":"126.99076821","imageIndex":17,"items":[{"name":"성실냉동","tel":"02-1566-2425","addr":"경기도 양주시 백석읍 복지리 203-1번지 우측","indutype":"전기제품 - 냉열기기","category":"other"}]},{"lat":"37.78614958","long":"126.99246054","imageIndex":17,"items":[{"name":"세븐일레븐양주복지점","tel":"","addr":"경기도 양주시 백석읍 복지리 93-3 가야2차상가 104호","indutype":"유통업 영리 - 편 의 점","category":"other"}]},{"lat":"37.776896047","long":"126.9857989","imageIndex":17,"items":[{"name":"쇼파마당쇠","tel":"000-1588-3887","addr":"경기도 양주시 백석읍 복지리 426-14","indutype":"수리서비스 - 기타수리서비스","category":"other"}]},{"lat":"37.789032572","long":"126.99196062","imageIndex":17,"items":[{"name":"수임전기조명공사","tel":"031-836-1001","addr":"경기도 양주시 백석읍 복지리 167-1번지 복지그린빌라 1층 102호","indutype":"전기제품 - 기타전기제품","category":"other"}]},{"lat":"37.787726103","long":"126.99099585","imageIndex":17,"items":[{"name":"씨유양주큐브에스점","tel":"080-080-3663","addr":"경기도 양주시 백석읍 복지리 153번지 1층 비지에프로지스양주","indutype":"유통업 영리 - 편 의 점","category":"other"}]},{"lat":"37.785284622","long":"126.99193847","imageIndex":17,"items":[{"name":"씨유양주태영점","tel":"031-876-0760","addr":"경기도 양주시 백석읍 복지리 99-2번지 태영 상가 104호,105호","indutype":"유통업 영리 - 편 의 점","category":"other"}]},{"lat":"37.785338584","long":"126.99096217","imageIndex":17,"items":[{"name":"아앤지","tel":"031-829-4349","addr":"경기도 양주시 백석읍 복지리 100-3","indutype":"신변잡화 - 기타잡화","category":"other"}]},{"lat":"37.786816029","long":"126.98990617","imageIndex":17,"items":[{"name":"애견마을","tel":"031-836-7850","addr":"경기도 양주시 백석읍 복지리 123번지","indutype":"문화.취미 - 애완동물","category":"other"}]},{"lat":"37.786645021","long":"126.99157499","imageIndex":17,"items":[{"name":"에스지모바일 (SG모바일)","tel":"031-829-8818","addr":"경기도 양주시 백석읍 복지리 128-2번지 상가 1동 1층","indutype":"사무통신 - 통신기기","category":"other"}]},{"lat":"37.791258283","long":"126.99718269","imageIndex":17,"items":[{"name":"엔젤펫","tel":"031-845-1058","addr":"경기도 양주시 백석읍 복지리 7-2번지","indutype":"문화.취미 - 애완동물","category":"other"}]},{"lat":"37.785978296","long":"126.99134805","imageIndex":17,"items":[{"name":"요술나라","tel":"031-855-7782","addr":"경기도 양주시 백석읍 복지리 107-4번지 5호","indutype":"의류 - 정장","category":"other"}]},{"lat":"37.791033009","long":"126.99646747","imageIndex":17,"items":[{"name":"일성전기산업","tel":"031-872-9945","addr":"경기도 양주시 백석읍 복지리 13번지","indutype":"건축자재 - 조명기구","category":"other"}]},{"lat":"37.787789008","long":"126.98949731","imageIndex":17,"items":[{"name":"작은나무공방","tel":"031-879-1508","addr":"경기도 양주시 백석읍 복지리 155-7","indutype":"문화.취미 - 문화취미기타","category":"other"}]},{"lat":"37.791366378","long":"126.99679668","imageIndex":17,"items":[{"name":"정강원","tel":"02-735-4430","addr":"경기도 양주시 백석읍 복지리 8-6","indutype":"건축자재 - 기타건축자재","category":"other"}]},{"lat":"37.789203814","long":"126.99265311","imageIndex":17,"items":[{"name":"조은신발","tel":"070-4829-1029","addr":"경기도 양주시 백석읍 복지리 148-24번지 1층","indutype":"신변잡화 - 신발","category":"other"}]},{"lat":"37.784789227","long":"126.99340295","imageIndex":17,"items":[{"name":"주식회사 비엔에스","tel":"031-871-6263","addr":"경기도 양주시 백석읍 복지리 87-3번지","indutype":"직물 - 침구·수예점","category":"other"}]},{"lat":"37.777643916","long":"126.98635492","imageIndex":17,"items":[{"name":"주식회사 상수산업","tel":"031-855-9119","addr":"경기도 양주시 백석읍 복지리 426-1번지 가동","indutype":"레져용품 - 스포츠·레져용품","category":"other"}]},{"lat":"37.778256748","long":"126.98773961","imageIndex":17,"items":[{"name":"주식회사 에콜라자연도료","tel":"031-837-7774","addr":"경기도 양주시 백석읍 복지리 411번지 나동","indutype":"건축자재 - 페인트","category":"other"}]},{"lat":"37.784590742","long":"126.9904401","imageIndex":17,"items":[{"name":"창고형가구E마트","tel":"031-837-0562","addr":"경기도 양주시 백석읍 복지리 105-2번지","indutype":"가구 - 일반가구","category":"other"}]},{"lat":"37.762120964","long":"126.98991048","imageIndex":17,"items":[{"name":"퀸(Queen)","tel":"070-3982-0871","addr":"경기도 양주시 백석읍 복지리 479번지","indutype":"회원제형태 - 기타1","category":"other"}]},{"lat":"37.786978459","long":"126.99251719","imageIndex":17,"items":[{"name":"크린토피아백석점","tel":"031-877-2880","addr":"경기도 양주시 백석읍 복지리 130-7","indutype":"수리서비스 - 세탁소","category":"other"}]},{"lat":"37.792285355","long":"126.99698961","imageIndex":17,"items":[{"name":"태성공업사","tel":"031-878-0859","addr":"경기도 양주시 백석읍 복지리 7번지","indutype":"농업 - 농기계","category":"other"}]},{"lat":"37.791564607","long":"126.99721672","imageIndex":17,"items":[{"name":"태성상사","tel":"031-879-1906","addr":"경기도 양주시 백석읍 복지리 7-8","indutype":"농업 - 농기계","category":"other"}]},{"lat":"37.787789574","long":"126.99610447","imageIndex":17,"items":[{"name":"풍산개발","tel":"031-826-3733","addr":"경기도 양주시 백석읍 복지리 34번지","indutype":"건축자재 - 기타건축자재","category":"other"}]},{"lat":"37.784176395","long":"126.99132562","imageIndex":17,"items":[{"name":"하얀피부","tel":"031-829-8870","addr":"경기도 양주시 백석읍 복지리 79번지 상가 103호","indutype":"회원제형태 - 기타4","category":"other"}]},{"lat":"37.789140725","long":"126.992392","imageIndex":17,"items":[{"name":"한결정수기","tel":"031-873-4343","addr":"경기도 양주시 백석읍 복지리 167-1번지 복지그린빌라 가동 101호","indutype":"용역 서비스 - 종합용역","category":"other"}]},{"lat":"37.790645603","long":"126.99649021","imageIndex":17,"items":[{"name":"한울도어","tel":"031-873-3214","addr":"경기도 양주시 백석읍 복지리 15-3번지 1동","indutype":"건축자재 - 기타건축자재","category":"other"}]},{"lat":"37.78648203","long":"126.98496797","imageIndex":17,"items":[{"name":"환이씽크","tel":"031-111-1111","addr":"경기도 양주시 백석읍 복지리 253-1번지 1층","indutype":"주방용구 - 주방용구","category":"other"}]},{"lat":"37.782229397","long":"126.98399275","imageIndex":13,"items":[{"name":"SALONDE휴","tel":"031-873-8800","addr":"경기도 양주시 백석읍 복지리 322-4번지 동화은하수2단지초록마을아파트 104호 초록마을사또베르상가","indutype":"보건위생 - 미용원","category":"beauty"}]},{"lat":"37.787311822","long":"126.99265337","imageIndex":13,"items":[{"name":"가위손","tel":"031-872-0610","addr":"경기도 양주시 백석읍 복지리 134-17번지 101호","indutype":"보건위생 - 미용원","category":"beauty"}]},{"lat":"37.786950867","long":"126.98738591","imageIndex":13,"items":[{"name":"가즈헤어","tel":"031-872-6560","addr":"경기도 양주시 백석읍 복지리 238-3번지 108호","indutype":"보건위생 - 미용원","category":"beauty"},{"name":"아이루크","tel":"031-877-0964","addr":"경기도 양주시 백석읍 복지리 238-3번지 103호","indutype":"보건위생 - 안경","category":"beauty"}]},{"lat":"37.786509895","long":"126.99174529","imageIndex":13,"items":[{"name":"고은","tel":"031-829-9788","addr":"경기도 양주시 백석읍 복지리 128-1번지","indutype":"보건위생 - 화장품","category":"beauty"},{"name":"이철 남성컷","tel":"02-1111-1111","addr":"경기도 양주시 백석읍 복지리 128-1번지 1층","indutype":"보건위생 - 미용원","category":"beauty"}]},{"lat":"37.786816029","long":"126.98990617","imageIndex":13,"items":[{"name":"기쁨누리안경콘택트","tel":"031-829-3335","addr":"경기도 양주시 백석읍 복지리 123번지 1층","indutype":"보건위생 - 안경","category":"beauty"}]},{"lat":"37.786816457","long":"126.99466281","imageIndex":13,"items":[{"name":"라미드","tel":"031-829-8805","addr":"경기도 양주시 백석읍 복지리 135번지","indutype":"보건위생 - 미용원","category":"beauty"}]},{"lat":"37.785338584","long":"126.99096217","imageIndex":13,"items":[{"name":"러블리네일","tel":"031-829-4177","addr":"경기도 양주시 백석읍 복지리 100-3번지 1층 4호","indutype":"보건위생 - 피부미용실","category":"beauty"}]},{"lat":"37.784176395","long":"126.99132562","imageIndex":13,"items":[{"name":"미라클헤어","tel":"031-829-6888","addr":"경기도 양주시 백석읍 복지리 79 1층 8","indutype":"보건위생 - 미용원","category":"beauty"}]},{"lat":"37.786005701","long":"126.99621815","imageIndex":13,"items":[{"name":"미래가발","tel":"031-855-1863","addr":"경기도 양주시 백석읍 복지리 43-1번지","indutype":"보건위생 - 미용재료","category":"beauty"}]},{"lat":"37.78678914","long":"126.99124575","imageIndex":13,"items":[{"name":"서울연합보청기","tel":"031-855-1424","addr":"경기도 양주시 백석읍 복지리 111번지 3층","indutype":"보건위생 - 의료용품","category":"beauty"}]},{"lat":"37.785978296","long":"126.99134805","imageIndex":13,"items":[{"name":"손끝차이헤어플러스","tel":"031-877-7706","addr":"경기도 양주시 백석읍 복지리 107-4번지","indutype":"보건위생 - 미용원","category":"beauty"}]},{"lat":"37.78589719","long":"126.99113237","imageIndex":13,"items":[{"name":"수헤어","tel":"031-878-5766","addr":"경기도 양주시 백석읍 복지리 107-1","indutype":"보건위생 - 미용원","category":"beauty"},{"name":"황금손 뷰티샵","tel":"","addr":"경기도 양주시 백석읍 복지리 107-1번지","indutype":"보건위생 - 피부미용실","category":"beauty"}]},{"lat":"37.785455676","long":"126.99065565","imageIndex":13,"items":[{"name":"시크헤어","tel":"031-878-3715","addr":"경기도 양주시 백석읍 복지리 107-14번지 1층 일부","indutype":"보건위생 - 미용원","category":"beauty"}]},{"lat":"37.78531142","long":"126.98969074","imageIndex":13,"items":[{"name":"신지머리방","tel":"031-826-9433","addr":"경기도 양주시 백석읍 복지리 113번지 1층","indutype":"보건위생 - 미용원","category":"beauty"}]},{"lat":"37.786645021","long":"126.99157499","imageIndex":13,"items":[{"name":"아리따움양주백석점","tel":"031-879-3839","addr":"경기도 양주시 백석읍 복지리 128-2번지","indutype":"보건위생 - 화장품","category":"beauty"}]},{"lat":"37.78614958","long":"126.99246054","imageIndex":13,"items":[{"name":"양주백석사랑지사","tel":"","addr":"경기도 양주시 백석읍 복지리 93-3번지 가야상가 301호","indutype":"보건위생 - 화장품","category":"beauty"}]},{"lat":"37.790951618","long":"126.99224416","imageIndex":13,"items":[{"name":"톡톡헤어","tel":"031-829-2498","addr":"경기도 양주시 백석읍 복지리 171-11번지 102호","indutype":"보건위생 - 미용원","category":"beauty"}]},{"lat":"37.783149315","long":"126.99134849","imageIndex":13,"items":[{"name":"해바라기","tel":"031-855-2327","addr":"경기도 양주시 백석읍 복지리 80번지 가야5차써비빌 상가동 105호","indutype":"보건위생 - 미용원","category":"beauty"}]},{"lat":"37.787699235","long":"126.99271008","imageIndex":13,"items":[{"name":"헤어스토리","tel":"031-826-6409","addr":"경기도 양주시 백석읍 복지리 134-3번지","indutype":"보건위생 - 미용원","category":"beauty"}]},{"lat":"37.787419871","long":"126.99193815","imageIndex":13,"items":[{"name":"헤어타쿠미","tel":"031-821-0011","addr":"경기도 양주시 백석읍 복지리 132-39번지","indutype":"보건위생 - 미용원","category":"beauty"}]},{"lat":"37.787843083","long":"126.98965623","imageIndex":13,"items":[{"name":"화이트앤브론즈 태닝샵","tel":"031-861-8832","addr":"경기도 양주시 백석읍 복지리 155-1번지 1층 105호","indutype":"보건위생 - 피부미용실","category":"beauty"}]},{"lat":"37.788564068","long":"126.99184716","imageIndex":13,"items":[{"name":"활약손","tel":"031-855-3357","addr":"경기도 양주시 백석읍 복지리 152-1번지 1층 일부","indutype":"보건위생 - 피부미용실","category":"beauty"}]},{"lat":"37.786843348","long":"126.99288048","imageIndex":4,"items":[{"name":"가야반점","tel":"031-879-7501","addr":"경기도 양주시 백석읍 복지리 130-1","indutype":"일반휴게음식 - 중국식","category":"restaurant"},{"name":"훌랄라참숯바베큐치킨(복지점)","tel":"031-836-3373","addr":"경기도 양주시 백석읍 복지리 130-1 2,3층","indutype":"일반휴게음식 - 주점","category":"restaurant"}]},{"lat":"37.785338491","long":"126.99007671","imageIndex":4,"items":[{"name":"가온누리","tel":"031-829-8013","addr":"경기도 양주시 백석읍 복지리 113-3번지 C동 1층","indutype":"일반휴게음식 - 일반한식","category":"restaurant"}]},{"lat":"37.785455676","long":"126.99065565","imageIndex":4,"items":[{"name":"계륵장군 한식뷔페","tel":"031-861-6816","addr":"경기도 양주시 백석읍 복지리 107-14번지","indutype":"일반휴게음식 - 일반한식","category":"restaurant"},{"name":"굽네치킨","tel":"031-875-9288","addr":"경기도 양주시 백석읍 복지리 107-14번지 D동 3호","indutype":"일반휴게음식 - 스넥","category":"restaurant"},{"name":"꼬치에반하다","tel":"031-879-8269","addr":"경기도 양주시 백석읍 복지리 107-14번지","indutype":"일반휴게음식 - 일반한식","category":"restaurant"},{"name":"술","tel":"031-879-9369","addr":"경기도 양주시 백석읍 복지리 107-14번지","indutype":"일반휴게음식 - 일반한식","category":"restaurant"},{"name":"이해무왕족발","tel":"031-829-8480","addr":"경기도 양주시 백석읍 복지리 107-14번지","indutype":"일반휴게음식 - 일반한식","category":"restaurant"},{"name":"한잔해야지","tel":"031-123-4567","addr":"경기도 양주시 백석읍 복지리 107-14번지 2호","indutype":"일반휴게음식 - 주점","category":"restaurant"}]},{"lat":"37.792618346","long":"126.99196009","imageIndex":4,"items":[{"name":"고창풍천장어","tel":"031-875-0592","addr":"경기도 양주시 백석읍 복지리 197-4번지 1,2층","indutype":"일반휴게음식 - 일반한식","category":"restaurant"}]},{"lat":"37.787311822","long":"126.99265337","imageIndex":4,"items":[{"name":"교촌치킨","tel":"031-829-9282","addr":"경기도 양주시 백석읍 복지리 134-17번지 1층","indutype":"일반휴게음식 - 일반한식","category":"restaurant"},{"name":"압구정불닭발 쪽갈비에 미치닭","tel":"031-836-5517","addr":"경기도 양주시 백석읍 복지리 134-17번지 1층 102호","indutype":"일반휴게음식 - 일반한식","category":"restaurant"},{"name":"원조할머니감자탕","tel":"031-855-0928","addr":"경기도 양주시 백석읍 복지리 134-17번지 104호","indutype":"일반휴게음식 - 일반한식","category":"restaurant"},{"name":"육회본가(백석점)","tel":"031-836-6007","addr":"경기도 양주시 백석읍 복지리 134-17번지","indutype":"일반휴게음식 - 일반한식","category":"restaurant"}]},{"lat":"37.787843083","long":"126.98965623","imageIndex":4,"items":[{"name":"구어따티겨따","tel":"031-829-0400","addr":"경기도 양주시 백석읍 복지리 155-1번지","indutype":"일반휴게음식 - 스넥","category":"restaurant"},{"name":"후(who)떡","tel":"","addr":"경기도 양주시 백석읍 복지리 155-1번지 1층","indutype":"일반휴게음식 - 스넥","category":"restaurant"}]},{"lat":"37.786789469","long":"126.99526448","imageIndex":4,"items":[{"name":"기발한치킨 백석점","tel":"031-876-7199","addr":"경기도 양주시 백석읍 복지리 39-11번지 1층","indutype":"일반휴게음식 - 스넥","category":"restaurant"}]},{"lat":"37.78589719","long":"126.99113237","imageIndex":4,"items":[{"name":"꼬레랑옛날통닭","tel":"031-829-9288","addr":"경기도 양주시 백석읍 복지리 107-1번지","indutype":"일반휴게음식 - 서양음식","category":"restaurant"},{"name":"불불이족발 양주백석점","tel":"031-829-2345","addr":"경기도 양주시 백석읍 복지리 107-1번지","indutype":"일반휴게음식 - 일반한식","category":"restaurant"}]},{"lat":"37.786950867","long":"126.98738591","imageIndex":4,"items":[{"name":"꽁시반점","tel":"031-837-3116","addr":"경기도 양주시 백석읍 복지리 238-3번지 1층","indutype":"일반휴게음식 - 중국식","category":"restaurant"},{"name":"샘말빈대떡","tel":"031-877-9327","addr":"경기도 양주시 백석읍 복지리 238-3번지 1층","indutype":"일반휴게음식 - 일반한식","category":"restaurant"},{"name":"청년횟집","tel":"031-855-1478","addr":"경기도 양주시 백석읍 복지리 238-3번지 1층","indutype":"일반휴게음식 - 일식·회집","category":"restaurant"}]},{"lat":"37.786509895","long":"126.99174529","imageIndex":4,"items":[{"name":"꿈의 2호 김밥","tel":"031-836-3315","addr":"경기도 양주시 백석읍 복지리 128-1번지","indutype":"일반휴게음식 - 일반한식","category":"restaurant"}]},{"lat":"37.786753323","long":"126.99374327","imageIndex":4,"items":[{"name":"네네치킨(양주백석점)","tel":"031-879-9114","addr":"경기도 양주시 백석읍 복지리 134-4번지 1층","indutype":"일반휴게음식 - 스넥","category":"restaurant"},{"name":"대박","tel":"031-855-0911","addr":"경기도 양주시 백석읍 복지리 134-4번지","indutype":"일반휴게음식 - 일반한식","category":"restaurant"}]},{"lat":"37.785671929","long":"126.99090536","imageIndex":4,"items":[{"name":"다모아","tel":"031-826-5540","addr":"경기도 양주시 백석읍 복지리 107-13번지 A동4,5호","indutype":"일반휴게음식 - 일반한식","category":"restaurant"},{"name":"돈도락참숯구이","tel":"031-829-9245","addr":"경기도 양주시 백석읍 복지리 107-13번지 B동 1층","indutype":"일반휴게음식 - 일반한식","category":"restaurant"}]},{"lat":"37.787086618","long":"126.99305073","imageIndex":4,"items":[{"name":"다사랑한식부페","tel":"031-796-2554","addr":"경기도 양주시 백석읍 복지리 134-1번지 1층 1-2호","indutype":"일반휴게음식 - 일반한식","category":"restaurant"}]},{"lat":"37.786726319","long":"126.99407249","imageIndex":4,"items":[{"name":"닭이봉춘천닭갈비","tel":"031-872-3399","addr":"경기도 양주시 백석읍 복지리 134-23번지 1층","indutype":"일반휴게음식 - 일반한식","category":"restaurant"}]},{"lat":"37.786229608","long":"126.98396903","imageIndex":4,"items":[{"name":"닭주리발주리","tel":"031-839-5406","addr":"경기도 양주시 백석읍 복지리 296-5번지 외2필지 1층","indutype":"일반휴게음식 - 일반한식","category":"restaurant"},{"name":"버블캐슬","tel":"031-855-5742","addr":"경기도 양주시 백석읍 복지리 296-5번지","indutype":"일반휴게음식 - 주점","category":"restaurant"},{"name":"족발친구닭발","tel":"031-837-1191","addr":"경기도 양주시 백석읍 복지리 296-5번지 1층","indutype":"일반휴게음식 - 일반한식","category":"restaurant"},{"name":"파주골순대국","tel":"031-827-0356","addr":"경기도 양주시 백석읍 복지리 296-5번지 4호","indutype":"일반휴게음식 - 일반한식","category":"restaurant"}]},{"lat":"37.787230659","long":"126.99180195","imageIndex":4,"items":[{"name":"두리두리","tel":"031-875-2592","addr":"경기도 양주시 백석읍 복지리 132-5번지 1층","indutype":"일반휴게음식 - 일반한식","category":"restaurant"},{"name":"스시가조아","tel":"031-829-5351","addr":"경기도 양주시 백석읍 복지리 132-5번지 1층","indutype":"일반휴게음식 - 일반한식","category":"restaurant"},{"name":"옥이네","tel":"031-878-2929","addr":"경기도 양주시 백석읍 복지리 132-5번지","indutype":"일반휴게음식 - 일반한식","category":"restaurant"},{"name":"팔도실비집 백석점","tel":"","addr":"경기도 양주시 백석읍 복지리 132-5번지","indutype":"일반휴게음식 - 일반한식","category":"restaurant"},{"name":"페리카나 (백석점)","tel":"031-829-8283","addr":"경기도 양주시 백석읍 복지리 132-5번지","indutype":"일반휴게음식 - 일반한식","category":"restaurant"},{"name":"힐링호프","tel":"031-872-1950","addr":"경기도 양주시 백석읍 복지리 132-5번지","indutype":"일반휴게음식 - 주점","category":"restaurant"}]},{"lat":"37.789140725","long":"126.992392","imageIndex":4,"items":[{"name":"두찜 광백점","tel":"","addr":"경기도 양주시 백석읍 복지리 167-1번지 복지그린빌라 가동 101호","indutype":"일반휴게음식 - 일반한식","category":"restaurant"},{"name":"배달전문 갈통삼 광백점","tel":"031-874-5324","addr":"경기도 양주시 백석읍 복지리 167-1번지 복지그린빌라 가동 101호","indutype":"일반휴게음식 - 일반한식","category":"restaurant"}]},{"lat":"37.787284382","long":"126.98869137","imageIndex":4,"items":[{"name":"뜨락에서","tel":"031-836-1233","addr":"경기도 양주시 백석읍 복지리 155-4번지 1층","indutype":"일반휴게음식 - 일반한식","category":"restaurant"}]},{"lat":"37.787419871","long":"126.99193815","imageIndex":4,"items":[{"name":"라이브캠프","tel":"031-826-7088","addr":"경기도 양주시 백석읍 복지리 132-39번지","indutype":"일반휴게음식 - 서양음식","category":"restaurant"},{"name":"볏짚연탄구이","tel":"031-877-6008","addr":"경기도 양주시 백석읍 복지리 132-39","indutype":"일반휴게음식 - 일반한식","category":"restaurant"}]},{"lat":"37.789338955","long":"126.99263038","imageIndex":4,"items":[{"name":"락궁","tel":"031-855-4334","addr":"경기도 양주시 백석읍 복지리 148-28","indutype":"일반휴게음식 - 중국식","category":"restaurant"}]},{"lat":"37.787419631","long":"126.98959954","imageIndex":4,"items":[{"name":"롯데리아 양주백석DT점","tel":"031-872-2085","addr":"경기도 양주시 백석읍 복지리 155-2번지 1층","indutype":"일반휴게음식 - 서양음식","category":"restaurant"}]},{"lat":"37.788456015","long":"126.99251698","imageIndex":4,"items":[{"name":"마포소금구이","tel":"031-879-0892","addr":"경기도 양주시 백석읍 복지리 150-3번지","indutype":"일반휴게음식 - 일반한식","category":"restaurant"},{"name":"먹어봐치킨호프","tel":"031-875-9989","addr":"경기도 양주시 백석읍 복지리 150-3번지 1층 1호","indutype":"일반휴게음식 - 일반한식","category":"restaurant"},{"name":"종로곱창닭발","tel":"031-878-9234","addr":"경기도 양주시 백석읍 복지리 150-3번지","indutype":"일반휴게음식 - 일반한식","category":"restaurant"}]},{"lat":"37.785978296","long":"126.99134805","imageIndex":4,"items":[{"name":"맘스터치백석점","tel":"031-873-0330","addr":"경기도 양주시 백석읍 복지리 107-4번지","indutype":"일반휴게음식 - 서양음식","category":"restaurant"}]},{"lat":"37.786203545","long":"126.99146153","imageIndex":4,"items":[{"name":"맛깔참죽양주백석점","tel":"031-829-8707","addr":"경기도 양주시 백석읍 복지리 108-1번지 1층","indutype":"일반휴게음식 - 일반한식","category":"restaurant"},{"name":"추억82","tel":"031-871-3531","addr":"경기도 양주시 백석읍 복지리 108-1번지","indutype":"일반휴게음식 - 일반한식","category":"restaurant"}]},{"lat":"37.788672269","long":"126.99282347","imageIndex":4,"items":[{"name":"맥주먹는 모모 양주백석점","tel":"031-847-5566","addr":"경기도 양주시 백석읍 복지리 148-8번지 1층","indutype":"일반휴게음식 - 일반한식","category":"restaurant"},{"name":"신불떡볶이 광백점","tel":"031-875-3101","addr":"경기도 양주시 백석읍 복지리 148-8번지","indutype":"일반휴게음식 - 스넥","category":"restaurant"},{"name":"청해해물탕","tel":"031-829-8862","addr":"경기도 양주시 백석읍 복지리 148-8번지","indutype":"일반휴게음식 - 일반한식","category":"restaurant"},{"name":"최가네양구펀치볼시래기","tel":"031-855-6002","addr":"경기도 양주시 백석읍 복지리 148-8번지","indutype":"일반휴게음식 - 일반한식","category":"restaurant"}]},{"lat":"37.789672301","long":"126.99257357","imageIndex":4,"items":[{"name":"멋진날","tel":"031-855-3578","addr":"경기도 양주시 백석읍 복지리 148-2번지 1층 2호","indutype":"일반휴게음식 - 주점","category":"restaurant"},{"name":"어우동","tel":"070-8950-0551","addr":"경기도 양주시 백석읍 복지리 148-2번지 1층","indutype":"일반휴게음식 - 주점","category":"restaurant"},{"name":"여우비","tel":"031-879-3945","addr":"경기도 양주시 백석읍 복지리 148-2번지","indutype":"일반휴게음식 - 일반한식","category":"restaurant"},{"name":"힐링","tel":"031-855-6177","addr":"경기도 양주시 백석읍 복지리 148-2번지 1층 8호","indutype":"일반휴게음식 - 주점","category":"restaurant"}]},{"lat":"37.786365891","long":"126.99343681","imageIndex":4,"items":[{"name":"멕시카나","tel":"031-877-8292","addr":"경기도 양주시 백석읍 복지리 94-9번지 가야1차아파트 105호","indutype":"일반휴게음식 - 일반한식","category":"restaurant"}]},{"lat":"37.783149315","long":"126.99134849","imageIndex":4,"items":[{"name":"미감민물새우얼큰손수제비","tel":"031-855-2544","addr":"경기도 양주시 백석읍 복지리 80번지 가야5차써니빌 상가동 104호","indutype":"일반휴게음식 - 일반한식","category":"restaurant"}]},{"lat":"37.786870049","long":"126.98957694","imageIndex":4,"items":[{"name":"미트","tel":"031-829-9990","addr":"경기도 양주시 백석읍 복지리 265-4번지 1층","indutype":"일반휴게음식 - 주점","category":"restaurant"}]},{"lat":"37.785338584","long":"126.99096217","imageIndex":4,"items":[{"name":"바다양푼이동태탕","tel":"031-878-0606","addr":"경기도 양주시 백석읍 복지리 100-3번지","indutype":"일반휴게음식 - 일반한식","category":"restaurant"}]},{"lat":"37.785699403","long":"126.99666092","imageIndex":4,"items":[{"name":"새싹정원 에디션(EDITION) 백석점","tel":"","addr":"경기도 양주시 백석읍 복지리 45번지 1층","indutype":"일반휴게음식 - 일반한식","category":"restaurant"},{"name":"서비돈","tel":"031-826-0188","addr":"경기도 양주시 백석읍 복지리 45번지","indutype":"일반휴게음식 - 일반한식","category":"restaurant"}]},{"lat":"37.784176395","long":"126.99132562","imageIndex":4,"items":[{"name":"수달이포차","tel":"031-111-1111","addr":"경기도 양주시 백석읍 복지리 79번지","indutype":"일반휴게음식 - 일반한식","category":"restaurant"},{"name":"수달이포차","tel":"","addr":"경기도 양주시 백석읍 복지리 79번지 1층","indutype":"일반휴게음식 - 일반한식","category":"restaurant"}]},{"lat":"37.763562428","long":"126.98937684","imageIndex":4,"items":[{"name":"숲속의향기","tel":"031-873-2400","addr":"경기도 양주시 백석읍 복지리 486-4","indutype":"일반휴게음식 - 서양음식","category":"restaurant"}]},{"lat":"37.78689716","long":"126.99032619","imageIndex":4,"items":[{"name":"심야식당","tel":"","addr":"경기도 양주시 백석읍 복지리 125번지","indutype":"일반휴게음식 - 일반한식","category":"restaurant"},{"name":"아지매식당","tel":"031-879-5528","addr":"경기도 양주시 백석읍 복지리 125번지","indutype":"일반휴게음식 - 일반한식","category":"restaurant"}]},{"lat":"37.786816457","long":"126.99466281","imageIndex":4,"items":[{"name":"십남매곱창","tel":"031-855-5507","addr":"경기도 양주시 백석읍 복지리 135번지 1층 4호","indutype":"일반휴게음식 - 일반한식","category":"restaurant"}]},{"lat":"37.787149649","long":"126.99263069","imageIndex":4,"items":[{"name":"싹쓰리 복지리점","tel":"031-836-7989","addr":"경기도 양주시 백석읍 복지리 134-11번지","indutype":"일반휴게음식 - 일반한식","category":"restaurant"},{"name":"흥부네한방족발","tel":"031-855-2470","addr":"경기도 양주시 백석읍 복지리 134-11번지","indutype":"일반휴게음식 - 일반한식","category":"restaurant"}]},{"lat":"37.78678914","long":"126.99124575","imageIndex":4,"items":[{"name":"쌈마루","tel":"031-878-7879","addr":"경기도 양주시 백석읍 복지리 111","indutype":"일반휴게음식 - 일반한식","category":"restaurant"}]},{"lat":"37.785122313","long":"126.99054218","imageIndex":4,"items":[{"name":"아지트","tel":"031-873-9958","addr":"경기도 양주시 백석읍 복지리 106-3번지","indutype":"일반휴게음식 - 주점","category":"restaurant"}]},{"lat":"37.78733874","long":"126.99146136","imageIndex":4,"items":[{"name":"양꼬치 미각 짬뽕(백석점)","tel":"031-877-8697","addr":"경기도 양주시 백석읍 복지리 127번지 B동 1층","indutype":"일반휴게음식 - 중국식","category":"restaurant"}]},{"lat":"37.77648199","long":"126.98865939","imageIndex":4,"items":[{"name":"오리이야기&수원왕족발보쌈","tel":"031-856-9599","addr":"경기도 양주시 백석읍 복지리 416-3번지","indutype":"일반휴게음식 - 일반한식","category":"restaurant"}]},{"lat":"37.787032698","long":"126.99485577","imageIndex":4,"items":[{"name":"오색향연","tel":"031-836-5288","addr":"경기도 양주시 백석읍 복지리 136-2번지 1층","indutype":"일반휴게음식 - 일반한식","category":"restaurant"}]},{"lat":"37.786393018","long":"126.99476502","imageIndex":4,"items":[{"name":"육대감","tel":"031-877-3337","addr":"경기도 양주시 백석읍 복지리 91-1번지","indutype":"일반휴게음식 - 일반한식","category":"restaurant"}]},{"lat":"37.786978459","long":"126.99251719","imageIndex":4,"items":[{"name":"은서네","tel":"031-855-1634","addr":"경기도 양주시 백석읍 복지리 130-7","indutype":"일반휴게음식 - 일반한식","category":"restaurant"},{"name":"잡쏴봐뒷고기","tel":"031-871-4205","addr":"경기도 양주시 백석읍 복지리 130-7번지","indutype":"일반휴게음식 - 일반한식","category":"restaurant"},{"name":"주주해물찜","tel":"031-879-5959","addr":"경기도 양주시 백석읍 복지리 130-7번지","indutype":"일반휴게음식 - 일반한식","category":"restaurant"}]},{"lat":"37.786428319","long":"126.98740873","imageIndex":4,"items":[{"name":"이디야커피(복지점)","tel":"031-836-0117","addr":"경기도 양주시 백석읍 복지리 259-6번지 1층 일부","indutype":"일반휴게음식 - 서양음식","category":"restaurant"}]},{"lat":"37.790311964","long":"126.99245996","imageIndex":4,"items":[{"name":"임가네칡냉면","tel":"031-829-0129","addr":"경기도 양주시 백석읍 복지리 173-4","indutype":"일반휴게음식 - 일반한식","category":"restaurant"}]},{"lat":"37.786645021","long":"126.99157499","imageIndex":4,"items":[{"name":"장터뼈해장국","tel":"031-879-1898","addr":"경기도 양주시 백석읍 복지리 128-2번지","indutype":"일반휴게음식 - 일반한식","category":"restaurant"}]},{"lat":"37.786753413","long":"126.99499203","imageIndex":4,"items":[{"name":"청담갈비","tel":"031-877-6370","addr":"경기도 양주시 백석읍 복지리 39-1번지 1층","indutype":"일반휴게음식 - 일반한식","category":"restaurant"},{"name":"커피이야기","tel":"031-836-4229","addr":"경기도 양주시 백석읍 복지리 39-1번지","indutype":"일반휴게음식 - 스넥","category":"restaurant"},{"name":"한양족발","tel":"031-878-1200","addr":"경기도 양주시 백석읍 복지리 39-1번지 1층","indutype":"일반휴게음식 - 일반한식","category":"restaurant"}]},{"lat":"37.787788995","long":"126.98938378","imageIndex":4,"items":[{"name":"츄츄바앤츄밥","tel":"031-836-9020","addr":"경기도 양주시 백석읍 복지리 155-16번지 1층","indutype":"일반휴게음식 - 일반한식","category":"restaurant"}]},{"lat":"37.784870358","long":"126.99399325","imageIndex":4,"items":[{"name":"황우촌","tel":"031-826-6692","addr":"경기도 양주시 백석읍 복지리 87-7","indutype":"일반휴게음식 - 일반한식","category":"restaurant"}]},{"lat":"37.791843529","long":"126.9919375","imageIndex":0,"items":[{"name":"경기자동차공업사","tel":"031-826-3430","addr":"경기도 양주시 백석읍 복지리 198-3번지","indutype":"자동차정비 유지 - 자동차정비","category":"car"}]},{"lat":"37.790257888","long":"126.99224426","imageIndex":0,"items":[{"name":"기분조은날카","tel":"031-855-2331","addr":"경기도 양주시 백석읍 복지리 172-1,2","indutype":"자동차정비 유지 - 자동차정비","category":"car"}]},{"lat":"37.786843348","long":"126.99288048","imageIndex":0,"items":[{"name":"복지종합카센타","tel":"031-879-4667","addr":"경기도 양주시 백석읍 복지리 130-1번지","indutype":"자동차정비 유지 - 자동차정비","category":"car"}]},{"lat":"37.788537159","long":"126.99320948","imageIndex":0,"items":[{"name":"선우상사","tel":"031-836-6598","addr":"경기도 양주시 백석읍 복지리 132-3번지","indutype":"자동차정비 유지 - 자동차부품","category":"car"}]},{"lat":"37.787672227","long":"126.99295984","imageIndex":0,"items":[{"name":"세진자동차공업사","tel":"031-826-2351","addr":"경기도 양주시 백석읍 복지리 134-12번지","indutype":"자동차정비 유지 - 자동차정비","category":"car"}]},{"lat":"37.786950867","long":"126.98738591","imageIndex":0,"items":[{"name":"엠에이치 물류","tel":"","addr":"경기도 양주시 백석읍 복지리 238-3번지 105호","indutype":"자동차정비 유지 - 자동차부품","category":"car"}]},{"lat":"37.790231179","long":"126.9967173","imageIndex":0,"items":[{"name":"이디엠(EDM)모터스","tel":"","addr":"경기도 양주시 백석읍 복지리 15-1번지 1동","indutype":"자동차정비 유지 - 자동차부품","category":"car"}]},{"lat":"37.785564284","long":"126.99712637","imageIndex":0,"items":[{"name":"주식회사 양주보쉬카공업사","tel":"031-848-2400","addr":"경기도 양주시 백석읍 복지리 45-1번지","indutype":"자동차정비 유지 - 자동차정비","category":"car"}]},{"lat":"37.786005701","long":"126.99621815","imageIndex":7,"items":[{"name":"기천토종한우직판장","tel":"031-829-8434","addr":"경기도 양주시 백석읍 복지리 43-1번지","indutype":"음료식품 - 정육점","category":"food"}]},{"lat":"37.785671929","long":"126.99090536","imageIndex":7,"items":[{"name":"낙원떡방앗간","tel":"031-855-1435","addr":"경기도 양주시 백석읍 복지리 107-13번지 A동 4호","indutype":"음료식품 - 제과점","category":"food"}]},{"lat":"37.785454733","long":"126.98360596","imageIndex":7,"items":[{"name":"뚜레쥬르 양주백석복지리(2)","tel":"031-829-2241","addr":"경기도 양주시 백석읍 복지리 295-10번지","indutype":"음료식품 - 제과점","category":"food"}]},{"lat":"37.78409536","long":"126.99184782","imageIndex":7,"items":[{"name":"만나돈수제갈비","tel":"031-879-8296","addr":"경기도 양주시 백석읍 복지리 82번지","indutype":"음료식품 - 기타음료식품","category":"food"},{"name":"전주끼니반찬","tel":"031-855-7651","addr":"경기도 양주시 백석읍 복지리 82번지 1층 104호","indutype":"음료식품 - 기타음료식품","category":"food"}]},{"lat":"37.786229608","long":"126.98396903","imageIndex":7,"items":[{"name":"몸짱점핑다이어트","tel":"","addr":"경기도 양주시 백석읍 복지리 296-5번지","indutype":"건강식품 - 기타건강식품","category":"food"}]},{"lat":"37.778256748","long":"126.98773961","imageIndex":7,"items":[{"name":"미키유통","tel":"","addr":"경기도 양주시 백석읍 복지리 411번지 가동","indutype":"음료식품 - 농·축·수산품","category":"food"}]},{"lat":"37.784176395","long":"126.99132562","imageIndex":7,"items":[{"name":"바디핏 점핑클럽(Body fit 점핑 CLUB)","tel":"","addr":"경기도 양주시 백석읍 복지리 79번지 1층 일부","indutype":"건강식품 - 기타건강식품","category":"food"}]},{"lat":"37.786843348","long":"126.99288048","imageIndex":7,"items":[{"name":"백석상회","tel":"031-1111-1111","addr":"경기도 양주시 백석읍 복지리 130-1번지 1층","indutype":"음료식품 - 기타음료식품","category":"food"}]},{"lat":"37.787032465","long":"126.99196091","imageIndex":7,"items":[{"name":"베스킨라빈스(양주백석)","tel":"031-877-2595","addr":"경기도 양주시 백석읍 복지리 132-24번지 1층","indutype":"음료식품 - 제과점","category":"food"}]},{"lat":"37.786753285","long":"126.99326647","imageIndex":7,"items":[{"name":"복지리고기백화점","tel":"031-878-9591","addr":"경기도 양주시 백석읍 복지리 130-8","indutype":"음료식품 - 정육점","category":"food"}]},{"lat":"37.784365898","long":"126.99499229","imageIndex":7,"items":[{"name":"썬에이생명과학주식회사","tel":"031-837-2015","addr":"경기도 양주시 백석읍 복지리 54-2번지","indutype":"음료식품 - 기타음료식품","category":"food"}]},{"lat":"37.786950867","long":"126.98738591","imageIndex":7,"items":[{"name":"우리유통","tel":"031-877-4646","addr":"경기도 양주시 백석읍 복지리 238-3","indutype":"음료식품 - 정육점","category":"food"}]},{"lat":"37.78678909","long":"126.99074625","imageIndex":7,"items":[{"name":"종로떡집","tel":"031-877-3932","addr":"경기도 양주시 백석읍 복지리 126-1번지","indutype":"음료식품 - 제과점","category":"food"}]},{"lat":"37.78678914","long":"126.99124575","imageIndex":7,"items":[{"name":"파리바게뜨(양주백석점)","tel":"031-826-3351","addr":"경기도 양주시 백석읍 복지리 111번지 1동 1층","indutype":"음료식품 - 제과점","category":"food"}]},{"lat":"37.786094655","long":"126.98518376","imageIndex":7,"items":[{"name":"현이네","tel":"031-572-4242","addr":"경기도 양주시 백석읍 복지리 253-4","indutype":"음료식품 - 기타음료식품","category":"food"}]},{"lat":"37.784870358","long":"126.99399325","imageIndex":7,"items":[{"name":"황우촌정육점","tel":"031-826-6692","addr":"경기도 양주시 백석읍 복지리 87-7번지","indutype":"음료식품 - 정육점","category":"food"}]},{"lat":"37.786753413","long":"126.99499203","imageIndex":13,"items":[{"name":"나비노래연습장","tel":"031-000-0000","addr":"경기도 양주시 백석읍 복지리 39-1번지 2층","indutype":"레저업소 - 노 래 방","category":"leisure"}]},{"lat":"37.788564068","long":"126.99184716","imageIndex":13,"items":[{"name":"뉴느티나무당구장","tel":"031-864-8570","addr":"경기도 양주시 백석읍 복지리 152-1번지","indutype":"레저업소 - 당 구 장","category":"leisure"},{"name":"블루스크린","tel":"","addr":"경기도 양주시 백석읍 복지리 152-1번지","indutype":"레저업소 - 스크린골프","category":"leisure"},{"name":"영헬스","tel":"031-855-1889","addr":"경기도 양주시 백석읍 복지리 152-1번지 1층","indutype":"레저업소 - 헬스클럽","category":"leisure"}]},{"lat":"37.786229608","long":"126.98396903","imageIndex":13,"items":[{"name":"더샵피씨(PC)방","tel":"","addr":"경기도 양주시 백석읍 복지리 296-5번지 지하동 2호","indutype":"레저업소 - 기타레져업소","category":"leisure"},{"name":"브이아이피 (VIP)노래연습장","tel":"","addr":"경기도 양주시 백석읍 복지리 296-5번지","indutype":"레저업소 - 노 래 방","category":"leisure"},{"name":"피망당구장","tel":"031-836-0702","addr":"경기도 양주시 백석읍 복지리 296-5번지 2층","indutype":"레저업소 - 당 구 장","category":"leisure"}]},{"lat":"37.786364701","long":"126.98366248","imageIndex":13,"items":[{"name":"땡큐노래방","tel":"031-855-1512","addr":"경기도 양주시 백석읍 복지리 296-3번지 1층","indutype":"레저업소 - 노 래 방","category":"leisure"}]},{"lat":"37.786978459","long":"126.99251719","imageIndex":13,"items":[{"name":"빅스타 복싱클럽","tel":"031-873-1282","addr":"경기도 양주시 백석읍 복지리 130-7번지 3층","indutype":"레저업소 - 헬스클럽","category":"leisure"}]},{"lat":"37.787086618","long":"126.99305073","imageIndex":13,"items":[{"name":"빌리아드2000","tel":"031-111-1111","addr":"경기도 양주시 백석읍 복지리 134-1번지 2층 202호","indutype":"레저업소 - 당 구 장","category":"leisure"}]},{"lat":"37.792257771","long":"126.99001875","imageIndex":13,"items":[{"name":"삼희골프클럽","tel":"031-829-3259","addr":"경기도 양주시 백석읍 복지리 202-6번지","indutype":"레저업소 - 골프연습장","category":"leisure"}]},{"lat":"37.785481821","long":"126.98396922","imageIndex":13,"items":[{"name":"육체미 휘트니스","tel":"","addr":"경기도 양주시 백석읍 복지리 295-1번지","indutype":"레저업소 - 헬스클럽","category":"leisure"}]},{"lat":"37.787311822","long":"126.99265337","imageIndex":13,"items":[{"name":"케이팝노래연습장","tel":"031-879-8258","addr":"경기도 양주시 백석읍 복지리 134-17번지 2층","indutype":"레저업소 - 노 래 방","category":"leisure"}]},{"lat":"37.786789469","long":"126.99526448","imageIndex":13,"items":[{"name":"팡팡조이","tel":"02-000-0000","addr":"경기도 양주시 백석읍 복지리 39-11번지 2층","indutype":"레저업소 - 기타레져업소","category":"leisure"}]},{"lat":"37.785455676","long":"126.99065565","imageIndex":13,"items":[{"name":"헬로방방","tel":"031-836-8129","addr":"경기도 양주시 백석읍 복지리 107-14번지","indutype":"레저업소 - 기타레져업소","category":"leisure"}]},{"lat":"37.786645021","long":"126.99157499","imageIndex":13,"items":[{"name":"황실당구장","tel":"031-879-1241","addr":"경기도 양주시 백석읍 복지리 128-2번지 2층","indutype":"레저업소 - 당 구 장","category":"leisure"}]},{"lat":"37.786753285","long":"126.99326647","imageIndex":8,"items":[{"name":"녹십자약국","tel":"031-855-1400","addr":"경기도 양주시 백석읍 복지리 130-8번지","indutype":"약국 - 약국","category":"medical"}]},{"lat":"37.786699316","long":"126.99441307","imageIndex":8,"items":[{"name":"미소치과의원","tel":"031-877-2830","addr":"경기도 양주시 백석읍 복지리 135-5번지","indutype":"의원 - 치과의원","category":"medical"},{"name":"백석의원","tel":"031-837-7575","addr":"경기도 양주시 백석읍 복지리 135-5번지 1층","indutype":"의원 - 의원","category":"medical"},{"name":"서울약국","tel":"031-877-5380","addr":"경기도 양주시 백석읍 복지리 135-5번지 1층 102호","indutype":"약국 - 약국","category":"medical"}]},{"lat":"37.787230659","long":"126.99180195","imageIndex":8,"items":[{"name":"백석튼튼치과의원","tel":"031-875-2825","addr":"경기도 양주시 백석읍 복지리 132-5번지 2층","indutype":"의원 - 치과의원","category":"medical"}]},{"lat":"37.786509895","long":"126.99174529","imageIndex":8,"items":[{"name":"백석한의원","tel":"031-879-6386","addr":"경기도 양주시 백석읍 복지리 128-1번지","indutype":"의원 - 한의원","category":"medical"}]},{"lat":"37.786978459","long":"126.99251719","imageIndex":8,"items":[{"name":"서울베스트치과의원","tel":"031-836-2275","addr":"경기도 양주시 백석읍 복지리 130-7번지 2층","indutype":"의원 - 치과의원","category":"medical"}]},{"lat":"37.78678914","long":"126.99124575","imageIndex":8,"items":[{"name":"서울연합이비인후과","tel":"031-855-1424","addr":"경기도 양주시 백석읍 복지리 111번지 3층","indutype":"의원 - 의원","category":"medical"},{"name":"참조은약국","tel":"031-855-8920","addr":"경기도 양주시 백석읍 복지리 111번지 102호","indutype":"약국 - 약국","category":"medical"}]},{"lat":"37.783589821","long":"126.98393565","imageIndex":8,"items":[{"name":"서울탑치과의원","tel":"031-879-2777","addr":"경기도 양주시 백석읍 복지리 290번지 2층 210-213호","indutype":"의원 - 치과의원","category":"medical"},{"name":"양주한마음약국","tel":"031-829-5580","addr":"경기도 양주시 백석읍 복지리 290번지 (동화베르사이유(1차)상가1층102호)","indutype":"약국 - 약국","category":"medical"}]},{"lat":"37.788230802","long":"126.99280083","imageIndex":8,"items":[{"name":"혜민약국","tel":"031-871-6100","addr":"경기도 양주시 백석읍 복지리 132-4번지","indutype":"약국 - 약국","category":"medical"}]}]