[{"lat":"37.717877186","long":"127.20294045","imageIndex":7,"items":[{"name":"경기떡방앗간","tel":"031-572-5553","addr":"경기도 남양주시 진접읍 금곡리 1051-4번지","indutype":"음료식품 - 제과점","category":"food"}]},{"lat":"37.727851292","long":"127.20789028","imageIndex":7,"items":[{"name":"고흥축산","tel":"031-572-3556","addr":"경기도 남양주시 진접읍 금곡리 537-15","indutype":"음료식품 - 농·축·수산품","category":"food"},{"name":"고흥축산","tel":"031-572-3556","addr":"경기도 남양주시 진접읍 금곡리 537-15","indutype":"음료식품 - 농·축·수산품","category":"food"},{"name":"한방유통","tel":"031-572-3556","addr":"경기도 남양주시 진접읍 금곡리 537-15번지","indutype":"음료식품 - 농·축·수산품","category":"food"},{"name":"한방유통","tel":"031-572-3556","addr":"경기도 남양주시 진접읍 금곡리 537-15","indutype":"음료식품 - 농·축·수산품","category":"food"},{"name":"한방유통","tel":"031-572-3556","addr":"경기도 남양주시 진접읍 금곡리 537-15번지","indutype":"음료식품 - 농·축·수산품","category":"food"},{"name":"한방유통","tel":"031-572-3556","addr":"경기도 남양주시 진접읍 금곡리 537-15","indutype":"음료식품 - 농·축·수산품","category":"food"},{"name":"한방유통","tel":"031-572-3556","addr":"경기도 남양주시 진접읍 금곡리 537-15","indutype":"음료식품 - 농·축·수산품","category":"food"}]},{"lat":"37.713078773","long":"127.20075006","imageIndex":7,"items":[{"name":"구마에 별미","tel":"","addr":"경기도 남양주시 진접읍 금곡리 1107번지 부영사랑으로 상가동 103호","indutype":"음료식품 - 기타음료식품","category":"food"},{"name":"부영떡고을","tel":"031-527-1150","addr":"경기도 남양주시 진접읍 금곡리 1107번지 부영사랑으로 상가동 B107호","indutype":"음료식품 - 제과점","category":"food"}]},{"lat":"37.716156524","long":"127.21819021","imageIndex":7,"items":[{"name":"그날","tel":"031-571-3933","addr":"경기도 남양주시 진접읍 금곡리 181-2","indutype":"음료식품 - 기타음료식품","category":"food"}]},{"lat":"37.712394712","long":"127.20035131","imageIndex":7,"items":[{"name":"나이스종합유통","tel":"031-516-8556","addr":"경기도 남양주시 진접읍 금곡리 1107번지 부영사랑으로 1818동 1301호","indutype":"음료식품 - 기타음료식품","category":"food"}]},{"lat":"37.712182327","long":"127.18683233","imageIndex":7,"items":[{"name":"농부축산","tel":"","addr":"경기도 남양주시 진접읍 금곡리 1081-1번지 화성프라자 108호","indutype":"음료식품 - 정육점","category":"food"},{"name":"파리바게뜨","tel":"031-571-8204","addr":"경기도 남양주시 진접읍 금곡리 1081-1번지 화성프라자 107호","indutype":"음료식품 - 제과점","category":"food"}]},{"lat":"37.721738424","long":"127.19442134","imageIndex":7,"items":[{"name":"농부축산","tel":"031-529-3770","addr":"경기도 남양주시 진접읍 금곡리 972번지","indutype":"음료식품 - 정육점","category":"food"}]},{"lat":"37.72160293","long":"127.1946365","imageIndex":7,"items":[{"name":"농업회사법인 한솜씨푸드(주)","tel":"031-529-9233","addr":"경기도 남양주시 진접읍 금곡리 972-1번지 1층","indutype":"음료식품 - 기타음료식품","category":"food"}]},{"lat":"37.720744654","long":"127.1960861","imageIndex":7,"items":[{"name":"대박점핑다이어트","tel":"","addr":"경기도 남양주시 진접읍 금곡리 973-3번지 세경프라자 3층 301호","indutype":"건강식품 - 기타건강식품","category":"food"}]},{"lat":"37.714488066","long":"127.19847421","imageIndex":7,"items":[{"name":"더디씨 진접점","tel":"","addr":"경기도 남양주시 진접읍 금곡리 1096번지 으뜸빌딩 109호","indutype":"음료식품 - 기타음료식품","category":"food"},{"name":"청년축산","tel":"","addr":"경기도 남양주시 진접읍 금곡리 1096번지 으뜸빌딩 107호","indutype":"음료식품 - 정육점","category":"food"},{"name":"횡성부자축산","tel":"031-574-1198","addr":"경기도 남양주시 진접읍 금곡리 1096번지 으뜸빌딩 107호","indutype":"음료식품 - 정육점","category":"food"}]},{"lat":"37.716162776","long":"127.18797633","imageIndex":7,"items":[{"name":"더포근","tel":"","addr":"경기도 남양주시 진접읍 금곡리 966-1번지 102호","indutype":"음료식품 - 제과점","category":"food"}]},{"lat":"37.715020831","long":"127.19774976","imageIndex":7,"items":[{"name":"도담","tel":"031-575-1700","addr":"경기도 남양주시 진접읍 금곡리 1094번지 중앙프라자 301호","indutype":"회원제형태 - 건강식품","category":"food"},{"name":"베스킨라빈스(진접점)","tel":"","addr":"경기도 남양주시 진접읍 금곡리 1094번지 1층 104호","indutype":"음료식품 - 제과점","category":"food"},{"name":"진이찬방","tel":"031-571-7133","addr":"경기도 남양주시 진접읍 금곡리 1094번지 1동 103호","indutype":"음료식품 - 기타음료식품","category":"food"}]},{"lat":"37.714218606","long":"127.19797448","imageIndex":7,"items":[{"name":"두부장수","tel":"031-528-2007","addr":"경기도 남양주시 진접읍 금곡리 1097번지 진접지젤타워 108호","indutype":"음료식품 - 기타음료식품","category":"food"}]},{"lat":"37.719492997","long":"127.20110738","imageIndex":7,"items":[{"name":"둥짱베이커리","tel":"031-527-4215","addr":"경기도 남양주시 진접읍 금곡리 1037번지","indutype":"음료식품 - 제과점","category":"food"}]},{"lat":"37.71573806","long":"127.18878052","imageIndex":7,"items":[{"name":"드림아이건식","tel":"031-523-3333","addr":"경기도 남양주시 진접읍 금곡리 967-1번지 1층","indutype":"건강식품 - 기타건강식품","category":"food"}]},{"lat":"37.719959408","long":"127.19694606","imageIndex":7,"items":[{"name":"떡카롱","tel":"031-529-7679","addr":"경기도 남양주시 진접읍 금곡리 974-1번지 금화빌딩 109호","indutype":"음료식품 - 기타음료식품","category":"food"},{"name":"예당떡집","tel":"031-528-5822","addr":"경기도 남양주시 진접읍 금곡리 974-1번지 105호","indutype":"음료식품 - 제과점","category":"food"}]},{"lat":"37.72156632","long":"127.19498802","imageIndex":7,"items":[{"name":"뚜레쥬르 진접반도","tel":"031-571-0804","addr":"경기도 남양주시 진접읍 금곡리 972-2번지 반도프라자 109호","indutype":"음료식품 - 제과점","category":"food"},{"name":"오레시피 (진접점)","tel":"031-575-7787","addr":"경기도 남양주시 진접읍 금곡리 972-2번지 반도프라자 1층 106호","indutype":"음료식품 - 기타음료식품","category":"food"}]},{"lat":"37.72487805","long":"127.2079388","imageIndex":7,"items":[{"name":"리빙아울렛정육코너","tel":"031-574-0006","addr":"경기도 남양주시 진접읍 금곡리 1002","indutype":"음료식품 - 정육점","category":"food"},{"name":"어묵나라 매일반찬","tel":"","addr":"경기도 남양주시 진접읍 금곡리 1002번지","indutype":"음료식품 - 기타음료식품","category":"food"},{"name":"파리바게뜨","tel":"031-573-4999","addr":"경기도 남양주시 진접읍 금곡리 1002번지 리빙아울렛","indutype":"음료식품 - 제과점","category":"food"},{"name":"현유통","tel":"031-574-0006","addr":"경기도 남양주시 진접읍 금곡리 1002번지 1층 리빙마트내 수산코너","indutype":"음료식품 - 농·축·수산품","category":"food"}]},{"lat":"37.714216699","long":"127.20966732","imageIndex":7,"items":[{"name":"미림 후레쉬푸드","tel":"031-572-3701","addr":"경기도 남양주시 진접읍 금곡리 818-7번지","indutype":"음료식품 - 정육점","category":"food"}]},{"lat":"37.719715267","long":"127.202866","imageIndex":7,"items":[{"name":"베스트 클럽","tel":"070-7931-8800","addr":"경기도 남양주시 진접읍 금곡리 1042-2번지 401호","indutype":"건강식품 - 기타건강식품","category":"food"}]},{"lat":"37.719572995","long":"127.20175409","imageIndex":7,"items":[{"name":"베이비팝케이크","tel":"","addr":"경기도 남양주시 진접읍 금곡리 1038-1번지 1동 102호","indutype":"음료식품 - 기타음료식품","category":"food"}]},{"lat":"37.719437296","long":"127.20208265","imageIndex":7,"items":[{"name":"블랑제르","tel":"031-566-2100","addr":"경기도 남양주시 진접읍 금곡리 1037-7번지 1층 101호, 102호","indutype":"음료식품 - 제과점","category":"food"}]},{"lat":"37.715847377","long":"127.19915827","imageIndex":7,"items":[{"name":"삼진화원","tel":"031-565-3827","addr":"경기도 남양주시 진접읍 금곡리 1108번지 금강펜테라움 1915동 301호","indutype":"회원제형태 - 건강식품","category":"food"}]},{"lat":"37.724712828","long":"127.20968515","imageIndex":7,"items":[{"name":"새마을","tel":"031-111-1111","addr":"경기도 남양주시 진접읍 금곡리 995번지 휴먼시아 2403동 1301호","indutype":"음료식품 - 농·축·수산품","category":"food"}]},{"lat":"37.725822674","long":"127.21382844","imageIndex":7,"items":[{"name":"송림벌꿀","tel":"02-1111-1111","addr":"경기도 남양주시 진접읍 금곡리 산 14","indutype":"건강식품 - 기타건강식품","category":"food"}]},{"lat":"37.719995428","long":"127.20235635","imageIndex":7,"items":[{"name":"수정방","tel":"031-527-9000","addr":"경기도 남양주시 진접읍 금곡리 1042번지 M타워 3층 308호","indutype":"음료식품 - 기타음료식품","category":"food"},{"name":"진접아산웰빙","tel":"031-000-0000","addr":"경기도 남양주시 진접읍 금곡리 1042번지 엠타워 505호 일부","indutype":"건강식품 - 기타건강식품","category":"food"}]},{"lat":"37.721488932","long":"127.20358534","imageIndex":7,"items":[{"name":"스마일꽈배기","tel":"031-528-1165","addr":"경기도 남양주시 진접읍 금곡리 1016번지 진선일빌딩 1층 104호","indutype":"음료식품 - 기타음료식품","category":"food"}]},{"lat":"37.711407186","long":"127.18703455","imageIndex":7,"items":[{"name":"아리아케이크","tel":"","addr":"경기도 남양주시 진접읍 금곡리 1081-5번지 버킷플렉스 1층 101호","indutype":"음료식품 - 기타음료식품","category":"food"}]},{"lat":"37.717688854","long":"127.19703087","imageIndex":7,"items":[{"name":"아이스크림하우스","tel":"02-1111-1111","addr":"경기도 남양주시 진접읍 금곡리 1076-3번지 아트프라자 1동 103층","indutype":"음료식품 - 제과점","category":"food"}]},{"lat":"37.721604644","long":"127.20441364","imageIndex":7,"items":[{"name":"아이스킹진접점","tel":"031-111-1111","addr":"경기도 남양주시 진접읍 금곡리 1017-5번지 103호","indutype":"음료식품 - 기타음료식품","category":"food"}]},{"lat":"37.719214387","long":"127.20069833","imageIndex":7,"items":[{"name":"엔앤비푸드(N&B food)","tel":"031-867-9167","addr":"경기도 남양주시 진접읍 금곡리 1036-5번지 102호","indutype":"음료식품 - 기타음료식품","category":"food"}]},{"lat":"37.718210674","long":"127.20286195","imageIndex":7,"items":[{"name":"오늘의국앤찬","tel":"070-7548-7887","addr":"경기도 남양주시 진접읍 금곡리 1044-5번지 103호","indutype":"음료식품 - 기타음료식품","category":"food"}]},{"lat":"37.714849556","long":"127.19780602","imageIndex":7,"items":[{"name":"웰빙푸줏간","tel":"031-573-4006","addr":"경기도 남양주시 진접읍 금곡리 1094-1번지 폴리프라자II 103호","indutype":"음료식품 - 정육점","category":"food"},{"name":"진접빵","tel":"031-574-2894","addr":"경기도 남양주시 진접읍 금곡리 1094-1번지 폴리프라자II 102호","indutype":"음료식품 - 제과점","category":"food"}]},{"lat":"37.720157805","long":"127.19683316","imageIndex":7,"items":[{"name":"전주반찬","tel":"031-575-8925","addr":"경기도 남양주시 진접읍 금곡리 974번지 105호","indutype":"음료식품 - 기타음료식품","category":"food"}]},{"lat":"37.72116028","long":"127.19536127","imageIndex":7,"items":[{"name":"조엘케이크","tel":"031-111-1111","addr":"경기도 남양주시 진접읍 금곡리 973번지 진접프라자 201호","indutype":"음료식품 - 제과점","category":"food"}]},{"lat":"37.727042892","long":"127.20647015","imageIndex":7,"items":[{"name":"주식회사 더블유아이엔아이앤티","tel":"031-575-3722","addr":"경기도 남양주시 진접읍 금곡리 527-2번지","indutype":"음료식품 - 기타음료식품","category":"food"}]},{"lat":"37.718103693","long":"127.2021925","imageIndex":7,"items":[{"name":"차칸푸드(차칸소곱창)","tel":"","addr":"경기도 남양주시 진접읍 금곡리 1041-5번지 101호","indutype":"음료식품 - 기타음료식품","category":"food"}]},{"lat":"37.715128026","long":"127.19830577","imageIndex":7,"items":[{"name":"초례청","tel":"031-572-4007","addr":"경기도 남양주시 진접읍 금곡리 1095번지 호평프라자 105호","indutype":"음료식품 - 제과점","category":"food"}]},{"lat":"37.718436201","long":"127.20269243","imageIndex":7,"items":[{"name":"큰언니네푸드","tel":"031-575-5876","addr":"경기도 남양주시 진접읍 금곡리 1045-3번지 A동 1층","indutype":"음료식품 - 기타음료식품","category":"food"}]},{"lat":"37.711433044","long":"127.18778311","imageIndex":7,"items":[{"name":"킹스빈코리아","tel":"070-4233-7736","addr":"경기도 남양주시 진접읍 금곡리 1083-4번지 리첸타워 506호","indutype":"음료식품 - 기타음료식품","category":"food"}]},{"lat":"37.714794522","long":"127.19839562","imageIndex":7,"items":[{"name":"파리바게트","tel":"031-572-5826","addr":"경기도 남양주시 진접읍 금곡리 1095-2번지 폴리프라자 102동 103호","indutype":"음료식품 - 제과점","category":"food"}]},{"lat":"37.71724426","long":"127.19342304","imageIndex":7,"items":[{"name":"푸른숲매점","tel":"070-7864-1177","addr":"경기도 남양주시 진접읍 금곡리 1077번지 지하1층","indutype":"음료식품 - 기타음료식품","category":"food"}]},{"lat":"37.732714812","long":"127.20883391","imageIndex":7,"items":[{"name":"하늘마루","tel":"031-529-9235","addr":"경기도 남양주시 진접읍 금곡리 405번지 하늘마루","indutype":"음료식품 - 정육점","category":"food"}]},{"lat":"37.720959774","long":"127.20216612","imageIndex":7,"items":[{"name":"한돈한우","tel":"031-572-1889","addr":"경기도 남양주시 진접읍 금곡리 1022번지 종점프라자 1층 105호","indutype":"음료식품 - 정육점","category":"food"}]},{"lat":"37.720758569","long":"127.19306909","imageIndex":7,"items":[{"name":"해밀유통","tel":"031-529-7311","addr":"경기도 남양주시 진접읍 금곡리 971번지 반도유보라메이플타운 1521동 402호","indutype":"음료식품 - 기타음료식품","category":"food"}]},{"lat":"37.729353905","long":"127.20902878","imageIndex":7,"items":[{"name":"행복한달마을 협동조합","tel":"031-527-2932","addr":"경기도 남양주시 진접읍 금곡리 466-3번지","indutype":"음료식품 - 기타음료식품","category":"food"}]}]