[{"lat":"37.607800424","long":"126.86887205","imageIndex":0,"items":[{"name":"건창사","tel":"02-3159-7784","addr":"경기도 고양시 덕양구 화랑로","indutype":"자동차정비 유지 - 자동차정비","category":"car"}]},{"lat":"37.608305599","long":"126.86942608","imageIndex":0,"items":[{"name":"서울상사복지자동차정비센타","tel":"02-3159-9005","addr":"경기도 고양시 덕양구 화랑로","indutype":"자동차정비 유지 - 자동차정비","category":"car"}]},{"lat":"37.612083584","long":"126.87201292","imageIndex":0,"items":[{"name":"협동공업사","tel":"02-372-2143","addr":"경기도 고양시 덕양구 화랑로","indutype":"자동차정비 유지 - 자동차정비","category":"car"}]},{"lat":"37.60197208","long":"126.86973182","imageIndex":4,"items":[{"name":"꼬기꼬기","tel":"070-8958-3818","addr":"경기도 고양시 덕양구 화랑로","indutype":"일반휴게음식 - 일반한식","category":"restaurant"}]},{"lat":"37.604304193","long":"126.86848197","imageIndex":4,"items":[{"name":"여명양평해장국","tel":"02-3159-8206","addr":"경기도 고양시 덕양구 화랑로","indutype":"일반휴게음식 - 일반한식","category":"restaurant"}]},{"lat":"37.601918085","long":"126.86978854","imageIndex":4,"items":[{"name":"주먹고기","tel":"02-3158-5988","addr":"경기도 고양시 덕양구 화랑로","indutype":"일반휴게음식 - 일반한식","category":"restaurant"}]},{"lat":"37.601774579","long":"126.87036633","imageIndex":4,"items":[{"name":"커피보노","tel":"070-7569-7307","addr":"경기도 고양시 덕양구 화랑로","indutype":"일반휴게음식 - 서양음식","category":"restaurant"}]},{"lat":"37.601414037","long":"126.87023108","imageIndex":13,"items":[{"name":"대신메디칼","tel":"02-351-3378","addr":"경기도 고양시 덕양구 화랑로","indutype":"보건위생 - 의료용품","category":"beauty"}]},{"lat":"37.604051985","long":"126.86853904","imageIndex":7,"items":[{"name":"덕은전기","tel":"02-3159-9712","addr":"경기도 고양시 덕양구 화랑로","indutype":"유통업 영리 - 슈퍼마켓","category":"mart"}]},{"lat":"37.610388352","long":"126.87075877","imageIndex":17,"items":[{"name":"시스템ENG(system ENG)","tel":"02-3158-6377","addr":"경기도 고양시 덕양구 화랑로","indutype":"전기제품 - 냉열기기","category":"other"}]},{"lat":"37.625302211","long":"126.88169763","imageIndex":17,"items":[{"name":"핸즈인테리어","tel":"031-387-4800","addr":"경기도 고양시 덕양구 화랑로","indutype":"건축자재 - 인테리어전문","category":"other"}]}]