[{"lat":"37.53081925","long":"127.20703307","imageIndex":4,"items":[{"name":"(주)신세계푸드하남휴게소","tel":"02-3397-6176","addr":"경기도 하남시 천현동 267번지","indutype":"일반휴게음식 - 일반한식","category":"restaurant"},{"name":"레드트리","tel":"031-791-4200","addr":"경기도 하남시 천현동 267번지","indutype":"일반휴게음식 - 일반한식","category":"restaurant"},{"name":"탐앤탐스/하남(만)휴게소(커피전문점)","tel":"031-796-6709","addr":"경기도 하남시 천현동 267번지","indutype":"일반휴게음식 - 서양음식","category":"restaurant"}]},{"lat":"37.534934271","long":"127.22344966","imageIndex":4,"items":[{"name":"24시 전주명가콩나물국밥","tel":"031-792-8959","addr":"경기도 하남시 천현동 40-13번지 1층","indutype":"일반휴게음식 - 일반한식","category":"restaurant"},{"name":"교촌치킨신장2호점","tel":"032-792-1992","addr":"경기도 하남시 천현동 40-13번지 1층","indutype":"일반휴게음식 - 스넥","category":"restaurant"}]},{"lat":"37.52168513","long":"127.22109169","imageIndex":4,"items":[{"name":"고구려짬뽕","tel":"031-793-7187","addr":"경기도 하남시 천현동 511-6번지","indutype":"일반휴게음식 - 중국식","category":"restaurant"}]},{"lat":"37.534601014","long":"127.22339211","imageIndex":4,"items":[{"name":"금강산 감자탕","tel":"031-794-1020","addr":"경기도 하남시 천현동 44-1번지","indutype":"일반휴게음식 - 일반한식","category":"restaurant"}]},{"lat":"37.535291108","long":"127.21556478","imageIndex":4,"items":[{"name":"김영희 동태찜 앤 코다리 냉면","tel":"031-792-2877","addr":"경기도 하남시 천현동 113-10번지","indutype":"일반휴게음식 - 일반한식","category":"restaurant"},{"name":"김영희동태찜엔코다리냉면","tel":"031-792-2877","addr":"경기도 하남시 천현동 113-10번지","indutype":"일반휴게음식 - 일반한식","category":"restaurant"}]},{"lat":"37.534681531","long":"127.22369782","imageIndex":4,"items":[{"name":"깐디깐디","tel":"031-795-3704","addr":"경기도 하남시 천현동 44-15번지","indutype":"일반휴게음식 - 서양음식","category":"restaurant"}]},{"lat":"37.532127894","long":"127.22091846","imageIndex":4,"items":[{"name":"누리마루","tel":"070-7012-1355","addr":"경기도 하남시 천현동 53-33번지","indutype":"일반휴게음식 - 일반한식","category":"restaurant"}]},{"lat":"37.519601637","long":"127.22228466","imageIndex":4,"items":[{"name":"다미락","tel":"031-795-5067","addr":"경기도 하남시 천현동 537-4번지","indutype":"일반휴게음식 - 일반한식","category":"restaurant"}]},{"lat":"37.529044924","long":"127.2217806","imageIndex":4,"items":[{"name":"대구왕뽈찜","tel":"031-794-7994","addr":"경기도 하남시 천현동 460-3번지 1층","indutype":"일반휴게음식 - 일반한식","category":"restaurant"}]},{"lat":"37.534930167","long":"127.21081185","imageIndex":4,"items":[{"name":"대호수산 풍천장어","tel":"031-796-2606","addr":"경기도 하남시 천현동 194-4번지 1층","indutype":"일반휴게음식 - 일반한식","category":"restaurant"}]},{"lat":"37.534816255","long":"127.2239245","imageIndex":4,"items":[{"name":"더까페하남","tel":"031-791-9954","addr":"경기도 하남시 천현동 43-10번지","indutype":"일반휴게음식 - 서양음식","category":"restaurant"}]},{"lat":"37.536740688","long":"127.22105634","imageIndex":4,"items":[{"name":"델에스떼","tel":"","addr":"경기도 하남시 천현동 22-1번지 1층,2층","indutype":"일반휴게음식 - 일반한식","category":"restaurant"}]},{"lat":"37.536929936","long":"127.22103427","imageIndex":4,"items":[{"name":"돌마리","tel":"031-792-9931","addr":"경기도 하남시 천현동 13-31번지","indutype":"일반휴게음식 - 일반한식","category":"restaurant"}]},{"lat":"37.53417887","long":"127.21277839","imageIndex":4,"items":[{"name":"동경주산채나물집","tel":"031-792-2301","addr":"경기도 하남시 천현동 169-15번지 1층","indutype":"일반휴게음식 - 일반한식","category":"restaurant"}]},{"lat":"37.534905637","long":"127.21447754","imageIndex":4,"items":[{"name":"동인숯불민물장어","tel":"031-794-4249","addr":"경기도 하남시 천현동 105-1번지 1,2층","indutype":"일반휴게음식 - 일반한식","category":"restaurant"},{"name":"참목원식당","tel":"031-796-9556","addr":"경기도 하남시 천현동 105-1번지","indutype":"일반휴게음식 - 일반한식","category":"restaurant"}]},{"lat":"37.535038996","long":"127.21547355","imageIndex":4,"items":[{"name":"동트락","tel":"031-769-5315","addr":"경기도 하남시 천현동 114-2번지 2층","indutype":"일반휴게음식 - 일반한식","category":"restaurant"}]},{"lat":"37.535819823","long":"127.22206062","imageIndex":4,"items":[{"name":"로뎀","tel":"031-796-1004","addr":"경기도 하남시 천현동 6-9번지 외4필지 1층","indutype":"일반휴게음식 - 일반한식","category":"restaurant"}]},{"lat":"37.531818643","long":"127.21759136","imageIndex":4,"items":[{"name":"마방다원","tel":"031-796-3617","addr":"경기도 하남시 천현동 429-4번지","indutype":"일반휴게음식 - 일반한식","category":"restaurant"}]},{"lat":"37.535906819","long":"127.2138694","imageIndex":4,"items":[{"name":"맥시칸치킨","tel":"031-796-0097","addr":"경기도 하남시 천현동 620-1번지 101호","indutype":"일반휴게음식 - 스넥","category":"restaurant"}]},{"lat":"37.530101996","long":"127.21017622","imageIndex":4,"items":[{"name":"명인","tel":"031-699-8966","addr":"경기도 하남시 천현동 378-5번지 나동 1층","indutype":"일반휴게음식 - 일반한식","category":"restaurant"}]},{"lat":"37.531431283","long":"127.21755631","imageIndex":4,"items":[{"name":"목장원","tel":"031-792-1980","addr":"경기도 하남시 천현동 431-4번지","indutype":"일반휴게음식 - 일반한식","category":"restaurant"}]},{"lat":"37.524909079","long":"127.22194951","imageIndex":4,"items":[{"name":"무봉리토종순대국","tel":"031-792-6988","addr":"경기도 하남시 천현동 486-2번지","indutype":"일반휴게음식 - 일반한식","category":"restaurant"}]},{"lat":"37.530541659","long":"127.20073075","imageIndex":4,"items":[{"name":"방가네 연탄불 고기","tel":"031-794-0089","addr":"경기도 하남시 천현동 290-3번지 1층 2층","indutype":"일반휴게음식 - 일반한식","category":"restaurant"}]},{"lat":"37.521485889","long":"127.22164539","imageIndex":4,"items":[{"name":"부산아지매국밥 하남점","tel":"031-796-3845","addr":"경기도 하남시 천현동 535-6번지","indutype":"일반휴게음식 - 일반한식","category":"restaurant"}]},{"lat":"37.534960849","long":"127.21383279","imageIndex":4,"items":[{"name":"뿅가곱창 하남점","tel":"070-4007-5890","addr":"경기도 하남시 천현동 619-4번지 1층 101호","indutype":"일반휴게음식 - 일반한식","category":"restaurant"}]},{"lat":"37.529153573","long":"127.21153117","imageIndex":4,"items":[{"name":"샘재가정식백반뷔페","tel":"031-796-2796","addr":"경기도 하남시 천현동 354-3번지 1층","indutype":"일반휴게음식 - 일반한식","category":"restaurant"}]},{"lat":"37.531066297","long":"127.21511156","imageIndex":4,"items":[{"name":"샘재로 129","tel":"031-793-4995","addr":"경기도 하남시 천현동 418-4번지","indutype":"일반휴게음식 - 일반한식","category":"restaurant"},{"name":"연두콩나물국밥","tel":"031-793-0034","addr":"경기도 하남시 천현동 418-4번지","indutype":"일반휴게음식 - 일반한식","category":"restaurant"}]},{"lat":"37.534906988","long":"127.22358535","imageIndex":4,"items":[{"name":"소니가스시","tel":"031-796-4391","addr":"경기도 하남시 천현동 40-10번지","indutype":"일반휴게음식 - 일식·회집","category":"restaurant"}]},{"lat":"37.522603171","long":"127.22161472","imageIndex":4,"items":[{"name":"시골집밥상","tel":"031-792-2586","addr":"경기도 하남시 천현동 525-4번지","indutype":"일반휴게음식 - 일반한식","category":"restaurant"}]},{"lat":"37.529073857","long":"127.22075118","imageIndex":4,"items":[{"name":"신장양곱창","tel":"031-793-3605","addr":"경기도 하남시 천현동 462-16번지 1층","indutype":"일반휴게음식 - 일반한식","category":"restaurant"}]},{"lat":"37.521874546","long":"127.22097912","imageIndex":4,"items":[{"name":"양평해장국","tel":"031-794-0021","addr":"경기도 하남시 천현동 511-1번지 1층","indutype":"일반휴게음식 - 일반한식","category":"restaurant"}]},{"lat":"37.538292169","long":"127.22008781","imageIndex":4,"items":[{"name":"연남추어탕","tel":"031-796-0151","addr":"경기도 하남시 천현동 15-4번지","indutype":"일반휴게음식 - 일반한식","category":"restaurant"}]},{"lat":"37.534601486","long":"127.21325476","imageIndex":4,"items":[{"name":"우리집도시락식당","tel":"031-794-3876","addr":"경기도 하남시 천현동 618-7번지 1층","indutype":"일반휴게음식 - 일반한식","category":"restaurant"}]},{"lat":"37.529574669","long":"127.21286731","imageIndex":4,"items":[{"name":"웰빙식당","tel":"031-791-2078","addr":"경기도 하남시 천현동 406-7번지","indutype":"일반휴게음식 - 일반한식","category":"restaurant"}]},{"lat":"37.538430074","long":"127.21858337","imageIndex":4,"items":[{"name":"유황먹은통돼지","tel":"031-796-2121","addr":"경기도 하남시 천현동 142-5번지 1층","indutype":"일반휴게음식 - 일반한식","category":"restaurant"},{"name":"청국장과보리밥&시래기밥","tel":"031-796-3332","addr":"경기도 하남시 천현동 142-5번지 1층","indutype":"일반휴게음식 - 일반한식","category":"restaurant"}]},{"lat":"37.529236034","long":"127.22075166","imageIndex":4,"items":[{"name":"이종구낙지세상하남점","tel":"031-794-5055","addr":"경기도 하남시 천현동 462-1번지 1층","indutype":"일반휴게음식 - 일반한식","category":"restaurant"},{"name":"황도바지락칼국수","tel":"031-795-3993","addr":"경기도 하남시 천현동 462-1번지 황도바지락칼국수 1층","indutype":"일반휴게음식 - 일반한식","category":"restaurant"}]},{"lat":"37.536849203","long":"127.22084169","imageIndex":4,"items":[{"name":"제천황기명태 하남점","tel":"031-794-1711","addr":"경기도 하남시 천현동 23-3번지","indutype":"일반휴게음식 - 일반한식","category":"restaurant"}]},{"lat":"37.535877316","long":"127.21524965","imageIndex":4,"items":[{"name":"차이나타운","tel":"031-791-9777","addr":"경기도 하남시 천현동 113-4번지 1층","indutype":"일반휴게음식 - 중국식","category":"restaurant"}]},{"lat":"37.527713812","long":"127.22050966","imageIndex":4,"items":[{"name":"청기와촌","tel":"031-791-4357","addr":"경기도 하남시 천현동 575-6번지","indutype":"일반휴게음식 - 일반한식","category":"restaurant"}]},{"lat":"37.533846002","long":"127.22241689","imageIndex":4,"items":[{"name":"커피몽타주(Caffee Montage)","tel":"070-7733-6465","addr":"경기도 하남시 천현동 53-10번지 외1필지 나동 1층","indutype":"일반휴게음식 - 서양음식","category":"restaurant"}]},{"lat":"37.537155536","long":"127.22084258","imageIndex":4,"items":[{"name":"테라스","tel":"02-6008-3248","addr":"경기도 하남시 천현동 13-21번지 2층","indutype":"일반휴게음식 - 서양음식","category":"restaurant"}]},{"lat":"37.535463108","long":"127.2151127","imageIndex":4,"items":[{"name":"통일옥","tel":"031-795-0018","addr":"경기도 하남시 천현동 113-15.외3","indutype":"일반휴게음식 - 일반한식","category":"restaurant"}]},{"lat":"37.535513027","long":"127.22230864","imageIndex":4,"items":[{"name":"포차낭만시대","tel":"031-796-8281","addr":"경기도 하남시 천현동 39-5번지 1층","indutype":"일반휴게음식 - 일반한식","category":"restaurant"}]},{"lat":"37.530181919","long":"127.2208336","imageIndex":4,"items":[{"name":"한남쭈꾸미","tel":"031-792-1600","addr":"경기도 하남시 천현동 452-5번지 1층","indutype":"일반휴게음식 - 일반한식","category":"restaurant"}]},{"lat":"37.522934111","long":"127.21802971","imageIndex":4,"items":[{"name":"한화호텔앤드리조트(주)/마루공원점","tel":"031-792-9042","addr":"경기도 하남시 천현동 628번지","indutype":"일반휴게음식 - 일반한식","category":"restaurant"}]},{"lat":"37.533518064","long":"127.21450756","imageIndex":4,"items":[{"name":"화돌농장(하남점)","tel":"031-796-0292","addr":"경기도 하남시 천현동 93-2번지","indutype":"일반휴게음식 - 일반한식","category":"restaurant"}]}]