[{"lat":"37.65378016","long":"127.26002926","imageIndex":4,"items":[{"name":"(주)새곳","tel":"031-511-2809","addr":"경기도 남양주시 호평동 23-57번지","indutype":"일반휴게음식 - 일반한식","category":"restaurant"}]},{"lat":"37.654942256","long":"127.24300093","imageIndex":4,"items":[{"name":"(주)짱죽 남양주점","tel":"02-1644-8286","addr":"경기도 남양주시 호평동 637번지 이마트 3층","indutype":"일반휴게음식 - 일반한식","category":"restaurant"},{"name":"뉴욕버거 (남양주점)","tel":"031-593-5953","addr":"경기도 남양주시 호평동 637번지","indutype":"일반휴게음식 - 서양음식","category":"restaurant"},{"name":"더카페호평점","tel":"031-595-0434","addr":"경기도 남양주시 호평동 637번지 이마트 3층","indutype":"일반휴게음식 - 서양음식","category":"restaurant"},{"name":"송사부수제쌀고로케 이마트남양주점","tel":"","addr":"경기도 남양주시 호평동 637번지 남양주호평이마트 3층","indutype":"일반휴게음식 - 서양음식","category":"restaurant"}]},{"lat":"37.654331386","long":"127.24652326","imageIndex":4,"items":[{"name":"3일한우국밥/주식회사 프라브앤파트너스","tel":"031-511-6117","addr":"경기도 남양주시 호평동 656-5번지 1층","indutype":"일반휴게음식 - 일반한식","category":"restaurant"}]},{"lat":"37.655720922","long":"127.24553055","imageIndex":4,"items":[{"name":"60계치킨 평내호평점","tel":"031-593-6066","addr":"경기도 남양주시 호평동 645-2번지 1층","indutype":"일반휴게음식 - 스넥","category":"restaurant"}]},{"lat":"37.655720362","long":"127.24580252","imageIndex":4,"items":[{"name":"BHC호평점","tel":"031-511-9277","addr":"경기도 남양주시 호평동 645-4번지 1층","indutype":"일반휴게음식 - 스넥","category":"restaurant"},{"name":"진미양꼬치","tel":"031-511-1668","addr":"경기도 남양주시 호평동 645-4번지 세원빌딩 상가동 1층","indutype":"일반휴게음식 - 일반한식","category":"restaurant"}]},{"lat":"37.671107866","long":"127.25061324","imageIndex":4,"items":[{"name":"Cafe자작나무","tel":"031-551-9933","addr":"경기도 남양주시 호평동 342-2번지 G동 1층","indutype":"일반휴게음식 - 서양음식","category":"restaurant"}]},{"lat":"37.654170125","long":"127.24608078","imageIndex":4,"items":[{"name":"September","tel":"031-511-6550","addr":"경기도 남양주시 호평동 655-6번지","indutype":"일반휴게음식 - 서양음식","category":"restaurant"}]},{"lat":"37.655579905","long":"127.24400023","imageIndex":4,"items":[{"name":"TOON(툰)","tel":"031-511-3338","addr":"경기도 남양주시 호평동 639번지 호평프라자 404 405호","indutype":"일반휴게음식 - 서양음식","category":"restaurant"},{"name":"김밥천국","tel":"031-595-9994","addr":"경기도 남양주시 호평동 639번지 호평프라자 1층 114호","indutype":"일반휴게음식 - 스넥","category":"restaurant"},{"name":"꿀먹은강정","tel":"031-592-0862","addr":"경기도 남양주시 호평동 639 호평프라자 115호","indutype":"일반휴게음식 - 스넥","category":"restaurant"},{"name":"단오방뚝배기떡볶이호평점","tel":"031-595-1933","addr":"경기도 남양주시 호평동 639번지 호평프라자","indutype":"일반휴게음식 - 일반한식","category":"restaurant"},{"name":"빽다방 평내호평역점","tel":"031-5595-455","addr":"경기도 남양주시 호평동 639번지 호평프라자 113호","indutype":"일반휴게음식 - 서양음식","category":"restaurant"},{"name":"쿠우쿠우 평내호평점","tel":"031-511-6275","addr":"경기도 남양주시 호평동 639번지 호평프라자 8층 801,802호","indutype":"일반휴게음식 - 서양음식","category":"restaurant"}]},{"lat":"37.657253254","long":"127.24519556","imageIndex":4,"items":[{"name":"가마솥불떡볶기","tel":"","addr":"경기도 남양주시 호평동 212-4번지 102호, 103호","indutype":"일반휴게음식 - 스넥","category":"restaurant"},{"name":"착한밥도둑","tel":"031-592-2826","addr":"경기도 남양주시 호평동 212-4번지 1층","indutype":"일반휴게음식 - 일반한식","category":"restaurant"},{"name":"춘향골 황금 추어탕","tel":"031-595-2777","addr":"경기도 남양주시 호평동 212-4번지 1층","indutype":"일반휴게음식 - 일반한식","category":"restaurant"},{"name":"칼포니치킨","tel":"031-595-2776","addr":"경기도 남양주시 호평동 212-4번지 2층 1호","indutype":"일반휴게음식 - 스넥","category":"restaurant"}]},{"lat":"37.655025322","long":"127.24202662","imageIndex":4,"items":[{"name":"가야밀면김치삼겹살","tel":"031-595-4556","addr":"경기도 남양주시 호평동 629-8번지","indutype":"일반휴게음식 - 일반한식","category":"restaurant"}]},{"lat":"37.65430739","long":"127.24505","imageIndex":4,"items":[{"name":"가장맛있는족발","tel":"031-593-5833","addr":"경기도 남양주시 호평동 652-12번지","indutype":"일반휴게음식 - 일반한식","category":"restaurant"}]},{"lat":"37.654415143","long":"127.24080079","imageIndex":4,"items":[{"name":"가츠소바","tel":"031-591-2018","addr":"경기도 남양주시 호평동 626-2번지 예성빌 1층","indutype":"일반휴게음식 - 일반한식","category":"restaurant"}]},{"lat":"37.655000851","long":"127.24518824","imageIndex":4,"items":[{"name":"갈비공장","tel":"031-595-0805","addr":"경기도 남양주시 호평동 644-6번지 R&B빌딩","indutype":"일반휴게음식 - 일반한식","category":"restaurant"}]},{"lat":"37.657139804","long":"127.24777901","imageIndex":4,"items":[{"name":"개개인","tel":"","addr":"경기도 남양주시 호평동 189-5번지 1층","indutype":"일반휴게음식 - 서양음식","category":"restaurant"}]},{"lat":"37.655720642","long":"127.24566654","imageIndex":4,"items":[{"name":"검은소","tel":"031-592-3292","addr":"경기도 남양주시 호평동 645-3번지 1층","indutype":"일반휴게음식 - 일반한식","category":"restaurant"}]},{"lat":"37.654773769","long":"127.24608274","imageIndex":4,"items":[{"name":"고기를사랑하는집","tel":"031-592-0920","addr":"경기도 남양주시 호평동 655-2번지 1층","indutype":"일반휴게음식 - 일반한식","category":"restaurant"}]},{"lat":"37.654029231","long":"127.24449382","imageIndex":4,"items":[{"name":"고봉민김밥인 호평점","tel":"031-591-7990","addr":"경기도 남양주시 호평동 641-1번지 샤르망메디칼프라자 1층 104호","indutype":"일반휴게음식 - 스넥","category":"restaurant"},{"name":"놀부보쌈과 돌솥밥","tel":"031-592-6886","addr":"경기도 남양주시 호평동 641-1번지 샤르망메디칼프라자 205호","indutype":"일반휴게음식 - 일반한식","category":"restaurant"},{"name":"명인만두(호평점)","tel":"031-595-7959","addr":"경기도 남양주시 호평동 641-1번지 샤르망메디칼프라자 106호","indutype":"일반휴게음식 - 일반한식","category":"restaurant"},{"name":"서박사동태탕","tel":"031-595-7780","addr":"경기도 남양주시 호평동 641-1번지 샤르망메디칼프라자 109호","indutype":"일반휴게음식 - 스넥","category":"restaurant"},{"name":"소담촌","tel":"031-594-4147","addr":"경기도 남양주시 호평동 641-1번지 샤르망메디칼프라자 1204동 1206호","indutype":"일반휴게음식 - 일반한식","category":"restaurant"},{"name":"어울림김밥천국","tel":"031-559-6667","addr":"경기도 남양주시 호평동 53-7블럭샤르망메디컬프라자101,102호","indutype":"일반휴게음식 - 일반한식","category":"restaurant"},{"name":"엠티","tel":"031-591-5807","addr":"경기도 남양주시 호평동 641-1번지 샤르망메디칼프라자 112호","indutype":"일반휴게음식 - 주점","category":"restaurant"},{"name":"연라이브7080","tel":"070-8709-8705","addr":"경기도 남양주시 호평동 641-1번지 샤르망메디칼프라자 308호 307호,308호","indutype":"일반휴게음식 - 서양음식","category":"restaurant"},{"name":"옛촌","tel":"031-595-8259","addr":"경기도 남양주시 호평동 641-1번지 샤르망 113,114호","indutype":"일반휴게음식 - 일반한식","category":"restaurant"},{"name":"초콜릿","tel":"02-1111-1111","addr":"경기도 남양주시 호평동 641-1번지 샤르망메디칼프라자 401호","indutype":"일반휴게음식 - 주점","category":"restaurant"},{"name":"총각네 옛날통닭","tel":"031-0000-0000","addr":"경기도 남양주시 호평동 641-1번지 샤르망메디칼프라자 1층 110호","indutype":"일반휴게음식 - 일반한식","category":"restaurant"},{"name":"팔공티 호평점","tel":"","addr":"경기도 남양주시 호평동 641-1번지 샤르망메디칼프라자 117호","indutype":"일반휴게음식 - 서양음식","category":"restaurant"},{"name":"피자 5070","tel":"031-594-9244","addr":"경기도 남양주시 호평동 641-1샤르망메디칼프라자1층113호~114호","indutype":"일반휴게음식 - 칵테일바","category":"restaurant"},{"name":"할매순대국","tel":"031-563-4634","addr":"경기도 남양주시 호평동 641-1번지 샤르망메디칼프라자 115,116호","indutype":"일반휴게음식 - 일반한식","category":"restaurant"},{"name":"호호프","tel":"031-511-6340","addr":"경기도 남양주시 호평동 641-1번지 샤르망메디칼프라자 309호","indutype":"일반휴게음식 - 주점","category":"restaurant"},{"name":"회전스시류","tel":"031-593-1644","addr":"경기도 남양주시 호평동 641-1번지 샤르망메디칼프라자 1층 112호","indutype":"일반휴게음식 - 일반한식","category":"restaurant"}]},{"lat":"37.655944068","long":"127.25930012","imageIndex":4,"items":[{"name":"고창한정식","tel":"031-511-0373","addr":"경기도 남양주시 호평동 10-10번지 1층","indutype":"일반휴게음식 - 일반한식","category":"restaurant"}]},{"lat":"37.655722816","long":"127.25324788","imageIndex":4,"items":[{"name":"골목푸드","tel":"","addr":"경기도 남양주시 호평동 671번지 효성할인마트 상가동 110호","indutype":"일반휴게음식 - 스넥","category":"restaurant"}]},{"lat":"37.654443557","long":"127.24455183","imageIndex":4,"items":[{"name":"곱분이곱창 호평점","tel":"031-593-7745","addr":"경기도 남양주시 호평동 642-3번지 ZENEW빌딩 104호","indutype":"일반휴게음식 - 일반한식","category":"restaurant"},{"name":"사랑채샤브샤브샐러드바평내호평점","tel":"031-595-9480","addr":"경기도 남양주시 호평동 642-3번지 2층 205,206호","indutype":"일반휴게음식 - 일반한식","category":"restaurant"},{"name":"생활커피 호평점","tel":"031-591-8765","addr":"경기도 남양주시 호평동 642-3번지 ZENEW빌딩 1층 123호","indutype":"일반휴게음식 - 서양음식","category":"restaurant"},{"name":"섬동네 이야기","tel":"031-592-1601","addr":"경기도 남양주시 호평동 642-3번지 ZENEW빌딩 1층 107,108,109호","indutype":"일반휴게음식 - 일반한식","category":"restaurant"},{"name":"아카시","tel":"031-559-1151","addr":"경기도 남양주시 호평동 642-3번지 ZENEW빌딩 1층 111호","indutype":"일반휴게음식 - 일반한식","category":"restaurant"},{"name":"육회공작소호평점","tel":"031-559-6077","addr":"경기도 남양주시 호평동 642-3번지 제뉴 101호 제뉴","indutype":"일반휴게음식 - 일반한식","category":"restaurant"},{"name":"종로닭발","tel":"031-511-4528","addr":"경기도 남양주시 호평동 642-3번지 ZENEW빌딩 122호","indutype":"일반휴게음식 - 일반한식","category":"restaurant"},{"name":"커피에반하다 (호평역점)","tel":"031-000-0000","addr":"경기도 남양주시 호평동 642-3번지 ZENEW빌딩 120호","indutype":"일반휴게음식 - 서양음식","category":"restaurant"},{"name":"탐앤탐스 호평점","tel":"031-592-5565","addr":"경기도 남양주시 호평동 642-3번지 ZENEW빌딩 124호","indutype":"일반휴게음식 - 서양음식","category":"restaurant"},{"name":"테라광장","tel":"051-563-3311","addr":"경기도 남양주시 호평동 642-3번지 102,103호","indutype":"일반휴게음식 - 주점","category":"restaurant"},{"name":"하루비어","tel":"031-511-9933","addr":"경기도 남양주시 호평동 642-3번지 ZENEW빌딩 114-115호 114호","indutype":"일반휴게음식 - 주점","category":"restaurant"},{"name":"홍스비어","tel":"031-592-1616","addr":"경기도 남양주시 호평동 642-3번지 ZENEW빌딩 105,106호","indutype":"일반휴게음식 - 주점","category":"restaurant"}]},{"lat":"37.654468306","long":"127.24566246","imageIndex":4,"items":[{"name":"곱사빠","tel":"031-591-3838","addr":"경기도 남양주시 호평동 654-4번지","indutype":"일반휴게음식 - 일반한식","category":"restaurant"}]},{"lat":"37.654774119","long":"127.24591276","imageIndex":4,"items":[{"name":"곱창이야기","tel":"031-592-9792","addr":"경기도 남양주시 호평동 655-1번지","indutype":"일반휴게음식 - 일반한식","category":"restaurant"}]},{"lat":"37.654252901","long":"127.24083427","imageIndex":4,"items":[{"name":"공간시도","tel":"031-554-1015","addr":"경기도 남양주시 호평동 626-3번지 1층 104호","indutype":"일반휴게음식 - 서양음식","category":"restaurant"}]},{"lat":"37.654417595","long":"127.24403046","imageIndex":4,"items":[{"name":"공감","tel":"","addr":"경기도 남양주시 호평동 640-2번지 CH리베로빌딩 6층 608호","indutype":"일반휴게음식 - 주점","category":"restaurant"},{"name":"비에뜨반미 (호평점)","tel":"031-1111-1111","addr":"경기도 남양주시 호평동 640-2번지 CH리베로빌딩 113호","indutype":"일반휴게음식 - 일반한식","category":"restaurant"},{"name":"전주맛집","tel":"031-511-2789","addr":"경기도 남양주시 호평동 640-2번지 CH리베로빌딩 2층 203호","indutype":"일반휴게음식 - 일반한식","category":"restaurant"},{"name":"쥬씨(남양주호평점)","tel":"02-408-4112","addr":"경기도 남양주시 호평동 640-2번지 CH리베로빌딩 1층 115호","indutype":"일반휴게음식 - 일반한식","category":"restaurant"},{"name":"코믹한 애니씨","tel":"031-559-8254","addr":"경기도 남양주시 호평동 640-2번지 CH리베로 204호205호","indutype":"일반휴게음식 - 서양음식","category":"restaurant"},{"name":"해내리족발","tel":"031-593-5382","addr":"경기도 남양주시 호평동 640-2번지 CH리베로1 121,122호","indutype":"일반휴게음식 - 일반한식","category":"restaurant"}]},{"lat":"37.656636933","long":"127.24697275","imageIndex":4,"items":[{"name":"공룡피자","tel":"031-595-7151","addr":"경기도 남양주시 호평동 188-9번지","indutype":"일반휴게음식 - 서양음식","category":"restaurant"},{"name":"두찜평내호평점","tel":"","addr":"경기도 남양주시 호평동 188-9번지 정윤빌딩 1층 일부","indutype":"일반휴게음식 - 일반한식","category":"restaurant"},{"name":"맛집두루치기","tel":"031-111-1111","addr":"경기도 남양주시 호평동 188-9번지 정윤빌딩","indutype":"일반휴게음식 - 일반한식","category":"restaurant"}]},{"lat":"37.654586688","long":"127.24505091","imageIndex":4,"items":[{"name":"공릉우곱창","tel":"031-511-1254","addr":"경기도 남양주시 호평동 652-14번지 1층","indutype":"일반휴게음식 - 일반한식","category":"restaurant"}]},{"lat":"37.655003243","long":"127.24402103","imageIndex":4,"items":[{"name":"공차(평내호평점)","tel":"031-591-2008","addr":"경기도 남양주시 호평동 640번지 호평메인씨네마타워 1층 102호","indutype":"일반휴게음식 - 서양음식","category":"restaurant"},{"name":"금상","tel":"031-595-1215","addr":"경기도 남양주시 호평동 640번지 메인시네마타워 123,125호","indutype":"일반휴게음식 - 일반한식","category":"restaurant"},{"name":"꿩대신닭발","tel":"031-559-6125","addr":"경기도 남양주시 호평동 640번지 호평메인씨네마타워 133호","indutype":"일반휴게음식 - 주점","category":"restaurant"},{"name":"니꾸","tel":"031-511-7910","addr":"경기도 남양주시 호평동 640번지 메인시네마타워 132호","indutype":"일반휴게음식 - 일식·회집","category":"restaurant"},{"name":"닐니리맘보","tel":"031-591-3577","addr":"경기도 남양주시 호평동 640번지 호평메인씨네마타워","indutype":"일반휴게음식 - 스넥","category":"restaurant"},{"name":"닭이봉진미춘천닭갈비","tel":"031-559-9417","addr":"경기도 남양주시 호평동 640번지 호평메인씨네마타워 210호","indutype":"일반휴게음식 - 일반한식","category":"restaurant"},{"name":"메가엠지씨커피 남양주호평점","tel":"031-511-9920","addr":"경기도 남양주시 호평동 640번지 호평메인시네마타워 131호","indutype":"일반휴게음식 - 서양음식","category":"restaurant"},{"name":"모아아토","tel":"031-591-1323","addr":"경기도 남양주시 호평동 640번지 메인시네마타워 8층 10호","indutype":"일반휴게음식 - 일반한식","category":"restaurant"},{"name":"미다래","tel":"031-559-5590","addr":"경기도 남양주시 호평동 640번지 호평메인시네마타워 118호","indutype":"일반휴게음식 - 일반한식","category":"restaurant"},{"name":"박존옥천마설렁탕","tel":"031-595-6061","addr":"경기도 남양주시 호평동 640번지 메인씨네마타워 129동 130호","indutype":"일반휴게음식 - 일반한식","category":"restaurant"},{"name":"봉추찜닭","tel":"031-511-6981","addr":"경기도 남양주시 호평동 640번지 호평메인씨네마타워 126호","indutype":"일반휴게음식 - 일반한식","category":"restaurant"},{"name":"불볶이와튀김범벅","tel":"031`-511-1147","addr":"경기도 남양주시 호평동 640번지 호평메인씨네마타워 109호","indutype":"일반휴게음식 - 스넥","category":"restaurant"},{"name":"수유리우동집","tel":"031-592-3733","addr":"경기도 남양주시 호평동 640번지 호평메인씨네마타워 105호","indutype":"일반휴게음식 - 일반한식","category":"restaurant"},{"name":"엉터리생고기","tel":"031-594-1301","addr":"경기도 남양주시 호평동 640번지 메인시네마타워 310호","indutype":"일반휴게음식 - 일반한식","category":"restaurant"},{"name":"이디야/호평점","tel":"031-594-2673","addr":"경기도 남양주시 호평동 640번지 메인씨네마타워 111호","indutype":"일반휴게음식 - 스넥","category":"restaurant"},{"name":"죠스떡볶이","tel":"031-591-6288","addr":"경기도 남양주시 호평동 640번지 호평메인씨네마타워 119호","indutype":"일반휴게음식 - 스넥","category":"restaurant"},{"name":"치앤강 호평점","tel":"02-1111-1111","addr":"경기도 남양주시 호평동 640번지 메인시네마타워 1층 101호","indutype":"일반휴게음식 - 일반한식","category":"restaurant"},{"name":"카페더나눔","tel":"031-559-4791","addr":"경기도 남양주시 호평동 640번지 호평메인씨네마타워 4층 407호","indutype":"일반휴게음식 - 서양음식","category":"restaurant"},{"name":"파스타리오호평점","tel":"031-559-5120","addr":"경기도 남양주시 호평동 640번지 메인시네마타워 304호","indutype":"일반휴게음식 - 서양음식","category":"restaurant"},{"name":"피자스쿨","tel":"031-591-9581","addr":"경기도 남양주시 호평동 640번지 메인시네마타워 103호","indutype":"일반휴게음식 - 서양음식","category":"restaurant"},{"name":"홍루이젠 평내호평점","tel":"070-7600-1513","addr":"경기도 남양주시 호평동 640번지 메인시네마타워 1층 127호","indutype":"일반휴게음식 - 서양음식","category":"restaurant"}]},{"lat":"37.655808166","long":"127.24691338","imageIndex":4,"items":[{"name":"광어2마리15000","tel":"031-559-5651","addr":"경기도 남양주시 호평동 649-2번지","indutype":"일반휴게음식 - 일식·회집","category":"restaurant"}]},{"lat":"37.659636005","long":"127.24752655","imageIndex":4,"items":[{"name":"교동왕꼬치","tel":"070-8709-8705","addr":"경기도 남양주시 호평동 617-3번지 테마프라자 1층 106호","indutype":"일반휴게음식 - 일반한식","category":"restaurant"},{"name":"명품치킨","tel":"031-594-8828","addr":"경기도 남양주시 호평동 617-3번지 테마프라자109,110","indutype":"일반휴게음식 - 주점","category":"restaurant"},{"name":"손맛칼국수","tel":"031-511-2624","addr":"경기도 남양주시 호평동 617-3번지 테마프라자 105호","indutype":"일반휴게음식 - 일반한식","category":"restaurant"},{"name":"쏭가커피","tel":"031-528-6263","addr":"경기도 남양주시 호평동 617-3번지 테마프라자 1층 107호","indutype":"일반휴게음식 - 서양음식","category":"restaurant"},{"name":"엄가네닭발","tel":"031-593-5775","addr":"경기도 남양주시 호평동 617-3번지 테마프라자 101호","indutype":"일반휴게음식 - 일반한식","category":"restaurant"},{"name":"투다리","tel":"031-595-1698","addr":"경기도 남양주시 호평동 617-3번지 테마프라자 102호","indutype":"일반휴게음식 - 주점","category":"restaurant"}]},{"lat":"37.655834726","long":"127.24714011","imageIndex":4,"items":[{"name":"교촌치킨(호평점)","tel":"031-511-7892","addr":"경기도 남양주시 호평동 650-1번지","indutype":"일반휴게음식 - 스넥","category":"restaurant"}]},{"lat":"37.655164373","long":"127.2445315","imageIndex":4,"items":[{"name":"교토카츠","tel":"031-594-1001","addr":"경기도 남양주시 호평동 642-1번지 홍조프라자 1층 112호","indutype":"일반휴게음식 - 일식·회집","category":"restaurant"},{"name":"꼬치피는밤","tel":"031-592-3592","addr":"경기도 남양주시 호평동 642-1번지 홍조프라자 107호","indutype":"일반휴게음식 - 일반한식","category":"restaurant"},{"name":"더인생맥주","tel":"","addr":"경기도 남양주시 호평동 642-1번지 홍조프라자 101호","indutype":"일반휴게음식 - 주점","category":"restaurant"},{"name":"쇼쿠지","tel":"070-7469-5050","addr":"경기도 남양주시 호평동 642-1번지 홍조프라자 2층 208호","indutype":"일반휴게음식 - 주점","category":"restaurant"},{"name":"스겜스겜","tel":"","addr":"경기도 남양주시 호평동 642-1번지 304,305호","indutype":"일반휴게음식 - 서양음식","category":"restaurant"},{"name":"에이치케이오리지널 토스트 앤 햄버거","tel":"","addr":"경기도 남양주시 호평동 642-1번지 홍조프라자 1층 108호","indutype":"일반휴게음식 - 서양음식","category":"restaurant"},{"name":"오사카부르스평내호평역점","tel":"070-8868-0458","addr":"경기도 남양주시 호평동 642-1번지 홍조프라자 206호","indutype":"일반휴게음식 - 주점","category":"restaurant"},{"name":"원조보배곱창 호평직영점","tel":"031-593-4007","addr":"경기도 남양주시 호평동 642-1번지 홍조프라자 103호","indutype":"일반휴게음식 - 일반한식","category":"restaurant"},{"name":"육회로","tel":"","addr":"경기도 남양주시 호평동 642-1번지 홍조프라자 105호","indutype":"일반휴게음식 - 일반한식","category":"restaurant"},{"name":"청춘야식당","tel":"031-559-6767","addr":"경기도 남양주시 호평동 642-1번지 홍조프라자 102호","indutype":"일반휴게음식 - 주점","category":"restaurant"},{"name":"초코라떼","tel":"031-527-1776","addr":"경기도 남양주시 호평동 642-1번지 홍조프라자 117호,118호","indutype":"일반휴게음식 - 스넥","category":"restaurant"},{"name":"포크포크","tel":"031-511-4338","addr":"경기도 남양주시 호평동 642-1번지 홍조프라자 121호","indutype":"일반휴게음식 - 일반한식","category":"restaurant"},{"name":"호두까기","tel":"031-111-1111","addr":"경기도 남양주시 호평동 642-1번지 홍조프라자 1층 115A호","indutype":"일반휴게음식 - 일반한식","category":"restaurant"}]},{"lat":"37.654586339","long":"127.24522089","imageIndex":4,"items":[{"name":"구노포차","tel":"031-511-2240","addr":"경기도 남양주시 호평동 652-3번지 102호","indutype":"일반휴게음식 - 일반한식","category":"restaurant"}]},{"lat":"37.655781489","long":"127.24674331","imageIndex":4,"items":[{"name":"구리야채맛곱창","tel":"031-595-1328","addr":"경기도 남양주시 호평동 649-1번지 102호","indutype":"일반휴게음식 - 일반한식","category":"restaurant"}]},{"lat":"37.654004679","long":"127.24328121","imageIndex":4,"items":[{"name":"국민뼈짬뽕","tel":"031-511-3203","addr":"경기도 남양주시 호평동 638-1번지 늘봄타워 1층 112호","indutype":"일반휴게음식 - 중국식","category":"restaurant"},{"name":"도자기랑","tel":"031-593-8748","addr":"경기도 남양주시 호평동 638-1번지 늘봄타워 503호","indutype":"일반휴게음식 - 일반한식","category":"restaurant"},{"name":"본죽(호평동점)","tel":"031-592-3088","addr":"경기도 남양주시 호평동 638-1번지 늘봄타워 1층 107호","indutype":"일반휴게음식 - 일반한식","category":"restaurant"},{"name":"포인트다이어트카페","tel":"031-595-9688","addr":"경기도 남양주시 호평동 638-1번지 늘봄타워 3층 307호 일부호","indutype":"일반휴게음식 - 서양음식","category":"restaurant"},{"name":"호평락볼릭장","tel":"031-595-1110","addr":"경기도 남양주시 호평동 638-1번지 늘봄타워 11층","indutype":"일반휴게음식 - 일반한식","category":"restaurant"}]},{"lat":"37.656142236","long":"127.2551418","imageIndex":4,"items":[{"name":"국보","tel":"02-1899-8994","addr":"경기도 남양주시 호평동 674-3번지 1층","indutype":"일반휴게음식 - 일반한식","category":"restaurant"},{"name":"국보","tel":"031-1899-8994","addr":"경기도 남양주시 호평동 674-3번지 1층","indutype":"일반휴게음식 - 일반한식","category":"restaurant"}]},{"lat":"37.656030704","long":"127.24821733","imageIndex":4,"items":[{"name":"국수나무(호평점)","tel":"031-592-9485","addr":"경기도 남양주시 호평동 666-3번지","indutype":"일반휴게음식 - 일반한식","category":"restaurant"},{"name":"스시우찌","tel":"031-1111-1111","addr":"경기도 남양주시 호평동 666-3번지 1층 102호","indutype":"일반휴게음식 - 일식·회집","category":"restaurant"},{"name":"카페중심","tel":"070-8031-4038","addr":"경기도 남양주시 호평동 666-3번지 상가 1층 101호","indutype":"일반휴게음식 - 서양음식","category":"restaurant"}]},{"lat":"37.65474765","long":"127.2456407","imageIndex":4,"items":[{"name":"굴뚝능이버섯백숙","tel":"031-554-3311","addr":"경기도 남양주시 호평동 654-2번지 1층","indutype":"일반휴게음식 - 일반한식","category":"restaurant"}]},{"lat":"37.657529868","long":"127.24649971","imageIndex":4,"items":[{"name":"굽네치킨","tel":"031-593-9392","addr":"경기도 남양주시 호평동 181-23번지 106호","indutype":"일반휴게음식 - 일반한식","category":"restaurant"},{"name":"원조불닭","tel":"031-591-1822","addr":"경기도 남양주시 호평동 181-23번지 예원빌딩 106호","indutype":"일반휴게음식 - 일반한식","category":"restaurant"}]},{"lat":"37.654998144","long":"127.24650277","imageIndex":4,"items":[{"name":"굽스치킨카페","tel":"031-592-9236","addr":"경기도 남양주시 호평동 648-4번지","indutype":"일반휴게음식 - 주점","category":"restaurant"}]},{"lat":"37.654664776","long":"127.24210479","imageIndex":4,"items":[{"name":"궁중능이칼국수","tel":"031-559-3569","addr":"경기도 남양주시 호평동 630-6번지 1층","indutype":"일반휴게음식 - 일반한식","category":"restaurant"}]},{"lat":"37.656472174","long":"127.24821879","imageIndex":4,"items":[{"name":"그냥전집","tel":"031-592-1422","addr":"경기도 남양주시 호평동 194-29번지 1층 일부","indutype":"일반휴게음식 - 일반한식","category":"restaurant"}]},{"lat":"37.6538655","long":"127.24525254","imageIndex":4,"items":[{"name":"김치도가","tel":"031-511-2770","addr":"경기도 남양주시 호평동 652-8번지 1층","indutype":"일반휴게음식 - 일반한식","category":"restaurant"}]},{"lat":"37.655557909","long":"127.24593798","imageIndex":4,"items":[{"name":"꼼짱","tel":"031-595-5593","addr":"경기도 남양주시 호평동 645-14번지 1층","indutype":"일반휴게음식 - 일반한식","category":"restaurant"}]},{"lat":"37.656080583","long":"127.24588302","imageIndex":4,"items":[{"name":"꽈배기서울 호평점","tel":"","addr":"경기도 남양주시 호평동 168-25번지 1동 1층","indutype":"일반휴게음식 - 스넥","category":"restaurant"},{"name":"피자알볼로(호평평내점)","tel":"031-592-8495","addr":"경기도 남양주시 호평동 168-25번지 1동","indutype":"일반휴게음식 - 서양음식","category":"restaurant"}]},{"lat":"37.653996592","long":"127.2428279","imageIndex":4,"items":[{"name":"나리몽키즈카페","tel":"02-000-0000","addr":"경기도 남양주시 호평동 638번지 602-1호. 603호","indutype":"일반휴게음식 - 일반한식","category":"restaurant"},{"name":"돈스","tel":"031-593-1888","addr":"경기도 남양주시 호평동 638번지 성보빌딩 1004호","indutype":"일반휴게음식 - 서양음식","category":"restaurant"},{"name":"마싯지커피","tel":"070-4318-7928","addr":"경기도 남양주시 호평동 638번지 성보빌딩 1005호","indutype":"일반휴게음식 - 서양음식","category":"restaurant"},{"name":"미스터피자 호평점","tel":"031-595-2224","addr":"경기도 남양주시 호평동 638번지 성보빌딩 203호","indutype":"일반휴게음식 - 서양음식","category":"restaurant"},{"name":"코코호도평내호평점","tel":"031-552-1303","addr":"경기도 남양주시 호평동 638번지 성보빌딩 105호","indutype":"일반휴게음식 - 일반한식","category":"restaurant"}]},{"lat":"37.65480955","long":"127.24179929","imageIndex":4,"items":[{"name":"나인","tel":"031-592-9009","addr":"경기도 남양주시 호평동 630-1번지","indutype":"일반휴게음식 - 주점","category":"restaurant"}]},{"lat":"37.661640472","long":"127.24977711","imageIndex":4,"items":[{"name":"날쌘카페 평내호평점","tel":"02-0000-0000","addr":"경기도 남양주시 호평동 273-9번지 101동 105호","indutype":"일반휴게음식 - 서양음식","category":"restaurant"},{"name":"후리지아","tel":"031-510-4000","addr":"경기도 남양주시 호평동 273-9번지 101동 104호","indutype":"일반휴게음식 - 일반한식","category":"restaurant"}]},{"lat":"37.658665196","long":"127.24644675","imageIndex":4,"items":[{"name":"남강중화요리앤카페","tel":"031-591-3920","addr":"경기도 남양주시 호평동 175-17번지 2층","indutype":"일반휴게음식 - 중국식","category":"restaurant"},{"name":"싱싱회포차","tel":"031-593-2323","addr":"경기도 남양주시 호평동 175-17번지 103호","indutype":"일반휴게음식 - 일반한식","category":"restaurant"}]},{"lat":"37.65419657","long":"127.24636417","imageIndex":4,"items":[{"name":"남도백반","tel":"031-559-0005","addr":"경기도 남양주시 호평동 656-7번지 1층","indutype":"일반휴게음식 - 일반한식","category":"restaurant"},{"name":"남도백반","tel":"031-559-0005","addr":"경기도 남양주시 호평동 656-7번지","indutype":"일반휴게음식 - 일반한식","category":"restaurant"}]},{"lat":"37.663220579","long":"127.24813899","imageIndex":4,"items":[{"name":"네네치킨","tel":"031-559-6054","addr":"경기도 남양주시 호평동 405-16번지","indutype":"일반휴게음식 - 주점","category":"restaurant"},{"name":"레드스틱","tel":"","addr":"경기도 남양주시 호평동 405-16번지 천마빌딩 104호","indutype":"일반휴게음식 - 스넥","category":"restaurant"}]},{"lat":"37.654442535","long":"127.24505044","imageIndex":4,"items":[{"name":"노랑통닭","tel":"031-559-8050","addr":"경기도 남양주시 호평동 652-13번지","indutype":"일반휴게음식 - 스넥","category":"restaurant"},{"name":"쩍태&노가리","tel":"","addr":"경기도 남양주시 호평동 652-13번지 1층","indutype":"일반휴게음식 - 주점","category":"restaurant"}]},{"lat":"37.661975815","long":"127.24882623","imageIndex":4,"items":[{"name":"노르웨이 숲","tel":"031-511-5474","addr":"경기도 남양주시 호평동 269-1번지 만프라자 105호","indutype":"일반휴게음식 - 서양음식","category":"restaurant"},{"name":"에이스오브컵스","tel":"","addr":"경기도 남양주시 호평동 269-1번지 1층","indutype":"일반휴게음식 - 주점","category":"restaurant"},{"name":"일락","tel":"031-594-2019","addr":"경기도 남양주시 호평동 269-1번지 1층 103호","indutype":"일반휴게음식 - 중국식","category":"restaurant"},{"name":"크리미부어크","tel":"031-559-3884","addr":"경기도 남양주시 호평동 269-1번지 호만프라자207,208호 207호","indutype":"일반휴게음식 - 일반한식","category":"restaurant"},{"name":"통영굴밥","tel":"031-510-7115","addr":"경기도 남양주시 호평동 269-1번지 101호","indutype":"일반휴게음식 - 일반한식","category":"restaurant"}]},{"lat":"37.654030135","long":"127.24405187","imageIndex":4,"items":[{"name":"노블","tel":"","addr":"경기도 남양주시 호평동 641번지 에이스프라자 6층 612, 613호","indutype":"일반휴게음식 - 주점","category":"restaurant"},{"name":"롯데리아","tel":"031-559-6367","addr":"경기도 남양주시 호평동 641에이스프라자107호~108호","indutype":"일반휴게음식 - 서양음식","category":"restaurant"},{"name":"바불리옛날왕만두","tel":"00-0000-0000","addr":"경기도 남양주시 호평동 641번지 에이스프라자 101호","indutype":"일반휴게음식 - 일반한식","category":"restaurant"},{"name":"스마일 찹쌀 꽈배기","tel":"","addr":"경기도 남양주시 호평동 641번지 에이스프라자 1층 114호","indutype":"일반휴게음식 - 스넥","category":"restaurant"},{"name":"아래","tel":"02-2696-6006","addr":"경기도 남양주시 호평동 641번지 에이스프라자 B05호","indutype":"일반휴게음식 - 주점","category":"restaurant"},{"name":"이삭토스트","tel":"031-591-2412","addr":"경기도 남양주시 호평동 641번지 에이스프라자 115호","indutype":"일반휴게음식 - 일반한식","category":"restaurant"}]},{"lat":"37.656303061","long":"127.24722098","imageIndex":4,"items":[{"name":"누나홀닭평내호평점","tel":"031-593-5592","addr":"경기도 남양주시 호평동 165-4번지","indutype":"일반휴게음식 - 일반한식","category":"restaurant"}]},{"lat":"37.657247282","long":"127.25660745","imageIndex":4,"items":[{"name":"눈맞은짝태앤노가리","tel":"031-511-9657","addr":"경기도 남양주시 호평동 680번지 상가동 106-1(호평마을중흥에스-클래스로하스)","indutype":"일반휴게음식 - 일반한식","category":"restaurant"},{"name":"투마리치킨 호평점","tel":"031-593-1444","addr":"경기도 남양주시 호평동 680번지 중흥후레쉬마트 상가동 103호","indutype":"일반휴게음식 - 스넥","category":"restaurant"}]},{"lat":"37.655276529","long":"127.24694564","imageIndex":4,"items":[{"name":"뉴욕그릴","tel":"031-524-2655","addr":"경기도 남양주시 호평동 649-6번지","indutype":"일반휴게음식 - 서양음식","category":"restaurant"},{"name":"정:찬","tel":"031-592-3008","addr":"경기도 남양주시 호평동 649-6번지 1층 일부","indutype":"일반휴게음식 - 일반한식","category":"restaurant"}]},{"lat":"37.655220757","long":"127.24777271","imageIndex":4,"items":[{"name":"다구어참숯불","tel":"031-559-9278","addr":"경기도 남양주시 호평동 650-8번지 1층","indutype":"일반휴게음식 - 일반한식","category":"restaurant"}]},{"lat":"37.655610947","long":"127.2420285","imageIndex":4,"items":[{"name":"다모루","tel":"031-111-1111","addr":"경기도 남양주시 호평동 629-1번지 1층","indutype":"일반휴게음식 - 서양음식","category":"restaurant"},{"name":"연탄돼지갈비","tel":"031-594-5456","addr":"경기도 남양주시 호평동 629-1번지","indutype":"일반휴게음식 - 일반한식","category":"restaurant"}]},{"lat":"37.659356989","long":"127.24738964","imageIndex":4,"items":[{"name":"다코치다","tel":"031-593-8741","addr":"경기도 남양주시 호평동 617-4번지 다꼬치다 105호","indutype":"일반휴게음식 - 스넥","category":"restaurant"},{"name":"덮밥집","tel":"070-7523-4249","addr":"경기도 남양주시 호평동 617-4번지 로제카운티 115호","indutype":"일반휴게음식 - 일반한식","category":"restaurant"},{"name":"둘둘말아김밥","tel":"031-511-8188","addr":"경기도 남양주시 호평동 617-4번지 로제카운티 1층 106-1 일부호","indutype":"일반휴게음식 - 스넥","category":"restaurant"},{"name":"언니곱창","tel":"031-593-3951","addr":"경기도 남양주시 호평동 617-4번지 로제카운티 104호","indutype":"일반휴게음식 - 일반한식","category":"restaurant"},{"name":"연가","tel":"031-595-2220","addr":"경기도 남양주시 호평동 617-4번지 로제카운티 111,112호","indutype":"일반휴게음식 - 서양음식","category":"restaurant"},{"name":"오르새피자","tel":"031-577-8303","addr":"경기도 남양주시 호평동 617-4번지 로제카운티 1층 110호","indutype":"일반휴게음식 - 서양음식","category":"restaurant"},{"name":"응급실국물떡볶이 남양주 호평점","tel":"031-595-1190","addr":"경기도 남양주시 호평동 617-4번지 로제카운티 1층 101호","indutype":"일반휴게음식 - 스넥","category":"restaurant"}]},{"lat":"37.654277639","long":"127.24196756","imageIndex":4,"items":[{"name":"달려라포차","tel":"031-559-3312","addr":"경기도 남양주시 호평동 631-12번지 G동 1층","indutype":"일반휴게음식 - 주점","category":"restaurant"},{"name":"토담골","tel":"031-559-8931","addr":"경기도 남양주시 호평동 631-12번지 1층","indutype":"일반휴게음식 - 일반한식","category":"restaurant"},{"name":"토담골","tel":"031-559-8931","addr":"경기도 남양주시 호평동 631-12번지","indutype":"일반휴게음식 - 일반한식","category":"restaurant"}]},{"lat":"37.656194615","long":"127.24299363","imageIndex":4,"items":[{"name":"대박곱창","tel":"031-595-8562","addr":"경기도 남양주시 호평동 622번지 호평두산위브파크 107호","indutype":"일반휴게음식 - 일반한식","category":"restaurant"},{"name":"라면에빠지다 호평점","tel":"031-593-1365","addr":"경기도 남양주시 호평동 622번지 호평두산위브파크 1층 115-1호","indutype":"일반휴게음식 - 일반한식","category":"restaurant"},{"name":"맘스터치","tel":"031-591-8588","addr":"경기도 남양주시 호평동 622번지 호평두산위브파크 1층 117-1,118-1호","indutype":"일반휴게음식 - 스넥","category":"restaurant"},{"name":"엉뚱한상상호평점","tel":"031-224-0300","addr":"경기도 남양주시 호평동 622번지 호평두산위브파크 123호","indutype":"일반휴게음식 - 일반한식","category":"restaurant"},{"name":"코끼리손만두","tel":"","addr":"경기도 남양주시 호평동 622번지 호평두산위브파크 1층 124호 일부호","indutype":"일반휴게음식 - 일반한식","category":"restaurant"}]},{"lat":"37.661387895","long":"127.24558299","imageIndex":4,"items":[{"name":"대주김밥","tel":"031-593-5834","addr":"경기도 남양주시 호평동 613번지 호평마을대주파크빌 102호","indutype":"일반휴게음식 - 스넥","category":"restaurant"}]},{"lat":"37.655558469","long":"127.24566601","imageIndex":4,"items":[{"name":"대한맥주집 호평점","tel":"031-591-0815","addr":"경기도 남양주시 호평동 645-16번지 영준빌라 1층 102호","indutype":"일반휴게음식 - 일반한식","category":"restaurant"},{"name":"수제비그리고뿅뿅비어","tel":"031-593-6555","addr":"경기도 남양주시 호평동 645-16번지 영준빌라 1층 101호","indutype":"일반휴게음식 - 일반한식","category":"restaurant"}]},{"lat":"37.655334207","long":"127.24518932","imageIndex":4,"items":[{"name":"더램","tel":"031-591-3736","addr":"경기도 남양주시 호평동 644-4번지","indutype":"일반휴게음식 - 일반한식","category":"restaurant"}]},{"lat":"37.655163024","long":"127.24518877","imageIndex":4,"items":[{"name":"더블유빠","tel":"031-646-8676","addr":"경기도 남양주시 호평동 644-5번지 1층","indutype":"일반휴게음식 - 주점","category":"restaurant"}]},{"lat":"37.661558744","long":"127.25008284","imageIndex":4,"items":[{"name":"더키친 위드 제이와이(The kitchen with JY","tel":"","addr":"경기도 남양주시 호평동 273-11번지 해오름파크빌 102동 102호","indutype":"일반휴게음식 - 일반한식","category":"restaurant"}]},{"lat":"37.654442186","long":"127.24522042","imageIndex":4,"items":[{"name":"덕장코다리","tel":"031-559-8253","addr":"경기도 남양주시 호평동 652-4번지 1층","indutype":"일반휴게음식 - 일반한식","category":"restaurant"}]},{"lat":"37.654026196","long":"127.2415588","imageIndex":4,"items":[{"name":"도농한우정육식당","tel":"031-511-5767","addr":"경기도 남양주시 호평동 632-4번지","indutype":"일반휴게음식 - 일반한식","category":"restaurant"}]},{"lat":"37.65386487","long":"127.241139","imageIndex":4,"items":[{"name":"돈까스클럽","tel":"031-592-6600","addr":"경기도 남양주시 호평동 632-15번지 ,1,2층","indutype":"일반휴게음식 - 일반한식","category":"restaurant"}]},{"lat":"37.655250484","long":"127.2464696","imageIndex":4,"items":[{"name":"돈쌈","tel":"031-559-1717","addr":"경기도 남양주시 호평동 648-2번지 1층","indutype":"일반휴게음식 - 일반한식","category":"restaurant"}]},{"lat":"37.65389011","long":"127.24202298","imageIndex":4,"items":[{"name":"동경참치","tel":"031-559-6898","addr":"경기도 남양주시 호평동 632-11번지 2층","indutype":"일반휴게음식 - 일식·회집","category":"restaurant"},{"name":"린(Rheyn)","tel":"031-591-9550","addr":"경기도 남양주시 호평동 632-11번지 1층","indutype":"일반휴게음식 - 중국식","category":"restaurant"}]},{"lat":"37.665500902","long":"127.24771581","imageIndex":4,"items":[{"name":"동원한방족발","tel":"031-593-0072","addr":"경기도 남양주시 호평동 408-2번지 다동","indutype":"일반휴게음식 - 일반한식","category":"restaurant"},{"name":"천마산 메밀가","tel":"031-559-7291","addr":"경기도 남양주시 호평동 408-2번지","indutype":"일반휴게음식 - 일반한식","category":"restaurant"}]},{"lat":"37.654665052","long":"127.24196881","imageIndex":4,"items":[{"name":"돼지마을","tel":"031-511-4072","addr":"경기도 남양주시 호평동 630-7번지","indutype":"일반휴게음식 - 일반한식","category":"restaurant"}]},{"lat":"37.655334533","long":"127.24503067","imageIndex":4,"items":[{"name":"둘둘치킨","tel":"031-591-2279","addr":"경기도 남양주시 호평동 644-9번지","indutype":"일반휴게음식 - 스넥","category":"restaurant"}]},{"lat":"37.655058396","long":"127.24786284","imageIndex":4,"items":[{"name":"듀드11","tel":"070-4152-4680","addr":"경기도 남양주시 호평동 650-9번지 1층","indutype":"일반휴게음식 - 서양음식","category":"restaurant"}]},{"lat":"37.65483566","long":"127.24225266","imageIndex":4,"items":[{"name":"등촌샤브칼국수","tel":"031-592-3355","addr":"경기도 남양주시 호평동 630-4번지 1층","indutype":"일반휴게음식 - 일반한식","category":"restaurant"}]},{"lat":"37.660113357","long":"127.24322157","imageIndex":4,"items":[{"name":"또또와","tel":"031-559-9281","addr":"경기도 남양주시 호평동 716-2번지 1층","indutype":"일반휴게음식 - 일반한식","category":"restaurant"}]},{"lat":"37.654808381","long":"127.24677412","imageIndex":4,"items":[{"name":"또봉이통닭","tel":"031-592-8285","addr":"경기도 남양주시 호평동 657-1번지","indutype":"일반휴게음식 - 스넥","category":"restaurant"}]},{"lat":"37.661587341","long":"127.24055168","imageIndex":4,"items":[{"name":"뚱볶이","tel":"031-567-7917","addr":"경기도 남양주시 호평동 726번지 엘에이치호평1단지 제상가동 101호","indutype":"일반휴게음식 - 스넥","category":"restaurant"},{"name":"피자에땅 평내호평점","tel":"031-559-3962","addr":"경기도 남양주시 호평동 726번지 상가동 102호","indutype":"일반휴게음식 - 서양음식","category":"restaurant"}]},{"lat":"37.655610602","long":"127.24219848","imageIndex":4,"items":[{"name":"띠아모호평점","tel":"031-559-0556","addr":"경기도 남양주시 호평동 629-2번지","indutype":"일반휴게음식 - 스넥","category":"restaurant"},{"name":"미력식당","tel":"031-594-1948","addr":"경기도 남양주시 호평동 629-2번지 101호","indutype":"일반휴게음식 - 일반한식","category":"restaurant"}]},{"lat":"37.658808904","long":"127.24666255","imageIndex":4,"items":[{"name":"라치오파스타","tel":"031-559-7870","addr":"경기도 남양주시 호평동 175-15번지 1층","indutype":"일반휴게음식 - 서양음식","category":"restaurant"},{"name":"시월애도토리","tel":"031-594-2333","addr":"경기도 남양주시 호평동 175-15번지 1층","indutype":"일반휴게음식 - 일반한식","category":"restaurant"},{"name":"칼국수별난만두","tel":"031-511-1515","addr":"경기도 남양주시 호평동 175-15번지 1층","indutype":"일반휴게음식 - 일반한식","category":"restaurant"}]},{"lat":"37.658328799","long":"127.23907937","imageIndex":4,"items":[{"name":"라쿠미","tel":"031-567-0066","addr":"경기도 남양주시 호평동 477-2번지 101호","indutype":"일반휴게음식 - 일식·회집","category":"restaurant"},{"name":"맛나감자탕","tel":"031-511-3830","addr":"경기도 남양주시 호평동 477-2번지 2층","indutype":"일반휴게음식 - 일반한식","category":"restaurant"},{"name":"명륜진사갈비 평내호평점","tel":"031-593-9290","addr":"경기도 남양주시 호평동 477-2번지 102호","indutype":"일반휴게음식 - 일반한식","category":"restaurant"}]},{"lat":"37.653857368","long":"127.24039106","imageIndex":4,"items":[{"name":"램더블유","tel":"031-594-7374","addr":"경기도 남양주시 호평동 633-8번지 101,102호","indutype":"일반휴게음식 - 일반한식","category":"restaurant"}]},{"lat":"37.655365028","long":"127.24771652","imageIndex":4,"items":[{"name":"럼보트","tel":"031-592-1228","addr":"경기도 남양주시 호평동 650-7번지","indutype":"일반휴게음식 - 주점","category":"restaurant"}]},{"lat":"37.655278314","long":"127.25041332","imageIndex":4,"items":[{"name":"로하스치킨","tel":"031-511-1088","addr":"경기도 남양주시 호평동 668번지 101,102호","indutype":"일반휴게음식 - 주점","category":"restaurant"}]},{"lat":"37.655886597","long":"127.2481942","imageIndex":4,"items":[{"name":"롤링","tel":"031-511-7716","addr":"경기도 남양주시 호평동 666-4번지 1층 101호","indutype":"일반휴게음식 - 서양음식","category":"restaurant"}]},{"lat":"37.655081193","long":"127.24555113","imageIndex":4,"items":[{"name":"루프탑646-3","tel":"","addr":"경기도 남양주시 호평동 646-3번지 4층","indutype":"일반휴게음식 - 주점","category":"restaurant"},{"name":"핸드메이드(HANDMADE)","tel":"031-000-0000","addr":"경기도 남양주시 호평동 646-3번지","indutype":"일반휴게음식 - 서양음식","category":"restaurant"}]},{"lat":"37.663447325","long":"127.24741439","imageIndex":4,"items":[{"name":"르 프레지에","tel":"070-4177-4246","addr":"경기도 남양주시 호평동 231-1번지 스마트스퀘어 1층 203-1호","indutype":"일반휴게음식 - 서양음식","category":"restaurant"},{"name":"셀렉토커피","tel":"031-511-6362","addr":"경기도 남양주시 호평동 231-1번지 1층","indutype":"일반휴게음식 - 서양음식","category":"restaurant"},{"name":"쉐프맥나인","tel":"070-7762-3003","addr":"경기도 남양주시 호평동 231-1번지 1층","indutype":"일반휴게음식 - 서양음식","category":"restaurant"},{"name":"지향스러움","tel":"031-595-0228","addr":"경기도 남양주시 호평동 231-1번지 스마트스퀘어 1층 201-1호","indutype":"일반휴게음식 - 스넥","category":"restaurant"}]},{"lat":"37.653912973","long":"127.24843701","imageIndex":4,"items":[{"name":"리틀나리타","tel":"031-528-6263","addr":"경기도 남양주시 호평동 660-3번지 무세빌딩 1층 103호","indutype":"일반휴게음식 - 일반한식","category":"restaurant"},{"name":"성전(호평점)","tel":"031-592-8333","addr":"경기도 남양주시 호평동 660-3번지 무세빌딩 1층","indutype":"일반휴게음식 - 일반한식","category":"restaurant"},{"name":"언니들부엌","tel":"031-593-0853","addr":"경기도 남양주시 호평동 660-3번지 무세빌딩 1층","indutype":"일반휴게음식 - 일반한식","category":"restaurant"}]},{"lat":"37.65502711","long":"127.24114271","imageIndex":4,"items":[{"name":"마시로포차","tel":"031-595-7066","addr":"경기도 남양주시 호평동 627-3번지 1층 103호","indutype":"일반휴게음식 - 일반한식","category":"restaurant"}]},{"lat":"37.654333162","long":"127.24566202","imageIndex":4,"items":[{"name":"마왕족발 (평내호평점)","tel":"031-593-3222","addr":"경기도 남양주시 호평동 654-5번지","indutype":"일반휴게음식 - 일반한식","category":"restaurant"},{"name":"참숯고기마을","tel":"031-594-4492","addr":"경기도 남양주시 호평동 654-5번지","indutype":"일반휴게음식 - 일반한식","category":"restaurant"}]},{"lat":"37.655059735","long":"127.2472169","imageIndex":4,"items":[{"name":"마음카페","tel":"070-8869-1030","addr":"경기도 남양주시 호평동 651-5번지","indutype":"일반휴게음식 - 일반한식","category":"restaurant"}]},{"lat":"37.654476802","long":"127.24591179","imageIndex":4,"items":[{"name":"마이사이공","tel":"031-591-2666","addr":"경기도 남양주시 호평동 655-9번지 1층","indutype":"일반휴게음식 - 일반한식","category":"restaurant"}]},{"lat":"37.655584073","long":"127.24635736","imageIndex":4,"items":[{"name":"마카롱팝_호평점","tel":"","addr":"경기도 남양주시 호평동 645-11번지 102,103호","indutype":"일반휴게음식 - 서양음식","category":"restaurant"}]},{"lat":"37.655690572","long":"127.24713964","imageIndex":4,"items":[{"name":"마켓에이(market a)","tel":"031-511-9998","addr":"경기도 남양주시 호평동 650-16번지","indutype":"일반휴게음식 - 일반한식","category":"restaurant"}]},{"lat":"37.670529846","long":"127.25128006","imageIndex":4,"items":[{"name":"만나 닭갈비","tel":"031-595-5788","addr":"경기도 남양주시 호평동 344-2번지 1층","indutype":"일반휴게음식 - 일반한식","category":"restaurant"}]},{"lat":"37.656004004","long":"127.24805859","imageIndex":4,"items":[{"name":"맘소반","tel":"031-595-2771","addr":"경기도 남양주시 호평동 666-2번지 1층 103호","indutype":"일반휴게음식 - 일반한식","category":"restaurant"},{"name":"슈아당 (Shuadang)","tel":"031-595-5805","addr":"경기도 남양주시 호평동 666-2번지 상가 1층 101호","indutype":"일반휴게음식 - 서양음식","category":"restaurant"}]},{"lat":"37.65960875","long":"127.24325395","imageIndex":4,"items":[{"name":"맛강정치킨","tel":"031-511-3332","addr":"경기도 남양주시 호평동 716-6번지 1층 101호","indutype":"일반휴게음식 - 주점","category":"restaurant"}]},{"lat":"37.653861855","long":"127.24702033","imageIndex":4,"items":[{"name":"망향비빔국수 호평점","tel":"031-591-4360","addr":"경기도 남양주시 호평동 658-3번지 1층","indutype":"일반휴게음식 - 일반한식","category":"restaurant"}]},{"lat":"37.655474224","long":"127.2471956","imageIndex":4,"items":[{"name":"먹자골","tel":"031-592-8711","addr":"경기도 남양주시 호평동 651-1번지 1층","indutype":"일반휴게음식 - 일반한식","category":"restaurant"}]},{"lat":"37.65383768","long":"127.24563774","imageIndex":4,"items":[{"name":"멸치국수","tel":"031-559-3324","addr":"경기도 남양주시 호평동 653-13번지","indutype":"일반휴게음식 - 스넥","category":"restaurant"}]},{"lat":"37.65386585","long":"127.24508256","imageIndex":4,"items":[{"name":"명랑핫도그(평내호평역점)","tel":"02-000-0000","addr":"경기도 남양주시 호평동 652-9번지 1층 101호","indutype":"일반휴게음식 - 서양음식","category":"restaurant"},{"name":"봉구스밥버거 평내호평역점","tel":"031-595-5209","addr":"경기도 남양주시 호평동 652-9번지 1층","indutype":"일반휴게음식 - 스넥","category":"restaurant"}]},{"lat":"37.65577987","long":"127.24752524","imageIndex":4,"items":[{"name":"명품한우정육점식당","tel":"031-595-6665","addr":"경기도 남양주시 호평동 650-4번지","indutype":"일반휴게음식 - 일반한식","category":"restaurant"}]},{"lat":"37.655385706","long":"127.24202778","imageIndex":4,"items":[{"name":"몽룡골남원추어탕","tel":"031-593-9763","addr":"경기도 남양주시 호평동 629-11번지","indutype":"일반휴게음식 - 일반한식","category":"restaurant"}]},{"lat":"37.654277914","long":"127.24183158","imageIndex":4,"items":[{"name":"몽차이","tel":"031-591-3999","addr":"경기도 남양주시 호평동 631-13번지 1층 101호","indutype":"일반휴게음식 - 중국식","category":"restaurant"}]},{"lat":"37.655694196","long":"127.24538314","imageIndex":4,"items":[{"name":"무봉리토종순대국호평점","tel":"031-592-8188","addr":"경기도 남양주시 호평동 645-1번지","indutype":"일반휴게음식 - 일반한식","category":"restaurant"}]},{"lat":"37.654332298","long":"127.2460813","imageIndex":4,"items":[{"name":"미드육오오","tel":"031-511-6559","addr":"경기도 남양주시 호평동 655-5번지 1층","indutype":"일반휴게음식 - 서양음식","category":"restaurant"}]},{"lat":"37.656474526","long":"127.24708555","imageIndex":4,"items":[{"name":"미미의식탁","tel":"031-559-0990","addr":"경기도 남양주시 호평동 188-6번지 경은빌딩 1층","indutype":"일반휴게음식 - 일반한식","category":"restaurant"},{"name":"임실치즈스낵(호평점)","tel":"031-559-0328","addr":"경기도 남양주시 호평동 188-6번지 경은빌딩 104호","indutype":"일반휴게음식 - 일반한식","category":"restaurant"}]},{"lat":"37.670336127","long":"127.24913718","imageIndex":4,"items":[{"name":"미술로 키우다 카페","tel":"","addr":"경기도 남양주시 호평동 724번지 호평파라곤 202동 지하1층 1호 일부호","indutype":"일반휴게음식 - 서양음식","category":"restaurant"},{"name":"야미야미","tel":"070-502-2484","addr":"경기도 남양주시 호평동 724번지 호평파라곤 202동 제지1층 3호","indutype":"일반휴게음식 - 일식·회집","category":"restaurant"},{"name":"자매반찬&뷔페","tel":"031-591-0181","addr":"경기도 남양주시 호평동 724번지 202동 지1층 2호","indutype":"일반휴게음식 - 일반한식","category":"restaurant"}]},{"lat":"37.657551827","long":"127.24458457","imageIndex":4,"items":[{"name":"미스사이공호평점","tel":"031-592-0420","addr":"경기도 남양주시 호평동 728번지 평내호평역KCC스위첸 상가동 104호","indutype":"일반휴게음식 - 일반한식","category":"restaurant"},{"name":"조샌드위치","tel":"070-8866-7461","addr":"경기도 남양주시 호평동 728번지 KCC스위첸 상가동 107호 일부","indutype":"일반휴게음식 - 스넥","category":"restaurant"}]},{"lat":"37.654748862","long":"127.24505143","imageIndex":4,"items":[{"name":"미스터 오징어","tel":"031-591-8566","addr":"경기도 남양주시 호평동 652-1번지 1층","indutype":"일반휴게음식 - 일반한식","category":"restaurant"},{"name":"청춘골뱅이","tel":"031-592-5130","addr":"경기도 남양주시 호평동 652-1번지 금오 104호","indutype":"일반휴게음식 - 일반한식","category":"restaurant"}]},{"lat":"37.654747194","long":"127.24144779","imageIndex":4,"items":[{"name":"미시령","tel":"031-593-3376","addr":"경기도 남양주시 호평동 628-6번지 1층","indutype":"일반휴게음식 - 일반한식","category":"restaurant"},{"name":"풍양설렁탕","tel":"031-595-0048","addr":"경기도 남양주시 호평동 628-6번지","indutype":"일반휴게음식 - 일반한식","category":"restaurant"}]},{"lat":"37.653971399","long":"127.24632943","imageIndex":4,"items":[{"name":"미쓰리부대찌개","tel":"031-511-7070","addr":"경기도 남양주시 호평동 653-6번지","indutype":"일반휴게음식 - 일반한식","category":"restaurant"}]},{"lat":"37.654612856","long":"127.24547028","imageIndex":4,"items":[{"name":"미태리 호평점","tel":"031-511-8618","addr":"경기도 남양주시 호평동 654-10번지 102호","indutype":"일반휴게음식 - 서양음식","category":"restaurant"},{"name":"족발의꿈","tel":"","addr":"경기도 남양주시 호평동 654-10번지","indutype":"일반휴게음식 - 일반한식","category":"restaurant"}]},{"lat":"37.655529207","long":"127.25949134","imageIndex":4,"items":[{"name":"미향기","tel":"031-595-8400","addr":"경기도 남양주시 호평동 14번지 메디피아클리닉 102호","indutype":"일반휴게음식 - 일반한식","category":"restaurant"}]},{"lat":"37.669863017","long":"127.25133451","imageIndex":4,"items":[{"name":"바다정원","tel":"031-593-3478","addr":"경기도 남양주시 호평동 349번지 1층","indutype":"일반휴게음식 - 일반한식","category":"restaurant"}]},{"lat":"37.656277985","long":"127.25485895","imageIndex":4,"items":[{"name":"바푸리숯불김밥호평점","tel":"031-559-7747","addr":"경기도 남양주시 호평동 674-1번지 호평아카데미 101호","indutype":"일반휴게음식 - 스넥","category":"restaurant"}]},{"lat":"37.654440431","long":"127.24166212","imageIndex":4,"items":[{"name":"박가3000원손칼국수","tel":"031-591-6669","addr":"경기도 남양주시 호평동 631-5번지 1층","indutype":"일반휴게음식 - 일반한식","category":"restaurant"}]},{"lat":"37.655358599","long":"127.24646995","imageIndex":4,"items":[{"name":"박군스쭈꾸미","tel":"031-592-9233","addr":"경기도 남양주시 호평동 648-1번지 지형빌딩","indutype":"일반휴게음식 - 일반한식","category":"restaurant"},{"name":"신국민닭발","tel":"031-564-1020","addr":"경기도 남양주시 호평동 648-1번지 지형빌딩 101호","indutype":"일반휴게음식 - 일반한식","category":"restaurant"},{"name":"파이샵","tel":"031-592-1121","addr":"경기도 남양주시 호평동 648-1번지 지형빌딩 101호","indutype":"일반휴게음식 - 일반한식","category":"restaurant"}]},{"lat":"37.654052949","long":"127.24169487","imageIndex":4,"items":[{"name":"버블","tel":"031-528-6263","addr":"경기도 남양주시 호평동 632-5번지 1층","indutype":"일반휴게음식 - 서양음식","category":"restaurant"}]},{"lat":"37.657773993","long":"127.2460812","imageIndex":4,"items":[{"name":"베이커리 몽(mont)","tel":"031-0000-0000","addr":"경기도 남양주시 호평동 173-1번지 1층 및 4층 일부","indutype":"일반휴게음식 - 서양음식","category":"restaurant"}]},{"lat":"37.653889651","long":"127.24224962","imageIndex":4,"items":[{"name":"베트남쌀국수 포비엔","tel":"031-559-9256","addr":"경기도 남양주시 호평동 632-10번지","indutype":"일반휴게음식 - 서양음식","category":"restaurant"},{"name":"태평양","tel":"032-591-7774","addr":"경기도 남양주시 호평동 632-10번지 1층 102호","indutype":"일반휴게음식 - 일반한식","category":"restaurant"}]},{"lat":"37.654414571","long":"127.24108409","imageIndex":4,"items":[{"name":"보딩타임","tel":"070-7788-3356","addr":"경기도 남양주시 호평동 631-1번지 1층","indutype":"일반휴게음식 - 서양음식","category":"restaurant"}]},{"lat":"37.654000994","long":"127.245083","imageIndex":4,"items":[{"name":"본가뼈다귀감자탕","tel":"031-592-0064","addr":"경기도 남양주시 호평동 652-10번지 1층","indutype":"일반휴게음식 - 일반한식","category":"restaurant"},{"name":"차이나타운","tel":"031-592-0064","addr":"경기도 남양주시 호평동 652-10번지","indutype":"일반휴게음식 - 중국식","category":"restaurant"}]},{"lat":"37.660249907","long":"127.2425307","imageIndex":4,"items":[{"name":"봉주르","tel":"031-511-3144","addr":"경기도 남양주시 호평동 714-1번지 1층","indutype":"일반휴게음식 - 서양음식","category":"restaurant"}]},{"lat":"37.667194823","long":"127.2476647","imageIndex":4,"items":[{"name":"봉쥬르","tel":"031-575-7911","addr":"경기도 남양주시 호평동 373-1번지 명화프라자 1,2층","indutype":"일반휴게음식 - 일반한식","category":"restaurant"}]},{"lat":"37.669862205","long":"127.25171988","imageIndex":4,"items":[{"name":"봉카페","tel":"070-7796-1911","addr":"경기도 남양주시 호평동 352번지","indutype":"일반휴게음식 - 서양음식","category":"restaurant"},{"name":"오늘자연","tel":"031-591-6161","addr":"경기도 남양주시 호평동 352번지","indutype":"일반휴게음식 - 일반한식","category":"restaurant"}]},{"lat":"37.654030028","long":"127.24847139","imageIndex":4,"items":[{"name":"부어치킨","tel":"031-591-7706","addr":"경기도 남양주시 호평동 660-2번지 CH리베로3 101호","indutype":"일반휴게음식 - 스넥","category":"restaurant"},{"name":"분식나라","tel":"031-1111-1111","addr":"경기도 남양주시 호평동 660-2번지 CH리베로3 1층 104호","indutype":"일반휴게음식 - 스넥","category":"restaurant"}]},{"lat":"37.670358783","long":"127.25122281","imageIndex":4,"items":[{"name":"브라우니70호평점","tel":"031-593-5934","addr":"경기도 남양주시 호평동 344-1번지 1층","indutype":"일반휴게음식 - 일반한식","category":"restaurant"}]},{"lat":"37.659751168","long":"127.24410438","imageIndex":4,"items":[{"name":"비무장지대특수부","tel":"070-7743-5557","addr":"경기도 남양주시 호평동 615-15번지","indutype":"일반휴게음식 - 주점","category":"restaurant"}]},{"lat":"37.667997194","long":"127.24741798","imageIndex":4,"items":[{"name":"비스트로힐","tel":"","addr":"경기도 남양주시 호평동 371-4번지 태우 상가 1층 일부","indutype":"일반휴게음식 - 서양음식","category":"restaurant"}]},{"lat":"37.655171058","long":"127.24124516","imageIndex":4,"items":[{"name":"빠체(PACE)","tel":"031-511-1150","addr":"경기도 남양주시 호평동 627-2번지","indutype":"일반휴게음식 - 서양음식","category":"restaurant"}]},{"lat":"37.659861042","long":"127.24324343","imageIndex":4,"items":[{"name":"뽀카페","tel":"031-511-3402","addr":"경기도 남양주시 호평동 716-4번지 1층","indutype":"일반휴게음식 - 서양음식","category":"restaurant"}]},{"lat":"37.655583792","long":"127.24649335","imageIndex":4,"items":[{"name":"뽈이랑아구랑(호평점)","tel":"031-591-3221","addr":"경기도 남양주시 호평동 645-10번지","indutype":"일반휴게음식 - 일반한식","category":"restaurant"}]},{"lat":"37.654468702","long":"127.24546981","imageIndex":4,"items":[{"name":"뽕짜","tel":"031-591-6184","addr":"경기도 남양주시 호평동 654-9번지 1층","indutype":"일반휴게음식 - 중국식","category":"restaurant"}]},{"lat":"37.659887992","long":"127.24766338","imageIndex":4,"items":[{"name":"뽕차이","tel":"031-591-0807","addr":"경기도 남양주시 호평동 617-2번지 메이플카운티","indutype":"일반휴게음식 - 중국식","category":"restaurant"}]},{"lat":"37.666969865","long":"127.24752795","imageIndex":4,"items":[{"name":"삐사감러브스테이크호평점","tel":"031-511-7771","addr":"경기도 남양주시 호평동 373-2번지 1층 105호","indutype":"일반휴게음식 - 서양음식","category":"restaurant"},{"name":"웅's","tel":"031-511-1278","addr":"경기도 남양주시 호평동 373-2번지 1층 108호","indutype":"일반휴게음식 - 스넥","category":"restaurant"},{"name":"피쉬앤칙스","tel":"","addr":"경기도 남양주시 호평동 373-2번지 건우빌딩 1층 104호","indutype":"일반휴게음식 - 일반한식","category":"restaurant"}]},{"lat":"37.655529196","long":"127.24675381","imageIndex":4,"items":[{"name":"사가연한식뷔페","tel":"031-527-6370","addr":"경기도 남양주시 호평동 649-13번지 1층 전체","indutype":"일반휴게음식 - 일반한식","category":"restaurant"}]},{"lat":"37.654637128","long":"127.24680756","imageIndex":4,"items":[{"name":"사케집","tel":"031-593-5619","addr":"경기도 남양주시 호평동 657-10번지","indutype":"일반휴게음식 - 주점","category":"restaurant"},{"name":"훔친뒷통구이","tel":"","addr":"경기도 남양주시 호평동 657-10번지 1층","indutype":"일반휴게음식 - 일반한식","category":"restaurant"}]},{"lat":"37.665110347","long":"127.24043824","imageIndex":4,"items":[{"name":"산야초백숙","tel":"070-8616-2223","addr":"경기도 남양주시 호평동 420-1번지 1층","indutype":"일반휴게음식 - 일반한식","category":"restaurant"}]},{"lat":"37.663553699","long":"127.24825342","imageIndex":4,"items":[{"name":"삼진식당","tel":"031-591-0403","addr":"경기도 남양주시 호평동 405-9번지","indutype":"일반휴게음식 - 일반한식","category":"restaurant"}]},{"lat":"37.661722032","long":"127.24955072","imageIndex":4,"items":[{"name":"상도늘보리(남양주호평점)","tel":"031-593-7440","addr":"경기도 남양주시 호평동 273-1번지 1층","indutype":"일반휴게음식 - 일반한식","category":"restaurant"}]},{"lat":"37.662444089","long":"127.24457776","imageIndex":4,"items":[{"name":"상상이상","tel":"031-591-6280","addr":"경기도 남양주시 호평동 244번지 미라클센터 105호","indutype":"일반휴게음식 - 일반한식","category":"restaurant"},{"name":"천마산왕족발","tel":"031-592-7117","addr":"경기도 남양주시 호평동 244번지 미라클센터 103호","indutype":"일반휴게음식 - 일반한식","category":"restaurant"}]},{"lat":"37.65527688","long":"127.24677565","imageIndex":4,"items":[{"name":"새마을식당 평내호평역점","tel":"031-511-5390","addr":"경기도 남양주시 호평동 649-11번지 건양빌딩 1층","indutype":"일반휴게음식 - 일반한식","category":"restaurant"}]},{"lat":"37.654196242","long":"127.24652281","imageIndex":4,"items":[{"name":"새벽숯불가든","tel":"031-595-9589","addr":"경기도 남양주시 호평동 656-6번지","indutype":"일반휴게음식 - 일반한식","category":"restaurant"}]},{"lat":"37.663058242","long":"127.24821779","imageIndex":4,"items":[{"name":"설빙 평내호평점","tel":"031-559-0065","addr":"경기도 남양주시 호평동 405-15번지 2층","indutype":"일반휴게음식 - 서양음식","category":"restaurant"},{"name":"아트카페","tel":"031-595-4322","addr":"경기도 남양주시 호평동 405-15번지 3층","indutype":"일반휴게음식 - 서양음식","category":"restaurant"}]},{"lat":"37.654639766","long":"127.24110748","imageIndex":4,"items":[{"name":"셀레스트","tel":"","addr":"경기도 남양주시 호평동 628-8번지 1층 102호","indutype":"일반휴게음식 - 서양음식","category":"restaurant"},{"name":"플러스마이너스 25","tel":"031-549-0413","addr":"경기도 남양주시 호평동 628-8번지 102호","indutype":"일반휴게음식 - 서양음식","category":"restaurant"}]},{"lat":"37.655385316","long":"127.24222043","imageIndex":4,"items":[{"name":"셰프의국수전","tel":"031-594-1113","addr":"경기도 남양주시 호평동 629-4번지","indutype":"일반휴게음식 - 일반한식","category":"restaurant"}]},{"lat":"37.657278908","long":"127.24586426","imageIndex":4,"items":[{"name":"소소한풍경","tel":"031-595-0144","addr":"경기도 남양주시 호평동 171-2번지 1층 101호","indutype":"일반휴게음식 - 서양음식","category":"restaurant"}]},{"lat":"37.654892264","long":"127.24099496","imageIndex":4,"items":[{"name":"수제칼집생고기","tel":"031-592-0568","addr":"경기도 남양주시 호평동 627-4번지","indutype":"일반휴게음식 - 일반한식","category":"restaurant"}]},{"lat":"37.654835959","long":"127.24210534","imageIndex":4,"items":[{"name":"순이네곱창","tel":"031-511-9287","addr":"경기도 남양주시 호평동 630-3번지","indutype":"일반휴게음식 - 일반한식","category":"restaurant"}]},{"lat":"37.653862886","long":"127.24652172","imageIndex":4,"items":[{"name":"순이청국장","tel":"031-511-4843","addr":"경기도 남양주시 호평동 653-8번지 1층 103호","indutype":"일반휴게음식 - 일반한식","category":"restaurant"}]},{"lat":"37.660166937","long":"127.24783429","imageIndex":4,"items":[{"name":"술마실","tel":"031-556-1267","addr":"경기도 남양주시 호평동 617-1번지 금강프라자 117호","indutype":"일반휴게음식 - 일반한식","category":"restaurant"},{"name":"천마산고깃집","tel":"031-593-3392","addr":"경기도 남양주시 호평동 617-1번지 금강프라자 2층 202,203,204호","indutype":"일반휴게음식 - 일반한식","category":"restaurant"},{"name":"콩 슬라임","tel":"","addr":"경기도 남양주시 호평동 617-1번지 금강프라자 306호","indutype":"일반휴게음식 - 서양음식","category":"restaurant"},{"name":"토스피아","tel":"031-511-8595","addr":"경기도 남양주시 호평동 617-1번지 금강프라자 115호","indutype":"일반휴게음식 - 서양음식","category":"restaurant"},{"name":"행복한떡볶이","tel":"031-559-3815","addr":"경기도 남양주시 호평동 617-1번지 금강프라자 116호","indutype":"일반휴게음식 - 스넥","category":"restaurant"}]},{"lat":"37.654278189","long":"127.24169559","imageIndex":4,"items":[{"name":"숯불왕꼼장어","tel":"031-594-7898","addr":"경기도 남양주시 호평동 631-14번지","indutype":"일반휴게음식 - 일반한식","category":"restaurant"},{"name":"철판요리한스브로","tel":"031-591-0275","addr":"경기도 남양주시 호평동 631-14번지","indutype":"일반휴게음식 - 일반한식","category":"restaurant"}]},{"lat":"37.654611082","long":"127.24633152","imageIndex":4,"items":[{"name":"스시마린","tel":"","addr":"경기도 남양주시 호평동 656-10번지 1층","indutype":"일반휴게음식 - 일식·회집","category":"restaurant"}]},{"lat":"37.656053951","long":"127.24569029","imageIndex":4,"items":[{"name":"스시사에","tel":"031-592-9021","addr":"경기도 남양주시 호평동 168-9번지 101호","indutype":"일반휴게음식 - 일식·회집","category":"restaurant"},{"name":"에이치바","tel":"031-591-3334","addr":"경기도 남양주시 호평동 168-9번지 2층","indutype":"일반휴게음식 - 일반한식","category":"restaurant"}]},{"lat":"37.655664364","long":"127.24674292","imageIndex":4,"items":[{"name":"신간짬뽕","tel":"031-594-3331","addr":"경기도 남양주시 호평동 649-14번지 1층","indutype":"일반휴게음식 - 중국식","category":"restaurant"}]},{"lat":"37.65503172","long":"127.24769276","imageIndex":4,"items":[{"name":"신경호함흥냉면","tel":"031-511-9298","addr":"경기도 남양주시 호평동 650-10번지","indutype":"일반휴게음식 - 일반한식","category":"restaurant"}]},{"lat":"37.654000645","long":"127.24525298","imageIndex":4,"items":[{"name":"신마루","tel":"031-551-3046","addr":"경기도 남양주시 호평동 652-7번지 1층","indutype":"일반휴게음식 - 일반한식","category":"restaurant"}]},{"lat":"37.657168383","long":"127.24703116","imageIndex":4,"items":[{"name":"신명식당","tel":"031-591-2009","addr":"경기도 남양주시 호평동 185-2번지","indutype":"일반휴게음식 - 일반한식","category":"restaurant"}]},{"lat":"37.655746246","long":"127.24635789","imageIndex":4,"items":[{"name":"신별빛바다","tel":"031-595-7095","addr":"경기도 남양주시 호평동 645-8번지 1층","indutype":"일반휴게음식 - 일식·회집","category":"restaurant"}]},{"lat":"37.655746012","long":"127.24647122","imageIndex":4,"items":[{"name":"신전떡볶이","tel":"031-591-4566","addr":"경기도 남양주시 호평동 645-9번지 1층 102호","indutype":"일반휴게음식 - 스넥","category":"restaurant"},{"name":"싱야 우동집","tel":"","addr":"경기도 남양주시 호평동 645-9번지 1층","indutype":"일반휴게음식 - 일반한식","category":"restaurant"}]},{"lat":"37.655557325","long":"127.24622129","imageIndex":4,"items":[{"name":"신즈르돈가스","tel":"031-511-3424","addr":"경기도 남양주시 호평동 645-12번지","indutype":"일반휴게음식 - 일반한식","category":"restaurant"}]},{"lat":"37.656531855","long":"127.25830488","imageIndex":4,"items":[{"name":"심마니네약초백숙","tel":"031-592-9703","addr":"경기도 남양주시 호평동 10-7번지","indutype":"일반휴게음식 - 일반한식","category":"restaurant"}]},{"lat":"37.663419026","long":"127.24802631","imageIndex":4,"items":[{"name":"쌍둥이포차","tel":"031-591-5634","addr":"경기도 남양주시 호평동 409-5번지","indutype":"일반휴게음식 - 주점","category":"restaurant"}]},{"lat":"37.65549638","long":"127.24518985","imageIndex":4,"items":[{"name":"아구명가","tel":"031-595-7494","addr":"경기도 남양주시 호평동 644-3번지 1층","indutype":"일반휴게음식 - 일반한식","category":"restaurant"}]},{"lat":"37.654665397","long":"127.24179882","imageIndex":4,"items":[{"name":"아놀드닭갈비","tel":"031-511-1774","addr":"경기도 남양주시 호평동 630-8번지 1층","indutype":"일반휴게음식 - 일반한식","category":"restaurant"}]},{"lat":"37.656781274","long":"127.24688257","imageIndex":4,"items":[{"name":"아라롱카페","tel":"","addr":"경기도 남양주시 호평동 188-5번지 1층","indutype":"일반휴게음식 - 서양음식","category":"restaurant"}]},{"lat":"37.655306316","long":"127.24560853","imageIndex":4,"items":[{"name":"아리노마마","tel":"031-592-2321","addr":"경기도 남양주시 호평동 646-2번지 1층","indutype":"일반휴게음식 - 일식·회집","category":"restaurant"}]},{"lat":"37.654440707","long":"127.24152613","imageIndex":4,"items":[{"name":"아이러브 피자앤치킨","tel":"031-591-9983","addr":"경기도 남양주시 호평동 631-4번지 1층 일부","indutype":"일반휴게음식 - 스넥","category":"restaurant"}]},{"lat":"37.655024931","long":"127.24221927","imageIndex":4,"items":[{"name":"알앤드비즉석떡볶이","tel":"031-593-8946","addr":"경기도 남양주시 호평동 629-7번지","indutype":"일반휴게음식 - 일반한식","category":"restaurant"}]},{"lat":"37.670746147","long":"127.25124677","imageIndex":4,"items":[{"name":"애틱라운지","tel":"031-591-8878","addr":"경기도 남양주시 호평동 343-10번지","indutype":"일반휴게음식 - 서양음식","category":"restaurant"}]},{"lat":"37.656196493","long":"127.24647269","imageIndex":4,"items":[{"name":"양촌리화로구이","tel":"031-591-3292","addr":"경기도 남양주시 호평동 166번지","indutype":"일반휴게음식 - 일반한식","category":"restaurant"}]},{"lat":"37.653836933","long":"127.24600036","imageIndex":4,"items":[{"name":"어촌생선구이","tel":"031-511-5115","addr":"경기도 남양주시 호평동 653-11번지","indutype":"일반휴게음식 - 일반한식","category":"restaurant"}]},{"lat":"37.654278809","long":"127.24138963","imageIndex":4,"items":[{"name":"에스바(S-BAR)","tel":"","addr":"경기도 남양주시 호평동 631-16번지 1층","indutype":"일반휴게음식 - 주점","category":"restaurant"}]},{"lat":"37.654388548","long":"127.2405854","imageIndex":4,"items":[{"name":"엘가","tel":"070-7796-0566","addr":"경기도 남양주시 호평동 626-1번지 모던빌","indutype":"일반휴게음식 - 일반한식","category":"restaurant"}]},{"lat":"37.662224694","long":"127.25044772","imageIndex":4,"items":[{"name":"엠커피(M-coffee)","tel":"031-576-2222","addr":"경기도 남양주시 호평동 298-37번지 M-COFFEE","indutype":"일반휴게음식 - 서양음식","category":"restaurant"}]},{"lat":"37.653864435","long":"127.24135431","imageIndex":4,"items":[{"name":"연안식당 남양주호평/주식회사 모어댄푸드(","tel":"031-594-6506","addr":"경기도 남양주시 호평동 632-14번지","indutype":"일반휴게음식 - 일반한식","category":"restaurant"}]},{"lat":"37.654332648","long":"127.24591132","imageIndex":4,"items":[{"name":"예띠앙호프","tel":"031-511-7870","addr":"경기도 남양주시 호평동 655-8번지 1층","indutype":"일반휴게음식 - 주점","category":"restaurant"}]},{"lat":"37.663832949","long":"127.24827701","imageIndex":4,"items":[{"name":"옛날가마솥곰탕","tel":"031-594-9111","addr":"경기도 남양주시 호평동 405-8번지","indutype":"일반휴게음식 - 일반한식","category":"restaurant"}]},{"lat":"37.660114717","long":"127.24255293","imageIndex":4,"items":[{"name":"오띠모","tel":"031-511-0220","addr":"경기도 남양주시 호평동 714-2번지 1호","indutype":"일반휴게음식 - 서양음식","category":"restaurant"}]},{"lat":"37.65766541","long":"127.2463075","imageIndex":4,"items":[{"name":"오렌지모터스 앤 카페","tel":"031-594-9228","addr":"경기도 남양주시 호평동 181-14번지","indutype":"일반휴게음식 - 서양음식","category":"restaurant"}]},{"lat":"37.664779828","long":"127.24786078","imageIndex":4,"items":[{"name":"오리촌","tel":"031-594-5284","addr":"경기도 남양주시 호평동 408-6번지","indutype":"일반휴게음식 - 일반한식","category":"restaurant"}]},{"lat":"37.659579522","long":"127.24433048","imageIndex":4,"items":[{"name":"올리브트리(Olive Tree)","tel":"02-1111-1111","addr":"경기도 남양주시 호평동 615-7번지 지층 103호","indutype":"일반휴게음식 - 서양음식","category":"restaurant"}]},{"lat":"37.65400191","long":"127.24019887","imageIndex":4,"items":[{"name":"왕쉐프","tel":"031-511-0457","addr":"경기도 남양주시 호평동 633-1번지 1층","indutype":"일반휴게음식 - 일반한식","category":"restaurant"}]},{"lat":"37.655635599","long":"127.24758142","imageIndex":4,"items":[{"name":"용두동 쭈꾸미","tel":"031-595-3774","addr":"경기도 남양주시 호평동 650-5번지 상가 101호","indutype":"일반휴게음식 - 일반한식","category":"restaurant"}]},{"lat":"37.653946144","long":"127.24546811","imageIndex":4,"items":[{"name":"용범이네 인계동 껍데기 평내호평점","tel":"","addr":"경기도 남양주시 호평동 653-1번지","indutype":"일반휴게음식 - 일반한식","category":"restaurant"}]},{"lat":"37.655751406","long":"127.24821642","imageIndex":4,"items":[{"name":"우기야","tel":"","addr":"경기도 남양주시 호평동 666-5번지 1층 일부","indutype":"일반휴게음식 - 일식·회집","category":"restaurant"}]},{"lat":"37.6595266","long":"127.243775","imageIndex":4,"items":[{"name":"울엄마닭발","tel":"031-559-3815","addr":"경기도 남양주시 호평동 615-10번지","indutype":"일반휴게음식 - 일반한식","category":"restaurant"},{"name":"카페데미타쎄","tel":"031-591-5532","addr":"경기도 남양주시 호평동 615-10번지","indutype":"일반휴게음식 - 서양음식","category":"restaurant"}]},{"lat":"37.655142298","long":"127.24650324","imageIndex":4,"items":[{"name":"원시쪽갈비","tel":"031-593-8778","addr":"경기도 남양주시 호평동 648-3번지","indutype":"일반휴게음식 - 일반한식","category":"restaurant"}]},{"lat":"37.654808029","long":"127.2469441","imageIndex":4,"items":[{"name":"월광","tel":"031-591-2486","addr":"경기도 남양주시 호평동 657-2번지 1층 103호","indutype":"일반휴게음식 - 주점","category":"restaurant"}]},{"lat":"37.654051778","long":"127.24227281","imageIndex":4,"items":[{"name":"유메","tel":"031-511-3423","addr":"경기도 남양주시 호평동 632-9번지 1층","indutype":"일반휴게음식 - 일식·회집","category":"restaurant"},{"name":"호프앤세븐식스튜나","tel":"","addr":"경기도 남양주시 호평동 632-9번지 1층","indutype":"일반휴게음식 - 주점","category":"restaurant"}]},{"lat":"37.655502441","long":"127.2422208","imageIndex":4,"items":[{"name":"유천냉면","tel":"031-591-2140","addr":"경기도 남양주시 호평동 629-3번지","indutype":"일반휴게음식 - 일반한식","category":"restaurant"}]},{"lat":"37.655558749","long":"127.24553002","imageIndex":4,"items":[{"name":"육공판 호평점","tel":"031-559-6092","addr":"경기도 남양주시 호평동 645-17번지","indutype":"일반휴게음식 - 일반한식","category":"restaurant"}]},{"lat":"37.655667888","long":"127.24503175","imageIndex":4,"items":[{"name":"육쌈냉면","tel":"031-559-6392","addr":"경기도 남양주시 호평동 644-1번지 103호","indutype":"일반휴게음식 - 스넥","category":"restaurant"},{"name":"호평한사라","tel":"031-594-8289","addr":"경기도 남양주시 호평동 644-1번지 201호","indutype":"일반휴게음식 - 일반한식","category":"restaurant"}]},{"lat":"37.654170475","long":"127.2459108","imageIndex":4,"items":[{"name":"육화몽남양주호평점","tel":"031-591-6450","addr":"경기도 남양주시 호평동 655-7번지 1층","indutype":"일반휴게음식 - 일반한식","category":"restaurant"}]},{"lat":"37.664611462","long":"127.24650018","imageIndex":4,"items":[{"name":"이디야","tel":"031-591-4105","addr":"경기도 남양주시 호평동 410-6번지 호평1차 대명루첸단지 내 상가동 113~114호","indutype":"일반휴게음식 - 서양음식","category":"restaurant"},{"name":"쭈노치킨가게 호평점","tel":"031-511-9982","addr":"경기도 남양주시 호평동 410-6번지 지하105~106호","indutype":"일반휴게음식 - 일반한식","category":"restaurant"}]},{"lat":"37.659420632","long":"127.24272069","imageIndex":4,"items":[{"name":"이모네식당","tel":"031-559-3401","addr":"경기도 남양주시 호평동 716-11번지 102호","indutype":"일반휴게음식 - 스넥","category":"restaurant"},{"name":"이태리면나포리식당","tel":"031-511-8849","addr":"경기도 남양주시 호평동 716-11번지","indutype":"일반휴게음식 - 서양음식","category":"restaurant"}]},{"lat":"37.654612506","long":"127.24564026","imageIndex":4,"items":[{"name":"이예수의 명태조림본가","tel":"031-511-4817","addr":"경기도 남양주시 호평동 654-3번지 1층","indutype":"일반휴게음식 - 일반한식","category":"restaurant"}]},{"lat":"37.655001177","long":"127.24502959","imageIndex":4,"items":[{"name":"이차돌 호평점","tel":"031-595-8659","addr":"경기도 남양주시 호평동 644-7번지 1층","indutype":"일반휴게음식 - 일반한식","category":"restaurant"}]},{"lat":"37.654611596","long":"127.24608222","imageIndex":4,"items":[{"name":"인생술집","tel":"03-111-1111","addr":"경기도 남양주시 호평동 655-3번지 1층","indutype":"일반휴게음식 - 주점","category":"restaurant"}]},{"lat":"37.655421034","long":"127.24677613","imageIndex":4,"items":[{"name":"일미육","tel":"031-595-5090","addr":"경기도 남양주시 호평동 649-12번지","indutype":"일반휴게음식 - 일반한식","category":"restaurant"}]},{"lat":"37.65383733","long":"127.24580772","imageIndex":4,"items":[{"name":"임실치즈피자","tel":"031-591-9678","addr":"경기도 남양주시 호평동 653-12번지","indutype":"일반휴게음식 - 서양음식","category":"restaurant"}]},{"lat":"37.655532023","long":"127.24538261","imageIndex":4,"items":[{"name":"잉커피(Ing Coffee)","tel":"","addr":"경기도 남양주시 호평동 645-18번지 1층 101호(왼쪽일부)","indutype":"일반휴게음식 - 서양음식","category":"restaurant"},{"name":"타일오션","tel":"070-4610-2742","addr":"경기도 남양주시 호평동 645-18번지 1층","indutype":"일반휴게음식 - 서양음식","category":"restaurant"}]},{"lat":"37.653971002","long":"127.24652208","imageIndex":4,"items":[{"name":"자하연","tel":"031-511-3666","addr":"경기도 남양주시 호평동 653-7번지 101호","indutype":"일반휴게음식 - 일반한식","category":"restaurant"}]},{"lat":"37.654448546","long":"127.2421041","imageIndex":4,"items":[{"name":"전가족","tel":"02-962-2100","addr":"경기도 남양주시 호평동 631-8번지","indutype":"일반휴게음식 - 일반한식","category":"restaurant"}]},{"lat":"37.654836281","long":"127.24194669","imageIndex":4,"items":[{"name":"전과함께","tel":"031-594-4111","addr":"경기도 남양주시 호평동 630-2번지 1층 일부호","indutype":"일반휴게음식 - 일반한식","category":"restaurant"}]},{"lat":"37.658557314","long":"127.24633307","imageIndex":4,"items":[{"name":"전라도팥칼국수","tel":"031-595-8033","addr":"경기도 남양주시 호평동 175-21번지 1층","indutype":"일반휴게음식 - 일반한식","category":"restaurant"}]},{"lat":"37.65558801","long":"127.24444221","imageIndex":4,"items":[{"name":"전설의짬뽕 호평점","tel":"031-511-6247","addr":"경기도 남양주시 호평동 639-1번지 1층 일부호","indutype":"일반휴게음식 - 일반한식","category":"restaurant"},{"name":"틈새라면","tel":"031-223-5214","addr":"경기도 남양주시 호평동 639-1번지","indutype":"일반휴게음식 - 일반한식","category":"restaurant"}]},{"lat":"37.654448201","long":"127.24227408","imageIndex":4,"items":[{"name":"전주명가콩나물국밥","tel":"031-511-9496","addr":"경기도 남양주시 호평동 631-9번지 1층","indutype":"일반휴게음식 - 일반한식","category":"restaurant"}]},{"lat":"37.655169085","long":"127.24221973","imageIndex":4,"items":[{"name":"전주콩나루콩나물국밥","tel":"031-594-1969","addr":"경기도 남양주시 호평동 629-6번지","indutype":"일반휴게음식 - 일반한식","category":"restaurant"}]},{"lat":"37.654026539","long":"127.24138882","imageIndex":4,"items":[{"name":"점보부대찌개","tel":"031-595-3696","addr":"경기도 남양주시 호평동 632-3번지 1층","indutype":"일반휴게음식 - 일반한식","category":"restaurant"}]},{"lat":"37.656476142","long":"127.24630361","imageIndex":4,"items":[{"name":"제이(J).미라클","tel":"","addr":"경기도 남양주시 호평동 168-40번지 1층 1호","indutype":"일반휴게음식 - 서양음식","category":"restaurant"}]},{"lat":"37.654611946","long":"127.24591223","imageIndex":4,"items":[{"name":"제이제이","tel":"031-593-6708","addr":"경기도 남양주시 호평동 655-10번지","indutype":"일반휴게음식 - 주점","category":"restaurant"}]},{"lat":"37.654781914","long":"127.24650206","imageIndex":4,"items":[{"name":"족발야시장 남양주호평점","tel":"031-591-5912","addr":"경기도 남양주시 호평동 656-2번지","indutype":"일반휴게음식 - 일반한식","category":"restaurant"}]},{"lat":"37.656780406","long":"127.24730187","imageIndex":4,"items":[{"name":"종점포차","tel":"070-8150-8189","addr":"경기도 남양주시 호평동 189-2번지","indutype":"일반휴게음식 - 일반한식","category":"restaurant"}]},{"lat":"37.656197077","long":"127.24618938","imageIndex":4,"items":[{"name":"지바","tel":"031-511-7870","addr":"경기도 남양주시 호평동 168-26번지 1층","indutype":"일반휴게음식 - 주점","category":"restaurant"}]},{"lat":"37.655306666","long":"127.24543854","imageIndex":4,"items":[{"name":"지아린","tel":"031-511-8813","addr":"경기도 남양주시 호평동 646-1번지 명진빌라 1층","indutype":"일반휴게음식 - 중국식","category":"restaurant"}]},{"lat":"37.655558189","long":"127.24580199","imageIndex":4,"items":[{"name":"진사골칼국수","tel":"031-593-1395","addr":"경기도 남양주시 호평동 645-15번지 1층","indutype":"일반휴게음식 - 일반한식","category":"restaurant"}]},{"lat":"37.65427734","long":"127.24211488","imageIndex":4,"items":[{"name":"쪽갈비","tel":"031-511-0028","addr":"경기도 남양주시 호평동 631-11번지","indutype":"일반휴게음식 - 일반한식","category":"restaurant"}]},{"lat":"37.654052674","long":"127.24183086","imageIndex":4,"items":[{"name":"쭈꾸미일당백","tel":"031-595-9002","addr":"경기도 남양주시 호평동 632-6번지 1층","indutype":"일반휴게음식 - 일반한식","category":"restaurant"}]},{"lat":"37.655971053","long":"127.25514123","imageIndex":4,"items":[{"name":"참능이","tel":"031-592-0560","addr":"경기도 남양주시 호평동 674-4번지","indutype":"일반휴게음식 - 일반한식","category":"restaurant"}]},{"lat":"37.653754532","long":"127.26349678","imageIndex":4,"items":[{"name":"참스팜스","tel":"031-594-9110","addr":"경기도 남양주시 호평동 23-52번지","indutype":"일반휴게음식 - 일반한식","category":"restaurant"}]},{"lat":"37.654803988","long":"127.24453033","imageIndex":4,"items":[{"name":"참치사냥","tel":"031-595-1950","addr":"경기도 남양주시 호평동 642-2 외1필지제뉴빌딩118호,119호","indutype":"일반휴게음식 - 일반한식","category":"restaurant"}]},{"lat":"37.654778504","long":"127.25666704","imageIndex":4,"items":[{"name":"채담","tel":"031-591-5007","addr":"경기도 남양주시 호평동 25-1번지 상가","indutype":"일반휴게음식 - 일반한식","category":"restaurant"}]},{"lat":"37.655667609","long":"127.24516774","imageIndex":4,"items":[{"name":"채선당","tel":"031-593-4611","addr":"경기도 남양주시 호평동 644-2번지 1층","indutype":"일반휴게음식 - 일반한식","category":"restaurant"}]},{"lat":"37.653560767","long":"127.25733148","imageIndex":4,"items":[{"name":"천년옻닭","tel":"031-594-2400","addr":"경기도 남양주시 호평동 23-6번지 1층","indutype":"일반휴게음식 - 일반한식","category":"restaurant"}]},{"lat":"37.654782318","long":"127.2548879","imageIndex":4,"items":[{"name":"천마산곰탕","tel":"031-591-3657","addr":"경기도 남양주시 호평동 92-10번지","indutype":"일반휴게음식 - 일반한식","category":"restaurant"}]},{"lat":"37.654665672","long":"127.24166284","imageIndex":4,"items":[{"name":"충만치킨 호평점","tel":"031-559-8283","addr":"경기도 남양주시 호평동 630-9번지 줄리앙빌 1층","indutype":"일반휴게음식 - 스넥","category":"restaurant"}]},{"lat":"37.658451906","long":"127.24058702","imageIndex":4,"items":[{"name":"치킨마루","tel":"031-593-2350","addr":"경기도 남양주시 호평동 712번지 주공Humansia 상가동 102호","indutype":"일반휴게음식 - 스넥","category":"restaurant"}]},{"lat":"37.656781907","long":"127.24657659","imageIndex":4,"items":[{"name":"칡산에칡족발","tel":"031-592-0435","addr":"경기도 남양주시 호평동 187번지 1,2층","indutype":"일반휴게음식 - 일반한식","category":"restaurant"}]},{"lat":"37.655528868","long":"127.24691247","imageIndex":4,"items":[{"name":"카페더후","tel":"031-512-5785","addr":"경기도 남양주시 호평동 649-4번지","indutype":"일반휴게음식 - 서양음식","category":"restaurant"}]},{"lat":"37.654475938","long":"127.24633108","imageIndex":4,"items":[{"name":"카페시소호평점","tel":"031-591-8259","addr":"경기도 남양주시 호평동 656-9번지 101호","indutype":"일반휴게음식 - 서양음식","category":"restaurant"}]},{"lat":"37.654226763","long":"127.24039224","imageIndex":4,"items":[{"name":"카페지안","tel":"031-511-7773","addr":"경기도 남양주시 호평동 626-6번지","indutype":"일반휴게음식 - 서양음식","category":"restaurant"}]},{"lat":"37.659420009","long":"127.24302668","imageIndex":4,"items":[{"name":"카페플로라","tel":"031-591-6134","addr":"경기도 남양주시 호평동 716-9번지","indutype":"일반휴게음식 - 서양음식","category":"restaurant"}]},{"lat":"37.657583776","long":"127.24217082","imageIndex":4,"items":[{"name":"카페해미일2호점/대한노인회남양주지회취업","tel":"031-511-3223","addr":"경기도 남양주시 호평동 620번지 호평체육문화센터","indutype":"일반휴게음식 - 서양음식","category":"restaurant"},{"name":"카페호체","tel":"031-1111-1111","addr":"경기도 남양주시 호평동 620번지 1층","indutype":"일반휴게음식 - 일반한식","category":"restaurant"}]},{"lat":"37.65730416","long":"127.24672562","imageIndex":4,"items":[{"name":"커피베이 호평늘을점","tel":"031-593-8013","addr":"경기도 남양주시 호평동 184-5번지 1층","indutype":"일반휴게음식 - 서양음식","category":"restaurant"}]},{"lat":"37.659725898","long":"127.24324299","imageIndex":4,"items":[{"name":"커피커멘트","tel":"031-591-0686","addr":"경기도 남양주시 호평동 716-5번지","indutype":"일반휴게음식 - 서양음식","category":"restaurant"},{"name":"호평라멘","tel":"031-1111-1111","addr":"경기도 남양주시 호평동 716-5번지","indutype":"일반휴게음식 - 일반한식","category":"restaurant"}]},{"lat":"37.654864158","long":"127.24152749","imageIndex":4,"items":[{"name":"커피한잔.할 고양","tel":"","addr":"경기도 남양주시 호평동 628-5번지 1층","indutype":"일반휴게음식 - 일반한식","category":"restaurant"}]},{"lat":"37.65386599","long":"127.24058373","imageIndex":4,"items":[{"name":"케이에이치푸드(KH푸드)","tel":"031-594-3382","addr":"경기도 남양주시 호평동 633-7번지 1층 1호(일부)","indutype":"일반휴게음식 - 일반한식","category":"restaurant"},{"name":"큰바다해물찜","tel":"031-594-7474","addr":"경기도 남양주시 호평동 633-7번지 1층","indutype":"일반휴게음식 - 일반한식","category":"restaurant"}]},{"lat":"37.653862254","long":"127.24682769","imageIndex":4,"items":[{"name":"코드모드","tel":"02-1111-1111","addr":"경기도 남양주시 호평동 658-4번지 1층","indutype":"일반휴게음식 - 서양음식","category":"restaurant"}]},{"lat":"37.656472575","long":"127.24802614","imageIndex":4,"items":[{"name":"코리안숯불바베큐호평점","tel":"031-592-9949","addr":"경기도 남양주시 호평동 194-28번지","indutype":"일반휴게음식 - 주점","category":"restaurant"}]},{"lat":"37.659636632","long":"127.24283472","imageIndex":4,"items":[{"name":"쿠키클레이","tel":"031-592-7666","addr":"경기도 남양주시 호평동 715-7번지 지하1층","indutype":"일반휴게음식 - 서양음식","category":"restaurant"}]},{"lat":"37.653945445","long":"127.24580807","imageIndex":4,"items":[{"name":"태경이네소곱창","tel":"","addr":"경기도 남양주시 호평동 653-3번지","indutype":"일반휴게음식 - 일반한식","category":"restaurant"}]},{"lat":"37.654748512","long":"127.24522141","imageIndex":4,"items":[{"name":"토고리옛날막창","tel":"031-559-6645","addr":"경기도 남양주시 호평동 652-2번지","indutype":"일반휴게음식 - 일반한식","category":"restaurant"}]},{"lat":"37.657919824","long":"127.25808298","imageIndex":4,"items":[{"name":"토종고을","tel":"031-592-5239","addr":"경기도 남양주시 호평동 46-4","indutype":"일반휴게음식 - 일반한식","category":"restaurant"}]},{"lat":"37.659525812","long":"127.24416031","imageIndex":4,"items":[{"name":"통통골뱅이","tel":"","addr":"경기도 남양주시 호평동 615-8번지 지층","indutype":"일반휴게음식 - 일반한식","category":"restaurant"}]},{"lat":"37.654449097","long":"127.24183213","imageIndex":4,"items":[{"name":"파파갈비","tel":"031-559-6668","addr":"경기도 남양주시 호평동 631-6번지 1층","indutype":"일반휴게음식 - 일반한식","category":"restaurant"}]},{"lat":"37.659420286","long":"127.24289069","imageIndex":4,"items":[{"name":"파파스밀즉석떡볶이","tel":"031-511-8827","addr":"경기도 남양주시 호평동 716-10번지","indutype":"일반휴게음식 - 스넥","category":"restaurant"}]},{"lat":"37.654748","long":"127.24547072","imageIndex":4,"items":[{"name":"포차천국","tel":"031-593-1999","addr":"경기도 남양주시 호평동 654-1번지 1층","indutype":"일반휴게음식 - 주점","category":"restaurant"}]},{"lat":"37.657305142","long":"127.24624966","imageIndex":4,"items":[{"name":"풍미곱창","tel":"031-593-1377","addr":"경기도 남양주시 호평동 168-1번지 1층","indutype":"일반휴게음식 - 일반한식","category":"restaurant"}]},{"lat":"37.653857824","long":"127.24016442","imageIndex":4,"items":[{"name":"피자헛","tel":"031-591-5537","addr":"경기도 남양주시 호평동 633-9번지 1층 101호","indutype":"일반휴게음식 - 서양음식","category":"restaurant"}]},{"lat":"37.654501983","long":"127.24680712","imageIndex":4,"items":[{"name":"하남돼지 호평점","tel":"031-591-9252","addr":"경기도 남양주시 호평동 657-9번지","indutype":"일반휴게음식 - 일반한식","category":"restaurant"}]},{"lat":"37.654162888","long":"127.24521951","imageIndex":4,"items":[{"name":"하정아구찜","tel":"031-595-1330","addr":"경기도 남양주시 호평동 652-6번지 1층","indutype":"일반휴게음식 - 일반한식","category":"restaurant"}]},{"lat":"37.654304047","long":"127.24227362","imageIndex":4,"items":[{"name":"한쌈가득","tel":"031-559-8882","addr":"경기도 남양주시 호평동 631-10번지 1호","indutype":"일반휴게음식 - 일반한식","category":"restaurant"}]},{"lat":"37.671189142","long":"127.25052283","imageIndex":4,"items":[{"name":"해나푸드","tel":"","addr":"경기도 남양주시 호평동 342-7번지","indutype":"일반휴게음식 - 위탁급식업","category":"restaurant"}]},{"lat":"37.65596839","long":"127.24785449","imageIndex":4,"items":[{"name":"해란정","tel":"031-559-4487","addr":"경기도 남양주시 호평동 666-1번지 1층 일부","indutype":"일반휴게음식 - 일반한식","category":"restaurant"}]},{"lat":"37.662166483","long":"127.24374953","imageIndex":4,"items":[{"name":"호식이두마리치킨","tel":"031-511-1858","addr":"경기도 남양주시 호평동 446번지 남양빌딩 104호","indutype":"일반휴게음식 - 스넥","category":"restaurant"}]},{"lat":"37.653970369","long":"127.24682804","imageIndex":4,"items":[{"name":"호평동푸줏간","tel":"031-595-3669","addr":"경기도 남양주시 호평동 658-1번지 경은빌딩 1층","indutype":"일반휴게음식 - 일반한식","category":"restaurant"}]},{"lat":"37.654195657","long":"127.24680611","imageIndex":4,"items":[{"name":"호평평내풍천숯불장어","tel":"031-591-7878","addr":"경기도 남양주시 호평동 657-7번지 1층","indutype":"일반휴게음식 - 일반한식","category":"restaurant"}]},{"lat":"37.655746527","long":"127.24622191","imageIndex":4,"items":[{"name":"홀번(Holborn)","tel":"031-592-0417","addr":"경기도 남양주시 호평동 645-7번지 1층","indutype":"일반휴게음식 - 서양음식","category":"restaurant"}]},{"lat":"37.655025896","long":"127.24174332","imageIndex":4,"items":[{"name":"홍가네아구찜","tel":"031-511-3395","addr":"경기도 남양주시 호평동 628-3번지","indutype":"일반휴게음식 - 일반한식","category":"restaurant"}]},{"lat":"37.654476452","long":"127.24608177","imageIndex":4,"items":[{"name":"화룡양꼬치구이","tel":"031-511-9777","addr":"경기도 남양주시 호평동 655-4번지","indutype":"일반휴게음식 - 일반한식","category":"restaurant"}]},{"lat":"37.6546134","long":"127.24077876","imageIndex":4,"items":[{"name":"황금 소곱창","tel":"031-592-3573","addr":"경기도 남양주시 호평동 627-6번지","indutype":"일반휴게음식 - 일반한식","category":"restaurant"}]},{"lat":"37.65516335","long":"127.24503011","imageIndex":4,"items":[{"name":"황금동태호평점","tel":"031-559-5205","addr":"경기도 남양주시 호평동 644-8번지","indutype":"일반휴게음식 - 일반한식","category":"restaurant"}]},{"lat":"37.65447554","long":"127.24652373","imageIndex":4,"items":[{"name":"황소배꼽","tel":"031-595-0905","addr":"경기도 남양주시 호평동 656-4번지 1층","indutype":"일반휴게음식 - 일반한식","category":"restaurant"}]},{"lat":"37.654414296","long":"127.24122008","imageIndex":4,"items":[{"name":"황제수산","tel":"031-594-5303","addr":"경기도 남양주시 호평동 631-2번지","indutype":"일반휴게음식 - 일반한식","category":"restaurant"}]},{"lat":"37.670690847","long":"127.25183599","imageIndex":4,"items":[{"name":"황제연탄구이","tel":"031-559-9290","addr":"경기도 남양주시 호평동 343-23번지 1층 일부호","indutype":"일반휴게음식 - 일반한식","category":"restaurant"}]}]