[{"lat":"37.495910923","long":"127.41304017","imageIndex":17,"items":[{"name":"강하도료","tel":"031-772-3092","addr":"경기도 양평군 강하면 운심리 26-4번지","indutype":"건축자재 - 페인트","category":"other"}]},{"lat":"37.496076325","long":"127.41470337","imageIndex":17,"items":[{"name":"강하면주민자치위원회","tel":"031-771-5469","addr":"경기도 양평군 강하면 운심리 6-4번지","indutype":"문화.취미 - 문화취미기타","category":"other"}]},{"lat":"37.49551881","long":"127.40918198","imageIndex":17,"items":[{"name":"강하철물건재","tel":"031-772-4356","addr":"경기도 양평군 강하면 운심리 38-17","indutype":"기타 - 기계공구","category":"other"}]},{"lat":"37.49082746","long":"127.38679064","imageIndex":17,"items":[{"name":"나비스타일(NABI STYLE)","tel":"031-000-0000","addr":"경기도 양평군 강하면 운심리 486-1번지","indutype":"신변잡화 - 액세서리","category":"other"}]},{"lat":"37.495802056","long":"127.41065357","imageIndex":17,"items":[{"name":"남양전기","tel":"031-773-9004","addr":"경기도 양평군 강하면 운심리 34-3번지","indutype":"전기제품 - 기타전기제품","category":"other"}]},{"lat":"37.490135982","long":"127.39973389","imageIndex":17,"items":[{"name":"단아공방","tel":"","addr":"경기도 양평군 강하면 운심리 182-1번지","indutype":"신변잡화 - 기타잡화","category":"other"}]},{"lat":"37.497438306","long":"127.41168021","imageIndex":17,"items":[{"name":"대우이앤씨","tel":"031-772-0066","addr":"경기도 양평군 강하면 운심리 59-12번지","indutype":"건축자재 - 기타건축자재","category":"other"}]},{"lat":"37.496880956","long":"127.41131531","imageIndex":17,"items":[{"name":"두리헌","tel":"031-772-0160","addr":"경기도 양평군 강하면 운심리 46-1번지","indutype":"주방용구 - 주방용식기","category":"other"}]},{"lat":"37.494496017","long":"127.40262917","imageIndex":17,"items":[{"name":"라온 진 샵(RAON Jin Shop)","tel":"031-772-3222","addr":"경기도 양평군 강하면 운심리 86-3번지","indutype":"가구 - 일반가구","category":"other"},{"name":"씨유양평강하점","tel":"031-755-7534","addr":"경기도 양평군 강하면 운심리 86-3번지","indutype":"유통업 영리 - 편 의 점","category":"other"}]},{"lat":"37.495772449","long":"127.41139974","imageIndex":17,"items":[{"name":"사랑방","tel":"","addr":"경기도 양평군 강하면 운심리 33-2번지","indutype":"문화.취미 - 민예·공예품","category":"other"}]},{"lat":"37.495491068","long":"127.40676191","imageIndex":17,"items":[{"name":"세븐일레븐양평운심점","tel":"031-1577-0711","addr":"경기도 양평군 강하면 운심리 74번지","indutype":"유통업 영리 - 편 의 점","category":"other"}]},{"lat":"37.495359005","long":"127.40849133","imageIndex":17,"items":[{"name":"양평농협강하지점","tel":"031-772-2830","addr":"경기도 양평군 강하면 운심리 41-1번지","indutype":"유통업 비영리 - 농,축협 직영매장","category":"other"}]},{"lat":"37.491664765","long":"127.39791017","imageIndex":17,"items":[{"name":"엉클조느티나무목공방","tel":"031-775-1683","addr":"경기도 양평군 강하면 운심리 196 3/2","indutype":"가구 - 기타가구","category":"other"},{"name":"황금부동산공인중개사사무소","tel":"031-773-3494","addr":"경기도 양평군 강하면 운심리 196","indutype":"용역 서비스 - 부동산 중개·임대","category":"other"}]},{"lat":"37.496632003","long":"127.41035276","imageIndex":17,"items":[{"name":"에바다ENG","tel":"031-772-4102","addr":"경기도 양평군 강하면 운심리 43-13번지","indutype":"건축자재 - 보일러·펌프·샷시","category":"other"}]},{"lat":"37.497907124","long":"127.4115923","imageIndex":17,"items":[{"name":"예소리","tel":"031-771-3395","addr":"경기도 양평군 강하면 운심리 62-2번지","indutype":"레져용품 - 음반/영상물","category":"other"}]},{"lat":"37.494129637","long":"127.4017339","imageIndex":17,"items":[{"name":"우드인","tel":"031-771-5855","addr":"경기도 양평군 강하면 운심리 255번지","indutype":"건축자재 - 기타건축자재","category":"other"}]},{"lat":"37.492359276","long":"127.3895123","imageIndex":17,"items":[{"name":"헤리베르3","tel":"031-000-0000","addr":"경기도 양평군 강하면 운심리 516-20번지","indutype":"신변잡화 - 액세서리","category":"other"},{"name":"헤리베르양평","tel":"","addr":"경기도 양평군 강하면 운심리 516-20번지","indutype":"의류 - 정장","category":"other"}]}]