[{"lat":"37.3791375042","long":"126.9736392340","imageIndex":8,"items":[{"name":"e-하얀치과의원","tel":"031-423-2234","addr":"경기도 의왕시 내손동 755번지 우성메디칼센터 3층","indutype":"의원 - 치과의원","category":"medical"},{"name":"예인한의원","tel":"031-426-3133","addr":"경기도 의왕시 내손동 755번지 우성메디컬센터 203호","indutype":"의원 - 한의원","category":"medical"},{"name":"우성메디칼약국","tel":"031-426-0289","addr":"경기도 의왕시 내손동 755번지 우성메디칼약국 103호","indutype":"약국 - 약국","category":"medical"}]},{"lat":"37.3796685899","long":"126.9716405725","imageIndex":8,"items":[{"name":"권이비인후과의원","tel":"031-423-7733","addr":"경기도 의왕시 내손동 746번지 롯데프라자 303호","indutype":"의원 - 의원","category":"medical"},{"name":"롯데메디칼약국","tel":"031-426-1248","addr":"경기도 의왕시 내손동 746번지 롯데프라자 101호","indutype":"약국 - 약국","category":"medical"},{"name":"롯데수비뇨기과의원","tel":"031-424-1230","addr":"경기도 의왕시 내손동 746번지 롯데프라자 301호","indutype":"의원 - 의원","category":"medical"},{"name":"롯데정내과","tel":"031-426-3486","addr":"경기도 의왕시 내손동 746번지 롯데프라자 402호","indutype":"의원 - 의원","category":"medical"},{"name":"서울플러스치과","tel":"031-422-2804","addr":"경기도 의왕시 내손동 746번지 롯데프라자 302호","indutype":"병원 - 치과병원","category":"medical"},{"name":"신농씨한의원","tel":"031-423-7580","addr":"경기도 의왕시 내손동 746번지 롯데프라자 403호","indutype":"의원 - 한의원","category":"medical"},{"name":"아름다운가정의학과의원","tel":"031-426-1075","addr":"경기도 의왕시 내손동 746번지 롯데프라자 202호","indutype":"의원 - 의원","category":"medical"},{"name":"예일안과","tel":"031-426-8118","addr":"경기도 의왕시 내손동 746번지 롯데메디칼 401호","indutype":"의원 - 의원","category":"medical"}]},{"lat":"37.3867523364","long":"126.9794176624","imageIndex":8,"items":[{"name":"김규엽소아청소년과의원","tel":"031-425-7688","addr":"경기도 의왕시 내손동 637번지 보우 상가 2층 2호","indutype":"의원 - 의원","category":"medical"},{"name":"연세피앤피치과의원","tel":"031-425-3181","addr":"경기도 의왕시 내손동 637번지 보우 상가 203호","indutype":"의원 - 치과의원","category":"medical"},{"name":"인수한의원","tel":"031-423-2468","addr":"경기도 의왕시 내손동 637번지 보우 상가 201호","indutype":"의원 - 한의원","category":"medical"}]},{"lat":"37.3886347271","long":"126.9760294599","imageIndex":8,"items":[{"name":"김비뇨기과의원","tel":"031-423-0694","addr":"경기도 의왕시 내손동 631-2번지 건형종합상가 205호","indutype":"의원 - 의원","category":"medical"},{"name":"박동우이비인후과","tel":"031-425-4812","addr":"경기도 의왕시 내손동 631-2번지 건형상가 209호","indutype":"의원 - 의원","category":"medical"},{"name":"소망치과의원","tel":"031-425-2872","addr":"경기도 의왕시 내손동 631-2번지 건형상가 207호","indutype":"의원 - 치과의원","category":"medical"},{"name":"손안과의원","tel":"031-425-5442","addr":"경기도 의왕시 내손동 631-2번지 건형상가 2층","indutype":"의원 - 의원","category":"medical"},{"name":"정한의원","tel":"031-25-6352","addr":"경기도 의왕시 내손동 631-2번지 건형상가 2층","indutype":"의원 - 한의원","category":"medical"}]},{"lat":"37.3864731491","long":"126.9800613780","imageIndex":8,"items":[{"name":"내손치과의원","tel":"031-421-2875","addr":"경기도 의왕시 내손동 637-19번지 2층","indutype":"의원 - 치과의원","category":"medical"}]},{"lat":"37.3795605929","long":"126.9721148264","imageIndex":8,"items":[{"name":"내손한의원","tel":"031-426-8575","addr":"경기도 의왕시 내손동 746-3번지","indutype":"의원 - 한의원","category":"medical"}]},{"lat":"37.3862290932","long":"126.9763126104","imageIndex":8,"items":[{"name":"뉴욕디파인","tel":"031-456-4104","addr":"경기도 의왕시 내손동 846번지 의왕내손이편한세상","indutype":"약국 - 제약회사","category":"medical"}]},{"lat":"37.3861399587","long":"126.9810325633","imageIndex":8,"items":[{"name":"늘푸른약국","tel":"031-421-7561","addr":"경기도 의왕시 내손동 669번지","indutype":"약국 - 약국","category":"medical"}]},{"lat":"37.3900315952","long":"126.9773953253","imageIndex":8,"items":[{"name":"다시봄의원","tel":"031-425-1133","addr":"경기도 의왕시 내손동 414-3번지 대림프라자 503호","indutype":"의원 - 의원","category":"medical"},{"name":"동보약국","tel":"031-424-0369","addr":"경기도 의왕시 내손동 414-3 대림프라자 304호","indutype":"약국 - 약국","category":"medical"},{"name":"미래로치과의원","tel":"031-425-7528","addr":"경기도 의왕시 내손동 414-3번지 대림프라자 203호","indutype":"의원 - 치과의원","category":"medical"},{"name":"미소치과","tel":"031-425-2818","addr":"경기도 의왕시 내손동 414-3번지 대림프라자 303호","indutype":"의원 - 치과의원","category":"medical"},{"name":"바른몸 한의원","tel":"031-360-8575","addr":"경기도 의왕시 내손동 414-3번지 대림프라자 202호","indutype":"의원 - 한의원","category":"medical"},{"name":"연세어린이치과","tel":"031-421-2872","addr":"경기도 의왕시 내손동 414-3번지 대림프라자 305호","indutype":"의원 - 치과의원","category":"medical"},{"name":"임동혁내과의원","tel":"031-422-3396","addr":"경기도 의왕시 내손동 414-3번지 대림프라자 3층 304호","indutype":"의원 - 의원","category":"medical"},{"name":"해미소한의원","tel":"031-424-2110","addr":"경기도 의왕시 내손동 414-3번지 대림프라자 3층 302호","indutype":"의원 - 한의원","category":"medical"}]},{"lat":"37.3871398597","long":"126.9798692148","imageIndex":8,"items":[{"name":"미르피부과의원","tel":"031-423-7582","addr":"경기도 의왕시 내손동 643-6번지 내손신성프라자 5층 501,502호","indutype":"의원 - 의원","category":"medical"},{"name":"밝은온누리약국","tel":"031-423-7006","addr":"경기도 의왕시 내손동 643-6번지 신성프라자 106호","indutype":"약국 - 약국","category":"medical"},{"name":"서울성모치과","tel":"031-424-7528","addr":"경기도 의왕시 내손동 643-6번지 내손신성프라자 3층 303호","indutype":"의원 - 치과의원","category":"medical"},{"name":"서울아산김내과의원","tel":"031-424-9111","addr":"경기도 의왕시 내손동 643-6번지 내손신성프라자 402호","indutype":"의원 - 의원","category":"medical"}]},{"lat":"37.3794703105","long":"126.9714261319","imageIndex":8,"items":[{"name":"바른정치과의원","tel":"031-421-7515","addr":"경기도 의왕시 내손동 752번지 켐퍼스프라자 305호","indutype":"의원 - 치과의원","category":"medical"},{"name":"하늘봄한의원","tel":"031-422-0072","addr":"경기도 의왕시 내손동 752번지 204,205호","indutype":"의원 - 한의원","category":"medical"},{"name":"행복한약국","tel":"031-422-2540","addr":"경기도 의왕시 내손동 752번지 캠퍼스프라자 106호","indutype":"약국 - 약국","category":"medical"}]},{"lat":"37.3798314542","long":"126.9743389899","imageIndex":8,"items":[{"name":"박현희산부인과","tel":"031-426-7977","addr":"경기도 의왕시 내손동 741-1번지 팬텀프라자 303호","indutype":"의원 - 의원","category":"medical"}]},{"lat":"37.3794974868","long":"126.9719793640","imageIndex":8,"items":[{"name":"본치과","tel":"031-426-2875","addr":"경기도 의왕시 내손동 746-2번지 엘지프라자 301동 302호","indutype":"의원 - 치과의원","category":"medical"}]},{"lat":"37.3801646518","long":"126.9736162536","imageIndex":8,"items":[{"name":"성모프라자약국","tel":"031-425-4774","addr":"경기도 의왕시 내손동 743번지 롯데마트의왕점 내","indutype":"약국 - 약국","category":"medical"},{"name":"해맑은치과의원","tel":"031-421-4792","addr":"경기도 의왕시 내손동 743번지 롯데마트 3층","indutype":"의원 - 치과의원","category":"medical"}]},{"lat":"37.3792815137","long":"126.9730294830","imageIndex":8,"items":[{"name":"아름다운 미치과의원","tel":"031-426-7258","addr":"경기도 의왕시 내손동 748-3번지 제일프라자 3층","indutype":"의원 - 치과의원","category":"medical"}]},{"lat":"37.3868065815","long":"126.9803661549","imageIndex":8,"items":[{"name":"오소아과의원","tel":"031-423-5813","addr":"경기도 의왕시 내손동 643-4번지 서광 상가 3층","indutype":"의원 - 의원","category":"medical"},{"name":"우리한의원","tel":"031-422-7575","addr":"경기도 의왕시 내손동 643-4번지 서광 상가 201호","indutype":"의원 - 한의원","category":"medical"},{"name":"푸른치과의원","tel":"031-423-2875","addr":"경기도 의왕시 내손동 643-4번지 서광상사 4층","indutype":"의원 - 치과의원","category":"medical"}]},{"lat":"37.3885532802","long":"126.9745050636","imageIndex":8,"items":[{"name":"우리집동물병원","tel":"031-421-0008","addr":"경기도 의왕시 내손동 406-3번지 2층","indutype":"기타의료기관 - 동물병원","category":"medical"}]},{"lat":"37.3834190171","long":"126.9816430817","imageIndex":8,"items":[{"name":"은혜약국","tel":"031-425-0524","addr":"경기도 의왕시 내손동 696-10번지","indutype":"약국 - 약국","category":"medical"}]},{"lat":"37.3910595715","long":"126.9815618787","imageIndex":8,"items":[{"name":"정내과의원","tel":"031-425-1375","addr":"경기도 의왕시 내손동 653-4번지","indutype":"의원 - 의원","category":"medical"}]},{"lat":"37.3787771552","long":"126.9738651855","imageIndex":8,"items":[{"name":"주식회사 에스에스팜","tel":"031-426-8607","addr":"경기도 의왕시 내손동 762-3번지 삼대프라자 402호","indutype":"약국 - 제약회사","category":"medical"}]},{"lat":"37.3859687352","long":"126.9808632382","imageIndex":8,"items":[{"name":"포일의원","tel":"031-425-4852","addr":"경기도 의왕시 내손동 683-10번지","indutype":"의원 - 의원","category":"medical"}]},{"lat":"37.3851401184","long":"126.9826136675","imageIndex":8,"items":[{"name":"포일한의원","tel":"031-348-1231","addr":"경기도 의왕시 내손동 673-11번지","indutype":"의원 - 한의원","category":"medical"}]},{"lat":"37.3913570368","long":"126.9823070968","imageIndex":8,"items":[{"name":"홍익한의원","tel":"031-422-0551","addr":"경기도 의왕시 내손동 660-3번지","indutype":"의원 - 한의원","category":"medical"}]}]