[{"lat":"37.820224263","long":"127.04786888","imageIndex":13,"items":[{"name":"가족노래연습장","tel":"031-868-6777","addr":"경기도 양주시 덕계동 452-44번지 외1필지 지하1층","indutype":"레저업소 - 노 래 방","category":"leisure"}]},{"lat":"37.819422944","long":"127.04648279","imageIndex":13,"items":[{"name":"고려당구장","tel":"031-863-1749","addr":"경기도 양주시 덕계동 466-19번지 2층","indutype":"레저업소 - 당 구 장","category":"leisure"}]},{"lat":"37.81950377","long":"127.04717564","imageIndex":13,"items":[{"name":"공간노래연습장","tel":"031-827-9288","addr":"경기도 양주시 덕계동 462-1번지","indutype":"레저업소 - 노 래 방","category":"leisure"}]},{"lat":"37.82066664","long":"127.04540456","imageIndex":13,"items":[{"name":"공원DVD방","tel":"031-867-1170","addr":"경기도 양주시 덕계동 678-1번지 2층","indutype":"레저업소 - 기타레져업소","category":"leisure"}]},{"lat":"37.819422724","long":"127.04707338","imageIndex":13,"items":[{"name":"금광노래연습장","tel":"031-859-3819","addr":"경기도 양주시 덕계동 462-2번지 지하","indutype":"레저업소 - 노 래 방","category":"leisure"}]},{"lat":"37.824115796","long":"127.04926828","imageIndex":13,"items":[{"name":"나비랑 키즈카페","tel":"031-864-2764","addr":"경기도 양주시 덕계동 513-1번지 A동 2층","indutype":"레저업소 - 기타레져업소","category":"leisure"}]},{"lat":"37.819171442","long":"127.04437019","imageIndex":13,"items":[{"name":"노블레스노래연습장","tel":"031-865-4253","addr":"경기도 양주시 덕계동 670-9번지","indutype":"레저업소 - 노 래 방","category":"leisure"}]},{"lat":"37.829777189","long":"127.03940091","imageIndex":13,"items":[{"name":"덕계낚시터","tel":"031-864-6536","addr":"경기도 양주시 덕계동 745번지","indutype":"레저업소 - 기타레져업소","category":"leisure"}]},{"lat":"37.818278711","long":"127.04657298","imageIndex":13,"items":[{"name":"덕계볼링장","tel":"031-867-8877","addr":"경기도 양주시 덕계동 420-3번지","indutype":"레저업소 - 볼 링 장","category":"leisure"}]},{"lat":"37.816422171","long":"127.04815049","imageIndex":13,"items":[{"name":"동네노래방","tel":"","addr":"경기도 양주시 덕계동 411-96번지","indutype":"레저업소 - 노 래 방","category":"leisure"}]},{"lat":"37.818422988","long":"127.04623235","imageIndex":13,"items":[{"name":"둘리노래연습장","tel":"031-864-0955","addr":"경기도 양주시 덕계동 421-2번지","indutype":"레저업소 - 노 래 방","category":"leisure"}]},{"lat":"37.821505234","long":"127.04337202","imageIndex":13,"items":[{"name":"레알당구장","tel":"031-865-7873","addr":"경기도 양주시 덕계동 656-2번지 2층","indutype":"레저업소 - 당 구 장","category":"leisure"},{"name":"엘리트 특공무술","tel":"031-865-2418","addr":"경기도 양주시 덕계동 656-2번지 4층","indutype":"레저업소 - 헬스클럽","category":"leisure"}]},{"lat":"37.821701605","long":"127.04840359","imageIndex":13,"items":[{"name":"로마노래연습장","tel":"031-861-7756","addr":"경기도 양주시 덕계동 474-6번지 1층","indutype":"레저업소 - 노 래 방","category":"leisure"}]},{"lat":"37.818423192","long":"127.04567584","imageIndex":13,"items":[{"name":"만남노래연습장","tel":"031-863-0202","addr":"경기도 양주시 덕계동 681-24번지","indutype":"레저업소 - 노 래 방","category":"leisure"}]},{"lat":"37.822305184","long":"127.04854025","imageIndex":13,"items":[{"name":"블루 당구클럽","tel":"02-956-8040","addr":"경기도 양주시 덕계동 480-2번지 A동 3층","indutype":"레저업소 - 당 구 장","category":"leisure"}]},{"lat":"37.818756254","long":"127.04645969","imageIndex":13,"items":[{"name":"상아당구장","tel":"031-863-3728","addr":"경기도 양주시 덕계동 421-1번지","indutype":"레저업소 - 당 구 장","category":"leisure"}]},{"lat":"37.816810481","long":"127.0457317","imageIndex":13,"items":[{"name":"샤빌로트 당구카페","tel":"031-858-3938","addr":"경기도 양주시 덕계동 699-3번지 2층","indutype":"레저업소 - 당 구 장","category":"leisure"}]},{"lat":"37.826693534","long":"127.04654386","imageIndex":13,"items":[{"name":"선녀와나무꾼","tel":"031-861-5800","addr":"경기도 양주시 덕계동 540번지 외5필지","indutype":"레저업소 - 기타레져업소","category":"leisure"}]},{"lat":"37.816368965","long":"127.04587908","imageIndex":13,"items":[{"name":"소유창 휘트니스","tel":"02-3494-0380","addr":"경기도 양주시 덕계동 698-13번지 2층","indutype":"레저업소 - 헬스클럽","category":"leisure"}]},{"lat":"37.81906238","long":"127.0469823","imageIndex":13,"items":[{"name":"스타당구장","tel":"031-111-1111","addr":"경기도 양주시 덕계동 424-4번지","indutype":"레저업소 - 당 구 장","category":"leisure"}]},{"lat":"37.819863989","long":"127.04759608","imageIndex":13,"items":[{"name":"아론PC방","tel":"070-4010-6585","addr":"경기도 양주시 덕계동 456-1번지 덕계빌딩 2층","indutype":"레저업소 - 기타레져업소","category":"leisure"},{"name":"우리노래연습장","tel":"031-858-9044","addr":"경기도 양주시 덕계동 456-1번지","indutype":"레저업소 - 노 래 방","category":"leisure"}]},{"lat":"37.821334055","long":"127.04337192","imageIndex":13,"items":[{"name":"양주와이어주짓수","tel":"031-859-9950","addr":"경기도 양주시 덕계동 656-6번지 3층","indutype":"레저업소 - 헬스클럽","category":"leisure"}]},{"lat":"37.819116906","long":"127.04571032","imageIndex":13,"items":[{"name":"에쿠스노래연습장","tel":"031-861-6197","addr":"경기도 양주시 덕계동 681-1번지 지하1층","indutype":"레저업소 - 노 래 방","category":"leisure"}]},{"lat":"37.818837875","long":"127.04498329","imageIndex":13,"items":[{"name":"올림픽당구장","tel":"070-4417-7595","addr":"경기도 양주시 덕계동 682-36번지 2층","indutype":"레저업소 - 당 구 장","category":"leisure"},{"name":"팡팡노래연습장","tel":"031-864-4577","addr":"경기도 양주시 덕계동 682-36번지 지하1층","indutype":"레저업소 - 노 래 방","category":"leisure"}]},{"lat":"37.818035591","long":"127.04620941","imageIndex":13,"items":[{"name":"위 짐(WE GYM)","tel":"031-868-8680","addr":"경기도 양주시 덕계동 420-9번지 5층","indutype":"레저업소 - 헬스클럽","category":"leisure"}]}]