[{"lat":"37.892027189","long":"127.19915892","imageIndex":16,"items":[{"name":"(주)AMS코리아","tel":"031-531-3920","addr":"경기도 포천시 신읍동 71-2번지 3층","indutype":"학원 - 기타 교육기관","category":"study"}]},{"lat":"37.89361223","long":"127.19404721","imageIndex":16,"items":[{"name":"A클래스","tel":"031-535-2124","addr":"경기도 포천시 신읍동 697-1번지 극동1차스타클래스 201동 108호","indutype":"학원 - 기타 교육기관","category":"study"}]},{"lat":"37.895635229","long":"127.19655363","imageIndex":16,"items":[{"name":"JY학원","tel":"031-532-8383","addr":"경기도 포천시 신읍동 122-5번지 명보빌딩 2층","indutype":"학원 - 보습학원","category":"study"}]},{"lat":"37.902666174","long":"127.2050769","imageIndex":16,"items":[{"name":"J푸른아이어린이집[아이행복]","tel":"031-534-3575","addr":"경기도 포천시 신읍동 210-4번지","indutype":"학원 - 유아원","category":"study"}]},{"lat":"37.895967935","long":"127.19694105","imageIndex":16,"items":[{"name":"YS수학학원","tel":"031-534-5124","addr":"경기도 포천시 신읍동 121-3번지","indutype":"학원 - 보습학원","category":"study"},{"name":"포천예솔피아노학원","tel":"031-535-9669","addr":"경기도 포천시 신읍동 121-3번지","indutype":"학원 - 예·체능계학원","category":"study"}]},{"lat":"37.895910791","long":"127.19880542","imageIndex":16,"items":[{"name":"가온누리 강호 태권도장","tel":"031-873-0650","addr":"경기도 포천시 신읍동 130-3번지","indutype":"학원 - 예·체능계학원","category":"study"}]},{"lat":"37.903274064","long":"127.20257711","imageIndex":16,"items":[{"name":"경민대 충효체육관","tel":"531-5352","addr":"경기도 포천시 신읍동 226번지 청포빌딩","indutype":"교육서비스 - 학원","category":"study"},{"name":"열린피아노학원","tel":"534-0545","addr":"경기도 포천시 신읍동 226번지","indutype":"교육서비스 - 학원","category":"study"},{"name":"청담yes학원","tel":"533-0994","addr":"경기도 포천시 신읍동 226","indutype":"교육서비스 - 학원","category":"study"},{"name":"청담예스 (YES) 학원","tel":"031-533-0994","addr":"경기도 포천시 신읍동 226번지 청포빌딩 4층","indutype":"회원제형태 - 학원","category":"study"},{"name":"포천검도관","tel":"536-0953","addr":"경기도 포천시 신읍동 226번지","indutype":"교육서비스 - 학원","category":"study"}]},{"lat":"37.902799923","long":"127.20588454","imageIndex":16,"items":[{"name":"경민대충효체육관","tel":"031-531-5352","addr":"경기도 포천시 신읍동 210-17 진성타운3층 301,302호","indutype":"학원 - 예·체능계학원","category":"study"}]},{"lat":"37.902580197","long":"127.2026662","imageIndex":16,"items":[{"name":"계명대 승리 K-타이거즈 태권도","tel":"031-536-5402","addr":"경기도 포천시 신읍동 223-3번지 1층","indutype":"학원 - 예·체능계학원","category":"study"},{"name":"라인뮤직","tel":"532-5451","addr":"경기도 포천시 신읍동 223-3번지","indutype":"교육서비스 - 학원","category":"study"},{"name":"라인뮤직실용음악학원","tel":"031-532-5451","addr":"경기도 포천시 신읍동 223-3번지","indutype":"회원제형태 - 학원","category":"study"}]},{"lat":"37.89474677","long":"127.19443668","imageIndex":16,"items":[{"name":"공룡나라어린이집","tel":"031-535-7001","addr":"경기도 포천시 신읍동 116-19번지","indutype":"학원 - 유치원","category":"study"},{"name":"공룡나라어린이집[아이행복]","tel":"031-535-8596","addr":"경기도 포천시 신읍동 116-19번지","indutype":"학원 - 유아원","category":"study"}]},{"lat":"37.902470442","long":"127.20363236","imageIndex":16,"items":[{"name":"관인열린피아노학원","tel":"031-534-0545","addr":"경기도 포천시 신읍동 216-12번지","indutype":"회원제형태 - 학원","category":"study"}]},{"lat":"37.895550004","long":"127.19905459","imageIndex":16,"items":[{"name":"광호","tel":"536-0405","addr":"경기도 포천시 신읍동 127-7번지","indutype":"도소매 - 학원","category":"study"},{"name":"시그마수학학원","tel":"031-534-3600","addr":"경기도 포천시 신읍동 127-7번지","indutype":"학원 - 보습학원","category":"study"}]},{"lat":"37.903804335","long":"127.20332898","imageIndex":16,"items":[{"name":"굿모닝어학원","tel":"070-7592-0577","addr":"경기도 포천시 신읍동 225-3번지 2층일부","indutype":"회원제형태 - 학원","category":"study"},{"name":"굿모닝영수전문학원","tel":"070-8252-0579","addr":"경기도 포천시 신읍동 225-3","indutype":"교육서비스 - 학원","category":"study"},{"name":"종로에듀학원","tel":"536-0360","addr":"경기도 포천시 신읍동 225-3번지","indutype":"교육서비스 - 학원","category":"study"},{"name":"한결태권도","tel":"031-533-5009","addr":"경기도 포천시 신읍동 225-3번지 왕방빌딩 3층","indutype":"학원 - 예·체능계학원","category":"study"},{"name":"한결태권도","tel":"533-5009","addr":"경기도 포천시 신읍동 225-3번지","indutype":"교육서비스 - 학원","category":"study"}]},{"lat":"37.903525435","long":"127.20310082","imageIndex":16,"items":[{"name":"글샘학원","tel":"536-9090","addr":"경기도 포천시 신읍동 225-9번지 3층","indutype":"교육서비스 - 학원","category":"study"},{"name":"글샘학원(보습)","tel":"031-536-9090","addr":"경기도 포천시 신읍동 225-9번지 3층","indutype":"회원제형태 - 학원","category":"study"}]},{"lat":"37.893664379","long":"127.19521832","imageIndex":16,"items":[{"name":"나무미술학원","tel":"031-534-6318","addr":"경기도 포천시 신읍동 95-3번지","indutype":"학원 - 예·체능계학원","category":"study"},{"name":"이레영어교습소","tel":"031-999-9999","addr":"경기도 포천시 신읍동 95-3번지 외 2필지 이레영어교습소","indutype":"학원 - 외국어학원","category":"study"},{"name":"중앙음악학원","tel":"031-532-2272","addr":"경기도 포천시 신읍동 95-3번지 2층","indutype":"학원 - 예·체능계학원","category":"study"}]},{"lat":"37.897050376","long":"127.19613667","imageIndex":16,"items":[{"name":"다모아미술교습소","tel":"031-532-8868","addr":"경기도 포천시 신읍동 142-17번지","indutype":"학원 - 예·체능계학원","category":"study"}]},{"lat":"37.894995168","long":"127.20219094","imageIndex":16,"items":[{"name":"댄스학원","tel":"031-543-1012","addr":"경기도 포천시 신읍동 33-6번지 3층","indutype":"학원 - 예·체능계학원","category":"study"}]},{"lat":"37.892162934","long":"127.19330451","imageIndex":16,"items":[{"name":"루트학원","tel":"535-0536","addr":"경기도 포천시 신읍동 369-39번지","indutype":"교육서비스 - 학원","category":"study"}]},{"lat":"37.901778604","long":"127.20252759","imageIndex":16,"items":[{"name":"리틀쟈니어린이집[아이행복]","tel":"031-535-5086","addr":"경기도 포천시 신읍동 220번지","indutype":"학원 - 유아원","category":"study"},{"name":"쟈니 어린이집[아이행복]","tel":"031-535-4242","addr":"경기도 포천시 신읍동 220번지","indutype":"학원 - 유아원","category":"study"},{"name":"쟈니유치원[아이행복]","tel":"031-535-4242","addr":"경기도 포천시 신읍동 220번지","indutype":"학원 - 유치원","category":"study"}]},{"lat":"37.895611291","long":"127.1946663","imageIndex":16,"items":[{"name":"맥스터디학원","tel":"031-531-1150","addr":"경기도 포천시 신읍동 116-37번지 보성빌딩 3층","indutype":"학원 - 보습학원","category":"study"},{"name":"포천합기도 주짓수","tel":"535-0774","addr":"경기도 포천시 신읍동 116-37번지","indutype":"교육서비스 - 학원","category":"study"},{"name":"포천합기도용무관","tel":"031-535-0774","addr":"경기도 포천시 신읍동 116-37번지 보성빌딩 1층","indutype":"회원제형태 - 학원","category":"study"}]},{"lat":"37.893479591","long":"127.19250072","imageIndex":16,"items":[{"name":"명성과외","tel":"","addr":"경기도 포천시 신읍동 698번지 포천극동2차스타클래스아파트 104동 203호","indutype":"학원 - 기타 교육기관","category":"study"}]},{"lat":"37.897721299","long":"127.20435847","imageIndex":16,"items":[{"name":"모스","tel":"031-531-1233","addr":"경기도 포천시 신읍동 22-6번지","indutype":"학원 - 독서실","category":"study"}]},{"lat":"37.896363401","long":"127.20288815","imageIndex":16,"items":[{"name":"반석바른자세운동원","tel":"031-536-3537","addr":"경기도 포천시 신읍동 25-2번지 경희한의원 2층","indutype":"회원제형태 - 학원","category":"study"}]},{"lat":"37.895305438","long":"127.19438128","imageIndex":16,"items":[{"name":"베리타스학원","tel":"031-535-3628","addr":"경기도 포천시 신읍동 116-36번지 2층 203호","indutype":"학원 - 보습학원","category":"study"}]},{"lat":"37.895974329","long":"127.19852137","imageIndex":16,"items":[{"name":"소리나라","tel":"535-5168","addr":"경기도 포천시 신읍동 131-9번지","indutype":"교육서비스 - 학원","category":"study"},{"name":"소리나라피아노교습소","tel":"031-535-5168","addr":"경기도 포천시 신읍동 131-9번지 2층","indutype":"학원 - 예·체능계학원","category":"study"}]},{"lat":"37.895830596","long":"127.19827087","imageIndex":16,"items":[{"name":"수플러스학원","tel":"031-533-7574","addr":"경기도 포천시 신읍동 131-6번지 3층","indutype":"회원제형태 - 학원","category":"study"},{"name":"포천 한국 태권도장","tel":"","addr":"경기도 포천시 신읍동 131-6번지","indutype":"학원 - 예·체능계학원","category":"study"},{"name":"포천한국태권도장","tel":"536-9549","addr":"경기도 포천시 신읍동 131-6번지","indutype":"교육서비스 - 학원","category":"study"},{"name":"포천한국태권도장","tel":"031-536-9549","addr":"경기도 포천시 신읍동 131-6번지","indutype":"학원 - 예·체능계학원","category":"study"}]},{"lat":"37.902970381","long":"127.20101858","imageIndex":16,"items":[{"name":"신포천어린이집[아이행복]","tel":"031-534-1008","addr":"경기도 포천시 신읍동 229-1","indutype":"학원 - 유아원","category":"study"}]},{"lat":"37.895832158","long":"127.19732724","imageIndex":16,"items":[{"name":"아람유치원","tel":"031-535-2357","addr":"경기도 포천시 신읍동 123-4번지","indutype":"학원 - 유치원","category":"study"},{"name":"포천아람어린이집[아이행복]","tel":"031-535-2357","addr":"경기도 포천시 신읍동 123-4번지","indutype":"학원 - 유아원","category":"study"}]},{"lat":"37.895724404","long":"127.19711094","imageIndex":16,"items":[{"name":"아람유치원[아이행복]","tel":"031-535-2357","addr":"경기도 포천시 신읍동 123-7","indutype":"학원 - 유치원","category":"study"}]},{"lat":"37.895940457","long":"127.19721383","imageIndex":16,"items":[{"name":"아름수학교습소","tel":"-","addr":"경기도 포천시 신읍동 131-16번지","indutype":"교육서비스 - 학원","category":"study"},{"name":"아름영어교습소","tel":"-","addr":"경기도 포천시 신읍동 131-16번지","indutype":"교육서비스 - 학원","category":"study"},{"name":"은파피아노음학학원","tel":"031-533-7580","addr":"경기도 포천시 신읍동 131-16번지 대현빌딩","indutype":"학원 - 예·체능계학원","category":"study"},{"name":"은파피아노학원","tel":"-","addr":"경기도 포천시 신읍동 131-16번지","indutype":"교육서비스 - 학원","category":"study"}]},{"lat":"37.893036981","long":"127.19321581","imageIndex":16,"items":[{"name":"아이맘어린이집[아이행복]","tel":"031-541-9717","addr":"경기도 포천시 신읍동 335ㅡ4극동2차스타클래스 105동104호","indutype":"학원 - 유아원","category":"study"}]},{"lat":"37.896556727","long":"127.19499846","imageIndex":16,"items":[{"name":"아트-아이","tel":"536-6713","addr":"경기도 포천시 신읍동 119-5번지","indutype":"교육서비스 - 학원","category":"study"},{"name":"아트-아이(Are-i)미술교습소","tel":"031-536-6713","addr":"경기도 포천시 신읍동 119-5번지","indutype":"학원 - 예·체능계학원","category":"study"},{"name":"월광음악학원","tel":"031-536-7762","addr":"경기도 포천시 신읍동 119-5","indutype":"회원제형태 - 학원","category":"study"},{"name":"월광음악학원","tel":"536-7762","addr":"경기도 포천시 신읍동 119-5번지","indutype":"교육서비스 - 학원","category":"study"}]},{"lat":"37.897607959","long":"127.1967407","imageIndex":16,"items":[{"name":"예쁜손음악학원","tel":"536-7939","addr":"경기도 포천시 신읍동 139-2번지","indutype":"교육서비스 - 학원","category":"study"},{"name":"예쁜손음악학원","tel":"031-536-7939","addr":"경기도 포천시 신읍동 139-2번지","indutype":"학원 - 예·체능계학원","category":"study"}]},{"lat":"37.897049257","long":"127.18555189","imageIndex":16,"items":[{"name":"예원노블키즈어린이집[아이행복]","tel":"031-533-2700","addr":"경기도 포천시 신읍동 515번지","indutype":"학원 - 유아원","category":"study"}]},{"lat":"37.89424516","long":"127.19263911","imageIndex":16,"items":[{"name":"오지영피아노교습소","tel":"031-532-5683","addr":"경기도 포천시 신읍동 700번지 포천심읍휴먼시아아이파크단지 상가 103호","indutype":"학원 - 예·체능계학원","category":"study"}]},{"lat":"37.89586123","long":"127.20149976","imageIndex":16,"items":[{"name":"우리독서실","tel":"031-535-2549","addr":"경기도 포천시 신읍동 35-21/2,3층","indutype":"학원 - 독서실","category":"study"}]},{"lat":"37.900195522","long":"127.20629807","imageIndex":16,"items":[{"name":"운정무용학원","tel":"031-535-2122","addr":"경기도 포천시 신읍동 202-20번지","indutype":"회원제형태 - 학원","category":"study"},{"name":"포천회계컴퓨터학원","tel":"031-532-8552","addr":"경기도 포천시 신읍동 202-20번지","indutype":"회원제형태 - 학원","category":"study"}]},{"lat":"37.89689094","long":"127.19446498","imageIndex":16,"items":[{"name":"원스터디학원","tel":"533-4556","addr":"경기도 포천시 신읍동 295-1번지","indutype":"교육서비스 - 학원","category":"study"},{"name":"윈스터디학원","tel":"031-533-4556","addr":"경기도 포천시 신읍동 295-1번지 3층","indutype":"학원 - 보습학원","category":"study"}]},{"lat":"37.901499221","long":"127.20258369","imageIndex":16,"items":[{"name":"쟈니어린이집[아이행복]","tel":"031-535-4242","addr":"경기도 포천시 신읍동 220-4번지 82/7","indutype":"학원 - 유아원","category":"study"}]},{"lat":"37.897247982","long":"127.196501","imageIndex":16,"items":[{"name":"천사음악학원","tel":"534-1188","addr":"경기도 포천시 신읍동 142-25번지","indutype":"교육서비스 - 학원","category":"study"}]},{"lat":"37.896217031","long":"127.19885171","imageIndex":16,"items":[{"name":"천사피아노","tel":"031-535-3019","addr":"경기도 포천시 신읍동 135-3","indutype":"회원제형태 - 학원","category":"study"},{"name":"튼튼영어마스터클럽어학원","tel":"031-534-0542","addr":"경기도 포천시 신읍동 135-3번지","indutype":"회원제형태 - 학원","category":"study"}]},{"lat":"37.894860936","long":"127.19624464","imageIndex":16,"items":[{"name":"캠스학원","tel":"031-536-2107","addr":"경기도 포천시 신읍동 112-15번지 2층","indutype":"학원 - 보습학원","category":"study"}]},{"lat":"37.898362665","long":"127.20335971","imageIndex":16,"items":[{"name":"케이(K)뷰티아트","tel":"031-535-7735","addr":"경기도 포천시 신읍동 191-33번지 2층","indutype":"학원 - 기능학원","category":"study"}]},{"lat":"37.89596679","long":"127.19763456","imageIndex":16,"items":[{"name":"키즈ESL영어학원","tel":"031-531-1155","addr":"경기도 포천시 신읍동 131-11번지","indutype":"학원 - 외국어학원","category":"study"},{"name":"키즈ESL영어학원","tel":"531-1155","addr":"경기도 포천시 신읍동 131-11번지","indutype":"교육서비스 - 학원","category":"study"}]},{"lat":"37.892882975","long":"127.19921804","imageIndex":16,"items":[{"name":"탑독서실","tel":"031-533-0014","addr":"경기도 포천시 신읍동 72-7번지 문암빌딩 5층","indutype":"학원 - 독서실","category":"study"}]},{"lat":"37.901389757","long":"127.20337929","imageIndex":16,"items":[{"name":"투탑학원","tel":"031-533-1337","addr":"경기도 포천시 신읍동 219-28번지 2층","indutype":"학원 - 보습학원","category":"study"},{"name":"투탑학원","tel":"533-1337","addr":"경기도 포천시 신읍동 219-28번지","indutype":"교육서비스 - 학원","category":"study"}]},{"lat":"37.896191514","long":"127.19794212","imageIndex":16,"items":[{"name":"튼튼영어마스터클럽어학원","tel":"534-0542","addr":"경기도 포천시 신읍동 135-20번지","indutype":"교육서비스 - 학원","category":"study"}]},{"lat":"37.893272744","long":"127.19227282","imageIndex":16,"items":[{"name":"퍼니주주 잉글리쉬","tel":"070-4210-5333","addr":"경기도 포천시 신읍동 698번지 포천극동2차스타클래스아파트 상가동 104호 105호","indutype":"교육서비스 - 학원","category":"study"},{"name":"퍼니주주잉글리쉬","tel":"070-4210-5333","addr":"경기도 포천시 신읍동 698번지 포천극동2차스타클래스 상가동 104,105호","indutype":"회원제형태 - 학원","category":"study"}]},{"lat":"37.895696483","long":"127.20302277","imageIndex":16,"items":[{"name":"포천간호학원","tel":"031-534-3626","addr":"경기도 포천시 신읍동 27-20번지 3층","indutype":"회원제형태 - 학원","category":"study"}]},{"lat":"37.892162081","long":"127.19930707","imageIndex":16,"items":[{"name":"포천검도장","tel":"031-536-0953","addr":"경기도 포천시 신읍동 71-7번지","indutype":"학원 - 예·체능계학원","category":"study"}]},{"lat":"37.892273518","long":"127.19177004","imageIndex":16,"items":[{"name":"포천고등학교","tel":"031-535-1603","addr":"경기도 포천시 신읍동 345번지 포천고등학교","indutype":"학원 - 초중고교육기관","category":"study"},{"name":"포천고등학교_수업료","tel":"031-535-1603","addr":"경기도 포천시 신읍동 345번지 포천고등학교","indutype":"학원 - 초중고교육기관","category":"study"}]},{"lat":"37.894800106","long":"127.20032591","imageIndex":16,"items":[{"name":"포천시청어린이집[아이행복]","tel":"031-531-8844","addr":"경기도 포천시 신읍동 58-2번지","indutype":"학원 - 유아원","category":"study"}]},{"lat":"37.89621739","long":"127.1986357","imageIndex":16,"items":[{"name":"포천어린이집[아이행복]","tel":"031-535-3082","addr":"경기도 포천시 신읍동 135-17","indutype":"학원 - 유아원","category":"study"}]},{"lat":"37.89649794","long":"127.20324096","imageIndex":16,"items":[{"name":"포천요양보호사교육원","tel":"031-532-2588","addr":"경기도 포천시 신읍동 23-4유림회관1층","indutype":"회원제형태 - 학원","category":"study"}]},{"lat":"37.896805291","long":"127.19725021","imageIndex":16,"items":[{"name":"포천초등학교","tel":"","addr":"경기도 포천시 신읍동 133번지 포천초등학교","indutype":"학원 - 초중고교육기관","category":"study"},{"name":"포천초등학교_수업료","tel":"","addr":"경기도 포천시 신읍동 133번지 포천초등학교","indutype":"학원 - 초중고교육기관","category":"study"},{"name":"포천초등학교병설유치원[아이행복]","tel":"031-536-2482","addr":"경기도 포천시 신읍동 133번지 포천초등학교","indutype":"학원 - 유치원","category":"study"}]},{"lat":"37.894974016","long":"127.19868925","imageIndex":16,"items":[{"name":"하늘피아노학원","tel":"031-535-5496","addr":"경기도 포천시 신읍동 127-6번지","indutype":"학원 - 예·체능계학원","category":"study"}]},{"lat":"37.897217523","long":"127.19307877","imageIndex":16,"items":[{"name":"한정희피아노","tel":"531-3991","addr":"경기도 포천시 신읍동 295-15번지","indutype":"교육서비스 - 학원","category":"study"},{"name":"한정희피아노학원","tel":"031-531-3991","addr":"경기도 포천시 신읍동 295-15번지","indutype":"회원제형태 - 학원","category":"study"}]},{"lat":"37.90010444","long":"127.20160212","imageIndex":16,"items":[{"name":"해동검도포천본관","tel":"031-532-5739","addr":"경기도 포천시 신읍동 179-15번지 고려빌딩 지하해동검도","indutype":"회원제형태 - 학원","category":"study"}]},{"lat":"37.902552899","long":"127.20282531","imageIndex":16,"items":[{"name":"현대종합학원","tel":"535-8489","addr":"경기도 포천시 신읍동 223-4번지","indutype":"교육서비스 - 학원","category":"study"},{"name":"현대종합학원","tel":"535-8489","addr":"경기도 포천시 신읍동 223-4번지","indutype":"교육서비스 - 학원","category":"study"},{"name":"현대종합학원","tel":"031-535-8489","addr":"경기도 포천시 신읍동 223-4번지","indutype":"학원 - 기타 교육기관","category":"study"},{"name":"현대종합학원","tel":"031-535-8489","addr":"경기도 포천시 신읍동 223-4번지 2층","indutype":"학원 - 예·체능계학원","category":"study"}]},{"lat":"37.89664005","long":"127.19910296","imageIndex":16,"items":[{"name":"황금발태권도","tel":"","addr":"경기도 포천시 신읍동 136-17번지","indutype":"교육서비스 - 학원","category":"study"},{"name":"황금발태권도","tel":"031-535-0825","addr":"경기도 포천시 신읍동 136-17번지 2층","indutype":"학원 - 예·체능계학원","category":"study"}]}]