[{"lat":"37.954349836","long":"127.24016054","imageIndex":17,"items":[{"name":"경윤시스템","tel":"031-531-9161","addr":"경기도 포천시 신북면 만세교리 264-3번지","indutype":"전기제품 - 기타전기제품","category":"other"}]},{"lat":"37.948768859","long":"127.23779888","imageIndex":17,"items":[{"name":"경화상사","tel":"031-834-1443","addr":"경기도 포천시 신북면 만세교리 325번지 2층","indutype":"용역 서비스 - 기타용역서비스","category":"other"},{"name":"진흥상사","tel":"031-531-0948","addr":"경기도 포천시 신북면 만세교리 325번지","indutype":"기타 - 기계공구","category":"other"}]},{"lat":"37.957436058","long":"127.24210482","imageIndex":17,"items":[{"name":"광진건설산업","tel":"031-535-0490","addr":"경기도 포천시 신북면 만세교리 220-10번지","indutype":"용역 서비스 - 기타용역서비스","category":"other"},{"name":"광진상사","tel":"535-0490","addr":"경기도 포천시 신북면 만세교리 220-10번지","indutype":"소매업 - 안전용품","category":"other"}]},{"lat":"37.959154672","long":"127.24315724","imageIndex":17,"items":[{"name":"금강토시","tel":"031-534-0695","addr":"경기도 포천시 신북면 만세교리 238번지","indutype":"문화.취미 - 골동품점","category":"other"}]},{"lat":"37.953962786","long":"127.23998862","imageIndex":17,"items":[{"name":"대성 ENG","tel":"534-2759","addr":"경기도 포천시 신북면 만세교리 264-8번지","indutype":"도소매 - 공구 등","category":"other"},{"name":"대성ENG","tel":"070-8811-6088","addr":"경기도 포천시 신북면 만세교리 264-8번지","indutype":"기타 - 기계공구","category":"other"}]},{"lat":"37.958604091","long":"127.24365611","imageIndex":17,"items":[{"name":"만세종합주방그룻","tel":"031-534-5250","addr":"경기도 포천시 신북면 만세교리 219-9번지","indutype":"기타 - 기타 전문점","category":"other"},{"name":"만세종합주방그릇","tel":"534-5250","addr":"경기도 포천시 신북면 만세교리 219-9번지","indutype":"도소매 - 주방가구","category":"other"}]},{"lat":"37.964853757","long":"127.24932085","imageIndex":17,"items":[{"name":"만세편의점","tel":"534-5347","addr":"경기도 포천시 신북면 만세교리 48-2번지","indutype":"소매업 - 잡화","category":"other"},{"name":"만세편의점","tel":"031-534-8411","addr":"경기도 포천시 신북면 만세교리 48-2번지","indutype":"유통업 영리 - 편 의 점","category":"other"}]},{"lat":"37.954549229","long":"127.23956952","imageIndex":17,"items":[{"name":"월드종합","tel":"031-534-7800","addr":"경기도 포천시 신북면 만세교리 365번지","indutype":"건축자재 - 목재·석재·철물","category":"other"}]},{"lat":"37.950019039","long":"127.23884959","imageIndex":17,"items":[{"name":"이마트24포천만세교지점","tel":"-","addr":"경기도 포천시 신북면 만세교리 328-3번지 가동","indutype":"편의점 - 잡화","category":"other"}]},{"lat":"37.957987588","long":"127.24554296","imageIndex":17,"items":[{"name":"제일파트너","tel":"02-466-2812","addr":"경기도 포천시 신북면 만세교리 219-22","indutype":"직물 - 침구·수예점","category":"other"}]},{"lat":"37.948800331","long":"127.24007443","imageIndex":17,"items":[{"name":"주식회사 한마당","tel":"031-534-9601","addr":"경기도 포천시 신북면 만세교리 314-8번지","indutype":"가구 - 일반가구","category":"other"}]},{"lat":"37.960186968","long":"127.24499262","imageIndex":17,"items":[{"name":"진흥판넬","tel":"031-534-5621","addr":"경기도 포천시 신북면 만세교리 198-2","indutype":"건축자재 - 기타건축자재","category":"other"},{"name":"포천황토마을","tel":"031-531-9406","addr":"경기도 포천시 신북면 만세교리 198-2번지","indutype":"건축자재 - 기타건축자재","category":"other"}]},{"lat":"37.958181917","long":"127.24304029","imageIndex":17,"items":[{"name":"포천페인트총판점","tel":"533-0472","addr":"경기도 포천시 신북면 만세교리 220-3번지","indutype":"도소매 - 페인트","category":"other"}]},{"lat":"37.952271785","long":"127.23862924","imageIndex":17,"items":[{"name":"한성아그로텍","tel":"031-534-6867","addr":"경기도 포천시 신북면 만세교리 361-2번지","indutype":"농업 - 기타농업관련","category":"other"}]},{"lat":"37.956824683","long":"127.2414884","imageIndex":17,"items":[{"name":"환경그린텍","tel":"031-534-5342","addr":"경기도 포천시 신북면 만세교리 235","indutype":"기타 - 기타 전문점","category":"other"}]}]