[{"lat":"37.235464148","long":"127.19329702","imageIndex":4,"items":[{"name":"(주)설국 / 바다소리","tel":"031-323-1218","addr":"경기도 용인시 처인구 역북동 446-14번지","indutype":"일반휴게음식 - 일식·회집","category":"restaurant"}]},{"lat":"37.229137866","long":"127.18826676","imageIndex":4,"items":[{"name":"153포인츠부대찌개명지대점","tel":"031-689-3153","addr":"경기도 용인시 처인구 역북동 598-3번지","indutype":"일반휴게음식 - 일반한식","category":"restaurant"}]},{"lat":"37.232744042","long":"127.18695714","imageIndex":4,"items":[{"name":"19티","tel":"031-334-0708","addr":"경기도 용인시 처인구 역북동 749번지 111호","indutype":"일반휴게음식 - 서양음식","category":"restaurant"},{"name":"고기여행","tel":"031-1899-3272","addr":"경기도 용인시 처인구 역북동 749번지 2층 202호","indutype":"일반휴게음식 - 일반한식","category":"restaurant"},{"name":"노랑통닭 역북점","tel":"","addr":"경기도 용인시 처인구 역북동 749번지 102호","indutype":"일반휴게음식 - 스넥","category":"restaurant"},{"name":"더가맥","tel":"","addr":"경기도 용인시 처인구 역북동 749번지 파스텔시티 3층 302호","indutype":"일반휴게음식 - 일반한식","category":"restaurant"},{"name":"명가옛날통닭","tel":"031-333-4696","addr":"경기도 용인시 처인구 역북동 749번지 파스텔시티 1층 110호","indutype":"일반휴게음식 - 스넥","category":"restaurant"},{"name":"몬스터슬라임","tel":"031-339-1002","addr":"경기도 용인시 처인구 역북동 749번지 6층 605호","indutype":"일반휴게음식 - 서양음식","category":"restaurant"},{"name":"브롱스용인명지대점","tel":"031-336-2030","addr":"경기도 용인시 처인구 역북동 749번지 2층 203호","indutype":"일반휴게음식 - 주점","category":"restaurant"},{"name":"월남국수역북점","tel":"","addr":"경기도 용인시 처인구 역북동 749번지 105호","indutype":"일반휴게음식 - 서양음식","category":"restaurant"},{"name":"이디야용인역북점","tel":"031-335-4867","addr":"경기도 용인시 처인구 역북동 749번지 1층 104호","indutype":"일반휴게음식 - 서양음식","category":"restaurant"},{"name":"컴포즈커피명지대점","tel":"","addr":"경기도 용인시 처인구 역북동 749번지 파스텔시티 109호","indutype":"일반휴게음식 - 서양음식","category":"restaurant"},{"name":"호탕","tel":"031-339-5333","addr":"경기도 용인시 처인구 역북동 749번지 2층 204호","indutype":"일반휴게음식 - 일반한식","category":"restaurant"}]},{"lat":"37.229770679","long":"127.18692738","imageIndex":4,"items":[{"name":"249커피 (coffee)","tel":"","addr":"경기도 용인시 처인구 역북동 765-6번지 101호","indutype":"일반휴게음식 - 서양음식","category":"restaurant"}]},{"lat":"37.23088678","long":"127.18768508","imageIndex":4,"items":[{"name":"2도비어역북점","tel":"031-323-2008","addr":"경기도 용인시 처인구 역북동 760번지 1층 102호","indutype":"일반휴게음식 - 주점","category":"restaurant"},{"name":"감성주막","tel":"","addr":"경기도 용인시 처인구 역북동 760번지 103호","indutype":"일반휴게음식 - 주점","category":"restaurant"},{"name":"더 참오브주","tel":"","addr":"경기도 용인시 처인구 역북동 760번지 2층 201호","indutype":"일반휴게음식 - 주점","category":"restaurant"},{"name":"도원양꼬치","tel":"031-339-2666","addr":"경기도 용인시 처인구 역북동 760번지 201호","indutype":"일반휴게음식 - 일반한식","category":"restaurant"},{"name":"메가MGC커피 역북점","tel":"031-322-3977","addr":"경기도 용인시 처인구 역북동 760번지 1층 111호","indutype":"일반휴게음식 - 서양음식","category":"restaurant"},{"name":"배부장찌개가","tel":"031-905-5293","addr":"경기도 용인시 처인구 역북동 760번지 115,116호","indutype":"일반휴게음식 - 일반한식","category":"restaurant"},{"name":"비엔나커피하우스 용인역북점","tel":"031-322-1683","addr":"경기도 용인시 처인구 역북동 760번지 107,203호","indutype":"일반휴게음식 - 서양음식","category":"restaurant"},{"name":"수경수제만두찐빵","tel":"031-335-8585","addr":"경기도 용인시 처인구 역북동 760번지 1층 104호","indutype":"일반휴게음식 - 일반한식","category":"restaurant"},{"name":"아재불닭발&옛날통닭","tel":"031-323-2213","addr":"경기도 용인시 처인구 역북동 760번지","indutype":"일반휴게음식 - 스넥","category":"restaurant"},{"name":"엄마손김밥","tel":"031-321-8856","addr":"경기도 용인시 처인구 역북동 760번지 1층 106호","indutype":"일반휴게음식 - 스넥","category":"restaurant"},{"name":"커피랑도서관용인역북점","tel":"070-7782-1140","addr":"경기도 용인시 처인구 역북동 760번지 4층 407호","indutype":"일반휴게음식 - 서양음식","category":"restaurant"},{"name":"피자스쿨용인역북점","tel":"031-339-0900","addr":"경기도 용인시 처인구 역북동 760번지 113호","indutype":"일반휴게음식 - 서양음식","category":"restaurant"},{"name":"하남돼지집 용인역북점","tel":"","addr":"경기도 용인시 처인구 역북동 760번지 1층 108호 109호","indutype":"일반휴게음식 - 일반한식","category":"restaurant"},{"name":"화덕1979","tel":"031-339-1979","addr":"경기도 용인시 처인구 역북동 760번지 206호","indutype":"일반휴게음식 - 서양음식","category":"restaurant"}]},{"lat":"37.232248598","long":"127.18687706","imageIndex":4,"items":[{"name":"60계용인역북점","tel":"","addr":"경기도 용인시 처인구 역북동 752번지 1층 102호","indutype":"일반휴게음식 - 스넥","category":"restaurant"},{"name":"드래곤짬뽕Z","tel":"031-336-3418","addr":"경기도 용인시 처인구 역북동 752번지 연세프라자 201호","indutype":"일반휴게음식 - 일반한식","category":"restaurant"},{"name":"맘드림찬","tel":"031-5121-2391","addr":"경기도 용인시 처인구 역북동 752번지 1층 110호","indutype":"일반휴게음식 - 일반한식","category":"restaurant"},{"name":"빌리엔젤","tel":"031-339-9809","addr":"경기도 용인시 처인구 역북동 752번지 111호112호","indutype":"일반휴게음식 - 서양음식","category":"restaurant"},{"name":"신통치킨 용인명지대점","tel":"031-339-0626","addr":"경기도 용인시 처인구 역북동 752번지 109호","indutype":"일반휴게음식 - 스넥","category":"restaurant"},{"name":"육품참숯화로구이","tel":"031-332-9792","addr":"경기도 용인시 처인구 역북동 752번지 연세프라자 2층 202호","indutype":"일반휴게음식 - 일반한식","category":"restaurant"},{"name":"펀비어킹역북지구점","tel":"031-323-1050","addr":"경기도 용인시 처인구 역북동 752번지 2층 203호","indutype":"일반휴게음식 - 서양음식","category":"restaurant"},{"name":"행복한식부페","tel":"031-333-3633","addr":"경기도 용인시 처인구 역북동 752번지 204,205호","indutype":"일반휴게음식 - 일반한식","category":"restaurant"}]},{"lat":"37.238054293","long":"127.19067773","imageIndex":4,"items":[{"name":"88포차","tel":"031-334-8992","addr":"경기도 용인시 처인구 역북동 414-22번지 2층","indutype":"일반휴게음식 - 일반한식","category":"restaurant"},{"name":"치킨두목","tel":"031-334-0049","addr":"경기도 용인시 처인구 역북동 414-22번지 2층","indutype":"일반휴게음식 - 일반한식","category":"restaurant"}]},{"lat":"37.241051643","long":"127.19815716","imageIndex":4,"items":[{"name":"Pishon똥커피핸드드립커피전문점&편집샵","tel":"031-338-8684","addr":"경기도 용인시 처인구 역북동 271-10번지 1층","indutype":"일반휴게음식 - 서양음식","category":"restaurant"},{"name":"커피비손(CoffeePishon)","tel":"031-338-8684","addr":"경기도 용인시 처인구 역북동 271-10번지 1층","indutype":"일반휴게음식 - 서양음식","category":"restaurant"}]},{"lat":"37.230969556","long":"127.18660351","imageIndex":4,"items":[{"name":"가라와라국물닭발","tel":"031-111-1111","addr":"경기도 용인시 처인구 역북동 755-1번지 2층 204호","indutype":"일반휴게음식 - 일반한식","category":"restaurant"},{"name":"라라랜드키즈카페","tel":"070-7856-0110","addr":"경기도 용인시 처인구 역북동 755-1번지 골든프라자2 3층 302호,303호","indutype":"일반휴게음식 - 서양음식","category":"restaurant"},{"name":"보고싶다용인역북점","tel":"","addr":"경기도 용인시 처인구 역북동 755-1번지 2층 203호","indutype":"일반휴게음식 - 주점","category":"restaurant"},{"name":"비앤비인개러지(B&B in Garage)","tel":"","addr":"경기도 용인시 처인구 역북동 755-1번지 골든프라자2 1층 111호","indutype":"일반휴게음식 - 서양음식","category":"restaurant"},{"name":"신참떡볶이","tel":"031-333-6049","addr":"경기도 용인시 처인구 역북동 755-1번지 103호","indutype":"일반휴게음식 - 일반한식","category":"restaurant"},{"name":"썸ing","tel":"","addr":"경기도 용인시 처인구 역북동 755-1번지 골든프라자II 1층 10호","indutype":"일반휴게음식 - 주점","category":"restaurant"},{"name":"아비꼬(용인역북점)","tel":"031-338-2253","addr":"경기도 용인시 처인구 역북동 755-1번지 104호","indutype":"일반휴게음식 - 일식·회집","category":"restaurant"},{"name":"오쭈용인역북점","tel":"031-333-0513","addr":"경기도 용인시 처인구 역북동 755-1번지 2층 205호","indutype":"일반휴게음식 - 일반한식","category":"restaurant"},{"name":"용범이네인계동껍데기용인역북점","tel":"","addr":"경기도 용인시 처인구 역북동 755-1번지 105호","indutype":"일반휴게음식 - 일반한식","category":"restaurant"},{"name":"육회지존용인역북점","tel":"031-333-6566","addr":"경기도 용인시 처인구 역북동 755-1번지 1층 112호","indutype":"일반휴게음식 - 일반한식","category":"restaurant"},{"name":"이태리부엌","tel":"070-2925-8710","addr":"경기도 용인시 처인구 역북동 755-1번지 골든프라자2 2층 201호","indutype":"일반휴게음식 - 일반한식","category":"restaurant"},{"name":"짝태&노가리","tel":"","addr":"경기도 용인시 처인구 역북동 755-1번지 108호","indutype":"일반휴게음식 - 주점","category":"restaurant"},{"name":"칠성식당","tel":"031-322-7292","addr":"경기도 용인시 처인구 역북동 755-1번지 2층 202호","indutype":"일반휴게음식 - 일반한식","category":"restaurant"},{"name":"플레이어스(PLAYUS)","tel":"031-321-2315","addr":"경기도 용인시 처인구 역북동 755-1번지 골든프라자2 306호","indutype":"일반휴게음식 - 서양음식","category":"restaurant"},{"name":"홀닭반한","tel":"031-335-0101","addr":"경기도 용인시 처인구 역북동 755-1번지 102호","indutype":"일반휴게음식 - 일반한식","category":"restaurant"}]},{"lat":"37.240717817","long":"127.19842678","imageIndex":4,"items":[{"name":"가마치통닭역북점","tel":"031-332-9911","addr":"경기도 용인시 처인구 역북동 271-25번지 1층","indutype":"일반휴게음식 - 스넥","category":"restaurant"}]},{"lat":"37.237298908","long":"127.18974049","imageIndex":4,"items":[{"name":"가온누리","tel":"031-328-8744","addr":"경기도 용인시 처인구 역북동 425-7번지 2층","indutype":"일반휴게음식 - 일반한식","category":"restaurant"},{"name":"비비큐치킨","tel":"031-321-6121","addr":"경기도 용인시 처인구 역북동 425-7번지 1층","indutype":"일반휴게음식 - 스넥","category":"restaurant"},{"name":"신길양꼬치","tel":"050-5489-4189","addr":"경기도 용인시 처인구 역북동 425-7번지 1층","indutype":"일반휴게음식 - 일반한식","category":"restaurant"},{"name":"홍춘천명지대역점","tel":"031-336-4688","addr":"경기도 용인시 처인구 역북동 425-7번지 1층 2호","indutype":"일반휴게음식 - 일반한식","category":"restaurant"}]},{"lat":"37.233966272","long":"127.18898852","imageIndex":4,"items":[{"name":"갈풍집","tel":"031-335-1301","addr":"경기도 용인시 처인구 역북동 723-1번지 1층","indutype":"일반휴게음식 - 일반한식","category":"restaurant"}]},{"lat":"37.236911644","long":"127.18962684","imageIndex":4,"items":[{"name":"강릉교동짬뽕","tel":"031-334-8885","addr":"경기도 용인시 처인구 역북동 428번지 1층","indutype":"일반휴게음식 - 중국식","category":"restaurant"},{"name":"부쳐부쳐","tel":"031-336-3311","addr":"경기도 용인시 처인구 역북동 428번지 1층","indutype":"일반휴게음식 - 일반한식","category":"restaurant"},{"name":"전곱","tel":"031-323-2984","addr":"경기도 용인시 처인구 역북동 428번지","indutype":"일반휴게음식 - 일반한식","category":"restaurant"}]},{"lat":"37.243301176","long":"127.18885368","imageIndex":4,"items":[{"name":"강원도","tel":"031-333-8881","addr":"경기도 용인시 처인구 역북동 313-8번지 현창빌딩 1층","indutype":"일반휴게음식 - 일식·회집","category":"restaurant"},{"name":"성산숯불갈비","tel":"031-321-2208","addr":"경기도 용인시 처인구 역북동 313-8번지 현창빌딩","indutype":"일반휴게음식 - 일반한식","category":"restaurant"}]},{"lat":"37.236604773","long":"127.19557629","imageIndex":4,"items":[{"name":"강원도토속음식","tel":"031-338-0882","addr":"경기도 용인시 처인구 역북동 482-6 5","indutype":"일반휴게음식 - 일반한식","category":"restaurant"},{"name":"닭을사랑하는마을","tel":"031-321-1044","addr":"경기도 용인시 처인구 역북동 482-6번지","indutype":"일반휴게음식 - 일반한식","category":"restaurant"},{"name":"예지현","tel":"031-334-0986","addr":"경기도 용인시 처인구 역북동 482-6번지","indutype":"일반휴게음식 - 중국식","category":"restaurant"},{"name":"육개장군.보쌈군","tel":"031-323-5436","addr":"경기도 용인시 처인구 역북동 482-6번지 1층","indutype":"일반휴게음식 - 일반한식","category":"restaurant"},{"name":"포항물회","tel":"031-332-9825","addr":"경기도 용인시 처인구 역북동 482-6번지","indutype":"일반휴게음식 - 일식·회집","category":"restaurant"}]},{"lat":"37.228886968","long":"127.18737596","imageIndex":4,"items":[{"name":"강한남자들의고기집","tel":"031-334-5599","addr":"경기도 용인시 처인구 역북동 777-5번지 1층","indutype":"일반휴게음식 - 일반한식","category":"restaurant"}]},{"lat":"37.230301111","long":"127.18768365","imageIndex":4,"items":[{"name":"강한남자들의맥주집","tel":"","addr":"경기도 용인시 처인구 역북동 776번지 102호","indutype":"일반휴게음식 - 일반한식","category":"restaurant"}]},{"lat":"37.226164713","long":"127.18810173","imageIndex":4,"items":[{"name":"갯마을조개구이","tel":"031-339-9239","addr":"경기도 용인시 처인구 역북동 604-7번지 1층","indutype":"일반휴게음식 - 일반한식","category":"restaurant"},{"name":"한솥도시락","tel":"031-334-1181","addr":"경기도 용인시 처인구 역북동 604-7번지 103호","indutype":"일반휴게음식 - 일반한식","category":"restaurant"}]},{"lat":"37.23102276","long":"127.18715579","imageIndex":4,"items":[{"name":"경원빈대떡","tel":"031-322-1005","addr":"경기도 용인시 처인구 역북동 757번지 1층 115호","indutype":"일반휴게음식 - 일반한식","category":"restaurant"},{"name":"계양연화","tel":"","addr":"경기도 용인시 처인구 역북동 757번지 113호","indutype":"일반휴게음식 - 일반한식","category":"restaurant"},{"name":"고칸 용인점","tel":"031-323-0098","addr":"경기도 용인시 처인구 역북동 757번지 108호","indutype":"일반휴게음식 - 일식·회집","category":"restaurant"},{"name":"곱창고/주식회사 곱창고용인명지대점","tel":"031-321-9192","addr":"경기도 용인시 처인구 역북동 757번지 110,111호","indutype":"일반휴게음식 - 일반한식","category":"restaurant"},{"name":"곱창주점","tel":"","addr":"경기도 용인시 처인구 역북동 757번지 121호","indutype":"일반휴게음식 - 일반한식","category":"restaurant"},{"name":"낭만오뎅","tel":"","addr":"경기도 용인시 처인구 역북동 757번지 202호","indutype":"일반휴게음식 - 일반한식","category":"restaurant"},{"name":"다니식당","tel":"","addr":"경기도 용인시 처인구 역북동 757번지 1층 116호","indutype":"일반휴게음식 - 일반한식","category":"restaurant"},{"name":"버드나무","tel":"031-338-2056","addr":"경기도 용인시 처인구 역북동 757번지 204호","indutype":"일반휴게음식 - 일반한식","category":"restaurant"},{"name":"보드람치킨용인명지대점","tel":"031-334-9289","addr":"경기도 용인시 처인구 역북동 757번지 1층 101호","indutype":"일반휴게음식 - 스넥","category":"restaurant"},{"name":"생활맥주","tel":"031-333-5469","addr":"경기도 용인시 처인구 역북동 757번지 1층 120호","indutype":"일반휴게음식 - 주점","category":"restaurant"},{"name":"선술집모로미","tel":"031-339-1597","addr":"경기도 용인시 처인구 역북동 757번지 1층 106호","indutype":"일반휴게음식 - 주점","category":"restaurant"},{"name":"엠디씨(M.D.C)치킨","tel":"031-335-9295","addr":"경기도 용인시 처인구 역북동 757번지 1층 118호","indutype":"일반휴게음식 - 스넥","category":"restaurant"},{"name":"정통집 역북명지대점","tel":"","addr":"경기도 용인시 처인구 역북동 757번지 105호","indutype":"일반휴게음식 - 일반한식","category":"restaurant"},{"name":"집밥한식식당","tel":"031-334-5520","addr":"경기도 용인시 처인구 역북동 757번지 JS타워 117호","indutype":"일반휴게음식 - 일반한식","category":"restaurant"},{"name":"타블도트용인명지대점","tel":"031-0000-0000","addr":"경기도 용인시 처인구 역북동 757번지 122,123호","indutype":"일반휴게음식 - 서양음식","category":"restaurant"},{"name":"탄야","tel":"031-333-4502","addr":"경기도 용인시 처인구 역북동 757번지 1층 104호","indutype":"일반휴게음식 - 일반한식","category":"restaurant"},{"name":"포차천국용인명지대점","tel":"031-332-1090","addr":"경기도 용인시 처인구 역북동 757번지 1층 112호","indutype":"일반휴게음식 - 주점","category":"restaurant"},{"name":"프래디컴퍼니","tel":"","addr":"경기도 용인시 처인구 역북동 757번지 1층 119호","indutype":"일반휴게음식 - 서양음식","category":"restaurant"},{"name":"휘카페용인점","tel":"","addr":"경기도 용인시 처인구 역북동 757번지 109호","indutype":"일반휴게음식 - 서양음식","category":"restaurant"}]},{"lat":"37.232994591","long":"127.18807336","imageIndex":4,"items":[{"name":"계탄집","tel":"031-338-1044","addr":"경기도 용인시 처인구 역북동 748-2번지 110호","indutype":"일반휴게음식 - 일반한식","category":"restaurant"},{"name":"고피자 용인역북점","tel":"","addr":"경기도 용인시 처인구 역북동 748-2번지 1층 103호","indutype":"일반휴게음식 - 서양음식","category":"restaurant"},{"name":"공차코리아(용인역북점)","tel":"","addr":"경기도 용인시 처인구 역북동 748-2번지 디엠씨타워 1층 101,102호","indutype":"일반휴게음식 - 서양음식","category":"restaurant"},{"name":"맘스터치(용인역북점)","tel":"031-333-0220","addr":"경기도 용인시 처인구 역북동 748-2번지 1층 105호","indutype":"일반휴게음식 - 서양음식","category":"restaurant"},{"name":"매코만갈비찜&부대찌개","tel":"031-335-0903","addr":"경기도 용인시 처인구 역북동 748-2번지 1층 108호","indutype":"일반휴게음식 - 일반한식","category":"restaurant"},{"name":"북촌손만두 역북점","tel":"031-338-7222","addr":"경기도 용인시 처인구 역북동 748-2번지 디엠씨타워 1층 107호","indutype":"일반휴게음식 - 일반한식","category":"restaurant"},{"name":"피에스타2","tel":"031-322-0988","addr":"경기도 용인시 처인구 역북동 748-2번지 역북DMC타워 2층 205호","indutype":"일반휴게음식 - 일반한식","category":"restaurant"},{"name":"한뚝수육국밥","tel":"02-1111-1111","addr":"경기도 용인시 처인구 역북동 748-2번지 2동 202호","indutype":"일반휴게음식 - 일반한식","category":"restaurant"}]},{"lat":"37.231769543","long":"127.18784499","imageIndex":4,"items":[{"name":"고기원칙 용인역북점","tel":"031-0000-0000","addr":"경기도 용인시 처인구 역북동 759번지 1층","indutype":"일반휴게음식 - 일반한식","category":"restaurant"},{"name":"꼬꼬아찌 역북명지대점","tel":"031-526-7642","addr":"경기도 용인시 처인구 역북동 759번지 104호","indutype":"일반휴게음식 - 일반한식","category":"restaurant"},{"name":"도쿄술집","tel":"031-333-2290","addr":"경기도 용인시 처인구 역북동 759번지 용인H탑 2층 205호","indutype":"일반휴게음식 - 주점","category":"restaurant"},{"name":"비어첸용인역북점","tel":"031-333-3345","addr":"경기도 용인시 처인구 역북동 759번지 204,203호일부","indutype":"일반휴게음식 - 주점","category":"restaurant"},{"name":"양신콩국 용인역북점","tel":"031-339-3347","addr":"경기도 용인시 처인구 역북동 759번지 108호","indutype":"일반휴게음식 - 일반한식","category":"restaurant"},{"name":"연안식당 용인역북점","tel":"031-338-9599","addr":"경기도 용인시 처인구 역북동 759번지 용인H탑 107,108호","indutype":"일반휴게음식 - 일반한식","category":"restaurant"},{"name":"우주라이크커피 명지대점","tel":"","addr":"경기도 용인시 처인구 역북동 759번지","indutype":"일반휴게음식 - 서양음식","category":"restaurant"},{"name":"육차돌 용인역북점","tel":"031-323-3346","addr":"경기도 용인시 처인구 역북동 759번지 2층 201,202,203(일부)호","indutype":"일반휴게음식 - 일반한식","category":"restaurant"},{"name":"홍루이젠역북점","tel":"031-333-7083","addr":"경기도 용인시 처인구 역북동 759번지 1층 110호","indutype":"일반휴게음식 - 일반한식","category":"restaurant"}]},{"lat":"37.231185715","long":"127.18666037","imageIndex":4,"items":[{"name":"고래포차","tel":"","addr":"경기도 용인시 처인구 역북동 755번지 201호","indutype":"일반휴게음식 - 주점","category":"restaurant"},{"name":"더짬뽕","tel":"031-321-5665","addr":"경기도 용인시 처인구 역북동 755번지 2층 204호","indutype":"일반휴게음식 - 중국식","category":"restaurant"},{"name":"든든","tel":"031-321-3454","addr":"경기도 용인시 처인구 역북동 755번지 109호","indutype":"일반휴게음식 - 일반한식","category":"restaurant"},{"name":"맛조은인생","tel":"031-322-9295","addr":"경기도 용인시 처인구 역북동 755번지 골든프라자 2층 205호","indutype":"일반휴게음식 - 일반한식","category":"restaurant"},{"name":"바빈스커피용인명지대점","tel":"","addr":"경기도 용인시 처인구 역북동 755번지 110호, 111호","indutype":"일반휴게음식 - 서양음식","category":"restaurant"},{"name":"연어가","tel":"","addr":"경기도 용인시 처인구 역북동 755번지 1층 113,114호","indutype":"일반휴게음식 - 일반한식","category":"restaurant"},{"name":"카페요시","tel":"070-8285-3672","addr":"경기도 용인시 처인구 역북동 755번지 107호","indutype":"일반휴게음식 - 서양음식","category":"restaurant"},{"name":"피제리아디마고","tel":"070-7766-9595","addr":"경기도 용인시 처인구 역북동 755번지 골드프라자 2층 202호","indutype":"일반휴게음식 - 서양음식","category":"restaurant"},{"name":"훠궈스토리","tel":"031-339-3799","addr":"경기도 용인시 처인구 역북동 755번지 206호","indutype":"일반휴게음식 - 중국식","category":"restaurant"}]},{"lat":"37.231888309","long":"127.1867973","imageIndex":4,"items":[{"name":"고베규카츠","tel":"031-339-7038","addr":"경기도 용인시 처인구 역북동 754번지 2층 206호","indutype":"일반휴게음식 - 일반한식","category":"restaurant"},{"name":"고양이부엌","tel":"031-333-3193","addr":"경기도 용인시 처인구 역북동 754번지 리치타워 101호","indutype":"일반휴게음식 - 일반한식","category":"restaurant"},{"name":"동태랑갑오징어","tel":"","addr":"경기도 용인시 처인구 역북동 754번지 106호,107호","indutype":"일반휴게음식 - 일반한식","category":"restaurant"},{"name":"마꼬창","tel":"","addr":"경기도 용인시 처인구 역북동 754번지 리치타워 1층 109호","indutype":"일반휴게음식 - 일반한식","category":"restaurant"},{"name":"맵도리탕 (용인역북지구점)","tel":"","addr":"경기도 용인시 처인구 역북동 754번지 1층 108호","indutype":"일반휴게음식 - 일반한식","category":"restaurant"},{"name":"무한리필쏘고기(무쏘)","tel":"031-335-2030","addr":"경기도 용인시 처인구 역북동 754번지 201,202,203호","indutype":"일반휴게음식 - 일반한식","category":"restaurant"},{"name":"부라보쪽갈비","tel":"031-328-2692","addr":"경기도 용인시 처인구 역북동 754번지 102,103호","indutype":"일반휴게음식 - 일반한식","category":"restaurant"},{"name":"수비덕스테이크","tel":"031-338-1101","addr":"경기도 용인시 처인구 역북동 754번지 207호","indutype":"일반휴게음식 - 일반한식","category":"restaurant"},{"name":"써니김밥","tel":"031-323-2133","addr":"경기도 용인시 처인구 역북동 754번지 104호","indutype":"일반휴게음식 - 일반한식","category":"restaurant"},{"name":"아리랑아지트","tel":"070-7365-0492","addr":"경기도 용인시 처인구 역북동 754번지 105호","indutype":"일반휴게음식 - 일반한식","category":"restaurant"},{"name":"우육면","tel":"031-000-0000","addr":"경기도 용인시 처인구 역북동 754번지 205호","indutype":"일반휴게음식 - 일반한식","category":"restaurant"}]},{"lat":"37.232634232","long":"127.18803867","imageIndex":4,"items":[{"name":"고봉민김밥  용인역북점","tel":"031-339-5656","addr":"경기도 용인시 처인구 역북동 750-2번지 1층 111호","indutype":"일반휴게음식 - 일반한식","category":"restaurant"},{"name":"데일리커피앤와플","tel":"","addr":"경기도 용인시 처인구 역북동 750-2번지 1층 101호","indutype":"일반휴게음식 - 서양음식","category":"restaurant"},{"name":"디델리","tel":"031-273-2420","addr":"경기도 용인시 처인구 역북동 750-2번지 108호","indutype":"일반휴게음식 - 스넥","category":"restaurant"},{"name":"명륜진사갈비용인역북점","tel":"031-339-9595","addr":"경기도 용인시 처인구 역북동 750-2번지 201호","indutype":"일반휴게음식 - 일반한식","category":"restaurant"},{"name":"바푸리포","tel":"031-332-8272","addr":"경기도 용인시 처인구 역북동 750-2번지 1층 105호","indutype":"일반휴게음식 - 일반한식","category":"restaurant"},{"name":"본죽&비빔밥카페 용인역북점","tel":"031-335-8883","addr":"경기도 용인시 처인구 역북동 750-2번지 1층 103호","indutype":"일반휴게음식 - 일반한식","category":"restaurant"},{"name":"올리앤용인명지대점","tel":"031-335-2626","addr":"경기도 용인시 처인구 역북동 750-2번지 202,203호","indutype":"일반휴게음식 - 서양음식","category":"restaurant"},{"name":"조리고","tel":"031-321-3378","addr":"경기도 용인시 처인구 역북동 750-2번지 2층 205호","indutype":"일반휴게음식 - 일반한식","category":"restaurant"},{"name":"향기나는꽃길","tel":"031-336-4877","addr":"경기도 용인시 처인구 역북동 750-2번지 304호","indutype":"일반휴게음식 - 서양음식","category":"restaurant"}]},{"lat":"37.233164444","long":"127.18893021","imageIndex":4,"items":[{"name":"곤드레찜드레","tel":"031-335-6777","addr":"경기도 용인시 처인구 역북동 582-16번지 104,105호","indutype":"일반휴게음식 - 일반한식","category":"restaurant"},{"name":"오디너리커피","tel":"","addr":"경기도 용인시 처인구 역북동 582-16번지 영수상가 106호","indutype":"일반휴게음식 - 서양음식","category":"restaurant"}]},{"lat":"37.239022739","long":"127.19359898","imageIndex":4,"items":[{"name":"골목식당","tel":"031-322-5039","addr":"경기도 용인시 처인구 역북동 434-85번지","indutype":"일반휴게음식 - 일반한식","category":"restaurant"}]},{"lat":"37.235911164","long":"127.19546183","imageIndex":4,"items":[{"name":"골뱅이와빈대떡","tel":"031-336-6947","addr":"경기도 용인시 처인구 역북동 483-17번지 1층","indutype":"일반휴게음식 - 주점","category":"restaurant"}]},{"lat":"37.236768171","long":"127.18918699","imageIndex":4,"items":[{"name":"곱창의신,마약곱창","tel":"031-336-1213","addr":"경기도 용인시 처인구 역북동 423-8번지","indutype":"일반휴게음식 - 일반한식","category":"restaurant"}]},{"lat":"37.250353266","long":"127.19074206","imageIndex":4,"items":[{"name":"공리","tel":"031-322-9259","addr":"경기도 용인시 처인구 역북동 108-5번지 1층","indutype":"일반휴게음식 - 중국식","category":"restaurant"},{"name":"카페제로투원","tel":"031-333-0021","addr":"경기도 용인시 처인구 역북동 108-5번지 101호","indutype":"일반휴게음식 - 서양음식","category":"restaurant"}]},{"lat":"37.232220919","long":"127.18729393","imageIndex":4,"items":[{"name":"국수나무 역북점","tel":"","addr":"경기도 용인시 처인구 역북동 753번지 지석프라자 1층 102호","indutype":"일반휴게음식 - 스넥","category":"restaurant"},{"name":"동양수산","tel":"031-336-0432","addr":"경기도 용인시 처인구 역북동 753번지 지석프라자 109호","indutype":"일반휴게음식 - 일식·회집","category":"restaurant"},{"name":"돼지마을","tel":"031-339-3392","addr":"경기도 용인시 처인구 역북동 753번지 지석프라자 208,209호","indutype":"일반휴게음식 - 일반한식","category":"restaurant"},{"name":"명지상차림","tel":"031-333-8821","addr":"경기도 용인시 처인구 역북동 753번지 201호,202호 일부 2층","indutype":"일반휴게음식 - 일반한식","category":"restaurant"},{"name":"바른치킨용인역북점","tel":"031-338-5158","addr":"경기도 용인시 처인구 역북동 753번지 지석프라자 1층 105호","indutype":"일반휴게음식 - 스넥","category":"restaurant"},{"name":"빨간석쇠구이 (용인명지대점)","tel":"","addr":"경기도 용인시 처인구 역북동 753번지 지석프라자 116호","indutype":"일반휴게음식 - 일반한식","category":"restaurant"},{"name":"어부가왕코다리","tel":"070-1111-1111","addr":"경기도 용인시 처인구 역북동 753번지 지석프라자 202-1,203호","indutype":"일반휴게음식 - 일반한식","category":"restaurant"},{"name":"오닭꼬치용인역북점","tel":"031-336-0524","addr":"경기도 용인시 처인구 역북동 753번지 지석프라자 1층 112호","indutype":"일반휴게음식 - 일반한식","category":"restaurant"},{"name":"올리바바훠궈&참숯구이(역북점)","tel":"031-332-6999","addr":"경기도 용인시 처인구 역북동 753번지 지석프라자 205동 206호","indutype":"일반휴게음식 - 중국식","category":"restaurant"},{"name":"왕빈자삼파전","tel":"","addr":"경기도 용인시 처인구 역북동 753번지 지석프라자 1층 110호","indutype":"일반휴게음식 - 일반한식","category":"restaurant"},{"name":"왕코등갈비","tel":"031-322-9333","addr":"경기도 용인시 처인구 역북동 753번지 지석프라자 2층 204호","indutype":"일반휴게음식 - 일반한식","category":"restaurant"},{"name":"처갓집양념치킨역북점","tel":"031-338-9666","addr":"경기도 용인시 처인구 역북동 753번지 지석프라자 1층 114호","indutype":"일반휴게음식 - 일반한식","category":"restaurant"},{"name":"카츠젠용인역북점","tel":"031-111-1111","addr":"경기도 용인시 처인구 역북동 753번지 지석프라자 1층 108호","indutype":"일반휴게음식 - 일반한식","category":"restaurant"},{"name":"커피베이역북점","tel":"031-336-7449","addr":"경기도 용인시 처인구 역북동 753번지 지석프라자 1층","indutype":"일반휴게음식 - 서양음식","category":"restaurant"},{"name":"투고샐러드 용인명지대점","tel":"031-111-1111","addr":"경기도 용인시 처인구 역북동 753번지 지석프라자 1층 117-1호","indutype":"일반휴게음식 - 일반한식","category":"restaurant"},{"name":"피자파는집용인역북점","tel":"031-337-0852","addr":"경기도 용인시 처인구 역북동 753번지 지석프라자","indutype":"일반휴게음식 - 서양음식","category":"restaurant"},{"name":"황소가한우곱창","tel":"031-526-1388","addr":"경기도 용인시 처인구 역북동 753번지 지석프라자 1층 115호","indutype":"일반휴게음식 - 일반한식","category":"restaurant"}]},{"lat":"37.230776198","long":"127.1834366","imageIndex":4,"items":[{"name":"굽네치킨(용인역북점)","tel":"031-339-9294","addr":"경기도 용인시 처인구 역북동 809번지 역북지웰푸르지오 상가동 지1층 13호","indutype":"일반휴게음식 - 일반한식","category":"restaurant"}]},{"lat":"37.244272065","long":"127.19026488","imageIndex":4,"items":[{"name":"궁","tel":"031-336-6500","addr":"경기도 용인시 처인구 역북동 202-2번지 외1필지","indutype":"일반휴게음식 - 중국식","category":"restaurant"}]},{"lat":"37.23579856","long":"127.19265551","imageIndex":4,"items":[{"name":"그라노데카페(GRANODE CAFE)","tel":"","addr":"경기도 용인시 처인구 역북동 436-8번지 103호","indutype":"일반휴게음식 - 서양음식","category":"restaurant"},{"name":"마음둘곳","tel":"031-891-0713","addr":"경기도 용인시 처인구 역북동 436-8번지 102호","indutype":"일반휴게음식 - 주점","category":"restaurant"}]},{"lat":"37.23665948","long":"127.18954734","imageIndex":4,"items":[{"name":"기장산꼼장어","tel":"031-323-0092","addr":"경기도 용인시 처인구 역북동 428-17번지 101호","indutype":"일반휴게음식 - 일반한식","category":"restaurant"},{"name":"더퍼스트힐링&커피","tel":"031-336-7309","addr":"경기도 용인시 처인구 역북동 428-17번지 103,104호","indutype":"일반휴게음식 - 서양음식","category":"restaurant"}]},{"lat":"37.237548134","long":"127.18593203","imageIndex":4,"items":[{"name":"길용각","tel":"031-335-0013","addr":"경기도 용인시 처인구 역북동 391-3번지","indutype":"일반휴게음식 - 중국식","category":"restaurant"}]},{"lat":"37.234218525","long":"127.18901168","imageIndex":4,"items":[{"name":"길이네보리손칼국수","tel":"031-283-6778","addr":"경기도 용인시 처인구 역북동 722-9번지 1층","indutype":"일반휴게음식 - 일반한식","category":"restaurant"}]},{"lat":"37.232129779","long":"127.18795856","imageIndex":4,"items":[{"name":"김가네김밥","tel":"031-321-8908","addr":"경기도 용인시 처인구 역북동 753-2번지","indutype":"일반휴게음식 - 일반한식","category":"restaurant"},{"name":"리틀비틀","tel":"031-337-3636","addr":"경기도 용인시 처인구 역북동 753-2번지 5층","indutype":"일반휴게음식 - 서양음식","category":"restaurant"},{"name":"본도시락용인역북점","tel":"031-333-4282","addr":"경기도 용인시 처인구 역북동 753-2번지 1동 101층","indutype":"일반휴게음식 - 일반한식","category":"restaurant"},{"name":"비에뜨반미 명지대점","tel":"","addr":"경기도 용인시 처인구 역북동 753-2번지 1층 112호","indutype":"일반휴게음식 - 서양음식","category":"restaurant"},{"name":"선비만두역북점","tel":"031-339-4887","addr":"경기도 용인시 처인구 역북동 753-2번지 1층 103호","indutype":"일반휴게음식 - 일반한식","category":"restaurant"},{"name":"신전떡볶이 (역북점)","tel":"031-337-2733","addr":"경기도 용인시 처인구 역북동 753-2번지 1층 109호","indutype":"일반휴게음식 - 일반한식","category":"restaurant"},{"name":"카페샌앤토명지대점","tel":"031-336-6669","addr":"경기도 용인시 처인구 역북동 753-2번지 1층 104호","indutype":"일반휴게음식 - 서양음식","category":"restaurant"}]},{"lat":"37.230664674","long":"127.17357645","imageIndex":4,"items":[{"name":"김남희한우","tel":"031-322-2236","addr":"경기도 용인시 처인구 역북동 551-28번지","indutype":"일반휴게음식 - 일반한식","category":"restaurant"}]},{"lat":"37.235637377","long":"127.18629929","imageIndex":4,"items":[{"name":"김스시","tel":"031-335-2225","addr":"경기도 용인시 처인구 역북동 734번지 역북동원로얄듀크 상가 119동 지하층 비123호","indutype":"일반휴게음식 - 일식·회집","category":"restaurant"},{"name":"돌빙커피 본사직영점","tel":"031-322-8489","addr":"경기도 용인시 처인구 역북동 734번지 역북동원로얄듀크 B102,B103호","indutype":"일반휴게음식 - 서양음식","category":"restaurant"},{"name":"바이민트","tel":"031-111-1111","addr":"경기도 용인시 처인구 역북동 734번지 역북동원로얄듀크 상가 114호","indutype":"일반휴게음식 - 서양음식","category":"restaurant"},{"name":"햇살머믄꼬마김밥","tel":"","addr":"경기도 용인시 처인구 역북동 734번지 역북동원로얄듀크 상가 119동 1층 116호","indutype":"일반휴게음식 - 스넥","category":"restaurant"}]},{"lat":"37.242215988","long":"127.19693172","imageIndex":4,"items":[{"name":"까페시모 (역북점)","tel":"031-337-1266","addr":"경기도 용인시 처인구 역북동 291-8번지 역북1단지우남퍼스트빌","indutype":"일반휴게음식 - 서양음식","category":"restaurant"},{"name":"마루삼계탕","tel":"031-335-2489","addr":"경기도 용인시 처인구 역북동 291-8번지 역북1단지우남퍼스트빌 2층 203호","indutype":"일반휴게음식 - 일반한식","category":"restaurant"},{"name":"우남어시장","tel":"031-000-0000","addr":"경기도 용인시 처인구 역북동 291-8번지 역북1단지우남퍼스트빌","indutype":"일반휴게음식 - 일식·회집","category":"restaurant"}]},{"lat":"37.230526509","long":"127.18759405","imageIndex":4,"items":[{"name":"께벨로","tel":"031-333-9099","addr":"경기도 용인시 처인구 역북동 762-4번지 (역북지구 단독 2-5블럭 로트)","indutype":"일반휴게음식 - 서양음식","category":"restaurant"}]},{"lat":"37.240880225","long":"127.19829196","imageIndex":4,"items":[{"name":"꼬꼬C참숯불닭갈비","tel":"031-338-0092","addr":"경기도 용인시 처인구 역북동 271-5번지 1층","indutype":"일반휴게음식 - 일반한식","category":"restaurant"}]},{"lat":"37.236158971","long":"127.19265642","imageIndex":4,"items":[{"name":"꼬꼬닭발","tel":"031-322-0848","addr":"경기도 용인시 처인구 역북동 437-4번지 로얄프라자 1층","indutype":"일반휴게음식 - 일반한식","category":"restaurant"},{"name":"맛","tel":"031-332-0033","addr":"경기도 용인시 처인구 역북동 437-4번지 로얄프라자 1층","indutype":"일반휴게음식 - 일반한식","category":"restaurant"},{"name":"소꿈돼지꿈","tel":"031-338-2284","addr":"경기도 용인시 처인구 역북동 437-4번지 로얄프라자 1층","indutype":"일반휴게음식 - 일반한식","category":"restaurant"},{"name":"시그널(Signal)","tel":"031-321-7032","addr":"경기도 용인시 처인구 역북동 437-4번지 로얄프라자 1층","indutype":"일반휴게음식 - 주점","category":"restaurant"},{"name":"안주창고","tel":"031-335-9930","addr":"경기도 용인시 처인구 역북동 437-4번지 로얄프라자 114호","indutype":"일반휴게음식 - 주점","category":"restaurant"},{"name":"역북동족발집","tel":"031-336-7707","addr":"경기도 용인시 처인구 역북동 437-4번지 로얄프라자 1층","indutype":"일반휴게음식 - 일반한식","category":"restaurant"},{"name":"옥탑방오봉자(역북점)","tel":"031-339-5437","addr":"경기도 용인시 처인구 역북동 437-4번지","indutype":"일반휴게음식 - 주점","category":"restaurant"},{"name":"자연산생선나라","tel":"031-321-0087","addr":"경기도 용인시 처인구 역북동 437-4번지 로얄프라자","indutype":"일반휴게음식 - 일반한식","category":"restaurant"},{"name":"친구네","tel":"031-339-2210","addr":"경기도 용인시 처인구 역북동 437-4번지 로얄프라자 1층","indutype":"일반휴게음식 - 일반한식","category":"restaurant"},{"name":"퓨전마을","tel":"031-335-1020","addr":"경기도 용인시 처인구 역북동 437-4번지","indutype":"일반휴게음식 - 일반한식","category":"restaurant"},{"name":"행복한케이크","tel":"031-322-0044","addr":"경기도 용인시 처인구 역북동 437-4번지 로얄프라자 1층","indutype":"일반휴게음식 - 일반한식","category":"restaurant"}]},{"lat":"37.231824466","long":"127.18729297","imageIndex":4,"items":[{"name":"꼬치만개","tel":"031-321-1779","addr":"경기도 용인시 처인구 역북동 756번지 201호","indutype":"일반휴게음식 - 일반한식","category":"restaurant"},{"name":"도쿄라멘","tel":"","addr":"경기도 용인시 처인구 역북동 756번지","indutype":"일반휴게음식 - 일반한식","category":"restaurant"},{"name":"디저트39 용인역북점","tel":"031-339-2232","addr":"경기도 용인시 처인구 역북동 756번지 102호","indutype":"일반휴게음식 - 서양음식","category":"restaurant"},{"name":"루프탑1992","tel":"02-1111-1111","addr":"경기도 용인시 처인구 역북동 756번지 7층 701호","indutype":"일반휴게음식 - 일반한식","category":"restaurant"},{"name":"마브로(MAVRO)","tel":"02-1111-1111","addr":"경기도 용인시 처인구 역북동 756번지 304호","indutype":"일반휴게음식 - 일반한식","category":"restaurant"},{"name":"설화참치","tel":"031-223-5214","addr":"경기도 용인시 처인구 역북동 756번지 202호","indutype":"일반휴게음식 - 일식·회집","category":"restaurant"},{"name":"스츠미","tel":"","addr":"경기도 용인시 처인구 역북동 756번지 101호","indutype":"일반휴게음식 - 일반한식","category":"restaurant"},{"name":"여장군역북점","tel":"031-1111-1111","addr":"경기도 용인시 처인구 역북동 756번지 1층 105호,106호","indutype":"일반휴게음식 - 일반한식","category":"restaurant"},{"name":"역북회직판장","tel":"031-328-2058","addr":"경기도 용인시 처인구 역북동 756번지 103동 104호","indutype":"일반휴게음식 - 일식·회집","category":"restaurant"},{"name":"용인야다이","tel":"031-338-7712","addr":"경기도 용인시 처인구 역북동 756번지 H탑 2층 203호","indutype":"일반휴게음식 - 일반한식","category":"restaurant"},{"name":"용인야다이","tel":"031-338-7712","addr":"경기도 용인시 처인구 역북동 756번지 203호","indutype":"일반휴게음식 - 일반한식","category":"restaurant"},{"name":"용인역북남부점 빽다방","tel":"031-335-9146","addr":"경기도 용인시 처인구 역북동 756번지 108호","indutype":"일반휴게음식 - 서양음식","category":"restaurant"},{"name":"즐거운 맥주 더 루프탑","tel":"031-326-0805","addr":"경기도 용인시 처인구 역북동 756번지 탑3빌딩 601호","indutype":"일반휴게음식 - 주점","category":"restaurant"},{"name":"치요남치킨 용인역북점","tel":"031-336-1818","addr":"경기도 용인시 처인구 역북동 756번지 109호","indutype":"일반휴게음식 - 스넥","category":"restaurant"},{"name":"칠성포차용인명지대점","tel":"","addr":"경기도 용인시 처인구 역북동 756번지 204호","indutype":"일반휴게음식 - 일반한식","category":"restaurant"},{"name":"커피콩자매","tel":"","addr":"경기도 용인시 처인구 역북동 756번지 702호일부","indutype":"일반휴게음식 - 서양음식","category":"restaurant"},{"name":"하정양평해장국(역북점)","tel":"031-336-5454","addr":"경기도 용인시 처인구 역북동 756번지 107호","indutype":"일반휴게음식 - 일반한식","category":"restaurant"}]},{"lat":"37.228915714","long":"127.18627175","imageIndex":4,"items":[{"name":"꾸리하우스","tel":"","addr":"경기도 용인시 처인구 역북동 773-2번지","indutype":"일반휴게음식 - 서양음식","category":"restaurant"}]},{"lat":"37.23729595","long":"127.17993609","imageIndex":4,"items":[{"name":"나무이야기","tel":"031-337-9944","addr":"경기도 용인시 처인구 역북동 370-3번지 1층117-124호","indutype":"일반휴게음식 - 일반한식","category":"restaurant"},{"name":"나무이야기","tel":"031-337-3944","addr":"경기도 용인시 처인구 역북동 370-3번지 1층117~124호","indutype":"일반휴게음식 - 일반한식","category":"restaurant"},{"name":"앤스윗(CAFE ANN'S WIT)/(주)트리아스","tel":"031-898-0060","addr":"경기도 용인시 처인구 역북동 370-3번지 용인센트럴코업2층일부","indutype":"일반휴게음식 - 서양음식","category":"restaurant"},{"name":"호텔분식","tel":"031-333-8688","addr":"경기도 용인시 처인구 역북동 370-3번지 110호","indutype":"일반휴게음식 - 스넥","category":"restaurant"}]},{"lat":"37.235911439","long":"127.19529279","imageIndex":4,"items":[{"name":"남해식당","tel":"031-335-0533","addr":"경기도 용인시 처인구 역북동 483-16번지 1층","indutype":"일반휴게음식 - 일반한식","category":"restaurant"}]},{"lat":"37.236385346","long":"127.19195829","imageIndex":4,"items":[{"name":"내발이쏘푸드","tel":"031-333-3133","addr":"경기도 용인시 처인구 역북동 437-1번지 1층","indutype":"일반휴게음식 - 일반한식","category":"restaurant"}]},{"lat":"37.239158144","long":"127.1989637","imageIndex":4,"items":[{"name":"내밥상","tel":"031-335-9655","addr":"경기도 용인시 처인구 역북동 467-2번지 1층 일부","indutype":"일반휴게음식 - 일반한식","category":"restaurant"},{"name":"멕시카나(용인아침도시점)","tel":"031-321-9585","addr":"경기도 용인시 처인구 역북동 467-2번지","indutype":"일반휴게음식 - 스넥","category":"restaurant"},{"name":"육회한불고기 (용인점)","tel":"031-334-8595","addr":"경기도 용인시 처인구 역북동 467-2번지 1층 2호","indutype":"일반휴게음식 - 일반한식","category":"restaurant"}]},{"lat":"37.249436853","long":"127.18907164","imageIndex":4,"items":[{"name":"단케(DANKE)","tel":"031-291-8607","addr":"경기도 용인시 처인구 역북동 203-16번지 1층","indutype":"일반휴게음식 - 서양음식","category":"restaurant"}]},{"lat":"37.238104759","long":"127.19293176","imageIndex":4,"items":[{"name":"달궁","tel":"","addr":"경기도 용인시 처인구 역북동 412-11번지 1층","indutype":"일반휴게음식 - 서양음식","category":"restaurant"}]},{"lat":"37.230103236","long":"127.1874578","imageIndex":4,"items":[{"name":"담벼락","tel":"","addr":"경기도 용인시 처인구 역북동 763-4번지 1층","indutype":"일반휴게음식 - 일반한식","category":"restaurant"}]},{"lat":"37.229881782","long":"127.17287605","imageIndex":4,"items":[{"name":"담어일식","tel":"031-323-5254","addr":"경기도 용인시 처인구 역북동 550-7번지","indutype":"일반휴게음식 - 일반한식","category":"restaurant"}]},{"lat":"37.230356261","long":"127.18698514","imageIndex":4,"items":[{"name":"대동집 역북점","tel":"031-321-0328","addr":"경기도 용인시 처인구 역북동 763번지 1층","indutype":"일반휴게음식 - 일반한식","category":"restaurant"}]},{"lat":"37.238023305","long":"127.19315695","imageIndex":4,"items":[{"name":"대명닭집","tel":"031-338-8230","addr":"경기도 용인시 처인구 역북동 434-47번지","indutype":"일반휴게음식 - 스넥","category":"restaurant"},{"name":"배달의 쌀국수","tel":"031-339-2540","addr":"경기도 용인시 처인구 역북동 434-47번지 1층","indutype":"일반휴게음식 - 서양음식","category":"restaurant"},{"name":"테트리스찜닭","tel":"031-322-2356","addr":"경기도 용인시 처인구 역북동 434-47번지 1층 일부","indutype":"일반휴게음식 - 일반한식","category":"restaurant"}]},{"lat":"37.244325072","long":"127.19092997","imageIndex":4,"items":[{"name":"대봉설악산삼계탕추어탕","tel":"031-322-7900","addr":"경기도 용인시 처인구 역북동 303-16번지 1층","indutype":"일반휴게음식 - 일반한식","category":"restaurant"},{"name":"잇토우스시","tel":"031-336-5252","addr":"경기도 용인시 처인구 역북동 303-16번지 103호","indutype":"일반휴게음식 - 일식·회집","category":"restaurant"},{"name":"좋구먼반상","tel":"031-332-3600","addr":"경기도 용인시 처인구 역북동 303-16번지 1층 101호","indutype":"일반휴게음식 - 일반한식","category":"restaurant"}]},{"lat":"37.23663303","long":"127.19482132","imageIndex":4,"items":[{"name":"대원생고기전문점","tel":"031-337-2770","addr":"경기도 용인시 처인구 역북동 482번지","indutype":"일반휴게음식 - 일반한식","category":"restaurant"}]},{"lat":"37.229635559","long":"127.18690451","imageIndex":4,"items":[{"name":"더김치찌개","tel":"031-338-5680","addr":"경기도 용인시 처인구 역북동 768-1번지 1층 일부","indutype":"일반휴게음식 - 일반한식","category":"restaurant"}]},{"lat":"37.231553331","long":"127.18782193","imageIndex":4,"items":[{"name":"더블루밍랩","tel":"070-8956-9241","addr":"경기도 용인시 처인구 역북동 759-1번지 1층 112호","indutype":"일반휴게음식 - 서양음식","category":"restaurant"},{"name":"돈까스광장","tel":"031-333-0113","addr":"경기도 용인시 처인구 역북동 759-1번지 광장프라자 1층 111호","indutype":"일반휴게음식 - 서양음식","category":"restaurant"},{"name":"명랑시대쌀핫도그용인역북점","tel":"031-337-0513","addr":"경기도 용인시 처인구 역북동 759-1번지 1층 113호","indutype":"일반휴게음식 - 서양음식","category":"restaurant"},{"name":"스시도도","tel":"031-333-4552","addr":"경기도 용인시 처인구 역북동 759-1번지 101호","indutype":"일반휴게음식 - 일식·회집","category":"restaurant"},{"name":"전부인","tel":"031-338-8202","addr":"경기도 용인시 처인구 역북동 759-1번지 1층 110호","indutype":"일반휴게음식 - 일반한식","category":"restaurant"},{"name":"정다움짬뽕/주식회사 선전푸드시스 용인지","tel":"031-323-2733","addr":"경기도 용인시 처인구 역북동 759-1번지 106~108호,201~206호","indutype":"일반휴게음식 - 중국식","category":"restaurant"},{"name":"쭈꾸미광장","tel":"031-321-1358","addr":"경기도 용인시 처인구 역북동 759-1번지 2층 204호","indutype":"일반휴게음식 - 일반한식","category":"restaurant"},{"name":"카츠곳간","tel":"031-334-0970","addr":"경기도 용인시 처인구 역북동 759-1번지 201호","indutype":"일반휴게음식 - 일반한식","category":"restaurant"},{"name":"투썸플레이스(용인역북점)","tel":"031-323-0044","addr":"경기도 용인시 처인구 역북동 759-1번지 역북지구광장프라자 105,106,202호","indutype":"일반휴게음식 - 서양음식","category":"restaurant"},{"name":"포메인(용인역북점)","tel":"031-321-0077","addr":"경기도 용인시 처인구 역북동 759-1번지 203호","indutype":"일반휴게음식 - 서양음식","category":"restaurant"},{"name":"포크포크","tel":"031-339-0153","addr":"경기도 용인시 처인구 역북동 759-1번지 102호","indutype":"일반휴게음식 - 서양음식","category":"restaurant"}]},{"lat":"37.231326026","long":"127.18912852","imageIndex":4,"items":[{"name":"더카페","tel":"031-339-0091","addr":"경기도 용인시 처인구 역북동 586-6번지 지하2층","indutype":"일반휴게음식 - 서양음식","category":"restaurant"},{"name":"송사부수제쌀고로케(이마트용인점)","tel":"","addr":"경기도 용인시 처인구 역북동 586-6번지 이마트용인점 지하2층 일부","indutype":"일반휴게음식 - 서양음식","category":"restaurant"}]},{"lat":"37.237382409","long":"127.18820806","imageIndex":4,"items":[{"name":"도끼떡볶기","tel":"","addr":"경기도 용인시 처인구 역북동 418-10번지","indutype":"일반휴게음식 - 스넥","category":"restaurant"},{"name":"손맛분식","tel":"031-334-9931","addr":"경기도 용인시 처인구 역북동 418-10번지","indutype":"일반휴게음식 - 일반한식","category":"restaurant"}]},{"lat":"37.237552119","long":"127.18915511","imageIndex":4,"items":[{"name":"돈방석","tel":"031-337-0516","addr":"경기도 용인시 처인구 역북동 424-5번지 상명주택","indutype":"일반휴게음식 - 일반한식","category":"restaurant"},{"name":"오복식당","tel":"031-335-1140","addr":"경기도 용인시 처인구 역북동 424-5번지 상명주택","indutype":"일반휴게음식 - 일반한식","category":"restaurant"}]},{"lat":"37.226137118","long":"127.18846223","imageIndex":4,"items":[{"name":"돈코복코","tel":"031-338-8839","addr":"경기도 용인시 처인구 역북동 604-6번지 G동 1층","indutype":"일반휴게음식 - 일반한식","category":"restaurant"},{"name":"프네트르","tel":"031-339-0330","addr":"경기도 용인시 처인구 역북동 604-6번지 1층","indutype":"일반휴게음식 - 일반한식","category":"restaurant"}]},{"lat":"37.239045995","long":"127.19031956","imageIndex":4,"items":[{"name":"돈호원","tel":"031-336-0610","addr":"경기도 용인시 처인구 역북동 377-11번지","indutype":"일반휴게음식 - 일반한식","category":"restaurant"}]},{"lat":"37.232689279","long":"127.18740776","imageIndex":4,"items":[{"name":"동신참치","tel":"031-1111-1111","addr":"경기도 용인시 처인구 역북동 750번지 301호","indutype":"일반휴게음식 - 일반한식","category":"restaurant"},{"name":"뚱보집(용인역북점)","tel":"031-337-1377","addr":"경기도 용인시 처인구 역북동 750번지 1층 106호","indutype":"일반휴게음식 - 일반한식","category":"restaurant"},{"name":"야키니쿠Amazing","tel":"","addr":"경기도 용인시 처인구 역북동 750번지 3층 302호","indutype":"일반휴게음식 - 일반한식","category":"restaurant"},{"name":"오직한우","tel":"031-338-0844","addr":"경기도 용인시 처인구 역북동 750번지","indutype":"일반휴게음식 - 일반한식","category":"restaurant"},{"name":"이통닭","tel":"031-547-2569","addr":"경기도 용인시 처인구 역북동 750번지 107호","indutype":"일반휴게음식 - 스넥","category":"restaurant"},{"name":"장인족발608","tel":"031-333-6080","addr":"경기도 용인시 처인구 역북동 750번지 1층 104호,105호","indutype":"일반휴게음식 - 일반한식","category":"restaurant"},{"name":"철뚝집","tel":"031-322-8686","addr":"경기도 용인시 처인구 역북동 750번지 2층 202호","indutype":"일반휴게음식 - 일반한식","category":"restaurant"},{"name":"초초네","tel":"031-334-7209","addr":"경기도 용인시 처인구 역북동 750번지 6층 602호","indutype":"일반휴게음식 - 일반한식","category":"restaurant"}]},{"lat":"37.237885323","long":"127.18926862","imageIndex":4,"items":[{"name":"돼지나라","tel":"031-321-3220","addr":"경기도 용인시 처인구 역북동 424번지","indutype":"일반휴게음식 - 일반한식","category":"restaurant"}]},{"lat":"37.237102613","long":"127.18851165","imageIndex":4,"items":[{"name":"두마리치킨마당","tel":"031-335-5666","addr":"경기도 용인시 처인구 역북동 419-15번지 101호","indutype":"일반휴게음식 - 스넥","category":"restaurant"},{"name":"마틸다(MATILDA)","tel":"031-321-4825","addr":"경기도 용인시 처인구 역북동 419-15번지 1층 일부","indutype":"일반휴게음식 - 일반한식","category":"restaurant"}]},{"lat":"37.233859191","long":"127.18832339","imageIndex":4,"items":[{"name":"두부쑤는집","tel":"031-339-1485","addr":"경기도 용인시 처인구 역북동 506번지","indutype":"일반휴게음식 - 일반한식","category":"restaurant"}]},{"lat":"37.232164549","long":"127.18876999","imageIndex":4,"items":[{"name":"두툼마약갈비","tel":"031-3353-3901","addr":"경기도 용인시 처인구 역북동 504-13번지","indutype":"일반휴게음식 - 일반한식","category":"restaurant"},{"name":"장수손칼국수","tel":"031-323-3211","addr":"경기도 용인시 처인구 역북동 504-13번지","indutype":"일반휴게음식 - 스넥","category":"restaurant"},{"name":"찹찹꽈배기","tel":"031-1588-4583","addr":"경기도 용인시 처인구 역북동 504-13번지 108호","indutype":"일반휴게음식 - 서양음식","category":"restaurant"}]},{"lat":"37.236966327","long":"127.18923255","imageIndex":4,"items":[{"name":"둠벙","tel":"031-321-1310","addr":"경기도 용인시 처인구 역북동 423-7번지","indutype":"일반휴게음식 - 스넥","category":"restaurant"},{"name":"역북동그집","tel":"031-332-3737","addr":"경기도 용인시 처인구 역북동 423-7번지","indutype":"일반휴게음식 - 일반한식","category":"restaurant"}]},{"lat":"37.236271447","long":"127.19554163","imageIndex":4,"items":[{"name":"딜리삼겹","tel":"031-335-9981","addr":"경기도 용인시 처인구 역북동 482-17번지","indutype":"일반휴게음식 - 일반한식","category":"restaurant"},{"name":"사랑해꽃돼지","tel":"031-335-8108","addr":"경기도 용인시 처인구 역북동 482-17번지 사랑해꽃돼지","indutype":"일반휴게음식 - 일반한식","category":"restaurant"},{"name":"사랑해사랑해호프","tel":"031-322-2247","addr":"경기도 용인시 처인구 역북동 482-17번지","indutype":"일반휴게음식 - 주점","category":"restaurant"}]},{"lat":"37.236415557","long":"127.19557581","imageIndex":4,"items":[{"name":"따뜻한밥상","tel":"031-336-6871","addr":"경기도 용인시 처인구 역북동 482-7번지 1층","indutype":"일반휴게음식 - 일반한식","category":"restaurant"}]},{"lat":"37.237990809","long":"127.19093677","imageIndex":4,"items":[{"name":"땅땅치킨역북점","tel":"031-338-7703","addr":"경기도 용인시 처인구 역북동 414-25번지 1층","indutype":"일반휴게음식 - 일반한식","category":"restaurant"}]},{"lat":"37.238576889","long":"127.19067903","imageIndex":4,"items":[{"name":"떡갑&푸드","tel":"031-323-5236","addr":"경기도 용인시 처인구 역북동 414번지 1층","indutype":"일반휴게음식 - 일반한식","category":"restaurant"},{"name":"피자나라치킨공주","tel":"031-339-4767","addr":"경기도 용인시 처인구 역북동 414번지 1층 2호","indutype":"일반휴게음식 - 서양음식","category":"restaurant"}]},{"lat":"37.234325992","long":"127.1894289","imageIndex":4,"items":[{"name":"떡이랑뎅이랑","tel":"031-446-9524","addr":"경기도 용인시 처인구 역북동 722-3번지 1층","indutype":"일반휴게음식 - 스넥","category":"restaurant"},{"name":"투다리(명지점)","tel":"031-323-0792","addr":"경기도 용인시 처인구 역북동 722-3번지 영성빌딩 1층 상가 101호","indutype":"일반휴게음식 - 주점","category":"restaurant"}]},{"lat":"37.23643744","long":"127.19318677","imageIndex":4,"items":[{"name":"떡튀","tel":"031-339-8856","addr":"경기도 용인시 처인구 역북동 439-1번지","indutype":"일반휴게음식 - 스넥","category":"restaurant"},{"name":"모듬전","tel":"031-336-3618","addr":"경기도 용인시 처인구 역북동 439-1번지","indutype":"일반휴게음식 - 일반한식","category":"restaurant"},{"name":"민속촌감자탕","tel":"031-322-3881","addr":"경기도 용인시 처인구 역북동 439-1번지","indutype":"일반휴게음식 - 일반한식","category":"restaurant"}]},{"lat":"37.237963259","long":"127.19126352","imageIndex":4,"items":[{"name":"떡튀순","tel":"031-322-4646","addr":"경기도 용인시 처인구 역북동 414-27번지","indutype":"일반휴게음식 - 스넥","category":"restaurant"}]},{"lat":"37.238437597","long":"127.19327069","imageIndex":4,"items":[{"name":"또와또와","tel":"031-334-9500","addr":"경기도 용인시 처인구 역북동 434-43","indutype":"일반휴게음식 - 스넥","category":"restaurant"},{"name":"이모네식당","tel":"031-334-7714","addr":"경기도 용인시 처인구 역북동 434-43번지","indutype":"일반휴게음식 - 일반한식","category":"restaurant"}]},{"lat":"37.22991423","long":"127.18732212","imageIndex":4,"items":[{"name":"라보 (LAVO)","tel":"070-5214-0920","addr":"경기도 용인시 처인구 역북동 765-3번지 101호","indutype":"일반휴게음식 - 서양음식","category":"restaurant"}]},{"lat":"37.237686922","long":"127.19501557","imageIndex":4,"items":[{"name":"라온포차","tel":"031-335-6096","addr":"경기도 용인시 처인구 역북동 432-8번지","indutype":"일반휴게음식 - 일반한식","category":"restaurant"},{"name":"라온포차","tel":"031-335-6096","addr":"경기도 용인시 처인구 역북동 432-8번지","indutype":"일반휴게음식 - 일반한식","category":"restaurant"}]},{"lat":"37.230050977","long":"127.18629703","imageIndex":4,"items":[{"name":"라이프트리","tel":"031-275-0617","addr":"경기도 용인시 처인구 역북동 794-1번지 1층","indutype":"일반휴게음식 - 서양음식","category":"restaurant"}]},{"lat":"37.233886786","long":"127.18796285","imageIndex":4,"items":[{"name":"랙커떡볶이","tel":"","addr":"경기도 용인시 처인구 역북동 745번지 용인역북THE럭스나인 2층 202호","indutype":"일반휴게음식 - 스넥","category":"restaurant"},{"name":"마라순코우마라탕","tel":"031-322-8760","addr":"경기도 용인시 처인구 역북동 745번지 1층 용인역북THE럭스나인 101호","indutype":"일반휴게음식 - 중국식","category":"restaurant"},{"name":"부자곱","tel":"031-000-0000","addr":"경기도 용인시 처인구 역북동 745번지 109, 110호","indutype":"일반휴게음식 - 일반한식","category":"restaurant"},{"name":"순수베이커리카페","tel":"031-4784-0692","addr":"경기도 용인시 처인구 역북동 745번지 1층 143호","indutype":"일반휴게음식 - 서양음식","category":"restaurant"},{"name":"썸타임","tel":"031-323-0992","addr":"경기도 용인시 처인구 역북동 745번지 2층 227호","indutype":"일반휴게음식 - 일반한식","category":"restaurant"},{"name":"쏭스핫도그역북점","tel":"","addr":"경기도 용인시 처인구 역북동 745번지 119호","indutype":"일반휴게음식 - 서양음식","category":"restaurant"},{"name":"위꾸냥 마라탕","tel":"","addr":"경기도 용인시 처인구 역북동 745번지 237호","indutype":"일반휴게음식 - 중국식","category":"restaurant"},{"name":"진진카롱","tel":"031-000-0000","addr":"경기도 용인시 처인구 역북동 745번지 지1층 B119호","indutype":"일반휴게음식 - 서양음식","category":"restaurant"},{"name":"카페여름,달","tel":"","addr":"경기도 용인시 처인구 역북동 745번지 1층 122호","indutype":"일반휴게음식 - 서양음식","category":"restaurant"},{"name":"칵테일집","tel":"","addr":"경기도 용인시 처인구 역북동 745번지 제지1층 B109호","indutype":"일반휴게음식 - 일반한식","category":"restaurant"}]},{"lat":"37.233713718","long":"127.18915693","imageIndex":4,"items":[{"name":"런던펍","tel":"070-4086-8994","addr":"경기도 용인시 처인구 역북동 723-4번지 1층","indutype":"일반휴게음식 - 주점","category":"restaurant"}]},{"lat":"37.236135352","long":"127.1905152","imageIndex":4,"items":[{"name":"롯데리아용인역북점","tel":"031-322-3800","addr":"경기도 용인시 처인구 역북동 428-7번지 외1필지 낙원빌딩 101호","indutype":"일반휴게음식 - 서양음식","category":"restaurant"},{"name":"불닭발땡초동대문엽기떡볶이","tel":"031-335-8591","addr":"경기도 용인시 처인구 역북동 428-7번지 낙원빌딩 1층 102호","indutype":"일반휴게음식 - 일반한식","category":"restaurant"}]},{"lat":"37.241242046","long":"127.19743637","imageIndex":4,"items":[{"name":"룰루커피(loolloo coffe)","tel":"","addr":"경기도 용인시 처인구 역북동 279-3번지","indutype":"일반휴게음식 - 서양음식","category":"restaurant"}]},{"lat":"37.229301231","long":"127.18751219","imageIndex":4,"items":[{"name":"마라양꼬치","tel":"031-335-0580","addr":"경기도 용인시 처인구 역북동 777-2번지","indutype":"일반휴게음식 - 일반한식","category":"restaurant"}]},{"lat":"37.229130509","long":"127.18720753","imageIndex":4,"items":[{"name":"마이보리","tel":"031-000-0000","addr":"경기도 용인시 처인구 역북동 771-3번지","indutype":"일반휴게음식 - 서양음식","category":"restaurant"}]},{"lat":"37.239546145","long":"127.19862661","imageIndex":4,"items":[{"name":"마일로케이크 (MILO cake)","tel":"02-0000-0000","addr":"경기도 용인시 처인구 역북동 467-36번지 1층","indutype":"일반휴게음식 - 서양음식","category":"restaurant"},{"name":"추억의돼지마당","tel":"031-338-0775","addr":"경기도 용인시 처인구 역북동 467-36번지","indutype":"일반휴게음식 - 일반한식","category":"restaurant"}]},{"lat":"37.232740872","long":"127.18898551","imageIndex":4,"items":[{"name":"마포굴다리김치찌개","tel":"031-334-2731","addr":"경기도 용인시 처인구 역북동 504-4번지 평촌 지하1층","indutype":"일반휴게음식 - 일반한식","category":"restaurant"}]},{"lat":"37.229661643","long":"127.18751306","imageIndex":4,"items":[{"name":"만나네 마라탕","tel":"","addr":"경기도 용인시 처인구 역북동 776-5번지 1층","indutype":"일반휴게음식 - 중국식","category":"restaurant"}]},{"lat":"37.237020725","long":"127.18901857","imageIndex":4,"items":[{"name":"만나손칼국수","tel":"031-332-8827","addr":"경기도 용인시 처인구 역북동 423-6번지 1층","indutype":"일반휴게음식 - 일반한식","category":"restaurant"}]},{"lat":"37.237693026","long":"127.17952004","imageIndex":4,"items":[{"name":"만사성","tel":"031-336-6785","addr":"경기도 용인시 처인구 역북동 368번지","indutype":"일반휴게음식 - 중국식","category":"restaurant"}]},{"lat":"37.237969641","long":"127.19290889","imageIndex":4,"items":[{"name":"말술클럽","tel":"031-323-7200","addr":"경기도 용인시 처인구 역북동 412-5번지 1층","indutype":"일반휴게음식 - 주점","category":"restaurant"}]},{"lat":"37.237935079","long":"127.1919847","imageIndex":4,"items":[{"name":"매직","tel":"031-321-3201","addr":"경기도 용인시 처인구 역북동 412-12번지 세웅하이빌타운 102동 101호","indutype":"일반휴게음식 - 일반한식","category":"restaurant"}]},{"lat":"37.238268826","long":"127.18009614","imageIndex":4,"items":[{"name":"명가칼국수","tel":"031-321-4005","addr":"경기도 용인시 처인구 역북동 365-61번지","indutype":"일반휴게음식 - 일반한식","category":"restaurant"}]},{"lat":"37.23030141","long":"127.18749209","imageIndex":4,"items":[{"name":"명가한식","tel":"031-335-4321","addr":"경기도 용인시 처인구 역북동 763-3번지 1층상가","indutype":"일반휴게음식 - 일반한식","category":"restaurant"},{"name":"카페네로우(cafe narrow)","tel":"","addr":"경기도 용인시 처인구 역북동 763-3번지 1층","indutype":"일반휴게음식 - 서양음식","category":"restaurant"}]},{"lat":"37.230106716","long":"127.17310192","imageIndex":4,"items":[{"name":"명현네간장게장칼국수","tel":"031-322-3020","addr":"경기도 용인시 처인구 역북동 550-4번지","indutype":"일반휴게음식 - 일반한식","category":"restaurant"}]},{"lat":"37.233998619","long":"127.18557411","imageIndex":4,"items":[{"name":"모찌가카페본점","tel":"02-1111-1111","addr":"경기도 용인시 처인구 역북동 736번지 우미린센트럴파크 지하1층 108호","indutype":"일반휴게음식 - 서양음식","category":"restaurant"}]},{"lat":"37.244630005","long":"127.1918211","imageIndex":4,"items":[{"name":"무쏘","tel":"031-321-5052","addr":"경기도 용인시 처인구 역북동 213-14번지 1층","indutype":"일반휴게음식 - 일반한식","category":"restaurant"}]},{"lat":"37.22891594","long":"127.18612526","imageIndex":4,"items":[{"name":"무지","tel":"031-000-0000","addr":"경기도 용인시 처인구 역북동 773-1번지 1층","indutype":"일반휴게음식 - 주점","category":"restaurant"},{"name":"송술","tel":"031-000-0000","addr":"경기도 용인시 처인구 역북동 773-1번지","indutype":"일반휴게음식 - 주점","category":"restaurant"}]},{"lat":"37.246967808","long":"127.18921209","imageIndex":4,"items":[{"name":"문어로용인역삼점","tel":"031-332-8525","addr":"경기도 용인시 처인구 역북동 208-7번지 ,1,2층","indutype":"일반휴게음식 - 일반한식","category":"restaurant"}]},{"lat":"37.229248763","long":"127.18648665","imageIndex":4,"items":[{"name":"미드나잇프로젝트","tel":"","addr":"경기도 용인시 처인구 역북동 770-3번지 1층","indutype":"일반휴게음식 - 서양음식","category":"restaurant"}]},{"lat":"37.23019425","long":"127.18687207","imageIndex":4,"items":[{"name":"백두산양꼬치","tel":"031-338-8818","addr":"경기도 용인시 처인구 역북동 763-7번지 1층","indutype":"일반휴게음식 - 일반한식","category":"restaurant"}]},{"lat":"37.238936188","long":"127.18563111","imageIndex":4,"items":[{"name":"백리향","tel":"031-321-8811","addr":"경기도 용인시 처인구 역북동 399-21번지","indutype":"일반휴게음식 - 중국식","category":"restaurant"}]},{"lat":"37.235969141","long":"127.1930391","imageIndex":4,"items":[{"name":"복돼지식당","tel":"031-339-9253","addr":"경기도 용인시 처인구 역북동 441-18번지 1층 일부","indutype":"일반휴게음식 - 일반한식","category":"restaurant"}]},{"lat":"37.236131326","long":"127.1930395","imageIndex":4,"items":[{"name":"봉이치킨","tel":"031-321-0083","addr":"경기도 용인시 처인구 역북동 441-1번지 1층","indutype":"일반휴게음식 - 스넥","category":"restaurant"}]},{"lat":"37.229248973","long":"127.18635143","imageIndex":4,"items":[{"name":"브라운리퀴드(BROWNLIQUID)","tel":"0505-991-1472","addr":"경기도 용인시 처인구 역북동 770-2번지 상가 1층 전체","indutype":"일반휴게음식 - 서양음식","category":"restaurant"}]},{"lat":"37.2301053","long":"127.18612814","imageIndex":4,"items":[{"name":"브라운아일랜드","tel":"02-111-1111","addr":"경기도 용인시 처인구 역북동 산81-4번지 1층","indutype":"일반휴게음식 - 서양음식","category":"restaurant"},{"name":"어고흐(agoh)","tel":"031-000-0000","addr":"경기도 용인시 처인구 역북동 산81-4번지 1층","indutype":"일반휴게음식 - 서양음식","category":"restaurant"},{"name":"포레스트비","tel":"","addr":"경기도 용인시 처인구 역북동 산81-4번지 1층 상가","indutype":"일반휴게음식 - 서양음식","category":"restaurant"},{"name":"한앤둘치킨","tel":"031-332-9220","addr":"경기도 용인시 처인구 역북동 산81-4번지 1층","indutype":"일반휴게음식 - 스넥","category":"restaurant"},{"name":"해화","tel":"031-338-2547","addr":"경기도 용인시 처인구 역북동 산81-4번지 1층","indutype":"일반휴게음식 - 서양음식","category":"restaurant"}]},{"lat":"37.228634679","long":"127.18737534","imageIndex":4,"items":[{"name":"브이랩(V.lab)","tel":"","addr":"경기도 용인시 처인구 역북동 778-1번지 1층","indutype":"일반휴게음식 - 서양음식","category":"restaurant"}]},{"lat":"37.2389646","long":"127.19051094","imageIndex":4,"items":[{"name":"비에이치씨(BHC)김량장점","tel":"031-339-8892","addr":"경기도 용인시 처인구 역북동 377-8번지 1층 일부","indutype":"일반휴게음식 - 스넥","category":"restaurant"}]},{"lat":"37.238635606","long":"127.19340642","imageIndex":4,"items":[{"name":"뿌리깊은나무까페","tel":"031-338-3927","addr":"경기도 용인시 처인구 역북동 434-40번지 1층","indutype":"일반휴게음식 - 서양음식","category":"restaurant"}]},{"lat":"37.229882299","long":"127.17251546","imageIndex":4,"items":[{"name":"산골흑돼지","tel":"031-322-6625","addr":"경기도 용인시 처인구 역북동 550번지 1층","indutype":"일반휴게음식 - 일반한식","category":"restaurant"}]},{"lat":"37.246824865","long":"127.18843405","imageIndex":4,"items":[{"name":"산마루","tel":"031-335-7861","addr":"경기도 용인시 처인구 역북동 192-1번지 1층","indutype":"일반휴게음식 - 일반한식","category":"restaurant"}]},{"lat":"37.240303697","long":"127.19821158","imageIndex":4,"items":[{"name":"삼삼오오","tel":"031-323-1991","addr":"경기도 용인시 처인구 역북동 470-28번지","indutype":"일반휴게음식 - 일반한식","category":"restaurant"},{"name":"카파커피 (김량장역)","tel":"031-323-5467","addr":"경기도 용인시 처인구 역북동 470-28번지 1층","indutype":"일반휴게음식 - 서양음식","category":"restaurant"}]},{"lat":"37.236830249","long":"127.18981822","imageIndex":4,"items":[{"name":"색동다리분식","tel":"0031-339-8338","addr":"경기도 용인시 처인구 역북동 428-1번지 비버리힐즈 101호","indutype":"일반휴게음식 - 스넥","category":"restaurant"}]},{"lat":"37.238747369","long":"127.19113024","imageIndex":4,"items":[{"name":"서룡해장국","tel":"031-335-4613","addr":"경기도 용인시 처인구 역북동 385-9번지","indutype":"일반휴게음식 - 일반한식","category":"restaurant"}]},{"lat":"37.236546558","long":"127.19256724","imageIndex":4,"items":[{"name":"서린정","tel":"031-335-4902","addr":"경기도 용인시 처인구 역북동 438-10번지","indutype":"일반휴게음식 - 일반한식","category":"restaurant"}]},{"lat":"37.234380657","long":"127.18904588","imageIndex":4,"items":[{"name":"서브웨이 처인점","tel":"031-332-3070","addr":"경기도 용인시 처인구 역북동 722-1번지 101호","indutype":"일반휴게음식 - 일반한식","category":"restaurant"},{"name":"평안도찹쌀순대명지대점","tel":"031-335-0008","addr":"경기도 용인시 처인구 역북동 722-1번지 1층","indutype":"일반휴게음식 - 일반한식","category":"restaurant"},{"name":"호미빙(용인처인구점)","tel":"031-321-1889","addr":"경기도 용인시 처인구 역북동 722-1번지 2층","indutype":"일반휴게음식 - 일반한식","category":"restaurant"}]},{"lat":"37.234191175","long":"127.18921445","imageIndex":4,"items":[{"name":"성산고을","tel":"031-321-1254","addr":"경기도 용인시 처인구 역북동 722-8번지","indutype":"일반휴게음식 - 일반한식","category":"restaurant"}]},{"lat":"37.235714965","long":"127.19421045","imageIndex":4,"items":[{"name":"소길","tel":"031-322-4626","addr":"경기도 용인시 처인구 역북동 441-8번지 104,105호","indutype":"일반휴게음식 - 일식·회집","category":"restaurant"}]},{"lat":"37.238302406","long":"127.19329289","imageIndex":4,"items":[{"name":"손가네족발","tel":"031-326-0122","addr":"경기도 용인시 처인구 역북동 434-44번지 1층","indutype":"일반휴게음식 - 일반한식","category":"restaurant"},{"name":"프렌치프라이(French Fries)","tel":"031-111-1111","addr":"경기도 용인시 처인구 역북동 434-44번지","indutype":"일반휴게음식 - 일반한식","category":"restaurant"}]},{"lat":"37.228939463","long":"127.18837895","imageIndex":4,"items":[{"name":"솔가의집","tel":"031-323-0058","addr":"경기도 용인시 처인구 역북동 598-4번지","indutype":"일반휴게음식 - 일반한식","category":"restaurant"}]},{"lat":"37.239546648","long":"127.19832233","imageIndex":4,"items":[{"name":"송탄부대찌개","tel":"031-322-9802","addr":"경기도 용인시 처인구 역북동 470-23번지 1층","indutype":"일반휴게음식 - 일반한식","category":"restaurant"}]},{"lat":"37.246550789","long":"127.19082279","imageIndex":4,"items":[{"name":"수수꽃다리","tel":"031-322-7742","addr":"경기도 용인시 처인구 역북동 217-8번지","indutype":"일반휴게음식 - 서양음식","category":"restaurant"}]},{"lat":"37.237636914","long":"127.19804693","imageIndex":4,"items":[{"name":"숙이호프","tel":"031-338-5420","addr":"경기도 용인시 처인구 역북동 475-42번지 1층","indutype":"일반휴게음식 - 주점","category":"restaurant"},{"name":"통닭쏠까?호프쏠까?","tel":"031-332-1817","addr":"경기도 용인시 처인구 역북동 475-42번지","indutype":"일반휴게음식 - 주점","category":"restaurant"}]},{"lat":"37.235744046","long":"127.19293711","imageIndex":4,"items":[{"name":"스시환","tel":"031-333-4230","addr":"경기도 용인시 처인구 역북동 446번지 1층","indutype":"일반휴게음식 - 일식·회집","category":"restaurant"}]},{"lat":"37.228969182","long":"127.18665499","imageIndex":4,"items":[{"name":"스쿱키","tel":"","addr":"경기도 용인시 처인구 역북동 771-7번지 1층","indutype":"일반휴게음식 - 일반한식","category":"restaurant"}]},{"lat":"37.242073646","long":"127.19581561","imageIndex":4,"items":[{"name":"신통치킨역북우남점","tel":"031-322-4255","addr":"경기도 용인시 처인구 역북동 787번지 역북2단지우남퍼스트빌","indutype":"일반휴게음식 - 일반한식","category":"restaurant"}]},{"lat":"37.236609883","long":"127.19240962","imageIndex":4,"items":[{"name":"싱싱참치","tel":"031-332-5657","addr":"경기도 용인시 처인구 역북동 438-13번지","indutype":"일반휴게음식 - 일식·회집","category":"restaurant"}]},{"lat":"37.228824807","long":"127.18678986","imageIndex":4,"items":[{"name":"쌀로만피자","tel":"031-332-4584","addr":"경기도 용인시 처인구 역북동 774-1번지 1층","indutype":"일반휴게음식 - 서양음식","category":"restaurant"}]},{"lat":"37.24246797","long":"127.19154521","imageIndex":4,"items":[{"name":"쓰리원 파트너스 카페테리아","tel":"031-321-7780","addr":"경기도 용인시 처인구 역북동 314-1번지 1층","indutype":"일반휴게음식 - 서양음식","category":"restaurant"}]},{"lat":"37.244964049","long":"127.19140492","imageIndex":4,"items":[{"name":"아자아자장어구이 역북동본점","tel":"031-324-9292","addr":"경기도 용인시 처인구 역북동 213-12번지 1층","indutype":"일반휴게음식 - 일반한식","category":"restaurant"}]},{"lat":"37.230522528","long":"127.19012944","imageIndex":4,"items":[{"name":"아함흥냉면","tel":"031-335-7712","addr":"경기도 용인시 처인구 역북동 586-9번지","indutype":"일반휴게음식 - 일반한식","category":"restaurant"},{"name":"이향가든역북점","tel":"","addr":"경기도 용인시 처인구 역북동 586-9번지 1층","indutype":"일반휴게음식 - 일반한식","category":"restaurant"}]},{"lat":"37.236189056","long":"127.19074072","imageIndex":4,"items":[{"name":"안성깍두기","tel":"031-338-5657","addr":"경기도 용인시 처인구 역북동 428-8번지 정화빌1층상가","indutype":"일반휴게음식 - 일반한식","category":"restaurant"}]},{"lat":"37.229356275","long":"127.1868813","imageIndex":4,"items":[{"name":"알데스코(ALDESKO)","tel":"031-239-5691","addr":"경기도 용인시 처인구 역북동 768-6번지 1층101호1층상가","indutype":"일반휴게음식 - 서양음식","category":"restaurant"}]},{"lat":"37.240303714","long":"127.18105884","imageIndex":4,"items":[{"name":"애플하우스","tel":"031-322-1567","addr":"경기도 용인시 처인구 역북동 360-3번지 가동 1층","indutype":"일반휴게음식 - 일반한식","category":"restaurant"}]},{"lat":"37.237247519","long":"127.18803869","imageIndex":4,"items":[{"name":"야미가","tel":"031-322-5056","addr":"경기도 용인시 처인구 역북동 419-1번지","indutype":"일반휴게음식 - 일반한식","category":"restaurant"}]},{"lat":"37.2381356","long":"127.1905427","imageIndex":4,"items":[{"name":"야참있는 집","tel":"031-333-8856","addr":"경기도 용인시 처인구 역북동 414-20번지 1층","indutype":"일반휴게음식 - 일반한식","category":"restaurant"}]},{"lat":"37.230439773","long":"127.17332804","imageIndex":4,"items":[{"name":"어니스트로이어","tel":"031-5440-7122","addr":"경기도 용인시 처인구 역북동 551-10번지 1,2층","indutype":"일반휴게음식 - 서양음식","category":"restaurant"}]},{"lat":"37.229579195","long":"127.18838052","imageIndex":4,"items":[{"name":"어부가회","tel":"031-323-1424","addr":"경기도 용인시 처인구 역북동 598-7번지 1층","indutype":"일반휴게음식 - 일식·회집","category":"restaurant"},{"name":"전복어장","tel":"","addr":"경기도 용인시 처인구 역북동 598-7번지 1층 일부","indutype":"일반휴게음식 - 일반한식","category":"restaurant"},{"name":"착한해물가","tel":"031-333-0041","addr":"경기도 용인시 처인구 역북동 598-7번지","indutype":"일반휴게음식 - 일반한식","category":"restaurant"}]},{"lat":"37.229468724","long":"127.18407577","imageIndex":4,"items":[{"name":"엉클스치킨","tel":"031-333-4410","addr":"경기도 용인시 처인구 역북동 808번지 골드클래스 1층 104호","indutype":"일반휴게음식 - 스넥","category":"restaurant"}]},{"lat":"37.230023684","long":"127.18646599","imageIndex":4,"items":[{"name":"엠앤엠커피","tel":"","addr":"경기도 용인시 처인구 역북동 794-2번지 1층 101호","indutype":"일반휴게음식 - 서양음식","category":"restaurant"}]},{"lat":"37.229796622","long":"127.18762608","imageIndex":4,"items":[{"name":"역북골목길","tel":"","addr":"경기도 용인시 처인구 역북동 776-4번지","indutype":"일반휴게음식 - 주점","category":"restaurant"}]},{"lat":"37.230166044","long":"127.18762698","imageIndex":4,"items":[{"name":"역북냉면","tel":"031-000-0000","addr":"경기도 용인시 처인구 역북동 776-1번지 1동 101호","indutype":"일반휴게음식 - 일반한식","category":"restaurant"}]},{"lat":"37.236380995","long":"127.18901699","imageIndex":4,"items":[{"name":"연탄근돼지","tel":"031-323-3114","addr":"경기도 용인시 처인구 역북동 423-10번지","indutype":"일반휴게음식 - 일반한식","category":"restaurant"}]},{"lat":"37.236907706","long":"127.18638126","imageIndex":4,"items":[{"name":"영덕대게전문점","tel":"031-338-4660","addr":"경기도 용인시 처인구 역북동 416-3번지 서룡빌라","indutype":"일반휴게음식 - 일반한식","category":"restaurant"},{"name":"해람회수산시장","tel":"","addr":"경기도 용인시 처인구 역북동 416-3번지 서룡빌라 1층","indutype":"일반휴게음식 - 일식·회집","category":"restaurant"}]},{"lat":"37.229526489","long":"127.18751274","imageIndex":4,"items":[{"name":"오빠곱창","tel":"031-332-5225","addr":"경기도 용인시 처인구 역북동 777번지 1층","indutype":"일반휴게음식 - 일반한식","category":"restaurant"}]},{"lat":"37.238325565","long":"127.19006985","imageIndex":4,"items":[{"name":"오사카부르스 (용인명지대역점)","tel":"031-321-7959","addr":"경기도 용인시 처인구 역북동 415-7번지 2층","indutype":"일반휴게음식 - 주점","category":"restaurant"}]},{"lat":"37.2357693","long":"127.19404155","imageIndex":4,"items":[{"name":"오영쪽갈비","tel":"031-338-8876","addr":"경기도 용인시 처인구 역북동 441-9번지","indutype":"일반휴게음식 - 일반한식","category":"restaurant"}]},{"lat":"37.237852562","long":"127.19287478","imageIndex":4,"items":[{"name":"용인골곱창","tel":"031-336-9683","addr":"경기도 용인시 처인구 역북동 412-6번지","indutype":"일반휴게음식 - 일반한식","category":"restaurant"}]},{"lat":"37.244603423","long":"127.19153927","imageIndex":4,"items":[{"name":"우미랑","tel":"031-322-3224","addr":"경기도 용인시 처인구 역북동 213-15번지","indutype":"일반휴게음식 - 일반한식","category":"restaurant"}]},{"lat":"37.233965971","long":"127.18918009","imageIndex":4,"items":[{"name":"우슬초","tel":"031-338-0336","addr":"경기도 용인시 처인구 역북동 723-2번지","indutype":"일반휴게음식 - 일반한식","category":"restaurant"}]},{"lat":"37.236192656","long":"127.19412151","imageIndex":4,"items":[{"name":"웰빙삼시세끼","tel":"031-336-4666","addr":"경기도 용인시 처인구 역북동 439-23번지 1층","indutype":"일반휴게음식 - 일반한식","category":"restaurant"},{"name":"장충동케이","tel":"031-321-2612","addr":"경기도 용인시 처인구 역북동 439-23번지 1층","indutype":"일반휴게음식 - 일반한식","category":"restaurant"}]},{"lat":"37.238609064","long":"127.19310207","imageIndex":4,"items":[{"name":"윙윙치킨","tel":"031-336-0301","addr":"경기도 용인시 처인구 역북동 386-8,386-17","indutype":"일반휴게음식 - 주점","category":"restaurant"}]},{"lat":"37.233857883","long":"127.18915729","imageIndex":4,"items":[{"name":"윤숲","tel":"031-000-0000","addr":"경기도 용인시 처인구 역북동 723-3번지 1층","indutype":"일반휴게음식 - 서양음식","category":"restaurant"}]},{"lat":"37.2359365","long":"127.19090913","imageIndex":4,"items":[{"name":"이디야역북점","tel":"031-334-9030","addr":"경기도 용인시 처인구 역북동 436번지 1층","indutype":"일반휴게음식 - 서양음식","category":"restaurant"}]},{"lat":"37.236579424","long":"127.19453945","imageIndex":4,"items":[{"name":"이포막국수","tel":"031-333-7143","addr":"경기도 용인시 처인구 역북동 439-8번지","indutype":"일반휴게음식 - 스넥","category":"restaurant"}]},{"lat":"37.237852109","long":"127.19315652","imageIndex":4,"items":[{"name":"일광식당","tel":"031-335-6567","addr":"경기도 용인시 처인구 역북동 434-50번지","indutype":"일반휴게음식 - 일반한식","category":"restaurant"}]},{"lat":"37.229797867","long":"127.18682603","imageIndex":4,"items":[{"name":"장수면옥","tel":"031-339-9981","addr":"경기도 용인시 처인구 역북동 765-7번지 1층","indutype":"일반휴게음식 - 일반한식","category":"restaurant"}]},{"lat":"37.239717154","long":"127.19873975","imageIndex":4,"items":[{"name":"제이와이(JY)푸드","tel":"031-337-0366","addr":"경기도 용인시 처인구 역북동 465-1번지 1층","indutype":"일반휴게음식 - 일반한식","category":"restaurant"}]},{"lat":"37.23374105","long":"127.18896543","imageIndex":4,"items":[{"name":"제일추어탕","tel":"031-335-2727","addr":"경기도 용인시 처인구 역북동 723-5번지","indutype":"일반휴게음식 - 일반한식","category":"restaurant"}]},{"lat":"37.23066352","long":"127.18639993","imageIndex":4,"items":[{"name":"제주둘레국수용인점","tel":"031-321-3222","addr":"경기도 용인시 처인구 역북동 791-1번지 1층 101호","indutype":"일반휴게음식 - 일반한식","category":"restaurant"}]},{"lat":"37.243823258","long":"127.18918181","imageIndex":4,"items":[{"name":"조선팔도순대국","tel":"031-322-8347","addr":"경기도 용인시 처인구 역북동 313-3번지","indutype":"일반휴게음식 - 일반한식","category":"restaurant"}]},{"lat":"37.237830995","long":"127.18943753","imageIndex":4,"items":[{"name":"주막집","tel":"031-339-7481","addr":"경기도 용인시 처인구 역북동 424-1번지","indutype":"일반휴게음식 - 일반한식","category":"restaurant"}]},{"lat":"37.237630696","long":"127.19634522","imageIndex":4,"items":[{"name":"주선생","tel":"031-336-9788","addr":"경기도 용인시 처인구 역북동 475-23번지","indutype":"일반휴게음식 - 일반한식","category":"restaurant"}]},{"lat":"37.23352276","long":"127.19026081","imageIndex":4,"items":[{"name":"주식회사 그린푸드영양시스템","tel":"031-338-3331","addr":"경기도 용인시 처인구 역북동 504-1번지 용인시립도서관 가동 지하1층","indutype":"일반휴게음식 - 일반한식","category":"restaurant"}]},{"lat":"37.226499536","long":"127.18717859","imageIndex":4,"items":[{"name":"진주옥냉면","tel":"031-323-7007","addr":"경기도 용인시 처인구 역북동 605-12번지 B101호","indutype":"일반휴게음식 - 일반한식","category":"restaurant"},{"name":"커피베이","tel":"031-323-2525","addr":"경기도 용인시 처인구 역북동 605-12번지 B01 B02호","indutype":"일반휴게음식 - 서양음식","category":"restaurant"},{"name":"커피베이 (COFFEE BAY)","tel":"031-323-2525","addr":"경기도 용인시 처인구 역북동 605-12번지 지하1층","indutype":"일반휴게음식 - 서양음식","category":"restaurant"}]},{"lat":"37.237554432","long":"127.18767881","imageIndex":4,"items":[{"name":"쮸커","tel":"","addr":"경기도 용인시 처인구 역북동 418-5번지 1층","indutype":"일반휴게음식 - 서양음식","category":"restaurant"},{"name":"치킨플러스용인역북점","tel":"031-322-7070","addr":"경기도 용인시 처인구 역북동 418-5번지 102호","indutype":"일반휴게음식 - 스넥","category":"restaurant"}]},{"lat":"37.23219089","long":"127.18920953","imageIndex":4,"items":[{"name":"차가네손두부","tel":"031-335-2070","addr":"경기도 용인시 처인구 역북동 504-29번지","indutype":"일반휴게음식 - 일반한식","category":"restaurant"}]},{"lat":"37.238915196","long":"127.19323808","imageIndex":4,"items":[{"name":"차칸곱창","tel":"031-323-5583","addr":"경기도 용인시 처인구 역북동 380-7번지 1층","indutype":"일반휴게음식 - 일반한식","category":"restaurant"},{"name":"히릿카페","tel":"070-8616-2223","addr":"경기도 용인시 처인구 역북동 380-7번지 1층","indutype":"일반휴게음식 - 서양음식","category":"restaurant"}]},{"lat":"37.229330536","long":"127.18604739","imageIndex":4,"items":[{"name":"창","tel":"031-111-1111","addr":"경기도 용인시 처인구 역북동 770번지 1층","indutype":"일반휴게음식 - 주점","category":"restaurant"}]},{"lat":"37.244801649","long":"127.19153976","imageIndex":4,"items":[{"name":"처인맛집 바다향왕코다리","tel":"031-332-5577","addr":"경기도 용인시 처인구 역북동 213-13번지","indutype":"일반휴게음식 - 일반한식","category":"restaurant"}]},{"lat":"37.23769244","long":"127.19715679","imageIndex":4,"items":[{"name":"천하장사","tel":"031-339-7745","addr":"경기도 용인시 처인구 역북동 475-15","indutype":"일반휴게음식 - 일반한식","category":"restaurant"}]},{"lat":"37.233353608","long":"127.18896448","imageIndex":4,"items":[{"name":"청진동해장국","tel":"031-339-3848","addr":"경기도 용인시 처인구 역북동 582-24번지 1층","indutype":"일반휴게음식 - 일반한식","category":"restaurant"}]},{"lat":"37.236491954","long":"127.19290518","imageIndex":4,"items":[{"name":"청춘","tel":"031-321-5592","addr":"경기도 용인시 처인구 역북동 438-8번지","indutype":"일반휴게음식 - 주점","category":"restaurant"},{"name":"커피블로그","tel":"031-336-2819","addr":"경기도 용인시 처인구 역북동 438-8번지","indutype":"일반휴게음식 - 일반한식","category":"restaurant"}]},{"lat":"37.236632756","long":"127.19499036","imageIndex":4,"items":[{"name":"카파커피 역북소공원점","tel":"031-322-0447","addr":"경기도 용인시 처인구 역북동 482-1번지 1층","indutype":"일반휴게음식 - 서양음식","category":"restaurant"}]},{"lat":"37.236163345","long":"127.18990673","imageIndex":4,"items":[{"name":"카파커피명지대점","tel":"031-334-0108","addr":"경기도 용인시 처인구 역북동 428-13번지 흥양빌딩 1층","indutype":"일반휴게음식 - 서양음식","category":"restaurant"}]},{"lat":"37.236435587","long":"127.18867905","imageIndex":4,"items":[{"name":"카페 삼성디지털프라자 용인시청점","tel":"031-324-9305","addr":"경기도 용인시 처인구 역북동 423-12번지 2층","indutype":"일반휴게음식 - 서양음식","category":"restaurant"}]},{"lat":"37.229608178","long":"127.18712981","imageIndex":4,"items":[{"name":"카페글리(Caffe Glee)","tel":"031-203-1052","addr":"경기도 용인시 처인구 역북동 768-2번지 1층","indutype":"일반휴게음식 - 서양음식","category":"restaurant"}]},{"lat":"37.230023125","long":"127.18682658","imageIndex":4,"items":[{"name":"카페더미라리","tel":"070-7728-9865","addr":"경기도 용인시 처인구 역북동 765번지 1층 101호","indutype":"일반휴게음식 - 서양음식","category":"restaurant"}]},{"lat":"37.229103092","long":"127.18745536","imageIndex":4,"items":[{"name":"카페모노비(cafe monoB)","tel":"031-333-3434","addr":"경기도 용인시 처인구 역북동 777-3번지 1층 101호","indutype":"일반휴게음식 - 서양음식","category":"restaurant"}]},{"lat":"37.230553961","long":"127.18732368","imageIndex":4,"items":[{"name":"카페보니또용인역북점","tel":"02-2232-6338","addr":"경기도 용인시 처인구 역북동 762-2번지 1층","indutype":"일반휴게음식 - 일반한식","category":"restaurant"}]},{"lat":"37.247794957","long":"127.1903525","imageIndex":4,"items":[{"name":"카페씨엘빈(Cafe Ciel Bean)","tel":"","addr":"경기도 용인시 처인구 역북동 215-8번지 1층","indutype":"일반휴게음식 - 서양음식","category":"restaurant"}]},{"lat":"37.230663083","long":"127.18668164","imageIndex":4,"items":[{"name":"커피사미공","tel":"031-9947-8417","addr":"경기도 용인시 처인구 역북동 575-1번지","indutype":"일반휴게음식 - 서양음식","category":"restaurant"}]},{"lat":"37.236221374","long":"127.19307354","imageIndex":4,"items":[{"name":"커피상회","tel":"031-322-8072","addr":"경기도 용인시 처인구 역북동 441번지","indutype":"일반휴게음식 - 서양음식","category":"restaurant"}]},{"lat":"37.239271128","long":"127.19039901","imageIndex":4,"items":[{"name":"커피이든","tel":"031-321-8767","addr":"경기도 용인시 처인구 역북동 377-12번지 1층 101호","indutype":"일반휴게음식 - 서양음식","category":"restaurant"}]},{"lat":"37.23863129","long":"127.19046504","imageIndex":4,"items":[{"name":"콤파스","tel":"031-000-0000","addr":"경기도 용인시 처인구 역북동 415-2번지","indutype":"일반휴게음식 - 서양음식","category":"restaurant"}]},{"lat":"37.237380622","long":"127.18934627","imageIndex":4,"items":[{"name":"큰가마솥","tel":"031-321-9797","addr":"경기도 용인시 처인구 역북동 424-3번지","indutype":"일반휴게음식 - 일반한식","category":"restaurant"}]},{"lat":"37.23665911","long":"127.19540739","imageIndex":4,"items":[{"name":"큰고을","tel":"031-321-9298","addr":"경기도 용인시 처인구 역북동 482-4번지 1층","indutype":"일반휴게음식 - 일반한식","category":"restaurant"}]},{"lat":"37.229609053","long":"127.1865664","imageIndex":4,"items":[{"name":"톨레랑스","tel":"031-335-9753","addr":"경기도 용인시 처인구 역북동 767-2번지 101호","indutype":"일반휴게음식 - 서양음식","category":"restaurant"}]},{"lat":"37.239603937","long":"127.19076046","imageIndex":4,"items":[{"name":"트롤롤로(Trololol)","tel":"","addr":"경기도 용인시 처인구 역북동 377-4번지 1층","indutype":"일반휴게음식 - 일반한식","category":"restaurant"}]},{"lat":"37.239991504","long":"127.19068254","imageIndex":4,"items":[{"name":"팔칠닭강정","tel":"031-321-8792","addr":"경기도 용인시 처인구 역북동 442-1번지 1층","indutype":"일반휴게음식 - 일반한식","category":"restaurant"}]},{"lat":"37.236272357","long":"127.18934354","imageIndex":4,"items":[{"name":"팔푼이역북점","tel":"031-335-4844","addr":"경기도 용인시 처인구 역북동 428-15번지 2층","indutype":"일반휴게음식 - 일반한식","category":"restaurant"}]},{"lat":"37.237109781","long":"127.18968368","imageIndex":4,"items":[{"name":"페리카나","tel":"031-338-6641","addr":"경기도 용인시 처인구 역북동 425-6번지","indutype":"일반휴게음식 - 서양음식","category":"restaurant"}]},{"lat":"37.236771147","long":"127.19298476","imageIndex":4,"items":[{"name":"포유부대찌개","tel":"031-111-1111","addr":"경기도 용인시 처인구 역북동 438-7번지","indutype":"일반휴게음식 - 일반한식","category":"restaurant"}]},{"lat":"37.239021667","long":"127.19426389","imageIndex":4,"items":[{"name":"풍경있는카페휴~","tel":"031-324-9305","addr":"경기도 용인시 처인구 역북동 453-1번지","indutype":"일반휴게음식 - 서양음식","category":"restaurant"}]},{"lat":"37.236803609","long":"127.18957023","imageIndex":4,"items":[{"name":"피에스타","tel":"031-335-4107","addr":"경기도 용인시 처인구 역북동 428-19번지","indutype":"일반휴게음식 - 서양음식","category":"restaurant"}]},{"lat":"37.236217887","long":"127.1896026","imageIndex":4,"items":[{"name":"피자투어","tel":"031-335-0263","addr":"경기도 용인시 처인구 역북동 428-14번지 기덕빌딩 1층","indutype":"일반휴게음식 - 서양음식","category":"restaurant"}]},{"lat":"37.230853581","long":"127.17379098","imageIndex":4,"items":[{"name":"학마루","tel":"031-321-1201","addr":"경기도 용인시 처인구 역북동 551-9번지 1층","indutype":"일반휴게음식 - 일반한식","category":"restaurant"}]},{"lat":"37.236519256","long":"127.19273621","imageIndex":4,"items":[{"name":"한그룻국수","tel":"031-335-8613","addr":"경기도 용인시 처인구 역북동 438-9번지 1층","indutype":"일반휴게음식 - 일반한식","category":"restaurant"}]},{"lat":"37.22716607","long":"127.18732669","imageIndex":4,"items":[{"name":"항아리보쌈 용인점/주식회사 명지푸드","tel":"031-333-5379","addr":"경기도 용인시 처인구 역북동 605-1번지","indutype":"일반휴게음식 - 일반한식","category":"restaurant"}]},{"lat":"37.24688483","long":"127.1904066","imageIndex":4,"items":[{"name":"해원일식","tel":"031-336-7717","addr":"경기도 용인시 처인구 역북동 214-3번지","indutype":"일반휴게음식 - 일식·회집","category":"restaurant"}]},{"lat":"37.238104762","long":"127.18134667","imageIndex":4,"items":[{"name":"행랑채","tel":"031-335-3275","addr":"경기도 용인시 처인구 역북동 366-6 1/2","indutype":"일반휴게음식 - 일반한식","category":"restaurant"}]},{"lat":"37.235772826","long":"127.19184407","imageIndex":4,"items":[{"name":"홍복해물","tel":"031-336-4729","addr":"경기도 용인시 처인구 역북동 436-12번지","indutype":"일반휴게음식 - 일반한식","category":"restaurant"}]},{"lat":"37.245192305","long":"127.18951203","imageIndex":4,"items":[{"name":"홍성식당","tel":"031-322-4276","addr":"경기도 용인시 처인구 역북동 197-7번지 1층","indutype":"일반휴게음식 - 일반한식","category":"restaurant"}]},{"lat":"37.226578799","long":"127.18835064","imageIndex":4,"items":[{"name":"화사랑숯불갈비용인점","tel":"031-339-5999","addr":"경기도 용인시 처인구 역북동 593-30번지 지하1층~지상1층","indutype":"일반휴게음식 - 일반한식","category":"restaurant"}]},{"lat":"37.238491984","long":"127.19306797","imageIndex":4,"items":[{"name":"황금꿀꿀이","tel":"031-321-0284","addr":"경기도 용인시 처인구 역북동 386-17번지 외1필지","indutype":"일반휴게음식 - 일반한식","category":"restaurant"}]},{"lat":"37.237823518","long":"127.19412563","imageIndex":4,"items":[{"name":"회포차","tel":"031-328-8753","addr":"경기도 용인시 처인구 역북동 454-57번지 1층","indutype":"일반휴게음식 - 일반한식","category":"restaurant"}]}]