[{"lat":"37.585337808","long":"126.87589781","imageIndex":17,"items":[{"name":"(주)금하창호","tel":"02-309-7235","addr":"경기도 고양시 덕양구 덕은동 191-19번지","indutype":"","category":"other"},{"name":"(주)금하창호","tel":"02-309-7235","addr":"경기도 고양시 덕양구 덕은동 191-19번지","indutype":"건축자재 - 보일러·펌프·샷시","category":"other"}]},{"lat":"37.587113001","long":"126.87614388","imageIndex":17,"items":[{"name":"(주)리투스코리아","tel":"031-355-9332","addr":"경기도 고양시 덕양구 덕은동 206번지","indutype":"","category":"other"},{"name":"카나에","tel":"070-8834-5650","addr":"경기도 고양시 덕양구 덕은동 206번지","indutype":"","category":"other"}]},{"lat":"37.585976965","long":"126.87539857","imageIndex":17,"items":[{"name":"(주)백산하이테크","tel":"02-2636-5331","addr":"경기도 고양시 덕양구 덕은동 191-1번지","indutype":"","category":"other"}]},{"lat":"37.581002762","long":"126.86662193","imageIndex":17,"items":[{"name":"(주)비엠글라스텍","tel":"02-3158-2941","addr":"경기도 고양시 덕양구 덕은동 326-2번지","indutype":"건축자재 - 유리","category":"other"},{"name":"(주)비엠글라스텍","tel":"02-3158-2941","addr":"경기도 고양시 덕양구 덕은동 326-2번지","indutype":"","category":"other"}]},{"lat":"37.594387497","long":"126.87953979","imageIndex":17,"items":[{"name":"(주)신생당","tel":"070-8852-8888","addr":"경기도 고양시 덕양구 덕은동 60-2번지","indutype":"","category":"other"}]},{"lat":"37.587752732","long":"126.87617676","imageIndex":17,"items":[{"name":"(주)오케이로지스","tel":"031-307-6666","addr":"경기도 고양시 덕양구 덕은동 209-6번지","indutype":"","category":"other"},{"name":"캠핑홀릭","tel":"02-599-3077","addr":"경기도 고양시 덕양구 덕은동 209-6번지","indutype":"직물 - 기타직물","category":"other"},{"name":"캠핑홀릭","tel":"02-599-3077","addr":"경기도 고양시 덕양구 덕은동 209-6번지","indutype":"","category":"other"}]},{"lat":"37.579006353","long":"126.86215388","imageIndex":17,"items":[{"name":"(주)지산씨엔에스","tel":"02-717-8555","addr":"경기도 고양시 덕양구 덕은동 425-60번지","indutype":"사무통신 - 컴퓨터","category":"other"},{"name":"(주)지산씨엔에스","tel":"02-717-8555","addr":"경기도 고양시 덕양구 덕은동 425-60번지","indutype":"","category":"other"}]},{"lat":"37.580811914","long":"126.86520715","imageIndex":17,"items":[{"name":"Can114생활유통","tel":"02-3158-3345","addr":"경기도 고양시 덕양구 덕은동 378-9 단층창고겸마당","indutype":"","category":"other"},{"name":"Can114생활유통","tel":"02-3158-3345","addr":"경기도 고양시 덕양구 덕은동","indutype":"신변잡화 - 기타잡화","category":"other"}]},{"lat":"37.594306053","long":"126.87920023","imageIndex":17,"items":[{"name":"RUP모터스","tel":"02-3159-0808","addr":"경기도 고양시 덕양구 덕은동 54-8번지","indutype":"","category":"other"}]},{"lat":"37.589806485","long":"126.87573171","imageIndex":17,"items":[{"name":"Y-GYM Sports","tel":"031-7757-2487","addr":"경기도 고양시 덕양구 덕은동 131-12번지","indutype":"","category":"other"},{"name":"Y-GYM Sports","tel":"031-7757-2487","addr":"경기도 고양시 덕양구 덕은동","indutype":"회원제형태 - 레져업소","category":"other"},{"name":"산장테니스장","tel":"02-3158-3188","addr":"경기도 고양시 덕양구 덕은동 131-12,120-12,120-19","indutype":"","category":"other"}]},{"lat":"37.595307471","long":"126.88047809","imageIndex":17,"items":[{"name":"YS산업","tel":"","addr":"경기도 고양시 덕양구 덕은동 65번지","indutype":"신변잡화 - 기타잡화","category":"other"}]},{"lat":"37.581558227","long":"126.86392649","imageIndex":17,"items":[{"name":"감나무집","tel":"02-3158-6033","addr":"경기도 고양시 덕양구 덕은동 373-3번지","indutype":"","category":"other"}]},{"lat":"37.585558249","long":"126.85620896","imageIndex":17,"items":[{"name":"거성기업","tel":"02-3158-5245","addr":"경기도 고양시 덕양구 덕은동 544번지","indutype":"","category":"other"},{"name":"마포유통","tel":"02-3158-6603","addr":"경기도 고양시 덕양구 덕은동 544번지","indutype":"","category":"other"},{"name":"마포유통","tel":"02-3158-6603","addr":"경기도 고양시 덕양구 덕은동 544번지","indutype":"유통업 영리 - 기타유통업","category":"other"}]},{"lat":"37.59016586","long":"126.87479134","imageIndex":17,"items":[{"name":"경도프린팅","tel":"02-3159-8386","addr":"경기도 고양시 덕양구 덕은동 139-25번지","indutype":"","category":"other"}]},{"lat":"37.581780364","long":"126.86131089","imageIndex":17,"items":[{"name":"경서애견스포츠타운","tel":"02-3158-0028","addr":"경기도 고양시 덕양구 덕은동 395번지","indutype":"","category":"other"}]},{"lat":"37.591498331","long":"126.8824205","imageIndex":17,"items":[{"name":"경성렉산","tel":"031-3158-3838","addr":"경기도 고양시 덕양구 덕은동","indutype":"건축자재 - 기타건축자재","category":"other"}]},{"lat":"37.583721685","long":"126.85736735","imageIndex":17,"items":[{"name":"계란나라","tel":"02-3158-0422","addr":"경기도 고양시 덕양구 덕은동 537-5번지","indutype":"","category":"other"}]},{"lat":"37.580666618","long":"126.86423382","imageIndex":17,"items":[{"name":"고양타이어","tel":"02-375-1481","addr":"경기도 고양시 덕양구 덕은동 444-2번지","indutype":"","category":"other"},{"name":"덕은상사","tel":"02-375-1481","addr":"경기도 고양시 덕양구 덕은동 444-2번지","indutype":"","category":"other"},{"name":"제일상사","tel":"02-305-0343","addr":"경기도 고양시 덕양구 덕은동 444-2번지","indutype":"","category":"other"}]},{"lat":"37.595143319","long":"126.87858739","imageIndex":17,"items":[{"name":"고향식당","tel":"02-3158-0567","addr":"경기도 고양시 덕양구 덕은동 50-8번지","indutype":"","category":"other"},{"name":"지수헤어","tel":"02-3158-4938","addr":"경기도 고양시 덕양구 덕은동 50-8번지","indutype":"","category":"other"}]},{"lat":"37.586779615","long":"126.8761218","imageIndex":17,"items":[{"name":"골통쪽갈비","tel":"02-3159-8876","addr":"경기도 고양시 덕양구 덕은동 201-4번지","indutype":"","category":"other"},{"name":"훼미리마트고양덕은점","tel":"02-3159-8382","addr":"경기도 고양시 덕양구 덕은동 201-4번지","indutype":"","category":"other"}]},{"lat":"37.585223363","long":"126.8701466","imageIndex":17,"items":[{"name":"국방대세차장","tel":"02-305-0997","addr":"경기도 고양시 덕양구 덕은동 산37-5번지","indutype":"","category":"other"}]},{"lat":"37.578610744","long":"126.86284518","imageIndex":17,"items":[{"name":"국제카써비스","tel":"031-987-8305","addr":"경기도 고양시 덕양구 덕은동 425-66번지","indutype":"","category":"other"}]},{"lat":"37.585526806","long":"126.87570502","imageIndex":17,"items":[{"name":"금하실업","tel":"02-3159-1100","addr":"경기도 고양시 덕양구 덕은동 191-2번지","indutype":"건축자재 - 보일러·펌프·샷시","category":"other"},{"name":"금하실업","tel":"02-3159-1100","addr":"경기도 고양시 덕양구 덕은동 191-2번지","indutype":"","category":"other"}]},{"lat":"37.595746747","long":"126.87837125","imageIndex":17,"items":[{"name":"김치스쿨","tel":"02-308-9688","addr":"경기도 고양시 덕양구 덕은동 12-1번지","indutype":"","category":"other"}]},{"lat":"37.596116111","long":"126.87833666","imageIndex":17,"items":[{"name":"꼬닭","tel":"02-3159-7425","addr":"경기도 고양시 덕양구 덕은동 15-22번지","indutype":"","category":"other"}]},{"lat":"37.58183769","long":"126.86406183","imageIndex":17,"items":[{"name":"꽃미남이사","tel":"02-1644-2424","addr":"경기도 고양시 덕양구 덕은동 373-11번지","indutype":"","category":"other"}]},{"lat":"37.584810326","long":"126.85611986","imageIndex":17,"items":[{"name":"내쇼날ENG","tel":"02-3159-8881","addr":"경기도 고양시 덕양구 덕은동 541번지","indutype":"기타 - 기계공구","category":"other"},{"name":"내쇼날ENG","tel":"02-3159-8881","addr":"경기도 고양시 덕양구 덕은동 541번지","indutype":"","category":"other"},{"name":"주식회사내쇼날이엔지","tel":"02-3159-8881","addr":"경기도 고양시 덕양구 덕은동 541번지","indutype":"","category":"other"}]},{"lat":"37.588779846","long":"126.87617502","imageIndex":17,"items":[{"name":"다옴테크","tel":"02-3401-0605","addr":"경기도 고양시 덕양구 덕은동 128-2번지","indutype":"사무통신 - 사무용 OA기기","category":"other"},{"name":"오에이파트너","tel":"","addr":"경기도 고양시 덕양구 덕은동 128-2번지","indutype":"사무통신 - 사무용 OA기기","category":"other"},{"name":"오에이파트너","tel":"","addr":"경기도 고양시 덕양구 덕은동 128-2번지","indutype":"","category":"other"}]},{"lat":"37.597251997","long":"126.87895756","imageIndex":17,"items":[{"name":"달린(darlin)","tel":"","addr":"경기도 고양시 덕양구 덕은동 9-16번지","indutype":"신변잡화 - 액세서리","category":"other"}]},{"lat":"37.594198351","long":"126.87959671","imageIndex":17,"items":[{"name":"대경안전유리(주)","tel":"02-304-8966","addr":"경기도 고양시 덕양구 덕은동 60-10번지","indutype":"건축자재 - 유리","category":"other"},{"name":"대경안전유리(주)","tel":"02-304-8966","addr":"경기도 고양시 덕양구 덕은동 60-10번지","indutype":"","category":"other"}]},{"lat":"37.586336144","long":"126.86626123","imageIndex":17,"items":[{"name":"대덕산농장","tel":"02-3158-2162","addr":"경기도 고양시 덕양구 덕은동 361-2번지","indutype":"","category":"other"}]},{"lat":"37.590943172","long":"126.87708848","imageIndex":17,"items":[{"name":"대덕주차장","tel":"070-8945-8545","addr":"경기도 고양시 덕양구 덕은동 115번지","indutype":"","category":"other"},{"name":"주주크린","tel":"031-941-0024","addr":"경기도 고양시 덕양구 덕은동 115번지","indutype":"","category":"other"},{"name":"주주크린","tel":"031-941-0024","addr":"경기도 고양시 덕양구 덕은동 115번지","indutype":"용역 서비스 - 종합용역","category":"other"}]},{"lat":"37.581449589","long":"126.86348517","imageIndex":17,"items":[{"name":"대동강","tel":"02-3158-2213","addr":"경기도 고양시 덕양구 덕은동 411-1번지","indutype":"","category":"other"},{"name":"덕은슈퍼","tel":"031-3158-5826","addr":"경기도 고양시 덕양구 덕은동 411-1번지","indutype":"","category":"other"}]},{"lat":"37.578393119","long":"126.86942288","imageIndex":17,"items":[{"name":"대성상사","tel":"070-8282-4434","addr":"경기도 고양시 덕양구 덕은동 323번지","indutype":"","category":"other"},{"name":"대성상사","tel":"070-8282-4434","addr":"경기도 고양시 덕양구 덕은동 323번지","indutype":"유통업 영리 - 기타유통업","category":"other"},{"name":"생수대리점","tel":"02-306-1068","addr":"경기도 고양시 덕양구 덕은동 323번지","indutype":"","category":"other"},{"name":"생수대리점","tel":"02-306-1068","addr":"경기도 고양시 덕양구 덕은동 323번지","indutype":"유통업 영리 - 기타유통업","category":"other"},{"name":"현대상사","tel":"02-702-4057","addr":"경기도 고양시 덕양구 덕은동 323번지","indutype":"","category":"other"}]},{"lat":"37.587139312","long":"126.87547584","imageIndex":17,"items":[{"name":"대원상사","tel":"02-3158-6167","addr":"경기도 고양시 덕양구 덕은동 158번지","indutype":"건축자재 - 기타건축자재","category":"other"},{"name":"대원상사","tel":"02-3158-6167","addr":"경기도 고양시 덕양구 덕은동 158번지","indutype":"","category":"other"}]},{"lat":"37.595278263","long":"126.87839467","imageIndex":17,"items":[{"name":"덕산익스프레스","tel":"02-334-0024","addr":"경기도 고양시 덕양구 덕은동 50-2번지","indutype":"","category":"other"},{"name":"민바루","tel":"02-3158-4600","addr":"경기도 고양시 덕양구 덕은동 50-2번지","indutype":"레져용품 - 스포츠·레져용품","category":"other"},{"name":"민바루","tel":"02-3158-4600","addr":"경기도 고양시 덕양구 덕은동 50-2번지","indutype":"","category":"other"},{"name":"신한종합상사","tel":"02-3158-4492","addr":"경기도 고양시 덕양구 덕은동 50-2번지","indutype":"","category":"other"},{"name":"아르떼헤어샵","tel":"02-3158-2205","addr":"경기도 고양시 덕양구 덕은동 50-2번지","indutype":"","category":"other"},{"name":"치킨프라임","tel":"02-3158-5714","addr":"경기도 고양시 덕양구 덕은동 50-2번지","indutype":"","category":"other"}]},{"lat":"37.594810137","long":"126.87875779","imageIndex":17,"items":[{"name":"덕안약국","tel":"02-814-3707","addr":"경기도 고양시 덕양구 덕은동 52-6번지","indutype":"","category":"other"},{"name":"덕은구판장","tel":"02-3158-5808","addr":"경기도 고양시 덕양구 덕은동 52-6번지","indutype":"","category":"other"}]},{"lat":"37.589032059","long":"126.87611798","imageIndex":17,"items":[{"name":"덕은마트","tel":"070-8866-6290","addr":"경기도 고양시 덕양구 덕은동 142-8번지","indutype":"","category":"other"}]},{"lat":"37.594890963","long":"126.87850855","imageIndex":17,"items":[{"name":"덕은식당","tel":"02-3158-4851","addr":"경기도 고양시 덕양구 덕은동 49-10번지","indutype":"","category":"other"},{"name":"덕은식당","tel":"02-3158-4851","addr":"경기도 고양시 덕양구 덕은동 49-10번지","indutype":"","category":"other"}]},{"lat":"37.581116974","long":"126.86411977","imageIndex":17,"items":[{"name":"덕은잔치국수","tel":"02-3158-4842","addr":"경기도 고양시 덕양구 덕은동 413-1번지","indutype":"","category":"other"},{"name":"제일카센타","tel":"02-3159-8078","addr":"경기도 고양시 덕양구 덕은동 413-1번지","indutype":"","category":"other"}]},{"lat":"37.586581789","long":"126.87648444","imageIndex":17,"items":[{"name":"덕은점 현대자동차","tel":"02-353-8290","addr":"경기도 고양시 덕양구 덕은동 201-7번지","indutype":"","category":"other"}]},{"lat":"37.586221361","long":"126.87645108","imageIndex":17,"items":[{"name":"덕은점기아오토큐","tel":"02-3159-7300","addr":"경기도 고양시 덕양구 덕은동 201-8번지","indutype":"","category":"other"}]},{"lat":"37.592337276","long":"126.87484423","imageIndex":17,"items":[{"name":"덕은지점","tel":"02-3159-9853","addr":"경기도 고양시 덕양구 덕은동 17-8번지","indutype":"","category":"other"}]},{"lat":"37.596863933","long":"126.87834674","imageIndex":17,"items":[{"name":"도자기아울렛","tel":"031-970-9870","addr":"경기도 고양시 덕양구 덕은동 9-106번지","indutype":"","category":"other"},{"name":"도자기아울렛","tel":"031-970-9870","addr":"경기도 고양시 덕양구 덕은동 9-106번지","indutype":"주방용구 - 주방용식기","category":"other"}]},{"lat":"37.581224629","long":"126.87159147","imageIndex":17,"items":[{"name":"돈순이랑우돌이","tel":"02-3158-5582","addr":"경기도 고양시 덕양구 덕은동 258-1번지","indutype":"","category":"other"}]},{"lat":"37.586977258","long":"126.87558934","imageIndex":17,"items":[{"name":"동양전기상사/원격지","tel":"02-3159-7132","addr":"경기도 고양시 덕양구 덕은동 158-1번지","indutype":"기타 - 기타 전문점","category":"other"},{"name":"동양전기상사/원격지","tel":"02-3159-7132","addr":"경기도 고양시 덕양구 덕은동 158-1번지","indutype":"","category":"other"}]},{"lat":"37.591832569","long":"126.8746979","imageIndex":17,"items":[{"name":"라니까사","tel":"02-3159-3338","addr":"경기도 고양시 덕양구 덕은동 17-13번지","indutype":"가구 - 일반가구","category":"other"}]},{"lat":"37.580865219","long":"126.86456176","imageIndex":17,"items":[{"name":"맥주광장","tel":"02-3158-1626","addr":"경기도 고양시 덕양구 덕은동 447-2번지","indutype":"","category":"other"}]},{"lat":"37.579167229","long":"126.86106678","imageIndex":17,"items":[{"name":"무지개유통","tel":"031-970-1504","addr":"경기도 고양시 덕양구 덕은동 425-50번지","indutype":"","category":"other"}]},{"lat":"37.587834148","long":"126.87648232","imageIndex":17,"items":[{"name":"물레방아메기전문점","tel":"02-3158-3422","addr":"경기도 고양시 덕양구 덕은동 209-3번지","indutype":"","category":"other"}]},{"lat":"37.594695358","long":"126.88101128","imageIndex":17,"items":[{"name":"믹스&매치","tel":"070-8814-5968","addr":"경기도 고양시 덕양구 덕은동 64-7번지","indutype":"","category":"other"}]},{"lat":"37.594027071","long":"126.87950641","imageIndex":17,"items":[{"name":"방일해장국덕양1호점","tel":"02-3158-4637","addr":"경기도 고양시 덕양구 덕은동 59-4번지","indutype":"","category":"other"},{"name":"아리랑회관","tel":"02-3159-8788","addr":"경기도 고양시 덕양구 덕은동 59-4번지","indutype":"","category":"other"}]},{"lat":"37.586554371","long":"126.87612218","imageIndex":17,"items":[{"name":"배밭식당","tel":"02-3158-2147","addr":"경기도 고양시 덕양구 덕은동 201-2번지","indutype":"","category":"other"},{"name":"유카케어","tel":"070-7221-5902","addr":"경기도 고양시 덕양구 덕은동 201-2번지","indutype":"","category":"other"},{"name":"현대자동차공업사","tel":"02-3159-2050","addr":"경기도 고양시 덕양구 덕은동 201-2","indutype":"","category":"other"}]},{"lat":"37.587164446","long":"126.87373221","imageIndex":17,"items":[{"name":"베스트메디","tel":"","addr":"경기도 고양시 덕양구 덕은동 571-3번지","indutype":"","category":"other"}]},{"lat":"37.586392608","long":"126.8765074","imageIndex":17,"items":[{"name":"별밥","tel":"02-3158-2028","addr":"경기도 고양시 덕양구 덕은동 201-1번지","indutype":"","category":"other"}]},{"lat":"37.587779018","long":"126.87548607","imageIndex":17,"items":[{"name":"봉우리한우정육식당","tel":"02-2637-6700","addr":"경기도 고양시 덕양구 덕은동 151-1번지","indutype":"","category":"other"},{"name":"북극곰카페","tel":"02-3159-7233","addr":"경기도 고양시 덕양구 덕은동 151-1번지","indutype":"","category":"other"}]},{"lat":"37.586724838","long":"126.8754539","imageIndex":17,"items":[{"name":"블러썸미디어","tel":"070-7770-8744","addr":"경기도 고양시 덕양구 덕은동 198번지","indutype":"","category":"other"},{"name":"주식회사미래아웃도어","tel":"031-3158-3640","addr":"경기도 고양시 덕양구 덕은동 198번지","indutype":"","category":"other"},{"name":"주식회사미래아웃도어/올리브물대","tel":"02-3158-3640","addr":"경기도 고양시 덕양구 덕은동 198번지","indutype":"","category":"other"}]},{"lat":"37.597749469","long":"126.8808138","imageIndex":17,"items":[{"name":"산마루슈퍼","tel":"02-3158-2835","addr":"경기도 고양시 덕양구 덕은동 7-19번지","indutype":"","category":"other"}]},{"lat":"37.586895153","long":"126.87464976","imageIndex":17,"items":[{"name":"산수갑산","tel":"02-3158-0724","addr":"경기도 고양시 덕양구 덕은동 159번지","indutype":"","category":"other"}]},{"lat":"37.596614613","long":"126.881178","imageIndex":17,"items":[{"name":"삼도","tel":"02-877-2985","addr":"경기도 고양시 덕양구 덕은동 9-182번지","indutype":"","category":"other"},{"name":"삼도","tel":"02-877-2985","addr":"경기도 고양시 덕양구 덕은동","indutype":"전기제품 - 가전제품","category":"other"}]},{"lat":"37.597413934","long":"126.87873082","imageIndex":17,"items":[{"name":"삼하","tel":"02-3158-2361","addr":"경기도 고양시 덕양구 덕은동 9-33번지","indutype":"","category":"other"}]},{"lat":"37.579138216","long":"126.85942533","imageIndex":17,"items":[{"name":"상암C.W","tel":"02-3158-0066","addr":"경기도 고양시 덕양구 덕은동 425-97, 425-94","indutype":"","category":"other"}]},{"lat":"37.585914616","long":"126.87606666","imageIndex":17,"items":[{"name":"상암OMC24H셀프세차타운","tel":"02-3158-4302","addr":"경기도 고양시 덕양구 덕은동 190-4번지","indutype":"","category":"other"}]},{"lat":"37.578949793","long":"126.86007097","imageIndex":17,"items":[{"name":"상암가든","tel":"02-3158-0167","addr":"경기도 고양시 덕양구 덕은동 425-94번지","indutype":"","category":"other"}]},{"lat":"37.579057568","long":"126.85978775","imageIndex":17,"items":[{"name":"상암월드마트","tel":"02-3158-0066","addr":"경기도 고양시 덕양구 덕은동 425-28번지","indutype":"","category":"other"},{"name":"상암타이어","tel":"02-3158-1125","addr":"경기도 고양시 덕양구 덕은동 425-28번지","indutype":"","category":"other"}]},{"lat":"37.596803643","long":"126.88100784","imageIndex":17,"items":[{"name":"서광합판목재상사","tel":"02-308-8809","addr":"경기도 고양시 덕양구 덕은동 9-183번지","indutype":"","category":"other"}]},{"lat":"37.594504126","long":"126.87906402","imageIndex":17,"items":[{"name":"서울우유수색대리점","tel":"02-372-8185","addr":"경기도 고양시 덕양구 덕은동 54-6번지","indutype":"","category":"other"}]},{"lat":"37.593140172","long":"126.88445597","imageIndex":17,"items":[{"name":"성광경영산업","tel":"02-3158-3396","addr":"경기도 고양시 덕양구 덕은동 81","indutype":"","category":"other"}]},{"lat":"37.593194288","long":"126.8845125","imageIndex":17,"items":[{"name":"성광경영산업","tel":"02-3158-3396","addr":"경기도 고양시 덕양구 덕은동","indutype":"기타 - 기계공구","category":"other"}]},{"lat":"37.584612209","long":"126.8561995","imageIndex":17,"items":[{"name":"성신","tel":"02-1234-1234","addr":"경기도 고양시 덕양구 덕은동 540번지","indutype":"유통업 영리 - 편 의 점","category":"other"}]},{"lat":"37.583804244","long":"126.87414559","imageIndex":17,"items":[{"name":"성은기업","tel":"02-302-7295","addr":"경기도 고양시 덕양구 덕은동 291번지","indutype":"","category":"other"}]},{"lat":"37.596305591","long":"126.87859678","imageIndex":17,"items":[{"name":"세븐일레븐고양덕은점","tel":"031-1577-0711","addr":"경기도 고양시 덕양구 덕은동 15-24번지","indutype":"","category":"other"},{"name":"세븐일레븐고양덕은점","tel":"031-1577-0711","addr":"경기도 고양시 덕양구 덕은동 15-24번지","indutype":"유통업 영리 - 편 의 점","category":"other"},{"name":"위드미 고양덕은점","tel":"02-6916-1500","addr":"경기도 고양시 덕양구 덕은동 15-24번지","indutype":"유통업 영리 - 편 의 점","category":"other"},{"name":"위드미 고양덕은점","tel":"02-6916-1500","addr":"경기도 고양시 덕양구 덕은동 15-24번지","indutype":"","category":"other"}]},{"lat":"37.588476756","long":"126.87923252","imageIndex":17,"items":[{"name":"세원우드","tel":"031-965-4980","addr":"경기도 고양시 덕양구 덕은동 99-8번지","indutype":"","category":"other"},{"name":"세원우드","tel":"031-965-4980","addr":"경기도 고양시 덕양구 덕은동","indutype":"건축자재 - 기타건축자재","category":"other"},{"name":"세원우드","tel":"02-3158-4982","addr":"경기도 고양시 덕양구 덕은동","indutype":"건축자재 - 기타건축자재","category":"other"}]},{"lat":"37.589748667","long":"126.88070232","imageIndex":17,"items":[{"name":"수색주차장","tel":"02-306-8600","addr":"경기도 고양시 덕양구 덕은동 569-11 외11필지","indutype":"","category":"other"},{"name":"수색주차장","tel":"031-973-6812","addr":"경기도 고양시 덕양구 덕은동 569-11","indutype":"","category":"other"}]},{"lat":"37.587057021","long":"126.87436643","imageIndex":17,"items":[{"name":"스위프트 체대진학전문학원","tel":"070-4221-6257","addr":"경기도 고양시 덕양구 덕은동 161-1번지","indutype":"","category":"other"},{"name":"아테네 스포츠","tel":"070-4221-6257","addr":"경기도 고양시 덕양구 덕은동 161-1번지","indutype":"","category":"other"}]},{"lat":"37.579893309","long":"126.85800877","imageIndex":17,"items":[{"name":"스타매직엔터테인먼트","tel":"02-334-2223","addr":"경기도 고양시 덕양구 덕은동 520-60번지","indutype":"","category":"other"},{"name":"스타매직엔터테인먼트","tel":"02-334-2223","addr":"경기도 고양시 덕양구 덕은동","indutype":"회원제형태 - 기타4","category":"other"}]},{"lat":"37.588419455","long":"126.87617563","imageIndex":17,"items":[{"name":"시루","tel":"02-303-9916","addr":"경기도 고양시 덕양구 덕은동 209-20번지","indutype":"","category":"other"}]},{"lat":"37.594972027","long":"126.87848577","imageIndex":17,"items":[{"name":"신바람","tel":"031-3158-5815","addr":"경기도 고양시 덕양구 덕은동 49-11번지","indutype":"","category":"other"}]},{"lat":"37.591643145","long":"126.88306566","imageIndex":17,"items":[{"name":"신성화학공업사","tel":"031-3158-6346","addr":"경기도 고양시 덕양구 덕은동","indutype":"기타 - 기타 전문점","category":"other"}]},{"lat":"37.591724118","long":"126.8829523","imageIndex":17,"items":[{"name":"신성화학공업사","tel":"031-3158-6346","addr":"경기도 고양시 덕양구 덕은동 83-22번지","indutype":"","category":"other"}]},{"lat":"37.581725911","long":"126.86098268","imageIndex":17,"items":[{"name":"신양에프앤씨","tel":"02-763-5621","addr":"경기도 고양시 덕양구 덕은동 394번지","indutype":"","category":"other"}]},{"lat":"37.598308156","long":"126.88089215","imageIndex":17,"items":[{"name":"씨사운드Entertainment","tel":"070-8884-8001","addr":"경기도 고양시 덕양구 덕은동 7-54번지","indutype":"","category":"other"},{"name":"씨사운드Entertainment","tel":"070-8884-8001","addr":"경기도 고양시 덕양구 덕은동","indutype":"회원제형태 - 기타4","category":"other"},{"name":"에이치에스테크(HStech)","tel":"031-991-0664","addr":"경기도 고양시 덕양구 덕은동","indutype":"레져용품 - 스포츠·레져용품","category":"other"},{"name":"에이치에스테크(HStech)","tel":"031-991-0664","addr":"경기도 고양시 덕양구 덕은동 7-54번지","indutype":"","category":"other"}]},{"lat":"37.58831068","long":"126.87556442","imageIndex":17,"items":[{"name":"아이제코리아","tel":"02-2675-5420","addr":"경기도 고양시 덕양구 덕은동 153-1번지","indutype":"기타 - 기계공구","category":"other"},{"name":"아임스포츠킹","tel":"02-2604-6572","addr":"경기도 고양시 덕양구 덕은동 153-1번지","indutype":"","category":"other"}]},{"lat":"37.592281137","long":"126.88140019","imageIndex":17,"items":[{"name":"에어컨백화점","tel":"02-3158-1223","addr":"경기도 고양시 덕양구 덕은동","indutype":"전기제품 - 가전제품","category":"other"},{"name":"에어컨백화점","tel":"02-3158-1223","addr":"경기도 고양시 덕양구 덕은동 80-1 77-12","indutype":"","category":"other"}]},{"lat":"37.588248233","long":"126.87614196","imageIndex":17,"items":[{"name":"엘에이부대찌개","tel":"","addr":"경기도 고양시 덕양구 덕은동 209-9번지","indutype":"","category":"other"}]},{"lat":"37.581360597","long":"126.86442499","imageIndex":17,"items":[{"name":"영인상회","tel":"02-3158-0073","addr":"경기도 고양시 덕양구 덕은동 378번지","indutype":"","category":"other"}]},{"lat":"37.580837711","long":"126.86415425","imageIndex":17,"items":[{"name":"오동도","tel":"02-3158-6305","addr":"경기도 고양시 덕양구 덕은동 444번지","indutype":"","category":"other"}]},{"lat":"37.581889321","long":"126.8620126","imageIndex":17,"items":[{"name":"오렌지마트","tel":"02-387-4300","addr":"경기도 고양시 덕양구 덕은동 406-4번지","indutype":"","category":"other"}]},{"lat":"37.587337588","long":"126.87553211","imageIndex":17,"items":[{"name":"용품장터(주)","tel":"02-338-7451","addr":"경기도 고양시 덕양구 덕은동 149-1번지","indutype":"신변잡화 - 기타잡화","category":"other"},{"name":"용품장터(주)","tel":"02-338-7451","addr":"경기도 고양시 덕양구 덕은동 149-1번지","indutype":"","category":"other"}]},{"lat":"37.588446363","long":"126.87606236","imageIndex":17,"items":[{"name":"우리쌀김치도매유통","tel":"02-302-3489","addr":"경기도 고양시 덕양구 덕은동 145-3번지","indutype":"","category":"other"}]},{"lat":"37.595836162","long":"126.87772567","imageIndex":17,"items":[{"name":"우성인테리어","tel":"02-3159-0998","addr":"경기도 고양시 덕양구 덕은동 15-14번지","indutype":"","category":"other"},{"name":"우성인테리어","tel":"02-3159-0998","addr":"경기도 고양시 덕양구 덕은동 15-14번지","indutype":"건축자재 - 인테리어전문","category":"other"}]},{"lat":"37.579254971","long":"126.85911945","imageIndex":17,"items":[{"name":"월드컵낚시","tel":"02-3158-5488","addr":"경기도 고양시 덕양구 덕은동 425-79번지","indutype":"","category":"other"},{"name":"월드컵낚시","tel":"02-3158-5488","addr":"경기도 고양시 덕양구 덕은동","indutype":"레져용품 - 스포츠·레져용품","category":"other"}]},{"lat":"37.587665757","long":"126.87912064","imageIndex":17,"items":[{"name":"윈상사","tel":"02-374-9588","addr":"경기도 고양시 덕양구 덕은동 99-3번지","indutype":"","category":"other"},{"name":"윈상사","tel":"02-374-9588","addr":"경기도 고양시 덕양구 덕은동 99-3번지","indutype":"레져용품 - 스포츠·레져용품","category":"other"}]},{"lat":"37.583806945","long":"126.86848486","imageIndex":17,"items":[{"name":"유림목재","tel":"02-3158-3131","addr":"경기도 고양시 덕양구 덕은동 347번지","indutype":"","category":"other"},{"name":"유림목재","tel":"02-3158-3131","addr":"경기도 고양시 덕양구 덕은동 347번지","indutype":"건축자재 - 기타건축자재","category":"other"}]},{"lat":"37.586418957","long":"126.87587333","imageIndex":17,"items":[{"name":"전국 불도저","tel":"02-3158-1886","addr":"경기도 고양시 덕양구 덕은동 199번지","indutype":"","category":"other"},{"name":"태극퀵서비스","tel":"02-3158-1889","addr":"경기도 고양시 덕양구 덕은동 199번지","indutype":"","category":"other"}]},{"lat":"37.581781595","long":"126.86234112","imageIndex":17,"items":[{"name":"전주","tel":"02-3159-7778","addr":"경기도 고양시 덕양구 덕은동 408","indutype":"","category":"other"}]},{"lat":"37.589528674","long":"126.87712483","imageIndex":17,"items":[{"name":"제일카","tel":"02-3158-5525","addr":"경기도 고양시 덕양구 덕은동 120-4번지","indutype":"","category":"other"}]},{"lat":"37.5787514","long":"126.85992418","imageIndex":17,"items":[{"name":"주식회사 러브스포츠","tel":"02-3158-0838","addr":"경기도 고양시 덕양구 덕은동 425-35번지","indutype":"","category":"other"},{"name":"주식회사 러브스포츠","tel":"02-3158-0838","addr":"경기도 고양시 덕양구 덕은동 425-35번지","indutype":"레져용품 - 골프용품 전문점","category":"other"}]},{"lat":"37.595442159","long":"126.88003627","imageIndex":17,"items":[{"name":"주식회사 세형금속","tel":"02-6959-0200","addr":"경기도 고양시 덕양구 덕은동 51-13번지","indutype":"","category":"other"},{"name":"주식회사 세형금속","tel":"02-6959-0200","addr":"경기도 고양시 덕양구 덕은동 51-13번지","indutype":"용역 서비스 - 기타용역서비스","category":"other"}]},{"lat":"37.597471599","long":"126.88220705","imageIndex":17,"items":[{"name":"주식회사 참클린","tel":"02-3159-9989","addr":"경기도 고양시 덕양구 덕은동 7-132번지","indutype":"","category":"other"},{"name":"주식회사 참클린","tel":"02-3159-9989","addr":"경기도 고양시 덕양구 덕은동 7-132번지","indutype":"용역 서비스 - 종합용역","category":"other"}]},{"lat":"37.596413815","long":"126.87869851","imageIndex":17,"items":[{"name":"주식회사희망프라이드","tel":"02-3159-8970","addr":"경기도 고양시 덕양구 덕은동 15-89번지","indutype":"전기제품 - 가전제품","category":"other"},{"name":"주식회사희망프라이드","tel":"02-3159-8970","addr":"경기도 고양시 덕양구 덕은동 15-89번지","indutype":"","category":"other"}]},{"lat":"37.595944195","long":"126.87764623","imageIndex":17,"items":[{"name":"중앙슈퍼","tel":"02-3158-2760","addr":"경기도 고양시 덕양구 덕은동 9-138번지","indutype":"","category":"other"},{"name":"파주슈퍼","tel":"02-3158-0771","addr":"경기도 고양시 덕양구 덕은동 9-138번지","indutype":"","category":"other"}]},{"lat":"37.595197878","long":"126.87906287","imageIndex":17,"items":[{"name":"지나상사","tel":"070-8827-6098","addr":"경기도 고양시 덕양구 덕은동 10-28 12/4","indutype":"","category":"other"}]},{"lat":"37.587553859","long":"126.87556571","imageIndex":17,"items":[{"name":"지씨네갈비탕","tel":"02-3159-8201","addr":"경기도 고양시 덕양구 덕은동 150-1번지","indutype":"","category":"other"},{"name":"지씨네갈비탕","tel":"02-3159-8201","addr":"경기도 고양시 덕양구 덕은동 150-1번지","indutype":"","category":"other"}]},{"lat":"37.578528565","long":"126.86192837","imageIndex":17,"items":[{"name":"진성유통","tel":"070-4067-7066","addr":"경기도 고양시 덕양구 덕은동 425-62번지","indutype":"","category":"other"}]},{"lat":"37.588720198","long":"126.87940195","imageIndex":17,"items":[{"name":"청진복떡공방","tel":"031-0-0000","addr":"경기도 고양시 덕양구 덕은동 99-4번지","indutype":"","category":"other"}]},{"lat":"37.583248971","long":"126.86131943","imageIndex":17,"items":[{"name":"케임브리지","tel":"031-972-5959","addr":"경기도 고양시 덕양구 덕은동 386-7번지","indutype":"","category":"other"}]},{"lat":"37.589338123","long":"126.87586837","imageIndex":17,"items":[{"name":"테크엠","tel":"02-308-7113","addr":"경기도 고양시 덕양구 덕은동 138-3번지","indutype":"","category":"other"},{"name":"테크엠","tel":"02-308-7113","addr":"경기도 고양시 덕양구 덕은동 138-3번지","indutype":"수리서비스 - 가정용품수리","category":"other"}]},{"lat":"37.581701099","long":"126.8628394","imageIndex":17,"items":[{"name":"토담자연포크","tel":"02-3159-7859","addr":"경기도 고양시 덕양구 덕은동 409-3번지","indutype":"","category":"other"}]},{"lat":"37.587782682","long":"126.87892797","imageIndex":17,"items":[{"name":"투디코(TUDICO)","tel":"031-712-0019","addr":"경기도 고양시 덕양구 덕은동 219-3","indutype":"","category":"other"},{"name":"투디코(TUDICO)","tel":"031-712-0019","addr":"경기도 고양시 덕양구 덕은동","indutype":"건축자재 - 인테리어전문","category":"other"}]},{"lat":"37.594476978","long":"126.87895084","imageIndex":17,"items":[{"name":"파로호식당","tel":"02-3158-0142","addr":"경기도 고양시 덕양구 덕은동 54-1번지","indutype":"","category":"other"}]},{"lat":"37.586976989","long":"126.87534025","imageIndex":17,"items":[{"name":"퍼니피디주식회사","tel":"02-512-8596","addr":"경기도 고양시 덕양구 덕은동 158-2번지","indutype":"","category":"other"}]},{"lat":"37.583111409","long":"126.85209279","imageIndex":17,"items":[{"name":"평화물류","tel":"02-3158-2444","addr":"경기도 고양시 덕양구 덕은동 557-15","indutype":"","category":"other"},{"name":"평화물류","tel":"02-3158-2444","addr":"경기도 고양시 덕양구 덕은동","indutype":"용역 서비스 - 보관및 창고업","category":"other"}]},{"lat":"37.581526248","long":"126.85978302","imageIndex":17,"items":[{"name":"한밭","tel":"","addr":"경기도 고양시 덕양구 덕은동 391-2번지","indutype":"","category":"other"}]},{"lat":"37.589275566","long":"126.87634402","imageIndex":17,"items":[{"name":"합정자동차공업사","tel":"02-337-2260","addr":"경기도 고양시 덕양구 덕은동 131번지","indutype":"","category":"other"}]},{"lat":"37.594611982","long":"126.87881474","imageIndex":17,"items":[{"name":"행복한하루","tel":"02-371-1405","addr":"경기도 고양시 덕양구 덕은동 53-5번지","indutype":"","category":"other"}]},{"lat":"37.587003418","long":"126.87478543","imageIndex":17,"items":[{"name":"행주마트","tel":"02-3158-3407","addr":"경기도 고양시 덕양구 덕은동 159-1번지","indutype":"","category":"other"}]},{"lat":"37.581360212","long":"126.86409668","imageIndex":17,"items":[{"name":"현대마트","tel":"031-3158-0729","addr":"경기도 고양시 덕양구 덕은동 378-3번지","indutype":"","category":"other"}]},{"lat":"37.581833173","long":"126.87606226","imageIndex":17,"items":[{"name":"현대토탈카쎈타","tel":"031-375-1560","addr":"경기도 고양시 덕양구 덕은동 282-2번지","indutype":"","category":"other"},{"name":"히아트앤워시박스(HE'ART&WASHBOX)","tel":"02-3158-2868","addr":"경기도 고양시 덕양구 덕은동 282-2번지","indutype":"","category":"other"}]},{"lat":"37.596918159","long":"126.87850518","imageIndex":17,"items":[{"name":"협성","tel":"031-374-4269","addr":"경기도 고양시 덕양구 덕은동 9-55번지","indutype":"회원제형태 - 기타1","category":"other"},{"name":"협성","tel":"031-374-4269","addr":"경기도 고양시 덕양구 덕은동 9-55번지","indutype":"","category":"other"}]},{"lat":"37.586283542","long":"126.87562448","imageIndex":17,"items":[{"name":"호원길","tel":"","addr":"경기도 고양시 덕양구 덕은동 191-14번지","indutype":"신변잡화 - 액세서리","category":"other"}]},{"lat":"37.597025606","long":"126.87787088","imageIndex":17,"items":[{"name":"희망금속","tel":"02-306-9003","addr":"경기도 고양시 덕양구 덕은동 9-66번지","indutype":"용역 서비스 - 기타용역서비스","category":"other"},{"name":"희망금속","tel":"02-306-9003","addr":"경기도 고양시 덕양구 덕은동 9-66번지","indutype":"","category":"other"}]},{"lat":"37.595143319","long":"126.87858739","imageIndex":4,"items":[{"name":"고향식당","tel":"02-3158-0567","addr":"경기도 고양시 덕양구 덕은동 50-8번지","indutype":"일반휴게음식 - 일반한식","category":"restaurant"}]},{"lat":"37.583804244","long":"126.87414559","imageIndex":4,"items":[{"name":"국방대학교","tel":"02-300-2470","addr":"경기도 고양시 덕양구 덕은동 291번지","indutype":"일반휴게음식 - 서양음식","category":"restaurant"},{"name":"국방대학교(간부식당)","tel":"02-300-2471","addr":"경기도 고양시 덕양구 덕은동 291번지","indutype":"일반휴게음식 - 위탁급식업","category":"restaurant"}]},{"lat":"37.596116111","long":"126.87833666","imageIndex":4,"items":[{"name":"꼬닭","tel":"02-3159-7425","addr":"경기도 고양시 덕양구 덕은동 15-22번지","indutype":"일반휴게음식 - 스넥","category":"restaurant"}]},{"lat":"37.583612854","long":"126.85679017","imageIndex":4,"items":[{"name":"남도한식뷔페","tel":"02-3158-2445","addr":"경기도 고양시 덕양구 덕은동 537-17번지","indutype":"일반휴게음식 - 일반한식","category":"restaurant"}]},{"lat":"37.581449589","long":"126.86348517","imageIndex":4,"items":[{"name":"대동강","tel":"02-3158-2213","addr":"경기도 고양시 덕양구 덕은동 411-1번지","indutype":"일반휴게음식 - 중국식","category":"restaurant"}]},{"lat":"37.594890963","long":"126.87850855","imageIndex":4,"items":[{"name":"덕은식당","tel":"02-3158-4851","addr":"경기도 고양시 덕양구 덕은동 49-10번지","indutype":"일반휴게음식 - 일반한식","category":"restaurant"}]},{"lat":"37.581116974","long":"126.86411977","imageIndex":4,"items":[{"name":"덕은잔치국수","tel":"02-3158-4842","addr":"경기도 고양시 덕양구 덕은동 413-1번지","indutype":"일반휴게음식 - 일반한식","category":"restaurant"}]},{"lat":"37.587834148","long":"126.87648232","imageIndex":4,"items":[{"name":"물레방아메기전문점","tel":"02-3158-3422","addr":"경기도 고양시 덕양구 덕은동 209-3번지","indutype":"일반휴게음식 - 일반한식","category":"restaurant"}]},{"lat":"37.586554371","long":"126.87612218","imageIndex":4,"items":[{"name":"배밭식당","tel":"02-3158-2147","addr":"경기도 고양시 덕양구 덕은동 201-2번지","indutype":"일반휴게음식 - 일반한식","category":"restaurant"}]},{"lat":"37.587779018","long":"126.87548607","imageIndex":4,"items":[{"name":"봉우리한우정육식당","tel":"02-2637-6700","addr":"경기도 고양시 덕양구 덕은동 151-1번지","indutype":"일반휴게음식 - 일반한식","category":"restaurant"},{"name":"북극곰카페","tel":"02-3159-7233","addr":"경기도 고양시 덕양구 덕은동 151-1번지","indutype":"일반휴게음식 - 서양음식","category":"restaurant"}]},{"lat":"37.586724838","long":"126.8754539","imageIndex":4,"items":[{"name":"블러썸미디어","tel":"070-7770-8744","addr":"경기도 고양시 덕양구 덕은동 198번지","indutype":"일반휴게음식 - 일반한식","category":"restaurant"}]},{"lat":"37.588419455","long":"126.87617563","imageIndex":4,"items":[{"name":"시루","tel":"02-303-9916","addr":"경기도 고양시 덕양구 덕은동 209-20번지","indutype":"일반휴게음식 - 일반한식","category":"restaurant"}]},{"lat":"37.594027071","long":"126.87950641","imageIndex":4,"items":[{"name":"아리랑회관","tel":"02-3159-8788","addr":"경기도 고양시 덕양구 덕은동 59-4번지","indutype":"일반휴게음식 - 중국식","category":"restaurant"}]},{"lat":"37.588248233","long":"126.87614196","imageIndex":4,"items":[{"name":"엘에이부대찌개","tel":"","addr":"경기도 고양시 덕양구 덕은동 209-9번지","indutype":"일반휴게음식 - 일반한식","category":"restaurant"}]},{"lat":"37.595278263","long":"126.87839467","imageIndex":4,"items":[{"name":"치킨프라임","tel":"02-3158-5714","addr":"경기도 고양시 덕양구 덕은동 50-2번지","indutype":"일반휴게음식 - 주점","category":"restaurant"}]},{"lat":"37.587113001","long":"126.87614388","imageIndex":4,"items":[{"name":"카나에","tel":"070-8834-5650","addr":"경기도 고양시 덕양구 덕은동 206번지","indutype":"일반휴게음식 - 서양음식","category":"restaurant"}]},{"lat":"37.581701099","long":"126.8628394","imageIndex":4,"items":[{"name":"토담자연포크","tel":"02-3159-7859","addr":"경기도 고양시 덕양구 덕은동 409-3번지","indutype":"일반휴게음식 - 일반한식","category":"restaurant"}]},{"lat":"37.594476978","long":"126.87895084","imageIndex":4,"items":[{"name":"파로호식당","tel":"02-3158-0142","addr":"경기도 고양시 덕양구 덕은동","indutype":"일반휴게음식 - 일반한식","category":"restaurant"}]},{"lat":"37.586976989","long":"126.87534025","imageIndex":4,"items":[{"name":"퍼니피디주식회사","tel":"02-512-8596","addr":"경기도 고양시 덕양구 덕은동 158-2번지","indutype":"일반휴게음식 - 서양음식","category":"restaurant"}]},{"lat":"37.594611982","long":"126.87881474","imageIndex":4,"items":[{"name":"행복한하루","tel":"02-371-1405","addr":"경기도 고양시 덕양구 덕은동 53-5번지","indutype":"일반휴게음식 - 일반한식","category":"restaurant"}]},{"lat":"37.583804244","long":"126.87414559","imageIndex":13,"items":[{"name":"국방대학교(간부이발소)","tel":"02-300-2471","addr":"경기도 고양시 덕양구 덕은동 291번지","indutype":"보건위생 - 이용원","category":"beauty"},{"name":"국방대학교/이발소","tel":"02-300-2471","addr":"경기도 고양시 덕양구 덕은동 291번지","indutype":"보건위생 - 이용원","category":"beauty"}]},{"lat":"37.587164446","long":"126.87373221","imageIndex":13,"items":[{"name":"베스트메디","tel":"","addr":"경기도 고양시 덕양구 덕은동 571-3번지","indutype":"보건위생 - 의료용품","category":"beauty"}]},{"lat":"37.595278263","long":"126.87839467","imageIndex":13,"items":[{"name":"아르떼헤어샵","tel":"02-3158-2205","addr":"경기도 고양시 덕양구 덕은동 50-2번지","indutype":"보건위생 - 미용원","category":"beauty"}]},{"lat":"37.595143319","long":"126.87858739","imageIndex":13,"items":[{"name":"지수헤어","tel":"02-3158-4938","addr":"경기도 고양시 덕양구 덕은동 50-8번지","indutype":"보건위생 - 미용원","category":"beauty"}]},{"lat":"37.583804244","long":"126.87414559","imageIndex":13,"items":[{"name":"국방대학교(골프연습장)","tel":"02-300-2470","addr":"경기도 고양시 덕양구 덕은동 291번지","indutype":"레저업소 - 골프연습장","category":"leisure"},{"name":"국방대학교(실내체육관)","tel":"041-831-3981","addr":"경기도 고양시 덕양구 덕은동 291번지","indutype":"레저업소 - 헬스클럽","category":"leisure"}]},{"lat":"37.589806485","long":"126.87573171","imageIndex":13,"items":[{"name":"산장테니스장","tel":"02-3158-3188","addr":"경기도 고양시 덕양구 덕은동","indutype":"레저업소 - 테니스장","category":"leisure"}]},{"lat":"37.58831068","long":"126.87556442","imageIndex":13,"items":[{"name":"아임스포츠킹","tel":"02-2604-6572","addr":"경기도 고양시 덕양구 덕은동 153-1번지","indutype":"레저업소 - 기타레져업소","category":"leisure"}]},{"lat":"37.583804244","long":"126.87414559","imageIndex":7,"items":[{"name":"국방대학교/매점","tel":"02-300-2471","addr":"경기도 고양시 덕양구 덕은동 291번지","indutype":"음료식품 - 기타음료식품","category":"food"},{"name":"국방대학교/매점","tel":"02-300-2471","addr":"경기도 고양시 덕양구 덕은동 291번지","indutype":"음료식품 - 기타음료식품","category":"food"}]},{"lat":"37.595746747","long":"126.87837125","imageIndex":7,"items":[{"name":"김치스쿨","tel":"02-308-9688","addr":"경기도 고양시 덕양구 덕은동 12-1번지","indutype":"건강식품 - 기타건강식품","category":"food"}]},{"lat":"37.586336144","long":"126.86626123","imageIndex":7,"items":[{"name":"대덕산농장","tel":"02-3158-2162","addr":"경기도 고양시 덕양구 덕은동 361-2번지","indutype":"음료식품 - 농·축·수산품","category":"food"}]},{"lat":"37.594810137","long":"126.87875779","imageIndex":7,"items":[{"name":"덕은구판장","tel":"02-3158-5808","addr":"경기도 고양시 덕양구 덕은동","indutype":"음료식품 - 기타음료식품","category":"food"}]},{"lat":"37.579167229","long":"126.86106678","imageIndex":7,"items":[{"name":"무지개유통","tel":"031-970-1504","addr":"경기도 고양시 덕양구 덕은동 425-50번지","indutype":"음료식품 - 기타음료식품","category":"food"}]},{"lat":"37.594504126","long":"126.87906402","imageIndex":7,"items":[{"name":"서울우유수색대리점","tel":"02-372-8185","addr":"경기도 고양시 덕양구 덕은동 54-6번지","indutype":"음료식품 - 기타음료식품","category":"food"}]},{"lat":"37.581725911","long":"126.86098268","imageIndex":7,"items":[{"name":"신양에프앤씨","tel":"02-763-5621","addr":"경기도 고양시 덕양구 덕은동","indutype":"음료식품 - 기타음료식품","category":"food"}]},{"lat":"37.588446363","long":"126.87606236","imageIndex":7,"items":[{"name":"우리쌀김치도매유통","tel":"02-302-3489","addr":"경기도 고양시 덕양구 덕은동 145-3번지","indutype":"음료식품 - 미곡상","category":"food"}]},{"lat":"37.595197878","long":"126.87906287","imageIndex":7,"items":[{"name":"지나상사","tel":"070-8827-6098","addr":"경기도 고양시 덕양구 덕은동","indutype":"음료식품 - 기타음료식품","category":"food"}]},{"lat":"37.588720198","long":"126.87940195","imageIndex":7,"items":[{"name":"청진복떡공방","tel":"031-0000-0000","addr":"경기도 고양시 덕양구 덕은동 99-4번지","indutype":"음료식품 - 제과점","category":"food"}]},{"lat":"37.578610744","long":"126.86284518","imageIndex":0,"items":[{"name":"국제카써비스","tel":"031-987-8305","addr":"경기도 고양시 덕양구 덕은동","indutype":"자동차정비 유지 - 자동차부품","category":"car"}]},{"lat":"37.590943172","long":"126.87708848","imageIndex":0,"items":[{"name":"대덕주차장","tel":"070-8945-8545","addr":"경기도 고양시 덕양구 덕은동 115번지","indutype":"자동차정비 유지 - 주차장","category":"car"}]},{"lat":"37.580666618","long":"126.86423382","imageIndex":0,"items":[{"name":"덕은상사","tel":"02-375-1481","addr":"경기도 고양시 덕양구 덕은동 444-2번지","indutype":"자동차정비 유지 - 자동차정비","category":"car"},{"name":"제일상사","tel":"02-305-0343","addr":"경기도 고양시 덕양구 덕은동 444-2번지","indutype":"자동차정비 유지 - 자동차부품","category":"car"}]},{"lat":"37.586581789","long":"126.87648444","imageIndex":0,"items":[{"name":"덕은점 현대자동차","tel":"02-353-8290","addr":"경기도 고양시 덕양구 덕은동 201-7번지","indutype":"자동차정비 유지 - 자동차정비","category":"car"}]},{"lat":"37.586221361","long":"126.87645108","imageIndex":0,"items":[{"name":"덕은점기아오토큐","tel":"02-3159-7300","addr":"경기도 고양시 덕양구 덕은동 201-8번지","indutype":"자동차정비 유지 - 자동차정비","category":"car"}]},{"lat":"37.579138216","long":"126.85942533","imageIndex":0,"items":[{"name":"상암C.W","tel":"02-3158-0066","addr":"경기도 고양시 덕양구 덕은동","indutype":"자동차정비 유지 - 세차장","category":"car"}]},{"lat":"37.585914616","long":"126.87606666","imageIndex":0,"items":[{"name":"상암OMC24H셀프세차타운","tel":"02-3158-4302","addr":"경기도 고양시 덕양구 덕은동 190-4번지","indutype":"자동차정비 유지 - 세차장","category":"car"}]},{"lat":"37.589748667","long":"126.88070232","imageIndex":0,"items":[{"name":"수색주차장","tel":"031-973-6812","addr":"경기도 고양시 덕양구 덕은동","indutype":"자동차정비 유지 - 주차장","category":"car"}]},{"lat":"37.589528674","long":"126.87712483","imageIndex":0,"items":[{"name":"제일카","tel":"02-3158-5525","addr":"경기도 고양시 덕양구 덕은동 120-4번지","indutype":"자동차정비 유지 - 자동차정비","category":"car"}]},{"lat":"37.587806706","long":"126.87609742","imageIndex":0,"items":[{"name":"카메오랩 주식회사","tel":"031-000-0000","addr":"경기도 고양시 덕양구 덕은동 209-5번지","indutype":"자동차정비 유지 - 자동차정비","category":"car"}]},{"lat":"37.589275566","long":"126.87634402","imageIndex":0,"items":[{"name":"합정자동차공업사","tel":"02-337-2260","addr":"경기도 고양시 덕양구 덕은동 131번지","indutype":"자동차정비 유지 - 자동차정비","category":"car"}]},{"lat":"37.586554371","long":"126.87612218","imageIndex":0,"items":[{"name":"현대자동차공업사","tel":"02-3159-2050","addr":"경기도 고양시 덕양구 덕은동 201-2번지","indutype":"자동차정비 유지 - 자동차정비","category":"car"}]},{"lat":"37.581833173","long":"126.87606226","imageIndex":0,"items":[{"name":"현대토탈카쎈타","tel":"031-375-1560","addr":"경기도 고양시 덕양구 덕은동","indutype":"자동차정비 유지 - 자동차정비","category":"car"},{"name":"히아트앤워시박스(HE'ART&WASHBOX)","tel":"02-3158-2868","addr":"경기도 고양시 덕양구 덕은동 282-2번지","indutype":"자동차정비 유지 - 자동차정비","category":"car"}]},{"lat":"37.589032059","long":"126.87611798","imageIndex":7,"items":[{"name":"덕은마트","tel":"070-8866-6290","addr":"경기도 고양시 덕양구 덕은동 142-8번지","indutype":"유통업 영리 - 슈퍼마켓","category":"mart"}]},{"lat":"37.597749469","long":"126.8808138","imageIndex":7,"items":[{"name":"산마루슈퍼","tel":"02-3158-2835","addr":"경기도 고양시 덕양구 덕은동 7-19번지","indutype":"유통업 영리 - 슈퍼마켓","category":"mart"}]},{"lat":"37.595944195","long":"126.87764623","imageIndex":7,"items":[{"name":"중앙슈퍼","tel":"02-3158-2760","addr":"경기도 고양시 덕양구 덕은동 9-138번지","indutype":"유통업 영리 - 슈퍼마켓","category":"mart"}]},{"lat":"37.581526248","long":"126.85978302","imageIndex":7,"items":[{"name":"한밭","tel":"111-1111-111","addr":"경기도 고양시 덕양구 덕은동 391-2번지","indutype":"유통업 영리 - 슈퍼마켓","category":"mart"}]},{"lat":"37.587057021","long":"126.87436643","imageIndex":16,"items":[{"name":"스위프트 체대진학전문학원","tel":"070-4221-6257","addr":"경기도 고양시 덕양구 덕은동 161-1번지","indutype":"학원 - 예·체능계학원","category":"study"},{"name":"아테네 스포츠","tel":"070-4221-6257","addr":"경기도 고양시 덕양구 덕은동 161-1번지","indutype":"학원 - 예·체능계학원","category":"study"}]},{"lat":"37.583804244","long":"126.87414559","imageIndex":16,"items":[{"name":"써니스포츠","tel":"070-4405-6544","addr":"경기도 고양시 덕양구 덕은동 291번지","indutype":"학원 - 기타 교육기관","category":"study"}]},{"lat":"37.583248971","long":"126.86131943","imageIndex":16,"items":[{"name":"케임브리지","tel":"031-972-5959","addr":"경기도 고양시 덕양구 덕은동 386-7번지","indutype":"회원제형태 - 학원","category":"study"}]}]