[{"lat":"36.992576963","long":"127.08208753","imageIndex":7,"items":[{"name":"(주)경기염업","tel":"031-655-5646","addr":"경기도 평택시 평택동 80번지","indutype":"음료식품 - 기타음료식품","category":"food"}]},{"lat":"36.988582636","long":"127.08586879","imageIndex":7,"items":[{"name":"농업회사법인 원유통 주식회사","tel":"042-000-0000","addr":"경기도 평택시 평택동 185-33번지 1층","indutype":"음료식품 - 농·축·수산품","category":"food"},{"name":"원식자재","tel":"","addr":"경기도 평택시 평택동 185-33번지 1층","indutype":"음료식품 - 기타음료식품","category":"food"}]},{"lat":"36.988797108","long":"127.08838514","imageIndex":7,"items":[{"name":"농협한삼인평택점","tel":"031-655-2202","addr":"경기도 평택시 평택동 316번지 롯데인벤스스카이 106동 503호","indutype":"회원제형태 - 건강식품","category":"food"}]},{"lat":"36.992409552","long":"127.08955744","imageIndex":7,"items":[{"name":"다미안 평택점","tel":"031-658-0090","addr":"경기도 평택시 평택동 289-3번지 A동","indutype":"음료식품 - 제과점","category":"food"}]},{"lat":"36.991410025","long":"127.08864643","imageIndex":7,"items":[{"name":"다이어트 컴퍼니","tel":"031-682-4999","addr":"경기도 평택시 평택동 298-1번지 2층 202호","indutype":"건강식품 - 기타건강식품","category":"food"}]},{"lat":"36.988215278","long":"127.08283559","imageIndex":7,"items":[{"name":"대성떡방앗간","tel":"031-651-1435","addr":"경기도 평택시 평택동 142-24번지","indutype":"음료식품 - 제과점","category":"food"}]},{"lat":"36.990689194","long":"127.08861192","imageIndex":7,"items":[{"name":"떡담","tel":"031-655-7191","addr":"경기도 평택시 평택동 293-8번지 1층","indutype":"음료식품 - 제과점","category":"food"}]},{"lat":"36.993717683","long":"127.08736841","imageIndex":7,"items":[{"name":"떡보의하루평택점","tel":"031-658-4417","addr":"경기도 평택시 평택동 37-3번지","indutype":"음료식품 - 제과점","category":"food"},{"name":"빠리바게뜨 송탄송일","tel":"031-656-0042","addr":"경기도 평택시 평택동 37-3번지 1층","indutype":"음료식품 - 제과점","category":"food"}]},{"lat":"36.992247253","long":"127.08970329","imageIndex":7,"items":[{"name":"뚜레쥬르 평택타운(4)","tel":"031-651-0189","addr":"경기도 평택시 평택동 289-4번지","indutype":"음료식품 - 제과점","category":"food"}]},{"lat":"36.99502599","long":"127.08486477","imageIndex":7,"items":[{"name":"마들렌식품케익하우스","tel":"031-656-1515","addr":"경기도 평택시 평택동 69-11번지","indutype":"음료식품 - 제과점","category":"food"}]},{"lat":"36.988526438","long":"127.08886784","imageIndex":7,"items":[{"name":"마카롱줄리","tel":"","addr":"경기도 평택시 평택동 316번지 롯데인벤스스카이 상가동 102호","indutype":"음료식품 - 기타음료식품","category":"food"}]},{"lat":"36.991995843","long":"127.08847859","imageIndex":7,"items":[{"name":"미스터빈(Mr.Bean)","tel":"031-618-2114","addr":"경기도 평택시 평택동 291번지 801호","indutype":"음료식품 - 기타음료식품","category":"food"},{"name":"일오삼수제청","tel":"031-655-3301","addr":"경기도 평택시 평택동 291번지 901호","indutype":"음료식품 - 기타음료식품","category":"food"}]},{"lat":"36.993741701","long":"127.09150233","imageIndex":7,"items":[{"name":"미역파는생선가게(동선무역(주))","tel":"070-4123-2021","addr":"경기도 평택시 평택동 23-16번지","indutype":"음료식품 - 농·축·수산품","category":"food"}]},{"lat":"36.990879392","long":"127.08725294","imageIndex":7,"items":[{"name":"민현수산","tel":"031-652-8118","addr":"경기도 평택시 평택동 55-1번지","indutype":"음료식품 - 농·축·수산품","category":"food"}]},{"lat":"36.988439043","long":"127.08503742","imageIndex":7,"items":[{"name":"부국농산","tel":"031-655-0708","addr":"경기도 평택시 평택동 182-30번지","indutype":"음료식품 - 농·축·수산품","category":"food"}]},{"lat":"36.992610169","long":"127.08623263","imageIndex":7,"items":[{"name":"빵공방","tel":"031-654-3680","addr":"경기도 평택시 평택동 62-17번지 외1필지 1층","indutype":"음료식품 - 제과점","category":"food"}]},{"lat":"36.992301784","long":"127.08906306","imageIndex":7,"items":[{"name":"빵굽는마미갸또","tel":"031-657-9328","addr":"경기도 평택시 평택동 290-1번지 1층","indutype":"음료식품 - 제과점","category":"food"}]},{"lat":"36.989467917","long":"127.08261225","imageIndex":7,"items":[{"name":"산삼초건강원","tel":"031-654-6493","addr":"경기도 평택시 평택동 116-20번지","indutype":"건강식품 - 기타건강식품","category":"food"}]},{"lat":"36.989576121","long":"127.08250003","imageIndex":7,"items":[{"name":"손수다림건강원","tel":"031-656-1830","addr":"경기도 평택시 평택동 116-1번지","indutype":"건강식품 - 기타건강식품","category":"food"}]},{"lat":"36.991161794","long":"127.08281621","imageIndex":7,"items":[{"name":"숲속베이커리","tel":"031-0000-0000","addr":"경기도 평택시 평택동 91-14번지 1층 1호","indutype":"음료식품 - 제과점","category":"food"}]},{"lat":"36.98863831","long":"127.08353246","imageIndex":7,"items":[{"name":"스윗제이 베이커리","tel":"031-000-0000","addr":"경기도 평택시 평택동 146-4번지 A동 1층","indutype":"음료식품 - 제과점","category":"food"}]},{"lat":"36.992130458","long":"127.08923136","imageIndex":7,"items":[{"name":"아띠브레드","tel":"","addr":"경기도 평택시 평택동 290-2번지","indutype":"음료식품 - 제과점","category":"food"}]},{"lat":"36.992827092","long":"127.08527804","imageIndex":7,"items":[{"name":"오지노와인","tel":"070-8186-4521","addr":"경기도 평택시 평택동 59-4 지하1층","indutype":"음료식품 - 주류 판매점","category":"food"}]},{"lat":"36.990026972","long":"127.08202872","imageIndex":7,"items":[{"name":"이든네이처(평택원평점)","tel":"031-657-1449","addr":"경기도 평택시 평택동 108-3번지 1층","indutype":"회원제형태 - 건강식품","category":"food"}]},{"lat":"36.988413286","long":"127.08317278","imageIndex":7,"items":[{"name":"이리마트","tel":"031-656-5701","addr":"경기도 평택시 평택동 142-12번지","indutype":"음료식품 - 정육점","category":"food"}]},{"lat":"36.990495153","long":"127.08259085","imageIndex":7,"items":[{"name":"이알지 로컬푸드 시스템","tel":"031-658-1019","addr":"경기도 평택시 평택동 95-7번지","indutype":"음료식품 - 기타음료식품","category":"food"},{"name":"주가식품","tel":"031-655-0191","addr":"경기도 평택시 평택동 95-7번지","indutype":"음료식품 - 기타음료식품","category":"food"}]},{"lat":"36.993879875","long":"127.08736859","imageIndex":7,"items":[{"name":"장수건강식품","tel":"","addr":"경기도 평택시 평택동 35-25번지 1층","indutype":"건강식품 - 기타건강식품","category":"food"}]},{"lat":"36.994438873","long":"127.0868974","imageIndex":7,"items":[{"name":"주식회사 지구별","tel":"031-652-8855","addr":"경기도 평택시 평택동 66-2번지 1층","indutype":"음료식품 - 기타음료식품","category":"food"}]},{"lat":"36.992772464","long":"127.08608677","imageIndex":7,"items":[{"name":"중앙식품","tel":"031-652-7362","addr":"경기도 평택시 평택동 62-20번지","indutype":"소매업 - 식품","category":"food"}]},{"lat":"36.990968078","long":"127.08923005","imageIndex":7,"items":[{"name":"착한식빵","tel":"02-1111-1111","addr":"경기도 평택시 평택동 293-4번지 라페온빌1차 101호","indutype":"음료식품 - 제과점","category":"food"}]},{"lat":"36.994329597","long":"127.08850367","imageIndex":7,"items":[{"name":"참다한 홍삼 평택동점","tel":"031-655-5845","addr":"경기도 평택시 평택동 35-1번지 1층 103호","indutype":"건강식품 - 홍삼제품","category":"food"},{"name":"참다한홍삼 평택동점","tel":"","addr":"경기도 평택시 평택동 35-1번지","indutype":"소매업 - 건강기능식품","category":"food"}]},{"lat":"36.993662326","long":"127.08916569","imageIndex":7,"items":[{"name":"커피앤치즈케익","tel":"031-656-3343","addr":"경기도 평택시 평택동 39-15번지 2층","indutype":"음료식품 - 제과점","category":"food"},{"name":"커피앤치즈케익2호점","tel":"031-692-3343","addr":"경기도 평택시 평택동 39-15번지 1층","indutype":"음료식품 - 제과점","category":"food"}]},{"lat":"36.992329755","long":"127.08776004","imageIndex":7,"items":[{"name":"케익타운과자점","tel":"031-652-3314","addr":"경기도 평택시 평택동 46-1번지","indutype":"음료식품 - 제과점","category":"food"}]},{"lat":"36.989188653","long":"127.08251086","imageIndex":7,"items":[{"name":"코리아몰(KOREA MALL)","tel":"031-655-2284","addr":"경기도 평택시 평택동 116-17번지 1층 상가","indutype":"건강식품 - 기타건강식품","category":"food"}]},{"lat":"36.992717615","long":"127.08719881","imageIndex":7,"items":[{"name":"파리바게뜨 평택중앙점","tel":"031-654-8203","addr":"경기도 평택시 평택동 45-1번지","indutype":"음료식품 - 제과점","category":"food"}]},{"lat":"36.990554268","long":"127.08828601","imageIndex":7,"items":[{"name":"파리바게뜨평택터미널점","tel":"031-656-8240","addr":"경기도 평택시 평택동 296번지","indutype":"음료식품 - 제과점","category":"food"}]},{"lat":"36.989773223","long":"127.08417393","imageIndex":7,"items":[{"name":"파리바게트 평택원평","tel":"031-656-0066","addr":"경기도 평택시 평택동 175-3번지 1,2층","indutype":"음료식품 - 제과점","category":"food"}]},{"lat":"36.991215524","long":"127.08331052","imageIndex":7,"items":[{"name":"평택과일나라","tel":"031-651-9364","addr":"경기도 평택시 평택동 185-207번지","indutype":"음료식품 - 농·축·수산품","category":"food"}]},{"lat":"36.990185248","long":"127.08770149","imageIndex":7,"items":[{"name":"평택터미널매점","tel":"031-652-2617","addr":"경기도 평택시 평택동 185-245번지","indutype":"음료식품 - 기타음료식품","category":"food"}]},{"lat":"36.994719182","long":"127.08550475","imageIndex":7,"items":[{"name":"평화상회","tel":"031-652-9065","addr":"경기도 평택시 평택동 69-3번지","indutype":"소매업 - 식품","category":"food"},{"name":"평화상회","tel":"031-655-2930","addr":"경기도 평택시 평택동 69-3번지","indutype":"음료식품 - 기타음료식품","category":"food"}]},{"lat":"36.990387728","long":"127.08153485","imageIndex":7,"items":[{"name":"해플","tel":"031-654-5650","addr":"경기도 평택시 평택동 105-1번지","indutype":"소매업 - 건강기능식품","category":"food"},{"name":"해플 원평점","tel":"031-653-6132","addr":"경기도 평택시 평택동 105-1번지","indutype":"회원제형태 - 건강식품","category":"food"}]},{"lat":"36.993770307","long":"127.08936801","imageIndex":7,"items":[{"name":"환이네","tel":"031-658-7016","addr":"경기도 평택시 평택동 33-14번지 1층","indutype":"음료식품 - 농·축·수산품","category":"food"}]}]