[{"lat":"36.999658832","long":"127.18785426","imageIndex":16,"items":[{"name":"(주)평택안성자동차운전전문학원","tel":"031-655-6525","addr":"경기도 안성시 공도읍 양기리 440-6번지","indutype":"학원 - 기능학원","category":"study"},{"name":"갤럭시자동차운전전문학원 (주)","tel":"031-655-6525","addr":"경기도 안성시 공도읍 양기리 440-6","indutype":"학원 - 기능학원","category":"study"}]},{"lat":"37.007244708","long":"127.1942431","imageIndex":16,"items":[{"name":"문기초등학교","tel":"031-618-0559","addr":"경기도 안성시 공도읍 양기리 332-25번지 문기초등학교","indutype":"학원 - 초중고교육기관","category":"study"},{"name":"문기초등학교병설유치원[아이행복]","tel":"031-618-0559","addr":"경기도 안성시 공도읍 양기리 332-25번지","indutype":"학원 - 유치원","category":"study"}]},{"lat":"37.006410119","long":"127.19769023","imageIndex":16,"items":[{"name":"뮤직스토리음악학원","tel":"031-653-7757","addr":"경기도 안성시 공도읍 양기리 306-33번지 서해그랑블 상가 207,208호","indutype":"학원 - 예·체능계학원","category":"study"}]},{"lat":"37.008657647","long":"127.20079698","imageIndex":16,"items":[{"name":"사단법인 행복한가정연구소","tel":"031-611-7991","addr":"경기도 안성시 공도읍 양기리 298-3번지","indutype":"학원 - 기타 교육기관","category":"study"}]},{"lat":"36.994441863","long":"127.18183171","imageIndex":16,"items":[{"name":"삼성어린이집[아이행복]","tel":"031-652-1242","addr":"경기도 안성시 공도읍 양기리 521-32번지","indutype":"학원 - 유아원","category":"study"},{"name":"삼성팬그램영어교습소","tel":"","addr":"경기도 안성시 공도읍 양기리 521-32번지 1층","indutype":"학원 - 외국어학원","category":"study"}]},{"lat":"36.994910502","long":"127.18177664","imageIndex":16,"items":[{"name":"삼성유치원[아이행복]","tel":"031-653-9936","addr":"경기도 안성시 공도읍 양기리 521-25번지","indutype":"학원 - 유치원","category":"study"}]},{"lat":"37.005720162","long":"127.2008006","imageIndex":16,"items":[{"name":"아트온 미술교습소","tel":"031-618-0348","addr":"경기도 안성시 공도읍 양기리 567-1번지 송정아파트 상가 1동 109호","indutype":"학원 - 예·체능계학원","category":"study"}]},{"lat":"37.007327411","long":"127.19324335","imageIndex":16,"items":[{"name":"청림음악학원","tel":"031-654-7472","addr":"경기도 안성시 공도읍 양기리 332-5번지 태영빌딩 3층 2호","indutype":"학원 - 예·체능계학원","category":"study"},{"name":"청림학원","tel":"031-657-5582","addr":"경기도 안성시 공도읍 양기리 332-5번지 2층","indutype":"학원 - 보습학원","category":"study"}]},{"lat":"37.007490718","long":"127.2087711","imageIndex":16,"items":[{"name":"키움어린이집[아이행복]","tel":"031-278-3682","addr":"경기도 안성시 공도읍 양기리 46번지","indutype":"학원 - 유아원","category":"study"}]}]