[{"lat":"37.704688671","long":"127.32113371","imageIndex":4,"items":[{"name":"CNB FOOD(씨엔비푸드)","tel":"02-1599-9297","addr":"경기도 남양주시 수동면 운수리 344-6번지","indutype":"일반휴게음식 - 일반한식","category":"restaurant"}]},{"lat":"37.699745392","long":"127.32665736","imageIndex":4,"items":[{"name":"강원막국수","tel":"031-593-6447","addr":"경기도 남양주시 수동면 운수리 156-5번지","indutype":"일반휴게음식 - 일반한식","category":"restaurant"}]},{"lat":"37.702718707","long":"127.32660225","imageIndex":4,"items":[{"name":"그자리","tel":"031-591-7636","addr":"경기도 남양주시 수동면 운수리 111-10번지 1층","indutype":"일반휴게음식 - 주점","category":"restaurant"},{"name":"휴커피하우스","tel":"031-559-5788","addr":"경기도 남양주시 수동면 운수리 111-10번지 1층 일부","indutype":"일반휴게음식 - 서양음식","category":"restaurant"}]},{"lat":"37.699327934","long":"127.32446712","imageIndex":4,"items":[{"name":"늘봄","tel":"031-593-8511","addr":"경기도 남양주시 수동면 운수리 193-6번지","indutype":"일반휴게음식 - 일반한식","category":"restaurant"}]},{"lat":"37.701915243","long":"127.32718841","imageIndex":4,"items":[{"name":"대복무지개송어회","tel":"031-594-3004","addr":"경기도 남양주시 수동면 운수리 128-1번지","indutype":"일반휴게음식 - 일반한식","category":"restaurant"}]},{"lat":"37.694635338","long":"127.34009364","imageIndex":4,"items":[{"name":"대성식당","tel":"031-594-9521","addr":"경기도 남양주시 수동면 운수리 21-21번지 1층","indutype":"일반휴게음식 - 일반한식","category":"restaurant"}]},{"lat":"37.710604652","long":"127.31901561","imageIndex":4,"items":[{"name":"도니카페(DONY CAFE)","tel":"031-576-1591","addr":"경기도 남양주시 수동면 운수리 363-1번지 2층","indutype":"일반휴게음식 - 서양음식","category":"restaurant"}]},{"lat":"37.716077986","long":"127.32068339","imageIndex":4,"items":[{"name":"선돌가든","tel":"031-594-8292","addr":"경기도 남양주시 수동면 운수리 395-3","indutype":"일반휴게음식 - 일반한식","category":"restaurant"}]},{"lat":"37.705162606","long":"127.32576239","imageIndex":4,"items":[{"name":"속초회냉면","tel":"031-594-4020","addr":"경기도 남양주시 수동면 운수리 90-5번지 1층","indutype":"일반휴게음식 - 일반한식","category":"restaurant"}]},{"lat":"37.703078338","long":"127.32687597","imageIndex":4,"items":[{"name":"수동관설렁탕","tel":"031-593-6163","addr":"경기도 남양주시 수동면 운수리 103-3번지","indutype":"일반휴게음식 - 일반한식","category":"restaurant"}]},{"lat":"37.705360504","long":"127.32587665","imageIndex":4,"items":[{"name":"수동착한통닭","tel":"031-595-7892","addr":"경기도 남양주시 수동면 운수리 90-4번지","indutype":"일반휴게음식 - 스넥","category":"restaurant"}]},{"lat":"37.70427638","long":"127.32696056","imageIndex":4,"items":[{"name":"신호등","tel":"031-559-7617","addr":"경기도 남양주시 수동면 운수리 87-16번지 1층","indutype":"일반휴게음식 - 주점","category":"restaurant"}]},{"lat":"37.70372022","long":"127.32607364","imageIndex":4,"items":[{"name":"아레아731","tel":"","addr":"경기도 남양주시 수동면 운수리 95-10번지","indutype":"일반휴게음식 - 서양음식","category":"restaurant"}]},{"lat":"37.704992109","long":"127.32551218","imageIndex":4,"items":[{"name":"영일식당","tel":"031-511-7282","addr":"경기도 남양주시 수동면 운수리 95-9번지","indutype":"일반휴게음식 - 일반한식","category":"restaurant"}]},{"lat":"37.704549185","long":"127.32604322","imageIndex":4,"items":[{"name":"오롯이닭요리","tel":"031-594-0424","addr":"경기도 남양주시 수동면 운수리 95-81번지 2층","indutype":"일반휴게음식 - 일반한식","category":"restaurant"},{"name":"카페루리","tel":"031-593-9998","addr":"경기도 남양주시 수동면 운수리 95-81번지","indutype":"일반휴게음식 - 서양음식","category":"restaurant"},{"name":"카페루리","tel":"031-593-9998","addr":"경기도 남양주시 수동면 운수리 95-81번지","indutype":"일반휴게음식 - 서양음식","category":"restaurant"}]},{"lat":"37.702158967","long":"127.32701938","imageIndex":4,"items":[{"name":"용정양평해장국","tel":"031-592-9088","addr":"경기도 남양주시 수동면 운수리 123번지","indutype":"일반휴게음식 - 일반한식","category":"restaurant"}]},{"lat":"37.703053968","long":"127.32260086","imageIndex":4,"items":[{"name":"운수삼계탕","tel":"031-593-7537","addr":"경기도 남양주시 수동면 운수리 212-5번지","indutype":"일반휴게음식 - 일반한식","category":"restaurant"}]},{"lat":"37.69999442","long":"127.32454937","imageIndex":4,"items":[{"name":"윤가네밥상","tel":"031-592-2131","addr":"경기도 남양주시 수동면 운수리 149-2번지","indutype":"일반휴게음식 - 일반한식","category":"restaurant"}]},{"lat":"37.702466597","long":"127.32654446","imageIndex":4,"items":[{"name":"축령산순대국","tel":"031-511-8810","addr":"경기도 남양주시 수동면 운수리 120-3번지","indutype":"일반휴게음식 - 일반한식","category":"restaurant"}]},{"lat":"37.701083917","long":"127.32479221","imageIndex":4,"items":[{"name":"코다리왕","tel":"070-1111-1111","addr":"경기도 남양주시 수동면 운수리 144번지 1층, 2층","indutype":"일반휴게음식 - 일반한식","category":"restaurant"}]},{"lat":"37.700221617","long":"127.32712433","imageIndex":4,"items":[{"name":"하나가든","tel":"031-511-3978","addr":"경기도 남양주시 수동면 운수리 156-2","indutype":"일반휴게음식 - 일반한식","category":"restaurant"}]},{"lat":"37.699917412","long":"127.32635195","imageIndex":4,"items":[{"name":"행복이 피어나다","tel":"","addr":"경기도 남양주시 수동면 운수리 156-4번지","indutype":"일반휴게음식 - 서양음식","category":"restaurant"}]},{"lat":"37.704325097","long":"127.32562268","imageIndex":4,"items":[{"name":"화광숯불구이","tel":"031-594-3450","addr":"경기도 남양주시 수동면 운수리 95-5","indutype":"일반휴게음식 - 일반한식","category":"restaurant"}]}]