[{"lat":"37.325005446","long":"126.7848586","imageIndex":7,"items":[{"name":"(주)영진유통","tel":"031-494-1300","addr":"경기도 안산시 단원구 신길동 1228-1번지 정우벤처타운2 104호","indutype":"음료식품 - 농·축·수산품","category":"food"},{"name":"쓰리데이즈빈(Three Days Bean)","tel":"070-4208-8976","addr":"경기도 안산시 단원구 신길동 1228-1번지 정우벤쳐타운2 422호","indutype":"음료식품 - 기타음료식품","category":"food"},{"name":"정우매점","tel":"031-431-0681","addr":"경기도 안산시 단원구 신길동 1228-1번지","indutype":"음료식품 - 기타음료식품","category":"food"}]},{"lat":"37.325702112","long":"126.76754907","imageIndex":7,"items":[{"name":"(주)주영","tel":"031-493-5343","addr":"경기도 안산시 단원구 신길동 1052-1번지","indutype":"음료식품 - 기타음료식품","category":"food"}]},{"lat":"37.336684458","long":"126.78585171","imageIndex":7,"items":[{"name":"WI 아이스크림 할인점","tel":"070-997-9970","addr":"경기도 안산시 단원구 신길동 1537번지 휴먼시아 상가동 101호","indutype":"음료식품 - 제과점","category":"food"}]},{"lat":"37.3363918710","long":"126.7740267063","imageIndex":7,"items":[{"name":"㈜가가","tel":"031-494-4660","addr":"경기도 안산시 단원구 신길동 658-9번지","indutype":"제조업 - 곡물조리식품,채소 외 단무","category":"food"}]},{"lat":"37.331060288","long":"126.78002309","imageIndex":7,"items":[{"name":"건영상사","tel":"031-413-3333","addr":"경기도 안산시 단원구 신길동 939-1번지","indutype":"음료식품 - 기타음료식품","category":"food"}]},{"lat":"37.324751516","long":"126.75647265","imageIndex":7,"items":[{"name":"고려은단헬스케어 주식회사","tel":"","addr":"경기도 안산시 단원구 신길동 1056-3번지 3층","indutype":"건강식품 - 기타건강식품","category":"food"}]},{"lat":"37.329865138","long":"126.78660474","imageIndex":7,"items":[{"name":"광원떡방앗간(신길점)","tel":"031-495-0988","addr":"경기도 안산시 단원구 신길동 1623번지 모리아오피스텔 101호","indutype":"음료식품 - 제과점","category":"food"},{"name":"더달달안산신길점","tel":"","addr":"경기도 안산시 단원구 신길동 1623번지 모리아오피스텔 110호","indutype":"음료식품 - 기타음료식품","category":"food"}]},{"lat":"37.3312528209","long":"126.7866684607","imageIndex":7,"items":[{"name":"군자농업협동조합 신길동지점","tel":"031-508-3451","addr":"경기도 안산시 단원구 신길동 1635번지","indutype":"도매 및 소매업 - 여수신,식품,잡화","category":"food"}]},{"lat":"37.33825422","long":"126.75911426","imageIndex":7,"items":[{"name":"군자소금","tel":"070-7425-4545","addr":"경기도 안산시 단원구 신길동 1392-6번지 101호","indutype":"음료식품 - 기타음료식품","category":"food"}]},{"lat":"37.337110538","long":"126.7823862","imageIndex":7,"items":[{"name":"늘푸른정육점","tel":"031-494-5052","addr":"경기도 안산시 단원구 신길동 35-1번지","indutype":"음료식품 - 정육점","category":"food"}]},{"lat":"37.335476887","long":"126.76244075","imageIndex":7,"items":[{"name":"다있소축산","tel":"031-493-9955","addr":"경기도 안산시 단원구 신길동 1422-4번지","indutype":"음료식품 - 정육점","category":"food"}]},{"lat":"37.333506709","long":"126.75091501","imageIndex":7,"items":[{"name":"대건유통","tel":"031-403-2205","addr":"경기도 안산시 단원구 신길동 산39","indutype":"음료식품 - 기타음료식품","category":"food"}]},{"lat":"37.331423394","long":"126.78632947","imageIndex":7,"items":[{"name":"대박로또","tel":"031-491-8202","addr":"경기도 안산시 단원구 신길동 1633번지 1층 102호","indutype":"음료식품 - 기타음료식품","category":"food"}]},{"lat":"37.336562408","long":"126.77368766","imageIndex":7,"items":[{"name":"마티마부힐링센타","tel":"031-492-2322","addr":"경기도 안산시 단원구 신길동 656-1번지 새뿔프라자 301호,302호","indutype":"건강식품 - 기타건강식품","category":"food"}]},{"lat":"37.324005113","long":"126.75286474","imageIndex":7,"items":[{"name":"맛있는구내식당","tel":"031-508-1409","addr":"경기도 안산시 단원구 신길동 1057-1번지 606블럭 1-1호","indutype":"음료식품 - 기타음료식품","category":"food"}]},{"lat":"37.330112444","long":"126.76077664","imageIndex":7,"items":[{"name":"바이오메드지노믹스(주)","tel":"031-375-2313","addr":"경기도 안산시 단원구 신길동 364건영상가116","indutype":"건강식품 - 기타건강식품","category":"food"}]},{"lat":"37.336590246","long":"126.77410509","imageIndex":7,"items":[{"name":"반찬스토리","tel":"031-495-1051","addr":"경기도 안산시 단원구 신길동 657번지","indutype":"음료식품 - 기타음료식품","category":"food"}]},{"lat":"37.339887793","long":"126.78352912","imageIndex":7,"items":[{"name":"비네거인네이쳐","tel":"031-508-5575","addr":"경기도 안산시 단원구 신길동 2-3번지","indutype":"음료식품 - 기타음료식품","category":"food"}]},{"lat":"37.325752672","long":"126.77033571","imageIndex":7,"items":[{"name":"사이먼앤코(주)","tel":"031-8042-3368","addr":"경기도 안산시 단원구 신길동 1048-9번지","indutype":"음료식품 - 기타음료식품","category":"food"}]},{"lat":"37.333720719","long":"126.75844059","imageIndex":7,"items":[{"name":"산삼전시장","tel":"031-486-4908","addr":"경기도 안산시 단원구 신길동 224-8번지","indutype":"건강식품 - 인삼제품","category":"food"}]},{"lat":"37.336756598","long":"126.77627117","imageIndex":7,"items":[{"name":"삼익떡방앗간","tel":"031-495-4525","addr":"경기도 안산시 단원구 신길동 709-7번지 삼창B상가 103호","indutype":"음료식품 - 제과점","category":"food"},{"name":"파리바게뜨","tel":"031-491-4443","addr":"경기도 안산시 단원구 신길동 709-7번지 삼창B상가 101호","indutype":"음료식품 - 제과점","category":"food"}]},{"lat":"37.33939156","long":"126.77366778","imageIndex":7,"items":[{"name":"샛뿔표고버섯","tel":"031-493-3627","addr":"경기도 안산시 단원구 신길동 136번지","indutype":"음료식품 - 농·축·수산품","category":"food"}]},{"lat":"37.332894187","long":"126.78749875","imageIndex":7,"items":[{"name":"소야 돼지야","tel":"031-493-2577","addr":"경기도 안산시 단원구 신길동 1654번지 1층","indutype":"음료식품 - 정육점","category":"food"}]},{"lat":"37.334110553","long":"126.78749528","imageIndex":7,"items":[{"name":"신길고마을교육공동체개방형사회적협동조합","tel":"031-599-9892","addr":"경기도 안산시 단원구 신길동 1672번지 신길고등학교","indutype":"음료식품 - 기타음료식품","category":"food"}]},{"lat":"37.336756922","long":"126.77644043","imageIndex":7,"items":[{"name":"신길공판장정육점","tel":"031-493-0753","addr":"경기도 안산시 단원구 신길동 710-2번지","indutype":"음료식품 - 정육점","category":"food"}]},{"lat":"37.339527535","long":"126.78360917","imageIndex":7,"items":[{"name":"신촌한우정육점","tel":"031-494-9696","addr":"경기도 안산시 단원구 신길동 2-7번지","indutype":"음료식품 - 정육점","category":"food"}]},{"lat":"37.337805339","long":"126.78783454","imageIndex":7,"items":[{"name":"싱싱축산","tel":"031-493-6246","addr":"경기도 안산시 단원구 신길동 1546번지 주공프라자1 103호","indutype":"음료식품 - 정육점","category":"food"}]},{"lat":"37.336923658","long":"126.7788322","imageIndex":7,"items":[{"name":"아이스크림할인점","tel":"070-997-9970","addr":"경기도 안산시 단원구 신길동 727번지 삼익빌딩 1층 104호","indutype":"음료식품 - 기타음료식품","category":"food"}]},{"lat":"37.330478341","long":"126.78688506","imageIndex":7,"items":[{"name":"엔와이투커피","tel":"031-411-8401","addr":"경기도 안산시 단원구 신길동 1614번지 602호","indutype":"음료식품 - 기타음료식품","category":"food"}]},{"lat":"37.336323701","long":"126.78566092","imageIndex":7,"items":[{"name":"오케이청과","tel":"031-111-1111","addr":"경기도 안산시 단원구 신길동 1537번지 휴먼시아 405동 6층 601호","indutype":"음료식품 - 농·축·수산품","category":"food"}]},{"lat":"37.337799973","long":"126.77533143","imageIndex":7,"items":[{"name":"장바구니유통","tel":"031-408-8484","addr":"경기도 안산시 단원구 신길동 1447번지 안산신길온천역 204동 1701호","indutype":"음료식품 - 농·축·수산품","category":"food"}]},{"lat":"37.330284635","long":"126.76571816","imageIndex":7,"items":[{"name":"주식회사 동경","tel":"031-495-7781","addr":"경기도 안산시 단원구 신길동 447-1번지","indutype":"음료식품 - 미곡상","category":"food"}]},{"lat":"37.32064398","long":"126.75700503","imageIndex":7,"items":[{"name":"주식회사 사조대림안산공장","tel":"051-254-7521","addr":"경기도 안산시 단원구 신길동 1060번지","indutype":"음료식품 - 농·축·수산품","category":"food"},{"name":"주식회사사조대림안산공장","tel":"02-3470-6136","addr":"경기도 안산시 단원구 신길동 1060번지","indutype":"음료식품 - 농·축·수산품","category":"food"}]},{"lat":"37.338473288","long":"126.78357838","imageIndex":7,"items":[{"name":"주식회사그린푸드락","tel":"031-501-0707","addr":"경기도 안산시 단원구 신길동 4-4번지 2층","indutype":"음료식품 - 기타음료식품","category":"food"}]},{"lat":"37.337447686","long":"126.76124961","imageIndex":7,"items":[{"name":"주식회사부건유통","tel":"031-493-0957","addr":"경기도 안산시 단원구 신길동 1386-4","indutype":"음료식품 - 기타음료식품","category":"food"}]},{"lat":"37.330702026","long":"126.78602689","imageIndex":7,"items":[{"name":"주식회사진우헬스케어","tel":"02-2157-3380","addr":"경기도 안산시 단원구 신길동 1631번지 704호","indutype":"음료식품 - 기타음료식품","category":"food"}]},{"lat":"37.336978192","long":"126.76077717","imageIndex":7,"items":[{"name":"진소정육점","tel":"031-494-1009","addr":"경기도 안산시 단원구 신길동 1395-3번지","indutype":"음료식품 - 정육점","category":"food"}]},{"lat":"37.33855555","long":"126.78914141","imageIndex":7,"items":[{"name":"집밥반찬","tel":"031-508-0565","addr":"경기도 안산시 단원구 신길동 1561번지 휴먼시아 상가동 104호","indutype":"음료식품 - 기타음료식품","category":"food"}]},{"lat":"37.338363131","long":"126.75949758","imageIndex":7,"items":[{"name":"창대식품","tel":"031-566-2476","addr":"경기도 안산시 단원구 신길동 1391-9번지 201호","indutype":"음료식품 - 농·축·수산품","category":"food"}]},{"lat":"37.322311452","long":"126.78004892","imageIndex":7,"items":[{"name":"태원식품산업(주)","tel":"031-491-7912","addr":"경기도 안산시 단원구 신길동 1125-2번지","indutype":"음료식품 - 기타음료식품","category":"food"}]},{"lat":"37.337895993","long":"126.78813897","imageIndex":7,"items":[{"name":"파리바게뜨신길휴먼시아점","tel":"031-493-8203","addr":"경기도 안산시 단원구 신길동 1545번지 102호","indutype":"음료식품 - 제과점","category":"food"}]},{"lat":"37.338668845","long":"126.77268822","imageIndex":7,"items":[{"name":"푸르네농장","tel":"031-111-1111","addr":"경기도 안산시 단원구 신길동 176번지","indutype":"음료식품 - 농·축·수산품","category":"food"}]},{"lat":"37.331139177","long":"126.7836674","imageIndex":7,"items":[{"name":"한국유통","tel":"031-494-6811","addr":"경기도 안산시 단원구 신길동 1702번지","indutype":"음료식품 - 농·축·수산품","category":"food"}]},{"lat":"37.337339175","long":"126.77466704","imageIndex":7,"items":[{"name":"한아름떡","tel":"031-520-5232","addr":"경기도 안산시 단원구 신길동 1447번지 안산신길온천역휴먼빌2차 상가동 지하2층 8호","indutype":"음료식품 - 제과점","category":"food"},{"name":"한우리축산","tel":"031-493-3616","addr":"경기도 안산시 단원구 신길동 1447번지 안산신길온천역휴먼빌2차 상가동 5호","indutype":"음료식품 - 정육점","category":"food"}]},{"lat":"37.337587727","long":"126.77741968","imageIndex":7,"items":[{"name":"한우촌","tel":"031-494-0155","addr":"경기도 안산시 단원구 신길동 1438번지 삼익아에이 상가동 106호","indutype":"음료식품 - 정육점","category":"food"}]}]