[{"lat":"37.85502309","long":"126.87710696","imageIndex":17,"items":[{"name":"(주)미성드림시티","tel":"02-385-5558","addr":"경기도 파주시 법원읍 법원리 526-9번지","indutype":"건축자재 - 부동산 분양","category":"other"}]},{"lat":"37.847917591","long":"126.8798572","imageIndex":17,"items":[{"name":"GS25파주법원규리점","tel":"","addr":"경기도 파주시 법원읍 법원리 447-10번지","indutype":"유통업 영리 - 편 의 점","category":"other"}]},{"lat":"37.848357977","long":"126.87883391","imageIndex":17,"items":[{"name":"개그스토리법원읍점","tel":"031-958-0071","addr":"경기도 파주시 법원읍 법원리 444-6번지","indutype":"유통업 영리 - 편 의 점","category":"other"}]},{"lat":"37.857024569","long":"126.87842168","imageIndex":17,"items":[{"name":"나무향기","tel":"031-1111-1111","addr":"경기도 파주시 법원읍 법원리 520-2번지","indutype":"가구 - 일반가구","category":"other"},{"name":"씨유법원북문점","tel":"031-874-6480","addr":"경기도 파주시 법원읍 법원리 520-2","indutype":"유통업 영리 - 편 의 점","category":"other"}]},{"lat":"37.847411216","long":"126.88691362","imageIndex":17,"items":[{"name":"다솜주야간보호센터","tel":"031-958-4675","addr":"경기도 파주시 법원읍 법원리 416-1번지","indutype":"기타의료기관 - 기타의료기관 및 기타","category":"other"}]},{"lat":"37.856555156","long":"126.89580792","imageIndex":17,"items":[{"name":"두루뫼사료관","tel":"031-958-6101","addr":"경기도 파주시 법원읍 법원리 139-5","indutype":"문화.취미 - 티켓","category":"other"}]},{"lat":"37.846660422","long":"126.88389263","imageIndex":17,"items":[{"name":"문화공구파주점","tel":"031-959-0949","addr":"경기도 파주시 법원읍 법원리 422-71번지","indutype":"기타 - 기계공구","category":"other"}]},{"lat":"37.850884971","long":"126.87450069","imageIndex":17,"items":[{"name":"미래하우징","tel":"031-958-9235","addr":"경기도 파주시 법원읍 법원리 683-17번지","indutype":"용역 서비스 - 기타용역서비스","category":"other"}]},{"lat":"37.848716411","long":"126.87700405","imageIndex":17,"items":[{"name":"법원전파사","tel":"031-959-1237","addr":"경기도 파주시 법원읍 법원리 443-9","indutype":"수리서비스 - 가정용품수리","category":"other"}]},{"lat":"37.848025013","long":"126.87919804","imageIndex":17,"items":[{"name":"법원종합설비","tel":"031-959-3948","addr":"경기도 파주시 법원읍 법원리 445-21번지","indutype":"수리서비스 - 기타수리서비스","category":"other"}]},{"lat":"37.847886794","long":"126.87630103","imageIndex":17,"items":[{"name":"샘건재","tel":"031-958-0072","addr":"경기도 파주시 법원읍 법원리 434-2","indutype":"건축자재 - 기타건축자재","category":"other"}]},{"lat":"37.847910173","long":"126.88139104","imageIndex":17,"items":[{"name":"세븐일레븐파주율곡점","tel":"","addr":"경기도 파주시 법원읍 법원리 447-50번지","indutype":"유통업 영리 - 편 의 점","category":"other"}]},{"lat":"37.848445704","long":"126.87660685","imageIndex":17,"items":[{"name":"수호천사공조","tel":"031-959-5551","addr":"경기도 파주시 법원읍 법원리 435-17번지","indutype":"전기제품 - 냉열기기","category":"other"}]},{"lat":"37.853831158","long":"126.8746092","imageIndex":17,"items":[{"name":"술이홀 요양원","tel":"031-958-1800","addr":"경기도 파주시 법원읍 법원리 670-4번지","indutype":"기타의료기관 - 기타의료기관 및 기타","category":"other"}]},{"lat":"37.847972664","long":"126.88083422","imageIndex":17,"items":[{"name":"아성샷시","tel":"031-958-0154","addr":"경기도 파주시 법원읍 법원리 447-52","indutype":"건축자재 - 보일러·펌프·샷시","category":"other"}]},{"lat":"37.847584101","long":"126.87972141","imageIndex":17,"items":[{"name":"에스엔에스","tel":"031-1661-3741","addr":"경기도 파주시 법원읍 법원리 424-38번지","indutype":"전기제품 - 기타전기제품","category":"other"}]},{"lat":"37.857799278","long":"126.87832947","imageIndex":17,"items":[{"name":"엔토피아","tel":"02-6214-0130","addr":"경기도 파주시 법원읍 법원리 518-10번지","indutype":"서적문구 - 문구용품","category":"other"}]},{"lat":"37.850802643","long":"126.87336461","imageIndex":17,"items":[{"name":"엠케이뷰티박스(mkbeautybox)","tel":"070-8742-5121","addr":"경기도 파주시 법원읍 법원리 679-24번지","indutype":"회원제형태 - 기타1","category":"other"}]},{"lat":"37.848553279","long":"126.87610674","imageIndex":17,"items":[{"name":"은혜의섬","tel":"031-959-7889","addr":"경기도 파주시 법원읍 법원리 435-21번지","indutype":"신변잡화 - 기타잡화","category":"other"},{"name":"하나세탁소","tel":"031-958-4407","addr":"경기도 파주시 법원읍 법원리 435-21","indutype":"수리서비스 - 세탁소","category":"other"}]},{"lat":"37.848080375","long":"126.88044774","imageIndex":17,"items":[{"name":"작은우주","tel":"","addr":"경기도 파주시 법원읍 법원리 447-34번지","indutype":"신변잡화 - 가방","category":"other"}]},{"lat":"37.847883485","long":"126.88172058","imageIndex":17,"items":[{"name":"접시꽃이야기-사임당909","tel":"031-958-2102","addr":"경기도 파주시 법원읍 법원리 382-8번지","indutype":"의류 - 정장","category":"other"}]},{"lat":"37.848223684","long":"126.87964082","imageIndex":17,"items":[{"name":"정원","tel":"031-958-4303","addr":"경기도 파주시 법원읍 법원리 447-23번지 정원선물백화점","indutype":"신변잡화 - 액세서리","category":"other"}]},{"lat":"37.846745257","long":"126.88766452","imageIndex":17,"items":[{"name":"제이피드","tel":"031-959-1566","addr":"경기도 파주시 법원읍 법원리 399-10","indutype":"농업 - 비료,사료,종자","category":"other"}]},{"lat":"37.862194594","long":"126.90569773","imageIndex":17,"items":[{"name":"주식회사운남유통","tel":"070-7701-5051","addr":"경기도 파주시 법원읍 법원리 산 11-1","indutype":"건축자재 - 기타건축자재","category":"other"}]},{"lat":"37.852886345","long":"126.87569028","imageIndex":17,"items":[{"name":"해동창호공사","tel":"031-959-6284","addr":"경기도 파주시 법원읍 법원리 671-4 제1호","indutype":"용역 서비스 - 기타용역서비스","category":"other"}]},{"lat":"37.853388581","long":"126.87358734","imageIndex":17,"items":[{"name":"현성종합목재","tel":"031-958-5227","addr":"경기도 파주시 법원읍 법원리 673-2","indutype":"건축자재 - 목재·석재·철물","category":"other"}]}]