[{"lat":"37.726317317","long":"127.04995588","imageIndex":16,"items":[{"name":"(주)청림에듀","tel":"031-875-8702","addr":"경기도 의정부시 호원동 418-3번지 3층 301호","indutype":"학원 - 보습학원","category":"study"},{"name":"호원미래학원","tel":"031-872-9975","addr":"경기도 의정부시 호원동 418-3번지 3층","indutype":"학원 - 보습학원","category":"study"}]},{"lat":"37.707379515","long":"127.049014","imageIndex":16,"items":[{"name":"GT호암도장","tel":"031-872-9791","addr":"경기도 의정부시 호원동 462-13번지 3층 합기도/해동검도","indutype":"학원 - 예·체능계학원","category":"study"}]},{"lat":"37.728600325","long":"127.03990701","imageIndex":16,"items":[{"name":"가든독서실","tel":"031-876-3100","addr":"경기도 의정부시 호원동 371-1번지 ,2,3층","indutype":"학원 - 독서실","category":"study"},{"name":"피에스이(PSE)어학원","tel":"031-872-9233","addr":"경기도 의정부시 호원동 371-1번지 1층","indutype":"회원제형태 - 학원","category":"study"}]},{"lat":"37.719687419","long":"127.04695737","imageIndex":16,"items":[{"name":"강공스터디호원캠퍼스학원","tel":"031-836-7461","addr":"경기도 의정부시 호원동 435-1번지 2층 3층","indutype":"회원제형태 - 학원","category":"study"},{"name":"호원강철학원","tel":"031-836-7461","addr":"경기도 의정부시 호원동 435-1번지 4층","indutype":"학원 - 보습학원","category":"study"}]},{"lat":"37.720903145","long":"127.04845527","imageIndex":16,"items":[{"name":"강북이용학원의정부점","tel":"","addr":"경기도 의정부시 호원동 431-1번지 2층","indutype":"학원 - 기능학원","category":"study"},{"name":"찰진영어어학원호원점","tel":"031-851-5506","addr":"경기도 의정부시 호원동 431-1번지 4층","indutype":"학원 - 외국어학원","category":"study"}]},{"lat":"37.726236407","long":"127.04951345","imageIndex":16,"items":[{"name":"건국PTL체대입시","tel":"031-826-8309","addr":"경기도 의정부시 호원동 418-4번지 4층","indutype":"학원 - 예·체능계학원","category":"study"}]},{"lat":"37.728490227","long":"127.04576018","imageIndex":16,"items":[{"name":"경희대 대한민국 태권도","tel":"031-855-1952","addr":"경기도 의정부시 호원동 343번지 302호","indutype":"학원 - 예·체능계학원","category":"study"},{"name":"서울학원","tel":"031-874-0005","addr":"경기도 의정부시 호원동 343번지 5층","indutype":"학원 - 보습학원","category":"study"}]},{"lat":"37.726436272","long":"127.04512378","imageIndex":16,"items":[{"name":"경희대국가대표","tel":"031-871-2442","addr":"경기도 의정부시 호원동 332 6층 1","indutype":"학원 - 예·체능계학원","category":"study"},{"name":"숙명칸타빌레음악학원","tel":"031-871-5101","addr":"경기도 의정부시 호원동 332번지 서왕프라자 401호","indutype":"학원 - 예·체능계학원","category":"study"},{"name":"크는나무미술학원","tel":"031-875-5678","addr":"경기도 의정부시 호원동 332번지 서왕프라자 4층 402호","indutype":"회원제형태 - 학원","category":"study"},{"name":"호원독서실","tel":"031-827-8509","addr":"경기도 의정부시 호원동 332번지 서왕프라자 5층 501호","indutype":"학원 - 독서실","category":"study"}]},{"lat":"37.709352879","long":"127.04834613","imageIndex":16,"items":[{"name":"고수정수학교습소","tel":"031-829-3377","addr":"경기도 의정부시 호원동 459번지 신일엘리시움 2층 222호","indutype":"학원 - 보습학원","category":"study"},{"name":"김쌤영어교습소","tel":"031-871-6671","addr":"경기도 의정부시 호원동 459번지 신일엘리시움 223호","indutype":"학원 - 외국어학원","category":"study"},{"name":"리틀모네미술학원","tel":"031-836-7775","addr":"경기도 의정부시 호원동 459번지 신일엘리시움 226호,227호","indutype":"학원 - 예·체능계학원","category":"study"},{"name":"베스트독서실","tel":"031-877-7373","addr":"경기도 의정부시 호원동 459번지 2층 221호 신일엘리시움상가","indutype":"학원 - 독서실","category":"study"},{"name":"아이비리그영어학원","tel":"070-8824-2340","addr":"경기도 의정부시 호원동 459번지 신일엘리시움 214호,215호","indutype":"회원제형태 - 학원","category":"study"},{"name":"연세동문본수학교습소","tel":"031-825-2580","addr":"경기도 의정부시 호원동 459번지 신일엘리시움 2층 211호","indutype":"학원 - 보습학원","category":"study"},{"name":"영어독서클럽영어교습소","tel":"","addr":"경기도 의정부시 호원동 459번지 신일엘리시움 2층 209호","indutype":"학원 - 외국어학원","category":"study"},{"name":"예샘학원","tel":"070-8803-0570","addr":"경기도 의정부시 호원동 459번지 신일엘리시움 229호 230","indutype":"학원 - 보습학원","category":"study"},{"name":"카이스트학원","tel":"","addr":"경기도 의정부시 호원동 459번지 신일엘리시움 204, 205호","indutype":"학원 - 보습학원","category":"study"}]},{"lat":"37.721626078","long":"127.04245558","imageIndex":16,"items":[{"name":"공간미술교습소","tel":"031-856-6077","addr":"경기도 의정부시 호원동 289-7번지 한승미메이드 상가 201호","indutype":"학원 - 예·체능계학원","category":"study"}]},{"lat":"37.727041502","long":"127.04042802","imageIndex":16,"items":[{"name":"국가대표호동태권도장","tel":"031-827-5070","addr":"경기도 의정부시 호원동 339-13번지 3층 302호 호룡상가","indutype":"학원 - 예·체능계학원","category":"study"}]},{"lat":"37.720741216","long":"127.04782","imageIndex":16,"items":[{"name":"그랜드음악학원","tel":"031-871-0387","addr":"경기도 의정부시 호원동 432-7번지 301호,302호","indutype":"학원 - 예·체능계학원","category":"study"},{"name":"리뉴학원","tel":"031-877-4100","addr":"경기도 의정부시 호원동 432-7번지 한주프라자 402, 403호","indutype":"학원 - 보습학원","category":"study"},{"name":"아이크레호원디자인아트미술교습소","tel":"070-8118-3982","addr":"경기도 의정부시 호원동 432-7번지 한주프라자 202호","indutype":"학원 - 예·체능계학원","category":"study"},{"name":"이엠이화무용학원","tel":"031-879-7857","addr":"경기도 의정부시 호원동 432-7번지 401호","indutype":"학원 - 예·체능계학원","category":"study"},{"name":"인성태권도교육관","tel":"","addr":"경기도 의정부시 호원동 432-7번지 501호","indutype":"학원 - 예·체능계학원","category":"study"},{"name":"한국창의인재개발협회","tel":"031-876-7037","addr":"경기도 의정부시 호원동 432-7번지 한주프라자","indutype":"학원 - 기타 교육기관","category":"study"}]},{"lat":"37.725650913","long":"127.04918413","imageIndex":16,"items":[{"name":"그린독서실","tel":"031-826-0998","addr":"경기도 의정부시 호원동 423번지 대명빌딩 5층","indutype":"학원 - 독서실","category":"study"},{"name":"주식회사 가람교육","tel":"070-8802-4356","addr":"경기도 의정부시 호원동 423번지 6층","indutype":"학원 - 기타 교육기관","category":"study"},{"name":"충효태권도","tel":"031-876-0907","addr":"경기도 의정부시 호원동 423 701","indutype":"학원 - 예·체능계학원","category":"study"}]},{"lat":"37.723373684","long":"127.04320513","imageIndex":16,"items":[{"name":"그림숲미술교습소","tel":"02-841-6150","addr":"경기도 의정부시 호원동 313-37번지 쌍용스윗닷홈 2층","indutype":"학원 - 예·체능계학원","category":"study"},{"name":"명성교육학원","tel":"031-826-2680","addr":"경기도 의정부시 호원동 313-37번지 쌍용스윗닷홈 3층","indutype":"학원 - 보습학원","category":"study"},{"name":"명지석사태권도","tel":"031-874-7747","addr":"경기도 의정부시 호원동 313-37쌍용스윗닷홈101동지하1층2-04.05호","indutype":"회원제형태 - 학원","category":"study"},{"name":"탑뱅크독서실","tel":"031-837-0099","addr":"경기도 의정부시 호원동 313-37번지 쌍용스윗닷홈 3층","indutype":"학원 - 독서실","category":"study"},{"name":"호원쇼팽의빨강피아노음악학원","tel":"031-877-3588","addr":"경기도 의정부시 호원동 313-37번지 쌍용스윗닷홈 2-01호","indutype":"학원 - 예·체능계학원","category":"study"}]},{"lat":"37.727851435","long":"127.04324158","imageIndex":16,"items":[{"name":"금빛태권도","tel":"031-826-3331","addr":"경기도 의정부시 호원동 326-6번지 화성프라자 402,407호","indutype":"학원 - 예·체능계학원","category":"study"},{"name":"길잡이학원","tel":"031-877-7810","addr":"경기도 의정부시 호원동 326-6번지 화성프라자 307호","indutype":"학원 - 보습학원","category":"study"},{"name":"김상미수학학원","tel":"070-7737-6805","addr":"경기도 의정부시 호원동 326-6번지 화성프라자 505호","indutype":"회원제형태 - 학원","category":"study"},{"name":"베를린 음악 필아트 미술학원","tel":"031-876-3064","addr":"경기도 의정부시 호원동 326-6번지 화성프라자 401호","indutype":"학원 - 예·체능계학원","category":"study"},{"name":"예일음악학원","tel":"031-877-7732","addr":"경기도 의정부시 호원동 326-6번지 화성프라자 404호","indutype":"학원 - 예·체능계학원","category":"study"},{"name":"유투엠 수학전문 학원","tel":"031-836-6636","addr":"경기도 의정부시 호원동 326-6번지 화성프라자 502호","indutype":"학원 - 보습학원","category":"study"},{"name":"이보영의토킹클럽호원어학원","tel":"031-874-0585","addr":"경기도 의정부시 호원동 326-6번지 화성프라자 3층 306호","indutype":"회원제형태 - 학원","category":"study"},{"name":"최현주어학원","tel":"031-877-8030","addr":"경기도 의정부시 호원동 326-6번지 화성프라자 5층 505호","indutype":"회원제형태 - 학원","category":"study"},{"name":"케이에스절대영수학원","tel":"031-875-5599","addr":"경기도 의정부시 호원동 326-6번지 화성프라자 205호","indutype":"학원 - 보습학원","category":"study"},{"name":"하버드독서실","tel":"031-875-0337","addr":"경기도 의정부시 호원동 326-6화성프라자506호~507호","indutype":"학원 - 기타 교육기관","category":"study"},{"name":"하우학원","tel":"031-873-5601","addr":"경기도 의정부시 호원동 326-6번지 화성프라자 5층 501호","indutype":"학원 - 보습학원","category":"study"},{"name":"한울에듀(확인영어강한수학해법영수)학원","tel":"031-855-0599","addr":"경기도 의정부시 호원동 326-6번지 화성프라자 403호,406호","indutype":"학원 - 보습학원","category":"study"}]},{"lat":"37.721652279","long":"127.04484884","imageIndex":16,"items":[{"name":"길수학학원","tel":"031-826-1414","addr":"경기도 의정부시 호원동 311-15번지 3층","indutype":"학원 - 보습학원","category":"study"},{"name":"민영어교습소","tel":"031-824-3414","addr":"경기도 의정부시 호원동 311-15번지 2층","indutype":"학원 - 외국어학원","category":"study"},{"name":"이비스영어교습소","tel":"031-875-5022","addr":"경기도 의정부시 호원동 311-15번지","indutype":"학원 - 외국어학원","category":"study"}]},{"lat":"37.704631808","long":"127.04843397","imageIndex":16,"items":[{"name":"꼬마앤키즈","tel":"02-941-1733","addr":"경기도 의정부시 호원동 467번지 아이파크 203동 1701호","indutype":"회원제형태 - 학원","category":"study"}]},{"lat":"37.729681492","long":"127.03985083","imageIndex":16,"items":[{"name":"꼬마작가전문미술교습소","tel":"031-879-1218","addr":"경기도 의정부시 호원동 363-6번지 201호","indutype":"학원 - 예·체능계학원","category":"study"}]},{"lat":"37.724516968","long":"127.04584863","imageIndex":16,"items":[{"name":"꿈나무바둑교습소","tel":"031-871-1292","addr":"경기도 의정부시 호원동 51-2번지 하나프라자 309호","indutype":"학원 - 기타 교육기관","category":"study"},{"name":"스즈끼바이올린교습소","tel":"031-877-8011","addr":"경기도 의정부시 호원동 51-2번지 하나프라자 504호","indutype":"학원 - 예·체능계학원","category":"study"}]},{"lat":"37.71629061","long":"127.04746573","imageIndex":16,"items":[{"name":"대경독서실","tel":"031-000-0000","addr":"경기도 의정부시 호원동 442-3번지 대경프라자 7층","indutype":"학원 - 독서실","category":"study"},{"name":"뻬어날영수전문학원","tel":"031-829-8004","addr":"경기도 의정부시 호원동 442-3번지 5층 일부","indutype":"학원 - 보습학원","category":"study"}]},{"lat":"37.721796473","long":"127.0447355","imageIndex":16,"items":[{"name":"대동수학학원","tel":"070-4042-3876","addr":"경기도 의정부시 호원동 311-10번지 3층","indutype":"학원 - 보습학원","category":"study"},{"name":"오렌지음악전문학원","tel":"031-872-7694","addr":"경기도 의정부시 호원동 311-10번지 호원그린빌딩 2층","indutype":"학원 - 예·체능계학원","category":"study"}]},{"lat":"37.707073188","long":"127.04901381","imageIndex":16,"items":[{"name":"더뮤직음악학원","tel":"031-827-8558","addr":"경기도 의정부시 호원동 462-23번지 2층","indutype":"학원 - 예·체능계학원","category":"study"}]},{"lat":"37.727345019","long":"127.0484025","imageIndex":16,"items":[{"name":"더샵레지던스","tel":"031-879-8001","addr":"경기도 의정부시 호원동 416번지 2층","indutype":"학원 - 독서실","category":"study"}]},{"lat":"37.728489868","long":"127.04673571","imageIndex":16,"items":[{"name":"드림유아체육교실","tel":"","addr":"경기도 의정부시 호원동 4-24번지 우진빌딩 지하1층","indutype":"학원 - 기타 교육기관","category":"study"}]},{"lat":"37.728986423","long":"127.04387744","imageIndex":16,"items":[{"name":"라온태권스쿨","tel":"031-837-5658","addr":"경기도 의정부시 호원동 345-31번지","indutype":"학원 - 예·체능계학원","category":"study"},{"name":"예닮음악학원","tel":"031-829-0040","addr":"경기도 의정부시 호원동 345-31번지","indutype":"학원 - 예·체능계학원","category":"study"}]},{"lat":"37.703964881","long":"127.04898921","imageIndex":16,"items":[{"name":"리더스잉글리시영어교습소","tel":"031-877-3371","addr":"경기도 의정부시 호원동 467번지 아이파크호원동 상가 202호","indutype":"회원제형태 - 학원","category":"study"},{"name":"청어람수학교습소","tel":"031-855-8205","addr":"경기도 의정부시 호원동 467번지 아이파크 205호 상가","indutype":"회원제형태 - 학원","category":"study"}]},{"lat":"37.721877687","long":"127.04437259","imageIndex":16,"items":[{"name":"리딩키즈학원","tel":"070-8704-9051","addr":"경기도 의정부시 호원동 309-39번지 2층","indutype":"학원 - 보습학원","category":"study"},{"name":"큰뜻학원","tel":"031-836-0355","addr":"경기도 의정부시 호원동 309-39번지","indutype":"학원 - 보습학원","category":"study"},{"name":"포인트원-수작 (    )학원","tel":"031-825-1905","addr":"경기도 의정부시 호원동 309-39번지 3층","indutype":"학원 - 보습학원","category":"study"}]},{"lat":"37.704181709","long":"127.04743579","imageIndex":16,"items":[{"name":"맥 교습소","tel":"","addr":"경기도 의정부시 호원동 468-4번지 르네상스시티 1303호","indutype":"학원 - 보습학원","category":"study"}]},{"lat":"37.72207581","long":"127.04462223","imageIndex":16,"items":[{"name":"뮤엠영어호원학원","tel":"031-876-0579","addr":"경기도 의정부시 호원동 311-18번지 진원빌딩 4층","indutype":"회원제형태 - 학원","category":"study"},{"name":"베토벤하우스음악학원","tel":"031-875-2242","addr":"경기도 의정부시 호원동 311-18번지 진원빌딩 3층","indutype":"학원 - 예·체능계학원","category":"study"},{"name":"윤선생우리집앞호원신일영어교습소","tel":"070-4036-3412","addr":"경기도 의정부시 호원동 311-18번지 진원빌딩 3층","indutype":"학원 - 외국어학원","category":"study"}]},{"lat":"37.713679751","long":"127.04204307","imageIndex":16,"items":[{"name":"미래주니어 축구클럽","tel":"031-574-0022","addr":"경기도 의정부시 호원동 251-2번지 산내들빌라트 103동 401호","indutype":"학원 - 예·체능계학원","category":"study"}]},{"lat":"37.7050195","long":"127.04770845","imageIndex":16,"items":[{"name":"미술의숲","tel":"031-878-8308","addr":"경기도 의정부시 호원동 465-13번지 서호빌딩 2층","indutype":"회원제형태 - 학원","category":"study"},{"name":"호암태권도체육관","tel":"031-875-5590","addr":"경기도 의정부시 호원동 465-13번지 서호빌딩 301호","indutype":"학원 - 예·체능계학원","category":"study"}]},{"lat":"37.708154801","long":"127.04782374","imageIndex":16,"items":[{"name":"바른교육","tel":"031-872-4501","addr":"경기도 의정부시 호원동 464-3번지 4층","indutype":"학원 - 예·체능계학원","category":"study"}]},{"lat":"37.729265585","long":"127.04426327","imageIndex":16,"items":[{"name":"바른평생교육원","tel":"","addr":"경기도 의정부시 호원동 346-1번지 3층","indutype":"학원 - 기타 교육기관","category":"study"}]},{"lat":"37.722211521","long":"127.04298899","imageIndex":16,"items":[{"name":"바이마르피아노교습소","tel":"031-877-4867","addr":"경기도 의정부시 호원동 309-80번지","indutype":"학원 - 예·체능계학원","category":"study"}]},{"lat":"37.723986239","long":"127.04348903","imageIndex":16,"items":[{"name":"밸런스수학교습소","tel":"031-855-2233","addr":"경기도 의정부시 호원동 313-3번지 5층","indutype":"학원 - 보습학원","category":"study"},{"name":"타임투영어교습소","tel":"070-8841-7374","addr":"경기도 의정부시 호원동 313-3번지 4층","indutype":"회원제형태 - 학원","category":"study"},{"name":"해법원어민중국어교습소","tel":"031-855-5153","addr":"경기도 의정부시 호원동 313-3번지 3층","indutype":"학원 - 외국어학원","category":"study"}]},{"lat":"37.728680097","long":"127.04387727","imageIndex":16,"items":[{"name":"벨트잉글리시학원","tel":"031-837-8300","addr":"경기도 의정부시 호원동 326-9번지 3층","indutype":"학원 - 보습학원","category":"study"},{"name":"써밋(SUMMIT)수학학원","tel":"070-8569-6658","addr":"경기도 의정부시 호원동 326-9번지 2층","indutype":"학원 - 보습학원","category":"study"}]},{"lat":"37.705271521","long":"127.04835498","imageIndex":16,"items":[{"name":"브레스학원","tel":"031-837-8209","addr":"경기도 의정부시 호원동 466-12번지 4층","indutype":"학원 - 보습학원","category":"study"}]},{"lat":"37.708911334","long":"127.04853865","imageIndex":16,"items":[{"name":"사)아시아복지신학연구원","tel":"031-836-7474","addr":"경기도 의정부시 호원동 459-5번지 3층","indutype":"학원 - 기타 교육기관","category":"study"}]},{"lat":"37.728878308","long":"127.04387738","imageIndex":16,"items":[{"name":"삼성영어호동학원","tel":"031-855-3405","addr":"경기도 의정부시 호원동 345-32번지 2층","indutype":"학원 - 외국어학원","category":"study"}]},{"lat":"37.727095707","long":"127.03996298","imageIndex":16,"items":[{"name":"삼성영어호원어학원","tel":"031-840-9905","addr":"경기도 의정부시 호원동 339-11번지","indutype":"학원 - 외국어학원","category":"study"},{"name":"호원중앙교습소","tel":"031-838-1227","addr":"경기도 의정부시 호원동 339-11번지 3층","indutype":"학원 - 보습학원","category":"study"}]},{"lat":"37.722463426","long":"127.04404398","imageIndex":16,"items":[{"name":"삼성영어호원학원","tel":"031-876-3405","addr":"경기도 의정부시 호원동 309-45번지 고구려빌딩 201호중 일부","indutype":"학원 - 보습학원","category":"study"},{"name":"아트앤하트 호원 미술교습소","tel":"031-871-0323","addr":"경기도 의정부시 호원동 309-45번지 고구려빌딩 102호","indutype":"학원 - 예·체능계학원","category":"study"},{"name":"영웅태권도 전문도장","tel":"031-837-5657","addr":"경기도 의정부시 호원동 309-45번지 고구려빌딩 3층","indutype":"학원 - 예·체능계학원","category":"study"}]},{"lat":"37.727852849","long":"127.03887439","imageIndex":16,"items":[{"name":"삼성키즈음악미술학원","tel":"031-876-9551","addr":"경기도 의정부시 호원동 377-1번지 2층","indutype":"학원 - 예·체능계학원","category":"study"}]},{"lat":"37.727266889","long":"127.03996306","imageIndex":16,"items":[{"name":"새솔학원","tel":"031-8083-5500","addr":"경기도 의정부시 호원동 339-19번지 2층","indutype":"학원 - 보습학원","category":"study"}]},{"lat":"37.726353696","long":"127.04909382","imageIndex":16,"items":[{"name":"서강대학교의정부SLP영어학당학원","tel":"031-826-0509","addr":"경기도 의정부시 호원동 418번지 거원프라자 5층","indutype":"학원 - 외국어학원","category":"study"},{"name":"에이플수학학원","tel":"031-843-8471","addr":"경기도 의정부시 호원동 418번지 거원프라자 2층 202호","indutype":"학원 - 보습학원","category":"study"}]},{"lat":"37.706965006","long":"127.04918385","imageIndex":16,"items":[{"name":"성재학원","tel":"031-826-2282","addr":"경기도 의정부시 호원동 462-33번지 2층","indutype":"학원 - 보습학원","category":"study"}]},{"lat":"37.723429565","long":"127.03746576","imageIndex":16,"items":[{"name":"송스키즈클럽","tel":"031-970-0778","addr":"경기도 의정부시 호원동 300-1번지","indutype":"학원 - 기타 교육기관","category":"study"}]},{"lat":"37.730906629","long":"127.04037325","imageIndex":16,"items":[{"name":"수국학원","tel":"031-837-3021","addr":"경기도 의정부시 호원동 357-4번지 3층","indutype":"학원 - 보습학원","category":"study"}]},{"lat":"37.703316193","long":"127.04897746","imageIndex":16,"items":[{"name":"수능애(  )","tel":"031-8083-0078","addr":"경기도 의정부시 호원동 467번지 아이파크호원동 208동 902호","indutype":"학원 - 기타 교육기관","category":"study"}]},{"lat":"37.721959253","long":"127.04298885","imageIndex":16,"items":[{"name":"수학원","tel":"031-877-2154","addr":"경기도 의정부시 호원동 309-27번지 3층","indutype":"학원 - 보습학원","category":"study"},{"name":"파란시간미술학원","tel":"031-855-8831","addr":"경기도 의정부시 호원동 309-27번지","indutype":"학원 - 예·체능계학원","category":"study"}]},{"lat":"37.705127359","long":"127.04837757","imageIndex":16,"items":[{"name":"숙명피아노","tel":"031-873-7781","addr":"경기도 의정부시 호원동 466-10번지 2층","indutype":"회원제형태 - 학원","category":"study"}]},{"lat":"37.708353013","long":"127.04782386","imageIndex":16,"items":[{"name":"스카이독서실","tel":"031-826-0074","addr":"경기도 의정부시 호원동 464-1 태일빌딩 6,7층","indutype":"학원 - 독서실","category":"study"}]},{"lat":"37.70891129","long":"127.04865206","imageIndex":16,"items":[{"name":"스카이수학교습소","tel":"031-825-0759","addr":"경기도 의정부시 호원동 459-4번지 2층","indutype":"학원 - 보습학원","category":"study"}]},{"lat":"37.728652982","long":"127.04412681","imageIndex":16,"items":[{"name":"신일수학교습소","tel":"031-878-6717","addr":"경기도 의정부시 호원동 326-12번지 1층 상가","indutype":"회원제형태 - 학원","category":"study"},{"name":"조이음악교습소","tel":"","addr":"경기도 의정부시 호원동 326-12번지 1층","indutype":"학원 - 예·체능계학원","category":"study"}]},{"lat":"37.72140783","long":"127.04806994","imageIndex":16,"items":[{"name":"신화학원","tel":"031-855-4976","addr":"경기도 의정부시 호원동 432-9한주4단지내상가2층","indutype":"학원 - 보습학원","category":"study"}]},{"lat":"37.721264935","long":"127.0446558","imageIndex":16,"items":[{"name":"아셀음악학원","tel":"031-873-1014","addr":"경기도 의정부시 호원동 309-94번지 3층","indutype":"학원 - 예·체능계학원","category":"study"}]},{"lat":"37.725931535","long":"127.0456793","imageIndex":16,"items":[{"name":"아소비학원호원센터","tel":"","addr":"경기도 의정부시 호원동 10-42번지 203호","indutype":"학원 - 기타 교육기관","category":"study"},{"name":"에스티알 (STR)수학학원","tel":"031-875-7771","addr":"경기도 의정부시 호원동 10-42번지 203호","indutype":"학원 - 보습학원","category":"study"},{"name":"호원해법학원","tel":"031-875-0589","addr":"경기도 의정부시 호원동 10-42번지 나현빌딩 2층 203호","indutype":"회원제형태 - 학원","category":"study"}]},{"lat":"37.711208984","long":"127.04801838","imageIndex":16,"items":[{"name":"안정환음악교습소","tel":"031-838-7626","addr":"경기도 의정부시 호원동 455-5번지 브랜드상설매장 306호","indutype":"회원제형태 - 학원","category":"study"}]},{"lat":"37.721679445","long":"127.04446322","imageIndex":16,"items":[{"name":"애플실용음악학원","tel":"031-855-7599","addr":"경기도 의정부시 호원동 309-12번지 해룡빌딩","indutype":"학원 - 예·체능계학원","category":"study"}]},{"lat":"37.730708284","long":"127.04079287","imageIndex":16,"items":[{"name":"어린음악대어린화가들학원","tel":"031-873-1544","addr":"경기도 의정부시 호원동 357-1번지 2층","indutype":"학원 - 예·체능계학원","category":"study"},{"name":"한율학원","tel":"031-8083-0403","addr":"경기도 의정부시 호원동 357-1번지 2층","indutype":"학원 - 보습학원","category":"study"}]},{"lat":"37.705073054","long":"127.04901257","imageIndex":16,"items":[{"name":"연세태권도","tel":"031-873-0803","addr":"경기도 의정부시 호원동 466-16번지 대림빌딩 5층","indutype":"학원 - 예·체능계학원","category":"study"},{"name":"음새피아노학원","tel":"031-877-6776","addr":"경기도 의정부시 호원동 466-16번지 2층","indutype":"학원 - 예·체능계학원","category":"study"}]},{"lat":"37.715434256","long":"127.04862204","imageIndex":16,"items":[{"name":"열린음악학원","tel":"031-877-5717","addr":"경기도 의정부시 호원동 445-5번지 우성빌딩 2층","indutype":"회원제형태 - 학원","category":"study"}]},{"lat":"37.710155042","long":"127.04754144","imageIndex":16,"items":[{"name":"예담독서실","tel":"031-879-1991","addr":"경기도 의정부시 호원동 454-23번지","indutype":"학원 - 독서실","category":"study"},{"name":"원포인트공무원체력학원","tel":"","addr":"경기도 의정부시 호원동 454-23번지 B1층","indutype":"학원 - 기능학원","category":"study"}]},{"lat":"37.722076014","long":"127.04404377","imageIndex":16,"items":[{"name":"올림피아학원","tel":"031-837-2242","addr":"경기도 의정부시 호원동 309-8번지 2층","indutype":"학원 - 보습학원","category":"study"},{"name":"올림피아학원","tel":"031-834-2242","addr":"경기도 의정부시 호원동 309-8번지 2층","indutype":"학원 - 보습학원","category":"study"}]},{"lat":"37.713290808","long":"127.0464092","imageIndex":16,"items":[{"name":"위캔수학학원","tel":"031-877-5009","addr":"경기도 의정부시 호원동 85-29번지 3층","indutype":"회원제형태 - 학원","category":"study"},{"name":"회룡지앤비(GnB)영어학원","tel":"031-829-0509","addr":"경기도 의정부시 호원동 85-29번지 외1필지 2층","indutype":"회원제형태 - 학원","category":"study"}]},{"lat":"37.723570674","long":"127.04663073","imageIndex":16,"items":[{"name":"유나바리스타학원","tel":"031-873-7168","addr":"경기도 의정부시 호원동 50-17번지 유타상가 502호","indutype":"학원 - 기능학원","category":"study"},{"name":"필댄스스쿨","tel":"031-821-8555","addr":"경기도 의정부시 호원동 50-17번지 유타상가 7층","indutype":"회원제형태 - 학원","category":"study"}]},{"lat":"37.714408594","long":"127.04476537","imageIndex":16,"items":[{"name":"유림학원","tel":"031-876-0660","addr":"경기도 의정부시 호원동 274-6번지 3층","indutype":"학원 - 보습학원","category":"study"},{"name":"현쌤음악학원","tel":"031-879-6964","addr":"경기도 의정부시 호원동 274-6번지 2층","indutype":"학원 - 예·체능계학원","category":"study"}]},{"lat":"37.727184499","long":"127.04389913","imageIndex":16,"items":[{"name":"의정부커피학원","tel":"031-855-8856","addr":"경기도 의정부시 호원동 327-12번지 201호","indutype":"학원 - 기능학원","category":"study"},{"name":"호원라온학원","tel":"031-829-3434","addr":"경기도 의정부시 호원동 327-12번지 302호","indutype":"학원 - 보습학원","category":"study"}]},{"lat":"37.728877819","long":"127.04526128","imageIndex":16,"items":[{"name":"이엠씨보습학원","tel":"031-871-0734","addr":"경기도 의정부시 호원동 341-12번지 4층","indutype":"학원 - 보습학원","category":"study"}]},{"lat":"37.726210047","long":"127.04778928","imageIndex":16,"items":[{"name":"이투스247 의정부학원","tel":"031-837-0247","addr":"경기도 의정부시 호원동 414-7번지 4층","indutype":"학원 - 보습학원","category":"study"},{"name":"회룡베이스볼아카데미","tel":"032-214-4005","addr":"경기도 의정부시 호원동 414-7번지 남동빌딩 지하1층","indutype":"학원 - 예·체능계학원","category":"study"}]},{"lat":"37.727904633","long":"127.04568043","imageIndex":16,"items":[{"name":"주식회사 엠앤에이치","tel":"031-874-3213","addr":"경기도 의정부시 호원동 6-26번지 회룡빌딩 2층","indutype":"학원 - 기능학원","category":"study"},{"name":"큰소리영어의정부학원","tel":"031-875-0594","addr":"경기도 의정부시 호원동 6-26번지 회룡빌딩 4층","indutype":"학원 - 외국어학원","category":"study"}]},{"lat":"37.716020133","long":"127.04796459","imageIndex":16,"items":[{"name":"주식회사 의정부화룡에프씨","tel":"02-1111-1111","addr":"경기도 의정부시 호원동 447-13번지 로뎀하이츠빌 마동 701호","indutype":"학원 - 예·체능계학원","category":"study"}]},{"lat":"37.723958179","long":"127.04638142","imageIndex":16,"items":[{"name":"주식회사 호원뉴스터디","tel":"031-871-5500","addr":"경기도 의정부시 호원동 50-2번지 회룡타운 4층","indutype":"학원 - 보습학원","category":"study"},{"name":"주식회사호원뉴스터디","tel":"031-871-5500","addr":"경기도 의정부시 호원동 50-2번지 회룡타운 4층","indutype":"학원 - 보습학원","category":"study"}]},{"lat":"37.719236948","long":"127.04693442","imageIndex":16,"items":[{"name":"주식회사아크로에듀","tel":"031-873-1233","addr":"경기도 의정부시 호원동 435-3번지","indutype":"회원제형태 - 학원","category":"study"}]},{"lat":"37.724956825","long":"127.05006845","imageIndex":16,"items":[{"name":"줄리아드음악학원","tel":"031-876-0669","addr":"경기도 의정부시 호원동 424-1 우남상가3층","indutype":"학원 - 예·체능계학원","category":"study"}]},{"lat":"37.70856964","long":"127.04676934","imageIndex":16,"items":[{"name":"차오름독서실","tel":"031-823-1290","addr":"경기도 의정부시 호원동 119-138번지 신일스카이빌 2층 201호","indutype":"학원 - 독서실","category":"study"}]},{"lat":"37.725542843","long":"127.04907063","imageIndex":16,"items":[{"name":"청춘태권도장","tel":"031-000-0000","addr":"경기도 의정부시 호원동 423-5번지 홍성빌딩 지하1층","indutype":"학원 - 예·체능계학원","category":"study"},{"name":"플랜에이(PLAN A)수학학원","tel":"031-928-4123","addr":"경기도 의정부시 호원동 423-5번지 홍성빌딩 2층","indutype":"학원 - 보습학원","category":"study"}]},{"lat":"37.71351606","long":"127.04637531","imageIndex":16,"items":[{"name":"커피앤바리스타학원","tel":"031-824-1175","addr":"경기도 의정부시 호원동 85-19번지 의송빌딩 5층","indutype":"학원 - 기능학원","category":"study"}]},{"lat":"37.722102469","long":"127.04565441","imageIndex":16,"items":[{"name":"킹스잉글리쉬학원(King's English Mission","tel":"031-875-7328","addr":"경기도 의정부시 호원동 55-4번지 신일유토빌아파트 201호","indutype":"학원 - 외국어학원","category":"study"}]},{"lat":"37.723463772","long":"127.04322786","imageIndex":16,"items":[{"name":"테르트르스튜디오 미술교습소","tel":"","addr":"경기도 의정부시 호원동 313-37번지 쌍용스윗닷홈 101동 2-10호","indutype":"학원 - 예·체능계학원","category":"study"}]},{"lat":"37.728573522","long":"127.03918101","imageIndex":16,"items":[{"name":"토론의 신","tel":"031-825-4506","addr":"경기도 의정부시 호원동 366-27번지 2층","indutype":"학원 - 보습학원","category":"study"}]},{"lat":"37.711930852","long":"127.0450475","imageIndex":16,"items":[{"name":"파니파니학원","tel":"031-837-5553","addr":"경기도 의정부시 호원동 247-9번지","indutype":"학원 - 보습학원","category":"study"}]},{"lat":"37.728373677","long":"127.04414934","imageIndex":16,"items":[{"name":"포스(POS)학원","tel":"031-873-0808","addr":"경기도 의정부시 호원동 341-31번지 2층","indutype":"학원 - 보습학원","category":"study"}]},{"lat":"37.72359732","long":"127.04765159","imageIndex":16,"items":[{"name":"푸른누리요양보호사교육원","tel":"031-877-9366","addr":"경기도 의정부시 호원동 428번지 상가동 2층 208,209호","indutype":"학원 - 기능학원","category":"study"}]},{"lat":"37.722211378","long":"127.04340866","imageIndex":16,"items":[{"name":"학원다운학원","tel":"031-827-1050","addr":"경기도 의정부시 호원동 309-85번지 3층","indutype":"학원 - 보습학원","category":"study"}]},{"lat":"37.718957651","long":"127.04693425","imageIndex":16,"items":[{"name":"한주영어학원","tel":"031-877-6630","addr":"경기도 의정부시 호원동 440번지","indutype":"회원제형태 - 학원","category":"study"}]},{"lat":"37.722742896","long":"127.04354506","imageIndex":16,"items":[{"name":"행복한아동발달센터","tel":"031-875-1888","addr":"경기도 의정부시 호원동 309-66번지 드림캐슬 A동 B102호","indutype":"학원 - 기타 교육기관","category":"study"}]},{"lat":"37.710073604","long":"127.04845998","imageIndex":16,"items":[{"name":"호원사무관리경리실무학원","tel":"031-826-1223","addr":"경기도 의정부시 호원동 458-9번지 2층","indutype":"회원제형태 - 학원","category":"study"}]},{"lat":"37.713326071","long":"127.04846197","imageIndex":16,"items":[{"name":"호원아트스토리미술교습소","tel":"031-873-0403","addr":"경기도 의정부시 호원동 452번지 2층 1호","indutype":"학원 - 예·체능계학원","category":"study"},{"name":"호원태권도","tel":"031-873-0403","addr":"경기도 의정부시 호원동 452번지 3층","indutype":"학원 - 예·체능계학원","category":"study"}]}]