[{"lat":"37.714427173","long":"126.76001931","imageIndex":16,"items":[{"name":"(BTS)미용학원","tel":"031-935-5010","addr":"경기도 파주시 야당동 1072-1번지","indutype":"학원 - 기능학원","category":"study"},{"name":"나무간호학원","tel":"031-946-5551","addr":"경기도 파주시 야당동 1072-1번지","indutype":"학원 - 기능학원","category":"study"},{"name":"퍼니실용음악학원","tel":"031-949-5450","addr":"경기도 파주시 야당동 1072-1번지","indutype":"학원 - 예·체능계학원","category":"study"}]},{"lat":"37.708537513","long":"126.75693127","imageIndex":16,"items":[{"name":"(YBM)잉글루운정한빛영어교습소","tel":"031-957-0502","addr":"경기도 파주시 야당동 1031번지","indutype":"학원 - 외국어학원","category":"study"},{"name":"AP영어교습소","tel":"031-924-2609","addr":"경기도 파주시 야당동 1031번지 휴먼시아한빛마을","indutype":"회원제형태 - 학원","category":"study"},{"name":"고려운정태권도장","tel":"031-949-1212","addr":"경기도 파주시 야당동 1031번지","indutype":"학원 - 예·체능계학원","category":"study"},{"name":"멜론음악학원","tel":"031-942-7713","addr":"경기도 파주시 야당동 1031번지","indutype":"학원 - 예·체능계학원","category":"study"},{"name":"포그니어린이집[아이행복]","tel":"031-948-3310","addr":"경기도 파주시 야당동 1031번지 휴먼시아한빛마을","indutype":"학원 - 유아원","category":"study"}]},{"lat":"37.716535264","long":"126.75561189","imageIndex":16,"items":[{"name":"ECN","tel":"070-4130-0134","addr":"경기도 파주시 야당동 991번지 한빛마을5단지캐슬앤칸타빌","indutype":"회원제형태 - 학원","category":"study"}]},{"lat":"37.711070093","long":"126.75306704","imageIndex":16,"items":[{"name":"EM스터디학원","tel":"031-939-0404","addr":"경기도 파주시 야당동 976번지","indutype":"학원 - 보습학원","category":"study"},{"name":"감돌리드인역사교습소","tel":"031-948-0346","addr":"경기도 파주시 야당동 976번지","indutype":"학원 - 보습학원","category":"study"},{"name":"신현대음악학원","tel":"031-957-9770","addr":"경기도 파주시 야당동 976번지","indutype":"학원 - 예·체능계학원","category":"study"},{"name":"이엠스터디학원","tel":"031-939-0404","addr":"경기도 파주시 야당동 976번지","indutype":"학원 - 보습학원","category":"study"},{"name":"최강튼튼태권도장","tel":"031-941-4401","addr":"경기도 파주시 야당동 976번지","indutype":"학원 - 예·체능계학원","category":"study"},{"name":"해법와석학원","tel":"031-941-1009","addr":"경기도 파주시 야당동 976번지","indutype":"학원 - 보습학원","category":"study"}]},{"lat":"37.711540289","long":"126.7670147","imageIndex":16,"items":[{"name":"GL 피아노학원","tel":"031-8035-5323","addr":"경기도 파주시 야당동 186-1번지","indutype":"학원 - 예·체능계학원","category":"study"},{"name":"메이(May)영어교습소","tel":"070-8248-4143","addr":"경기도 파주시 야당동 186-1번지","indutype":"학원 - 외국어학원","category":"study"},{"name":"운정e해법수학교습소","tel":"031-944-1147","addr":"경기도 파주시 야당동 186-1번지","indutype":"학원 - 보습학원","category":"study"}]},{"lat":"37.709521629","long":"126.75792598","imageIndex":16,"items":[{"name":"Happy Class","tel":"","addr":"경기도 파주시 야당동 1031번지 휴먼시아한빛마을","indutype":"학원 - 기타 교육기관","category":"study"},{"name":"프렌즈스포츠","tel":"070-4405-6544","addr":"경기도 파주시 야당동 1031번지 휴먼시아한빛마을","indutype":"학원 - 기타 교육기관","category":"study"}]},{"lat":"37.713898857","long":"126.74873654","imageIndex":16,"items":[{"name":"Sue,s English학원","tel":"031-943-0579","addr":"경기도 파주시 야당동 1000-5번지","indutype":"회원제형태 - 학원","category":"study"},{"name":"상무태권도","tel":"0331-944-0113","addr":"경기도 파주시 야당동 1000-5번지","indutype":"학원 - 예·체능계학원","category":"study"},{"name":"숙명음악학원","tel":"031-944-9797","addr":"경기도 파주시 야당동 1000-5번지","indutype":"학원 - 예·체능계학원","category":"study"},{"name":"한빛보습학원","tel":"031-944-2342","addr":"경기도 파주시 야당동 1000-5번지","indutype":"학원 - 보습학원","category":"study"}]},{"lat":"37.716315209","long":"126.75809643","imageIndex":16,"items":[{"name":"e 해법수학 캐슬앤칸타빌점","tel":"031-948-5850","addr":"경기도 파주시 야당동 991번지 한빛마을5단지캐슬앤칸타빌","indutype":"학원 - 보습학원","category":"study"}]},{"lat":"37.723342897","long":"126.76704533","imageIndex":16,"items":[{"name":"가온다솜어린이집[아이행복]","tel":"031-944-3597","addr":"경기도 파주시 야당동 292-12번지","indutype":"학원 - 유아원","category":"study"},{"name":"정다운 어린이집","tel":"031-944-3597","addr":"경기도 파주시 야당동 292-12","indutype":"학원 - 유아원","category":"study"},{"name":"정다운어린이집","tel":"031-944-3597","addr":"경기도 파주시 야당동 292-12","indutype":"학원 - 유아원","category":"study"}]},{"lat":"37.711953658","long":"126.75765714","imageIndex":16,"items":[{"name":"개인과외","tel":"","addr":"경기도 파주시 야당동 1016번지 롯데캐슬파크타운","indutype":"학원 - 기타 교육기관","category":"study"},{"name":"롯데캐슬아이어린이집[아이행복]","tel":"031-939-1103","addr":"경기도 파주시 야당동 1016번지 롯데캐슬파크타운","indutype":"학원 - 유아원","category":"study"},{"name":"아이꿈어린이집[아이행복]","tel":"031-939-0122","addr":"경기도 파주시 야당동 1016번지 롯데캐슬파크타운","indutype":"학원 - 유아원","category":"study"},{"name":"운정롯데캐슬어린이집[아이행복]","tel":"031-949-0917","addr":"경기도 파주시 야당동 1016번지 롯데캐슬파크타운","indutype":"학원 - 유아원","category":"study"},{"name":"제준성 개인과외","tel":"","addr":"경기도 파주시 야당동 1016번지 롯데캐슬파크타운","indutype":"학원 - 기타 교육기관","category":"study"}]},{"lat":"37.715285808","long":"126.74849364","imageIndex":16,"items":[{"name":"개인과외","tel":"031-949-0401","addr":"경기도 파주시 야당동 981번지 한빛마을1단지한라비발디센트럴파크","indutype":"회원제형태 - 학원","category":"study"},{"name":"리매쓰수학교습소","tel":"070-8888-4412","addr":"경기도 파주시 야당동 981번지","indutype":"학원 - 보습학원","category":"study"},{"name":"삼성영어한빛교실영어교습소","tel":"031-945-3405","addr":"경기도 파주시 야당동 981번지","indutype":"학원 - 외국어학원","category":"study"}]},{"lat":"37.708769024","long":"126.75136236","imageIndex":16,"items":[{"name":"개인과외","tel":"031-9916-3556","addr":"경기도 파주시 야당동 1026번지 한빛마을7단지","indutype":"학원 - 기타 교육기관","category":"study"}]},{"lat":"37.71047209","long":"126.75148135","imageIndex":16,"items":[{"name":"건준컴퓨터학원","tel":"031-937-8284","addr":"경기도 파주시 야당동 1006-7번지","indutype":"학원 - 컴퓨터학원","category":"study"},{"name":"더레전드운정학원","tel":"031-935-4774","addr":"경기도 파주시 야당동 1006-7번지","indutype":"학원 - 보습학원","category":"study"},{"name":"오름학원","tel":"031-939-6099","addr":"경기도 파주시 야당동 1006-7번지","indutype":"학원 - 보습학원","category":"study"},{"name":"을지관무술아카데미(합기도)","tel":"031-943-1131","addr":"경기도 파주시 야당동 1006-7번지","indutype":"학원 - 예·체능계학원","category":"study"},{"name":"한빛송수학학원","tel":"070-8752-9026","addr":"경기도 파주시 야당동 1006-7번지","indutype":"학원 - 보습학원","category":"study"}]},{"lat":"37.718349078","long":"126.76579087","imageIndex":16,"items":[{"name":"겟오픽","tel":"","addr":"경기도 파주시 야당동 239-71번지","indutype":"학원 - 외국어학원","category":"study"}]},{"lat":"37.710570735","long":"126.75126554","imageIndex":16,"items":[{"name":"겨자씨의꿈학원","tel":"031-941-5439","addr":"경기도 파주시 야당동 1006-6번지","indutype":"학원 - 보습학원","category":"study"}]},{"lat":"37.711091809","long":"126.75057199","imageIndex":16,"items":[{"name":"공부의기술학원","tel":"031-947-8555","addr":"경기도 파주시 야당동 1006-2번지","indutype":"학원 - 보습학원","category":"study"},{"name":"오케이뮤즈영어학원","tel":"031-944-2152","addr":"경기도 파주시 야당동 1006-2번지","indutype":"학원 - 외국어학원","category":"study"},{"name":"윤선생 영어숲 파주 운정 어학원","tel":"031-945-0579","addr":"경기도 파주시 야당동 1006-2번지","indutype":"학원 - 외국어학원","category":"study"},{"name":"호수피아노","tel":"031-942-6733","addr":"경기도 파주시 야당동 1006-2번지","indutype":"학원 - 예·체능계학원","category":"study"}]},{"lat":"37.713953138","long":"126.76615646","imageIndex":16,"items":[{"name":"교육하는 날","tel":"070-7783-9919","addr":"경기도 파주시 야당동 220-26 , 401호","indutype":"학원 - 기타 교육기관","category":"study"}]},{"lat":"37.724625076","long":"126.76845912","imageIndex":16,"items":[{"name":"금당차문화인성교육원","tel":"070-7545-7774","addr":"경기도 파주시 야당동 35-3번지","indutype":"학원 - 기타 교육기관","category":"study"}]},{"lat":"37.715907822","long":"126.75715642","imageIndex":16,"items":[{"name":"꼬마반디 어린이집[아이행복]","tel":"031-5052-2279","addr":"경기도 파주시 야당동 991번지 한빛마을5단지캐슬앤칸타빌","indutype":"학원 - 유아원","category":"study"},{"name":"햇날나무어린이집[아이행복]","tel":"031-8035-6060","addr":"경기도 파주시 야당동 991번지 한빛마을5단지캐슬앤칸타빌","indutype":"학원 - 유아원","category":"study"}]},{"lat":"37.715816101","long":"126.76515248","imageIndex":16,"items":[{"name":"꼬마화가 어린이집[아이행복]","tel":"031-945-8321","addr":"경기도 파주시 야당동 226-9번지","indutype":"학원 - 유아원","category":"study"}]},{"lat":"37.714078086","long":"126.75677686","imageIndex":16,"items":[{"name":"꼭대기","tel":"070-8159-4241","addr":"경기도 파주시 야당동 991번지 한빛마을5단지캐슬앤칸타빌","indutype":"회원제형태 - 학원","category":"study"}]},{"lat":"37.715805778","long":"126.75575041","imageIndex":16,"items":[{"name":"꿈틀아이 어린이집[아이행복]","tel":"031-947-3374","addr":"경기도 파주시 야당동 991번지 한빛마을5단지캐슬앤칸타빌","indutype":"학원 - 유아원","category":"study"},{"name":"캐슬아이어린이집[아이행복]","tel":"031-939-6862","addr":"경기도 파주시 야당동 991번지 한빛마을5단지캐슬앤칸타빌","indutype":"학원 - 유아원","category":"study"}]},{"lat":"37.714814303","long":"126.76429374","imageIndex":16,"items":[{"name":"더기타교습소","tel":"031-111-1111","addr":"경기도 파주시 야당동 226-36번지","indutype":"학원 - 예·체능계학원","category":"study"}]},{"lat":"37.710345322","long":"126.7597718","imageIndex":16,"items":[{"name":"딥마인드61독서실","tel":"031-946-5300","addr":"경기도 파주시 야당동 1054번지","indutype":"학원 - 독서실","category":"study"},{"name":"분트본미술학원","tel":"031-945-7177","addr":"경기도 파주시 야당동 1054번지","indutype":"학원 - 예·체능계학원","category":"study"},{"name":"에듀가그레이프시드학원","tel":"031-946-5300","addr":"경기도 파주시 야당동 1054번지","indutype":"학원 - 보습학원","category":"study"},{"name":"인비뷰티아카데미학원","tel":"070-8785-7142","addr":"경기도 파주시 야당동 1054번지","indutype":"학원 - 기능학원","category":"study"}]},{"lat":"37.711760813","long":"126.75591128","imageIndex":16,"items":[{"name":"라라캐슬 어린이집[아이행복]","tel":"031-942-7373","addr":"경기도 파주시 야당동 1015번지 롯데캐슬파크타운II","indutype":"학원 - 유아원","category":"study"},{"name":"시립한빛마을4단지 어린이집[아이행복]","tel":"031-942-2271","addr":"경기도 파주시 야당동 1015번지 롯데캐슬파크타운II","indutype":"학원 - 유아원","category":"study"},{"name":"와석창의숲수학교실","tel":"","addr":"경기도 파주시 야당동 1015번지 롯데캐슬파크타운II","indutype":"학원 - 기타 교육기관","category":"study"},{"name":"이화 잉글리시 클래스","tel":"031-4998-5141","addr":"경기도 파주시 야당동 1015번지 롯데캐슬파크타운II","indutype":"학원 - 기타 교육기관","category":"study"},{"name":"정진옥","tel":"","addr":"경기도 파주시 야당동 1015번지 롯데캐슬파크타운II","indutype":"학원 - 기타 교육기관","category":"study"},{"name":"지니캐슬 어린이집[아이행복]","tel":"031-946-1575","addr":"경기도 파주시 야당동 1015번지 롯데캐슬파크타운II","indutype":"학원 - 유아원","category":"study"},{"name":"행복한 공부방","tel":"","addr":"경기도 파주시 야당동 1015번지 롯데캐슬파크타운II","indutype":"학원 - 기타 교육기관","category":"study"}]},{"lat":"37.715125599","long":"126.75793022","imageIndex":16,"items":[{"name":"라온 어린이집[아이행복]","tel":"031-943-0696","addr":"경기도 파주시 야당동 991번지 한빛마을5단지캐슬앤칸타빌","indutype":"학원 - 유아원","category":"study"}]},{"lat":"37.71095703","long":"126.75074256","imageIndex":16,"items":[{"name":"리딩뱅크독서실","tel":"031-937-8229","addr":"경기도 파주시 야당동 1006-3번지","indutype":"학원 - 독서실","category":"study"},{"name":"에듀가프라임학원","tel":"031-941-5985","addr":"경기도 파주시 야당동 1006-3번지","indutype":"학원 - 보습학원","category":"study"},{"name":"위즈영어학원","tel":"","addr":"경기도 파주시 야당동 1006-3번지","indutype":"학원 - 보습학원","category":"study"}]},{"lat":"37.715514702","long":"126.75874552","imageIndex":16,"items":[{"name":"리틀킹덤어린이집[아이행복]","tel":"031-8070-8021","addr":"경기도 파주시 야당동 991번지 한빛마을5단지캐슬앤칸타빌","indutype":"학원 - 유아원","category":"study"},{"name":"스카이영재논술","tel":"031-939-6529","addr":"경기도 파주시 야당동 991번지 한빛마을5단지캐슬앤칸타빌","indutype":"학원 - 기타 교육기관","category":"study"}]},{"lat":"37.714602528","long":"126.75768243","imageIndex":16,"items":[{"name":"맑은샘어린이집[아이행복]","tel":"031-8070-5161","addr":"경기도 파주시 야당동 991번지 한빛마을5단지캐슬앤칸타빌","indutype":"학원 - 유아원","category":"study"},{"name":"맑은샘어린이집[아이행복]","tel":"031-8070-5161","addr":"경기도 파주시 야당동 991번지 한빛마을5단지캐슬앤칸타빌","indutype":"학원 - 유아원","category":"study"}]},{"lat":"37.716039782","long":"126.76438054","imageIndex":16,"items":[{"name":"맑음샘음악교습소","tel":"031-947-5070","addr":"경기도 파주시 야당동 226-47번지","indutype":"학원 - 예·체능계학원","category":"study"}]},{"lat":"37.712209896","long":"126.75957291","imageIndex":16,"items":[{"name":"메이크유댄스(MAKE YOU DANCE)학원","tel":"031-0000-0000","addr":"경기도 파주시 야당동 1066-3번지","indutype":"학원 - 예·체능계학원","category":"study"},{"name":"이을무용학원","tel":"031-946-0412","addr":"경기도 파주시 야당동 1066-3번지","indutype":"학원 - 예·체능계학원","category":"study"},{"name":"한빛학원","tel":"","addr":"경기도 파주시 야당동 1066-3번지","indutype":"학원 - 보습학원","category":"study"},{"name":"한빛학원","tel":"","addr":"경기도 파주시 야당동 1066-3번지","indutype":"학원 - 보습학원","category":"study"}]},{"lat":"37.708481807","long":"126.75187365","imageIndex":16,"items":[{"name":"메이플영어교습소","tel":"","addr":"경기도 파주시 야당동 1026번지 한빛마을7단지","indutype":"학원 - 외국어학원","category":"study"},{"name":"스마트뮤직음악학원","tel":"031-945-8711","addr":"경기도 파주시 야당동 1026번지 한빛마을7단지","indutype":"학원 - 예·체능계학원","category":"study"},{"name":"준 수학교습소","tel":"031-949-1858","addr":"경기도 파주시 야당동 1026번지 한빛마을7단지","indutype":"학원 - 보습학원","category":"study"},{"name":"차수학교습소","tel":"031-949-9918","addr":"경기도 파주시 야당동 1026번지 한빛마을7단지","indutype":"학원 - 보습학원","category":"study"},{"name":"참한빛유치원[아이행복]","tel":"031-948-7955","addr":"경기도 파주시 야당동 1026번지 한빛마을7단지","indutype":"학원 - 유치원","category":"study"},{"name":"한빛7단지점e해법수학교습소","tel":"031-949-3491","addr":"경기도 파주시 야당동 1026번지 한빛마을7단지","indutype":"학원 - 보습학원","category":"study"},{"name":"한빛미술교습소","tel":"031-941-1710","addr":"경기도 파주시 야당동 1026번지 한빛마을7단지","indutype":"학원 - 예·체능계학원","category":"study"},{"name":"해피클래스 영어교습소","tel":"","addr":"경기도 파주시 야당동 1026번지 한빛마을7단지","indutype":"학원 - 외국어학원","category":"study"}]},{"lat":"37.714456326","long":"126.76548572","imageIndex":16,"items":[{"name":"미술에퐁당학원","tel":"031-4567-8909","addr":"경기도 파주시 야당동 220-18번지","indutype":"학원 - 예·체능계학원","category":"study"}]},{"lat":"37.711852526","long":"126.75240664","imageIndex":16,"items":[{"name":"민샘수학","tel":"031-000-0000","addr":"경기도 파주시 야당동 975번지 한빛마을3단지자유로아이파크","indutype":"학원 - 기타 교육기관","category":"study"}]},{"lat":"37.712236479","long":"126.75078359","imageIndex":16,"items":[{"name":"바른셈암산수학교습소","tel":"031-526-0007","addr":"경기도 파주시 야당동 975번지 한빛마을3단지자유로아이파크","indutype":"학원 - 보습학원","category":"study"},{"name":"반석어린이집[아이행복]","tel":"070-4898-2388","addr":"경기도 파주시 야당동 975번지 한빛마을3단지자유로아이파크","indutype":"학원 - 유아원","category":"study"},{"name":"한사랑어린이집[아이행복]","tel":"031-815-2714","addr":"경기도 파주시 야당동 975번지 한빛마을3단지자유로아이파크","indutype":"학원 - 유아원","category":"study"}]},{"lat":"37.716536031","long":"126.76031865","imageIndex":16,"items":[{"name":"발레인발레학원","tel":"031-942-6667","addr":"경기도 파주시 야당동 1076번지","indutype":"학원 - 예·체능계학원","category":"study"}]},{"lat":"37.71497767","long":"126.75185173","imageIndex":16,"items":[{"name":"베이컨잉글리시","tel":"070-7789-9379","addr":"경기도 파주시 야당동 982번지 한빛마을2단지휴먼빌레이크팰리스","indutype":"회원제형태 - 학원","category":"study"},{"name":"한그루 어린이집[아이행복]","tel":"031-945-7974","addr":"경기도 파주시 야당동 982번지 한빛마을2단지휴먼빌레이크팰리스","indutype":"학원 - 유아원","category":"study"}]},{"lat":"37.712480298","long":"126.75962873","imageIndex":16,"items":[{"name":"별이빛나는고흐미술학원","tel":"","addr":"경기도 파주시 야당동 1066-2번지","indutype":"학원 - 예·체능계학원","category":"study"},{"name":"예원피아노음악학원","tel":"031-943-3313","addr":"경기도 파주시 야당동 1066-2번지","indutype":"학원 - 예·체능계학원","category":"study"}]},{"lat":"37.715195172","long":"126.7567278","imageIndex":16,"items":[{"name":"사랑가득어린이집[아이행복]","tel":"031-949-4820","addr":"경기도 파주시 야당동 991번지 한빛마을5단지캐슬앤칸타빌","indutype":"학원 - 유아원","category":"study"}]},{"lat":"37.715497826","long":"126.75072717","imageIndex":16,"items":[{"name":"생크림 어린이집[아이행복]","tel":"031-8070-9844","addr":"경기도 파주시 야당동 982번지 한빛마을2단지휴먼빌레이크팰리스","indutype":"학원 - 유아원","category":"study"},{"name":"제이에스아이티클럽(JS IT CLUB)","tel":"031-944-8683","addr":"경기도 파주시 야당동 982번지 한빛마을2단지휴먼빌레이크팰리스","indutype":"학원 - 보습학원","category":"study"},{"name":"첼시앤리딩","tel":"","addr":"경기도 파주시 야당동 982번지 한빛마을2단지휴먼빌레이크팰리스","indutype":"학원 - 기타 교육기관","category":"study"}]},{"lat":"37.709466345","long":"126.75733646","imageIndex":16,"items":[{"name":"샤인붐어린이집[아이행복]","tel":"031-942-5510","addr":"경기도 파주시 야당동 1031번지 휴먼시아한빛마을","indutype":"학원 - 유아원","category":"study"}]},{"lat":"37.710265354","long":"126.75170886","imageIndex":16,"items":[{"name":"세레나데음악학원","tel":"031-946-2335","addr":"경기도 파주시 야당동 1006-8번지","indutype":"학원 - 예·체능계학원","category":"study"},{"name":"용인대한빛태권도","tel":"031-941-5411","addr":"경기도 파주시 야당동 1006-8번지","indutype":"학원 - 예·체능계학원","category":"study"},{"name":"흙과그림미술학원","tel":"031-957-8800","addr":"경기도 파주시 야당동 1006-8번지","indutype":"학원 - 예·체능계학원","category":"study"}]},{"lat":"37.713733253","long":"126.75993085","imageIndex":16,"items":[{"name":"소희발레트리학원","tel":"031-942-2020","addr":"경기도 파주시 야당동 1070번지","indutype":"학원 - 예·체능계학원","category":"study"},{"name":"청담클루빌어학원","tel":"031-943-9677","addr":"경기도 파주시 야당동 1070번지","indutype":"회원제형태 - 학원","category":"study"}]},{"lat":"37.714871106","long":"126.76565452","imageIndex":16,"items":[{"name":"송학논술교습소","tel":"","addr":"경기도 파주시 야당동 217-2번지","indutype":"학원 - 보습학원","category":"study"}]},{"lat":"37.716583134","long":"126.75696138","imageIndex":16,"items":[{"name":"수학공부방","tel":"070-8031-4038","addr":"경기도 파주시 야당동 991번지 한빛마을5단지캐슬앤칸타빌","indutype":"학원 - 기타 교육기관","category":"study"}]},{"lat":"37.724123892","long":"126.77015077","imageIndex":16,"items":[{"name":"아라어린이집[아이행복]","tel":"031-946-0106","addr":"경기도 파주시 야당동 28번지","indutype":"학원 - 유아원","category":"study"}]},{"lat":"37.712751087","long":"126.75128085","imageIndex":16,"items":[{"name":"아이사랑피아노","tel":"031-957-1005","addr":"경기도 파주시 야당동 975번지 한빛마을3단지자유로아이파크","indutype":"학원 - 예·체능계학원","category":"study"}]},{"lat":"37.711329708","long":"126.75228365","imageIndex":16,"items":[{"name":"아침마을어린이집[아이행복]","tel":"031-942-2982","addr":"경기도 파주시 야당동 975번지 한빛마을3단지자유로아이파크","indutype":"학원 - 유아원","category":"study"},{"name":"예진 수학","tel":"","addr":"경기도 파주시 야당동 975번지 한빛마을3단지자유로아이파크","indutype":"학원 - 기타 교육기관","category":"study"},{"name":"임지연","tel":"","addr":"경기도 파주시 야당동 975번지 한빛마을3단지자유로아이파크","indutype":"학원 - 학습지 교육","category":"study"},{"name":"통통어린이집[아이행복]","tel":"031-941-3652","addr":"경기도 파주시 야당동 975번지 한빛마을3단지자유로아이파크","indutype":"학원 - 유아원","category":"study"}]},{"lat":"37.715429087","long":"126.75229253","imageIndex":16,"items":[{"name":"아트센터Grimm미술교습소","tel":"031-943-2207","addr":"경기도 파주시 야당동 982번지","indutype":"학원 - 예·체능계학원","category":"study"},{"name":"에이블&한빛학원","tel":"031-946-2366","addr":"경기도 파주시 야당동 982번지","indutype":"학원 - 보습학원","category":"study"},{"name":"연세최강수학전문교습소","tel":"031-948-0902","addr":"경기도 파주시 야당동 982번지","indutype":"학원 - 보습학원","category":"study"},{"name":"이엘음악학원","tel":"031-942-4556","addr":"경기도 파주시 야당동 982번지","indutype":"학원 - 예·체능계학원","category":"study"},{"name":"청탑e해법수학학원","tel":"031-946-2366","addr":"경기도 파주시 야당동 982번지","indutype":"학원 - 보습학원","category":"study"},{"name":"한빛칸트영어교습소","tel":"031-944-0553","addr":"경기도 파주시 야당동 982번지","indutype":"학원 - 외국어학원","category":"study"}]},{"lat":"37.715789644","long":"126.7654361","imageIndex":16,"items":[{"name":"아트숲유치원[아이행복]","tel":"031-945-8333","addr":"경기도 파주시 야당동 229번지","indutype":"학원 - 유치원","category":"study"}]},{"lat":"37.715564908","long":"126.76568633","imageIndex":16,"items":[{"name":"어린이체험미술관선물","tel":"031-946-7005","addr":"경기도 파주시 야당동 226-17번지","indutype":"학원 - 기타 교육기관","category":"study"}]},{"lat":"37.713932862","long":"126.74779511","imageIndex":16,"items":[{"name":"연솔학원","tel":"031-943-1248","addr":"경기도 파주시 야당동 1000-1번지","indutype":"학원 - 보습학원","category":"study"},{"name":"이앤서학원","tel":"031-945-9959","addr":"경기도 파주시 야당동 1000-1번지","indutype":"학원 - 보습학원","category":"study"},{"name":"튼튼제2체육관","tel":"031-949-3088","addr":"경기도 파주시 야당동 1000-1번지","indutype":"학원 - 예·체능계학원","category":"study"},{"name":"해리스영어학원","tel":"031-941-0556","addr":"경기도 파주시 야당동 1000-1번지","indutype":"학원 - 외국어학원","category":"study"}]},{"lat":"37.713098206","long":"126.74929499","imageIndex":16,"items":[{"name":"예담영아어린이집[아이행복]","tel":"031-946-5670","addr":"경기도 파주시 야당동 975번지 한빛마을3단지자유로아이파크","indutype":"학원 - 유아원","category":"study"}]},{"lat":"37.712316832","long":"126.75468461","imageIndex":16,"items":[{"name":"예은아트어학원","tel":"031-948-0202","addr":"경기도 파주시 야당동 1014번지","indutype":"학원 - 외국어학원","category":"study"},{"name":"예은유치원","tel":"031-948-0202","addr":"경기도 파주시 야당동 1014번지","indutype":"학원 - 유치원","category":"study"},{"name":"예은유치원[아이행복]","tel":"031-948-0202","addr":"경기도 파주시 야당동 1014번지","indutype":"학원 - 유치원","category":"study"}]},{"lat":"37.715197341","long":"126.75347281","imageIndex":16,"items":[{"name":"오감 아이아트","tel":"031-347-2676","addr":"경기도 파주시 야당동 982번지 한빛마을2단지휴먼빌레이크팰리스","indutype":"학원 - 기타 교육기관","category":"study"}]},{"lat":"37.710313701","long":"126.75326237","imageIndex":16,"items":[{"name":"와석초등학교병설유치원[아이행복]","tel":"031-957-8714","addr":"경기도 파주시 야당동 1008번지","indutype":"학원 - 유치원","category":"study"}]},{"lat":"37.711235548","long":"126.75037871","imageIndex":16,"items":[{"name":"운정수학끈기와열정학원","tel":"031-947-1909","addr":"경기도 파주시 야당동 1006-1번지","indutype":"학원 - 보습학원","category":"study"},{"name":"토피아강의하는아이들어학원","tel":"031-947-0588","addr":"경기도 파주시 야당동 1006-1번지","indutype":"학원 - 보습학원","category":"study"}]},{"lat":"37.70803628","long":"126.75421125","imageIndex":16,"items":[{"name":"운정초등학교병설유치원[아이행복]","tel":"031-8071-1688","addr":"경기도 파주시 야당동 489-8","indutype":"학원 - 유치원","category":"study"}]},{"lat":"37.714707239","long":"126.76931829","imageIndex":16,"items":[{"name":"운정하나어린이집[아이행복]","tel":"031-945-8399","addr":"경기도 파주시 야당동 75-2번지","indutype":"학원 - 유아원","category":"study"}]},{"lat":"37.715423563","long":"126.7497067","imageIndex":16,"items":[{"name":"유지니어스 스튜디오","tel":"","addr":"경기도 파주시 야당동 981번지 한빛마을1단지한라비발디센트럴파크","indutype":"학원 - 기타 교육기관","category":"study"}]},{"lat":"37.714639808","long":"126.74974339","imageIndex":16,"items":[{"name":"이쌤영어&수학의달인","tel":"031-945-1311","addr":"경기도 파주시 야당동 981번지 한빛마을1단지한라비발디센트럴파크","indutype":"학원 - 보습학원","category":"study"},{"name":"해법영어","tel":"","addr":"경기도 파주시 야당동 981번지 한빛마을1단지한라비발디센트럴파크","indutype":"학원 - 기타 교육기관","category":"study"}]},{"lat":"37.716359784","long":"126.75357099","imageIndex":16,"items":[{"name":"자람터어린이집[아이행복]","tel":"031-949-1799","addr":"경기도 파주시 야당동 982번지 한빛마을2단지휴먼빌레이크팰리스","indutype":"학원 - 유아원","category":"study"}]},{"lat":"37.704928203","long":"126.75863283","imageIndex":16,"items":[{"name":"제이앤비타일기술학원","tel":"031-941-3821","addr":"경기도 파주시 야당동 486-25번지","indutype":"학원 - 기능학원","category":"study"}]},{"lat":"37.715055052","long":"126.75866764","imageIndex":16,"items":[{"name":"제이케이 (JK)","tel":"070-8289-4377","addr":"경기도 파주시 야당동 991번지 한빛마을5단지캐슬앤칸타빌","indutype":"학원 - 기타 교육기관","category":"study"}]},{"lat":"37.708570181","long":"126.75532083","imageIndex":16,"items":[{"name":"조샘공부방","tel":"031-943-0358","addr":"경기도 파주시 야당동 1031번지 휴먼시아한빛마을","indutype":"학원 - 보습학원","category":"study"}]},{"lat":"37.714400599","long":"126.76465798","imageIndex":16,"items":[{"name":"주식회사 나무가풍경이되어","tel":"","addr":"경기도 파주시 야당동 220-9번지","indutype":"학원 - 기타 교육기관","category":"study"}]},{"lat":"37.708182216","long":"126.75938195","imageIndex":16,"items":[{"name":"주식회사 신우코퍼레이션","tel":"031-941-0307","addr":"경기도 파주시 야당동 1048번지","indutype":"학원 - 기타 교육기관","category":"study"}]},{"lat":"37.710984249","long":"126.75940681","imageIndex":16,"items":[{"name":"지엘에스 (GLS) Consult.","tel":"031-283-4711","addr":"경기도 파주시 야당동 1056-2번지","indutype":"학원 - 유학원","category":"study"}]},{"lat":"37.709210491","long":"126.75136087","imageIndex":16,"items":[{"name":"참교육","tel":"031-805-4959","addr":"경기도 파주시 야당동 1026번지 한빛마을7단지","indutype":"회원제형태 - 학원","category":"study"}]},{"lat":"37.715598675","long":"126.75154342","imageIndex":16,"items":[{"name":"책읽는 영어공부방","tel":"031-946-5584","addr":"경기도 파주시 야당동 982번지 한빛마을2단지휴먼빌레이크팰리스","indutype":"회원제형태 - 학원","category":"study"},{"name":"한솔플러스수학","tel":"031-945-5110","addr":"경기도 파주시 야당동 982번지 한빛마을2단지휴먼빌레이크팰리스","indutype":"회원제형태 - 학원","category":"study"}]},{"lat":"37.71550263","long":"126.75727117","imageIndex":16,"items":[{"name":"캐슬앤칸타빌어린이집[아이행복]","tel":"031-947-5279","addr":"경기도 파주시 야당동 991번지 한빛마을5단지캐슬앤칸타빌","indutype":"학원 - 유아원","category":"study"}]},{"lat":"37.715834255","long":"126.75644215","imageIndex":16,"items":[{"name":"토마토어린이집[아이행복]","tel":"031-939-6465","addr":"경기도 파주시 야당동 991번지 한빛마을5단지캐슬앤칸타빌","indutype":"학원 - 유아원","category":"study"}]},{"lat":"37.722651383","long":"126.76815909","imageIndex":16,"items":[{"name":"파주아이 언어심리발달센터","tel":"031-948-0654","addr":"경기도 파주시 야당동 290-10번지","indutype":"학원 - 기타 교육기관","category":"study"}]},{"lat":"37.705067388","long":"126.76501671","imageIndex":16,"items":[{"name":"펀앤홈런","tel":"070-4405-6544","addr":"경기도 파주시 야당동 145-2번지 I-하우스","indutype":"학원 - 기타 교육기관","category":"study"}]},{"lat":"37.707745832","long":"126.75748956","imageIndex":16,"items":[{"name":"포그니어린이집[아이행복]","tel":"031-948-3310","addr":"경기도 파주시 야당동 A28블럭 휴먼시아 한빛마을","indutype":"학원 - 유아원","category":"study"}]},{"lat":"37.714665227","long":"126.74899477","imageIndex":16,"items":[{"name":"프리메드","tel":"02-1899-9970","addr":"경기도 파주시 야당동 981번지 한빛마을1단지한라비발디센트럴파크","indutype":"학원 - 기타 교육기관","category":"study"}]},{"lat":"37.712404403","long":"126.76215802","imageIndex":16,"items":[{"name":"하나어린이집[아이행복]","tel":"031-946-6163","addr":"경기도 파주시 야당동 421-38번지","indutype":"학원 - 유아원","category":"study"}]},{"lat":"37.709709285","long":"126.76598851","imageIndex":16,"items":[{"name":"하우개어린이집[아이행복]","tel":"031-946-7808","addr":"경기도 파주시 야당동 173-2번지","indutype":"학원 - 유아원","category":"study"}]},{"lat":"37.71439321","long":"126.75239809","imageIndex":16,"items":[{"name":"한빛i어린이집[아이행복]","tel":"031-8070-5001","addr":"경기도 파주시 야당동 982번지 한빛마을2단지휴먼빌레이크팰리스","indutype":"학원 - 유아원","category":"study"},{"name":"한빛i어린이집[아이행복]","tel":"031-8070-5001","addr":"경기도 파주시 야당동 982번지 한빛마을2단지휴먼빌레이크팰리스","indutype":"학원 - 유아원","category":"study"}]},{"lat":"37.709349856","long":"126.74912631","imageIndex":16,"items":[{"name":"한빛마을6단지어린이집[아이행복]","tel":"031-949-1416","addr":"경기도 파주시 야당동 1023번지 한빛마을6단지","indutype":"학원 - 유아원","category":"study"},{"name":"황소수학 교습소","tel":"070-7533-0827","addr":"경기도 파주시 야당동 1023번지 한빛마을6단지","indutype":"회원제형태 - 학원","category":"study"}]},{"lat":"37.707583095","long":"126.75293132","imageIndex":16,"items":[{"name":"한빛바둑홈스쿨","tel":"031-957-8001","addr":"경기도 파주시 야당동 1026번지 한빛마을7단지","indutype":"학원 - 기타 교육기관","category":"study"}]},{"lat":"37.71462417","long":"126.75085489","imageIndex":16,"items":[{"name":"한빛초등학교병설유치원[아이행복]","tel":"031-950-5970","addr":"경기도 파주시 야당동 983번지","indutype":"학원 - 유치원","category":"study"}]},{"lat":"37.704656553","long":"126.76235317","imageIndex":16,"items":[{"name":"홈런유아스포츠","tel":"","addr":"경기도 파주시 야당동 469-53번지","indutype":"학원 - 예·체능계학원","category":"study"}]},{"lat":"37.723512229","long":"126.77065176","imageIndex":16,"items":[{"name":"화림어린이집[아이행복]","tel":"031-941-1541","addr":"경기도 파주시 야당동 15번지","indutype":"학원 - 유아원","category":"study"}]},{"lat":"37.716094215","long":"126.76014997","imageIndex":16,"items":[{"name":"힘찬수학학원","tel":"031-974-6023","addr":"경기도 파주시 야당동 1074번지","indutype":"학원 - 보습학원","category":"study"}]},{"lat":"37.721153697","long":"126.77165725","imageIndex":13,"items":[{"name":"(주) 한국독립야구챌린저스","tel":"","addr":"경기도 파주시 야당동 48-1번지","indutype":"레저업소 - 기타레져업소","category":"leisure"}]},{"lat":"37.712480298","long":"126.75962873","imageIndex":13,"items":[{"name":"B&B CLUB","tel":"070-8458-9009","addr":"경기도 파주시 야당동 1066-2번지","indutype":"레저업소 - 당 구 장","category":"leisure"},{"name":"무적특공무술","tel":"031-949-3363","addr":"경기도 파주시 야당동 1066-2번지","indutype":"레저업소 - 헬스클럽","category":"leisure"},{"name":"팀에이스","tel":"070-9114-6071","addr":"경기도 파주시 야당동 1066-2번지","indutype":"레저업소 - 헬스클럽","category":"leisure"},{"name":"파리스짐","tel":"031-947-0204","addr":"경기도 파주시 야당동 1066-2번지","indutype":"레저업소 - 헬스클럽","category":"leisure"},{"name":"피디에스피씨카페(POS PC CAFE)야당동","tel":"031-555-2580","addr":"경기도 파주시 야당동 1066-2번지","indutype":"레저업소 - 기타레져업소","category":"leisure"},{"name":"화이트노래연습장","tel":"031-000-0000","addr":"경기도 파주시 야당동 1066-2번지","indutype":"레저업소 - 노 래 방","category":"leisure"}]},{"lat":"37.707708485","long":"126.76565467","imageIndex":13,"items":[{"name":"Hee필라테스","tel":"070-8614-7440","addr":"경기도 파주시 야당동 153-51번지 자연에가3차","indutype":"레저업소 - 헬스클럽","category":"leisure"}]},{"lat":"37.713733253","long":"126.75993085","imageIndex":13,"items":[{"name":"PS골프아카데미","tel":"031-948-9922","addr":"경기도 파주시 야당동 1070번지","indutype":"레저업소 - 스크린골프","category":"leisure"},{"name":"아이푸른어린이수영장","tel":"031-945-6226","addr":"경기도 파주시 야당동 1070번지","indutype":"레저업소 - 수 영 장","category":"leisure"}]},{"lat":"37.712209896","long":"126.75957291","imageIndex":13,"items":[{"name":"놀숲파주야당점","tel":"","addr":"경기도 파주시 야당동 1066-3번지","indutype":"레저업소 - 기타레져업소","category":"leisure"},{"name":"럭키당구클럽","tel":"","addr":"경기도 파주시 야당동 1066-3번지","indutype":"레저업소 - 당 구 장","category":"leisure"},{"name":"온다 제이(ONDA J)","tel":"031-942-8755","addr":"경기도 파주시 야당동 1066-3번지","indutype":"레저업소 - 헬스클럽","category":"leisure"},{"name":"주식회사점핑몬스터운정본점","tel":"031-945-0497","addr":"경기도 파주시 야당동 1066-3번지","indutype":"레저업소 - 기타레져업소","category":"leisure"}]},{"lat":"37.71047209","long":"126.75148135","imageIndex":13,"items":[{"name":"당근짐","tel":"031-945-1923","addr":"경기도 파주시 야당동 1006-7번지","indutype":"레저업소 - 헬스클럽","category":"leisure"}]},{"lat":"37.714427173","long":"126.76001931","imageIndex":13,"items":[{"name":"라이프짐","tel":"031-948-9694","addr":"경기도 파주시 야당동 1072-1번지","indutype":"레저업소 - 헬스클럽","category":"leisure"},{"name":"샨툴란요가","tel":"031-935-4771","addr":"경기도 파주시 야당동 1072-1번지","indutype":"레저업소 - 헬스클럽","category":"leisure"},{"name":"스타노래연습장","tel":"","addr":"경기도 파주시 야당동 1072-1번지","indutype":"레저업소 - 노 래 방","category":"leisure"},{"name":"어썸PC","tel":"","addr":"경기도 파주시 야당동 1072-1번지","indutype":"레저업소 - 기타레져업소","category":"leisure"}]},{"lat":"37.714078086","long":"126.75677686","imageIndex":13,"items":[{"name":"로그센터","tel":"031-919-4074","addr":"경기도 파주시 야당동 991번지 한빛마을5단지캐슬앤칸타빌","indutype":"레저업소 - 기타레져업소","category":"leisure"}]},{"lat":"37.716536031","long":"126.76031865","imageIndex":13,"items":[{"name":"리드미 컨설팅","tel":"","addr":"경기도 파주시 야당동 1076번지","indutype":"레저업소 - 헬스클럽","category":"leisure"}]},{"lat":"37.710345322","long":"126.7597718","imageIndex":13,"items":[{"name":"마리필라테스","tel":"031-949-6369","addr":"경기도 파주시 야당동 1054번지","indutype":"레저업소 - 헬스클럽","category":"leisure"},{"name":"바디마스터짐","tel":"031-948-1221","addr":"경기도 파주시 야당동 1054번지","indutype":"레저업소 - 헬스클럽","category":"leisure"}]},{"lat":"37.711651118","long":"126.75948401","imageIndex":13,"items":[{"name":"맥스피드pc","tel":"070-8836-2597","addr":"경기도 파주시 야당동 1056번지","indutype":"레저업소 - 기타레져업소","category":"leisure"},{"name":"미소","tel":"031-111-1111","addr":"경기도 파주시 야당동 1056번지","indutype":"레저업소 - 헬스클럽","category":"leisure"},{"name":"에이스노래연습장","tel":"031-941-0483","addr":"경기도 파주시 야당동 1056번지","indutype":"레저업소 - 노 래 방","category":"leisure"}]},{"lat":"37.707377387","long":"126.7623217","imageIndex":13,"items":[{"name":"바디컨트롤","tel":"02-1566-7980","addr":"경기도 파주시 야당동 155번지 동보아트빌","indutype":"레저업소 - 헬스클럽","category":"leisure"}]},{"lat":"37.714456326","long":"126.76548572","imageIndex":13,"items":[{"name":"사라약발","tel":"031-943-7275","addr":"경기도 파주시 야당동 220-18번지","indutype":"레저업소 - 헬스클럽","category":"leisure"}]},{"lat":"37.717015395","long":"126.76565902","imageIndex":13,"items":[{"name":"소소한 이야기","tel":"070-4197-6743","addr":"경기도 파주시 야당동 241-7번지","indutype":"레저업소 - 헬스클럽","category":"leisure"}]},{"lat":"37.715423563","long":"126.7497067","imageIndex":13,"items":[{"name":"수아 필라테스","tel":"","addr":"경기도 파주시 야당동 981번지 한빛마을1단지한라비발디센트럴파크","indutype":"레저업소 - 헬스클럽","category":"leisure"}]},{"lat":"37.710258365","long":"126.76573727","imageIndex":13,"items":[{"name":"승리당구장","tel":"02-111-1111","addr":"경기도 파주시 야당동 178-92번지","indutype":"레저업소 - 당 구 장","category":"leisure"}]},{"lat":"37.711370327","long":"126.75020814","imageIndex":13,"items":[{"name":"시네마PC방","tel":"","addr":"경기도 파주시 야당동 1006번지","indutype":"레저업소 - 기타레져업소","category":"leisure"},{"name":"우리짐","tel":"031-948-6882","addr":"경기도 파주시 야당동 1006번지","indutype":"레저업소 - 헬스클럽","category":"leisure"},{"name":"지앤지노래연습장","tel":"031-945-9169","addr":"경기도 파주시 야당동 1006번지","indutype":"레저업소 - 노 래 방","category":"leisure"}]},{"lat":"37.706119994","long":"126.75552176","imageIndex":13,"items":[{"name":"싸커스토리","tel":"070-4641-8065","addr":"경기도 파주시 야당동 466-24번지","indutype":"레저업소 - 기타레져업소","category":"leisure"}]},{"lat":"37.712786669","long":"126.75965041","imageIndex":13,"items":[{"name":"야당당구클럽","tel":"031-944-6896","addr":"경기도 파주시 야당동 1066-1번지","indutype":"레저업소 - 당 구 장","category":"leisure"},{"name":"에이치짐","tel":"031-943-0116","addr":"경기도 파주시 야당동 1066-1번지","indutype":"레저업소 - 헬스클럽","category":"leisure"}]},{"lat":"37.715265222","long":"126.76009597","imageIndex":13,"items":[{"name":"야당명품노래연습장","tel":"031-943-1188","addr":"경기도 파주시 야당동 1074-2번지","indutype":"레저업소 - 노 래 방","category":"leisure"}]},{"lat":"37.711235548","long":"126.75037871","imageIndex":13,"items":[{"name":"에스비에스당구장","tel":"031-941-5054","addr":"경기도 파주시 야당동 1006-1번지","indutype":"레저업소 - 당 구 장","category":"leisure"}]},{"lat":"37.714182786","long":"126.76387613","imageIndex":13,"items":[{"name":"올댓치어","tel":"031-947-5406","addr":"경기도 파주시 야당동 193번지","indutype":"레저업소 - 헬스클럽","category":"leisure"}]},{"lat":"37.714018628","long":"126.75851226","imageIndex":13,"items":[{"name":"인아필라테스","tel":"","addr":"경기도 파주시 야당동 991번지 한빛마을5단지캐슬앤칸타빌","indutype":"레저업소 - 헬스클럽","category":"leisure"}]},{"lat":"37.724650229","long":"126.76751758","imageIndex":13,"items":[{"name":"태양노래연습장","tel":"031-942-9679","addr":"경기도 파주시 야당동 295-20","indutype":"레저업소 - 노 래 방","category":"leisure"}]},{"lat":"37.714792796","long":"126.76703841","imageIndex":13,"items":[{"name":"택견파주운정전수관","tel":"070-4141-3221","addr":"경기도 파주시 야당동 213-17번지 성우뜰안에","indutype":"레저업소 - 헬스클럽","category":"leisure"}]},{"lat":"37.711953658","long":"126.75765714","imageIndex":13,"items":[{"name":"팀 코치 아카데미","tel":"070-7966-3223","addr":"경기도 파주시 야당동 1016번지 롯데캐슬파크타운","indutype":"레저업소 - 헬스클럽","category":"leisure"}]},{"lat":"37.716094215","long":"126.76014997","imageIndex":13,"items":[{"name":"파주운정 에스파인필라테스","tel":"","addr":"경기도 파주시 야당동 1074번지","indutype":"레저업소 - 헬스클럽","category":"leisure"}]},{"lat":"37.711345893","long":"126.76001803","imageIndex":13,"items":[{"name":"팡팡","tel":"","addr":"경기도 파주시 야당동 1060번지","indutype":"레저업소 - 노 래 방","category":"leisure"}]},{"lat":"37.711091809","long":"126.75057199","imageIndex":13,"items":[{"name":"한울요가원","tel":"031-943-9811","addr":"경기도 파주시 야당동 1006-2번지","indutype":"레저업소 - 헬스클럽","category":"leisure"}]},{"lat":"37.714564837","long":"126.75688866","imageIndex":13,"items":[{"name":"홈비즈블럭","tel":"","addr":"경기도 파주시 야당동 991번지 한빛마을5단지캐슬앤칸타빌","indutype":"레저업소 - 기타레져업소","category":"leisure"}]},{"lat":"37.712480298","long":"126.75962873","imageIndex":17,"items":[{"name":"(주)다미투어","tel":"031-945-2259","addr":"경기도 파주시 야당동 1066-2번지","indutype":"여행 - 관광여행","category":"other"},{"name":"(주)바름디앤씨","tel":"031-941-8100","addr":"경기도 파주시 야당동 1066-2번지","indutype":"건축자재 - 부동산 분양","category":"other"}]},{"lat":"37.722791817","long":"126.76629847","imageIndex":17,"items":[{"name":"(주)마루세끼","tel":"031-941-7718","addr":"경기도 파주시 야당동 288-8번지","indutype":"문화.취미 - 애완동물","category":"other"},{"name":"동화애견샵","tel":"031-957-6971","addr":"경기도 파주시 야당동 288-8번지","indutype":"문화.취미 - 애완동물","category":"other"},{"name":"마루세끼","tel":"031-941-7718","addr":"경기도 파주시 야당동 288-8번지","indutype":"문화.취미 - 애완동물","category":"other"}]},{"lat":"37.709038254","long":"126.7638473","imageIndex":17,"items":[{"name":"(주)베이커클래식","tel":"031-917-3804","addr":"경기도 파주시 야당동 176-1번지","indutype":"가구 - 일반가구","category":"other"},{"name":"베이커샵","tel":"031-949-0175","addr":"경기도 파주시 야당동 176-1번지","indutype":"가구 - 일반가구","category":"other"}]},{"lat":"37.708484808","long":"126.76640066","imageIndex":17,"items":[{"name":"(주)시크릿36","tel":"031-942-8480","addr":"경기도 파주시 야당동 158-75번지","indutype":"신변잡화 - 기타잡화","category":"other"},{"name":"티쓰리(T3)소파","tel":"031-942-8480","addr":"경기도 파주시 야당동 158-75번지","indutype":"가구 - 일반가구","category":"other"}]},{"lat":"37.710681151","long":"126.76540704","imageIndex":17,"items":[{"name":"(주)썬스포츠","tel":"031-946-4550","addr":"경기도 파주시 야당동 178-99번지","indutype":"레져용품 - 스포츠·레져용품","category":"other"}]},{"lat":"37.707641235","long":"126.75061771","imageIndex":17,"items":[{"name":"(주)씨엠에스엔터테인먼트","tel":"070-8820-3867","addr":"경기도 파주시 야당동 1026번지 한빛마을7단지","indutype":"회원제형태 - 기타4","category":"other"},{"name":"유니온edu","tel":"070-8785-1900","addr":"경기도 파주시 야당동 1026번지 한빛마을7단지","indutype":"서적문구 - 일반서적","category":"other"}]},{"lat":"37.713847568","long":"126.76295857","imageIndex":17,"items":[{"name":"(주)제이스토리","tel":"031-1111-1111","addr":"경기도 파주시 야당동 421-22번지","indutype":"서적문구 - 문구용품","category":"other"}]},{"lat":"37.708205177","long":"126.75742","imageIndex":17,"items":[{"name":"(주)제이에이치씨인터내셔널","tel":"070-7539-7395","addr":"경기도 파주시 야당동 1031번지 휴먼시아한빛마을","indutype":"회원제형태 - 기타4","category":"other"},{"name":"키튼디자인","tel":"070-4306-7395","addr":"경기도 파주시 야당동 1031번지 휴먼시아한빛마을","indutype":"용역 서비스 - 사무서비스","category":"other"}]},{"lat":"37.719451965","long":"126.77220696","imageIndex":17,"items":[{"name":"(주)청암액자","tel":"031-944-6500","addr":"경기도 파주시 야당동 51-14번지","indutype":"문화.취미 - 화방·표구점","category":"other"}]},{"lat":"37.714871106","long":"126.76565452","imageIndex":17,"items":[{"name":"(주)파밀리앤 (Farily & Co.Ltd)","tel":"031-8070-1467","addr":"경기도 파주시 야당동 217-2번지","indutype":"신변잡화 - 기타잡화","category":"other"}]},{"lat":"37.721403063","long":"126.77018197","imageIndex":17,"items":[{"name":"(주)현대철강","tel":"031-944-3558","addr":"경기도 파주시 야당동 47-4번지","indutype":"건축자재 - 기타건축자재","category":"other"}]},{"lat":"37.714319788","long":"126.76479434","imageIndex":17,"items":[{"name":"(주)현진스포메디","tel":"031-948-4138","addr":"경기도 파주시 야당동 220-10번지","indutype":"레져용품 - 스포츠·레져용품","category":"other"},{"name":"태빈상사","tel":"031-8071-2003","addr":"경기도 파주시 야당동 220-10번지","indutype":"의류 - 내의판매","category":"other"}]},{"lat":"37.711430911","long":"126.76193435","imageIndex":17,"items":[{"name":"(주)휴브로스","tel":"070-8659-1733","addr":"경기도 파주시 야당동 421-90번지","indutype":"신변잡화 - 기타잡화","category":"other"},{"name":"모던아트","tel":"031-946-2536","addr":"경기도 파주시 야당동 421-90번지 10-2동","indutype":"주방용구 - 주방용구","category":"other"},{"name":"스포츠하이드레이션","tel":"070-8659-1733","addr":"경기도 파주시 야당동 421-90번지","indutype":"레져용품 - 스포츠·레져용품","category":"other"}]},{"lat":"37.724180694","long":"126.77154575","imageIndex":17,"items":[{"name":"1618디자인","tel":"031-000-0000","addr":"경기도 파주시 야당동 1-16번지","indutype":"건축자재 - 인테리어전문","category":"other"}]},{"lat":"37.707790525","long":"126.7488141","imageIndex":17,"items":[{"name":"B&B시스템","tel":"070-8699-3626","addr":"경기도 파주시 야당동 1023번지 한빛마을6단지","indutype":"회원제형태 - 기타4","category":"other"},{"name":"포스앤블로그","tel":"070-8699-3626","addr":"경기도 파주시 야당동 1023번지 한빛마을6단지","indutype":"회원제형태 - 사무서비스","category":"other"}]},{"lat":"37.715367383","long":"126.74872018","imageIndex":17,"items":[{"name":"Brain bskit(브레인 비스킷)","tel":"070-4642-7208","addr":"경기도 파주시 야당동 981번지 한빛마을1단지한라비발디센트럴파크","indutype":"회원제형태 - 기타4","category":"other"}]},{"lat":"37.708182509","long":"126.76392943","imageIndex":17,"items":[{"name":"CARTE","tel":"031-942-3443","addr":"경기도 파주시 야당동 158-27","indutype":"가구 - 일반가구","category":"other"}]},{"lat":"37.708433948","long":"126.76352037","imageIndex":17,"items":[{"name":"GAIN LIVING(가인리빙)","tel":"031-944-0571","addr":"경기도 파주시 야당동 157-11번지","indutype":"가구 - 일반가구","category":"other"}]},{"lat":"37.722458943","long":"126.76653772","imageIndex":17,"items":[{"name":"GIS공조","tel":"031-947-8471","addr":"경기도 파주시 야당동 45-20","indutype":"전기제품 - 냉열기기","category":"other"}]},{"lat":"37.70770602","long":"126.76001857","imageIndex":17,"items":[{"name":"GS25야당뉴스타점","tel":"","addr":"경기도 파주시 야당동 1044-2번지","indutype":"유통업 영리 - 편 의 점","category":"other"}]},{"lat":"37.710345322","long":"126.7597718","imageIndex":17,"items":[{"name":"GS25야당더진점","tel":"","addr":"경기도 파주시 야당동 1054번지","indutype":"유통업 영리 - 편 의 점","category":"other"},{"name":"크린에이드","tel":"031-948-1582","addr":"경기도 파주시 야당동 1054번지","indutype":"수리서비스 - 세탁소","category":"other"},{"name":"피오레 베로(Fiore Vero)","tel":"031-946-9616","addr":"경기도 파주시 야당동 1054번지","indutype":"문화.취미 - 화원","category":"other"}]},{"lat":"37.711953658","long":"126.75765714","imageIndex":17,"items":[{"name":"GS25야당롯데캐슬점","tel":"","addr":"경기도 파주시 야당동 1016번지 롯데캐슬파크타운","indutype":"유통업 영리 - 편 의 점","category":"other"},{"name":"라디안 코리아","tel":"031-000-0000","addr":"경기도 파주시 야당동 1016번지 롯데캐슬파크타운","indutype":"용역 서비스 - 종합용역","category":"other"},{"name":"피글렛헷츠","tel":"031-942-0671","addr":"경기도 파주시 야당동 1016번지 롯데캐슬파크타운","indutype":"의류 - 아동의류","category":"other"},{"name":"한빛세탁소","tel":"031-948-0013","addr":"경기도 파주시 야당동 1016번지 롯데캐슬파크타운","indutype":"수리서비스 - 세탁소","category":"other"}]},{"lat":"37.713876623","long":"126.76395651","imageIndex":17,"items":[{"name":"GS25야당에이스점","tel":"","addr":"경기도 파주시 야당동 193-2번지","indutype":"유통업 영리 - 편 의 점","category":"other"}]},{"lat":"37.716094215","long":"126.76014997","imageIndex":17,"items":[{"name":"GS25야당월드점","tel":"","addr":"경기도 파주시 야당동 1074번지","indutype":"유통업 영리 - 편 의 점","category":"other"},{"name":"나눔세무회계사무소","tel":"031-915-1919","addr":"경기도 파주시 야당동 1074번지","indutype":"용역 서비스 - 법률회계서비스(개인)","category":"other"},{"name":"베이프로 야당운정점","tel":"070-8152-0123","addr":"경기도 파주시 야당동 1074번지","indutype":"기타 - 기타 전문점","category":"other"},{"name":"순수요양원","tel":"031-949-5255","addr":"경기도 파주시 야당동 1074번지","indutype":"기타의료기관 - 기타의료기관 및 기타","category":"other"},{"name":"앙쥬옷장 파주점","tel":"070-7494-1514","addr":"경기도 파주시 야당동 1074번지","indutype":"의류 - 아동의류","category":"other"},{"name":"주식회사 골든가","tel":"031-939-9700","addr":"경기도 파주시 야당동 1074번지","indutype":"건축자재 - 부동산 분양","category":"other"},{"name":"크린업24 셀프빨래방 야당역점","tel":"031-111-1111","addr":"경기도 파주시 야당동 1074번지","indutype":"수리서비스 - 세탁소","category":"other"}]},{"lat":"37.708182216","long":"126.75938195","imageIndex":17,"items":[{"name":"GS25야당유미어스점","tel":"","addr":"경기도 파주시 야당동 1048번지","indutype":"유통업 영리 - 편 의 점","category":"other"}]},{"lat":"37.719037638","long":"126.77226495","imageIndex":17,"items":[{"name":"GS25야당초원점","tel":"","addr":"경기도 파주시 야당동 60-1번지","indutype":"유통업 영리 - 편 의 점","category":"other"}]},{"lat":"37.708481807","long":"126.75187365","imageIndex":17,"items":[{"name":"GS25운정7단지점","tel":"","addr":"경기도 파주시 야당동 1026번지 한빛마을7단지","indutype":"유통업 영리 - 편 의 점","category":"other"},{"name":"걸리버공방운정야당점","tel":"031-945-8457","addr":"경기도 파주시 야당동 1026번지 한빛마을7단지","indutype":"문화.취미 - 민예·공예품","category":"other"},{"name":"알톤자전거운정점","tel":"031-957-5053","addr":"경기도 파주시 야당동 1026번지 한빛마을7단지","indutype":"수리서비스 - 레져용품수리","category":"other"},{"name":"한빛향기세탁","tel":"031-947-4280","addr":"경기도 파주시 야당동 1026번지 한빛마을7단지","indutype":"수리서비스 - 세탁소","category":"other"}]},{"lat":"37.708537513","long":"126.75693127","imageIndex":17,"items":[{"name":"GS25운정8단지점","tel":"","addr":"경기도 파주시 야당동 1031번지","indutype":"유통업 영리 - 편 의 점","category":"other"},{"name":"한빛세탁소","tel":"031-957-5988","addr":"경기도 파주시 야당동 1031번지 휴먼시아한빛마을","indutype":"수리서비스 - 세탁소","category":"other"}]},{"lat":"37.711540289","long":"126.7670147","imageIndex":17,"items":[{"name":"GS25운정타운점","tel":"","addr":"경기도 파주시 야당동 186-1번지","indutype":"유통업 영리 - 편 의 점","category":"other"},{"name":"GS25운정타운점","tel":"","addr":"경기도 파주시 야당동 186-1번지","indutype":"유통업 영리 - 편 의 점","category":"other"},{"name":"그루브제이","tel":"","addr":"경기도 파주시 야당동 186-1번지","indutype":"의류 - 정장","category":"other"}]},{"lat":"37.71550263","long":"126.75727117","imageIndex":17,"items":[{"name":"GS25운정호수점","tel":"","addr":"경기도 파주시 야당동 991번지 한빛마을5단지캐슬앤칸타빌","indutype":"유통업 영리 - 편 의 점","category":"other"},{"name":"도서출판 글로북스","tel":"02-762-0744","addr":"경기도 파주시 야당동 991번지 한빛마을5단지캐슬앤칸타빌","indutype":"서적문구 - 출판 및 인쇄물","category":"other"},{"name":"롯데명품세탁","tel":"031-943-0135","addr":"경기도 파주시 야당동 991번지","indutype":"수리서비스 - 세탁소","category":"other"},{"name":"운정바이크","tel":"031-941-1979","addr":"경기도 파주시 야당동 991번지","indutype":"레져용품 - 스포츠·레져용품","category":"other"},{"name":"진우수선리폼하우스","tel":"031-947-5427","addr":"경기도 파주시 야당동 991번지 한빛마을5단지캐슬앤칸타빌","indutype":"수리서비스 - 세탁소","category":"other"},{"name":"크린토피아 파주운정한빛5단지점","tel":"031-945-0535","addr":"경기도 파주시 야당동 991번지","indutype":"수리서비스 - 세탁소","category":"other"}]},{"lat":"37.706121618","long":"126.76507004","imageIndex":17,"items":[{"name":"GS25파주야당점","tel":"","addr":"경기도 파주시 야당동 150-4번지","indutype":"유통업 영리 - 편 의 점","category":"other"}]},{"lat":"37.710235232","long":"126.76320837","imageIndex":17,"items":[{"name":"Han S앤 Deco","tel":"031-944-7609","addr":"경기도 파주시 야당동 178-47번지","indutype":"직물 - 침구·수예점","category":"other"},{"name":"주식회사 세광피앤비","tel":"031-945-0477","addr":"경기도 파주시 야당동 178-47","indutype":"신변잡화 - 기타잡화","category":"other"}]},{"lat":"37.717763351","long":"126.7702614","imageIndex":17,"items":[{"name":"K.O.F(케이오에프)","tel":"031-8071-3934","addr":"경기도 파주시 야당동 63-1번지","indutype":"주방용구 - 주방용구","category":"other"}]},{"lat":"37.712751087","long":"126.75128085","imageIndex":17,"items":[{"name":"LG에어컨","tel":"032-402-0522","addr":"경기도 파주시 야당동 975번지 한빛마을3단지자유로아이파크","indutype":"용역 서비스 - 기타용역서비스","category":"other"},{"name":"엘림케어","tel":"031-947-1423","addr":"경기도 파주시 야당동 975번지 한빛마을3단지자유로아이파크","indutype":"용역 서비스 - 종합용역","category":"other"}]},{"lat":"37.7084555","long":"126.76526671","imageIndex":17,"items":[{"name":"RED CORAL","tel":"031-945-8817","addr":"경기도 파주시 야당동 158-83번지","indutype":"가구 - 일반가구","category":"other"}]},{"lat":"37.711730768","long":"126.76318088","imageIndex":17,"items":[{"name":"YJ요양원","tel":"031-944-7272","addr":"경기도 파주시 야당동 192-3번지","indutype":"기타의료기관 - 기타의료기관 및 기타","category":"other"}]},{"lat":"37.70854296","long":"126.76396229","imageIndex":17,"items":[{"name":"YM이탈리아노","tel":"031-948-9569","addr":"경기도 파주시 야당동 158-25번지","indutype":"가구 - 일반가구","category":"other"}]},{"lat":"37.708148787","long":"126.76507491","imageIndex":17,"items":[{"name":"가구아울렛","tel":"031-945-5788","addr":"경기도 파주시 야당동 158-100번지","indutype":"가구 - 일반가구","category":"other"}]},{"lat":"37.711213923","long":"126.74870035","imageIndex":17,"items":[{"name":"가나슬로프 진입판","tel":"031-976-8755","addr":"경기도 파주시 야당동 1023번지 한빛마을6단지","indutype":"수리서비스 - 가정용품수리","category":"other"}]},{"lat":"37.709932949","long":"126.76520529","imageIndex":17,"items":[{"name":"가람이앤씨","tel":"031-946-3422","addr":"경기도 파주시 야당동 178-1","indutype":"전기제품 - 기타전기제품","category":"other"}]},{"lat":"37.710265354","long":"126.75170886","imageIndex":17,"items":[{"name":"가온서점","tel":"031-957-7005","addr":"경기도 파주시 야당동 한솔프라자3층303호","indutype":"서적문구 - 일반서적","category":"other"}]},{"lat":"37.708042447","long":"126.76151439","imageIndex":17,"items":[{"name":"가온엠에프지","tel":"031-957-7813","addr":"경기도 파주시 야당동 429-1번지","indutype":"기타 - 기계공구","category":"other"}]},{"lat":"37.705706951","long":"126.76495797","imageIndex":17,"items":[{"name":"가온크리닝","tel":"031-811-6669","addr":"경기도 파주시 야당동 148-3번지","indutype":"수리서비스 - 세탁소","category":"other"}]},{"lat":"37.709509226","long":"126.76507056","imageIndex":17,"items":[{"name":"강원제경유리","tel":"031-946-1502","addr":"경기도 파주시 야당동 173-8번지","indutype":"건축자재 - 유리","category":"other"}]},{"lat":"37.718262211","long":"126.76740169","imageIndex":17,"items":[{"name":"개스트하우스","tel":"","addr":"경기도 파주시 야당동 239-122번지","indutype":"문화.취미 - 애완동물","category":"other"}]},{"lat":"37.70932187","long":"126.76154426","imageIndex":17,"items":[{"name":"거목합판목재","tel":"031-957-8418","addr":"경기도 파주시 야당동 425번지","indutype":"건축자재 - 목재·석재·철물","category":"other"},{"name":"루디스디자인","tel":"031-943-1096","addr":"경기도 파주시 야당동 425번지","indutype":"가구 - 일반가구","category":"other"},{"name":"캠버리","tel":"031-2275-9093","addr":"경기도 파주시 야당동 425 외1필지","indutype":"기타 - 기타 전문점","category":"other"}]},{"lat":"37.710984249","long":"126.75940681","imageIndex":17,"items":[{"name":"건일테크","tel":"","addr":"경기도 파주시 야당동 1056-2번지","indutype":"용역 서비스 - 종합용역","category":"other"}]},{"lat":"37.710904811","long":"126.76462381","imageIndex":17,"items":[{"name":"경기이엔지(E&G)","tel":"031-000-0000","addr":"경기도 파주시 야당동 178-76번지","indutype":"용역 서비스 - 기타용역서비스","category":"other"},{"name":"백색공조","tel":"031-946-8969","addr":"경기도 파주시 야당동 178-76번지","indutype":"전기제품 - 냉열기기","category":"other"}]},{"lat":"37.725785879","long":"126.76774085","imageIndex":17,"items":[{"name":"고사리핸즈","tel":"031-945-9426","addr":"경기도 파주시 야당동 296-15번지","indutype":"가구 - 기타가구","category":"other"}]},{"lat":"37.718009445","long":"126.76715297","imageIndex":17,"items":[{"name":"고양휘","tel":"","addr":"경기도 파주시 야당동 239-116번지","indutype":"용역 서비스 - 기타용역서비스","category":"other"},{"name":"티티뱅크","tel":"031-945-3184","addr":"경기도 파주시 야당동 239-116번지","indutype":"레져용품 - 스포츠·레져용품","category":"other"}]},{"lat":"37.723704434","long":"126.76762266","imageIndex":17,"items":[{"name":"고향 공인중개사사무소","tel":"031-941-1115","addr":"경기도 파주시 야당동 294-4번지","indutype":"용역 서비스 - 부동산 중개·임대","category":"other"}]},{"lat":"37.723902089","long":"126.77189825","imageIndex":17,"items":[{"name":"공간 인테리어","tel":"031-945-2276","addr":"경기도 파주시 야당동 1-6번지","indutype":"건축자재 - 인테리어전문","category":"other"},{"name":"스마일 공인중개사 사무소","tel":"031-943-1140","addr":"경기도 파주시 야당동 1-6번지","indutype":"용역 서비스 - 부동산 중개·임대","category":"other"}]},{"lat":"37.710570735","long":"126.75126554","imageIndex":17,"items":[{"name":"굿모바일","tel":"","addr":"경기도 파주시 야당동 1006-6번지","indutype":"사무통신 - 통신기기","category":"other"}]},{"lat":"37.716315209","long":"126.75809643","imageIndex":17,"items":[{"name":"규리","tel":"031-1577-4660","addr":"경기도 파주시 야당동 991번지 한빛마을5단지캐슬앤칸타빌","indutype":"회원제형태 - 기타1","category":"other"}]},{"lat":"37.714639808","long":"126.74974339","imageIndex":17,"items":[{"name":"그린다역","tel":"","addr":"경기도 파주시 야당동 981번지 한빛마을1단지한라비발디센트럴파크","indutype":"용역 서비스 - 종합용역","category":"other"}]},{"lat":"37.716765065","long":"126.76662386","imageIndex":17,"items":[{"name":"기프트윌","tel":"070-4256-8974","addr":"경기도 파주시 야당동 240-8번지","indutype":"유통업 영리 - 기타유통업","category":"other"},{"name":"루미연","tel":"","addr":"경기도 파주시 야당동 240-8번지","indutype":"신변잡화 - 기타잡화","category":"other"}]},{"lat":"37.720650864","long":"126.76796124","imageIndex":17,"items":[{"name":"까깜제이","tel":"","addr":"경기도 파주시 야당동 45-115번지","indutype":"의류 - 아동의류","category":"other"}]},{"lat":"37.708929519","long":"126.76354145","imageIndex":17,"items":[{"name":"까사이태리","tel":"031-000-0000","addr":"경기도 파주시 야당동 176-2번지","indutype":"가구 - 일반가구","category":"other"}]},{"lat":"37.70845639","long":"126.76570899","imageIndex":17,"items":[{"name":"까사팩토리","tel":"031-913-0855","addr":"경기도 파주시 야당동 158-47번지","indutype":"가구 - 일반가구","category":"other"}]},{"lat":"37.71497767","long":"126.75185173","imageIndex":17,"items":[{"name":"꽃들도","tel":"031-946-4305","addr":"경기도 파주시 야당동 982번지 한빛마을2단지휴먼빌레이크팰리스","indutype":"문화.취미 - 문화취미기타","category":"other"}]},{"lat":"37.718376995","long":"126.76623312","imageIndex":17,"items":[{"name":"꽃뜨레","tel":"070-4402-0909","addr":"경기도 파주시 야당동 239-180번지","indutype":"문화.취미 - 화원","category":"other"}]},{"lat":"37.714400599","long":"126.76465798","imageIndex":17,"items":[{"name":"나무가풍경이되어","tel":"031-916-5892","addr":"경기도 파주시 야당동 220-9번지","indutype":"신변잡화 - 기타잡화","category":"other"},{"name":"작업실 탐","tel":"","addr":"경기도 파주시 야당동 220-9번지","indutype":"문화.취미 - 문화취미기타","category":"other"}]},{"lat":"37.708707881","long":"126.76532261","imageIndex":17,"items":[{"name":"나무와풍경","tel":"031-946-3334","addr":"경기도 파주시 야당동 158-4번지","indutype":"가구 - 일반가구","category":"other"}]},{"lat":"37.720397648","long":"126.76748567","imageIndex":17,"items":[{"name":"나소텍상사","tel":"031-944-1730","addr":"경기도 파주시 야당동 45-77번지","indutype":"전기제품 - 가전제품","category":"other"}]},{"lat":"37.708371824","long":"126.76398552","imageIndex":17,"items":[{"name":"노송가구","tel":"031-948-9700","addr":"경기도 파주시 야당동 158-15,74","indutype":"가구 - 일반가구","category":"other"}]},{"lat":"37.715195172","long":"126.7567278","imageIndex":17,"items":[{"name":"누리시스템","tel":"031-968-5367","addr":"경기도 파주시 야당동 991번지 한빛마을5단지캐슬앤칸타빌","indutype":"사무통신 - 사무용 OA기기","category":"other"}]},{"lat":"37.722318076","long":"126.76818283","imageIndex":17,"items":[{"name":"니콘포토아카데미","tel":"031-8035-5982","addr":"경기도 파주시 야당동 290-14번지","indutype":"광학제품 - 사진관","category":"other"}]},{"lat":"37.722980399","long":"126.77051731","imageIndex":17,"items":[{"name":"다팩몰","tel":"031-944-7656","addr":"경기도 파주시 야당동 39-4번지","indutype":"유통업 영리 - 기타유통업","category":"other"}]},{"lat":"37.715285808","long":"126.74849364","imageIndex":17,"items":[{"name":"닥터스킨케어","tel":"031-941-0410","addr":"경기도 파주시 야당동 981번지","indutype":"회원제형태 - 기타4","category":"other"},{"name":"씨유운정한빛점","tel":"031-943-4915","addr":"경기도 파주시 야당동 981번지","indutype":"유통업 영리 - 편 의 점","category":"other"}]},{"lat":"37.714426779","long":"126.76423827","imageIndex":17,"items":[{"name":"달리의 정원","tel":"","addr":"경기도 파주시 야당동 220-14번지","indutype":"문화.취미 - 화원","category":"other"}]},{"lat":"37.716027273","long":"126.74973867","imageIndex":17,"items":[{"name":"대영상사","tel":"02-2268-6633","addr":"경기도 파주시 야당동 981번지 한빛마을1단지한라비발디센트럴파크","indutype":"회원제형태 - 기타4","category":"other"}]},{"lat":"37.712258503","long":"126.76574223","imageIndex":17,"items":[{"name":"대진기업","tel":"02-765-5612","addr":"경기도 파주시 야당동 191-8번지","indutype":"용역 서비스 - 종합용역","category":"other"}]},{"lat":"37.714897678","long":"126.7654276","imageIndex":17,"items":[{"name":"더 케이(The K) 3845","tel":"031-947-9844","addr":"경기도 파주시 야당동 217번지","indutype":"의류 - 기타의류","category":"other"}]},{"lat":"37.710822348","long":"126.75095849","imageIndex":17,"items":[{"name":"데이지","tel":"031-949-2601","addr":"경기도 파주시 야당동 1006-4번지","indutype":"의류 - 정장","category":"other"}]},{"lat":"37.715197341","long":"126.75347281","imageIndex":17,"items":[{"name":"도원인테리어","tel":"","addr":"경기도 파주시 야당동 982번지 한빛마을2단지휴먼빌레이크팰리스","indutype":"건축자재 - 인테리어전문","category":"other"}]},{"lat":"37.716454277","long":"126.76890451","imageIndex":17,"items":[{"name":"도토리컴퍼니 주식회사","tel":"000-1899-7455","addr":"경기도 파주시 야당동 78-36번지","indutype":"문화.취미 - 티켓","category":"other"}]},{"lat":"37.723876406","long":"126.76801911","imageIndex":17,"items":[{"name":"동서남북렌탈","tel":"","addr":"경기도 파주시 야당동 295-28번지","indutype":"용역 서비스 - 종합용역","category":"other"},{"name":"세계건설지붕","tel":"031-439-3319","addr":"경기도 파주시 야당동 295-28번지","indutype":"회원제형태 - 기타4","category":"other"}]},{"lat":"37.711070093","long":"126.75306704","imageIndex":17,"items":[{"name":"동현디자인","tel":"031-948-5246","addr":"경기도 파주시 야당동 976번지","indutype":"직물 - 카페트,커튼,천막,지물","category":"other"}]},{"lat":"37.708774101","long":"126.74952519","imageIndex":17,"items":[{"name":"듀벨 인천점","tel":"070-5322-6575","addr":"경기도 파주시 야당동 1023번지 한빛마을6단지","indutype":"주방용구 - 정수기","category":"other"},{"name":"서진","tel":"031-916-8200","addr":"경기도 파주시 야당동 1023번지 한빛마을6단지","indutype":"회원제형태 - 기타4","category":"other"}]},{"lat":"37.7081481","long":"126.7647347","imageIndex":17,"items":[{"name":"디오픈(The oopen)","tel":"031-941-7282","addr":"경기도 파주시 야당동 158-14번지","indutype":"회원제형태 - 레져업소","category":"other"}]},{"lat":"37.712678403","long":"126.76398304","imageIndex":17,"items":[{"name":"디자인 M.K","tel":"070-8160-0066","addr":"경기도 파주시 야당동 192-105번지 이레하이츠","indutype":"건축자재 - 인테리어전문","category":"other"},{"name":"진호공조","tel":"","addr":"경기도 파주시 야당동 192-105번지 이레하이츠","indutype":"용역 서비스 - 기타용역서비스","category":"other"}]},{"lat":"37.721678288","long":"126.76812814","imageIndex":17,"items":[{"name":"디자인 엠제이(Design MJ)","tel":"070-4032-2037","addr":"경기도 파주시 야당동 45-65번지","indutype":"용역 서비스 - 사무서비스","category":"other"}]},{"lat":"37.708711613","long":"126.76718243","imageIndex":17,"items":[{"name":"디자인 하우스","tel":"031-948-9577","addr":"경기도 파주시 야당동 163-4번지","indutype":"가구 - 일반가구","category":"other"},{"name":"라자 가구","tel":"070-4152-6590","addr":"경기도 파주시 야당동 163-4번지","indutype":"가구 - 일반가구","category":"other"},{"name":"해플화이트가구(2호점)","tel":"031-949-1996","addr":"경기도 파주시 야당동 163-4","indutype":"가구 - 일반가구","category":"other"}]},{"lat":"37.708433211","long":"126.76315748","imageIndex":17,"items":[{"name":"디자인까사","tel":"031-945-0178","addr":"경기도 파주시 야당동 157-5 외1필지","indutype":"가구 - 일반가구","category":"other"},{"name":"모핸디가구","tel":"031-914-3876","addr":"경기도 파주시 야당동 157-5외1필지","indutype":"가구 - 일반가구","category":"other"}]},{"lat":"37.725677652","long":"126.76768448","imageIndex":17,"items":[{"name":"디자인푸루다","tel":"031-942-9431","addr":"경기도 파주시 야당동 296-20번지","indutype":"문화.취미 - 화원","category":"other"},{"name":"초록여울수족관","tel":"031-942-9431","addr":"경기도 파주시 야당동 296-20번지","indutype":"문화.취미 - 수족관","category":"other"}]},{"lat":"37.708176433","long":"126.76538101","imageIndex":17,"items":[{"name":"디퍼스가구","tel":"02-438-9471","addr":"경기도 파주시 야당동 158-103번지","indutype":"가구 - 일반가구","category":"other"}]},{"lat":"37.713733253","long":"126.75993085","imageIndex":17,"items":[{"name":"디플레이스 파주야당점","tel":"","addr":"경기도 파주시 야당동 1070번지","indutype":"용역 서비스 - 사무서비스","category":"other"}]},{"lat":"37.710765271","long":"126.76245818","imageIndex":17,"items":[{"name":"뚝딱쟁이","tel":"031-939-3232","addr":"경기도 파주시 야당동 421-2번지","indutype":"가구 - 일반가구","category":"other"},{"name":"주식회사포도나무365","tel":"070-7677-1248","addr":"경기도 파주시 야당동 421-2번지 에이호","indutype":"서적문구 - 출판 및 인쇄물","category":"other"}]},{"lat":"37.708871399","long":"126.76599117","imageIndex":17,"items":[{"name":"뜨레보디자인","tel":"031-957-6143","addr":"경기도 파주시 야당동 158-29번지","indutype":"가구 - 일반가구","category":"other"}]},{"lat":"37.70773195","long":"126.75948549","imageIndex":17,"items":[{"name":"라로제","tel":"02-1111-1111","addr":"경기도 파주시 야당동 1048-1번지","indutype":"의류 - 정장","category":"other"}]},{"lat":"37.716040561","long":"126.76476615","imageIndex":17,"items":[{"name":"라벨라마크라메","tel":"031-000-0000","addr":"경기도 파주시 야당동 226-8번지","indutype":"문화.취미 - 문화취미기타","category":"other"}]},{"lat":"37.7093729","long":"126.76898347","imageIndex":17,"items":[{"name":"라온비","tel":"031-942-8372","addr":"경기도 파주시 야당동 128번지","indutype":"의류 - 정장","category":"other"}]},{"lat":"37.713594597","long":"126.76707623","imageIndex":17,"items":[{"name":"라이프 디자인","tel":"","addr":"경기도 파주시 야당동 200-8번지","indutype":"문화.취미 - 문화취미기타","category":"other"}]},{"lat":"37.724647427","long":"126.77064822","imageIndex":17,"items":[{"name":"라인조명 전기공사","tel":"","addr":"경기도 파주시 야당동 25-35번지","indutype":"용역 서비스 - 기타용역서비스","category":"other"},{"name":"바이백시스템(Buy Back System)","tel":"02-3663-1900","addr":"경기도 파주시 야당동 25-35번지","indutype":"사무통신 - 통신기기","category":"other"},{"name":"올바이백(all by back)","tel":"031-943-1636","addr":"경기도 파주시 야당동 25-35번지","indutype":"건축자재 - 인테리어전문","category":"other"}]},{"lat":"37.715598675","long":"126.75154342","imageIndex":17,"items":[{"name":"레드빈","tel":"031-971-4913","addr":"경기도 파주시 야당동 교하신도시A15-1블럭한빛마을휴먼빌레이크팰리스","indutype":"회원제형태 - 기타4","category":"other"},{"name":"리브레 (livrer)","tel":"070-8031-4038","addr":"경기도 파주시 야당동 982번지 한빛마을2단지휴먼빌레이크팰리스","indutype":"의류 - 기타의류","category":"other"}]},{"lat":"37.717180343","long":"126.76704218","imageIndex":17,"items":[{"name":"레베플레르","tel":"031-000-0000","addr":"경기도 파주시 야당동 240-6번지","indutype":"문화.취미 - 문화취미기타","category":"other"},{"name":"앤쿨","tel":"031-939-6516","addr":"경기도 파주시 야당동 240-6번지 평생건강원 4호","indutype":"용역 서비스 - 기타용역서비스","category":"other"},{"name":"워시프레쉬 셀프빨래방 파주야당역점","tel":"031-943-4158","addr":"경기도 파주시 야당동 240-6번지","indutype":"수리서비스 - 세탁소","category":"other"},{"name":"월드그린 북부점","tel":"080-202-0222","addr":"경기도 파주시 야당동 240-6 3호","indutype":"신변잡화 - 기타잡화","category":"other"},{"name":"이오시아(베니클로셋)","tel":"070-8658-5877","addr":"경기도 파주시 야당동 240-6번지","indutype":"의류 - 정장","category":"other"}]},{"lat":"37.714616504","long":"126.74729374","imageIndex":17,"items":[{"name":"레브앤레브","tel":"","addr":"경기도 파주시 야당동 981번지 한빛마을1단지한라비발디센트럴파크","indutype":"신변잡화 - 액세서리","category":"other"}]},{"lat":"37.709015313","long":"126.76143185","imageIndex":17,"items":[{"name":"레온가구","tel":"031-957-9793","addr":"경기도 파주시 야당동 427-1","indutype":"가구 - 일반가구","category":"other"}]},{"lat":"37.715816101","long":"126.76515248","imageIndex":17,"items":[{"name":"로프트","tel":"031-944-6789","addr":"경기도 파주시 야당동 226-9번지","indutype":"가구 - 일반가구","category":"other"}]},{"lat":"37.70898745","long":"126.7654578","imageIndex":17,"items":[{"name":"루쏘디자인퍼니처","tel":"031-947-1165","addr":"경기도 파주시 야당동 158-42번지","indutype":"가구 - 일반가구","category":"other"}]},{"lat":"37.714427173","long":"126.76001931","imageIndex":17,"items":[{"name":"르하임스터디카페","tel":"031-8074-0012","addr":"경기도 파주시 야당동 1072-1번지","indutype":"용역 서비스 - 사무서비스","category":"other"},{"name":"페리토 파주야당점","tel":"031-957-9995","addr":"경기도 파주시 야당동 1072-1번지","indutype":"문화.취미 - 애완동물","category":"other"},{"name":"피오리에","tel":"031-949-8866","addr":"경기도 파주시 야당동 1072-1번지","indutype":"문화.취미 - 문화취미기타","category":"other"}]},{"lat":"37.7082359","long":"126.76360039","imageIndex":17,"items":[{"name":"리멤버 디자인","tel":"031-943-5688","addr":"경기도 파주시 야당동 157-19번지","indutype":"가구 - 일반가구","category":"other"},{"name":"아르던가구(CASAROOM)","tel":"031-943-5688","addr":"경기도 파주시 야당동 157-19번지","indutype":"가구 - 일반가구","category":"other"},{"name":"채아갤러리 CASA ROOM","tel":"03-943-5688","addr":"경기도 파주시 야당동 157-19번지","indutype":"가구 - 일반가구","category":"other"}]},{"lat":"37.714078086","long":"126.75677686","imageIndex":17,"items":[{"name":"마드레(Madre)","tel":"070-7534-8890","addr":"경기도 파주시 야당동 991번지 한빛마을5단지캐슬앤칸타빌","indutype":"의류 - 정장","category":"other"}]},{"lat":"37.708787067","long":"126.7643811","imageIndex":17,"items":[{"name":"마루공방","tel":"031-945-8948","addr":"경기도 파주시 야당동 158-55번지","indutype":"가구 - 일반가구","category":"other"},{"name":"벤티&인테리어","tel":"031-8071-5114","addr":"경기도 파주시 야당동 158-55번지","indutype":"가구 - 일반가구","category":"other"}]},{"lat":"37.716535305","long":"126.76437895","imageIndex":17,"items":[{"name":"마마트(파주풍운산수점)","tel":"02-500-0900","addr":"경기도 파주시 야당동 247-10번지","indutype":"유통업 영리 - 편 의 점","category":"other"}]},{"lat":"37.708655944","long":"126.76637743","imageIndex":17,"items":[{"name":"마메종","tel":"031-949-6997","addr":"경기도 파주시 야당동 158-38번지","indutype":"가구 - 일반가구","category":"other"}]},{"lat":"37.708179937","long":"126.76712741","imageIndex":17,"items":[{"name":"마스소파(문스리버엣지)","tel":"070-7717-1523","addr":"경기도 파주시 야당동 163-7번지","indutype":"가구 - 일반가구","category":"other"}]},{"lat":"37.717371105","long":"126.76782416","imageIndex":17,"items":[{"name":"멍구네","tel":"","addr":"경기도 파주시 야당동 239-108번지","indutype":"문화.취미 - 애완동물","category":"other"}]},{"lat":"37.704655492","long":"126.75746573","imageIndex":17,"items":[{"name":"메이플라워","tel":"031-942-8180","addr":"경기도 파주시 야당동 486-37번지 금호타운","indutype":"용역 서비스 - 사무서비스","category":"other"}]},{"lat":"37.707958166","long":"126.76437242","imageIndex":17,"items":[{"name":"명인공방","tel":"031-944-3802","addr":"경기도 파주시 야당동 158-58번지","indutype":"가구 - 일반가구","category":"other"}]},{"lat":"37.708378192","long":"126.76714946","imageIndex":17,"items":[{"name":"모빌리에까사(자연나무)","tel":"031-957-3370","addr":"경기도 파주시 야당동 163-6번지","indutype":"가구 - 일반가구","category":"other"},{"name":"소파백화점","tel":"031-948-3599","addr":"경기도 파주시 야당동 163-6번지","indutype":"가구 - 일반가구","category":"other"}]},{"lat":"37.718899616","long":"126.76626548","imageIndex":17,"items":[{"name":"목인","tel":"031-957-0481","addr":"경기도 파주시 야당동 239-3번지","indutype":"가구 - 일반가구","category":"other"},{"name":"주식회사대신문화사","tel":"031-932-0937","addr":"경기도 파주시 야당동 239-3번지","indutype":"용역 서비스 - 사무서비스","category":"other"}]},{"lat":"37.72373599","long":"126.76990245","imageIndex":17,"items":[{"name":"묘상명동개발 유한회사","tel":"070-8786-8888","addr":"경기도 파주시 야당동 31-4번지","indutype":"건축자재 - 부동산 분양","category":"other"}]},{"lat":"37.710404149","long":"126.76209645","imageIndex":17,"items":[{"name":"무지개교육문화사","tel":"070-8870-7989","addr":"경기도 파주시 야당동 421-144번지 스페이스","indutype":"서적문구 - 일반서적","category":"other"}]},{"lat":"37.708769024","long":"126.75136236","imageIndex":17,"items":[{"name":"물고기숲","tel":"031-943-2090","addr":"경기도 파주시 야당동 1026번지 한빛마을7단지","indutype":"회원제형태 - 기타2","category":"other"},{"name":"시스템건우","tel":"031-978-2006","addr":"경기도 파주시 야당동 1026번지 한빛마을7단지","indutype":"회원제형태 - 기타4","category":"other"},{"name":"인마크","tel":"","addr":"경기도 파주시 야당동 1026번지 한빛마을7단지","indutype":"용역 서비스 - 종합용역","category":"other"},{"name":"한샘진로석수","tel":"031-939-6258","addr":"경기도 파주시 야당동 1026번지 한빛마을7단지","indutype":"유통업 영리 - 기타유통업","category":"other"}]},{"lat":"37.7162881331","long":"126.7580738312","imageIndex":17,"items":[{"name":"미랜","tel":"031-957-1600","addr":"경기도 파주시 야당동 389","indutype":"회원제형태 - 기타3","category":"other"}]},{"lat":"37.721118092","long":"126.7673246","imageIndex":17,"items":[{"name":"민공조시스템","tel":"02-1644-7332","addr":"경기도 파주시 야당동 45-85번지","indutype":"전기제품 - 냉열기기","category":"other"}]},{"lat":"37.715777012","long":"126.75492258","imageIndex":17,"items":[{"name":"바로캠","tel":"","addr":"경기도 파주시 야당동 991번지 한빛마을5단지캐슬앤칸타빌","indutype":"전기제품 - 가전제품","category":"other"}]},{"lat":"37.724813011","long":"126.76782333","imageIndex":17,"items":[{"name":"바로크설비","tel":"031-943-6022","addr":"경기도 파주시 야당동 296-2번지 1층 우측상가","indutype":"용역 서비스 - 기타용역서비스","category":"other"}]},{"lat":"37.708763047","long":"126.76143267","imageIndex":17,"items":[{"name":"바우공조주식회사","tel":"031-975-4950","addr":"경기도 파주시 야당동 427-4번지","indutype":"용역 서비스 - 기타용역서비스","category":"other"}]},{"lat":"37.71034757","long":"126.76529469","imageIndex":17,"items":[{"name":"발앤발","tel":"031-946-8820","addr":"경기도 파주시 야당동 178-87번지","indutype":"문화.취미 - 애완동물","category":"other"},{"name":"씨유야당빌리지점","tel":"031-942-2266","addr":"경기도 파주시 야당동 178-87번지","indutype":"유통업 영리 - 편 의 점","category":"other"},{"name":"에어윈시스템공조","tel":"031-942-5181","addr":"경기도 파주시 야당동 178-87번지","indutype":"전기제품 - 냉열기기","category":"other"}]},{"lat":"37.708960924","long":"126.76570738","imageIndex":17,"items":[{"name":"배명복갤러리","tel":"031-942-7505","addr":"경기도 파주시 야당동 158-3번지 1층","indutype":"가구 - 일반가구","category":"other"},{"name":"트윈스홈","tel":"031-957-8792","addr":"경기도 파주시 야당동 158-3외3","indutype":"가구 - 일반가구","category":"other"}]},{"lat":"37.713792101","long":"126.76226694","imageIndex":17,"items":[{"name":"법률사무소 천지","tel":"031-932-9024","addr":"경기도 파주시 야당동 421-19번지","indutype":"용역 서비스 - 법률회계서비스(개인)","category":"other"}]},{"lat":"37.712786669","long":"126.75965041","imageIndex":17,"items":[{"name":"베이퍼스 야당","tel":"","addr":"경기도 파주시 야당동 1066-1번지","indutype":"기타 - 기타 전문점","category":"other"},{"name":"성진스크린골프","tel":"031-945-7702","addr":"경기도 파주시 야당동 1066-1번지","indutype":"레져용품 - 스포츠·레져용품","category":"other"},{"name":"월드텔레콤","tel":"031-946-4664","addr":"경기도 파주시 야당동 1066-1번지","indutype":"사무통신 - 통신기기","category":"other"}]},{"lat":"37.708677643","long":"126.76373505","imageIndex":17,"items":[{"name":"벤티","tel":"031-8071-5114","addr":"경기도 파주시 야당동 158-8번지","indutype":"가구 - 일반가구","category":"other"}]},{"lat":"37.713363541","long":"126.75118805","imageIndex":17,"items":[{"name":"보.다올","tel":"","addr":"경기도 파주시 야당동 975번지 한빛마을3단지자유로아이파크","indutype":"문화.취미 - 문화취미기타","category":"other"},{"name":"용현상사","tel":"031-939-8477","addr":"경기도 파주시 야당동 975번지 한빛마을3단지자유로아이파크","indutype":"회원제형태 - 기타4","category":"other"}]},{"lat":"37.708177049","long":"126.7656872","imageIndex":17,"items":[{"name":"보루네오 운정점","tel":"031-946-3799","addr":"경기도 파주시 야당동 158-96외1필지","indutype":"가구 - 일반가구","category":"other"}]},{"lat":"37.714787601","long":"126.76004082","imageIndex":17,"items":[{"name":"부스한남","tel":"","addr":"경기도 파주시 야당동 1072번지","indutype":"의류 - 정장","category":"other"},{"name":"스탠다드한남","tel":"","addr":"경기도 파주시 야당동 1072번지","indutype":"의류 - 정장","category":"other"},{"name":"주식회사 엘림아이앤씨","tel":"031-8074-0922","addr":"경기도 파주시 야당동 1072번지","indutype":"유통업 영리 - 기타유통업","category":"other"}]},{"lat":"37.710609551","long":"126.74836219","imageIndex":17,"items":[{"name":"비누꽃으로만드는세상","tel":"070-8944-8280","addr":"경기도 파주시 야당동 1023번지 한빛마을6단지","indutype":"회원제형태 - 기타4","category":"other"}]},{"lat":"37.707747317","long":"126.75820399","imageIndex":17,"items":[{"name":"비아킴","tel":"","addr":"경기도 파주시 야당동 1031번지 휴먼시아한빛마을","indutype":"의류 - 정장","category":"other"}]},{"lat":"37.708849399","long":"126.76401801","imageIndex":17,"items":[{"name":"빈센트갤러리","tel":"031-947-9445","addr":"경기도 파주시 야당동 158-22번지","indutype":"가구 - 일반가구","category":"other"}]},{"lat":"37.704294805","long":"126.7616853","imageIndex":17,"items":[{"name":"사와농원","tel":"031-942-0071","addr":"경기도 파주시 야당동 469-61번지","indutype":"문화.취미 - 화원","category":"other"}]},{"lat":"37.708676699","long":"126.7632701","imageIndex":17,"items":[{"name":"삼익가구","tel":"031-957-6933","addr":"경기도 파주시 야당동 157-8번지","indutype":"가구 - 일반가구","category":"other"}]},{"lat":"37.708655284","long":"126.76604856","imageIndex":17,"items":[{"name":"삼익가구.우리꼴자연가구","tel":"031-943-5551","addr":"경기도 파주시 야당동 158-37번지","indutype":"가구 - 일반가구","category":"other"},{"name":"우리퍼니쳐","tel":"031-943-5551","addr":"경기도 파주시 야당동 158-37번지","indutype":"가구 - 일반가구","category":"other"}]},{"lat":"37.722369348","long":"126.76678754","imageIndex":17,"items":[{"name":"삼천리 클린","tel":"031-943-0020","addr":"경기도 파주시 야당동 45-21번지","indutype":"용역 서비스 - 종합용역","category":"other"}]},{"lat":"37.713566632","long":"126.76215426","imageIndex":17,"items":[{"name":"서경산업","tel":"031-935-4557","addr":"경기도 파주시 야당동 421-18번지","indutype":"주방용구 - 주방용구","category":"other"}]},{"lat":"37.709411383","long":"126.74841165","imageIndex":17,"items":[{"name":"선린컴퓨터","tel":"031-939-3423","addr":"경기도 파주시 야당동 1023번지 한빛마을6단지","indutype":"사무통신 - 컴퓨터","category":"other"}]},{"lat":"37.705571922","long":"126.7650151","imageIndex":17,"items":[{"name":"성심라이프","tel":"031-1577-0207","addr":"경기도 파주시 야당동 145번지 I - 하우스","indutype":"용역 서비스 - 가례서비스업","category":"other"}]},{"lat":"37.714983514","long":"126.76779768","imageIndex":17,"items":[{"name":"성우아트","tel":"","addr":"경기도 파주시 야당동 233-51번지 성우뜰안에","indutype":"용역 서비스 - 기타용역서비스","category":"other"},{"name":"성우아트","tel":"","addr":"경기도 파주시 야당동 233-51번지 성우뜰안에","indutype":"용역 서비스 - 종합용역","category":"other"}]},{"lat":"37.708010661","long":"126.76360111","imageIndex":17,"items":[{"name":"성진가구","tel":"031-942-1023","addr":"경기도 파주시 야당동 157-23번지","indutype":"가구 - 일반가구","category":"other"},{"name":"에이스침대파주운정점","tel":"031-942-1023","addr":"경기도 파주시 야당동 157-23","indutype":"가구 - 일반가구","category":"other"}]},{"lat":"37.705679029","long":"126.7645158","imageIndex":17,"items":[{"name":"세븐일레븐파주야당점","tel":"031-1577-0711","addr":"경기도 파주시 야당동 149-5번지","indutype":"유통업 영리 - 편 의 점","category":"other"}]},{"lat":"37.708010086","long":"126.7633176","imageIndex":17,"items":[{"name":"소낭구 파주운정점","tel":"031-944-1023","addr":"경기도 파주시 야당동 157-7번지","indutype":"가구 - 일반가구","category":"other"}]},{"lat":"37.721542506","long":"126.77237061","imageIndex":17,"items":[{"name":"소람디자인","tel":"031-949-6367","addr":"경기도 파주시 야당동 7-7번지","indutype":"용역 서비스 - 사무서비스","category":"other"}]},{"lat":"37.709620829","long":"126.76234847","imageIndex":17,"items":[{"name":"소망하비","tel":"031-943-2928","addr":"경기도 파주시 야당동 178-15다솔빌라B03호","indutype":"기타 - 기타 전문점","category":"other"}]},{"lat":"37.709483545","long":"126.76573973","imageIndex":17,"items":[{"name":"소프트퍼레이드","tel":"070-8899-9009","addr":"경기도 파주시 야당동 173-4번지","indutype":"직물 - 카페트,커튼,천막,지물","category":"other"}]},{"lat":"37.710258365","long":"126.76573727","imageIndex":17,"items":[{"name":"송학비니루","tel":"031-944-0284","addr":"경기도 파주시 야당동 178-92번지","indutype":"유통업 영리 - 기타유통업","category":"other"}]},{"lat":"37.715842008","long":"126.76459666","imageIndex":17,"items":[{"name":"순복음 믿음의교회","tel":"031-957-6391","addr":"경기도 파주시 야당동 226-15번지","indutype":"기타 - 비영리/대상","category":"other"}]},{"lat":"37.716536031","long":"126.76031865","imageIndex":17,"items":[{"name":"쉼산후조리원","tel":"031-947-9030","addr":"경기도 파주시 야당동 1076번지","indutype":"기타의료기관 - 산후조리원","category":"other"},{"name":"씽크팩토리","tel":"031-948-6858","addr":"경기도 파주시 야당동 1076번지","indutype":"사무통신 - 컴퓨터","category":"other"}]},{"lat":"37.711329708","long":"126.75228365","imageIndex":17,"items":[{"name":"스마일 상사","tel":"031-000-0000","addr":"경기도 파주시 야당동 975번지 한빛마을3단지자유로아이파크","indutype":"유통업 영리 - 기타유통업","category":"other"}]},{"lat":"37.709041001","long":"126.75215527","imageIndex":17,"items":[{"name":"스케치","tel":"031-8070-9015","addr":"경기도 파주시 야당동 1026번지 한빛마을7단지","indutype":"의류 - 정장","category":"other"}]},{"lat":"37.712209171","long":"126.76362163","imageIndex":17,"items":[{"name":"스튜디오 두다","tel":"","addr":"경기도 파주시 야당동 421-32번지","indutype":"가구 - 일반가구","category":"other"}]},{"lat":"37.722985026","long":"126.77287656","imageIndex":17,"items":[{"name":"스포츠토토방","tel":"031-943-5507","addr":"경기도 파주시 야당동 4-12번지","indutype":"신변잡화 - 기타잡화","category":"other"},{"name":"팡팡슈퍼","tel":"070-4111-0065","addr":"경기도 파주시 야당동 4-12번지","indutype":"신변잡화 - 기타잡화","category":"other"}]},{"lat":"37.70859828","long":"126.75583105","imageIndex":17,"items":[{"name":"승민공조","tel":"","addr":"경기도 파주시 야당동 1031번지 휴먼시아한빛마을","indutype":"용역 서비스 - 기타용역서비스","category":"other"}]},{"lat":"37.715265222","long":"126.76009597","imageIndex":17,"items":[{"name":"시크(SEEK)스터디 센터","tel":"070-7786-0901","addr":"경기도 파주시 야당동 1074-2번지","indutype":"용역 서비스 - 사무서비스","category":"other"},{"name":"씨스페이스 야당역점","tel":"031-906-1288","addr":"경기도 파주시 야당동 1074-2번지","indutype":"유통업 영리 - 편 의 점","category":"other"},{"name":"일하잡","tel":"031-1855-4198","addr":"경기도 파주시 야당동 1074-2번지","indutype":"용역 서비스 - 종합용역","category":"other"},{"name":"주식회사 라벨팜므산후조리원","tel":"031-942-3535","addr":"경기도 파주시 야당동 1074-2번지","indutype":"기타의료기관 - 산후조리원","category":"other"}]},{"lat":"37.720541301","long":"126.76723569","imageIndex":17,"items":[{"name":"신선냉동","tel":"031-944-0123","addr":"경기도 파주시 야당동 45-94번지","indutype":"전기제품 - 냉열기기","category":"other"}]},{"lat":"37.70848549","long":"126.76674087","imageIndex":17,"items":[{"name":"신우드가구","tel":"031-942-3690","addr":"경기도 파주시 야당동 158-76","indutype":"가구 - 일반가구","category":"other"}]},{"lat":"37.70601653","long":"126.76212198","imageIndex":17,"items":[{"name":"심리미술","tel":"070-7594-5855","addr":"경기도 파주시 야당동 469-13","indutype":"문화.취미 - 화방·표구점","category":"other"}]},{"lat":"37.712370744","long":"126.76332625","imageIndex":17,"items":[{"name":"싸이먼","tel":"02-1588-7430","addr":"경기도 파주시 야당동 421-31번지","indutype":"신변잡화 - 기타잡화","category":"other"}]},{"lat":"37.714763539","long":"126.76592705","imageIndex":17,"items":[{"name":"씨유야당미소점","tel":"031-954-1927","addr":"경기도 파주시 야당동 217-3번지","indutype":"유통업 영리 - 편 의 점","category":"other"}]},{"lat":"37.711651118","long":"126.75948401","imageIndex":17,"items":[{"name":"씨유야당아이플렉스점","tel":"080-080-3663","addr":"경기도 파주시 야당동 1056번지","indutype":"유통업 영리 - 편 의 점","category":"other"},{"name":"컬러링펫","tel":"","addr":"경기도 파주시 야당동 1056번지","indutype":"문화.취미 - 애완동물","category":"other"}]},{"lat":"37.715680335","long":"126.76934926","imageIndex":17,"items":[{"name":"씨유야당플로렌스점","tel":"080-080-3663","addr":"경기도 파주시 야당동 77번지 The 플로렌스","indutype":"유통업 영리 - 편 의 점","category":"other"}]},{"lat":"37.707731136","long":"126.76348861","imageIndex":17,"items":[{"name":"씨유운정가구단지점","tel":"031-939-6811","addr":"경기도 파주시 야당동 155-6번지 동은뜰안에","indutype":"유통업 영리 - 편 의 점","category":"other"}]},{"lat":"37.724984418","long":"126.76793621","imageIndex":17,"items":[{"name":"씨유운정역점","tel":"031-948-1856","addr":"경기도 파주시 야당동 296-49번지","indutype":"유통업 영리 - 편 의 점","category":"other"}]},{"lat":"37.71047209","long":"126.75148135","imageIndex":17,"items":[{"name":"씨유운정휴먼시아점","tel":"031-945-4014","addr":"경기도 파주시 야당동 1006-7번지","indutype":"유통업 영리 - 편 의 점","category":"other"},{"name":"크린토피아 운정한빛점","tel":"031-946-5240","addr":"경기도 파주시 야당동 1006-7번지","indutype":"수리서비스 - 세탁소","category":"other"},{"name":"토이&문구","tel":"031-947-6657","addr":"경기도 파주시 야당동 1006-7번지","indutype":"서적문구 - 문구용품","category":"other"}]},{"lat":"37.723125783","long":"126.76660366","imageIndex":17,"items":[{"name":"씨유파주야당점","tel":"031-948-5635","addr":"경기도 파주시 야당동 288-7,8","indutype":"유통업 영리 - 편 의 점","category":"other"}]},{"lat":"37.704677386","long":"126.76373656","imageIndex":17,"items":[{"name":"씨유파주탄현로점","tel":"031-942-1882","addr":"경기도 파주시 야당동 469-96번지","indutype":"유통업 영리 - 편 의 점","category":"other"}]},{"lat":"37.71612327","long":"126.76557113","imageIndex":17,"items":[{"name":"아로마스튜디오홈","tel":"070-8671-4027","addr":"경기도 파주시 야당동 242-1번지","indutype":"문화.취미 - 문화취미기타","category":"other"}]},{"lat":"37.706119994","long":"126.75552176","imageIndex":17,"items":[{"name":"아미가스크린","tel":"031-947-2420","addr":"경기도 파주시 야당동 466-24번지","indutype":"회원제형태 - 레져업소","category":"other"},{"name":"아미가스크린골프","tel":"031-947-2420","addr":"경기도 파주시 야당동 466-24번지","indutype":"회원제형태 - 레져업소","category":"other"},{"name":"아미샵 (Ami #)","tel":"031-942-5374","addr":"경기도 파주시 야당동 466-24번지","indutype":"의류 - 정장","category":"other"}]},{"lat":"37.709369972","long":"126.76304105","imageIndex":17,"items":[{"name":"아미에(AMIE)디자인","tel":"031-944-0726","addr":"경기도 파주시 야당동 178-63번지","indutype":"가구 - 일반가구","category":"other"}]},{"lat":"37.706455588","long":"126.76537516","imageIndex":17,"items":[{"name":"아이디메이트","tel":"02-6844-5844","addr":"경기도 파주시 야당동 150-1번지","indutype":"용역 서비스 - 사무서비스","category":"other"}]},{"lat":"37.712232365","long":"126.76173896","imageIndex":17,"items":[{"name":"아이세상","tel":"031-000-0000","addr":"경기도 파주시 야당동 421-42번지","indutype":"의류 - 아동의류","category":"other"}]},{"lat":"37.709898851","long":"126.74885227","imageIndex":17,"items":[{"name":"아이소문","tel":"031-943-0223","addr":"경기도 파주시 야당동 1023번지 한빛마을6단지","indutype":"회원제형태 - 기타4","category":"other"},{"name":"우리수","tel":"070-4606-0388","addr":"경기도 파주시 야당동 645 한빛마을6단지615-304","indutype":"회원제형태 - 기타1","category":"other"}]},{"lat":"37.723425863","long":"126.76798651","imageIndex":17,"items":[{"name":"아이에스세라믹","tel":"031-943-5306","addr":"경기도 파주시 야당동 38-1,2호","indutype":"건축자재 - 건축용 요업제품","category":"other"}]},{"lat":"37.713035067","long":"126.74926118","imageIndex":17,"items":[{"name":"아이점빵","tel":"031-942-7205","addr":"경기도 파주시 야당동 75","indutype":"신변잡화 - 기타잡화","category":"other"}]},{"lat":"37.708336688","long":"126.75142052","imageIndex":17,"items":[{"name":"액션카","tel":"031-8071-1885","addr":"경기도 파주시 야당동 1026번지 한빛마을7단지","indutype":"용역 서비스 - 종합용역","category":"other"}]},{"lat":"37.72470356","long":"126.76715445","imageIndex":17,"items":[{"name":"엄마곰사진관","tel":"070-7576-3779","addr":"경기도 파주시 야당동 295-9번지","indutype":"광학제품 - 사진관","category":"other"}]},{"lat":"37.712209896","long":"126.75957291","imageIndex":17,"items":[{"name":"엉스(ung's)","tel":"070-7543-3708","addr":"경기도 파주시 야당동 1066-3번지","indutype":"문화.취미 - 문화취미기타","category":"other"},{"name":"올리브영 파주야당역점","tel":"031-941-8122","addr":"경기도 파주시 야당동 1066-3번지","indutype":"유통업 영리 - 편 의 점","category":"other"}]},{"lat":"37.711760813","long":"126.75591128","imageIndex":17,"items":[{"name":"에스디랩(SD Lap)","tel":"","addr":"경기도 파주시 야당동 1015번지 롯데캐슬파크타운II","indutype":"용역 서비스 - 사무서비스","category":"other"},{"name":"예쁜꽃농원","tel":"","addr":"경기도 파주시 야당동 1015번지 롯데캐슬파크타운II","indutype":"문화.취미 - 화원","category":"other"},{"name":"예인기획","tel":"02-776-1954","addr":"경기도 파주시 야당동 1015번지 롯데캐슬파크타운II","indutype":"용역 서비스 - 종합용역","category":"other"},{"name":"코인워시 문정한빛마을4단지 롯데파크타운","tel":"031-947-0806","addr":"경기도 파주시 야당동 1015번지 롯데캐슬파크타운II","indutype":"수리서비스 - 세탁소","category":"other"},{"name":"퍼스트롯데캐슬공인중개사사무소","tel":"031-948-0038","addr":"경기도 파주시 야당동 1015번지 롯데캐슬파크타운II","indutype":"용역 서비스 - 부동산 중개·임대","category":"other"}]},{"lat":"37.715121131","long":"126.76454226","imageIndex":17,"items":[{"name":"엔-플라워","tel":"031-264-2279","addr":"경기도 파주시 야당동 226-14, 52","indutype":"신변잡화 - 기타잡화","category":"other"}]},{"lat":"37.715125599","long":"126.75793022","imageIndex":17,"items":[{"name":"엔더모슬림","tel":"070-7685-0660","addr":"경기도 파주시 야당동 991번지 한빛마을5단지캐슬앤칸타빌","indutype":"회원제형태 - 기타4","category":"other"}]},{"lat":"37.713544465","long":"126.76454731","imageIndex":17,"items":[{"name":"엔젤스데이","tel":"070-7768-0086","addr":"경기도 파주시 야당동 193-9번지","indutype":"신변잡화 - 기타잡화","category":"other"}]},{"lat":"37.710171745","long":"126.75006478","imageIndex":17,"items":[{"name":"영 만물","tel":"","addr":"경기도 파주시 야당동 1023번지 한빛마을6단지","indutype":"신변잡화 - 기타잡화","category":"other"}]},{"lat":"37.714665227","long":"126.74899477","imageIndex":17,"items":[{"name":"영동유통","tel":"070-8202-2098","addr":"경기도 파주시 야당동 981번지 한빛마을1단지한라비발디센트럴파크","indutype":"유통업 영리 - 기타유통업","category":"other"}]},{"lat":"37.71200951","long":"126.76737612","imageIndex":17,"items":[{"name":"영창에이디","tel":"031-946-6167","addr":"경기도 파주시 야당동 187-5번지","indutype":"용역 서비스 - 종합용역","category":"other"}]},{"lat":"37.70973116","long":"126.76343681","imageIndex":17,"items":[{"name":"예나전기조명","tel":"031-947-7720","addr":"경기도 파주시 야당동 178-27번지","indutype":"건축자재 - 조명기구","category":"other"},{"name":"오케이홈닥터","tel":"031-944-1314","addr":"경기도 파주시 야당동 178-27번지","indutype":"용역 서비스 - 기타용역서비스","category":"other"}]},{"lat":"37.714042504","long":"126.76579325","imageIndex":17,"items":[{"name":"오래하우징","tel":"070-8650-5500","addr":"경기도 파주시 야당동 220-34번지","indutype":"용역 서비스 - 기타용역서비스","category":"other"}]},{"lat":"37.720150135","long":"126.76987965","imageIndex":17,"items":[{"name":"용아트","tel":"031-943-9875","addr":"경기도 파주시 야당동 45-74번지","indutype":"용역 서비스 - 종합용역","category":"other"}]},{"lat":"37.705072934","long":"126.75459537","imageIndex":17,"items":[{"name":"우리동내전기","tel":"","addr":"경기도 파주시 야당동 466-83번지","indutype":"수리서비스 - 기타수리서비스","category":"other"}]},{"lat":"37.708232655","long":"126.76645816","imageIndex":17,"items":[{"name":"운정가구마을","tel":"031-949-1125","addr":"경기도 파주시 야당동 158-78번지","indutype":"가구 - 일반가구","category":"other"}]},{"lat":"37.709127291","long":"126.76332535","imageIndex":17,"items":[{"name":"운정가구타운 코지하우스","tel":"031-946-2267","addr":"경기도 파주시 야당동 178-73번지","indutype":"직물 - 침구·수예점","category":"other"}]},{"lat":"37.711235548","long":"126.75037871","imageIndex":17,"items":[{"name":"운정로타리클럽","tel":"031-943-3693","addr":"경기도 파주시 야당동 1006-1번지","indutype":"기타 - 비영리/비대상","category":"other"}]},{"lat":"37.723315256","long":"126.76673917","imageIndex":17,"items":[{"name":"운정철물건재","tel":"031-957-6971","addr":"경기도 파주시 야당동 288-1번지","indutype":"건축자재 - 목재·석재·철물","category":"other"}]},{"lat":"37.717540724","long":"126.76704104","imageIndex":17,"items":[{"name":"웅진테크","tel":"031-948-0112","addr":"경기도 파주시 야당동 240-18번지 1층","indutype":"용역 서비스 - 종합용역","category":"other"},{"name":"이마트24 도시농부운정점","tel":"031-1111-1111","addr":"경기도 파주시 야당동 240-18번지","indutype":"유통업 영리 - 편 의 점","category":"other"}]},{"lat":"37.710064167","long":"126.76326563","imageIndex":17,"items":[{"name":"원 법무사 사무소","tel":"031-941-9078","addr":"경기도 파주시 야당동 178-77번지","indutype":"용역 서비스 - 법률회계서비스(개인)","category":"other"}]},{"lat":"37.710675487","long":"126.76707414","imageIndex":17,"items":[{"name":"위드미 하우개마을점","tel":"070-8796-4528","addr":"경기도 파주시 야당동 185-21번지","indutype":"유통업 영리 - 편 의 점","category":"other"}]},{"lat":"37.710153201","long":"126.76274367","imageIndex":17,"items":[{"name":"위드미(파주야당점)","tel":"031-948-9070","addr":"경기도 파주시 야당동 178-41번지","indutype":"유통업 영리 - 편 의 점","category":"other"}]},{"lat":"37.716707196","long":"126.76923262","imageIndex":17,"items":[{"name":"위키모벤스(Wiki Movence)","tel":"070-4220-1963","addr":"경기도 파주시 야당동 78-9번지","indutype":"가구 - 일반가구","category":"other"}]},{"lat":"37.718153661","long":"126.77173462","imageIndex":17,"items":[{"name":"유림액자","tel":"031-922-8874","addr":"경기도 파주시 야당동 62 외1필지","indutype":"문화.취미 - 화방·표구점","category":"other"}]},{"lat":"37.708235163","long":"126.7632375","imageIndex":17,"items":[{"name":"유순호컬렉션&인테리어","tel":"031-946-1062","addr":"경기도 파주시 야당동 157-6","indutype":"가구 - 일반가구","category":"other"}]},{"lat":"37.708260183","long":"126.76670756","imageIndex":17,"items":[{"name":"유앤박 가구","tel":"031-944-9331","addr":"경기도 파주시 야당동 158-79번지","indutype":"가구 - 일반가구","category":"other"}]},{"lat":"37.723038679","long":"126.76810116","imageIndex":17,"items":[{"name":"은혜장묘","tel":"031-904-4414","addr":"경기도 파주시 야당동 291-19번지","indutype":"용역 서비스 - 가례서비스업","category":"other"}]},{"lat":"37.70884569","long":"126.766649","imageIndex":17,"items":[{"name":"이노센트가구","tel":"031-8071-5115","addr":"경기도 파주시 야당동 158-1.158-13","indutype":"가구 - 일반가구","category":"other"},{"name":"일룸가구","tel":"031-946-0056","addr":"경기도 파주시 야당동 158-1","indutype":"가구 - 일반가구","category":"other"}]},{"lat":"37.714431416","long":"126.76654054","imageIndex":17,"items":[{"name":"이롭","tel":"070-4063-7798","addr":"경기도 파주시 야당동 226-93번지","indutype":"의류 - 정장","category":"other"}]},{"lat":"37.709092932","long":"126.76415331","imageIndex":17,"items":[{"name":"이상석디자인주식회사","tel":"031-8070-9100","addr":"경기도 파주시 야당동 176번지","indutype":"건축자재 - 인테리어전문","category":"other"},{"name":"제이에스인테리어 주식회사","tel":"031-973-0356","addr":"경기도 파주시 야당동 176번지","indutype":"건축자재 - 인테리어전문","category":"other"}]},{"lat":"37.708622187","long":"126.75434538","imageIndex":17,"items":[{"name":"이안리폼","tel":"","addr":"경기도 파주시 야당동 1026번지 한빛마을7단지","indutype":"수리서비스 - 세탁소","category":"other"}]},{"lat":"37.71437318","long":"126.76446527","imageIndex":17,"items":[{"name":"이웃을만드는사람들 공인중개사사무소","tel":"","addr":"경기도 파주시 야당동 220-44번지","indutype":"용역 서비스 - 부동산 중개·임대","category":"other"}]},{"lat":"37.709349856","long":"126.74912631","imageIndex":17,"items":[{"name":"이지오피부관리","tel":"050-0770-2700","addr":"경기도 파주시 야당동 1023번지 한빛마을6단지","indutype":"회원제형태 - 기타4","category":"other"}]},{"lat":"37.709095423","long":"126.76990292","imageIndex":17,"items":[{"name":"이치로마트","tel":"031-902-4343","addr":"경기도 파주시 야당동 121-4번지","indutype":"신변잡화 - 기타잡화","category":"other"}]},{"lat":"37.708179862","long":"126.74970866","imageIndex":17,"items":[{"name":"일산냉동","tel":"031-975-0460","addr":"경기도 파주시 야당동 1023번지 한빛마을6단지","indutype":"용역 서비스 - 기타용역서비스","category":"other"}]},{"lat":"37.713154964","long":"126.75055366","imageIndex":17,"items":[{"name":"일산유통","tel":"","addr":"경기도 파주시 야당동 975번지 한빛마을3단지자유로아이파크","indutype":"유통업 영리 - 기타유통업","category":"other"}]},{"lat":"37.712903434","long":"126.76388024","imageIndex":17,"items":[{"name":"일성테크","tel":"031-943-0014","addr":"경기도 파주시 야당동 192-16 외1가동","indutype":"기타 - 기계공구","category":"other"}]},{"lat":"37.723011124","long":"126.77240009","imageIndex":17,"items":[{"name":"일신상사","tel":"","addr":"경기도 파주시 야당동 4-8","indutype":"기타 - 기타 전문점","category":"other"}]},{"lat":"37.720820438","long":"126.76715541","imageIndex":17,"items":[{"name":"잉크트리","tel":"031-944-0081","addr":"경기도 파주시 야당동 45-87번지","indutype":"사무통신 - 기타 사무용품","category":"other"}]},{"lat":"37.717792634","long":"126.77140683","imageIndex":17,"items":[{"name":"제네시스","tel":"031-943-7330","addr":"경기도 파주시 야당동 62-8번지","indutype":"주방용구 - 주방용구","category":"other"}]},{"lat":"37.71015516","long":"126.76370762","imageIndex":17,"items":[{"name":"젠클래식(파주)","tel":"031-941-9242","addr":"경기도 파주시 야당동 178-23번지","indutype":"직물 - 침구·수예점","category":"other"}]},{"lat":"37.704928203","long":"126.75863283","imageIndex":17,"items":[{"name":"조은타일","tel":"031-947-8904","addr":"경기도 파주시 야당동 486-25번지","indutype":"건축자재 - 인테리어전문","category":"other"}]},{"lat":"37.710178633","long":"126.76196109","imageIndex":17,"items":[{"name":"좋은소리 조은악기","tel":"031-948-8897","addr":"경기도 파주시 야당동 422-10번지","indutype":"레져용품 - 악기점","category":"other"}]},{"lat":"37.715535524","long":"126.76451825","imageIndex":17,"items":[{"name":"주식회사 다르지오(DARUGIO Co.,Ltd.)","tel":"031-1688-2327","addr":"경기도 파주시 야당동 226-16번지","indutype":"신변잡화 - 기타잡화","category":"other"}]},{"lat":"37.708457119","long":"126.76607188","imageIndex":17,"items":[{"name":"주식회사 베드에프","tel":"031-943-7035","addr":"경기도 파주시 야당동 158-39번지","indutype":"가구 - 일반가구","category":"other"}]},{"lat":"37.703955455","long":"126.7587721","imageIndex":17,"items":[{"name":"주식회사 성호전기조명","tel":"031-924-6999","addr":"경기도 파주시 야당동 474-8번지","indutype":"전기제품 - 기타전기제품","category":"other"}]},{"lat":"37.716095396","long":"126.76515159","imageIndex":17,"items":[{"name":"주식회사 올스테이지(All Stage Co.,Ltd)","tel":"031-943-4353","addr":"경기도 파주시 야당동 230-1번지","indutype":"전기제품 - 가전제품","category":"other"}]},{"lat":"37.720146873","long":"126.76823505","imageIndex":17,"items":[{"name":"주식회사 원기획","tel":"02-515-8836","addr":"경기도 파주시 야당동 45-70번지","indutype":"용역 서비스 - 종합용역","category":"other"}]},{"lat":"37.710958414","long":"126.75998527","imageIndex":17,"items":[{"name":"주식회사 지엘에스에듀","tel":"031-926-3155","addr":"경기도 파주시 야당동 1059번지","indutype":"용역 서비스 - 사무서비스","category":"other"}]},{"lat":"37.718126456","long":"126.76709589","imageIndex":17,"items":[{"name":"주식회사 케이씨엔지니어링","tel":"031-8071-1999","addr":"경기도 파주시 야당동 239-115번지","indutype":"용역 서비스 - 기타용역서비스","category":"other"}]},{"lat":"37.717259701","long":"126.76617996","imageIndex":17,"items":[{"name":"주식회사 콤마앤콤마운정","tel":"070-8161-2404","addr":"경기도 파주시 야당동 240-4번지","indutype":"레져용품 - 스포츠·레져용품","category":"other"},{"name":"주식회사 한기련렌터카","tel":"031-941-0258","addr":"경기도 파주시 야당동 240-4번지","indutype":"여행 - 렌터카","category":"other"}]},{"lat":"37.719953023","long":"126.77043603","imageIndex":17,"items":[{"name":"주식회사 하나리테일","tel":"","addr":"경기도 파주시 야당동 52-9번지","indutype":"의류 - 정장","category":"other"}]},{"lat":"37.710015951","long":"126.76615764","imageIndex":17,"items":[{"name":"주식회사 홀츠클로츠","tel":"031-949-4102","addr":"경기도 파주시 야당동 170-4번지","indutype":"주방용구 - 주방용구","category":"other"}]},{"lat":"37.710816728","long":"126.76562208","imageIndex":17,"items":[{"name":"주식회사예리야","tel":"031-947-4087","addr":"경기도 파주시 야당동 182-1번지","indutype":"의류 - 단체복","category":"other"}]},{"lat":"37.715497826","long":"126.75072717","imageIndex":17,"items":[{"name":"준넷트웍","tel":"","addr":"경기도 파주시 야당동 982번지 한빛마을2단지휴먼빌레이크팰리스","indutype":"사무통신 - 사무용 OA기기","category":"other"}]},{"lat":"37.716583134","long":"126.75696138","imageIndex":17,"items":[{"name":"차영규리베","tel":"031-916-3431","addr":"경기도 파주시 야당동 991번지 한빛마을5단지캐슬앤칸타빌","indutype":"회원제형태 - 기타1","category":"other"}]},{"lat":"37.709347589","long":"126.75655435","imageIndex":17,"items":[{"name":"차차그라운드","tel":"","addr":"경기도 파주시 야당동 1031번지 휴먼시아한빛마을","indutype":"신변잡화 - 가방","category":"other"}]},{"lat":"37.720402495","long":"126.76541003","imageIndex":17,"items":[{"name":"창명조형","tel":"031-957-6982","addr":"경기도 파주시 야당동 258번지","indutype":"용역 서비스 - 기타용역서비스","category":"other"}]},{"lat":"37.716651464","long":"126.76390223","imageIndex":17,"items":[{"name":"창조C.P.Co","tel":"031-944-2976","addr":"경기도 파주시 야당동 248-1번지","indutype":"용역 서비스 - 기타용역서비스","category":"other"}]},{"lat":"37.717952271","long":"126.76559932","imageIndex":17,"items":[{"name":"천기수국","tel":"","addr":"경기도 파주시 야당동 240-93번지","indutype":"기타 - 비영리/대상","category":"other"}]},{"lat":"37.715220264","long":"126.74734838","imageIndex":17,"items":[{"name":"청우","tel":"","addr":"경기도 파주시 야당동 981번지 한빛마을1단지한라비발디센트럴파크","indutype":"의류 - 정장","category":"other"}]},{"lat":"37.707961663","long":"126.75300943","imageIndex":17,"items":[{"name":"청정실업","tel":"031-949-5377","addr":"경기도 파주시 야당동 1026번지 한빛마을7단지","indutype":"회원제형태 - 기타1","category":"other"}]},{"lat":"37.708545501","long":"126.75216828","imageIndex":17,"items":[{"name":"총각네에어컨","tel":"","addr":"경기도 파주시 야당동 1026번지 한빛마을7단지","indutype":"용역 서비스 - 기타용역서비스","category":"other"}]},{"lat":"37.706290323","long":"126.76384478","imageIndex":17,"items":[{"name":"카갤러리","tel":"070-8158-9508","addr":"경기도 파주시 야당동 153-38번지 청우하이츠","indutype":"용역 서비스 - 사무서비스","category":"other"}]},{"lat":"37.713898857","long":"126.74873654","imageIndex":17,"items":[{"name":"카미","tel":"","addr":"경기도 파주시 야당동 1000-5번지","indutype":"의류 - 정장","category":"other"}]},{"lat":"37.720929775","long":"126.76776754","imageIndex":17,"items":[{"name":"캐리어코리아","tel":"031-942-0544","addr":"경기도 파주시 야당동 45-97","indutype":"수리서비스 - 기타수리서비스","category":"other"}]},{"lat":"37.709466345","long":"126.75733646","imageIndex":17,"items":[{"name":"캔들 드본","tel":"","addr":"경기도 파주시 야당동 1031번지 휴먼시아한빛마을","indutype":"신변잡화 - 액세서리","category":"other"}]},{"lat":"37.715266131","long":"126.76496143","imageIndex":17,"items":[{"name":"캣츠24","tel":"02-2666-5119","addr":"경기도 파주시 야당동 226-75번지","indutype":"문화.취미 - 애완동물","category":"other"}]},{"lat":"37.708109439","long":"126.75048004","imageIndex":17,"items":[{"name":"컴퓨터 서비스","tel":"031-919-2016","addr":"경기도 파주시 야당동 1026번지 한빛마을7단지","indutype":"사무통신 - 컴퓨터","category":"other"}]},{"lat":"37.709036804","long":"126.76313285","imageIndex":17,"items":[{"name":"코봉이가구대통령","tel":"031-916-0350","addr":"경기도 파주시 야당동 423-16번지","indutype":"가구 - 일반가구","category":"other"}]},{"lat":"37.70865369","long":"126.75647727","imageIndex":17,"items":[{"name":"코카온","tel":"070-4025-2782","addr":"경기도 파주시 야당동 1031번지 휴먼시아한빛마을","indutype":"용역 서비스 - 소프트웨어","category":"other"}]},{"lat":"37.707344738","long":"126.76398882","imageIndex":17,"items":[{"name":"코코넬데코","tel":"070-4192-8880","addr":"경기도 파주시 야당동 153-1번지","indutype":"가구 - 일반가구","category":"other"}]},{"lat":"37.709234783","long":"126.76301881","imageIndex":17,"items":[{"name":"콜린","tel":"031-942-2107","addr":"경기도 파주시 야당동 178-32번지","indutype":"가구 - 일반가구","category":"other"}]},{"lat":"37.710457368","long":"126.74881634","imageIndex":17,"items":[{"name":"쿤니들","tel":"000-0000-0000","addr":"경기도 파주시 야당동 1023번지 한빛마을6단지","indutype":"신변잡화 - 액세서리","category":"other"}]},{"lat":"37.709377714","long":"126.7495118","imageIndex":17,"items":[{"name":"크린 에어컨","tel":"031-8070-7597","addr":"경기도 파주시 야당동 1023번지 한빛마을6단지","indutype":"회원제형태 - 기타4","category":"other"}]},{"lat":"37.709987417","long":"126.76540925","imageIndex":17,"items":[{"name":"크린에이드 야당점","tel":"031-946-6206","addr":"경기도 파주시 야당동 178-119번지","indutype":"수리서비스 - 세탁소","category":"other"}]},{"lat":"37.710179027","long":"126.76215388","imageIndex":17,"items":[{"name":"크린토피아 코인워시 파주야당역점","tel":"031-947-0113","addr":"경기도 파주시 야당동 178-3번지","indutype":"수리서비스 - 세탁소","category":"other"}]},{"lat":"37.720042822","long":"126.76576279","imageIndex":17,"items":[{"name":"키즈비전","tel":"031-948-6272","addr":"경기도 파주시 야당동 257번지 외1필지","indutype":"서적문구 - 기타서적문구","category":"other"}]},{"lat":"37.722542141","long":"126.772152","imageIndex":17,"items":[{"name":"탑 플라워","tel":"070-4210-0947","addr":"경기도 파주시 야당동 5-17번지","indutype":"문화.취미 - 화원","category":"other"}]},{"lat":"37.724563945","long":"126.7694348","imageIndex":17,"items":[{"name":"태산종합광고","tel":"031-945-4243","addr":"경기도 파주시 야당동 25-30번지","indutype":"건축자재 - 인테리어전문","category":"other"}]},{"lat":"37.715148535","long":"126.75596808","imageIndex":17,"items":[{"name":"태영코리아","tel":"031-949-8726","addr":"경기도 파주시 야당동 991번지 한빛마을5단지캐슬앤칸타빌","indutype":"유통업 영리 - 기타유통업","category":"other"}]},{"lat":"37.708986513","long":"126.76499285","imageIndex":17,"items":[{"name":"트윈스홈갤러리","tel":"031-957-8792","addr":"경기도 파주시 야당동 158-48번지","indutype":"가구 - 일반가구","category":"other"}]},{"lat":"37.703765903","long":"126.75860263","imageIndex":17,"items":[{"name":"티마트","tel":"031-949-2979","addr":"경기도 파주시 야당동 474-12번지","indutype":"서적문구 - 완구점","category":"other"}]},{"lat":"37.711052607","long":"126.74909783","imageIndex":17,"items":[{"name":"파운데이션","tel":"070-4197-3303","addr":"경기도 파주시 야당동 1023번지 한빛마을6단지","indutype":"의류 - 아동의류","category":"other"}]},{"lat":"37.707623527","long":"126.76373844","imageIndex":17,"items":[{"name":"파주공방","tel":"031-944-5854","addr":"경기도 파주시 야당동 155-11번지","indutype":"가구 - 일반가구","category":"other"}]},{"lat":"37.723596054","long":"126.77204665","imageIndex":17,"items":[{"name":"파주디지털OA","tel":"031-8071-3577","addr":"경기도 파주시 야당동 4-16번지","indutype":"사무통신 - 사무용 OA기기","category":"other"},{"name":"한진이엔지주식회사","tel":"031-3209-2577","addr":"경기도 파주시 야당동 4-16번지","indutype":"건축자재 - 기타건축자재","category":"other"}]},{"lat":"37.715837136","long":"126.75352737","imageIndex":17,"items":[{"name":"파주우리정보","tel":"031-944-7751","addr":"경기도 파주시 야당동 982번지 한빛마을2단지휴먼빌레이크팰리스","indutype":"회원제형태 - 기타1","category":"other"}]},{"lat":"37.708647662","long":"126.76674035","imageIndex":17,"items":[{"name":"팩트디자인하우스","tel":"031-957-8837","addr":"경기도 파주시 야당동 158-13번지","indutype":"가구 - 일반가구","category":"other"}]},{"lat":"37.724590636","long":"126.76926457","imageIndex":17,"items":[{"name":"퍼스트스텝","tel":"031-1111-1111","addr":"경기도 파주시 야당동 25-29번지","indutype":"신변잡화 - 기타잡화","category":"other"}]},{"lat":"37.708985941","long":"126.76470934","imageIndex":17,"items":[{"name":"포에스퍼니처","tel":"031-942-0267","addr":"경기도 파주시 야당동 176-6번지","indutype":"가구 - 일반가구","category":"other"}]},{"lat":"37.710539292","long":"126.76209601","imageIndex":17,"items":[{"name":"포코앤루시(POCO&LUCI)","tel":"031-000-0000","addr":"경기도 파주시 야당동 421-4번지 스페이스","indutype":"문화.취미 - 애완동물","category":"other"}]},{"lat":"37.708086015","long":"126.75216983","imageIndex":17,"items":[{"name":"푸른마을백석지부","tel":"070-7012-1354","addr":"경기도 파주시 야당동 1026번지 한빛마을7단지","indutype":"용역 서비스 - 종합용역","category":"other"}]},{"lat":"37.708613778","long":"126.75038761","imageIndex":17,"items":[{"name":"프리저브드가든","tel":"070-8253-3466","addr":"경기도 파주시 야당동 1026번지 한빛마을7단지","indutype":"회원제형태 - 기타4","category":"other"}]},{"lat":"37.710683702","long":"126.76667719","imageIndex":17,"items":[{"name":"피엔에스","tel":"070-7012-5575","addr":"경기도 파주시 야당동 183-10","indutype":"용역 서비스 - 소프트웨어","category":"other"}]},{"lat":"37.716925734","long":"126.7658748","imageIndex":17,"items":[{"name":"하나스튜디오","tel":"031-000-0000","addr":"경기도 파주시 야당동 240-39번지","indutype":"문화.취미 - 문화취미기타","category":"other"}]},{"lat":"37.711670695","long":"126.75163607","imageIndex":17,"items":[{"name":"하우돈왕","tel":"031-942-6433","addr":"경기도 파주시 야당동 975번지 한빛마을3단지자유로아이파크","indutype":"회원제형태 - 기타4","category":"other"}]},{"lat":"37.711403259","long":"126.76607384","imageIndex":17,"items":[{"name":"하우스코디","tel":"031-947-6416","addr":"경기도 파주시 야당동 183-3번지","indutype":"신변잡화 - 기타잡화","category":"other"}]},{"lat":"37.708706646","long":"126.76471023","imageIndex":17,"items":[{"name":"하이런갤러리","tel":"031-949-1420","addr":"경기도 파주시 야당동 158-5번지","indutype":"가구 - 일반가구","category":"other"}]},{"lat":"37.712984635","long":"126.76393669","imageIndex":17,"items":[{"name":"한라복층유리","tel":"031-947-6982","addr":"경기도 파주시 야당동 192-20 라마동","indutype":"건축자재 - 유리","category":"other"}]},{"lat":"37.716359784","long":"126.75357099","imageIndex":17,"items":[{"name":"한빛다육","tel":"031-947-6810","addr":"경기도 파주시 야당동 982번지 한빛마을2단지휴먼빌레이크팰리스","indutype":"문화.취미 - 화원","category":"other"}]},{"lat":"37.704815156","long":"126.75626318","imageIndex":17,"items":[{"name":"한소망기독서점","tel":"031-941-9970","addr":"경기도 파주시 야당동 486-7 한소망교회1층청소년독서실내","indutype":"서적문구 - 전문서적","category":"other"}]},{"lat":"37.715737638","long":"126.766457","imageIndex":17,"items":[{"name":"한진산업","tel":"031-941-0124","addr":"경기도 파주시 야당동 231-1번지","indutype":"신변잡화 - 기타잡화","category":"other"}]},{"lat":"37.708627857","long":"126.76141043","imageIndex":17,"items":[{"name":"해성광고기획","tel":"031-912-1077","addr":"경기도 파주시 야당동 427-6","indutype":"용역 서비스 - 종합용역","category":"other"}]},{"lat":"37.709013976","long":"126.76520823","imageIndex":17,"items":[{"name":"허밍트리","tel":"031-941-0176","addr":"경기도 파주시 야당동 158-41번지","indutype":"가구 - 일반가구","category":"other"}]},{"lat":"37.706871091","long":"126.76146149","imageIndex":17,"items":[{"name":"허브마을","tel":"031-941-8506","addr":"경기도 파주시 야당동 469-5","indutype":"신변잡화 - 기타잡화","category":"other"}]},{"lat":"37.70919046","long":"126.75041967","imageIndex":17,"items":[{"name":"헤븐 플라워 카페","tel":"","addr":"경기도 파주시 야당동 1026번지 한빛마을7단지","indutype":"문화.취미 - 문화취미기타","category":"other"}]},{"lat":"37.71695617","long":"126.76757595","imageIndex":17,"items":[{"name":"현대종합약품","tel":"031-943-9371","addr":"경기도 파주시 야당동 239번지","indutype":"신변잡화 - 기타잡화","category":"other"}]},{"lat":"37.713459096","long":"126.76243814","imageIndex":17,"items":[{"name":"혜성프라스틱","tel":"031-948-2884","addr":"경기도 파주시 야당동 421-24번지","indutype":"전기제품 - 기타전기제품","category":"other"}]},{"lat":"37.715538999","long":"126.76179629","imageIndex":17,"items":[{"name":"호텔시에나W","tel":"031-943-7260","addr":"경기도 파주시 야당동 1081-2번지","indutype":"용역 서비스 - 종합용역","category":"other"}]},{"lat":"37.718174992","long":"126.76435101","imageIndex":17,"items":[{"name":"화문서적","tel":"031-8071-4229","addr":"경기도 파주시 야당동 253-26번지","indutype":"서적문구 - 전문서적","category":"other"}]},{"lat":"37.706009277","long":"126.76298384","imageIndex":4,"items":[{"name":"(주)디오에이치/울디웨스턴돔점","tel":"070-4714-0672","addr":"경기도 파주시 야당동 147-51번지","indutype":"일반휴게음식 - 일반한식","category":"restaurant"}]},{"lat":"37.713733253","long":"126.75993085","imageIndex":4,"items":[{"name":"24시전주명가콩나물국밥","tel":"031-8071-2185","addr":"경기도 파주시 야당동 1070번지","indutype":"일반휴게음식 - 일반한식","category":"restaurant"},{"name":"더스파 한식당","tel":"031-942-2005","addr":"경기도 파주시 야당동 1070번지","indutype":"일반휴게음식 - 일반한식","category":"restaurant"},{"name":"맘스터치 야당역점","tel":"031-943-8080","addr":"경기도 파주시 야당동 1070번지","indutype":"일반휴게음식 - 서양음식","category":"restaurant"},{"name":"소담치킨","tel":"031-907-5019","addr":"경기도 파주시 야당동 1070번지","indutype":"일반휴게음식 - 일반한식","category":"restaurant"},{"name":"양평해장국 야당점","tel":"031-942-2599","addr":"경기도 파주시 야당동 1070번지","indutype":"일반휴게음식 - 일반한식","category":"restaurant"},{"name":"이디야커피야당역점","tel":"031-949-0982","addr":"경기도 파주시 야당동 1070번지","indutype":"일반휴게음식 - 서양음식","category":"restaurant"},{"name":"장혁민의부대찌개","tel":"031-957-7333","addr":"경기도 파주시 야당동 1070번지","indutype":"일반휴게음식 - 일반한식","category":"restaurant"}]},{"lat":"37.72470356","long":"126.76715445","imageIndex":4,"items":[{"name":"32공방","tel":"031-947-6757","addr":"경기도 파주시 야당동 295-9번지","indutype":"일반휴게음식 - 일반한식","category":"restaurant"},{"name":"회싸나이","tel":"031-941-6292","addr":"경기도 파주시 야당동 295-9번지","indutype":"일반휴게음식 - 일식·회집","category":"restaurant"}]},{"lat":"37.716536031","long":"126.76031865","imageIndex":4,"items":[{"name":"3번가","tel":"031-000-0000","addr":"경기도 파주시 야당동 1076번지","indutype":"일반휴게음식 - 주점","category":"restaurant"},{"name":"뉴욕 1990","tel":"","addr":"경기도 파주시 야당동 1076번지","indutype":"일반휴게음식 - 서양음식","category":"restaurant"},{"name":"주식회사 카페제이콥 (cafe jacob)","tel":"031-939-1194","addr":"경기도 파주시 야당동 1076번지","indutype":"일반휴게음식 - 서양음식","category":"restaurant"},{"name":"주식회사 카페제이콥(cafe jacob)","tel":"031-939-1194","addr":"경기도 파주시 야당동 1076번지","indutype":"일반휴게음식 - 서양음식","category":"restaurant"},{"name":"주키니","tel":"","addr":"경기도 파주시 야당동 1076번지","indutype":"일반휴게음식 - 일반한식","category":"restaurant"},{"name":"헬로퍼피","tel":"031-111-1111","addr":"경기도 파주시 야당동 1076번지","indutype":"일반휴게음식 - 서양음식","category":"restaurant"}]},{"lat":"37.710345322","long":"126.7597718","imageIndex":4,"items":[{"name":"65도씨 닭한마리","tel":"031-948-8239","addr":"경기도 파주시 야당동 1054번지","indutype":"일반휴게음식 - 일반한식","category":"restaurant"},{"name":"계림원 누릉지통닭 야당역점","tel":"031-941-9250","addr":"경기도 파주시 야당동 1054번지","indutype":"일반휴게음식 - 스넥","category":"restaurant"},{"name":"국수나무","tel":"031-945-1944","addr":"경기도 파주시 야당동 1054번지","indutype":"일반휴게음식 - 일반한식","category":"restaurant"},{"name":"대한맥주집 파주야당점","tel":"","addr":"경기도 파주시 야당동 1054번지","indutype":"일반휴게음식 - 주점","category":"restaurant"},{"name":"올바른옛날통닭파주야당점","tel":"031-925-9994","addr":"경기도 파주시 야당동 1054번지","indutype":"일반휴게음식 - 스넥","category":"restaurant"},{"name":"짝태랑노가리 야당점","tel":"070-5121-6771","addr":"경기도 파주시 야당동 1054번지","indutype":"일반휴게음식 - 일반한식","category":"restaurant"},{"name":"할리스커피 파주야당역점","tel":"031-946-4823","addr":"경기도 파주시 야당동 1054번지","indutype":"일반휴게음식 - 서양음식","category":"restaurant"},{"name":"호수꼬치(야당역점)","tel":"031-945-8295","addr":"경기도 파주시 야당동 1054번지","indutype":"일반휴게음식 - 일반한식","category":"restaurant"}]},{"lat":"37.724704625","long":"126.76768756","imageIndex":4,"items":[{"name":"7080뼈다귀감자탕","tel":"031-944-5063","addr":"경기도 파주시 야당동 296-4번지","indutype":"일반휴게음식 - 일반한식","category":"restaurant"},{"name":"역전포차","tel":"031-942-4875","addr":"경기도 파주시 야당동 296-4번지","indutype":"일반휴게음식 - 일반한식","category":"restaurant"}]},{"lat":"37.70773195","long":"126.75948549","imageIndex":4,"items":[{"name":"79치킨","tel":"031-941-7978","addr":"경기도 파주시 야당동 1048-1번지","indutype":"일반휴게음식 - 스넥","category":"restaurant"},{"name":"페이지/(주)하베스트코리아 파주운정야당지","tel":"","addr":"경기도 파주시 야당동 1048-1번지","indutype":"일반휴게음식 - 서양음식","category":"restaurant"},{"name":"페이지카페","tel":"031-941-7955","addr":"경기도 파주시 야당동 1048-1번지","indutype":"일반휴게음식 - 서양음식","category":"restaurant"}]},{"lat":"37.715429087","long":"126.75229253","imageIndex":4,"items":[{"name":"8800 켄터키치킨 한빛마을점","tel":"031-947-8892","addr":"경기도 파주시 야당동 982번지 한빛마을2단지휴먼빌레이크팰리스","indutype":"일반휴게음식 - 스넥","category":"restaurant"},{"name":"카노떡볶이","tel":"031-944-3676","addr":"경기도 파주시 야당동 982번지","indutype":"일반휴게음식 - 스넥","category":"restaurant"},{"name":"커피에 반하다(문정호수공원점)","tel":"031-549-1826","addr":"경기도 파주시 야당동 982번지 한빛마을2단지휴먼빌레이크팰리스","indutype":"일반휴게음식 - 서양음식","category":"restaurant"},{"name":"풍성호 운정한빛점","tel":"031-503-8018","addr":"경기도 파주시 야당동 982번지","indutype":"일반휴게음식 - 서양음식","category":"restaurant"},{"name":"피자마루 운정한빛점","tel":"031-944-1082","addr":"경기도 파주시 야당동 982번지 한빛마을2단지휴먼빌레이크팰리스","indutype":"일반휴게음식 - 일반한식","category":"restaurant"}]},{"lat":"37.709349856","long":"126.74912631","imageIndex":4,"items":[{"name":"BHC운정한빛점","tel":"031-957-9282","addr":"경기도 파주시 야당동 1023번지 한빛마을6단지","indutype":"일반휴게음식 - 일반한식","category":"restaurant"},{"name":"어원수산","tel":"031-946-7974","addr":"경기도 파주시 야당동 1023번지 한빛마을6단지","indutype":"일반휴게음식 - 일반한식","category":"restaurant"},{"name":"추억의옛날통닭","tel":"031-943-9244","addr":"경기도 파주시 야당동 1023번지 한빛마을6단지","indutype":"일반휴게음식 - 일반한식","category":"restaurant"}]},{"lat":"37.716094215","long":"126.76014997","imageIndex":4,"items":[{"name":"M(2호점)","tel":"070-7715-0379","addr":"경기도 파주시 야당동 1074번지","indutype":"일반휴게음식 - 일반한식","category":"restaurant"},{"name":"밥상차리는이모","tel":"031-953-8944","addr":"경기도 파주시 야당동 1074번지","indutype":"일반휴게음식 - 일반한식","category":"restaurant"},{"name":"엠카페","tel":"070-7715-0379","addr":"경기도 파주시 야당동 1074번지","indutype":"일반휴게음식 - 서양음식","category":"restaurant"},{"name":"엠카페(Mcafe)","tel":"070-7715-0379","addr":"경기도 파주시 야당동 1074번지","indutype":"일반휴게음식 - 서양음식","category":"restaurant"},{"name":"직화쭈꾸미하우스","tel":"031-947-0089","addr":"경기도 파주시 야당동 1074번지","indutype":"일반휴게음식 - 일반한식","category":"restaurant"}]},{"lat":"37.712288851","long":"126.76292958","imageIndex":4,"items":[{"name":"가마솥다주밥상","tel":"031-948-5953","addr":"경기도 파주시 야당동 192-2번지 벨라타운","indutype":"일반휴게음식 - 일반한식","category":"restaurant"},{"name":"서울뚝배기","tel":"031-000-0000","addr":"경기도 파주시 야당동 192-2번지 벨라타운","indutype":"일반휴게음식 - 일반한식","category":"restaurant"}]},{"lat":"37.710570735","long":"126.75126554","imageIndex":4,"items":[{"name":"가온족발보쌈","tel":"031-945-6778","addr":"경기도 파주시 야당동 1006-6번지","indutype":"일반휴게음식 - 일반한식","category":"restaurant"},{"name":"운정족발","tel":"031-949-4800","addr":"경기도 파주시 야당동 1006-6번지","indutype":"일반휴게음식 - 일반한식","category":"restaurant"},{"name":"짬뽕팩토리","tel":"031-945-1005","addr":"경기도 파주시 야당동 1006-6번지","indutype":"일반휴게음식 - 중국식","category":"restaurant"},{"name":"호치킨 파주 운정 야당점","tel":"031-946-5727","addr":"경기도 파주시 야당동 1006-6번지","indutype":"일반휴게음식 - 스넥","category":"restaurant"}]},{"lat":"37.709208814","long":"126.76354055","imageIndex":4,"items":[{"name":"감내토종닭","tel":"031-947-9275","addr":"경기도 파주시 야당동 423-10번지","indutype":"일반휴게음식 - 일반한식","category":"restaurant"}]},{"lat":"37.715265222","long":"126.76009597","imageIndex":4,"items":[{"name":"강순자옛맛김치찌개","tel":"031-949-5578","addr":"경기도 파주시 야당동 1074-2번지","indutype":"일반휴게음식 - 일반한식","category":"restaurant"},{"name":"강순자옛맛김치찌개 야당역점","tel":"031-949-5578","addr":"경기도 파주시 야당동 1074-2번지","indutype":"일반휴게음식 - 일반한식","category":"restaurant"},{"name":"명품7080","tel":"070-8874-4993","addr":"경기도 파주시 야당동 1074-2번지","indutype":"일반휴게음식 - 일반한식","category":"restaurant"},{"name":"쇼우","tel":"031-948-1306","addr":"경기도 파주시 야당동 1074-2번지","indutype":"일반휴게음식 - 일식·회집","category":"restaurant"},{"name":"하오판다","tel":"032-1111-1111","addr":"경기도 파주시 야당동 1074-2번지","indutype":"일반휴게음식 - 중국식","category":"restaurant"},{"name":"한솥도시락 파주야당역1호점","tel":"031-944-0155","addr":"경기도 파주시 야당동 1074-2번지","indutype":"일반휴게음식 - 일반한식","category":"restaurant"}]},{"lat":"37.708537513","long":"126.75693127","imageIndex":4,"items":[{"name":"고스트피자","tel":"031-949-5249","addr":"경기도 파주시 야당동 1031번지","indutype":"일반휴게음식 - 서양음식","category":"restaurant"},{"name":"디어커피 DEAR COFFEE","tel":"031-941-8853","addr":"경기도 파주시 야당동 1031번지","indutype":"일반휴게음식 - 서양음식","category":"restaurant"},{"name":"왕순이주먹밥김밥","tel":"031-948-6900","addr":"경기도 파주시 야당동 1031번지","indutype":"일반휴게음식 - 일반한식","category":"restaurant"}]},{"lat":"37.709793535","long":"126.76309639","imageIndex":4,"items":[{"name":"고양한우 돼지한마리","tel":"031-8071-2245","addr":"경기도 파주시 야당동 178-11번지 일신설비 나동","indutype":"일반휴게음식 - 일반한식","category":"restaurant"},{"name":"참고을누룽지통닭구이전문점","tel":"031-946-4850","addr":"경기도 파주시 야당동 178-11번지","indutype":"일반휴게음식 - 일반한식","category":"restaurant"}]},{"lat":"37.712120829","long":"126.7600722","imageIndex":4,"items":[{"name":"고향옥얼큰순대국","tel":"031-947-9270","addr":"경기도 파주시 야당동 1063번지","indutype":"일반휴게음식 - 일반한식","category":"restaurant"},{"name":"더첸","tel":"031-944-9469","addr":"경기도 파주시 야당동 1063번지","indutype":"일반휴게음식 - 중국식","category":"restaurant"},{"name":"투플레이스","tel":"031-948-1239","addr":"경기도 파주시 야당동 1063번지","indutype":"일반휴게음식 - 주점","category":"restaurant"},{"name":"파주한식뷔페","tel":"031-947-6647","addr":"경기도 파주시 야당동 1063번지","indutype":"일반휴게음식 - 일반한식","category":"restaurant"}]},{"lat":"37.712209896","long":"126.75957291","imageIndex":4,"items":[{"name":"곱창고","tel":"031-941-7373","addr":"경기도 파주시 야당동 1066-3번지","indutype":"일반휴게음식 - 일반한식","category":"restaurant"},{"name":"오늘은화난쭈꾸미","tel":"031-942-2626","addr":"경기도 파주시 야당동 1066-3번지","indutype":"일반휴게음식 - 일반한식","category":"restaurant"},{"name":"육회품은돼지","tel":"031-946-5002","addr":"경기도 파주시 야당동 1066-3번지","indutype":"일반휴게음식 - 일반한식","category":"restaurant"},{"name":"청담이상 운정점","tel":"031-944-0945","addr":"경기도 파주시 야당동 1066-3번지","indutype":"일반휴게음식 - 일반한식","category":"restaurant"},{"name":"크라운호프 파주야당점","tel":"031-949-2226","addr":"경기도 파주시 야당동 1066-3번지","indutype":"일반휴게음식 - 주점","category":"restaurant"}]},{"lat":"37.714427173","long":"126.76001931","imageIndex":4,"items":[{"name":"곱창이야기","tel":"","addr":"경기도 파주시 야당동 1072-1번지","indutype":"일반휴게음식 - 일반한식","category":"restaurant"},{"name":"메가엠지씨야당역점","tel":"","addr":"경기도 파주시 야당동 1072-1번지","indutype":"일반휴게음식 - 서양음식","category":"restaurant"},{"name":"메밀꽃","tel":"031-942-1068","addr":"경기도 파주시 야당동 1072-1번지","indutype":"일반휴게음식 - 일반한식","category":"restaurant"},{"name":"명가진참치","tel":"031-935-6511","addr":"경기도 파주시 야당동 1072-1번지","indutype":"일반휴게음식 - 일식·회집","category":"restaurant"},{"name":"미가편백 운정직영점","tel":"031-939-0929","addr":"경기도 파주시 야당동 1072-1번지","indutype":"일반휴게음식 - 일반한식","category":"restaurant"},{"name":"북창동순두부 야당역점","tel":"","addr":"경기도 파주시 야당동 1072-1번지","indutype":"일반휴게음식 - 일반한식","category":"restaurant"},{"name":"브런치빈","tel":"","addr":"경기도 파주시 야당동 1072-1번지","indutype":"일반휴게음식 - 서양음식","category":"restaurant"},{"name":"브루웍스 야당역점","tel":"","addr":"경기도 파주시 야당동 1072-1번지","indutype":"일반휴게음식 - 일반한식","category":"restaurant"},{"name":"유가네닭갈비 파주야당역점","tel":"031-926-3399","addr":"경기도 파주시 야당동 1072-1번지","indutype":"일반휴게음식 - 일반한식","category":"restaurant"},{"name":"진삿포로","tel":"031-926-3445","addr":"경기도 파주시 야당동 1072-1번지","indutype":"일반휴게음식 - 주점","category":"restaurant"},{"name":"칠칠켄터키","tel":"031-942-7688","addr":"경기도 파주시 야당동 1072-1번지","indutype":"일반휴게음식 - 스넥","category":"restaurant"},{"name":"푸라닭 파주야당역점","tel":"031-942-9206","addr":"경기도 파주시 야당동 1072-1번지","indutype":"일반휴게음식 - 일반한식","category":"restaurant"}]},{"lat":"37.714814303","long":"126.76429374","imageIndex":4,"items":[{"name":"귀찬","tel":"070-4354-8913","addr":"경기도 파주시 야당동 226-36번지","indutype":"일반휴게음식 - 일반한식","category":"restaurant"}]},{"lat":"37.717180343","long":"126.76704218","imageIndex":4,"items":[{"name":"그녀의파스타","tel":"","addr":"경기도 파주시 야당동 240-6번지","indutype":"일반휴게음식 - 일반한식","category":"restaurant"},{"name":"모리 아와세","tel":"","addr":"경기도 파주시 야당동 240-6번지","indutype":"일반휴게음식 - 일식·회집","category":"restaurant"}]},{"lat":"37.710258365","long":"126.76573727","imageIndex":4,"items":[{"name":"기절고기국수","tel":"031-947-5339","addr":"경기도 파주시 야당동 178-92번지","indutype":"일반휴게음식 - 일반한식","category":"restaurant"}]},{"lat":"37.713898392","long":"126.74852106","imageIndex":4,"items":[{"name":"김밥천국","tel":"031-942-5579","addr":"경기도 파주시 야당동 1000-4번지","indutype":"일반휴게음식 - 일반한식","category":"restaurant"},{"name":"신나go","tel":"031-941-1080","addr":"경기도 파주시 야당동 1000-4번지","indutype":"일반휴게음식 - 일반한식","category":"restaurant"},{"name":"우리갈비","tel":"031-947-2229","addr":"경기도 파주시 야당동 1000-4번지","indutype":"일반휴게음식 - 일반한식","category":"restaurant"},{"name":"퀴즈노스 파주운정점","tel":"031-941-3227","addr":"경기도 파주시 야당동 1000-4번지","indutype":"일반휴게음식 - 서양음식","category":"restaurant"}]},{"lat":"37.708182216","long":"126.75938195","imageIndex":4,"items":[{"name":"김밥천국","tel":"031-941-9877","addr":"경기도 파주시 야당동 1048번지","indutype":"일반휴게음식 - 스넥","category":"restaurant"},{"name":"무니베리","tel":"031-940-5831","addr":"경기도 파주시 야당동 1048번지","indutype":"일반휴게음식 - 서양음식","category":"restaurant"},{"name":"영자와병태야","tel":"031-948-9461","addr":"경기도 파주시 야당동 1048번지","indutype":"일반휴게음식 - 일반한식","category":"restaurant"},{"name":"짜장앤짬뽕","tel":"031-946-4333","addr":"경기도 파주시 야당동 1048번지","indutype":"일반휴게음식 - 중국식","category":"restaurant"},{"name":"커피에반하다 유미어스점","tel":"","addr":"경기도 파주시 야당동 1048번지","indutype":"일반휴게음식 - 서양음식","category":"restaurant"},{"name":"파주된장국밥","tel":"","addr":"경기도 파주시 야당동 1048번지","indutype":"일반휴게음식 - 일반한식","category":"restaurant"}]},{"lat":"37.722847374","long":"126.7670469","imageIndex":4,"items":[{"name":"김이닭발","tel":"031-946-1233","addr":"경기도 파주시 야당동 290-1번지","indutype":"일반휴게음식 - 일반한식","category":"restaurant"}]},{"lat":"37.725569312","long":"126.76757139","imageIndex":4,"items":[{"name":"까페쉼표","tel":"031-946-1926","addr":"경기도 파주시 야당동 296-21번지","indutype":"일반휴게음식 - 서양음식","category":"restaurant"},{"name":"아서원","tel":"031-945-3551","addr":"경기도 파주시 야당동 296-21번지","indutype":"일반휴게음식 - 중국식","category":"restaurant"}]},{"lat":"37.704815156","long":"126.75626318","imageIndex":4,"items":[{"name":"까페예스","tel":"031-950-1490","addr":"경기도 파주시 야당동 486-7번지","indutype":"일반휴게음식 - 서양음식","category":"restaurant"}]},{"lat":"37.716736875","long":"126.76604552","imageIndex":4,"items":[{"name":"꽃비공방카페","tel":"031-000-0000","addr":"경기도 파주시 야당동 240-85번지","indutype":"일반휴게음식 - 서양음식","category":"restaurant"}]},{"lat":"37.710265354","long":"126.75170886","imageIndex":4,"items":[{"name":"꽐라포차","tel":"031-957-2442","addr":"경기도 파주시 야당동 1006-8번지","indutype":"일반휴게음식 - 일반한식","category":"restaurant"},{"name":"죠스떡볶이","tel":"031-945-3774","addr":"경기도 파주시 야당동 1006-8번지","indutype":"일반휴게음식 - 스넥","category":"restaurant"},{"name":"죠스떡볶이(파주운정점)","tel":"031-945-3774","addr":"경기도 파주시 야당동 1006-8번지","indutype":"일반휴게음식 - 스넥","category":"restaurant"}]},{"lat":"37.706119994","long":"126.75552176","imageIndex":4,"items":[{"name":"나들목","tel":"031-947-5285","addr":"경기도 파주시 야당동 466-24번지","indutype":"일반휴게음식 - 일반한식","category":"restaurant"},{"name":"아미가그늘집","tel":"031-947-2420","addr":"경기도 파주시 야당동 466-24번지","indutype":"일반휴게음식 - 일반한식","category":"restaurant"},{"name":"아미가원두","tel":"031-942-5001","addr":"경기도 파주시 야당동 466-24 가동2층","indutype":"일반휴게음식 - 일반한식","category":"restaurant"},{"name":"카페700로드","tel":"031-123-4567","addr":"경기도 파주시 야당동 466-24번지","indutype":"일반휴게음식 - 일반한식","category":"restaurant"}]},{"lat":"37.722512613","long":"126.76634473","imageIndex":4,"items":[{"name":"낙지랑 아구랑","tel":"031-947-3880","addr":"경기도 파주시 야당동 45-19번지","indutype":"일반휴게음식 - 일반한식","category":"restaurant"}]},{"lat":"37.711345893","long":"126.76001803","imageIndex":4,"items":[{"name":"낭만포차","tel":"031-111-1111","addr":"경기도 파주시 야당동 1060번지","indutype":"일반휴게음식 - 일반한식","category":"restaurant"},{"name":"삼촌네 석쇠불고기","tel":"031-942-9620","addr":"경기도 파주시 야당동 1060번지","indutype":"일반휴게음식 - 일반한식","category":"restaurant"},{"name":"신 도쿠리","tel":"031-944-6859","addr":"경기도 파주시 야당동 1060번지","indutype":"일반휴게음식 - 주점","category":"restaurant"},{"name":"장수계란말이김밥","tel":"031-949-5082","addr":"경기도 파주시 야당동 1060번지","indutype":"일반휴게음식 - 일반한식","category":"restaurant"},{"name":"촌락","tel":"","addr":"경기도 파주시 야당동 1060번지","indutype":"일반휴게음식 - 일반한식","category":"restaurant"},{"name":"카페드롭탑 야당점","tel":"031-941-1458","addr":"경기도 파주시 야당동 1060번지","indutype":"일반휴게음식 - 서양음식","category":"restaurant"},{"name":"화레무운정점","tel":"031-945-3189","addr":"경기도 파주시 야당동 1060번지","indutype":"일반휴게음식 - 일반한식","category":"restaurant"}]},{"lat":"37.711070093","long":"126.75306704","imageIndex":4,"items":[{"name":"네네치킨운정3점","tel":"031-948-4472","addr":"경기도 파주시 야당동 976번지","indutype":"일반휴게음식 - 스넥","category":"restaurant"},{"name":"아브라함 김밥","tel":"031-944-4577","addr":"경기도 파주시 야당동 976번지","indutype":"일반휴게음식 - 스넥","category":"restaurant"}]},{"lat":"37.710984249","long":"126.75940681","imageIndex":4,"items":[{"name":"노가리세상","tel":"031-945-3374","addr":"경기도 파주시 야당동 1056-2번지","indutype":"일반휴게음식 - 일반한식","category":"restaurant"},{"name":"다루마","tel":"031-000-0000","addr":"경기도 파주시 야당동 1056-2번지","indutype":"일반휴게음식 - 일반한식","category":"restaurant"},{"name":"라이스셰프(rice shef)야당점","tel":"031-946-9883","addr":"경기도 파주시 야당동 1056-2번지","indutype":"일반휴게음식 - 일반한식","category":"restaurant"},{"name":"솜씨","tel":"","addr":"경기도 파주시 야당동 1056-2번지","indutype":"일반휴게음식 - 서양음식","category":"restaurant"},{"name":"썸즈업 (Thumbs up)","tel":"070-5214-0920","addr":"경기도 파주시 야당동 1056-2번지","indutype":"일반휴게음식 - 일반한식","category":"restaurant"}]},{"lat":"37.71047209","long":"126.75148135","imageIndex":4,"items":[{"name":"노걸대감자탕","tel":"031-945-4923","addr":"경기도 파주시 야당동 1006-7번지","indutype":"일반휴게음식 - 일반한식","category":"restaurant"},{"name":"동산만두","tel":"031-8071-1109","addr":"경기도 파주시 야당동 1006-7번지","indutype":"일반휴게음식 - 스넥","category":"restaurant"},{"name":"부어치킨한빛점앤푸드더하기","tel":"031-944-6412","addr":"경기도 파주시 야당동 1006-7번지","indutype":"일반휴게음식 - 일반한식","category":"restaurant"},{"name":"수철이네왕새우Beer운정점","tel":"000-000-0000","addr":"경기도 파주시 야당동 1006-7번지","indutype":"일반휴게음식 - 주점","category":"restaurant"},{"name":"아랑식당","tel":"","addr":"경기도 파주시 야당동 1006-7번지","indutype":"일반휴게음식 - 일반한식","category":"restaurant"}]},{"lat":"37.712480298","long":"126.75962873","imageIndex":4,"items":[{"name":"누나홀닭 야당점","tel":"031-941-8007","addr":"경기도 파주시 야당동 1066-2번지","indutype":"일반휴게음식 - 스넥","category":"restaurant"},{"name":"배부장찌개가(운정신도시점)","tel":"031-000-0000","addr":"경기도 파주시 야당동 1066-2번지","indutype":"일반휴게음식 - 일반한식","category":"restaurant"},{"name":"불타는 대구막창","tel":"070-3794-9001","addr":"경기도 파주시 야당동 1066-2번지","indutype":"일반휴게음식 - 일반한식","category":"restaurant"},{"name":"비앤비클럽(B&B CLUB)","tel":"070-2292-7360","addr":"경기도 파주시 야당동 1066-2번지","indutype":"일반휴게음식 - 주점","category":"restaurant"},{"name":"샵1088","tel":"031-8071-1088","addr":"경기도 파주시 야당동 1066-2번지","indutype":"일반휴게음식 - 서양음식","category":"restaurant"},{"name":"야당골숯불갈비","tel":"0507-1409-4021","addr":"경기도 파주시 야당동 1066-2번지","indutype":"일반휴게음식 - 일반한식","category":"restaurant"},{"name":"청원양꼬치","tel":"031-944-6536","addr":"경기도 파주시 야당동 1066-2번지","indutype":"일반휴게음식 - 일반한식","category":"restaurant"},{"name":"커피에반하다 야당점","tel":"031-947-4143","addr":"경기도 파주시 야당동 1066-2번지","indutype":"일반휴게음식 - 서양음식","category":"restaurant"}]},{"lat":"37.70770602","long":"126.76001857","imageIndex":4,"items":[{"name":"다섬","tel":"","addr":"경기도 파주시 야당동 1044-2번지","indutype":"일반휴게음식 - 일반한식","category":"restaurant"}]},{"lat":"37.714233961","long":"126.76245831","imageIndex":4,"items":[{"name":"단아한블러썸","tel":"02-1111-1111","addr":"경기도 파주시 야당동 224-14번지","indutype":"일반휴게음식 - 서양음식","category":"restaurant"},{"name":"로빈 (Robin)","tel":"031-941-6511","addr":"경기도 파주시 야당동 224-14번지","indutype":"일반휴게음식 - 일반한식","category":"restaurant"}]},{"lat":"37.714871106","long":"126.76565452","imageIndex":4,"items":[{"name":"달그리고","tel":"070-3350-1206","addr":"경기도 파주시 야당동 217-2번지","indutype":"일반휴게음식 - 서양음식","category":"restaurant"},{"name":"죠이엘리","tel":"031-942-8976","addr":"경기도 파주시 야당동 217-2번지","indutype":"일반휴게음식 - 일반한식","category":"restaurant"},{"name":"커픽","tel":"02-1111-1111","addr":"경기도 파주시 야당동 217-2번지","indutype":"일반휴게음식 - 서양음식","category":"restaurant"}]},{"lat":"37.712786669","long":"126.75965041","imageIndex":4,"items":[{"name":"달빛맥주 파주야당역점","tel":"02-1234-1234","addr":"경기도 파주시 야당동 1066-1번지","indutype":"일반휴게음식 - 주점","category":"restaurant"},{"name":"스톰에프엔비","tel":"032-957-6692","addr":"경기도 파주시 야당동 1066-1번지","indutype":"일반휴게음식 - 일반한식","category":"restaurant"},{"name":"오백년누룽지백숙(운정점)","tel":"031-948-9245","addr":"경기도 파주시 야당동 1066-1번지","indutype":"일반휴게음식 - 일반한식","category":"restaurant"},{"name":"파주닭국수운정야당역점","tel":"031-948-7722","addr":"경기도 파주시 야당동 1066-1번지","indutype":"일반휴게음식 - 일반한식","category":"restaurant"}]},{"lat":"37.706456769","long":"126.76151953","imageIndex":4,"items":[{"name":"당진아구 동태찜,탕","tel":"031-948-7123","addr":"경기도 파주시 야당동 469-8번지","indutype":"일반휴게음식 - 일반한식","category":"restaurant"}]},{"lat":"37.717540724","long":"126.76704104","imageIndex":4,"items":[{"name":"대박대패삼겹살","tel":"031-957-0906","addr":"경기도 파주시 야당동 240-18번지","indutype":"일반휴게음식 - 일반한식","category":"restaurant"},{"name":"주식회사 콤마앤콤마","tel":"070-8161-2404","addr":"경기도 파주시 야당동 240-18번지","indutype":"일반휴게음식 - 서양음식","category":"restaurant"}]},{"lat":"37.722791817","long":"126.76629847","imageIndex":4,"items":[{"name":"대박이네","tel":"031-968-3262","addr":"경기도 파주시 야당동 288-8번지","indutype":"일반휴게음식 - 일반한식","category":"restaurant"}]},{"lat":"37.724924482","long":"126.76951307","imageIndex":4,"items":[{"name":"대박집","tel":"031-947-5250","addr":"경기도 파주시 야당동 25-7번지","indutype":"일반휴게음식 - 일반한식","category":"restaurant"}]},{"lat":"37.714787601","long":"126.76004082","imageIndex":4,"items":[{"name":"더 홀릭(The holic)","tel":"","addr":"경기도 파주시 야당동 1072번지","indutype":"일반휴게음식 - 일반한식","category":"restaurant"},{"name":"브로드웨이야당에스티","tel":"02-000-0000","addr":"경기도 파주시 야당동 1072번지","indutype":"일반휴게음식 - 주점","category":"restaurant"},{"name":"소미김밥","tel":"031-943-9433","addr":"경기도 파주시 야당동 1072번지","indutype":"일반휴게음식 - 스넥","category":"restaurant"},{"name":"신현경짬뽕천국(야당본점)","tel":"031-943-5888","addr":"경기도 파주시 야당동 1072번지","indutype":"일반휴게음식 - 중국식","category":"restaurant"},{"name":"에스바","tel":"031-949-0873","addr":"경기도 파주시 야당동 1072번지","indutype":"일반휴게음식 - 일반한식","category":"restaurant"},{"name":"콘파스토 (CON PASTO)","tel":"031-948-7980","addr":"경기도 파주시 야당동 1072번지","indutype":"일반휴게음식 - 서양음식","category":"restaurant"},{"name":"콩밭뜰","tel":"","addr":"경기도 파주시 야당동 1072번지","indutype":"일반휴게음식 - 일반한식","category":"restaurant"},{"name":"쿨참치","tel":"031-949-8822","addr":"경기도 파주시 야당동 1072번지","indutype":"일반휴게음식 - 일식·회집","category":"restaurant"},{"name":"탐앤탐스파주야당역점","tel":"031-957-0770","addr":"경기도 파주시 야당동 1072번지","indutype":"일반휴게음식 - 서양음식","category":"restaurant"}]},{"lat":"37.724730861","long":"126.76729047","imageIndex":4,"items":[{"name":"덴버","tel":"031-947-8959","addr":"경기도 파주시 야당동 295-8번지","indutype":"일반휴게음식 - 일반한식","category":"restaurant"}]},{"lat":"37.724117739","long":"126.77160266","imageIndex":4,"items":[{"name":"돈까스 명인","tel":"031-957-7745","addr":"경기도 파주시 야당동 1-9번지","indutype":"일반휴게음식 - 일반한식","category":"restaurant"}]},{"lat":"37.711458669","long":"126.77129045","imageIndex":4,"items":[{"name":"돔(DOME)112-11","tel":"070-7700-9273","addr":"경기도 파주시 야당동 112-14번지","indutype":"일반휴게음식 - 서양음식","category":"restaurant"}]},{"lat":"37.708481807","long":"126.75187365","imageIndex":4,"items":[{"name":"돼지엄마족발보쌈","tel":"031-946-5512","addr":"경기도 파주시 야당동 1026번지 한빛마을7단지","indutype":"일반휴게음식 - 일반한식","category":"restaurant"},{"name":"주하우스","tel":"031-941-3533","addr":"경기도 파주시 야당동 1026번지 한빛마을7단지","indutype":"일반휴게음식 - 주점","category":"restaurant"},{"name":"커피에반하다 한빛마을점","tel":"031-943-4145","addr":"경기도 파주시 야당동 1026번지 한빛마을7단지","indutype":"일반휴게음식 - 서양음식","category":"restaurant"},{"name":"포차","tel":"070-8070-9930","addr":"경기도 파주시 야당동 1026번지 한빛마을7단지","indutype":"일반휴게음식 - 주점","category":"restaurant"}]},{"lat":"37.711091809","long":"126.75057199","imageIndex":4,"items":[{"name":"두레통닭(야당점)","tel":"031-944-3521","addr":"경기도 파주시 야당동 1006-2번지","indutype":"일반휴게음식 - 스넥","category":"restaurant"},{"name":"두이추","tel":"031-949-4959","addr":"경기도 파주시 야당동 1006-2번지","indutype":"일반휴게음식 - 중국식","category":"restaurant"},{"name":"한우대장간","tel":"031-943-3111","addr":"경기도 파주시 야당동 1006-2번지","indutype":"일반휴게음식 - 일반한식","category":"restaurant"}]},{"lat":"37.724903535","long":"126.76803856","imageIndex":4,"items":[{"name":"둥그리곱창","tel":"031-947-7732","addr":"경기도 파주시 야당동 296-36번지","indutype":"일반휴게음식 - 일반한식","category":"restaurant"}]},{"lat":"37.724813011","long":"126.76782333","imageIndex":4,"items":[{"name":"떡튀순","tel":"031-941-6866","addr":"경기도 파주시 야당동 296-2번지","indutype":"일반휴게음식 - 스넥","category":"restaurant"},{"name":"운정면","tel":"","addr":"경기도 파주시 야당동 296-2번지","indutype":"일반휴게음식 - 일반한식","category":"restaurant"}]},{"lat":"37.713341162","long":"126.76204158","imageIndex":4,"items":[{"name":"락돈","tel":"02-325-9436","addr":"경기도 파주시 야당동 421-17번지","indutype":"일반휴게음식 - 일반한식","category":"restaurant"},{"name":"심야노가리","tel":"","addr":"경기도 파주시 야당동 421-17번지","indutype":"일반휴게음식 - 주점","category":"restaurant"},{"name":"야당골국수터","tel":"031-946-2055","addr":"경기도 파주시 야당동 421-17번지","indutype":"일반휴게음식 - 일반한식","category":"restaurant"},{"name":"홍어전집","tel":"031-943-8038","addr":"경기도 파주시 야당동 421-17번지","indutype":"일반휴게음식 - 일반한식","category":"restaurant"}]},{"lat":"37.711872725","long":"126.76210303","imageIndex":4,"items":[{"name":"랍다","tel":"031-947-1217","addr":"경기도 파주시 야당동 421-44번지","indutype":"일반휴게음식 - 일반한식","category":"restaurant"}]},{"lat":"37.715538999","long":"126.76179629","imageIndex":4,"items":[{"name":"레넌카페W","tel":"031-000-0000","addr":"경기도 파주시 야당동 1081-2번지","indutype":"일반휴게음식 - 서양음식","category":"restaurant"}]},{"lat":"37.709958695","long":"126.76457014","imageIndex":4,"items":[{"name":"로뎀함바부페","tel":"070-4251-2031","addr":"경기도 파주시 야당동 178-13번지","indutype":"일반휴게음식 - 일반한식","category":"restaurant"}]},{"lat":"37.71550263","long":"126.75727117","imageIndex":4,"items":[{"name":"롱블랙커피","tel":"031-000-0000","addr":"경기도 파주시 야당동 991번지","indutype":"일반휴게음식 - 서양음식","category":"restaurant"}]},{"lat":"37.725506471","long":"126.76768502","imageIndex":4,"items":[{"name":"맛을새우다","tel":"031-944-1129","addr":"경기도 파주시 야당동 296-22번지","indutype":"일반휴게음식 - 일반한식","category":"restaurant"}]},{"lat":"37.704678007","long":"126.76404274","imageIndex":4,"items":[{"name":"맛있는포차","tel":"031-959-0033","addr":"경기도 파주시 야당동 146-8번지","indutype":"일반휴게음식 - 일반한식","category":"restaurant"},{"name":"티바두마리치킨(탄현점)","tel":"031-952-9229","addr":"경기도 파주시 야당동 146-8번지","indutype":"일반휴게음식 - 스넥","category":"restaurant"}]},{"lat":"37.711651118","long":"126.75948401","imageIndex":4,"items":[{"name":"매운집","tel":"031-946-0121","addr":"경기도 파주시 야당동 1056번지","indutype":"일반휴게음식 - 일반한식","category":"restaurant"},{"name":"미쓰닭","tel":"031-927-9219","addr":"경기도 파주시 야당동 1056번지","indutype":"일반휴게음식 - 스넥","category":"restaurant"},{"name":"바사칸왕새우튀김","tel":"031-943-9430","addr":"경기도 파주시 야당동 1056번지","indutype":"일반휴게음식 - 일반한식","category":"restaurant"},{"name":"본죽앤비빔밥카페","tel":"031-942-8280","addr":"경기도 파주시 야당동 1056번지","indutype":"일반휴게음식 - 일반한식","category":"restaurant"},{"name":"선산대한곱창&태백물닭갈비","tel":"031-944-8886","addr":"경기도 파주시 야당동 1056번지","indutype":"일반휴게음식 - 일반한식","category":"restaurant"},{"name":"소담","tel":"031-943-0071","addr":"경기도 파주시 야당동 1056번지","indutype":"일반휴게음식 - 일반한식","category":"restaurant"},{"name":"왕코등갈비","tel":"031-941-7730","addr":"경기도 파주시 야당동 1056번지","indutype":"일반휴게음식 - 일반한식","category":"restaurant"},{"name":"월남선생 파주야당점","tel":"02-0000-0000","addr":"경기도 파주시 야당동 1056번지","indutype":"일반휴게음식 - 서양음식","category":"restaurant"},{"name":"유씨네족발공장","tel":"031-944-5825","addr":"경기도 파주시 야당동 1056번지","indutype":"일반휴게음식 - 일반한식","category":"restaurant"},{"name":"천사곱창","tel":"031-943-8186","addr":"경기도 파주시 야당동 1056번지","indutype":"일반휴게음식 - 일반한식","category":"restaurant"},{"name":"훔친뒷고기","tel":"031-957-8833","addr":"경기도 파주시 야당동 1056번지","indutype":"일반휴게음식 - 일반한식","category":"restaurant"}]},{"lat":"37.709594263","long":"126.76257537","imageIndex":4,"items":[{"name":"맷돌순두부","tel":"031-957-3694","addr":"경기도 파주시 야당동 178-16번지","indutype":"일반휴게음식 - 일반한식","category":"restaurant"}]},{"lat":"37.707789958","long":"126.77037196","imageIndex":4,"items":[{"name":"무고레","tel":"031-959-9494","addr":"경기도 파주시 야당동 137번지","indutype":"일반휴게음식 - 일반한식","category":"restaurant"}]},{"lat":"37.71495857","long":"126.76434998","imageIndex":4,"items":[{"name":"무허가 스튜디오&까페","tel":"031-949-5636","addr":"경기도 파주시 야당동 226-13번지","indutype":"일반휴게음식 - 일반한식","category":"restaurant"}]},{"lat":"37.71448397","long":"126.76579185","imageIndex":4,"items":[{"name":"미니네밀가칼국수","tel":"","addr":"경기도 파주시 야당동 219번지","indutype":"일반휴게음식 - 일반한식","category":"restaurant"}]},{"lat":"37.709263446","long":"126.76382389","imageIndex":4,"items":[{"name":"미리내","tel":"031-942-3577","addr":"경기도 파주시 야당동 178-31,423-11","indutype":"일반휴게음식 - 일반한식","category":"restaurant"}]},{"lat":"37.711235548","long":"126.75037871","imageIndex":4,"items":[{"name":"미친곱창","tel":"031-945-9253","addr":"경기도 파주시 야당동 1006-1번지","indutype":"일반휴게음식 - 일반한식","category":"restaurant"},{"name":"바푸리","tel":"031-944-1665","addr":"경기도 파주시 야당동 1006-1번지","indutype":"일반휴게음식 - 스넥","category":"restaurant"},{"name":"사랑수산","tel":"031-945-8673","addr":"경기도 파주시 야당동 1006-1번지","indutype":"일반휴게음식 - 일반한식","category":"restaurant"}]},{"lat":"37.704928203","long":"126.75863283","imageIndex":4,"items":[{"name":"밥보다초밥","tel":"031-944-8725","addr":"경기도 파주시 야당동 486-25번지","indutype":"일반휴게음식 - 일식·회집","category":"restaurant"}]},{"lat":"37.723902089","long":"126.77189825","imageIndex":4,"items":[{"name":"밥상","tel":"031-957-6541","addr":"경기도 파주시 야당동 1-6번지","indutype":"일반휴게음식 - 일반한식","category":"restaurant"}]},{"lat":"37.715454827","long":"126.76471132","imageIndex":4,"items":[{"name":"밥앤국시","tel":"031-941-3906","addr":"경기도 파주시 야당동 226-41번지","indutype":"일반휴게음식 - 일반한식","category":"restaurant"},{"name":"얌얌","tel":"","addr":"경기도 파주시 야당동 226-41번지","indutype":"일반휴게음식 - 일반한식","category":"restaurant"},{"name":"케일리팜 치킨","tel":"031-946-3457","addr":"경기도 파주시 야당동 226-41번지","indutype":"일반휴게음식 - 스넥","category":"restaurant"}]},{"lat":"37.716040561","long":"126.76476615","imageIndex":4,"items":[{"name":"밥한술","tel":"031-941-0354","addr":"경기도 파주시 야당동 226-8번지","indutype":"일반휴게음식 - 일반한식","category":"restaurant"},{"name":"홍스취킨","tel":"031-941-8148","addr":"경기도 파주시 야당동 226-8번지","indutype":"일반휴게음식 - 일반한식","category":"restaurant"}]},{"lat":"37.716535305","long":"126.76437895","imageIndex":4,"items":[{"name":"베이지톤","tel":"031-944-0502","addr":"경기도 파주시 야당동 247-10번지","indutype":"일반휴게음식 - 서양음식","category":"restaurant"}]},{"lat":"37.712486044","long":"126.76242994","imageIndex":4,"items":[{"name":"베이징","tel":"031-947-1666","addr":"경기도 파주시 야당동 421-39번지","indutype":"일반휴게음식 - 중국식","category":"restaurant"}]},{"lat":"37.710538048","long":"126.76592917","imageIndex":4,"items":[{"name":"북경","tel":"031-943-8288","addr":"경기도 파주시 야당동 178-91번지","indutype":"일반휴게음식 - 중국식","category":"restaurant"},{"name":"집밥김밥","tel":"031-941-4408","addr":"경기도 파주시 야당동 178-91번지","indutype":"일반휴게음식 - 일반한식","category":"restaurant"}]},{"lat":"37.714426779","long":"126.76423827","imageIndex":4,"items":[{"name":"블루이쉬","tel":"","addr":"경기도 파주시 야당동 220-14번지","indutype":"일반휴게음식 - 서양음식","category":"restaurant"}]},{"lat":"37.706654979","long":"126.76151889","imageIndex":4,"items":[{"name":"산너머남촌","tel":"031-946-4060","addr":"경기도 파주시 야당동 469-125 2층","indutype":"일반휴게음식 - 일반한식","category":"restaurant"}]},{"lat":"37.71567973","long":"126.76012864","imageIndex":4,"items":[{"name":"서울집","tel":"031-941-3752","addr":"경기도 파주시 야당동 1074-1번지","indutype":"일반휴게음식 - 일반한식","category":"restaurant"},{"name":"집샤브일체","tel":"031-945-2340","addr":"경기도 파주시 야당동 1074-1번지","indutype":"일반휴게음식 - 일반한식","category":"restaurant"},{"name":"한식부페","tel":"","addr":"경기도 파주시 야당동 1074-1번지","indutype":"일반휴게음식 - 일반한식","category":"restaurant"}]},{"lat":"37.712430621","long":"126.761761","imageIndex":4,"items":[{"name":"셰프의초밥파주야당점","tel":"031-949-2538","addr":"경기도 파주시 야당동 421-41번지","indutype":"일반휴게음식 - 일식·회집","category":"restaurant"}]},{"lat":"37.71137535","long":"126.77015663","imageIndex":4,"items":[{"name":"소담골","tel":"031-957-2231","addr":"경기도 파주시 야당동 112번지","indutype":"일반휴게음식 - 일반한식","category":"restaurant"}]},{"lat":"37.715821115","long":"126.76317904","imageIndex":4,"items":[{"name":"솔로들의테이블","tel":"031-946-2284","addr":"경기도 파주시 야당동 226-155번지","indutype":"일반휴게음식 - 주점","category":"restaurant"},{"name":"이디야(야당점)","tel":"031-945-8586","addr":"경기도 파주시 야당동 226-155번지","indutype":"일반휴게음식 - 서양음식","category":"restaurant"}]},{"lat":"37.723209666","long":"126.77256961","imageIndex":4,"items":[{"name":"솔밭가든","tel":"031-941-3727","addr":"경기도 파주시 야당동 4-5번지","indutype":"일반휴게음식 - 일반한식","category":"restaurant"}]},{"lat":"37.713233627","long":"126.76232545","imageIndex":4,"items":[{"name":"송포돼지부속","tel":"031-945-1185","addr":"경기도 파주시 야당동 421-25번지","indutype":"일반휴게음식 - 일반한식","category":"restaurant"},{"name":"캠핑가든","tel":"031-875-2018","addr":"경기도 파주시 야당동 421-25번지","indutype":"일반휴게음식 - 일반한식","category":"restaurant"}]},{"lat":"37.713181094","long":"126.76307413","imageIndex":4,"items":[{"name":"송학692","tel":"031-944-0692","addr":"경기도 파주시 야당동 192-27번지","indutype":"일반휴게음식 - 일반한식","category":"restaurant"}]},{"lat":"37.710153201","long":"126.76274367","imageIndex":4,"items":[{"name":"스마일찰진꽈배기","tel":"031-948-3350","addr":"경기도 파주시 야당동 178-41번지","indutype":"일반휴게음식 - 일반한식","category":"restaurant"}]},{"lat":"37.722985026","long":"126.77287656","imageIndex":4,"items":[{"name":"신선쌈밥","tel":"031-945-7135","addr":"경기도 파주시 야당동 4-12번지","indutype":"일반휴게음식 - 일반한식","category":"restaurant"},{"name":"홍희통닭","tel":"02-111-1111","addr":"경기도 파주시 야당동 4-12번지","indutype":"일반휴게음식 - 스넥","category":"restaurant"}]},{"lat":"37.710958414","long":"126.75998527","imageIndex":4,"items":[{"name":"신참떡볶이 파주야당역점","tel":"031-942-8686","addr":"경기도 파주시 야당동 1059번지","indutype":"일반휴게음식 - 스넥","category":"restaurant"},{"name":"야당매운탕","tel":"","addr":"경기도 파주시 야당동 1059번지","indutype":"일반휴게음식 - 일반한식","category":"restaurant"},{"name":"용범이네인계동껍데기 운정신도시점","tel":"031-837-8223","addr":"경기도 파주시 야당동 1059번지","indutype":"일반휴게음식 - 일반한식","category":"restaurant"},{"name":"치킨의민족 야당역점","tel":"031-947-6993","addr":"경기도 파주시 야당동 1059번지","indutype":"일반휴게음식 - 스넥","category":"restaurant"}]},{"lat":"37.713932862","long":"126.74779511","imageIndex":4,"items":[{"name":"신통치킨운정1호점","tel":"031-944-7134","addr":"경기도 파주시 야당동 1000-1번지","indutype":"일반휴게음식 - 스넥","category":"restaurant"}]},{"lat":"37.715121131","long":"126.76454226","imageIndex":4,"items":[{"name":"심슨더스파이스","tel":"031-941-9267","addr":"경기도 파주시 야당동 226-14번지","indutype":"일반휴게음식 - 서양음식","category":"restaurant"}]},{"lat":"37.714897678","long":"126.7654276","imageIndex":4,"items":[{"name":"아재다방","tel":"031-944-6249","addr":"경기도 파주시 야당동 217번지","indutype":"일반휴게음식 - 서양음식","category":"restaurant"},{"name":"야로수길 분식집","tel":"070-5136-4458","addr":"경기도 파주시 야당동 217번지","indutype":"일반휴게음식 - 일반한식","category":"restaurant"},{"name":"야로수길 분식집","tel":"070-5136-4458","addr":"경기도 파주시 야당동 217번지","indutype":"일반휴게음식 - 일반한식","category":"restaurant"},{"name":"카페 마침내","tel":"031-1111-1111","addr":"경기도 파주시 야당동 217번지","indutype":"일반휴게음식 - 서양음식","category":"restaurant"}]},{"lat":"37.715428463","long":"126.7650403","imageIndex":4,"items":[{"name":"안단테","tel":"031-948-5188","addr":"경기도 파주시 야당동 226-18번지","indutype":"일반휴게음식 - 일반한식","category":"restaurant"}]},{"lat":"37.711370327","long":"126.75020814","imageIndex":4,"items":[{"name":"압구정족발","tel":"031-945-1599","addr":"경기도 파주시 야당동 1006번지","indutype":"일반휴게음식 - 일반한식","category":"restaurant"}]},{"lat":"37.709015313","long":"126.76143185","imageIndex":4,"items":[{"name":"야당고을양고기통바베큐","tel":"031-947-0027","addr":"경기도 파주시 야당동 427-1번지","indutype":"일반휴게음식 - 일반한식","category":"restaurant"}]},{"lat":"37.710064167","long":"126.76326563","imageIndex":4,"items":[{"name":"야당곱창닭갈비","tel":"031-942-0117","addr":"경기도 파주시 야당동 178-77번지","indutype":"일반휴게음식 - 일반한식","category":"restaurant"}]},{"lat":"37.706342417","long":"126.75418289","imageIndex":4,"items":[{"name":"야당리외식공간","tel":"031-948-0035","addr":"경기도 파주시 야당동 466-59번지","indutype":"일반휴게음식 - 일반한식","category":"restaurant"},{"name":"야당리외식공간 2관","tel":"031-948-6588","addr":"경기도 파주시 야당동 466-59번지","indutype":"일반휴게음식 - 일반한식","category":"restaurant"}]},{"lat":"37.710681151","long":"126.76540704","imageIndex":4,"items":[{"name":"야당한식부페","tel":"031-946-3075","addr":"경기도 파주시 야당동 178-99","indutype":"일반휴게음식 - 일반한식","category":"restaurant"}]},{"lat":"37.703704946","long":"126.75962339","imageIndex":4,"items":[{"name":"양촌리민물장어","tel":"031-943-0377","addr":"경기도 파주시 야당동 920번지","indutype":"일반휴게음식 - 일반한식","category":"restaurant"}]},{"lat":"37.724984418","long":"126.76793621","imageIndex":4,"items":[{"name":"어굼터","tel":"031-957-6110","addr":"경기도 파주시 야당동 296-49번지","indutype":"일반휴게음식 - 일반한식","category":"restaurant"}]},{"lat":"37.711760813","long":"126.75591128","imageIndex":4,"items":[{"name":"에프터 유 한빛로점","tel":"031-949-8484","addr":"경기도 파주시 야당동 1015번지 롯데캐슬파크타운II","indutype":"일반휴게음식 - 서양음식","category":"restaurant"},{"name":"요거프레소(야당롯데캐슬점)","tel":"031-943-6563","addr":"경기도 파주시 야당동 1015번지 롯데캐슬파크타운II","indutype":"일반휴게음식 - 서양음식","category":"restaurant"}]},{"lat":"37.715266131","long":"126.76496143","imageIndex":4,"items":[{"name":"오후세시(3:PM)","tel":"031-946-8619","addr":"경기도 파주시 야당동 226-75번지","indutype":"일반휴게음식 - 일반한식","category":"restaurant"}]},{"lat":"37.710432773","long":"126.76287886","imageIndex":4,"items":[{"name":"용정장어오리파크","tel":"031-946-7922","addr":"경기도 파주시 야당동 421-12번지","indutype":"일반휴게음식 - 일반한식","category":"restaurant"}]},{"lat":"37.706147708","long":"126.76460502","imageIndex":4,"items":[{"name":"우리감자탕","tel":"031-947-8230","addr":"경기도 파주시 야당동 153-34번지","indutype":"일반휴게음식 - 일반한식","category":"restaurant"}]},{"lat":"37.723757781","long":"126.7718193","imageIndex":4,"items":[{"name":"운정임진강매운탕","tel":"031-947-9293","addr":"경기도 파주시 야당동 1-3번지","indutype":"일반휴게음식 - 일반한식","category":"restaurant"}]},{"lat":"37.704564697","long":"126.76149165","imageIndex":4,"items":[{"name":"웰링턴램하우스","tel":"031-941-3328","addr":"경기도 파주시 야당동 469-64","indutype":"일반휴게음식 - 서양음식","category":"restaurant"}]},{"lat":"37.724844451","long":"126.77004643","imageIndex":4,"items":[{"name":"윤이네한식","tel":"","addr":"경기도 파주시 야당동 25-5번지","indutype":"일반휴게음식 - 일반한식","category":"restaurant"}]},{"lat":"37.71095703","long":"126.75074256","imageIndex":4,"items":[{"name":"이디야커피(파주운정점)","tel":"031-944-9005","addr":"경기도 파주시 야당동 1006-3번지","indutype":"일반휴게음식 - 서양음식","category":"restaurant"},{"name":"카페파스타&펀비어킹","tel":"031-944-2556","addr":"경기도 파주시 야당동 1006-3번지","indutype":"일반휴게음식 - 일반한식","category":"restaurant"},{"name":"함고집솥뚜껑김치삼겹살","tel":"031-943-1347","addr":"경기도 파주시 야당동 1006-3번지","indutype":"일반휴게음식 - 일반한식","category":"restaurant"}]},{"lat":"37.724234083","long":"126.77120531","imageIndex":4,"items":[{"name":"이레나주곰탕 운정점","tel":"031-957-8003","addr":"경기도 파주시 야당동 24번지","indutype":"일반휴게음식 - 일반한식","category":"restaurant"},{"name":"정은이네","tel":"031-945-1170","addr":"경기도 파주시 야당동 24","indutype":"일반휴게음식 - 일반한식","category":"restaurant"},{"name":"호야네한식부페","tel":"031-957-5929","addr":"경기도 파주시 야당동 24번지","indutype":"일반휴게음식 - 일반한식","category":"restaurant"}]},{"lat":"37.712233616","long":"126.76235137","imageIndex":4,"items":[{"name":"이집맛소","tel":"031-946-9392","addr":"경기도 파주시 야당동 421-37번지","indutype":"일반휴게음식 - 일반한식","category":"restaurant"}]},{"lat":"37.714591742","long":"126.76562138","imageIndex":4,"items":[{"name":"일식당","tel":"02-000-0000","addr":"경기도 파주시 야당동 226-88번지","indutype":"일반휴게음식 - 일식·회집","category":"restaurant"}]},{"lat":"37.724625572","long":"126.76870866","imageIndex":4,"items":[{"name":"일품 (콩요리전문)","tel":"","addr":"경기도 파주시 야당동 35-12번지","indutype":"일반휴게음식 - 일반한식","category":"restaurant"}]},{"lat":"37.707981614","long":"126.76707134","imageIndex":4,"items":[{"name":"장수오리","tel":"031-943-5256","addr":"경기도 파주시 야당동 160-1","indutype":"일반휴게음식 - 일반한식","category":"restaurant"}]},{"lat":"37.704875159","long":"126.76352047","imageIndex":4,"items":[{"name":"전원고기마을","tel":"02-000-0000","addr":"경기도 파주시 야당동 146-3번지","indutype":"일반휴게음식 - 일반한식","category":"restaurant"}]},{"lat":"37.705706951","long":"126.76495797","imageIndex":4,"items":[{"name":"정다운포차","tel":"031-948-9874","addr":"경기도 파주시 야당동 148-3번지","indutype":"일반휴게음식 - 주점","category":"restaurant"}]},{"lat":"37.70973116","long":"126.76343681","imageIndex":4,"items":[{"name":"주민상회","tel":"031-111-1111","addr":"경기도 파주시 야당동 178-27번지","indutype":"일반휴게음식 - 일반한식","category":"restaurant"},{"name":"행복한깜시","tel":"02-1111-1111","addr":"경기도 파주시 야당동 178-27번지","indutype":"일반휴게음식 - 스넥","category":"restaurant"}]},{"lat":"37.708012274","long":"126.75998355","imageIndex":4,"items":[{"name":"주식회사 하베스트코리아(송원)","tel":"031-947-7300","addr":"경기도 파주시 야당동 1044-1번지","indutype":"일반휴게음식 - 중국식","category":"restaurant"}]},{"lat":"37.709710786","long":"126.76673698","imageIndex":4,"items":[{"name":"중화식탁","tel":"070-4649-1101","addr":"경기도 파주시 야당동 171번지","indutype":"일반휴게음식 - 중국식","category":"restaurant"},{"name":"카페사르르","tel":"031-0000-0000","addr":"경기도 파주시 야당동 171번지","indutype":"일반휴게음식 - 서양음식","category":"restaurant"}]},{"lat":"37.704988655","long":"126.76173975","imageIndex":4,"items":[{"name":"쥐눈이콩마을야당리점","tel":"031-959-5555","addr":"경기도 파주시 야당동 469-33외1필지","indutype":"일반휴게음식 - 일반한식","category":"restaurant"}]},{"lat":"37.709819502","long":"126.76257464","imageIndex":4,"items":[{"name":"진한설렁탕","tel":"031-941-2650","addr":"경기도 파주시 야당동 178-14번지","indutype":"일반휴게음식 - 일반한식","category":"restaurant"}]},{"lat":"37.713098368","long":"126.76226918","imageIndex":4,"items":[{"name":"짝태앤노가리","tel":"","addr":"경기도 파주시 야당동 421-26번지","indutype":"일반휴게음식 - 주점","category":"restaurant"},{"name":"청년술집","tel":"02-1577-0000","addr":"경기도 파주시 야당동 421-26번지","indutype":"일반휴게음식 - 주점","category":"restaurant"}]},{"lat":"37.715285808","long":"126.74849364","imageIndex":4,"items":[{"name":"쭝일아찌빨강떡볶이","tel":"031-948-3449","addr":"경기도 파주시 야당동 981번지","indutype":"일반휴게음식 - 스넥","category":"restaurant"},{"name":"치킨마루한빛마을점","tel":"031-957-9696","addr":"경기도 파주시 야당동 981번지","indutype":"일반휴게음식 - 스넥","category":"restaurant"}]},{"lat":"37.718765997","long":"126.77157394","imageIndex":4,"items":[{"name":"초이카페","tel":"02-1111-1111","addr":"경기도 파주시 야당동 61-6번지","indutype":"일반휴게음식 - 서양음식","category":"restaurant"}]},{"lat":"37.713124771","long":"126.76196289","imageIndex":4,"items":[{"name":"추억의옛날통닭","tel":"031-943-9294","addr":"경기도 파주시 야당동 421-1번지","indutype":"일반휴게음식 - 일반한식","category":"restaurant"}]},{"lat":"37.704759437","long":"126.76421257","imageIndex":4,"items":[{"name":"취선향","tel":"031-947-8845","addr":"경기도 파주시 야당동 146-7번지","indutype":"일반휴게음식 - 중국식","category":"restaurant"}]},{"lat":"37.707457963","long":"126.76207196","imageIndex":4,"items":[{"name":"카페(cafe)431-3","tel":"031-111-1111","addr":"경기도 파주시 야당동 431-3번지","indutype":"일반휴게음식 - 서양음식","category":"restaurant"}]},{"lat":"37.71034757","long":"126.76529469","imageIndex":4,"items":[{"name":"카페포레","tel":"031-945-6224","addr":"경기도 파주시 야당동 178-87번지","indutype":"일반휴게음식 - 서양음식","category":"restaurant"}]},{"lat":"37.714788283","long":"126.76479284","imageIndex":4,"items":[{"name":"커피 블레이드","tel":"070-7766-6304","addr":"경기도 파주시 야당동 221번지","indutype":"일반휴게음식 - 서양음식","category":"restaurant"}]},{"lat":"37.709704844","long":"126.76378845","imageIndex":4,"items":[{"name":"커피방앗간","tel":"031-942-6567","addr":"경기도 파주시 야당동 178-28번지","indutype":"일반휴게음식 - 서양음식","category":"restaurant"}]},{"lat":"37.712927303","long":"126.76232644","imageIndex":4,"items":[{"name":"타맥","tel":"","addr":"경기도 파주시 야당동 421-27번지","indutype":"일반휴게음식 - 일반한식","category":"restaurant"}]},{"lat":"37.715763146","long":"126.76126252","imageIndex":4,"items":[{"name":"펀비어킹 야당역점","tel":"031-0000-0000","addr":"경기도 파주시 야당동 1085번지","indutype":"일반휴게음식 - 주점","category":"restaurant"}]},{"lat":"37.713008666","long":"126.76246227","imageIndex":4,"items":[{"name":"포차스미스","tel":"","addr":"경기도 파주시 야당동 421-28번지","indutype":"일반휴게음식 - 일반한식","category":"restaurant"}]},{"lat":"37.714569345","long":"126.76345526","imageIndex":4,"items":[{"name":"플라스틱소울","tel":"031-946-1224","addr":"경기도 파주시 야당동 222-1번지","indutype":"일반휴게음식 - 서양음식","category":"restaurant"}]},{"lat":"37.70983192","long":"126.76425301","imageIndex":4,"items":[{"name":"핀란드하우스(마리솔)","tel":"031-946-5478","addr":"경기도 파주시 야당동 178-29번지 신성그린빌","indutype":"일반휴게음식 - 일반한식","category":"restaurant"}]},{"lat":"37.705041923","long":"126.76135402","imageIndex":4,"items":[{"name":"하원황철오리","tel":"031-948-3553","addr":"경기도 파주시 야당동 469-30번지","indutype":"일반휴게음식 - 일반한식","category":"restaurant"}]},{"lat":"37.709154757","long":"126.76354073","imageIndex":4,"items":[{"name":"호반우","tel":"031-957-3315","addr":"경기도 파주시 야당동 178-55외1필지","indutype":"일반휴게음식 - 일반한식","category":"restaurant"}]},{"lat":"37.712260181","long":"126.76212446","imageIndex":4,"items":[{"name":"회각시소신랑","tel":"031-944-4764","addr":"경기도 파주시 야당동 421-135번지","indutype":"일반휴게음식 - 일반한식","category":"restaurant"}]},{"lat":"37.721235827","long":"126.76763047","imageIndex":7,"items":[{"name":"(주)성안","tel":"031-945-6605","addr":"경기도 파주시 야당동 45-89번지","indutype":"음료식품 - 기타음료식품","category":"food"}]},{"lat":"37.71642572","long":"126.76365344","imageIndex":7,"items":[{"name":"HD컴퍼니","tel":"031-941-2100","addr":"경기도 파주시 야당동 226-5번지","indutype":"음료식품 - 기타음료식품","category":"food"}]},{"lat":"37.709349856","long":"126.74912631","imageIndex":7,"items":[{"name":"교하축산","tel":"031-944-6689","addr":"경기도 파주시 야당동 1023번지 한빛마을6단지","indutype":"음료식품 - 정육점","category":"food"}]},{"lat":"37.710265354","long":"126.75170886","imageIndex":7,"items":[{"name":"국선생 파주 한빛마을점","tel":"031-946-1121","addr":"경기도 파주시 야당동 1006-8번지","indutype":"음료식품 - 기타음료식품","category":"food"},{"name":"씨제이리메디","tel":"031-944-9131","addr":"경기도 파주시 야당동 1006-8번지","indutype":"건강식품 - 기타건강식품","category":"food"},{"name":"점핑홀릭","tel":"","addr":"경기도 파주시 야당동 1006-8번지","indutype":"건강식품 - 기타건강식품","category":"food"}]},{"lat":"37.711953658","long":"126.75765714","imageIndex":7,"items":[{"name":"남매정육점","tel":"031-944-9298","addr":"경기도 파주시 야당동 1016번지 롯데캐슬파크타운","indutype":"음료식품 - 정육점","category":"food"},{"name":"아이스크림 할인점","tel":"","addr":"경기도 파주시 야당동 1016번지 롯데캐슬파크타운","indutype":"음료식품 - 기타음료식품","category":"food"}]},{"lat":"37.722923764","long":"126.76921309","imageIndex":7,"items":[{"name":"네이쳐 그레인","tel":"031-949-1622","addr":"경기도 파주시 야당동 39-20번지","indutype":"음료식품 - 미곡상","category":"food"}]},{"lat":"37.713898857","long":"126.74873654","imageIndex":7,"items":[{"name":"녹색한우안심축산물전문점","tel":"031-943-4120","addr":"경기도 파주시 야당동 1000-5번지 한빛프라자 103호","indutype":"음료식품 - 정육점","category":"food"},{"name":"레스쁘아","tel":"031-945-9950","addr":"경기도 파주시 야당동 1000-5번지","indutype":"음료식품 - 제과점","category":"food"},{"name":"아빠홍삼","tel":"031-945-8738","addr":"경기도 파주시 야당동 1000-5 한빛프라자 102호 (미래로408번길 40,102호)","indutype":"건강식품 - 홍삼제품","category":"food"}]},{"lat":"37.709709442","long":"126.76162239","imageIndex":7,"items":[{"name":"대박상회","tel":"","addr":"경기도 파주시 야당동 424-1번지","indutype":"음료식품 - 농·축·수산품","category":"food"}]},{"lat":"37.724903535","long":"126.76803856","imageIndex":7,"items":[{"name":"대양건강원","tel":"031-942-3642","addr":"경기도 파주시 야당동 296-36번지","indutype":"건강식품 - 기타건강식품","category":"food"}]},{"lat":"37.71695617","long":"126.76757595","imageIndex":7,"items":[{"name":"대흥농수산물유통","tel":"031-944-1270","addr":"경기도 파주시 야당동 239번지","indutype":"음료식품 - 농·축·수산품","category":"food"},{"name":"종가집 은평","tel":"031-111-1111","addr":"경기도 파주시 야당동 239번지","indutype":"음료식품 - 기타음료식품","category":"food"},{"name":"하우개정육점","tel":"031-944-3191","addr":"경기도 파주시 야당동 239번지","indutype":"음료식품 - 정육점","category":"food"}]},{"lat":"37.705736331","long":"126.76168063","imageIndex":7,"items":[{"name":"대흥유통","tel":"031-948-5545","addr":"경기도 파주시 야당동 469-252번지 모리안","indutype":"음료식품 - 기타음료식품","category":"food"}]},{"lat":"37.708926976","long":"126.7579166","imageIndex":7,"items":[{"name":"더건강해지다","tel":"","addr":"경기도 파주시 야당동 1031번지 휴먼시아한빛마을","indutype":"건강식품 - 기타건강식품","category":"food"}]},{"lat":"37.713733253","long":"126.75993085","imageIndex":7,"items":[{"name":"더스파매점","tel":"031-944-3000","addr":"경기도 파주시 야당동 1070번지","indutype":"음료식품 - 기타음료식품","category":"food"},{"name":"던킨도너츠(운전야당점)","tel":"031-945-6448","addr":"경기도 파주시 야당동 1070번지","indutype":"음료식품 - 제과점","category":"food"},{"name":"배스킨라빈스 운정야당역점","tel":"031-941-3107","addr":"경기도 파주시 야당동 1070번지","indutype":"음료식품 - 제과점","category":"food"},{"name":"스넥바","tel":"031-944-3000","addr":"경기도 파주시 야당동 1070번지","indutype":"음료식품 - 기타음료식품","category":"food"}]},{"lat":"37.711370327","long":"126.75020814","imageIndex":7,"items":[{"name":"뚜레쥬르 운정한빛마을점","tel":"031-944-0453","addr":"경기도 파주시 야당동 1006번지","indutype":"음료식품 - 제과점","category":"food"},{"name":"아이스크림할인점","tel":"","addr":"경기도 파주시 야당동 1006번지","indutype":"음료식품 - 기타음료식품","category":"food"}]},{"lat":"37.71550263","long":"126.75727117","imageIndex":7,"items":[{"name":"뚜레쥬르 파주운정캐슬(2)","tel":"031-949-7772","addr":"경기도 파주시 야당동 991번지","indutype":"음료식품 - 제과점","category":"food"},{"name":"아이스가(한빛점)","tel":"02-1111-1111","addr":"경기도 파주시 야당동 991번지","indutype":"음료식품 - 기타음료식품","category":"food"},{"name":"정직한정육점","tel":"031-946-8878","addr":"경기도 파주시 야당동 991번지","indutype":"음료식품 - 정육점","category":"food"},{"name":"청정오름","tel":"031-944-9448","addr":"경기도 파주시 야당동 991번지","indutype":"음료식품 - 농·축·수산품","category":"food"},{"name":"청정오름","tel":"","addr":"경기도 파주시 야당동 991번지","indutype":"음료식품 - 농·축·수산품","category":"food"}]},{"lat":"37.712209896","long":"126.75957291","imageIndex":7,"items":[{"name":"라인핏(점핑다이어트)","tel":"","addr":"경기도 파주시 야당동 1066-3번지","indutype":"건강식품 - 기타건강식품","category":"food"},{"name":"최아롬","tel":"031-947-7277","addr":"경기도 파주시 야당동 1066-3번지","indutype":"건강식품 - 기타건강식품","category":"food"}]},{"lat":"37.711430911","long":"126.76193435","imageIndex":7,"items":[{"name":"레프레르","tel":"02-716-8696","addr":"경기도 파주시 야당동 421-90번지","indutype":"음료식품 - 기타음료식품","category":"food"}]},{"lat":"37.71095703","long":"126.75074256","imageIndex":7,"items":[{"name":"마이스터델리","tel":"","addr":"경기도 파주시 야당동 1006-3번지","indutype":"음료식품 - 정육점","category":"food"},{"name":"장독대","tel":"02-945-4464","addr":"경기도 파주시 야당동 1006-3번지","indutype":"음료식품 - 기타음료식품","category":"food"}]},{"lat":"37.71076453","long":"126.76209528","imageIndex":7,"items":[{"name":"마이패밀리","tel":"","addr":"경기도 파주시 야당동 421-130번지","indutype":"음료식품 - 농·축·수산품","category":"food"}]},{"lat":"37.723092239","long":"126.76785145","imageIndex":7,"items":[{"name":"미도","tel":"031-853-1708","addr":"경기도 파주시 야당동 291-17번지 주영그린빌라","indutype":"음료식품 - 미곡상","category":"food"}]},{"lat":"37.714787601","long":"126.76004082","imageIndex":7,"items":[{"name":"미래아이","tel":"031-948-1275","addr":"경기도 파주시 야당동 1072번지","indutype":"건강식품 - 기타건강식품","category":"food"},{"name":"차타타 운정점","tel":"031-942-3094","addr":"경기도 파주시 야당동 1072번지","indutype":"음료식품 - 기타음료식품","category":"food"}]},{"lat":"37.712288851","long":"126.76292958","imageIndex":7,"items":[{"name":"부자공방베이커리","tel":"031-943-9260","addr":"경기도 파주시 야당동 192-2번지 벨라타운","indutype":"음료식품 - 제과점","category":"food"}]},{"lat":"37.711651118","long":"126.75948401","imageIndex":7,"items":[{"name":"소리대장간","tel":"031-942-3975","addr":"경기도 파주시 야당동 1056번지","indutype":"건강식품 - 기타건강식품","category":"food"}]},{"lat":"37.709515598","long":"126.76376638","imageIndex":7,"items":[{"name":"스마일찰진꽈배기","tel":"031-948-3350","addr":"경기도 파주시 야당동 178-35번지","indutype":"음료식품 - 제과점","category":"food"}]},{"lat":"37.710958414","long":"126.75998527","imageIndex":7,"items":[{"name":"야당회밀리","tel":"","addr":"경기도 파주시 야당동 1059번지","indutype":"음료식품 - 기타음료식품","category":"food"}]},{"lat":"37.710067772","long":"126.76504609","imageIndex":7,"items":[{"name":"어쭈구리왕문어 파주점","tel":"","addr":"경기도 파주시 야당동 178-123번지","indutype":"음료식품 - 농·축·수산품","category":"food"}]},{"lat":"37.716736875","long":"126.76604552","imageIndex":7,"items":[{"name":"엄마찬'스","tel":"031-000-0000","addr":"경기도 파주시 야당동 240-85번지","indutype":"음료식품 - 기타음료식품","category":"food"}]},{"lat":"37.70973116","long":"126.76343681","imageIndex":7,"items":[{"name":"예담베이커리","tel":"031-905-7759","addr":"경기도 파주시 야당동 178-27번지","indutype":"음료식품 - 제과점","category":"food"}]},{"lat":"37.71047209","long":"126.75148135","imageIndex":7,"items":[{"name":"오복떡집","tel":"031-943-8858","addr":"경기도 파주시 야당동 1006-7번지","indutype":"음료식품 - 제과점","category":"food"},{"name":"이지바이 운정1호점","tel":"031-946-9289","addr":"경기도 파주시 야당동 1006-7번지","indutype":"음료식품 - 제과점","category":"food"}]},{"lat":"37.708537513","long":"126.75693127","imageIndex":7,"items":[{"name":"올리브찬방","tel":"031-957-1175","addr":"경기도 파주시 야당동 1031번지","indutype":"음료식품 - 기타음료식품","category":"food"}]},{"lat":"37.711235548","long":"126.75037871","imageIndex":7,"items":[{"name":"운정떡","tel":"031-946-0025","addr":"경기도 파주시 야당동 1006-1번지","indutype":"음료식품 - 제과점","category":"food"}]},{"lat":"37.716536031","long":"126.76031865","imageIndex":7,"items":[{"name":"원바디 운정점(One body)","tel":"031-942-4984","addr":"경기도 파주시 야당동 1076번지","indutype":"건강식품 - 기타건강식품","category":"food"},{"name":"종근당건강헬스벨스토리야당동점","tel":"","addr":"경기도 파주시 야당동 1076번지","indutype":"건강식품 - 기타건강식품","category":"food"}]},{"lat":"37.703704946","long":"126.75962339","imageIndex":7,"items":[{"name":"원산수산","tel":"031-943-0377","addr":"경기도 파주시 야당동 920번지","indutype":"음료식품 - 농·축·수산품","category":"food"}]},{"lat":"37.707291068","long":"126.75977044","imageIndex":7,"items":[{"name":"월드축산","tel":"031-945-5600","addr":"경기도 파주시 야당동 1046번지","indutype":"음료식품 - 정육점","category":"food"}]},{"lat":"37.721152063","long":"126.76629234","imageIndex":7,"items":[{"name":"으뜸라이스","tel":"","addr":"경기도 파주시 야당동 289-23번지","indutype":"음료식품 - 미곡상","category":"food"}]},{"lat":"37.70840313","long":"126.75300795","imageIndex":7,"items":[{"name":"일산야채","tel":"","addr":"경기도 파주시 야당동 1026번지 한빛마을7단지","indutype":"음료식품 - 농·축·수산품","category":"food"}]},{"lat":"37.724257554","long":"126.76940173","imageIndex":7,"items":[{"name":"장단양봉","tel":"031-947-3643","addr":"경기도 파주시 야당동 37-23번지","indutype":"건강식품 - 기타건강식품","category":"food"}]},{"lat":"37.722979078","long":"126.7698481","imageIndex":7,"items":[{"name":"장수축산","tel":"031-947-3318","addr":"경기도 파주시 야당동 39-1번지","indutype":"음료식품 - 농·축·수산품","category":"food"}]},{"lat":"37.709237704","long":"126.76445904","imageIndex":7,"items":[{"name":"축복굴비수산","tel":"031-957-8008","addr":"경기도 파주시 야당동 175-1번지","indutype":"음료식품 - 농·축·수산품","category":"food"}]},{"lat":"37.710984249","long":"126.75940681","imageIndex":7,"items":[{"name":"토원농산","tel":"031-942-7721","addr":"경기도 파주시 야당동 1056-2번지","indutype":"음료식품 - 농·축·수산품","category":"food"}]},{"lat":"37.712786669","long":"126.75965041","imageIndex":7,"items":[{"name":"파리바게뜨 야당역점","tel":"031-945-4334","addr":"경기도 파주시 야당동 1066-1번지","indutype":"음료식품 - 제과점","category":"food"}]},{"lat":"37.714233961","long":"126.76245831","imageIndex":7,"items":[{"name":"파주대리점","tel":"031-945-9437","addr":"경기도 파주시 야당동 224-14번지","indutype":"음료식품 - 기타음료식품","category":"food"}]},{"lat":"37.712430621","long":"126.761761","imageIndex":7,"items":[{"name":"파주축산물 도소매센터","tel":"031-947-9611","addr":"경기도 파주시 야당동 421-41번지","indutype":"음료식품 - 정육점","category":"food"}]},{"lat":"37.712693923","long":"126.7498294","imageIndex":7,"items":[{"name":"포촌인천유통","tel":"031-949-0130","addr":"경기도 파주시 야당동 975번지 한빛마을3단지자유로아이파크","indutype":"음료식품 - 정육점","category":"food"}]},{"lat":"37.714763539","long":"126.76592705","imageIndex":7,"items":[{"name":"폴렌 (POLLEN)","tel":"031-944-4897","addr":"경기도 파주시 야당동 217-3번지","indutype":"음료식품 - 제과점","category":"food"}]},{"lat":"37.711070093","long":"126.75306704","imageIndex":7,"items":[{"name":"하나로축산","tel":"02-303-5665","addr":"경기도 파주시 야당동 976 자유로아이파크상가 102","indutype":"음료식품 - 정육점","category":"food"}]},{"lat":"37.711345893","long":"126.76001803","imageIndex":7,"items":[{"name":"헤브 (Reves)","tel":"031-000-1234","addr":"경기도 파주시 야당동 1060번지","indutype":"음료식품 - 제과점","category":"food"}]},{"lat":"37.721289499","long":"126.76743748","imageIndex":13,"items":[{"name":"(주)엠씨앤코","tel":"031-946-7541","addr":"경기도 파주시 야당동 45-84번지","indutype":"보건위생 - 의료용품","category":"beauty"}]},{"lat":"37.712480298","long":"126.75962873","imageIndex":13,"items":[{"name":"(주)탑메디칼","tel":"031-946-0392","addr":"경기도 파주시 야당동 1066-2번지","indutype":"보건위생 - 의료용품","category":"beauty"},{"name":"꾸밈","tel":"031-942-1134","addr":"경기도 파주시 야당동 1066-2번지","indutype":"보건위생 - 피부미용실","category":"beauty"},{"name":"더헤어샵","tel":"031-957-4109","addr":"경기도 파주시 야당동 1066-2번지","indutype":"보건위생 - 미용원","category":"beauty"},{"name":"류수정헤어&바디","tel":"031-949-2446","addr":"경기도 파주시 야당동 1066-2번지","indutype":"보건위생 - 미용원","category":"beauty"},{"name":"블루클럽 운정신도시점","tel":"031-944-7982","addr":"경기도 파주시 야당동 1066-2번지","indutype":"보건위생 - 미용원","category":"beauty"},{"name":"진정뷰티","tel":"031-947-9887","addr":"경기도 파주시 야당동 1066-2번지","indutype":"보건위생 - 피부미용실","category":"beauty"}]},{"lat":"37.708481807","long":"126.75187365","imageIndex":13,"items":[{"name":"JJ헤어","tel":"031-943-6980","addr":"경기도 파주시 야당동 1026번지 한빛마을7단지","indutype":"보건위생 - 미용원","category":"beauty"},{"name":"다미인피부비만관리","tel":"032-542-6006","addr":"경기도 파주시 야당동 1026번지 한빛마을7단지","indutype":"보건위생 - 피부미용실","category":"beauty"}]},{"lat":"37.714427173","long":"126.76001931","imageIndex":13,"items":[{"name":"TEO헤어","tel":"031-948-7747","addr":"경기도 파주시 야당동 1072-1번지","indutype":"보건위생 - 미용원","category":"beauty"},{"name":"서연뷰티","tel":"070-8838-1555","addr":"경기도 파주시 야당동 1072-1번지","indutype":"보건위생 - 피부미용실","category":"beauty"},{"name":"연에스테틱","tel":"031-949-2254","addr":"경기도 파주시 야당동 1072-1번지","indutype":"보건위생 - 피부미용실","category":"beauty"},{"name":"페이버에스테틱","tel":"031-949-0468","addr":"경기도 파주시 야당동 1072-1번지","indutype":"보건위생 - 피부미용실","category":"beauty"}]},{"lat":"37.714787601","long":"126.76004082","imageIndex":13,"items":[{"name":"가띠네일","tel":"031-943-8285","addr":"경기도 파주시 야당동 1072번지","indutype":"보건위생 - 피부미용실","category":"beauty"},{"name":"미래아이안경","tel":"031-537-6576","addr":"경기도 파주시 야당동 1072번지","indutype":"보건위생 - 안경","category":"beauty"},{"name":"빠나쉐스킨앤바디","tel":"031-947-1012","addr":"경기도 파주시 야당동 1072번지","indutype":"보건위생 - 피부미용실","category":"beauty"},{"name":"제이훈헤어","tel":"031-943-3300","addr":"경기도 파주시 야당동 1072번지","indutype":"보건위생 - 미용원","category":"beauty"}]},{"lat":"37.714151279","long":"126.7661218","imageIndex":13,"items":[{"name":"가위이야기","tel":"","addr":"경기도 파주시 야당동 220-28번지","indutype":"보건위생 - 미용재료","category":"beauty"}]},{"lat":"37.712209896","long":"126.75957291","imageIndex":13,"items":[{"name":"감성터치","tel":"","addr":"경기도 파주시 야당동 1066-3번지","indutype":"보건위생 - 피부미용실","category":"beauty"},{"name":"로이드밤 파주야당역점","tel":"031-943-9195","addr":"경기도 파주시 야당동 1066-3번지","indutype":"보건위생 - 미용원","category":"beauty"},{"name":"아나덴(ANADEN)파주야당역점","tel":"031-8074-0030","addr":"경기도 파주시 야당동 1066-3번지","indutype":"보건위생 - 피부미용실","category":"beauty"}]},{"lat":"37.71034757","long":"126.76529469","imageIndex":13,"items":[{"name":"그레아헤어","tel":"031-948-1646","addr":"경기도 파주시 야당동 178-87번지","indutype":"보건위생 - 미용원","category":"beauty"}]},{"lat":"37.708622187","long":"126.75434538","imageIndex":13,"items":[{"name":"김지우스킨케어","tel":"031-942-1111","addr":"경기도 파주시 야당동 1026번지 한빛마을7단지","indutype":"보건위생 - 화장품","category":"beauty"}]},{"lat":"37.714871106","long":"126.76565452","imageIndex":13,"items":[{"name":"네일&젤","tel":"031-000-0000","addr":"경기도 파주시 야당동 217-2번지","indutype":"보건위생 - 피부미용실","category":"beauty"}]},{"lat":"37.71550263","long":"126.75727117","imageIndex":13,"items":[{"name":"네일더빛나","tel":"031-949-9181","addr":"경기도 파주시 야당동 991번지","indutype":"보건위생 - 피부미용실","category":"beauty"},{"name":"헤어라떼","tel":"031-948-2409","addr":"경기도 파주시 야당동 991번지","indutype":"보건위생 - 미용원","category":"beauty"}]},{"lat":"37.709349856","long":"126.74912631","imageIndex":13,"items":[{"name":"네일해쏭","tel":"031-111-1111","addr":"경기도 파주시 야당동 1023번지 한빛마을6단지","indutype":"보건위생 - 피부미용실","category":"beauty"},{"name":"아도라헤어","tel":"031-957-9288","addr":"경기도 파주시 야당동 1023번지 한빛마을6단지","indutype":"보건위생 - 미용원","category":"beauty"},{"name":"오땡큐 천연머리염색","tel":"031-942-3045","addr":"경기도 파주시 야당동 1023번지 한빛마을6단지","indutype":"보건위생 - 미용원","category":"beauty"},{"name":"올리브헤어","tel":"031-944-8322","addr":"경기도 파주시 야당동 1023번지 한빛마을6단지","indutype":"보건위생 - 미용원","category":"beauty"}]},{"lat":"37.710345322","long":"126.7597718","imageIndex":13,"items":[{"name":"노블수허브아로마","tel":"031-943-1369","addr":"경기도 파주시 야당동 1054번지","indutype":"보건위생 - 피부미용실","category":"beauty"},{"name":"리더미용실","tel":"031-944-1811","addr":"경기도 파주시 야당동 1054번지","indutype":"보건위생 - 미용원","category":"beauty"}]},{"lat":"37.711266656","long":"126.76534846","imageIndex":13,"items":[{"name":"누리중심","tel":"","addr":"경기도 파주시 야당동 183-4번지","indutype":"보건위생 - 기타대인서비스","category":"beauty"}]},{"lat":"37.713733253","long":"126.75993085","imageIndex":13,"items":[{"name":"다보네안경콘택트","tel":"031-947-9077","addr":"경기도 파주시 야당동 1070번지","indutype":"보건위생 - 안경","category":"beauty"},{"name":"더 맑은 스킨","tel":"031-948-6322","addr":"경기도 파주시 야당동 1070번지","indutype":"보건위생 - 피부미용실","category":"beauty"},{"name":"라뷰티수기센터","tel":"","addr":"경기도 파주시 야당동 1070번지","indutype":"보건위생 - 피부미용실","category":"beauty"},{"name":"아리따움야당(운정호수)역점","tel":"031-949-4936","addr":"경기도 파주시 야당동 1070번지","indutype":"보건위생 - 화장품","category":"beauty"},{"name":"챨리헤어","tel":"031-949-3906","addr":"경기도 파주시 야당동 1070번지","indutype":"보건위생 - 미용원","category":"beauty"},{"name":"햅번네일","tel":"031-946-6322","addr":"경기도 파주시 야당동 1070번지","indutype":"보건위생 - 피부미용실","category":"beauty"}]},{"lat":"37.712786669","long":"126.75965041","imageIndex":13,"items":[{"name":"동화속작은스케치","tel":"031-946-9078","addr":"경기도 파주시 야당동 1066-1번지","indutype":"보건위생 - 피부미용실","category":"beauty"}]},{"lat":"37.710570735","long":"126.75126554","imageIndex":13,"items":[{"name":"디엔지헤어(D&G Hair)","tel":"031-957-7758","addr":"경기도 파주시 야당동 1006-6번지","indutype":"보건위생 - 미용원","category":"beauty"}]},{"lat":"37.710265354","long":"126.75170886","imageIndex":13,"items":[{"name":"라라","tel":"031-949-7790","addr":"경기도 파주시 야당동 1006-8번지","indutype":"보건위생 - 피부미용실","category":"beauty"}]},{"lat":"37.710958414","long":"126.75998527","imageIndex":13,"items":[{"name":"레이디스토리","tel":"","addr":"경기도 파주시 야당동 1059번지","indutype":"보건위생 - 피부미용실","category":"beauty"},{"name":"샤인네일","tel":"031-957-2192","addr":"경기도 파주시 야당동 1059번지","indutype":"보건위생 - 피부미용실","category":"beauty"}]},{"lat":"37.715429087","long":"126.75229253","imageIndex":13,"items":[{"name":"리사헤어","tel":"031-946-2277","addr":"경기도 파주시 야당동 982번지","indutype":"보건위생 - 미용원","category":"beauty"}]},{"lat":"37.716536031","long":"126.76031865","imageIndex":13,"items":[{"name":"마음수련 운정센터","tel":"031-947-9951","addr":"경기도 파주시 야당동 1076번지","indutype":"보건위생 - 기타대인서비스","category":"beauty"},{"name":"무네네일","tel":"031-000-0000","addr":"경기도 파주시 야당동 1076번지","indutype":"보건위생 - 피부미용실","category":"beauty"},{"name":"일레븐(eleven)","tel":"","addr":"경기도 파주시 야당동 1076번지","indutype":"보건위생 - 미용원","category":"beauty"},{"name":"카라뷰","tel":"","addr":"경기도 파주시 야당동 1076번지","indutype":"보건위생 - 피부미용실","category":"beauty"}]},{"lat":"37.724732309","long":"126.76801641","imageIndex":13,"items":[{"name":"머리하기좋은날","tel":"031-949-4353","addr":"경기도 파주시 야당동 296-42","indutype":"보건위생 - 미용원","category":"beauty"}]},{"lat":"37.714763539","long":"126.76592705","imageIndex":13,"items":[{"name":"미장원 by M","tel":"031-948-0995","addr":"경기도 파주시 야당동 217-3번지","indutype":"보건위생 - 미용원","category":"beauty"}]},{"lat":"37.711070093","long":"126.75306704","imageIndex":13,"items":[{"name":"민뷰티앤아카데미","tel":"","addr":"경기도 파주시 야당동 976번지","indutype":"보건위생 - 피부미용실","category":"beauty"},{"name":"민헤어","tel":"031-947-7796","addr":"경기도 파주시 야당동 976번지","indutype":"보건위생 - 미용원","category":"beauty"}]},{"lat":"37.712260181","long":"126.76212446","imageIndex":13,"items":[{"name":"바비눈썹","tel":"031-943-2176","addr":"경기도 파주시 야당동 421-135번지","indutype":"보건위생 - 화장품","category":"beauty"}]},{"lat":"37.710984249","long":"126.75940681","imageIndex":13,"items":[{"name":"보아스","tel":"","addr":"경기도 파주시 야당동 1056-2번지","indutype":"보건위생 - 미용재료","category":"beauty"},{"name":"에스네일","tel":"","addr":"경기도 파주시 야당동 1056-2번지","indutype":"보건위생 - 피부미용실","category":"beauty"}]},{"lat":"37.71567973","long":"126.76012864","imageIndex":13,"items":[{"name":"뷰티베이(beauty bay)","tel":"031-000-0000","addr":"경기도 파주시 야당동 1074-1번지","indutype":"보건위생 - 피부미용실","category":"beauty"}]},{"lat":"37.708336688","long":"126.75142052","imageIndex":13,"items":[{"name":"뷰티엘","tel":"031-939-0978","addr":"경기도 파주시 야당동 1026번지 한빛마을7단지","indutype":"보건위생 - 미용재료","category":"beauty"}]},{"lat":"37.715285808","long":"126.74849364","imageIndex":13,"items":[{"name":"사랑천연염색헤어","tel":"034-944-8779","addr":"경기도 파주시 야당동 981번지","indutype":"보건위생 - 미용원","category":"beauty"},{"name":"큐어네일","tel":"031-949-2180","addr":"경기도 파주시 야당동 981번지","indutype":"보건위생 - 피부미용실","category":"beauty"},{"name":"헤어인","tel":"031-942-9383","addr":"경기도 파주시 야당동 981번지","indutype":"보건위생 - 미용원","category":"beauty"},{"name":"헤어인","tel":"02-111-1111","addr":"경기도 파주시 야당동 981번지","indutype":"보건위생 - 미용원","category":"beauty"}]},{"lat":"37.711953658","long":"126.75765714","imageIndex":13,"items":[{"name":"살롱드 리즈","tel":"031-922-2480","addr":"경기도 파주시 야당동 1016번지 롯데캐슬파크타운","indutype":"보건위생 - 미용원","category":"beauty"}]},{"lat":"37.711651118","long":"126.75948401","imageIndex":13,"items":[{"name":"살롱비(#SalonBee)","tel":"031-941-8280","addr":"경기도 파주시 야당동 1056번지","indutype":"보건위생 - 미용원","category":"beauty"},{"name":"씨에프매직","tel":"031-3946-5564","addr":"경기도 파주시 야당동 1056번지","indutype":"보건위생 - 화장품","category":"beauty"},{"name":"운정네일","tel":"031-935-4780","addr":"경기도 파주시 야당동 1056번지","indutype":"보건위생 - 피부미용실","category":"beauty"},{"name":"토리헤어야당역점","tel":"031-945-5977","addr":"경기도 파주시 야당동 1056번지","indutype":"보건위생 - 미용원","category":"beauty"}]},{"lat":"37.71103825","long":"126.74662559","imageIndex":13,"items":[{"name":"아름다운 시선 안경원","tel":"031-941-9333","addr":"경기도 파주시 야당동 1021번지","indutype":"보건위생 - 안경","category":"beauty"}]},{"lat":"37.717480822","long":"126.76862908","imageIndex":13,"items":[{"name":"아이통곡(일산점)","tel":"031-923-9984","addr":"경기도 파주시 야당동 239-83번지","indutype":"보건위생 - 기타대인서비스","category":"beauty"}]},{"lat":"37.713924343","long":"126.74802196","imageIndex":13,"items":[{"name":"아일랜드안경원","tel":"031-8071-5550","addr":"경기도 파주시 야당동 1000-2번지","indutype":"보건위생 - 안경","category":"beauty"}]},{"lat":"37.724090421","long":"126.77145529","imageIndex":13,"items":[{"name":"안경마루(운정)","tel":"031-8071-1991","addr":"경기도 파주시 야당동 1번지","indutype":"보건위생 - 안경","category":"beauty"}]},{"lat":"37.714426779","long":"126.76423827","imageIndex":13,"items":[{"name":"엘스킨","tel":"031-943-4661","addr":"경기도 파주시 야당동 220-14번지","indutype":"보건위생 - 화장품","category":"beauty"}]},{"lat":"37.712288851","long":"126.76292958","imageIndex":13,"items":[{"name":"예감헤어","tel":"031-949-5788","addr":"경기도 파주시 야당동 192-2번지 벨라타운","indutype":"보건위생 - 미용원","category":"beauty"}]},{"lat":"37.712120829","long":"126.7600722","imageIndex":13,"items":[{"name":"왁싱공주","tel":"031-947-7718","addr":"경기도 파주시 야당동 1063번지","indutype":"보건위생 - 화장품","category":"beauty"},{"name":"이철 헤어커커 야당역점","tel":"031-947-4545","addr":"경기도 파주시 야당동 1063번지","indutype":"보건위생 - 미용원","category":"beauty"}]},{"lat":"37.715265222","long":"126.76009597","imageIndex":13,"items":[{"name":"웅진피부명가","tel":"031-946-1911","addr":"경기도 파주시 야당동 1074-2번지","indutype":"보건위생 - 피부미용실","category":"beauty"}]},{"lat":"37.710791271","long":"126.76640467","imageIndex":13,"items":[{"name":"정우바이오 주식회사","tel":"031-943-4996","addr":"경기도 파주시 야당동 183-9번지","indutype":"보건위생 - 화장품","category":"beauty"}]},{"lat":"37.711091809","long":"126.75057199","imageIndex":13,"items":[{"name":"정하나의봄헤어","tel":"031-947-3224","addr":"경기도 파주시 야당동 1006-2번지","indutype":"보건위생 - 미용원","category":"beauty"}]},{"lat":"37.710067772","long":"126.76504609","imageIndex":13,"items":[{"name":"제이슬리헤어 JAYESSLEE","tel":"031-943-9438","addr":"경기도 파주시 야당동 178-123번지","indutype":"보건위생 - 미용원","category":"beauty"}]},{"lat":"37.707457963","long":"126.76207196","imageIndex":13,"items":[{"name":"조이풀헤어랩","tel":"031-943-8847","addr":"경기도 파주시 야당동 431-3번지","indutype":"보건위생 - 미용원","category":"beauty"}]},{"lat":"37.708537513","long":"126.75693127","imageIndex":13,"items":[{"name":"카라헤어","tel":"031-948-8845","addr":"경기도 파주시 야당동 1031번지 휴먼시아한빛마을 상가동 103호","indutype":"보건위생 - 미용원","category":"beauty"}]},{"lat":"37.70973116","long":"126.76343681","imageIndex":13,"items":[{"name":"코코널헤어","tel":"","addr":"경기도 파주시 야당동 178-27번지","indutype":"보건위생 - 미용원","category":"beauty"}]},{"lat":"37.70773195","long":"126.75948549","imageIndex":13,"items":[{"name":"클라라인비네일","tel":"031-942-0508","addr":"경기도 파주시 야당동 1048-1번지","indutype":"보건위생 - 피부미용실","category":"beauty"}]},{"lat":"37.711235548","long":"126.75037871","imageIndex":13,"items":[{"name":"토니모리파주운정점","tel":"031-946-9469","addr":"경기도 파주시 야당동 1006-1번지","indutype":"보건위생 - 화장품","category":"beauty"}]},{"lat":"37.715958627","long":"126.76434677","imageIndex":13,"items":[{"name":"펠리스 헤어&네일","tel":"031-943-7055","addr":"경기도 파주시 야당동 226-143번지","indutype":"보건위생 - 미용원","category":"beauty"}]},{"lat":"37.716321822","long":"126.76574062","imageIndex":13,"items":[{"name":"프롬오인터내셔널","tel":"031-943-4678","addr":"경기도 파주시 야당동 242번지","indutype":"보건위생 - 화장품","category":"beauty"}]},{"lat":"37.71047209","long":"126.75148135","imageIndex":13,"items":[{"name":"프린세스","tel":"031-943-1934","addr":"경기도 파주시 야당동 1006-7번지","indutype":"보건위생 - 미용원","category":"beauty"}]},{"lat":"37.722182211","long":"126.7678203","imageIndex":13,"items":[{"name":"피토케이","tel":"","addr":"경기도 파주시 야당동 45-59번지","indutype":"보건위생 - 화장품","category":"beauty"}]},{"lat":"37.71095703","long":"126.75074256","imageIndex":13,"items":[{"name":"헤어디자인상상","tel":"031-947-7679","addr":"경기도 파주시 야당동 1006-3번지 한강프라자 102호","indutype":"보건위생 - 미용원","category":"beauty"}]},{"lat":"37.705706951","long":"126.76495797","imageIndex":13,"items":[{"name":"헤어스타일샵","tel":"031-943-0772","addr":"경기도 파주시 야당동 148-3번지","indutype":"보건위생 - 미용원","category":"beauty"}]},{"lat":"37.713098206","long":"126.74929499","imageIndex":0,"items":[{"name":"강남구 출장세차","tel":"","addr":"경기도 파주시 야당동 975번지 한빛마을3단지자유로아이파크","indutype":"자동차정비 유지 - 세차장","category":"car"}]},{"lat":"37.713622215","long":"126.7629026","imageIndex":0,"items":[{"name":"보물섬","tel":"031-945-6221","addr":"경기도 파주시 야당동 192-54번지","indutype":"자동차정비 유지 - 자동차시트·타이어","category":"car"}]},{"lat":"37.712127303","long":"126.7632363","imageIndex":0,"items":[{"name":"스팀나인","tel":"031-000-0000","addr":"경기도 파주시 야당동 192-100번지 벨라타운","indutype":"자동차정비 유지 - 세차장","category":"car"}]},{"lat":"37.718233432","long":"126.77106521","imageIndex":0,"items":[{"name":"쏘나타모터스","tel":"031-944-9905","addr":"경기도 파주시 야당동 59-1번지","indutype":"자동차정비 유지 - 자동차정비","category":"car"}]},{"lat":"37.709411383","long":"126.74841165","imageIndex":0,"items":[{"name":"애니 일산","tel":"031-945-6759","addr":"경기도 파주시 야당동 1023번지 한빛마을6단지","indutype":"자동차정비 유지 - 견인서비스","category":"car"}]},{"lat":"37.711620505","long":"126.76212653","imageIndex":0,"items":[{"name":"야당현대드림","tel":"031-949-0100","addr":"경기도 파주시 야당동 421-46번지","indutype":"자동차정비 유지 - 자동차정비","category":"car"}]},{"lat":"37.710066701","long":"126.76901532","imageIndex":0,"items":[{"name":"와이미디어","tel":"","addr":"경기도 파주시 야당동 185-73번지","indutype":"자동차정비 유지 - 자동차부품","category":"car"}]},{"lat":"37.718342215","long":"126.77140512","imageIndex":0,"items":[{"name":"운정모터스","tel":"031-948-9905","addr":"경기도 파주시 야당동 59-3번지","indutype":"자동차정비 유지 - 자동차정비","category":"car"}]},{"lat":"37.703733423","long":"126.76032636","imageIndex":0,"items":[{"name":"워시스퀘어","tel":"031-948-5287","addr":"경기도 파주시 야당동 927번지","indutype":"자동차정비 유지 - 세차장","category":"car"}]},{"lat":"37.716094215","long":"126.76014997","imageIndex":0,"items":[{"name":"월드타워 7차 운영위원회","tel":"031-945-0018","addr":"경기도 파주시 야당동 1074번지","indutype":"자동차정비 유지 - 주차장","category":"car"}]},{"lat":"37.704595449","long":"126.76331725","imageIndex":0,"items":[{"name":"유일모터스","tel":"031-946-9430","addr":"경기도 파주시 야당동 469-115","indutype":"자동차정비 유지 - 자동차정비","category":"car"}]},{"lat":"37.710258365","long":"126.76573727","imageIndex":0,"items":[{"name":"이레모터스","tel":"031-4531-9004","addr":"경기도 파주시 야당동 178-92번지","indutype":"자동차정비 유지 - 자동차정비","category":"car"}]},{"lat":"37.709819502","long":"126.76257464","imageIndex":0,"items":[{"name":"자르트카케어","tel":"031-944-2994","addr":"경기도 파주시 야당동 178-14번지","indutype":"자동차정비 유지 - 세차장","category":"car"}]},{"lat":"37.721118092","long":"126.7673246","imageIndex":0,"items":[{"name":"카엔조이","tel":"031-944-8619","addr":"경기도 파주시 야당동 45-85번지","indutype":"자동차정비 유지 - 자동차부품","category":"car"}]},{"lat":"37.712370744","long":"126.76332625","imageIndex":0,"items":[{"name":"포인트(POINT)","tel":"","addr":"경기도 파주시 야당동 421-31번지","indutype":"자동차정비 유지 - 자동차부품","category":"car"}]},{"lat":"37.715195172","long":"126.7567278","imageIndex":0,"items":[{"name":"하나윤활유","tel":"031-944-8742","addr":"경기도 파주시 야당동 991번지 한빛마을5단지캐슬앤칸타빌","indutype":"자동차정비 유지 - 윤활유 전문 판매","category":"car"}]},{"lat":"37.716537708","long":"126.76556981","imageIndex":0,"items":[{"name":"하은인터내셔널","tel":"031-844-2310","addr":"경기도 파주시 야당동 243-23번지","indutype":"자동차정비 유지 - 자동차부품","category":"car"}]},{"lat":"37.714427173","long":"126.76001931","imageIndex":8,"items":[{"name":"강산약국","tel":"031-8035-7102","addr":"경기도 파주시 야당동 1072-1번지","indutype":"약국 - 약국","category":"medical"},{"name":"야당연세정형외과","tel":"031-937-8675","addr":"경기도 파주시 야당동 1072-1번지","indutype":"의원 - 의원","category":"medical"},{"name":"연세미소치과","tel":"031-945-2807","addr":"경기도 파주시 야당동 1072-1번지","indutype":"의원 - 치과의원","category":"medical"},{"name":"파주맑은이비인후과의원","tel":"031-946-5255","addr":"경기도 파주시 야당동 1072-1번지","indutype":"의원 - 의원","category":"medical"}]},{"lat":"37.713733253","long":"126.75993085","imageIndex":8,"items":[{"name":"경원한의원","tel":"031-1644-7535","addr":"경기도 파주시 야당동 1070번지","indutype":"의원 - 한의원","category":"medical"},{"name":"바른고은이치과","tel":"031-947-4748","addr":"경기도 파주시 야당동 1070번지","indutype":"의원 - 치과의원","category":"medical"},{"name":"야당연세내과","tel":"031-946-9875","addr":"경기도 파주시 야당동 1070번지","indutype":"의원 - 의원","category":"medical"}]},{"lat":"37.711235548","long":"126.75037871","imageIndex":8,"items":[{"name":"김앤김치과의원","tel":"031-8071-2500","addr":"경기도 파주시 야당동 1006-1번지","indutype":"의원 - 치과의원","category":"medical"}]},{"lat":"37.711370327","long":"126.75020814","imageIndex":8,"items":[{"name":"다정동물병원","tel":"031-944-5077","addr":"경기도 파주시 야당동 1006번지","indutype":"기타의료기관 - 동물병원","category":"medical"},{"name":"연세오복치과","tel":"031-941-3833","addr":"경기도 파주시 야당동 1006번지","indutype":"의원 - 치과의원","category":"medical"},{"name":"우주한의원","tel":"031-947-7975","addr":"경기도 파주시 야당동 1006번지","indutype":"의원 - 한의원","category":"medical"},{"name":"퀸산부인과의원","tel":"031-947-8820","addr":"경기도 파주시 야당동 1006번지 지앤지프라자 301호","indutype":"의원 - 의원","category":"medical"},{"name":"한그루약국","tel":"031-948-7727","addr":"경기도 파주시 야당동 1006번지","indutype":"약국 - 약국","category":"medical"}]},{"lat":"37.714787601","long":"126.76004082","imageIndex":8,"items":[{"name":"미래아이연합의원","tel":"031-948-1275","addr":"경기도 파주시 야당동 1072번지","indutype":"의원 - 의원","category":"medical"},{"name":"운정문항외과의원","tel":"031-943-0210","addr":"경기도 파주시 야당동 1072번지","indutype":"의원 - 의원","category":"medical"},{"name":"운정스마일약국","tel":"031-941-3578","addr":"경기도 파주시 야당동 1072번지","indutype":"약국 - 약국","category":"medical"}]},{"lat":"37.710570735","long":"126.75126554","imageIndex":8,"items":[{"name":"미소준치과","tel":"031-8071-3113","addr":"경기도 파주시 야당동 1006-6번지","indutype":"의원 - 치과의원","category":"medical"}]},{"lat":"37.710345322","long":"126.7597718","imageIndex":8,"items":[{"name":"베스트원 치과","tel":"031-949-1526","addr":"경기도 파주시 야당동 1054번지","indutype":"의원 - 치과의원","category":"medical"}]},{"lat":"37.712480298","long":"126.75962873","imageIndex":8,"items":[{"name":"새창조약국","tel":"031-941-4334","addr":"경기도 파주시 야당동 1066-2번지","indutype":"약국 - 약국","category":"medical"},{"name":"야당열린치과의원","tel":"031-8035-6320","addr":"경기도 파주시 야당동 1066-2번지","indutype":"의원 - 치과의원","category":"medical"},{"name":"운정한빛동물병원","tel":"031-944-7179","addr":"경기도 파주시 야당동 1066-2번지","indutype":"기타의료기관 - 동물병원","category":"medical"}]},{"lat":"37.712209896","long":"126.75957291","imageIndex":8,"items":[{"name":"서울365외과의원","tel":"031-947-7277","addr":"경기도 파주시 야당동 1066-3번지","indutype":"의원 - 의원","category":"medical"},{"name":"서울365외과의원","tel":"031-947-7277","addr":"경기도 파주시 야당동 1066-3번지","indutype":"의원 - 의원","category":"medical"},{"name":"우리들약국","tel":"031-937-8855","addr":"경기도 파주시 야당동 1066-3번지","indutype":"약국 - 약국","category":"medical"}]},{"lat":"37.712786669","long":"126.75965041","imageIndex":8,"items":[{"name":"서울호수치과","tel":"031-944-2279","addr":"경기도 파주시 야당동 1066-1번지","indutype":"의원 - 치과의원","category":"medical"}]},{"lat":"37.715265222","long":"126.76009597","imageIndex":8,"items":[{"name":"야당동물병원","tel":"031-948-7579","addr":"경기도 파주시 야당동 1074-2번지","indutype":"기타의료기관 - 동물병원","category":"medical"}]},{"lat":"37.716094215","long":"126.76014997","imageIndex":8,"items":[{"name":"연세나을암요양병원","tel":"031-949-4188","addr":"경기도 파주시 야당동 1074번지","indutype":"병원 - 병원","category":"medical"}]},{"lat":"37.71047209","long":"126.75148135","imageIndex":8,"items":[{"name":"우리내과의원","tel":"031-957-5966","addr":"경기도 파주시 야당동 1006-7번지","indutype":"의원 - 의원","category":"medical"},{"name":"운정힐링동물병원","tel":"031-8071-0075","addr":"경기도 파주시 야당동 1006-7번지","indutype":"기타의료기관 - 동물병원","category":"medical"},{"name":"한사랑약국","tel":"031-949-2365","addr":"경기도 파주시 야당동 1006-7번지","indutype":"약국 - 약국","category":"medical"},{"name":"한주한의원","tel":"031-935-5610","addr":"경기도 파주시 야당동 1006-7번지","indutype":"의원 - 한의원","category":"medical"}]},{"lat":"37.713898857","long":"126.74873654","imageIndex":8,"items":[{"name":"우리소아청소년과의원","tel":"031-970-1352","addr":"경기도 파주시 야당동 1000-5번지","indutype":"의원 - 의원","category":"medical"},{"name":"운정디스플레이치과","tel":"031-948-2874","addr":"경기도 파주시 야당동 1000-5번지","indutype":"의원 - 치과의원","category":"medical"},{"name":"한빛중앙약국","tel":"031-945-3010","addr":"경기도 파주시 야당동 1000-5번지","indutype":"약국 - 약국","category":"medical"}]},{"lat":"37.710265354","long":"126.75170886","imageIndex":8,"items":[{"name":"운정부부한의원","tel":"031-944-9131","addr":"경기도 파주시 야당동 1006-8번지","indutype":"의원 - 한의원","category":"medical"}]},{"lat":"37.716536031","long":"126.76031865","imageIndex":8,"items":[{"name":"운정호수동물메디컬센터","tel":"031-937-8225","addr":"경기도 파주시 야당동 1076번지","indutype":"기타의료기관 - 동물병원","category":"medical"}]},{"lat":"37.713932862","long":"126.74779511","imageIndex":8,"items":[{"name":"한빛한의원","tel":"031-945-7433","addr":"경기도 파주시 야당동 1000-1번지","indutype":"의원 - 한의원","category":"medical"}]},{"lat":"37.711070093","long":"126.75306704","imageIndex":7,"items":[{"name":"다물마트","tel":"031-957-0690","addr":"경기도 파주시 야당동 976번지","indutype":"유통업 영리 - 슈퍼마켓","category":"mart"}]},{"lat":"37.70983192","long":"126.76425301","imageIndex":7,"items":[{"name":"마리솔편의점","tel":"","addr":"경기도 파주시 야당동 178-29번지 신성그린빌","indutype":"유통업 영리 - 슈퍼마켓","category":"mart"}]},{"lat":"37.709349856","long":"126.74912631","imageIndex":7,"items":[{"name":"열린할인마트","tel":"031-945-3972","addr":"경기도 파주시 야당동 1023번지 한빛마을6단지","indutype":"유통업 영리 - 슈퍼마켓","category":"mart"}]},{"lat":"37.724487174","long":"126.7716242","imageIndex":7,"items":[{"name":"운정마트","tel":"070-7529-8843","addr":"경기도 파주시 야당동 24-6번지","indutype":"유통업 영리 - 슈퍼마켓","category":"mart"}]},{"lat":"37.710153201","long":"126.76274367","imageIndex":7,"items":[{"name":"주식회사 여울","tel":"031-944-7546","addr":"경기도 파주시 야당동 178-41번지","indutype":"유통업 영리 - 슈퍼마켓","category":"mart"}]},{"lat":"37.711235548","long":"126.75037871","imageIndex":7,"items":[{"name":"초록마을 파주운정점","tel":"031-941-6220","addr":"경기도 파주시 야당동 1006-1번지","indutype":"유통업 영리 - 슈퍼마켓","category":"mart"}]},{"lat":"37.710898885","long":"126.76615483","imageIndex":7,"items":[{"name":"하우개마트","tel":"031-949-2323","addr":"경기도 파주시 야당동 183-1번지","indutype":"유통업 영리 - 슈퍼마켓","category":"mart"}]},{"lat":"37.704815156","long":"126.75626318","imageIndex":7,"items":[{"name":"한마트","tel":"031-257-6699","addr":"경기도 파주시 야당동 486-7","indutype":"유통업 영리 - 슈퍼마켓","category":"mart"}]},{"lat":"37.717873417","long":"126.76671107","imageIndex":7,"items":[{"name":"힐링마트","tel":"031-948-5656","addr":"경기도 파주시 야당동 239-185번지","indutype":"유통업 영리 - 슈퍼마켓","category":"mart"}]},{"lat":"37.724428308","long":"126.76918568","imageIndex":9,"items":[{"name":"소망연탄","tel":"031-942-6013","addr":"경기도 파주시 야당동 34-1번지","indutype":"연료판매점 - 기타연료","category":"oil"}]}]