[{"lat":"37.332870539","long":"127.11002069","imageIndex":0,"items":[{"name":"(주)글로벌산전","tel":"","addr":"경기도 용인시 수지구 죽전동 879-24번지","indutype":"자동차정비 유지 - 자동차부품","category":"car"}]},{"lat":"37.331033166","long":"127.10923953","imageIndex":0,"items":[{"name":"(주)더제이퍼스트","tel":"031-265-0441","addr":"경기도 용인시 수지구 죽전동 887번지 죽전효성해링턴 플레이스 지하3층","indutype":"자동차정비 유지 - 주차장","category":"car"}]},{"lat":"37.33048106","long":"127.11196932","imageIndex":0,"items":[{"name":"JL모터스","tel":"070-4214-8257","addr":"경기도 용인시 수지구 죽전동 554-22번지","indutype":"자동차정비 유지 - 자동차정비","category":"car"}]},{"lat":"37.331201728","long":"127.11212833","imageIndex":0,"items":[{"name":"거상카센타","tel":"031-262-1345","addr":"경기도 용인시 수지구 죽전동 549번지","indutype":"자동차정비 유지 - 세차장","category":"car"},{"name":"거상카센타","tel":"031-262-1345","addr":"경기도 용인시 수지구 죽전동 549번지","indutype":"자동차정비 유지 - 자동차정비","category":"car"}]},{"lat":"37.327092439","long":"127.11282191","imageIndex":0,"items":[{"name":"그린피아 관리단","tel":"031-896-1665","addr":"경기도 용인시 수지구 죽전동 452-6번지","indutype":"자동차정비 유지 - 주차장","category":"car"}]},{"lat":"37.322145764","long":"127.11290496","imageIndex":0,"items":[{"name":"뉴원카센타","tel":"031-266-7566","addr":"경기도 용인시 수지구 죽전동 1301-2번지","indutype":"자동차정비 유지 - 자동차정비","category":"car"}]},{"lat":"37.325368313","long":"127.12524151","imageIndex":0,"items":[{"name":"단국현대모터스","tel":"031-261-3777","addr":"경기도 용인시 수지구 죽전동 1341번지 승은프라자 103동 104호","indutype":"자동차정비 유지 - 자동차부품","category":"car"},{"name":"에일리언워시","tel":"031-266-8860","addr":"경기도 용인시 수지구 죽전동 1341번지 승은프라자 112호","indutype":"자동차정비 유지 - 세차장","category":"car"}]},{"lat":"37.329233047","long":"127.12585707","imageIndex":0,"items":[{"name":"대지카센타","tel":"031-261-2755","addr":"경기도 용인시 수지구 죽전동 184-7","indutype":"자동차정비 유지 - 자동차정비","category":"car"}]},{"lat":"37.326146076","long":"127.11313645","imageIndex":0,"items":[{"name":"드림오토바이","tel":"031-264-4087","addr":"경기도 용인시 수지구 죽전동 437","indutype":"자동차판매 - 이륜차판매","category":"car"},{"name":"모터파크","tel":"031-261-6667","addr":"경기도 용인시 수지구 죽전동 437","indutype":"자동차정비 유지 - 세차장","category":"car"}]},{"lat":"37.330283075","long":"127.11170951","imageIndex":0,"items":[{"name":"라이프세차장","tel":"031-262-2802","addr":"경기도 용인시 수지구 죽전동 1073-3번지 1층","indutype":"자동차정비 유지 - 세차장","category":"car"}]},{"lat":"37.337091055","long":"127.10579506","imageIndex":0,"items":[{"name":"매직터치분당오리점","tel":"031-263-8272","addr":"경기도 용인시 수지구 죽전동 1111번지 창죽마을벽산첼시빌단지 상가 101동 102호","indutype":"자동차정비 유지 - 카인테리어","category":"car"}]},{"lat":"37.331844901","long":"127.1269107","imageIndex":0,"items":[{"name":"명진카서비스","tel":"031-263-8285","addr":"경기도 용인시 수지구 죽전동 1188-3번지","indutype":"자동차정비 유지 - 자동차시트·타이어","category":"car"}]},{"lat":"37.326452401","long":"127.11315946","imageIndex":0,"items":[{"name":"모터파크카센터","tel":"031-261-6667","addr":"경기도 용인시 수지구 죽전동 436번지","indutype":"자동차정비 유지 - 자동차정비","category":"car"}]},{"lat":"37.328758258","long":"127.11396393","imageIndex":0,"items":[{"name":"범창기업 (주)_포인트타운","tel":"031-889-4966","addr":"경기도 용인시 수지구 죽전동 485-1번지 미래빌딩","indutype":"자동차정비 유지 - 주차장","category":"car"}]},{"lat":"37.326789412","long":"127.10918841","imageIndex":0,"items":[{"name":"블랙박스&네비게이션AS센타","tel":"031-262-6331","addr":"경기도 용인시 수지구 죽전동 1003-112번지 동춘프라자 110,111호","indutype":"자동차정비 유지 - 자동차부품","category":"car"}]},{"lat":"37.333152016","long":"127.10760637","imageIndex":0,"items":[{"name":"비전모터스","tel":"031-693-5480","addr":"경기도 용인시 수지구 죽전동 873-1번지","indutype":"자동차정비 유지 - 자동차정비","category":"car"}]},{"lat":"37.332145379","long":"127.12387591","imageIndex":0,"items":[{"name":"삼성주차장","tel":"031-889-2641","addr":"경기도 용인시 수지구 죽전동 1178-4번지","indutype":"자동차정비 유지 - 주차장","category":"car"}]},{"lat":"37.332870386","long":"127.11018995","imageIndex":0,"items":[{"name":"삼정자동차공업사","tel":"031-265-0798","addr":"경기도 용인시 수지구 죽전동 879-19번지","indutype":"자동차정비 유지 - 자동차정비","category":"car"}]},{"lat":"37.334700032","long":"127.10954936","imageIndex":0,"items":[{"name":"성지카센타","tel":"031-276-2422","addr":"경기도 용인시 수지구 죽전동 926","indutype":"자동차정비 유지 - 자동차부품","category":"car"}]},{"lat":"37.331952183","long":"127.11885441","imageIndex":0,"items":[{"name":"소망자동차 서비스","tel":"031-897-8455","addr":"경기도 용인시 수지구 죽전동 1173-3번지","indutype":"자동차정비 유지 - 자동차정비","category":"car"}]},{"lat":"37.32314749","long":"127.1206122","imageIndex":0,"items":[{"name":"수지출장세차","tel":"02-0000-0000","addr":"경기도 용인시 수지구 죽전동 1307번지 꽃메마을아이파크 101동 502호","indutype":"자동차정비 유지 - 세차장","category":"car"}]},{"lat":"37.329341263","long":"127.12576698","imageIndex":0,"items":[{"name":"스파이썬팅","tel":"031-265-7077","addr":"경기도 용인시 수지구 죽전동 1227번지 죽전골프연습장 가동 103호","indutype":"자동차정비 유지 - 카인테리어","category":"car"}]},{"lat":"37.32967231","long":"127.11915556","imageIndex":0,"items":[{"name":"스피드메이트 대지산점","tel":"031-2364-1290","addr":"경기도 용인시 수지구 죽전동 1240번지","indutype":"자동차정비 유지 - 자동차정비","category":"car"}]},{"lat":"37.327537034","long":"127.10943769","imageIndex":0,"items":[{"name":"신세계 카 써비스","tel":"031-262-5282","addr":"경기도 용인시 수지구 죽전동 1003-477번지 1-4호","indutype":"자동차정비 유지 - 카인테리어","category":"car"},{"name":"죽전모터스","tel":"031-263-0242","addr":"경기도 용인시 수지구 죽전동 1003-477번지","indutype":"자동차정비 유지 - 자동차정비","category":"car"}]},{"lat":"37.331589165","long":"127.11212889","imageIndex":0,"items":[{"name":"쌍용자동차 수지서비스프라자","tel":"031-276-5582","addr":"경기도 용인시 수지구 죽전동 548번지","indutype":"자동차정비 유지 - 자동차정비","category":"car"}]},{"lat":"37.330787208","long":"127.11218414","imageIndex":0,"items":[{"name":"애니카랜드죽전점","tel":"031-262-6462","addr":"경기도 용인시 수지구 죽전동 551-2,3","indutype":"자동차정비 유지 - 자동차부품","category":"car"},{"name":"주용철 세차장","tel":"031-661-4944","addr":"경기도 용인시 수지구 죽전동 551-2번지 애니카랜드 죽전점","indutype":"자동차정비 유지 - 세차장","category":"car"}]},{"lat":"37.327762461","long":"127.1092462","imageIndex":0,"items":[{"name":"이에스(ES)모터스","tel":"031-262-5282","addr":"경기도 용인시 수지구 죽전동 1003-180번지 가동104,105호","indutype":"자동차정비 유지 - 카인테리어","category":"car"},{"name":"카나비","tel":"031-261-2888","addr":"경기도 용인시 수지구 죽전동 1003-180 가-101","indutype":"자동차정비 유지 - 자동차부품","category":"car"}]},{"lat":"37.329178859","long":"127.11698843","imageIndex":0,"items":[{"name":"이우자동차정비공업사","tel":"031-889-5266","addr":"경기도 용인시 수지구 죽전동 1253-2번지","indutype":"자동차정비 유지 - 자동차정비","category":"car"},{"name":"이우자동차정비공업사","tel":"031-742-8152","addr":"경기도 용인시 수지구 죽전동 1253-2번지","indutype":"자동차정비 유지 - 자동차정비","category":"car"}]},{"lat":"37.32937067","long":"127.10423874","imageIndex":0,"items":[{"name":"제로모터스(ZERO Mortors)","tel":"","addr":"경기도 용인시 수지구 죽전동 1003-209번지 1층","indutype":"자동차정비 유지 - 카인테리어","category":"car"},{"name":"카프로 덴트,썬팅","tel":"031-272-1010","addr":"경기도 용인시 수지구 죽전동 1003-209번지 1층","indutype":"자동차정비 유지 - 자동차정비","category":"car"}]},{"lat":"37.331872252","long":"127.10796567","imageIndex":0,"items":[{"name":"제이케이모터스","tel":"031-264-3311","addr":"경기도 용인시 수지구 죽전동 882-5번지","indutype":"자동차정비 유지 - 자동차부품","category":"car"}]},{"lat":"37.326033695","long":"127.10791241","imageIndex":0,"items":[{"name":"주식회사타이어테크죽전신세계점","tel":"031-1855-0606","addr":"경기도 용인시 수지구 죽전동 1003-120번지 하이카프라자","indutype":"자동차정비 유지 - 자동차시트·타이어","category":"car"},{"name":"죽전자동차정비센타","tel":"031-206-7447","addr":"경기도 용인시 수지구 죽전동 1003-120번지","indutype":"자동차정비 유지 - 자동차정비","category":"car"},{"name":"타이어365+/(주)강남명품타이어 죽전지점","tel":"031-266-3305","addr":"경기도 용인시 수지구 죽전동 1003-120번지 외2필지 하이카프라자","indutype":"자동차정비 유지 - 자동차시트·타이어","category":"car"}]},{"lat":"37.326340031","long":"127.11762726","imageIndex":0,"items":[{"name":"죽전오토바이","tel":"","addr":"경기도 용인시 수지구 죽전동 347-7번지 1동 지1층 B102호","indutype":"자동차판매 - 이륜차판매","category":"car"}]},{"lat":"37.324765694","long":"127.11507502","imageIndex":0,"items":[{"name":"출장세차","tel":"","addr":"경기도 용인시 수지구 죽전동 414번지 도담마을7단지뜨리에체아파트 705동 101호","indutype":"자동차정비 유지 - 세차장","category":"car"}]},{"lat":"37.332456869","long":"127.1276","imageIndex":0,"items":[{"name":"카매니저","tel":"031-897-0878","addr":"경기도 용인시 수지구 죽전동 1185-2,유토피아1층1호,2호","indutype":"자동차정비 유지 - 자동차정비","category":"car"}]},{"lat":"37.336218974","long":"127.12290071","imageIndex":0,"items":[{"name":"캐프와이퍼 경기총판","tel":"031-000-0000","addr":"경기도 용인시 수지구 죽전동 1165번지 새터마을죽전힐스테이트 723동 1103호","indutype":"자동차정비 유지 - 자동차부품","category":"car"}]},{"lat":"37.325284081","long":"127.10988581","imageIndex":0,"items":[{"name":"클린보이죽전점","tel":"031-272-5854","addr":"경기도 용인시 수지구 죽전동 1282번지 이마트 5층 스팀세차코너","indutype":"자동차정비 유지 - 세차장","category":"car"},{"name":"클린보이코리아","tel":"031-272-5854","addr":"경기도 용인시 수지구 죽전동 1282번지 5층","indutype":"자동차정비 유지 - 세차장","category":"car"}]},{"lat":"37.324925292","long":"127.1080801","imageIndex":0,"items":[{"name":"클린보이코리아신세계죽전점","tel":"031-897-5855","addr":"경기도 용인시 수지구 죽전동 1285번지 (주)신세계백화점경기점 주차장 2층","indutype":"자동차정비 유지 - 세차장","category":"car"}]},{"lat":"37.332843253","long":"127.11030275","imageIndex":0,"items":[{"name":"톨장군네","tel":"0505-217-2874","addr":"경기도 용인시 수지구 죽전동 879-17번지","indutype":"자동차정비 유지 - 자동차부품","category":"car"}]},{"lat":"37.323819445","long":"127.12438155","imageIndex":0,"items":[{"name":"투율무역","tel":"031-898-1121","addr":"경기도 용인시 수지구 죽전동 1328-3번지 단대프라자III 5층 530호","indutype":"자동차정비 유지 - 자동차시트·타이어","category":"car"}]},{"lat":"37.330900179","long":"127.10680212","imageIndex":0,"items":[{"name":"틴트허브","tel":"02-1111-1111","addr":"경기도 용인시 수지구 죽전동 897-2번지 죽전중앙빌 1층 101호","indutype":"자동차정비 유지 - 카인테리어","category":"car"}]},{"lat":"37.332005645","long":"127.11946381","imageIndex":0,"items":[{"name":"한빛모터스","tel":"031-896-8400","addr":"경기도 용인시 수지구 죽전동 1175-10번지","indutype":"자동차정비 유지 - 자동차정비","category":"car"}]},{"lat":"37.327844672","long":"127.10799391","imageIndex":0,"items":[{"name":"현대자동차죽전써비스 세차장","tel":"031-263-0090","addr":"경기도 용인시 수지구 죽전동 1003-72번지","indutype":"자동차정비 유지 - 세차장","category":"car"}]},{"lat":"37.327763209","long":"127.10841126","imageIndex":0,"items":[{"name":"현암개발","tel":"","addr":"경기도 용인시 수지구 죽전동 1003-70번지","indutype":"자동차정비 유지 - 주차장","category":"car"}]}]