[{"lat":"37.825862436","long":"126.73765353","imageIndex":17,"items":[{"name":"Best OA","tel":"031-944-7745","addr":"경기도 파주시 탄현면 금승리 602-1 1층","indutype":"사무통신 - 사무용 OA기기","category":"other"}]},{"lat":"37.825718415","long":"126.73771084","imageIndex":17,"items":[{"name":"GS25파주금승점","tel":"","addr":"경기도 파주시 탄현면 금승리 602-2번지","indutype":"유통업 영리 - 편 의 점","category":"other"}]},{"lat":"37.828279182","long":"126.73465755","imageIndex":17,"items":[{"name":"SM피앤텍","tel":"031-908-5251","addr":"경기도 파주시 탄현면 금승리 586-2번지","indutype":"용역 서비스 - 사무서비스","category":"other"}]},{"lat":"37.821666495","long":"126.74690233","imageIndex":17,"items":[{"name":"대의종합안전","tel":"031-944-9888","addr":"경기도 파주시 탄현면 금승리 163-1번지","indutype":"기타 - 기계공구","category":"other"}]},{"lat":"37.825078548","long":"126.73762227","imageIndex":17,"items":[{"name":"만능공구수리","tel":"031-944-0777","addr":"경기도 파주시 탄현면 금승리 390번지","indutype":"수리서비스 - 기타수리서비스","category":"other"},{"name":"한국천막공사","tel":"031-945-5415","addr":"경기도 파주시 탄현면 금승리 390번지","indutype":"직물 - 카페트,커튼,천막,지물","category":"other"}]},{"lat":"37.829776872","long":"126.73165338","imageIndex":17,"items":[{"name":"백제금속","tel":"031-944-3603","addr":"경기도 파주시 탄현면 금승리 445-8번지","indutype":"기타 - 기타 전문점","category":"other"}]},{"lat":"37.810418924","long":"126.75782017","imageIndex":17,"items":[{"name":"세븐일레븐파주TOP점","tel":"031-1577-0711","addr":"경기도 파주시 탄현면 금승리 11-1번지","indutype":"유통업 영리 - 편 의 점","category":"other"}]},{"lat":"37.82830683","long":"126.73493006","imageIndex":17,"items":[{"name":"신성M.D.M","tel":"031-949-8811","addr":"경기도 파주시 탄현면 금승리 586-3","indutype":"용역 서비스 - 종합용역","category":"other"}]},{"lat":"37.812884665","long":"126.7479888","imageIndex":17,"items":[{"name":"씨유파주어게인점","tel":"031-941-1748","addr":"경기도 파주시 탄현면 금승리 259-5번지","indutype":"유통업 영리 - 편 의 점","category":"other"}]},{"lat":"37.799728268","long":"126.75520993","imageIndex":17,"items":[{"name":"씨유파주월롱산점","tel":"031-949-2140","addr":"경기도 파주시 탄현면 금승리 583-9번지","indutype":"유통업 영리 - 편 의 점","category":"other"}]},{"lat":"37.811583371","long":"126.74617629","imageIndex":17,"items":[{"name":"용진테크","tel":"031-949-8658","addr":"경기도 파주시 탄현면 금승리 264-18번지","indutype":"기타 - 기계공구","category":"other"}]},{"lat":"37.818191023","long":"126.73570484","imageIndex":17,"items":[{"name":"웅지세무대구내서점","tel":"031-941-9058","addr":"경기도 파주시 탄현면 금승리 536-2번지","indutype":"서적문구 - 일반서적","category":"other"},{"name":"웅지세무대학교 산학협력단","tel":"031-940-3106","addr":"경기도 파주시 탄현면 금승리 536-2번지","indutype":"용역 서비스 - 사무서비스","category":"other"}]},{"lat":"37.824884575","long":"126.73551034","imageIndex":17,"items":[{"name":"원영공구","tel":"031-924-8209","addr":"경기도 파주시 탄현면 금승리 422-3번지","indutype":"기타 - 기계공구","category":"other"}]},{"lat":"37.81014119","long":"126.75857057","imageIndex":17,"items":[{"name":"유화컴퍼니","tel":"031-913-6037","addr":"경기도 파주시 탄현면 금승리 11-3번지","indutype":"서적문구 - 출판 및 인쇄물","category":"other"}]},{"lat":"37.825886696","long":"126.73642675","imageIndex":17,"items":[{"name":"인서앤지니어링","tel":"031-946-1545","addr":"경기도 파주시 탄현면 금승리 597-12번지","indutype":"기타 - 기계공구","category":"other"}]},{"lat":"37.826635626","long":"126.73693519","imageIndex":17,"items":[{"name":"제이투그린","tel":"031-000-0000","addr":"경기도 파주시 탄현면 금승리 596-4번지","indutype":"문화.취미 - 화원","category":"other"}]},{"lat":"37.828304435","long":"126.75015071","imageIndex":17,"items":[{"name":"주식회사 다빈치기획","tel":"02-000-0000","addr":"경기도 파주시 탄현면 금승리 120번지","indutype":"전기제품 - 가전제품","category":"other"}]},{"lat":"37.829223183","long":"126.72987207","imageIndex":17,"items":[{"name":"주식회사 중앙카스포","tel":"031-942-1145","addr":"경기도 파주시 탄현면 금승리 467번지","indutype":"레져용품 - 스포츠·레져용품","category":"other"}]},{"lat":"37.828743853","long":"126.73298613","imageIndex":17,"items":[{"name":"주식회사윈스","tel":"031-947-9205","addr":"경기도 파주시 탄현면 금승리 469-11번지","indutype":"건축자재 - 기타건축자재","category":"other"}]},{"lat":"37.809392894","long":"126.75832321","imageIndex":17,"items":[{"name":"지모바일","tel":"","addr":"경기도 파주시 탄현면 금승리 11-33번지","indutype":"사무통신 - 통신기기","category":"other"}]},{"lat":"37.822134685","long":"126.74676442","imageIndex":17,"items":[{"name":"태성건재","tel":"031-942-0085","addr":"경기도 파주시 탄현면 금승리 162-2번지","indutype":"기타 - 기계공구","category":"other"}]},{"lat":"37.830471818","long":"126.73218471","imageIndex":17,"items":[{"name":"핀플러스","tel":"031-945-3580","addr":"경기도 파주시 탄현면 금승리 445-5번지","indutype":"전기제품 - 기타전기제품","category":"other"}]}]