[{"lat":"36.98760521","long":"126.84472842","imageIndex":8,"items":[{"name":"꿈소아청소년과의원","tel":"031-6848-1831","addr":"경기도 평택시 포승읍 도곡리 1122-1번지 304호","indutype":"의원 - 의원","category":"medical"},{"name":"도곡한의원","tel":"031-683-3785","addr":"경기도 평택시 포승읍 도곡리 1122-1번지 스타타워 3층 301호,302호","indutype":"의원 - 한의원","category":"medical"},{"name":"스타약국","tel":"031-684-2024","addr":"경기도 평택시 포승읍 도곡리 1122-1번지 포승스타타워 107.108호","indutype":"약국 - 약국","category":"medical"},{"name":"윤약국","tel":"031-686-7411","addr":"경기도 평택시 포승읍 도곡리 1122-1","indutype":"약국 - 약국","category":"medical"}]},{"lat":"36.987381077","long":"126.84558255","imageIndex":8,"items":[{"name":"민들레약국","tel":"031-681-5177","addr":"경기도 평택시 포승읍 도곡리 1144-6번지 1층","indutype":"약국 - 약국","category":"medical"},{"name":"행림내과의원","tel":"031-686-8820","addr":"경기도 평택시 포승읍 도곡리 1144-6번지","indutype":"서비스업 - 병원","category":"medical"}]},{"lat":"36.988489466","long":"126.84563643","imageIndex":8,"items":[{"name":"베스트민 치과의원","tel":"031-686-7525","addr":"경기도 평택시 포승읍 도곡리 1142-12번지 2층","indutype":"의원 - 치과의원","category":"medical"}]},{"lat":"36.987605028","long":"126.8663622","imageIndex":8,"items":[{"name":"서평택약국","tel":"031-684-9964","addr":"경기도 평택시 포승읍 도곡리 745-14번지","indutype":"약국 - 약국","category":"medical"}]},{"lat":"36.984992097","long":"126.8447226","imageIndex":8,"items":[{"name":"아름다운치과","tel":"031-681-8275","addr":"경기도 평택시 포승읍 도곡리 1126-3","indutype":"의원 - 치과의원","category":"medical"}]},{"lat":"36.987321104","long":"126.84794149","imageIndex":8,"items":[{"name":"열린치과의원","tel":"031-683-5522","addr":"경기도 평택시 포승읍 도곡리 1153-12번지 한솔빌 3층 305,306호","indutype":"의원 - 치과의원","category":"medical"}]},{"lat":"36.98820933","long":"126.84503045","imageIndex":8,"items":[{"name":"임가정의원","tel":"031-683-0516","addr":"경기도 평택시 포승읍 도곡리 1143-12번지 선구빌딩 2층","indutype":"의원 - 의원","category":"medical"},{"name":"햇빛약국","tel":"031-683-8868","addr":"경기도 평택시 포승읍 도곡리 1143-12번지 선구빌딩 1층","indutype":"약국 - 약국","category":"medical"}]},{"lat":"36.988932279","long":"126.84661276","imageIndex":8,"items":[{"name":"포승연세치과의원","tel":"031-681-7528","addr":"경기도 평택시 포승읍 도곡리 1138-10번지 2층","indutype":"의원 - 치과의원","category":"medical"}]},{"lat":"36.988850887","long":"126.84638828","imageIndex":8,"items":[{"name":"포승종로약국","tel":"031-611-5252","addr":"경기도 평택시 포승읍 도곡리 1142-18번지 우측상가 1층","indutype":"약국 - 약국","category":"medical"},{"name":"포승종로약국","tel":"031-684-2245","addr":"경기도 평택시 포승읍 도곡리 1142-18번지","indutype":"소매업 - 약국","category":"medical"}]},{"lat":"36.987939263","long":"126.84522196","imageIndex":8,"items":[{"name":"포승중앙약국","tel":"031-682-7534","addr":"경기도 평택시 포승읍 도곡리 1144-1번지 101호","indutype":"약국 - 약국","category":"medical"},{"name":"포승중앙약국","tel":"","addr":"경기도 평택시 포승읍 도곡리 1144-1번지 101호","indutype":"소매업 - 약국","category":"medical"}]}]