[{"lat":"37.471305515","long":"127.51866946","imageIndex":5,"items":[{"name":"8월모텔","tel":"031-775-3144","addr":"경기도 양평군 양평읍 회현리 143-1번지","indutype":"숙박업 - 여관/기타숙박업","category":"hotel"}]},{"lat":"37.456668044","long":"127.5095046","imageIndex":5,"items":[{"name":"글램핑코리아(주)지점","tel":"070-4809-9099","addr":"경기도 양평군 양평읍 회현리 300-2번지 삼호청소년수련원 301호","indutype":"숙박업 - 여관/기타숙박업","category":"hotel"}]},{"lat":"37.467532228","long":"127.52644315","imageIndex":5,"items":[{"name":"리버텔","tel":"031-771-0455","addr":"경기도 양평군 양평읍 회현리 9-14번지 15호","indutype":"숙박업 - 여관/기타숙박업","category":"hotel"}]},{"lat":"37.467609957","long":"127.52516637","imageIndex":5,"items":[{"name":"조이텔","tel":"031-774-5205","addr":"경기도 양평군 양평읍 회현리 52-3","indutype":"숙박업 - 여관/기타숙박업","category":"hotel"}]},{"lat":"37.462387557","long":"127.50781382","imageIndex":5,"items":[{"name":"화랑펜션","tel":"031-771-3823","addr":"경기도 양평군 양평읍 회현리 390번지","indutype":"숙박업 - 여관/기타숙박업","category":"hotel"}]},{"lat":"37.467476918","long":"127.52672536","imageIndex":17,"items":[{"name":"금강지하수개발","tel":"031-774-2577","addr":"경기도 양평군 양평읍 회현리 9-51번지","indutype":"용역 서비스 - 기타용역서비스","category":"other"},{"name":"양평가야중기","tel":"031-774-7749","addr":"경기도 양평군 양평읍 회현리 9-51번지","indutype":"기타 - 기계공구","category":"other"}]},{"lat":"37.468585947","long":"127.51419702","imageIndex":17,"items":[{"name":"누가애견훈련학교","tel":"031-774-9775","addr":"경기도 양평군 양평읍 회현리 150","indutype":"문화.취미 - 애완동물","category":"other"}]},{"lat":"37.4694995","long":"127.52369868","imageIndex":17,"items":[{"name":"보성장묘산업","tel":"031-772-9444","addr":"경기도 양평군 양평읍 회현리 89-7번지 1층","indutype":"용역 서비스 - 가례서비스업","category":"other"}]},{"lat":"37.468110045","long":"127.52617589","imageIndex":17,"items":[{"name":"부동산임대업","tel":"031-`773-3783","addr":"경기도 양평군 양평읍 회현리 8-1번지","indutype":"용역 서비스 - 부동산 중개·임대","category":"other"}]},{"lat":"37.467333967","long":"127.52645307","imageIndex":17,"items":[{"name":"양평건설중기(주)","tel":"031-774-7749","addr":"경기도 양평군 양평읍 회현리 9-38","indutype":"기타 - 기계공구","category":"other"}]},{"lat":"37.468060437","long":"127.5272042","imageIndex":17,"items":[{"name":"양평콘크리트","tel":"031-775-2648","addr":"경기도 양평군 양평읍 회현리 9-1번지","indutype":"건축자재 - 기타건축자재","category":"other"}]},{"lat":"37.46824891","long":"127.50027963","imageIndex":17,"items":[{"name":"주식회사 해울림","tel":"070-8274-2922","addr":"경기도 양평군 양평읍 회현리 490-4번지","indutype":"문화.취미 - 민예·공예품","category":"other"}]},{"lat":"37.468835663","long":"127.52508446","imageIndex":17,"items":[{"name":"태동건설(주)","tel":"031-775-6888","addr":"경기도 양평군 양평읍 회현리 109-1번지 2호","indutype":"건축자재 - 기타건축자재","category":"other"}]},{"lat":"37.468057527","long":"127.5278598","imageIndex":4,"items":[{"name":"대명가든","tel":"031-775-3993","addr":"경기도 양평군 양평읍 회현리 9-3번지","indutype":"일반휴게음식 - 일반한식","category":"restaurant"}]},{"lat":"37.468778084","long":"127.52384062","imageIndex":4,"items":[{"name":"샘뜰정","tel":"031-771-1595","addr":"경기도 양평군 양평읍 회현리 61-10번지","indutype":"일반휴게음식 - 일반한식","category":"restaurant"}]},{"lat":"37.466444218","long":"127.52594951","imageIndex":4,"items":[{"name":"시골밥상","tel":"031-774-9836","addr":"경기도 양평군 양평읍 회현리 10-45번지","indutype":"일반휴게음식 - 일반한식","category":"restaurant"}]},{"lat":"37.468110045","long":"127.52617589","imageIndex":4,"items":[{"name":"청솔가든","tel":"031-773-3783","addr":"경기도 양평군 양평읍 회현리 8-1번지","indutype":"일반휴게음식 - 일반한식","category":"restaurant"}]},{"lat":"37.471304906","long":"127.5229199","imageIndex":7,"items":[{"name":"스윗옐로우","tel":"","addr":"경기도 양평군 양평읍 회현리 82-21번지","indutype":"건강식품 - 기타건강식품","category":"food"}]},{"lat":"37.457947155","long":"127.50322912","imageIndex":7,"items":[{"name":"위러브허브","tel":"","addr":"경기도 양평군 양평읍 회현리 610-232번지","indutype":"건강식품 - 기타건강식품","category":"food"}]},{"lat":"37.468582745","long":"127.52522965","imageIndex":9,"items":[{"name":"신내주유소","tel":"031-771-5186","addr":"경기도 양평군 양평읍 회현리 110-1번지","indutype":"연료판매점 - 쌍용S-OIL","category":"oil"}]},{"lat":"37.469167738","long":"127.52333465","imageIndex":9,"items":[{"name":"조은가스","tel":"031-771-0205","addr":"경기도 양평군 양평읍 회현리 64-3번지","indutype":"연료판매점 - LPG 취급점","category":"oil"}]},{"lat":"37.467364711","long":"127.5090568","imageIndex":7,"items":[{"name":"축동마트","tel":"","addr":"경기도 양평군 양평읍 회현리 447-3번지","indutype":"유통업 영리 - 슈퍼마켓","category":"mart"}]},{"lat":"37.467476918","long":"127.52672536","imageIndex":7,"items":[{"name":"회현마트","tel":"070-4134-6789","addr":"경기도 양평군 양평읍 회현리 9-51","indutype":"유통업 영리 - 슈퍼마켓","category":"mart"}]}]