[{"lat":"37.826838095","long":"127.14749817","imageIndex":0,"items":[{"name":"67세차장","tel":"031-543-6701","addr":"경기도 포천시 소흘읍 송우리 121-1번지 나동 101호","indutype":"자동차정비 유지 - 세차장","category":"car"}]},{"lat":"37.839222543","long":"127.13513953","imageIndex":0,"items":[{"name":"CZ-ENG","tel":"070-4232-1143","addr":"경기도 포천시 소흘읍 송우리 603-21","indutype":"자동차정비 유지 - 자동차정비","category":"car"}]},{"lat":"37.840388579","long":"127.14722925","imageIndex":0,"items":[{"name":"Ez motors (이지모터스)","tel":"031-544-6943","addr":"경기도 포천시 소흘읍 송우리 280-13번지 나동","indutype":"자동차정비 유지 - 자동차정비","category":"car"},{"name":"드림셀프세차장","tel":"031-111-1111","addr":"경기도 포천시 소흘읍 송우리 280-13번지 나동","indutype":"자동차정비 유지 - 세차장","category":"car"}]},{"lat":"37.836641253","long":"127.15394706","imageIndex":0,"items":[{"name":"MK 자동차용품점","tel":"031-000-0000","addr":"경기도 포천시 소흘읍 송우리 76-10번지","indutype":"자동차정비 유지 - 자동차부품","category":"car"}]},{"lat":"37.834918308","long":"127.13310982","imageIndex":0,"items":[{"name":"나눔현대공업사","tel":"031-543-5425","addr":"경기도 포천시 소흘읍 송우리 577-1","indutype":"자동차정비 유지 - 자동차정비","category":"car"},{"name":"송우중부점현대자동차","tel":"031-542-8235","addr":"경기도 포천시 소흘읍 송우리 577-1번지","indutype":"자동차정비 유지 - 자동차정비","category":"car"}]},{"lat":"37.838196804","long":"127.1492471","imageIndex":0,"items":[{"name":"대왕카센타","tel":"031-542-8580","addr":"경기도 포천시 소흘읍 송우리 30-3번지","indutype":"자동차정비 유지 - 자동차정비","category":"car"}]},{"lat":"37.834170277","long":"127.13333569","imageIndex":0,"items":[{"name":"덴트서비스","tel":"","addr":"경기도 포천시 소흘읍 송우리 575-11번지","indutype":"자동차정비 유지 - 카인테리어","category":"car"},{"name":"송연","tel":"031-544-3797","addr":"경기도 포천시 소흘읍 송우리 575-11번지","indutype":"자동차정비 유지 - 세차장","category":"car"}]},{"lat":"37.832780535","long":"127.1353893","imageIndex":0,"items":[{"name":"동남카센타","tel":"031-542-7556","addr":"경기도 포천시 소흘읍 송우리 572-31번지","indutype":"자동차정비 유지 - 자동차정비","category":"car"},{"name":"동남카센타","tel":"542-7556","addr":"경기도 포천시 소흘읍 송우리 572-31번지","indutype":"서비스 - 자동차 수리","category":"car"}]},{"lat":"37.832031214","long":"127.13675107","imageIndex":0,"items":[{"name":"동양매직터치","tel":"031-827-0133","addr":"경기도 포천시 소흘읍 송우리 562-6","indutype":"자동차정비 유지 - 카인테리어","category":"car"}]},{"lat":"37.831672107","long":"127.15075634","imageIndex":0,"items":[{"name":"동욱카오디오","tel":"031-541-1455","addr":"경기도 포천시 소흘읍 송우리 89-7번지 1층","indutype":"자동차정비 유지 - 자동차부품","category":"car"}]},{"lat":"37.831529391","long":"127.14960878","imageIndex":0,"items":[{"name":"매직터치","tel":"031-541-2516","addr":"경기도 포천시 소흘읍 송우리 93-3","indutype":"자동차정비 유지 - 카인테리어","category":"car"}]},{"lat":"37.831841733","long":"127.13700063","imageIndex":0,"items":[{"name":"매직터치","tel":"541-2516","addr":"경기도 포천시 소흘읍 송우리 561-1번지","indutype":"서비스 - 자동차 수리","category":"car"}]},{"lat":"37.827258924","long":"127.14961168","imageIndex":0,"items":[{"name":"맥과이어스디테일링샵","tel":"031-544-4445","addr":"경기도 포천시 소흘읍 송우리 110-34","indutype":"자동차정비 유지 - 카인테리어","category":"car"}]},{"lat":"37.835282114","long":"127.15294462","imageIndex":0,"items":[{"name":"번개오토바이","tel":"031-543-8259","addr":"경기도 포천시 소흘읍 송우리 70-1","indutype":"자동차판매 - 이륜차판매","category":"car"},{"name":"태양자동차공업사","tel":"031-544-1127","addr":"경기도 포천시 소흘읍 송우리 70-1","indutype":"자동차정비 유지 - 자동차정비","category":"car"}]},{"lat":"37.828420513","long":"127.15011377","imageIndex":0,"items":[{"name":"부농기계마트","tel":"063-445-2409","addr":"경기도 포천시 소흘읍 송우리 110-16번지","indutype":"자동차정비 유지 - 자동차정비","category":"car"}]},{"lat":"37.823422823","long":"127.14056315","imageIndex":0,"items":[{"name":"스피드메이트 송우리점","tel":"031-542-2366","addr":"경기도 포천시 소흘읍 송우리 491-1번지","indutype":"자동차정비 유지 - 자동차정비","category":"car"}]},{"lat":"37.833896497","long":"127.15149915","imageIndex":0,"items":[{"name":"아이스타","tel":"","addr":"경기도 포천시 소흘읍 송우리 58번지","indutype":"자동차정비 유지 - 자동차부품","category":"car"}]},{"lat":"37.829395981","long":"127.14813926","imageIndex":0,"items":[{"name":"애니카랜드 송우점","tel":"031-541-8119","addr":"경기도 포천시 소흘읍 송우리 107-2번지 외2필지","indutype":"자동차정비 유지 - 자동차정비","category":"car"},{"name":"애니카랜드 송우점","tel":"031-542-6527","addr":"경기도 포천시 소흘읍 송우리 107-2번지 외2필지","indutype":"자동차정비 유지 - 자동차정비","category":"car"}]},{"lat":"37.838035746","long":"127.13294489","imageIndex":0,"items":[{"name":"에스앤비","tel":"070-4141-2757","addr":"경기도 포천시 소흘읍 송우리 608-19번지 1층","indutype":"자동차정비 유지 - 자동차부품","category":"car"}]},{"lat":"37.824667941","long":"127.14658529","imageIndex":0,"items":[{"name":"엠에스(M/S)","tel":"031-541-6503","addr":"경기도 포천시 소흘읍 송우리 464-8번지 나동 104호 103","indutype":"자동차정비 유지 - 자동차부품","category":"car"},{"name":"일승카센타","tel":"543-2651","addr":"경기도 포천시 소흘읍 송우리 464-8번지","indutype":"서비스 - 자동차 수리","category":"car"}]},{"lat":"37.827864033","long":"127.14842022","imageIndex":0,"items":[{"name":"우리세차장","tel":"031-543-0888","addr":"경기도 포천시 소흘읍 송우리 110-25","indutype":"자동차정비 유지 - 세차장","category":"car"}]},{"lat":"37.838390118","long":"127.1458962","imageIndex":0,"items":[{"name":"원RV모터스","tel":"031-544-5582","addr":"경기도 포천시 소흘읍 송우리 268-6","indutype":"자동차정비 유지 - 자동차정비","category":"car"}]},{"lat":"37.833752733","long":"127.15119216","imageIndex":0,"items":[{"name":"유성오토바이","tel":"544-8328","addr":"경기도 포천시 소흘읍 송우리 58-1번지","indutype":"도소매 - 이륜자동차","category":"car"}]},{"lat":"37.832474541","long":"127.15028085","imageIndex":0,"items":[{"name":"청명세차장","tel":"031-863-0019","addr":"경기도 포천시 소흘읍 송우리 95-1번지","indutype":"자동차정비 유지 - 세차장","category":"car"}]},{"lat":"37.833644892","long":"127.15097611","imageIndex":0,"items":[{"name":"친절자동차공업사","tel":"543-2870","addr":"경기도 포천시 소흘읍 송우리 58-2번지","indutype":"서비스 - 자동차정비","category":"car"},{"name":"친절자동차공업사","tel":"031-543-2870","addr":"경기도 포천시 소흘읍 송우리 58-2번지","indutype":"자동차정비 유지 - 자동차정비","category":"car"}]},{"lat":"37.831392788","long":"127.1507785","imageIndex":0,"items":[{"name":"카아티스트","tel":"031-542-5533","addr":"경기도 포천시 소흘읍 송우리 89-3번지","indutype":"자동차정비 유지 - 세차장","category":"car"}]},{"lat":"37.82419686","long":"127.14122336","imageIndex":0,"items":[{"name":"크린매직 송우점","tel":"031-542-5410","addr":"경기도 포천시 소흘읍 송우리 730-60번지 홈플러스송우점 4층 X 9Y7호","indutype":"자동차정비 유지 - 세차장","category":"car"}]},{"lat":"37.832807547","long":"127.15055414","imageIndex":0,"items":[{"name":"태광자동차공업사","tel":"031-543-0904","addr":"경기도 포천시 소흘읍 송우리 96-4번지","indutype":"자동차정비 유지 - 자동차정비","category":"car"}]},{"lat":"37.83095174","long":"127.15044821","imageIndex":0,"items":[{"name":"티스테이션 포천송우점","tel":"031-543-2947","addr":"경기도 포천시 소흘읍 송우리 92-1번지","indutype":"자동차정비 유지 - 자동차정비","category":"car"}]},{"lat":"37.824204423","long":"127.14245005","imageIndex":0,"items":[{"name":"포천24시셀프세차장","tel":"031-542-7944","addr":"경기도 포천시 소흘읍 송우리 486-2","indutype":"자동차정비 유지 - 세차장","category":"car"}]},{"lat":"37.836667463","long":"127.15458327","imageIndex":0,"items":[{"name":"포천부분정비공업사","tel":"031-542-8743","addr":"경기도 포천시 소흘읍 송우리 77-3번지","indutype":"자동차정비 유지 - 자동차정비","category":"car"}]},{"lat":"37.834417559","long":"127.15267024","imageIndex":0,"items":[{"name":"필사운드","tel":"031-544-6652","addr":"경기도 포천시 소흘읍 송우리 68-3번지 B동3,4호","indutype":"자동차정비 유지 - 자동차부품","category":"car"}]},{"lat":"37.839171937","long":"127.14753361","imageIndex":0,"items":[{"name":"필자동차공업사","tel":"031-542-7890","addr":"경기도 포천시 소흘읍 송우리 279-2번지","indutype":"자동차정비 유지 - 자동차정비","category":"car"}]},{"lat":"37.833222773","long":"127.13469716","imageIndex":0,"items":[{"name":"한성자동차공업사","tel":"031-543-7995","addr":"경기도 포천시 소흘읍 송우리 572-8","indutype":"자동차정비 유지 - 자동차정비","category":"car"}]},{"lat":"37.837030979","long":"127.1448371","imageIndex":0,"items":[{"name":"한솔자동차유리","tel":"542-0019","addr":"경기도 포천시 소흘읍 송우리 263-4번지","indutype":"서비스 - 자동차 수리","category":"car"},{"name":"한솔카인테리어","tel":"031-542-0019","addr":"경기도 포천시 소흘읍 송우리 263-4번지","indutype":"자동차정비 유지 - 카인테리어","category":"car"}]},{"lat":"37.826280319","long":"127.1468383","imageIndex":0,"items":[{"name":"한일카마스타","tel":"031-542-2423","addr":"경기도 포천시 소흘읍 송우리 142-2번지","indutype":"자동차정비 유지 - 자동차정비","category":"car"}]},{"lat":"37.834419042","long":"127.1515002","imageIndex":0,"items":[{"name":"현대카오디오","tel":"031-535-9551","addr":"경기도 포천시 소흘읍 송우리 52","indutype":"자동차정비 유지 - 자동차시트·타이어","category":"car"}]},{"lat":"37.834644061","long":"127.15167105","imageIndex":0,"items":[{"name":"형제프로미","tel":"031-544-1198","addr":"경기도 포천시 소흘읍 송우리 50-5번지","indutype":"자동차정비 유지 - 자동차정비","category":"car"}]}]