[{"lat":"37.087736046","long":"127.25687866","imageIndex":7,"items":[{"name":"(주)햇빛","tel":"031-671-2251","addr":"경기도 안성시 고삼면 가유리 631-3번지","indutype":"음료식품 - 기타음료식품","category":"food"}]},{"lat":"37.082988236","long":"127.26070913","imageIndex":7,"items":[{"name":"대성떡방앗간","tel":"031-677-3340","addr":"경기도 안성시 고삼면 가유리 320-2번지","indutype":"음료식품 - 제과점","category":"food"}]},{"lat":"37.082095416","long":"127.26106599","imageIndex":17,"items":[{"name":"24시 편의점이야기","tel":"031-674-2284","addr":"경기도 안성시 고삼면 가유리 325-1번지","indutype":"유통업 영리 - 편 의 점","category":"other"},{"name":"24시편의점이야기","tel":"031-674-2213","addr":"경기도 안성시 고삼면 가유리 325-1","indutype":"유통업 영리 - 편 의 점","category":"other"},{"name":"성림통상","tel":"031-676-8893","addr":"경기도 안성시 고삼면 가유리 325-1","indutype":"농업 - 기타농업관련","category":"other"}]},{"lat":"37.088345498","long":"127.25418134","imageIndex":17,"items":[{"name":"MEGASUN코리아","tel":"031-234-9067","addr":"경기도 안성시 고삼면 가유리 644-4","indutype":"전기제품 - 가전제품","category":"other"}]},{"lat":"37.100793078","long":"127.25651727","imageIndex":17,"items":[{"name":"SJ TECH/원격지","tel":"031-674-4803","addr":"경기도 안성시 고삼면 가유리 789-1번지","indutype":"기타 - 기타 전문점","category":"other"}]},{"lat":"37.085709425","long":"127.2607071","imageIndex":17,"items":[{"name":"고삼농업협동조합","tel":"031-672-7770","addr":"경기도 안성시 고삼면 가유리 252-1","indutype":"유통업 비영리 - 농,축협 직영매장","category":"other"},{"name":"고삼농업협동조합","tel":"031-672-7770","addr":"경기도 안성시 고삼면 가유리 252-1번지","indutype":"유통업 비영리 - 농,축협 직영매장","category":"other"},{"name":"고삼농업협동조합","tel":"031-672-7770","addr":"경기도 안성시 고삼면 가유리 252-1","indutype":"농업 - 비료,사료,종자","category":"other"},{"name":"고삼농협","tel":"031-672-7770","addr":"경기도 안성시 고삼면 가유리 252-1번지","indutype":"유통업 비영리 - 농,축협 직영매장","category":"other"},{"name":"농업회사법인생명농업지원센터유한회사","tel":"031-672-7770","addr":"경기도 안성시 고삼면 가유리 252-1","indutype":"농업 - 농기계","category":"other"}]},{"lat":"37.082959565","long":"127.26146255","imageIndex":17,"items":[{"name":"고삼우체국","tel":"031-672-7000","addr":"경기도 안성시 고삼면 가유리 322-13번지","indutype":"용역 서비스 - 공공요금대행서비스/소","category":"other"}]},{"lat":"37.08318539","long":"127.26120465","imageIndex":17,"items":[{"name":"씨유안성고삼점","tel":"031-674-2034","addr":"경기도 안성시 고삼면 가유리 322-4","indutype":"유통업 영리 - 편 의 점","category":"other"}]},{"lat":"37.082067772","long":"127.26134706","imageIndex":17,"items":[{"name":"우리철물건재","tel":"031-672-0809","addr":"경기도 안성시 고삼면 가유리 325-6번지","indutype":"건축자재 - 기타건축자재","category":"other"}]},{"lat":"37.083735984","long":"127.2607679","imageIndex":17,"items":[{"name":"제이디바이오","tel":"031-673-8165","addr":"경기도 안성시 고삼면 가유리 293-5번지","indutype":"농업 - 비료,사료,종자","category":"other"}]},{"lat":"37.079989844","long":"127.25973182","imageIndex":17,"items":[{"name":"참좋은","tel":"031-675-3866","addr":"경기도 안성시 고삼면 가유리 382-3번지","indutype":"용역 서비스 - 종합용역","category":"other"}]},{"lat":"37.075488868","long":"127.25773744","imageIndex":17,"items":[{"name":"화가","tel":"031-674-4624","addr":"경기도 안성시 고삼면 가유리 442-14번지 1층","indutype":"문화.취미 - 화랑","category":"other"}]},{"lat":"37.082851218","long":"127.2615634","imageIndex":8,"items":[{"name":"건강백세약국","tel":"031-672-8836","addr":"경기도 안성시 고삼면 가유리 322-14번지","indutype":"약국 - 약국","category":"medical"}]},{"lat":"37.082095416","long":"127.26106599","imageIndex":4,"items":[{"name":"고삼수산","tel":"031-674-9203","addr":"경기도 안성시 고삼면 가유리 325-1번지","indutype":"일반휴게음식 - 일식·회집","category":"restaurant"},{"name":"구워더존치킨","tel":"031-674-9207","addr":"경기도 안성시 고삼면 가유리 325-1","indutype":"일반휴게음식 - 주점","category":"restaurant"},{"name":"돈막골화로구이","tel":"031-675-2561","addr":"경기도 안성시 고삼면 가유리 325-1번지","indutype":"일반휴게음식 - 일반한식","category":"restaurant"},{"name":"맛있는 고깃집","tel":"031-673-9295","addr":"경기도 안성시 고삼면 가유리 325-1번지","indutype":"일반휴게음식 - 일반한식","category":"restaurant"}]},{"lat":"37.082903389","long":"127.26242956","imageIndex":4,"items":[{"name":"고향집","tel":"031-672-9592","addr":"경기도 안성시 고삼면 가유리 287-3","indutype":"일반휴게음식 - 스넥","category":"restaurant"}]},{"lat":"37.093794281","long":"127.25959843","imageIndex":4,"items":[{"name":"마님","tel":"031-673-1191","addr":"경기도 안성시 고삼면 가유리 61번지","indutype":"일반휴게음식 - 일반한식","category":"restaurant"}]},{"lat":"37.099847389","long":"127.25632288","imageIndex":4,"items":[{"name":"맛집막국수","tel":"031-674-7559","addr":"경기도 안성시 고삼면 가유리 788-2번지","indutype":"일반휴게음식 - 일반한식","category":"restaurant"}]},{"lat":"37.08806794","long":"127.26173859","imageIndex":4,"items":[{"name":"반반한명태가/주식회사버드레기","tel":"031-675-0900","addr":"경기도 안성시 고삼면 가유리 267번지","indutype":"일반휴게음식 - 일반한식","category":"restaurant"}]},{"lat":"37.08318539","long":"127.26120465","imageIndex":4,"items":[{"name":"삼거리식당","tel":"031-672-7271","addr":"경기도 안성시 고삼면 가유리 322-4번지","indutype":"일반휴게음식 - 일반한식","category":"restaurant"}]},{"lat":"37.082679037","long":"127.26201268","imageIndex":4,"items":[{"name":"설빙호프","tel":"031-674-5618","addr":"경기도 안성시 고삼면 가유리 322-20번지","indutype":"일반휴게음식 - 주점","category":"restaurant"}]},{"lat":"37.096120196","long":"127.25904385","imageIndex":4,"items":[{"name":"식도락식당","tel":"031-672-1311","addr":"경기도 안성시 고삼면 가유리 37번지","indutype":"일반휴게음식 - 일반한식","category":"restaurant"}]},{"lat":"37.085376868","long":"127.26032358","imageIndex":4,"items":[{"name":"써니푸드(명동짜글이)","tel":"","addr":"경기도 안성시 고삼면 가유리 213-3번지 가동 1층","indutype":"일반휴게음식 - 일반한식","category":"restaurant"},{"name":"요거프레소안성고삼점","tel":"031-674-9477","addr":"경기도 안성시 고삼면 가유리 213-3번지","indutype":"일반휴게음식 - 서양음식","category":"restaurant"}]},{"lat":"37.083265749","long":"127.26154232","imageIndex":4,"items":[{"name":"연탄구이 호프","tel":"031-111-1111","addr":"경기도 안성시 고삼면 가유리 321-5번지","indutype":"일반휴게음식 - 일반한식","category":"restaurant"}]},{"lat":"37.086544709","long":"127.25778569","imageIndex":4,"items":[{"name":"옛날에","tel":"031-677-7026","addr":"경기도 안성시 고삼면 가유리 197번지","indutype":"일반휴게음식 - 일반한식","category":"restaurant"}]},{"lat":"37.082985098","long":"127.26214868","imageIndex":4,"items":[{"name":"옥수식당","tel":"031-672-7319","addr":"경기도 안성시 고삼면 가유리 287-6","indutype":"일반휴게음식 - 일반한식","category":"restaurant"}]},{"lat":"37.083788602","long":"127.26143163","imageIndex":4,"items":[{"name":"유안식당","tel":"031-674-8899","addr":"경기도 안성시 고삼면 가유리 288-3번지","indutype":"일반휴게음식 - 일반한식","category":"restaurant"}]},{"lat":"37.084376168","long":"127.26056762","imageIndex":0,"items":[{"name":"고삼자동차공업사","tel":"031-674-4327","addr":"경기도 안성시 고삼면 가유리 283-1번지","indutype":"자동차정비 유지 - 자동차정비","category":"car"}]},{"lat":"37.082268134","long":"127.26448549","imageIndex":16,"items":[{"name":"고삼초등학교","tel":"","addr":"경기도 안성시 고삼면 가유리 329-1번지 고삼초등학교","indutype":"학원 - 초중고교육기관","category":"study"},{"name":"고삼초등학교_수업료","tel":"","addr":"경기도 안성시 고삼면 가유리 329-1번지 고삼초등학교","indutype":"학원 - 초중고교육기관","category":"study"},{"name":"고삼초등학교병설유치원[아이행복]","tel":"031-673-0465","addr":"경기도 안성시 고삼면 가유리 329-1번지 고삼초등학교","indutype":"학원 - 유치원","category":"study"}]},{"lat":"37.08284597","long":"127.26395889","imageIndex":16,"items":[{"name":"힘찬나래 협동조합","tel":"031-677-4948","addr":"경기도 안성시 고삼면 가유리 337-9번지 2층","indutype":"학원 - 기타 교육기관","category":"study"}]},{"lat":"37.086101938","long":"127.25836906","imageIndex":13,"items":[{"name":"슈어코스메틱","tel":"031-675-7939","addr":"경기도 안성시 고삼면 가유리 205-4번지","indutype":"보건위생 - 화장품","category":"beauty"}]},{"lat":"37.095986535","long":"127.24984217","imageIndex":13,"items":[{"name":"신안종합레져(주)","tel":"031-673-8853","addr":"경기도 안성시 고삼면 가유리 950번지","indutype":"레저업소 - 골프경기장","category":"leisure"},{"name":"엠에스(Ms)골프","tel":"","addr":"경기도 안성시 고삼면 가유리 950번지 트레이닝센터 2층 1호 (신안CC,0번지","indutype":"레저업소 - 골프연습장","category":"leisure"}]},{"lat":"37.09390653","long":"127.25345732","imageIndex":13,"items":[{"name":"주 리드베터코리아","tel":"070-0000-0000","addr":"경기도 안성시 고삼면 가유리 산51-4번지 1층","indutype":"레저업소 - 골프연습장","category":"leisure"}]}]