[{"lat":"37.544237074","long":"127.32030333","imageIndex":4,"items":[{"name":"BHC양수리점","tel":"031-773-8118","addr":"경기도 양평군 양서면 양수리 1098번지","indutype":"일반휴게음식 - 스넥","category":"restaurant"},{"name":"양수가든","tel":"031-772-6025","addr":"경기도 양평군 양서면 양수리 1098번지","indutype":"일반휴게음식 - 일반한식","category":"restaurant"}]},{"lat":"37.546102153","long":"127.31691653","imageIndex":4,"items":[{"name":"강변집","tel":"031-772-6333","addr":"경기도 양평군 양서면 양수리 618-4번지","indutype":"일반휴게음식 - 일반한식","category":"restaurant"}]},{"lat":"37.544038556","long":"127.32041565","imageIndex":4,"items":[{"name":"갱변나들목숯불갈비","tel":"031-772-6252","addr":"경기도 양평군 양서면 양수리 1107번지","indutype":"일반휴게음식 - 일반한식","category":"restaurant"},{"name":"세시봉","tel":"031-774-7086","addr":"경기도 양평군 양서면 양수리 1107번지 2층","indutype":"일반휴게음식 - 서양음식","category":"restaurant"}]},{"lat":"37.544796802","long":"127.31988703","imageIndex":4,"items":[{"name":"경아두마리치킨","tel":"031-774-5100","addr":"경기도 양평군 양서면 양수리 1044번지","indutype":"일반휴게음식 - 서양음식","category":"restaurant"}]},{"lat":"37.545207297","long":"127.31799907","imageIndex":4,"items":[{"name":"고강식당","tel":"031-772-0204","addr":"경기도 양평군 양서면 양수리 564-4번지","indutype":"일반휴게음식 - 일반한식","category":"restaurant"},{"name":"두머리부엌협동조합","tel":"070-4134-8955","addr":"경기도 양평군 양서면 양수리 564-4번지 1층","indutype":"일반휴게음식 - 일반한식","category":"restaurant"}]},{"lat":"37.544240201","long":"127.31913786","imageIndex":4,"items":[{"name":"곽선생왕만두","tel":"","addr":"경기도 양평군 양서면 양수리 650-16번지","indutype":"일반휴게음식 - 일반한식","category":"restaurant"},{"name":"비비큐양수리점","tel":"031-773-9178","addr":"경기도 양평군 양서면 양수리 650-16번지","indutype":"일반휴게음식 - 스넥","category":"restaurant"}]},{"lat":"37.545570179","long":"127.32043346","imageIndex":4,"items":[{"name":"광어한마리9900","tel":"031-771-2385","addr":"경기도 양평군 양서면 양수리 1015번지","indutype":"일반휴게음식 - 일식·회집","category":"restaurant"}]},{"lat":"37.544572378","long":"127.31958056","imageIndex":4,"items":[{"name":"광장카페","tel":"031-775-2260","addr":"경기도 양평군 양서면 양수리 556-18번지 2층","indutype":"일반휴게음식 - 일반한식","category":"restaurant"}]},{"lat":"37.544905374","long":"127.31971776","imageIndex":4,"items":[{"name":"금호반점","tel":"031-772-7188","addr":"경기도 양평군 양서면 양수리 556-4번지","indutype":"일반휴게음식 - 중국식","category":"restaurant"}]},{"lat":"37.545516698","long":"127.32021823","imageIndex":4,"items":[{"name":"기훈이네","tel":"031-773-7292","addr":"경기도 양평군 양서면 양수리 554-8번지 1층","indutype":"일반휴게음식 - 스넥","category":"restaurant"}]},{"lat":"37.544572621","long":"127.31949004","imageIndex":4,"items":[{"name":"김가네","tel":"031-773-7413","addr":"경기도 양평군 양서면 양수리 556-19번지","indutype":"일반휴게음식 - 일반한식","category":"restaurant"}]},{"lat":"37.543769237","long":"127.32005241","imageIndex":4,"items":[{"name":"김밥천국","tel":"031-775-3263","addr":"경기도 양평군 양서면 양수리 1121번지","indutype":"일반휴게음식 - 스넥","category":"restaurant"},{"name":"정통한방삼계탕","tel":"031-775-3883","addr":"경기도 양평군 양서면 양수리 1121번지","indutype":"일반휴게음식 - 일반한식","category":"restaurant"}]},{"lat":"37.535408171","long":"127.31665671","imageIndex":4,"items":[{"name":"나루터가","tel":"031-773-6372","addr":"경기도 양평군 양서면 양수리 770-7번지","indutype":"일반휴게음식 - 일반한식","category":"restaurant"}]},{"lat":"37.544707463","long":"127.31960377","imageIndex":4,"items":[{"name":"낙지랑주꾸미불판","tel":"031-772-6325","addr":"경기도 양평군 양서면 양수리 556-13","indutype":"일반휴게음식 - 일반한식","category":"restaurant"}]},{"lat":"37.544712667","long":"127.31765752","imageIndex":4,"items":[{"name":"남수포차","tel":"031-773-8623","addr":"경기도 양평군 양서면 양수리 563-6외1필지","indutype":"일반휴게음식 - 일반한식","category":"restaurant"}]},{"lat":"37.544543344","long":"127.32032726","imageIndex":4,"items":[{"name":"남원추어탕무교동한방왕족발","tel":"031-775-0821","addr":"경기도 양평군 양서면 양수리 1086번지","indutype":"일반휴게음식 - 일반한식","category":"restaurant"}]},{"lat":"37.544985185","long":"127.32019335","imageIndex":4,"items":[{"name":"노부","tel":"031-797-0711","addr":"경기도 양평군 양서면 양수리 1038번지 1층","indutype":"일반휴게음식 - 일식·회집","category":"restaurant"},{"name":"수리수리닭갈비","tel":"","addr":"경기도 양평군 양서면 양수리 1038번지","indutype":"일반휴게음식 - 일반한식","category":"restaurant"}]},{"lat":"37.550899049","long":"127.32226669","imageIndex":4,"items":[{"name":"니밥","tel":"","addr":"경기도 양평군 양서면 양수리 535-2번지","indutype":"일반휴게음식 - 일반한식","category":"restaurant"}]},{"lat":"37.544626528","long":"127.31954685","imageIndex":4,"items":[{"name":"대박식당","tel":"031-771-8068","addr":"경기도 양평군 양서면 양수리 556-16","indutype":"일반휴게음식 - 일반한식","category":"restaurant"}]},{"lat":"37.544653466","long":"127.31958091","imageIndex":4,"items":[{"name":"더주막","tel":"031-772-9200","addr":"경기도 양평군 양서면 양수리 556-15번지","indutype":"일반휴게음식 - 일반한식","category":"restaurant"}]},{"lat":"37.548621426","long":"127.32157801","imageIndex":4,"items":[{"name":"덕붕뽈살","tel":"","addr":"경기도 양평군 양서면 양수리 537-4번지 1층","indutype":"일반휴게음식 - 일반한식","category":"restaurant"},{"name":"북한강 숯불장어","tel":"031-774-0513","addr":"경기도 양평군 양서면 양수리 537-4번지 1층","indutype":"일반휴게음식 - 일반한식","category":"restaurant"}]},{"lat":"37.545903234","long":"127.32054803","imageIndex":4,"items":[{"name":"덕수식당","tel":"031-772-6404","addr":"경기도 양평군 양서면 양수리 1007","indutype":"일반휴게음식 - 일반한식","category":"restaurant"}]},{"lat":"37.545155427","long":"127.32054485","imageIndex":4,"items":[{"name":"돼지마을","tel":"031-774-1188","addr":"경기도 양평군 양서면 양수리 987번지","indutype":"일반휴게음식 - 일반한식","category":"restaurant"}]},{"lat":"37.534650962","long":"127.31680062","imageIndex":4,"items":[{"name":"두물머리농장식당","tel":"031-772-6370","addr":"경기도 양평군 양서면 양수리 781번지","indutype":"일반휴게음식 - 일반한식","category":"restaurant"},{"name":"두물머리연핫도그","tel":"031-772-6370","addr":"경기도 양평군 양서면 양수리 781번지","indutype":"일반휴게음식 - 일반한식","category":"restaurant"}]},{"lat":"37.544986401","long":"127.31974073","imageIndex":4,"items":[{"name":"두물머리동태탕,찜","tel":"031-771-0108","addr":"경기도 양평군 양서면 양수리 556-3번지 1층","indutype":"일반휴게음식 - 일반한식","category":"restaurant"}]},{"lat":"37.544067985","long":"127.31952185","imageIndex":4,"items":[{"name":"두물머리예술나루터","tel":"031-775-4274","addr":"경기도 양평군 양서면 양수리 1074-1번지 1층","indutype":"일반휴게음식 - 서양음식","category":"restaurant"}]},{"lat":"37.544877221","long":"127.32013632","imageIndex":4,"items":[{"name":"롯데리아양수리점","tel":"031-774-7944","addr":"경기도 양평군 양서면 양수리 1052번지 1층","indutype":"일반휴게음식 - 서양음식","category":"restaurant"}]},{"lat":"37.544760763","long":"127.31988688","imageIndex":4,"items":[{"name":"만빵분식","tel":"031-771-4566","addr":"경기도 양평군 양서면 양수리 1045번지 1층","indutype":"일반휴게음식 - 스넥","category":"restaurant"}]},{"lat":"37.543986685","long":"127.31960072","imageIndex":4,"items":[{"name":"맥주바켓 양수리점","tel":"031-772-9720","addr":"경기도 양평군 양서면 양수리 1075번지","indutype":"일반휴게음식 - 주점","category":"restaurant"}]},{"lat":"37.542376368","long":"127.31868869","imageIndex":4,"items":[{"name":"물소리한식뷔페","tel":"031-775-5585","addr":"경기도 양평군 양서면 양수리 1134-1번지","indutype":"일반휴게음식 - 일반한식","category":"restaurant"},{"name":"테라스까페","tel":"031-774-9229","addr":"경기도 양평군 양서면 양수리 1134-1번지 1층","indutype":"일반휴게음식 - 일반한식","category":"restaurant"},{"name":"하루엔소쿠","tel":"031-771-3933","addr":"경기도 양평군 양서면 양수리 1134-1번지 2층","indutype":"일반휴게음식 - 일반한식","category":"restaurant"}]},{"lat":"37.54512636","long":"127.31794215","imageIndex":4,"items":[{"name":"민들레찐빵","tel":"031-772-7090","addr":"경기도 양평군 양서면 양수리 564-13","indutype":"일반휴게음식 - 스넥","category":"restaurant"}]},{"lat":"37.544652889","long":"127.3197959","imageIndex":4,"items":[{"name":"버스스톱","tel":"031-772-6009","addr":"경기도 양평군 양서면 양수리 1048번지 2층","indutype":"일반휴게음식 - 주점","category":"restaurant"}]},{"lat":"37.548657922","long":"127.32140842","imageIndex":4,"items":[{"name":"불꽃컴퍼니","tel":"","addr":"경기도 양평군 양서면 양수리 537-2번지 양서골든빌 402호","indutype":"일반휴게음식 - 일반한식","category":"restaurant"}]},{"lat":"37.545156249","long":"127.32023934","imageIndex":4,"items":[{"name":"비타민","tel":"031-774-2232","addr":"경기도 양평군 양서면 양수리 1037번지","indutype":"일반휴게음식 - 일반한식","category":"restaurant"}]},{"lat":"37.544706188","long":"127.32007901","imageIndex":4,"items":[{"name":"상락카프리","tel":"031-774-5119","addr":"경기도 양평군 양서면 양수리 1055","indutype":"일반휴게음식 - 주점","category":"restaurant"}]},{"lat":"37.545345149","long":"127.32035329","imageIndex":4,"items":[{"name":"서라벌식당","tel":"031-773-0062","addr":"경기도 양평군 양서면 양수리 1023번지 1025","indutype":"일반휴게음식 - 일반한식","category":"restaurant"}]},{"lat":"37.545264943","long":"127.3200248","imageIndex":4,"items":[{"name":"서라벌아들","tel":"070-7756-6694","addr":"경기도 양평군 양서면 양수리 553-2번지","indutype":"일반휴게음식 - 일반한식","category":"restaurant"},{"name":"이모네","tel":"031-772-9626","addr":"경기도 양평군 양서면 양수리 553-2번지","indutype":"일반휴게음식 - 일반한식","category":"restaurant"}]},{"lat":"37.545291303","long":"127.32027386","imageIndex":4,"items":[{"name":"수랏간","tel":"","addr":"경기도 양평군 양서면 양수리 1025번지","indutype":"일반휴게음식 - 일반한식","category":"restaurant"},{"name":"양수리고기집","tel":"070-8292-5292","addr":"경기도 양평군 양서면 양수리 1025번지","indutype":"일반휴게음식 - 일반한식","category":"restaurant"},{"name":"유성 양꼬치","tel":"","addr":"경기도 양평군 양서면 양수리 1025번지 지층","indutype":"일반휴게음식 - 일반한식","category":"restaurant"}]},{"lat":"37.548069876","long":"127.32229989","imageIndex":4,"items":[{"name":"알로하오에","tel":"031-771-5373","addr":"경기도 양평군 양서면 양수리 548-6번지","indutype":"일반휴게음식 - 서양음식","category":"restaurant"}]},{"lat":"37.543963199","long":"127.31827672","imageIndex":4,"items":[{"name":"얀s맘마","tel":"031-772-9289","addr":"경기도 양평군 양서면 양수리 657번지","indutype":"일반휴게음식 - 일반한식","category":"restaurant"}]},{"lat":"37.550511754","long":"127.32221978","imageIndex":4,"items":[{"name":"양수곰탕","tel":"031-772-0496","addr":"경기도 양평군 양서면 양수리 535-5번지","indutype":"일반휴게음식 - 일반한식","category":"restaurant"}]},{"lat":"37.544797409","long":"127.31966073","imageIndex":4,"items":[{"name":"양수돈뽈","tel":"031-775-5881","addr":"경기도 양평군 양서면 양수리 556-11번지 1층","indutype":"일반휴게음식 - 일반한식","category":"restaurant"}]},{"lat":"37.544958977","long":"127.31988772","imageIndex":4,"items":[{"name":"양수리식당","tel":"031-744-5610","addr":"경기도 양평군 양서면 양수리 556-8","indutype":"일반휴게음식 - 일반한식","category":"restaurant"}]},{"lat":"37.544291589","long":"127.32013383","imageIndex":4,"items":[{"name":"양수리연핫도그","tel":"031-774-8487","addr":"경기도 양평군 양서면 양수리 1093","indutype":"일반휴게음식 - 일반한식","category":"restaurant"}]},{"lat":"37.544769195","long":"127.32010191","imageIndex":4,"items":[{"name":"양수리육곳간","tel":"031-775-9988","addr":"경기도 양평군 양서면 양수리 1053번지","indutype":"일반휴게음식 - 일반한식","category":"restaurant"}]},{"lat":"37.546460039","long":"127.32121802","imageIndex":4,"items":[{"name":"양수리추어탕","tel":"031-772-6053","addr":"경기도 양평군 양서면 양수리 963번지","indutype":"일반휴게음식 - 일반한식","category":"restaurant"}]},{"lat":"37.545514537","long":"127.32102163","imageIndex":4,"items":[{"name":"양수리해장국","tel":"031-774-0171","addr":"경기도 양평군 양서면 양수리 976번지","indutype":"일반휴게음식 - 일반한식","category":"restaurant"}]},{"lat":"37.543845196","long":"127.31860437","imageIndex":4,"items":[{"name":"양수먹거리","tel":"031-771-5236","addr":"경기도 양평군 양서면 양수리 657-10번지 1층","indutype":"일반휴게음식 - 일식·회집","category":"restaurant"}]},{"lat":"37.54756735","long":"127.32155089","imageIndex":4,"items":[{"name":"양수면옥","tel":"031-8997-8171","addr":"경기도 양평군 양서면 양수리 953번지 1층","indutype":"일반휴게음식 - 일반한식","category":"restaurant"}]},{"lat":"37.545487805","long":"127.31754762","imageIndex":4,"items":[{"name":"옛나루터","tel":"031-775-5233","addr":"경기도 양평군 양서면 양수리 565-2번지","indutype":"일반휴게음식 - 일반한식","category":"restaurant"}]},{"lat":"37.545623019","long":"127.32088631","imageIndex":4,"items":[{"name":"오샐","tel":"031-772-9909","addr":"경기도 양평군 양서면 양수리 978-1번지","indutype":"일반휴게음식 - 일반한식","category":"restaurant"},{"name":"원조멸치국수","tel":"031-772-1560","addr":"경기도 양평군 양서면 양수리 978-1번지","indutype":"일반휴게음식 - 스넥","category":"restaurant"}]},{"lat":"37.547793417","long":"127.32124632","imageIndex":4,"items":[{"name":"온달집","tel":"031-773-1005","addr":"경기도 양평군 양서면 양수리 551-2번지 1층","indutype":"일반휴게음식 - 일반한식","category":"restaurant"}]},{"lat":"37.541935043","long":"127.31863026","imageIndex":4,"items":[{"name":"옴니카페","tel":"031-775-3464","addr":"경기도 양평군 양서면 양수리 1138번지 B동 1층","indutype":"일반휴게음식 - 서양음식","category":"restaurant"}]},{"lat":"37.545235231","long":"127.31765972","imageIndex":4,"items":[{"name":"와이프레소","tel":"","addr":"경기도 양평군 양서면 양수리 565-11번지 1층","indutype":"일반휴게음식 - 서양음식","category":"restaurant"}]},{"lat":"37.545047432","long":"127.32049913","imageIndex":4,"items":[{"name":"우동황태구이맛집","tel":"031-771-1644","addr":"경기도 양평군 양서면 양수리 991번지 1층","indutype":"일반휴게음식 - 일반한식","category":"restaurant"},{"name":"황소곱창","tel":"031-771-1644","addr":"경기도 양평군 양서면 양수리 991번지","indutype":"일반휴게음식 - 일반한식","category":"restaurant"}]},{"lat":"37.544823162","long":"127.32013609","imageIndex":4,"items":[{"name":"웰빙족발","tel":"031-772-7996","addr":"경기도 양평군 양서면 양수리 1052-1번지 비디오책읽는마을","indutype":"일반휴게음식 - 일반한식","category":"restaurant"}]},{"lat":"37.544317415","long":"127.31721456","imageIndex":4,"items":[{"name":"은유공방카페","tel":"031-111-1111","addr":"경기도 양평군 양서면 양수리 647-20번지 명피아노학원 1층 5호","indutype":"일반휴게음식 - 서양음식","category":"restaurant"}]},{"lat":"37.544349014","long":"127.31887806","imageIndex":4,"items":[{"name":"자유공간","tel":"031-771-1545","addr":"경기도 양평군 양서면 양수리 650-14","indutype":"일반휴게음식 - 일반한식","category":"restaurant"}]},{"lat":"37.545768221","long":"127.31713012","imageIndex":4,"items":[{"name":"정무네장어집","tel":"031-577-8697","addr":"경기도 양평군 양서면 양수리 617-4번지","indutype":"일반휴게음식 - 일반한식","category":"restaurant"}]},{"lat":"37.54531745","long":"127.32060212","imageIndex":4,"items":[{"name":"조령축산","tel":"031-774-2429","addr":"경기도 양평군 양서면 양수리 982번지","indutype":"일반휴게음식 - 일반한식","category":"restaurant"}]},{"lat":"37.547010608","long":"127.32085825","imageIndex":4,"items":[{"name":"진지상","tel":"031-772-6107","addr":"경기도 양평군 양서면 양수리 552-4번지","indutype":"일반휴게음식 - 일반한식","category":"restaurant"}]},{"lat":"37.544906709","long":"127.31921988","imageIndex":4,"items":[{"name":"짚커피(Zipcoffee)","tel":"070-8803-3326","addr":"경기도 양평군 양서면 양수리 559-23번지 나동 1층","indutype":"일반휴게음식 - 서양음식","category":"restaurant"},{"name":"피자랑쥬와오븐에구워더존치킨","tel":"031-773-9884","addr":"경기도 양평군 양서면 양수리 559-23번지","indutype":"일반휴게음식 - 일반한식","category":"restaurant"}]},{"lat":"37.545074834","long":"127.31699143","imageIndex":4,"items":[{"name":"채심촌","tel":"031-775-7811","addr":"경기도 양평군 양서면 양수리 613-2번지","indutype":"일반휴게음식 - 일반한식","category":"restaurant"}]},{"lat":"37.546623784","long":"127.3172695","imageIndex":4,"items":[{"name":"카페리노 (Rino)","tel":"031-775-1007","addr":"경기도 양평군 양서면 양수리 606-5번지","indutype":"일반휴게음식 - 서양음식","category":"restaurant"}]},{"lat":"37.548405345","long":"127.32152051","imageIndex":4,"items":[{"name":"카페비노","tel":"031-772-3025","addr":"경기도 양평군 양서면 양수리 537-11번지","indutype":"일반휴게음식 - 일반한식","category":"restaurant"}]},{"lat":"37.545406115","long":"127.32113433","imageIndex":4,"items":[{"name":"평창장국밥","tel":"031-771-1292","addr":"경기도 양평군 양서면 양수리 971-1","indutype":"일반휴게음식 - 일반한식","category":"restaurant"}]},{"lat":"37.54446113","long":"127.32074559","imageIndex":4,"items":[{"name":"한강민물","tel":"031-772-6079","addr":"경기도 양평군 양서면 양수리 1114번지","indutype":"일반휴게음식 - 일반한식","category":"restaurant"}]},{"lat":"37.548405864","long":"127.32132814","imageIndex":4,"items":[{"name":"황태마을","tel":"031-773-7777","addr":"경기도 양평군 양서면 양수리 540번지","indutype":"일반휴게음식 - 일반한식","category":"restaurant"}]}]