[{"lat":"37.835031725","long":"126.97371008","imageIndex":0,"items":[{"name":"(주)제일테크","tel":"02-747-5645","addr":"경기도 양주시 광적면 석우리 464-21번지","indutype":"자동차정비 유지 - 주차장","category":"car"}]},{"lat":"37.832834139","long":"126.97674391","imageIndex":0,"items":[{"name":"1급강남자동차공업사","tel":"031-829-5589","addr":"경기도 양주시 광적면 석우리 443-7번지","indutype":"자동차정비 유지 - 자동차정비","category":"car"},{"name":"1급강남자동차공업사","tel":"031-836-5588","addr":"경기도 양주시 광적면 석우리 443-7번지","indutype":"자동차정비 유지 - 자동차정비","category":"car"}]},{"lat":"37.834861177","long":"126.97637968","imageIndex":0,"items":[{"name":"JW모터스","tel":"031-826-5541","addr":"경기도 양주시 광적면 석우리 441-9번지","indutype":"자동차정비 유지 - 자동차정비","category":"car"}]},{"lat":"37.842138294","long":"126.96699303","imageIndex":0,"items":[{"name":"광적공업사","tel":"031-847-5363","addr":"경기도 양주시 광적면 석우리 573번지","indutype":"자동차정비 유지 - 자동차정비","category":"car"}]},{"lat":"37.826780922","long":"126.98237985","imageIndex":0,"items":[{"name":"광적서부점현대자동차","tel":"031-855-0408","addr":"경기도 양주시 광적면 석우리 719-1번지","indutype":"자동차정비 유지 - 자동차정비","category":"car"}]},{"lat":"37.839165423","long":"126.96776698","imageIndex":0,"items":[{"name":"대승모터스","tel":"","addr":"경기도 양주시 광적면 석우리 584-2번지","indutype":"자동차정비 유지 - 자동차정비","category":"car"}]},{"lat":"37.838058429","long":"126.97191398","imageIndex":0,"items":[{"name":"대종산업","tel":"031-855-3373","addr":"경기도 양주시 광적면 석우리 611번지 1층","indutype":"자동차정비 유지 - 자동차부품","category":"car"}]},{"lat":"37.82622323","long":"126.98837724","imageIndex":0,"items":[{"name":"상아카센타","tel":"031-836-1124","addr":"경기도 양주시 광적면 석우리 72-8번지","indutype":"자동차정비 유지 - 자동차부품","category":"car"},{"name":"주식회사 뉴대흥관광여행사","tel":"031-836-1280","addr":"경기도 양주시 광적면 석우리 72-8번지","indutype":"자동차판매 - 중고자동차판매","category":"car"}]},{"lat":"37.826942949","long":"126.98157335","imageIndex":0,"items":[{"name":"용명카오디오","tel":"031-855-5158","addr":"경기도 양주시 광적면 석우리 715-3번지","indutype":"자동차정비 유지 - 자동차부품","category":"car"}]},{"lat":"37.828888602","long":"126.97955093","imageIndex":0,"items":[{"name":"키움윤활유상사","tel":"031-836-5189","addr":"경기도 양주시 광적면 석우리 417-5번지 1동 4호","indutype":"자동차정비 유지 - 윤활유 전문 판매","category":"car"}]},{"lat":"37.828222203","long":"126.98110728","imageIndex":0,"items":[{"name":"포인트세차장","tel":"031-829-0333","addr":"경기도 양주시 광적면 석우리 709-4번지 1층","indutype":"자동차정비 유지 - 세차장","category":"car"}]},{"lat":"37.838392196","long":"126.97354972","imageIndex":0,"items":[{"name":"플러스원","tel":"070-8161-1243","addr":"경기도 양주시 광적면 석우리 496-4번지","indutype":"자동차정비 유지 - 자동차부품","category":"car"}]},{"lat":"37.838580066","long":"126.96863064","imageIndex":0,"items":[{"name":"하루특장","tel":"031-876-3500","addr":"경기도 양주시 광적면 석우리 581-4, 581-6, 581-7","indutype":"자동차정비 유지 - 자동차부품","category":"car"}]},{"lat":"37.830645218","long":"126.9784599","imageIndex":0,"items":[{"name":"현대자동차공업사","tel":"031-837-7722","addr":"경기도 양주시 광적면 석우리 376-3번지 1층","indutype":"자동차정비 유지 - 자동차정비","category":"car"}]},{"lat":"37.828754848","long":"126.98812685","imageIndex":0,"items":[{"name":"황제카공업사","tel":"031-855-9647","addr":"경기도 양주시 광적면 석우리 82-7번지","indutype":"자동차정비 유지 - 자동차정비","category":"car"}]}]