[{"lat":"37.274930884","long":"127.04447562","imageIndex":13,"items":[{"name":"BMW노래연습장","tel":"031-217-1289","addr":"경기도 수원시 영통구 원천동 79-10번지 205호","indutype":"레저업소 - 노 래 방","category":"leisure"},{"name":"샹떼PC방 수원아주대점","tel":"","addr":"경기도 수원시 영통구 원천동 79-10번지 304호","indutype":"레저업소 - 기타레져업소","category":"leisure"}]},{"lat":"37.278760368","long":"127.04413946","imageIndex":13,"items":[{"name":"Net City PC Club","tel":"070-4009-8244","addr":"경기도 수원시 영통구 원천동 18-1번지 아록빌딩 202호","indutype":"레저업소 - 기타레져업소","category":"leisure"},{"name":"e-SPORTS CENTER PC","tel":"070-4009-8244","addr":"경기도 수원시 영통구 원천동 18-1번지 아록빌딩 지층 102호","indutype":"레저업소 - 기타레져업소","category":"leisure"},{"name":"당구존","tel":"070-7076-5091","addr":"경기도 수원시 영통구 원천동 18-1번지 아록빌딩 501호","indutype":"레저업소 - 당 구 장","category":"leisure"},{"name":"대우당구클럽","tel":"031-216-1683","addr":"경기도 수원시 영통구 원천동 18-1번지","indutype":"레저업소 - 당 구 장","category":"leisure"},{"name":"웁스당구장","tel":"031-214-0014","addr":"경기도 수원시 영통구 원천동 18-1,5,6층","indutype":"레저업소 - 당 구 장","category":"leisure"},{"name":"큐브 PC 카페","tel":"031-663-0447","addr":"경기도 수원시 영통구 원천동 18-1번지 아록빌딩 4층 402호","indutype":"레저업소 - 기타레져업소","category":"leisure"}]},{"lat":"37.266651234","long":"127.06350127","imageIndex":13,"items":[{"name":"SBS 노래연습장","tel":"031-213-8001","addr":"경기도 수원시 영통구 원천동 258-19번지 2층","indutype":"레저업소 - 노 래 방","category":"leisure"},{"name":"월드당구클럽","tel":"031-214-6005","addr":"경기도 수원시 영통구 원천동 258-19번지","indutype":"레저업소 - 당 구 장","category":"leisure"}]},{"lat":"37.266957699","long":"127.06327604","imageIndex":13,"items":[{"name":"X-당구클럽","tel":"031-212-7762","addr":"경기도 수원시 영통구 원천동 258-26번지 2층","indutype":"레저업소 - 당 구 장","category":"leisure"}]},{"lat":"37.278210781","long":"127.04402641","imageIndex":13,"items":[{"name":"노리터pc방","tel":"031-238-9229","addr":"경기도 수원시 영통구 원천동 18-6번지 아카데미빌딩","indutype":"레저업소 - 기타레져업소","category":"leisure"},{"name":"리코스타코인노래연습장","tel":"","addr":"경기도 수원시 영통구 원천동 18-6번지 아카데미빌딩 지하1층","indutype":"레저업소 - 노 래 방","category":"leisure"}]},{"lat":"37.27457023","long":"127.0451632","imageIndex":13,"items":[{"name":"락당구장","tel":"031-257-5657","addr":"경기도 수원시 영통구 원천동 79-6번지 3층","indutype":"레저업소 - 당 구 장","category":"leisure"}]},{"lat":"37.276318612","long":"127.0440592","imageIndex":13,"items":[{"name":"락휴노래연습장","tel":"031-217-7958","addr":"경기도 수원시 영통구 원천동 25-2번지 4층","indutype":"레저업소 - 노 래 방","category":"leisure"},{"name":"해피로PC수원아주대점","tel":"","addr":"경기도 수원시 영통구 원천동 25-2번지 3층","indutype":"레저업소 - 기타레져업소","category":"leisure"}]},{"lat":"37.263514877","long":"127.06499811","imageIndex":13,"items":[{"name":"레이크골프 김기남","tel":"","addr":"경기도 수원시 영통구 원천동 337-74번지 406호","indutype":"레저업소 - 골프연습장","category":"leisure"}]},{"lat":"37.282431188","long":"127.05741351","imageIndex":13,"items":[{"name":"모던필라테스 광교레이크","tel":"031-213-0953","addr":"경기도 수원시 영통구 원천동 589번지 광교중흥에스클래스 1층 44,45호","indutype":"레저업소 - 헬스클럽","category":"leisure"},{"name":"필라테스 하다 (Pilates HADA)","tel":"","addr":"경기도 수원시 영통구 원천동 589번지 중흥S-클래스 2층 20호","indutype":"레저업소 - 헬스클럽","category":"leisure"}]},{"lat":"37.274795414","long":"127.04536628","imageIndex":13,"items":[{"name":"무지개노래연습장","tel":"031-0000-0000","addr":"경기도 수원시 영통구 원천동 79-3번지 지층 1호","indutype":"레저업소 - 노 래 방","category":"leisure"}]},{"lat":"37.267354277","long":"127.06302833","imageIndex":13,"items":[{"name":"뮤노래연습장","tel":"031-211-6001","addr":"경기도 수원시 영통구 원천동 259-5번지","indutype":"레저업소 - 노 래 방","category":"leisure"}]},{"lat":"37.273932728","long":"127.06113938","imageIndex":13,"items":[{"name":"미스터복싱짐","tel":"070-8976-8610","addr":"경기도 수원시 영통구 원천동 593번지 광교아이파크 103동 3304호","indutype":"레저업소 - 헬스클럽","category":"leisure"},{"name":"에필 필라테스 광교점","tel":"02-6959-0761","addr":"경기도 수원시 영통구 원천동 593번지 광교아이파크 247동 250호","indutype":"레저업소 - 헬스클럽","category":"leisure"}]},{"lat":"37.259741166","long":"127.06186118","imageIndex":13,"items":[{"name":"배감독의 베이스볼아카데미","tel":"070-4134-3546","addr":"경기도 수원시 영통구 원천동 377-1번지 석포빌딩 3층 305호","indutype":"레저업소 - 기타레져업소","category":"leisure"}]},{"lat":"37.266373934","long":"127.05941994","imageIndex":13,"items":[{"name":"본주짓수 킥복싱","tel":"031-213-3120","addr":"경기도 수원시 영통구 원천동 471번지 삼성테크노파크 3층 301호","indutype":"레저업소 - 헬스클럽","category":"leisure"},{"name":"테크노당구장","tel":"031-214-3466","addr":"경기도 수원시 영통구 원천동 471번지","indutype":"레저업소 - 당 구 장","category":"leisure"}]},{"lat":"37.278544063","long":"127.04430848","imageIndex":13,"items":[{"name":"비바 노래연습장","tel":"031-212-2285","addr":"경기도 수원시 영통구 원천동 18-16번지 지하1층","indutype":"레저업소 - 노 래 방","category":"leisure"}]},{"lat":"37.274574488","long":"127.05685537","imageIndex":13,"items":[{"name":"사회복지법인브솔복지재단","tel":"070-7018-1401","addr":"경기도 수원시 영통구 원천동 134-3번지 중앙기독교초등학교 신관 340호","indutype":"레저업소 - 수 영 장","category":"leisure"}]},{"lat":"37.266572624","long":"127.05843927","imageIndex":13,"items":[{"name":"삼성당구장","tel":"031-211-3949","addr":"경기도 수원시 영통구 원천동 550-2번지 원천원흥프라자 401호","indutype":"레저업소 - 당 구 장","category":"leisure"}]},{"lat":"37.267074861","long":"127.06321976","imageIndex":13,"items":[{"name":"스타노래연습장","tel":"","addr":"경기도 수원시 영통구 원천동 259-7번지 2층","indutype":"레저업소 - 노 래 방","category":"leisure"}]},{"lat":"37.278517079","long":"127.04417316","imageIndex":13,"items":[{"name":"신나라노래연습장","tel":"070-4922-1261","addr":"경기도 수원시 영통구 원천동 18-14번지 지층","indutype":"레저업소 - 노 래 방","category":"leisure"}]},{"lat":"37.278624852","long":"127.04516547","imageIndex":13,"items":[{"name":"아주스크린골프존","tel":"031-213-0755","addr":"경기도 수원시 영통구 원천동 38-26번지 캠퍼스빌 101호,102호 일부","indutype":"레저업소 - 스크린골프","category":"leisure"}]},{"lat":"37.277769286","long":"127.04400362","imageIndex":13,"items":[{"name":"악쓰는하마노래방","tel":"031-212-0488","addr":"경기도 수원시 영통구 원천동 22-1번지","indutype":"레저업소 - 노 래 방","category":"leisure"}]},{"lat":"37.266849535","long":"127.06335487","imageIndex":13,"items":[{"name":"애니팡 노래연습장","tel":"031-213-6693","addr":"경기도 수원시 영통구 원천동 258-17번지 2층","indutype":"레저업소 - 노 래 방","category":"leisure"}]},{"lat":"37.275318159","long":"127.04494939","imageIndex":13,"items":[{"name":"에이스노래연습장","tel":"031-211-0217","addr":"경기도 수원시 영통구 원천동 28-18번지 지하","indutype":"레저업소 - 노 래 방","category":"leisure"}]},{"lat":"37.266623585","long":"127.06469627","imageIndex":13,"items":[{"name":"오디션노래연습장","tel":"031-213-1612","addr":"경기도 수원시 영통구 원천동 326-5번지 2층","indutype":"레저업소 - 노 래 방","category":"leisure"}]},{"lat":"37.275210282","long":"127.04425028","imageIndex":13,"items":[{"name":"월드컵노래연습장","tel":"031-216-4826","addr":"경기도 수원시 영통구 원천동 27-14번지 지층","indutype":"레저업소 - 노 래 방","category":"leisure"}]},{"lat":"37.262102304","long":"127.06097244","imageIndex":13,"items":[{"name":"이노당구클럽","tel":"031-111-1111","addr":"경기도 수원시 영통구 원천동 554번지 영통 이노플렉스-2단지 3동 207호 206, 207호","indutype":"레저업소 - 당 구 장","category":"leisure"}]},{"lat":"37.266653584","long":"127.05872117","imageIndex":13,"items":[{"name":"점핑블럭타운","tel":"070-7767-0079","addr":"경기도 수원시 영통구 원천동 550-3번지 401,402호","indutype":"레저업소 - 기타레져업소","category":"leisure"}]},{"lat":"37.278462844","long":"127.04466925","imageIndex":13,"items":[{"name":"채플린노래연습장","tel":"031-212-6010","addr":"경기도 수원시 영통구 원천동 29-2번지","indutype":"레저업소 - 노 래 방","category":"leisure"}]},{"lat":"37.265461475","long":"127.06427819","imageIndex":13,"items":[{"name":"천지노래연습장","tel":"031-287-0321","addr":"경기도 수원시 영통구 원천동 332-2번지 수원팩토리월드 지하1층 45호","indutype":"레저업소 - 노 래 방","category":"leisure"}]},{"lat":"37.275209927","long":"127.04525376","imageIndex":13,"items":[{"name":"칸노래연습장","tel":"031-214-0895","addr":"경기도 수원시 영통구 원천동 28-27번지 3층 302호","indutype":"레저업소 - 노 래 방","category":"leisure"}]},{"lat":"37.259937844","long":"127.06489372","imageIndex":13,"items":[{"name":"큐노래연습장","tel":"031-212-5650","addr":"경기도 수원시 영통구 원천동 417-2번지 2층","indutype":"레저업소 - 노 래 방","category":"leisure"}]},{"lat":"37.274767756","long":"127.04708007","imageIndex":13,"items":[{"name":"티파니노래연습장","tel":"031-215-1648","addr":"경기도 수원시 영통구 원천동 72-11번지","indutype":"레저업소 - 노 래 방","category":"leisure"}]},{"lat":"37.277291722","long":"127.04405973","imageIndex":13,"items":[{"name":"파란pc방","tel":"031-226-2579","addr":"경기도 수원시 영통구 원천동 25-3번지 지하1층","indutype":"레저업소 - 기타레져업소","category":"leisure"}]},{"lat":"37.266984545","long":"127.06363682","imageIndex":13,"items":[{"name":"풀타임PC방","tel":"070-7194-1552","addr":"경기도 수원시 영통구 원천동 259-4번지 하나로빌딩 2층","indutype":"레저업소 - 기타레져업소","category":"leisure"}]},{"lat":"37.267237103","long":"127.06310715","imageIndex":13,"items":[{"name":"필노래연습장","tel":"031-211-2202","addr":"경기도 수원시 영통구 원천동 259-6번지 2층","indutype":"레저업소 - 노 래 방","category":"leisure"}]},{"lat":"37.276904292","long":"127.0440257","imageIndex":13,"items":[{"name":"해피쏭노래연습장","tel":"","addr":"경기도 수원시 영통구 원천동 25-10번지 지층","indutype":"레저업소 - 노 래 방","category":"leisure"}]}]