[{"lat":"37.22288402","long":"127.21040292","imageIndex":0,"items":[{"name":"J.S덴트칼라","tel":"031-321-5229","addr":"경기도 용인시 처인구 남동 388-7번지","indutype":"자동차정비 유지 - 카인테리어","category":"car"},{"name":"스마트카","tel":"031-321-2460","addr":"경기도 용인시 처인구 남동 388-7번지 남동주유소","indutype":"자동차정비 유지 - 자동차부품","category":"car"}]},{"lat":"37.22124452","long":"127.21018436","imageIndex":0,"items":[{"name":"남동상사","tel":"031-334-8942","addr":"경기도 용인시 처인구 남동 388-3번지","indutype":"자동차판매 - 중고자동차판매","category":"car"},{"name":"리스엔카","tel":"031-323-2212","addr":"경기도 용인시 처인구 남동 388-3번지 302호","indutype":"자동차판매 - 중고자동차판매","category":"car"},{"name":"붕붕모터스","tel":"031-321-4929","addr":"경기도 용인시 처인구 남동 388-3번지","indutype":"자동차판매 - 중고자동차판매","category":"car"},{"name":"용인모터스","tel":"031-338-2102","addr":"경기도 용인시 처인구 남동 388-3번지","indutype":"자동차판매 - 중고자동차판매","category":"car"},{"name":"일등광택","tel":"031-333-9712","addr":"경기도 용인시 처인구 남동 388-3번지","indutype":"자동차정비 유지 - 카인테리어","category":"car"},{"name":"일등상사","tel":"031-322-1148","addr":"경기도 용인시 처인구 남동 388-3번지 C동 201호","indutype":"자동차판매 - 중고자동차판매","category":"car"},{"name":"주식회사 남경1급 자동차공업사","tel":"031-321-2334","addr":"경기도 용인시 처인구 남동 388-3번지","indutype":"자동차정비 유지 - 자동차정비","category":"car"},{"name":"합동상사","tel":"031-336-8004","addr":"경기도 용인시 처인구 남동 388-3","indutype":"자동차판매 - 중고자동차판매","category":"car"}]},{"lat":"37.220805256","long":"127.20889872","imageIndex":0,"items":[{"name":"뉴스마트카주식회사","tel":"031-321-2465","addr":"경기도 용인시 처인구 남동 402-7번지 1층","indutype":"자동차판매 - 중고자동차판매","category":"car"}]},{"lat":"37.226076496","long":"127.20878911","imageIndex":0,"items":[{"name":"대한셀프","tel":"000-000-0000","addr":"경기도 용인시 처인구 남동 18-3번지 연우하이빌 201호","indutype":"자동차정비 유지 - 견인서비스","category":"car"}]},{"lat":"37.224388463","long":"127.21056479","imageIndex":0,"items":[{"name":"보우카세차장","tel":"031-323-5108","addr":"경기도 용인시 처인구 남동 187-1번지","indutype":"자동차정비 유지 - 세차장","category":"car"}]},{"lat":"37.227277774","long":"127.20181753","imageIndex":0,"items":[{"name":"브로카샵(Bro Car #)","tel":"031-322-8789","addr":"경기도 용인시 처인구 남동 63-4번지 1층","indutype":"자동차정비 유지 - 카인테리어","category":"car"}]},{"lat":"37.220913948","long":"127.20857227","imageIndex":0,"items":[{"name":"스마트카","tel":"031-321-3160","addr":"경기도 용인시 처인구 남동 402-3번지","indutype":"자동차정비 유지 - 자동차정비","category":"car"}]},{"lat":"37.222415386","long":"127.21045797","imageIndex":0,"items":[{"name":"스위프티아","tel":"031-334-6748","addr":"경기도 용인시 처인구 남동 388-11번지","indutype":"자동차정비 유지 - 자동차부품","category":"car"}]},{"lat":"37.221525492","long":"127.20923869","imageIndex":0,"items":[{"name":"스피드메이트 용인행복점","tel":"031-336-0105","addr":"경기도 용인시 처인구 남동 404-2번지","indutype":"자동차정비 유지 - 자동차정비","category":"car"}]},{"lat":"37.225953878","long":"127.19038857","imageIndex":0,"items":[{"name":"아웃포스","tel":"031-336-3363","addr":"경기도 용인시 처인구 남동 88-21번지","indutype":"자동차정비 유지 - 자동차부품","category":"car"}]},{"lat":"37.226829481","long":"127.21101093","imageIndex":0,"items":[{"name":"아트자동차용품점","tel":"031-338-2414","addr":"경기도 용인시 처인구 남동 4-3번지","indutype":"자동차정비 유지 - 카인테리어","category":"car"}]},{"lat":"37.221992533","long":"127.21009627","imageIndex":0,"items":[{"name":"오일러","tel":"031-339-5185","addr":"경기도 용인시 처인구 남동 171-1번지 1층","indutype":"자동차정비 유지 - 윤활유 전문 판매","category":"car"}]},{"lat":"37.224416658","long":"127.20990008","imageIndex":0,"items":[{"name":"오토오아시스 남동점","tel":"031-322-5109","addr":"경기도 용인시 처인구 남동 178-7번지","indutype":"자동차정비 유지 - 자동차시트·타이어","category":"car"}]},{"lat":"37.217355347","long":"127.20829222","imageIndex":0,"items":[{"name":"와이원모터스","tel":"","addr":"경기도 용인시 처인구 남동 347-15번지","indutype":"자동차정비 유지 - 자동차정비","category":"car"}]},{"lat":"37.220694852","long":"127.21020539","imageIndex":0,"items":[{"name":"용인남동현대모터스(주)","tel":"031-336-6708","addr":"경기도 용인시 처인구 남동 390-8번지","indutype":"자동차정비 유지 - 자동차정비","category":"car"}]},{"lat":"37.228163934","long":"127.210485","imageIndex":0,"items":[{"name":"탑(TOP)","tel":"031-322-8422","addr":"경기도 용인시 처인구 남동 27-28번지 1층","indutype":"자동차정비 유지 - 카인테리어","category":"car"}]},{"lat":"37.216112295","long":"127.20807479","imageIndex":0,"items":[{"name":"태성중고타이어","tel":"031-333-9891","addr":"경기도 용인시 처인구 남동 331-6번지","indutype":"자동차정비 유지 - 자동차시트·타이어","category":"car"}]}]