[{"lat":"37.420967051","long":"126.79710894","imageIndex":4,"items":[{"name":"가마솥순대국","tel":"031-313-0553","addr":"경기도 시흥시 미산동 85-24번지","indutype":"음식점업 - 기타음식","category":"restaurant"},{"name":"전주온고을분식","tel":"031-314-8048","addr":"경기도 시흥시 미산동 85-24번지","indutype":"음식점업 - 분식","category":"restaurant"}]},{"lat":"37.417995172","long":"126.79280183","imageIndex":4,"items":[{"name":"달콤도넛","tel":"","addr":"경기도 시흥시 미산동 316번지","indutype":"음식점업 - 도넛","category":"restaurant"}]},{"lat":"37.418800755","long":"126.78982859","imageIndex":4,"items":[{"name":"미산","tel":"031-314-1877","addr":"경기도 시흥시 미산동 282-2번지 1층2층","indutype":"음식점업 - 중국음식점","category":"restaurant"}]},{"lat":"37.417993644","long":"126.79194331","imageIndex":4,"items":[{"name":"민교랑찌개랑","tel":"031-312-3773","addr":"경기도 시흥시 미산동 288-9번지 1층","indutype":"음식점업 - 한식","category":"restaurant"}]},{"lat":"37.418130623","long":"126.7929709","imageIndex":4,"items":[{"name":"신통치킨미산점","tel":"031-435-8585","addr":"경기도 시흥시 미산동 316-10번지 2층 일부호","indutype":"음식점업 - 기타음식","category":"restaurant"}]},{"lat":"37.418413265","long":"126.7897958","imageIndex":4,"items":[{"name":"안동장터소고기국밥","tel":"031-314-1988","addr":"경기도 시흥시 미산동 281-2번지","indutype":"음식점업 - 한식","category":"restaurant"}]},{"lat":"37.418997364","long":"126.7889356","imageIndex":4,"items":[{"name":"원조남원추어탕","tel":"031-315-0011","addr":"경기도 시흥시 미산동 273번지","indutype":"음식점업 - 한식","category":"restaurant"}]},{"lat":"37.418881051","long":"126.79443736","imageIndex":4,"items":[{"name":"카페하루 미산점","tel":"031-312-8447","addr":"경기도 시흥시 미산동 339-1번지 1층","indutype":"음식점업 - 음료","category":"restaurant"}]},{"lat":"37.417994831","long":"126.79260979","imageIndex":4,"items":[{"name":"커피앤","tel":"","addr":"경기도 시흥시 미산동 316-7번지","indutype":"음식점업 - 음료","category":"restaurant"}]},{"lat":"37.417607341","long":"126.79257699","imageIndex":4,"items":[{"name":"타임호프","tel":"","addr":"경기도 시흥시 미산동 314-1번지 성진빌딩 1층","indutype":"음식점업 - 기타음식","category":"restaurant"}]},{"lat":"37.418301352","long":"126.79271061","imageIndex":4,"items":[{"name":"행운식당","tel":"031-315-0959","addr":"경기도 시흥시 미산동 316-24번지 힐탑 상가 3동 102호","indutype":"음식점업 - 기타음식점","category":"restaurant"}]},{"lat":"37.419884768","long":"126.79649058","imageIndex":4,"items":[{"name":"황진소머리국밥","tel":"031-315-3626","addr":"경기도 시흥시 미산동 363-8번지 1층","indutype":"음식점업 - 한식","category":"restaurant"}]}]