[{"lat":"37.881970404","long":"127.17780786","imageIndex":17,"items":[{"name":"(주)부성","tel":"070-8838-7423","addr":"경기도 포천시 어룡동 224-4번지","indutype":"유통업 영리 - 기타유통업","category":"other"}]},{"lat":"37.878833478","long":"127.18485901","imageIndex":17,"items":[{"name":"CU포천어룡점","tel":"536-5086","addr":"경기도 포천시 어룡동 187-2번지","indutype":"소매업 - 편의점","category":"other"},{"name":"씨유포천어룡점","tel":"031-536-5086","addr":"경기도 포천시 어룡동 187-2번지","indutype":"유통업 영리 - 편 의 점","category":"other"}]},{"lat":"37.881001628","long":"127.18685353","imageIndex":17,"items":[{"name":"GS25포천어룡점","tel":"02-2006-2485","addr":"경기도 포천시 어룡동 298-2번지","indutype":"유통업 영리 - 편 의 점","category":"other"},{"name":"GS25포천어룡점","tel":"031-533-6622","addr":"경기도 포천시 어룡동 298-2번지","indutype":"편의점 - 편의점","category":"other"},{"name":"예두레종합장의개발","tel":"031-535-6412","addr":"경기도 포천시 어룡동 298-2번지","indutype":"용역 서비스 - 가례서비스업","category":"other"}]},{"lat":"37.883528964","long":"127.18957657","imageIndex":17,"items":[{"name":"㈜광일에너지","tel":"535-0920","addr":"경기도 포천시 어룡동 389-2번지","indutype":"도소매 - 에너지","category":"other"}]},{"lat":"37.885939699","long":"127.19193574","imageIndex":17,"items":[{"name":"㈜제일","tel":"535-5851","addr":"경기도 포천시 어룡동 410-2번지","indutype":"도소매 - 컴퓨터주변기기외","category":"other"},{"name":"대경정보통신","tel":"535-5851","addr":"경기도 포천시 어룡동 410-2번지","indutype":"도소매 - 사무기기","category":"other"},{"name":"대경정보통신","tel":"031-534-9496","addr":"경기도 포천시 어룡동 410-2번지","indutype":"사무통신 - 사무용 OA기기","category":"other"},{"name":"스포츠뱅크(요넥스포천점)","tel":"535-1244","addr":"경기도 포천시 어룡동 410-2번지","indutype":"소매업 - 스포츠","category":"other"},{"name":"스포츠뱅크(요넥스포천점)","tel":"031-535-1244","addr":"경기도 포천시 어룡동 410-2번지","indutype":"레져용품 - 스포츠·레져용품","category":"other"}]},{"lat":"37.873329668","long":"127.18427719","imageIndex":17,"items":[{"name":"고릴라캠핑포천점","tel":"544-3376","addr":"경기도 포천시 어룡동 145-7번지","indutype":"도소매 - 캠핑용품","category":"other"},{"name":"고릴라캠핑포천점","tel":"031-544-3376","addr":"경기도 포천시 어룡동 145-7번지","indutype":"레져용품 - 스포츠·레져용품","category":"other"}]},{"lat":"37.88468921","long":"127.19080718","imageIndex":17,"items":[{"name":"금강인테리어","tel":"533-8057","addr":"경기도 포천시 어룡동 394-2번지","indutype":"도소매 - 인테리어","category":"other"}]},{"lat":"37.884086565","long":"127.19019181","imageIndex":17,"items":[{"name":"금강인테리어","tel":"031-536-2849","addr":"경기도 포천시 어룡동 391번지","indutype":"직물 - 카페트,커튼,천막,지물","category":"other"}]},{"lat":"37.871915381","long":"127.18416007","imageIndex":17,"items":[{"name":"금성기계","tel":"031-535-8615","addr":"경기도 포천시 어룡동 139-6번지","indutype":"기타 - 기계공구","category":"other"}]},{"lat":"37.884390885","long":"127.19144299","imageIndex":17,"items":[{"name":"대성기업","tel":"031-532-7744","addr":"경기도 포천시 어룡동 417-1번지","indutype":"기타 - 기타 전문점","category":"other"}]},{"lat":"37.879193375","long":"127.18516679","imageIndex":17,"items":[{"name":"대신사무용가구","tel":"031-535-2795","addr":"경기도 포천시 어룡동 195-12번지","indutype":"가구 - 일반가구","category":"other"}]},{"lat":"37.880973283","long":"127.1876946","imageIndex":17,"items":[{"name":"미래냉동설비","tel":"031-535-5425","addr":"경기도 포천시 어룡동 292","indutype":"전기제품 - 냉열기기","category":"other"},{"name":"세계그릇냉동주방","tel":"536-0204","addr":"경기도 포천시 어룡동 292번지","indutype":"도소매 - 생활","category":"other"},{"name":"세계냉동그릇주방","tel":"031-536-0204","addr":"경기도 포천시 어룡동 292번지","indutype":"주방용구 - 주방용구","category":"other"}]},{"lat":"37.879670657","long":"127.18530437","imageIndex":17,"items":[{"name":"부강유통","tel":"535-7183","addr":"경기도 포천시 어룡동 284-3번지","indutype":"도소매 - 축산물","category":"other"},{"name":"한영중전기","tel":"031-535-5522","addr":"경기도 포천시 어룡동 284-3번지","indutype":"수리서비스 - 기타수리서비스","category":"other"}]},{"lat":"37.880003578","long":"127.18557799","imageIndex":17,"items":[{"name":"삼일공사","tel":"031-536-3104","addr":"경기도 포천시 어룡동 284-2","indutype":"건축자재 - 페인트","category":"other"}]},{"lat":"37.876859666","long":"127.18535427","imageIndex":17,"items":[{"name":"세운무역","tel":"031-536-6399","addr":"경기도 포천시 어룡동 149-2번지","indutype":"가구 - 일반가구","category":"other"}]},{"lat":"37.87891486","long":"127.18466598","imageIndex":17,"items":[{"name":"심야전기119하우징","tel":"031-534-1567","addr":"경기도 포천시 어룡동 188-5번지","indutype":"건축자재 - 보일러·펌프·샷시","category":"other"}]},{"lat":"37.88677355","long":"127.1888004","imageIndex":17,"items":[{"name":"싱글벙글 요양원","tel":"535-5190","addr":"경기도 포천시 어룡동 373-2번지 1층","indutype":"보건업 - 요양원","category":"other"}]},{"lat":"37.882079601","long":"127.1888568","imageIndex":17,"items":[{"name":"씨유포천호국로점","tel":"080-080-3663","addr":"경기도 포천시 어룡동 85-1번지","indutype":"유통업 영리 - 편 의 점","category":"other"}]},{"lat":"37.883689543","long":"127.18483686","imageIndex":17,"items":[{"name":"아름농산","tel":"031-533-3535","addr":"경기도 포천시 어룡동 258-1번지 세보전원빌라트 가동 304호","indutype":"회원제형태 - 기타4","category":"other"}]},{"lat":"37.883888835","long":"127.18413258","imageIndex":17,"items":[{"name":"아린이네","tel":"","addr":"경기도 포천시 어룡동 312-2번지 뉴캐슬 103동 4층 402호","indutype":"의류 - 정장","category":"other"}]},{"lat":"37.883415506","long":"127.19291823","imageIndex":17,"items":[{"name":"아주전기","tel":"536-2255","addr":"경기도 포천시 어룡동 68-5번지","indutype":"소매업 - 전기","category":"other"}]},{"lat":"37.88064042","long":"127.18738687","imageIndex":17,"items":[{"name":"왕방지물","tel":"031-535-5122","addr":"경기도 포천시 어룡동 295-5번지","indutype":"직물 - 카페트,커튼,천막,지물","category":"other"},{"name":"유명광고기획","tel":"031-535-8055","addr":"경기도 포천시 어룡동 295-5번지","indutype":"용역 서비스 - 종합용역","category":"other"},{"name":"포천OA사무기","tel":"031-531-7571","addr":"경기도 포천시 어룡동 295-5번지","indutype":"사무통신 - 사무용 OA기기","category":"other"}]},{"lat":"37.87788836","long":"127.18429974","imageIndex":17,"items":[{"name":"이가 인테리어","tel":"031-533-2927","addr":"경기도 포천시 어룡동 188-3번지","indutype":"건축자재 - 인테리어전문","category":"other"}]},{"lat":"37.878663073","long":"127.18435847","imageIndex":17,"items":[{"name":"주식회사지엔엘코리아","tel":"031-543-1853","addr":"경기도 포천시 어룡동 190-14번지","indutype":"주방용구 - 주방용구","category":"other"}]},{"lat":"37.885747085","long":"127.17661184","imageIndex":17,"items":[{"name":"지윤이","tel":"","addr":"경기도 포천시 어룡동 676-2번지","indutype":"의류 - 내의판매","category":"other"}]},{"lat":"37.883598887","long":"127.18520038","imageIndex":17,"items":[{"name":"카페머신엔지니어","tel":"","addr":"경기도 포천시 어룡동 258-1번지 세보전원빌라트 나동 103호","indutype":"수리서비스 - 기타수리서비스","category":"other"}]},{"lat":"37.882198119","long":"127.18797047","imageIndex":17,"items":[{"name":"캐리어포천센타","tel":"031-535-0665","addr":"경기도 포천시 어룡동 301-1번지","indutype":"전기제품 - 냉열기기","category":"other"}]},{"lat":"37.880110948","long":"127.18605565","imageIndex":17,"items":[{"name":"타이어프로(포천점)","tel":"536-8494","addr":"경기도 포천시 어룡동 285","indutype":"도소매 - 타이어등","category":"other"}]},{"lat":"37.880001152","long":"127.18713521","imageIndex":17,"items":[{"name":"포천원예종묘","tel":"031-536-0495","addr":"경기도 포천시 어룡동 289-1","indutype":"문화.취미 - 화원","category":"other"}]},{"lat":"37.876807926","long":"127.18385381","imageIndex":17,"items":[{"name":"포천조명","tel":"031-535-2988","addr":"경기도 포천시 어룡동 190-18번지","indutype":"건축자재 - 조명기구","category":"other"}]},{"lat":"37.878634147","long":"127.18558597","imageIndex":17,"items":[{"name":"포천종합목재","tel":"031-531-6967","addr":"경기도 포천시 어룡동 176-3번지","indutype":"건축자재 - 목재·석재·철물","category":"other"}]},{"lat":"37.885499428","long":"127.19119573","imageIndex":17,"items":[{"name":"포천지역자활센터","tel":"031-531-1327","addr":"경기도 포천시 어룡동 397번지 개성인삼농협 3층","indutype":"신변잡화 - 가방","category":"other"},{"name":"포천지역자활센터","tel":"031-531-1327","addr":"경기도 포천시 어룡동 397번지 개성인삼농협 3층","indutype":"신변잡화 - 가방","category":"other"},{"name":"포천지역자활센터","tel":"031-531-1327","addr":"경기도 포천시 어룡동 397번지 3층","indutype":"신변잡화 - 가방","category":"other"}]},{"lat":"37.877114242","long":"127.18385456","imageIndex":17,"items":[{"name":"하나광고기획","tel":"534-8975","addr":"경기도 포천시 어룡동 190-3번지","indutype":"제조업 - 간판및 광고물","category":"other"}]}]