[{"lat":"37.400980194","long":"127.53555694","imageIndex":7,"items":[{"name":"(주)앤조이팜스","tel":"031-881-1857","addr":"경기도 여주시 금사면 이포리 7-10번지","indutype":"음료식품 - 농·축·수산품","category":"food"}]},{"lat":"37.393979283","long":"127.52955613","imageIndex":7,"items":[{"name":"여주금사참외 영농조합법인","tel":"031-883-3411","addr":"경기도 여주시 금사면 이포리 227-11번지","indutype":"음료식품 - 농·축·수산품","category":"food"}]},{"lat":"37.386701893","long":"127.52895193","imageIndex":7,"items":[{"name":"우리떡방앗간우리찐빵","tel":"031-881-5504","addr":"경기도 여주시 금사면 이포리 346번지","indutype":"음료식품 - 제과점","category":"food"}]},{"lat":"37.392427937","long":"127.53394935","imageIndex":7,"items":[{"name":"이포떡방앗간","tel":"031-882-0441","addr":"경기도 여주시 금사면 이포리 197-15번지","indutype":"음료식품 - 제과점","category":"food"}]},{"lat":"37.402060492","long":"127.53575658","imageIndex":7,"items":[{"name":"이포토종한우전문","tel":"031-885-8946","addr":"경기도 여주시 금사면 이포리 13-2번지","indutype":"음료식품 - 정육점","category":"food"}]},{"lat":"37.390204658","long":"127.53144939","imageIndex":7,"items":[{"name":"일운상회","tel":"031-882-9871","addr":"경기도 여주시 금사면 이포리 252-1번지","indutype":"음료식품 - 기타음료식품","category":"food"}]},{"lat":"37.394869889","long":"127.53589765","imageIndex":7,"items":[{"name":"천양떡방앗간","tel":"031-882-9656","addr":"경기도 여주시 금사면 이포리 185-29번지","indutype":"음료식품 - 제과점","category":"food"}]},{"lat":"37.394093289","long":"127.53025708","imageIndex":7,"items":[{"name":"청운농원","tel":"031-882-9222","addr":"경기도 여주시 금사면 이포리 227-4번지","indutype":"음료식품 - 농·축·수산품","category":"food"}]}]