[{"lat":"37.523310853","long":"126.78196383","imageIndex":17,"items":[{"name":"(주) 종로","tel":"032-235-6000","addr":"경기도 부천시 내동 239번지 1동","indutype":"기타 - 기계공구","category":"other"}]},{"lat":"37.519837372","long":"126.78429299","imageIndex":17,"items":[{"name":"(주) 한국이엔지특수도금","tel":"032-679-8005","addr":"경기도 부천시 내동 273-1번지","indutype":"용역 서비스 - 기타용역서비스","category":"other"}]},{"lat":"37.523285275","long":"126.77795936","imageIndex":17,"items":[{"name":"(주)데이마트","tel":"032-684-0701","addr":"경기도 부천시 내동 124번지 1층","indutype":"사무통신 - 기타 사무용품","category":"other"}]},{"lat":"37.526559445","long":"126.77985008","imageIndex":17,"items":[{"name":"(주)동성씨앤피","tel":"070-8621-3422","addr":"경기도 부천시 내동 212-39번지 2층","indutype":"전기제품 - 기타전기제품","category":"other"},{"name":"제이에이치테크","tel":"070-8990-5893","addr":"경기도 부천시 내동 212-39번지 2층","indutype":"건축자재 - 페인트","category":"other"}]},{"lat":"37.525892551","long":"126.77504417","imageIndex":17,"items":[{"name":"(주)디와이인터내셔널","tel":"070-8800-5228","addr":"경기도 부천시 내동 222-101번지 3층 301호평화","indutype":"레져용품 - 스포츠·레져용품","category":"other"},{"name":"엠에스알지(주)","tel":"070-6350-8932","addr":"경기도 부천시 내동 222-101번지 평화 202호","indutype":"용역 서비스 - 종합용역","category":"other"}]},{"lat":"37.518174563","long":"126.77685486","imageIndex":17,"items":[{"name":"(주)미성이앤씨","tel":"032-684-8805","addr":"경기도 부천시 내동 89번지","indutype":"용역 서비스 - 기타용역서비스","category":"other"}]},{"lat":"37.52239944","long":"126.78120861","imageIndex":17,"items":[{"name":"(주)비오엔센터","tel":"032-671-0325","addr":"경기도 부천시 내동 233-1번지 A동 1호","indutype":"주방용구 - 주방용구","category":"other"}]},{"lat":"37.525981447","long":"126.77912778","imageIndex":17,"items":[{"name":"(주)삼대시스템","tel":"032-682-2222","addr":"경기도 부천시 내동 212-8번지","indutype":"수리서비스 - 가정용품수리","category":"other"}]},{"lat":"37.516756106","long":"126.7748231","imageIndex":17,"items":[{"name":"(주)센추리에이씨","tel":"032-675-0901","addr":"경기도 부천시 내동 54-9번지 대림프라우드아파트","indutype":"기타 - 기계공구","category":"other"},{"name":"강원바퀴","tel":"032-677-5333","addr":"경기도 부천시 내동 54-9번지 대림프라우드아파트 1층","indutype":"기타 - 기계공구","category":"other"},{"name":"대성특수용접","tel":"032-676-6671","addr":"경기도 부천시 내동 54-9번지 대림프라우드아파트 1층","indutype":"기타 - 기타 전문점","category":"other"},{"name":"제후페인트","tel":"032-678-9666","addr":"경기도 부천시 내동 54-9번지 대림프라우드아파트 3호","indutype":"건축자재 - 페인트","category":"other"}]},{"lat":"37.519816115","long":"126.78255104","imageIndex":17,"items":[{"name":"(주)시스피아기연","tel":"02-6497-8727","addr":"경기도 부천시 내동 262번지 3층 일부","indutype":"기타 - 기타 전문점","category":"other"},{"name":"현대공구타운","tel":"032-674-2995","addr":"경기도 부천시 내동 262번지","indutype":"기타 - 기계공구","category":"other"}]},{"lat":"37.522761324","long":"126.78687495","imageIndex":17,"items":[{"name":"(주)신우테크","tel":"032-681-2091","addr":"경기도 부천시 내동 344번지 다우테크노타운 5층 501호","indutype":"기타 - 기계공구","category":"other"},{"name":"썬라이트(SUN LITE)","tel":"032-326-0237","addr":"경기도 부천시 내동 344번지 다우테크노타운 505호","indutype":"건축자재 - 조명기구","category":"other"},{"name":"정성목형/원격지","tel":"032-679-5358","addr":"경기도 부천시 내동 344번지 다우테크노타운 302호","indutype":"기타 - 기타 전문점","category":"other"},{"name":"주식회사 피지코리아","tel":"032-678-6870","addr":"경기도 부천시 내동 344번지 다우테크노타운 506호","indutype":"기타 - 기계공구","category":"other"},{"name":"창무기획스크린","tel":"032-682-9963","addr":"경기도 부천시 내동 344번지 다우테크노타운 201호","indutype":"서적문구 - 출판 및 인쇄물","category":"other"},{"name":"케이피에스(KPS)","tel":"032-216-0038","addr":"경기도 부천시 내동 344번지 다우테크노타운 203호","indutype":"신변잡화 - 기타잡화","category":"other"}]},{"lat":"37.52550813","long":"126.77660648","imageIndex":17,"items":[{"name":"(주)알파테크","tel":"032-684-7553","addr":"경기도 부천시 내동 222-26번지","indutype":"기타 - 기계공구","category":"other"}]},{"lat":"37.521871495","long":"126.78315585","imageIndex":17,"items":[{"name":"(주)오성테크","tel":"032-678-9426","addr":"경기도 부천시 내동 250번지","indutype":"기타 - 기계공구","category":"other"}]},{"lat":"37.520257174","long":"126.77754991","imageIndex":17,"items":[{"name":"(주)월드케멕스","tel":"032-681-9365","addr":"경기도 부천시 내동 117-6","indutype":"신변잡화 - 기타잡화","category":"other"}]},{"lat":"37.521203638","long":"126.7777733","imageIndex":17,"items":[{"name":"(주)유성기전","tel":"032-672-7901","addr":"경기도 부천시 내동 119-4번지","indutype":"기타 - 기타 전문점","category":"other"}]},{"lat":"37.527369113","long":"126.77449666","imageIndex":17,"items":[{"name":"(주)인광파워텍","tel":"032-683-5901","addr":"경기도 부천시 내동 222-11번지 부천생활용품도매단지 C동 502호","indutype":"신변잡화 - 기타잡화","category":"other"},{"name":"기린유통","tel":"02-1566-5002","addr":"경기도 부천시 내동 222-11번지","indutype":"신변잡화 - 기타잡화","category":"other"},{"name":"대주유통","tel":"032-217-5501","addr":"경기도 부천시 내동 222-11번지 부천생활용품도매단지 115호","indutype":"신변잡화 - 기타잡화","category":"other"},{"name":"데이트상사","tel":"032-216-3130","addr":"경기도 부천시 내동 222-11번지 부천생활용품도매단지 C동 524호","indutype":"유통업 영리 - 기타유통업","category":"other"},{"name":"동우전기","tel":"032-216-3838","addr":"경기도 부천시 내동 222-11번지 부천생활용품도매단지 C동 515호","indutype":"전기제품 - 기타전기제품","category":"other"},{"name":"미렉스시계나라","tel":"032-228-8585","addr":"경기도 부천시 내동 222-11번지","indutype":"신변잡화 - 시계","category":"other"},{"name":"민앤제이","tel":"070-8864-4650","addr":"경기도 부천시 내동 222-11번지","indutype":"서적문구 - 문구용품","category":"other"},{"name":"삼성리빙","tel":"032-1566-5007","addr":"경기도 부천시 내동 222-11번지 부천생활용품도매단지 112호","indutype":"주방용구 - 주방용구","category":"other"},{"name":"송월타올우진상사","tel":"032-216-5510","addr":"경기도 부천시 내동 222-11번지","indutype":"신변잡화 - 기타잡화","category":"other"},{"name":"신양사","tel":"000-1566-5023","addr":"경기도 부천시 내동 222-11번지","indutype":"신변잡화 - 기타잡화","category":"other"},{"name":"신한물류","tel":"032-217-8585","addr":"경기도 부천시 내동 222-11번지","indutype":"건축자재 - 유리","category":"other"},{"name":"예향비투비","tel":"032-212-9589","addr":"경기도 부천시 내동 222-11번지 생활용품도매단지 C동 508호","indutype":"문화.취미 - 민예·공예품","category":"other"},{"name":"우성아트","tel":"032-216-5797","addr":"경기도 부천시 내동 222-11번지 부천생활용품도매단지 106호","indutype":"직물 - 침구·수예점","category":"other"},{"name":"인광C2K","tel":"","addr":"경기도 부천시 내동 222-11번지 부천생활용품도매단지 C동 528호","indutype":"신변잡화 - 기타잡화","category":"other"},{"name":"주식회사 쌈지코리아","tel":"031-1522-8523","addr":"경기도 부천시 내동 222-11번지 부천생활용품도매단지 C동 501호","indutype":"직물 - 침구·수예점","category":"other"}]},{"lat":"37.518674956","long":"126.7842172","imageIndex":17,"items":[{"name":"(주)정화이동통신","tel":"032-683-2020","addr":"경기도 부천시 내동 269번지","indutype":"사무통신 - 통신기기(무이자할부)","category":"other"},{"name":"(주)정화이동통신/특별할부","tel":"032-683-2020","addr":"경기도 부천시 내동 269번지","indutype":"사무통신 - 통신기기(무이자할부)","category":"other"},{"name":"(주)정화이동통신_PS","tel":"032-683-2020","addr":"경기도 부천시 내동 269번지","indutype":"사무통신 - 통신기기","category":"other"},{"name":"수연정보기술","tel":"032-673-8678","addr":"경기도 부천시 내동 269번지 1층","indutype":"사무통신 - 컴퓨터","category":"other"},{"name":"신진기획","tel":"032-683-9874","addr":"경기도 부천시 내동 269번지","indutype":"용역 서비스 - 종합용역","category":"other"},{"name":"주)정화이동통신","tel":"032-683-2020","addr":"경기도 부천시 내동 269번지","indutype":"사무통신 - 통신기기","category":"other"}]},{"lat":"37.52092914","long":"126.77557961","imageIndex":17,"items":[{"name":"(주)주경금속","tel":"032-674-0120","addr":"경기도 부천시 내동 70번지","indutype":"건축자재 - 기타건축자재","category":"other"}]},{"lat":"37.518977144","long":"126.78198792","imageIndex":17,"items":[{"name":"(주)케이지에스","tel":"032-677-0041","addr":"경기도 부천시 내동 215-2번지","indutype":"수리서비스 - 세탁소","category":"other"}]},{"lat":"37.51789664","long":"126.78235307","imageIndex":17,"items":[{"name":"(주)코콕","tel":"02-2696-6673","addr":"경기도 부천시 내동 202-5번지 유전빌딩 서관 1층","indutype":"전기제품 - 기타전기제품","category":"other"},{"name":"일신풍력","tel":"032-681-6478","addr":"경기도 부천시 내동 202-5번지 유전빌딩 동관 1층 102호","indutype":"기타 - 기계공구","category":"other"},{"name":"파워엠팩","tel":"032-674-7706","addr":"경기도 부천시 내동 202-5번지 유전빌딩 1층 101호","indutype":"기타 - 기계공구","category":"other"},{"name":"현성닥트","tel":"032-674-0481","addr":"경기도 부천시 내동 202-5번지 유전빌딩 1층 103호","indutype":"건축자재 - 보일러·펌프·샷시","category":"other"}]},{"lat":"37.521338207","long":"126.78224114","imageIndex":17,"items":[{"name":"(주)테크인","tel":"032-672-2982","addr":"경기도 부천시 내동 253-2번지","indutype":"기타 - 기계공구","category":"other"}]},{"lat":"37.523205938","long":"126.78368361","imageIndex":17,"items":[{"name":"(주)트리니티윙","tel":"032-715-7998","addr":"경기도 부천시 내동 286-1번지 세론빌딩 2층 201호","indutype":"광학제품 - 기타광학제품","category":"other"},{"name":"포유테크","tel":"070-7510-4839","addr":"경기도 부천시 내동 286-1번지 세론빌딩 3층 302호","indutype":"전기제품 - 기타전기제품","category":"other"}]},{"lat":"37.520366421","long":"126.78782074","imageIndex":17,"items":[{"name":"(주)한성텔레콤_PS","tel":"032-667-4600","addr":"경기도 부천시 내동 353번지","indutype":"사무통신 - 통신기기","category":"other"}]},{"lat":"37.521150561","long":"126.78307878","imageIndex":17,"items":[{"name":"(주)헬스마일","tel":"032-000-0000","addr":"경기도 부천시 내동 255-2번지 3층","indutype":"주방용구 - 주방용구","category":"other"}]},{"lat":"37.526560384","long":"126.78034784","imageIndex":17,"items":[{"name":"153오에이","tel":"032-551-0153","addr":"경기도 부천시 내동 212-34번지 3층","indutype":"사무통신 - 사무용 OA기기","category":"other"}]},{"lat":"37.522400195","long":"126.77685342","imageIndex":17,"items":[{"name":"ALLTHREE/원격지","tel":"032-683-0258","addr":"경기도 부천시 내동 75-2번지","indutype":"기타 - 기타 전문점","category":"other"}]},{"lat":"37.519203067","long":"126.78234923","imageIndex":17,"items":[{"name":"E하이테크(Energy High Tech)","tel":"032-506-7222","addr":"경기도 부천시 내동 308-2번지","indutype":"전기제품 - 기타전기제품","category":"other"},{"name":"오케이 디자인","tel":"","addr":"경기도 부천시 내동 308-2번지 1층","indutype":"건축자재 - 인테리어전문","category":"other"},{"name":"진방","tel":"032-672-3787","addr":"경기도 부천시 내동 308-2번지 2층","indutype":"기타 - 기타 전문점","category":"other"}]},{"lat":"37.522059569","long":"126.78743127","imageIndex":17,"items":[{"name":"GS25내촌제일점","tel":"080-555-2525","addr":"경기도 부천시 내동 349-2번지 1층","indutype":"유통업 영리 - 편 의 점","category":"other"},{"name":"그린세탁소","tel":"032-674-2976","addr":"경기도 부천시 내동 349-2번지","indutype":"수리서비스 - 세탁소","category":"other"}]},{"lat":"37.520228193","long":"126.78613568","imageIndex":17,"items":[{"name":"GS25부천내동점","tel":"02-2006-2118","addr":"경기도 부천시 내동 326번지 1층","indutype":"유통업 영리 - 편 의 점","category":"other"},{"name":"눈에쏙간판","tel":"","addr":"경기도 부천시 내동 326번지 1층 1호","indutype":"건축자재 - 인테리어전문","category":"other"}]},{"lat":"37.516095979","long":"126.77358088","imageIndex":17,"items":[{"name":"GS25삼정본점","tel":"","addr":"경기도 부천시 내동 57번지 1층","indutype":"유통업 영리 - 편 의 점","category":"other"}]},{"lat":"37.520310856","long":"126.78699514","imageIndex":17,"items":[{"name":"JOA조아산업","tel":"032-677-0755","addr":"경기도 부천시 내동 328번지 1층 5호","indutype":"신변잡화 - 기타잡화","category":"other"},{"name":"뉴퓨처","tel":"032-672-8542","addr":"경기도 부천시 내동 328번지","indutype":"기타 - 기계공구","category":"other"},{"name":"씨유내동광교점","tel":"032-676-1354","addr":"경기도 부천시 내동 328번지 1층","indutype":"유통업 영리 - 편 의 점","category":"other"},{"name":"주식회사 부천냉동부속","tel":"032-684-8680","addr":"경기도 부천시 내동 328번지","indutype":"전기제품 - 냉열기기","category":"other"}]},{"lat":"37.519866635","long":"126.78066182","imageIndex":17,"items":[{"name":"KJ금속","tel":"032-678-4642","addr":"경기도 부천시 내동 192번지","indutype":"기타 - 기계공구","category":"other"},{"name":"와이제이안료","tel":"032-677-2995","addr":"경기도 부천시 내동 192번지 1층","indutype":"건축자재 - 페인트","category":"other"},{"name":"태양금속","tel":"032-671-7245","addr":"경기도 부천시 내동 192번지","indutype":"기타 - 기계공구","category":"other"}]},{"lat":"37.521399471","long":"126.78613229","imageIndex":17,"items":[{"name":"LG에어컨부천이전설치전문센터","tel":"032-612-0003","addr":"경기도 부천시 내동 333번지 파인센트럴빌 402호","indutype":"용역 서비스 - 기타용역서비스","category":"other"}]},{"lat":"37.527006043","long":"126.78257514","imageIndex":17,"items":[{"name":"Magic I Company","tel":"032-325-6511","addr":"경기도 부천시 내동 99-2번지 2층","indutype":"문화.취미 - 티켓","category":"other"},{"name":"귀로농원","tel":"032-682-3888","addr":"경기도 부천시 내동 99-2번지 1층 일부","indutype":"문화.취미 - 화원","category":"other"},{"name":"영진상사","tel":"032-676-0372","addr":"경기도 부천시 내동 99-2번지 1층","indutype":"건축자재 - 페인트","category":"other"},{"name":"오정알뜰매장","tel":"032-677-5287","addr":"경기도 부천시 내동 99-2번지 1층","indutype":"전기제품 - 가전제품","category":"other"}]},{"lat":"37.515922407","long":"126.77702001","imageIndex":17,"items":[{"name":"PROVICO","tel":"032-673-6273","addr":"경기도 부천시 내동 96번지 206호","indutype":"기타 - 기계공구","category":"other"},{"name":"강원바퀴","tel":"032-677-8533","addr":"경기도 부천시 내동 96번지 1층 111호","indutype":"기타 - 기계공구","category":"other"},{"name":"국일자석","tel":"032-683-0091","addr":"경기도 부천시 내동 96번지 태양공구 210호 상가","indutype":"신변잡화 - 기타잡화","category":"other"},{"name":"대진웰딩(DAEJIN WELDING)","tel":"032-675-1435","addr":"경기도 부천시 내동 96번지 305호","indutype":"기타 - 기계공구","category":"other"},{"name":"삼정볼트","tel":"032-675-3149","addr":"경기도 부천시 내동 96번지 태양 상가 110호","indutype":"기타 - 기계공구","category":"other"},{"name":"삼정테크","tel":"032-675-3149","addr":"경기도 부천시 내동 96번지 태양공구 110호","indutype":"건축자재 - 목재·석재·철물","category":"other"},{"name":"이돈영세무회계사무소","tel":"032-684-6842","addr":"경기도 부천시 내동 96번지 태양공구상가 4층 401호","indutype":"용역 서비스 - 법률회계서비스(개인)","category":"other"},{"name":"제일상사","tel":"032-679-5958","addr":"경기도 부천시 내동 96번지 104호","indutype":"기타 - 기계공구","category":"other"},{"name":"제일테크","tel":"032-679-5090","addr":"경기도 부천시 내동 96번지 1층","indutype":"건축자재 - 기타건축자재","category":"other"},{"name":"주식회사 의성베아링","tel":"032-678-4949","addr":"경기도 부천시 내동 96번지 109호","indutype":"기타 - 기계공구","category":"other"},{"name":"주예나라","tel":"070-7826-2169","addr":"경기도 부천시 내동 96번지 303호","indutype":"주방용구 - 주방용구","category":"other"},{"name":"태양계기","tel":"032-679-6202","addr":"경기도 부천시 내동 96번지 101호","indutype":"기타 - 기계공구","category":"other"},{"name":"태흥종합공구","tel":"032-678-8221","addr":"경기도 부천시 내동 96번지 태양공구상가 1층 106호","indutype":"건축자재 - 목재·석재·철물","category":"other"},{"name":"태흥종합공구","tel":"032-678-8221","addr":"경기도 부천시 내동 96번지 태양공구상가 106호","indutype":"기타 - 기계공구","category":"other"},{"name":"풍한상사","tel":"032-678-5757","addr":"경기도 부천시 내동 96번지","indutype":"기타 - 기계공구","category":"other"},{"name":"흥진상사","tel":"032-676-3931","addr":"경기도 부천시 내동 96번지 태양 상가 108호","indutype":"전기제품 - 기타전기제품","category":"other"}]},{"lat":"37.519288065","long":"126.77963417","imageIndex":17,"items":[{"name":"SJ과학기계","tel":"032-679-4135","addr":"경기도 부천시 내동 156번지 1층","indutype":"기타 - 기계공구","category":"other"},{"name":"미래정밀","tel":"032-677-5400","addr":"경기도 부천시 내동 156번지","indutype":"기타 - 기계공구","category":"other"}]},{"lat":"37.519869644","long":"126.77749452","imageIndex":17,"items":[{"name":"가나전기","tel":"032-683-4341","addr":"경기도 부천시 내동 115번지 가나전기","indutype":"전기제품 - 기타전기제품","category":"other"},{"name":"영진종합상사","tel":"032-682-0402","addr":"경기도 부천시 내동 115번지","indutype":"의류 - 기타의류","category":"other"},{"name":"오색칼라","tel":"032-676-5587","addr":"경기도 부천시 내동 115번지","indutype":"서적문구 - 과학기자재","category":"other"},{"name":"우성안료","tel":"032-681-4220","addr":"경기도 부천시 내동 115번지 1층","indutype":"기타 - 기타 전문점","category":"other"},{"name":"한양공구","tel":"032-672-5242","addr":"경기도 부천시 내동 115번지","indutype":"기타 - 기계공구","category":"other"}]},{"lat":"37.518429465","long":"126.78301889","imageIndex":17,"items":[{"name":"가온과학","tel":"032-678-5839","addr":"경기도 부천시 내동 322-1번지","indutype":"서적문구 - 과학기자재","category":"other"}]},{"lat":"37.517478646","long":"126.7804653","imageIndex":17,"items":[{"name":"강원상사","tel":"032-673-7799","addr":"경기도 부천시 내동 199번지","indutype":"의류 - 기타의류","category":"other"},{"name":"부천정밀","tel":"032-672-5300","addr":"경기도 부천시 내동 199번지 서보빌딩","indutype":"기타 - 기계공구","category":"other"},{"name":"씨유내동공단점","tel":"032-662-3088","addr":"경기도 부천시 내동 199번지 서보빌딩 1층","indutype":"유통업 영리 - 편 의 점","category":"other"}]},{"lat":"37.520810455","long":"126.78430146","imageIndex":17,"items":[{"name":"강원화학","tel":"032-684-8705","addr":"경기도 부천시 내동 277번지 2층","indutype":"전기제품 - 기타전기제품","category":"other"}]},{"lat":"37.526698611","long":"126.78198778","imageIndex":17,"items":[{"name":"거성철강","tel":"032-683-3318","addr":"경기도 부천시 내동 219-16번지","indutype":"건축자재 - 기타건축자재","category":"other"}]},{"lat":"37.520282235","long":"126.78127143","imageIndex":17,"items":[{"name":"경남철강상사","tel":"032-681-1161","addr":"경기도 부천시 내동 227-4번지","indutype":"기타 - 기타 전문점","category":"other"}]},{"lat":"37.523143645","long":"126.78410235","imageIndex":17,"items":[{"name":"경동정공","tel":"032-674-6972","addr":"경기도 부천시 내동 287번지","indutype":"기타 - 기계공구","category":"other"}]},{"lat":"37.518123383","long":"126.78315552","imageIndex":17,"items":[{"name":"경성P&T(경성피앤티)","tel":"032-682-8238","addr":"경기도 부천시 내동 266-4번지 1층 3호","indutype":"기타 - 기계공구","category":"other"},{"name":"명수특수모타","tel":"032-677-5079","addr":"경기도 부천시 내동 266-4번지","indutype":"기타 - 기계공구","category":"other"}]},{"lat":"37.51984464","long":"126.78335409","imageIndex":17,"items":[{"name":"경원상사","tel":"032-681-5022","addr":"경기도 부천시 내동 262-4번지 이원빌딩","indutype":"유통업 영리 - 기타유통업","category":"other"}]},{"lat":"37.519872304","long":"126.77419147","imageIndex":17,"items":[{"name":"경원일해공압","tel":"032-678-0294","addr":"경기도 부천시 내동 10-4번지 1층","indutype":"기타 - 기계공구","category":"other"}]},{"lat":"37.519539619","long":"126.77454315","imageIndex":17,"items":[{"name":"경원콤푸레샤","tel":"032-672-0285","addr":"경기도 부천시 내동 12-11번지","indutype":"기타 - 기계공구","category":"other"}]},{"lat":"37.518706701","long":"126.78190954","imageIndex":17,"items":[{"name":"경일전자(주)","tel":"02-6679-4020","addr":"경기도 부천시 내동 211-1번지","indutype":"전기제품 - 기타전기제품","category":"other"},{"name":"지에스 아이엠(GSIM)","tel":"032-676-2925","addr":"경기도 부천시 내동 211-1번지 2층","indutype":"전기제품 - 기타전기제품","category":"other"}]},{"lat":"37.519783606","long":"126.7796327","imageIndex":17,"items":[{"name":"고려페인트상사","tel":"032-682-1006","addr":"경기도 부천시 내동 157번지","indutype":"건축자재 - 페인트","category":"other"},{"name":"세원산업기계","tel":"032-675-1489","addr":"경기도 부천시 내동 157번지","indutype":"기타 - 기계공구","category":"other"},{"name":"신영전기부천대리점","tel":"032-681-2186","addr":"경기도 부천시 내동 157번지","indutype":"기타 - 기계공구","category":"other"},{"name":"중앙포장상사","tel":"032-672-8323","addr":"경기도 부천시 내동 157번지","indutype":"유통업 영리 - 기타유통업","category":"other"}]},{"lat":"37.516257196","long":"126.77776554","imageIndex":17,"items":[{"name":"광명고무","tel":"032-682-6397","addr":"경기도 부천시 내동 104번지","indutype":"기타 - 기타 전문점","category":"other"},{"name":"누림디자인","tel":"032-684-4038","addr":"경기도 부천시 내동 104번지 태양 상가 315호","indutype":"유통업 영리 - 기타유통업","category":"other"},{"name":"대성닛블","tel":"032-677-7766","addr":"경기도 부천시 내동 104번지","indutype":"건축자재 - 건축용 요업제품","category":"other"},{"name":"두리종합상사","tel":"032-684-8909","addr":"경기도 부천시 내동 104번지 1층 105호","indutype":"기타 - 기계공구","category":"other"},{"name":"록키이엔지","tel":"032-684-7402","addr":"경기도 부천시 내동 104번지","indutype":"가구 - 철제가구","category":"other"},{"name":"분도상사","tel":"032-677-4449","addr":"경기도 부천시 내동 104번지","indutype":"기타 - 기계공구","category":"other"},{"name":"서브툴(SERVE TOOL)","tel":"032-683-0940","addr":"경기도 부천시 내동 104번지 태양공구상가 317호","indutype":"건축자재 - 조명기구","category":"other"},{"name":"신한자동화","tel":"032-673-6664","addr":"경기도 부천시 내동 104 외 1필지태양상가 115","indutype":"전기제품 - 기타전기제품","category":"other"},{"name":"에이원고무","tel":"032-683-9013","addr":"경기도 부천시 내동 104번지 102호","indutype":"기타 - 기계공구","category":"other"},{"name":"종합특수철강","tel":"032-679-2211","addr":"경기도 부천시 내동 104번지","indutype":"건축자재 - 기타건축자재","category":"other"},{"name":"주식회사 종합특수강","tel":"032-679-2211","addr":"경기도 부천시 내동 104번지","indutype":"기타 - 기계공구","category":"other"},{"name":"창성상사","tel":"032-681-0130","addr":"경기도 부천시 내동 104번지 태양공구상가 109,209,309,B9","indutype":"유통업 영리 - 기타유통업","category":"other"},{"name":"태양기공사","tel":"032-677-4550","addr":"경기도 부천시 내동 104번지","indutype":"기타 - 기계공구","category":"other"},{"name":"해광산업","tel":"032-677-6353","addr":"경기도 부천시 내동 104번지","indutype":"의류 - 기타의류","category":"other"},{"name":"현대성형서비스","tel":"032-684-6555","addr":"경기도 부천시 내동 104번지 3층","indutype":"기타 - 기계공구","category":"other"},{"name":"혜성공구","tel":"032-674-0989","addr":"경기도 부천시 내동 104번지","indutype":"기타 - 기계공구","category":"other"},{"name":"화성툴링","tel":"032-676-4168","addr":"경기도 부천시 내동 104번지","indutype":"기타 - 기계공구","category":"other"}]},{"lat":"37.5192859","long":"126.7784917","imageIndex":17,"items":[{"name":"광성스크린","tel":"032-677-9263","addr":"경기도 부천시 내동 136번지 옥상","indutype":"서적문구 - 출판 및 인쇄물","category":"other"}]},{"lat":"37.517784831","long":"126.78038521","imageIndex":17,"items":[{"name":"국제특수알곤용접","tel":"032-678-0625","addr":"경기도 부천시 내동 198번지","indutype":"기타 - 기계공구","category":"other"},{"name":"새한스프링","tel":"032-674-6470","addr":"경기도 부천시 내동 198번지 1층","indutype":"기타 - 기계공구","category":"other"}]},{"lat":"37.517367287","long":"126.77405207","imageIndex":17,"items":[{"name":"굿데이 밴","tel":"070-4348-5759","addr":"경기도 부천시 내동 28-2번지 지층 일부호","indutype":"사무통신 - 통신기기","category":"other"}]},{"lat":"37.521233788","long":"126.78915307","imageIndex":17,"items":[{"name":"귀뚜라미홈시스인테리어","tel":"032-678-9933","addr":"경기도 부천시 내동 355번지 A","indutype":"건축자재 - 보일러·펌프·샷시","category":"other"},{"name":"대상열기","tel":"032-516-0472","addr":"경기도 부천시 내동 355번지","indutype":"건축자재 - 보일러·펌프·샷시","category":"other"}]},{"lat":"37.519315138","long":"126.77493974","imageIndex":17,"items":[{"name":"그린라벨","tel":"","addr":"경기도 부천시 내동 16-13번지 2층","indutype":"신변잡화 - 기타잡화","category":"other"},{"name":"네오겟수원","tel":"032-678-3801","addr":"경기도 부천시 내동 16-13번지 2층","indutype":"서적문구 - 문구용품","category":"other"},{"name":"럭키종합포장","tel":"032-672-3322","addr":"경기도 부천시 내동 16-13번지","indutype":"신변잡화 - 기타잡화","category":"other"},{"name":"쓰리디캐스팅(3D CASTING)","tel":"","addr":"경기도 부천시 내동 16-13번지 1층 1호","indutype":"사무통신 - 컴퓨터","category":"other"},{"name":"제이엔지스포츠","tel":"032-568-8277","addr":"경기도 부천시 내동 16-13번지","indutype":"레져용품 - 스포츠·레져용품","category":"other"}]},{"lat":"37.523311994","long":"126.78257469","imageIndex":17,"items":[{"name":"그린테크","tel":"032-589-8491","addr":"경기도 부천시 내동 241번지","indutype":"기타 - 기계공구","category":"other"}]},{"lat":"37.523117996","long":"126.78484903","imageIndex":17,"items":[{"name":"금도특수","tel":"032-683-3130","addr":"경기도 부천시 내동 289번지 성진그린타운 1동상가 1층","indutype":"기타 - 기계공구","category":"other"}]},{"lat":"37.518920901","long":"126.78082299","imageIndex":17,"items":[{"name":"기아다이아몬드테크","tel":"032-679-8379","addr":"경기도 부천시 내동 194-1번지 3층","indutype":"기타 - 기계공구","category":"other"}]},{"lat":"37.522704328","long":"126.78043847","imageIndex":17,"items":[{"name":"나경이앤에이","tel":"032-676-1788","addr":"경기도 부천시 내동 170-11번지 (2,3층일부)","indutype":"신변잡화 - 기타잡화","category":"other"},{"name":"세원기연","tel":"032-677-8751","addr":"경기도 부천시 내동 170-11번지","indutype":"기타 - 기계공구","category":"other"},{"name":"세원기연/원격지","tel":"032-677-8751","addr":"경기도 부천시 내동 170-11번지","indutype":"기타 - 기타 전문점","category":"other"}]},{"lat":"37.519817588","long":"126.77854667","imageIndex":17,"items":[{"name":"나래","tel":"032-683-2337","addr":"경기도 부천시 내동 135번지 B동 1층","indutype":"건축자재 - 인테리어전문","category":"other"},{"name":"우노실버금속공예사","tel":"032-672-3761","addr":"경기도 부천시 내동 135번지 3층","indutype":"신변잡화 - 액세서리","category":"other"},{"name":"흥우조명","tel":"032-672-2270","addr":"경기도 부천시 내동 135번지 2층","indutype":"건축자재 - 조명기구","category":"other"}]},{"lat":"37.519899816","long":"126.77444024","imageIndex":17,"items":[{"name":"내동페인트","tel":"032-671-9105","addr":"경기도 부천시 내동 12번지 1층 일부","indutype":"건축자재 - 페인트","category":"other"},{"name":"동양인쇄문구","tel":"032-671-8784","addr":"경기도 부천시 내동 12번지","indutype":"서적문구 - 문구용품","category":"other"}]},{"lat":"37.517090821","long":"126.77552339","imageIndex":17,"items":[{"name":"뉴월드재활용","tel":"032-671-7030","addr":"경기도 부천시 내동 61번지","indutype":"가구 - 일반가구","category":"other"},{"name":"덕우프라스틱","tel":"032-681-2150","addr":"경기도 부천시 내동 61번지","indutype":"기타 - 기타 전문점","category":"other"}]},{"lat":"37.517395804","long":"126.77482115","imageIndex":17,"items":[{"name":"늘봄요양원","tel":"032-652-8600","addr":"경기도 부천시 내동 27-4번지 ,2~3층","indutype":"기타의료기관 - 기타의료기관 및 기타","category":"other"},{"name":"부천중동로타리글럽","tel":"032-668-4195","addr":"경기도 부천시 내동 27-4번지","indutype":"기타 - 비영리/대상","category":"other"}]},{"lat":"37.523037691","long":"126.78043748","imageIndex":17,"items":[{"name":"다미전자","tel":"032-323-9485","addr":"경기도 부천시 내동 170-3번지 3층","indutype":"전기제품 - 기타전기제품","category":"other"}]},{"lat":"37.51803636","long":"126.77998856","imageIndex":17,"items":[{"name":"다산특수공구연마","tel":"032-676-0548","addr":"경기도 부천시 내동 154-1번지 2층","indutype":"기타 - 기계공구","category":"other"},{"name":"월드툴","tel":"032-675-0994","addr":"경기도 부천시 내동 154-1번지 2층","indutype":"기타 - 기계공구","category":"other"}]},{"lat":"37.52042467","long":"126.78035475","imageIndex":17,"items":[{"name":"다솜인쇄기획","tel":"032-681-0700","addr":"경기도 부천시 내동 190번지","indutype":"서적문구 - 출판 및 인쇄물","category":"other"},{"name":"충남포장","tel":"032-673-3741","addr":"경기도 부천시 내동 190번지","indutype":"신변잡화 - 기타잡화","category":"other"},{"name":"태두인쇄","tel":"032-678-1777","addr":"경기도 부천시 내동 190번지","indutype":"서적문구 - 출판 및 인쇄물","category":"other"}]},{"lat":"37.520283993","long":"126.78221031","imageIndex":17,"items":[{"name":"다와상사","tel":"032-678-9014","addr":"경기도 부천시 내동 228-3번지","indutype":"기타 - 기계공구","category":"other"},{"name":"대한안료상사","tel":"032-684-0074","addr":"경기도 부천시 내동 228-3번지","indutype":"건축자재 - 기타건축자재","category":"other"}]},{"lat":"37.520670697","long":"126.78182456","imageIndex":17,"items":[{"name":"다우테크","tel":"032-672-6300","addr":"경기도 부천시 내동 178-9번지 3층","indutype":"전기제품 - 기타전기제품","category":"other"}]},{"lat":"37.52217685","long":"126.77784956","imageIndex":17,"items":[{"name":"대경메디피아","tel":"032-678-5081","addr":"경기도 부천시 내동 122-5번지","indutype":"신변잡화 - 기타잡화","category":"other"}]},{"lat":"37.519589475","long":"126.77704289","imageIndex":17,"items":[{"name":"대림공업","tel":"032-665-3370","addr":"경기도 부천시 내동 83-3번지","indutype":"건축자재 - 조명기구","category":"other"},{"name":"삼화파이프","tel":"032-676-0653","addr":"경기도 부천시 내동 83-3번지","indutype":"건축자재 - 건축용 요업제품","category":"other"}]},{"lat":"37.51992441","long":"126.77318456","imageIndex":17,"items":[{"name":"대명인쇄","tel":"032-674-3926","addr":"경기도 부천시 내동 10번지","indutype":"서적문구 - 출판 및 인쇄물","category":"other"},{"name":"예지디자인","tel":"032-677-4541","addr":"경기도 부천시 내동 10번지 2층","indutype":"건축자재 - 인테리어전문","category":"other"},{"name":"주식회사 대흥소방","tel":"032-674-5118","addr":"경기도 부천시 내동 10번지 1층 1호","indutype":"기타 - 기계공구","category":"other"}]},{"lat":"37.520256743","long":"126.77732367","imageIndex":17,"items":[{"name":"대명화공약품상사","tel":"032-681-4588","addr":"경기도 부천시 내동 117-3번지","indutype":"서적문구 - 과학기자재","category":"other"},{"name":"성원정밀","tel":"032-673-3746","addr":"경기도 부천시 내동 117-3번지 1층","indutype":"기타 - 기계공구","category":"other"},{"name":"승진전기","tel":"032-874-7767","addr":"경기도 부천시 내동 117-3번지","indutype":"전기제품 - 기타전기제품","category":"other"},{"name":"현대모터","tel":"02-0000-0000","addr":"경기도 부천시 내동 117-3번지","indutype":"수리서비스 - 기타수리서비스","category":"other"},{"name":"화천써비스","tel":"032-677-9311","addr":"경기도 부천시 내동 117-3번지","indutype":"기타 - 기계공구","category":"other"}]},{"lat":"37.516926675","long":"126.77921138","imageIndex":17,"items":[{"name":"대성상사","tel":"032-672-6498","addr":"경기도 부천시 내동 150번지","indutype":"건축자재 - 페인트","category":"other"},{"name":"미라클","tel":"070-7396-9031","addr":"경기도 부천시 내동 150번지 2층","indutype":"기타 - 기타 전문점","category":"other"},{"name":"해성포장","tel":"032-676-4723","addr":"경기도 부천시 내동 150번지","indutype":"유통업 영리 - 기타유통업","category":"other"}]},{"lat":"37.525455931","long":"126.77757952","imageIndex":17,"items":[{"name":"대성화공약품상사","tel":"032-681-8881","addr":"경기도 부천시 내동 222-53번지","indutype":"기타 - 기타 전문점","category":"other"},{"name":"삼성퍼니쳐","tel":"032-678-4511","addr":"경기도 부천시 내동 222-53번지","indutype":"주방용구 - 주방용구","category":"other"}]},{"lat":"37.519815482","long":"126.78221169","imageIndex":17,"items":[{"name":"대신공구","tel":"032-675-7414","addr":"경기도 부천시 내동 216-4번지","indutype":"기타 - 기계공구","category":"other"},{"name":"최강테크툴","tel":"032-678-8809","addr":"경기도 부천시 내동 216-4번지 1층","indutype":"기타 - 기계공구","category":"other"},{"name":"한일종합상사","tel":"032-683-5425","addr":"경기도 부천시 내동 216-4번지 1층","indutype":"의류 - 기타의류","category":"other"}]},{"lat":"37.525983755","long":"126.78034955","imageIndex":17,"items":[{"name":"대원공구","tel":"032-682-3884","addr":"경기도 부천시 내동 212-28번지 뉴테크노타운 203호","indutype":"기타 - 기계공구","category":"other"},{"name":"두성산업/원격지","tel":"032-677-2634","addr":"경기도 부천시 내동 212-28번지 5층 502호 뉴테크노타운","indutype":"기타 - 기타 전문점","category":"other"},{"name":"디와이(DY)케미칼","tel":"032-675-4607","addr":"경기도 부천시 내동 212-28번지 뉴테크노타운 103호","indutype":"건축자재 - 페인트","category":"other"}]},{"lat":"37.518699339","long":"126.78279186","imageIndex":17,"items":[{"name":"대원과학산업","tel":"032-654-2327","addr":"경기도 부천시 내동 162-4번지 대원과학","indutype":"회원제형태 - 기타4","category":"other"}]},{"lat":"37.517035585","long":"126.77962957","imageIndex":17,"items":[{"name":"대일상사","tel":"032-679-0535","addr":"경기도 부천시 내동 151번지","indutype":"유통업 영리 - 기타유통업","category":"other"},{"name":"동현전열","tel":"032-672-1755","addr":"경기도 부천시 내동 151번지","indutype":"전기제품 - 기타전기제품","category":"other"},{"name":"맥산연마상사","tel":"032-681-1269","addr":"경기도 부천시 내동 151번지 1층 7호","indutype":"기타 - 기타 전문점","category":"other"},{"name":"지엠테크","tel":"032-678-2783","addr":"경기도 부천시 내동 151번지 2호","indutype":"전기제품 - 기타전기제품","category":"other"},{"name":"태경전열","tel":"032-672-1755","addr":"경기도 부천시 내동 151번지 1층 2호","indutype":"전기제품 - 기타전기제품","category":"other"},{"name":"현대화공약품상사","tel":"032-673-7355","addr":"경기도 부천시 내동 151번지1층3","indutype":"기타 - 기타 전문점","category":"other"}]},{"lat":"37.516591529","long":"126.77827354","imageIndex":17,"items":[{"name":"대일정밀","tel":"032-678-6943","addr":"경기도 부천시 내동 104-1번지 2층","indutype":"기타 - 기계공구","category":"other"}]},{"lat":"37.518148345","long":"126.78204692","imageIndex":17,"items":[{"name":"대주정밀","tel":"032-681-5780","addr":"경기도 부천시 내동 202번지","indutype":"기타 - 기계공구","category":"other"},{"name":"동아평면연마","tel":"070-7337-1072","addr":"경기도 부천시 내동 202번지","indutype":"용역 서비스 - 기타용역서비스","category":"other"}]},{"lat":"37.519369989","long":"126.78490518","imageIndex":17,"items":[{"name":"대하기업","tel":"032-681-7679","addr":"경기도 부천시 내동 314번지 대창스페이스빌","indutype":"용역 서비스 - 종합용역","category":"other"},{"name":"부원","tel":"032-678-9993","addr":"경기도 부천시 내동 314번지 대창스페이스빌","indutype":"기타 - 기계공구","category":"other"},{"name":"호도천막앵글","tel":"032-673-8200","addr":"경기도 부천시 내동 314번지 대창스페이스빌","indutype":"직물 - 카페트,커튼,천막,지물","category":"other"}]},{"lat":"37.520399948","long":"126.77682552","imageIndex":17,"items":[{"name":"대현정보통신","tel":"032-682-3011","addr":"경기도 부천시 내동 81번지","indutype":"사무통신 - 통신기기","category":"other"},{"name":"비즈넷아이","tel":"032-673-0700","addr":"경기도 부천시 내동 81번지 태희빌딩 상가동 1층","indutype":"사무통신 - 기타 사무용품","category":"other"},{"name":"서일상사","tel":"032-677-4244","addr":"경기도 부천시 내동 81번지","indutype":"기타 - 기타 전문점","category":"other"},{"name":"정진공인중개사행정사사무소","tel":"032-676-1917","addr":"경기도 부천시 내동 81번지 1층","indutype":"용역 서비스 - 법률회계서비스(개인)","category":"other"}]},{"lat":"37.515759278","long":"126.77652281","imageIndex":17,"items":[{"name":"대호철망","tel":"032-678-6018","addr":"경기도 부천시 내동 96-2번지 태양공구상가","indutype":"기타 - 기계공구","category":"other"},{"name":"바우전자","tel":"032-679-1249","addr":"경기도 부천시 내동 96-2번지","indutype":"기타 - 기계공구","category":"other"},{"name":"성광기업","tel":"032-674-1900","addr":"경기도 부천시 내동 96-2번지","indutype":"기타 - 기계공구","category":"other"},{"name":"우진풍력","tel":"032-679-9936","addr":"경기도 부천시 내동 96-2번지","indutype":"전기제품 - 기타전기제품","category":"other"},{"name":"정진공구상사","tel":"032-678-5944","addr":"경기도 부천시 내동 96-2번지","indutype":"기타 - 기계공구","category":"other"},{"name":"코리아몰드텍","tel":"032-678-1157","addr":"경기도 부천시 내동 96-2번지","indutype":"기타 - 기계공구","category":"other"},{"name":"혁진인쇄기획","tel":"032-674-1179","addr":"경기도 부천시 내동 96-2번지 3층","indutype":"서적문구 - 출판 및 인쇄물","category":"other"}]},{"lat":"37.520869858","long":"126.78720845","imageIndex":17,"items":[{"name":"더존건설","tel":"032-665-3660","addr":"경기도 부천시 내동 329-4번지 1호","indutype":"건축자재 - 인테리어전문","category":"other"}]},{"lat":"37.517226477","long":"126.7805226","imageIndex":17,"items":[{"name":"도경LED","tel":"032-684-7747","addr":"경기도 부천시 내동 200번지 성림빌딩 3층","indutype":"전기제품 - 기타전기제품","category":"other"},{"name":"유성안료","tel":"032-676-8907","addr":"경기도 부천시 내동 200번지","indutype":"건축자재 - 페인트","category":"other"},{"name":"이에프에이","tel":"032-676-6226","addr":"경기도 부천시 내동 200번지 성림빌딩 1층","indutype":"기타 - 기계공구","category":"other"},{"name":"정진ENG","tel":"032-677-7008","addr":"경기도 부천시 내동 200번지","indutype":"기타 - 기타 전문점","category":"other"},{"name":"한신콤푸레셔","tel":"032-681-8942","addr":"경기도 부천시 내동 200번지 성림빌딩 1층 1호","indutype":"기타 - 기계공구","category":"other"},{"name":"현대철망","tel":"032-671-7795","addr":"경기도 부천시 내동 200번지","indutype":"기타 - 기계공구","category":"other"}]},{"lat":"37.521732606","long":"126.78115402","imageIndex":17,"items":[{"name":"도어 스토리","tel":"032-217-1006","addr":"경기도 부천시 내동 229-2번지 2층","indutype":"건축자재 - 기타건축자재","category":"other"}]},{"lat":"37.520287612","long":"126.78415593","imageIndex":17,"items":[{"name":"동방전열","tel":"032-682-0898","addr":"경기도 부천시 내동 274-2, 3호","indutype":"전기제품 - 냉열기기","category":"other"},{"name":"한신콤프레샤","tel":"031-000-0000","addr":"경기도 부천시 내동 274-2번지 106,107호","indutype":"기타 - 기계공구","category":"other"},{"name":"한신콤프레샤","tel":"032-672-9457","addr":"경기도 부천시 내동 274-2번지 1층 105호, 107호","indutype":"기타 - 기계공구","category":"other"}]},{"lat":"37.526783409","long":"126.77446451","imageIndex":17,"items":[{"name":"동아금형열처리","tel":"032-676-1071","addr":"경기도 부천시 내동 222-94번지","indutype":"기타 - 기계공구","category":"other"}]},{"lat":"37.522394249","long":"126.77845977","imageIndex":17,"items":[{"name":"동아시스템","tel":"032-678-3061","addr":"경기도 부천시 내동 128번지","indutype":"주방용구 - 기타주방용구","category":"other"}]},{"lat":"37.521093075","long":"126.78609924","imageIndex":17,"items":[{"name":"동아인테리어","tel":"032-866-9992","addr":"경기도 부천시 내동 332-2번지 101호","indutype":"건축자재 - 인테리어전문","category":"other"}]},{"lat":"37.521149149","long":"126.78232088","imageIndex":17,"items":[{"name":"동아테크","tel":"032-672-5850","addr":"경기도 부천시 내동 253-4번지","indutype":"기타 - 기계공구","category":"other"}]},{"lat":"37.521921554","long":"126.79082529","imageIndex":17,"items":[{"name":"동원해양산업","tel":"032-671-7464","addr":"경기도 부천시 내동 371번지","indutype":"기타 - 기계공구","category":"other"},{"name":"창성물산","tel":"032-678-1945","addr":"경기도 부천시 내동 371번지 1층","indutype":"기타 - 기타 전문점","category":"other"}]},{"lat":"37.518507927","long":"126.77685385","imageIndex":17,"items":[{"name":"동은산업(주)","tel":"032-672-3394","addr":"경기도 부천시 내동 87번지","indutype":"기타 - 기계공구","category":"other"}]},{"lat":"37.51651284","long":"126.77482384","imageIndex":17,"items":[{"name":"동진정공","tel":"","addr":"경기도 부천시 내동 54-2번지 2동 1층","indutype":"기타 - 기계공구","category":"other"},{"name":"신성파이프상사","tel":"032-682-0220","addr":"경기도 부천시 내동 54-2번지","indutype":"건축자재 - 기타건축자재","category":"other"},{"name":"유림철강","tel":"032-684-0502","addr":"경기도 부천시 내동 54-2번지","indutype":"건축자재 - 기타건축자재","category":"other"}]},{"lat":"37.517344179","long":"126.78082766","imageIndex":17,"items":[{"name":"두남산업(주)","tel":"032-683-8140","addr":"경기도 부천시 내동 200-1번지 동양전자 4층","indutype":"전기제품 - 냉열기기","category":"other"}]},{"lat":"37.520731516","long":"126.78062532","imageIndex":17,"items":[{"name":"두리과학","tel":"032-681-7657","addr":"경기도 부천시 내동 175-3번지","indutype":"서적문구 - 과학기자재","category":"other"}]},{"lat":"37.518064179","long":"126.780407","imageIndex":17,"items":[{"name":"두삼정공철강","tel":"032-674-0860","addr":"경기도 부천시 내동 197번지","indutype":"건축자재 - 기타건축자재","category":"other"}]},{"lat":"37.518484283","long":"126.77862984","imageIndex":17,"items":[{"name":"디와이에스엠(주)","tel":"032-682-0322","addr":"경기도 부천시 내동 138-3번지 102호","indutype":"건축자재 - 기타건축자재","category":"other"}]},{"lat":"37.515701955","long":"126.77482631","imageIndex":17,"items":[{"name":"럭키그린골프샵","tel":"032-677-9007","addr":"경기도 부천시 내동 55-1번지 럭키빌딩 2층","indutype":"레져용품 - 골프용품 전문점","category":"other"}]},{"lat":"37.518032674","long":"126.78282776","imageIndex":17,"items":[{"name":"메트로종합공사","tel":"","addr":"경기도 부천시 내동 202-4번지 1층 104호","indutype":"용역 서비스 - 기타용역서비스","category":"other"},{"name":"충남철물공구건재","tel":"032-674-8669","addr":"경기도 부천시 내동 202-4번지","indutype":"기타 - 기계공구","category":"other"},{"name":"한경세무회계사무소","tel":"032-684-0590","addr":"경기도 부천시 내동 202-4번지 5층","indutype":"용역 서비스 - 법률회계서비스(개인)","category":"other"}]},{"lat":"37.521649901","long":"126.78029455","imageIndex":17,"items":[{"name":"명성정밀","tel":"032-683-9098","addr":"경기도 부천시 내동 187-5번지","indutype":"건축자재 - 기타건축자재","category":"other"}]},{"lat":"37.51698206","long":"126.77991252","imageIndex":17,"items":[{"name":"모던금속","tel":"032-679-5695","addr":"경기도 부천시 내동 152-1번지 하나빌딩 107호","indutype":"기타 - 기타 전문점","category":"other"},{"name":"선명기획인쇄","tel":"032-675-5717","addr":"경기도 부천시 내동 152-1번지 하나빌딩 103호","indutype":"용역 서비스 - 종합용역","category":"other"}]},{"lat":"37.519813876","long":"126.77660105","imageIndex":17,"items":[{"name":"문화목재상사","tel":"032-674-4354","addr":"경기도 부천시 내동 82-4번지","indutype":"건축자재 - 목재·석재·철물","category":"other"}]},{"lat":"37.528448032","long":"126.77332812","imageIndex":17,"items":[{"name":"미광모터스","tel":"070-4150-5894","addr":"경기도 부천시 내동 222-143번지 3층","indutype":"용역 서비스 - 기타용역서비스","category":"other"}]},{"lat":"37.519922514","long":"126.77221175","imageIndex":17,"items":[{"name":"미래정보통신","tel":"032-425-7474","addr":"경기도 부천시 내동 9-24번지","indutype":"용역 서비스 - 기타용역서비스","category":"other"},{"name":"인지컴퓨터","tel":"032-682-7070","addr":"경기도 부천시 내동 9-24번지 1층","indutype":"사무통신 - 컴퓨터","category":"other"}]},{"lat":"37.526954158","long":"126.77423773","imageIndex":17,"items":[{"name":"미래테크","tel":"032-676-6631","addr":"경기도 부천시 내동 222-92번지","indutype":"서적문구 - 과학기자재","category":"other"}]},{"lat":"37.519928703","long":"126.78496012","imageIndex":17,"items":[{"name":"미조종합상사","tel":"032-674-9218","addr":"경기도 부천시 내동 312번지","indutype":"용역 서비스 - 기타용역서비스","category":"other"},{"name":"프레스월드","tel":"032-675-5786","addr":"경기도 부천시 내동 312번지","indutype":"기타 - 기계공구","category":"other"}]},{"lat":"37.518173393","long":"126.77624404","imageIndex":17,"items":[{"name":"미진기업","tel":"032-671-8944","addr":"경기도 부천시 내동 88번지 1층","indutype":"기타 - 기계공구","category":"other"},{"name":"미진산업","tel":"032-671-8944","addr":"경기도 부천시 내동 88번지","indutype":"기타 - 기계공구","category":"other"}]},{"lat":"37.520366499","long":"126.77818304","imageIndex":17,"items":[{"name":"미진포장상사","tel":"032-672-5701","addr":"경기도 부천시 내동 117-2번지 A동 1층","indutype":"유통업 영리 - 기타유통업","category":"other"}]},{"lat":"37.521234253","long":"126.77966231","imageIndex":17,"items":[{"name":"바오디자인","tel":"032-673-5103","addr":"경기도 부천시 내동 161-7 2층일부","indutype":"서적문구 - 출판 및 인쇄물","category":"other"}]},{"lat":"37.518172935","long":"126.78074603","imageIndex":17,"items":[{"name":"반도산업/원격지","tel":"032-671-1691","addr":"경기도 부천시 내동 196번지 다우테크노타운 101호","indutype":"기타 - 기타 전문점","category":"other"}]},{"lat":"37.52081546","long":"126.77737855","imageIndex":17,"items":[{"name":"보광퓨터","tel":"032-677-6191","addr":"경기도 부천시 내동 118번지","indutype":"문화.취미 - 민예·공예품","category":"other"}]},{"lat":"37.52069929","long":"126.78266156","imageIndex":17,"items":[{"name":"부강라바텍/원격지","tel":"032-682-3920","addr":"경기도 부천시 내동 257-2번지","indutype":"기타 - 기타 전문점","category":"other"}]},{"lat":"37.518428284","long":"126.78238544","imageIndex":17,"items":[{"name":"부강정공","tel":"032-672-7809","addr":"경기도 부천시 내동 320-8번지 1층","indutype":"기타 - 기계공구","category":"other"}]},{"lat":"37.521703771","long":"126.78996619","imageIndex":17,"items":[{"name":"부부마트","tel":"032-673-0944","addr":"경기도 부천시 내동 373번지 장미빌라 상가 103호","indutype":"기타 - 기타 전문점","category":"other"}]},{"lat":"37.519866655","long":"126.7759335","imageIndex":17,"items":[{"name":"부성산업","tel":"032-677-0052","addr":"경기도 부천시 내동 68-1번지","indutype":"건축자재 - 페인트","category":"other"},{"name":"수진종합상사","tel":"032-673-2770","addr":"경기도 부천시 내동 68-1번지","indutype":"건축자재 - 목재·석재·철물","category":"other"}]},{"lat":"37.520448866","long":"126.78365774","imageIndex":17,"items":[{"name":"부일볼트","tel":"032-654-7757","addr":"경기도 부천시 내동 274번지 1층","indutype":"기타 - 기계공구","category":"other"},{"name":"서울에프앤씨","tel":"032-684-5885","addr":"경기도 부천시 내동 274번지","indutype":"기타 - 기타 전문점","category":"other"},{"name":"원모터전기","tel":"032-675-3725","addr":"경기도 부천시 내동 274번지 1층","indutype":"수리서비스 - 기타수리서비스","category":"other"},{"name":"종남락크","tel":"032-683-2934","addr":"경기도 부천시 내동 274번지","indutype":"기타 - 기타 전문점","category":"other"}]},{"lat":"37.520729531","long":"126.77957332","imageIndex":17,"items":[{"name":"부일철강","tel":"032-676-0062","addr":"경기도 부천시 내동 161-3번지","indutype":"건축자재 - 기타건축자재","category":"other"}]},{"lat":"37.52164997","long":"126.77560005","imageIndex":17,"items":[{"name":"부천계량증명업소 (부천기획)","tel":"032-672-6723","addr":"경기도 부천시 내동 72-3번지 1층","indutype":"용역 서비스 - 사무서비스","category":"other"}]},{"lat":"37.522531573","long":"126.78935298","imageIndex":17,"items":[{"name":"부천장례서비스","tel":"070-4767-4446","addr":"경기도 부천시 내동 363-1번지 창조빌라 402호","indutype":"용역 서비스 - 가례서비스업","category":"other"}]},{"lat":"37.525532856","long":"126.77540727","imageIndex":17,"items":[{"name":"브라인드맥한","tel":"032-666-4066","addr":"경기도 부천시 내동 222-38번지 2층","indutype":"직물 - 카페트,커튼,천막,지물","category":"other"}]},{"lat":"37.518622493","long":"126.77551874","imageIndex":17,"items":[{"name":"비에스조명","tel":"032-671-0578","addr":"경기도 부천시 내동 66-2번지 1층","indutype":"건축자재 - 조명기구","category":"other"}]},{"lat":"37.521343059","long":"126.78485419","imageIndex":17,"items":[{"name":"비전과학바이오메디칼","tel":"032-672-7779","addr":"경기도 부천시 내동 300-3번지 2층","indutype":"서적문구 - 과학기자재","category":"other"}]},{"lat":"37.521339452","long":"126.78290854","imageIndex":17,"items":[{"name":"삼미판넬","tel":"032-672-4256","addr":"경기도 부천시 내동 254-4번지","indutype":"건축자재 - 기타건축자재","category":"other"}]},{"lat":"37.520396744","long":"126.77987973","imageIndex":17,"items":[{"name":"삼부천막공업","tel":"032-674-3938","addr":"경기도 부천시 내동 160번지 1층","indutype":"직물 - 카페트,커튼,천막,지물","category":"other"},{"name":"현대호이스트","tel":"032-683-0506","addr":"경기도 부천시 내동 160번지","indutype":"기타 - 기계공구","category":"other"}]},{"lat":"37.520285702","long":"126.78312656","imageIndex":17,"items":[{"name":"삼성천막공사","tel":"032-681-8044","addr":"경기도 부천시 내동 261-1번지","indutype":"직물 - 카페트,커튼,천막,지물","category":"other"},{"name":"에스디자인","tel":"032-677-0825","addr":"경기도 부천시 내동 261-1번지","indutype":"건축자재 - 인테리어전문","category":"other"}]},{"lat":"37.521845915","long":"126.78393645","imageIndex":17,"items":[{"name":"삼손플랜트","tel":"032-676-3255","addr":"경기도 부천시 내동 281-3번지","indutype":"수리서비스 - 기타수리서비스","category":"other"},{"name":"주식회사 삼손플랜트","tel":"032-676-3255","addr":"경기도 부천시 내동 281-3번지","indutype":"기타 - 기계공구","category":"other"}]},{"lat":"37.520448856","long":"126.7788502","imageIndex":17,"items":[{"name":"삼형공업사","tel":"032-683-3700","addr":"경기도 부천시 내동 134-1번지","indutype":"기타 - 기타 전문점","category":"other"}]},{"lat":"37.519810165","long":"126.77938376","imageIndex":17,"items":[{"name":"새샘연쇄점","tel":"032-676-7260","addr":"경기도 부천시 내동 135-4번지","indutype":"유통업 영리 - 연 쇄 점","category":"other"}]},{"lat":"37.523343236","long":"126.78001802","imageIndex":17,"items":[{"name":"새솔기획","tel":"032-677-5035","addr":"경기도 부천시 내동 169-8번지 2층","indutype":"서적문구 - 출판 및 인쇄물","category":"other"}]},{"lat":"37.51825574","long":"126.77223951","imageIndex":17,"items":[{"name":"서광기업","tel":"032-673-2226","addr":"경기도 부천시 내동 31번지","indutype":"전기제품 - 기타전기제품","category":"other"}]},{"lat":"37.525094046","long":"126.77680005","imageIndex":17,"items":[{"name":"서울샤링","tel":"032-673-0330","addr":"경기도 부천시 내동 222-68","indutype":"기타 - 기계공구","category":"other"}]},{"lat":"37.519233817","long":"126.78435131","imageIndex":17,"items":[{"name":"서원상사","tel":"032-677-1966","addr":"경기도 부천시 내동 271-2번지","indutype":"건축자재 - 페인트","category":"other"}]},{"lat":"37.519008362","long":"126.78423885","imageIndex":17,"items":[{"name":"서진종합비철","tel":"032-679-0870","addr":"경기도 부천시 내동 270-3번지","indutype":"기타 - 기계공구","category":"other"}]},{"lat":"37.519010318","long":"126.78046075","imageIndex":17,"items":[{"name":"선명디앤피","tel":"032-675-5718","addr":"경기도 부천시 내동 194번지 2층 전관","indutype":"서적문구 - 출판 및 인쇄물","category":"other"}]},{"lat":"37.521757613","long":"126.7800793","imageIndex":17,"items":[{"name":"성동레이저","tel":"032-672-8551","addr":"경기도 부천시 내동 167-2번지 1층","indutype":"기타 - 기계공구","category":"other"}]},{"lat":"37.524920885","long":"126.77577113","imageIndex":17,"items":[{"name":"성우하이테크","tel":"032-677-2633","addr":"경기도 부천시 내동 222-30번지 1층 일부","indutype":"기타 - 기계공구","category":"other"},{"name":"성진기기","tel":"032-677-2633","addr":"경기도 부천시 내동 222-30번지 1층","indutype":"기타 - 기계공구","category":"other"},{"name":"주식회사SECO","tel":"032-681-8586","addr":"경기도 부천시 내동 222-30.56","indutype":"기타의료기관 - 기타의료기관 및 기타","category":"other"}]},{"lat":"37.521318154","long":"126.78115524","imageIndex":17,"items":[{"name":"성진전기","tel":"032-677-9806","addr":"경기도 부천시 내동 182-3번지","indutype":"전기제품 - 기타전기제품","category":"other"}]},{"lat":"37.522615238","long":"126.78582334","imageIndex":17,"items":[{"name":"성진전기","tel":"032-678-9806","addr":"경기도 부천시 내동 293번지 현진그린빌 101호","indutype":"기타 - 기계공구","category":"other"}]},{"lat":"37.51981366","long":"126.78123888","imageIndex":17,"items":[{"name":"성호상사","tel":"032-682-7447","addr":"경기도 부천시 내동 218번지 우진빌딩","indutype":"유통업 영리 - 기타유통업","category":"other"},{"name":"흥진포장","tel":"032-675-1162","addr":"경기도 부천시 내동 218번지 우진빌딩 1층","indutype":"신변잡화 - 기타잡화","category":"other"}]},{"lat":"37.517560925","long":"126.78109849","imageIndex":17,"items":[{"name":"세광OA","tel":"031-675-3320","addr":"경기도 부천시 내동 201-5번지 2층","indutype":"사무통신 - 사무용 OA기기","category":"other"}]},{"lat":"37.52070007","long":"126.7830801","imageIndex":17,"items":[{"name":"세광덱시아","tel":"032-682-3422","addr":"경기도 부천시 내동 259번지 3층","indutype":"건축자재 - 조명기구","category":"other"}]},{"lat":"37.52237122","long":"126.78057521","imageIndex":17,"items":[{"name":"세동테크","tel":"032-684-4272","addr":"경기도 부천시 내동 172번지","indutype":"기타 - 기계공구","category":"other"}]},{"lat":"37.518671295","long":"126.77280381","imageIndex":17,"items":[{"name":"세븐일레븐부천내동점","tel":"031-1577-0711","addr":"경기도 부천시 내동 22-4번지 외 1필지 함태스위트빌상가 1층 101,102호","indutype":"유통업 영리 - 편 의 점","category":"other"},{"name":"토탈LED","tel":"032-279-8031","addr":"경기도 부천시 내동 22-4번지 함태스위트빌 상가동 1층 101,102호","indutype":"건축자재 - 조명기구","category":"other"}]},{"lat":"37.517373924","long":"126.77283041","imageIndex":17,"items":[{"name":"순금당","tel":"032-679-9748","addr":"경기도 부천시 내동 32-8번지","indutype":"신변잡화 - 시계","category":"other"}]},{"lat":"37.51734256","long":"126.779968","imageIndex":17,"items":[{"name":"스킨브리스(skinbliss)","tel":"02-1566-4605","addr":"경기도 부천시 내동 151-1번지 4층","indutype":"주방용구 - 주방용구","category":"other"},{"name":"현대기전","tel":"032-684-5293","addr":"경기도 부천시 내동 151-1번지","indutype":"기타 - 기계공구","category":"other"}]},{"lat":"37.518698963","long":"126.77313176","imageIndex":17,"items":[{"name":"승대엔지니어링","tel":"032-679-6594","addr":"경기도 부천시 내동 24-8번지","indutype":"건축자재 - 보일러·펌프·샷시","category":"other"}]},{"lat":"37.519643155","long":"126.78646541","imageIndex":17,"items":[{"name":"승리특수강","tel":"032-681-3979","addr":"경기도 부천시 내동 317-1번지 1층","indutype":"건축자재 - 기타건축자재","category":"other"}]},{"lat":"37.519284725","long":"126.7826544","imageIndex":17,"items":[{"name":"승진사","tel":"032-672-8690","addr":"경기도 부천시 내동 163-3번지","indutype":"건축자재 - 보일러·펌프·샷시","category":"other"}]},{"lat":"37.521814437","long":"126.7815497","imageIndex":17,"items":[{"name":"승진특수강정공","tel":"032-682-8771","addr":"경기도 부천시 내동 230번지 1층","indutype":"기타 - 기계공구","category":"other"}]},{"lat":"37.52048356","long":"126.78293368","imageIndex":17,"items":[{"name":"신성실업","tel":"032-000-0000","addr":"경기도 부천시 내동 260-3번지 3동","indutype":"직물 - 침구·수예점","category":"other"}]},{"lat":"37.521955082","long":"126.77968279","imageIndex":17,"items":[{"name":"신원콤프레샤","tel":"032-675-8925","addr":"경기도 부천시 내동 167번지","indutype":"기타 - 기계공구","category":"other"}]},{"lat":"37.517258838","long":"126.77857695","imageIndex":17,"items":[{"name":"신진스틸","tel":"032-678-0663","addr":"경기도 부천시 내동 146-3번지 1층","indutype":"건축자재 - 기타건축자재","category":"other"}]},{"lat":"37.522949058","long":"126.77646715","imageIndex":17,"items":[{"name":"신한장식","tel":"032-671-4186","addr":"경기도 부천시 내동 73번지","indutype":"가구 - 일반가구","category":"other"}]},{"lat":"37.515979004","long":"126.77366041","imageIndex":17,"items":[{"name":"신화전기","tel":"032-672-9114","addr":"경기도 부천시 내동 57-12번지","indutype":"전기제품 - 기타전기제품","category":"other"},{"name":"창조전기","tel":"070-4632-1103","addr":"경기도 부천시 내동 57-12","indutype":"전기제품 - 기타전기제품","category":"other"}]},{"lat":"37.519844135","long":"126.77360334","imageIndex":17,"items":[{"name":"신흥동주민자치위원회","tel":"032-625-7734","addr":"경기도 부천시 내동 10-2번지","indutype":"문화.취미 - 문화취미기타","category":"other"}]},{"lat":"37.521732854","long":"126.79110863","imageIndex":17,"items":[{"name":"씨유내동대보점","tel":"032-662-3088","addr":"경기도 부천시 내동 377-5번지 대보아트빌 3동 1층 102호","indutype":"유통업 영리 - 편 의 점","category":"other"}]},{"lat":"37.520398039","long":"126.77583008","imageIndex":17,"items":[{"name":"아람수지상사","tel":"032-676-1426","addr":"경기도 부천시 내동 69-1번지 1층","indutype":"기타 - 기타 전문점","category":"other"}]},{"lat":"37.523038372","long":"126.78079947","imageIndex":17,"items":[{"name":"아로마뜨","tel":"032-684-6944","addr":"경기도 부천시 내동 170-8번지 2층","indutype":"신변잡화 - 기타잡화","category":"other"}]},{"lat":"37.520707392","long":"126.78705055","imageIndex":17,"items":[{"name":"아이센스PC","tel":"","addr":"경기도 부천시 내동 329-5번지 2층 1호","indutype":"수리서비스 - 사무·통신기기수리","category":"other"}]},{"lat":"37.52322915","long":"126.78163602","imageIndex":17,"items":[{"name":"아진기계","tel":"032-683-0090","addr":"경기도 부천시 내동 237번지","indutype":"기타 - 기계공구","category":"other"},{"name":"우진라이프","tel":"032-681-8828","addr":"경기도 부천시 내동 237번지","indutype":"전기제품 - 기타전기제품","category":"other"}]},{"lat":"37.525455283","long":"126.77724015","imageIndex":17,"items":[{"name":"아크릴집","tel":"032-682-3339","addr":"경기도 부천시 내동 222-138번지","indutype":"건축자재 - 기타건축자재","category":"other"},{"name":"에이텍/원격지","tel":"032-675-1774","addr":"경기도 부천시 내동 222-138번지","indutype":"기타 - 기타 전문점","category":"other"}]},{"lat":"37.517149756","long":"126.77338536","imageIndex":17,"items":[{"name":"애니써킷트레이딩","tel":"032-678-2954","addr":"경기도 부천시 내동 33-27번지","indutype":"전기제품 - 기타전기제품","category":"other"}]},{"lat":"37.519699449","long":"126.77801537","imageIndex":17,"items":[{"name":"애드랑","tel":"070-4360-8137","addr":"경기도 부천시 내동 116번지 2,4층","indutype":"서적문구 - 출판 및 인쇄물","category":"other"},{"name":"이마트24 부천내동본점","tel":"","addr":"경기도 부천시 내동 116번지 1동 1층 일부","indutype":"유통업 영리 - 편 의 점","category":"other"},{"name":"철물백화점","tel":"031-672-7486","addr":"경기도 부천시 내동 116번지 1층 일부","indutype":"건축자재 - 목재·석재·철물","category":"other"}]},{"lat":"37.517896318","long":"126.77740996","imageIndex":17,"items":[{"name":"에스디에스(SDS)","tel":"070-4866-0801","addr":"경기도 부천시 내동 110-3번지","indutype":"기타 - 기계공구","category":"other"}]},{"lat":"37.51903579","long":"126.77963493","imageIndex":17,"items":[{"name":"에스엠 시험기","tel":"032-683-7808","addr":"경기도 부천시 내동 156-3 가-4","indutype":"서적문구 - 과학기자재","category":"other"}]},{"lat":"37.521588615","long":"126.7860978","imageIndex":17,"items":[{"name":"에스엠테크","tel":"032-677-8872","addr":"경기도 부천시 내동 337번지 지층","indutype":"전기제품 - 기타전기제품","category":"other"}]},{"lat":"37.519061813","long":"126.7791032","imageIndex":17,"items":[{"name":"에이스코스팩","tel":"032-675-0770","addr":"경기도 부천시 내동 137-2번지","indutype":"신변잡화 - 기타잡화","category":"other"}]},{"lat":"37.521341429","long":"126.77916426","imageIndex":17,"items":[{"name":"에이스테크","tel":"032-676-5105","addr":"경기도 부천시 내동 132-3번지 1층","indutype":"기타 - 기계공구","category":"other"}]},{"lat":"37.520285301","long":"126.78291164","imageIndex":17,"items":[{"name":"에이치에스 (HS)아크릴","tel":"032-684-0234","addr":"경기도 부천시 내동 260-1번지 1층","indutype":"건축자재 - 기타건축자재","category":"other"}]},{"lat":"37.517068184","long":"126.77313676","imageIndex":17,"items":[{"name":"엘제이","tel":"","addr":"경기도 부천시 내동 33-28번지","indutype":"신변잡화 - 기타잡화","category":"other"}]},{"lat":"37.522279134","long":"126.78926321","imageIndex":17,"items":[{"name":"연진아이넷","tel":"031-111-1111","addr":"경기도 부천시 내동 358-4번지 동성연립 4동 102호","indutype":"사무통신 - 컴퓨터","category":"other"}]},{"lat":"37.521650557","long":"126.77590547","imageIndex":17,"items":[{"name":"연창테크","tel":"032-673-9067","addr":"경기도 부천시 내동 72-4","indutype":"기타 - 기계공구","category":"other"}]},{"lat":"37.519228227","long":"126.77194241","imageIndex":17,"items":[{"name":"열린문세계선교회","tel":"032-672-3674","addr":"경기도 부천시 내동 19-12번지 지층","indutype":"기타 - 비영리/대상","category":"other"}]},{"lat":"37.525397665","long":"126.77538505","imageIndex":17,"items":[{"name":"예름사","tel":"032-684-3743","addr":"경기도 부천시 내동 222-72번지 3층","indutype":"기타 - 기타 전문점","category":"other"}]},{"lat":"37.525114721","long":"126.77819143","imageIndex":17,"items":[{"name":"오복상사","tel":"032-671-5858","addr":"경기도 부천시 내동 223-1번지 1층","indutype":"신변잡화 - 액세서리","category":"other"}]},{"lat":"37.527035049","long":"126.77413567","imageIndex":17,"items":[{"name":"오토맥스","tel":"032-675-3937","addr":"경기도 부천시 내동 222-91번지 1층","indutype":"전기제품 - 기타전기제품","category":"other"}]},{"lat":"37.522198988","long":"126.78002143","imageIndex":17,"items":[{"name":"와이에스브이엠/원격지","tel":"032-819-0398","addr":"경기도 부천시 내동 168-1번지 3층","indutype":"기타 - 기타 전문점","category":"other"}]},{"lat":"37.518755655","long":"126.77448898","imageIndex":17,"items":[{"name":"와이케이스포츠 주식회사","tel":"032-678-8003","addr":"경기도 부천시 내동 16-2번지","indutype":"레져용품 - 스포츠·레져용품","category":"other"}]},{"lat":"37.519538503","long":"126.77396625","imageIndex":17,"items":[{"name":"용성기획","tel":"032-674-6178","addr":"경기도 부천시 내동 11-4번지","indutype":"용역 서비스 - 종합용역","category":"other"}]},{"lat":"37.522035725","long":"126.78918472","imageIndex":17,"items":[{"name":"우리누수","tel":"032-245-3311","addr":"경기도 부천시 내동 358-1번지 공원빌라 301호","indutype":"수리서비스 - 기타수리서비스","category":"other"}]},{"lat":"37.519199122","long":"126.77551699","imageIndex":17,"items":[{"name":"우림상사","tel":"032-679-4832","addr":"경기도 부천시 내동 66번지","indutype":"신변잡화 - 기타잡화","category":"other"}]},{"lat":"37.522840546","long":"126.78585663","imageIndex":17,"items":[{"name":"우성냉열","tel":"032-614-6666","addr":"경기도 부천시 내동 289-11번지 성진그린타운 12동 102호","indutype":"전기제품 - 냉열기기","category":"other"}]},{"lat":"37.519539422","long":"126.77444134","imageIndex":17,"items":[{"name":"우영양복점","tel":"032-673-3550","addr":"경기도 부천시 내동 12-12번지","indutype":"의류 - 맞춤복점","category":"other"}]},{"lat":"37.522647329","long":"126.78368524","imageIndex":17,"items":[{"name":"우일밴딩","tel":"032-674-4392","addr":"경기도 부천시 내동 285-2번지","indutype":"기타 - 기계공구","category":"other"}]},{"lat":"37.520983493","long":"126.78046621","imageIndex":17,"items":[{"name":"우진컴택","tel":"032-675-5111","addr":"경기도 부천시 내동 175","indutype":"기타 - 기계공구","category":"other"}]},{"lat":"37.517893716","long":"126.7807921","imageIndex":17,"items":[{"name":"월드포장","tel":"032-547-2165","addr":"경기도 부천시 내동 197-2번지","indutype":"신변잡화 - 기타잡화","category":"other"}]},{"lat":"37.519844683","long":"126.77388614","imageIndex":17,"items":[{"name":"월성인쇄","tel":"032-672-5373","addr":"경기도 부천시 내동 10-1번지 영백주택","indutype":"서적문구 - 문구용품","category":"other"}]},{"lat":"37.523567798","long":"126.77965536","imageIndex":17,"items":[{"name":"위드팩코리아","tel":"","addr":"경기도 부천시 내동 169번지 2층","indutype":"유통업 영리 - 기타유통업","category":"other"}]},{"lat":"37.521982752","long":"126.78002207","imageIndex":17,"items":[{"name":"유일테크","tel":"031-671-0846","addr":"경기도 부천시 내동 167-9번지","indutype":"기타 - 기타 전문점","category":"other"}]},{"lat":"37.521145311","long":"126.77554502","imageIndex":17,"items":[{"name":"이가종합목재","tel":"032-556-0604","addr":"경기도 부천시 내동 71-1번지","indutype":"건축자재 - 목재·석재·철물","category":"other"}]},{"lat":"37.51822642","long":"126.78044046","imageIndex":17,"items":[{"name":"이룩스","tel":"070-7676-9408","addr":"경기도 부천시 내동 196-1번지 다우빌딩 402호","indutype":"기타 - 기계공구","category":"other"},{"name":"정우교역","tel":"032-683-6434","addr":"경기도 부천시 내동 196-1번지 다우빌딩 503호","indutype":"기타 - 기계공구","category":"other"}]},{"lat":"37.522395793","long":"126.77927424","imageIndex":17,"items":[{"name":"이마트24 부천삼작로점","tel":"","addr":"경기도 부천시 내동 128-1번지","indutype":"유통업 영리 - 편 의 점","category":"other"}]},{"lat":"37.519259343","long":"126.77874064","imageIndex":17,"items":[{"name":"일원산업","tel":"032-672-9110","addr":"경기도 부천시 내동 136-1번지","indutype":"서적문구 - 출판 및 인쇄물","category":"other"}]},{"lat":"37.518509911","long":"126.77321152","imageIndex":17,"items":[{"name":"일해 이엔지","tel":"063-672-2760","addr":"경기도 부천시 내동 25번지 동성연립 107호","indutype":"건축자재 - 기타건축자재","category":"other"}]},{"lat":"37.520809978","long":"126.78896197","imageIndex":17,"items":[{"name":"장성종합알뜰매장","tel":"032-673-6550","addr":"경기도 부천시 내동 354번지 1층","indutype":"전기제품 - 가전제품","category":"other"},{"name":"주방가구샘","tel":"032-671-3220","addr":"경기도 부천시 내동 354번지","indutype":"주방용구 - 주방용구","category":"other"}]},{"lat":"37.52242059","long":"126.78288274","imageIndex":17,"items":[{"name":"장성테크","tel":"032-678-7942","addr":"경기도 부천시 내동 247-1번지 1층","indutype":"기타 - 기계공구","category":"other"}]},{"lat":"37.523003594","long":"126.77671586","imageIndex":17,"items":[{"name":"재림상사","tel":"031-969-5632","addr":"경기도 부천시 내동 73-3번지 코라빌딩 103호","indutype":"기타 - 기타 전문점","category":"other"}]},{"lat":"37.51872787","long":"126.77879878","imageIndex":17,"items":[{"name":"전인기업","tel":"032-672-4877","addr":"경기도 부천시 내동 138-2번지 1층","indutype":"전기제품 - 기타전기제품","category":"other"},{"name":"주식회사디엠애드","tel":"032-684-0555","addr":"경기도 부천시 내동 138-2번지","indutype":"유통업 영리 - 기타유통업","category":"other"}]},{"lat":"37.520257428","long":"126.78245924","imageIndex":17,"items":[{"name":"정민인쇄문구","tel":"032-675-3329","addr":"경기도 부천시 내동 260번지 1층","indutype":"서적문구 - 문구용품","category":"other"}]},{"lat":"37.517367002","long":"126.77390502","imageIndex":17,"items":[{"name":"정음향","tel":"02-3159-8111","addr":"경기도 부천시 내동 28-7번지","indutype":"전기제품 - 가전제품","category":"other"}]},{"lat":"37.515595711","long":"126.77579939","imageIndex":17,"items":[{"name":"정형수세무회계사무소","tel":"032-671-0340","addr":"경기도 부천시 내동 59번지 태양빌딩 3층","indutype":"용역 서비스 - 법률회계서비스(개인)","category":"other"},{"name":"피플 골프","tel":"032-677-6707","addr":"경기도 부천시 내동 59번지 3층 일부","indutype":"레져용품 - 골프용품 전문점","category":"other"},{"name":"피플골프","tel":"032-677-6707","addr":"경기도 부천시 내동 59번지 대웅빌딩 3층","indutype":"레져용품 - 골프용품 전문점","category":"other"}]},{"lat":"37.522781843","long":"126.7785491","imageIndex":17,"items":[{"name":"제우코퍼레이션","tel":"032-664-3125","addr":"경기도 부천시 내동 127번지 제우코퍼레이션","indutype":"건축자재 - 조명기구","category":"other"}]},{"lat":"37.517203045","long":"126.7729893","imageIndex":17,"items":[{"name":"제이비오(JBO)테크","tel":"070-8202-5349","addr":"경기도 부천시 내동 33-3번지","indutype":"사무통신 - 사무용 OA기기","category":"other"}]},{"lat":"37.51984194","long":"126.78190619","imageIndex":17,"items":[{"name":"제일전기","tel":"032-687-4919","addr":"경기도 부천시 내동 216-1번지","indutype":"전기제품 - 기타전기제품","category":"other"}]},{"lat":"37.5169852","long":"126.77682451","imageIndex":17,"items":[{"name":"제일전자","tel":"032-673-8269","addr":"경기도 부천시 내동 94번지 가동 1층 일부","indutype":"전기제품 - 기타전기제품","category":"other"}]},{"lat":"37.520281917","long":"126.78110175","imageIndex":17,"items":[{"name":"조은","tel":"032-678-2384","addr":"경기도 부천시 내동 227-2번지","indutype":"레져용품 - 스포츠·레져용품","category":"other"}]},{"lat":"37.520731185","long":"126.77571596","imageIndex":17,"items":[{"name":"조이엘이디","tel":"032-668-8444","addr":"경기도 부천시 내동 70-2번지 2층","indutype":"건축자재 - 조명기구","category":"other"}]},{"lat":"37.519867737","long":"126.78610278","imageIndex":17,"items":[{"name":"종합기계상사","tel":"032-672-9461","addr":"경기도 부천시 내동 325번지","indutype":"기타 - 기계공구","category":"other"}]},{"lat":"37.519595947","long":"126.7757194","imageIndex":17,"items":[{"name":"주)엠제이크린","tel":"031-675-6015","addr":"경기도 부천시 내동 68-2번지 1층","indutype":"신변잡화 - 기타잡화","category":"other"}]},{"lat":"37.518260813","long":"126.77485246","imageIndex":17,"items":[{"name":"주식회사 대성이앤씨","tel":"032-679-0027","addr":"경기도 부천시 내동 27-8번지 1층","indutype":"용역 서비스 - 기타용역서비스","category":"other"},{"name":"주식회사대성특수강","tel":"032-672-6061","addr":"경기도 부천시 내동 27-8번지","indutype":"건축자재 - 기타건축자재","category":"other"}]},{"lat":"37.520286122","long":"126.7833528","imageIndex":17,"items":[{"name":"주식회사 미강이앤씨","tel":"032-673-3915","addr":"경기도 부천시 내동 261-2번지","indutype":"건축자재 - 기타건축자재","category":"other"}]},{"lat":"37.516511236","long":"126.7786923","imageIndex":17,"items":[{"name":"주식회사 부천에프에이베어링","tel":"032-673-2282","addr":"경기도 부천시 내동 148번지 1층 5호","indutype":"기타 - 기계공구","category":"other"}]},{"lat":"37.523144337","long":"126.77965662","imageIndex":17,"items":[{"name":"주식회사 비윈애드","tel":"032-503-8253","addr":"경기도 부천시 내동 169-9번지 2층","indutype":"서적문구 - 출판 및 인쇄물","category":"other"}]},{"lat":"37.521593745","long":"126.78399375","imageIndex":17,"items":[{"name":"주식회사 아노텍","tel":"032-654-6022","addr":"경기도 부천시 내동 280-5번지 1층","indutype":"기타 - 기계공구","category":"other"}]},{"lat":"37.520453571","long":"126.78135011","imageIndex":17,"items":[{"name":"주식회사 에스에스티","tel":"032-676-3408","addr":"경기도 부천시 내동 227-1번지","indutype":"기타 - 기계공구","category":"other"}]},{"lat":"37.521595377","long":"126.78487608","imageIndex":17,"items":[{"name":"주식회사 예인테크","tel":"","addr":"경기도 부천시 내동 296-6번지 4층","indutype":"서적문구 - 문구용품","category":"other"}]},{"lat":"37.521344223","long":"126.7759064","imageIndex":17,"items":[{"name":"주식회사 이츠미코리아","tel":"032-677-1898","addr":"경기도 부천시 내동 71-2번지","indutype":"기타 - 기계공구","category":"other"}]},{"lat":"37.517421015","long":"126.77857646","imageIndex":17,"items":[{"name":"주식회사 자인","tel":"032-719-2347","addr":"경기도 부천시 내동 146번지","indutype":"기타 - 기계공구","category":"other"}]},{"lat":"37.517897267","long":"126.77790766","imageIndex":17,"items":[{"name":"주식회사뉴대우테크","tel":"032-682-0147","addr":"경기도 부천시 내동 110-4번지","indutype":"용역 서비스 - 종합용역","category":"other"}]},{"lat":"37.5189816","long":"126.77485026","imageIndex":17,"items":[{"name":"주식회사대영아크릴","tel":"032-678-6693","addr":"경기도 부천시 내동 16-6번지","indutype":"기타 - 기타 전문점","category":"other"},{"name":"주식회사자연사랑","tel":"032-678-6693","addr":"경기도 부천시 내동 16-6번지 가동 2층","indutype":"건축자재 - 인테리어전문","category":"other"}]},{"lat":"37.51736755","long":"126.7741878","imageIndex":17,"items":[{"name":"주식회사명성하이텍","tel":"032-672-9111","addr":"경기도 부천시 내동 28-8번지","indutype":"서적문구 - 과학기자재","category":"other"}]},{"lat":"37.522397311","long":"126.7800774","imageIndex":17,"items":[{"name":"주식회사삼원엘앤디","tel":"02-703-0282","addr":"경기도 부천시 내동 168-3번지 3층","indutype":"건축자재 - 조명기구","category":"other"}]},{"lat":"37.516088153","long":"126.77419171","imageIndex":17,"items":[{"name":"주식회사코르크","tel":"032-1661-6139","addr":"경기도 부천시 내동 57-5번지","indutype":"사무통신 - 통신기기","category":"other"}]},{"lat":"37.520868447","long":"126.78157512","imageIndex":17,"items":[{"name":"주식회사타셈","tel":"032-683-2929","addr":"경기도 부천시 내동 179-1번지 1층","indutype":"기타 - 기타 전문점","category":"other"}]},{"lat":"37.515673087","long":"126.77387626","imageIndex":17,"items":[{"name":"주신종합철물","tel":"032-542-3929","addr":"경기도 부천시 내동 57-22번지","indutype":"건축자재 - 목재·석재·철물","category":"other"}]},{"lat":"37.523260373","long":"126.77907935","imageIndex":17,"items":[{"name":"중앙미크론","tel":"032-681-3832","addr":"경기도 부천시 내동 126번지 1층","indutype":"기타 - 기계공구","category":"other"},{"name":"천우텍","tel":"032-677-0755","addr":"경기도 부천시 내동 126번지 1층","indutype":"기타 - 기계공구","category":"other"}]},{"lat":"37.517177093","long":"126.77354364","imageIndex":17,"items":[{"name":"지성상사","tel":"032-676-3461","addr":"경기도 부천시 내동 33-5번지","indutype":"유통업 영리 - 기타유통업","category":"other"}]},{"lat":"37.515232481","long":"126.77433005","imageIndex":17,"items":[{"name":"지큐프로드","tel":"032-676-0409","addr":"경기도 부천시 내동 58번지","indutype":"유통업 영리 - 기타유통업","category":"other"}]},{"lat":"37.521567552","long":"126.77962738","imageIndex":17,"items":[{"name":"진영특수로링","tel":"032-677-0466","addr":"경기도 부천시 내동 167-6번지","indutype":"기타 - 기계공구","category":"other"}]},{"lat":"37.517949057","long":"126.7767198","imageIndex":17,"items":[{"name":"진한ENG","tel":"070-4205-4923","addr":"경기도 부천시 내동 89-1번지 1층","indutype":"기타 - 기계공구","category":"other"}]},{"lat":"37.521714551","long":"126.79095031","imageIndex":17,"items":[{"name":"첨이속옷","tel":"032-676-5435","addr":"경기도 부천시 내동 377-4번지 대보아트빌2동202호~202호 2동 202호","indutype":"의류 - 내의판매","category":"other"}]},{"lat":"37.522675595","long":"126.78435258","imageIndex":17,"items":[{"name":"청운도금","tel":"032-675-5183","addr":"경기도 부천시 내동 284-2번지","indutype":"기타 - 기계공구","category":"other"}]},{"lat":"37.520481318","long":"126.78659873","imageIndex":17,"items":[{"name":"카드단말기부천점","tel":"032-665-3660","addr":"경기도 부천시 내동 327-4번지","indutype":"사무통신 - 통신기기","category":"other"}]},{"lat":"37.517344647","long":"126.78107651","imageIndex":17,"items":[{"name":"카스산업계기","tel":"032-679-0141","addr":"경기도 부천시 내동 201-4번지 1층","indutype":"주방용구 - 주방용구","category":"other"}]},{"lat":"37.525396065","long":"126.77926528","imageIndex":17,"items":[{"name":"캠핑카카카","tel":"032-710-1644","addr":"경기도 부천시 내동 207-1번지 부천자동차매매단지 A동 101,102호","indutype":"레져용품 - 스포츠·레져용품","category":"other"}]},{"lat":"37.520454916","long":"126.77730045","imageIndex":17,"items":[{"name":"케이엠피","tel":"","addr":"경기도 부천시 내동 117번지 3층","indutype":"신변잡화 - 기타잡화","category":"other"}]},{"lat":"37.522562196","long":"126.78637779","imageIndex":17,"items":[{"name":"콩스캔들","tel":"","addr":"경기도 부천시 내동 342-2번지 대성스카이빌 102동 201호","indutype":"문화.취미 - 문화취미기타","category":"other"}]},{"lat":"37.525425065","long":"126.77557728","imageIndex":17,"items":[{"name":"퀸오븐","tel":"032-679-2804","addr":"경기도 부천시 내동 222-73번지 3층","indutype":"주방용구 - 주방용구","category":"other"}]},{"lat":"37.517091409","long":"126.77582879","imageIndex":17,"items":[{"name":"탑조명","tel":"032-672-1550","addr":"경기도 부천시 내동 62번지 3층","indutype":"건축자재 - 조명기구","category":"other"}]},{"lat":"37.520705652","long":"126.78610036","imageIndex":17,"items":[{"name":"태대공영","tel":"032-674-0472","addr":"경기도 부천시 내동 330번지 1층","indutype":"건축자재 - 목재·석재·철물","category":"other"}]},{"lat":"37.521143651","long":"126.78420999","imageIndex":17,"items":[{"name":"태민테크","tel":"032-677-3356","addr":"경기도 부천시 내동 279-1번지 1층","indutype":"기타 - 기계공구","category":"other"}]},{"lat":"37.526450964","long":"126.77965808","imageIndex":17,"items":[{"name":"태성알미늄","tel":"032-683-0450","addr":"경기도 부천시 내동 212-4번지","indutype":"건축자재 - 기타건축자재","category":"other"}]},{"lat":"37.519651578","long":"126.77188455","imageIndex":17,"items":[{"name":"태영광고","tel":"032-672-5638","addr":"경기도 부천시 내동 9-6번지","indutype":"용역 서비스 - 종합용역","category":"other"}]},{"lat":"37.516811516","long":"126.77552423","imageIndex":17,"items":[{"name":"태원","tel":"032-671-8717","addr":"경기도 부천시 내동 61-1번지","indutype":"레져용품 - 스포츠·레져용품","category":"other"}]},{"lat":"37.523344643","long":"126.78076463","imageIndex":17,"items":[{"name":"태진정공","tel":"032-677-6312","addr":"경기도 부천시 내동 170-6","indutype":"기타 - 기계공구","category":"other"}]},{"lat":"37.520699084","long":"126.78743518","imageIndex":17,"items":[{"name":"터치드바이퀸즈","tel":"","addr":"경기도 부천시 내동 352-3번지 E-끌림 102동 401호","indutype":"문화.취미 - 문화취미기타","category":"other"}]},{"lat":"37.515701365","long":"126.77452091","imageIndex":17,"items":[{"name":"토리노 베딩 (Torino Bedding)","tel":"070-7285-4142","addr":"경기도 부천시 내동 56-3번지","indutype":"직물 - 카페트,커튼,천막,지물","category":"other"}]},{"lat":"37.5178969","long":"126.77771537","imageIndex":17,"items":[{"name":"토산금속","tel":"032-681-0031","addr":"경기도 부천시 내동 110-5","indutype":"기타 - 기계공구","category":"other"}]},{"lat":"37.522560055","long":"126.78521264","imageIndex":17,"items":[{"name":"팔도세기냉열","tel":"032-678-7088","addr":"경기도 부천시 내동 292-8번지 대성파크빌","indutype":"전기제품 - 냉열기기","category":"other"}]},{"lat":"37.519675257","long":"126.7843274","imageIndex":17,"items":[{"name":"평화철강","tel":"032-681-8076","addr":"경기도 부천시 내동 273-2","indutype":"건축자재 - 기타건축자재","category":"other"}]},{"lat":"37.522176903","long":"126.78265722","imageIndex":17,"items":[{"name":"프린트폴","tel":"032-224-8484","addr":"경기도 부천시 내동 247-2번지 4층 403호","indutype":"기타 - 기계공구","category":"other"}]},{"lat":"37.521643153","long":"126.77674259","imageIndex":17,"items":[{"name":"피닉스산업사","tel":"032-678-3733","addr":"경기도 부천시 내동 77-3번지","indutype":"전기제품 - 가전제품","category":"other"}]},{"lat":"37.518477049","long":"126.7748518","imageIndex":17,"items":[{"name":"피시위시","tel":"032-677-6548","addr":"경기도 부천시 내동 26-1번지101~104호","indutype":"레져용품 - 스포츠·레져용품","category":"other"}]},{"lat":"37.520701708","long":"126.78396242","imageIndex":17,"items":[{"name":"한국특수열처리","tel":"032-674-9720","addr":"경기도 부천시 내동 276-1번지","indutype":"기타 - 기계공구","category":"other"}]},{"lat":"37.518596398","long":"126.78074477","imageIndex":17,"items":[{"name":"한서정밀조각","tel":"032-674-7188","addr":"경기도 부천시 내동 195-1번지","indutype":"기타 - 기계공구","category":"other"}]},{"lat":"37.523055011","long":"126.78489446","imageIndex":17,"items":[{"name":"한신콤푸레샤서비스","tel":"032-675-2949","addr":"경기도 부천시 내동 289-6번지 성진그린타운 7동 101호","indutype":"기타 - 기계공구","category":"other"}]},{"lat":"37.517873606","long":"126.77968363","imageIndex":17,"items":[{"name":"한일금속","tel":"032-441-1182","addr":"경기도 부천시 내동 154-5 지1층","indutype":"주방용구 - 주방용구","category":"other"}]},{"lat":"37.521897392","long":"126.78743174","imageIndex":17,"items":[{"name":"한일산업","tel":"032-682-8006","addr":"경기도 부천시 내동 349-3번지","indutype":"전기제품 - 기타전기제품","category":"other"}]},{"lat":"37.51934184","long":"126.77476998","imageIndex":17,"items":[{"name":"한일특수용접","tel":"070-8879-1145","addr":"경기도 부천시 내동 16-12 1층","indutype":"기타 - 기계공구","category":"other"}]},{"lat":"37.521201193","long":"126.78609893","imageIndex":17,"items":[{"name":"해뜨는집","tel":"032-674-0285","addr":"경기도 부천시 내동 332번지 1층","indutype":"의류 - 정장","category":"other"}]},{"lat":"37.517060141","long":"126.77363448","imageIndex":17,"items":[{"name":"해썹샵","tel":"032-675-8883","addr":"경기도 부천시 내동 33-26번지","indutype":"주방용구 - 주방용구","category":"other"}]},{"lat":"37.520428573","long":"126.78243612","imageIndex":17,"items":[{"name":"해원정밀","tel":"032-678-9006","addr":"경기도 부천시 내동 260-4","indutype":"기타 - 기계공구","category":"other"}]},{"lat":"37.517177861","long":"126.77393953","imageIndex":17,"items":[{"name":"행복나눔유통","tel":"070-7518-7362","addr":"경기도 부천시 내동 34-13번지","indutype":"의류 - 정장","category":"other"}]},{"lat":"37.517733766","long":"126.77254652","imageIndex":17,"items":[{"name":"현대전자","tel":"032-672-8983","addr":"경기도 부천시 내동 32번지","indutype":"전기제품 - 기타전기제품","category":"other"}]},{"lat":"37.523338664","long":"126.78238231","imageIndex":17,"items":[{"name":"혜성테크","tel":"032-673-0333","addr":"경기도 부천시 내동 241-3번지 1층","indutype":"기타 - 기계공구","category":"other"}]},{"lat":"37.522120347","long":"126.78132255","imageIndex":17,"items":[{"name":"화랑도검","tel":"032-674-6558","addr":"경기도 부천시 내동 232-1번지 2층","indutype":"신변잡화 - 기념품점","category":"other"}]},{"lat":"37.517179087","long":"126.77457296","imageIndex":17,"items":[{"name":"효산건설(주)","tel":"032-672-9779","addr":"경기도 부천시 내동 54-6번지 2층","indutype":"건축자재 - 기타건축자재","category":"other"}]},{"lat":"37.519814418","long":"126.77688385","imageIndex":17,"items":[{"name":"훈필정밀용접","tel":"032-681-2389","addr":"경기도 부천시 내동 82-1번지","indutype":"기타 - 기계공구","category":"other"}]}]