[{"lat":"37.085118038","long":"126.81952429","imageIndex":4,"items":[{"name":"(주)아시아레스토랑화성조암지점","tel":"031-352-8684","addr":"경기도 화성시 우정읍 조암리 218-12번지 101호","indutype":"일반휴게음식 - 서양음식","category":"restaurant"},{"name":"치킨파티","tel":"031-351-5538","addr":"경기도 화성시 우정읍 조암리 218-12번지","indutype":"일반휴게음식 - 스넥","category":"restaurant"}]},{"lat":"37.086842349","long":"126.82166834","imageIndex":4,"items":[{"name":"CafeVivaldi (카페비발디)","tel":"031-351-1381","addr":"경기도 화성시 우정읍 조암리 803-5번지 14호","indutype":"일반휴게음식 - 서양음식","category":"restaurant"}]},{"lat":"37.087146318","long":"126.826054","imageIndex":4,"items":[{"name":"가마솥식당","tel":"031-351-3422","addr":"경기도 화성시 우정읍 조암리 794-12번지 1층 일부","indutype":"일반휴게음식 - 일반한식","category":"restaurant"}]},{"lat":"37.083394092","long":"126.81763901","imageIndex":4,"items":[{"name":"가보곱창","tel":"031-351-0164","addr":"경기도 화성시 우정읍 조암리 352-3번지","indutype":"일반휴게음식 - 일반한식","category":"restaurant"},{"name":"그래도삼겹살","tel":"031-358-9400","addr":"경기도 화성시 우정읍 조암리 352-3번지","indutype":"일반휴게음식 - 일반한식","category":"restaurant"},{"name":"라니마라탕","tel":"031-358-5001","addr":"경기도 화성시 우정읍 조암리 352-3번지","indutype":"일반휴게음식 - 중국식","category":"restaurant"},{"name":"페리카나치킨","tel":"031-358-6843","addr":"경기도 화성시 우정읍 조암리 352-3번지","indutype":"일반휴게음식 - 주점","category":"restaurant"}]},{"lat":"37.083451439","long":"126.81975324","imageIndex":4,"items":[{"name":"갈비전설전집","tel":"031-351-1253","addr":"경기도 화성시 우정읍 조암리 273-3번지","indutype":"일반휴게음식 - 일반한식","category":"restaurant"},{"name":"인화네포차","tel":"031-351-9008","addr":"경기도 화성시 우정읍 조암리 273-3","indutype":"일반휴게음식 - 일반한식","category":"restaurant"},{"name":"친구비어","tel":"031-351-6326","addr":"경기도 화성시 우정읍 조암리 273-3번지","indutype":"일반휴게음식 - 주점","category":"restaurant"},{"name":"프린스","tel":"031-351-4664","addr":"경기도 화성시 우정읍 조암리 273-3번지","indutype":"일반휴게음식 - 주점","category":"restaurant"},{"name":"허흑오리","tel":"031-358-8978","addr":"경기도 화성시 우정읍 조암리 273-3번지","indutype":"일반휴게음식 - 중국식","category":"restaurant"}]},{"lat":"37.086816296","long":"126.82230948","imageIndex":4,"items":[{"name":"강현네 족발보쌈","tel":"031-358-7774","addr":"경기도 화성시 우정읍 조암리 802-10번지","indutype":"일반휴게음식 - 일반한식","category":"restaurant"}]},{"lat":"37.084895337","long":"126.82118936","imageIndex":4,"items":[{"name":"거북송탄부대찌개","tel":"031-351-3757","addr":"경기도 화성시 우정읍 조암리 244-7번지","indutype":"일반휴게음식 - 일반한식","category":"restaurant"}]},{"lat":"37.08683553","long":"126.82310798","imageIndex":4,"items":[{"name":"건강한 밥상","tel":"031-351-3335","addr":"경기도 화성시 우정읍 조암리 799-18번지","indutype":"일반휴게음식 - 일반한식","category":"restaurant"}]},{"lat":"37.083648766","long":"126.81916794","imageIndex":4,"items":[{"name":"고향초두부","tel":"031-351-9090","addr":"경기도 화성시 우정읍 조암리 270-33번지","indutype":"일반휴게음식 - 일반한식","category":"restaurant"}]},{"lat":"37.084950002","long":"126.82158287","imageIndex":4,"items":[{"name":"곱창부대","tel":"031-351-3392","addr":"경기도 화성시 우정읍 조암리 810-2번지 1층","indutype":"일반휴게음식 - 일반한식","category":"restaurant"},{"name":"신전떡볶이","tel":"031-351-3860","addr":"경기도 화성시 우정읍 조암리 810-2번지 101호","indutype":"일반휴게음식 - 스넥","category":"restaurant"}]},{"lat":"37.083675152","long":"126.81875175","imageIndex":4,"items":[{"name":"공작다방","tel":"031-358-7222","addr":"경기도 화성시 우정읍 조암리 270-14번지 지하1층","indutype":"일반휴게음식 - 일반한식","category":"restaurant"}]},{"lat":"37.084841067","long":"126.82105453","imageIndex":4,"items":[{"name":"공주설렁탕","tel":"031-351-1166","addr":"경기도 화성시 우정읍 조암리 244-8번지 1층","indutype":"일반휴게음식 - 일반한식","category":"restaurant"}]},{"lat":"37.084506277","long":"126.82014434","imageIndex":4,"items":[{"name":"그대가꽃","tel":"031-351-6057","addr":"경기도 화성시 우정읍 조암리 263-1번지","indutype":"일반휴게음식 - 주점","category":"restaurant"},{"name":"마음","tel":"031-358-7885","addr":"경기도 화성시 우정읍 조암리 263-1","indutype":"일반휴게음식 - 일반한식","category":"restaurant"},{"name":"우정포차","tel":"031-358-2739","addr":"경기도 화성시 우정읍 조암리 263-1번지","indutype":"일반휴게음식 - 일반한식","category":"restaurant"},{"name":"장어랑돼지랑","tel":"031-351-2231","addr":"경기도 화성시 우정읍 조암리 263-1번지","indutype":"일반휴게음식 - 일반한식","category":"restaurant"},{"name":"풀향기","tel":"031-351-8089","addr":"경기도 화성시 우정읍 조암리 263-1번지 2층","indutype":"일반휴게음식 - 주점","category":"restaurant"},{"name":"호프타임","tel":"031-358-3459","addr":"경기도 화성시 우정읍 조암리 263-1번지 1층","indutype":"일반휴게음식 - 주점","category":"restaurant"}]},{"lat":"37.085037378","long":"126.81980566","imageIndex":4,"items":[{"name":"길포차","tel":"031-351-0123","addr":"경기도 화성시 우정읍 조암리 218-7번지","indutype":"일반휴게음식 - 일반한식","category":"restaurant"}]},{"lat":"37.08211363","long":"126.81702358","imageIndex":4,"items":[{"name":"김밥천국","tel":"031-351-0323","addr":"경기도 화성시 우정읍 조암리 311-9번지","indutype":"일반휴게음식 - 일반한식","category":"restaurant"}]},{"lat":"37.084451399","long":"126.81961587","imageIndex":4,"items":[{"name":"꼬마김밥","tel":"031-351-0997","addr":"경기도 화성시 우정읍 조암리 263-6번지","indutype":"일반휴게음식 - 스넥","category":"restaurant"},{"name":"또와식당","tel":"031-351-6788","addr":"경기도 화성시 우정읍 조암리 263-6번지 1층","indutype":"일반휴게음식 - 일반한식","category":"restaurant"},{"name":"화수국밥","tel":"031-351-7234","addr":"경기도 화성시 우정읍 조암리 263-6번지","indutype":"일반휴게음식 - 일반한식","category":"restaurant"}]},{"lat":"37.083613281","long":"126.81952792","imageIndex":4,"items":[{"name":"꽃다방카페","tel":"031-351-6595","addr":"경기도 화성시 우정읍 조암리 271-9번지","indutype":"일반휴게음식 - 서양음식","category":"restaurant"},{"name":"수카페","tel":"","addr":"경기도 화성시 우정읍 조암리 271-9번지 1층","indutype":"일반휴게음식 - 일반한식","category":"restaurant"},{"name":"썸카페","tel":"031-358-0025","addr":"경기도 화성시 우정읍 조암리 271-9번지","indutype":"일반휴게음식 - 주점","category":"restaurant"},{"name":"연인카페","tel":"031-358-1457","addr":"경기도 화성시 우정읍 조암리 271-9번지","indutype":"일반휴게음식 - 일반한식","category":"restaurant"}]},{"lat":"37.086339371","long":"126.82272676","imageIndex":4,"items":[{"name":"꽃돼지","tel":"031-351-9297","addr":"경기도 화성시 우정읍 조암리 798-10번지 1층 101,102호","indutype":"일반휴게음식 - 일반한식","category":"restaurant"}]},{"lat":"37.083034531","long":"126.81819097","imageIndex":4,"items":[{"name":"꾸러기치킨&닭강정","tel":"031-358-6545","addr":"경기도 화성시 우정읍 조암리 350-21번지 1층","indutype":"일반휴게음식 - 일반한식","category":"restaurant"},{"name":"롯데리아화성조암점","tel":"031-351-3189","addr":"경기도 화성시 우정읍 조암리 350-21번지 1층","indutype":"일반휴게음식 - 서양음식","category":"restaurant"}]},{"lat":"37.086641482","long":"126.81420075","imageIndex":4,"items":[{"name":"남원추어탕","tel":"031-358-4414","addr":"경기도 화성시 우정읍 조암리 384-10번지","indutype":"일반휴게음식 - 일반한식","category":"restaurant"}]},{"lat":"37.082754871","long":"126.81797796","imageIndex":4,"items":[{"name":"낭만회포차","tel":"031-351-7429","addr":"경기도 화성시 우정읍 조암리 350-19번지","indutype":"일반휴게음식 - 일반한식","category":"restaurant"},{"name":"일미꼬치","tel":"031-358-8054","addr":"경기도 화성시 우정읍 조암리 350-19번지","indutype":"일반휴게음식 - 일반한식","category":"restaurant"}]},{"lat":"37.08430834","long":"126.82033601","imageIndex":4,"items":[{"name":"너랑나랑","tel":"031-358-2028","addr":"경기도 화성시 우정읍 조암리 262-29번지","indutype":"일반휴게음식 - 일반한식","category":"restaurant"}]},{"lat":"37.087171077","long":"126.81864207","imageIndex":4,"items":[{"name":"논두렁전집","tel":"070-8947-8693","addr":"경기도 화성시 우정읍 조암리 203-2번지","indutype":"일반휴게음식 - 일반한식","category":"restaurant"}]},{"lat":"37.084227799","long":"126.82069609","imageIndex":4,"items":[{"name":"놀러와식당","tel":"031-351-9532","addr":"경기도 화성시 우정읍 조암리 243-10번지","indutype":"일반휴게음식 - 일반한식","category":"restaurant"},{"name":"대한식당","tel":"031-358-8695","addr":"경기도 화성시 우정읍 조암리 243-10번지","indutype":"일반휴게음식 - 일반한식","category":"restaurant"},{"name":"사랑방","tel":"031-351-0887","addr":"경기도 화성시 우정읍 조암리 243-10번지","indutype":"일반휴게음식 - 서양음식","category":"restaurant"}]},{"lat":"37.086149466","long":"126.82227732","imageIndex":4,"items":[{"name":"놀부보쌈","tel":"031-351-1030","addr":"경기도 화성시 우정읍 조암리 805-3번지 102호","indutype":"일반휴게음식 - 일반한식","category":"restaurant"},{"name":"본가정분식","tel":"031-355-3678","addr":"경기도 화성시 우정읍 조암리 805-3번지","indutype":"일반휴게음식 - 일반한식","category":"restaurant"}]},{"lat":"37.084614057","long":"126.81991914","imageIndex":4,"items":[{"name":"느티나무집","tel":"031-351-8881","addr":"경기도 화성시 우정읍 조암리 242-2번지 1층","indutype":"일반휴게음식 - 일반한식","category":"restaurant"},{"name":"일품소머리국밥","tel":"031-351-6729","addr":"경기도 화성시 우정읍 조암리 242-2번지","indutype":"일반휴게음식 - 일반한식","category":"restaurant"},{"name":"장안보신장","tel":"031-351-6266","addr":"경기도 화성시 우정읍 조암리 242-2","indutype":"일반휴게음식 - 일반한식","category":"restaurant"},{"name":"천년지기","tel":"031-351-0222","addr":"경기도 화성시 우정읍 조암리 242-2번지","indutype":"일반휴게음식 - 주점","category":"restaurant"}]},{"lat":"37.084199781","long":"126.8200551","imageIndex":4,"items":[{"name":"다락방","tel":"031-111-1111","addr":"경기도 화성시 우정읍 조암리 261-4번지","indutype":"일반휴게음식 - 일반한식","category":"restaurant"},{"name":"다락방","tel":"031-358-4131","addr":"경기도 화성시 우정읍 조암리 261-4번지","indutype":"일반휴게음식 - 일반한식","category":"restaurant"}]},{"lat":"37.08406257","long":"126.81872832","imageIndex":4,"items":[{"name":"다온국수","tel":"031-351-6355","addr":"경기도 화성시 우정읍 조암리 265-2번지","indutype":"일반휴게음식 - 일반한식","category":"restaurant"}]},{"lat":"37.086474563","long":"126.82274893","imageIndex":4,"items":[{"name":"달봉감자 조암점","tel":"031-1670-3541","addr":"경기도 화성시 우정읍 조암리 798-9번지 103호","indutype":"일반휴게음식 - 일반한식","category":"restaurant"}]},{"lat":"37.081118355","long":"126.81441687","imageIndex":4,"items":[{"name":"대박낙지마을","tel":"031-358-4421","addr":"경기도 화성시 우정읍 조암리 327-10번지","indutype":"일반휴게음식 - 일반한식","category":"restaurant"},{"name":"무스리마","tel":"","addr":"경기도 화성시 우정읍 조암리 327-10번지 1층 일부","indutype":"일반휴게음식 - 서양음식","category":"restaurant"},{"name":"황철수피자","tel":"031-351-3693","addr":"경기도 화성시 우정읍 조암리 327-10","indutype":"일반휴게음식 - 스넥","category":"restaurant"}]},{"lat":"37.080954625","long":"126.8134501","imageIndex":4,"items":[{"name":"대한이오리삼계탕","tel":"031-252-7686","addr":"경기도 화성시 우정읍 조암리 475-10번지 1층","indutype":"일반휴게음식 - 일반한식","category":"restaurant"}]},{"lat":"37.084148272","long":"126.82171974","imageIndex":4,"items":[{"name":"더블유","tel":"031-351-1301","addr":"경기도 화성시 우정읍 조암리 812-11번지 1층","indutype":"일반휴게음식 - 서양음식","category":"restaurant"}]},{"lat":"37.08261945","long":"126.8178096","imageIndex":4,"items":[{"name":"돈천년","tel":"031-358-6882","addr":"경기도 화성시 우정읍 조암리 350-15번지","indutype":"일반휴게음식 - 일반한식","category":"restaurant"}]},{"lat":"37.086535131","long":"126.82110671","imageIndex":4,"items":[{"name":"동감숯불갈비","tel":"031-351-3308","addr":"경기도 화성시 우정읍 조암리 231-1번지 신태영아파트 1층 104호","indutype":"일반휴게음식 - 일반한식","category":"restaurant"}]},{"lat":"37.088085423","long":"126.82141794","imageIndex":4,"items":[{"name":"동화각","tel":"031-351-7788","addr":"경기도 화성시 우정읍 조암리 150-12번지","indutype":"일반휴게음식 - 중국식","category":"restaurant"}]},{"lat":"37.083260493","long":"126.81864028","imageIndex":4,"items":[{"name":"떳다 막창집","tel":"031-358-7930","addr":"경기도 화성시 우정읍 조암리 270-5번지","indutype":"일반휴게음식 - 일반한식","category":"restaurant"},{"name":"부킹","tel":"031-358-1577","addr":"경기도 화성시 우정읍 조암리 270-5번지","indutype":"일반휴게음식 - 일반한식","category":"restaurant"},{"name":"숙자네","tel":"031-351-0272","addr":"경기도 화성시 우정읍 조암리 270-5","indutype":"일반휴게음식 - 일반한식","category":"restaurant"}]},{"lat":"37.086281385","long":"126.82016257","imageIndex":4,"items":[{"name":"뚝경이감자탕","tel":"031-351-4792","addr":"경기도 화성시 우정읍 조암리 230-9번지 지하층","indutype":"일반휴게음식 - 일반한식","category":"restaurant"}]},{"lat":"37.084982323","long":"126.81916472","imageIndex":4,"items":[{"name":"마돈나호프","tel":"031-351-9323","addr":"경기도 화성시 우정읍 조암리 217-14번지","indutype":"일반휴게음식 - 주점","category":"restaurant"}]},{"lat":"37.084370547","long":"126.81977352","imageIndex":4,"items":[{"name":"만원포차","tel":"","addr":"경기도 화성시 우정읍 조암리 263-10번지","indutype":"일반휴게음식 - 일반한식","category":"restaurant"}]},{"lat":"37.080370799","long":"126.80358868","imageIndex":4,"items":[{"name":"말뫼골한식뷔페","tel":"031-358-2972","addr":"경기도 화성시 우정읍 조암리 533번지","indutype":"일반휴게음식 - 일반한식","category":"restaurant"}]},{"lat":"37.090732521","long":"126.82605692","imageIndex":4,"items":[{"name":"맛돼지","tel":"031-358-8951","addr":"경기도 화성시 우정읍 조암리 80-3번지","indutype":"일반휴게음식 - 일반한식","category":"restaurant"}]},{"lat":"37.083477566","long":"126.81916835","imageIndex":4,"items":[{"name":"멍석골 해장국","tel":"031-351-7645","addr":"경기도 화성시 우정읍 조암리 270-57번지","indutype":"일반휴게음식 - 일반한식","category":"restaurant"}]},{"lat":"37.085645082","long":"126.82241348","imageIndex":4,"items":[{"name":"명문","tel":"031-351-0503","addr":"경기도 화성시 우정읍 조암리 805-7번지 1동 1호","indutype":"일반휴게음식 - 일반한식","category":"restaurant"}]},{"lat":"37.0820929","long":"126.81530293","imageIndex":4,"items":[{"name":"무한밥상","tel":"031-351-9677","addr":"경기도 화성시 우정읍 조암리 335번지 101,104,105호","indutype":"일반휴게음식 - 일반한식","category":"restaurant"},{"name":"해주메밀냉면","tel":"031-111-1111","addr":"경기도 화성시 우정읍 조암리 335번지 4층 2호","indutype":"일반휴게음식 - 일반한식","category":"restaurant"}]},{"lat":"37.087835322","long":"126.82285818","imageIndex":4,"items":[{"name":"미당","tel":"02-2201-6373","addr":"경기도 화성시 우정읍 조암리 793-1번지","indutype":"일반휴게음식 - 일반한식","category":"restaurant"},{"name":"카페9295","tel":"","addr":"경기도 화성시 우정읍 조암리 793-1번지 1층 102호","indutype":"일반휴게음식 - 서양음식","category":"restaurant"}]},{"lat":"37.087059614","long":"126.8223314","imageIndex":4,"items":[{"name":"미성닭갈비","tel":"031-358-3995","addr":"경기도 화성시 우정읍 조암리 802-8번지 103호,104호","indutype":"일반휴게음식 - 일반한식","category":"restaurant"}]},{"lat":"37.083170563","long":"126.81875297","imageIndex":4,"items":[{"name":"발리","tel":"031-351-2530","addr":"경기도 화성시 우정읍 조암리 270-79번지","indutype":"일반휴게음식 - 일반한식","category":"restaurant"},{"name":"좋은날","tel":"031-351-6978","addr":"경기도 화성시 우정읍 조암리 270-79번지 1층","indutype":"일반휴게음식 - 일반한식","category":"restaurant"}]},{"lat":"37.08655913","long":"126.81913842","imageIndex":4,"items":[{"name":"배터지는생돈까스구어조은닭","tel":"031-358-7809","addr":"경기도 화성시 우정읍 조암리 203-11번지","indutype":"일반휴게음식 - 일반한식","category":"restaurant"}]},{"lat":"37.083496665","long":"126.81986559","imageIndex":4,"items":[{"name":"백옥호프포차","tel":"031-358-2228","addr":"경기도 화성시 우정읍 조암리 273-3번지 A동 1층","indutype":"일반휴게음식 - 일반한식","category":"restaurant"}]},{"lat":"37.082337763","long":"126.81630326","imageIndex":4,"items":[{"name":"베트남쌀국수(TRANG MY QUAN)","tel":"031-111-1111","addr":"경기도 화성시 우정읍 조암리 341-5번지","indutype":"일반휴게음식 - 서양음식","category":"restaurant"},{"name":"이화면옥","tel":"031-351-5452","addr":"경기도 화성시 우정읍 조암리 341-5번지 340-19","indutype":"일반휴게음식 - 일반한식","category":"restaurant"}]},{"lat":"37.085392924","long":"126.82250406","imageIndex":4,"items":[{"name":"별밤포차","tel":"031-351-9655","addr":"경기도 화성시 우정읍 조암리 805-9번지 1동 1층 101호","indutype":"일반휴게음식 - 주점","category":"restaurant"},{"name":"부성감자탕","tel":"031-000-0000","addr":"경기도 화성시 우정읍 조암리 805-9번지 103호","indutype":"일반휴게음식 - 일반한식","category":"restaurant"}]},{"lat":"37.083008321","long":"126.81871962","imageIndex":4,"items":[{"name":"별이 빛나는 밤에","tel":"031-351-0230","addr":"경기도 화성시 우정읍 조암리 270-48번지","indutype":"일반휴게음식 - 서양음식","category":"restaurant"}]},{"lat":"37.086699107","long":"126.82227602","imageIndex":4,"items":[{"name":"비발디카페","tel":"","addr":"경기도 화성시 우정읍 조암리 802-11번지 1층","indutype":"일반휴게음식 - 서양음식","category":"restaurant"}]},{"lat":"37.083840294","long":"126.82066328","imageIndex":4,"items":[{"name":"산화수","tel":"","addr":"경기도 화성시 우정읍 조암리 260-18번지 조암프라자 1층 111호","indutype":"일반휴게음식 - 일반한식","category":"restaurant"}]},{"lat":"37.084622042","long":"126.81925556","imageIndex":4,"items":[{"name":"삽다리","tel":"031-358-6424","addr":"경기도 화성시 우정읍 조암리 217-11번지","indutype":"일반휴게음식 - 칵테일바","category":"restaurant"}]},{"lat":"37.082871359","long":"126.81756156","imageIndex":4,"items":[{"name":"새벽닭","tel":"070-3575-9848","addr":"경기도 화성시 우정읍 조암리 350-8번지 1층","indutype":"일반휴게음식 - 스넥","category":"restaurant"}]},{"lat":"37.083810781","long":"126.81905508","imageIndex":4,"items":[{"name":"샘의나라레스토랑","tel":"031-351-0059","addr":"경기도 화성시 우정읍 조암리 270-21","indutype":"일반휴게음식 - 일반한식","category":"restaurant"},{"name":"신세계","tel":"031-351-3368","addr":"경기도 화성시 우정읍 조암리 270-21번지","indutype":"일반휴게음식 - 일반한식","category":"restaurant"}]},{"lat":"37.084784179","long":"126.81922143","imageIndex":4,"items":[{"name":"생맥주타운","tel":"031-0000-0000","addr":"경기도 화성시 우정읍 조암리 217-10번지","indutype":"일반휴게음식 - 주점","category":"restaurant"},{"name":"아이리스카페","tel":"031-351-5746","addr":"경기도 화성시 우정읍 조암리 217-10번지","indutype":"일반휴게음식 - 서양음식","category":"restaurant"}]},{"lat":"37.082367205","long":"126.79602584","imageIndex":4,"items":[{"name":"서해복집","tel":"031-111-1111","addr":"경기도 화성시 우정읍 조암리 666번지 1층","indutype":"일반휴게음식 - 일반한식","category":"restaurant"},{"name":"카페182","tel":"070-8810-2657","addr":"경기도 화성시 우정읍 조암리 666번지 2동 1층","indutype":"일반휴게음식 - 서양음식","category":"restaurant"}]},{"lat":"37.084145284","long":"126.81977406","imageIndex":4,"items":[{"name":"손씨초두부","tel":"031-358-7798","addr":"경기도 화성시 우정읍 조암리 261-14번지 2층","indutype":"일반휴게음식 - 일반한식","category":"restaurant"},{"name":"조암주막집","tel":"031-358-1994","addr":"경기도 화성시 우정읍 조암리 261-14번지 1층 일부","indutype":"일반휴게음식 - 일반한식","category":"restaurant"}]},{"lat":"37.084335787","long":"126.82060586","imageIndex":4,"items":[{"name":"수궁한식","tel":"031-351-5070","addr":"경기도 화성시 우정읍 조암리 243-7번지","indutype":"일반휴게음식 - 일반한식","category":"restaurant"}]},{"lat":"37.084704595","long":"126.82020009","imageIndex":4,"items":[{"name":"수정호프","tel":"031-351-0101","addr":"경기도 화성시 우정읍 조암리 242-3번지 외1필지","indutype":"일반휴게음식 - 주점","category":"restaurant"}]},{"lat":"37.083647386","long":"126.81827946","imageIndex":4,"items":[{"name":"술앤미소","tel":"031-351-5776","addr":"경기도 화성시 우정읍 조암리 267-7번지","indutype":"일반휴게음식 - 일반한식","category":"restaurant"}]},{"lat":"37.082285534","long":"126.81747301","imageIndex":4,"items":[{"name":"스핑크스","tel":"031-358-0565","addr":"경기도 화성시 우정읍 조암리 349-14","indutype":"일반휴게음식 - 주점","category":"restaurant"}]},{"lat":"37.083504388","long":"126.81903333","imageIndex":4,"items":[{"name":"시골밥상","tel":"031-351-3123","addr":"경기도 화성시 우정읍 조암리 270-35번지","indutype":"일반휴게음식 - 일반한식","category":"restaurant"}]},{"lat":"37.083566414","long":"126.81835838","imageIndex":4,"items":[{"name":"신당명가","tel":"031-358-5810","addr":"경기도 화성시 우정읍 조암리 267-6","indutype":"일반휴게음식 - 스넥","category":"restaurant"}]},{"lat":"37.083038614","long":"126.81505317","imageIndex":4,"items":[{"name":"신돼랑이","tel":"031-253-4239","addr":"경기도 화성시 우정읍 조암리 340-24번지 1층","indutype":"일반휴게음식 - 일반한식","category":"restaurant"}]},{"lat":"37.086536918","long":"126.8222764","imageIndex":4,"items":[{"name":"신통치킨","tel":"031-351-8986","addr":"경기도 화성시 우정읍 조암리 802-13번지 101호","indutype":"일반휴게음식 - 일반한식","category":"restaurant"}]},{"lat":"37.083286527","long":"126.81799917","imageIndex":4,"items":[{"name":"야호만두","tel":"031-358-2624","addr":"경기도 화성시 우정읍 조암리 267-12번지","indutype":"일반휴게음식 - 일반한식","category":"restaurant"}]},{"lat":"37.087312712","long":"126.82285942","imageIndex":4,"items":[{"name":"어부네꽃게마을","tel":"031-358-2008","addr":"경기도 화성시 우정읍 조암리 798-2번지 1층","indutype":"일반휴게음식 - 일반한식","category":"restaurant"}]},{"lat":"37.084117052","long":"126.81899811","imageIndex":4,"items":[{"name":"옛날남원추어탕","tel":"031-351-6669","addr":"경기도 화성시 우정읍 조암리 265-5번지","indutype":"일반휴게음식 - 일반한식","category":"restaurant"}]},{"lat":"37.087703553","long":"126.81919189","imageIndex":4,"items":[{"name":"오고야말행복","tel":"031-358-6414","addr":"경기도 화성시 우정읍 조암리 195-1번지 1층일부","indutype":"일반휴게음식 - 서양음식","category":"restaurant"}]},{"lat":"37.084450668","long":"126.81914351","imageIndex":4,"items":[{"name":"오복정","tel":"031-351-2110","addr":"경기도 화성시 우정읍 조암리 217-13번지","indutype":"일반휴게음식 - 일반한식","category":"restaurant"}]},{"lat":"37.083423363","long":"126.81907851","imageIndex":4,"items":[{"name":"옥카페","tel":"031-358-6364","addr":"경기도 화성시 우정읍 조암리 270-56번지","indutype":"일반휴게음식 - 서양음식","category":"restaurant"}]},{"lat":"37.083116115","long":"126.81850568","imageIndex":4,"items":[{"name":"왕과비","tel":"031-358-0335","addr":"경기도 화성시 우정읍 조암리 270-46번지","indutype":"일반휴게음식 - 일반한식","category":"restaurant"}]},{"lat":"37.084343741","long":"126.81991979","imageIndex":4,"items":[{"name":"왕소금구이","tel":"031-351-6788","addr":"경기도 화성시 우정읍 조암리 262-1","indutype":"일반휴게음식 - 일반한식","category":"restaurant"}]},{"lat":"37.082504168","long":"126.819002","imageIndex":4,"items":[{"name":"왕십리곱창","tel":"031-351-8229","addr":"경기도 화성시 우정읍 조암리 290-5번지","indutype":"일반휴게음식 - 일반한식","category":"restaurant"}]},{"lat":"37.087897763","long":"126.82244189","imageIndex":4,"items":[{"name":"요거프레소(조암비발디점)","tel":"070-7404-1465","addr":"경기도 화성시 우정읍 조암리 185-39번지","indutype":"일반휴게음식 - 서양음식","category":"restaurant"}]},{"lat":"37.087586505","long":"126.82516445","imageIndex":4,"items":[{"name":"요맛","tel":"031-358-1151","addr":"경기도 화성시 우정읍 조암리 794-2번지","indutype":"일반휴게음식 - 일반한식","category":"restaurant"}]},{"lat":"37.089009013","long":"126.81850265","imageIndex":4,"items":[{"name":"우가돈가","tel":"031-351-1819","addr":"경기도 화성시 우정읍 조암리 147-1번지","indutype":"일반휴게음식 - 일반한식","category":"restaurant"}]},{"lat":"37.083703508","long":"126.81960642","imageIndex":4,"items":[{"name":"우림관화로구이(조암점)","tel":"031-351-6259","addr":"경기도 화성시 우정읍 조암리 271-1번지 1층","indutype":"일반휴게음식 - 일반한식","category":"restaurant"}]},{"lat":"37.087977004","long":"126.82122699","imageIndex":4,"items":[{"name":"우정분식","tel":"","addr":"경기도 화성시 우정읍 조암리 186-19번지","indutype":"일반휴게음식 - 스넥","category":"restaurant"}]},{"lat":"37.076146733","long":"126.7993939","imageIndex":4,"items":[{"name":"우정식당","tel":"031-351-1110","addr":"경기도 화성시 우정읍 조암리 753-17번지 1층","indutype":"일반휴게음식 - 일반한식","category":"restaurant"}]},{"lat":"37.084730846","long":"126.81969393","imageIndex":4,"items":[{"name":"유성집","tel":"031-351-7209","addr":"경기도 화성시 우정읍 조암리 218-8번지","indutype":"일반휴게음식 - 일반한식","category":"restaurant"}]},{"lat":"37.082339298","long":"126.81728169","imageIndex":4,"items":[{"name":"이디야 (화성조암점)","tel":"031-358-1960","addr":"경기도 화성시 우정읍 조암리 349-5번지 1층","indutype":"일반휴게음식 - 서양음식","category":"restaurant"}]},{"lat":"37.086699877","long":"126.82278214","imageIndex":4,"items":[{"name":"이자카야 감동","tel":"031-111-1111","addr":"경기도 화성시 우정읍 조암리 798-7번지","indutype":"일반휴게음식 - 일반한식","category":"restaurant"}]},{"lat":"37.085976065","long":"126.82083812","imageIndex":4,"items":[{"name":"일품양평해장국","tel":"031-358-0841","addr":"경기도 화성시 우정읍 조암리 804-3번지","indutype":"일반휴게음식 - 일반한식","category":"restaurant"},{"name":"임실엔치즈피자","tel":"031-358-9339","addr":"경기도 화성시 우정읍 조암리 804-3번지 1층","indutype":"일반휴게음식 - 서양음식","category":"restaurant"}]},{"lat":"37.08422728","long":"126.82035869","imageIndex":4,"items":[{"name":"전주식당","tel":"031-358-3225","addr":"경기도 화성시 우정읍 조암리 261-5번지 1층","indutype":"일반휴게음식 - 일반한식","category":"restaurant"},{"name":"정카페","tel":"031-351-5577","addr":"경기도 화성시 우정읍 조암리 261-5번지","indutype":"일반휴게음식 - 서양음식","category":"restaurant"}]},{"lat":"37.086149174","long":"126.82208613","imageIndex":4,"items":[{"name":"제일김밥분식","tel":"031-358-2811","addr":"경기도 화성시 우정읍 조암리 805-2번지","indutype":"일반휴게음식 - 스넥","category":"restaurant"}]},{"lat":"37.084260364","long":"126.81844667","imageIndex":4,"items":[{"name":"조암가든","tel":"031-358-4768","addr":"경기도 화성시 우정읍 조암리 266-10번지","indutype":"일반휴게음식 - 일반한식","category":"restaurant"}]},{"lat":"37.084316397","long":"126.81971742","imageIndex":4,"items":[{"name":"조암다방","tel":"031-351-4474","addr":"경기도 화성시 우정읍 조암리 262-12번지","indutype":"일반휴게음식 - 서양음식","category":"restaurant"},{"name":"포차BOOM","tel":"","addr":"경기도 화성시 우정읍 조암리 262-12번지","indutype":"일반휴게음식 - 일반한식","category":"restaurant"}]},{"lat":"37.084090543","long":"126.81933557","imageIndex":4,"items":[{"name":"조암통닭","tel":"031-358-5592","addr":"경기도 화성시 우정읍 조암리 270-26","indutype":"일반휴게음식 - 스넥","category":"restaurant"}]},{"lat":"37.085478215","long":"126.81936597","imageIndex":4,"items":[{"name":"지짐이","tel":"031-351-2252","addr":"경기도 화성시 우정읍 조암리 219-15번지","indutype":"일반휴게음식 - 일반한식","category":"restaurant"}]},{"lat":"37.084066334","long":"126.82116884","imageIndex":4,"items":[{"name":"진희네매운탕","tel":"031-351-3208","addr":"경기도 화성시 우정읍 조암리 256-15번지","indutype":"일반휴게음식 - 일반한식","category":"restaurant"}]},{"lat":"37.083728604","long":"126.81835799","imageIndex":4,"items":[{"name":"참갈매기살","tel":"031-351-5050","addr":"경기도 화성시 우정읍 조암리 267-3번지 1층","indutype":"일반휴게음식 - 일반한식","category":"restaurant"},{"name":"한아름 막창 곱창","tel":"031-351-7959","addr":"경기도 화성시 우정읍 조암리 267-3번지 1층 102호","indutype":"일반휴게음식 - 일반한식","category":"restaurant"}]},{"lat":"37.083558364","long":"126.81897696","imageIndex":4,"items":[{"name":"카라","tel":"031-351-7498","addr":"경기도 화성시 우정읍 조암리 270-34번지","indutype":"일반휴게음식 - 일반한식","category":"restaurant"}]},{"lat":"37.086619328","long":"126.82314223","imageIndex":4,"items":[{"name":"카페13월","tel":"031-1111-1111","addr":"경기도 화성시 우정읍 조암리 801번지 1층 101호","indutype":"일반휴게음식 - 서양음식","category":"restaurant"}]},{"lat":"37.081842007","long":"126.81619201","imageIndex":4,"items":[{"name":"카페테라랩","tel":"070-8810-2315","addr":"경기도 화성시 우정읍 조암리 311-1번지 1층 1호","indutype":"일반휴게음식 - 서양음식","category":"restaurant"}]},{"lat":"37.08851004","long":"126.81633312","imageIndex":4,"items":[{"name":"커피에반하다","tel":"031-351-9114","addr":"경기도 화성시 우정읍 조암리 385-3번지","indutype":"일반휴게음식 - 서양음식","category":"restaurant"}]},{"lat":"37.082175397","long":"126.81619119","imageIndex":4,"items":[{"name":"터미널순대","tel":"031-351-1350","addr":"경기도 화성시 우정읍 조암리 340-12번지 C동","indutype":"일반휴게음식 - 일반한식","category":"restaurant"},{"name":"터미널식당","tel":"031-691-1316","addr":"경기도 화성시 우정읍 조암리 340-12번지","indutype":"일반휴게음식 - 일반한식","category":"restaurant"},{"name":"향남해장국","tel":"031-351-1127","addr":"경기도 화성시 우정읍 조암리 340-12번지","indutype":"일반휴게음식 - 일반한식","category":"restaurant"}]},{"lat":"37.081391711","long":"126.81633931","imageIndex":4,"items":[{"name":"터미널식당","tel":"031-351-1161","addr":"경기도 화성시 우정읍 조암리 311-8","indutype":"일반휴게음식 - 일반한식","category":"restaurant"}]},{"lat":"37.092284718","long":"126.8158627","imageIndex":4,"items":[{"name":"토종흑염소","tel":"031-358-3949","addr":"경기도 화성시 우정읍 조암리 397-3번지 1층","indutype":"일반휴게음식 - 일반한식","category":"restaurant"}]},{"lat":"37.081427805","long":"126.81072732","imageIndex":4,"items":[{"name":"파도수산","tel":"031-351-7716","addr":"경기도 화성시 우정읍 조암리 480번지","indutype":"일반휴게음식 - 일반한식","category":"restaurant"}]},{"lat":"37.082203047","long":"126.81658475","imageIndex":4,"items":[{"name":"팔팔통닭","tel":"031-358-5588","addr":"경기도 화성시 우정읍 조암리 340-29번지 1층","indutype":"일반휴게음식 - 스넥","category":"restaurant"}]},{"lat":"37.086949411","long":"126.81518974","imageIndex":4,"items":[{"name":"할리스커피 화성조암점","tel":"031-111-1111","addr":"경기도 화성시 우정읍 조암리 384-6번지 103호","indutype":"일반휴게음식 - 서양음식","category":"restaurant"}]},{"lat":"37.088120309","long":"126.82066428","imageIndex":4,"items":[{"name":"해피홈","tel":"031-351-5690","addr":"경기도 화성시 우정읍 조암리 149-3번지 1층","indutype":"일반휴게음식 - 일반한식","category":"restaurant"}]},{"lat":"37.082953786","long":"126.8184161","imageIndex":4,"items":[{"name":"행복한사람들","tel":"031-358-6977","addr":"경기도 화성시 우정읍 조암리 350-3번지 2층","indutype":"일반휴게음식 - 일반한식","category":"restaurant"},{"name":"훈춘양꼬치","tel":"031-352-1673","addr":"경기도 화성시 우정읍 조암리 350-3번지 1층","indutype":"일반휴게음식 - 일반한식","category":"restaurant"}]},{"lat":"37.076982991","long":"126.7983908","imageIndex":4,"items":[{"name":"향원","tel":"031-358-4108","addr":"경기도 화성시 우정읍 조암리 753-42번지","indutype":"일반휴게음식 - 중국식","category":"restaurant"}]},{"lat":"37.082419829","long":"126.81692161","imageIndex":4,"items":[{"name":"홍신마차","tel":"031-351-1081","addr":"경기도 화성시 우정읍 조암리 345번지 2층 2호","indutype":"일반휴게음식 - 중국식","category":"restaurant"}]}]