[{"lat":"37.505517922","long":"127.43998683","imageIndex":5,"items":[{"name":"(주)블랙스톤리조트 양평지점 더 힐 하우스","tel":"031-771-0001","addr":"경기도 양평군 강하면 전수리 17-3번지","indutype":"숙박업 - 여관/기타숙박업","category":"hotel"}]},{"lat":"37.501832007","long":"127.42284353","imageIndex":5,"items":[{"name":"9 (호텔나인)","tel":"031-774-7800","addr":"경기도 양평군 강하면 전수리 553-13번지","indutype":"숙박업 - 여관/기타숙박업","category":"hotel"}]},{"lat":"37.476581612","long":"127.42162821","imageIndex":5,"items":[{"name":"다빈갤러리하우스","tel":"","addr":"경기도 양평군 강하면 전수리 788번지","indutype":"숙박업 - 여관/기타숙박업","category":"hotel"}]},{"lat":"37.499941917","long":"127.41717859","imageIndex":5,"items":[{"name":"다이안모텔","tel":"031-775-8786","addr":"경기도 양평군 강하면 전수리 1030번지","indutype":"숙박업 - 여관/기타숙박업","category":"hotel"}]},{"lat":"37.503047832","long":"127.42298605","imageIndex":5,"items":[{"name":"더뷰","tel":"031-774-9755","addr":"경기도 양평군 강하면 전수리 545번지","indutype":"숙박업 - 여관/기타숙박업","category":"hotel"}]},{"lat":"37.503492877","long":"127.42451529","imageIndex":5,"items":[{"name":"더블유","tel":"031-773-0367","addr":"경기도 양평군 강하면 전수리 548-1번지","indutype":"숙박업 - 여관/기타숙박업","category":"hotel"},{"name":"더블유","tel":"031-773-0367","addr":"경기도 양평군 강하면 전수리 548-1번지","indutype":"숙박업 - 여관/기타숙박업","category":"hotel"}]},{"lat":"37.504887823","long":"127.44225636","imageIndex":5,"items":[{"name":"더호텔자자","tel":"031-774-9516","addr":"경기도 양평군 강하면 전수리 4-3번지","indutype":"숙박업 - 여관/기타숙박업","category":"hotel"},{"name":"더호텔자자(THE HOTELZAZA)","tel":"070-8881-5366","addr":"경기도 양평군 강하면 전수리 4-3번지","indutype":"숙박업 - 여관/기타숙박업","category":"hotel"}]},{"lat":"37.503991981","long":"127.44087137","imageIndex":5,"items":[{"name":"리버타운 모텔","tel":"031-771-7070","addr":"경기도 양평군 강하면 전수리 25-7번지","indutype":"숙박업 - 여관/기타숙박업","category":"hotel"},{"name":"리버타운투(2)","tel":"031-771-7070","addr":"경기도 양평군 강하면 전수리 25-7번지 리버타운","indutype":"숙박업 - 여관/기타숙박업","category":"hotel"}]},{"lat":"37.503073292","long":"127.42342725","imageIndex":5,"items":[{"name":"모나코모텔","tel":"031-771-4813","addr":"경기도 양평군 강하면 전수리 546번지","indutype":"숙박업 - 여관/기타숙박업","category":"hotel"},{"name":"모나코모텔","tel":"031-771-4813","addr":"경기도 양평군 강하면 전수리 546번지","indutype":"숙박업 - 여관/기타숙박업","category":"hotel"},{"name":"모나코모텔","tel":"031-771-4813","addr":"경기도 양평군 강하면 전수리 546번지","indutype":"숙박업 - 여관/기타숙박업","category":"hotel"}]},{"lat":"37.494110887","long":"127.43028608","imageIndex":5,"items":[{"name":"별다래하우스","tel":"","addr":"경기도 양평군 강하면 전수리 312-2번지","indutype":"숙박업 - 여관/기타숙박업","category":"hotel"}]},{"lat":"37.495193072","long":"127.43000955","imageIndex":5,"items":[{"name":"산수골펜션","tel":"031-000-0000","addr":"경기도 양평군 강하면 전수리 314번지","indutype":"숙박업 - 여관/기타숙박업","category":"hotel"}]},{"lat":"37.504880726","long":"127.43193079","imageIndex":5,"items":[{"name":"스카이하우스","tel":"031-771-2284","addr":"경기도 양평군 강하면 전수리 478번지","indutype":"숙박업 - 여관/기타숙박업","category":"hotel"}]},{"lat":"37.502997425","long":"127.42448989","imageIndex":5,"items":[{"name":"아리아모텔","tel":"031-775-1704","addr":"경기도 양평군 강하면 전수리 551-1","indutype":"숙박업 - 여관/기타숙박업","category":"hotel"}]},{"lat":"37.5042683","long":"127.426872","imageIndex":5,"items":[{"name":"애니텔","tel":"031-774-7500","addr":"경기도 양평군 강하면 전수리 495-25번지","indutype":"숙박업 - 여관/기타숙박업","category":"hotel"}]},{"lat":"37.500359133","long":"127.41895637","imageIndex":5,"items":[{"name":"올레","tel":"031-771-0082","addr":"경기도 양평군 강하면 전수리 567-4번지 외3필지","indutype":"숙박업 - 여관/기타숙박업","category":"hotel"}]},{"lat":"37.50310336","long":"127.42510118","imageIndex":5,"items":[{"name":"카리브모텔","tel":"031-771-9975","addr":"경기도 양평군 강하면 전수리 551-6번지","indutype":"숙박업 - 여관/기타숙박업","category":"hotel"}]},{"lat":"37.500826318","long":"127.4269317","imageIndex":5,"items":[{"name":"켄트28","tel":"031-775-8842","addr":"경기도 양평군 강하면 전수리 530-61번지","indutype":"숙박업 - 여관/기타숙박업","category":"hotel"}]},{"lat":"37.500440698","long":"127.41882112","imageIndex":5,"items":[{"name":"테마1","tel":"031-773-0404","addr":"경기도 양평군 강하면 전수리 1024-4번지 2층","indutype":"숙박업 - 여관/기타숙박업","category":"hotel"}]},{"lat":"37.501137682","long":"127.43301764","imageIndex":5,"items":[{"name":"한옥마을황토펜션","tel":"031-773-6300","addr":"경기도 양평군 강하면 전수리 448-5","indutype":"숙박업 - 여관/기타숙박업","category":"hotel"}]},{"lat":"37.501466624","long":"127.42171059","imageIndex":5,"items":[{"name":"현대무인텔","tel":"031-774-7762","addr":"경기도 양평군 강하면 전수리 559-14번지","indutype":"숙박업 - 여관/기타숙박업","category":"hotel"}]},{"lat":"37.499825663","long":"127.41692915","imageIndex":5,"items":[{"name":"호텔 엘리스","tel":"","addr":"경기도 양평군 강하면 전수리 1030-2번지","indutype":"숙박업 - 여관/기타숙박업","category":"hotel"},{"name":"호텔엘리스","tel":"031-774-7793","addr":"경기도 양평군 강하면 전수리 1030-2번지","indutype":"숙박업 - 여관/기타숙박업","category":"hotel"},{"name":"호텔엘리스","tel":"031-774-7793","addr":"경기도 양평군 강하면 전수리 1030-2번지 외2필지","indutype":"숙박업 - 여관/기타숙박업","category":"hotel"},{"name":"호텔엘리스","tel":"070-8244-9391","addr":"경기도 양평군 강하면 전수리 1030-2번지","indutype":"숙박업 - 여관/기타숙박업","category":"hotel"}]},{"lat":"37.505386464","long":"127.44142238","imageIndex":5,"items":[{"name":"호텔나폴리","tel":"","addr":"경기도 양평군 강하면 전수리 9-4번지","indutype":"숙박업 - 여관/기타숙박업","category":"hotel"}]}]