[{"lat":"37.18594554","long":"127.04206181","imageIndex":4,"items":[{"name":"(주)애드풀짝태앤노가리세마역점","tel":"","addr":"경기도 오산시 세교동 600-4번지 오산세교CL타워 131호","indutype":"일반휴게음식 - 일반한식","category":"restaurant"},{"name":"단지골","tel":"031-374-0348","addr":"경기도 오산시 세교동 600-4번지 오산세교CL타워 107,108호","indutype":"일반휴게음식 - 일반한식","category":"restaurant"},{"name":"먹고싶닭세마역점","tel":"031-372-5589","addr":"경기도 오산시 세교동 600-4번지 오산세교CL타워 1층","indutype":"일반휴게음식 - 일반한식","category":"restaurant"},{"name":"명태어가","tel":"031-376-0348","addr":"경기도 오산시 세교동 600-4번지 오산세교CL타워 109,110호","indutype":"일반휴게음식 - 일반한식","category":"restaurant"},{"name":"죽이야기 세마역점","tel":"031-372-6285","addr":"경기도 오산시 세교동 600-4번지 오산세교CL타워 1층 114호","indutype":"일반휴게음식 - 일반한식","category":"restaurant"}]},{"lat":"37.18253025","long":"127.04308482","imageIndex":4,"items":[{"name":"bro(브로)한","tel":"031-378-0126","addr":"경기도 오산시 세교동 611-9번지 102호","indutype":"일반휴게음식 - 중국식","category":"restaurant"},{"name":"고칸","tel":"031-374-0317","addr":"경기도 오산시 세교동 611-9번지 1층","indutype":"일반휴게음식 - 일식·회집","category":"restaurant"}]},{"lat":"37.186164287","long":"127.03359302","imageIndex":4,"items":[{"name":"권가네수제숯불구이","tel":"","addr":"경기도 오산시 세교동 519-1번지","indutype":"일반휴게음식 - 일반한식","category":"restaurant"}]},{"lat":"37.1849384","long":"127.0353606","imageIndex":4,"items":[{"name":"권구성순대국밥","tel":"031-000-0000","addr":"경기도 오산시 세교동 546-10번지 1층","indutype":"일반휴게음식 - 일반한식","category":"restaurant"}]},{"lat":"37.194414731","long":"127.04381196","imageIndex":4,"items":[{"name":"그늘집","tel":"031-372-2884","addr":"경기도 오산시 세교동 173-1번지 2층 201호","indutype":"일반휴게음식 - 일반한식","category":"restaurant"}]},{"lat":"37.181583363","long":"127.04535908","imageIndex":4,"items":[{"name":"꿈두레실버카페","tel":"031-372-1772","addr":"경기도 오산시 세교동 618번지 1층","indutype":"일반휴게음식 - 서양음식","category":"restaurant"}]},{"lat":"37.18552195","long":"127.04236566","imageIndex":4,"items":[{"name":"노랑통닭 오산 세마역점/(주)애드풀","tel":"","addr":"경기도 오산시 세교동 600-6번지 1층 109,110호","indutype":"일반휴게음식 - 스넥","category":"restaurant"},{"name":"마왕족발 오산세마역점","tel":"031-372-9898","addr":"경기도 오산시 세교동 600-6번지 1층 101,102호","indutype":"일반휴게음식 - 일반한식","category":"restaurant"},{"name":"맵꾸리 매운갈비찜","tel":"031-000-0000","addr":"경기도 오산시 세교동 600-6번지 1층 106,107호","indutype":"일반휴게음식 - 일반한식","category":"restaurant"},{"name":"한중명미","tel":"031-663-0447","addr":"경기도 오산시 세교동 600-6번지 더스타힐 1층 111호","indutype":"일반휴게음식 - 중국식","category":"restaurant"}]},{"lat":"37.184335309","long":"127.03306298","imageIndex":4,"items":[{"name":"대명한방오리","tel":"031-375-9955","addr":"경기도 오산시 세교동 536번지 1층","indutype":"일반휴게음식 - 일반한식","category":"restaurant"}]},{"lat":"37.184524092","long":"127.03472978","imageIndex":4,"items":[{"name":"독산성가든","tel":"031-373-4507","addr":"경기도 오산시 세교동 546-14번지","indutype":"일반휴게음식 - 일반한식","category":"restaurant"}]},{"lat":"37.184668207","long":"127.03492128","imageIndex":4,"items":[{"name":"두메맛골","tel":"031-372-5085","addr":"경기도 오산시 세교동 546-3번지","indutype":"일반휴게음식 - 일반한식","category":"restaurant"}]},{"lat":"37.182638156","long":"127.04372678","imageIndex":4,"items":[{"name":"드림독","tel":"070-8845-6609","addr":"경기도 오산시 세교동 612-8번지 1층","indutype":"일반휴게음식 - 서양음식","category":"restaurant"}]},{"lat":"37.183917451","long":"127.04425676","imageIndex":4,"items":[{"name":"라곰키친","tel":"031-000-0000","addr":"경기도 오산시 세교동 607-8번지 피렌체빌 103호","indutype":"일반휴게음식 - 일반한식","category":"restaurant"}]},{"lat":"37.193550018","long":"127.04297803","imageIndex":4,"items":[{"name":"롯데리아 오산세교D/T","tel":"031-378-3180","addr":"경기도 오산시 세교동 173-3번지 ,1,2층","indutype":"일반휴게음식 - 서양음식","category":"restaurant"},{"name":"롯데리아 오산세교DT","tel":"031-378-3180","addr":"경기도 오산시 세교동 173-3번지 ,1,2층","indutype":"일반휴게음식 - 서양음식","category":"restaurant"}]},{"lat":"37.181610863","long":"127.04403027","imageIndex":4,"items":[{"name":"리마커블커피(remarkerble coffee)","tel":"031-000-0000","addr":"경기도 오산시 세교동 615-5번지 1층","indutype":"일반휴게음식 - 서양음식","category":"restaurant"}]},{"lat":"37.189966239","long":"127.03525013","imageIndex":4,"items":[{"name":"마루샤브","tel":"031-378-3728","addr":"경기도 오산시 세교동 369-8번지 1층","indutype":"일반휴게음식 - 일반한식","category":"restaurant"}]},{"lat":"37.181692042","long":"127.04378257","imageIndex":4,"items":[{"name":"만두집","tel":"031-378-0999","addr":"경기도 오산시 세교동 615-9번지 101호","indutype":"일반휴게음식 - 스넥","category":"restaurant"}]},{"lat":"37.186134815","long":"127.04189298","imageIndex":4,"items":[{"name":"맛나당","tel":"070-1111-1111","addr":"경기도 오산시 세교동 600-3번지 세마타워 106호","indutype":"일반휴게음식 - 일반한식","category":"restaurant"},{"name":"세교반점","tel":"031-378-8283","addr":"경기도 오산시 세교동 600-3번지 세마타워 101호","indutype":"일반휴게음식 - 중국식","category":"restaurant"},{"name":"세교반점","tel":"031-374-8283","addr":"경기도 오산시 세교동 600-3번지 세마타워 1층 101호","indutype":"일반휴게음식 - 중국식","category":"restaurant"},{"name":"커피앤드","tel":"031-374-1088","addr":"경기도 오산시 세교동 600-3번지 세마타워 108호","indutype":"일반휴게음식 - 서양음식","category":"restaurant"},{"name":"홍짜장","tel":"031-373-1993","addr":"경기도 오산시 세교동 600-3번지 세마타워 101호","indutype":"일반휴게음식 - 중국식","category":"restaurant"}]},{"lat":"37.193387294","long":"127.04453223","imageIndex":4,"items":[{"name":"맛드림전통숯불갈비","tel":"031-375-5999","addr":"경기도 오산시 세교동 173-54번지 1층","indutype":"일반휴게음식 - 일반한식","category":"restaurant"}]},{"lat":"37.182196645","long":"127.04372654","imageIndex":4,"items":[{"name":"메밀사랑묵사랑오산세교점","tel":"031-373-9984","addr":"경기도 오산시 세교동 613-9번지 1층","indutype":"일반휴게음식 - 일반한식","category":"restaurant"}]},{"lat":"37.1819723","long":"127.04097868","imageIndex":4,"items":[{"name":"멕시카나치킨(오산세교점)","tel":"031-372-4492","addr":"경기도 오산시 세교동 624번지 잔다리마을휴먼시아 상가동 103호","indutype":"일반휴게음식 - 스넥","category":"restaurant"},{"name":"비비큐(BBQ)올떡세교점","tel":"031-375-7771","addr":"경기도 오산시 세교동 624번지 잔다라마을휴먼시아 상가 101호","indutype":"일반휴게음식 - 스넥","category":"restaurant"}]},{"lat":"37.187161946","long":"127.04206244","imageIndex":4,"items":[{"name":"바른치킨세교신도시점","tel":"031-377-5851","addr":"경기도 오산시 세교동 598-3번지 109호","indutype":"일반휴게음식 - 스넥","category":"restaurant"},{"name":"역포장마차","tel":"031-1111-1111","addr":"경기도 오산시 세교동 598-3번지 108호","indutype":"일반휴게음식 - 일반한식","category":"restaurant"},{"name":"오사카부루스세마역점","tel":"031-111-1111","addr":"경기도 오산시 세교동 598-3번지 104,105호","indutype":"일반휴게음식 - 주점","category":"restaurant"},{"name":"육고탁 세마역점","tel":"","addr":"경기도 오산시 세교동 598-3번지 101,102호","indutype":"일반휴게음식 - 일반한식","category":"restaurant"},{"name":"카페글렌오산세마점","tel":"070-4848-0272","addr":"경기도 오산시 세교동 598-3번지 110호","indutype":"일반휴게음식 - 서양음식","category":"restaurant"}]},{"lat":"37.186333107","long":"127.04170163","imageIndex":4,"items":[{"name":"베가치킨","tel":"031-378-9099","addr":"경기도 오산시 세교동 600-2번지 오산타워 111호","indutype":"일반휴게음식 - 스넥","category":"restaurant"}]},{"lat":"37.182250661","long":"127.0438617","imageIndex":4,"items":[{"name":"별스시","tel":"031-378-3890","addr":"경기도 오산시 세교동 613-8번지 1층","indutype":"일반휴게음식 - 일식·회집","category":"restaurant"},{"name":"홍차하우스운정","tel":"031-225-3678","addr":"경기도 오산시 세교동 613-8번지 스타빌 1층","indutype":"일반휴게음식 - 서양음식","category":"restaurant"}]},{"lat":"37.181556867","long":"127.0438388","imageIndex":4,"items":[{"name":"블루스케치","tel":"031-376-2848","addr":"경기도 오산시 세교동 615-8번지 1층","indutype":"일반휴게음식 - 서양음식","category":"restaurant"}]},{"lat":"37.190803504","long":"127.03772824","imageIndex":4,"items":[{"name":"산들에","tel":"031-377-2955","addr":"경기도 오산시 세교동 89-2번지 1층","indutype":"일반휴게음식 - 일반한식","category":"restaurant"}]},{"lat":"37.184530179","long":"127.04420078","imageIndex":4,"items":[{"name":"삼겹살","tel":"031-376-1157","addr":"경기도 오산시 세교동 604-3번지 재경빌 1층","indutype":"일반휴게음식 - 일반한식","category":"restaurant"}]},{"lat":"37.191245024","long":"127.03769466","imageIndex":4,"items":[{"name":"세교가든","tel":"031-373-1140","addr":"경기도 오산시 세교동 89-1번지 101호 102호","indutype":"일반휴게음식 - 일반한식","category":"restaurant"}]},{"lat":"37.181863194","long":"127.0439178","imageIndex":4,"items":[{"name":"세교파스타","tel":"031-372-8316","addr":"경기도 오산시 세교동 615-3번지 1층","indutype":"일반휴게음식 - 서양음식","category":"restaurant"}]},{"lat":"37.193333852","long":"127.04273014","imageIndex":4,"items":[{"name":"세교풍천민물장어","tel":"031-372-7763","addr":"경기도 오산시 세교동 175번지","indutype":"일반휴게음식 - 일반한식","category":"restaurant"},{"name":"장강","tel":"031-372-8579","addr":"경기도 오산시 세교동 175번지 ,1,2층","indutype":"일반휴게음식 - 중국식","category":"restaurant"},{"name":"취봉덕","tel":"031-372-8579","addr":"경기도 오산시 세교동 175번지 , 1,2층","indutype":"일반휴게음식 - 중국식","category":"restaurant"},{"name":"커피마마세교1호점","tel":"031-376-0504","addr":"경기도 오산시 세교동 175번지 1층","indutype":"일반휴게음식 - 서양음식","category":"restaurant"}]},{"lat":"37.192470832","long":"127.03633243","imageIndex":4,"items":[{"name":"세마대바지락칼국수","tel":"031-372-9473","addr":"경기도 오산시 세교동 60번지 1층","indutype":"일반휴게음식 - 일반한식","category":"restaurant"}]},{"lat":"37.184362001","long":"127.03436934","imageIndex":4,"items":[{"name":"세마보리밥","tel":"031-373-0016","addr":"경기도 오산시 세교동 549-1번지","indutype":"일반휴게음식 - 일반한식","category":"restaurant"},{"name":"세마보리밥","tel":"031-373-0016","addr":"경기도 오산시 세교동 549-1번지 1층","indutype":"일반휴게음식 - 일반한식","category":"restaurant"}]},{"lat":"37.191830105","long":"127.0396659","imageIndex":4,"items":[{"name":"송탄최네집부대찌개세교점","tel":"031-374-5989","addr":"경기도 오산시 세교동 80번지","indutype":"일반휴게음식 - 일반한식","category":"restaurant"}]},{"lat":"37.182719327","long":"127.04350159","imageIndex":4,"items":[{"name":"쉐프삼촌(오산점)","tel":"070-4237-6909","addr":"경기도 오산시 세교동 612-2번지 1층","indutype":"일반휴게음식 - 일반한식","category":"restaurant"}]},{"lat":"37.183944743","long":"127.04350225","imageIndex":4,"items":[{"name":"시골밥상","tel":"031-883-5252","addr":"경기도 오산시 세교동 606-3번지","indutype":"일반휴게음식 - 일반한식","category":"restaurant"}]},{"lat":"37.184160803","long":"127.04405418","imageIndex":4,"items":[{"name":"신도시토프레소오산세교점","tel":"031-374-3288","addr":"경기도 오산시 세교동 607-1번지 604-4호","indutype":"일반휴게음식 - 서양음식","category":"restaurant"}]},{"lat":"37.186002201","long":"127.03319879","imageIndex":4,"items":[{"name":"신정골","tel":"031-372-3272","addr":"경기도 오산시 세교동 520-1번지 1층","indutype":"일반휴게음식 - 일반한식","category":"restaurant"},{"name":"통큰 추어 매운탕","tel":"031-373-2234","addr":"경기도 오산시 세교동 520-1번지 1층","indutype":"일반휴게음식 - 일반한식","category":"restaurant"}]},{"lat":"37.182773339","long":"127.04364802","imageIndex":4,"items":[{"name":"야미얌","tel":"031-377-6876","addr":"경기도 오산시 세교동 612-3번지 1층","indutype":"일반휴게음식 - 서양음식","category":"restaurant"}]},{"lat":"37.181502718","long":"127.04408652","imageIndex":4,"items":[{"name":"어바웃스토리","tel":"070-8867-6105","addr":"경기도 오산시 세교동 615-6번지","indutype":"일반휴게음식 - 일반한식","category":"restaurant"}]},{"lat":"37.18205466","long":"127.03681207","imageIndex":4,"items":[{"name":"예찬","tel":"031-375-2552","addr":"경기도 오산시 세교동 470번지 1층","indutype":"일반휴게음식 - 일반한식","category":"restaurant"}]},{"lat":"37.186884418","long":"127.03619482","imageIndex":4,"items":[{"name":"옛날가든","tel":"031-378-1881","addr":"경기도 오산시 세교동 423-1번지 1층","indutype":"일반휴게음식 - 일반한식","category":"restaurant"}]},{"lat":"37.181746039","long":"127.04397404","imageIndex":4,"items":[{"name":"오뚜기아구찜","tel":"031-375-5929","addr":"경기도 오산시 세교동 615-4번지 1층","indutype":"일반휴게음식 - 일반한식","category":"restaurant"}]},{"lat":"37.182413096","long":"127.04314107","imageIndex":4,"items":[{"name":"울리불리분식","tel":"","addr":"경기도 오산시 세교동 611-10번지 세마빌","indutype":"일반휴게음식 - 스넥","category":"restaurant"}]},{"lat":"37.184884939","long":"127.03308573","imageIndex":4,"items":[{"name":"이가낙지마당","tel":"031-372-0990","addr":"경기도 오산시 세교동 534-1번지 1층","indutype":"일반휴게음식 - 일반한식","category":"restaurant"}]},{"lat":"37.184440126","long":"127.04405433","imageIndex":4,"items":[{"name":"인생은아름다워","tel":"070-754-8548","addr":"경기도 오산시 세교동 604-4번지 1층","indutype":"일반휴게음식 - 서양음식","category":"restaurant"}]},{"lat":"37.18727166","long":"127.03691576","imageIndex":4,"items":[{"name":"진짜통닭","tel":"","addr":"경기도 오산시 세교동 383번지 1층","indutype":"일반휴게음식 - 스넥","category":"restaurant"}]},{"lat":"37.182304665","long":"127.04403065","imageIndex":4,"items":[{"name":"차니푸드","tel":"031-377-9487","addr":"경기도 오산시 세교동 613-7번지 1층","indutype":"일반휴게음식 - 스넥","category":"restaurant"}]},{"lat":"37.184551531","long":"127.03317569","imageIndex":4,"items":[{"name":"청목","tel":"031-372-1155","addr":"경기도 오산시 세교동 537번지 청목","indutype":"일반휴게음식 - 일반한식","category":"restaurant"}]},{"lat":"37.184134112","long":"127.04306315","imageIndex":4,"items":[{"name":"초가집밥상","tel":"070-4898-5818","addr":"경기도 오산시 세교동 605-6번지 1층","indutype":"일반휴게음식 - 일반한식","category":"restaurant"}]},{"lat":"37.1852177380","long":"127.0353044139","imageIndex":4,"items":[{"name":"초원능이오리","tel":"031-378-5293","addr":"경기도 오산시 세교동 545-5번지 1층","indutype":"일반휴게음식 - 일반한식","category":"restaurant"}]},{"lat":"37.185000801","long":"127.03772558","imageIndex":4,"items":[{"name":"취풍덕","tel":"031-366-1999","addr":"경기도 오산시 세교동 436번지 1층","indutype":"일반휴게음식 - 중국식","category":"restaurant"}]},{"lat":"37.186277446","long":"127.0463077","imageIndex":4,"items":[{"name":"치킨매니아오산세교점","tel":"031-376-5947","addr":"경기도 오산시 세교동 587번지 행복주택 101호","indutype":"일반휴게음식 - 스넥","category":"restaurant"}]},{"lat":"37.182331829","long":"127.04364778","imageIndex":4,"items":[{"name":"카메","tel":"","addr":"경기도 오산시 세교동 613-2번지","indutype":"일반휴게음식 - 일식·회집","category":"restaurant"}]},{"lat":"37.183611462","long":"127.04319801","imageIndex":4,"items":[{"name":"카페별이총총","tel":"070-4135-7277","addr":"경기도 오산시 세교동 606-11번지 1층","indutype":"일반휴게음식 - 서양음식","category":"restaurant"},{"name":"컬투치킨 세교사랑점","tel":"031-372-9293","addr":"경기도 오산시 세교동 606-11번지 1층 101호","indutype":"일반휴게음식 - 스넥","category":"restaurant"}]},{"lat":"37.184044061","long":"127.04290544","imageIndex":4,"items":[{"name":"카페알리스","tel":"031-372-2012","addr":"경기도 오산시 세교동 605-8번지 1층","indutype":"일반휴게음식 - 서양음식","category":"restaurant"}]},{"lat":"37.188578349","long":"127.03628566","imageIndex":4,"items":[{"name":"한촌설렁탕 오산세교점","tel":"031-373-5212","addr":"경기도 오산시 세교동 378-1번지 1층","indutype":"일반휴게음식 - 일반한식","category":"restaurant"}]},{"lat":"37.184776271","long":"127.03514656","imageIndex":4,"items":[{"name":"향나무가든","tel":"031-372-4505","addr":"경기도 오산시 세교동 546-6번지","indutype":"일반휴게음식 - 일반한식","category":"restaurant"}]},{"lat":"37.184883988","long":"127.03661062","imageIndex":4,"items":[{"name":"호아퐁","tel":"031-374-9934","addr":"경기도 오산시 세교동 509-8번지 3동 1층","indutype":"일반휴게음식 - 일반한식","category":"restaurant"}]},{"lat":"37.193552054","long":"127.03642301","imageIndex":4,"items":[{"name":"홍가네가든","tel":"031-372-4380","addr":"경기도 오산시 세교동 56-1번지","indutype":"일반휴게음식 - 일반한식","category":"restaurant"},{"name":"홍가네가든","tel":"031-372-4380","addr":"경기도 오산시 세교동 56-1번지","indutype":"일반휴게음식 - 일반한식","category":"restaurant"}]},{"lat":"37.190605129","long":"127.0382237","imageIndex":4,"items":[{"name":"황제능이버섯백숙","tel":"031-377-5852","addr":"경기도 오산시 세교동 89-5번지","indutype":"일반휴게음식 - 일반한식","category":"restaurant"}]}]