[{"lat":"37.262622522","long":"126.96042705","imageIndex":17,"items":[{"name":"GS25벨섬시티점","tel":"","addr":"경기도 수원시 권선구 호매실동 1380번지 호매실마을14단지벨섬시티 101~102호","indutype":"유통업 영리 - 편 의 점","category":"other"},{"name":"가빈","tel":"","addr":"경기도 수원시 권선구 호매실동 1380번지 호매실마을14단지벨섬시티 1404동 1902호","indutype":"건축자재 - 인테리어전문","category":"other"},{"name":"미성도어","tel":"031-397-3422","addr":"경기도 수원시 권선구 호매실동 1380번지 호매실마을14단지벨섬시티 1402동 8층 803호","indutype":"건축자재 - 인테리어전문","category":"other"},{"name":"백마크리닝","tel":"","addr":"경기도 수원시 권선구 호매실동 1380번지 호매실마을14단지벨섬시티 단지내상가 2동 101호","indutype":"수리서비스 - 세탁소","category":"other"},{"name":"쁘띠홈 (Petithome)","tel":"","addr":"경기도 수원시 권선구 호매실동 1380번지 호매실마을14단지벨섬시티 1404동 804호","indutype":"문화.취미 - 문화취미기타","category":"other"},{"name":"소온니트","tel":"","addr":"경기도 수원시 권선구 호매실동 1380번지 호매실마을14단지벨섬시티 1412동 504호","indutype":"문화.취미 - 문화취미기타","category":"other"},{"name":"원큐에어컨 (One Q)","tel":"031-242-0339","addr":"경기도 수원시 권선구 호매실동 1380번지 호매실마을14단지벨섬시티 1412동 604호","indutype":"용역 서비스 - 기타용역서비스","category":"other"},{"name":"지오바이오","tel":"070-5623-9090","addr":"경기도 수원시 권선구 호매실동 1380번지 호매실마을14단지벨섬시티 1401동 2102호","indutype":"서적문구 - 과학기자재","category":"other"}]},{"lat":"37.267323488","long":"126.95417867","imageIndex":17,"items":[{"name":"GS25수원호매실점","tel":"02-2006-2118","addr":"경기도 수원시 권선구 호매실동 404-1","indutype":"유통업 영리 - 편 의 점","category":"other"}]},{"lat":"37.266010552","long":"126.9608761","imageIndex":17,"items":[{"name":"GS25호매실중앙점","tel":"","addr":"경기도 수원시 권선구 호매실동 1375번지 1층","indutype":"유통업 영리 - 편 의 점","category":"other"},{"name":"스카이통신","tel":"","addr":"경기도 수원시 권선구 호매실동 1375번지 현대프라자 104호","indutype":"사무통신 - 통신기기","category":"other"}]},{"lat":"37.266042263","long":"126.95006458","imageIndex":17,"items":[{"name":"GS25호매실한양점","tel":"","addr":"경기도 수원시 권선구 호매실동 1361번지 단지내 2상가 110호","indutype":"유통업 영리 - 편 의 점","category":"other"},{"name":"로샤 에즈","tel":"","addr":"경기도 수원시 권선구 호매실동 1361번지 한양수자인파크원 107동 604호","indutype":"의류 - 정장","category":"other"},{"name":"수자인세탁","tel":"031-296-7999","addr":"경기도 수원시 권선구 호매실동 1361번지 한양수자인파크원 상가 2동 105호","indutype":"수리서비스 - 세탁소","category":"other"},{"name":"슬라임 연구소","tel":"031-267-2122","addr":"경기도 수원시 권선구 호매실동 1361번지 한양수자인단지내근생2상가109호","indutype":"서적문구 - 완구점","category":"other"},{"name":"원에스트레 Won Astre","tel":"","addr":"경기도 수원시 권선구 호매실동 1361번지 한양수자인파크원 111동 204호","indutype":"신변잡화 - 귀금속","category":"other"}]},{"lat":"37.266404802","long":"126.95506989","imageIndex":17,"items":[{"name":"I.M","tel":"031-294-3222","addr":"경기도 수원시 권선구 호매실동 439-17번지 2층","indutype":"서적문구 - 일반서적","category":"other"}]},{"lat":"37.268874896","long":"126.95833783","imageIndex":17,"items":[{"name":"LG뜨게마을","tel":"031-294-9198","addr":"경기도 수원시 권선구 호매실동 84-8번지","indutype":"직물 - 침구·수예점","category":"other"},{"name":"노브랜드 수원 호매실 3점","tel":"02-380-5678","addr":"경기도 수원시 권선구 호매실동 84-8번지 1층 일부","indutype":"신변잡화 - 기타잡화","category":"other"},{"name":"노브랜드 수원 호매실 3점/은련","tel":"02-380-5678","addr":"경기도 수원시 권선구 호매실동 84-8번지 1층 일부","indutype":"신변잡화 - 기타잡화","category":"other"},{"name":"크린토피아LG삼익점","tel":"031-305-0337","addr":"경기도 수원시 권선구 호매실동 84-8번지 1층","indutype":"수리서비스 - 세탁소","category":"other"}]},{"lat":"37.267260656","long":"126.95476495","imageIndex":17,"items":[{"name":"가구세상","tel":"031-247-8180","addr":"경기도 수원시 권선구 호매실동 405-1번지","indutype":"가구 - 기타가구","category":"other"},{"name":"비바제이(VIVAJAY)","tel":"031-8003-8087","addr":"경기도 수원시 권선구 호매실동 405-1번지 1층","indutype":"의류 - 정장","category":"other"},{"name":"영동설비","tel":"031-293-8204","addr":"경기도 수원시 권선구 호매실동 405-1번지","indutype":"용역 서비스 - 기타용역서비스","category":"other"},{"name":"이젠LED라이팅","tel":"031-296-6878","addr":"경기도 수원시 권선구 호매실동 405-1번지 1층","indutype":"건축자재 - 조명기구","category":"other"}]},{"lat":"37.267566752","long":"126.95414469","imageIndex":17,"items":[{"name":"가정환경산업","tel":"031-235-9797","addr":"경기도 수원시 권선구 호매실동 402-11번지 6층","indutype":"용역 서비스 - 종합용역","category":"other"},{"name":"꼼꼬미핸즈","tel":"","addr":"경기도 수원시 권선구 호매실동 402-11번지 효원빌딩 1층 101호","indutype":"서적문구 - 완구점","category":"other"},{"name":"문수열쇠전기","tel":"031-293-5306","addr":"경기도 수원시 권선구 호매실동 402-11번지 1층 4호","indutype":"기타 - 기계공구","category":"other"},{"name":"온요가","tel":"031-308-6194","addr":"경기도 수원시 권선구 호매실동 402-11번지","indutype":"회원제형태 - 레져업소","category":"other"}]},{"lat":"37.2699833","long":"126.95870923","imageIndex":17,"items":[{"name":"강아지세상","tel":"031-298-0353","addr":"경기도 수원시 권선구 호매실동 80-1,106번지","indutype":"문화.취미 - 애완동물","category":"other"},{"name":"금호종합인테리어","tel":"031-294-7704","addr":"경기도 수원시 권선구 호매실동 80-1번지","indutype":"건축자재 - 인테리어전문","category":"other"},{"name":"삼천리자전거","tel":"031-295-3031","addr":"경기도 수원시 권선구 호매실동 80-1번지 두암빌딩 1층 108호","indutype":"레져용품 - 스포츠·레져용품","category":"other"},{"name":"스마트폰샵","tel":"031-292-9017","addr":"경기도 수원시 권선구 호매실동 80-1번지 1층 102호","indutype":"사무통신 - 통신기기","category":"other"},{"name":"주연테크컴퓨터/PC119","tel":"031-295-7119","addr":"경기도 수원시 권선구 호매실동 80-1번지 101호","indutype":"사무통신 - 컴퓨터","category":"other"}]},{"lat":"37.268513086","long":"126.95476415","imageIndex":17,"items":[{"name":"개집","tel":"031-293-5889","addr":"경기도 수원시 권선구 호매실동 395-2번지 1층","indutype":"문화.취미 - 애완동물","category":"other"},{"name":"파워헬스","tel":"031-296-3805","addr":"경기도 수원시 권선구 호매실동 395-2번지","indutype":"회원제형태 - 레져업소","category":"other"},{"name":"패션특별시","tel":"031-292-9876","addr":"경기도 수원시 권선구 호매실동 395-2번지","indutype":"의류 - 정장","category":"other"}]},{"lat":"37.269067014","long":"126.94431264","imageIndex":17,"items":[{"name":"굿네이버세탁수선","tel":"031-295-6262","addr":"경기도 수원시 권선구 호매실동 1345-2번지 1층","indutype":"수리서비스 - 세탁소","category":"other"}]},{"lat":"37.269343277","long":"126.95793168","imageIndex":17,"items":[{"name":"그린장식","tel":"031-293-7441","addr":"경기도 수원시 권선구 호매실동 82-3번지","indutype":"직물 - 카페트,커튼,천막,지물","category":"other"}]},{"lat":"37.258766871","long":"126.96259357","imageIndex":17,"items":[{"name":"글로벌씨브이에스","tel":"031-291-1040","addr":"경기도 수원시 권선구 호매실동 호매실보금자리주택지구110-3금호프라자106호","indutype":"유통업 영리 - 편 의 점","category":"other"},{"name":"삼우건기","tel":"031-445-3500","addr":"경기도 수원시 권선구 호매실동 1400-2번지 금호프라자 1동 1003호","indutype":"기타 - 기계공구","category":"other"},{"name":"삼우건기","tel":"","addr":"경기도 수원시 권선구 호매실동 1400-2번지 금호프라자 1동 1003호","indutype":"기타 - 기계공구","category":"other"},{"name":"삼우건기","tel":"031-483-3330","addr":"경기도 수원시 권선구 호매실동 1400-2번지 금호프라자 1동 1003호","indutype":"기타 - 기계공구","category":"other"},{"name":"솔로몬세무회계사무소","tel":"031-223-3900","addr":"경기도 수원시 권선구 호매실동 1400-2번지 금호프라자 1동 706호","indutype":"용역 서비스 - 법률회계서비스(개인)","category":"other"},{"name":"주곡지게차","tel":"031-351-0422","addr":"경기도 수원시 권선구 호매실동 1400-2번지 금호프라자 1동 1003호","indutype":"기타 - 기계공구","category":"other"},{"name":"킨더룰루 키즈","tel":"031-294-7566","addr":"경기도 수원시 권선구 호매실동 1400-2번지 금호프라자 9층 3~4호","indutype":"서적문구 - 완구점","category":"other"}]},{"lat":"37.265990845","long":"126.95636663","imageIndex":17,"items":[{"name":"금호건재","tel":"031-291-3327","addr":"경기도 수원시 권선구 호매실동 421","indutype":"건축자재 - 기타건축자재","category":"other"}]},{"lat":"37.269154384","long":"126.95878863","imageIndex":17,"items":[{"name":"김재환골프아카데미","tel":"031-297-0558","addr":"경기도 수원시 권선구 호매실동 88번지 2층","indutype":"회원제형태 - 레져업소","category":"other"},{"name":"한솔정보통신","tel":"031-296-4568","addr":"경기도 수원시 권선구 호매실동 88번지 기수빌딩 3층","indutype":"사무통신 - 통신기기","category":"other"}]},{"lat":"37.264847692","long":"126.95939991","imageIndex":17,"items":[{"name":"깔끄미줄눈","tel":"","addr":"경기도 수원시 권선구 호매실동 1371번지 호매실마을13단지 1301동 1201호","indutype":"용역 서비스 - 종합용역","category":"other"},{"name":"명품체형디자이너","tel":"070-7510-5634","addr":"경기도 수원시 권선구 호매실동 1371번지 호매실마을13단지 1309동 401호","indutype":"의류 - 내의판매","category":"other"},{"name":"바이비스 코리아","tel":"","addr":"경기도 수원시 권선구 호매실동 1371번지 호매실마을13단지 1315동 2005호","indutype":"서적문구 - 과학기자재","category":"other"},{"name":"솔바이오텍","tel":"031-8001-2828","addr":"경기도 수원시 권선구 호매실동 1371번지 호매실마을13단지 1309동 1803호","indutype":"서적문구 - 과학기자재","category":"other"},{"name":"아더스 디자인","tel":"","addr":"경기도 수원시 권선구 호매실동 1371번지 호매실마을13단지 1303동 2502호","indutype":"주방용구 - 주방용구","category":"other"},{"name":"정원교육","tel":"","addr":"경기도 수원시 권선구 호매실동 1371번지 호매실마을13단지 1303동 304호","indutype":"서적문구 - 일반서적","category":"other"},{"name":"제이트디자인","tel":"070-4312-8881","addr":"경기도 수원시 권선구 호매실동 1371번지 호매실마을13단지 1302동 802호","indutype":"용역 서비스 - 소프트웨어","category":"other"},{"name":"플러스 냉난방","tel":"031-111-1111","addr":"경기도 수원시 권선구 호매실동 1371번지 호매실마을13단지 1302동 1603호","indutype":"용역 서비스 - 기타용역서비스","category":"other"}]},{"lat":"37.268072464","long":"126.95698542","imageIndex":17,"items":[{"name":"꼬마에서미씨까지","tel":"031-295-7667","addr":"경기도 수원시 권선구 호매실동 392-9번지 연번지 106호","indutype":"의류 - 정장","category":"other"},{"name":"모바일세상","tel":"070-4113-8347","addr":"경기도 수원시 권선구 호매실동 392-9번지 5호","indutype":"사무통신 - 통신기기","category":"other"},{"name":"박성철 복싱클럽","tel":"031-293-5002","addr":"경기도 수원시 권선구 호매실동 392-9번지 지하1층","indutype":"회원제형태 - 레져업소","category":"other"},{"name":"용산컴퓨터","tel":"031-293-7740","addr":"경기도 수원시 권선구 호매실동 392-9번지 103호","indutype":"수리서비스 - 사무·통신기기수리","category":"other"}]},{"lat":"37.256513922","long":"126.96151262","imageIndex":17,"items":[{"name":"내복대장","tel":"031-111-1111","addr":"경기도 수원시 권선구 호매실동 1411-1번지","indutype":"의류 - 내의판매","category":"other"}]},{"lat":"37.267931246","long":"126.94336651","imageIndex":17,"items":[{"name":"넘버원색소폰","tel":"031-1600-9916","addr":"경기도 수원시 권선구 호매실동 1349번지 1층","indutype":"레져용품 - 악기점","category":"other"}]},{"lat":"37.268098475","long":"126.9544262","imageIndex":17,"items":[{"name":"노루표페인트","tel":"031-293-7776","addr":"경기도 수원시 권선구 호매실동 402-33번지","indutype":"건축자재 - 페인트","category":"other"}]},{"lat":"37.26626119","long":"126.95645665","imageIndex":17,"items":[{"name":"다사랑노인복지요양원","tel":"031-296-2500","addr":"경기도 수원시 권선구 호매실동 415-6번지","indutype":"기타의료기관 - 기타의료기관 및 기타","category":"other"}]},{"lat":"37.259793526","long":"126.96109374","imageIndex":17,"items":[{"name":"다온 캘리그라피","tel":"","addr":"경기도 수원시 권선구 호매실동 1394번지 호매실스위첸능실마을19단지 1908동 1305호","indutype":"문화.취미 - 문화취미기타","category":"other"},{"name":"더숲","tel":"","addr":"경기도 수원시 권선구 호매실동 1394번지 호매실스위첸능실마을19단지 1906동 202호","indutype":"신변잡화 - 기타잡화","category":"other"},{"name":"미니스톱 수원능실점","tel":"031-1577-9621","addr":"경기도 수원시 권선구 호매실동 1394번지 호매실스위첸 능실마을19단지 상가동","indutype":"유통업 영리 - 편 의 점","category":"other"},{"name":"발해","tel":"","addr":"경기도 수원시 권선구 호매실동 1394번지 호매실스위첸능실마을19단지 1908동 1902호","indutype":"용역 서비스 - 종합용역","category":"other"},{"name":"버스솔루션","tel":"","addr":"경기도 수원시 권선구 호매실동 1394번지 호매실스위첸능실마을19단지 1908동 1402호","indutype":"용역 서비스 - 종합용역","category":"other"},{"name":"엘렌포토그라피(ELLEN Photography)","tel":"031-891-0415","addr":"경기도 수원시 권선구 호매실동 1092 능실마을19단지 1909-305","indutype":"광학제품 - 사진관","category":"other"},{"name":"천지라이프","tel":"031-111-1111","addr":"경기도 수원시 권선구 호매실동 1394번지 호매실스위첸능실마을19단지 1902동 103호","indutype":"용역 서비스 - 가례서비스업","category":"other"},{"name":"하나로세탁소","tel":"031-294-4648","addr":"경기도 수원시 권선구 호매실동 1394번지 호매실스위첸능실마을19단지 상가동 204호","indutype":"수리서비스 - 세탁소","category":"other"}]},{"lat":"37.269046302","long":"126.95890144","imageIndex":17,"items":[{"name":"대영종합상사","tel":"031-296-7682","addr":"경기도 수원시 권선구 호매실동 88-1번지 1층","indutype":"건축자재 - 목재·석재·철물","category":"other"},{"name":"이룸인테리어","tel":"031-227-2382","addr":"경기도 수원시 권선구 호매실동 88-1번지 1층","indutype":"건축자재 - 인테리어전문","category":"other"}]},{"lat":"37.267904401","long":"126.94373857","imageIndex":17,"items":[{"name":"더런드리 수원호매실점","tel":"031-000-0000","addr":"경기도 수원시 권선구 호매실동 1349-2번지","indutype":"수리서비스 - 세탁소","category":"other"}]},{"lat":"37.269343578","long":"126.95873215","imageIndex":17,"items":[{"name":"동성엔지니어링","tel":"031-291-4875","addr":"경기도 수원시 권선구 호매실동 79-8번지","indutype":"건축자재 - 보일러·펌프·샷시","category":"other"}]},{"lat":"37.269156729","long":"126.94353466","imageIndex":17,"items":[{"name":"두배로CCTV","tel":"","addr":"경기도 수원시 권선구 호매실동 1344-15번지 302호","indutype":"전기제품 - 기타전기제품","category":"other"}]},{"lat":"37.256486713","long":"126.96100539","imageIndex":17,"items":[{"name":"디자인 다담","tel":"031-242-0190","addr":"경기도 수원시 권선구 호매실동 1412-1번지","indutype":"건축자재 - 인테리어전문","category":"other"}]},{"lat":"37.262983502","long":"126.94122848","imageIndex":17,"items":[{"name":"뛰어뛰어매트","tel":"031-227-2520","addr":"경기도 수원시 권선구 호매실동 832-1번지 1층","indutype":"신변잡화 - 기타잡화","category":"other"}]},{"lat":"37.268768387","long":"126.94176492","imageIndex":17,"items":[{"name":"라셀르서비스화성중앙점","tel":"031-493-9420","addr":"경기도 수원시 권선구 호매실동 1340번지 휴먼시아7단지 708동 205호","indutype":"수리서비스 - 가정용품수리","category":"other"},{"name":"사운드이벤트","tel":"","addr":"경기도 수원시 권선구 호매실동 1340번지 수원호매실휴먼시아7단지 707동 903호","indutype":"전기제품 - 가전제품","category":"other"}]},{"lat":"37.268679533","long":"126.94423403","imageIndex":17,"items":[{"name":"라움디자인(Raum Design)","tel":"031-292-1134","addr":"경기도 수원시 권선구 호매실동 1345-6번지 1층","indutype":"건축자재 - 기타건축자재","category":"other"}]},{"lat":"37.26768369","long":"126.95367111","imageIndex":17,"items":[{"name":"레오플라워","tel":"031-297-5334","addr":"경기도 수원시 권선구 호매실동 403-10번지","indutype":"문화.취미 - 화원","category":"other"},{"name":"수아스킨앤바디","tel":"031-893-5799","addr":"경기도 수원시 권선구 호매실동 403-10번지 1층","indutype":"회원제형태 - 기타4","category":"other"}]},{"lat":"37.258459409","long":"126.95944868","imageIndex":17,"items":[{"name":"맘에든에어컨","tel":"","addr":"경기도 수원시 권선구 호매실동 1415번지 호매실능실마을22단지 2201호","indutype":"수리서비스 - 기타수리서비스","category":"other"},{"name":"미니스톱 능실마을점","tel":"031-1577-9621","addr":"경기도 수원시 권선구 호매실동 1415번지","indutype":"유통업 영리 - 편 의 점","category":"other"}]},{"lat":"37.25879269","long":"126.95917794","imageIndex":17,"items":[{"name":"모스 앤 솔","tel":"","addr":"경기도 수원시 권선구 호매실동 1393번지 힐스테이트호매실 1807동 104호","indutype":"문화.취미 - 화원","category":"other"},{"name":"씨유호매실스카이점","tel":"080-080-3663","addr":"경기도 수원시 권선구 호매실동 1393번지 힐스테이트호매실 제근린생활시설-2동 1층, 115, 116호","indutype":"유통업 영리 - 편 의 점","category":"other"}]},{"lat":"37.266260149","long":"126.95387496","imageIndex":17,"items":[{"name":"무진건설산업 주식회사","tel":"031-294-2330","addr":"경기도 수원시 권선구 호매실동 443-4번지 3층 301호","indutype":"용역 서비스 - 기타용역서비스","category":"other"}]},{"lat":"37.268539751","long":"126.95387348","imageIndex":17,"items":[{"name":"미니스톱수원호매실점","tel":"031-340-4261","addr":"경기도 수원시 권선구 호매실동 402-15번지 1층","indutype":"유통업 영리 - 편 의 점","category":"other"}]},{"lat":"37.256351503","long":"126.96084765","imageIndex":17,"items":[{"name":"미라코솝(mira.co.soap)","tel":"","addr":"경기도 수원시 권선구 호매실동 1412-6번지 101호","indutype":"문화.취미 - 문화취미기타","category":"other"}]},{"lat":"37.255792912","long":"126.96098323","imageIndex":17,"items":[{"name":"바오","tel":"031-292-0907","addr":"경기도 수원시 권선구 호매실동 1410-9번지 1층","indutype":"직물 - 카페트,커튼,천막,지물","category":"other"}]},{"lat":"37.268621676","long":"126.95592532","imageIndex":17,"items":[{"name":"백마크리닝","tel":"031-293-4447","addr":"경기도 수원시 권선구 호매실동 395-8번지","indutype":"수리서비스 - 세탁소","category":"other"}]},{"lat":"37.267260564","long":"126.95453947","imageIndex":17,"items":[{"name":"법무사김도영사무소","tel":"031-296-0507","addr":"경기도 수원시 권선구 호매실동 404-3번지 3층","indutype":"용역 서비스 - 법률회계서비스(개인)","category":"other"},{"name":"혜성텔레콤","tel":"031-296-8778","addr":"경기도 수원시 권선구 호매실동 404-3번지","indutype":"사무통신 - 통신기기","category":"other"}]},{"lat":"37.255847215","long":"126.9616708","imageIndex":17,"items":[{"name":"삼성정보통신","tel":"031-233-4855","addr":"경기도 수원시 권선구 호매실동 1410-4번지 4층 401호","indutype":"사무통신 - 통신기기","category":"other"}]},{"lat":"37.266990131","long":"126.95423525","imageIndex":17,"items":[{"name":"삼일세탁","tel":"031-291-2962","addr":"경기도 수원시 권선구 호매실동 404-6번지","indutype":"수리서비스 - 세탁소","category":"other"},{"name":"에너텍가스","tel":"031-293-3160","addr":"경기도 수원시 권선구 호매실동 404-6번지 3층","indutype":"수리서비스 - 기타수리서비스","category":"other"}]},{"lat":"37.267233395","long":"126.95420127","imageIndex":17,"items":[{"name":"서수원버스연합회","tel":"031-278-0010","addr":"경기도 수원시 권선구 호매실동 404-4번지 한양빌딩 지층","indutype":"여행 - 관광여행","category":"other"}]},{"lat":"37.268706412","long":"126.9439296","imageIndex":17,"items":[{"name":"서진악기","tel":"031-255-6188","addr":"경기도 수원시 권선구 호매실동 1345-8번지 401호","indutype":"레져용품 - 악기점","category":"other"}]},{"lat":"37.267287819","long":"126.95509188","imageIndex":17,"items":[{"name":"세계로광고","tel":"031-298-3554","addr":"경기도 수원시 권선구 호매실동 406-3번지 1층","indutype":"용역 서비스 - 종합용역","category":"other"},{"name":"호매실재가복지센터","tel":"031-292-2035","addr":"경기도 수원시 권선구 호매실동 406-3번지 2층","indutype":"기타의료기관 - 기타의료기관 및 기타","category":"other"}]},{"lat":"37.268796137","long":"126.94317417","imageIndex":17,"items":[{"name":"세렌비 S&B","tel":"070-8268-0441","addr":"경기도 수원시 권선구 호매실동 1342-4번지 풀하우스 302호","indutype":"신변잡화 - 기타잡화","category":"other"},{"name":"씨유수원금곡점","tel":"031-292-1619","addr":"경기도 수원시 권선구 호매실동 1342-4번지 1층 101호","indutype":"유통업 영리 - 편 의 점","category":"other"},{"name":"플로라정원","tel":"031-297-3797","addr":"경기도 수원시 권선구 호매실동 1342-4번지 102호","indutype":"문화.취미 - 화원","category":"other"}]},{"lat":"37.26026767","long":"126.95236828","imageIndex":17,"items":[{"name":"세븐일레븐수원능실마을점","tel":"031-1577-0711","addr":"경기도 수원시 권선구 호매실동 1388번지 수원호매실휴먼시아15단지 나상가동 106호","indutype":"유통업 영리 - 편 의 점","category":"other"}]},{"lat":"37.266046709","long":"126.96120302","imageIndex":17,"items":[{"name":"쉬즈 (She''s)","tel":"031-000-0000","addr":"경기도 수원시 권선구 호매실동 1375-1번지 골드프라자 A동 1층 107호","indutype":"의류 - 정장","category":"other"},{"name":"에스비모바일","tel":"031-281-1281","addr":"경기도 수원시 권선구 호매실동 1375-1번지 A동 108호","indutype":"사무통신 - 통신기기","category":"other"}]},{"lat":"37.268710446","long":"126.95267832","imageIndex":17,"items":[{"name":"씨유수원호매실점","tel":"031-227-3333","addr":"경기도 수원시 권선구 호매실동 469-21번지","indutype":"유통업 영리 - 편 의 점","category":"other"}]},{"lat":"37.267901172","long":"126.95673749","imageIndex":17,"items":[{"name":"씨유수원호매실행복점","tel":"080-080-3663","addr":"경기도 수원시 권선구 호매실동 392-2번지 B동 3호, 4호, 5호","indutype":"유통업 영리 - 편 의 점","category":"other"}]},{"lat":"37.269595616","long":"126.95806682","imageIndex":17,"items":[{"name":"아름다운보석세상","tel":"031-293-8144","addr":"경기도 수원시 권선구 호매실동 82-6번지 1층","indutype":"신변잡화 - 귀금속","category":"other"}]},{"lat":"37.270347423","long":"126.94626212","imageIndex":17,"items":[{"name":"아이맘","tel":"","addr":"경기도 수원시 권선구 호매실동 1352번지 칠보마을9단지 201호","indutype":"의류 - 정장","category":"other"}]},{"lat":"37.269235205","long":"126.95806703","imageIndex":17,"items":[{"name":"아이엔맘","tel":"031-291-6673","addr":"경기도 수원시 권선구 호매실동 82-19번지","indutype":"의류 - 정장","category":"other"}]},{"lat":"37.269794388","long":"126.95953236","imageIndex":17,"items":[{"name":"아이케이 디자인하우스","tel":"031-292-8509","addr":"경기도 수원시 권선구 호매실동 78-1번지","indutype":"건축자재 - 인테리어전문","category":"other"}]},{"lat":"37.266458658","long":"126.95456253","imageIndex":17,"items":[{"name":"알콩달콩 펫 살롱","tel":"031-227-5220","addr":"경기도 수원시 권선구 호매실동 412-10번지 1층","indutype":"문화.취미 - 애완동물","category":"other"}]},{"lat":"37.269848146","long":"126.95870931","imageIndex":17,"items":[{"name":"알파와오메가호매실점","tel":"031-296-8816","addr":"경기도 수원시 권선구 호매실동 80-20번지","indutype":"신변잡화 - 기타잡화","category":"other"}]},{"lat":"37.267289334","long":"126.95900392","imageIndex":17,"items":[{"name":"엘림샵","tel":"031-297-8467","addr":"경기도 수원시 권선구 호매실동 377번지 호매실GS아파트","indutype":"의류 - 내의판매","category":"other"}]},{"lat":"37.269902454","long":"126.95937446","imageIndex":17,"items":[{"name":"예쁜똥간","tel":"031-296-1335","addr":"경기도 수원시 권선구 호매실동 77-5번지","indutype":"건축자재 - 건축용 요업제품","category":"other"}]},{"lat":"37.268648773","long":"126.95609441","imageIndex":17,"items":[{"name":"웅도인테리어","tel":"031-296-1978","addr":"경기도 수원시 권선구 호매실동 395-7번지","indutype":"직물 - 카페트,커튼,천막,지물","category":"other"}]},{"lat":"37.259514745","long":"126.96264953","imageIndex":17,"items":[{"name":"월드크리닝 수원호매실능실마을점","tel":"031-291-9044","addr":"경기도 수원시 권선구 호매실동 1400번지 104호","indutype":"수리서비스 - 세탁소","category":"other"},{"name":"제이디광고기획","tel":"031-294-1311","addr":"경기도 수원시 권선구 호매실동 1400번지 제이디타워 602호","indutype":"용역 서비스 - 사무서비스","category":"other"}]},{"lat":"37.268207552","long":"126.95681622","imageIndex":17,"items":[{"name":"유니순플라워","tel":"","addr":"경기도 수원시 권선구 호매실동 392-11번지 1층","indutype":"문화.취미 - 화원","category":"other"}]},{"lat":"37.267071541","long":"126.9550131","imageIndex":17,"items":[{"name":"윤 에어컨","tel":"031-111-1111","addr":"경기도 수원시 권선구 호매실동 406-4번지","indutype":"용역 서비스 - 기타용역서비스","category":"other"}]},{"lat":"37.267792894","long":"126.95634297","imageIndex":17,"items":[{"name":"정사진실","tel":"031-296-1171","addr":"경기도 수원시 권선구 호매실동 389-1번지 1층","indutype":"광학제품 - 사진관","category":"other"}]},{"lat":"37.266737284","long":"126.95289383","imageIndex":17,"items":[{"name":"제이앤드엠(J&M)에어컨","tel":"031-111-1111","addr":"경기도 수원시 권선구 호매실동 453-30번지 원영빌라 402호","indutype":"용역 서비스 - 기타용역서비스","category":"other"}]},{"lat":"37.262263029","long":"126.94190546","imageIndex":17,"items":[{"name":"제이제이제이공조","tel":"","addr":"경기도 수원시 권선구 호매실동 918-4번지 1층","indutype":"수리서비스 - 가정용품수리","category":"other"}]},{"lat":"37.268738001","long":"126.95392973","imageIndex":17,"items":[{"name":"조은텔레콤","tel":"031-227-7711","addr":"경기도 수원시 권선구 호매실동 402-1번지","indutype":"사무통신 - 통신기기","category":"other"},{"name":"큰옷 나모","tel":"","addr":"경기도 수원시 권선구 호매실동 402-1번지 1층","indutype":"의류 - 정장","category":"other"}]},{"lat":"37.255738965","long":"126.96131015","imageIndex":17,"items":[{"name":"주식회사 소이정","tel":"070-4473-2814","addr":"경기도 수원시 권선구 호매실동 1410-7번지 양지마을 1층 101호","indutype":"용역 서비스 - 사무서비스","category":"other"}]},{"lat":"37.264517054","long":"126.9676523","imageIndex":17,"items":[{"name":"주연농장","tel":"070-4656-4779","addr":"경기도 수원시 권선구 호매실동 240-1","indutype":"문화.취미 - 화원","category":"other"}]},{"lat":"37.268929093","long":"126.95869857","imageIndex":17,"items":[{"name":"쥬드봉봉(수원점)","tel":"","addr":"경기도 수원시 권선구 호매실동 87-2번지 102호","indutype":"의류 - 아동의류","category":"other"},{"name":"지니드럼","tel":"070-5118-2236","addr":"경기도 수원시 권선구 호매실동 87-2번지 2층","indutype":"용역 서비스 - 사무서비스","category":"other"}]},{"lat":"37.255739076","long":"126.96162577","imageIndex":17,"items":[{"name":"지아이","tel":"031-291-2133","addr":"경기도 수원시 권선구 호매실동 1410-5번지 1층","indutype":"건축자재 - 인테리어전문","category":"other"}]},{"lat":"37.26832363","long":"126.95417802","imageIndex":17,"items":[{"name":"채플린영상제작실","tel":"031-298-0427","addr":"경기도 수원시 권선구 호매실동 402-27번지","indutype":"용역 서비스 - 종합용역","category":"other"}]},{"lat":"37.268485492","long":"126.95340001","imageIndex":17,"items":[{"name":"칠보BYC","tel":"031-295-6021","addr":"경기도 수원시 권선구 호매실동 402-2번지","indutype":"의류 - 내의판매","category":"other"}]},{"lat":"37.270596324","long":"126.95958827","imageIndex":17,"items":[{"name":"칠보꽃농원","tel":"031-295-0545","addr":"경기도 수원시 권선구 호매실동 75-3번지","indutype":"문화.취미 - 화원","category":"other"}]},{"lat":"37.268818617","long":"126.95279099","imageIndex":17,"items":[{"name":"칠보샷시유리","tel":"031-294-5078","addr":"경기도 수원시 권선구 호매실동 469-9번지 지층","indutype":"건축자재 - 유리","category":"other"}]},{"lat":"37.268378682","long":"126.95664701","imageIndex":17,"items":[{"name":"칠보전기조명","tel":"031-292-0177","addr":"경기도 수원시 권선구 호매실동 393-10번지 101호","indutype":"전기제품 - 기타전기제품","category":"other"}]},{"lat":"37.268765282","long":"126.95453851","imageIndex":17,"items":[{"name":"칠보전기철물","tel":"031-295-6027","addr":"경기도 수원시 권선구 호매실동 395-21번지","indutype":"기타 - 기계공구","category":"other"},{"name":"태진인테리어","tel":"031-294-4728","addr":"경기도 수원시 권선구 호매실동 395-21번지 1층","indutype":"건축자재 - 인테리어전문","category":"other"}]},{"lat":"37.265876127","long":"126.96298436","imageIndex":17,"items":[{"name":"칠보푸른농원","tel":"","addr":"경기도 수원시 권선구 호매실동 142번지","indutype":"농업 - 비료,사료,종자","category":"other"}]},{"lat":"37.26787404","long":"126.95647821","imageIndex":17,"items":[{"name":"큐앤아이금곡점","tel":"031-297-1286","addr":"경기도 수원시 권선구 호매실동 390번지 102호","indutype":"의류 - 단체복","category":"other"}]},{"lat":"37.265713281","long":"126.96106792","imageIndex":17,"items":[{"name":"크린토피아수원호매실13단지점","tel":"031-296-4967","addr":"경기도 수원시 권선구 호매실동 1376번지 아트프라자 102호","indutype":"수리서비스 - 세탁소","category":"other"}]},{"lat":"37.266766033","long":"126.95714404","imageIndex":17,"items":[{"name":"크린토피아코인워시 수원호매실진로마트점","tel":"031-278-0082","addr":"경기도 수원시 권선구 호매실동 1368번지","indutype":"수리서비스 - 세탁소","category":"other"},{"name":"헬로벨2호점","tel":"070-7781-2216","addr":"경기도 수원시 권선구 호매실동 1368번지","indutype":"회원제형태 - 기타1","category":"other"}]},{"lat":"37.267872384","long":"126.95243085","imageIndex":17,"items":[{"name":"탑종합설비","tel":"","addr":"경기도 수원시 권선구 호매실동 453-6번지 쌍용아파트","indutype":"용역 서비스 - 기타용역서비스","category":"other"}]},{"lat":"37.266484087","long":"126.9507858","imageIndex":17,"items":[{"name":"태광정보기술","tel":"031-833-3851","addr":"경기도 수원시 권선구 호매실동 678-4번지 형제빌라 3동 404호","indutype":"회원제형태 - 기타4","category":"other"}]},{"lat":"37.260019349","long":"126.96272817","imageIndex":17,"items":[{"name":"퍼드림샵(For Dream #)","tel":"031-294-0101","addr":"경기도 수원시 권선구 호매실동 1395-3번지 1층 7호","indutype":"사무통신 - 통신기기","category":"other"}]},{"lat":"37.268539807","long":"126.95400877","imageIndex":17,"items":[{"name":"풀잎문화센터 서수원지부","tel":"031-292-5579","addr":"경기도 수원시 권선구 호매실동 402-16번지","indutype":"문화.취미 - 문화취미기타","category":"other"}]},{"lat":"37.26951443","long":"126.95781884","imageIndex":17,"items":[{"name":"프로헤어네일2","tel":"031-296-2506","addr":"경기도 수원시 권선구 호매실동 82-10번지 한우리빌딩 102호","indutype":"신변잡화 - 액세서리","category":"other"},{"name":"허그매트 화성점","tel":"","addr":"경기도 수원시 권선구 호매실동 82-10번지 한우리빌딩 3동 301층","indutype":"신변잡화 - 기타잡화","category":"other"}]},{"lat":"37.269291883","long":"126.94353455","imageIndex":17,"items":[{"name":"필,꽃","tel":"031-296-0211","addr":"경기도 수원시 권선구 호매실동 1344번지 1층","indutype":"문화.취미 - 화원","category":"other"}]},{"lat":"37.266233006","long":"126.95360441","imageIndex":17,"items":[{"name":"하늘창커텐블라인드","tel":"031-291-4686","addr":"경기도 수원시 권선구 호매실동 688-18번지 명원빌라 12동 101호","indutype":"직물 - 카페트,커튼,천막,지물","category":"other"}]},{"lat":"37.270127599","long":"126.95906992","imageIndex":17,"items":[{"name":"형제철물","tel":"031-295-4026","addr":"경기도 수원시 권선구 호매실동 79-1번지","indutype":"기타 - 기계공구","category":"other"}]},{"lat":"37.266180312","long":"126.95700911","imageIndex":17,"items":[{"name":"호매실동 주민자치위원회","tel":"031-228-6753","addr":"경기도 수원시 권선구 호매실동 1367번지","indutype":"문화.취미 - 문화취미기타","category":"other"}]},{"lat":"37.263071609","long":"126.95661643","imageIndex":17,"items":[{"name":"호매실장애인종합복지관","tel":"031-893-2162","addr":"경기도 수원시 권선구 호매실동 1385번지","indutype":"기타의료기관 - 기타의료기관 및 기타","category":"other"}]},{"lat":"37.269183862","long":"126.94373757","imageIndex":17,"items":[{"name":"화월","tel":"031-278-3690","addr":"경기도 수원시 권선구 호매실동 1344-8번지 1층","indutype":"문화.취미 - 화원","category":"other"}]},{"lat":"37.26712558","long":"126.95495669","imageIndex":17,"items":[{"name":"희경빌딩","tel":"031-893-0202","addr":"경기도 수원시 권선구 호매실동 405-7","indutype":"회원제형태 - 레져업소","category":"other"}]}]