[{"lat":"37.679300352","long":"127.30013313","imageIndex":17,"items":[{"name":"(주)산야축산임업","tel":"031-510-4935","addr":"경기도 남양주시 화도읍 가곡리 598번지 신마석신도브래뉴 상가동 104호","indutype":"전기제품 - 냉열기기","category":"other"}]},{"lat":"37.683528202","long":"127.30276875","imageIndex":17,"items":[{"name":"(주)에이케이크리스탈","tel":"02-2244-8200","addr":"경기도 남양주시 화도읍 가곡리 283-48번지 조일리더스빌 204동 401호","indutype":"유통업 영리 - 기타유통업","category":"other"}]},{"lat":"37.685215625","long":"127.30526964","imageIndex":17,"items":[{"name":"(주)우이산업","tel":"031-594-2507","addr":"경기도 남양주시 화도읍 가곡리 286-6번지","indutype":"기타 - 기타 전문점","category":"other"}]},{"lat":"37.679101856","long":"127.3002457","imageIndex":17,"items":[{"name":"(주)제이지상사","tel":"02-516-3221","addr":"경기도 남양주시 화도읍 가곡리 598번지 신마석신도브래뉴 103동 404호","indutype":"유통업 영리 - 기타유통업","category":"other"}]},{"lat":"37.680749193","long":"127.30435596","imageIndex":17,"items":[{"name":"DH정수기","tel":"031-595-3897","addr":"경기도 남양주시 화도읍 가곡리 163-41번지 동성빌라 106동 403호","indutype":"주방용구 - 정수기","category":"other"}]},{"lat":"37.684938889","long":"127.30777394","imageIndex":17,"items":[{"name":"GS25남양주가곡점","tel":"02-2006-2118","addr":"경기도 남양주시 화도읍 가곡리 279-2","indutype":"유통업 영리 - 편 의 점","category":"other"}]},{"lat":"37.686219242","long":"127.30033079","imageIndex":17,"items":[{"name":"가온 네트워크","tel":"031-593-4999","addr":"경기도 남양주시 화도읍 가곡리 265-2번지 B동","indutype":"사무통신 - 기타 사무용품","category":"other"}]},{"lat":"37.686693523","long":"127.31551299","imageIndex":17,"items":[{"name":"거명금속","tel":"031-595-1720","addr":"경기도 남양주시 화도읍 가곡리 25-1번지","indutype":"신변잡화 - 기타잡화","category":"other"}]},{"lat":"37.681776308","long":"127.30434878","imageIndex":17,"items":[{"name":"금나무","tel":"031-595-2738","addr":"경기도 남양주시 화도읍 가곡리 275-12번지 마동 1호 (88주택)","indutype":"의류 - 정장","category":"other"}]},{"lat":"37.682112784","long":"127.30312581","imageIndex":17,"items":[{"name":"금산유리건업","tel":"031-593-8090","addr":"경기도 남양주시 화도읍 가곡리 273-1번지","indutype":"건축자재 - 유리","category":"other"}]},{"lat":"37.686742052","long":"127.30729383","imageIndex":17,"items":[{"name":"까미리빙","tel":"031-511-2492","addr":"경기도 남양주시 화도읍 가곡리 114번지 세진빌라 가동 301호","indutype":"가구 - 기타가구","category":"other"}]},{"lat":"37.6870277","long":"127.30482351","imageIndex":17,"items":[{"name":"내추럴펫","tel":"070-4252-8379","addr":"경기도 남양주시 화도읍 가곡리 296-2번지 1층","indutype":"문화.취미 - 애완동물","category":"other"}]},{"lat":"37.688053943","long":"127.30515645","imageIndex":17,"items":[{"name":"다나맘 홈케어","tel":"031-511-0767","addr":"경기도 남양주시 화도읍 가곡리 304-1번지","indutype":"회원제형태 - 기타1","category":"other"}]},{"lat":"37.690832644","long":"127.28921562","imageIndex":17,"items":[{"name":"대한불교조계종 보광사","tel":"031-594-1316","addr":"경기도 남양주시 화도읍 가곡리 419번지","indutype":"기타 - 비영리/대상","category":"other"}]},{"lat":"37.681383409","long":"127.29940459","imageIndex":17,"items":[{"name":"더블유 라그라스","tel":"","addr":"경기도 남양주시 화도읍 가곡리 167-47번지 에디스빌 201동 201호","indutype":"용역 서비스 - 혼례서비스","category":"other"}]},{"lat":"37.684465807","long":"127.29896339","imageIndex":17,"items":[{"name":"더푸른가구","tel":"031-559-5976","addr":"경기도 남양주시 화도읍 가곡리 247-25번지","indutype":"가구 - 일반가구","category":"other"},{"name":"푸른숲가구","tel":"031-8083-6921","addr":"경기도 남양주시 화도읍 가곡리 247-25","indutype":"가구 - 일반가구","category":"other"}]},{"lat":"37.688662266","long":"127.31715383","imageIndex":17,"items":[{"name":"도농톱초경","tel":"031-595-7848","addr":"경기도 남양주시 화도읍 가곡리 47-4번지","indutype":"기타 - 기계공구","category":"other"}]},{"lat":"37.68346676","long":"127.30565932","imageIndex":17,"items":[{"name":"동양산업","tel":"031-595-3717","addr":"경기도 남양주시 화도읍 가곡리 279-26번지 동양산업","indutype":"기타 - 기타 전문점","category":"other"}]},{"lat":"37.687108607","long":"127.30135469","imageIndex":17,"items":[{"name":"동침","tel":"","addr":"경기도 남양주시 화도읍 가곡리 258-45번지","indutype":"가구 - 일반가구","category":"other"}]},{"lat":"37.68485735","long":"127.31141271","imageIndex":17,"items":[{"name":"디와이플로우테크 (주)","tel":"031-594-4748","addr":"경기도 남양주시 화도읍 가곡리 135번지","indutype":"기타 - 기계공구","category":"other"}]},{"lat":"37.68691487","long":"127.30665966","imageIndex":17,"items":[{"name":"디자인","tel":"031-595-1242","addr":"경기도 남양주시 화도읍 가곡리 292","indutype":"가구 - 기타가구","category":"other"}]},{"lat":"37.685606033","long":"127.30760662","imageIndex":17,"items":[{"name":"디자인해밀","tel":"031-511-7712","addr":"경기도 남양주시 화도읍 가곡리 284-28번지","indutype":"가구 - 일반가구","category":"other"},{"name":"주식회사에이팀파트너","tel":"031-591-0141","addr":"경기도 남양주시 화도읍 가곡리 284-28번지","indutype":"신변잡화 - 기타잡화","category":"other"}]},{"lat":"37.680915796","long":"127.2990513","imageIndex":17,"items":[{"name":"레인보우드","tel":"031-593-1055","addr":"경기도 남양주시 화도읍 가곡리 206-6 304-101","indutype":"문화.취미 - 문화취미기타","category":"other"}]},{"lat":"37.686244339","long":"127.31502362","imageIndex":17,"items":[{"name":"렌탈꾼","tel":"031-595-2613","addr":"경기도 남양주시 화도읍 가곡리 24번지 주 2동","indutype":"가구 - 일반가구","category":"other"},{"name":"빌려드림","tel":"070-8223-1003","addr":"경기도 남양주시 화도읍 가곡리 24번지 주 3동","indutype":"가구 - 일반가구","category":"other"}]},{"lat":"37.685772779","long":"127.30931918","imageIndex":17,"items":[{"name":"만물사","tel":"031-511-9163","addr":"경기도 남양주시 화도읍 가곡리 122-1번지","indutype":"가구 - 일반가구","category":"other"}]},{"lat":"37.686331671","long":"127.30571631","imageIndex":17,"items":[{"name":"명민라이팅","tel":"031-594-8799","addr":"경기도 남양주시 화도읍 가곡리 291-9번지","indutype":"기타 - 기계공구","category":"other"}]},{"lat":"37.68032956","long":"127.3028579","imageIndex":17,"items":[{"name":"명성정보","tel":"031-559-7779","addr":"경기도 남양주시 화도읍 가곡리 168-9번지","indutype":"사무통신 - 통신기기","category":"other"}]},{"lat":"37.677943872","long":"127.29855206","imageIndex":17,"items":[{"name":"명향미술원","tel":"031-513-0815","addr":"경기도 남양주시 화도읍 가곡리 200번지","indutype":"문화.취미 - 화랑","category":"other"}]},{"lat":"37.68093932","long":"127.30399397","imageIndex":17,"items":[{"name":"모든복권","tel":"031-594-1426","addr":"경기도 남양주시 화도읍 가곡리 163-7번지 가곡상가 1층 6호","indutype":"기타 - 기타 전문점","category":"other"},{"name":"예닮나이스홈케어","tel":"031-594-1206","addr":"경기도 남양주시 화도읍 가곡리 163-7번지 1층 101호","indutype":"직물 - 카페트,커튼,천막,지물","category":"other"}]},{"lat":"37.684194053","long":"127.30662589","imageIndex":17,"items":[{"name":"무브원 스포츠&커피","tel":"031-593-3012","addr":"경기도 남양주시 화도읍 가곡리 279-15번지","indutype":"레져용품 - 스포츠·레져용품","category":"other"},{"name":"컴&프 컴퓨터와 프린트","tel":"070-8827-4254","addr":"경기도 남양주시 화도읍 가곡리 279-15번지","indutype":"사무통신 - 컴퓨터","category":"other"}]},{"lat":"37.681189616","long":"127.30476584","imageIndex":17,"items":[{"name":"벨리나(bellina)","tel":"031-559-6549","addr":"경기도 남양주시 화도읍 가곡리 163-11번지","indutype":"의류 - 정장","category":"other"}]},{"lat":"37.681668831","long":"127.30409894","imageIndex":17,"items":[{"name":"병은맘스 천연비누","tel":"031-528-6263","addr":"경기도 남양주시 화도읍 가곡리 274번지 1층","indutype":"신변잡화 - 기타잡화","category":"other"}]},{"lat":"37.682084889","long":"127.30346579","imageIndex":17,"items":[{"name":"비룡상사","tel":"070-8264-7821","addr":"경기도 남양주시 화도읍 가곡리 273-36번지 이스턴빌 103동 101호","indutype":"의류 - 기타의류","category":"other"}]},{"lat":"37.683696698","long":"127.30382373","imageIndex":17,"items":[{"name":"삐에노","tel":"","addr":"경기도 남양주시 화도읍 가곡리 281-47번지","indutype":"가구 - 일반가구","category":"other"}]},{"lat":"37.681022029","long":"127.29979992","imageIndex":17,"items":[{"name":"샤인케어","tel":"","addr":"경기도 남양주시 화도읍 가곡리 167-57번지 에디스빌 102동 402호","indutype":"용역 서비스 - 종합용역","category":"other"}]},{"lat":"37.683663447","long":"127.29916426","imageIndex":17,"items":[{"name":"서원조명","tel":"031-593-2485","addr":"경기도 남양주시 화도읍 가곡리 232-36번지","indutype":"건축자재 - 조명기구","category":"other"}]},{"lat":"37.687661737","long":"127.31392985","imageIndex":17,"items":[{"name":"수동전기","tel":"031-594-7752","addr":"경기도 남양주시 화도읍 가곡리 41-5번지","indutype":"전기제품 - 기타전기제품","category":"other"}]},{"lat":"37.684802427","long":"127.30124341","imageIndex":17,"items":[{"name":"스카이무역","tel":"070-8612-9729","addr":"경기도 남양주시 화도읍 가곡리 247-21번지 양지마을 508동 104호","indutype":"서적문구 - 완구점","category":"other"}]},{"lat":"37.689189976","long":"127.31179346","imageIndex":17,"items":[{"name":"승우냉동","tel":"031-591-0257","addr":"경기도 남양주시 화도읍 가곡리 91-1번지","indutype":"용역 서비스 - 기타용역서비스","category":"other"}]},{"lat":"37.68235735","long":"127.2990457","imageIndex":17,"items":[{"name":"씨씨25(CC25)","tel":"031-592-5949","addr":"경기도 남양주시 화도읍 가곡리 239-1번지 산장빌라 101호","indutype":"유통업 영리 - 편 의 점","category":"other"}]},{"lat":"37.681661788","long":"127.30332805","imageIndex":17,"items":[{"name":"씨유가곡중앙2호점","tel":"02-1577-8007","addr":"경기도 남양주시 화도읍 가곡리 273-35번지 103호","indutype":"유통업 영리 - 편 의 점","category":"other"}]},{"lat":"37.681165773","long":"127.30351876","imageIndex":17,"items":[{"name":"씨유가곡중앙점","tel":"031-559-8714","addr":"경기도 남양주시 화도읍 가곡리 273-13번지 102호 101호,102호","indutype":"유통업 영리 - 편 의 점","category":"other"}]},{"lat":"37.680779633","long":"127.30301841","imageIndex":17,"items":[{"name":"씨유가곡행복점","tel":"02-1577-8007","addr":"경기도 남양주시 화도읍 가곡리 167-5번지 1층 1,2호","indutype":"유통업 영리 - 편 의 점","category":"other"},{"name":"크린토피아남양주가곡점","tel":"031-511-1089","addr":"경기도 남양주시 화도읍 가곡리 167-5번지","indutype":"수리서비스 - 세탁소","category":"other"}]},{"lat":"37.68936136","long":"127.30121633","imageIndex":17,"items":[{"name":"아이러브핏주식회사","tel":"070-4671-3305","addr":"경기도 남양주시 화도읍 가곡리 258-5번지","indutype":"레져용품 - 스포츠·레져용품","category":"other"}]},{"lat":"37.686083382","long":"127.30416214","imageIndex":17,"items":[{"name":"아쿠아 빈(Aqua Bin)","tel":"","addr":"경기도 남양주시 화도읍 가곡리 284-108번지 303동 101호","indutype":"수리서비스 - 가정용품수리","category":"other"}]},{"lat":"37.680275936","long":"127.30268764","imageIndex":17,"items":[{"name":"알파화도점","tel":"031-563-4953","addr":"경기도 남양주시 화도읍 가곡리 169-11번지","indutype":"서적문구 - 문구용품","category":"other"}]},{"lat":"37.686416119","long":"127.3147976","imageIndex":17,"items":[{"name":"에스원가구","tel":"070-8223-1003","addr":"경기도 남양주시 화도읍 가곡리 23-59번지 외2필지","indutype":"가구 - 일반가구","category":"other"}]},{"lat":"37.688024959","long":"127.319634","imageIndex":17,"items":[{"name":"에이스레이져","tel":"031-591-2944","addr":"경기도 남양주시 화도읍 가곡리 16-7","indutype":"건축자재 - 기타건축자재","category":"other"}]},{"lat":"37.680079207","long":"127.30563422","imageIndex":17,"items":[{"name":"엠디피(MDP)","tel":"02-756-7975","addr":"경기도 남양주시 화도읍 가곡리 158-4번지 외 1필지","indutype":"전기제품 - 가전제품","category":"other"},{"name":"유성금속","tel":"031-511-2378","addr":"경기도 남양주시 화도읍 가곡리 158-4번지","indutype":"건축자재 - 목재·석재·철물","category":"other"}]},{"lat":"37.6795622","long":"127.29990746","imageIndex":17,"items":[{"name":"예지아이(yejieye)","tel":"070-4624-3339","addr":"경기도 남양주시 화도읍 가곡리 598번지 신마석신도브래뉴 107동 801호","indutype":"회원제형태 - 기타1","category":"other"}]},{"lat":"37.68483272","long":"127.31049433","imageIndex":17,"items":[{"name":"올라","tel":"","addr":"경기도 남양주시 화도읍 가곡리 135-14번지 킹덤빌리지 B동 301호","indutype":"문화.취미 - 민예·공예품","category":"other"}]},{"lat":"37.687604505","long":"127.31513135","imageIndex":17,"items":[{"name":"우리생활건강","tel":"031-595-3485","addr":"경기도 남양주시 화도읍 가곡리 20번지","indutype":"신변잡화 - 기타잡화","category":"other"}]},{"lat":"37.682716135","long":"127.29968197","imageIndex":17,"items":[{"name":"월문정화조보수조합","tel":"031-576-9733","addr":"경기도 남양주시 화도읍 가곡리 240-16번지 꿈의마을 101동 101호","indutype":"용역 서비스 - 기타용역서비스","category":"other"}]},{"lat":"37.686473575","long":"127.3100703","imageIndex":17,"items":[{"name":"유진조경","tel":"031-592-4108","addr":"경기도 남양주시 화도읍 가곡리 100-5번지 1층 3호","indutype":"건축자재 - 인테리어전문","category":"other"},{"name":"현대상사","tel":"031-593-7773","addr":"경기도 남양주시 화도읍 가곡리 100-5번지 나동 4호","indutype":"건축자재 - 페인트","category":"other"}]},{"lat":"37.688528211","long":"127.31674512","imageIndex":17,"items":[{"name":"이레 환풍기 닥트자재 총판","tel":"031-591-6336","addr":"경기도 남양주시 화도읍 가곡리 47-5번지 1층","indutype":"건축자재 - 보일러·펌프·샷시","category":"other"}]},{"lat":"37.683723892","long":"127.30727016","imageIndex":17,"items":[{"name":"이마트24 남양주화도점","tel":"031-1111-1111","addr":"경기도 남양주시 화도읍 가곡리 138-7번지 1층","indutype":"유통업 영리 - 편 의 점","category":"other"},{"name":"이마트24 남양주화도점","tel":"","addr":"경기도 남양주시 화도읍 가곡리 138-7번지","indutype":"유통업 영리 - 편 의 점","category":"other"}]},{"lat":"37.680940768","long":"127.30694138","imageIndex":17,"items":[{"name":"이세상사","tel":"031-2215-9363","addr":"경기도 남양주시 화도읍 가곡리 149-7번지","indutype":"신변잡화 - 기타잡화","category":"other"}]},{"lat":"37.685824777","long":"127.30663254","imageIndex":17,"items":[{"name":"이지글라스","tel":"031-000-0000","addr":"경기도 남양주시 화도읍 가곡리 284-34번지 목화빌리지 나동 302호","indutype":"용역 서비스 - 기타용역서비스","category":"other"}]},{"lat":"37.67947175","long":"127.30360262","imageIndex":17,"items":[{"name":"일광전기","tel":"031-595-3432","addr":"경기도 남양주시 화도읍 가곡리 170-1번지","indutype":"건축자재 - 기타건축자재","category":"other"},{"name":"진일종합공구","tel":"031-594-0972","addr":"경기도 남양주시 화도읍 가곡리 170-1번지","indutype":"기타 - 기계공구","category":"other"}]},{"lat":"37.688385174","long":"127.31632504","imageIndex":17,"items":[{"name":"장미종합인테리어","tel":"031-593-7772","addr":"경기도 남양주시 화도읍 가곡리 46-3번지","indutype":"건축자재 - 인테리어전문","category":"other"}]},{"lat":"37.67757813","long":"127.30068171","imageIndex":17,"items":[{"name":"장유도예(목공예)","tel":"031-595-7180","addr":"경기도 남양주시 화도읍 가곡리 산103-1번지","indutype":"문화.취미 - 민예·공예품","category":"other"}]},{"lat":"37.688001313","long":"127.31498563","imageIndex":17,"items":[{"name":"전통가구","tel":"031-593-8360","addr":"경기도 남양주시 화도읍 가곡리 43-4번지","indutype":"가구 - 일반가구","category":"other"}]},{"lat":"37.686053663","long":"127.30870814","imageIndex":17,"items":[{"name":"조양종합공사","tel":"031-594-8563","addr":"경기도 남양주시 화도읍 가곡리 116-3","indutype":"건축자재 - 기타건축자재","category":"other"}]},{"lat":"37.684638705","long":"127.30185494","imageIndex":17,"items":[{"name":"주식회사 맥","tel":"031-591-2818","addr":"경기도 남양주시 화도읍 가곡리 247-14번지","indutype":"가구 - 일반가구","category":"other"}]},{"lat":"37.686882759","long":"127.31888089","imageIndex":17,"items":[{"name":"주식회사 세븐스타보일러","tel":"02-575-6602","addr":"경기도 남양주시 화도읍 가곡리 16-19번지","indutype":"전기제품 - 냉열기기","category":"other"}]},{"lat":"37.689806771","long":"127.30321351","imageIndex":17,"items":[{"name":"주식회사 시더텍","tel":"031-000-0000","addr":"경기도 남양주시 화도읍 가곡리 317-3번지","indutype":"건축자재 - 목재·석재·철물","category":"other"}]},{"lat":"37.688800308","long":"127.30571501","imageIndex":17,"items":[{"name":"주식회사에너포스","tel":"02-483-8100","addr":"경기도 남양주시 화도읍 가곡리 327-16","indutype":"전기제품 - 기타전기제품","category":"other"}]},{"lat":"37.686524799","long":"127.30768974","imageIndex":17,"items":[{"name":"주식회사태산","tel":"031-592-0707","addr":"경기도 남양주시 화도읍 가곡리 116-6번지","indutype":"용역 서비스 - 기타용역서비스","category":"other"}]},{"lat":"37.6905789","long":"127.30427103","imageIndex":17,"items":[{"name":"참조은요양원","tel":"031-559-0510","addr":"경기도 남양주시 화도읍 가곡리 319-10번지","indutype":"기타의료기관 - 기타의료기관 및 기타","category":"other"}]},{"lat":"37.681195282","long":"127.30254397","imageIndex":17,"items":[{"name":"최가네 옹기","tel":"070-7594-9293","addr":"경기도 남양주시 화도읍 가곡리 167-6번지","indutype":"문화.취미 - 화랑","category":"other"}]},{"lat":"37.681447117","long":"127.30271502","imageIndex":17,"items":[{"name":"태호산업","tel":"031-594-6308","addr":"경기도 남양주시 화도읍 가곡리 167-42번지","indutype":"기타 - 기계공구","category":"other"}]},{"lat":"37.692993717","long":"127.3076822","imageIndex":17,"items":[{"name":"티머스","tel":"031-524-9721","addr":"경기도 남양주시 화도읍 가곡리 58번지 대농산업전기 가동","indutype":"가구 - 기타가구","category":"other"}]},{"lat":"37.688751394","long":"127.317517","imageIndex":17,"items":[{"name":"펜트리","tel":"031-592-9905","addr":"경기도 남양주시 화도읍 가곡리 8-3번지 G동 1층","indutype":"의류 - 정장","category":"other"}]},{"lat":"37.681135721","long":"127.30116071","imageIndex":17,"items":[{"name":"한미퍼니처","tel":"02-2282-4795","addr":"경기도 남양주시 화도읍 가곡리 167-12번지","indutype":"가구 - 일반가구","category":"other"}]},{"lat":"37.688057529","long":"127.3072652","imageIndex":17,"items":[{"name":"한성","tel":"031-595-8006","addr":"경기도 남양주시 화도읍 가곡리 112-12번지","indutype":"건축자재 - 기타건축자재","category":"other"}]},{"lat":"37.691357407","long":"127.30634899","imageIndex":17,"items":[{"name":"한원물산 주식회사","tel":"031-591-8811","addr":"경기도 남양주시 화도읍 가곡리 60-4번지 2층","indutype":"직물 - 옷감·직물","category":"other"}]},{"lat":"37.68060874","long":"127.30290436","imageIndex":17,"items":[{"name":"현대세탁소","tel":"031-594-2526","addr":"경기도 남양주시 화도읍 가곡리 168-3번지","indutype":"수리서비스 - 세탁소","category":"other"}]},{"lat":"37.687691154","long":"127.313023","imageIndex":17,"items":[{"name":"현대편의점","tel":"031-595-5079","addr":"경기도 남양주시 화도읍 가곡리 41-3번지","indutype":"유통업 영리 - 편 의 점","category":"other"}]},{"lat":"37.687806726","long":"127.31701417","imageIndex":17,"items":[{"name":"현비취","tel":"031-511-6394","addr":"경기도 남양주시 화도읍 가곡리 16-22번지","indutype":"전기제품 - 기타전기제품","category":"other"}]},{"lat":"37.681747423","long":"127.30507418","imageIndex":17,"items":[{"name":"홍군스포츠","tel":"031-1877-9682","addr":"경기도 남양주시 화도읍 가곡리 163-32번지","indutype":"레져용품 - 스포츠·레져용품","category":"other"}]},{"lat":"37.681808074","long":"127.30248975","imageIndex":17,"items":[{"name":"화평 아이앤씨 (I&C)","tel":"070-7755-7335","addr":"경기도 남양주시 화도읍 가곡리 167-73번지 예당에스클래스 106동 301호","indutype":"건축자재 - 인테리어전문","category":"other"}]}]