[{"lat":"37.349462233","long":"127.75301244","imageIndex":17,"items":[{"name":"The Road","tel":"031-886-1915","addr":"경기도 여주시 강천면 도전리 산98번지","indutype":"서적문구 - 출판 및 인쇄물","category":"other"}]},{"lat":"37.313908015","long":"127.7431269","imageIndex":17,"items":[{"name":"대한불교조계종백화사","tel":"031-886-0436","addr":"경기도 여주시 강천면 도전리 1165-4번지","indutype":"회원제형태 - 기타4","category":"other"}]},{"lat":"37.346353742","long":"127.73431535","imageIndex":17,"items":[{"name":"라파엘직업재활센터","tel":"031-886-4840","addr":"경기도 여주시 강천면 도전리 535번지","indutype":"문화.취미 - 민예·공예품","category":"other"}]},{"lat":"37.350349301","long":"127.74234465","imageIndex":17,"items":[{"name":"이양재도예공방","tel":"031-885-7554","addr":"경기도 여주시 강천면 도전리 549-1번지","indutype":"문화.취미 - 민예·공예품","category":"other"}]},{"lat":"37.321082301","long":"127.74706688","imageIndex":17,"items":[{"name":"집짓는사람들","tel":"031-885-8047","addr":"경기도 여주시 강천면 도전리 1019번지 18","indutype":"용역 서비스 - 기타용역서비스","category":"other"}]},{"lat":"37.314468938","long":"127.74131621","imageIndex":17,"items":[{"name":"해인사","tel":"031-886-5550","addr":"경기도 여주시 강천면 도전리 1165-4번지","indutype":"회원제형태 - 기타4","category":"other"}]},{"lat":"37.36254739","long":"127.72948324","imageIndex":17,"items":[{"name":"황금골짜기","tel":"02-938-0056","addr":"경기도 여주시 강천면 도전리 108-1번지","indutype":"의류 - 정장","category":"other"}]},{"lat":"37.316157874","long":"127.74498776","imageIndex":4,"items":[{"name":"그곳에 가면","tel":"031-883-9767","addr":"경기도 여주시 강천면 도전리 1025번지","indutype":"일반휴게음식 - 일반한식","category":"restaurant"},{"name":"풍경","tel":"031-883-7865","addr":"경기도 여주시 강천면 도전리 1025번지","indutype":"일반휴게음식 - 일반한식","category":"restaurant"}]},{"lat":"37.312438664","long":"127.74468047","imageIndex":4,"items":[{"name":"대림관광농원","tel":"031-885-9939","addr":"경기도 여주시 강천면 도전리 1155번지","indutype":"일반휴게음식 - 일반한식","category":"restaurant"}]},{"lat":"37.303194803","long":"127.76587315","imageIndex":4,"items":[{"name":"대추나무집","tel":"031-731-4934","addr":"경기도 여주시 강천면 도전리 1264-1번지","indutype":"일반휴게음식 - 일반한식","category":"restaurant"}]},{"lat":"37.334493849","long":"127.74918509","imageIndex":4,"items":[{"name":"도전리식당","tel":"031-886-7593","addr":"경기도 여주시 강천면 도전리 759번지","indutype":"일반휴게음식 - 일반한식","category":"restaurant"}]},{"lat":"37.326103822","long":"127.7465974","imageIndex":4,"items":[{"name":"동가","tel":"031-886-3558","addr":"경기도 여주시 강천면 도전리 899번지","indutype":"일반휴게음식 - 일반한식","category":"restaurant"}]},{"lat":"37.320469159","long":"127.75710145","imageIndex":4,"items":[{"name":"먹골집","tel":"031-886-6547","addr":"경기도 여주시 강천면 도전리 953-3번지","indutype":"일반휴게음식 - 일반한식","category":"restaurant"}]},{"lat":"37.302970645","long":"127.76710029","imageIndex":4,"items":[{"name":"밤산골송어횟집","tel":"033-731-7615","addr":"경기도 여주시 강천면 도전리 1249번지","indutype":"일반휴게음식 - 일반한식","category":"restaurant"}]},{"lat":"37.319804804","long":"127.74676096","imageIndex":4,"items":[{"name":"산골짜기","tel":"031-885-1012","addr":"경기도 여주시 강천면 도전리 1016번지","indutype":"일반휴게음식 - 일반한식","category":"restaurant"}]},{"lat":"37.345127018","long":"127.74896304","imageIndex":4,"items":[{"name":"산바라봄","tel":"031-883-1245","addr":"경기도 여주시 강천면 도전리 655-1번지","indutype":"일반휴게음식 - 서양음식","category":"restaurant"}]},{"lat":"37.309639158","long":"127.74138177","imageIndex":4,"items":[{"name":"장수흑염소","tel":"031-886-9352","addr":"경기도 여주시 강천면 도전리 1181번지","indutype":"일반휴게음식 - 일반한식","category":"restaurant"}]},{"lat":"37.357291376","long":"127.73293157","imageIndex":4,"items":[{"name":"청산백수","tel":"031-885-3149","addr":"경기도 여주시 강천면 도전리 250번지","indutype":"일반휴게음식 - 일반한식","category":"restaurant"}]},{"lat":"37.342742941","long":"127.75267476","imageIndex":4,"items":[{"name":"칠칠팔이오(77825)","tel":"","addr":"경기도 여주시 강천면 도전리 680-9번지 1층","indutype":"일반휴게음식 - 서양음식","category":"restaurant"}]},{"lat":"37.324386067","long":"127.74609534","imageIndex":0,"items":[{"name":"도전타이어","tel":"031-885-1393","addr":"경기도 여주시 강천면 도전리 889-4번지","indutype":"자동차정비 유지 - 자동차시트·타이어","category":"car"}]},{"lat":"37.320387297","long":"127.74726309","imageIndex":7,"items":[{"name":"또래울협동조합","tel":"031-885-1020","addr":"경기도 여주시 강천면 도전리 1010번지","indutype":"음료식품 - 기타음료식품","category":"food"}]},{"lat":"37.332823431","long":"127.74832231","imageIndex":7,"items":[{"name":"미성상회 1970","tel":"","addr":"경기도 여주시 강천면 도전리 822-18번지 1호","indutype":"음료식품 - 농·축·수산품","category":"food"}]},{"lat":"37.346043724","long":"127.74789999","imageIndex":7,"items":[{"name":"새마을부녀회구판장","tel":"031-885-9693","addr":"경기도 여주시 강천면 도전리 651번지","indutype":"음료식품 - 기타음료식품","category":"food"}]},{"lat":"37.334493849","long":"127.74918509","imageIndex":7,"items":[{"name":"성두농원","tel":"031-885-0408","addr":"경기도 여주시 강천면 도전리 759번지","indutype":"음료식품 - 농·축·수산품","category":"food"}]},{"lat":"37.355659002","long":"127.74906726","imageIndex":7,"items":[{"name":"울한식메주","tel":"031-886-4801","addr":"경기도 여주시 강천면 도전리 330-8번지","indutype":"음료식품 - 기타음료식품","category":"food"}]}]