[{"lat":"37.658140283","long":"127.12631813","imageIndex":4,"items":[{"name":"(주)반갑다연어야","tel":"031-523-9590","addr":"경기도 남양주시 별내동 949번지","indutype":"일반휴게음식 - 일식·회집","category":"restaurant"},{"name":"60계치킨별내점","tel":"031-574-8260","addr":"경기도 남양주시 별내동 949번지 1층 101호","indutype":"일반휴게음식 - 스넥","category":"restaurant"},{"name":"가마치통닭별내점","tel":"031-529-2202","addr":"경기도 남양주시 별내동 949번지 1층 일부","indutype":"일반휴게음식 - 스넥","category":"restaurant"}]},{"lat":"37.656164046","long":"127.1292613","imageIndex":4,"items":[{"name":"(주)백년가별내점","tel":"031-527-3844","addr":"경기도 남양주시 별내동 968번지 103,104 ,105호","indutype":"일반휴게음식 - 중국식","category":"restaurant"},{"name":"바닐라루시 (코드지)","tel":"02-1111-1111","addr":"경기도 남양주시 별내동 968번지 1층 109호","indutype":"일반휴게음식 - 서양음식","category":"restaurant"},{"name":"주식회사 복사꽃피는집","tel":"031-575-7973","addr":"경기도 남양주시 별내동 968번지 101호","indutype":"일반휴게음식 - 일반한식","category":"restaurant"}]},{"lat":"37.65758166","long":"127.12633988","imageIndex":4,"items":[{"name":"(주)에이치투엠 쿠마키친 별내직영점","tel":"031-529-0630","addr":"경기도 남양주시 별내동 943번지","indutype":"일반휴게음식 - 일반한식","category":"restaurant"}]},{"lat":"37.655716444","long":"127.12654077","imageIndex":4,"items":[{"name":"1000냥 노가리","tel":"","addr":"경기도 남양주시 별내동 936-4번지 1층 106호","indutype":"일반휴게음식 - 일반한식","category":"restaurant"},{"name":"고양이부엌 별내","tel":"031-573-8250","addr":"경기도 남양주시 별내동 936-4번지 1층 102호","indutype":"일반휴게음식 - 일반한식","category":"restaurant"},{"name":"엘도라도","tel":"031-567-4060","addr":"경기도 남양주시 별내동 936-4번지 2층 204호","indutype":"일반휴게음식 - 서양음식","category":"restaurant"},{"name":"이디야커피 별내메가박스점","tel":"031-528-0197","addr":"경기도 남양주시 별내동 936-4번지 1층 101호","indutype":"일반휴게음식 - 서양음식","category":"restaurant"}]},{"lat":"37.666106373","long":"127.11579075","imageIndex":4,"items":[{"name":"1000냥노가리","tel":"031-528-6740","addr":"경기도 남양주시 별내동 839-1번지 1층","indutype":"일반휴게음식 - 일반한식","category":"restaurant"},{"name":"속초장터 본 닭강정","tel":"031-574-9877","addr":"경기도 남양주시 별내동 839-1번지 102호","indutype":"일반휴게음식 - 일반한식","category":"restaurant"}]},{"lat":"37.667194936","long":"127.11745852","imageIndex":4,"items":[{"name":"10월28일","tel":"031-529-9086","addr":"경기도 남양주시 별내동 824-2번지 별내프라자2 1층 105호","indutype":"일반휴게음식 - 서양음식","category":"restaurant"},{"name":"몽마르지호프","tel":"031-528-9200","addr":"경기도 남양주시 별내동 824-2번지 별내프라자-2 1층 106호","indutype":"일반휴게음식 - 주점","category":"restaurant"},{"name":"비어통","tel":"031-527-8228","addr":"경기도 남양주시 별내동 824-2번지 별내프라자-2 103호","indutype":"일반휴게음식 - 주점","category":"restaurant"},{"name":"옛날막창","tel":"031-223-5214","addr":"경기도 남양주시 별내동 824-2번지 별내프라자-2 102호","indutype":"일반휴게음식 - 일반한식","category":"restaurant"},{"name":"착한횟집","tel":"031-529-1185","addr":"경기도 남양주시 별내동 824-2번지 별내프라자-2 104호","indutype":"일반휴게음식 - 일식·회집","category":"restaurant"}]},{"lat":"37.647223635","long":"127.12332","imageIndex":4,"items":[{"name":"19티","tel":"031-527-8991","addr":"경기도 남양주시 별내동 1019번지 102호","indutype":"일반휴게음식 - 서양음식","category":"restaurant"},{"name":"조마루감자탕","tel":"031-573-2005","addr":"경기도 남양주시 별내동 1019번지 1동 201호","indutype":"일반휴게음식 - 일반한식","category":"restaurant"}]},{"lat":"37.66694305","long":"127.11706144","imageIndex":4,"items":[{"name":"1번지 옛날통닭","tel":"","addr":"경기도 남양주시 별내동 826-3번지 다우프라자 110호","indutype":"일반휴게음식 - 스넥","category":"restaurant"},{"name":"감성곱창","tel":"031-571-9876","addr":"경기도 남양주시 별내동 826-3번지 1층 109호","indutype":"일반휴게음식 - 일반한식","category":"restaurant"},{"name":"감성곱창","tel":"031-571-9876","addr":"경기도 남양주시 별내동 826-3번지 1층 109호","indutype":"일반휴게음식 - 일반한식","category":"restaurant"},{"name":"국수나무(별내점)","tel":"02-1588-6020","addr":"경기도 남양주시 별내동 826-3번지 다우프라자 106호","indutype":"일반휴게음식 - 스넥","category":"restaurant"},{"name":"메밀앤돈","tel":"","addr":"경기도 남양주시 별내동 826-3번지 다우프라자 3층 304호","indutype":"일반휴게음식 - 일반한식","category":"restaurant"},{"name":"콰스타커피","tel":"031-572-7674","addr":"경기도 남양주시 별내동 826-3번지 105호","indutype":"일반휴게음식 - 서양음식","category":"restaurant"},{"name":"콰스타커피","tel":"031-572-7674","addr":"경기도 남양주시 별내동 826-3번지 1층 105호","indutype":"일반휴게음식 - 서양음식","category":"restaurant"}]},{"lat":"37.654386026","long":"127.10450883","imageIndex":4,"items":[{"name":"2대맛태","tel":"031-572-6263","addr":"경기도 남양주시 별내동 639-1번지 나동","indutype":"일반휴게음식 - 일반한식","category":"restaurant"},{"name":"불암무지개송어장","tel":"031-527-7272","addr":"경기도 남양주시 별내동 639-1번지","indutype":"일반휴게음식 - 일반한식","category":"restaurant"}]},{"lat":"37.651303842","long":"127.1153944","imageIndex":4,"items":[{"name":"365족발별내점","tel":"031-575-0233","addr":"경기도 남양주시 별내동 1080-6번지 1층 일부호","indutype":"일반휴게음식 - 일반한식","category":"restaurant"}]},{"lat":"37.670023271","long":"127.11817694","imageIndex":4,"items":[{"name":"369가락 엠엔에이치(주)","tel":"031-529-0369","addr":"경기도 남양주시 별내동 2184-117번지 1층","indutype":"일반휴게음식 - 일반한식","category":"restaurant"},{"name":"오형제손짜장마을","tel":"031-528-0011","addr":"경기도 남양주시 별내동 2184-117번지","indutype":"일반휴게음식 - 중국식","category":"restaurant"}]},{"lat":"37.65647425","long":"127.1255901","imageIndex":4,"items":[{"name":"4040카페","tel":"031-574-4044","addr":"경기도 남양주시 별내동 932-8번지 106,203,204호","indutype":"일반휴게음식 - 서양음식","category":"restaurant"},{"name":"함경면옥 별내점","tel":"031-574-1999","addr":"경기도 남양주시 별내동 932-8번지 102동 107호","indutype":"일반휴게음식 - 일반한식","category":"restaurant"}]},{"lat":"37.665665883","long":"127.1147587","imageIndex":4,"items":[{"name":"5.5닭갈비 별내점","tel":"031-527-7515","addr":"경기도 남양주시 별내동 838-6번지 1층","indutype":"일반휴게음식 - 일반한식","category":"restaurant"}]},{"lat":"37.651664488","long":"127.11512298","imageIndex":4,"items":[{"name":"599버거","tel":"070-4548-4545","addr":"경기도 남양주시 별내동 1083-3번지 1층 101호","indutype":"일반휴게음식 - 서양음식","category":"restaurant"},{"name":"곤조","tel":"070-8777-7469","addr":"경기도 남양주시 별내동 1083-3번지","indutype":"일반휴게음식 - 주점","category":"restaurant"}]},{"lat":"37.648721693","long":"127.12089751","imageIndex":4,"items":[{"name":"83LAB(랩)","tel":"070-4225-7774","addr":"경기도 남양주시 별내동 1058번지 동익미라벨 3804호","indutype":"일반휴게음식 - 일반한식","category":"restaurant"},{"name":"호식이두마리치킨별내점","tel":"031-571-8808","addr":"경기도 남양주시 별내동 1058번지 3801동 4-1호 동익미라젤","indutype":"일반휴게음식 - 스넥","category":"restaurant"}]},{"lat":"37.652250591","long":"127.11462526","imageIndex":4,"items":[{"name":"88스테이크","tel":"031-528-8868","addr":"경기도 남양주시 별내동 1085-2번지 1층 103호","indutype":"일반휴게음식 - 일반한식","category":"restaurant"}]},{"lat":"37.647250189","long":"127.12378461","imageIndex":4,"items":[{"name":"92숯불닭바베큐","tel":"031-529-0288","addr":"경기도 남양주시 별내동 1016-1번지 에스프라자101호~102호 101호","indutype":"일반휴게음식 - 스넥","category":"restaurant"},{"name":"맛집","tel":"031-528-1291","addr":"경기도 남양주시 별내동 1016-1번지 예스프라자프론티어 104호","indutype":"일반휴게음식 - 일반한식","category":"restaurant"},{"name":"명랑시대 쌀핫도그(남양주별내점)","tel":"","addr":"경기도 남양주시 별내동 1016-1번지 예스프라자프론티어 1층 103호","indutype":"일반휴게음식 - 서양음식","category":"restaurant"},{"name":"이치마루","tel":"031-564-1000","addr":"경기도 남양주시 별내동 1016-1번지 예스프라자프론티어 1동 207호 206,207호","indutype":"일반휴게음식 - 일식·회집","category":"restaurant"}]},{"lat":"37.667358857","long":"127.11564531","imageIndex":4,"items":[{"name":"BHC별내2호점","tel":"","addr":"경기도 남양주시 별내동 828-6번지","indutype":"일반휴게음식 - 스넥","category":"restaurant"}]},{"lat":"37.665942923","long":"127.11711657","imageIndex":4,"items":[{"name":"Better Than Waffle","tel":"070-8800-9004","addr":"경기도 남양주시 별내동 841-3번지 101호일부","indutype":"일반휴게음식 - 서양음식","category":"restaurant"}]},{"lat":"37.649609069","long":"127.10659864","imageIndex":4,"items":[{"name":"Gu(구)","tel":"031-529-0799","addr":"경기도 남양주시 별내동 643-6번지 2층","indutype":"일반휴게음식 - 일반한식","category":"restaurant"},{"name":"강북민물장어","tel":"031-529-2921","addr":"경기도 남양주시 별내동 643-6번지 1-2층","indutype":"일반휴게음식 - 일반한식","category":"restaurant"}]},{"lat":"37.645860802","long":"127.12561796","imageIndex":4,"items":[{"name":"JJ","tel":"070-7560-5333","addr":"경기도 남양주시 별내동 1006-1번지 별내로데오몰 8층 802호","indutype":"일반휴게음식 - 서양음식","category":"restaurant"},{"name":"딱조아 민속주점","tel":"031-527-8880","addr":"경기도 남양주시 별내동 1006-1번지 별내로데오몰 201호","indutype":"일반휴게음식 - 일반한식","category":"restaurant"},{"name":"로데오포차","tel":"031-821-3231","addr":"경기도 남양주시 별내동 1006-1번지 107호","indutype":"일반휴게음식 - 일반한식","category":"restaurant"},{"name":"별내스넥","tel":"031-528-3319","addr":"경기도 남양주시 별내동 1006-1번지 별내로데오몰 사우나내 8층","indutype":"일반휴게음식 - 일반한식","category":"restaurant"},{"name":"별미야","tel":"070-7433-0565","addr":"경기도 남양주시 별내동 1006-1번지 별내로데오몰 1층 114호","indutype":"일반휴게음식 - 일반한식","category":"restaurant"},{"name":"복가네소문난멸치국수","tel":"02-973-4337","addr":"경기도 남양주시 별내동 1006-1번지 116호","indutype":"일반휴게음식 - 일반한식","category":"restaurant"},{"name":"어랑추","tel":"031-555-1118","addr":"경기도 남양주시 별내동 1006-1번지 113호","indutype":"일반휴게음식 - 일반한식","category":"restaurant"},{"name":"오븐에빠진닭 별내신도시점","tel":"031-529-5892","addr":"경기도 남양주시 별내동 1006-1번지 별내로데오몰 1층 111호","indutype":"일반휴게음식 - 스넥","category":"restaurant"},{"name":"우장창창 별내점","tel":"031-527-5657","addr":"경기도 남양주시 별내동 1006-1번지 102호","indutype":"일반휴게음식 - 일반한식","category":"restaurant"},{"name":"유황사우나식당","tel":"070-7435-3993","addr":"경기도 남양주시 별내동 1006-1번지 8층","indutype":"일반휴게음식 - 일반한식","category":"restaurant"},{"name":"육회본가(별내점)","tel":"031-528-6412","addr":"경기도 남양주시 별내동 1006-1번지 별내로데오몰 1층 108호","indutype":"일반휴게음식 - 일반한식","category":"restaurant"},{"name":"전주명가24시콩나물국밥(별내점)","tel":"031-574-1894","addr":"경기도 남양주시 별내동 1006-1번지 별내로데오몰 1동 105호,106호","indutype":"일반휴게음식 - 일반한식","category":"restaurant"},{"name":"짝태시대","tel":"031-573-1558","addr":"경기도 남양주시 별내동 1006-1번지 1층 109호,110호","indutype":"일반휴게음식 - 주점","category":"restaurant"},{"name":"타요키즈카페별내점","tel":"031-529-3311","addr":"경기도 남양주시 별내동 1006-1번지 11층","indutype":"일반휴게음식 - 일반한식","category":"restaurant"},{"name":"투다리별내역점","tel":"031-111-1111","addr":"경기도 남양주시 별내동 1006-1번지","indutype":"일반휴게음식 - 일반한식","category":"restaurant"},{"name":"황제갈비","tel":"031-527-9722","addr":"경기도 남양주시 별내동 1006-1번지 101호","indutype":"일반휴게음식 - 일반한식","category":"restaurant"},{"name":"회품맛","tel":"031-527-4545","addr":"경기도 남양주시 별내동 1006-1번지 별내로데오몰 207호","indutype":"일반휴게음식 - 일반한식","category":"restaurant"}]},{"lat":"37.658696211","long":"127.12884627","imageIndex":4,"items":[{"name":"LEXICO(렉시코)","tel":"031-528-6263","addr":"경기도 남양주시 별내동 960-5번지 1층 103호","indutype":"일반휴게음식 - 일반한식","category":"restaurant"},{"name":"볼(bol.)","tel":"070-7677-8811","addr":"경기도 남양주시 별내동 960-5번지 1층 102호","indutype":"일반휴게음식 - 서양음식","category":"restaurant"}]},{"lat":"37.658500788","long":"127.1262054","imageIndex":4,"items":[{"name":"TATE","tel":"031-8049-2026","addr":"경기도 남양주시 별내동 948-1번지 102호","indutype":"일반휴게음식 - 일반한식","category":"restaurant"},{"name":"뿌띠푸케이크(PETIT FOUR CAKE)","tel":"031-1111-1111","addr":"경기도 남양주시 별내동 948-1번지 102호","indutype":"일반휴게음식 - 서양음식","category":"restaurant"}]},{"lat":"37.657940087","long":"127.12819903","imageIndex":4,"items":[{"name":"TEPPAN HOUSE","tel":"031-529-5901","addr":"경기도 남양주시 별내동 962번지 상가동 101호","indutype":"일반휴게음식 - 일반한식","category":"restaurant"}]},{"lat":"37.66682646","long":"127.11650589","imageIndex":4,"items":[{"name":"The맛있는만두&핫도그","tel":"031-572-7375","addr":"경기도 남양주시 별내동 827-5번지 101호","indutype":"일반휴게음식 - 일반한식","category":"restaurant"},{"name":"별내닭발","tel":"031-529-3892","addr":"경기도 남양주시 별내동 827-5번지 101,103호","indutype":"일반휴게음식 - 일반한식","category":"restaurant"}]},{"lat":"37.651610667","long":"127.1148736","imageIndex":4,"items":[{"name":"W BAR","tel":"070-7622-1234","addr":"경기도 남양주시 별내동 1083-7번지 1층 일부호 102호","indutype":"일반휴게음식 - 칵테일바","category":"restaurant"}]},{"lat":"37.647474919","long":"127.12428355","imageIndex":4,"items":[{"name":"가다쿠","tel":"031-527-8819","addr":"경기도 남양주시 별내동 1010-6번지 1층","indutype":"일반휴게음식 - 일반한식","category":"restaurant"},{"name":"울트라멘","tel":"031-528-5512","addr":"경기도 남양주시 별내동 1010-6번지 102호","indutype":"일반휴게음식 - 일식·회집","category":"restaurant"}]},{"lat":"37.646086303","long":"127.12536905","imageIndex":4,"items":[{"name":"가미","tel":"","addr":"경기도 남양주시 별내동 1006번지 118호","indutype":"일반휴게음식 - 일식·회집","category":"restaurant"},{"name":"김밥나라","tel":"031-573-3369","addr":"경기도 남양주시 별내동 1006번지 로뎀타워 107호","indutype":"일반휴게음식 - 일반한식","category":"restaurant"},{"name":"별난식당","tel":"031-571-3671","addr":"경기도 남양주시 별내동 1006번지 102호","indutype":"일반휴게음식 - 일반한식","category":"restaurant"},{"name":"블랙퀸","tel":"031-572-0002","addr":"경기도 남양주시 별내동 1006번지 2층 206호","indutype":"일반휴게음식 - 서양음식","category":"restaurant"},{"name":"소름돈냉","tel":"031-571-3314","addr":"경기도 남양주시 별내동 1006번지 104호 일부","indutype":"일반휴게음식 - 일반한식","category":"restaurant"},{"name":"송쿡","tel":"031-571-0822","addr":"경기도 남양주시 별내동 1006번지 115호","indutype":"일반휴게음식 - 중국식","category":"restaurant"},{"name":"용범이네인계동껍데기별내점","tel":"031-529-3558","addr":"경기도 남양주시 별내동 1006번지 로뎀타워 103호","indutype":"일반휴게음식 - 일반한식","category":"restaurant"},{"name":"정동진","tel":"031-575-4164","addr":"경기도 남양주시 별내동 1006번지 1층 113호, 114호","indutype":"일반휴게음식 - 일식·회집","category":"restaurant"},{"name":"주식회사 퐁당","tel":"031-571-1919","addr":"경기도 남양주시 별내동 1006번지","indutype":"일반휴게음식 - 서양음식","category":"restaurant"},{"name":"쿠우쿠우 별내점","tel":"031-574-6274","addr":"경기도 남양주시 별내동 1006번지 9층 901-904호","indutype":"일반휴게음식 - 일반한식","category":"restaurant"}]},{"lat":"37.667471865","long":"127.11987312","imageIndex":4,"items":[{"name":"가미헌","tel":"031-571-9595","addr":"경기도 남양주시 별내동 2167-26번지 1층","indutype":"일반휴게음식 - 일반한식","category":"restaurant"}]},{"lat":"37.647079734","long":"127.12307048","imageIndex":4,"items":[{"name":"가장맛있는족발","tel":"031-572-5849","addr":"경기도 남양주시 별내동 1021번지 101호","indutype":"일반휴게음식 - 일반한식","category":"restaurant"}]},{"lat":"37.665302984","long":"127.11737627","imageIndex":4,"items":[{"name":"감수연순대국","tel":"031-529-6528","addr":"경기도 남양주시 별내동 846-8번지 1층","indutype":"일반휴게음식 - 일반한식","category":"restaurant"}]},{"lat":"37.6656649","long":"127.11579008","imageIndex":4,"items":[{"name":"강호동치킨678 별내점","tel":"031-528-8678","addr":"경기도 남양주시 별내동 840-13번지 상가동 103호","indutype":"일반휴게음식 - 스넥","category":"restaurant"},{"name":"하루빈(HARUBEAN)","tel":"031-529-0169","addr":"경기도 남양주시 별내동 840-13번지 1층","indutype":"일반휴게음식 - 스넥","category":"restaurant"}]},{"lat":"37.657835087","long":"127.12522969","imageIndex":4,"items":[{"name":"개성손만두요리전문점","tel":"031-571-5633","addr":"경기도 남양주시 별내동 931-2번지 삼광프라자 102동 106호","indutype":"일반휴게음식 - 일반한식","category":"restaurant"},{"name":"메이젠 별내점","tel":"","addr":"경기도 남양주시 별내동 931-2번지 삼광프라자 101호","indutype":"일반휴게음식 - 서양음식","category":"restaurant"}]},{"lat":"37.666718584","long":"127.11625638","imageIndex":4,"items":[{"name":"거기","tel":"031-574-0580","addr":"경기도 남양주시 별내동 830-7번지 1층 일부","indutype":"일반휴게음식 - 일반한식","category":"restaurant"}]},{"lat":"37.666325895","long":"127.12161675","imageIndex":4,"items":[{"name":"거북이 집밥","tel":"031-528-3456","addr":"경기도 남양주시 별내동 2177번지 주건축물제1동 지층","indutype":"일반휴게음식 - 일반한식","category":"restaurant"},{"name":"미쓰봉닭한마리","tel":"031-575-8080","addr":"경기도 남양주시 별내동 2177번지 1층","indutype":"일반휴게음식 - 일반한식","category":"restaurant"}]},{"lat":"37.652549635","long":"127.11278994","imageIndex":4,"items":[{"name":"거창식당","tel":"031-572-8889","addr":"경기도 남양주시 별내동 1103-5번지 1층","indutype":"일반휴게음식 - 일반한식","category":"restaurant"}]},{"lat":"37.65180286","long":"127.11167833","imageIndex":4,"items":[{"name":"경기떡집(남양주점)","tel":"031-574-9990","addr":"경기도 남양주시 별내동 1106번지 1층","indutype":"일반휴게음식 - 서양음식","category":"restaurant"}]},{"lat":"37.659056658","long":"127.12879022","imageIndex":4,"items":[{"name":"경성주막(퓨전주점)","tel":"031-527-0417","addr":"경기도 남양주시 별내동 959-5번지 101호","indutype":"일반휴게음식 - 주점","category":"restaurant"},{"name":"맘스","tel":"031-572-8732","addr":"경기도 남양주시 별내동 959-5번지 101호","indutype":"일반휴게음식 - 일반한식","category":"restaurant"}]},{"lat":"37.657302122","long":"127.12656606","imageIndex":4,"items":[{"name":"경성통닭","tel":"031-574-0444","addr":"경기도 남양주시 별내동 943-2번지","indutype":"일반휴게음식 - 일반한식","category":"restaurant"}]},{"lat":"37.651217074","long":"127.11184745","imageIndex":4,"items":[{"name":"계림상황삼계탕,오리","tel":"031-573-3252","addr":"경기도 남양주시 별내동 1101번지 109동 112호","indutype":"일반휴게음식 - 일반한식","category":"restaurant"},{"name":"고마우이","tel":"031-575-9295","addr":"경기도 남양주시 별내동 1101번지 프라임타워 117호","indutype":"일반휴게음식 - 일반한식","category":"restaurant"},{"name":"콩두","tel":"031-573-3241","addr":"경기도 남양주시 별내동 1101번지 105호","indutype":"일반휴게음식 - 일반한식","category":"restaurant"},{"name":"하얀집","tel":"","addr":"경기도 남양주시 별내동 1101번지 1층 120,121호","indutype":"일반휴게음식 - 서양음식","category":"restaurant"}]},{"lat":"37.642946244","long":"127.12112632","imageIndex":4,"items":[{"name":"계절포차","tel":"","addr":"경기도 남양주시 별내동 998번지 남양주별내노블레스 1층 113,114호","indutype":"일반휴게음식 - 일반한식","category":"restaurant"},{"name":"노블레스스파식당","tel":"02-1111-1111","addr":"경기도 남양주시 별내동 998번지","indutype":"일반휴게음식 - 일반한식","category":"restaurant"},{"name":"시골여행 별내점","tel":"031-529-5999","addr":"경기도 남양주시 별내동 998번지 남양주별내노블레스 209호","indutype":"일반휴게음식 - 일반한식","category":"restaurant"},{"name":"치어스별내노블레스점","tel":"031-529-6747","addr":"경기도 남양주시 별내동 998번지 노블레스 210호","indutype":"일반휴게음식 - 주점","category":"restaurant"}]},{"lat":"37.651856588","long":"127.10181975","imageIndex":4,"items":[{"name":"고개집","tel":"031-527-7814","addr":"경기도 남양주시 별내동 788-10번지","indutype":"일반휴게음식 - 일반한식","category":"restaurant"}]},{"lat":"37.661359575","long":"127.11442358","imageIndex":4,"items":[{"name":"고갯길","tel":"031-574-8701","addr":"경기도 남양주시 별내동 332-9번지","indutype":"일반휴게음식 - 일반한식","category":"restaurant"}]},{"lat":"37.66605332","long":"127.11473662","imageIndex":4,"items":[{"name":"고깃간","tel":"070-3496-3726","addr":"경기도 남양주시 별내동 834-6번지 1층","indutype":"일반휴게음식 - 일반한식","category":"restaurant"}]},{"lat":"37.650610614","long":"127.11484943","imageIndex":4,"items":[{"name":"고려장뇌삼계탕","tel":"","addr":"경기도 남양주시 별내동 1096-9번지 영은빌딩 1층","indutype":"일반휴게음식 - 일반한식","category":"restaurant"},{"name":"두툼한 통삼","tel":"031-527-9698","addr":"경기도 남양주시 별내동 1096-9번지 영은빌딩 1층 좌호","indutype":"일반휴게음식 - 일반한식","category":"restaurant"}]},{"lat":"37.650250677","long":"127.11437297","imageIndex":4,"items":[{"name":"고집본점","tel":"031-529-3389","addr":"경기도 남양주시 별내동 1096-5번지 1층","indutype":"일반휴게음식 - 일반한식","category":"restaurant"}]},{"lat":"37.652304565","long":"127.10476663","imageIndex":4,"items":[{"name":"고창장어","tel":"031-585-9943","addr":"경기도 남양주시 별내동 640-7번지","indutype":"일반휴게음식 - 일반한식","category":"restaurant"},{"name":"풍월가","tel":"031-571-0578","addr":"경기도 남양주시 별내동 640-7번지","indutype":"일반휴게음식 - 일반한식","category":"restaurant"}]},{"lat":"37.650189277","long":"127.11259383","imageIndex":4,"items":[{"name":"곱분이곱창 별내점","tel":"031-1111-1111","addr":"경기도 남양주시 별내동 1097-2번지 성산메디컬타워 108호","indutype":"일반휴게음식 - 일반한식","category":"restaurant"},{"name":"롯데리아별내(주)서지실업","tel":"031-0000-0000","addr":"경기도 남양주시 별내동 1097-2번지 성산메디컬타워 1층","indutype":"일반휴게음식 - 서양음식","category":"restaurant"},{"name":"별내닭꼬치","tel":"","addr":"경기도 남양주시 별내동 1097-2번지 성산메디컬타워 109호","indutype":"일반휴게음식 - 일반한식","category":"restaurant"}]},{"lat":"37.650774495","long":"127.11303662","imageIndex":4,"items":[{"name":"곱창스토리","tel":"070-4808-0518","addr":"경기도 남양주시 별내동 1090-4번지","indutype":"일반휴게음식 - 일반한식","category":"restaurant"},{"name":"카페 (Cafe)701","tel":"070-4133-6533","addr":"경기도 남양주시 별내동 1090-4번지 1층 좌호","indutype":"일반휴게음식 - 서양음식","category":"restaurant"},{"name":"플로라미(FLORAMI)","tel":"","addr":"경기도 남양주시 별내동 1090-4번지 1층","indutype":"일반휴게음식 - 서양음식","category":"restaurant"}]},{"lat":"37.665942295","long":"127.11776261","imageIndex":4,"items":[{"name":"공룡치킨","tel":"031-527-3340","addr":"경기도 남양주시 별내동 826-9번지 센트럴프라자 107호","indutype":"일반휴게음식 - 스넥","category":"restaurant"}]},{"lat":"37.647303735","long":"127.12428327","imageIndex":4,"items":[{"name":"공릉동멸치국수별내점","tel":"","addr":"경기도 남양주시 별내동 1010-3번지","indutype":"일반휴게음식 - 일반한식","category":"restaurant"},{"name":"엄마손음식","tel":"031-572-2626","addr":"경기도 남양주시 별내동 1010-3번지 10층 1001-1호","indutype":"일반휴게음식 - 일반한식","category":"restaurant"},{"name":"한국피자헛","tel":"070-7843-3054","addr":"경기도 남양주시 별내동 1010-3번지 101호","indutype":"일반휴게음식 - 서양음식","category":"restaurant"}]},{"lat":"37.647024796","long":"127.12393155","imageIndex":4,"items":[{"name":"공차 별내로데오점","tel":"","addr":"경기도 남양주시 별내동 1016-2번지 청운프라자 1층 일부 (102,103)호","indutype":"일반휴게음식 - 서양음식","category":"restaurant"},{"name":"활어장군","tel":"031-571-4442","addr":"경기도 남양주시 별내동 1016-2번지 청운프라자 1층 101호","indutype":"일반휴게음식 - 일반한식","category":"restaurant"}]},{"lat":"37.652719094","long":"127.11462596","imageIndex":4,"items":[{"name":"교촌치킨","tel":"031-527-1998","addr":"경기도 남양주시 별내동 1078-3번지 1층 101호","indutype":"일반휴게음식 - 스넥","category":"restaurant"}]},{"lat":"37.66527612","long":"127.11720622","imageIndex":4,"items":[{"name":"교촌치킨 별내2호점","tel":"031-572-1991","addr":"경기도 남양주시 별내동 846-7번지 광계토빌","indutype":"일반휴게음식 - 스넥","category":"restaurant"}]},{"lat":"37.657581303","long":"127.12667985","imageIndex":4,"items":[{"name":"구오공오(9505)","tel":"031-574-8531","addr":"경기도 남양주시 별내동 950-5번지 1층","indutype":"일반휴게음식 - 일반한식","category":"restaurant"}]},{"lat":"37.658501284","long":"127.12572943","imageIndex":4,"items":[{"name":"구이랑","tel":"031-572-6036","addr":"경기도 남양주시 별내동 944번지 1층","indutype":"일반휴게음식 - 일반한식","category":"restaurant"}]},{"lat":"37.647197229","long":"127.12270807","imageIndex":4,"items":[{"name":"구팔한우별내점","tel":"031-575-9892","addr":"경기도 남양주시 별내동 1022-3번지 1층","indutype":"일반휴게음식 - 일반한식","category":"restaurant"}]},{"lat":"37.650440617","long":"127.11359137","imageIndex":4,"items":[{"name":"국민닭발","tel":"031-565-4545","addr":"경기도 남양주시 별내동 1094-6번지 102호","indutype":"일반휴게음식 - 일반한식","category":"restaurant"},{"name":"이디야커피별내서부점","tel":"031-529-6406","addr":"경기도 남양주시 별내동 1094-6번지 1층","indutype":"일반휴게음식 - 서양음식","category":"restaurant"}]},{"lat":"37.648078905","long":"127.12395592","imageIndex":4,"items":[{"name":"국제 푸줏간","tel":"070-8822-9292","addr":"경기도 남양주시 별내동 1012-1번지","indutype":"일반휴게음식 - 일반한식","category":"restaurant"}]},{"lat":"37.651169247","long":"127.11481628","imageIndex":4,"items":[{"name":"군산오징어 별내점","tel":"031-572-3137","addr":"경기도 남양주시 별내동 1084-7번지 1층","indutype":"일반휴게음식 - 일반한식","category":"restaurant"}]},{"lat":"37.660384599","long":"127.1254492","imageIndex":4,"items":[{"name":"굽네치킨 별내2호점","tel":"031-527-7788","addr":"경기도 남양주시 별내동 905번지","indutype":"일반휴게음식 - 스넥","category":"restaurant"}]},{"lat":"37.648223663","long":"127.12336693","imageIndex":4,"items":[{"name":"굽네치킨별내1호점","tel":"031-796-2554","addr":"경기도 남양주시 별내동 1014-4번지 101호","indutype":"일반휴게음식 - 스넥","category":"restaurant"}]},{"lat":"37.657501494","long":"127.1254558","imageIndex":4,"items":[{"name":"궁의맛 육개장","tel":"031-575-2225","addr":"경기도 남양주시 별내동 931-4번지 105,106,107호","indutype":"일반휴게음식 - 일반한식","category":"restaurant"},{"name":"동경규동 별내점","tel":"031-000-0000","addr":"경기도 남양주시 별내동 931-4번지 1층 101호","indutype":"일반휴게음식 - 일식·회집","category":"restaurant"},{"name":"마이원","tel":"031-000-0000","addr":"경기도 남양주시 별내동 931-4번지 4층 404호","indutype":"일반휴게음식 - 서양음식","category":"restaurant"}]},{"lat":"37.664132616","long":"127.11645645","imageIndex":4,"items":[{"name":"그녀의 과수원","tel":"031-1600-5801","addr":"경기도 남양주시 별내동 852번지 별내아이파크2차 상가동 1층 104호","indutype":"일반휴게음식 - 서양음식","category":"restaurant"},{"name":"오꾸꼬 별내2호점","tel":"031-572-9592","addr":"경기도 남양주시 별내동 852번지 별내아이파크2차 상가동 1층 113호","indutype":"일반휴게음식 - 스넥","category":"restaurant"}]},{"lat":"37.658994506","long":"127.12792882","imageIndex":4,"items":[{"name":"그레이가든","tel":"070-8737-0001","addr":"경기도 남양주시 별내동 959번지 101호","indutype":"일반휴게음식 - 서양음식","category":"restaurant"}]},{"lat":"37.649527352","long":"127.10731241","imageIndex":4,"items":[{"name":"금계장뇌삼삼계탕","tel":"031-531-4811","addr":"경기도 남양주시 별내동 625-26번지","indutype":"일반휴게음식 - 일반한식","category":"restaurant"},{"name":"머무.름","tel":"","addr":"경기도 남양주시 별내동 625-26번지","indutype":"일반휴게음식 - 서양음식","category":"restaurant"},{"name":"아지오호프치킨","tel":"031-573-9657","addr":"경기도 남양주시 별내동 625-26번지","indutype":"일반휴게음식 - 스넥","category":"restaurant"},{"name":"패밀리포차","tel":"031-573-7572","addr":"경기도 남양주시 별내동 625-26번지 1층","indutype":"일반휴게음식 - 주점","category":"restaurant"}]},{"lat":"37.646357134","long":"127.12484827","imageIndex":4,"items":[{"name":"김가네김밥 별내중앙점","tel":"031-571-3107","addr":"경기도 남양주시 별내동 1008번지 106호 센터프라자제1층","indutype":"일반휴게음식 - 일반한식","category":"restaurant"},{"name":"명가참치","tel":"031-571-9100","addr":"경기도 남양주시 별내동 1008번지 센터프라자 204호","indutype":"일반휴게음식 - 일반한식","category":"restaurant"},{"name":"별내소한마리","tel":"031-528-4954","addr":"경기도 남양주시 별내동 1008번지 센터프라자 2층 203호","indutype":"일반휴게음식 - 일반한식","category":"restaurant"}]},{"lat":"37.666609473","long":"127.11728761","imageIndex":4,"items":[{"name":"김가네분식","tel":"031-571-8840","addr":"경기도 남양주시 별내동 826-5번지 105호","indutype":"일반휴게음식 - 일반한식","category":"restaurant"},{"name":"수유리우동집","tel":"031-574-4100","addr":"경기도 남양주시 별내동 826-5번지 1층 103호","indutype":"일반휴게음식 - 일반한식","category":"restaurant"},{"name":"족발의길","tel":"031-529-0888","addr":"경기도 남양주시 별내동 826-5번지 광장프라자 107호,108호","indutype":"일반휴게음식 - 일반한식","category":"restaurant"},{"name":"호시카와","tel":"031-571-8867","addr":"경기도 남양주시 별내동 826-5번지 광장프라자 1층 106호","indutype":"일반휴게음식 - 일반한식","category":"restaurant"}]},{"lat":"37.649828425","long":"127.11309188","imageIndex":4,"items":[{"name":"김밥나라","tel":"031-527-3360","addr":"경기도 남양주시 별내동 1097-5번지 지앤지프라자 104호","indutype":"일반휴게음식 - 스넥","category":"restaurant"},{"name":"깐부치킨","tel":"031-528-9927","addr":"경기도 남양주시 별내동 1097-5번지 지앤지프라자 1층 107호","indutype":"일반휴게음식 - 스넥","category":"restaurant"},{"name":"소노야별내점","tel":"031-528-8198","addr":"경기도 남양주시 별내동 1097-5번지 지앤지프라자 103호","indutype":"일반휴게음식 - 일반한식","category":"restaurant"}]},{"lat":"37.658806737","long":"127.12656856","imageIndex":4,"items":[{"name":"까사디마지오(CASA DI MAGGIO)","tel":"031-528-1970","addr":"경기도 남양주시 별내동 947-5번지 1층","indutype":"일반휴게음식 - 일반한식","category":"restaurant"}]},{"lat":"37.646245757","long":"127.10961932","imageIndex":4,"items":[{"name":"까페 그릇","tel":"031-528-5640","addr":"경기도 남양주시 별내동 564번지 2층","indutype":"일반휴게음식 - 서양음식","category":"restaurant"},{"name":"스테이564 미스터아구앤쌈","tel":"031-000-0000","addr":"경기도 남양주시 별내동 564번지 1층 일부","indutype":"일반휴게음식 - 일반한식","category":"restaurant"}]},{"lat":"37.650692494","long":"127.11401102","imageIndex":4,"items":[{"name":"꼬지사께 별내점","tel":"031-529-1300","addr":"경기도 남양주시 별내동 1093-7번지 1층 정면좌호","indutype":"일반휴게음식 - 일반한식","category":"restaurant"}]},{"lat":"37.666438179","long":"127.11740068","imageIndex":4,"items":[{"name":"꼰대꽈베기 별내점","tel":"031-528-5567","addr":"경기도 남양주시 별내동 826-6번지 불암타워 1층 104호","indutype":"일반휴게음식 - 일반한식","category":"restaurant"},{"name":"메이크샐러드별내","tel":"031-574-1128","addr":"경기도 남양주시 별내동 826-6번지 불암타워 1층 102호","indutype":"일반휴게음식 - 서양음식","category":"restaurant"},{"name":"별내칼국수","tel":"031-528-5843","addr":"경기도 남양주시 별내동 826-6번지 불암타워 101호","indutype":"일반휴게음식 - 일반한식","category":"restaurant"},{"name":"사골먹은감자탕","tel":"031-574-3302","addr":"경기도 남양주시 별내동 826-6번지 불암타워 1층 103호","indutype":"일반휴게음식 - 일반한식","category":"restaurant"},{"name":"향채움","tel":"031-528-6263","addr":"경기도 남양주시 별내동 826-6번지 불암타워 1층 106호","indutype":"일반휴게음식 - 서양음식","category":"restaurant"},{"name":"호시카와","tel":"070-4414-1129","addr":"경기도 남양주시 별내동 826-6번지 불암타워 1층 105호","indutype":"일반휴게음식 - 일식·회집","category":"restaurant"}]},{"lat":"37.648222886","long":"127.12412613","imageIndex":4,"items":[{"name":"꾸이스타","tel":"070-2687-0023","addr":"경기도 남양주시 별내동 1013-1번지 102호","indutype":"일반휴게음식 - 일반한식","category":"restaurant"}]},{"lat":"37.657220655","long":"127.12692857","imageIndex":4,"items":[{"name":"꿈꾸는 화덕","tel":"031-574-9510","addr":"경기도 남양주시 별내동 951-1번지","indutype":"일반휴게음식 - 서양음식","category":"restaurant"},{"name":"짱닭치킨","tel":"02-000-0000","addr":"경기도 남양주시 별내동 951-1번지 1층","indutype":"일반휴게음식 - 스넥","category":"restaurant"}]},{"lat":"37.644083349","long":"127.10970687","imageIndex":4,"items":[{"name":"꿈꾸는떡볶이","tel":"031-529-1282","addr":"경기도 남양주시 별내동 558-24번지","indutype":"일반휴게음식 - 스넥","category":"restaurant"}]},{"lat":"37.651188623","long":"127.11337718","imageIndex":4,"items":[{"name":"나누리 솥뚜껑구이","tel":"031-529-9288","addr":"경기도 남양주시 별내동 1090-1번지 1층 101호","indutype":"일반휴게음식 - 일반한식","category":"restaurant"}]},{"lat":"37.666583733","long":"127.11595015","imageIndex":4,"items":[{"name":"나쁜형네포장마차(본점)","tel":"070-8956-5506","addr":"경기도 남양주시 별내동 830-9번지 101호","indutype":"일반휴게음식 - 주점","category":"restaurant"},{"name":"삼미집","tel":"031-593-8976","addr":"경기도 남양주시 별내동 830-9번지","indutype":"일반휴게음식 - 일반한식","category":"restaurant"}]},{"lat":"37.650164013","long":"127.11067876","imageIndex":4,"items":[{"name":"낙지왕궁","tel":"031-529-1110","addr":"경기도 남양주시 별내동 621-13번지","indutype":"일반휴게음식 - 일반한식","category":"restaurant"}]},{"lat":"37.651944476","long":"127.11439816","imageIndex":4,"items":[{"name":"남도삼계탕","tel":"031-528-8785","addr":"경기도 남양주시 별내동 1085-4번지 1층","indutype":"일반휴게음식 - 일반한식","category":"restaurant"}]},{"lat":"37.656053555","long":"127.10364984","imageIndex":4,"items":[{"name":"남도의향","tel":"031-527-9626","addr":"경기도 남양주시 별내동 637번지 1층","indutype":"일반휴게음식 - 일반한식","category":"restaurant"}]},{"lat":"37.646557518","long":"127.12272971","imageIndex":4,"items":[{"name":"남해생아구","tel":"031-575-5505","addr":"경기도 남양주시 별내동 1024-4번지 1층","indutype":"일반휴게음식 - 일반한식","category":"restaurant"}]},{"lat":"37.658660535","long":"127.12850623","imageIndex":4,"items":[{"name":"냠냠","tel":"031-571-6555","addr":"경기도 남양주시 별내동 960-3번지 1층 102호","indutype":"일반휴게음식 - 일반한식","category":"restaurant"},{"name":"호식이두마리치킨별내2호점","tel":"031-572-0010","addr":"경기도 남양주시 별내동 960-3번지 101호","indutype":"일반휴게음식 - 스넥","category":"restaurant"}]},{"lat":"37.657551898","long":"127.12892367","imageIndex":4,"items":[{"name":"네네치킨 별내2호점","tel":"031-574-4479","addr":"경기도 남양주시 별내동 963-4번지 1층 101호","indutype":"일반휴게음식 - 스넥","category":"restaurant"}]},{"lat":"37.652386079","long":"127.11426284","imageIndex":4,"items":[{"name":"네오피자 별내점","tel":"031-527-1100","addr":"경기도 남양주시 별내동 1086-2번지","indutype":"일반휴게음식 - 서양음식","category":"restaurant"}]},{"lat":"37.665800132","long":"127.11569962","imageIndex":4,"items":[{"name":"노랑통닭 별내점","tel":"03-111-2221","addr":"경기도 남양주시 별내동 840번지 1층","indutype":"일반휴게음식 - 스넥","category":"restaurant"},{"name":"소문난구이곱창","tel":"031-528-9953","addr":"경기도 남양주시 별내동 840번지 101호","indutype":"일반휴게음식 - 일반한식","category":"restaurant"}]},{"lat":"37.665909455","long":"127.11443038","imageIndex":4,"items":[{"name":"놀부부대찌개","tel":"031-529-5522","addr":"경기도 남양주시 별내동 834-8번지 1층","indutype":"일반휴게음식 - 일반한식","category":"restaurant"}]},{"lat":"37.64536469","long":"127.12617235","imageIndex":4,"items":[{"name":"뉴 에어포트","tel":"070-8157-8253","addr":"경기도 남양주시 별내동 1006-3번지 이레타워 2층 206호","indutype":"일반휴게음식 - 주점","category":"restaurant"},{"name":"더블유(W)스카이라운지","tel":"031-567-0753","addr":"경기도 남양주시 별내동 1006-3번지 이레타워 902호","indutype":"일반휴게음식 - 일반한식","category":"restaurant"},{"name":"마당쇠","tel":"031-573-9792","addr":"경기도 남양주시 별내동 1006-3번지 이레타워 2층 207호","indutype":"일반휴게음식 - 일반한식","category":"restaurant"},{"name":"만땅치킨 별내점","tel":"031-572-7275","addr":"경기도 남양주시 별내동 1006-3번지 1층 116호","indutype":"일반휴게음식 - 스넥","category":"restaurant"},{"name":"멤버","tel":"031-572-0805","addr":"경기도 남양주시 별내동 1006-3번지 306호","indutype":"일반휴게음식 - 일반한식","category":"restaurant"},{"name":"모꼬지마루","tel":"031-574-7457","addr":"경기도 남양주시 별내동 1006-3번지 이레타워 1층 119호","indutype":"일반휴게음식 - 일반한식","category":"restaurant"},{"name":"별내청학동부침개","tel":"031-529-7213","addr":"경기도 남양주시 별내동 1006-3번지 이레타워 115호","indutype":"일반휴게음식 - 일반한식","category":"restaurant"},{"name":"연안식당(별내점)","tel":"031-529-7877","addr":"경기도 남양주시 별내동 1006-3번지 이레타워 103호,104호","indutype":"일반휴게음식 - 일반한식","category":"restaurant"},{"name":"집밥두끼","tel":"031-388-7793","addr":"경기도 남양주시 별내동 1006-3번지 201호","indutype":"일반휴게음식 - 일반한식","category":"restaurant"},{"name":"한솥도시락 별내이레타워점","tel":"031-516-8959","addr":"경기도 남양주시 별내동 1006-3번지 이레타워 102호","indutype":"일반휴게음식 - 일반한식","category":"restaurant"},{"name":"홍짜장 별내점","tel":"031-572-6013","addr":"경기도 남양주시 별내동 1006-3번지 118호","indutype":"일반휴게음식 - 일반한식","category":"restaurant"}]},{"lat":"37.666744133","long":"127.11778651","imageIndex":4,"items":[{"name":"뉴욕야시장","tel":"031-575-7088","addr":"경기도 남양주시 별내동 824-4번지 별내프라자-3 201호","indutype":"일반휴게음식 - 일반한식","category":"restaurant"},{"name":"덕소돼지뽈집","tel":"031-577-3932","addr":"경기도 남양주시 별내동 824-4번지 별내프라자-3 1층 101호","indutype":"일반휴게음식 - 일반한식","category":"restaurant"},{"name":"명가집","tel":"031-527-3325","addr":"경기도 남양주시 별내동 824-4번지 별내프라자-3 1층 104호","indutype":"일반휴게음식 - 일반한식","category":"restaurant"},{"name":"별스시강대표","tel":"031-527-2121","addr":"경기도 남양주시 별내동 824-4번지 별내프라자 1층 103호","indutype":"일반휴게음식 - 일반한식","category":"restaurant"}]},{"lat":"37.649328616","long":"127.10790136","imageIndex":4,"items":[{"name":"늘푸른목장","tel":"031-527-4373","addr":"경기도 남양주시 별내동 695-29번지 2층","indutype":"일반휴게음식 - 일반한식","category":"restaurant"}]},{"lat":"37.657777853","long":"127.12825542","imageIndex":4,"items":[{"name":"니어앤디어","tel":"070-0000-0000","addr":"경기도 남양주시 별내동 962-10번지 1층","indutype":"일반휴게음식 - 일반한식","category":"restaurant"}]},{"lat":"37.643884559","long":"127.1103411","imageIndex":4,"items":[{"name":"다람이임자탕","tel":"031-529-9890","addr":"경기도 남양주시 별내동 558-63번지 1층 일부호 105호","indutype":"일반휴게음식 - 일반한식","category":"restaurant"},{"name":"도로시 화덕피자","tel":"031-527-7003","addr":"경기도 남양주시 별내동 558-63번지","indutype":"일반휴게음식 - 서양음식","category":"restaurant"},{"name":"마음을 울리는 떡볶이","tel":"031-527-9769","addr":"경기도 남양주시 별내동 558-63번지 1층 101호","indutype":"일반휴게음식 - 일반한식","category":"restaurant"},{"name":"맛차이나","tel":"070-4808-0518","addr":"경기도 남양주시 별내동 558-63번지 월드인파크 104호","indutype":"일반휴게음식 - 중국식","category":"restaurant"},{"name":"쇼쿠요쿠","tel":"031-527-2933","addr":"경기도 남양주시 별내동 558-63번지 1층 103호","indutype":"일반휴게음식 - 일식·회집","category":"restaurant"},{"name":"요거프레소","tel":"02-0000-0000","addr":"경기도 남양주시 별내동 558-63번지 1층 105호 일부","indutype":"일반휴게음식 - 서양음식","category":"restaurant"}]},{"lat":"37.647808557","long":"127.12401214","imageIndex":4,"items":[{"name":"다모여 양꼬치","tel":"031-572-8849","addr":"경기도 남양주시 별내동 1011-6번지 1층","indutype":"일반휴게음식 - 중국식","category":"restaurant"}]},{"lat":"37.667610191","long":"127.11662043","imageIndex":4,"items":[{"name":"다성식당","tel":"031-529-5647","addr":"경기도 남양주시 별내동 826번지 천보프라자 1동 1층 109호","indutype":"일반휴게음식 - 일반한식","category":"restaurant"},{"name":"보노","tel":"","addr":"경기도 남양주시 별내동 826번지 천보프라자 111호","indutype":"일반휴게음식 - 서양음식","category":"restaurant"},{"name":"산들김밥","tel":"031-575-3278","addr":"경기도 남양주시 별내동 826번지 103호","indutype":"일반휴게음식 - 스넥","category":"restaurant"},{"name":"쌈촌별내점","tel":"031-574-8090","addr":"경기도 남양주시 별내동 826번지 천보프라자 202호일부(2),203호","indutype":"일반휴게음식 - 일반한식","category":"restaurant"}]},{"lat":"37.659579828","long":"127.11943008","imageIndex":4,"items":[{"name":"단순한식탁","tel":"","addr":"경기도 남양주시 별내동 913번지 별사랑마을2-10단지 상가동 1층 101-1호","indutype":"일반휴게음식 - 일반한식","category":"restaurant"}]},{"lat":"37.653027664","long":"127.11223538","imageIndex":4,"items":[{"name":"단이네벌교꼬막별내점","tel":"031-529-0131","addr":"경기도 남양주시 별내동 1111-3번지 1층","indutype":"일반휴게음식 - 일반한식","category":"restaurant"}]},{"lat":"37.654887031","long":"127.12703801","imageIndex":4,"items":[{"name":"달보드레","tel":"","addr":"경기도 남양주시 별내동 938-1번지 별내복합커뮤니티센터 2층 일부호","indutype":"일반휴게음식 - 서양음식","category":"restaurant"}]},{"lat":"37.645608236","long":"127.12590082","imageIndex":4,"items":[{"name":"달코믹스","tel":"031-528-6263","addr":"경기도 남양주시 별내동 1006-2번지 진영N타워 3층 301호","indutype":"일반휴게음식 - 스넥","category":"restaurant"},{"name":"둘둘치킨 별내점","tel":"031-527-2278","addr":"경기도 남양주시 별내동 1006-2번지 1층 108호","indutype":"일반휴게음식 - 스넥","category":"restaurant"},{"name":"먹골식당","tel":"031-572-3100","addr":"경기도 남양주시 별내동 1006-2번지 진영N타워 1층 109호","indutype":"일반휴게음식 - 일반한식","category":"restaurant"},{"name":"밍구네","tel":"031-571-8882","addr":"경기도 남양주시 별내동 1006-2번지 진영N타워 107호","indutype":"일반휴게음식 - 일반한식","category":"restaurant"},{"name":"백채김치찌개","tel":"031-527-1124","addr":"경기도 남양주시 별내동 1006-2번지 진영엔타워 1층 110호","indutype":"일반휴게음식 - 일반한식","category":"restaurant"},{"name":"수미락","tel":"031-573-7076","addr":"경기도 남양주시 별내동 1006-2번지 진영엔타워 1층 116호","indutype":"일반휴게음식 - 일반한식","category":"restaurant"},{"name":"오케이(OK)솔참치","tel":"031-574-5161","addr":"경기도 남양주시 별내동 1006-2번지 201호","indutype":"일반휴게음식 - 일반한식","category":"restaurant"},{"name":"이차돌 별내점","tel":"031-527-9230","addr":"경기도 남양주시 별내동 1006-2번지 1층 103,104호","indutype":"일반휴게음식 - 일반한식","category":"restaurant"},{"name":"페리카나 별내점","tel":"","addr":"경기도 남양주시 별내동 1006-2번지 111호","indutype":"일반휴게음식 - 스넥","category":"restaurant"},{"name":"행복한 밥상","tel":"070-8945-3313","addr":"경기도 남양주시 별내동 1006-2번지 205호","indutype":"일반휴게음식 - 일반한식","category":"restaurant"}]},{"lat":"37.69471302","long":"127.10479061","imageIndex":4,"items":[{"name":"담소(Damso)","tel":"031-529-3091","addr":"경기도 남양주시 별내동 2321-1번지 1층","indutype":"일반휴게음식 - 일반한식","category":"restaurant"}]},{"lat":"37.649112384","long":"127.10790106","imageIndex":4,"items":[{"name":"담터뷔페","tel":"","addr":"경기도 남양주시 별내동 693-1번지 1층","indutype":"일반휴게음식 - 일반한식","category":"restaurant"},{"name":"뚱보칡냉면","tel":"031-527-1321","addr":"경기도 남양주시 별내동 693-1번지 1층","indutype":"일반휴게음식 - 일반한식","category":"restaurant"}]},{"lat":"37.651080326","long":"127.11356966","imageIndex":4,"items":[{"name":"당산오돌(별내점)","tel":"031-572-0592","addr":"경기도 남양주시 별내동 1091번지 1층","indutype":"일반휴게음식 - 일반한식","category":"restaurant"}]},{"lat":"37.651692835","long":"127.11372921","imageIndex":4,"items":[{"name":"대동집별내점","tel":"","addr":"경기도 남양주시 별내동 1086-7번지 1층","indutype":"일반휴게음식 - 일반한식","category":"restaurant"},{"name":"미쓰리부대찌개 별내점","tel":"031-529-7745","addr":"경기도 남양주시 별내동 1086-7번지 1층","indutype":"일반휴게음식 - 일반한식","category":"restaurant"},{"name":"생활맥주 별내점","tel":"031-527-4400","addr":"경기도 남양주시 별내동 1086-7번지 1층 좌 101호","indutype":"일반휴게음식 - 주점","category":"restaurant"}]},{"lat":"37.671998981","long":"127.13300597","imageIndex":4,"items":[{"name":"더(The)별 돈까스","tel":"031-000-0000","addr":"경기도 남양주시 별내동 881-3번지 102호","indutype":"일반휴게음식 - 서양음식","category":"restaurant"}]},{"lat":"37.656551498","long":"127.12922796","imageIndex":4,"items":[{"name":"더램","tel":"031-572-8005","addr":"경기도 남양주시 별내동 967-2번지 1층","indutype":"일반휴게음식 - 일반한식","category":"restaurant"}]},{"lat":"37.646555065","long":"127.12512054","imageIndex":4,"items":[{"name":"더메이-M Bar","tel":"031-551-2288","addr":"경기도 남양주시 별내동 1008-1번지 1층","indutype":"일반휴게음식 - 일반한식","category":"restaurant"},{"name":"카페베네 더메이호텔점","tel":"031-571-5002","addr":"경기도 남양주시 별내동 1008-1번지 1층 일부","indutype":"일반휴게음식 - 서양음식","category":"restaurant"}]},{"lat":"37.647717772","long":"127.12468053","imageIndex":4,"items":[{"name":"더진동해동태탕","tel":"031-573-8266","addr":"경기도 남양주시 별내동 1013-5번지","indutype":"일반휴게음식 - 일반한식","category":"restaurant"}]},{"lat":"37.64400183","long":"127.11018264","imageIndex":4,"items":[{"name":"더큰도시락 삼육대점","tel":"031-572-4422","addr":"경기도 남양주시 별내동 558-114번지 1동 1층","indutype":"일반휴게음식 - 일반한식","category":"restaurant"},{"name":"쥬씨 삼육대점","tel":"070-4115-1028","addr":"경기도 남양주시 별내동 558-114번지","indutype":"일반휴게음식 - 서양음식","category":"restaurant"}]},{"lat":"37.657807044","long":"127.12620426","imageIndex":4,"items":[{"name":"더호(THE  )","tel":"031-575-2332","addr":"경기도 남양주시 별내동 944-5번지","indutype":"일반휴게음식 - 일반한식","category":"restaurant"},{"name":"홍루이젠","tel":"","addr":"경기도 남양주시 별내동 944-5번지 1층 102호","indutype":"일반휴게음식 - 서양음식","category":"restaurant"}]},{"lat":"37.652830964","long":"127.12879104","imageIndex":4,"items":[{"name":"덕부네한식뷔페","tel":"031-527-5045","addr":"경기도 남양주시 별내동 972번지 2층 일부호","indutype":"일반휴게음식 - 일반한식","category":"restaurant"},{"name":"메밀향교","tel":"031-527-0101","addr":"경기도 남양주시 별내동 972번지 1층 일부(104)호","indutype":"일반휴게음식 - 일반한식","category":"restaurant"}]},{"lat":"37.647634623","long":"127.10809161","imageIndex":4,"items":[{"name":"덕화배꽃마을","tel":"031-528-8674","addr":"경기도 남양주시 별내동 569-1번지","indutype":"일반휴게음식 - 일반한식","category":"restaurant"}]},{"lat":"37.659194248","long":"127.12647854","imageIndex":4,"items":[{"name":"데일리로스트커피","tel":"031-529-8792","addr":"경기도 남양주시 별내동 946-4번지","indutype":"일반휴게음식 - 서양음식","category":"restaurant"}]},{"lat":"37.644306946","long":"127.11150877","imageIndex":4,"items":[{"name":"도그라운지","tel":"070-7543-5280","addr":"경기도 남양주시 별내동 558-3번지 3층","indutype":"일반휴게음식 - 서양음식","category":"restaurant"}]},{"lat":"37.666522144","long":"127.1143973","imageIndex":4,"items":[{"name":"도도안 도자기카페","tel":"031-000-0000","addr":"경기도 남양주시 별내동 833-5번지 1층 102호","indutype":"일반휴게음식 - 서양음식","category":"restaurant"}]},{"lat":"37.651053583","long":"127.11326367","imageIndex":4,"items":[{"name":"돈도야지","tel":"031-575-9458","addr":"경기도 남양주시 별내동 1090-2번지 1층","indutype":"일반휴게음식 - 일반한식","category":"restaurant"}]},{"lat":"37.646610953","long":"127.12334167","imageIndex":4,"items":[{"name":"돌배기집 남양주별내점","tel":"031-573-5055","addr":"경기도 남양주시 별내동 1020-1번지 1층","indutype":"일반휴게음식 - 일반한식","category":"restaurant"}]},{"lat":"37.658861411","long":"127.12597934","imageIndex":4,"items":[{"name":"동광건설 구내식당","tel":"02-2111-1111","addr":"경기도 남양주시 별내동 947-1번지 1층","indutype":"일반휴게음식 - 일반한식","category":"restaurant"}]},{"lat":"37.649153167","long":"127.12188403","imageIndex":4,"items":[{"name":"동명카츠(별내점)","tel":"031-572-0205","addr":"경기도 남양주시 별내동 1060번지 동익미라벨 3903동 1층 12호","indutype":"일반휴게음식 - 일반한식","category":"restaurant"}]},{"lat":"37.66199603","long":"127.11779053","imageIndex":4,"items":[{"name":"동표을지로골뱅이","tel":"031-528-7005","addr":"경기도 남양주시 별내동 854번지 남양주별내아이파크 105호","indutype":"일반휴게음식 - 주점","category":"restaurant"},{"name":"카페느와르","tel":"031-573-5835","addr":"경기도 남양주시 별내동 854번지 현대아이파크근린생활시설 1층 103호","indutype":"일반휴게음식 - 서양음식","category":"restaurant"}]},{"lat":"37.663997597","long":"127.13372869","imageIndex":4,"items":[{"name":"두레연","tel":"031-527-0777","addr":"경기도 남양주시 별내동 1474-9번지","indutype":"일반휴게음식 - 일반한식","category":"restaurant"}]},{"lat":"37.649557763","long":"127.11348808","imageIndex":4,"items":[{"name":"두레통닭","tel":"031-574-9293","addr":"경기도 남양주시 별내동 1097-7번지 107호","indutype":"일반휴게음식 - 스넥","category":"restaurant"}]},{"lat":"37.647916963","long":"127.12372904","imageIndex":4,"items":[{"name":"두릉도원 북촌손두부&보쌈","tel":"031-527-8235","addr":"경기도 남양주시 별내동 1012-3번지 1층","indutype":"일반휴게음식 - 일반한식","category":"restaurant"}]},{"lat":"37.656133886","long":"127.13215101","imageIndex":4,"items":[{"name":"두부마을","tel":"031-528-5006","addr":"경기도 남양주시 별내동 34-2번지 1층 101호","indutype":"일반휴게음식 - 일반한식","category":"restaurant"}]},{"lat":"37.647970335","long":"127.12439766","imageIndex":4,"items":[{"name":"두찜별내점","tel":"031-529-8253","addr":"경기도 남양주시 별내동 1013-3번지 1층","indutype":"일반휴게음식 - 일반한식","category":"restaurant"}]},{"lat":"37.665249223","long":"127.11707018","imageIndex":4,"items":[{"name":"드렁큰카페","tel":"031-000-0000","addr":"경기도 남양주시 별내동 846-6번지 1층 102호","indutype":"일반휴게음식 - 서양음식","category":"restaurant"}]},{"lat":"37.646833989","long":"127.12548359","imageIndex":4,"items":[{"name":"드롭탑남양주별내점","tel":"031-529-9841","addr":"경기도 남양주시 별내동 1008-2번지 105호","indutype":"일반휴게음식 - 서양음식","category":"restaurant"},{"name":"비트락","tel":"031-527-0872","addr":"경기도 남양주시 별내동 1008-2번지 9층 2호","indutype":"일반휴게음식 - 일반한식","category":"restaurant"}]},{"lat":"37.666747514","long":"127.11426163","imageIndex":4,"items":[{"name":"딩카페","tel":"070-7630-7299","addr":"경기도 남양주시 별내동 832-6번지 1층 102호","indutype":"일반휴게음식 - 서양음식","category":"restaurant"}]},{"lat":"37.665134624","long":"127.11442923","imageIndex":4,"items":[{"name":"따봉김치삼겹살","tel":"","addr":"경기도 남양주시 별내동 848-9번지 1층","indutype":"일반휴게음식 - 일반한식","category":"restaurant"}]},{"lat":"37.651746081","long":"127.11459051","imageIndex":4,"items":[{"name":"딱이네","tel":"031-575-7873","addr":"경기도 남양주시 별내동 1083-9번지 1층 좌호","indutype":"일반휴게음식 - 일반한식","category":"restaurant"}]},{"lat":"37.644833758","long":"127.11656303","imageIndex":4,"items":[{"name":"땡초불닭발 동대문엽기떡볶이 별내점","tel":"031-528-8592","addr":"경기도 남양주시 별내동 1037번지 미리내마을4-4단지 상가동 106호","indutype":"일반휴게음식 - 일반한식","category":"restaurant"}]},{"lat":"37.6496931","long":"127.11328432","imageIndex":4,"items":[{"name":"떡볶이 선 생각","tel":"031-529-0966","addr":"경기도 남양주시 별내동 1097-6번지 별내마들프라자 108호","indutype":"일반휴게음식 - 스넥","category":"restaurant"},{"name":"백남옥달인손만두","tel":"02-111-1111","addr":"경기도 남양주시 별내동 1097-6번지 마들프라자 101호","indutype":"일반휴게음식 - 일반한식","category":"restaurant"}]},{"lat":"37.651195769","long":"127.11534891","imageIndex":4,"items":[{"name":"또래오래 별내점","tel":"031-1234-1234","addr":"경기도 남양주시 별내동 1080-7번지 1층 1호","indutype":"일반휴게음식 - 스넥","category":"restaurant"},{"name":"투다리","tel":"031-573-1600","addr":"경기도 남양주시 별내동 1080-7번지 이원주택 1층","indutype":"일반휴게음식 - 일반한식","category":"restaurant"}]},{"lat":"37.657914875","long":"127.12647642","imageIndex":4,"items":[{"name":"또봉이통닭 별내점","tel":"031-574-7998","addr":"경기도 남양주시 별내동 949-5번지 101호","indutype":"일반휴게음식 - 일반한식","category":"restaurant"}]},{"lat":"37.666385944","long":"127.11550783","imageIndex":4,"items":[{"name":"또봉이통닭별내2호점","tel":"031-527-0608","addr":"경기도 남양주시 별내동 830-12번지 1층 일부","indutype":"일반휴게음식 - 일반한식","category":"restaurant"}]},{"lat":"37.658410229","long":"127.12664723","imageIndex":4,"items":[{"name":"뚜띠쿠치나 별내점","tel":"031-572-3301","addr":"경기도 남양주시 별내동 948-5번지 1층","indutype":"일반휴게음식 - 일반한식","category":"restaurant"}]},{"lat":"37.650360071","long":"127.11301335","imageIndex":4,"items":[{"name":"띠아모커피 별내점","tel":"031-528-8895","addr":"경기도 남양주시 별내동 1091-7번지 1층","indutype":"일반휴게음식 - 서양음식","category":"restaurant"}]},{"lat":"37.666664679","long":"127.11609762","imageIndex":4,"items":[{"name":"라도명가","tel":"031-527-3060","addr":"경기도 남양주시 별내동 830-8번지 상가 1층","indutype":"일반휴게음식 - 일반한식","category":"restaurant"}]},{"lat":"37.646304959","long":"127.12301258","imageIndex":4,"items":[{"name":"라무진","tel":"031-572-7942","addr":"경기도 남양주시 별내동 1024-6번지","indutype":"일반휴게음식 - 일반한식","category":"restaurant"},{"name":"스시룡","tel":"031-111-1111","addr":"경기도 남양주시 별내동 1024-6번지 1층 102호","indutype":"일반휴게음식 - 일식·회집","category":"restaurant"}]},{"lat":"37.648475587","long":"127.12370728","imageIndex":4,"items":[{"name":"람쓰카롱","tel":"","addr":"경기도 남양주시 별내동 1014-1번지 102호","indutype":"일반휴게음식 - 서양음식","category":"restaurant"},{"name":"리틀포레","tel":"","addr":"경기도 남양주시 별내동 1014-1번지 102호","indutype":"일반휴게음식 - 서양음식","category":"restaurant"}]},{"lat":"37.67290923","long":"127.13275819","imageIndex":4,"items":[{"name":"러블리플라워케이크","tel":"031-574-0022","addr":"경기도 남양주시 별내동 878-7번지 202호","indutype":"일반휴게음식 - 서양음식","category":"restaurant"}]},{"lat":"37.651946733","long":"127.11198449","imageIndex":4,"items":[{"name":"레인디어커피컴파니","tel":"","addr":"경기도 남양주시 별내동 1105-4번지 1층 일부호","indutype":"일반휴게음식 - 서양음식","category":"restaurant"}]},{"lat":"37.666104602","long":"127.11762685","imageIndex":4,"items":[{"name":"레인보우 카페","tel":"031-529-3301","addr":"경기도 남양주시 별내동 826-8번지 2층 205호 일부","indutype":"일반휴게음식 - 서양음식","category":"restaurant"},{"name":"맷돌순두부","tel":"031-573-0620","addr":"경기도 남양주시 별내동 826-8번지 101호","indutype":"일반휴게음식 - 일반한식","category":"restaurant"},{"name":"스카이스터디카페","tel":"031-527-1224","addr":"경기도 남양주시 별내동 826-8번지 4층 404호405호","indutype":"일반휴게음식 - 서양음식","category":"restaurant"},{"name":"청년국물떡볶이","tel":"031-575-5767","addr":"경기도 남양주시 별내동 826-8번지 스카이프라자 1층 106호","indutype":"일반휴게음식 - 일반한식","category":"restaurant"},{"name":"프랭크서울","tel":"031-572-5655","addr":"경기도 남양주시 별내동 826-8번지 스카이프라자 108호","indutype":"일반휴게음식 - 서양음식","category":"restaurant"},{"name":"피자애별내점","tel":"031-529-9449","addr":"경기도 남양주시 별내동 826-8번지 스카이프라자 1층 107호","indutype":"일반휴게음식 - 서양음식","category":"restaurant"}]},{"lat":"37.665638293","long":"127.11534802","imageIndex":4,"items":[{"name":"레프루츠","tel":"","addr":"경기도 남양주시 별내동 847번지 102호","indutype":"일반휴게음식 - 서양음식","category":"restaurant"}]},{"lat":"37.657716508","long":"127.12662342","imageIndex":4,"items":[{"name":"로즈마리 앤드","tel":"031-527-6662","addr":"경기도 남양주시 별내동 950번지 구140-1 102호","indutype":"일반휴게음식 - 서양음식","category":"restaurant"}]},{"lat":"37.666332037","long":"127.11534907","imageIndex":4,"items":[{"name":"루체빈","tel":"070-7780-6259","addr":"경기도 남양주시 별내동 830-13번지","indutype":"일반휴게음식 - 서양음식","category":"restaurant"}]},{"lat":"37.650529634","long":"127.114736","imageIndex":4,"items":[{"name":"류차이","tel":"031-527-1460","addr":"경기도 남양주시 별내동 1096-8번지 1층","indutype":"일반휴게음식 - 일반한식","category":"restaurant"},{"name":"황가네소한마리","tel":"031-572-8292","addr":"경기도 남양주시 별내동 1096-8번지","indutype":"일반휴게음식 - 일반한식","category":"restaurant"}]},{"lat":"37.651827874","long":"127.11384273","imageIndex":4,"items":[{"name":"리썸카페(lissom cafe)","tel":"","addr":"경기도 남양주시 별내동 1086-6번지 102호","indutype":"일반휴게음식 - 서양음식","category":"restaurant"}]},{"lat":"37.652439794","long":"127.11462554","imageIndex":4,"items":[{"name":"리틀원","tel":"02-836-1050","addr":"경기도 남양주시 별내동 1085번지 1층 일부","indutype":"일반휴게음식 - 일반한식","category":"restaurant"}]},{"lat":"37.659300281","long":"127.12845064","imageIndex":4,"items":[{"name":"리틀포니","tel":"031-527-7430","addr":"경기도 남양주시 별내동 957-1번지 102호","indutype":"일반휴게음식 - 서양음식","category":"restaurant"}]},{"lat":"37.6589933","long":"127.1290621","imageIndex":4,"items":[{"name":"린(Rheyn)","tel":"031-528-7097","addr":"경기도 남양주시 별내동 958-2번지","indutype":"일반휴게음식 - 중국식","category":"restaurant"}]},{"lat":"37.651529451","long":"127.11500946","imageIndex":4,"items":[{"name":"마구로효","tel":"031-572-4242","addr":"경기도 남양주시 별내동 1083-6번지 101호","indutype":"일반휴게음식 - 일식·회집","category":"restaurant"}]},{"lat":"37.659273902","long":"127.12783862","imageIndex":4,"items":[{"name":"마노핀 별내카페거리점","tel":"031-572-4767","addr":"경기도 남양주시 별내동 956번지 1층","indutype":"일반휴게음식 - 서양음식","category":"restaurant"}]},{"lat":"37.650720638","long":"127.11282124","imageIndex":4,"items":[{"name":"마산식당","tel":"031-527-5383","addr":"경기도 남양주시 별내동 1090-8번지 1층 101호","indutype":"일반휴게음식 - 일반한식","category":"restaurant"}]},{"lat":"37.660082484","long":"127.12998192","imageIndex":4,"items":[{"name":"마약부대찌개 (남양주점)","tel":"031-571-2750","addr":"경기도 남양주시 별내동 59-4번지 1층","indutype":"일반휴게음식 - 일반한식","category":"restaurant"}]},{"lat":"37.64758286","long":"127.12445369","imageIndex":4,"items":[{"name":"마지막회","tel":"070-7612-7988","addr":"경기도 남양주시 별내동 1010번지 1층","indutype":"일반휴게음식 - 일반한식","category":"restaurant"}]},{"lat":"37.647475547","long":"127.12367167","imageIndex":4,"items":[{"name":"만다린","tel":"031-527-1185","addr":"경기도 남양주시 별내동 1016번지 203호","indutype":"일반휴게음식 - 중국식","category":"restaurant"},{"name":"어베인(Urbane)","tel":"031-574-5539","addr":"경기도 남양주시 별내동 1016번지 303호","indutype":"일반휴게음식 - 주점","category":"restaurant"},{"name":"큰집닭강정","tel":"031-571-8245","addr":"경기도 남양주시 별내동 1016번지 메인프라자 1층 104호","indutype":"일반휴게음식 - 일반한식","category":"restaurant"}]},{"lat":"37.648331153","long":"127.123979","imageIndex":4,"items":[{"name":"만원집","tel":"031-527-7442","addr":"경기도 남양주시 별내동 1013번지","indutype":"일반휴게음식 - 일반한식","category":"restaurant"}]},{"lat":"37.651223089","long":"127.11504299","imageIndex":4,"items":[{"name":"맘스터치","tel":"031-571-9295","addr":"경기도 남양주시 별내동 1084-5번지","indutype":"일반휴게음식 - 서양음식","category":"restaurant"}]},{"lat":"37.644415976","long":"127.11051183","imageIndex":4,"items":[{"name":"맘스터치 삼육대점","tel":"031-572-0572","addr":"경기도 남양주시 별내동 558-9번지","indutype":"일반휴게음식 - 서양음식","category":"restaurant"}]},{"lat":"37.665771001","long":"127.11787568","imageIndex":4,"items":[{"name":"맘스터치별내북부점","tel":"031-575-3353","addr":"경기도 남양주시 별내동 826-10번지 리프프라자 104호","indutype":"일반휴게음식 - 서양음식","category":"restaurant"},{"name":"본죽별내북부점","tel":"031-527-6288","addr":"경기도 남양주시 별내동 826-10번지 2동 101호","indutype":"일반휴게음식 - 일반한식","category":"restaurant"},{"name":"삼문식당","tel":"031-573-6874","addr":"경기도 남양주시 별내동 826-10번지","indutype":"일반휴게음식 - 일반한식","category":"restaurant"}]},{"lat":"37.650720023","long":"127.11347847","imageIndex":4,"items":[{"name":"맛깔참죽","tel":"031-527-6280","addr":"경기도 남양주시 별내동 1091-3번지","indutype":"일반휴게음식 - 일반한식","category":"restaurant"},{"name":"워낭소리","tel":"031-572-0881","addr":"경기도 남양주시 별내동 1091-3번지","indutype":"일반휴게음식 - 일반한식","category":"restaurant"}]},{"lat":"37.663528736","long":"127.12568104","imageIndex":4,"items":[{"name":"망향비빔국수 별내점","tel":"031-573-8533","addr":"경기도 남양주시 별내동 2004-30번지 1층","indutype":"일반휴게음식 - 일반한식","category":"restaurant"}]},{"lat":"37.647781248","long":"127.12428404","imageIndex":4,"items":[{"name":"매버릭(MAVERICK)","tel":"031-574-9244","addr":"경기도 남양주시 별내동 1011-1번지 1층 일부","indutype":"일반휴게음식 - 일반한식","category":"restaurant"},{"name":"윤가식당","tel":"","addr":"경기도 남양주시 별내동 1011-1번지 1층","indutype":"일반휴게음식 - 일반한식","category":"restaurant"}]},{"lat":"37.646554288","long":"127.12586838","imageIndex":4,"items":[{"name":"맥주가","tel":"031-528-2378","addr":"경기도 남양주시 별내동 1007번지 스마트리치안오피스텔 1층 101호","indutype":"일반휴게음식 - 주점","category":"restaurant"},{"name":"별내돼지불백앗싸포차","tel":"031-527-3181","addr":"경기도 남양주시 별내동 1007번지 스마트리치안오피스텔 104호","indutype":"일반휴게음식 - 일반한식","category":"restaurant"}]},{"lat":"37.691495253","long":"127.10631681","imageIndex":4,"items":[{"name":"먹거리","tel":"031-527-3050","addr":"경기도 남양주시 별내동 2310-3번지","indutype":"일반휴게음식 - 일반한식","category":"restaurant"}]},{"lat":"37.647557224","long":"127.12309391","imageIndex":4,"items":[{"name":"메가커피별내로데오점","tel":"070-1111-1111","addr":"경기도 남양주시 별내동 1018-1번지 105호","indutype":"일반휴게음식 - 서양음식","category":"restaurant"},{"name":"옛날떡볶이","tel":"031-572-1533","addr":"경기도 남양주시 별내동 1018-1번지 106호","indutype":"일반휴게음식 - 스넥","category":"restaurant"}]},{"lat":"37.65036064","long":"127.11240144","imageIndex":4,"items":[{"name":"메이드(M.A.D.E)","tel":"031-572-4242","addr":"경기도 남양주시 별내동 1097-1번지","indutype":"일반휴게음식 - 일반한식","category":"restaurant"}]},{"lat":"37.646944667","long":"127.11379014","imageIndex":4,"items":[{"name":"멕시카나 별내점","tel":"","addr":"경기도 남양주시 별내동 1048번지 미리내마을4-2단지 상가동 1층 101호","indutype":"일반휴게음식 - 스넥","category":"restaurant"}]},{"lat":"37.653612364","long":"127.11323346","imageIndex":4,"items":[{"name":"멜랑주 카페","tel":"031-111-1111","addr":"경기도 남양주시 별내동 1114-7번지 로터스빌 1층","indutype":"일반휴게음식 - 서양음식","category":"restaurant"}]},{"lat":"37.656362912","long":"127.12864968","imageIndex":4,"items":[{"name":"면가마칼국수","tel":"031-571-8253","addr":"경기도 남양주시 별내동 955-3번지 1층","indutype":"일반휴게음식 - 일반한식","category":"restaurant"}]},{"lat":"37.667133474","long":"127.11579231","imageIndex":4,"items":[{"name":"명가식당","tel":"","addr":"경기도 남양주시 별내동 829-5번지 1층","indutype":"일반휴게음식 - 일반한식","category":"restaurant"}]},{"lat":"37.644335168","long":"127.11020578","imageIndex":4,"items":[{"name":"명랑시대 쌀핫도그 삼육대점","tel":"","addr":"경기도 남양주시 별내동 558-28번지 1층 102호","indutype":"일반휴게음식 - 서양음식","category":"restaurant"}]},{"lat":"37.647161535","long":"127.12236809","imageIndex":4,"items":[{"name":"명륜진사갈비 별내점","tel":"031-528-6569","addr":"경기도 남양주시 별내동 1022-6번지 1층","indutype":"일반휴게음식 - 일반한식","category":"restaurant"}]},{"lat":"37.648142229","long":"127.12370674","imageIndex":4,"items":[{"name":"명태명가","tel":"031-574-3370","addr":"경기도 남양주시 별내동 1012-5번지 1층 101호","indutype":"일반휴게음식 - 일반한식","category":"restaurant"}]},{"lat":"37.658001043","long":"127.13017103","imageIndex":4,"items":[{"name":"명태촌","tel":"031-574-5333","addr":"경기도 남양주시 별내동 66-1번지 1층","indutype":"일반휴게음식 - 일반한식","category":"restaurant"}]},{"lat":"37.650278123","long":"127.11393108","imageIndex":4,"items":[{"name":"모노레일커피 별내점","tel":"070-7012-1421","addr":"경기도 남양주시 별내동 1094-4번지 1층","indutype":"일반휴게음식 - 서양음식","category":"restaurant"}]},{"lat":"37.644218217","long":"127.11001299","imageIndex":4,"items":[{"name":"모아밀터","tel":"031-528-3625","addr":"경기도 남양주시 별내동 558-12번지","indutype":"일반휴게음식 - 일반한식","category":"restaurant"}]},{"lat":"37.646413213","long":"127.12287678","imageIndex":4,"items":[{"name":"모전자전","tel":"031-573-5034","addr":"경기도 남양주시 별내동 1024-5번지 1층","indutype":"일반휴게음식 - 일반한식","category":"restaurant"},{"name":"호시조라","tel":"031-573-9979","addr":"경기도 남양주시 별내동 1024-5번지 101호","indutype":"일반휴게음식 - 일반한식","category":"restaurant"}]},{"lat":"37.64810562","long":"127.12426191","imageIndex":4,"items":[{"name":"못냐향","tel":"031-527-6200","addr":"경기도 남양주시 별내동 1013-2번지 상가 1층","indutype":"일반휴게음식 - 서양음식","category":"restaurant"}]},{"lat":"37.656000198","long":"127.13081356","imageIndex":4,"items":[{"name":"미가한송","tel":"031-527-0151","addr":"경기도 남양주시 별내동 82-1번지","indutype":"일반휴게음식 - 일반한식","category":"restaurant"}]},{"lat":"37.659326682","long":"127.12904","imageIndex":4,"items":[{"name":"미감돈까스","tel":"031-575-8559","addr":"경기도 남양주시 별내동 958번지 1층","indutype":"일반휴게음식 - 일반한식","category":"restaurant"}]},{"lat":"37.665582284","long":"127.1173767","imageIndex":4,"items":[{"name":"미나요시","tel":"","addr":"경기도 남양주시 별내동 841-6번지 102호","indutype":"일반휴게음식 - 서양음식","category":"restaurant"}]},{"lat":"37.665383939","long":"127.1175124","imageIndex":4,"items":[{"name":"미스사이공 별내점","tel":"031-573-0420","addr":"경기도 남양주시 별내동 846-9번지 1층","indutype":"일반휴게음식 - 일반한식","category":"restaurant"},{"name":"피자랑(Pizzarang)","tel":"031-527-4979","addr":"경기도 남양주시 별내동 846-9번지 103호","indutype":"일반휴게음식 - 서양음식","category":"restaurant"}]},{"lat":"37.648390411","long":"127.10923713","imageIndex":4,"items":[{"name":"미앤미푸드","tel":"031-111-1111","addr":"경기도 남양주시 별내동 575-4번지 1층","indutype":"일반휴게음식 - 일반한식","category":"restaurant"}]},{"lat":"37.665889161","long":"127.11681048","imageIndex":4,"items":[{"name":"바나바나별내점","tel":"031-571-9904","addr":"경기도 남양주시 별내동 843-1번지 1층","indutype":"일반휴게음식 - 일반한식","category":"restaurant"}]},{"lat":"37.666078462","long":"127.11670876","imageIndex":4,"items":[{"name":"바느통 (곽노미)","tel":"031-528-7420","addr":"경기도 남양주시 별내동 840-7번지 상가동 1층","indutype":"일반휴게음식 - 일반한식","category":"restaurant"},{"name":"흐름","tel":"031-527-7717","addr":"경기도 남양주시 별내동 840-7번지 1층 우호","indutype":"일반휴게음식 - 일반한식","category":"restaurant"}]},{"lat":"37.657718478","long":"127.12473086","imageIndex":4,"items":[{"name":"바다향기","tel":"031-575-1636","addr":"경기도 남양주시 별내동 932-1번지 1층","indutype":"일반휴게음식 - 일식·회집","category":"restaurant"}]},{"lat":"37.648025589","long":"127.12323064","imageIndex":4,"items":[{"name":"바르다김선생별내점","tel":"031-527-4330","addr":"경기도 남양주시 별내동 1015번지 오션일레븐4타워 1동 107호 108호","indutype":"일반휴게음식 - 스넥","category":"restaurant"},{"name":"석관동떡볶이 별내점","tel":"031-574-6969","addr":"경기도 남양주시 별내동 1015번지 오션일레븐4타워 1동 105호","indutype":"일반휴게음식 - 스넥","category":"restaurant"},{"name":"요거프레소 별내로데오점","tel":"","addr":"경기도 남양주시 별내동 1015번지 오션일레븐4타워 1동 110호","indutype":"일반휴게음식 - 서양음식","category":"restaurant"},{"name":"유명한김밥","tel":"070-4686-9412","addr":"경기도 남양주시 별내동 1015번지 오션일레븐4타워 주건출물 제1동 1층 111호","indutype":"일반휴게음식 - 스넥","category":"restaurant"},{"name":"추억여행","tel":"031-555-7404","addr":"경기도 남양주시 별내동 1015번지 오션일레븐4타워 1동 401호","indutype":"일반휴게음식 - 주점","category":"restaurant"}]},{"lat":"37.657995808","long":"127.12662388","imageIndex":4,"items":[{"name":"바른치킨 별내카페거리점","tel":"031-571-5400","addr":"경기도 남양주시 별내동 949-4번지","indutype":"일반휴게음식 - 스넥","category":"restaurant"}]},{"lat":"37.667499141","long":"127.11962381","imageIndex":4,"items":[{"name":"바위와소나무","tel":"031-529-1235","addr":"경기도 남양주시 별내동 2167-19번지","indutype":"일반휴게음식 - 일반한식","category":"restaurant"}]},{"lat":"37.652529364","long":"127.11518094","imageIndex":4,"items":[{"name":"바이더 치킨&피자","tel":"031-529-9289","addr":"경기도 남양주시 별내동 1079번지 1층 일부","indutype":"일반휴게음식 - 서양음식","category":"restaurant"}]},{"lat":"37.666465987","long":"127.11659601","imageIndex":4,"items":[{"name":"바지락칼국수","tel":"031-569-9289","addr":"경기도 남양주시 별내동 839-7번지","indutype":"일반휴게음식 - 일반한식","category":"restaurant"},{"name":"양푼이찌개","tel":"031-529-3365","addr":"경기도 남양주시 별내동 839-7번지 1층 101호","indutype":"일반휴게음식 - 일반한식","category":"restaurant"}]},{"lat":"37.649110262","long":"127.11025798","imageIndex":4,"items":[{"name":"박가네낙지한마리","tel":"031-572-5130","addr":"경기도 남양주시 별내동 606번지 1층","indutype":"일반휴게음식 - 일반한식","category":"restaurant"}]},{"lat":"37.656942494","long":"127.12584018","imageIndex":4,"items":[{"name":"박가네식당","tel":"031-529-5320","addr":"경기도 남양주시 별내동 931-8번지 1층 104호","indutype":"일반휴게음식 - 일반한식","category":"restaurant"}]},{"lat":"37.65082994","long":"127.11154093","imageIndex":4,"items":[{"name":"박가네찌개","tel":"070-4139-9000","addr":"경기도 남양주시 별내동 1100-3번지 1층102호 일부,103호","indutype":"일반휴게음식 - 일반한식","category":"restaurant"},{"name":"이비가짬뽕","tel":"031-527-0540","addr":"경기도 남양주시 별내동 1100-3번지 3동 2층 201,202호","indutype":"일반휴게음식 - 중국식","category":"restaurant"},{"name":"하얀밀수제비","tel":"031-527-2256","addr":"경기도 남양주시 별내동 1100-3번지 101호","indutype":"일반휴게음식 - 일반한식","category":"restaurant"}]},{"lat":"37.651502873","long":"127.11453348","imageIndex":4,"items":[{"name":"반올림피자샵 별내갈매점","tel":"031-527-7737","addr":"경기도 남양주시 별내동 1084-1번지 1층 101호","indutype":"일반휴게음식 - 서양음식","category":"restaurant"}]},{"lat":"37.647584875","long":"127.12248207","imageIndex":4,"items":[{"name":"반하다카페","tel":"031-0000-0000","addr":"경기도 남양주시 별내동 1023-1번지 1층","indutype":"일반휴게음식 - 서양음식","category":"restaurant"}]},{"lat":"37.664884566","long":"127.12139911","imageIndex":4,"items":[{"name":"밤나무집","tel":"031-572-0737","addr":"경기도 남양주시 별내동 2170-2번지","indutype":"일반휴게음식 - 일반한식","category":"restaurant"}]},{"lat":"37.643307172","long":"127.11117873","imageIndex":4,"items":[{"name":"밥은","tel":"031-572-8582","addr":"경기도 남양주시 별내동 558-68번지 1층","indutype":"일반휴게음식 - 일반한식","category":"restaurant"}]},{"lat":"37.643858608","long":"127.10915135","imageIndex":4,"items":[{"name":"밥집","tel":"031-573-2614","addr":"경기도 남양주시 별내동 558-59번지 101호","indutype":"일반휴게음식 - 스넥","category":"restaurant"},{"name":"스마일하우스","tel":"031-527-3664","addr":"경기도 남양주시 별내동 558-59번지A동1층2호","indutype":"일반휴게음식 - 서양음식","category":"restaurant"}]},{"lat":"37.658942119","long":"127.12634213","imageIndex":4,"items":[{"name":"방울토마토","tel":"070-5631-8777","addr":"경기도 남양주시 별내동 947-3번지 1층","indutype":"일반휴게음식 - 일반한식","category":"restaurant"}]},{"lat":"37.678966412","long":"127.11234145","imageIndex":4,"items":[{"name":"방일해장국 별내점","tel":"031-574-5873","addr":"경기도 남양주시 별내동 2249-2번지 1층 일부","indutype":"일반휴게음식 - 일반한식","category":"restaurant"}]},{"lat":"37.646918331","long":"127.12231104","imageIndex":4,"items":[{"name":"방태막국수","tel":"031-573-8833","addr":"경기도 남양주시 별내동 1024-1번지 1층","indutype":"일반휴게음식 - 일반한식","category":"restaurant"}]},{"lat":"37.654801157","long":"127.12295827","imageIndex":4,"items":[{"name":"배달삼겹 돼지되지","tel":"031-575-8595","addr":"경기도 남양주시 별내동 919번지 별내효성해링턴코트아파트 상가동 103호","indutype":"일반휴게음식 - 일반한식","category":"restaurant"}]},{"lat":"37.650611279","long":"127.11414688","imageIndex":4,"items":[{"name":"백간장새우","tel":"070-8201-5513","addr":"경기도 남양주시 별내동 1093-6번지 1층 102호","indutype":"일반휴게음식 - 일반한식","category":"restaurant"}]},{"lat":"37.651605137","long":"127.11114545","imageIndex":4,"items":[{"name":"버치","tel":"031-572-8112","addr":"경기도 남양주시 별내동 1107-4번지 1층","indutype":"일반휴게음식 - 서양음식","category":"restaurant"}]},{"lat":"37.656050856","long":"127.1165348","imageIndex":4,"items":[{"name":"베스트 비어","tel":"031-527-7761","addr":"경기도 남양주시 별내동 1072번지 남양주별내스위첸 1동 1층 112호","indutype":"일반휴게음식 - 주점","category":"restaurant"}]},{"lat":"37.658771893","long":"127.12542389","imageIndex":4,"items":[{"name":"별난고기","tel":"031-571-3888","addr":"경기도 남양주시 별내동 945번지 102,103호","indutype":"일반휴게음식 - 일반한식","category":"restaurant"}]},{"lat":"37.648975344","long":"127.11000849","imageIndex":4,"items":[{"name":"별난참숯갈비","tel":"","addr":"경기도 남양주시 별내동 604-1번지 1층 102호","indutype":"일반휴게음식 - 일반한식","category":"restaurant"}]},{"lat":"37.650863624","long":"127.11406793","imageIndex":4,"items":[{"name":"별내구이집","tel":",031-527-0392","addr":"경기도 남양주시 별내동 1093-1번지","indutype":"일반휴게음식 - 일반한식","category":"restaurant"}]},{"lat":"37.651973108","long":"127.13059135","imageIndex":4,"items":[{"name":"별내낙지","tel":"031-571-2300","addr":"경기도 남양주시 별내동 141번지","indutype":"일반휴게음식 - 일반한식","category":"restaurant"},{"name":"철원양평해장국","tel":"031-528-7041","addr":"경기도 남양주시 별내동 141번지","indutype":"일반휴게음식 - 일반한식","category":"restaurant"}]},{"lat":"37.646971259","long":"127.12342157","imageIndex":4,"items":[{"name":"별내로데오점 새우꺽기","tel":"031-111-1111","addr":"경기도 남양주시 별내동 1019-1번지 은가비 2층 201호","indutype":"일반휴게음식 - 일반한식","category":"restaurant"},{"name":"오무타(별내점)","tel":"","addr":"경기도 남양주시 별내동 1019-1번지 은가비 1층 105호","indutype":"일반휴게음식 - 일반한식","category":"restaurant"},{"name":"참맛깔","tel":"031-527-9010","addr":"경기도 남양주시 별내동 1019-1번지 은가비 1동 106호","indutype":"일반휴게음식 - 일반한식","category":"restaurant"}]},{"lat":"37.66574684","long":"127.11489483","imageIndex":4,"items":[{"name":"별내린","tel":"031-527-8483","addr":"경기도 남양주시 별내동 838-7번지","indutype":"일반휴게음식 - 일반한식","category":"restaurant"}]},{"lat":"37.65669491","long":"127.10167885","imageIndex":4,"items":[{"name":"별내림카페","tel":"031-572-7931","addr":"경기도 남양주시 별내동 793-26번지 2층","indutype":"일반휴게음식 - 서양음식","category":"restaurant"}]},{"lat":"37.652584324","long":"127.11422914","imageIndex":4,"items":[{"name":"별내버섯샤브칼국수","tel":"031-527-6523","addr":"경기도 남양주시 별내동 1086번지 1층","indutype":"일반휴게음식 - 일반한식","category":"restaurant"}]},{"lat":"37.677803334","long":"127.11323526","imageIndex":4,"items":[{"name":"별내사랑방","tel":"031-529-5965","addr":"경기도 남양주시 별내동 2197-7번지","indutype":"일반휴게음식 - 일반한식","category":"restaurant"}]},{"lat":"37.66599791","long":"127.11615327","imageIndex":4,"items":[{"name":"별내생고기","tel":"031-575-8959","addr":"경기도 남양주시 별내동 840-3번지","indutype":"일반휴게음식 - 일반한식","category":"restaurant"}]},{"lat":"37.65130544","long":"127.11370597","imageIndex":4,"items":[{"name":"별내왕곱창","tel":"031-554-1881","addr":"경기도 남양주시 별내동 1089-2번지 1층 102호","indutype":"일반휴게음식 - 일반한식","category":"restaurant"}]},{"lat":"37.646719554","long":"127.12286594","imageIndex":4,"items":[{"name":"별내유정집","tel":"","addr":"경기도 남양주시 별내동 1021-3번지","indutype":"일반휴게음식 - 일반한식","category":"restaurant"}]},{"lat":"37.648052248","long":"127.12359328","imageIndex":4,"items":[{"name":"별내육두목","tel":"031-527-0692","addr":"경기도 남양주시 별내동 1012-4번지 1층","indutype":"일반휴게음식 - 일반한식","category":"restaurant"}]},{"lat":"37.66613276","long":"127.1164595","imageIndex":4,"items":[{"name":"별내장군집","tel":"031-574-2226","addr":"경기도 남양주시 별내동 840-5번지 상가 1층","indutype":"일반휴게음식 - 일반한식","category":"restaurant"},{"name":"청춘대개 청순오징어","tel":"031-575-7885","addr":"경기도 남양주시 별내동 840-5번지 1층","indutype":"일반휴게음식 - 일반한식","category":"restaurant"}]},{"lat":"37.652138171","long":"127.12789466","imageIndex":4,"items":[{"name":"별내함바식당","tel":"031-9224-5287","addr":"경기도 남양주시 별내동 131-9번지 별내지구 7-1, 2블럭","indutype":"일반휴게음식 - 일반한식","category":"restaurant"}]},{"lat":"37.658357035","long":"127.12581985","imageIndex":4,"items":[{"name":"별내해장국","tel":"031-527-3909","addr":"경기도 남양주시 별내동 944-1번지","indutype":"일반휴게음식 - 일반한식","category":"restaurant"}]},{"lat":"37.650665016","long":"127.1144869","imageIndex":4,"items":[{"name":"별내회&조개찜","tel":"070-8256-6107","addr":"경기도 남양주시 별내동 1093-4번지","indutype":"일반휴게음식 - 일반한식","category":"restaurant"}]},{"lat":"37.666275895","long":"127.11751377","imageIndex":4,"items":[{"name":"별동네카페","tel":"031-529-5290","addr":"경기도 남양주시 별내동 826-7번지 서울프라자 1층 106호","indutype":"일반휴게음식 - 서양음식","category":"restaurant"},{"name":"이삭토스트남양주별내북부점","tel":"03-157-1600","addr":"경기도 남양주시 별내동 826-7번지 1층 107호","indutype":"일반휴게음식 - 스넥","category":"restaurant"}]},{"lat":"37.665964377","long":"127.11351242","imageIndex":4,"items":[{"name":"별뽕","tel":"031-528-8255","addr":"경기도 남양주시 별내동 835-3번지 103호","indutype":"일반휴게음식 - 일반한식","category":"restaurant"},{"name":"봉샌드","tel":"","addr":"경기도 남양주시 별내동 835-3번지 101호","indutype":"일반휴게음식 - 서양음식","category":"restaurant"}]},{"lat":"37.659164483","long":"127.12906239","imageIndex":4,"items":[{"name":"별앤(&)","tel":"031-529-1211","addr":"경기도 남양주시 별내동 958-1번지 준빌딩 1층","indutype":"일반휴게음식 - 일반한식","category":"restaurant"}]},{"lat":"37.666639001","long":"127.11468083","imageIndex":4,"items":[{"name":"별차이나","tel":"031-573-5932","addr":"경기도 남양주시 별내동 831-2번지 1층","indutype":"일반휴게음식 - 중국식","category":"restaurant"}]},{"lat":"37.651557028","long":"127.11443158","imageIndex":4,"items":[{"name":"보네르","tel":"","addr":"경기도 남양주시 별내동 1084번지 101호","indutype":"일반휴게음식 - 서양음식","category":"restaurant"},{"name":"와카야마","tel":"031-529-7110","addr":"경기도 남양주시 별내동 1084번지 102호","indutype":"일반휴게음식 - 일반한식","category":"restaurant"}]},{"lat":"37.650801238","long":"127.11334261","imageIndex":4,"items":[{"name":"보배곱창","tel":"031-528-8082","addr":"경기도 남양주시 별내동 1091-10번지 1층","indutype":"일반휴게음식 - 일반한식","category":"restaurant"}]},{"lat":"37.649446755","long":"127.10675706","imageIndex":4,"items":[{"name":"보성순대국감자탕","tel":"031-574-5755","addr":"경기도 남양주시 별내동 625-35번지","indutype":"일반휴게음식 - 일반한식","category":"restaurant"},{"name":"삼정","tel":"031-527-5778","addr":"경기도 남양주시 별내동 625-35번지","indutype":"일반휴게음식 - 주점","category":"restaurant"}]},{"lat":"37.646613199","long":"127.1211208","imageIndex":4,"items":[{"name":"본죽 별내로데오점","tel":"031-571-6288","addr":"경기도 남양주시 별내동 1026번지 오션타워 104호","indutype":"일반휴게음식 - 일반한식","category":"restaurant"},{"name":"아이디커피(ID:Coffee)","tel":"031-573-6077","addr":"경기도 남양주시 별내동 1026번지 오션타워 1층 101호","indutype":"일반휴게음식 - 서양음식","category":"restaurant"}]},{"lat":"37.658580266","long":"127.12773546","imageIndex":4,"items":[{"name":"봉구비어","tel":"","addr":"경기도 남양주시 별내동 953-4번지 1층 전면좌측호","indutype":"일반휴게음식 - 일반한식","category":"restaurant"},{"name":"케렌시아","tel":"","addr":"경기도 남양주시 별내동 953-4번지 102호","indutype":"일반휴게음식 - 일반한식","category":"restaurant"}]},{"lat":"37.645724377","long":"127.12684147","imageIndex":4,"items":[{"name":"봉미","tel":"031-527-0392","addr":"경기도 남양주시 별내동 1007-4번지 104호","indutype":"일반휴게음식 - 일반한식","category":"restaurant"},{"name":"황소곱창곱돌이네","tel":"02-496-8600","addr":"경기도 남양주시 별내동 1007-4번지 리치안위버오피스텔 1층 105호","indutype":"일반휴게음식 - 일반한식","category":"restaurant"}]},{"lat":"37.658418068","long":"127.12775786","imageIndex":4,"items":[{"name":"봉봉","tel":"031-574-3337","addr":"경기도 남양주시 별내동 953-5번지 1층 101호","indutype":"일반휴게음식 - 일반한식","category":"restaurant"}]},{"lat":"37.65638348","long":"127.1262359","imageIndex":4,"items":[{"name":"봉이만두","tel":"031-574-1399","addr":"경기도 남양주시 별내동 936번지 1층 104-1호","indutype":"일반휴게음식 - 일반한식","category":"restaurant"},{"name":"이래샌드위치","tel":"","addr":"경기도 남양주시 별내동 936번지 104호","indutype":"일반휴게음식 - 스넥","category":"restaurant"},{"name":"일편단심","tel":"031-571-1255","addr":"경기도 남양주시 별내동 936번지 진영타운 1층 105호","indutype":"일반휴게음식 - 스넥","category":"restaurant"}]},{"lat":"37.651386687","long":"127.11353612","imageIndex":4,"items":[{"name":"봉추찜닭","tel":"031-573-6981","addr":"경기도 남양주시 별내동 1089-1번지 103호","indutype":"일반휴게음식 - 일반한식","category":"restaurant"}]},{"lat":"37.651051701","long":"127.11525804","imageIndex":4,"items":[{"name":"봉평메밀가","tel":"031-574-2822","addr":"경기도 남양주시 별내동 1080-8번지 1층","indutype":"일반휴게음식 - 일반한식","category":"restaurant"},{"name":"신전떡볶이 별내점","tel":"031-529-3618","addr":"경기도 남양주시 별내동 1080-8번지","indutype":"일반휴게음식 - 일반한식","category":"restaurant"}]},{"lat":"37.649808127","long":"127.11550545","imageIndex":4,"items":[{"name":"부어치킨","tel":"031-572-3392","addr":"경기도 남양주시 별내동 1049번지 상가동 103호","indutype":"일반휴게음식 - 스넥","category":"restaurant"}]},{"lat":"37.646328786","long":"127.12611729","imageIndex":4,"items":[{"name":"북경훠궈무한리필","tel":"031-000-0000","addr":"경기도 남양주시 별내동 1007-1번지 2층 201,202호","indutype":"일반휴게음식 - 일반한식","category":"restaurant"}]},{"lat":"37.656307304","long":"127.10190499","imageIndex":4,"items":[{"name":"불암골영양탕","tel":"031-528-8026","addr":"경기도 남양주시 별내동 793-17번지","indutype":"일반휴게음식 - 일반한식","category":"restaurant"}]},{"lat":"37.654133843","long":"127.1044065","imageIndex":4,"items":[{"name":"불암산 무지개송어장","tel":"031-527-8846","addr":"경기도 남양주시 별내동 639-2번지(불암무지개송어장)","indutype":"일반휴게음식 - 일반한식","category":"restaurant"}]},{"lat":"37.656055128","long":"127.10179133","imageIndex":4,"items":[{"name":"불암산수가든","tel":"031-528-5745","addr":"경기도 남양주시 별내동 793-7번지","indutype":"일반휴게음식 - 일반한식","category":"restaurant"}]},{"lat":"37.655883878","long":"127.10187043","imageIndex":4,"items":[{"name":"불암산장","tel":"031-527-9246","addr":"경기도 남양주시 별내동 793-9번지","indutype":"일반휴게음식 - 일반한식","category":"restaurant"}]},{"lat":"37.656029349","long":"127.12884177","imageIndex":4,"items":[{"name":"붓토리마을","tel":"","addr":"경기도 남양주시 별내동 955-5번지 101호","indutype":"일반휴게음식 - 스넥","category":"restaurant"},{"name":"초밥끝판왕","tel":"031-529-5807","addr":"경기도 남양주시 별내동 955-5번지 1층","indutype":"일반휴게음식 - 일반한식","category":"restaurant"}]},{"lat":"37.65600067","long":"127.10226722","imageIndex":4,"items":[{"name":"브라우니카페","tel":"031-528-2088","addr":"경기도 남양주시 별내동 793-19","indutype":"일반휴게음식 - 서양음식","category":"restaurant"}]},{"lat":"37.658807519","long":"127.12582059","imageIndex":4,"items":[{"name":"브라운치킨","tel":"031-527-0217","addr":"경기도 남양주시 별내동 947번지 1층","indutype":"일반휴게음식 - 일반한식","category":"restaurant"}]},{"lat":"37.659140391","long":"127.12628579","imageIndex":4,"items":[{"name":"브런치카페그린","tel":"070-8945-3313","addr":"경기도 남양주시 별내동 946-3번지 1층 우측호","indutype":"일반휴게음식 - 서양음식","category":"restaurant"}]},{"lat":"37.651666411","long":"127.13093077","imageIndex":4,"items":[{"name":"블레스 케이터링","tel":"031-575-0380","addr":"경기도 남양주시 별내동 142-1번지","indutype":"일반휴게음식 - 일반한식","category":"restaurant"}]},{"lat":"37.658581436","long":"127.12662485","imageIndex":4,"items":[{"name":"블레스롤 별내카페거리점","tel":"031-111-1111","addr":"경기도 남양주시 별내동 948-4번지 101호","indutype":"일반휴게음식 - 서양음식","category":"restaurant"}]},{"lat":"37.649585621","long":"127.12189605","imageIndex":4,"items":[{"name":"블레스유","tel":"","addr":"경기도 남양주시 별내동 1060번지 동익미라벨 3904동 18-1호","indutype":"일반휴게음식 - 서양음식","category":"restaurant"},{"name":"수유리 우동","tel":"031-575-8895","addr":"경기도 남양주시 별내동 1060번지 동익미라벨 3904동 18-3호","indutype":"일반휴게음식 - 일반한식","category":"restaurant"}]},{"lat":"37.652552351","long":"127.12814465","imageIndex":4,"items":[{"name":"블리스에잇","tel":"031-527-3880","addr":"경기도 남양주시 별내동 975번지 1층","indutype":"일반휴게음식 - 일반한식","category":"restaurant"}]},{"lat":"37.653279756","long":"127.11242839","imageIndex":4,"items":[{"name":"비비큐올리브치킨카페(별내점)","tel":"031-1588-9282","addr":"경기도 남양주시 별내동 1111-1번지 1층","indutype":"일반휴게음식 - 스넥","category":"restaurant"}]},{"lat":"37.649800791","long":"127.11373773","imageIndex":4,"items":[{"name":"비에이치씨(BHC)별내점","tel":"031-529-9282","addr":"경기도 남양주시 별내동 1096번지 별내택지지구가번지123-11 103호","indutype":"일반휴게음식 - 스넥","category":"restaurant"},{"name":"한솥도시락별내신안점","tel":"031-574-8683","addr":"경기도 남양주시 별내동 1096번지 1층 일부호","indutype":"일반휴게음식 - 스넥","category":"restaurant"}]},{"lat":"37.666186665","long":"127.11661825","imageIndex":4,"items":[{"name":"비와별닭갈비 별내점","tel":"031-000-0000","addr":"경기도 남양주시 별내동 840-6번지 1층","indutype":"일반휴게음식 - 일반한식","category":"restaurant"}]},{"lat":"37.65822099","long":"127.12668092","imageIndex":4,"items":[{"name":"빈스빈스커피","tel":"031-573-7756","addr":"경기도 남양주시 별내동 949-2번지 1층","indutype":"일반휴게음식 - 서양음식","category":"restaurant"}]},{"lat":"37.657832259","long":"127.12792687","imageIndex":4,"items":[{"name":"빌리엔젤 별내카페거리점","tel":"031-571-1009","addr":"경기도 남양주시 별내동 954-1번지 1층","indutype":"일반휴게음식 - 서양음식","category":"restaurant"}]},{"lat":"37.646836818","long":"127.12273016","imageIndex":4,"items":[{"name":"빠마","tel":"031-527-0338","addr":"경기도 남양주시 별내동 1021-4번지 1층","indutype":"일반휴게음식 - 주점","category":"restaurant"}]},{"lat":"37.647610286","long":"127.12406847","imageIndex":4,"items":[{"name":"빨간여우","tel":"070-7435-3993","addr":"경기도 남양주시 별내동 1011-3번지 1층","indutype":"일반휴게음식 - 주점","category":"restaurant"}]},{"lat":"37.651361543","long":"127.11150771","imageIndex":4,"items":[{"name":"뽕부자","tel":"031-528-7654","addr":"경기도 남양주시 별내동 1106-4번지 1층","indutype":"일반휴게음식 - 중국식","category":"restaurant"}]},{"lat":"37.647889504","long":"127.12414825","imageIndex":4,"items":[{"name":"뽕짜","tel":"031-574-8265","addr":"경기도 남양주시 별내동 1011번지 101호","indutype":"일반휴게음식 - 일반한식","category":"restaurant"}]},{"lat":"37.646831145","long":"127.11939883","imageIndex":4,"items":[{"name":"쁘왈란","tel":"070-8882-4842","addr":"경기도 남양주시 별내동 1056번지 쌍용예가아파트 1동 14호","indutype":"일반휴게음식 - 서양음식","category":"restaurant"},{"name":"카페허브(cafehub)","tel":"031-573-0620","addr":"경기도 남양주시 별내동 1056번지 쌍용예가근린생활시설1동지층5호","indutype":"일반휴게음식 - 서양음식","category":"restaurant"}]},{"lat":"37.657301599","long":"127.1270647","imageIndex":4,"items":[{"name":"쁘왈란","tel":"031-527-0444","addr":"경기도 남양주시 별내동 951번지","indutype":"일반휴게음식 - 스넥","category":"restaurant"}]},{"lat":"37.687187763","long":"127.10731983","imageIndex":4,"items":[{"name":"사또오리회전구이","tel":"031-527-5084","addr":"경기도 남양주시 별내동 2286-6번지","indutype":"일반휴게음식 - 일반한식","category":"restaurant"}]},{"lat":"37.672882538","long":"127.1324521","imageIndex":4,"items":[{"name":"사운드피플컴퍼니(SPC)","tel":"031-527-0752","addr":"경기도 남양주시 별내동 878-9번지 1층","indutype":"일반휴게음식 - 서양음식","category":"restaurant"}]},{"lat":"37.656413124","long":"127.13220816","imageIndex":4,"items":[{"name":"산골오리","tel":"031-572-1724","addr":"경기도 남양주시 별내동 27번지","indutype":"일반휴게음식 - 일반한식","category":"restaurant"}]},{"lat":"37.649946904","long":"127.10137529","imageIndex":4,"items":[{"name":"산들밥","tel":"031-529-8857","addr":"경기도 남양주시 별내동 784-13번지","indutype":"일반휴게음식 - 일반한식","category":"restaurant"}]},{"lat":"37.662638602","long":"127.13240029","imageIndex":4,"items":[{"name":"산아래","tel":"031-527-8818","addr":"경기도 남양주시 별내동 1446-57번지 2층","indutype":"일반휴게음식 - 일반한식","category":"restaurant"}]},{"lat":"37.653638027","long":"127.10473445","imageIndex":4,"items":[{"name":"산장","tel":"031-527-8311","addr":"경기도 남양주시 별내동 639-3번지","indutype":"일반휴게음식 - 일반한식","category":"restaurant"},{"name":"산장커피숍","tel":"031-527-8311","addr":"경기도 남양주시 별내동 639-3번지","indutype":"일반휴게음식 - 스넥","category":"restaurant"}]},{"lat":"37.663744448","long":"127.12618008","imageIndex":4,"items":[{"name":"산채향기","tel":"031-528-8155","addr":"경기도 남양주시 별내동 2004-5번지 1,2층","indutype":"일반휴게음식 - 일반한식","category":"restaurant"}]},{"lat":"37.678189554","long":"127.11450544","imageIndex":4,"items":[{"name":"삼릉원","tel":"031-527-4927","addr":"경기도 남양주시 별내동 2198번지","indutype":"일반휴게음식 - 일반한식","category":"restaurant"}]},{"lat":"37.669910532","long":"127.11359762","imageIndex":4,"items":[{"name":"선물","tel":"070-4547-4545","addr":"경기도 남양주시 별내동 806번지 상가동 107호","indutype":"일반휴게음식 - 서양음식","category":"restaurant"}]},{"lat":"37.658329663","long":"127.12614846","imageIndex":4,"items":[{"name":"설기롭게","tel":"031-111-1111","addr":"경기도 남양주시 별내동 948-8번지 1층","indutype":"일반휴게음식 - 서양음식","category":"restaurant"},{"name":"테트리스찜닭 별내점","tel":"","addr":"경기도 남양주시 별내동 948-8번지 1층 101호","indutype":"일반휴게음식 - 일반한식","category":"restaurant"}]},{"lat":"37.658466339","long":"127.12467542","imageIndex":4,"items":[{"name":"설빙(별내점)","tel":"031-571-5665","addr":"경기도 남양주시 별내동 930번지 화성프라자 205,206호","indutype":"일반휴게음식 - 서양음식","category":"restaurant"}]},{"lat":"37.651358471","long":"127.1147939","imageIndex":4,"items":[{"name":"성전","tel":"000-000-000","addr":"경기도 남양주시 별내동 1084-3번지 1층","indutype":"일반휴게음식 - 일반한식","category":"restaurant"}]},{"lat":"37.647357991","long":"127.12409073","imageIndex":4,"items":[{"name":"세꼬시","tel":"031-528-1892","addr":"경기도 남양주시 별내동 1010-5번지","indutype":"일반휴게음식 - 일식·회집","category":"restaurant"}]},{"lat":"37.644550312","long":"127.11139581","imageIndex":4,"items":[{"name":"세상만사감자탕","tel":"031-572-4998","addr":"경기도 남양주시 별내동 558-128번지 102호","indutype":"일반휴게음식 - 일반한식","category":"restaurant"}]},{"lat":"37.650691572","long":"127.11498553","imageIndex":4,"items":[{"name":"셀렉토커피별내서부점","tel":"02-1111-1111","addr":"경기도 남양주시 별내동 1096-10번지 새재빌딩 1층","indutype":"일반휴게음식 - 서양음식","category":"restaurant"}]},{"lat":"37.650083102","long":"127.11048601","imageIndex":4,"items":[{"name":"소나무가든","tel":"031-574-5251","addr":"경기도 남양주시 별내동 621-11번지","indutype":"일반휴게음식 - 일반한식","category":"restaurant"}]},{"lat":"37.664634652","long":"127.10948697","imageIndex":4,"items":[{"name":"소담비빔국수","tel":"031-527-0018","addr":"경기도 남양주시 별내동 124-3 별내택지개발지구 124-3(단독7-1-3)","indutype":"일반휴게음식 - 일반한식","category":"restaurant"}]},{"lat":"37.658189793","long":"127.13059066","imageIndex":4,"items":[{"name":"소물리에 정육식당","tel":"031-572-7772","addr":"경기도 남양주시 별내동 62-2번지","indutype":"일반휴게음식 - 일반한식","category":"restaurant"},{"name":"소물리에 정육식당","tel":"031-572-7772","addr":"경기도 남양주시 별내동 62-2번지 1층","indutype":"일반휴게음식 - 일반한식","category":"restaurant"}]},{"lat":"37.649383857","long":"127.10656433","imageIndex":4,"items":[{"name":"속초감자옹심이","tel":"","addr":"경기도 남양주시 별내동 693-10번지","indutype":"일반휴게음식 - 일반한식","category":"restaurant"}]},{"lat":"37.657552346","long":"127.12850436","imageIndex":4,"items":[{"name":"손맛칼국수","tel":"031-528-7084","addr":"경기도 남양주시 별내동 963-1번지","indutype":"일반휴게음식 - 일반한식","category":"restaurant"}]},{"lat":"37.64683653","long":"127.12301343","imageIndex":4,"items":[{"name":"송가족발","tel":"031-528-1988","addr":"경기도 남양주시 별내동 1021-2번지 1층","indutype":"일반휴게음식 - 일반한식","category":"restaurant"},{"name":"수상한쪽갈비별내직영점","tel":"031-528-9279","addr":"경기도 남양주시 별내동 1021-2번지 101호 102호 일부","indutype":"일반휴게음식 - 일반한식","category":"restaurant"}]},{"lat":"37.643307328","long":"127.11100877","imageIndex":4,"items":[{"name":"송림갈비","tel":"031-528-5337","addr":"경기도 남양주시 별내동 558-67번지","indutype":"일반휴게음식 - 일반한식","category":"restaurant"},{"name":"청와삼대","tel":"031-528-0338","addr":"경기도 남양주시 별내동 558-67번지 1층","indutype":"일반휴게음식 - 일반한식","category":"restaurant"}]},{"lat":"37.642725135","long":"127.12589606","imageIndex":4,"items":[{"name":"송사부수제쌀고로케 이마트별내점","tel":"","addr":"경기도 남양주시 별내동 989번지 이마트 1층 일부","indutype":"일반휴게음식 - 스넥","category":"restaurant"},{"name":"이디야","tel":"031-572-2345","addr":"경기도 남양주시 별내동 989번지 이마트별내점 1층","indutype":"일반휴게음식 - 서양음식","category":"restaurant"}]},{"lat":"37.673413157","long":"127.13331449","imageIndex":4,"items":[{"name":"수원성","tel":"031-552-3355","addr":"경기도 남양주시 별내동 884번지 102호","indutype":"일반휴게음식 - 일반한식","category":"restaurant"}]},{"lat":"37.682717641","long":"127.10882132","imageIndex":4,"items":[{"name":"수인씨의마당","tel":"031-573-0980","addr":"경기도 남양주시 별내동 2265번지","indutype":"일반휴게음식 - 일반한식","category":"restaurant"}]},{"lat":"37.652026108","long":"127.11382036","imageIndex":4,"items":[{"name":"수차이","tel":"031-571-8707","addr":"경기도 남양주시 별내동 1086-10번지 102호","indutype":"일반휴게음식 - 중국식","category":"restaurant"}]},{"lat":"37.657446396","long":"127.12645298","imageIndex":4,"items":[{"name":"수채화를그리다","tel":"070-7420-8894","addr":"경기도 남양주시 별내동 943-1번지 1층 우측호","indutype":"일반휴게음식 - 서양음식","category":"restaurant"}]},{"lat":"37.689269308","long":"127.10695995","imageIndex":4,"items":[{"name":"숲속한상화로구이","tel":"031-529-6709","addr":"경기도 남양주시 별내동 2306-5번지 주1 A동 1층","indutype":"일반휴게음식 - 일반한식","category":"restaurant"}]},{"lat":"37.671936762","long":"127.13223509","imageIndex":4,"items":[{"name":"쉐프의목장 별내점","tel":"031-572-5877","addr":"경기도 남양주시 별내동 873-1번지","indutype":"일반휴게음식 - 일반한식","category":"restaurant"}]},{"lat":"37.647107224","long":"127.12261728","imageIndex":4,"items":[{"name":"스시혼","tel":"031-571-1766","addr":"경기도 남양주시 별내동 1022-4번지 1층","indutype":"일반휴게음식 - 일식·회집","category":"restaurant"}]},{"lat":"37.65739022","long":"127.12845876","imageIndex":4,"items":[{"name":"스위트 아워(Sweet Hour)","tel":"031-528-6263","addr":"경기도 남양주시 별내동 963-8번지 1층","indutype":"일반휴게음식 - 서양음식","category":"restaurant"}]},{"lat":"37.644416152","long":"127.11031921","imageIndex":4,"items":[{"name":"스트릿(STREET)","tel":"02-6031-6780","addr":"경기도 남양주시 별내동 558-8번지","indutype":"일반휴게음식 - 일반한식","category":"restaurant"}]},{"lat":"37.651277599","long":"127.11456714","imageIndex":4,"items":[{"name":"스틸러(Stealer)","tel":"031-574-0543","addr":"경기도 남양주시 별내동 1084-9번지 1층","indutype":"일반휴게음식 - 서양음식","category":"restaurant"}]},{"lat":"37.65141298","long":"127.11431805","imageIndex":4,"items":[{"name":"슬기로운 먹거리","tel":"031-157-7000","addr":"경기도 남양주시 별내동 1084-11번지 1층 일부","indutype":"일반휴게음식 - 일반한식","category":"restaurant"}]},{"lat":"37.65602629","long":"127.13167487","imageIndex":4,"items":[{"name":"시골풍경","tel":"031-574-9746","addr":"경기도 남양주시 별내동 38번지","indutype":"일반휴게음식 - 일반한식","category":"restaurant"}]},{"lat":"37.647222787","long":"127.12414716","imageIndex":4,"items":[{"name":"신의주찹쌀순대","tel":"031-575-8931","addr":"경기도 남양주시 별내동 1010-4번지 1층","indutype":"일반휴게음식 - 일반한식","category":"restaurant"}]},{"lat":"37.649746712","long":"127.11376032","imageIndex":4,"items":[{"name":"신의주찹쌀순대","tel":"031-574-0320","addr":"경기도 남양주시 별내동 448-1번지,1층","indutype":"일반휴게음식 - 일반한식","category":"restaurant"}]},{"lat":"37.658859157","long":"127.12812125","imageIndex":4,"items":[{"name":"신촌설렁탕","tel":"031-571-6088","addr":"경기도 남양주시 별내동 959-10번지 1층","indutype":"일반휴게음식 - 일반한식","category":"restaurant"}]},{"lat":"37.666494771","long":"127.11475995","imageIndex":4,"items":[{"name":"신촌설렁탕","tel":"031-575-3136","addr":"경기도 남양주시 별내동 831-3번지 1층","indutype":"일반휴게음식 - 일반한식","category":"restaurant"}]},{"lat":"37.665521092","long":"127.11542718","imageIndex":4,"items":[{"name":"싱싱활어","tel":"031-527-6348","addr":"경기도 남양주시 별내동 847-1번지 덕송빌딩 1층","indutype":"일반휴게음식 - 일반한식","category":"restaurant"}]},{"lat":"37.65035937","long":"127.11376123","imageIndex":4,"items":[{"name":"싹쓰리별내점","tel":"","addr":"경기도 남양주시 별내동 1094-5번지 1층 좌측호","indutype":"일반휴게음식 - 일반한식","category":"restaurant"},{"name":"집밥","tel":"031-528-2322","addr":"경기도 남양주시 별내동 1094-5번지","indutype":"일반휴게음식 - 일반한식","category":"restaurant"}]},{"lat":"37.650053921","long":"127.11282026","imageIndex":4,"items":[{"name":"쌀똑핫도그","tel":"02-539-7009","addr":"경기도 남양주시 별내동 1097-3번지 영주프라자빌딩 1층 102호","indutype":"일반휴게음식 - 일반한식","category":"restaurant"},{"name":"아지트","tel":"031-555-7878","addr":"경기도 남양주시 별내동 1097-3번지 영주프라자빌딩 7층 701호","indutype":"일반휴게음식 - 주점","category":"restaurant"}]},{"lat":"37.683129349","long":"127.10158919","imageIndex":4,"items":[{"name":"쌈밥정식","tel":"031-527-2255","addr":"경기도 남양주시 별내동 2334번지","indutype":"일반휴게음식 - 일반한식","category":"restaurant"}]},{"lat":"37.666161177","long":"127.11500879","imageIndex":4,"items":[{"name":"쏘닭별내점","tel":"031-527-4392","addr":"경기도 남양주시 별내동 831-6번지 1층 101호","indutype":"일반휴게음식 - 스넥","category":"restaurant"}]},{"lat":"37.667161012","long":"127.11525965","imageIndex":4,"items":[{"name":"아구사랑쭈구미","tel":"031-575-9429","addr":"경기도 남양주시 별내동 828-3번지 1층 101호","indutype":"일반휴게음식 - 일반한식","category":"restaurant"}]},{"lat":"37.656723154","long":"127.12878628","imageIndex":4,"items":[{"name":"아시안 트럭","tel":"","addr":"경기도 남양주시 별내동 965-2번지 402호","indutype":"일반휴게음식 - 서양음식","category":"restaurant"}]},{"lat":"37.646917502","long":"127.12312687","imageIndex":4,"items":[{"name":"아씨네족발","tel":"031-528-5898","addr":"경기도 남양주시 별내동 1021-1번지 1층","indutype":"일반휴게음식 - 일반한식","category":"restaurant"}]},{"lat":"37.665745824","long":"127.11596022","imageIndex":4,"items":[{"name":"알비디","tel":"031-852-0330","addr":"경기도 남양주시 별내동 840-12번지 1층","indutype":"일반휴게음식 - 스넥","category":"restaurant"},{"name":"육연참","tel":"031-528-1707","addr":"경기도 남양주시 별내동 840-12번지 1층 103호","indutype":"일반휴게음식 - 일식·회집","category":"restaurant"}]},{"lat":"37.647026584","long":"127.12217524","imageIndex":4,"items":[{"name":"애프터글로우","tel":"070-4126-2659","addr":"경기도 남양주시 별내동 1024번지 101호","indutype":"일반휴게음식 - 일반한식","category":"restaurant"}]},{"lat":"37.666468812","long":"127.11362651","imageIndex":4,"items":[{"name":"야미가 별내점","tel":"031-571-8833","addr":"경기도 남양주시 별내동 832-1번지 1층 101호","indutype":"일반휴게음식 - 일반한식","category":"restaurant"}]},{"lat":"37.691080642","long":"127.10650897","imageIndex":4,"items":[{"name":"약초마을","tel":"031-527-9192","addr":"경기도 남양주시 별내동 2309번지","indutype":"일반휴게음식 - 일반한식","category":"restaurant"}]},{"lat":"37.65755249","long":"127.12836837","imageIndex":4,"items":[{"name":"어메이징 츄러스","tel":"","addr":"경기도 남양주시 별내동 963번지 1층 일부","indutype":"일반휴게음식 - 서양음식","category":"restaurant"},{"name":"푸라닭남양주별내점","tel":"031-571-1544","addr":"경기도 남양주시 별내동 963번지 1층 101호","indutype":"일반휴게음식 - 스넥","category":"restaurant"}]},{"lat":"37.656525171","long":"127.12857063","imageIndex":4,"items":[{"name":"어반클락","tel":"031-1899-3272","addr":"경기도 남양주시 별내동 955-2번지","indutype":"일반휴게음식 - 일반한식","category":"restaurant"}]},{"lat":"37.668662686","long":"127.13544836","imageIndex":4,"items":[{"name":"어부가","tel":"031-529-9291","addr":"경기도 남양주시 별내동 1485-19번지","indutype":"일반휴게음식 - 일반한식","category":"restaurant"}]},{"lat":"37.653079309","long":"127.10486968","imageIndex":4,"items":[{"name":"얼개탕","tel":"031-529-5240","addr":"경기도 남양주시 별내동 641번지","indutype":"일반휴게음식 - 일반한식","category":"restaurant"}]},{"lat":"37.647220268","long":"127.10798904","imageIndex":4,"items":[{"name":"엄마손전통맛집","tel":"031-528-1199","addr":"경기도 남양주시 별내동 716-2번지","indutype":"일반휴게음식 - 일반한식","category":"restaurant"}]},{"lat":"37.658913743","long":"127.12762269","imageIndex":4,"items":[{"name":"에이치스틸러","tel":"","addr":"경기도 남양주시 별내동 953-2번지 101호","indutype":"일반휴게음식 - 일반한식","category":"restaurant"}]},{"lat":"37.65672348","long":"127.1284803","imageIndex":4,"items":[{"name":"엘리","tel":"031-528-6263","addr":"경기도 남양주시 별내동 955-1번지 1층","indutype":"일반휴게음식 - 일반한식","category":"restaurant"}]},{"lat":"37.67205245","long":"127.1335388","imageIndex":4,"items":[{"name":"엘리팝별내점","tel":"","addr":"경기도 남양주시 별내동 882-3번지 삼원프라자 101,102호","indutype":"일반휴게음식 - 주점","category":"restaurant"},{"name":"장위동유성집(별내)","tel":"031-574-1588","addr":"경기도 남양주시 별내동 882-3번지 105,106호","indutype":"일반휴게음식 - 일반한식","category":"restaurant"}]},{"lat":"37.672909417","long":"127.13258817","imageIndex":4,"items":[{"name":"연당한식뷔페","tel":"031-572-0166","addr":"경기도 남양주시 별내동 878-8번지 1층","indutype":"일반휴게음식 - 일반한식","category":"restaurant"}]},{"lat":"37.662522627","long":"127.12278937","imageIndex":4,"items":[{"name":"연화식당","tel":"031-527-8391","addr":"경기도 남양주시 별내동 86","indutype":"일반휴게음식 - 일반한식","category":"restaurant"}]},{"lat":"37.650439666","long":"127.11459988","imageIndex":4,"items":[{"name":"열정김치찌개","tel":"031-574-7679","addr":"경기도 남양주시 별내동 1096-7번지 1층 102호 일부","indutype":"일반휴게음식 - 일반한식","category":"restaurant"},{"name":"예스초밥","tel":"031-555-3546","addr":"경기도 남양주시 별내동 1096-7번지 1층 102호","indutype":"일반휴게음식 - 일식·회집","category":"restaurant"}]},{"lat":"37.665717539","long":"127.11726357","imageIndex":4,"items":[{"name":"영순이분식","tel":"031-573-0762","addr":"경기도 남양주시 별내동 841-5번지 1층 104호","indutype":"일반휴게음식 - 일반한식","category":"restaurant"}]},{"lat":"37.681886774","long":"127.10068064","imageIndex":4,"items":[{"name":"옛날기와집","tel":"031-527-0166","addr":"경기도 남양주시 별내동 2339번지","indutype":"일반휴게음식 - 일반한식","category":"restaurant"}]},{"lat":"37.651583358","long":"127.10526424","imageIndex":4,"items":[{"name":"옛집","tel":"031-527-0549","addr":"경기도 남양주시 별내동 653-6번지","indutype":"일반휴게음식 - 일반한식","category":"restaurant"}]},{"lat":"37.66666561","long":"127.11512289","imageIndex":4,"items":[{"name":"오가다 별내북부역점","tel":"031-572-2200","addr":"경기도 남양주시 별내동 829-13번지 1층","indutype":"일반휴게음식 - 서양음식","category":"restaurant"}]},{"lat":"37.666800863","long":"127.11500976","imageIndex":4,"items":[{"name":"오감만족","tel":"031-529-1357","addr":"경기도 남양주시 별내동 829번지 1층 102호","indutype":"일반휴게음식 - 일반한식","category":"restaurant"},{"name":"정성담음 윤서네 바른 이유식","tel":"031-528-6263","addr":"경기도 남양주시 별내동 829번지 1층 101호","indutype":"일반휴게음식 - 일반한식","category":"restaurant"}]},{"lat":"37.657663786","long":"127.12534274","imageIndex":4,"items":[{"name":"오늘애김밥 별내점","tel":"031-575-0669","addr":"경기도 남양주시 별내동 931-3번지 삼호프라자 1동 1층 101호","indutype":"일반휴게음식 - 일반한식","category":"restaurant"}]},{"lat":"37.666250289","long":"127.11604032","imageIndex":4,"items":[{"name":"오븐마루","tel":"031-565-7300","addr":"경기도 남양주시 별내동 839-3번지","indutype":"일반휴게음식 - 스넥","category":"restaurant"}]},{"lat":"37.66530541","long":"127.11484883","imageIndex":4,"items":[{"name":"오엠지카페","tel":"031-111-1111","addr":"경기도 남양주시 별내동 848-7번지 1층 1호","indutype":"일반휴게음식 - 서양음식","category":"restaurant"}]},{"lat":"37.65621697","long":"127.1303153","imageIndex":4,"items":[{"name":"오장면옥","tel":"031-573-2144","addr":"경기도 남양주시 별내동 75-11번지","indutype":"일반휴게음식 - 일반한식","category":"restaurant"}]},{"lat":"37.6593001","long":"127.12862064","imageIndex":4,"items":[{"name":"오투닭갈비","tel":"031-527-3544","addr":"경기도 남양주시 별내동 957-2번지 1층","indutype":"일반휴게음식 - 일반한식","category":"restaurant"}]},{"lat":"37.657806438","long":"127.12678222","imageIndex":4,"items":[{"name":"올리앤","tel":"031-573-8799","addr":"경기도 남양주시 별내동 950-1번지 1층","indutype":"일반휴게음식 - 일반한식","category":"restaurant"}]},{"lat":"37.68266117","long":"127.10120313","imageIndex":4,"items":[{"name":"옻닭의 신","tel":"031-529-6707","addr":"경기도 남양주시 별내동 2337-2번지","indutype":"일반휴게음식 - 일반한식","category":"restaurant"}]},{"lat":"37.647467416","long":"127.12281049","imageIndex":4,"items":[{"name":"와가마마","tel":"031-572-0048","addr":"경기도 남양주시 별내동 1022번지","indutype":"일반휴게음식 - 주점","category":"restaurant"}]},{"lat":"37.650107333","long":"127.11351156","imageIndex":4,"items":[{"name":"요거프레소 별내중앙점","tel":"031-552-5659","addr":"경기도 남양주시 별내동 1095번지 106호","indutype":"일반휴게음식 - 일반한식","category":"restaurant"}]},{"lat":"37.658273384","long":"127.12825626","imageIndex":4,"items":[{"name":"요리가 된 건어물","tel":"031-853-1101","addr":"경기도 남양주시 별내동 961-1번지 1층","indutype":"일반휴게음식 - 주점","category":"restaurant"}]},{"lat":"37.656778859","long":"127.12723382","imageIndex":4,"items":[{"name":"우미오토","tel":"031-527-8383","addr":"경기도 남양주시 별내동 952번지 1층","indutype":"일반휴게음식 - 서양음식","category":"restaurant"}]},{"lat":"37.650585598","long":"127.11270773","imageIndex":4,"items":[{"name":"웁스떡볶이","tel":"031-572-8591","addr":"경기도 남양주시 별내동 1090-7번지 103호","indutype":"일반휴게음식 - 스넥","category":"restaurant"}]},{"lat":"37.650891101","long":"127.11359204","imageIndex":4,"items":[{"name":"원시쪽갈비","tel":"031-528-6855","addr":"경기도 남양주시 별내동 1091-2번지 상가 1층 101호","indutype":"일반휴게음식 - 일반한식","category":"restaurant"}]},{"lat":"37.651772053","long":"127.11570106","imageIndex":4,"items":[{"name":"원조동태용수마을","tel":"031-527-8550","addr":"경기도 남양주시 별내동 1080-2번지 101호","indutype":"일반휴게음식 - 일반한식","category":"restaurant"}]},{"lat":"37.650639455","long":"127.1129231","imageIndex":4,"items":[{"name":"월남선생 별내점","tel":"031-527-6558","addr":"경기도 남양주시 별내동 1090-5번지 1층","indutype":"일반휴게음식 - 일반한식","category":"restaurant"},{"name":"하노이키친","tel":"031-527-6558","addr":"경기도 남양주시 별내동 1090-5번지","indutype":"일반휴게음식 - 서양음식","category":"restaurant"}]},{"lat":"37.6654129","long":"127.11550636","imageIndex":4,"items":[{"name":"유즈(YUZU)","tel":"070-7435-3993","addr":"경기도 남양주시 별내동 847-2번지 102호","indutype":"일반휴게음식 - 서양음식","category":"restaurant"},{"name":"치킨플러스별내점","tel":"031-575-4867","addr":"경기도 남양주시 별내동 847-2번지 1층 정면좌측호","indutype":"일반휴게음식 - 스넥","category":"restaurant"}]},{"lat":"37.650029754","long":"127.10970406","imageIndex":4,"items":[{"name":"유한가든","tel":"031-528-8599","addr":"경기도 남양주시 별내동 623-4","indutype":"일반휴게음식 - 일반한식","category":"restaurant"}]},{"lat":"37.650079729","long":"127.11412342","imageIndex":4,"items":[{"name":"육마루","tel":"031-527-9990","addr":"경기도 남양주시 별내동 1096-3번지","indutype":"일반휴게음식 - 일반한식","category":"restaurant"}]},{"lat":"37.647501656","long":"127.12456687","imageIndex":4,"items":[{"name":"육시리","tel":"031-528-8695","addr":"경기도 남양주시 별내동 1010-1번지 1층","indutype":"일반휴게음식 - 일반한식","category":"restaurant"}]},{"lat":"37.666828067","long":"127.13243024","imageIndex":4,"items":[{"name":"윤정솥뚜껑생삼겹살","tel":"","addr":"경기도 남양주시 별내동 893번지 유승한내들이노스타 상가동 102,103호","indutype":"일반휴게음식 - 일반한식","category":"restaurant"}]},{"lat":"37.652304756","long":"127.11451202","imageIndex":4,"items":[{"name":"응급실국물떡볶이 남양주별내점","tel":"031-527-0119","addr":"경기도 남양주시 별내동 1085-13번지 1층","indutype":"일반휴게음식 - 스넥","category":"restaurant"}]},{"lat":"37.671772092","long":"127.11720485","imageIndex":4,"items":[{"name":"이공비빔국수,왕돈까스","tel":"031-527-8859","addr":"경기도 남양주시 별내동 2191-1번지 1층","indutype":"일반휴게음식 - 일반한식","category":"restaurant"}]},{"lat":"37.668381641","long":"127.11062576","imageIndex":4,"items":[{"name":"이구동성로스터리카페","tel":"031-529-6573","addr":"경기도 남양주시 별내동 2190-16번지","indutype":"일반휴게음식 - 서양음식","category":"restaurant"}]},{"lat":"37.659247161","long":"127.12756659","imageIndex":4,"items":[{"name":"이디야 (별내동부점 )","tel":"031-572-5285","addr":"경기도 남양주시 별내동 953번지 101호","indutype":"일반휴게음식 - 서양음식","category":"restaurant"}]},{"lat":"37.646112293","long":"127.12636622","imageIndex":4,"items":[{"name":"이디야 백상앨리츠점","tel":"031-574-3618","addr":"경기도 남양주시 별내동 1007-2번지 106, 107, 108호","indutype":"일반휴게음식 - 서양음식","category":"restaurant"},{"name":"현대뷔페","tel":"070-1111-1111","addr":"경기도 남양주시 별내동 1007-2번지 201호,202호","indutype":"일반휴게음식 - 일반한식","category":"restaurant"}]},{"lat":"37.667250209","long":"127.11620051","imageIndex":4,"items":[{"name":"이디야 별내북부점","tel":"031-556-0408","addr":"경기도 남양주시 별내동 827-2번지 1층","indutype":"일반휴게음식 - 서양음식","category":"restaurant"}]},{"lat":"37.647225015","long":"127.12196027","imageIndex":4,"items":[{"name":"이디야 별내중앙점","tel":"031-574-7566","addr":"경기도 남양주시 별내동 1023-5번지 102호","indutype":"일반휴게음식 - 서양음식","category":"restaurant"}]},{"lat":"37.651134798","long":"127.11312781","imageIndex":4,"items":[{"name":"이삭토스트","tel":"031-564-2580","addr":"경기도 남양주시 별내동 1090-11번지 별빛마을3단지 102호 상가","indutype":"일반휴게음식 - 스넥","category":"restaurant"}]},{"lat":"37.659084963","long":"127.12758898","imageIndex":4,"items":[{"name":"이영커피","tel":"031-572-3937","addr":"경기도 남양주시 별내동 953-1번지 101호","indutype":"일반휴게음식 - 서양음식","category":"restaurant"}]},{"lat":"37.657137804","long":"127.12859432","imageIndex":4,"items":[{"name":"이츠이츠/주식회사 케이제이글로벌","tel":"070-4063-3401","addr":"경기도 남양주시 별내동 964번지 낭암빌딩 1층","indutype":"일반휴게음식 - 서양음식","category":"restaurant"}]},{"lat":"37.650584687","long":"127.11368224","imageIndex":4,"items":[{"name":"인생술집","tel":"031-111-1111","addr":"경기도 남양주시 별내동 1094번지 1층 101호","indutype":"일반휴게음식 - 일반한식","category":"restaurant"},{"name":"참치현","tel":"031-573-3782","addr":"경기도 남양주시 별내동 1094번지","indutype":"일반휴게음식 - 일반한식","category":"restaurant"}]},{"lat":"37.665854027","long":"127.11586971","imageIndex":4,"items":[{"name":"인생집(흑돼지소금구이)","tel":"","addr":"경기도 남양주시 별내동 840-1번지 1층 일부","indutype":"일반휴게음식 - 일반한식","category":"restaurant"}]},{"lat":"37.65038609","long":"127.11408988","imageIndex":4,"items":[{"name":"일품의정부부대찌개","tel":"031-527-8886","addr":"경기도 남양주시 별내동 1094-3번지 1층","indutype":"일반휴게음식 - 일반한식","category":"restaurant"}]},{"lat":"37.651441212","long":"127.11303761","imageIndex":4,"items":[{"name":"자담치킨 별내별빛점","tel":"031-527-4555","addr":"경기도 남양주시 별내동 1088-1번지 1층 일부","indutype":"일반휴게음식 - 스넥","category":"restaurant"},{"name":"치르비어369(별내점)","tel":"031-572-6690","addr":"경기도 남양주시 별내동 1088-1번지","indutype":"일반휴게음식 - 주점","category":"restaurant"}]},{"lat":"37.653277571","long":"127.10481329","imageIndex":4,"items":[{"name":"장수누룽지백숙","tel":"031-573-0026","addr":"경기도 남양주시 별내동 641-1번지","indutype":"일반휴게음식 - 일반한식","category":"restaurant"}]},{"lat":"37.657667502","long":"127.13034045","imageIndex":4,"items":[{"name":"전설애국밥","tel":"031-571-6989","addr":"경기도 남양주시 별내동 71-10번지 1층","indutype":"일반휴게음식 - 일반한식","category":"restaurant"}]},{"lat":"37.647411699","long":"127.12443075","imageIndex":4,"items":[{"name":"전주콩나물국밥","tel":"031-575-3116","addr":"경기도 남양주시 별내동 1010-2번지 1층","indutype":"일반휴게음식 - 일반한식","category":"restaurant"}]},{"lat":"37.65158526","long":"127.11315114","imageIndex":4,"items":[{"name":"정글반","tel":"031-571-0909","addr":"경기도 남양주시 별내동 1088번지","indutype":"일반휴게음식 - 서양음식","category":"restaurant"}]},{"lat":"37.651055495","long":"127.11120131","imageIndex":4,"items":[{"name":"정글크랩","tel":"031-571-2348","addr":"경기도 남양주시 별내동 1100번지","indutype":"일반휴게음식 - 일식·회집","category":"restaurant"}]},{"lat":"37.647862079","long":"127.12453346","imageIndex":4,"items":[{"name":"정다래 함박스텍","tel":"031-572-3979","addr":"경기도 남양주시 별내동 1013-4번지 1층 101호","indutype":"일반휴게음식 - 일반한식","category":"restaurant"}]},{"lat":"37.648304635","long":"127.12348038","imageIndex":4,"items":[{"name":"제이부띠","tel":"031-571-8889","addr":"경기도 남양주시 별내동 1014-3번지 (별내택지개발지구 129-4 단독 8-1-4) 103호","indutype":"일반휴게음식 - 서양음식","category":"restaurant"},{"name":"피자알볼로 별내신도시지점","tel":"","addr":"경기도 남양주시 별내동 1014-3번지","indutype":"일반휴게음식 - 서양음식","category":"restaurant"}]},{"lat":"37.666439872","long":"127.11564392","imageIndex":4,"items":[{"name":"제주돗야지해초쌈별내점","tel":"031-528-6263","addr":"경기도 남양주시 별내동 830-11번지 1층","indutype":"일반휴게음식 - 일반한식","category":"restaurant"}]},{"lat":"37.650945287","long":"127.11345614","imageIndex":4,"items":[{"name":"제주애육당","tel":"031-529-2703","addr":"경기도 남양주시 별내동 1091-11번지 1층","indutype":"일반휴게음식 - 일반한식","category":"restaurant"}]},{"lat":"37.650863678","long":"127.11401127","imageIndex":4,"items":[{"name":"종로상회(별내점)","tel":"031-571-2738","addr":"경기도 남양주시 별내동 448 1층","indutype":"일반휴게음식 - 일반한식","category":"restaurant"}]},{"lat":"37.65713813","long":"127.12828835","imageIndex":4,"items":[{"name":"주커피 별내카페거리점","tel":"031-528-8212","addr":"경기도 남양주시 별내동 954-5번지 1층","indutype":"일반휴게음식 - 서양음식","category":"restaurant"}]},{"lat":"37.643912594","long":"127.10923075","imageIndex":4,"items":[{"name":"중국관","tel":"031-528-8236","addr":"경기도 남양주시 별내동 558-60번지","indutype":"일반휴게음식 - 중국식","category":"restaurant"},{"name":"캠토","tel":"070-8113-0263","addr":"경기도 남양주시 별내동 558-60번지 1층 102호","indutype":"일반휴게음식 - 일반한식","category":"restaurant"}]},{"lat":"37.646692156","long":"127.12322849","imageIndex":4,"items":[{"name":"진미한우곱창","tel":"","addr":"경기도 남양주시 별내동 1020번지 1층 101호","indutype":"일반휴게음식 - 일반한식","category":"restaurant"},{"name":"짝태와노가리","tel":"031-571-1055","addr":"경기도 남양주시 별내동 1020번지 101호","indutype":"일반휴게음식 - 주점","category":"restaurant"}]},{"lat":"37.651799924","long":"127.11481722","imageIndex":4,"items":[{"name":"집김밥","tel":"","addr":"경기도 남양주시 별내동 1083-1번지 가온빌라 1층","indutype":"일반휴게음식 - 스넥","category":"restaurant"}]},{"lat":"37.651946428","long":"127.11231312","imageIndex":4,"items":[{"name":"짜순이","tel":"031-528-5511","addr":"경기도 남양주시 별내동 1102-2번지 1층","indutype":"일반휴게음식 - 중국식","category":"restaurant"}]},{"lat":"37.65202567","long":"127.11428497","imageIndex":4,"items":[{"name":"짬뽕쟁이","tel":"031-111-1111","addr":"경기도 남양주시 별내동 1085-11번지 1층 101호","indutype":"일반휴게음식 - 중국식","category":"restaurant"}]},{"lat":"37.650666199","long":"127.1132291","imageIndex":4,"items":[{"name":"쭈꾸미신사","tel":"031-575-4468","addr":"경기도 남양주시 별내동 1091-9번지","indutype":"일반휴게음식 - 일반한식","category":"restaurant"}]},{"lat":"37.658779886","long":"127.12639852","imageIndex":4,"items":[{"name":"찜앤구이","tel":"031-562-5650","addr":"경기도 남양주시 별내동 947-6번지 1층","indutype":"일반휴게음식 - 일반한식","category":"restaurant"}]},{"lat":"37.652385607","long":"127.11476144","imageIndex":4,"items":[{"name":"차앤화","tel":"031-572-6495","addr":"경기도 남양주시 별내동 1085-1번지 1층 중앙","indutype":"일반휴게음식 - 일반한식","category":"restaurant"}]},{"lat":"37.646801055","long":"127.12245816","imageIndex":4,"items":[{"name":"차오차오","tel":"031-552-7575","addr":"경기도 남양주시 별내동 1024-2번지 1동 101호","indutype":"일반휴게음식 - 중국식","category":"restaurant"}]},{"lat":"37.666853805","long":"127.11617724","imageIndex":4,"items":[{"name":"참숯뒷통고기","tel":"031-573-9909","addr":"경기도 남양주시 별내동 830-6번지 1층","indutype":"일반휴게음식 - 일반한식","category":"restaurant"}]},{"lat":"37.647665824","long":"127.12261818","imageIndex":4,"items":[{"name":"처갓집양념치킨별내점","tel":"031-553-3311","addr":"경기도 남양주시 별내동 1023번지 1층 104호","indutype":"일반휴게음식 - 일반한식","category":"restaurant"}]},{"lat":"37.650773399","long":"127.11420378","imageIndex":4,"items":[{"name":"청담동말자 남양주별내1호점","tel":"031-573-8381","addr":"경기도 남양주시 별내동 1093-2번지","indutype":"일반휴게음식 - 일반한식","category":"restaurant"}]},{"lat":"37.650522139","long":"127.1131269","imageIndex":4,"items":[{"name":"청송한식뷔페맛집","tel":"070-1111-1111","addr":"경기도 남양주시 별내동 1091-8번지 1층","indutype":"일반휴게음식 - 일반한식","category":"restaurant"}]},{"lat":"37.650169719","long":"127.11423687","imageIndex":4,"items":[{"name":"청수갈비","tel":"031-575-6709","addr":"경기도 남양주시 별내동 1096-4번지 1층","indutype":"일반휴게음식 - 일반한식","category":"restaurant"}]},{"lat":"37.665249387","long":"127.11690017","imageIndex":4,"items":[{"name":"초이하우스","tel":"031-527-6802","addr":"경기도 남양주시 별내동 846-5번지 1층","indutype":"일반휴게음식 - 일반한식","category":"restaurant"}]},{"lat":"37.643973483","long":"127.11162159","imageIndex":4,"items":[{"name":"최고집해물찜칼국수","tel":"031-529-3688","addr":"경기도 남양주시 별내동 558-94번지","indutype":"일반휴게음식 - 일반한식","category":"restaurant"}]},{"lat":"37.652168772","long":"127.1153957","imageIndex":4,"items":[{"name":"춘천명동닭갈비","tel":"031-528-8799","addr":"경기도 남양주시 별내동 1081번지 1층","indutype":"일반휴게음식 - 일반한식","category":"restaurant"}]},{"lat":"37.652828734","long":"127.11300566","imageIndex":4,"items":[{"name":"춘천별닭갈비","tel":"","addr":"경기도 남양주시 별내동 1103-3번지","indutype":"일반휴게음식 - 일반한식","category":"restaurant"}]},{"lat":"37.66618733","long":"127.11592688","imageIndex":4,"items":[{"name":"치어스별내북부점","tel":"031-572-3245","addr":"경기도 남양주시 별내동 839-2번지","indutype":"일반휴게음식 - 서양음식","category":"restaurant"}]},{"lat":"37.643333972","long":"127.11142804","imageIndex":4,"items":[{"name":"카페 공강","tel":"","addr":"경기도 남양주시 별내동 558-155번지 1층","indutype":"일반휴게음식 - 서양음식","category":"restaurant"}]},{"lat":"37.65896897","long":"127.12651216","imageIndex":4,"items":[{"name":"카페947","tel":"070-8848-9474","addr":"경기도 남양주시 별내동 947-4번지 1층","indutype":"일반휴게음식 - 서양음식","category":"restaurant"}]},{"lat":"37.673135206","long":"127.13208982","imageIndex":4,"items":[{"name":"카페라네","tel":"","addr":"경기도 남양주시 별내동 874-8번지 1층","indutype":"일반휴게음식 - 서양음식","category":"restaurant"}]},{"lat":"37.651667328","long":"127.1120974","imageIndex":4,"items":[{"name":"카페마루","tel":"031-528-6265","addr":"경기도 남양주시 별내동 1102-4번지 103호","indutype":"일반휴게음식 - 서양음식","category":"restaurant"}]},{"lat":"37.657994469","long":"127.12789314","imageIndex":4,"items":[{"name":"카페아망","tel":"031-528-1213","addr":"경기도 남양주시 별내동 954번지 1층","indutype":"일반휴게음식 - 서양음식","category":"restaurant"}]},{"lat":"37.648360711","long":"127.11216055","imageIndex":4,"items":[{"name":"카페진","tel":"070-4134-5654","addr":"경기도 남양주시 별내동 1047번지 신안인스빌 상가동 지층 107호","indutype":"일반휴게음식 - 서양음식","category":"restaurant"}]},{"lat":"37.664887245","long":"127.11870168","imageIndex":4,"items":[{"name":"커피에반하다 별내별가람점","tel":"031-574-2930","addr":"경기도 남양주시 별내동 858번지 1층","indutype":"일반휴게음식 - 서양음식","category":"restaurant"}]},{"lat":"37.681774821","long":"127.10520369","imageIndex":4,"items":[{"name":"커피작품","tel":"031-527-5983","addr":"경기도 남양주시 별내동 2229-3번지","indutype":"일반휴게음식 - 일반한식","category":"restaurant"}]},{"lat":"37.658132629","long":"127.12501486","imageIndex":4,"items":[{"name":"컵스탑","tel":"031-527-7070","addr":"경기도 남양주시 별내동 931번지 E드림타워 1층 일부","indutype":"일반휴게음식 - 스넥","category":"restaurant"}]},{"lat":"37.649857681","long":"127.12012877","imageIndex":4,"items":[{"name":"코리아푸드","tel":"031-527-0903","addr":"경기도 남양주시 별내동 1058번지 동익미라벨 3801동 6호","indutype":"일반휴게음식 - 일반한식","category":"restaurant"}]},{"lat":"37.656246905","long":"127.12759557","imageIndex":4,"items":[{"name":"콩식당","tel":"031-573-3788","addr":"경기도 남양주시 별내동 952-4번지 1층","indutype":"일반휴게음식 - 일반한식","category":"restaurant"}]},{"lat":"37.658859337","long":"127.12795125","imageIndex":4,"items":[{"name":"크래프트한스","tel":"031-111-1111","addr":"경기도 남양주시 별내동 959-11번지 1층","indutype":"일반휴게음식 - 주점","category":"restaurant"}]},{"lat":"37.657446039","long":"127.12679296","imageIndex":4,"items":[{"name":"크리스탈라운지","tel":"","addr":"경기도 남양주시 별내동 950-4번지","indutype":"일반휴게음식 - 서양음식","category":"restaurant"}]},{"lat":"37.647773687","long":"127.12286764","imageIndex":4,"items":[{"name":"클린컵커피로스터스","tel":"031-572-8954","addr":"경기도 남양주시 별내동 1018번지 별내동에스프라자헤르메스 104,105호","indutype":"일반휴게음식 - 서양음식","category":"restaurant"}]},{"lat":"37.657300424","long":"127.12817529","imageIndex":4,"items":[{"name":"타르타르별내점","tel":"031-529-7755","addr":"경기도 남양주시 별내동 954-4번지","indutype":"일반휴게음식 - 서양음식","category":"restaurant"}]},{"lat":"37.647332155","long":"127.12292358","imageIndex":4,"items":[{"name":"탐라","tel":"031-528-6263","addr":"경기도 남양주시 별내동 1022-1번지","indutype":"일반휴게음식 - 일반한식","category":"restaurant"}]},{"lat":"37.65014084","long":"127.10637275","imageIndex":4,"items":[{"name":"태릉농원","tel":"031-527-5662","addr":"경기도 남양주시 별내동 643-10번지 2층","indutype":"일반휴게음식 - 일반한식","category":"restaurant"}]},{"lat":"37.646832882","long":"127.1079545","imageIndex":4,"items":[{"name":"태릉석정갈비","tel":"031-527-0310","addr":"경기도 남양주시 별내동 717-2번지 1층","indutype":"일반휴게음식 - 일반한식","category":"restaurant"}]},{"lat":"37.647691256","long":"127.12418192","imageIndex":4,"items":[{"name":"태양부양꼬치","tel":"031-529-6262","addr":"경기도 남양주시 별내동 1011-2번지","indutype":"일반휴게음식 - 일반한식","category":"restaurant"}]},{"lat":"37.648939603","long":"127.10967983","imageIndex":4,"items":[{"name":"태형전기(주)플레이버엠지점","tel":"031-527-1329","addr":"경기도 남양주시 별내동 604-5번지 1층 103호","indutype":"일반휴게음식 - 서양음식","category":"restaurant"}]},{"lat":"37.643803771","long":"127.1100124","imageIndex":4,"items":[{"name":"토리코코로","tel":"","addr":"경기도 남양주시 별내동 558-65번지 1층 일부호","indutype":"일반휴게음식 - 서양음식","category":"restaurant"}]},{"lat":"37.656968205","long":"127.12709814","imageIndex":4,"items":[{"name":"토이스퍼피앤조이","tel":"031-571-9970","addr":"경기도 남양주시 별내동 951-3번지 1층 101호","indutype":"일반휴게음식 - 서양음식","category":"restaurant"}]},{"lat":"37.653140107","long":"127.11717629","imageIndex":4,"items":[{"name":"투썸별내신도시점","tel":"031-575-2313","addr":"경기도 남양주시 별내동 1069번지","indutype":"일반휴게음식 - 서양음식","category":"restaurant"}]},{"lat":"37.658246824","long":"127.12781423","imageIndex":4,"items":[{"name":"투썸플레이스 별내용암천점","tel":"031-571-1222","addr":"경기도 남양주시 별내동 953-6번지 1층","indutype":"일반휴게음식 - 서양음식","category":"restaurant"}]},{"lat":"37.665663777","long":"127.11695747","imageIndex":4,"items":[{"name":"트릿샵 (#)2","tel":"031-847-9595","addr":"경기도 남양주시 별내동 843-3번지 1층","indutype":"일반휴게음식 - 서양음식","category":"restaurant"}]},{"lat":"37.67197229","long":"127.13269988","imageIndex":4,"items":[{"name":"티테이블(TeaTable)","tel":"031-527-8766","addr":"경기도 남양주시 별내동 881-1번지 1층 102호","indutype":"일반휴게음식 - 서양음식","category":"restaurant"}]},{"lat":"37.666358144","long":"127.1163125","imageIndex":4,"items":[{"name":"파더스커피","tel":"031-575-0590","addr":"경기도 남양주시 별내동 839-5번지","indutype":"일반휴게음식 - 서양음식","category":"restaurant"}]},{"lat":"37.657390051","long":"127.12861741","imageIndex":4,"items":[{"name":"펍스토리","tel":"031-527-5633","addr":"경기도 남양주시 별내동 963-7번지 1층","indutype":"일반휴게음식 - 일반한식","category":"restaurant"}]},{"lat":"37.665242536","long":"127.11464473","imageIndex":4,"items":[{"name":"페보릿(Favorite)","tel":"","addr":"경기도 남양주시 별내동 848-8번지 1층 일부","indutype":"일반휴게음식 - 서양음식","category":"restaurant"}]},{"lat":"37.666304216","long":"127.11617641","imageIndex":4,"items":[{"name":"포앤시드니 별내점","tel":"031-573-6446","addr":"경기도 남양주시 별내동 839-4번지 1층","indutype":"일반휴게음식 - 서양음식","category":"restaurant"}]},{"lat":"37.648529564","long":"127.12378669","imageIndex":4,"items":[{"name":"포코마스","tel":"031-528-6263","addr":"경기도 남양주시 별내동 1014번지 1층","indutype":"일반휴게음식 - 서양음식","category":"restaurant"}]},{"lat":"37.658049723","long":"127.12675996","imageIndex":4,"items":[{"name":"포호아별내점","tel":"031-528-8420","addr":"경기도 남양주시 별내동 949-3번지","indutype":"일반휴게음식 - 서양음식","category":"restaurant"}]},{"lat":"37.656191608","long":"127.12876272","imageIndex":4,"items":[{"name":"폴앤아티","tel":"031-528-6263","addr":"경기도 남양주시 별내동 955-4번지 1층 101호","indutype":"일반휴게음식 - 서양음식","category":"restaurant"}]},{"lat":"37.652530127","long":"127.11437638","imageIndex":4,"items":[{"name":"푸포(Food For You)","tel":"031-571-5580","addr":"경기도 남양주시 별내동 1086-1번지 101호","indutype":"일반휴게음식 - 일반한식","category":"restaurant"}]},{"lat":"37.647691547","long":"127.12389864","imageIndex":4,"items":[{"name":"풍미연설렁탕","tel":"031-575-2068","addr":"경기도 남양주시 별내동 1011-5번지 아름하우스 1층","indutype":"일반휴게음식 - 일반한식","category":"restaurant"}]},{"lat":"37.657499954","long":"127.12692904","imageIndex":4,"items":[{"name":"프라이빗별내","tel":"031-575-3712","addr":"경기도 남양주시 별내동 950-3번지 1층","indutype":"일반휴게음식 - 일반한식","category":"restaurant"}]},{"lat":"37.652414595","long":"127.11267642","imageIndex":4,"items":[{"name":"프린시플 커피 컴퍼니","tel":"031-528-6263","addr":"경기도 남양주시 별내동 1103-6번지 에벤에셀 1층","indutype":"일반휴게음식 - 서양음식","category":"restaurant"}]},{"lat":"37.656391156","long":"127.12750515","imageIndex":4,"items":[{"name":"플랩잭팬트리 별내/(주) 피니온","tel":"031-572-2863","addr":"경기도 남양주시 별내동 952-3번지 1층 101호","indutype":"일반휴게음식 - 서양음식","category":"restaurant"}]},{"lat":"37.667493654","long":"127.1160082","imageIndex":4,"items":[{"name":"플랫그레이","tel":"031-528-2266","addr":"경기도 남양주시 별내동 827번지 101호","indutype":"일반휴게음식 - 서양음식","category":"restaurant"}]},{"lat":"37.658525027","long":"127.12884598","imageIndex":4,"items":[{"name":"피자나라 치킨공주","tel":"031-575-5751","addr":"경기도 남양주시 별내동 960-6번지","indutype":"일반휴게음식 - 스넥","category":"restaurant"}]},{"lat":"37.650773741","long":"127.11384116","imageIndex":4,"items":[{"name":"핏짜굽는언니","tel":"031-575-0235","addr":"경기도 남양주시 별내동 1093-8번지 별내택지개발지구121-9번지1층상가101호","indutype":"일반휴게음식 - 서양음식","category":"restaurant"}]},{"lat":"37.644055795","long":"127.1102847","imageIndex":4,"items":[{"name":"하나돌부대찌개","tel":"031-573-3691","addr":"경기도 남양주시 별내동 558-151번지","indutype":"일반휴게음식 - 일반한식","category":"restaurant"}]},{"lat":"37.64702624","long":"127.12251517","imageIndex":4,"items":[{"name":"하남돼지집 별내점","tel":"031-575-3539","addr":"경기도 남양주시 별내동 1022-5번지","indutype":"일반휴게음식 - 일반한식","category":"restaurant"}]},{"lat":"37.644281182","long":"127.11012639","imageIndex":4,"items":[{"name":"하늘지기","tel":"031-528-3213","addr":"경기도 남양주시 별내동 558-11번지 하늘지기","indutype":"일반휴게음식 - 스넥","category":"restaurant"}]},{"lat":"37.653774146","long":"127.11365298","imageIndex":4,"items":[{"name":"하소카페","tel":"031-571-3745","addr":"경기도 남양주시 별내동 1114-4번지 1층","indutype":"일반휴게음식 - 서양음식","category":"restaurant"}]},{"lat":"37.647997934","long":"127.12384248","imageIndex":4,"items":[{"name":"한고집복국5800 별내점","tel":"031-592-8895","addr":"경기도 남양주시 별내동 1012-2번지 1층 101호","indutype":"일반휴게음식 - 일반한식","category":"restaurant"}]},{"lat":"37.651802368","long":"127.11221092","imageIndex":4,"items":[{"name":"한우고기소","tel":"031-571-5858","addr":"경기도 남양주시 별내동 1102-3번지 1층","indutype":"일반휴게음식 - 일반한식","category":"restaurant"}]},{"lat":"37.659021367","long":"127.12808752","imageIndex":4,"items":[{"name":"한일야끼니꾸","tel":"031-571-3243","addr":"경기도 남양주시 별내동 959-1번지 1층 일부호","indutype":"일반휴게음식 - 일반한식","category":"restaurant"}]},{"lat":"37.665525858","long":"127.11979073","imageIndex":4,"items":[{"name":"할리스커피 별내북부역","tel":"031-555-0128","addr":"경기도 남양주시 별내동 860-1번지 ,1-3층","indutype":"일반휴게음식 - 서양음식","category":"restaurant"}]},{"lat":"37.658751509","long":"127.12767909","imageIndex":4,"items":[{"name":"할리스커피별내카페거리점","tel":"031-574-5655","addr":"경기도 남양주시 별내동 953-3번지 1층","indutype":"일반휴게음식 - 서양음식","category":"restaurant"}]},{"lat":"37.651530341","long":"127.11406892","imageIndex":4,"items":[{"name":"해운대","tel":"031-572-2307","addr":"경기도 남양주시 별내동 1085-7번지 1층","indutype":"일반휴게음식 - 일반한식","category":"restaurant"}]},{"lat":"37.646772873","long":"127.12359121","imageIndex":4,"items":[{"name":"헬로피쉬별내점","tel":"031-5585-4884","addr":"경기도 남양주시 별내동 1019-2번지 1층 헬로피쉬 102호","indutype":"일반휴게음식 - 일식·회집","category":"restaurant"}]},{"lat":"37.644395127","long":"127.11357107","imageIndex":4,"items":[{"name":"호빈","tel":"031-527-7830","addr":"경기도 남양주시 별내동 1041번지 별내한화꿈에그린더스타 상가동 117, 118호","indutype":"일반휴게음식 - 스넥","category":"restaurant"}]},{"lat":"37.666195347","long":"127.11695829","imageIndex":4,"items":[{"name":"호수꼬치 (별내점)","tel":"031-575-9294","addr":"경기도 남양주시 별내동 841-1번지 104호","indutype":"일반휴게음식 - 일반한식","category":"restaurant"}]},{"lat":"37.64393945","long":"127.1094234","imageIndex":4,"items":[{"name":"홍원","tel":"031-573-6155","addr":"경기도 남양주시 별내동 558-29번지","indutype":"일반휴게음식 - 중국식","category":"restaurant"}]},{"lat":"37.646665772","long":"127.12259391","imageIndex":4,"items":[{"name":"홍콩반점0410별내점","tel":"031-573-0410","addr":"경기도 남양주시 별내동 1024-3번지 1층","indutype":"일반휴게음식 - 중국식","category":"restaurant"}]},{"lat":"37.665521405","long":"127.1150985","imageIndex":4,"items":[{"name":"화통삼","tel":"031-575-5965","addr":"경기도 남양주시 별내동 848-4번지","indutype":"일반휴게음식 - 일반한식","category":"restaurant"}]},{"lat":"37.647529315","long":"127.12395503","imageIndex":4,"items":[{"name":"황분순 불백","tel":"","addr":"경기도 남양주시 별내동 1011-4번지 1층","indutype":"일반휴게음식 - 일반한식","category":"restaurant"}]},{"lat":"37.651251254","long":"127.11384187","imageIndex":4,"items":[{"name":"황소모듬곱창","tel":"070-8247-0630","addr":"경기도 남양주시 별내동 1089-3번지 1층","indutype":"일반휴게음식 - 일반한식","category":"restaurant"}]},{"lat":"37.647251172","long":"127.12282147","imageIndex":4,"items":[{"name":"황제삼겹살","tel":"031-565-5500","addr":"경기도 남양주시 별내동 1022-2번지 1층","indutype":"일반휴게음식 - 일반한식","category":"restaurant"}]},{"lat":"37.646998762","long":"127.12295704","imageIndex":4,"items":[{"name":"회뜨는포차","tel":"031-573-4333","addr":"경기도 남양주시 별내동 1021-6번지","indutype":"일반휴게음식 - 일식·회집","category":"restaurant"}]},{"lat":"37.65055706","long":"127.11431677","imageIndex":4,"items":[{"name":"횡재,먹거리한우","tel":"031-527-1618","addr":"경기도 남양주시 별내동 1093-5번지","indutype":"일반휴게음식 - 일반한식","category":"restaurant"},{"name":"훌랄라(별내1점)","tel":"031-527-2999","addr":"경기도 남양주시 별내동 1093-5번지 1층","indutype":"일반휴게음식 - 일반한식","category":"restaurant"},{"name":"훌랄라(별내1점)","tel":"031-527-2999","addr":"경기도 남양주시 별내동 1093-5번지 1층","indutype":"일반휴게음식 - 일반한식","category":"restaurant"}]},{"lat":"37.644802865","long":"127.11109025","imageIndex":4,"items":[{"name":"후라이드참잘하는집","tel":"031-527-2509","addr":"경기도 남양주시 별내동 558-17번지 1층","indutype":"일반휴게음식 - 스넥","category":"restaurant"}]},{"lat":"37.650719213","long":"127.11433967","imageIndex":4,"items":[{"name":"히미츠","tel":"031-528-9780","addr":"경기도 남양주시 별내동 1093-3번지","indutype":"일반휴게음식 - 일반한식","category":"restaurant"}]}]