[{"lat":"37.136165469","long":"126.97287769","imageIndex":17,"items":[{"name":"(주)더본라이프","tel":"031-238-8074","addr":"경기도 화성시 향남읍 증거리 357-8번지 가동","indutype":"전기제품 - 가전제품","category":"other"}]},{"lat":"37.136752426","long":"126.97842593","imageIndex":17,"items":[{"name":"GS25화성증거리점","tel":"","addr":"경기도 화성시 향남읍 증거리 323-1번지","indutype":"유통업 영리 - 편 의 점","category":"other"},{"name":"한신에어콤프레샤","tel":"031-366-0435","addr":"경기도 화성시 향남읍 증거리 323-1번지","indutype":"기타 - 기계공구","category":"other"}]},{"lat":"37.135977704","long":"126.97931528","imageIndex":17,"items":[{"name":"대성알곤용접","tel":"031-359-8141","addr":"경기도 화성시 향남읍 증거리 336-2번지 A동","indutype":"기타 - 기계공구","category":"other"}]},{"lat":"37.140779885","long":"126.97734415","imageIndex":17,"items":[{"name":"대승볼트","tel":"031-353-6403","addr":"경기도 화성시 향남읍 증거리 225-1번지 104,105호","indutype":"기타 - 기계공구","category":"other"},{"name":"엠에스테크에스아이 주식회사","tel":"031-8003-2872","addr":"경기도 화성시 향남읍 증거리 225-1번지","indutype":"전기제품 - 기타전기제품","category":"other"},{"name":"화성계전공구","tel":"031-352-6251","addr":"경기도 화성시 향남읍 증거리 225-1번지 1동 1층 101,102,103호","indutype":"기타 - 기계공구","category":"other"}]},{"lat":"37.142113889","long":"126.97953848","imageIndex":17,"items":[{"name":"동신기업","tel":"031-298-8911","addr":"경기도 화성시 향남읍 증거리 259-4번지","indutype":"기타 - 기계공구","category":"other"}]},{"lat":"37.135527283","long":"126.97984437","imageIndex":17,"items":[{"name":"두영산업","tel":"031-353-8673","addr":"경기도 화성시 향남읍 증거리 336-4번지 1층","indutype":"서적문구 - 출판 및 인쇄물","category":"other"},{"name":"에쓰와이 콤프레샤","tel":"031-352-7551","addr":"경기도 화성시 향남읍 증거리 336-4번지","indutype":"기타 - 기계공구","category":"other"}]},{"lat":"37.141140345","long":"126.97753536","imageIndex":17,"items":[{"name":"미니스톱화성만년로점","tel":"031-1577-9621","addr":"경기도 화성시 향남읍 증거리 240-8번지","indutype":"유통업 영리 - 편 의 점","category":"other"}]},{"lat":"37.142392966","long":"126.97831156","imageIndex":17,"items":[{"name":"미래목공","tel":"031-8047-0042","addr":"경기도 화성시 향남읍 증거리 252-1번지","indutype":"직물 - 카페트,커튼,천막,지물","category":"other"}]},{"lat":"37.132669819","long":"126.97458967","imageIndex":17,"items":[{"name":"세화판금","tel":"031-366-0394","addr":"경기도 화성시 향남읍 증거리 385-16번지 외3필지","indutype":"건축자재 - 목재·석재·철물","category":"other"}]},{"lat":"37.140446468","long":"126.9772092","imageIndex":17,"items":[{"name":"수원안료상사","tel":"031-354-2307","addr":"경기도 화성시 향남읍 증거리 226-1번지","indutype":"건축자재 - 페인트","category":"other"}]},{"lat":"37.141248635","long":"126.97831193","imageIndex":17,"items":[{"name":"영tech","tel":"031-354-2275","addr":"경기도 화성시 향남읍 증거리 220-2번지","indutype":"전기제품 - 기타전기제품","category":"other"}]},{"lat":"37.138392172","long":"126.97764883","imageIndex":17,"items":[{"name":"오션마스터","tel":"070-4143-1056","addr":"경기도 화성시 향남읍 증거리 195번지","indutype":"문화.취미 - 수족관","category":"other"}]},{"lat":"37.137112617","long":"126.97734538","imageIndex":17,"items":[{"name":"은성와이어컷팅","tel":"031-352-1053","addr":"경기도 화성시 향남읍 증거리 191-2번지","indutype":"기타 - 기계공구","category":"other"},{"name":"태성정공","tel":"070-8252-2336","addr":"경기도 화성시 향남읍 증거리 191-2번지","indutype":"기타 - 기계공구","category":"other"}]},{"lat":"37.133724315","long":"126.97573719","imageIndex":17,"items":[{"name":"주식회사 새누씨앤씨","tel":"070-7712-7201","addr":"경기도 화성시 향남읍 증거리 385-3번지 2층 2-1호","indutype":"기타 - 기계공구","category":"other"}]},{"lat":"37.138284791","long":"126.98143046","imageIndex":17,"items":[{"name":"주식회사 원진오디렉스","tel":"031-262-5495","addr":"경기도 화성시 향남읍 증거리 311-3","indutype":"전기제품 - 기타전기제품","category":"other"}]},{"lat":"37.138860681","long":"126.97747985","imageIndex":17,"items":[{"name":"페인트뱅크","tel":"031-353-5946","addr":"경기도 화성시 향남읍 증거리 196번지","indutype":"건축자재 - 페인트","category":"other"}]},{"lat":"37.13897786","long":"126.9776824","imageIndex":17,"items":[{"name":"하나액자","tel":"031-352-3988","addr":"경기도 화성시 향남읍 증거리 210-3번지","indutype":"문화.취미 - 화방·표구점","category":"other"}]},{"lat":"37.141227766","long":"126.9671243","imageIndex":7,"items":[{"name":"경기미트","tel":"031-8047-0453","addr":"경기도 화성시 향남읍 증거리 10번지 1층","indutype":"음료식품 - 정육점","category":"food"}]},{"lat":"37.137860589","long":"126.97781782","imageIndex":4,"items":[{"name":"경희네밥집","tel":"031-8059-1478","addr":"경기도 화성시 향남읍 증거리 302-2번지 1층","indutype":"일반휴게음식 - 일반한식","category":"restaurant"}]},{"lat":"37.137554058","long":"126.97700759","imageIndex":4,"items":[{"name":"김치찌개미화식당","tel":"031-353-5020","addr":"경기도 화성시 향남읍 증거리 191번지","indutype":"일반휴게음식 - 일반한식","category":"restaurant"},{"name":"초마교동짬뽕","tel":"031-354-8580","addr":"경기도 화성시 향남읍 증거리 191번지 5동 1층 2호","indutype":"일반휴게음식 - 중국식","category":"restaurant"}]},{"lat":"37.138860681","long":"126.97747985","imageIndex":4,"items":[{"name":"맛고을","tel":"031-353-5536","addr":"경기도 화성시 향남읍 증거리 196번지","indutype":"일반휴게음식 - 일반한식","category":"restaurant"}]},{"lat":"37.13655423","long":"126.97859481","imageIndex":4,"items":[{"name":"사계절한식부페","tel":"031-352-9568","addr":"경기도 화성시 향남읍 증거리 323-4번지","indutype":"일반휴게음식 - 일반한식","category":"restaurant"}]},{"lat":"37.133643006","long":"126.97481438","imageIndex":4,"items":[{"name":"산들한식부페","tel":"031-353-7779","addr":"경기도 화성시 향남읍 증거리 385-27","indutype":"일반휴게음식 - 일반한식","category":"restaurant"}]},{"lat":"37.13897786","long":"126.9776824","imageIndex":4,"items":[{"name":"알천냉면","tel":"031-366-3130","addr":"경기도 화성시 향남읍 증거리 210-3번지","indutype":"일반휴게음식 - 일반한식","category":"restaurant"}]},{"lat":"37.133806652","long":"126.98184812","imageIndex":4,"items":[{"name":"원가네양푼이","tel":"031-354-0074","addr":"경기도 화성시 향남읍 증거리 451-13번지","indutype":"일반휴게음식 - 일반한식","category":"restaurant"}]},{"lat":"37.134806571","long":"126.98050859","imageIndex":4,"items":[{"name":"진미한식부페","tel":"031-352-2909","addr":"경기도 화성시 향남읍 증거리 436번지","indutype":"일반휴게음식 - 일반한식","category":"restaurant"}]},{"lat":"37.139554381","long":"126.9769844","imageIndex":4,"items":[{"name":"호호식당","tel":"031-8059-3436","addr":"경기도 화성시 향남읍 증거리 200-3번지 B동","indutype":"일반휴게음식 - 일반한식","category":"restaurant"}]},{"lat":"37.141140345","long":"126.97753536","imageIndex":0,"items":[{"name":"그린카세차장","tel":"031-232-2138","addr":"경기도 화성시 향남읍 증거리 240-8번지 106호","indutype":"자동차정비 유지 - 세차장","category":"car"}]},{"lat":"37.133617436","long":"126.98187068","imageIndex":0,"items":[{"name":"미래카센타","tel":"031-353-9128","addr":"경기도 화성시 향남읍 증거리 449-6번지","indutype":"자동차정비 유지 - 자동차정비","category":"car"},{"name":"미주카센타","tel":"031-353-9249","addr":"경기도 화성시 향남읍 증거리 449-6번지 외1필지","indutype":"자동차정비 유지 - 자동차정비","category":"car"}]},{"lat":"37.136752426","long":"126.97842593","imageIndex":7,"items":[{"name":"포유25향남","tel":"031-354-7343","addr":"경기도 화성시 향남읍 증거리 323-1번지","indutype":"유통업 영리 - 슈퍼마켓","category":"mart"}]},{"lat":"37.141086481","long":"126.97848081","imageIndex":13,"items":[{"name":"향기농원","tel":"031-352-3609","addr":"경기도 화성시 향남읍 증거리 220번지","indutype":"레저업소 - 기타레져업소","category":"leisure"}]}]