[{"lat":"37.891887796","long":"127.20169372","imageIndex":4,"items":[{"name":"가연 웨딩홀","tel":"031-533-4466","addr":"경기도 포천시 군내면 구읍리 714-3번지","indutype":"일반휴게음식 - 일반한식","category":"restaurant"}]},{"lat":"37.892302184","long":"127.20171757","imageIndex":4,"items":[{"name":"개성녹각삼계탕","tel":"532-9288","addr":"경기도 포천시 군내면 구읍리 712-12번지","indutype":"음식 - 한식","category":"restaurant"}]},{"lat":"37.894585587","long":"127.20463415","imageIndex":4,"items":[{"name":"개성녹각삼계탕","tel":"031-532-9288","addr":"경기도 포천시 군내면 구읍리 732-9번지","indutype":"일반휴게음식 - 일반한식","category":"restaurant"},{"name":"큰손부대찌개","tel":"534-6633","addr":"경기도 포천시 군내면 구읍리 732-9번지","indutype":"음식 - 한식","category":"restaurant"},{"name":"큰손부대찌개","tel":"031-534-6633","addr":"경기도 포천시 군내면 구읍리 732-9번지","indutype":"일반휴게음식 - 일반한식","category":"restaurant"}]},{"lat":"37.892805492","long":"127.20243515","imageIndex":4,"items":[{"name":"개성한식부페","tel":"531-3689","addr":"경기도 포천시 군내면 구읍리 717-2번지","indutype":"음식 - 한식","category":"restaurant"},{"name":"개성한식부페","tel":"031-536-0199","addr":"경기도 포천시 군내면 구읍리 717-2번지","indutype":"일반휴게음식 - 일반한식","category":"restaurant"}]},{"lat":"37.887025477","long":"127.21560609","imageIndex":4,"items":[{"name":"구읍식당","tel":"031-536-2777","addr":"경기도 포천시 군내면 구읍리 469-1번지","indutype":"일반휴게음식 - 일반한식","category":"restaurant"}]},{"lat":"37.891416538","long":"127.2033295","imageIndex":4,"items":[{"name":"국보정","tel":"031-533-0690","addr":"경기도 포천시 군내면 구읍리 710-3","indutype":"일반휴게음식 - 일반한식","category":"restaurant"},{"name":"국보정","tel":"533-0690","addr":"경기도 포천시 군내면 구읍리 710-3번지","indutype":"음식 - 한식","category":"restaurant"}]},{"lat":"37.890022261","long":"127.20205249","imageIndex":4,"items":[{"name":"김마담치킨&호프","tel":"031-531-1531","addr":"경기도 포천시 군내면 구읍리 740번지 포천아이파크","indutype":"일반휴게음식 - 스넥","category":"restaurant"},{"name":"헝그리웍","tel":"031-535-0825","addr":"경기도 포천시 군내면 구읍리 740번지 포천아이파크 상가동 1층 104호","indutype":"일반휴게음식 - 일반한식","category":"restaurant"}]},{"lat":"37.882415419","long":"127.22391348","imageIndex":4,"items":[{"name":"까망깨돈(군내점)","tel":"031-531-7717","addr":"경기도 포천시 군내면 구읍리 46번지","indutype":"일반휴게음식 - 일반한식","category":"restaurant"},{"name":"리코커피","tel":"031-531-7717","addr":"경기도 포천시 군내면 구읍리 46번지","indutype":"일반휴게음식 - 서양음식","category":"restaurant"},{"name":"장혁민의 부대찌개 포천점","tel":"531-7717","addr":"경기도 포천시 군내면 구읍리 46번지","indutype":"음식 - 한식","category":"restaurant"}]},{"lat":"37.894279798","long":"127.20432635","imageIndex":4,"items":[{"name":"더블리스","tel":"031-429-7201","addr":"경기도 포천시 군내면 구읍리 731번지","indutype":"일반휴게음식 - 일반한식","category":"restaurant"},{"name":"제이블리스","tel":"031-536-2555","addr":"경기도 포천시 군내면 구읍리 731","indutype":"음식 - 커피","category":"restaurant"}]},{"lat":"37.882805286","long":"127.21271809","imageIndex":4,"items":[{"name":"돌담집","tel":"031-535-0044","addr":"경기도 포천시 군내면 구읍리 418-6번지","indutype":"일반휴게음식 - 일반한식","category":"restaurant"},{"name":"돌담집","tel":"534-0044","addr":"경기도 포천시 군내면 구읍리 418-6번지","indutype":"음식 - 한식","category":"restaurant"}]},{"lat":"37.887193891","long":"127.21712985","imageIndex":4,"items":[{"name":"또래오래","tel":"534-9288","addr":"경기도 포천시 군내면 구읍리 217-3번지","indutype":"음식 - 치킨등","category":"restaurant"},{"name":"오장군뼈다귀해장국","tel":"031-535-7935","addr":"경기도 포천시 군내면 구읍리 217-3,217-10","indutype":"일반휴게음식 - 일반한식","category":"restaurant"},{"name":"오장군뼈다귀해장국","tel":"535-7935","addr":"경기도 포천시 군내면 구읍리 217-3번지","indutype":"음식 - 한식","category":"restaurant"}]},{"lat":"37.888836704","long":"127.21035929","imageIndex":4,"items":[{"name":"뚱 돌솥곰탕","tel":"531-7532","addr":"경기도 포천시 군내면 구읍리 596-8번지","indutype":"음식 - 한식","category":"restaurant"},{"name":"뚱돌솥곰탕","tel":"031-531-7532","addr":"경기도 포천시 군내면 구읍리 596-8번지","indutype":"일반휴게음식 - 일반한식","category":"restaurant"}]},{"lat":"37.886857244","long":"127.21893634","imageIndex":4,"items":[{"name":"말리부","tel":"","addr":"경기도 포천시 군내면 구읍리 228-2번지 1층","indutype":"일반휴게음식 - 주점","category":"restaurant"}]},{"lat":"37.8856105","long":"127.21085041","imageIndex":4,"items":[{"name":"맛나식당","tel":"536-3077","addr":"경기도 포천시 군내면 구읍리 427-1번지","indutype":"음식 - 한식","category":"restaurant"},{"name":"맛나식당","tel":"031-536-3077","addr":"경기도 포천시 군내면 구읍리 427-1","indutype":"일반휴게음식 - 일반한식","category":"restaurant"},{"name":"은혜식당","tel":"031-536-5695","addr":"경기도 포천시 군내면 구읍리 427-1번지","indutype":"일반휴게음식 - 일반한식","category":"restaurant"}]},{"lat":"37.886947733","long":"127.21872062","imageIndex":4,"items":[{"name":"무봉리순대국감자탕","tel":"031-533-6785","addr":"경기도 포천시 군내면 구읍리 226-1번지","indutype":"일반휴게음식 - 일반한식","category":"restaurant"},{"name":"무봉리순대국감자탕","tel":"533-6785","addr":"경기도 포천시 군내면 구읍리 226-1번지","indutype":"음식 - 한식","category":"restaurant"}]},{"lat":"37.885053172","long":"127.22013602","imageIndex":4,"items":[{"name":"바태보리국수","tel":"535-9060","addr":"경기도 포천시 군내면 구읍리 239-7번지","indutype":"음식 - 한식","category":"restaurant"},{"name":"어사랑생선구이","tel":"531-9297","addr":"경기도 포천시 군내면 구읍리 239-7번지 나동 1층","indutype":"음식 - 한식","category":"restaurant"},{"name":"어사랑생선구이","tel":"031-531-9297","addr":"경기도 포천시 군내면 구읍리 239-7번지 나동 1층","indutype":"일반휴게음식 - 일반한식","category":"restaurant"},{"name":"홀인원참숯갈비","tel":"031-535-5045","addr":"경기도 포천시 군내면 구읍리 239-7번지","indutype":"일반휴게음식 - 일반한식","category":"restaurant"},{"name":"홀인원참숯갈비","tel":"535-5045","addr":"경기도 포천시 군내면 구읍리 239-7번지","indutype":"음식 - 한식","category":"restaurant"}]},{"lat":"37.887385045","long":"127.21605047","imageIndex":4,"items":[{"name":"복가","tel":"535-3450","addr":"경기도 포천시 군내면 구읍리 508번지","indutype":"음식 - 한식","category":"restaurant"}]},{"lat":"37.887801177","long":"127.21510814","imageIndex":4,"items":[{"name":"북경","tel":"-","addr":"경기도 포천시 군내면 구읍리 504-7번지","indutype":"음식 - 중식","category":"restaurant"},{"name":"북경","tel":"031-533-9183","addr":"경기도 포천시 군내면 구읍리 504-7번지","indutype":"일반휴게음식 - 중국식","category":"restaurant"}]},{"lat":"37.891858611","long":"127.20296691","imageIndex":4,"items":[{"name":"서울녹각삼계탕장어","tel":"536-6418","addr":"경기도 포천시 군내면 구읍리 712-9번지","indutype":"음식 - 한식","category":"restaurant"},{"name":"서울녹각삼계탕장어","tel":"031-536-6418","addr":"경기도 포천시 군내면 구읍리 712-9번지","indutype":"일반휴게음식 - 일반한식","category":"restaurant"}]},{"lat":"37.893412233","long":"127.2058815","imageIndex":4,"items":[{"name":"소래버섯나라(포천시청점)","tel":"031-532-1255","addr":"경기도 포천시 군내면 구읍리 576-6번지","indutype":"일반휴게음식 - 일반한식","category":"restaurant"},{"name":"소래버섯나라(포천시청점)","tel":"532-1255","addr":"경기도 포천시 군내면 구읍리 576-6번지","indutype":"음식 - 한식","category":"restaurant"},{"name":"행운정설렁탕","tel":"031-535-0771","addr":"경기도 포천시 군내면 구읍리 576-6번지 가동 1층","indutype":"일반휴게음식 - 일반한식","category":"restaurant"},{"name":"행운정설렁탕","tel":"535-0771","addr":"경기도 포천시 군내면 구읍리 576-6번지","indutype":"음식 - 한식","category":"restaurant"}]},{"lat":"37.882920109","long":"127.22382405","imageIndex":4,"items":[{"name":"시골집","tel":"031-535-1292","addr":"경기도 포천시 군내면 구읍리 47-12번지","indutype":"일반휴게음식 - 일반한식","category":"restaurant"}]},{"lat":"37.890331811","long":"127.20013209","imageIndex":4,"items":[{"name":"영구짬뽕","tel":"535-9009","addr":"경기도 포천시 군내면 구읍리 688-11번지","indutype":"음식 - 중식","category":"restaurant"},{"name":"영구짬뽕","tel":"031-535-9009","addr":"경기도 포천시 군내면 구읍리 688-11번지","indutype":"일반휴게음식 - 중국식","category":"restaurant"}]},{"lat":"37.887335549","long":"127.2184944","imageIndex":4,"items":[{"name":"와우키친 포천군내점","tel":"031-535-7878","addr":"경기도 포천시 군내면 구읍리 214-5번지 1층","indutype":"일반휴게음식 - 일반한식","category":"restaurant"}]},{"lat":"37.891806656","long":"127.2069912","imageIndex":4,"items":[{"name":"이화수 전통 육개장(포천점)","tel":"535-9933","addr":"경기도 포천시 군내면 구읍리 588-3번지 1층","indutype":"음식 - 한식","category":"restaurant"},{"name":"이화수전통육개장포천점","tel":"031-535-6969","addr":"경기도 포천시 군내면 구읍리 588-3번지 1층","indutype":"일반휴게음식 - 일반한식","category":"restaurant"}]},{"lat":"37.889804364","long":"127.20827027","imageIndex":4,"items":[{"name":"일곱번째달","tel":"","addr":"경기도 포천시 군내면 구읍리 606-6번지","indutype":"일반휴게음식 - 서양음식","category":"restaurant"}]},{"lat":"37.886720977","long":"127.2195498","imageIndex":4,"items":[{"name":"일능이 갈비탕","tel":"031-531-7668","addr":"경기도 포천시 군내면 구읍리 229-6번지","indutype":"음식 - 한식","category":"restaurant"},{"name":"일능이갈비탕","tel":"031-531-7668","addr":"경기도 포천시 군내면 구읍리 229-6번지 1층","indutype":"일반휴게음식 - 일반한식","category":"restaurant"}]},{"lat":"37.887441007","long":"127.21993841","imageIndex":4,"items":[{"name":"일품수타","tel":"031-532-1489","addr":"경기도 포천시 군내면 구읍리 190-1","indutype":"일반휴게음식 - 중국식","category":"restaurant"},{"name":"일품수타","tel":"532-1489","addr":"경기도 포천시 군내면 구읍리 190-1번지","indutype":"음식 - 중식","category":"restaurant"},{"name":"함지박추어탕","tel":"535-5767","addr":"경기도 포천시 군내면 구읍리 190-1번지","indutype":"음식 - 한식","category":"restaurant"},{"name":"함지박추어탕","tel":"031-535-5767","addr":"경기도 포천시 군내면 구읍리 190-1","indutype":"일반휴게음식 - 일반한식","category":"restaurant"}]},{"lat":"37.887217928","long":"127.21876688","imageIndex":4,"items":[{"name":"정다운식당","tel":"031-535-3458","addr":"경기도 포천시 군내면 구읍리 215-1번지","indutype":"일반휴게음식 - 일반한식","category":"restaurant"}]},{"lat":"37.890056663","long":"127.20824824","imageIndex":4,"items":[{"name":"제주근고기맛있는돈","tel":"534-9592","addr":"경기도 포천시 군내면 구읍리 608번지","indutype":"음식 - 한식","category":"restaurant"},{"name":"제주근고기맛있는돈","tel":"031-534-9592","addr":"경기도 포천시 군내면 구읍리 608번지 가동 1층","indutype":"일반휴게음식 - 일반한식","category":"restaurant"}]},{"lat":"37.892329863","long":"127.20660611","imageIndex":4,"items":[{"name":"주문진해물탕","tel":"536-1333","addr":"경기도 포천시 군내면 구읍리 588-5번지","indutype":"음식 - 한식","category":"restaurant"},{"name":"주문진해물탕","tel":"031-536-1333","addr":"경기도 포천시 군내면 구읍리 588-5번지","indutype":"일반휴게음식 - 일반한식","category":"restaurant"}]},{"lat":"37.892634643","long":"127.20224142","imageIndex":4,"items":[{"name":"청산엄마네손두부","tel":"531-0757","addr":"경기도 포천시 군내면 구읍리 717-3번지 1층","indutype":"음식 - 한식","category":"restaurant"},{"name":"청산엄마네손두부","tel":"031-531-0757","addr":"경기도 포천시 군내면 구읍리 717-3번지 1층","indutype":"일반휴게음식 - 일반한식","category":"restaurant"}]},{"lat":"37.886836444","long":"127.21046736","imageIndex":4,"items":[{"name":"청성가든","tel":"031-533-6842","addr":"경기도 포천시 군내면 구읍리 654-10번지","indutype":"일반휴게음식 - 일반한식","category":"restaurant"}]},{"lat":"37.888721779","long":"127.21418998","imageIndex":4,"items":[{"name":"청운웰빙건강","tel":"","addr":"경기도 포천시 군내면 구읍리 550-3번지","indutype":"음식 - 건강원","category":"restaurant"}]},{"lat":"37.886608343","long":"127.22199351","imageIndex":4,"items":[{"name":"청해코다리","tel":"031-535-5953","addr":"경기도 포천시 군내면 구읍리 233-13번지","indutype":"일반휴게음식 - 일반한식","category":"restaurant"},{"name":"청해코다리","tel":"031-535-5953","addr":"경기도 포천시 군내면 구읍리 233-13번지","indutype":"일반휴게음식 - 일반한식","category":"restaurant"},{"name":"청해코다리","tel":"535-5953","addr":"경기도 포천시 군내면 구읍리 233-13번지","indutype":"음식 - 한식","category":"restaurant"}]},{"lat":"37.882692202","long":"127.22524425","imageIndex":4,"items":[{"name":"청호매운탕","tel":"533-5081","addr":"경기도 포천시 군내면 구읍리 64-1번지","indutype":"음식 - 한식","category":"restaurant"},{"name":"청호매운탕","tel":"031-533-5081","addr":"경기도 포천시 군내면 구읍리 64-1번지","indutype":"일반휴게음식 - 일반한식","category":"restaurant"}]},{"lat":"37.887529503","long":"127.21588037","imageIndex":4,"items":[{"name":"커피장수 야곱","tel":"031-2298-2367","addr":"경기도 포천시 군내면 구읍리 507-4번지","indutype":"일반휴게음식 - 서양음식","category":"restaurant"}]},{"lat":"37.887059419","long":"127.22166518","imageIndex":4,"items":[{"name":"통통생고기두루치기","tel":"031-535-2515","addr":"경기도 포천시 군내면 구읍리 187-2번지","indutype":"일반휴게음식 - 일반한식","category":"restaurant"},{"name":"통통생고기두루치기","tel":"535-2515","addr":"경기도 포천시 군내면 구읍리 187-2번지","indutype":"음식 - 한식","category":"restaurant"}]},{"lat":"37.889079272","long":"127.21074649","imageIndex":4,"items":[{"name":"포천뚝배기","tel":"031-535-9751","addr":"경기도 포천시 군내면 구읍리 594-6","indutype":"일반휴게음식 - 일반한식","category":"restaurant"},{"name":"포천뚝배기","tel":"535-9751","addr":"경기도 포천시 군내면 구읍리 594-6번지","indutype":"음식 - 한식","category":"restaurant"}]},{"lat":"37.888918188","long":"127.21013216","imageIndex":4,"items":[{"name":"포천버섯육개장","tel":"031-533-6710","addr":"경기도 포천시 군내면 구읍리 596-5번지","indutype":"일반휴게음식 - 일반한식","category":"restaurant"}]},{"lat":"37.892445621","long":"127.20213859","imageIndex":4,"items":[{"name":"한양갈비면옥","tel":"536-3232","addr":"경기도 포천시 군내면 구읍리 707-1번지","indutype":"음식 - 한식","category":"restaurant"}]}]