[{"lat":"37.705127733","long":"126.85761795","imageIndex":8,"items":[{"name":"가장약국","tel":"031-962-4810","addr":"경기도 고양시 덕양구 관산동 687-48번지","indutype":"약국 - 약국","category":"medical"}]},{"lat":"37.687046408","long":"126.86597467","imageIndex":8,"items":[{"name":"관산한의원","tel":"031-964-5067","addr":"경기도 고양시 덕양구 관산동 188-9번지","indutype":"의원 - 한의원","category":"medical"}]},{"lat":"37.687767243","long":"126.86603003","imageIndex":8,"items":[{"name":"나실약국","tel":"031-968-8696","addr":"경기도 고양시 덕양구 관산동 1015번지 더퍼스트프라임","indutype":"약국 - 약국","category":"medical"},{"name":"뿌리사랑치과","tel":"031-963-2291","addr":"경기도 고양시 덕양구 관산동 1015번지 더퍼스트프라임","indutype":"의원 - 치과의원","category":"medical"},{"name":"타임이비인후과","tel":"031-963-1089","addr":"경기도 고양시 덕양구 관산동 1015번지 더퍼스트프라임","indutype":"의원 - 의원","category":"medical"},{"name":"통일로한의원","tel":"031-967-3137","addr":"경기도 고양시 덕양구 관산동 1015번지 더퍼스트프라임","indutype":"의원 - 한의원","category":"medical"}]},{"lat":"37.68699319","long":"126.86670035","imageIndex":8,"items":[{"name":"대심동물병원","tel":"031-954-1087","addr":"경기도 고양시 덕양구 관산동 185번지","indutype":"기타의료기관 - 동물병원","category":"medical"},{"name":"원당동물병원","tel":"031-962-1588","addr":"경기도 고양시 덕양구 관산동 185번지","indutype":"기타의료기관 - 동물병원","category":"medical"}]},{"lat":"37.687766015","long":"126.86497567","imageIndex":8,"items":[{"name":"동희약국","tel":"031-963-8029","addr":"경기도 고양시 덕양구 관산동 182-2번지","indutype":"약국 - 약국","category":"medical"}]},{"lat":"37.688375334","long":"126.86215155","imageIndex":8,"items":[{"name":"밝은연세안과","tel":"031-969-0806","addr":"경기도 고양시 덕양구 관산동 238-7번지","indutype":"의원 - 의원","category":"medical"}]},{"lat":"37.688215004","long":"126.86370506","imageIndex":8,"items":[{"name":"서울연합의원","tel":"031-962-3280","addr":"경기도 고양시 덕양구 관산동 231-16번지","indutype":"의원 - 의원","category":"medical"}]},{"lat":"37.68849212","long":"126.86186789","imageIndex":8,"items":[{"name":"성동치과의원","tel":"031-963-5643","addr":"경기도 고양시 덕양구 관산동 238-10번지","indutype":"의원 - 치과의원","category":"medical"}]},{"lat":"37.687324252","long":"126.86472707","imageIndex":8,"items":[{"name":"아이사랑약국","tel":"031-964-7545","addr":"경기도 고양시 덕양구 관산동 196-1번지","indutype":"약국 - 약국","category":"medical"},{"name":"태평한의원","tel":"031-962-3399","addr":"경기도 고양시 덕양구 관산동 196-1번지","indutype":"의원 - 한의원","category":"medical"}]},{"lat":"37.687269115","long":"126.86380886","imageIndex":8,"items":[{"name":"안기동치과의원","tel":"031-963-2876","addr":"경기도 고양시 덕양구 관산동 226-2번지","indutype":"의원 - 치과의원","category":"medical"}]},{"lat":"37.687296771","long":"126.86434166","imageIndex":8,"items":[{"name":"열린의원","tel":"031-963-3223","addr":"경기도 고양시 덕양구 관산동 226-1번지","indutype":"의원 - 의원","category":"medical"},{"name":"혜인치과의원","tel":"031-963-2433","addr":"경기도 고양시 덕양구 관산동 226-1번지","indutype":"의원 - 치과의원","category":"medical"}]},{"lat":"37.687798029","long":"126.86930644","imageIndex":8,"items":[{"name":"통일로동물병원","tel":"031-963-4934","addr":"경기도 고양시 덕양구 관산동 163-16번지","indutype":"기타의료기관 - 동물병원","category":"medical"}]},{"lat":"37.687846849","long":"126.86476012","imageIndex":8,"items":[{"name":"통일로약국","tel":"031-969-3636","addr":"경기도 고양시 덕양구 관산동 227-11번지","indutype":"약국 - 약국","category":"medical"}]}]