[{"lat":"37.132582987","long":"126.99789651","imageIndex":17,"items":[{"name":"(주)브론즈","tel":"","addr":"경기도 화성시 정남면 귀래리 179-2번지 나동 1층","indutype":"주방용구 - 주방용식기","category":"other"},{"name":"알파코리아(주)","tel":"031-8059-6392","addr":"경기도 화성시 정남면 귀래리 179-2번지","indutype":"기타 - 기계공구","category":"other"}]},{"lat":"37.12587019","long":"126.99856088","imageIndex":17,"items":[{"name":"(주)케이바이오(K BioScience. INC.)","tel":"070-4855-0524","addr":"경기도 화성시 정남면 귀래리 209-26번지","indutype":"서적문구 - 과학기자재","category":"other"}]},{"lat":"37.133475061","long":"126.99881929","imageIndex":17,"items":[{"name":"JW인터내셔널","tel":"070-4112-5104","addr":"경기도 화성시 정남면 귀래리 145-4","indutype":"기타 - 기계공구","category":"other"}]},{"lat":"37.138529018","long":"126.98750797","imageIndex":17,"items":[{"name":"경인열처리","tel":"031-354-4756","addr":"경기도 화성시 정남면 귀래리 427번지","indutype":"기타 - 기계공구","category":"other"}]},{"lat":"37.133087469","long":"126.9958145","imageIndex":17,"items":[{"name":"네오폴리켐","tel":"","addr":"경기도 화성시 정남면 귀래리 157-6번지","indutype":"유통업 영리 - 기타유통업","category":"other"}]},{"lat":"37.141087619","long":"126.98483998","imageIndex":17,"items":[{"name":"대성이엔지","tel":"031-0000-0000","addr":"경기도 화성시 정남면 귀래리 387-10번지","indutype":"기타 - 기계공구","category":"other"},{"name":"새날 에프엠","tel":"031-354-9451","addr":"경기도 화성시 정남면 귀래리 387-10번지 2호","indutype":"기타 - 기계공구","category":"other"},{"name":"한국N. F시스템","tel":"031-305-0624","addr":"경기도 화성시 정남면 귀래리 387-10번지","indutype":"기타 - 기계공구","category":"other"}]},{"lat":"37.140448263","long":"126.98759762","imageIndex":17,"items":[{"name":"대성호이스트","tel":"031-359-9045","addr":"경기도 화성시 정남면 귀래리 376-1번지","indutype":"기타 - 기계공구","category":"other"}]},{"lat":"37.131167777","long":"126.99031162","imageIndex":17,"items":[{"name":"동양기전수원대리점","tel":"031-373-2991","addr":"경기도 화성시 정남면 귀래리 528-1","indutype":"수리서비스 - 기타수리서비스","category":"other"}]},{"lat":"37.139529477","long":"126.98998385","imageIndex":17,"items":[{"name":"두원 (DUWON ENG)","tel":"031-366-6795","addr":"경기도 화성시 정남면 귀래리 354-1번지","indutype":"건축자재 - 기타건축자재","category":"other"}]},{"lat":"37.13288824","long":"126.98595606","imageIndex":17,"items":[{"name":"두웰펫 주식회사(DOWELLPET Inc.)","tel":"031-8077-9948","addr":"경기도 화성시 정남면 귀래리 451-7번지","indutype":"문화.취미 - 애완동물","category":"other"}]},{"lat":"37.138502543","long":"126.9926514","imageIndex":17,"items":[{"name":"선진테크","tel":"031-8059-1118","addr":"경기도 화성시 정남면 귀래리 55-8번지","indutype":"기타 - 기계공구","category":"other"}]},{"lat":"37.137979403","long":"126.98769941","imageIndex":17,"items":[{"name":"세븐일레븐화성귀래점","tel":"","addr":"경기도 화성시 정남면 귀래리 430-3번지 430-12","indutype":"유통업 영리 - 편 의 점","category":"other"}]},{"lat":"37.132393412","long":"126.99244965","imageIndex":17,"items":[{"name":"엠에스크린","tel":"031-354-8230","addr":"경기도 화성시 정남면 귀래리 273-6번지","indutype":"신변잡화 - 기타잡화","category":"other"},{"name":"용접월드","tel":"031-352-9841","addr":"경기도 화성시 정남면 귀래리 273-6번지","indutype":"용역 서비스 - 기타용역서비스","category":"other"}]},{"lat":"37.132672539","long":"126.99040141","imageIndex":17,"items":[{"name":"영미환경","tel":"031-225-6650","addr":"경기도 화성시 정남면 귀래리 518번지 1층","indutype":"용역 서비스 - 종합용역","category":"other"}]},{"lat":"37.134978756","long":"126.98654082","imageIndex":17,"items":[{"name":"오토오션","tel":"","addr":"경기도 화성시 정남면 귀래리 449-19번지","indutype":"용역 서비스 - 기타용역서비스","category":"other"}]},{"lat":"37.132528903","long":"126.99742385","imageIndex":17,"items":[{"name":"원패키지","tel":"","addr":"경기도 화성시 정남면 귀래리 178-1번지","indutype":"건축자재 - 인테리어전문","category":"other"}]},{"lat":"37.141754434","long":"126.98509869","imageIndex":17,"items":[{"name":"일성레이저&엔.씨.티","tel":"031-352-4007","addr":"경기도 화성시 정남면 귀래리 385-2번지 외1필지","indutype":"전기제품 - 기타전기제품","category":"other"}]},{"lat":"37.136862367","long":"126.98992803","imageIndex":17,"items":[{"name":"정우산업","tel":"041-338-7613","addr":"경기도 화성시 정남면 귀래리 319-4번지","indutype":"기타 - 기계공구","category":"other"}]},{"lat":"37.132699181","long":"126.98712651","imageIndex":17,"items":[{"name":"주식회사 우주메탈","tel":"031-8059-6466","addr":"경기도 화성시 정남면 귀래리 456-3번지","indutype":"건축자재 - 기타건축자재","category":"other"}]},{"lat":"37.133726645","long":"126.98928708","imageIndex":17,"items":[{"name":"호연레이저","tel":"031-352-5054","addr":"경기도 화성시 정남면 귀래리 502-1번지","indutype":"기타 - 기계공구","category":"other"}]},{"lat":"37.140943785","long":"126.98718108","imageIndex":4,"items":[{"name":"가보자한식뷔페","tel":"031-353-3706","addr":"경기도 화성시 정남면 귀래리 380-2번지 가동","indutype":"일반휴게음식 - 일반한식","category":"restaurant"},{"name":"우리한식","tel":"031-353-3706","addr":"경기도 화성시 정남면 귀래리 380-2번지","indutype":"일반휴게음식 - 일반한식","category":"restaurant"}]},{"lat":"37.138421132","long":"126.98947757","imageIndex":4,"items":[{"name":"대가숯불갈비","tel":"031-353-8880","addr":"경기도 화성시 정남면 귀래리 340-1번지","indutype":"일반휴게음식 - 일반한식","category":"restaurant"}]},{"lat":"37.134194476","long":"126.98406508","imageIndex":4,"items":[{"name":"명가한식부페","tel":"031-8059-0112","addr":"경기도 화성시 정남면 귀래리 448번지 1층","indutype":"일반휴게음식 - 일반한식","category":"restaurant"}]},{"lat":"37.13461855","long":"126.98817275","imageIndex":4,"items":[{"name":"소담한식부페","tel":"031-378-0447","addr":"경기도 화성시 정남면 귀래리 466번지 1층","indutype":"일반휴게음식 - 일반한식","category":"restaurant"}]},{"lat":"37.134032226","long":"126.98368248","imageIndex":4,"items":[{"name":"전주한식뷔페","tel":"031-366-1334","addr":"경기도 화성시 정남면 귀래리 447-2번지 1층","indutype":"일반휴게음식 - 일반한식","category":"restaurant"}]},{"lat":"37.139114645","long":"126.98709142","imageIndex":4,"items":[{"name":"청송가든","tel":"031-352-6804","addr":"경기도 화성시 정남면 귀래리 403번지","indutype":"일반휴게음식 - 일반한식","category":"restaurant"}]},{"lat":"37.136834742","long":"126.98531368","imageIndex":4,"items":[{"name":"한샘한식","tel":"031-8059-0112","addr":"경기도 화성시 정남면 귀래리 437-37번지","indutype":"일반휴게음식 - 일반한식","category":"restaurant"}]},{"lat":"37.132195542","long":"126.99804284","imageIndex":4,"items":[{"name":"행복","tel":"031-366-4739","addr":"경기도 화성시 정남면 귀래리 179-4번지","indutype":"일반휴게음식 - 일반한식","category":"restaurant"}]},{"lat":"37.125617841","long":"126.99725556","imageIndex":4,"items":[{"name":"향미식당","tel":"031-353-3876","addr":"경기도 화성시 정남면 귀래리 209-44번지","indutype":"일반휴게음식 - 일반한식","category":"restaurant"}]},{"lat":"37.126861358","long":"126.99892092","imageIndex":7,"items":[{"name":"경동축산","tel":"031-354-7187","addr":"경기도 화성시 정남면 귀래리 209-10번지 1층 25,26호","indutype":"음료식품 - 정육점","category":"food"},{"name":"경진축산","tel":"031-352-3387","addr":"경기도 화성시 정남면 귀래리 209-10번지 수원축산농협축산물유통센타 1층 11호","indutype":"음료식품 - 기타음료식품","category":"food"},{"name":"남광축산유통","tel":"031-353-3376","addr":"경기도 화성시 정남면 귀래리 209-10번지 101,102호","indutype":"음료식품 - 정육점","category":"food"},{"name":"동산축산","tel":"031-366-1050","addr":"경기도 화성시 정남면 귀래리 209-10번지 주식회사경기축산","indutype":"음료식품 - 정육점","category":"food"},{"name":"상민축산","tel":"031-354-3689","addr":"경기도 화성시 정남면 귀래리 209-10번지 외1필지 수원축산농협축산물유통센타 1080호","indutype":"음료식품 - 정육점","category":"food"},{"name":"성삼축산","tel":"031-352-4648","addr":"경기도 화성시 정남면 귀래리 209-10번지 (1층57,58,59,60호)","indutype":"음료식품 - 정육점","category":"food"},{"name":"오산유통","tel":"031-353-1990","addr":"경기도 화성시 정남면 귀래리 209-10번지 신양축산상가 1동 116호","indutype":"음료식품 - 정육점","category":"food"},{"name":"우정축산","tel":"031-366-5342","addr":"경기도 화성시 정남면 귀래리 209-10번지 화성한우마을 43~45호","indutype":"음료식품 - 정육점","category":"food"},{"name":"자매축산","tel":"031-353-5101","addr":"경기도 화성시 정남면 귀래리 209-10번지","indutype":"음료식품 - 정육점","category":"food"},{"name":"조은축산유통","tel":"031-353-2848","addr":"경기도 화성시 정남면 귀래리 209-10번지 수원축산농협축산물유통센타 1115호","indutype":"음료식품 - 정육점","category":"food"},{"name":"하나푸드","tel":"031-353-5699","addr":"경기도 화성시 정남면 귀래리 209-10번지 91,92호 (건물1층)","indutype":"음료식품 - 정육점","category":"food"},{"name":"하나푸드","tel":"031-353-5699","addr":"경기도 화성시 정남면 귀래리 209-10번지 1층","indutype":"음료식품 - 정육점","category":"food"},{"name":"화성한우","tel":"031-353-3215","addr":"경기도 화성시 정남면 귀래리 209-10번지 수원축산농협축산물유통센타 1층 121호","indutype":"음료식품 - 정육점","category":"food"},{"name":"흑용축산","tel":"031-366-3718","addr":"경기도 화성시 정남면 귀래리 209-10번지 수원축산농협축산물유통센타 1층 122호","indutype":"음료식품 - 정육점","category":"food"}]},{"lat":"37.126699149","long":"126.99834702","imageIndex":7,"items":[{"name":"형제축산","tel":"031-352-6005","addr":"경기도 화성시 정남면 귀래리 209-11 63호64호","indutype":"음료식품 - 정육점","category":"food"}]},{"lat":"37.126861358","long":"126.99892092","imageIndex":7,"items":[{"name":"보림유통","tel":"070-8817-8139","addr":"경기도 화성시 정남면 귀래리 209-10번지","indutype":"유통업 영리 - 슈퍼마켓","category":"mart"}]},{"lat":"37.134978756","long":"126.98654082","imageIndex":0,"items":[{"name":"에이지 (AG)원스톱클럽","tel":"031-353-8002","addr":"경기도 화성시 정남면 귀래리 449-19번지 A동","indutype":"자동차정비 유지 - 자동차부품","category":"car"},{"name":"에이지(AG)","tel":"","addr":"경기도 화성시 정남면 귀래리 449-19번지 1-2동 근생동 1-2층 (A)","indutype":"자동차정비 유지 - 자동차부품","category":"car"},{"name":"에이지엔텍","tel":"031-831-5626","addr":"경기도 화성시 정남면 귀래리 449-19번지","indutype":"자동차정비 유지 - 자동차부품","category":"car"}]},{"lat":"37.132834511","long":"126.98848821","imageIndex":0,"items":[{"name":"전국특장","tel":"031-352-3276","addr":"경기도 화성시 정남면 귀래리 498-3번지","indutype":"자동차판매 - 기타운송","category":"car"}]}]