[{"lat":"37.29062724","long":"126.96267808","imageIndex":9,"items":[{"name":"(주)권선에너지","tel":"031-298-2637","addr":"경기도 수원시 권선구 입북동 440-1번지","indutype":"연료판매점 - SK가스충전소","category":"oil"}]},{"lat":"37.297401003","long":"126.95731723","imageIndex":17,"items":[{"name":"(주)로하스힐링","tel":"031-374-3397","addr":"경기도 수원시 권선구 입북동 153번지 마동 105호, 106호","indutype":"가구 - 일반가구","category":"other"}]},{"lat":"37.282147897","long":"126.96069799","imageIndex":17,"items":[{"name":"(주)윙스타","tel":"031-454-7185","addr":"경기도 수원시 권선구 입북동 796-16번지","indutype":"신변잡화 - 가방","category":"other"}]},{"lat":"37.282544101","long":"126.96000992","imageIndex":17,"items":[{"name":"(주)케이엘공조","tel":"031-477-7703","addr":"경기도 수원시 권선구 입북동 796-19번지 C동","indutype":"전기제품 - 냉열기기","category":"other"},{"name":"인스가구","tel":"031-223-8974","addr":"경기도 수원시 권선구 입북동 796-19번지","indutype":"가구 - 일반가구","category":"other"}]},{"lat":"37.29340129","long":"126.95954137","imageIndex":17,"items":[{"name":"IDOS","tel":"031-296-0242","addr":"경기도 수원시 권선구 입북동 429-11번지","indutype":"주방용구 - 주방용구","category":"other"},{"name":"안산편백","tel":"031-309-2291","addr":"경기도 수원시 권선구 입북동 429-11번지","indutype":"가구 - 일반가구","category":"other"}]},{"lat":"37.299564496","long":"126.96009049","imageIndex":17,"items":[{"name":"경인공조","tel":"","addr":"경기도 수원시 권선구 입북동 166-2번지","indutype":"용역 서비스 - 기타용역서비스","category":"other"}]},{"lat":"37.299372105","long":"126.95206017","imageIndex":17,"items":[{"name":"대명사","tel":"031-295-1612","addr":"경기도 수원시 권선구 입북동 330-2","indutype":"가구 - 일반가구","category":"other"}]},{"lat":"37.295041009","long":"126.9591457","imageIndex":17,"items":[{"name":"대명철물설비","tel":"031-295-1178","addr":"경기도 수원시 권선구 입북동 251-6번지","indutype":"건축자재 - 보일러·펌프·샷시","category":"other"},{"name":"아산시스템","tel":"031-278-3202","addr":"경기도 수원시 권선구 입북동 251-6번지 2호","indutype":"사무통신 - 컴퓨터","category":"other"}]},{"lat":"37.300039232","long":"126.95292819","imageIndex":17,"items":[{"name":"대우수선집","tel":"031-234-5678","addr":"경기도 수원시 권선구 입북동 814번지 서수원레이크푸르지오1단지 116(상가)동 101호","indutype":"수리서비스 - 세탁소","category":"other"},{"name":"무지개기획","tel":"","addr":"경기도 수원시 권선구 입북동 814번지 서수원레이크푸르지오1단지 103동 1801호","indutype":"용역 서비스 - 사무서비스","category":"other"},{"name":"에이앤제트스포츠(ANZ sports)","tel":"","addr":"경기도 수원시 권선구 입북동 814번지 서수원레이크푸르지오1단지 상가 101호","indutype":"레져용품 - 스포츠·레져용품","category":"other"},{"name":"트윈에스테크(TWIN S-TECH)","tel":"070-4007-6226","addr":"경기도 수원시 권선구 입북동 814번지 서수원레이크푸르지오1단지 101호","indutype":"기타 - 기계공구","category":"other"},{"name":"황제이불","tel":"","addr":"경기도 수원시 권선구 입북동 814번지 서수원레이크푸르지오1단지 102동 1301호","indutype":"직물 - 침구·수예점","category":"other"}]},{"lat":"37.293014229","long":"126.96059042","imageIndex":17,"items":[{"name":"대한예수교장로회 풍성한교회","tel":"031-297-1009","addr":"경기도 수원시 권선구 입북동 430-1번지","indutype":"기타 - 비영리/대상","category":"other"}]},{"lat":"37.292924017","long":"126.96028598","imageIndex":17,"items":[{"name":"드림건축자재","tel":"031-298-5377","addr":"경기도 수원시 권선구 입북동 430-12번지","indutype":"건축자재 - 기타건축자재","category":"other"}]},{"lat":"37.293094137","long":"126.95739877","imageIndex":17,"items":[{"name":"루치나의다육정원","tel":"031-419-8966","addr":"경기도 수원시 권선구 입북동 419-10번지","indutype":"문화.취미 - 화원","category":"other"}]},{"lat":"37.295707413","long":"126.95819795","imageIndex":17,"items":[{"name":"만수유통","tel":"02-1111-1111","addr":"경기도 수원시 권선구 입북동 266-2번지","indutype":"유통업 영리 - 기타유통업","category":"other"}]},{"lat":"37.282147698","long":"126.96014546","imageIndex":17,"items":[{"name":"민영창호","tel":"031-293-4204","addr":"경기도 수원시 권선구 입북동 796-20번지 102동","indutype":"건축자재 - 보일러·펌프·샷시","category":"other"}]},{"lat":"37.29848039","long":"126.95276004","imageIndex":17,"items":[{"name":"반딧불이","tel":"031-385-5764","addr":"경기도 수원시 권선구 입북동 815번지 서수원레이크푸르지오2단지 205동 1402호","indutype":"회원제형태 - 기타4","category":"other"},{"name":"서프사이드그릴(SURFSIDEGRILL)","tel":"031-493-1128","addr":"경기도 수원시 권선구 입북동 815번지 서수원레이크푸르지오2단지 204동 1301호","indutype":"용역 서비스 - 종합용역","category":"other"},{"name":"씨유수원마암점","tel":"080-080-3663","addr":"경기도 수원시 권선구 입북동 815번지 서수원 레이크 푸르지오 2단지 219(상가)동 102,103호","indutype":"유통업 영리 - 편 의 점","category":"other"},{"name":"장e사","tel":"","addr":"경기도 수원시 권선구 입북동 815번지 서수원레이크푸르지오2단지 206동 1804호","indutype":"용역 서비스 - 가례서비스업","category":"other"},{"name":"지엘에스테크놀러지","tel":"","addr":"경기도 수원시 권선구 입북동 815번지 서수원레이크푸르지오2단지 207동 1404호","indutype":"서적문구 - 과학기자재","category":"other"},{"name":"크린토피아 서수원레이크 푸르지오","tel":"031-227-8968","addr":"경기도 수원시 권선구 입북동 815번지 서수원레이크푸르지오2단지 1층 108호","indutype":"수리서비스 - 세탁소","category":"other"},{"name":"효사랑라이프","tel":"031-455-9001","addr":"경기도 수원시 권선구 입북동 815번지 서수원레이크푸르지오2단지 201동 1104호","indutype":"용역 서비스 - 가례서비스업","category":"other"}]},{"lat":"37.297986786","long":"126.9576214","imageIndex":17,"items":[{"name":"부엉이스튜디오","tel":"031-296-5425","addr":"경기도 수원시 권선구 입북동 146-2번지 1층","indutype":"광학제품 - 사진관","category":"other"}]},{"lat":"37.280517365","long":"126.96162352","imageIndex":17,"items":[{"name":"서경유통","tel":"070-4707-4015","addr":"경기도 수원시 권선구 입북동 796-7번지 1층","indutype":"신변잡화 - 기타잡화","category":"other"},{"name":"프로이벤트","tel":"02-457-8262","addr":"경기도 수원시 권선구 입북동 796-7번지","indutype":"용역 서비스 - 사무서비스","category":"other"}]},{"lat":"37.288510669","long":"126.96522782","imageIndex":17,"items":[{"name":"서수원 중고유통","tel":"031-227-4980","addr":"경기도 수원시 권선구 입북동 496-2번지","indutype":"전기제품 - 가전제품","category":"other"}]},{"lat":"37.296096087","long":"126.96159246","imageIndex":17,"items":[{"name":"섬숙이다육","tel":"031-278-6314","addr":"경기도 수원시 권선구 입북동 241","indutype":"문화.취미 - 화원","category":"other"}]},{"lat":"37.293734911","long":"126.96020657","imageIndex":17,"items":[{"name":"스마트백","tel":"031-445-6428","addr":"경기도 수원시 권선구 입북동 249-10번지","indutype":"신변잡화 - 가방","category":"other"}]},{"lat":"37.295680417","long":"126.95828819","imageIndex":17,"items":[{"name":"스타원커뮤니케이션","tel":"031-8001-3209","addr":"경기도 수원시 권선구 입북동 265-3,266-2","indutype":"회원제형태 - 기타4","category":"other"}]},{"lat":"37.283147927","long":"126.96039297","imageIndex":17,"items":[{"name":"신성산업","tel":"031-438-6555","addr":"경기도 수원시 권선구 입북동 796-1번지 나동","indutype":"주방용구 - 주방용구","category":"other"},{"name":"행복창고 서수원점","tel":"031-278-6343","addr":"경기도 수원시 권선구 입북동 796-1번지","indutype":"가구 - 일반가구","category":"other"}]},{"lat":"37.299036581","long":"126.94728953","imageIndex":17,"items":[{"name":"싱싱농장","tel":"031-297-2612","addr":"경기도 수원시 권선구 입북동 346","indutype":"농업 - 비료,사료,종자","category":"other"}]},{"lat":"37.29265319","long":"126.95886514","imageIndex":17,"items":[{"name":"썬마트형제점","tel":"031-291-3462","addr":"경기도 수원시 권선구 입북동 426-1번지","indutype":"유통업 영리 - 편 의 점","category":"other"}]},{"lat":"37.292590507","long":"126.95992528","imageIndex":17,"items":[{"name":"아크컴퍼니","tel":"031-452-0171","addr":"경기도 수원시 권선구 입북동 430-32번지","indutype":"의류 - 정장","category":"other"}]},{"lat":"37.29492509","long":"126.96256301","imageIndex":17,"items":[{"name":"월드꽃식물원","tel":"031-278-2602","addr":"경기도 수원시 권선구 입북동 228","indutype":"문화.취미 - 화원","category":"other"}]},{"lat":"37.284877487","long":"126.95926435","imageIndex":17,"items":[{"name":"월드시스템","tel":"031-293-1213","addr":"경기도 수원시 권선구 입북동 633-7번지","indutype":"전기제품 - 가전제품","category":"other"}]},{"lat":"37.296896039","long":"126.95631377","imageIndex":17,"items":[{"name":"인텍스","tel":"031-297-8438","addr":"경기도 수원시 권선구 입북동 300-2번지 편백나무타운하우스","indutype":"건축자재 - 기타건축자재","category":"other"}]},{"lat":"37.293121952","long":"126.95948514","imageIndex":17,"items":[{"name":"입북동주민자치위원회","tel":"031-228-6752","addr":"경기도 수원시 권선구 입북동 429-9번지","indutype":"문화.취미 - 문화취미기타","category":"other"}]},{"lat":"37.293680698","long":"126.95978932","imageIndex":17,"items":[{"name":"잉크닥터","tel":"031-295-3255","addr":"경기도 수원시 권선구 입북동 250-2번지","indutype":"사무통신 - 기타 사무용품","category":"other"}]},{"lat":"37.292509586","long":"126.96039899","imageIndex":17,"items":[{"name":"정도에스지","tel":"031-306-4949","addr":"경기도 수원시 권선구 입북동 430-23번지 외1필지 1층","indutype":"신변잡화 - 기타잡화","category":"other"}]},{"lat":"37.28593202","long":"126.96017715","imageIndex":17,"items":[{"name":"좋은농장","tel":"031-294-4393","addr":"경기도 수원시 권선구 입북동 627번지","indutype":"농업 - 비료,사료,종자","category":"other"}]},{"lat":"37.293293307","long":"126.95992488","imageIndex":17,"items":[{"name":"천일PVC상사","tel":"031-297-0772","addr":"경기도 수원시 권선구 입북동 250-6번지","indutype":"건축자재 - 기타건축자재","category":"other"}]},{"lat":"37.292707517","long":"126.95958688","imageIndex":17,"items":[{"name":"콜핑서수원점","tel":"031-292-7117","addr":"경기도 수원시 권선구 입북동 429-4번지 1층","indutype":"레져용품 - 스포츠·레져용품","category":"other"}]},{"lat":"37.295257247","long":"126.95912302","imageIndex":17,"items":[{"name":"크린토피아 수원입북자이점","tel":"031-292-8482","addr":"경기도 수원시 권선구 입북동 251-12번지 1층","indutype":"수리서비스 - 세탁소","category":"other"}]},{"lat":"37.280679538","long":"126.96158961","imageIndex":17,"items":[{"name":"한결티에스","tel":"031-295-5757","addr":"경기도 수원시 권선구 입북동 796-46번지","indutype":"용역 서비스 - 종합용역","category":"other"}]},{"lat":"37.294680753","long":"126.95956319","imageIndex":17,"items":[{"name":"한울","tel":"031-000-0000","addr":"경기도 수원시 권선구 입북동 251-8번지 103호","indutype":"건축자재 - 인테리어전문","category":"other"}]},{"lat":"37.292482323","long":"126.95975618","imageIndex":17,"items":[{"name":"해피라인","tel":"031-294-0646","addr":"경기도 수원시 권선구 입북동 430-31번지","indutype":"직물 - 침구·수예점","category":"other"}]},{"lat":"37.296815541","long":"126.95784767","imageIndex":17,"items":[{"name":"효진테크윈","tel":"031-1111-1111","addr":"경기도 수원시 권선구 입북동 271번지 외4필지","indutype":"기타 - 기계공구","category":"other"}]},{"lat":"37.29848039","long":"126.95276004","imageIndex":16,"items":[{"name":"강의하는최T","tel":"","addr":"경기도 수원시 권선구 입북동 815번지 서수원레이크푸르지오2단지 204동 1층 101호","indutype":"학원 - 기타 교육기관","category":"study"},{"name":"뉴멜로디음악학원","tel":"031-278-4812","addr":"경기도 수원시 권선구 입북동 815번지 서수원레이크푸르지오2단지","indutype":"학원 - 예·체능계학원","category":"study"},{"name":"뉴엔젤음악학원","tel":"031-278-0977","addr":"경기도 수원시 권선구 입북동 815번지 서수원레이크푸르지오2단지 219(상가)동 205,206호","indutype":"학원 - 예·체능계학원","category":"study"},{"name":"라온미술교습소","tel":"031-292-4813","addr":"경기도 수원시 권선구 입북동 815번지 서수원레이크푸르지오2단지 219상가동 202호","indutype":"학원 - 예·체능계학원","category":"study"},{"name":"레몬미술교습소","tel":"031-278-0977","addr":"경기도 수원시 권선구 입북동 815번지 서수원 레이크 푸르지오2단지 219(상가)동 206호일부","indutype":"학원 - 예·체능계학원","category":"study"},{"name":"뮤엠영어입북영어교습소","tel":"031-385-6574","addr":"경기도 수원시 권선구 입북동 815번지 서수원레이크푸리지우2단지 219동 201호","indutype":"학원 - 외국어학원","category":"study"},{"name":"에코푸르지오어린이집[아이행복]","tel":"031-295-2323","addr":"경기도 수원시 권선구 입북동 815번지 서수원레이크푸르지오2단지 201동 101호","indutype":"학원 - 유아원","category":"study"},{"name":"예슬랑어린이집[아이행복]","tel":"031-278-7174","addr":"경기도 수원시 권선구 입북동 815번지 서수원레이크푸르지오2단지","indutype":"학원 - 유아원","category":"study"},{"name":"용인대예다함태권도원","tel":"031-296-0670","addr":"경기도 수원시 권선구 입북동 815번지 207호 대우푸르지오상가2단지207~209호","indutype":"학원 - 예·체능계학원","category":"study"}]},{"lat":"37.300039232","long":"126.95292819","imageIndex":16,"items":[{"name":"꿈누리어린이집[아이행복]","tel":"031-294-7911","addr":"경기도 수원시 권선구 입북동 814번지 서수원레이크푸르지오1단지 103동 101호","indutype":"학원 - 유아원","category":"study"},{"name":"서수원푸르지오해법수학교습소","tel":"031-890-7655","addr":"경기도 수원시 권선구 입북동 814번지 서수원레이크푸르지오1단지 상가동 203호","indutype":"학원 - 보습학원","category":"study"},{"name":"수피아어린이집[아이행복]","tel":"031-278-7051","addr":"경기도 수원시 권선구 입북동 814번지 푸르지오1단지 관리동","indutype":"학원 - 유아원","category":"study"},{"name":"해뜰어린이집[아이행복]","tel":"031-294-1122","addr":"경기도 수원시 권선구 입북동 814번지 서수원레이크푸르지오1단지 105동 102호","indutype":"학원 - 유아원","category":"study"}]},{"lat":"37.295257247","long":"126.95912302","imageIndex":16,"items":[{"name":"나무와열매학원","tel":"031-278-0932","addr":"경기도 수원시 권선구 입북동 251-12번지 2층","indutype":"학원 - 보습학원","category":"study"}]},{"lat":"37.294788743","long":"126.95920224","imageIndex":16,"items":[{"name":"샵앤플랫음악학원","tel":"031-291-8433","addr":"경기도 수원시 권선구 입북동 412-4번지 2층","indutype":"학원 - 예·체능계학원","category":"study"}]},{"lat":"37.294680753","long":"126.95956319","imageIndex":16,"items":[{"name":"아이엘음악학원","tel":"031-227-6482","addr":"경기도 수원시 권선구 입북동 251-8번지 입북프라자 3층 302호","indutype":"학원 - 예·체능계학원","category":"study"},{"name":"에스앤엠수학전문학원","tel":"031-227-2221","addr":"경기도 수원시 권선구 입북동 251-8번지 302호","indutype":"학원 - 보습학원","category":"study"},{"name":"용인대예다함태권도장","tel":"031-292-0670","addr":"경기도 수원시 권선구 입북동 251-8번지","indutype":"학원 - 예·체능계학원","category":"study"},{"name":"튼튼영어마스터클럽입북교습소","tel":"031-293-7779","addr":"경기도 수원시 권선구 입북동 251-8번지 1층 103호","indutype":"회원제형태 - 학원","category":"study"}]},{"lat":"37.282147897","long":"126.96069799","imageIndex":16,"items":[{"name":"애플바스켓볼","tel":"031-268-8077","addr":"경기도 수원시 권선구 입북동 796-16번지 1동","indutype":"학원 - 예·체능계학원","category":"study"}]},{"lat":"37.29448283","long":"126.96039788","imageIndex":16,"items":[{"name":"입북초등학교","tel":"031-294-4956","addr":"경기도 수원시 권선구 입북동 230-3번지 입북초등학교","indutype":"학원 - 초중고교육기관","category":"study"}]},{"lat":"37.295563541","long":"126.95897623","imageIndex":16,"items":[{"name":"주식회사올더컴퍼니(All the company co.,L","tel":"031-292-0772","addr":"경기도 수원시 권선구 입북동 264-4번지 2층","indutype":"학원 - 기타 교육기관","category":"study"}]},{"lat":"37.295455347","long":"126.95878456","imageIndex":4,"items":[{"name":"고향감자탕","tel":"031-293-7139","addr":"경기도 수원시 권선구 입북동 264-2번지 2층 1호","indutype":"일반휴게음식 - 일반한식","category":"restaurant"}]},{"lat":"37.300039232","long":"126.95292819","imageIndex":4,"items":[{"name":"꾼떡","tel":"031-292-6848","addr":"경기도 수원시 권선구 입북동 814번지 서수원레이크푸르지오1단지 상가 104호","indutype":"일반휴게음식 - 스넥","category":"restaurant"},{"name":"하이꼬꼬수원입북점","tel":"031-278-5311","addr":"경기도 수원시 권선구 입북동 814번지 서수원레이크푸르지오1단지 상가동 103호","indutype":"일반휴게음식 - 일반한식","category":"restaurant"}]},{"lat":"37.29848039","long":"126.95276004","imageIndex":4,"items":[{"name":"달콤수다","tel":"031-295-0505","addr":"경기도 수원시 권선구 입북동 815번지 서수원레이크푸르지오2단지 106호 상가","indutype":"일반휴게음식 - 서양음식","category":"restaurant"}]},{"lat":"37.292482323","long":"126.95975618","imageIndex":4,"items":[{"name":"두두퍼니처","tel":"031-278-3003","addr":"경기도 수원시 권선구 입북동 430-31번지 A동호,B동호","indutype":"일반휴게음식 - 서양음식","category":"restaurant"}]},{"lat":"37.295374981","long":"126.96078083","imageIndex":4,"items":[{"name":"백년갈비 수원권선점","tel":"031-226-6111","addr":"경기도 수원시 권선구 입북동 243-5번지","indutype":"일반휴게음식 - 일반한식","category":"restaurant"}]},{"lat":"37.297986786","long":"126.9576214","imageIndex":4,"items":[{"name":"부엉이코피","tel":"","addr":"경기도 수원시 권선구 입북동 146-2번지 1층","indutype":"일반휴게음식 - 서양음식","category":"restaurant"}]},{"lat":"37.294680633","long":"126.95923613","imageIndex":4,"items":[{"name":"상하이","tel":"031-295-2013","addr":"경기도 수원시 권선구 입북동 412-6번지","indutype":"일반휴게음식 - 중국식","category":"restaurant"}]},{"lat":"37.294680753","long":"126.95956319","imageIndex":4,"items":[{"name":"엄마네밥상","tel":"031-251-6912","addr":"경기도 수원시 권선구 입북동 251-8번지 1층","indutype":"일반휴게음식 - 일반한식","category":"restaurant"}]},{"lat":"37.29104155","long":"126.9622042","imageIndex":4,"items":[{"name":"장어명가","tel":"031-297-0592","addr":"경기도 수원시 권선구 입북동 438-1번지 2층","indutype":"일반휴게음식 - 일반한식","category":"restaurant"}]},{"lat":"37.293293635","long":"126.96083838","imageIndex":4,"items":[{"name":"장장정정","tel":"031-254-1679","addr":"경기도 수원시 권선구 입북동 236-10번지","indutype":"일반휴게음식 - 일반한식","category":"restaurant"}]},{"lat":"37.295203131","long":"126.95897643","imageIndex":4,"items":[{"name":"청학동식당","tel":"031-291-4266","addr":"경기도 수원시 권선구 입북동 251-4번지 1층","indutype":"일반휴게음식 - 일반한식","category":"restaurant"}]},{"lat":"37.294788743","long":"126.95920224","imageIndex":4,"items":[{"name":"커피가(Coffee ga)","tel":"031-292-6920","addr":"경기도 수원시 권선구 입북동 412-4번지 1층","indutype":"일반휴게음식 - 서양음식","category":"restaurant"}]},{"lat":"37.293481703","long":"126.9577256","imageIndex":4,"items":[{"name":"한장어","tel":"031-8004-2002","addr":"경기도 수원시 권선구 입북동 422-4번지","indutype":"일반휴게음식 - 일반한식","category":"restaurant"}]},{"lat":"37.298201652","long":"126.95414749","imageIndex":0,"items":[{"name":"광주타이어","tel":"031-223-9231","addr":"경기도 수원시 권선구 입북동 317-1번지","indutype":"자동차정비 유지 - 자동차부품","category":"car"}]},{"lat":"37.294401456","long":"126.95961974","imageIndex":0,"items":[{"name":"입북카센타","tel":"031-293-1077","addr":"경기도 수원시 권선구 입북동 250-1번지","indutype":"자동차정비 유지 - 자동차정비","category":"car"}]},{"lat":"37.293635348","long":"126.95897735","imageIndex":0,"items":[{"name":"출장타이어","tel":"070-8991-9979","addr":"경기도 수원시 권선구 입북동 428번지 광원8차빌라 나동 201호","indutype":"자동차정비 유지 - 자동차정비","category":"car"}]},{"lat":"37.294680753","long":"126.95956319","imageIndex":8,"items":[{"name":"다나약국","tel":"031-298-7442","addr":"경기도 수원시 권선구 입북동 251-8번지 1층","indutype":"약국 - 약국","category":"medical"},{"name":"입북삼성가정의학과의원","tel":"031-295-6370","addr":"경기도 수원시 권선구 입북동 251-8번지 1층","indutype":"의원 - 의원","category":"medical"}]},{"lat":"37.295563541","long":"126.95897623","imageIndex":8,"items":[{"name":"유디컬맘","tel":"031-000-0000","addr":"경기도 수원시 권선구 입북동 264-4번지 2층","indutype":"약국 - 제약회사","category":"medical"}]},{"lat":"37.293562722","long":"126.95753383","imageIndex":7,"items":[{"name":"대한수산","tel":"031-8004-2002","addr":"경기도 수원시 권선구 입북동 419-1번지 1층","indutype":"음료식품 - 농·축·수산품","category":"food"}]},{"lat":"37.293895822","long":"126.95681184","imageIndex":7,"items":[{"name":"약초농산","tel":"031-242-6459","addr":"경기도 수원시 권선구 입북동 419-5번지","indutype":"음료식품 - 농·축·수산품","category":"food"},{"name":"코메스KOMES","tel":"031-1899-8609","addr":"경기도 수원시 권선구 입북동 419-5번지","indutype":"음료식품 - 농·축·수산품","category":"food"}]},{"lat":"37.292815682","long":"126.9596996","imageIndex":7,"items":[{"name":"영덕수산","tel":"031-000-0000","addr":"경기도 수원시 권선구 입북동 429-3번지","indutype":"음료식품 - 농·축·수산품","category":"food"}]},{"lat":"37.294680753","long":"126.95956319","imageIndex":7,"items":[{"name":"오십보상사","tel":"031-295-6370","addr":"경기도 수원시 권선구 입북동 251-8번지 입북프라자 1층 104호","indutype":"건강식품 - 기타건강식품","category":"food"}]},{"lat":"37.292401552","long":"126.96064716","imageIndex":7,"items":[{"name":"주식회사 패밀리로지스","tel":"02-574-9400","addr":"경기도 수원시 권선구 입북동 430-17번지","indutype":"음료식품 - 기타음료식품","category":"food"}]},{"lat":"37.297275166","long":"126.95811807","imageIndex":7,"items":[{"name":"천년의 향기","tel":"031-292-5178","addr":"경기도 수원시 권선구 입북동 153번지 웅비아파트 마동 301호","indutype":"음료식품 - 농·축·수산품","category":"food"}]},{"lat":"37.295257247","long":"126.95912302","imageIndex":7,"items":[{"name":"파리바게트 수원입북점","tel":"031-298-8121","addr":"경기도 수원시 권선구 입북동 251-12번지 1층 101,102호","indutype":"음료식품 - 제과점","category":"food"}]},{"lat":"37.292590507","long":"126.95992528","imageIndex":7,"items":[{"name":"한남글로벌 주식회사","tel":"031-501-2561","addr":"경기도 수원시 권선구 입북동 430-32번지 C동 1층","indutype":"음료식품 - 기타음료식품","category":"food"}]},{"lat":"37.29484373","long":"126.96178487","imageIndex":7,"items":[{"name":"향원 야채과일","tel":"031-291-5574","addr":"경기도 수원시 권선구 입북동 230번지","indutype":"음료식품 - 농·축·수산품","category":"food"}]},{"lat":"37.300039232","long":"126.95292819","imageIndex":13,"items":[{"name":"더샵(The#)","tel":"031-293-4255","addr":"경기도 수원시 권선구 입북동 814번지 서수원레이크푸르지오1단지 상가동 201,202호","indutype":"보건위생 - 미용원","category":"beauty"}]},{"lat":"37.295041009","long":"126.9591457","imageIndex":13,"items":[{"name":"머리애봄","tel":"031-296-7775","addr":"경기도 수원시 권선구 입북동 251-6번지 1층","indutype":"보건위생 - 미용원","category":"beauty"}]},{"lat":"37.294563508","long":"126.95925876","imageIndex":13,"items":[{"name":"아가페미용실","tel":"031-269-2994","addr":"경기도 수원시 권선구 입북동 412-8번지","indutype":"보건위생 - 미용원","category":"beauty"}]},{"lat":"37.29848039","long":"126.95276004","imageIndex":13,"items":[{"name":"포유헤어(For You Hair)","tel":"031-227-3641","addr":"경기도 수원시 권선구 입북동 815번지 서수원레이크푸르지오2단지 상가동 105호","indutype":"보건위생 - 미용원","category":"beauty"}]},{"lat":"37.295842787","long":"126.95878433","imageIndex":13,"items":[{"name":"더온 필라테스 입북점","tel":"","addr":"경기도 수원시 권선구 입북동 264-1번지 3","indutype":"레저업소 - 헬스클럽","category":"leisure"}]},{"lat":"37.295455347","long":"126.95878456","imageIndex":13,"items":[{"name":"자이스크린골프","tel":"031-227-9555","addr":"경기도 수원시 권선구 입북동 264-2번지 3층","indutype":"레저업소 - 스크린골프","category":"leisure"}]},{"lat":"37.300039232","long":"126.95292819","imageIndex":7,"items":[{"name":"착한농산물마트","tel":"031-296-0666","addr":"경기도 수원시 권선구 입북동 814번지 서수원레이크푸르지오1단지 116(상가)동 1층 102호","indutype":"유통업 영리 - 슈퍼마켓","category":"mart"}]}]