[{"lat":"37.011522849","long":"127.26990578","imageIndex":13,"items":[{"name":"까망머리","tel":"031-671-2719","addr":"경기도 안성시 금산동 30번지","indutype":"보건위생 - 미용원","category":"beauty"}]},{"lat":"37.008797475","long":"127.26773902","imageIndex":13,"items":[{"name":"대한치유연구회","tel":"031-691-1316","addr":"경기도 안성시 금산동 165번지","indutype":"보건위생 - 기타대인서비스","category":"beauty"}]},{"lat":"37.010550085","long":"127.26973384","imageIndex":13,"items":[{"name":"드레쉬펌","tel":"031-676-9979","addr":"경기도 안성시 금산동 135-1번지","indutype":"보건위생 - 미용원","category":"beauty"}]},{"lat":"37.009020756","long":"127.26862741","imageIndex":13,"items":[{"name":"로즈데이","tel":"031-677-7288","addr":"경기도 안성시 금산동 162-2번지 1층","indutype":"보건위생 - 화장품","category":"beauty"}]},{"lat":"37.011548895","long":"127.27034408","imageIndex":13,"items":[{"name":"미가람화장품","tel":"031-675-2042","addr":"경기도 안성시 금산동 46-3번지","indutype":"보건위생 - 화장품","category":"beauty"}]},{"lat":"37.010721034","long":"127.2698468","imageIndex":13,"items":[{"name":"미모아미용실","tel":"031-673-4669","addr":"경기도 안성시 금산동 134-1번지","indutype":"보건위생 - 미용원","category":"beauty"}]},{"lat":"37.014194063","long":"127.26809483","imageIndex":13,"items":[{"name":"사랑하는사람들","tel":"031-675-7717","addr":"경기도 안성시 금산동 74-2번지","indutype":"보건위생 - 미용원","category":"beauty"}]},{"lat":"37.013913805","long":"127.26850961","imageIndex":13,"items":[{"name":"아트헤어샵","tel":"031-677-7303","addr":"경기도 안성시 금산동 76-1번지","indutype":"보건위생 - 미용원","category":"beauty"}]},{"lat":"37.010443573","long":"127.26901438","imageIndex":13,"items":[{"name":"여우단장","tel":"031-675-1123","addr":"경기도 안성시 금산동 137-6번지","indutype":"보건위생 - 미용원","category":"beauty"}]},{"lat":"37.013769434","long":"127.26859899","imageIndex":13,"items":[{"name":"지현헤어","tel":"031-674-4554","addr":"경기도 안성시 금산동 60-1번지","indutype":"보건위생 - 미용원","category":"beauty"}]},{"lat":"37.015213136","long":"127.2677051","imageIndex":13,"items":[{"name":"투톱","tel":"031-675-8909","addr":"경기도 안성시 금산동 188-5번지","indutype":"보건위생 - 화장품","category":"beauty"}]},{"lat":"37.011270427","long":"127.26996108","imageIndex":13,"items":[{"name":"폭탄머리","tel":"031-671-4448","addr":"경기도 안성시 금산동 32-1번지","indutype":"보건위생 - 미용원","category":"beauty"}]},{"lat":"37.012885013","long":"127.26921391","imageIndex":13,"items":[{"name":"학연shop","tel":"031-675-3152","addr":"경기도 안성시 금산동 57-12번지","indutype":"보건위생 - 피부미용실","category":"beauty"}]},{"lat":"37.015331801","long":"127.26702008","imageIndex":13,"items":[{"name":"헤어팝미용실","tel":"031-671-0163","addr":"경기도 안성시 금산동 186-7번지","indutype":"보건위생 - 미용원","category":"beauty"}]},{"lat":"37.010686607","long":"127.26912758","imageIndex":13,"items":[{"name":"혜리네일","tel":"031-677-2501","addr":"경기도 안성시 금산동 137-3번지 1층 우측호","indutype":"보건위생 - 피부미용실","category":"beauty"}]}]