[{"lat":"37.476317232","long":"126.79813302","imageIndex":4,"items":[{"name":"100년건강장수추어탕","tel":"032-341-7329","addr":"경기도 부천시 소사본동 156-7번지 1층","indutype":"일반휴게음식 - 일반한식","category":"restaurant"}]},{"lat":"37.473344802","long":"126.79862724","imageIndex":4,"items":[{"name":"3동포차","tel":"032-345-7755","addr":"경기도 부천시 소사본동 198-36번지 1층","indutype":"일반휴게음식 - 일반한식","category":"restaurant"}]},{"lat":"37.477682581","long":"126.79574386","imageIndex":4,"items":[{"name":"5계절김밥","tel":"032-348-3939","addr":"경기도 부천시 소사본동 139-22번지 대양프라자 104호","indutype":"일반휴게음식 - 스넥","category":"restaurant"},{"name":"본죽 부천소사본동점","tel":"032-342-6288","addr":"경기도 부천시 소사본동 139-22번지 101호","indutype":"일반휴게음식 - 일반한식","category":"restaurant"},{"name":"트윈스","tel":"032-343-5993","addr":"경기도 부천시 소사본동 139-22번지 2층","indutype":"일반휴게음식 - 주점","category":"restaurant"}]},{"lat":"37.480850121","long":"126.79349655","imageIndex":4,"items":[{"name":"가마솥영양탕","tel":"032-348-5600","addr":"경기도 부천시 소사본동 68-20번지 1층","indutype":"일반휴게음식 - 일반한식","category":"restaurant"},{"name":"전주종가콩나물국밥콩심","tel":"032-341-5575","addr":"경기도 부천시 소사본동 68-20번지 1층","indutype":"일반휴게음식 - 일반한식","category":"restaurant"}]},{"lat":"37.47454269","long":"126.79837527","imageIndex":4,"items":[{"name":"가자횟집으로","tel":"032-341-3331","addr":"경기도 부천시 소사본동 196-26번지 성수하이츠 101호","indutype":"일반휴게음식 - 일반한식","category":"restaurant"}]},{"lat":"37.479209275","long":"126.79804599","imageIndex":4,"items":[{"name":"가정식집밥","tel":"032-346-9333","addr":"경기도 부천시 소사본동 133-12번지 부천소사역푸르지오상가 118동 B104호","indutype":"일반휴게음식 - 일반한식","category":"restaurant"},{"name":"달보드레","tel":"","addr":"경기도 부천시 소사본동 133-12번지 부천소사역푸르지오 상가 B동 106호","indutype":"일반휴게음식 - 서양음식","category":"restaurant"},{"name":"도로시","tel":"032-351-5100","addr":"경기도 부천시 소사본동 133-12번지 부천소사역푸르지오 118동 B103호","indutype":"일반휴게음식 - 서양음식","category":"restaurant"},{"name":"맥시칸치킨(소사점)","tel":"032-343-9094","addr":"경기도 부천시 소사본동 133-12번지 118동 지하2층 B-106호","indutype":"일반휴게음식 - 스넥","category":"restaurant"},{"name":"미소국수","tel":"070-7342-2411","addr":"경기도 부천시 소사본동 133-12번지 부천소사역푸르지오 118동 지하2층 B-120호 상가","indutype":"일반휴게음식 - 일반한식","category":"restaurant"},{"name":"뽀독","tel":"032-346-0988","addr":"경기도 부천시 소사본동 133-12번지 부천소사역푸르지오 118동 B-125호, B-126호","indutype":"일반휴게음식 - 서양음식","category":"restaurant"},{"name":"시골식당","tel":"032-342-5855","addr":"경기도 부천시 소사본동 133-12번지 소사역푸르지오상가 118호 B110호일부","indutype":"일반휴게음식 - 일반한식","category":"restaurant"},{"name":"찌개","tel":"032-322-3168","addr":"경기도 부천시 소사본동 133-12번지 역푸르지오 지2층 B111호","indutype":"일반휴게음식 - 일반한식","category":"restaurant"}]},{"lat":"37.479600718","long":"126.79518458","imageIndex":4,"items":[{"name":"감성한식주점","tel":"032-342-6178","addr":"경기도 부천시 소사본동 81-17번지 1층","indutype":"일반휴게음식 - 일반한식","category":"restaurant"},{"name":"놀부빈대떡","tel":"032-348-7744","addr":"경기도 부천시 소사본동 81-17번지","indutype":"일반휴게음식 - 일반한식","category":"restaurant"},{"name":"화오2호점","tel":"070-7351-9355","addr":"경기도 부천시 소사본동 81-17번지 1층","indutype":"일반휴게음식 - 일반한식","category":"restaurant"}]},{"lat":"37.467902028","long":"126.79818989","imageIndex":4,"items":[{"name":"감탄 (소사본점)","tel":"032-349-3497","addr":"경기도 부천시 소사본동 400-3번지 108호","indutype":"일반휴게음식 - 스넥","category":"restaurant"},{"name":"광치꼴냉면","tel":"032-345-7727","addr":"경기도 부천시 소사본동 400-3번지 1층 104호","indutype":"일반휴게음식 - 일반한식","category":"restaurant"},{"name":"덕순김밥","tel":"032-348-1188","addr":"경기도 부천시 소사본동 400-3번지 1층 112호","indutype":"일반휴게음식 - 스넥","category":"restaurant"},{"name":"오구쌀피자소새울점","tel":"032-347-5977","addr":"경기도 부천시 소사본동 400-3번지 115호","indutype":"일반휴게음식 - 서양음식","category":"restaurant"},{"name":"쪼끼쪼끼소사본동점","tel":"032-343-4354","addr":"경기도 부천시 소사본동 400-3번지 동우프라자 119동 120호","indutype":"일반휴게음식 - 주점","category":"restaurant"},{"name":"차이짬뽕","tel":"032-342-3115","addr":"경기도 부천시 소사본동 400-3번지 111호","indutype":"일반휴게음식 - 중국식","category":"restaurant"},{"name":"치킨마당","tel":"032-349-5822","addr":"경기도 부천시 소사본동 400-3번지 1층 113호","indutype":"일반휴게음식 - 스넥","category":"restaurant"},{"name":"카페마루","tel":"032-341-7157","addr":"경기도 부천시 소사본동 400-3번지 110호","indutype":"일반휴게음식 - 서양음식","category":"restaurant"},{"name":"하루","tel":"032-346-6678","addr":"경기도 부천시 소사본동 400-3번지 동우프라자 118호","indutype":"일반휴게음식 - 주점","category":"restaurant"}]},{"lat":"37.473542159","long":"126.79812929","imageIndex":4,"items":[{"name":"갓개장터소머리국밥","tel":"","addr":"경기도 부천시 소사본동 194-14번지 1층","indutype":"일반휴게음식 - 일반한식","category":"restaurant"}]},{"lat":"37.478513528","long":"126.79690603","imageIndex":4,"items":[{"name":"강호동치킨678소사점","tel":"032-345-0678","addr":"경기도 부천시 소사본동 133-17 소사역푸르지오상가B-124","indutype":"일반휴게음식 - 주점","category":"restaurant"}]},{"lat":"37.466182325","long":"126.7988841","imageIndex":4,"items":[{"name":"개성손만두","tel":"032-000-0000","addr":"경기도 부천시 소사본동 404-3번지","indutype":"일반휴게음식 - 일반한식","category":"restaurant"},{"name":"한일관","tel":"032-342-3355","addr":"경기도 부천시 소사본동 404-3번지","indutype":"일반휴게음식 - 일반한식","category":"restaurant"}]},{"lat":"37.474983412","long":"126.79793317","imageIndex":4,"items":[{"name":"개성진찹쌀순대(소사점)","tel":"","addr":"경기도 부천시 소사본동 195-1번지 1층 101호","indutype":"일반휴게음식 - 일반한식","category":"restaurant"},{"name":"인생제작소","tel":"","addr":"경기도 부천시 소사본동 195-1번지 1층 4호","indutype":"일반휴게음식 - 일반한식","category":"restaurant"},{"name":"인생제작소","tel":"","addr":"경기도 부천시 소사본동 195-1번지 1층 104호","indutype":"일반휴게음식 - 주점","category":"restaurant"},{"name":"즐거운요리주막","tel":"","addr":"경기도 부천시 소사본동 195-1번지 1층 102호","indutype":"일반휴게음식 - 주점","category":"restaurant"},{"name":"춘천숯불닭갈비","tel":"032-343-9299","addr":"경기도 부천시 소사본동 195-1번지 1층","indutype":"일반휴게음식 - 일반한식","category":"restaurant"}]},{"lat":"37.473430022","long":"126.79582342","imageIndex":4,"items":[{"name":"거기비어","tel":"070-8201-6774","addr":"경기도 부천시 소사본동 184-29번지 2층","indutype":"일반휴게음식 - 주점","category":"restaurant"}]},{"lat":"37.478322819","long":"126.79604734","imageIndex":4,"items":[{"name":"경복궁","tel":"032-342-3037","addr":"경기도 부천시 소사본동 139-5번지 1층","indutype":"일반휴게음식 - 일반한식","category":"restaurant"}]},{"lat":"37.475652179","long":"126.79910708","imageIndex":4,"items":[{"name":"경성주막1929 부천소사점","tel":"032-345-1929","addr":"경기도 부천시 소사본동 424번지 소새울KCC스위첸 102호","indutype":"일반휴게음식 - 주점","category":"restaurant"},{"name":"고향뜰빈대떡포차","tel":"031-111-1111","addr":"경기도 부천시 소사본동 424번지 소새울KCC스위첸근린생활시설 1동 104호","indutype":"일반휴게음식 - 일반한식","category":"restaurant"},{"name":"국수나무 부천소사점","tel":"","addr":"경기도 부천시 소사본동 424번지 근린상가 시설2동 1층 202호","indutype":"일반휴게음식 - 일반한식","category":"restaurant"},{"name":"바사코치킨(Basaco)치킨","tel":"","addr":"경기도 부천시 소사본동 424번지 소새울KCC스위첸 210호","indutype":"일반휴게음식 - 스넥","category":"restaurant"},{"name":"비에이치씨치킨","tel":"032-345-9255","addr":"경기도 부천시 소사본동 424번지 소새울KCC스위첸 1동 104호","indutype":"일반휴게음식 - 스넥","category":"restaurant"},{"name":"치킨사냥 부천소사본동점","tel":"032-344-0677","addr":"경기도 부천시 소사본동 424번지 소새울케이씨씨스위첸근린생활시설 2동 203호","indutype":"일반휴게음식 - 스넥","category":"restaurant"},{"name":"컴포즈커피 소사본점","tel":"","addr":"경기도 부천시 소사본동 424번지 소새울KCC스위첸 2동 205호","indutype":"일반휴게음식 - 서양음식","category":"restaurant"},{"name":"케이콜라보김밥 부천소사점","tel":"032-345-5770","addr":"경기도 부천시 소사본동 424번지 소새울KCC스위첸 206호","indutype":"일반휴게음식 - 스넥","category":"restaurant"}]},{"lat":"37.470375502","long":"126.79574141","imageIndex":4,"items":[{"name":"계경순대국 소사본동점","tel":"","addr":"경기도 부천시 소사본동 231-10번지","indutype":"일반휴게음식 - 일반한식","category":"restaurant"}]},{"lat":"37.475682681","long":"126.80113061","imageIndex":4,"items":[{"name":"계란김밥앤떡볶이","tel":"032-341-4999","addr":"경기도 부천시 소사본동 244-66번지 동문밀리언상가 1층 111호","indutype":"일반휴게음식 - 일반한식","category":"restaurant"},{"name":"불스떡볶이","tel":"032-349-0110","addr":"경기도 부천시 소사본동 244-66번지 동문밀리언상가 1층 122호","indutype":"일반휴게음식 - 일반한식","category":"restaurant"},{"name":"진담","tel":"032-343-1435","addr":"경기도 부천시 소사본동 244-66번지 동문밀리언상가 1층 123호","indutype":"일반휴게음식 - 서양음식","category":"restaurant"},{"name":"카페베이(Caffe Bay)","tel":"032-349-9996","addr":"경기도 부천시 소사본동 244-66번지 동문밀리언상가 1층 103호","indutype":"일반휴게음식 - 서양음식","category":"restaurant"}]},{"lat":"37.472514068","long":"126.79757817","imageIndex":4,"items":[{"name":"계륵장군","tel":"032-345-9035","addr":"경기도 부천시 소사본동 200-7번지 1층 일부호","indutype":"일반휴게음식 - 일반한식","category":"restaurant"}]},{"lat":"37.48126299","long":"126.79260222","imageIndex":4,"items":[{"name":"계양동태탕","tel":"032-342-5390","addr":"경기도 부천시 소사본동 94-19번지 2층","indutype":"일반휴게음식 - 일반한식","category":"restaurant"},{"name":"세미골포차","tel":"032-348-5006","addr":"경기도 부천시 소사본동 94-19번지","indutype":"일반휴게음식 - 주점","category":"restaurant"},{"name":"전설갈비","tel":"032-349-0066","addr":"경기도 부천시 소사본동 94-19번지 1층 일부호","indutype":"일반휴게음식 - 일반한식","category":"restaurant"},{"name":"전설갈비","tel":"032-349-0066","addr":"경기도 부천시 소사본동 94-19번지 1층 일부","indutype":"일반휴게음식 - 일반한식","category":"restaurant"},{"name":"한솥","tel":"032-347-1800","addr":"경기도 부천시 소사본동 94-19번지","indutype":"일반휴게음식 - 일반한식","category":"restaurant"},{"name":"향기커피호프","tel":"032-000-0000","addr":"경기도 부천시 소사본동 94-19번지 지하1층","indutype":"일반휴게음식 - 주점","category":"restaurant"}]},{"lat":"37.479984609","long":"126.7931824","imageIndex":4,"items":[{"name":"고기냉면 & 돈까스","tel":"032-343-5394","addr":"경기도 부천시 소사본동 131-5번지 1층","indutype":"일반휴게음식 - 일반한식","category":"restaurant"},{"name":"돼지사랑","tel":"","addr":"경기도 부천시 소사본동 131-5번지 1층 일부","indutype":"일반휴게음식 - 일반한식","category":"restaurant"},{"name":"사랑방왕돈까스","tel":"032-346-2020","addr":"경기도 부천시 소사본동 131-5번지","indutype":"일반휴게음식 - 스넥","category":"restaurant"},{"name":"스카이","tel":"070-4200-3222","addr":"경기도 부천시 소사본동 131-5번지 1층","indutype":"일반휴게음식 - 일반한식","category":"restaurant"}]},{"lat":"37.476676326","long":"126.79226461","imageIndex":4,"items":[{"name":"고기쌈냉면","tel":"032-343-5394","addr":"경기도 부천시 소사본동 148-47번지 1층","indutype":"일반휴게음식 - 일반한식","category":"restaurant"},{"name":"소소한 하루","tel":"","addr":"경기도 부천시 소사본동 148-47번지 1층","indutype":"일반휴게음식 - 서양음식","category":"restaurant"}]},{"lat":"37.472514441","long":"126.79779295","imageIndex":4,"items":[{"name":"고기앤 밥","tel":"032-343-8490","addr":"경기도 부천시 소사본동 200-5번지 1층","indutype":"일반휴게음식 - 일반한식","category":"restaurant"}]},{"lat":"37.47274001","long":"126.80324119","imageIndex":4,"items":[{"name":"고향마을","tel":"","addr":"경기도 부천시 소사본동 409-1번지 유성메트로 1층 102호","indutype":"일반휴게음식 - 일반한식","category":"restaurant"},{"name":"비비큐치킨(bbq OLIVE CHICKEN)","tel":"032-342-1900","addr":"경기도 부천시 소사본동 409-1번지 유성메트로 1층 111호","indutype":"일반휴게음식 - 스넥","category":"restaurant"},{"name":"이디야","tel":"032-341-7216","addr":"경기도 부천시 소사본동 409-1번지 유성메트로 1층 108호","indutype":"일반휴게음식 - 서양음식","category":"restaurant"}]},{"lat":"37.470403363","long":"126.79621612","imageIndex":4,"items":[{"name":"고향솥단지삼겹살","tel":"02-344-2007","addr":"경기도 부천시 소사본동 230-13번지","indutype":"일반휴게음식 - 일반한식","category":"restaurant"},{"name":"맘스터치소사본점","tel":"032-351-9282","addr":"경기도 부천시 소사본동 230-13번지 일부 1층","indutype":"일반휴게음식 - 스넥","category":"restaurant"}]},{"lat":"37.478509485","long":"126.79459971","imageIndex":4,"items":[{"name":"고향의맛가마솥영양탕","tel":"070-7399-6771","addr":"경기도 부천시 소사본동 141-48번지 1층","indutype":"일반휴게음식 - 일반한식","category":"restaurant"},{"name":"동북냉면관","tel":"032-348-8707","addr":"경기도 부천시 소사본동 141-48번지 1층","indutype":"일반휴게음식 - 스넥","category":"restaurant"}]},{"lat":"37.475239267","long":"126.79482359","imageIndex":4,"items":[{"name":"골뱅이포차","tel":"032-348-3450","addr":"경기도 부천시 소사본동 161-23번지 1층 일부","indutype":"일반휴게음식 - 일반한식","category":"restaurant"}]},{"lat":"37.481065175","long":"126.7928289","imageIndex":4,"items":[{"name":"곰미커피","tel":"070-5022-4846","addr":"경기도 부천시 소사본동 96-1번지 1층","indutype":"일반휴게음식 - 서양음식","category":"restaurant"},{"name":"차이나텐진","tel":"032-348-6633","addr":"경기도 부천시 소사본동 96-1번지 1층","indutype":"일반휴게음식 - 중국식","category":"restaurant"}]},{"lat":"37.476595156","long":"126.79221962","imageIndex":4,"items":[{"name":"곱창세상","tel":"032-345-4144","addr":"경기도 부천시 소사본동 148-48번지 1층","indutype":"일반휴게음식 - 일반한식","category":"restaurant"},{"name":"허브","tel":"02-1577-0000","addr":"경기도 부천시 소사본동 148-48번지 1층","indutype":"일반휴게음식 - 일반한식","category":"restaurant"},{"name":"허브","tel":"032-457-9110","addr":"경기도 부천시 소사본동 148-48번지 1층","indutype":"일반휴게음식 - 일반한식","category":"restaurant"}]},{"lat":"37.477989116","long":"126.79585606","imageIndex":4,"items":[{"name":"교촌치킨(소사범박점)","tel":"032-346-3333","addr":"경기도 부천시 소사본동 139-9번지 1층","indutype":"일반휴게음식 - 스넥","category":"restaurant"},{"name":"어사출또소사점","tel":"032-342-9908","addr":"경기도 부천시 소사본동 139-9번지 1층","indutype":"일반휴게음식 - 일반한식","category":"restaurant"}]},{"lat":"37.469404426","long":"126.79688581","imageIndex":4,"items":[{"name":"구구갈비","tel":"032-342-9992","addr":"경기도 부천시 소사본동 319-1번지 1층 103호","indutype":"일반휴게음식 - 일반한식","category":"restaurant"},{"name":"투썸플레이스 부천복사역점","tel":"032-342-7003","addr":"경기도 부천시 소사본동 319-1번지 2층 201호","indutype":"일반휴게음식 - 서양음식","category":"restaurant"}]},{"lat":"37.472545442","long":"126.79491018","imageIndex":4,"items":[{"name":"국민수산","tel":"032-348-7411","addr":"경기도 부천시 소사본동 204-34번지 1층","indutype":"일반휴게음식 - 일식·회집","category":"restaurant"},{"name":"화룡양꼬치","tel":"","addr":"경기도 부천시 소사본동 204-34번지 1층","indutype":"일반휴게음식 - 중국식","category":"restaurant"}]},{"lat":"37.472460894","long":"126.80335498","imageIndex":4,"items":[{"name":"굴순두부전문점","tel":"032-343-0707","addr":"경기도 부천시 소사본동 409-6번지 아크리아III 101호","indutype":"일반휴게음식 - 일반한식","category":"restaurant"},{"name":"맛좋은밥","tel":"032-346-3460","addr":"경기도 부천시 소사본동 409-6번지 아크리아3 105호","indutype":"일반휴게음식 - 스넥","category":"restaurant"},{"name":"치킨시대","tel":"032-361-0998","addr":"경기도 부천시 소사본동 409-6번지 아크리아 3호 106","indutype":"일반휴게음식 - 스넥","category":"restaurant"},{"name":"피자알볼로 부천범박점","tel":"032-344-8495","addr":"경기도 부천시 소사본동 409-6번지 108호 아크리아III","indutype":"일반휴게음식 - 서양음식","category":"restaurant"},{"name":"홍짜장","tel":"032-345-0905","addr":"경기도 부천시 소사본동 409-6번지 아크리아 1층 103호","indutype":"일반휴게음식 - 중국식","category":"restaurant"}]},{"lat":"37.475011988","long":"126.79882619","imageIndex":4,"items":[{"name":"그곳에 가면","tel":"032-342-2377","addr":"경기도 부천시 소사본동 196-7번지 지하전부","indutype":"일반휴게음식 - 일반한식","category":"restaurant"},{"name":"토고리불꽃막창","tel":"032-345-9989","addr":"경기도 부천시 소사본동 196-7번지","indutype":"일반휴게음식 - 일반한식","category":"restaurant"}]},{"lat":"37.481595702","long":"126.79734981","imageIndex":4,"items":[{"name":"금땡이닭강정","tel":"032-343-1950","addr":"경기도 부천시 소사본동 65-6번지 부성파인 1층 110호","indutype":"일반휴게음식 - 스넥","category":"restaurant"},{"name":"왕또떡볶이","tel":"032-345-6080","addr":"경기도 부천시 소사본동 65-6번지 부성파인 109호","indutype":"일반휴게음식 - 스넥","category":"restaurant"},{"name":"카페노랑","tel":"03-111-1111","addr":"경기도 부천시 소사본동 65-6번지 부성파인 1층 106호","indutype":"일반휴게음식 - 서양음식","category":"restaurant"}]},{"lat":"37.481344281","long":"126.79271505","imageIndex":4,"items":[{"name":"금빛도넛","tel":"","addr":"경기도 부천시 소사본동 94-15번지 1층","indutype":"일반휴게음식 - 서양음식","category":"restaurant"},{"name":"메가MGC커피 소사삼거리점","tel":"","addr":"경기도 부천시 소사본동 94-15번지 1층","indutype":"일반휴게음식 - 서양음식","category":"restaurant"}]},{"lat":"37.474212912","long":"126.79526732","imageIndex":4,"items":[{"name":"기분좋은커피","tel":"032-343-0501","addr":"경기도 부천시 소사본동 181-33번지 1층 계단옆 상가","indutype":"일반휴게음식 - 서양음식","category":"restaurant"}]},{"lat":"37.475792971","long":"126.79205229","imageIndex":4,"items":[{"name":"김마리","tel":"032-345-1525","addr":"경기도 부천시 소사본동 167-8번지 1층","indutype":"일반휴게음식 - 스넥","category":"restaurant"},{"name":"먹고가자","tel":"032-343-3041","addr":"경기도 부천시 소사본동 167-8번지 1층 2호","indutype":"일반휴게음식 - 스넥","category":"restaurant"},{"name":"최가네한식배달전문점","tel":"032-351-9577","addr":"경기도 부천시 소사본동 167-8번지 1층","indutype":"일반휴게음식 - 일반한식","category":"restaurant"}]},{"lat":"37.475239532","long":"126.80015957","imageIndex":4,"items":[{"name":"김밥나라","tel":"032-345-0231","addr":"경기도 부천시 소사본동 135-7번지","indutype":"일반휴게음식 - 스넥","category":"restaurant"}]},{"lat":"37.48073957","long":"126.79212884","imageIndex":4,"items":[{"name":"김밥마을","tel":"032-347-7713","addr":"경기도 부천시 소사본동 93-58번지 1층","indutype":"일반휴게음식 - 일반한식","category":"restaurant"},{"name":"봉구스밥버거","tel":"032-347-5094","addr":"경기도 부천시 소사본동 93-58번지 1층","indutype":"일반휴게음식 - 일반한식","category":"restaurant"}]},{"lat":"37.481569025","long":"126.79243178","imageIndex":4,"items":[{"name":"김밥천국","tel":"032-345-9954","addr":"경기도 부천시 소사본동 94-1번지","indutype":"일반휴게음식 - 일반한식","category":"restaurant"},{"name":"민속주점","tel":"031-1111-1111","addr":"경기도 부천시 소사본동 94-1번지 2층","indutype":"일반휴게음식 - 주점","category":"restaurant"},{"name":"사랑방다방","tel":"","addr":"경기도 부천시 소사본동 94-1번지","indutype":"일반휴게음식 - 서양음식","category":"restaurant"}]},{"lat":"37.472544566","long":"126.79441278","imageIndex":4,"items":[{"name":"김밥천국","tel":"032-349-2246","addr":"경기도 부천시 소사본동 209-30번지 1층","indutype":"일반휴게음식 - 일반한식","category":"restaurant"}]},{"lat":"37.472316517","long":"126.79796306","imageIndex":4,"items":[{"name":"김여사한식뷔페","tel":"032-345-7418","addr":"경기도 부천시 소사본동 219-1번지","indutype":"일반휴게음식 - 일반한식","category":"restaurant"}]},{"lat":"37.478037595","long":"126.79782308","imageIndex":4,"items":[{"name":"김파퍼 베트남쌀국수","tel":"","addr":"경기도 부천시 소사본동 136번지 드림타워 A동 107호","indutype":"일반휴게음식 - 서양음식","category":"restaurant"},{"name":"카페 라떼떼 소사1점","tel":"032-341-8006","addr":"경기도 부천시 소사본동 136번지 드림타워 A동 105호","indutype":"일반휴게음식 - 서양음식","category":"restaurant"},{"name":"하우마라탕 소사점","tel":"032-1111-1111","addr":"경기도 부천시 소사본동 136번지 드림타워 A동 1층 104호","indutype":"일반휴게음식 - 중국식","category":"restaurant"}]},{"lat":"37.476511293","long":"126.79574709","imageIndex":4,"items":[{"name":"꼬레랑옛날통닭소사점","tel":"032-324-8722","addr":"경기도 부천시 소사본동 153-20번지 1층","indutype":"일반휴게음식 - 스넥","category":"restaurant"},{"name":"토마토김밥소사점","tel":"032-346-1033","addr":"경기도 부천시 소사본동 153-20번지 1층","indutype":"일반휴게음식 - 스넥","category":"restaurant"}]},{"lat":"37.475351424","long":"126.79712951","imageIndex":4,"items":[{"name":"꿀떡꿀떡","tel":"032-673-6788","addr":"경기도 부천시 소사본동 159-40번지 1층 4호","indutype":"일반휴게음식 - 일반한식","category":"restaurant"}]},{"lat":"37.480565711","long":"126.79571329","imageIndex":4,"items":[{"name":"남해아구찜","tel":"032-351-7536","addr":"경기도 부천시 소사본동 128-16번지","indutype":"일반휴게음식 - 일반한식","category":"restaurant"},{"name":"황제곱창","tel":"032-348-5254","addr":"경기도 부천시 소사본동 128-16번지 1층","indutype":"일반휴게음식 - 일반한식","category":"restaurant"}]},{"lat":"37.481040988","long":"126.7944344","imageIndex":4,"items":[{"name":"낭만이흐르는호프앤포차","tel":"032-341-9888","addr":"경기도 부천시 소사본동 75번지 Shc타워 110호","indutype":"일반휴게음식 - 주점","category":"restaurant"},{"name":"본동국수와김밥","tel":"032-341-0066","addr":"경기도 부천시 소사본동 75번지 Shc타워 105호","indutype":"일반휴게음식 - 일반한식","category":"restaurant"},{"name":"피자선수","tel":"032-349-3199","addr":"경기도 부천시 소사본동 75번지 소사본동SHC타워 1층 101호","indutype":"일반휴게음식 - 서양음식","category":"restaurant"}]},{"lat":"37.473654298","long":"126.79526887","imageIndex":4,"items":[{"name":"내고향숯불갈비","tel":"032-347-5481","addr":"경기도 부천시 소사본동 183-9번지 1층","indutype":"일반휴게음식 - 일반한식","category":"restaurant"},{"name":"놀부집항아리갈비","tel":"032-347-5481","addr":"경기도 부천시 소사본동 183-9번지","indutype":"일반휴게음식 - 일반한식","category":"restaurant"}]},{"lat":"37.474074234","long":"126.79841046","imageIndex":4,"items":[{"name":"네네치킨소사점","tel":"032-351-9989","addr":"경기도 부천시 소사본동 198-1번지 1층","indutype":"일반휴게음식 - 스넥","category":"restaurant"}]},{"lat":"37.475266794","long":"126.79510614","imageIndex":4,"items":[{"name":"늘보리","tel":"032-347-7439","addr":"경기도 부천시 소사본동 161-20번지 1층","indutype":"일반휴게음식 - 일반한식","category":"restaurant"},{"name":"비어호프","tel":"032-346-6625","addr":"경기도 부천시 소사본동 161-20번지 1층","indutype":"일반휴게음식 - 주점","category":"restaurant"}]},{"lat":"37.480293904","long":"126.79485479","imageIndex":4,"items":[{"name":"능안해장국","tel":"032-349-1746","addr":"경기도 부천시 소사본동 81번지","indutype":"일반휴게음식 - 일반한식","category":"restaurant"}]},{"lat":"37.481820617","long":"126.79204666","imageIndex":4,"items":[{"name":"다빈커피호프","tel":"032-555-5555","addr":"경기도 부천시 소사본동 91-13번지","indutype":"일반휴게음식 - 서양음식","category":"restaurant"}]},{"lat":"37.470267482","long":"126.79579823","imageIndex":4,"items":[{"name":"달구벌곱창막창","tel":"032-342-3339","addr":"경기도 부천시 소사본동 231-14번지 1층","indutype":"일반휴게음식 - 일반한식","category":"restaurant"}]},{"lat":"37.474290863","long":"126.79863597","imageIndex":4,"items":[{"name":"닭발바닥","tel":"032-351-9288","addr":"경기도 부천시 소사본동 196-38번지 1층","indutype":"일반휴게음식 - 일반한식","category":"restaurant"}]},{"lat":"37.47653733","long":"126.79518175","imageIndex":4,"items":[{"name":"대감영양탕","tel":"032-346-8000","addr":"경기도 부천시 소사본동 152-17번지 1층","indutype":"일반휴게음식 - 일반한식","category":"restaurant"},{"name":"토암골옛날막창","tel":"032-342-3970","addr":"경기도 부천시 소사본동 152-17,1층북쪽3칸 (토암골옛날막창)","indutype":"일반휴게음식 - 일반한식","category":"restaurant"}]},{"lat":"37.472768753","long":"126.79896795","imageIndex":4,"items":[{"name":"대박분식","tel":"031-342-1053","addr":"경기도 부천시 소사본동 199-25번지 1층","indutype":"일반휴게음식 - 스넥","category":"restaurant"}]},{"lat":"37.473903084","long":"126.79843354","imageIndex":4,"items":[{"name":"대박포차","tel":"032-111-1111","addr":"경기도 부천시 소사본동 198-3번지 1층","indutype":"일반휴게음식 - 일반한식","category":"restaurant"}]},{"lat":"37.480175739","long":"126.79426722","imageIndex":4,"items":[{"name":"대보식당","tel":"","addr":"경기도 부천시 소사본동 78번지 지하1층","indutype":"일반휴게음식 - 일반한식","category":"restaurant"},{"name":"대보식당","tel":"","addr":"경기도 부천시 소사본동 78번지 지하1층","indutype":"일반휴게음식 - 일반한식","category":"restaurant"},{"name":"대보식당2","tel":"","addr":"경기도 부천시 소사본동 78번지 지하1층 일부","indutype":"일반휴게음식 - 일반한식","category":"restaurant"},{"name":"봉이한식당","tel":"032-348-5951","addr":"경기도 부천시 소사본동 78번지 세영타워메카","indutype":"일반휴게음식 - 일반한식","category":"restaurant"},{"name":"아이엠피자","tel":"032-346-0282","addr":"경기도 부천시 소사본동 78번지 세영타워메카 105호","indutype":"일반휴게음식 - 서양음식","category":"restaurant"}]},{"lat":"37.478708598","long":"126.79510791","imageIndex":4,"items":[{"name":"대보회수산","tel":"032-349-0942","addr":"경기도 부천시 소사본동 82-5번지 우림상가빌 101호","indutype":"일반휴게음식 - 일반한식","category":"restaurant"}]},{"lat":"37.475371191","long":"126.7981356","imageIndex":4,"items":[{"name":"더마니아구","tel":"032-341-2951","addr":"경기도 부천시 소사본동 158-38번지 1층","indutype":"일반휴게음식 - 일반한식","category":"restaurant"},{"name":"투다리맘모스점","tel":"032-848-8288","addr":"경기도 부천시 소사본동 158-38번지","indutype":"일반휴게음식 - 주점","category":"restaurant"}]},{"lat":"37.4722938","long":"126.79527263","imageIndex":4,"items":[{"name":"더안","tel":"032-342-3311","addr":"경기도 부천시 소사본동 215-7번지 1층","indutype":"일반휴게음식 - 서양음식","category":"restaurant"}]},{"lat":"37.481957597","long":"126.79307513","imageIndex":4,"items":[{"name":"더치앤빈 소사생생병원점","tel":"032-341-2365","addr":"경기도 부천시 소사본동 70번지 소사메디파크 1층 110호","indutype":"일반휴게음식 - 서양음식","category":"restaurant"}]},{"lat":"37.475011362","long":"126.79846443","imageIndex":4,"items":[{"name":"더호야커피(the HOYA COFFEE)","tel":"032-345-6177","addr":"경기도 부천시 소사본동 196번지 1층 일부","indutype":"일반휴게음식 - 서양음식","category":"restaurant"},{"name":"펀비어킹 소사스위첸점","tel":"","addr":"경기도 부천시 소사본동 196번지 1층 일부","indutype":"일반휴게음식 - 주점","category":"restaurant"}]},{"lat":"37.481873282","long":"126.7912664","imageIndex":4,"items":[{"name":"덕이 이모네","tel":"032-331-6517","addr":"경기도 부천시 소사본동 91-5번지 1층","indutype":"일반휴게음식 - 일반한식","category":"restaurant"},{"name":"하늘분식","tel":"032-347-1031","addr":"경기도 부천시 소사본동 91-5번지","indutype":"일반휴게음식 - 스넥","category":"restaurant"}]},{"lat":"37.475260063","long":"126.79640624","imageIndex":4,"items":[{"name":"도도핫도그","tel":"031-222-2222","addr":"경기도 부천시 소사본동 160-38번지 1층","indutype":"일반휴게음식 - 스넥","category":"restaurant"}]},{"lat":"37.475239505","long":"126.79495925","imageIndex":4,"items":[{"name":"도레미호프","tel":"032-348-9956","addr":"경기도 부천시 소사본동 161-22번지 1층","indutype":"일반휴게음식 - 주점","category":"restaurant"}]},{"lat":"37.478349353","long":"126.79576463","imageIndex":4,"items":[{"name":"도연면옥","tel":"032-345-6208","addr":"경기도 부천시 소사본동 139번지 2층","indutype":"일반휴게음식 - 일반한식","category":"restaurant"},{"name":"진천토종순대국","tel":"032-343-8985","addr":"경기도 부천시 소사본동 139번지 1층","indutype":"일반휴게음식 - 일반한식","category":"restaurant"}]},{"lat":"37.472512513","long":"126.7966851","imageIndex":4,"items":[{"name":"독도수산","tel":"032-341-0979","addr":"경기도 부천시 소사본동 202-14번지 1층","indutype":"일반휴게음식 - 일반한식","category":"restaurant"}]},{"lat":"37.472345131","long":"126.79887866","imageIndex":4,"items":[{"name":"돈까스튀겼새우","tel":"","addr":"경기도 부천시 소사본동 220-7번지 1층 일부호","indutype":"일반휴게음식 - 일반한식","category":"restaurant"},{"name":"딸바보아빠의닭강정","tel":"070-7661-0956","addr":"경기도 부천시 소사본동 220-7번지 1층","indutype":"일반휴게음식 - 스넥","category":"restaurant"}]},{"lat":"37.480680293","long":"126.79426582","imageIndex":4,"items":[{"name":"돈꼬돈꼬","tel":"032-345-8880","addr":"경기도 부천시 소사본동 75-16번지 한울펠리스","indutype":"일반휴게음식 - 일반한식","category":"restaurant"},{"name":"한결남원추어탕","tel":"032-349-9096","addr":"경기도 부천시 소사본동 75-16번지 한울팰리스 1층 101,102호","indutype":"일반휴게음식 - 일반한식","category":"restaurant"},{"name":"한결남원추어탕","tel":"032-349-9096","addr":"경기도 부천시 소사본동 75-16번지 한울펠리스 1층 101,102호","indutype":"일반휴게음식 - 일반한식","category":"restaurant"}]},{"lat":"37.47051162","long":"126.79629495","imageIndex":4,"items":[{"name":"돈찌앤순두부","tel":"032-348-9080","addr":"경기도 부천시 소사본동 230-14번지 지하1층","indutype":"일반휴게음식 - 일반한식","category":"restaurant"}]},{"lat":"37.472540468","long":"126.79721635","imageIndex":4,"items":[{"name":"동궁중화요리","tel":"032-342-7100","addr":"경기도 부천시 소사본동 201-17번지","indutype":"일반휴게음식 - 중국식","category":"restaurant"}]},{"lat":"37.476816736","long":"126.79523751","imageIndex":4,"items":[{"name":"돼지방","tel":"032-342-3314","addr":"경기도 부천시 소사본동 152-15번지","indutype":"일반휴게음식 - 일반한식","category":"restaurant"}]},{"lat":"37.478678173","long":"126.79318605","imageIndex":4,"items":[{"name":"두꺼비포차","tel":"032-341-2882","addr":"경기도 부천시 소사본동 143-1번지 1층","indutype":"일반휴게음식 - 주점","category":"restaurant"}]},{"lat":"37.472762316","long":"126.79527133","imageIndex":4,"items":[{"name":"등불호프","tel":"032-344-8427","addr":"경기도 부천시 소사본동 204-14번지","indutype":"일반휴게음식 - 칵테일바","category":"restaurant"},{"name":"아구세상","tel":"032-346-2133","addr":"경기도 부천시 소사본동 204-14번지 1층","indutype":"일반휴게음식 - 일반한식","category":"restaurant"}]},{"lat":"37.473983606","long":"126.79810548","imageIndex":4,"items":[{"name":"디앤에프","tel":"032-351-5853","addr":"경기도 부천시 소사본동 194-11번지 1층 일부","indutype":"일반휴게음식 - 일반한식","category":"restaurant"}]},{"lat":"37.480233885","long":"126.79149714","imageIndex":4,"items":[{"name":"떡볶이스타 소사점","tel":"032-341-4190","addr":"경기도 부천시 소사본동 101-4번지 1층","indutype":"일반휴게음식 - 스넥","category":"restaurant"}]},{"lat":"37.472512907","long":"126.7969112","imageIndex":4,"items":[{"name":"떳다뒷통구이","tel":"032-111-1111","addr":"경기도 부천시 소사본동 201-28번지 1층","indutype":"일반휴게음식 - 일반한식","category":"restaurant"},{"name":"일석삼조포차","tel":"032-351-2227","addr":"경기도 부천시 소사본동 201-28번지","indutype":"일반휴게음식 - 주점","category":"restaurant"}]},{"lat":"37.480679073","long":"126.79357616","imageIndex":4,"items":[{"name":"또묵지","tel":"070-4001-1957","addr":"경기도 부천시 소사본동 68-26번지 에코파인 103호","indutype":"일반휴게음식 - 일반한식","category":"restaurant"},{"name":"육회한통닭","tel":"032-349-9990","addr":"경기도 부천시 소사본동 68-26번지 에코파인 1층 106호","indutype":"일반휴게음식 - 스넥","category":"restaurant"},{"name":"일품마라탕","tel":"032-341-5776","addr":"경기도 부천시 소사본동 68-26번지 에코파인 1층 104호","indutype":"일반휴게음식 - 주점","category":"restaurant"},{"name":"촨매이즈마라훠꿔","tel":"032-328-6428","addr":"경기도 부천시 소사본동 68-26번지 에코파인 1층 105호","indutype":"일반휴게음식 - 주점","category":"restaurant"},{"name":"카페소담","tel":"031-344-1122","addr":"경기도 부천시 소사본동 68-26번지 에코파인 1층 109호","indutype":"일반휴게음식 - 서양음식","category":"restaurant"}]},{"lat":"37.47995792","long":"126.79851879","imageIndex":4,"items":[{"name":"또오래오리전문점","tel":"032-348-7555","addr":"경기도 부천시 소사본동 65-12번지 1층","indutype":"일반휴게음식 - 일반한식","category":"restaurant"}]},{"lat":"37.47423651","long":"126.79846654","imageIndex":4,"items":[{"name":"또와유청정명태간장조림","tel":"032-347-9291","addr":"경기도 부천시 소사본동 196-41번지 1층","indutype":"일반휴게음식 - 일반한식","category":"restaurant"}]},{"lat":"37.474404941","long":"126.79177357","imageIndex":4,"items":[{"name":"뚝배기해장국","tel":"032-349-5399","addr":"경기도 부천시 소사본동 174-13번지","indutype":"일반휴게음식 - 일반한식","category":"restaurant"}]},{"lat":"37.474101889","long":"126.79877214","imageIndex":4,"items":[{"name":"라온트리 (RAON TREE)","tel":"070-4951-0845","addr":"경기도 부천시 소사본동 198-15번지 1층 일부","indutype":"일반휴게음식 - 서양음식","category":"restaurant"},{"name":"에스키친","tel":"032-223-9292","addr":"경기도 부천시 소사본동 198-15번지 1층 일부","indutype":"일반휴게음식 - 일반한식","category":"restaurant"}]},{"lat":"37.478235804","long":"126.79268984","imageIndex":4,"items":[{"name":"레드호프","tel":"","addr":"경기도 부천시 소사본동 116-27번지 1층","indutype":"일반휴게음식 - 주점","category":"restaurant"},{"name":"맛나만두","tel":"032-351-5952","addr":"경기도 부천시 소사본동 116-27번지","indutype":"일반휴게음식 - 스넥","category":"restaurant"},{"name":"춘화호프","tel":"032-111-1111","addr":"경기도 부천시 소사본동 116-27번지 1층","indutype":"일반휴게음식 - 주점","category":"restaurant"}]},{"lat":"37.48003921","long":"126.7934875","imageIndex":4,"items":[{"name":"레인보우","tel":"032-346-3188","addr":"경기도 부천시 소사본동 76-12번지 1층","indutype":"일반휴게음식 - 주점","category":"restaurant"},{"name":"비어 비워","tel":"032-341-6607","addr":"경기도 부천시 소사본동 76-12번지 1층","indutype":"일반휴게음식 - 주점","category":"restaurant"},{"name":"슬비식당","tel":"032-344-2723","addr":"경기도 부천시 소사본동 76-12번지","indutype":"일반휴게음식 - 일반한식","category":"restaurant"}]},{"lat":"37.478569311","long":"126.79276805","imageIndex":4,"items":[{"name":"롤스","tel":"","addr":"경기도 부천시 소사본동 116-22번지 101호","indutype":"일반휴게음식 - 스넥","category":"restaurant"},{"name":"복사골빈대떡","tel":"032-343-6513","addr":"경기도 부천시 소사본동 116-22번지 1층","indutype":"일반휴게음식 - 일반한식","category":"restaurant"}]},{"lat":"37.469741303","long":"126.79890834","imageIndex":4,"items":[{"name":"마가렛","tel":"","addr":"경기도 부천시 소사본동 301-59번지 1층","indutype":"일반휴게음식 - 서양음식","category":"restaurant"}]},{"lat":"37.478344506","long":"126.7930174","imageIndex":4,"items":[{"name":"마라야보(일절매운오리)","tel":"070-7614-3579","addr":"경기도 부천시 소사본동 143-36번지","indutype":"일반휴게음식 - 일반한식","category":"restaurant"}]},{"lat":"37.47387533","long":"126.79801533","imageIndex":4,"items":[{"name":"마라톤뼈다귀해장국","tel":"032-345-6226","addr":"경기도 부천시 소사본동 194-12번지","indutype":"일반휴게음식 - 일반한식","category":"restaurant"}]},{"lat":"37.480458242","long":"126.80129867","imageIndex":4,"items":[{"name":"마음을담은김치찌개 소사점","tel":"032-343-3432","addr":"경기도 부천시 소사본동 57-24번지","indutype":"일반휴게음식 - 일반한식","category":"restaurant"}]},{"lat":"37.473960492","long":"126.80037781","imageIndex":4,"items":[{"name":"마이치킨","tel":"032-343-0538","addr":"경기도 부천시 소사본동 277-12번지","indutype":"일반휴게음식 - 스넥","category":"restaurant"},{"name":"통나무한방왕족발","tel":"032-345-9291","addr":"경기도 부천시 소사본동 277-12","indutype":"일반휴게음식 - 일반한식","category":"restaurant"},{"name":"현미부침","tel":"","addr":"경기도 부천시 소사본동 277-12번지","indutype":"일반휴게음식 - 일반한식","category":"restaurant"},{"name":"후니와서비네","tel":"032-341-8712","addr":"경기도 부천시 소사본동 277-12번지","indutype":"일반휴게음식 - 스넥","category":"restaurant"}]},{"lat":"37.474984733","long":"126.79354682","imageIndex":4,"items":[{"name":"마포숯불갈비","tel":"032-348-7988","addr":"경기도 부천시 소사본동 177-1번지 1층","indutype":"일반휴게음식 - 일반한식","category":"restaurant"}]},{"lat":"37.477627588","long":"126.79521265","imageIndex":4,"items":[{"name":"마포주먹고기식당","tel":"032-348-3812","addr":"경기도 부천시 소사본동 140-19번지","indutype":"일반휴게음식 - 일반한식","category":"restaurant"},{"name":"술락","tel":"","addr":"경기도 부천시 소사본동 140-19번지 2층 일부호","indutype":"일반휴게음식 - 주점","category":"restaurant"},{"name":"호원냉면&수제돈가스","tel":"032-351-9982","addr":"경기도 부천시 소사본동 140-19번지 1층","indutype":"일반휴게음식 - 일반한식","category":"restaurant"}]},{"lat":"37.477178936","long":"126.79626529","imageIndex":4,"items":[{"name":"만나해물칼국수동태탕전문점","tel":"032-328-1189","addr":"경기도 부천시 소사본동 154번지 1층","indutype":"일반휴게음식 - 일반한식","category":"restaurant"},{"name":"빨간통피자","tel":"032-344-3355","addr":"경기도 부천시 소사본동 154번지 1층","indutype":"일반휴게음식 - 서양음식","category":"restaurant"}]},{"lat":"37.474622447","long":"126.79760631","imageIndex":4,"items":[{"name":"만땅푸드","tel":"032-345-5655","addr":"경기도 부천시 소사본동 195-30번지 1층 3호","indutype":"일반휴게음식 - 스넥","category":"restaurant"},{"name":"스윗하모니","tel":"","addr":"경기도 부천시 소사본동 195-30번지 1층 일부호","indutype":"일반휴게음식 - 서양음식","category":"restaurant"}]},{"lat":"37.471429721","long":"126.79577242","imageIndex":4,"items":[{"name":"만리장성","tel":"032-348-4460","addr":"경기도 부천시 소사본동 216-29번지","indutype":"일반휴게음식 - 중국식","category":"restaurant"}]},{"lat":"37.474538102","long":"126.79574123","imageIndex":4,"items":[{"name":"맘죽","tel":"032-349-7127","addr":"경기도 부천시 소사본동 184-6번지 101호","indutype":"일반휴게음식 - 일반한식","category":"restaurant"}]},{"lat":"37.470627482","long":"126.79557115","imageIndex":4,"items":[{"name":"맛골김밥전문","tel":"032-323-5199","addr":"경기도 부천시 소사본동 231-4번지 1층","indutype":"일반휴게음식 - 스넥","category":"restaurant"},{"name":"이디야커피숍","tel":"032-342-2522","addr":"경기도 부천시 소사본동 231-4번지 1층","indutype":"일반휴게음식 - 서양음식","category":"restaurant"}]},{"lat":"37.480600877","long":"126.79521573","imageIndex":4,"items":[{"name":"맛골한식뷔페","tel":"032-341-9077","addr":"경기도 부천시 소사본동 75-7번지 1층","indutype":"일반휴게음식 - 일반한식","category":"restaurant"}]},{"lat":"37.47123407","long":"126.79724253","imageIndex":4,"items":[{"name":"맛나라한식","tel":"032-346-6669","addr":"경기도 부천시 소사본동 223-40번지 1층","indutype":"일반휴게음식 - 일반한식","category":"restaurant"}]},{"lat":"37.472515499","long":"126.7984034","imageIndex":4,"items":[{"name":"맛있는커피","tel":"032-342-8272","addr":"경기도 부천시 소사본동 199-32번지 1층","indutype":"일반휴게음식 - 서양음식","category":"restaurant"}]},{"lat":"37.477181142","long":"126.79241016","imageIndex":4,"items":[{"name":"먹을거리마실거리","tel":"032-345-9469","addr":"경기도 부천시 소사본동 147-31번지","indutype":"일반휴게음식 - 일반한식","category":"restaurant"}]},{"lat":"37.473101494","long":"126.8038846","imageIndex":4,"items":[{"name":"메가엠지씨커피 부천소사본점","tel":"","addr":"경기도 부천시 소사본동 409-3번지 센트럴프라자 102호","indutype":"일반휴게음식 - 서양음식","category":"restaurant"},{"name":"쥬씨","tel":"070-4115-1028","addr":"경기도 부천시 소사본동 409-3번지 센트럴프라자","indutype":"일반휴게음식 - 서양음식","category":"restaurant"},{"name":"카페드아야","tel":"032-345-7272","addr":"경기도 부천시 소사본동 409-3번지 센트럴프라자 109호","indutype":"일반휴게음식 - 서양음식","category":"restaurant"},{"name":"카페인디블루","tel":"032-341-2489","addr":"경기도 부천시 소사본동 409-3번지 센트럴프라자 1층 108호","indutype":"일반휴게음식 - 서양음식","category":"restaurant"}]},{"lat":"37.46979132","long":"126.79657954","imageIndex":4,"items":[{"name":"메가엠지씨커피소새울역점","tel":"","addr":"경기도 부천시 소사본동 229-22번지","indutype":"일반휴게음식 - 서양음식","category":"restaurant"}]},{"lat":"37.477240262","long":"126.79527025","imageIndex":4,"items":[{"name":"멜로우시티","tel":"","addr":"경기도 부천시 소사본동 152-7번지 2층","indutype":"일반휴게음식 - 서양음식","category":"restaurant"}]},{"lat":"37.475762577","long":"126.79524042","imageIndex":4,"items":[{"name":"명동찌개마을","tel":"","addr":"경기도 부천시 소사본동 161-8번지 1층","indutype":"일반휴게음식 - 일반한식","category":"restaurant"}]},{"lat":"37.48037873","long":"126.79188113","imageIndex":4,"items":[{"name":"명동칼국수","tel":"032-347-1971","addr":"경기도 부천시 소사본동 100번지","indutype":"일반휴게음식 - 일반한식","category":"restaurant"},{"name":"카페헬로","tel":"032-342-7955","addr":"경기도 부천시 소사본동 100번지 1층","indutype":"일반휴게음식 - 서양음식","category":"restaurant"}]},{"lat":"37.480432992","long":"126.79199403","imageIndex":4,"items":[{"name":"명랑시대 쌀핫도그 부천소사점","tel":"031-344-1118","addr":"경기도 부천시 소사본동 96-52번지 1층","indutype":"일반휴게음식 - 일반한식","category":"restaurant"},{"name":"응급실 국물떡볶이 부천소사점","tel":"032-351-1119","addr":"경기도 부천시 소사본동 96-52번지 2층","indutype":"일반휴게음식 - 스넥","category":"restaurant"}]},{"lat":"37.473401921","long":"126.79521304","imageIndex":4,"items":[{"name":"명태어장 소사본동점","tel":"032-342-9222","addr":"경기도 부천시 소사본동 183-11번지","indutype":"일반휴게음식 - 일반한식","category":"restaurant"}]},{"lat":"37.479871948","long":"126.7957152","imageIndex":4,"items":[{"name":"명품생고기무한리필 소사직영점","tel":"032-278-4748","addr":"경기도 부천시 소사본동 128-19번지 1층","indutype":"일반휴게음식 - 일반한식","category":"restaurant"},{"name":"소소한사치","tel":"032-1111-1111","addr":"경기도 부천시 소사본동 128-19번지 1층","indutype":"일반휴게음식 - 서양음식","category":"restaurant"}]},{"lat":"37.480016391","long":"126.79079679","imageIndex":4,"items":[{"name":"모노치즈","tel":"031-000-0000","addr":"경기도 부천시 소사본동 101-15번지 1층","indutype":"일반휴게음식 - 서양음식","category":"restaurant"}]},{"lat":"37.473176772","long":"126.79527019","imageIndex":4,"items":[{"name":"무찌마포차","tel":"032-341-9294","addr":"경기도 부천시 소사본동 204-4번지 1층 일부","indutype":"일반휴게음식 - 일반한식","category":"restaurant"},{"name":"샘호프","tel":"032-347-3901","addr":"경기도 부천시 소사본동 204-4번지 1층","indutype":"일반휴게음식 - 주점","category":"restaurant"}]},{"lat":"37.479211279","long":"126.79404379","imageIndex":4,"items":[{"name":"미미분식","tel":"","addr":"경기도 부천시 소사본동 78-27번지 1층","indutype":"일반휴게음식 - 일반한식","category":"restaurant"}]},{"lat":"37.476956337","long":"126.79265951","imageIndex":4,"items":[{"name":"미소","tel":"031-343-0046","addr":"경기도 부천시 소사본동 149-32번지 1층","indutype":"일반휴게음식 - 일반한식","category":"restaurant"},{"name":"시골영양탕","tel":"032-343-7884","addr":"경기도 부천시 소사본동 149-32번지 1층 101호","indutype":"일반휴게음식 - 일반한식","category":"restaurant"}]},{"lat":"37.473068653","long":"126.79527049","imageIndex":4,"items":[{"name":"바다이야기해산물포차","tel":"032-341-9295","addr":"경기도 부천시 소사본동 204-5번지 1층","indutype":"일반휴게음식 - 일반한식","category":"restaurant"}]},{"lat":"37.476987984","long":"126.79527095","imageIndex":4,"items":[{"name":"바보비어","tel":"032-347-7572","addr":"경기도 부천시 소사본동 152-12번지 1층","indutype":"일반휴게음식 - 주점","category":"restaurant"}]},{"lat":"37.47323735","long":"126.79385693","imageIndex":4,"items":[{"name":"바이어스","tel":"","addr":"경기도 부천시 소사본동 210-69번지 에스제이빌리지 A동 101호","indutype":"일반휴게음식 - 서양음식","category":"restaurant"},{"name":"바이어스(BYUS)","tel":"070-4763-5091","addr":"경기도 부천시 소사본동 210-69번지 SJ빌리지 A동 101호","indutype":"일반휴게음식 - 서양음식","category":"restaurant"}]},{"lat":"37.472544366","long":"126.79429974","imageIndex":4,"items":[{"name":"바지락칼국수","tel":"032-344-5196","addr":"경기도 부천시 소사본동 209-19번지 1층","indutype":"일반휴게음식 - 스넥","category":"restaurant"},{"name":"청정원","tel":"032-349-3805","addr":"경기도 부천시 소사본동 209-19번지","indutype":"일반휴게음식 - 일반한식","category":"restaurant"}]},{"lat":"37.473125917","long":"126.79199196","imageIndex":4,"items":[{"name":"박철샤브샤브 앤 연탄파불고기","tel":"032-341-1221","addr":"경기도 부천시 소사본동 211-18번지","indutype":"일반휴게음식 - 일반한식","category":"restaurant"}]},{"lat":"37.47401082","long":"126.79307474","imageIndex":4,"items":[{"name":"박피자","tel":"","addr":"경기도 부천시 소사본동 178-10번지 1층","indutype":"일반휴게음식 - 서양음식","category":"restaurant"},{"name":"클릭어파스타","tel":"032-347-7606","addr":"경기도 부천시 소사본동 178-10번지","indutype":"일반휴게음식 - 서양음식","category":"restaurant"}]},{"lat":"37.474843289","long":"126.80027369","imageIndex":4,"items":[{"name":"반올림피자샵 소사역곡점","tel":"032-344-3444","addr":"경기도 부천시 소사본동 244-86번지 1층 102호","indutype":"일반휴게음식 - 서양음식","category":"restaurant"}]},{"lat":"37.478539551","long":"126.79632938","imageIndex":4,"items":[{"name":"반즈","tel":"","addr":"경기도 부천시 소사본동 133-10번지 1층","indutype":"일반휴게음식 - 서양음식","category":"restaurant"}]},{"lat":"37.473322299","long":"126.79604981","imageIndex":4,"items":[{"name":"배달의 쌀국수(부천소사점)","tel":"032-341-1232","addr":"경기도 부천시 소사본동 184-21번지","indutype":"일반휴게음식 - 일반한식","category":"restaurant"}]},{"lat":"37.472544126","long":"126.79416408","imageIndex":4,"items":[{"name":"배진화옛날통닭","tel":"032-341-3121","addr":"경기도 부천시 소사본동 209-40번지","indutype":"일반휴게음식 - 주점","category":"restaurant"}]},{"lat":"37.471405455","long":"126.79735511","imageIndex":4,"items":[{"name":"배진화옛날통닭 소사직영점","tel":"032-345-9982","addr":"경기도 부천시 소사본동 218-15번지 1층","indutype":"일반휴게음식 - 스넥","category":"restaurant"}]},{"lat":"37.474317501","long":"126.7984098","imageIndex":4,"items":[{"name":"백가네매운갈비찜","tel":"032-347-2234","addr":"경기도 부천시 소사본동 196-40번지 1층","indutype":"일반휴게음식 - 일반한식","category":"restaurant"}]},{"lat":"37.480571435","long":"126.7938478","imageIndex":4,"items":[{"name":"백일도","tel":"032-347-1110","addr":"경기도 부천시 소사본동 68-59번지 1층 일부","indutype":"일반휴게음식 - 일반한식","category":"restaurant"},{"name":"오상양꼬치","tel":"031-222-2222","addr":"경기도 부천시 소사본동 68-59번지 1층","indutype":"일반휴게음식 - 일반한식","category":"restaurant"}]},{"lat":"37.480541594","long":"126.79226507","imageIndex":4,"items":[{"name":"베트남쌀국수","tel":"032-111-1111","addr":"경기도 부천시 소사본동 96-47번지 1층","indutype":"일반휴게음식 - 스넥","category":"restaurant"}]},{"lat":"37.472344701","long":"126.79862996","imageIndex":4,"items":[{"name":"별이분식","tel":"032-348-8400","addr":"경기도 부천시 소사본동 220-2번지 1층 일부","indutype":"일반휴게음식 - 스넥","category":"restaurant"}]},{"lat":"37.481488137","long":"126.79254506","imageIndex":4,"items":[{"name":"병천토부리순대","tel":"032-346-0179","addr":"경기도 부천시 소사본동 94-5번지","indutype":"일반휴게음식 - 일반한식","category":"restaurant"}]},{"lat":"37.470184696","long":"126.80001496","imageIndex":4,"items":[{"name":"보리밥전문점","tel":"032-345-5319","addr":"경기도 부천시 소사본동 294-68 1","indutype":"일반휴게음식 - 일반한식","category":"restaurant"}]},{"lat":"37.478651685","long":"126.79349137","imageIndex":4,"items":[{"name":"보원","tel":"032-351-3289","addr":"경기도 부천시 소사본동 143-3번지","indutype":"일반휴게음식 - 일반한식","category":"restaurant"},{"name":"신도시다방","tel":"070-7340-5075","addr":"경기도 부천시 소사본동 143-3번지","indutype":"일반휴게음식 - 서양음식","category":"restaurant"}]},{"lat":"37.471122352","long":"126.79518543","imageIndex":4,"items":[{"name":"복사골","tel":"032-342-8001","addr":"경기도 부천시 소사본동 233-37번지 라온빌딩 1층","indutype":"일반휴게음식 - 일반한식","category":"restaurant"}]},{"lat":"37.477204956","long":"126.79568865","imageIndex":4,"items":[{"name":"복어대감","tel":"032-345-7789","addr":"경기도 부천시 소사본동 153번지 (1층,지하1층)","indutype":"일반휴게음식 - 일반한식","category":"restaurant"},{"name":"이디야","tel":"032-345-7321","addr":"경기도 부천시 소사본동 153번지 1층","indutype":"일반휴게음식 - 서양음식","category":"restaurant"}]},{"lat":"37.472957754","long":"126.80413368","imageIndex":4,"items":[{"name":"봉구스밥버거(소사본동점)","tel":"032-341-0566","addr":"경기도 부천시 소사본동 409-4번지 제일프라자 1동 104호","indutype":"일반휴게음식 - 일반한식","category":"restaurant"},{"name":"채선당(소사점)","tel":"032-345-9933","addr":"경기도 부천시 소사본동 409-4번지 제일프라자 2층 201호","indutype":"일반휴게음식 - 일반한식","category":"restaurant"},{"name":"커피에반하다","tel":"031-341-1755","addr":"경기도 부천시 소사본동 409-4번지 제일프라자 105호","indutype":"일반휴게음식 - 서양음식","category":"restaurant"}]},{"lat":"37.473379844","long":"126.7980506","imageIndex":4,"items":[{"name":"봉달이푸줏간","tel":"032-346-3937","addr":"경기도 부천시 소사본동 194-18번지 1층","indutype":"일반휴게음식 - 일반한식","category":"restaurant"}]},{"lat":"37.473074133","long":"126.79841318","imageIndex":4,"items":[{"name":"봉평막국수갈비찜","tel":"032-351-5588","addr":"경기도 부천시 소사본동 199-1번지 1층","indutype":"일반휴게음식 - 일반한식","category":"restaurant"}]},{"lat":"37.469569157","long":"126.79835491","imageIndex":4,"items":[{"name":"봉평메밀로","tel":"032-342-9233","addr":"경기도 부천시 소사본동 300번지 1층","indutype":"일반휴게음식 - 일반한식","category":"restaurant"}]},{"lat":"37.48095615","long":"126.79232044","imageIndex":4,"items":[{"name":"부길왕갈비","tel":"032-349-0295","addr":"경기도 부천시 소사본동 94-14번지","indutype":"일반휴게음식 - 일반한식","category":"restaurant"},{"name":"이층집돈까스","tel":"032-212-8037","addr":"경기도 부천시 소사본동 94-14번지 2층","indutype":"일반휴게음식 - 일반한식","category":"restaurant"}]},{"lat":"37.475012514","long":"126.79913142","imageIndex":4,"items":[{"name":"부어치킨","tel":"032-343-2273","addr":"경기도 부천시 소사본동 197번지","indutype":"일반휴게음식 - 스넥","category":"restaurant"}]},{"lat":"37.48101332","long":"126.79407269","imageIndex":4,"items":[{"name":"부천숯불돼지집","tel":"032-346-4286","addr":"경기도 부천시 소사본동 76-1번지","indutype":"일반휴게음식 - 일반한식","category":"restaurant"},{"name":"호커피","tel":"032-341-9021","addr":"경기도 부천시 소사본동 76-1번지 1층 일부호","indutype":"일반휴게음식 - 서양음식","category":"restaurant"}]},{"lat":"37.480149428","long":"126.79985235","imageIndex":4,"items":[{"name":"부천시니어클럽CAFE어울","tel":"032-345-3999","addr":"경기도 부천시 소사본동 64번지 1층","indutype":"일반휴게음식 - 서양음식","category":"restaurant"}]},{"lat":"37.473206335","long":"126.79671711","imageIndex":4,"items":[{"name":"북해도참치","tel":"032-343-3700","addr":"경기도 부천시 소사본동 202-32번지","indutype":"일반휴게음식 - 일식·회집","category":"restaurant"}]},{"lat":"37.47501092","long":"126.79307194","imageIndex":4,"items":[{"name":"불꽃호프","tel":"032-341-1789","addr":"경기도 부천시 소사본동 176-2번지 1층","indutype":"일반휴게음식 - 주점","category":"restaurant"}]},{"lat":"37.472293264","long":"126.79496741","imageIndex":4,"items":[{"name":"붐비어","tel":"032-341-3450","addr":"경기도 부천시 소사본동 215-5번지 1층","indutype":"일반휴게음식 - 주점","category":"restaurant"}]},{"lat":"37.472234996","long":"126.79771458","imageIndex":4,"items":[{"name":"비노카페","tel":"032-330-1290","addr":"경기도 부천시 소사본동 219번지 JN팰리스 1층 102호","indutype":"일반휴게음식 - 서양음식","category":"restaurant"}]},{"lat":"37.477150163","long":"126.7952705","imageIndex":4,"items":[{"name":"비비큐","tel":"032-345-9282","addr":"경기도 부천시 소사본동 152-8번지","indutype":"일반휴게음식 - 서양음식","category":"restaurant"}]},{"lat":"37.474650379","long":"126.79812627","imageIndex":4,"items":[{"name":"비상구","tel":"032-343-3127","addr":"경기도 부천시 소사본동 195-9번지 1층","indutype":"일반휴게음식 - 주점","category":"restaurant"},{"name":"원조코다리찜","tel":"032-348-2441","addr":"경기도 부천시 소사본동 195-9번지 1층","indutype":"일반휴게음식 - 일반한식","category":"restaurant"},{"name":"즉석떡볶이매직닭발","tel":"031-7380-0030","addr":"경기도 부천시 소사본동 195-9번지 1층","indutype":"일반휴게음식 - 일반한식","category":"restaurant"}]},{"lat":"37.475263072","long":"126.7981359","imageIndex":4,"items":[{"name":"비어하우스","tel":"032-349-0239","addr":"경기도 부천시 소사본동 158-36번지","indutype":"일반휴게음식 - 주점","category":"restaurant"}]},{"lat":"37.479707822","long":"126.79460769","imageIndex":4,"items":[{"name":"빙하시대냉면전문점","tel":"032-341-2688","addr":"경기도 부천시 소사본동 78-62번지 1층 일부","indutype":"일반휴게음식 - 일반한식","category":"restaurant"},{"name":"하오","tel":"032-349-8096","addr":"경기도 부천시 소사본동 78-62번지","indutype":"일반휴게음식 - 중국식","category":"restaurant"}]},{"lat":"37.467455504","long":"126.8004971","imageIndex":4,"items":[{"name":"빠삐용","tel":"032-342-5100","addr":"경기도 부천시 소사본동 403 삼성두산상가 203","indutype":"일반휴게음식 - 주점","category":"restaurant"}]},{"lat":"37.480649229","long":"126.79199343","imageIndex":4,"items":[{"name":"사랑채","tel":"032-349-4789","addr":"경기도 부천시 소사본동 93-62번지 1층","indutype":"일반휴게음식 - 일반한식","category":"restaurant"},{"name":"쥬씨","tel":"032-341-3606","addr":"경기도 부천시 소사본동 93-62번지 1층","indutype":"일반휴게음식 - 서양음식","category":"restaurant"}]},{"lat":"37.47520498","long":"126.79074256","imageIndex":4,"items":[{"name":"산새공원카페","tel":"031-205-4317","addr":"경기도 부천시 소사본동 172-30번지 1층","indutype":"일반휴게음식 - 서양음식","category":"restaurant"}]},{"lat":"37.480290946","long":"126.79318154","imageIndex":4,"items":[{"name":"삼거리순대국식당","tel":"032-341-0214","addr":"경기도 부천시 소사본동 132-9번지 1층","indutype":"일반휴게음식 - 일반한식","category":"restaurant"}]},{"lat":"37.480404871","long":"126.7913836","imageIndex":4,"items":[{"name":"삼겹이랑쭈구미랑","tel":"032-341-9777","addr":"경기도 부천시 소사본동 91-130번지 2층","indutype":"일반휴게음식 - 일반한식","category":"restaurant"},{"name":"우정식당","tel":"032-348-4955","addr":"경기도 부천시 소사본동 91-130번지 1층","indutype":"일반휴게음식 - 일반한식","category":"restaurant"},{"name":"푸드하우스","tel":"070-8289-5507","addr":"경기도 부천시 소사본동 91-130번지 3층","indutype":"일반휴게음식 - 일반한식","category":"restaurant"},{"name":"피자마루 소사본동점","tel":"032-341-1082","addr":"경기도 부천시 소사본동 91-130번지 1층","indutype":"일반휴게음식 - 서양음식","category":"restaurant"}]},{"lat":"37.481739931","long":"126.79227301","imageIndex":4,"items":[{"name":"삼국지","tel":"032-349-4770","addr":"경기도 부천시 소사본동 91-1번지 1층","indutype":"일반휴게음식 - 중국식","category":"restaurant"}]},{"lat":"37.476343362","long":"126.79249165","imageIndex":4,"items":[{"name":"삼미참맛식당","tel":"032-342-6060","addr":"경기도 부천시 소사본동 149-37번지 1층","indutype":"일반휴게음식 - 일반한식","category":"restaurant"},{"name":"야래향","tel":"032-344-0145","addr":"경기도 부천시 소사본동 149-37번지 1층","indutype":"일반휴게음식 - 일반한식","category":"restaurant"}]},{"lat":"37.471213523","long":"126.79579562","imageIndex":4,"items":[{"name":"삼복가","tel":"032-343-2200","addr":"경기도 부천시 소사본동 230번지 1층 우측","indutype":"일반휴게음식 - 일반한식","category":"restaurant"}]},{"lat":"37.479877397","long":"126.79884688","imageIndex":4,"items":[{"name":"삼양식당","tel":"032-344-7275","addr":"경기도 부천시 소사본동 65-31번지 대화빌딩 1층 일부","indutype":"일반휴게음식 - 일반한식","category":"restaurant"}]},{"lat":"37.478984651","long":"126.79326433","imageIndex":4,"items":[{"name":"상원식당","tel":"032-524-6658","addr":"경기도 부천시 소사본동 77-32번지 1층","indutype":"일반휴게음식 - 일반한식","category":"restaurant"}]},{"lat":"37.4819055","long":"126.79418327","imageIndex":4,"items":[{"name":"샤샤호프","tel":"032-345-1772","addr":"경기도 부천시 소사본동 70-19번지","indutype":"일반휴게음식 - 주점","category":"restaurant"},{"name":"통닭집","tel":"031-342-4900","addr":"경기도 부천시 소사본동 70-19번지 1층 4호","indutype":"일반휴게음식 - 스넥","category":"restaurant"}]},{"lat":"37.479428953","long":"126.79485719","imageIndex":4,"items":[{"name":"서울뚝배기","tel":"070-8615-8028","addr":"경기도 부천시 소사본동 82-14번지 1층 일부","indutype":"일반휴게음식 - 일반한식","category":"restaurant"}]},{"lat":"37.479763928","long":"126.79577203","imageIndex":4,"items":[{"name":"섬진강메기매운탕전문점","tel":"032-343-5048","addr":"경기도 부천시 소사본동 128-12번지 2층3층전부","indutype":"일반휴게음식 - 일반한식","category":"restaurant"}]},{"lat":"37.480649874","long":"126.79235521","imageIndex":4,"items":[{"name":"성심식당","tel":"","addr":"경기도 부천시 소사본동 96-35번지 1층 일부","indutype":"일반휴게음식 - 일반한식","category":"restaurant"}]},{"lat":"37.480623931","long":"126.7929658","imageIndex":4,"items":[{"name":"셀렉토커피 소사역점","tel":"032-348-6801","addr":"경기도 부천시 소사본동 96-8번지 ,1,2층","indutype":"일반휴게음식 - 서양음식","category":"restaurant"}]},{"lat":"37.473704768","long":"126.79837755","imageIndex":4,"items":[{"name":"소라네식당","tel":"032-345-8886","addr":"경기도 부천시 소사본동 198-5번지 1층","indutype":"일반휴게음식 - 일반한식","category":"restaurant"}]},{"lat":"37.47870834","long":"126.79496094","imageIndex":4,"items":[{"name":"소머리국밥","tel":"032-349-8011","addr":"경기도 부천시 소사본동 82-6번지 1층","indutype":"일반휴게음식 - 일반한식","category":"restaurant"}]},{"lat":"37.47123972","long":"126.79532076","imageIndex":4,"items":[{"name":"소문난 윤상원 양평해장국","tel":"032-343-3520","addr":"경기도 부천시 소사본동 233-26번지","indutype":"일반휴게음식 - 일반한식","category":"restaurant"}]},{"lat":"37.47918391","long":"126.79385167","imageIndex":4,"items":[{"name":"소문난곱창","tel":"032-348-7347","addr":"경기도 부천시 소사본동 77-13번지","indutype":"일반휴게음식 - 일반한식","category":"restaurant"}]},{"lat":"37.476735508","long":"126.7951586","imageIndex":4,"items":[{"name":"소백양샤브샤브","tel":"","addr":"경기도 부천시 소사본동 152-16번지 1층 일부","indutype":"일반휴게음식 - 일반한식","category":"restaurant"}]},{"lat":"37.473177744","long":"126.79582412","imageIndex":4,"items":[{"name":"소사38소갈비살","tel":"032-341-3933","addr":"경기도 부천시 소사본동 203-1번지 1층","indutype":"일반휴게음식 - 일반한식","category":"restaurant"}]},{"lat":"37.472539108","long":"126.79643633","imageIndex":4,"items":[{"name":"소사꿀꽈배기","tel":"011-****-****","addr":"경기도 부천시 소사본동 202-16번지","indutype":"일반휴게음식 - 일반한식","category":"restaurant"}]},{"lat":"37.473487178","long":"126.79759811","imageIndex":4,"items":[{"name":"소사분식","tel":"","addr":"경기도 부천시 소사본동 194-25번지","indutype":"일반휴게음식 - 스넥","category":"restaurant"}]},{"lat":"37.481150342","long":"126.79513507","imageIndex":4,"items":[{"name":"소사커피호프","tel":"032-349-5072","addr":"경기도 부천시 소사본동 70-17번지","indutype":"일반휴게음식 - 주점","category":"restaurant"},{"name":"플러스한식부페","tel":"032-213-1117","addr":"경기도 부천시 소사본동 70-17번지 1층 102호","indutype":"일반휴게음식 - 일반한식","category":"restaurant"}]},{"lat":"37.472788291","long":"126.79984966","imageIndex":4,"items":[{"name":"소사하루/소사하루협동조합","tel":"032-346-0506","addr":"경기도 부천시 소사본동 274-9번지 1층","indutype":"일반휴게음식 - 일반한식","category":"restaurant"}]},{"lat":"37.474849184","long":"126.79846487","imageIndex":4,"items":[{"name":"소사한신포차","tel":"032-555-5555","addr":"경기도 부천시 소사본동 196-2번지 1층","indutype":"일반휴게음식 - 일반한식","category":"restaurant"}]},{"lat":"37.469097201","long":"126.79637797","imageIndex":4,"items":[{"name":"수다카페","tel":"032-342-7776","addr":"경기도 부천시 소사본동 317-7번지 1층 일부 (101호)","indutype":"일반휴게음식 - 서양음식","category":"restaurant"}]},{"lat":"37.480128728","long":"126.79315938","imageIndex":4,"items":[{"name":"수란두화","tel":"032-343-8417","addr":"경기도 부천시 소사본동 131-2번지 1층","indutype":"일반휴게음식 - 일반한식","category":"restaurant"},{"name":"엄마손민물매운탕","tel":"032-343-2123","addr":"경기도 부천시 소사본동 131-2번지","indutype":"일반휴게음식 - 일반한식","category":"restaurant"},{"name":"좋은사람들","tel":"032-346-2425","addr":"경기도 부천시 소사본동 131-2번지 1층","indutype":"일반휴게음식 - 주점","category":"restaurant"}]},{"lat":"37.472287994","long":"126.79710399","imageIndex":4,"items":[{"name":"술을품다호프세상","tel":"032-345-8201","addr":"경기도 부천시 소사본동 217-17번지","indutype":"일반휴게음식 - 주점","category":"restaurant"},{"name":"통닭사랑","tel":"032-341-3232","addr":"경기도 부천시 소사본동 217-17번지","indutype":"일반휴게음식 - 스넥","category":"restaurant"}]},{"lat":"37.474879038","long":"126.80010402","imageIndex":4,"items":[{"name":"숯불바베큐치킨마트","tel":"032-346-9282","addr":"경기도 부천시 소사본동 197-3번지 우미빌딩 1층","indutype":"일반휴게음식 - 칵테일바","category":"restaurant"},{"name":"육쌈냉면","tel":"02-986-6252","addr":"경기도 부천시 소사본동 197-3번지","indutype":"일반휴게음식 - 일반한식","category":"restaurant"},{"name":"장원중화요리","tel":"032-345-1331","addr":"경기도 부천시 소사본동 197-3번지 1층","indutype":"일반휴게음식 - 중국식","category":"restaurant"},{"name":"카페설레임","tel":"032-345-3807","addr":"경기도 부천시 소사본동 197-3번지 1층 일부","indutype":"일반휴게음식 - 서양음식","category":"restaurant"}]},{"lat":"37.473180172","long":"126.79721459","imageIndex":4,"items":[{"name":"쉐프밥버거 소사점","tel":"032-342-8782","addr":"경기도 부천시 소사본동 201-7번지 1층 일부","indutype":"일반휴게음식 - 일반한식","category":"restaurant"}]},{"lat":"37.471014472","long":"126.79532139","imageIndex":4,"items":[{"name":"스마일찰진꽈배기","tel":"","addr":"경기도 부천시 소사본동 233-27번지","indutype":"일반휴게음식 - 스넥","category":"restaurant"}]},{"lat":"37.480794174","long":"126.79243395","imageIndex":4,"items":[{"name":"스시990/할매사골순대국","tel":"032-344-3990","addr":"경기도 부천시 소사본동 95-6번지 1층","indutype":"일반휴게음식 - 일반한식","category":"restaurant"}]},{"lat":"37.480483152","long":"126.79487688","imageIndex":4,"items":[{"name":"시골식당","tel":"032-342-9313","addr":"경기도 부천시 소사본동 75-10번지","indutype":"일반휴게음식 - 일반한식","category":"restaurant"},{"name":"영호프","tel":"032-212-7413","addr":"경기도 부천시 소사본동 75-10번지 1층","indutype":"일반휴게음식 - 주점","category":"restaurant"}]},{"lat":"37.481427975","long":"126.7941846","imageIndex":4,"items":[{"name":"시골토종순대국","tel":"032-349-2801","addr":"경기도 부천시 소사본동 70-21번지","indutype":"일반휴게음식 - 일반한식","category":"restaurant"}]},{"lat":"37.470096491","long":"126.79591175","imageIndex":4,"items":[{"name":"시리우스","tel":"032-345-7410","addr":"경기도 부천시 소사본동 231-19번지 동보빌라 101호","indutype":"일반휴게음식 - 일반한식","category":"restaurant"}]},{"lat":"37.479264859","long":"126.7937723","imageIndex":4,"items":[{"name":"시장순대국","tel":"032-345-5999","addr":"경기도 부천시 소사본동 77-12번지","indutype":"일반휴게음식 - 일반한식","category":"restaurant"}]},{"lat":"37.480816816","long":"126.79504555","imageIndex":4,"items":[{"name":"신의주찹쌀순대","tel":"032-348-8588","addr":"경기도 부천시 소사본동 75-5번지 1층","indutype":"일반휴게음식 - 일반한식","category":"restaurant"}]},{"lat":"37.475267743","long":"126.8008491","imageIndex":4,"items":[{"name":"신전떡볶이","tel":"032-345-0503","addr":"경기도 부천시 소사본동 244-33번지 삼원상가 105호","indutype":"일반휴게음식 - 일반한식","category":"restaurant"}]},{"lat":"37.474489647","long":"126.79896327","imageIndex":4,"items":[{"name":"신포닭강정탕수육","tel":"032-346-8160","addr":"경기도 부천시 소사본동 196-21번지 1층","indutype":"일반휴게음식 - 일반한식","category":"restaurant"},{"name":"피자빨간고추소사점","tel":"032-348-9961","addr":"경기도 부천시 소사본동 196-21번지 외1필지","indutype":"일반휴게음식 - 서양음식","category":"restaurant"}]},{"lat":"37.475928765","long":"126.79241368","imageIndex":4,"items":[{"name":"실로암교회카페","tel":"032-343-1551","addr":"경기도 부천시 소사본동 166-1번지","indutype":"일반휴게음식 - 서양음식","category":"restaurant"}]},{"lat":"37.478598066","long":"126.79374025","imageIndex":4,"items":[{"name":"심양불고기","tel":"032-555-5555","addr":"경기도 부천시 소사본동 141-66번지 1층 일부","indutype":"일반휴게음식 - 일반한식","category":"restaurant"}]},{"lat":"37.473183112","long":"126.7989103","imageIndex":4,"items":[{"name":"쌈바치킨","tel":"","addr":"경기도 부천시 소사본동 199-20번지","indutype":"일반휴게음식 - 스넥","category":"restaurant"}]},{"lat":"37.470157492","long":"126.79991329","imageIndex":4,"items":[{"name":"쌈브소사점","tel":"032-348-4090","addr":"경기도 부천시 소사본동 294-69번지 지층","indutype":"일반휴게음식 - 일반한식","category":"restaurant"}]},{"lat":"37.480370642","long":"126.80276866","imageIndex":4,"items":[{"name":"아리랑식당","tel":"032-342-0545","addr":"경기도 부천시 소사본동 55-2번지 대은팰리스뷰아파트","indutype":"일반휴게음식 - 일반한식","category":"restaurant"},{"name":"청솔","tel":"032-341-5533","addr":"경기도 부천시 소사본동 55-2번지 대은팰리스뷰아파트","indutype":"일반휴게음식 - 일반한식","category":"restaurant"}]},{"lat":"37.476123033","long":"126.79527334","imageIndex":4,"items":[{"name":"아리랑한우곱창","tel":"031-111-1111","addr":"경기도 부천시 소사본동 161-5번지 1층","indutype":"일반휴게음식 - 일반한식","category":"restaurant"}]},{"lat":"37.470153646","long":"126.79768636","imageIndex":4,"items":[{"name":"양우포차","tel":"032-343-2725","addr":"경기도 부천시 소사본동 222-36번지 1층","indutype":"일반휴게음식 - 주점","category":"restaurant"}]},{"lat":"37.47940256","long":"126.79521905","imageIndex":4,"items":[{"name":"어사리회","tel":"032-346-2131","addr":"경기도 부천시 소사본동 82-16번지","indutype":"일반휴게음식 - 일반한식","category":"restaurant"},{"name":"중화각","tel":"032-342-1113","addr":"경기도 부천시 소사본동 82-16번지 2층","indutype":"일반휴게음식 - 중국식","category":"restaurant"}]},{"lat":"37.475460048","long":"126.79230194","imageIndex":4,"items":[{"name":"어울림 (카페테리아)","tel":"032-000-0000","addr":"경기도 부천시 소사본동 166-6번지 소새울어울마당 1층","indutype":"일반휴게음식 - 서양음식","category":"restaurant"}]},{"lat":"37.478823654","long":"126.79393181","imageIndex":4,"items":[{"name":"엄가네맛집","tel":"","addr":"경기도 부천시 소사본동 77-27번지","indutype":"일반휴게음식 - 일반한식","category":"restaurant"}]},{"lat":"37.474900526","long":"126.79179478","imageIndex":4,"items":[{"name":"엄마손맛집","tel":"032-341-7560","addr":"경기도 부천시 소사본동 174-11번지","indutype":"일반휴게음식 - 일반한식","category":"restaurant"}]},{"lat":"37.473182682","long":"126.79866159","imageIndex":4,"items":[{"name":"엄마의정성","tel":"070-4922-1261","addr":"경기도 부천시 소사본동 199-8번지 1층 일부호","indutype":"일반휴게음식 - 일반한식","category":"restaurant"},{"name":"황금마차","tel":"032-345-3839","addr":"경기도 부천시 소사본동 199-8번지 1층","indutype":"일반휴게음식 - 일반한식","category":"restaurant"}]},{"lat":"37.470374293","long":"126.80024053","imageIndex":4,"items":[{"name":"에이치와이커피(HY COFFEE)","tel":"032-345-0818","addr":"경기도 부천시 소사본동 294-64번지 1층","indutype":"일반휴게음식 - 서양음식","category":"restaurant"}]},{"lat":"37.475268242","long":"126.7959314","imageIndex":4,"items":[{"name":"엘림식당","tel":"031-000-0000","addr":"경기도 부천시 소사본동 160-42번지 1층","indutype":"일반휴게음식 - 일반한식","category":"restaurant"}]},{"lat":"37.473212901","long":"126.80051549","imageIndex":4,"items":[{"name":"여기면","tel":"032-221-2049","addr":"경기도 부천시 소사본동 277-29번지 1층 일부","indutype":"일반휴게음식 - 일반한식","category":"restaurant"}]},{"lat":"37.475267806","long":"126.79568269","imageIndex":4,"items":[{"name":"여랑커피호프","tel":"","addr":"경기도 부천시 소사본동 160-44번지 지층 전체","indutype":"일반휴게음식 - 주점","category":"restaurant"}]},{"lat":"37.474650907","long":"126.7984315","imageIndex":4,"items":[{"name":"여수맛집","tel":"032-341-0275","addr":"경기도 부천시 소사본동 196-15번지 1층","indutype":"일반휴게음식 - 일반한식","category":"restaurant"}]},{"lat":"37.477794661","long":"126.79288327","imageIndex":4,"items":[{"name":"여우고개맛소사","tel":"032-506-8330","addr":"경기도 부천시 소사본동 143-24번지","indutype":"일반휴게음식 - 일반한식","category":"restaurant"},{"name":"친구야","tel":"032-351-0974","addr":"경기도 부천시 소사본동 143-24번지 1층","indutype":"일반휴게음식 - 주점","category":"restaurant"}]},{"lat":"37.480790124","long":"126.79523782","imageIndex":4,"items":[{"name":"역전호프","tel":"032-348-6428","addr":"경기도 부천시 소사본동 75-6번지 지하1층","indutype":"일반휴게음식 - 주점","category":"restaurant"}]},{"lat":"37.475627428","long":"126.7952408","imageIndex":4,"items":[{"name":"연어랑육회랑","tel":"032-346-5092","addr":"경기도 부천시 소사본동 161-12번지 1층","indutype":"일반휴게음식 - 일반한식","category":"restaurant"}]},{"lat":"37.473623248","long":"126.79812907","imageIndex":4,"items":[{"name":"연탄불생고기","tel":"","addr":"경기도 부천시 소사본동 194-36번지","indutype":"일반휴게음식 - 일반한식","category":"restaurant"}]},{"lat":"37.476095705","long":"126.79510384","imageIndex":4,"items":[{"name":"열린공간","tel":"032-351-3535","addr":"경기도 부천시 소사본동 161-3번지 1층","indutype":"일반휴게음식 - 일반한식","category":"restaurant"}]},{"lat":"37.475906736","long":"126.79524003","imageIndex":4,"items":[{"name":"영광한식뷔페","tel":"032-346-8909","addr":"경기도 부천시 소사본동 161-7번지 1층","indutype":"일반휴게음식 - 일반한식","category":"restaurant"}]},{"lat":"37.471735186","long":"126.79527417","imageIndex":4,"items":[{"name":"영서감자탕","tel":"032-213-5604","addr":"경기도 부천시 소사본동 215-27번지 1층","indutype":"일반휴게음식 - 일반한식","category":"restaurant"}]},{"lat":"37.472512315","long":"126.79657206","imageIndex":4,"items":[{"name":"옛고을 퓨전포차","tel":"032-349-9297","addr":"경기도 부천시 소사본동 202-15번지 1층","indutype":"일반휴게음식 - 일반한식","category":"restaurant"}]},{"lat":"37.480264858","long":"126.79371299","imageIndex":4,"items":[{"name":"옛날시골통닭","tel":"032-342-3737","addr":"경기도 부천시 소사본동 76-10번지 1층","indutype":"일반휴게음식 - 스넥","category":"restaurant"}]},{"lat":"37.476321251","long":"126.79527279","imageIndex":4,"items":[{"name":"옛날짜장우동","tel":"032-349-4568","addr":"경기도 부천시 소사본동 152-20번지","indutype":"일반휴게음식 - 스넥","category":"restaurant"}]},{"lat":"37.481461269","long":"126.79263559","imageIndex":4,"items":[{"name":"오구쌀피자","tel":"032-343-9292","addr":"경기도 부천시 소사본동 94-8번지 1층","indutype":"일반휴게음식 - 서양음식","category":"restaurant"},{"name":"카페민스(cafe min's)","tel":"070-8273-5001","addr":"경기도 부천시 소사본동 94-8번지 1층","indutype":"일반휴게음식 - 서양음식","category":"restaurant"}]},{"lat":"37.475239299","long":"126.80002391","imageIndex":4,"items":[{"name":"오구피자","tel":"032-348-2002","addr":"경기도 부천시 소사본동 135-9번지","indutype":"일반휴게음식 - 서양음식","category":"restaurant"}]},{"lat":"37.474986212","long":"126.79438339","imageIndex":4,"items":[{"name":"오미청국장","tel":"032-344-6208","addr":"경기도 부천시 소사본동 180-3번지","indutype":"일반휴게음식 - 일반한식","category":"restaurant"}]},{"lat":"37.470067237","long":"126.7998231","imageIndex":4,"items":[{"name":"오복순대국솔밥","tel":"032-347-7675","addr":"경기도 부천시 소사본동 294-70번지","indutype":"일반휴게음식 - 일반한식","category":"restaurant"}]},{"lat":"37.473984135","long":"126.79841071","imageIndex":4,"items":[{"name":"와인그라스호프","tel":"032-348-5426","addr":"경기도 부천시 소사본동 198-2번지","indutype":"일반휴게음식 - 칵테일바","category":"restaurant"}]},{"lat":"37.480071059","long":"126.79113581","imageIndex":4,"items":[{"name":"요거프레소 서울신학대점","tel":"032-344-6137","addr":"경기도 부천시 소사본동 101-10번지 1층 일부호","indutype":"일반휴게음식 - 서양음식","category":"restaurant"},{"name":"카페이유","tel":"031-111-1111","addr":"경기도 부천시 소사본동 101-10번지 2층","indutype":"일반휴게음식 - 서양음식","category":"restaurant"}]},{"lat":"37.472538535","long":"126.7961085","imageIndex":4,"items":[{"name":"우성미꾸라지매운탕","tel":"032-342-2292","addr":"경기도 부천시 소사본동 203-17번지","indutype":"일반휴게음식 - 일반한식","category":"restaurant"}]},{"lat":"37.478678414","long":"126.79332172","imageIndex":4,"items":[{"name":"월드대박","tel":"032-347-0645","addr":"경기도 부천시 소사본동 143-2번지","indutype":"일반휴게음식 - 일반한식","category":"restaurant"},{"name":"이모네포차","tel":"032-345-5377","addr":"경기도 부천시 소사본동 143-2번지 1층","indutype":"일반휴게음식 - 일반한식","category":"restaurant"}]},{"lat":"37.476898659","long":"126.7957121","imageIndex":4,"items":[{"name":"유노장군족발","tel":"032-657-1233","addr":"경기도 부천시 소사본동 153-30번지 1층","indutype":"일반휴게음식 - 일반한식","category":"restaurant"}]},{"lat":"37.474318459","long":"126.79896374","imageIndex":4,"items":[{"name":"육식이","tel":"02-000-0000","addr":"경기도 부천시 소사본동 196-33번지 1층","indutype":"일반휴게음식 - 일반한식","category":"restaurant"}]},{"lat":"37.473596747","long":"126.79843437","imageIndex":4,"items":[{"name":"윤가네","tel":"032-348-8800","addr":"경기도 부천시 소사본동 198-6번지 1층","indutype":"일반휴게음식 - 일반한식","category":"restaurant"}]},{"lat":"37.478322621","long":"126.79593428","imageIndex":4,"items":[{"name":"윤가네밥상","tel":"032-348-2227","addr":"경기도 부천시 소사본동 139-4번지 1층","indutype":"일반휴게음식 - 일반한식","category":"restaurant"}]},{"lat":"37.473206079","long":"126.79657015","imageIndex":4,"items":[{"name":"은혜분식","tel":"032-343-6247","addr":"경기도 부천시 소사본동 202-1번지 1층","indutype":"일반휴게음식 - 스넥","category":"restaurant"}]},{"lat":"37.470705794","long":"126.79915442","imageIndex":4,"items":[{"name":"이들","tel":"032-348-0701","addr":"경기도 부천시 소사본동 292-98번지","indutype":"일반휴게음식 - 일반한식","category":"restaurant"}]},{"lat":"37.480098433","long":"126.79132793","imageIndex":4,"items":[{"name":"이디야 (서울신대점)","tel":"032-226-8886","addr":"경기도 부천시 소사본동 106-7번지 1층","indutype":"일반휴게음식 - 서양음식","category":"restaurant"}]},{"lat":"37.48009353","long":"126.79363433","imageIndex":4,"items":[{"name":"이모네식당","tel":"070-8263-5056","addr":"경기도 부천시 소사본동 76-11번지 1층 102호","indutype":"일반휴게음식 - 일반한식","category":"restaurant"},{"name":"장충도도왕족발","tel":"070-7343-1002","addr":"경기도 부천시 소사본동 76-11번지 1층","indutype":"일반휴게음식 - 일반한식","category":"restaurant"}]},{"lat":"37.472319557","long":"126.79454906","imageIndex":4,"items":[{"name":"이모네족발","tel":"032-342-7878","addr":"경기도 부천시 소사본동 215-1번지 1층 일부","indutype":"일반휴게음식 - 일반한식","category":"restaurant"}]},{"lat":"37.467793478","long":"126.7979415","imageIndex":4,"items":[{"name":"이삭토스트부천복사골점","tel":"032-343-6682","addr":"경기도 부천시 소사본동 400-2번지 1층 103호","indutype":"일반휴게음식 - 서양음식","category":"restaurant"},{"name":"쥬씨(JUICY)","tel":"070-4115-1028","addr":"경기도 부천시 소사본동 400-2번지","indutype":"일반휴게음식 - 서양음식","category":"restaurant"}]},{"lat":"37.472489153","long":"126.79879914","imageIndex":4,"items":[{"name":"이티시","tel":"032-349-9838","addr":"경기도 부천시 소사본동 199-38번지","indutype":"일반휴게음식 - 서양음식","category":"restaurant"}]},{"lat":"37.472514264","long":"126.79769121","imageIndex":4,"items":[{"name":"인생술집","tel":"","addr":"경기도 부천시 소사본동 200-6번지","indutype":"일반휴게음식 - 주점","category":"restaurant"}]},{"lat":"37.47523839","long":"126.79432617","imageIndex":4,"items":[{"name":"일송","tel":"070-7311-4001","addr":"경기도 부천시 소사본동 162-29번지 1층","indutype":"일반휴게음식 - 일반한식","category":"restaurant"}]},{"lat":"37.474740478","long":"126.79812602","imageIndex":4,"items":[{"name":"일오삼부대찌개&주꾸미","tel":"032-351-0153","addr":"경기도 부천시 소사본동 195-8번지 1층","indutype":"일반휴게음식 - 일반한식","category":"restaurant"}]},{"lat":"37.474099872","long":"126.79760774","imageIndex":4,"items":[{"name":"임실순대국","tel":"032-345-1237","addr":"경기도 부천시 소사본동 194번지 1층","indutype":"일반휴게음식 - 일반한식","category":"restaurant"}]},{"lat":"37.475235258","long":"126.79768377","imageIndex":4,"items":[{"name":"잉치킨 소사점","tel":"032-343-4816","addr":"경기도 부천시 소사본동 158-26번지 1층","indutype":"일반휴게음식 - 스넥","category":"restaurant"}]},{"lat":"37.477239964","long":"126.79510067","imageIndex":4,"items":[{"name":"자금성","tel":"032-347-6606","addr":"경기도 부천시 소사본동 152-6번지","indutype":"일반휴게음식 - 중국식","category":"restaurant"}]},{"lat":"37.475268638","long":"126.7961575","imageIndex":4,"items":[{"name":"자매곱창","tel":"032-348-2188","addr":"경기도 부천시 소사본동 160-40번지 1층","indutype":"일반휴게음식 - 일반한식","category":"restaurant"}]},{"lat":"37.481512298","long":"126.79093954","imageIndex":4,"items":[{"name":"자매분식","tel":"032-341-7947","addr":"경기도 부천시 소사본동 91-66 나동","indutype":"일반휴게음식 - 스넥","category":"restaurant"}]},{"lat":"37.4811275","long":"126.7924104","imageIndex":4,"items":[{"name":"장가네참숯수제돼지갈비","tel":"032-342-5279","addr":"경기도 부천시 소사본동 94-18번지","indutype":"일반휴게음식 - 일반한식","category":"restaurant"},{"name":"할머니집","tel":"032-349-6911","addr":"경기도 부천시 소사본동 94-18번지","indutype":"일반휴게음식 - 일반한식","category":"restaurant"}]},{"lat":"37.479570855","long":"126.79357926","imageIndex":4,"items":[{"name":"장수묵국수","tel":"032-345-2327","addr":"경기도 부천시 소사본동 77-3번지 1층","indutype":"일반휴게음식 - 일반한식","category":"restaurant"}]},{"lat":"37.478268125","long":"126.79568571","imageIndex":4,"items":[{"name":"장인숙당진아구동태찜탕","tel":"032-346-1660","addr":"경기도 부천시 소사본동 139-1번지 1층","indutype":"일반휴게음식 - 일반한식","category":"restaurant"},{"name":"청두콴자이훠궈","tel":"","addr":"경기도 부천시 소사본동 139-1번지 2층","indutype":"일반휴게음식 - 중국식","category":"restaurant"}]},{"lat":"37.478456062","long":"126.79496164","imageIndex":4,"items":[{"name":"장충왕실족발","tel":"032-342-5553","addr":"경기도 부천시 소사본동 140-1번지 지하1층 일부","indutype":"일반휴게음식 - 일반한식","category":"restaurant"}]},{"lat":"37.480737549","long":"126.80129792","imageIndex":4,"items":[{"name":"재수식당","tel":"032-346-7193","addr":"경기도 부천시 소사본동 61-19번지","indutype":"일반휴게음식 - 일반한식","category":"restaurant"}]},{"lat":"37.481148628","long":"126.79416276","imageIndex":4,"items":[{"name":"전주식당","tel":"032-347-1635","addr":"경기도 부천시 소사본동 76번지","indutype":"일반휴게음식 - 일반한식","category":"restaurant"}]},{"lat":"37.478455824","long":"126.79482597","imageIndex":4,"items":[{"name":"정가네잔치국수","tel":"032-344-2777","addr":"경기도 부천시 소사본동 140번지 1층","indutype":"일반휴게음식 - 일반한식","category":"restaurant"}]},{"lat":"37.47228823","long":"126.79723965","imageIndex":4,"items":[{"name":"정드린치킨","tel":"032-344-8064","addr":"경기도 부천시 소사본동 217-30번지 1층","indutype":"일반휴게음식 - 주점","category":"restaurant"}]},{"lat":"37.469655539","long":"126.79621818","imageIndex":4,"items":[{"name":"정성담은한끼","tel":"032-343-2386","addr":"경기도 부천시 소사본동 231-23번지 1층","indutype":"일반휴게음식 - 일반한식","category":"restaurant"}]},{"lat":"37.4723236","long":"126.79685519","imageIndex":4,"items":[{"name":"정주고","tel":"032-747-8874","addr":"경기도 부천시 소사본동 217-4번지 1층 일부호","indutype":"일반휴게음식 - 일반한식","category":"restaurant"},{"name":"페리카나소사3분점","tel":"032-354-1413","addr":"경기도 부천시 소사본동 217-4번지 1층 일부","indutype":"일반휴게음식 - 서양음식","category":"restaurant"}]},{"lat":"37.471627067","long":"126.79527447","imageIndex":4,"items":[{"name":"제주뒷고기","tel":"","addr":"경기도 부천시 소사본동 215-28번지 1층","indutype":"일반휴게음식 - 일반한식","category":"restaurant"}]},{"lat":"37.481793184","long":"126.79182062","imageIndex":4,"items":[{"name":"조선순대국","tel":"032-344-0707","addr":"경기도 부천시 소사본동 91-17번지 1층","indutype":"일반휴게음식 - 일반한식","category":"restaurant"}]},{"lat":"37.48087482","long":"126.79218499","imageIndex":4,"items":[{"name":"종로국수","tel":"070-8626-4418","addr":"경기도 부천시 소사본동 93-63번지 1층","indutype":"일반휴게음식 - 스넥","category":"restaurant"}]},{"lat":"37.472267505","long":"126.79569097","imageIndex":4,"items":[{"name":"주인공","tel":"032-342-7600","addr":"경기도 부천시 소사본동 216번지 지하1층","indutype":"일반휴게음식 - 주점","category":"restaurant"},{"name":"치프빈","tel":"032-343-2114","addr":"경기도 부천시 소사본동 216번지 1층","indutype":"일반휴게음식 - 서양음식","category":"restaurant"}]},{"lat":"37.480900213","long":"126.79126914","imageIndex":4,"items":[{"name":"죽이야기(세종병원점)","tel":"032-349-6288","addr":"경기도 부천시 소사본동 91-121번지 세종병원A동지하1층","indutype":"일반휴게음식 - 일반한식","category":"restaurant"},{"name":"커피벨","tel":"032-347-1215","addr":"경기도 부천시 소사본동 91-121번지 세종병원에이동1층","indutype":"일반휴게음식 - 서양음식","category":"restaurant"}]},{"lat":"37.479093911","long":"126.79390845","imageIndex":4,"items":[{"name":"중앙식당","tel":"032-345-1427","addr":"경기도 부천시 소사본동 77-21번지 1층 103호","indutype":"일반휴게음식 - 일반한식","category":"restaurant"}]},{"lat":"37.474987287","long":"126.79499386","imageIndex":4,"items":[{"name":"지리산","tel":"032-347-3331","addr":"경기도 부천시 소사본동 181-34번지","indutype":"일반휴게음식 - 일반한식","category":"restaurant"}]},{"lat":"37.48223974","long":"126.78962598","imageIndex":4,"items":[{"name":"진미식당","tel":"032-613-3814","addr":"경기도 부천시 소사본동 88-34번지 1층","indutype":"일반휴게음식 - 일반한식","category":"restaurant"}]},{"lat":"37.48009912","long":"126.79171233","imageIndex":4,"items":[{"name":"진심담다","tel":"","addr":"경기도 부천시 소사본동 106-13번지 1층 일부호","indutype":"일반휴게음식 - 서양음식","category":"restaurant"}]},{"lat":"37.478571976","long":"126.79427168","imageIndex":4,"items":[{"name":"진양고기전문점","tel":"032-523-6353","addr":"경기도 부천시 소사본동 141-45번지 1층","indutype":"일반휴게음식 - 중국식","category":"restaurant"}]},{"lat":"37.470874302","long":"126.79760526","imageIndex":4,"items":[{"name":"진양뼈다귀감자탕","tel":"032-351-2355","addr":"경기도 부천시 소사본동 222-4번지","indutype":"일반휴게음식 - 일반한식","category":"restaurant"}]},{"lat":"37.472322732","long":"126.79635779","imageIndex":4,"items":[{"name":"참치명가","tel":"","addr":"경기도 부천시 소사본동 217번지 1층","indutype":"일반휴게음식 - 일식·회집","category":"restaurant"}]},{"lat":"37.476288317","long":"126.7970478","imageIndex":4,"items":[{"name":"처갓집양념치킨소사점","tel":"032-325-8787","addr":"경기도 부천시 소사본동 155-22번지 1층","indutype":"일반휴게음식 - 스넥","category":"restaurant"}]},{"lat":"37.479960438","long":"126.79479919","imageIndex":4,"items":[{"name":"처음처럼","tel":"032-344-3711","addr":"경기도 부천시 소사본동 81-10번지 1층","indutype":"일반휴게음식 - 주점","category":"restaurant"}]},{"lat":"37.472268425","long":"126.80143371","imageIndex":4,"items":[{"name":"청기와뼈다귀해장국","tel":"032-345-5883","addr":"경기도 부천시 소사본동 278-54번지 1층 102호","indutype":"일반휴게음식 - 일반한식","category":"restaurant"}]},{"lat":"37.473461559","long":"126.79841213","imageIndex":4,"items":[{"name":"청두훠궈","tel":"032-349-8988","addr":"경기도 부천시 소사본동 198-33번지","indutype":"일반휴게음식 - 일반한식","category":"restaurant"}]},{"lat":"37.477402241","long":"126.79515675","imageIndex":4,"items":[{"name":"청진동해장국","tel":"032-345-4806","addr":"경기도 부천시 소사본동 140-21번지 외1필지","indutype":"일반휴게음식 - 일반한식","category":"restaurant"}]},{"lat":"37.472346047","long":"126.79940997","imageIndex":4,"items":[{"name":"초심회","tel":"070-4046-0095","addr":"경기도 부천시 소사본동 286-18번지 1층","indutype":"일반휴게음식 - 일식·회집","category":"restaurant"}]},{"lat":"37.480456659","long":"126.79518221","imageIndex":4,"items":[{"name":"촌가한정식","tel":"032-347-9710","addr":"경기도 부천시 소사본동 75-8번지","indutype":"일반휴게음식 - 일반한식","category":"restaurant"}]},{"lat":"37.476151945","long":"126.79634726","imageIndex":4,"items":[{"name":"최가네왕짬뽕","tel":"032-343-5466","addr":"경기도 부천시 소사본동 160-17번지 1층","indutype":"일반휴게음식 - 중국식","category":"restaurant"}]},{"lat":"37.470316491","long":"126.79807026","imageIndex":4,"items":[{"name":"최반장발발이추억족","tel":"032-663-5040","addr":"경기도 부천시 소사본동 222-58번지 1층 일부","indutype":"일반휴게음식 - 일반한식","category":"restaurant"}]},{"lat":"37.475739456","long":"126.79235768","imageIndex":4,"items":[{"name":"최진사치킨","tel":"032-347-8347","addr":"경기도 부천시 소사본동 166-3번지 1층","indutype":"일반휴게음식 - 스넥","category":"restaurant"}]},{"lat":"37.4752347","long":"126.79224605","imageIndex":4,"items":[{"name":"충남원중화요리","tel":"032-348-9814","addr":"경기도 부천시 소사본동 166-8번지","indutype":"일반휴게음식 - 중국식","category":"restaurant"}]},{"lat":"37.481127056","long":"126.79216167","imageIndex":4,"items":[{"name":"치킨집","tel":"032-345-9953","addr":"경기도 부천시 소사본동 93-30번지 1층","indutype":"일반휴게음식 - 일반한식","category":"restaurant"}]},{"lat":"37.476906736","long":"126.79518073","imageIndex":4,"items":[{"name":"친구네 정육식당","tel":"032-347-7700","addr":"경기도 부천시 소사본동 152-13번지 1층","indutype":"일반휴게음식 - 일반한식","category":"restaurant"}]},{"lat":"37.474986989","long":"126.79482428","imageIndex":4,"items":[{"name":"칭구따라","tel":"032-342-8292","addr":"경기도 부천시 소사본동 181번지 제1호","indutype":"일반휴게음식 - 주점","category":"restaurant"},{"name":"한잔비어","tel":"032-348-7567","addr":"경기도 부천시 소사본동 181번지 1층","indutype":"일반휴게음식 - 주점","category":"restaurant"}]},{"lat":"37.480016106","long":"126.7957148","imageIndex":4,"items":[{"name":"카페 지(G)","tel":"070-7365-0853","addr":"경기도 부천시 소사본동 128-13번지 1층","indutype":"일반휴게음식 - 서양음식","category":"restaurant"}]},{"lat":"37.479455232","long":"126.78938517","imageIndex":4,"items":[{"name":"카페드림 서울신학대 100주년기념관점","tel":"02-866-6451","addr":"경기도 부천시 소사본동 101-1번지 서울신학대학교 3층","indutype":"일반휴게음식 - 서양음식","category":"restaurant"},{"name":"크리스마스자몽","tel":"031-1111-1111","addr":"경기도 부천시 소사본동 101-1번지","indutype":"일반휴게음식 - 일반한식","category":"restaurant"}]},{"lat":"37.47248587","long":"126.79180158","imageIndex":4,"items":[{"name":"칼국수앤닭강정","tel":"","addr":"경기도 부천시 소사본동 206-3번지 1층","indutype":"일반휴게음식 - 일반한식","category":"restaurant"}]},{"lat":"37.475012709","long":"126.79924447","imageIndex":4,"items":[{"name":"칼맨호프양념치킨","tel":"032-348-7479","addr":"경기도 부천시 소사본동 197-9번지","indutype":"일반휴게음식 - 주점","category":"restaurant"}]},{"lat":"37.480621998","long":"126.79188044","imageIndex":4,"items":[{"name":"커피비","tel":"032-349-1550","addr":"경기도 부천시 소사본동 93-59","indutype":"일반휴게음식 - 서양음식","category":"restaurant"}]},{"lat":"37.475234059","long":"126.79699417","imageIndex":4,"items":[{"name":"커피에반하다 부천은성로점","tel":"070-8990-5893","addr":"경기도 부천시 소사본동 159-48번지 1층 일부","indutype":"일반휴게음식 - 서양음식","category":"restaurant"}]},{"lat":"37.479988303","long":"126.79527396","imageIndex":4,"items":[{"name":"코리안숯불닭바베큐","tel":"032-349-1818","addr":"경기도 부천시 소사본동 81-4번지","indutype":"일반휴게음식 - 스넥","category":"restaurant"}]},{"lat":"37.474959117","long":"126.79951594","imageIndex":4,"items":[{"name":"코아","tel":"032-328-6428","addr":"경기도 부천시 소사본동 197-1번지 뉴코아상가 202호","indutype":"일반휴게음식 - 서양음식","category":"restaurant"}]},{"lat":"37.469483222","long":"126.79557431","imageIndex":4,"items":[{"name":"쿠웨이트떡볶이","tel":"032-344-2213","addr":"경기도 부천시 소사본동 317-54번지 101호","indutype":"일반휴게음식 - 일반한식","category":"restaurant"}]},{"lat":"37.472293542","long":"126.79512567","imageIndex":4,"items":[{"name":"쿨쿨이와동부레기","tel":"032-345-9922","addr":"경기도 부천시 소사본동 215-6번지 대흥아트빌 101호","indutype":"일반휴게음식 - 일반한식","category":"restaurant"}]},{"lat":"37.478850503","long":"126.79382999","imageIndex":4,"items":[{"name":"토박이호프곰탕","tel":"032-326-9290","addr":"경기도 부천시 소사본동 77-28번지","indutype":"일반휴게음식 - 일반한식","category":"restaurant"}]},{"lat":"37.471042394","long":"126.79583001","imageIndex":4,"items":[{"name":"토종순대국","tel":"032-345-3983","addr":"경기도 부천시 소사본동 230-31번지 1층 전부","indutype":"일반휴게음식 - 일반한식","category":"restaurant"}]},{"lat":"37.469818883","long":"126.79688468","imageIndex":4,"items":[{"name":"투앤티어거스트(20-Aug)","tel":"","addr":"경기도 부천시 소사본동 229-15번지 1층","indutype":"일반휴게음식 - 주점","category":"restaurant"}]},{"lat":"37.478123967","long":"126.79568611","imageIndex":4,"items":[{"name":"패밀리양꼬치","tel":"032-221-5889","addr":"경기도 부천시 소사본동 139-25번지 1층 일부","indutype":"일반휴게음식 - 일반한식","category":"restaurant"}]},{"lat":"37.481264957","long":"126.7937102","imageIndex":4,"items":[{"name":"페리카나치킨","tel":"032-347-8157","addr":"경기도 부천시 소사본동 68-5번지 양지타운","indutype":"일반휴게음식 - 서양음식","category":"restaurant"}]},{"lat":"37.472792853","long":"126.79216246","imageIndex":4,"items":[{"name":"포근","tel":"032-346-9134","addr":"경기도 부천시 소사본동 211-29번지 1층","indutype":"일반휴게음식 - 스넥","category":"restaurant"}]},{"lat":"37.480677045","long":"126.79243428","imageIndex":4,"items":[{"name":"플라워맨카페","tel":"02-1111-1111","addr":"경기도 부천시 소사본동 96-34번지 1층","indutype":"일반휴게음식 - 서양음식","category":"restaurant"}]},{"lat":"37.471928463","long":"126.79760238","imageIndex":4,"items":[{"name":"하우스콜","tel":"032-346-0707","addr":"경기도 부천시 소사본동 219-29번지","indutype":"일반휴게음식 - 스넥","category":"restaurant"}]},{"lat":"37.474651825","long":"126.79896283","imageIndex":4,"items":[{"name":"한신회센타","tel":"032-349-3264","addr":"경기도 부천시 소사본동 196-19번지 1층","indutype":"일반휴게음식 - 일반한식","category":"restaurant"}]},{"lat":"37.468352466","long":"126.79815475","imageIndex":4,"items":[{"name":"한입두입","tel":"070-5022-4846","addr":"경기도 부천시 소사본동 400-1번지","indutype":"일반휴게음식 - 일반한식","category":"restaurant"}]},{"lat":"37.473570636","long":"126.79896577","imageIndex":4,"items":[{"name":"행복이가득한분식","tel":"032-342-6689","addr":"경기도 부천시 소사본동 198-28번지","indutype":"일반휴게음식 - 스넥","category":"restaurant"},{"name":"행복이가득한분식","tel":"032-347-6788","addr":"경기도 부천시 소사본동 198-28번지","indutype":"일반휴게음식 - 스넥","category":"restaurant"}]},{"lat":"37.475515291","long":"126.7981013","imageIndex":4,"items":[{"name":"행족","tel":"","addr":"경기도 부천시 소사본동 158-39번지 2층","indutype":"일반휴게음식 - 일반한식","category":"restaurant"}]},{"lat":"37.476873389","long":"126.79671834","imageIndex":4,"items":[{"name":"호식이두마리치킨소사점","tel":"032-341-8292","addr":"경기도 부천시 소사본동 154-29번지 1층","indutype":"일반휴게음식 - 스넥","category":"restaurant"}]},{"lat":"37.478592918","long":"126.79593354","imageIndex":4,"items":[{"name":"홍우정","tel":"032-346-8474","addr":"경기도 부천시 소사본동 126-11번지","indutype":"일반휴게음식 - 일반한식","category":"restaurant"}]},{"lat":"37.478905282","long":"126.79423684","imageIndex":4,"items":[{"name":"홍이모 옛날통닭","tel":"032-349-9333","addr":"경기도 부천시 소사본동 78-38번지","indutype":"일반휴게음식 - 일반한식","category":"restaurant"}]},{"lat":"37.477122565","long":"126.80013187","imageIndex":4,"items":[{"name":"홍콩반점","tel":"032-347-7882","addr":"경기도 부천시 소사본동 135번지 소사에스케이뷰 상가동 112호 111","indutype":"일반휴게음식 - 중국식","category":"restaurant"}]},{"lat":"37.479763055","long":"126.79527458","imageIndex":4,"items":[{"name":"화오양꼬치","tel":"032-348-3700","addr":"경기도 부천시 소사본동 81-16번지 1층","indutype":"일반휴게음식 - 일반한식","category":"restaurant"}]},{"lat":"37.47751046","long":"126.79521298","imageIndex":4,"items":[{"name":"황소숯불한마당","tel":"032-342-0450","addr":"경기도 부천시 소사본동 140-20번지 1층","indutype":"일반휴게음식 - 일반한식","category":"restaurant"}]},{"lat":"37.472599979","long":"126.79518135","imageIndex":4,"items":[{"name":"흠경샤브꼬치성","tel":"032-661-8123","addr":"경기도 부천시 소사본동 204-15번지","indutype":"일반휴게음식 - 중국식","category":"restaurant"}]}]