[{"lat":"37.616339261","long":"127.13901385","imageIndex":0,"items":[{"name":"(주)교문자동차공업사","tel":"031-567-8291","addr":"경기도 구리시 인창동 71번지","indutype":"자동차정비 유지 - 자동차정비","category":"car"}]},{"lat":"37.616448121","long":"127.13836844","imageIndex":0,"items":[{"name":"(주)남양자동차매매상사","tel":"031-562-5471","addr":"경기도 구리시 인창동 72-7번지 72-15,31-33번지","indutype":"자동차판매 - 중고자동차판매","category":"car"}]},{"lat":"37.621139525","long":"127.14067636","imageIndex":0,"items":[{"name":"(주)디테일링스퀘어","tel":"031-554-3034","addr":"경기도 구리시 인창동 15-3번지 1층","indutype":"자동차정비 유지 - 세차장","category":"car"},{"name":"에이스모터피아","tel":"031-553-5020","addr":"경기도 구리시 인창동 15-3번지","indutype":"자동차판매 - 이륜차판매","category":"car"}]},{"lat":"37.601891966","long":"127.13518259","imageIndex":0,"items":[{"name":"(주)차사랑모터스","tel":"031-553-2100","addr":"경기도 구리시 인창동 605-7번지","indutype":"자동차판매 - 중고자동차판매","category":"car"},{"name":"예일","tel":"031-567-5845","addr":"경기도 구리시 인창동 605-7번지","indutype":"자동차정비 유지 - 자동차부품","category":"car"},{"name":"유워시셀프세차","tel":"031-512-5053","addr":"경기도 구리시 인창동 605-7번지","indutype":"자동차정비 유지 - 세차장","category":"car"}]},{"lat":"37.624004787","long":"127.14053439","imageIndex":0,"items":[{"name":"LG오토오아시스","tel":"031-563-9850","addr":"경기도 구리시 인창동 7-7번지","indutype":"자동차정비 유지 - 자동차정비","category":"car"}]},{"lat":"37.607890036","long":"127.12917958","imageIndex":0,"items":[{"name":"경기차유리구리점","tel":"031-565-6282","addr":"경기도 구리시 인창동 648-48번지","indutype":"자동차정비 유지 - 자동차부품","category":"car"}]},{"lat":"37.602841167","long":"127.13231922","imageIndex":0,"items":[{"name":"교문리오토바이","tel":"031-552-7691","addr":"경기도 구리시 인창동 563-72번지","indutype":"자동차판매 - 이륜차판매","category":"car"}]},{"lat":"37.614836326","long":"127.13753871","imageIndex":0,"items":[{"name":"구리렉카, 타이어","tel":"031-563-8255","addr":"경기도 구리시 인창동 78번지","indutype":"자동차정비 유지 - 자동차시트·타이어","category":"car"},{"name":"사능렉카","tel":"031-553-4949","addr":"경기도 구리시 인창동 78번지","indutype":"자동차정비 유지 - 견인서비스","category":"car"}]},{"lat":"37.618673211","long":"127.13864432","imageIndex":0,"items":[{"name":"구리밧데리","tel":"031-562-2605","addr":"경기도 구리시 인창동 56번지","indutype":"자동차정비 유지 - 자동차정비","category":"car"},{"name":"장군점","tel":"031-551-0731","addr":"경기도 구리시 인창동 56","indutype":"자동차정비 유지 - 자동차부품","category":"car"}]},{"lat":"37.602392161","long":"127.13095952","imageIndex":0,"items":[{"name":"국민카인테리어","tel":"031-565-1538","addr":"경기도 구리시 인창동 562-10번지","indutype":"자동차정비 유지 - 카인테리어","category":"car"}]},{"lat":"37.617114802","long":"127.13840363","imageIndex":0,"items":[{"name":"균'S카케어","tel":"031-554-3660","addr":"경기도 구리시 인창동 31-11번지 1동","indutype":"자동차정비 유지 - 세차장","category":"car"},{"name":"한국구리동구릉타이어","tel":"031-564-8931","addr":"경기도 구리시 인창동 31-11번지","indutype":"자동차정비 유지 - 자동차시트·타이어","category":"car"}]},{"lat":"37.611283767","long":"127.13989936","imageIndex":0,"items":[{"name":"극동정유 주식회사 인창사업소","tel":"031-499-8141","addr":"경기도 구리시 인창동 701-2번지","indutype":"자동차정비 유지 - 주차장","category":"car"}]},{"lat":"37.611647084","long":"127.14504188","imageIndex":0,"items":[{"name":"농수산실업","tel":"031-555-3146","addr":"경기도 구리시 인창동 127번지","indutype":"자동차정비 유지 - 세차장","category":"car"},{"name":"유진자동차공업사","tel":"031-555-5303","addr":"경기도 구리시 인창동 127번지","indutype":"자동차정비 유지 - 자동차정비","category":"car"}]},{"lat":"37.617223904","long":"127.13754301","imageIndex":0,"items":[{"name":"뉴산호시트","tel":"031-4068-2747","addr":"경기도 구리시 인창동 31-31번지","indutype":"자동차정비 유지 - 자동차부품","category":"car"}]},{"lat":"37.613341843","long":"127.13653933","imageIndex":0,"items":[{"name":"달빛광택","tel":"","addr":"경기도 구리시 인창동 480번지 우방아이유쉘 102동 1105호","indutype":"자동차정비 유지 - 카인테리어","category":"car"}]},{"lat":"37.60955847","long":"127.13589834","imageIndex":0,"items":[{"name":"대웅카세차장","tel":"031-551-2500","addr":"경기도 구리시 인창동 458-20","indutype":"자동차정비 유지 - 세차장","category":"car"}]},{"lat":"37.609531747","long":"127.13562649","imageIndex":0,"items":[{"name":"도원상사","tel":"031-569-5785","addr":"경기도 구리시 인창동 458-18번지","indutype":"자동차정비 유지 - 자동차부품","category":"car"}]},{"lat":"37.616756068","long":"127.1369532","imageIndex":0,"items":[{"name":"동구릉주차장","tel":"031-557-2909","addr":"경기도 구리시 인창동 56-22, 66-1","indutype":"자동차정비 유지 - 주차장","category":"car"}]},{"lat":"37.61936412","long":"127.14109218","imageIndex":0,"items":[{"name":"동창공업사","tel":"031-555-3932","addr":"경기도 구리시 인창동 24-4번지","indutype":"자동차정비 유지 - 자동차정비","category":"car"}]},{"lat":"37.601533255","long":"127.14156877","imageIndex":0,"items":[{"name":"리맥스관리단","tel":"","addr":"경기도 구리시 인창동 676-1번지 리맥스빌딩","indutype":"자동차정비 유지 - 주차장","category":"car"}]},{"lat":"37.602279017","long":"127.13551168","imageIndex":0,"items":[{"name":"병아리모터스","tel":"031-557-3156","addr":"경기도 구리시 인창동 604-6번지 1층","indutype":"자동차판매 - 이륜차판매","category":"car"}]},{"lat":"37.612836165","long":"127.1375351","imageIndex":0,"items":[{"name":"블루모터스","tel":"031-555-1119","addr":"경기도 구리시 인창동 446-7번지","indutype":"자동차정비 유지 - 자동차정비","category":"car"}]},{"lat":"37.604758824","long":"127.14150681","imageIndex":0,"items":[{"name":"세신인창종합상가관리단","tel":"031-552-9525","addr":"경기도 구리시 인창동 672-2번지 세신인창종합상가","indutype":"자동차정비 유지 - 주차장","category":"car"}]},{"lat":"37.619140684","long":"127.13953999","imageIndex":0,"items":[{"name":"세진상사","tel":"031-558-4252","addr":"경기도 구리시 인창동 49-3번지","indutype":"자동차정비 유지 - 윤활유 전문 판매","category":"car"}]},{"lat":"37.610142409","long":"127.13739434","imageIndex":0,"items":[{"name":"슈퍼카서비스","tel":"031-566-8297","addr":"경기도 구리시 인창동 411-4번지","indutype":"자동차정비 유지 - 자동차정비","category":"car"}]},{"lat":"37.602616987","long":"127.13134494","imageIndex":0,"items":[{"name":"스피드메이트 교문점","tel":"031-569-6446","addr":"경기도 구리시 인창동 562-36번지","indutype":"자동차정비 유지 - 자동차정비","category":"car"}]},{"lat":"37.601092825","long":"127.14067335","imageIndex":0,"items":[{"name":"쌍용타워","tel":"031-563-2262","addr":"경기도 구리시 인창동 264-4번지 구리쌍용선스타워플래티넘오피스텔 1층","indutype":"자동차정비 유지 - 주차장","category":"car"}]},{"lat":"37.615917661","long":"127.13739342","imageIndex":0,"items":[{"name":"오디오프라자","tel":"031-555-8989","addr":"경기도 구리시 인창동 76-10번지 1층","indutype":"자동차정비 유지 - 자동차부품","category":"car"},{"name":"카앤피플 구리지점","tel":"031-563-3133","addr":"경기도 구리시 인창동 76-10번지","indutype":"자동차정비 유지 - 세차장","category":"car"}]},{"lat":"37.610904814","long":"127.13240114","imageIndex":0,"items":[{"name":"오토애프터(auto after)","tel":"070-7198-5857","addr":"경기도 구리시 인창동 491-1번지 아름마을 503동 801호","indutype":"자동차정비 유지 - 자동차부품","category":"car"}]},{"lat":"37.603532501","long":"127.13450603","imageIndex":0,"items":[{"name":"오토오아시스 구리인창점","tel":"031-555-7787","addr":"경기도 구리시 인창동 571-1번지","indutype":"자동차정비 유지 - 자동차정비","category":"car"}]},{"lat":"37.61269716","long":"127.14087597","imageIndex":0,"items":[{"name":"오토오아시스 롯데마트 구리점","tel":"031-554-2111","addr":"경기도 구리시 인창동 430번지 롯데마트구리점 1층 경정비코너","indutype":"자동차정비 유지 - 자동차정비","category":"car"}]},{"lat":"37.604253835","long":"127.13400902","imageIndex":0,"items":[{"name":"오토캠프스포츠","tel":"031-552-3923","addr":"경기도 구리시 인창동 576-81번지","indutype":"자동차정비 유지 - 자동차부품","category":"car"}]},{"lat":"37.604751244","long":"127.14028374","imageIndex":0,"items":[{"name":"옥토스카","tel":"031-551-7387","addr":"경기도 구리시 인창동 670-5번지 삼원골드프라자 606호 605호, 606호","indutype":"자동차정비 유지 - 자동차부품","category":"car"}]},{"lat":"37.608255152","long":"127.13312136","imageIndex":0,"items":[{"name":"용현카센타","tel":"031-551-7700","addr":"경기도 구리시 인창동 651-30번지","indutype":"자동차정비 유지 - 자동차정비","category":"car"}]},{"lat":"37.603255255","long":"127.13264834","imageIndex":0,"items":[{"name":"인창점기아오토큐","tel":"031-557-2723","addr":"경기도 구리시 인창동 563-70번지","indutype":"자동차정비 유지 - 자동차부품","category":"car"}]},{"lat":"37.611980202","long":"127.13756754","imageIndex":0,"items":[{"name":"인창특수","tel":"031-557-3377","addr":"경기도 구리시 인창동 450-3번지","indutype":"자동차정비 유지 - 견인서비스","category":"car"}]},{"lat":"37.615645355","long":"127.1391485","imageIndex":0,"items":[{"name":"전국자동차3급공업사","tel":"031-567-0161","addr":"경기도 구리시 인창동 73-2번지","indutype":"자동차정비 유지 - 자동차정비","category":"car"}]},{"lat":"37.608979286","long":"127.13815104","imageIndex":0,"items":[{"name":"중앙빌딩","tel":"070-8789-0423","addr":"경기도 구리시 인창동 412-14번지 중앙빌딩","indutype":"자동차정비 유지 - 주차장","category":"car"}]},{"lat":"37.601729295","long":"127.13562395","imageIndex":0,"items":[{"name":"카프린스","tel":"031-557-7349","addr":"경기도 구리시 인창동 606-1번지","indutype":"자동차정비 유지 - 카인테리어","category":"car"}]},{"lat":"37.611394788","long":"127.13737395","imageIndex":0,"items":[{"name":"타이어클럽","tel":"031-565-8208","addr":"경기도 구리시 인창동 450-15번지","indutype":"자동차정비 유지 - 자동차시트·타이어","category":"car"}]},{"lat":"37.603757276","long":"127.13492543","imageIndex":0,"items":[{"name":"태화카써비스","tel":"031-553-5358","addr":"경기도 구리시 인창동 569번지","indutype":"자동차정비 유지 - 자동차정비","category":"car"}]},{"lat":"37.603364228","long":"127.13186714","imageIndex":0,"items":[{"name":"톰슨워시하우스구리인창점","tel":"031-553-5355","addr":"경기도 구리시 인창동 560-1번지 1층","indutype":"자동차정비 유지 - 세차장","category":"car"}]},{"lat":"37.605146787","long":"127.14104322","imageIndex":0,"items":[{"name":"파킹프라자","tel":"031-565-0410","addr":"경기도 구리시 인창동 671-1번지","indutype":"자동차정비 유지 - 주차장","category":"car"}]},{"lat":"37.602701704","long":"127.14394905","imageIndex":0,"items":[{"name":"프리미엄세차장","tel":"031-556-1101","addr":"경기도 구리시 인창동 677번지 롯데백화점구리점 지하3층","indutype":"자동차정비 유지 - 세차장","category":"car"}]},{"lat":"37.604479292","long":"127.1338169","imageIndex":0,"items":[{"name":"한국타이어경기대리점","tel":"031-556-0909","addr":"경기도 구리시 인창동 576-22번지","indutype":"자동차정비 유지 - 자동차시트·타이어","category":"car"}]},{"lat":"37.619195905","long":"127.138532","imageIndex":0,"items":[{"name":"한라.만도상사","tel":"031-555-1317","addr":"경기도 구리시 인창동 53번지","indutype":"자동차정비 유지 - 자동차정비","category":"car"}]},{"lat":"37.601278616","long":"127.13579301","imageIndex":0,"items":[{"name":"현덴트","tel":"031-554-7282","addr":"경기도 구리시 인창동 607-11번지 1층","indutype":"자동차정비 유지 - 카인테리어","category":"car"}]}]