[{"lat":"37.317145947","long":"126.79338742","imageIndex":4,"items":[{"name":"(주)신세계푸드신흥","tel":"02-3397-6176","addr":"경기도 안산시 단원구 원시동 769-14번지","indutype":"일반휴게음식 - 위탁급식업","category":"restaurant"}]},{"lat":"37.298504997","long":"126.78407794","imageIndex":4,"items":[{"name":"(주)아워홈 엘에스오토티브안산1점","tel":"031-430-9158","addr":"경기도 안산시 단원구 원시동 743-5번지 1층","indutype":"일반휴게음식 - 위탁급식업","category":"restaurant"}]},{"lat":"37.321062853","long":"126.78696842","imageIndex":4,"items":[{"name":"(주)아워홈서울반도체2공장점","tel":"031-364-0793","addr":"경기도 안산시 단원구 원시동 816-5번지","indutype":"일반휴게음식 - 위탁급식업","category":"restaurant"}]},{"lat":"37.316398301","long":"126.78355227","imageIndex":4,"items":[{"name":"(주)아워홈안산영업소","tel":"02-510-0877","addr":"경기도 안산시 단원구 원시동 723-1번지 반월공단 1B62호","indutype":"일반휴게음식 - 위탁급식업","category":"restaurant"},{"name":"(주)아워홈안산영업소/안산공장사원식당점","tel":"070-8299-4990","addr":"경기도 안산시 단원구 원시동 723-1번지 구내식당 4층","indutype":"일반휴게음식 - 위탁급식업","category":"restaurant"}]},{"lat":"37.296148264","long":"126.78135544","imageIndex":4,"items":[{"name":"(주)제성씨엔엠 태성점","tel":"070-5039-7546","addr":"경기도 안산시 단원구 원시동 824-5번지","indutype":"일반휴게음식 - 위탁급식업","category":"restaurant"},{"name":"(주)후니드 태성점","tel":"070-5039-7546","addr":"경기도 안산시 단원구 원시동 824-5번지 1층 (주)태성 직원식당","indutype":"일반휴게음식 - 위탁급식업","category":"restaurant"}]},{"lat":"37.31606452","long":"126.78824621","imageIndex":4,"items":[{"name":"1블럭한식","tel":"070-8885-1557","addr":"경기도 안산시 단원구 원시동 725-6번지","indutype":"일반휴게음식 - 위탁급식업","category":"restaurant"}]},{"lat":"37.312863467","long":"126.79702041","imageIndex":4,"items":[{"name":"2루72","tel":"031-492-8872","addr":"경기도 안산시 단원구 원시동 777-6번지 반월공단종합상가 213호","indutype":"일반휴게음식 - 일반한식","category":"restaurant"},{"name":"가비","tel":"031-000-0000","addr":"경기도 안산시 단원구 원시동 777-6번지 반월공단종합상가 207호","indutype":"일반휴게음식 - 서양음식","category":"restaurant"},{"name":"개성진순대","tel":"031-495-8635","addr":"경기도 안산시 단원구 원시동 777-6번지 지원종합상가 지하1층 110호","indutype":"일반휴게음식 - 일반한식","category":"restaurant"},{"name":"공단소고기국밥","tel":"031-492-6004","addr":"경기도 안산시 단원구 원시동 777-6 종합상가120호~123호","indutype":"일반휴게음식 - 일반한식","category":"restaurant"},{"name":"군산복집","tel":"031-493-2787","addr":"경기도 안산시 단원구 원시동 777-6번지 반월종합상가 가동 219호","indutype":"일반휴게음식 - 일반한식","category":"restaurant"},{"name":"달달한스토리","tel":"031-111-1111","addr":"경기도 안산시 단원구 원시동 777-6번지 반월공단종합상가 133호","indutype":"일반휴게음식 - 서양음식","category":"restaurant"},{"name":"더커피나무","tel":"031-493-3235","addr":"경기도 안산시 단원구 원시동 777-6번지 반월공단종합상가 147호","indutype":"일반휴게음식 - 서양음식","category":"restaurant"},{"name":"맛고을한식부페","tel":"031-413-3454","addr":"경기도 안산시 단원구 원시동 777-6번지 반월공단종합상가 218호","indutype":"일반휴게음식 - 일반한식","category":"restaurant"},{"name":"맛사람","tel":"031-493-3795","addr":"경기도 안산시 단원구 원시동 777-6번지 반월종합상가 지하층 8호","indutype":"일반휴게음식 - 일반한식","category":"restaurant"},{"name":"석기정","tel":"031-495-2117","addr":"경기도 안산시 단원구 원시동 777-6번지 지원종합상가 2266호","indutype":"일반휴게음식 - 일반한식","category":"restaurant"},{"name":"스마트허브","tel":"031-495-5749","addr":"경기도 안산시 단원구 원시동 777-6번지 반월종합상가 217호","indutype":"일반휴게음식 - 일반한식","category":"restaurant"},{"name":"안가식당","tel":"031-493-0006","addr":"경기도 안산시 단원구 원시동 777-6번지 지원종합상가 135호","indutype":"일반휴게음식 - 일반한식","category":"restaurant"},{"name":"원조대구탕","tel":"031-491-2313","addr":"경기도 안산시 단원구 원시동 777-6번지 반월공단종합상가 221호","indutype":"일반휴게음식 - 일반한식","category":"restaurant"},{"name":"일미정","tel":"031-494-2350","addr":"경기도 안산시 단원구 원시동 777-6번지 반월공단종합상가 211동 212호","indutype":"일반휴게음식 - 일반한식","category":"restaurant"},{"name":"임가네녹두삼계탕","tel":"031-493-7831","addr":"경기도 안산시 단원구 원시동 777-6번지","indutype":"일반휴게음식 - 일반한식","category":"restaurant"},{"name":"자매네찌개전문점","tel":"031-406-5252","addr":"경기도 안산시 단원구 원시동 777-6번지 반월공단종합상가 220호","indutype":"일반휴게음식 - 일반한식","category":"restaurant"},{"name":"진천식당","tel":"031-493-9198","addr":"경기도 안산시 단원구 원시동 777-6번지 1층","indutype":"일반휴게음식 - 일반한식","category":"restaurant"},{"name":"쪽","tel":"031-503-7001","addr":"경기도 안산시 단원구 원시동 777-6번지 반월공단종합상가 114호","indutype":"일반휴게음식 - 일반한식","category":"restaurant"},{"name":"참사랑푸드","tel":"","addr":"경기도 안산시 단원구 원시동 777-6번지 반월공단종합상가 G동 1층 04호","indutype":"일반휴게음식 - 일반한식","category":"restaurant"},{"name":"초가마을","tel":"031-413-3325","addr":"경기도 안산시 단원구 원시동 777-6번지 반월공단종합상가 222호","indutype":"일반휴게음식 - 일반한식","category":"restaurant"},{"name":"커피콩","tel":"031-494-8033","addr":"경기도 안산시 단원구 원시동 777-6번지 반월공단종합상가 131호","indutype":"일반휴게음식 - 서양음식","category":"restaurant"},{"name":"퍼팩트","tel":"031-494-1744","addr":"경기도 안산시 단원구 원시동 777-6번지 211,212호","indutype":"일반휴게음식 - 일반한식","category":"restaurant"},{"name":"할매추어탕","tel":"031-493-1706","addr":"경기도 안산시 단원구 원시동 777-6번지","indutype":"일반휴게음식 - 일반한식","category":"restaurant"},{"name":"행복한밥상","tel":"031-484-7216","addr":"경기도 안산시 단원구 원시동 777-6번지 반월공단종합상가 216호","indutype":"일반휴게음식 - 일반한식","category":"restaurant"},{"name":"현빛나김밥&도시락","tel":"031-495-7935","addr":"경기도 안산시 단원구 원시동 777-6번지 반월공단종합상가 124호","indutype":"일반휴게음식 - 일반한식","category":"restaurant"},{"name":"후니돈까스","tel":"031-504-9009","addr":"경기도 안산시 단원구 원시동 777-6번지 반월공단종합상가 2층 224호","indutype":"일반휴게음식 - 일반한식","category":"restaurant"},{"name":"희욱이네고추장갈비","tel":"031-492-7357","addr":"경기도 안산시 단원구 원시동 777-6번지 반월종합상가 136호","indutype":"일반휴게음식 - 일반한식","category":"restaurant"}]},{"lat":"37.319058879","long":"126.78494346","imageIndex":4,"items":[{"name":"가정식부페","tel":"031-493-3909","addr":"경기도 안산시 단원구 원시동 818-5번지 B103 - B106호","indutype":"일반휴게음식 - 일반한식","category":"restaurant"},{"name":"카페모카","tel":"031-493-7333","addr":"경기도 안산시 단원구 원시동 818-5번지 지하1층 102호 비","indutype":"일반휴게음식 - 서양음식","category":"restaurant"}]},{"lat":"37.301983612","long":"126.78444007","imageIndex":4,"items":[{"name":"강성구내식당","tel":"031-494-5418","addr":"경기도 안산시 단원구 원시동 739-2번지 1층","indutype":"일반휴게음식 - 위탁급식업","category":"restaurant"}]},{"lat":"37.314287465","long":"126.79724214","imageIndex":4,"items":[{"name":"객잔","tel":"031-491-9985","addr":"경기도 안산시 단원구 원시동 773-9 지하1층 114-1호","indutype":"일반휴게음식 - 중국식","category":"restaurant"},{"name":"깊은바다","tel":"031-491-0550","addr":"경기도 안산시 단원구 원시동 773-9번지 무역센터 지하 1층 111호","indutype":"일반휴게음식 - 일식·회집","category":"restaurant"},{"name":"다인","tel":"031-494-7757","addr":"경기도 안산시 단원구 원시동 773-9번지 이마트 지층 110호","indutype":"일반휴게음식 - 일반한식","category":"restaurant"},{"name":"다전","tel":"031-495-9580","addr":"경기도 안산시 단원구 원시동 773-9번지 이마트백화점 B109호","indutype":"일반휴게음식 - 일반한식","category":"restaurant"},{"name":"더테라스","tel":"031-493-1818","addr":"경기도 안산시 단원구 원시동 773-9번지 1층 108호,109호","indutype":"일반휴게음식 - 일반한식","category":"restaurant"},{"name":"미꾸라지 매운탕","tel":"","addr":"경기도 안산시 단원구 원시동 773-9번지 지하1층 117호","indutype":"일반휴게음식 - 일반한식","category":"restaurant"},{"name":"복전문점복청(반월공단점)","tel":"031-491-0086","addr":"경기도 안산시 단원구 원시동 773-9번지 무역센터지하201,202호 103호","indutype":"일반휴게음식 - 일반한식","category":"restaurant"},{"name":"본가한식뷔페","tel":"","addr":"경기도 안산시 단원구 원시동 773-9번지 B1층 101호","indutype":"일반휴게음식 - 일반한식","category":"restaurant"},{"name":"여디디야","tel":"031-438-7520","addr":"경기도 안산시 단원구 원시동 773-9번지 이마트 1층 106호","indutype":"일반휴게음식 - 스넥","category":"restaurant"},{"name":"은혜식당","tel":"031-495-9467","addr":"경기도 안산시 단원구 원시동 773-9번지 이마트 지하1층 104호","indutype":"일반휴게음식 - 일반한식","category":"restaurant"},{"name":"음식마을","tel":"031-491-0353","addr":"경기도 안산시 단원구 원시동 773-9번지","indutype":"일반휴게음식 - 일반한식","category":"restaurant"},{"name":"일미식당","tel":"031-495-2870","addr":"경기도 안산시 단원구 원시동 773-9번지 무역센터 지하층 111호","indutype":"일반휴게음식 - 일반한식","category":"restaurant"},{"name":"장원부대감자탕","tel":"031-492-0666","addr":"경기도 안산시 단원구 원시동 773-9번지 서부공단전시판매센타 B112호","indutype":"일반휴게음식 - 일반한식","category":"restaurant"},{"name":"카페빌롱","tel":"031-491-4680","addr":"경기도 안산시 단원구 원시동 773-9번지 103호,104호","indutype":"일반휴게음식 - 스넥","category":"restaurant"},{"name":"통일칼국수안산점","tel":"031-495-5904","addr":"경기도 안산시 단원구 원시동 773-9번지 이마트 502호","indutype":"일반휴게음식 - 일반한식","category":"restaurant"},{"name":"현스넥","tel":"031-495-0205","addr":"경기도 안산시 단원구 원시동 773-9번지 이마트 지하층 105호","indutype":"일반휴게음식 - 일반한식","category":"restaurant"}]},{"lat":"37.313426233","long":"126.7994104","imageIndex":4,"items":[{"name":"고니식당","tel":"02-111-1111","addr":"경기도 안산시 단원구 원시동 775-2번지 (주)엔트로피, (주)광은전자 A동 4층","indutype":"일반휴게음식 - 일반한식","category":"restaurant"}]},{"lat":"37.298895861","long":"126.78593777","imageIndex":4,"items":[{"name":"고창식당","tel":"","addr":"경기도 안산시 단원구 원시동 785-6번지","indutype":"일반휴게음식 - 위탁급식업","category":"restaurant"}]},{"lat":"37.300091776","long":"126.77977613","imageIndex":4,"items":[{"name":"구내식당","tel":"","addr":"경기도 안산시 단원구 원시동 742-5번지 2층","indutype":"일반휴게음식 - 위탁급식업","category":"restaurant"}]},{"lat":"37.309175758","long":"126.78552472","imageIndex":4,"items":[{"name":"구내식당","tel":"031-494-4505","addr":"경기도 안산시 단원구 원시동 729-1번지 한국신문잉크(주)제2공장 A동 1층 101호","indutype":"일반휴게음식 - 위탁급식업","category":"restaurant"}]},{"lat":"37.306368525","long":"126.78768722","imageIndex":4,"items":[{"name":"김밥천국(반월공단점)","tel":"031-494-1001","addr":"경기도 안산시 단원구 원시동 730-1 JS테크노타워지식산업센터A동107,108호","indutype":"일반휴게음식 - 스넥","category":"restaurant"},{"name":"더커피","tel":"031-494-7227","addr":"경기도 안산시 단원구 원시동 730-1번지 JS테크노타워지식산업센터 A동 107호","indutype":"일반휴게음식 - 서양음식","category":"restaurant"},{"name":"서울옥","tel":"","addr":"경기도 안산시 단원구 원시동 730-1번지 JS테크노타워공장 A동 109호 110호","indutype":"일반휴게음식 - 일반한식","category":"restaurant"}]},{"lat":"37.298505281","long":"126.78916456","imageIndex":4,"items":[{"name":"낙원식당","tel":"031-414-0610","addr":"경기도 안산시 단원구 원시동 833-10번지 1층","indutype":"일반휴게음식 - 일반한식","category":"restaurant"}]},{"lat":"37.305421204","long":"126.78700187","imageIndex":4,"items":[{"name":"노커스","tel":"031-495-7988","addr":"경기도 안산시 단원구 원시동 731-4번지 서흥테크노밸리 137호 138호","indutype":"일반휴게음식 - 일반한식","category":"restaurant"},{"name":"서흥반점","tel":"031-508-9808","addr":"경기도 안산시 단원구 원시동 731-4번지 서흥테크노밸리 106동 107호","indutype":"일반휴게음식 - 중국식","category":"restaurant"},{"name":"소박사","tel":"031-508-8787","addr":"경기도 안산시 단원구 원시동 731-4번지 서흥테크노밸리 108,109호","indutype":"일반휴게음식 - 일반한식","category":"restaurant"},{"name":"오서방닭개장","tel":"031-495-7120","addr":"경기도 안산시 단원구 원시동 731-4번지 서흥테크노밸리 101-3,101-4","indutype":"일반휴게음식 - 일반한식","category":"restaurant"},{"name":"용추골순대국","tel":"031-495-9308","addr":"경기도 안산시 단원구 원시동 731-4번지 서흥테크노벨리 1층 102,130호","indutype":"일반휴게음식 - 일반한식","category":"restaurant"},{"name":"우영푸드","tel":"031-508-9508","addr":"경기도 안산시 단원구 원시동 731-4 서흥테크노벨리6층608,609,610,611호","indutype":"일반휴게음식 - 일반한식","category":"restaurant"},{"name":"월수금 통돼지 안산반월공단점","tel":"031-508-9229","addr":"경기도 안산시 단원구 원시동 731-4번지 115-117호","indutype":"일반휴게음식 - 일반한식","category":"restaurant"},{"name":"전주한정식부페","tel":"031-508-8550","addr":"경기도 안산시 단원구 원시동 731-4번지 서흥테크노밸리 110동 113호","indutype":"일반휴게음식 - 위탁급식업","category":"restaurant"},{"name":"전주한정식부페","tel":"031-508-8550","addr":"경기도 안산시 단원구 원시동 731-4번지","indutype":"일반휴게음식 - 일반한식","category":"restaurant"},{"name":"커피판다","tel":"031-508-9966","addr":"경기도 안산시 단원구 원시동 731-4번지 서흥테크노밸리 129호","indutype":"일반휴게음식 - 서양음식","category":"restaurant"},{"name":"큰삼촌네","tel":"031-508-8512","addr":"경기도 안산시 단원구 원시동 731-4번지 서흥테크노벨리 127.128호","indutype":"일반휴게음식 - 일반한식","category":"restaurant"},{"name":"행복한밥상","tel":"031-111-1111","addr":"경기도 안산시 단원구 원시동 731-4번지","indutype":"일반휴게음식 - 일반한식","category":"restaurant"}]},{"lat":"37.305515603","long":"126.78937031","imageIndex":4,"items":[{"name":"다원","tel":"031-491-8762","addr":"경기도 안산시 단원구 원시동 781-4번지 (주)청솔이앤씨단지 가동 104호","indutype":"일반휴게음식 - 위탁급식업","category":"restaurant"}]},{"lat":"37.31305717","long":"126.78938283","imageIndex":4,"items":[{"name":"만석골한식부페","tel":"031-430-0017","addr":"경기도 안산시 단원구 원시동 726-9번지 1층 일부","indutype":"일반휴게음식 - 위탁급식업","category":"restaurant"}]},{"lat":"37.300617817","long":"126.78161303","imageIndex":4,"items":[{"name":"명진식당","tel":"031-493-7524","addr":"경기도 안산시 단원구 원시동 741-3번지","indutype":"일반휴게음식 - 일반한식","category":"restaurant"},{"name":"빛나셀프식당","tel":"031-493-7524","addr":"경기도 안산시 단원구 원시동 741-3번지 1층","indutype":"일반휴게음식 - 위탁급식업","category":"restaurant"}]},{"lat":"37.300394659","long":"126.78763657","imageIndex":4,"items":[{"name":"미디안식당","tel":"031-123-1234","addr":"경기도 안산시 단원구 원시동 784-1번지 1층","indutype":"일반휴게음식 - 위탁급식업","category":"restaurant"}]},{"lat":"37.319840345","long":"126.78855136","imageIndex":4,"items":[{"name":"부산아지메","tel":"031-493-2156","addr":"경기도 안산시 단원구 원시동 768-5번지 반월하이테크빌리지 A동 106호","indutype":"일반휴게음식 - 일반한식","category":"restaurant"},{"name":"원시골섞어찌개","tel":"031-493-1603","addr":"경기도 안산시 단원구 원시동 768-5번지 반월하이테크빌리지 A동 104호","indutype":"일반휴게음식 - 일반한식","category":"restaurant"},{"name":"치킨플러스 (반월공단점)","tel":"031-494-3236","addr":"경기도 안산시 단원구 원시동 768-5번지 반월하이테크빌리지 A동 201-1호","indutype":"일반휴게음식 - 스넥","category":"restaurant"},{"name":"하이테크구내식당","tel":"031-494-7653","addr":"경기도 안산시 단원구 원시동 768-5번지 반월하이테크빌리지 A동 112호","indutype":"일반휴게음식 - 일반한식","category":"restaurant"},{"name":"호미","tel":"031-493-2889","addr":"경기도 안산시 단원구 원시동 768-5번지 반월하이테크빌리지 A동 102호","indutype":"일반휴게음식 - 일반한식","category":"restaurant"}]},{"lat":"37.310863464","long":"126.79205121","imageIndex":4,"items":[{"name":"삼성웰스토리 (주) 영풍전자플렉스타워","tel":"031-5171-1192","addr":"경기도 안산시 단원구 원시동 778-3번지 6층","indutype":"일반휴게음식 - 위탁급식업","category":"restaurant"},{"name":"삼성웰스토리 (주)영풍전자플렉스타워카페","tel":"031-5171-1192","addr":"경기도 안산시 단원구 원시동 778-3번지 6층","indutype":"일반휴게음식 - 서양음식","category":"restaurant"}]},{"lat":"37.310922931","long":"126.79510803","imageIndex":4,"items":[{"name":"삼성웰스토리 (주)영풍전자 안산1공장","tel":"031-5171-1192","addr":"경기도 안산시 단원구 원시동 779-1번지 지하1층","indutype":"일반휴게음식 - 위탁급식업","category":"restaurant"}]},{"lat":"37.29708854","long":"126.78307827","imageIndex":4,"items":[{"name":"삼성웰스토리(주)계양전기안산","tel":"031-490-5482","addr":"경기도 안산시 단원구 원시동 823-2번지","indutype":"일반휴게음식 - 위탁급식업","category":"restaurant"}]},{"lat":"37.304310062","long":"126.78057578","imageIndex":4,"items":[{"name":"순천부페식당","tel":"031-483-3334","addr":"경기도 안산시 단원구 원시동 737-7번지","indutype":"일반휴게음식 - 위탁급식업","category":"restaurant"}]},{"lat":"37.312618501","long":"126.79605094","imageIndex":4,"items":[{"name":"신의주찹쌀순대","tel":"031-493-2834","addr":"경기도 안산시 단원구 원시동 777번지 지원회관빌딩 2층 202호","indutype":"일반휴게음식 - 일반한식","category":"restaurant"}]},{"lat":"37.314676408","long":"126.79810972","imageIndex":4,"items":[{"name":"엘에이(LA)북창동순두부안산원시점","tel":"031-494-2330","addr":"경기도 안산시 단원구 원시동 774번지 안산드림타운 203호 204호","indutype":"일반휴게음식 - 일반한식","category":"restaurant"},{"name":"이가원항아리수제비","tel":"031-493-0063","addr":"경기도 안산시 단원구 원시동 774번지 105호","indutype":"일반휴게음식 - 일반한식","category":"restaurant"},{"name":"커피도이창(Coffee Doichang)","tel":"031-493-3011","addr":"경기도 안산시 단원구 원시동 774번지 102호 101호,102호","indutype":"일반휴게음식 - 서양음식","category":"restaurant"},{"name":"황태골","tel":"031-493-0602","addr":"경기도 안산시 단원구 원시동 774번지 201호","indutype":"일반휴게음식 - 일반한식","category":"restaurant"}]},{"lat":"37.321786188","long":"126.78835404","imageIndex":4,"items":[{"name":"예손부대찌개","tel":"031-470-8300","addr":"경기도 안산시 단원구 원시동 768-1번지 테크노피아 1층 D117-119호","indutype":"일반휴게음식 - 일반한식","category":"restaurant"}]},{"lat":"37.301116026","long":"126.78793905","imageIndex":4,"items":[{"name":"예일식당","tel":"031-492-4666","addr":"경기도 안산시 단원구 원시동 784-3번지","indutype":"일반휴게음식 - 위탁급식업","category":"restaurant"},{"name":"예일식당","tel":"031-492-4666","addr":"경기도 안산시 단원구 원시동 784-3번지","indutype":"일반휴게음식 - 일반한식","category":"restaurant"}]},{"lat":"37.312947549","long":"126.79874612","imageIndex":4,"items":[{"name":"이디야 안산반월공단점","tel":"031-380-8190","addr":"경기도 안산시 단원구 원시동 775-3번지 B1층 B108호","indutype":"일반휴게음식 - 서양음식","category":"restaurant"},{"name":"정원식당","tel":"031-495-6003","addr":"경기도 안산시 단원구 원시동 775-3번지 타원TAKRA2지식산업센타 206호","indutype":"일반휴게음식 - 일반한식","category":"restaurant"},{"name":"타크라구내식당","tel":"031-380-8111","addr":"경기도 안산시 단원구 원시동 775-3번지 타원타크라2 B101,B102,B103","indutype":"일반휴게음식 - 위탁급식업","category":"restaurant"}]},{"lat":"37.302843181","long":"126.78152755","imageIndex":4,"items":[{"name":"이모네식당","tel":"031-352-1673","addr":"경기도 안산시 단원구 원시동 738-1번지 1층","indutype":"일반휴게음식 - 위탁급식업","category":"restaurant"}]},{"lat":"37.316918577","long":"126.78719462","imageIndex":4,"items":[{"name":"일신식당","tel":"031-495-5868","addr":"경기도 안산시 단원구 원시동 727-11번지 1층","indutype":"일반휴게음식 - 위탁급식업","category":"restaurant"}]},{"lat":"37.317215768","long":"126.7871148","imageIndex":4,"items":[{"name":"일신식당","tel":"031-495-5868","addr":"경기도 안산시 단원구 원시동 727-11번지 101동 1층","indutype":"일반휴게음식 - 위탁급식업","category":"restaurant"}]},{"lat":"37.299560327","long":"126.78963528","imageIndex":4,"items":[{"name":"자매식당","tel":"031-405-4404","addr":"경기도 안산시 단원구 원시동 833-13번지 반월공단9블럭10","indutype":"일반휴게음식 - 위탁급식업","category":"restaurant"}]},{"lat":"37.31989622","long":"126.78955528","imageIndex":4,"items":[{"name":"전주구내식당","tel":"","addr":"경기도 안산시 단원구 원시동 768-12번지 1층 구내식당부분","indutype":"일반휴게음식 - 위탁급식업","category":"restaurant"}]},{"lat":"37.312092505","long":"126.79411212","imageIndex":4,"items":[{"name":"정그린푸드","tel":"031-527-9080","addr":"경기도 안산시 단원구 원시동 778번지","indutype":"일반휴게음식 - 위탁급식업","category":"restaurant"}]},{"lat":"37.31417221","long":"126.79832542","imageIndex":4,"items":[{"name":"진선미식 주식회사","tel":"031-493-9993","addr":"경기도 안산시 단원구 원시동 774-2번지 태인드림시티근린시설 B동 103호","indutype":"일반휴게음식 - 일반한식","category":"restaurant"}]},{"lat":"37.313862921","long":"126.79152391","imageIndex":4,"items":[{"name":"코엠테크구내식당","tel":"031-492-1126","addr":"경기도 안산시 단원구 원시동 772-7번지 4층","indutype":"일반휴게음식 - 위탁급식업","category":"restaurant"}]},{"lat":"37.299754013","long":"126.78713086","imageIndex":4,"items":[{"name":"타크라식당","tel":"031-380-8111","addr":"경기도 안산시 단원구 원시동 785-1번지 1층 삼진정밀(주)","indutype":"일반휴게음식 - 일반한식","category":"restaurant"}]},{"lat":"37.318226503","long":"126.78308442","imageIndex":4,"items":[{"name":"행복식당","tel":"","addr":"경기도 안산시 단원구 원시동 714-1번지 1층","indutype":"일반휴게음식 - 위탁급식업","category":"restaurant"}]},{"lat":"37.304592606","long":"126.78230071","imageIndex":4,"items":[{"name":"행복식당","tel":"031-000-0000","addr":"경기도 안산시 단원구 원시동 734-8번지 (주)뉴인성내","indutype":"일반휴게음식 - 위탁급식업","category":"restaurant"}]},{"lat":"37.305505268","long":"126.78863717","imageIndex":4,"items":[{"name":"행복한 밥상","tel":"","addr":"경기도 안산시 단원구 원시동 781-11번지","indutype":"일반휴게음식 - 일반한식","category":"restaurant"}]},{"lat":"37.309621585","long":"126.79291197","imageIndex":4,"items":[{"name":"향수식당","tel":"031-0000-0000","addr":"경기도 안산시 단원구 원시동 779-5번지","indutype":"일반휴게음식 - 위탁급식업","category":"restaurant"}]},{"lat":"37.308450344","long":"126.78794073","imageIndex":4,"items":[{"name":"힐링푸드","tel":"031-492-0711","addr":"경기도 안산시 단원구 원시동 729-5번지 마동 1층","indutype":"일반휴게음식 - 위탁급식업","category":"restaurant"}]}]