[{"lat":"37.106121366","long":"127.04320191","imageIndex":17,"items":[{"name":"(주)정주양행","tel":"031-662-4343","addr":"경기도 평택시 서탄면 금암리 376-1","indutype":"신변잡화 - 기타잡화","category":"other"}]},{"lat":"37.109115995","long":"127.03259435","imageIndex":17,"items":[{"name":"GS25평택서탄점","tel":"","addr":"경기도 평택시 서탄면 금암리 568번지","indutype":"유통업 영리 - 편 의 점","category":"other"}]},{"lat":"37.107448419","long":"127.03500124","imageIndex":17,"items":[{"name":"남수원냉열","tel":"031-662-3484","addr":"경기도 평택시 서탄면 금암리 242-28번지","indutype":"수리서비스 - 기타수리서비스","category":"other"}]},{"lat":"37.110954255","long":"127.03214504","imageIndex":17,"items":[{"name":"서광특수","tel":"031-611-6848","addr":"경기도 평택시 서탄면 금암리 580번지","indutype":"용역 서비스 - 기타용역서비스","category":"other"}]},{"lat":"37.112530854","long":"127.03311323","imageIndex":17,"items":[{"name":"선명전기","tel":"031-664-6150","addr":"경기도 평택시 서탄면 금암리 506번지","indutype":"전기제품 - 기타전기제품","category":"other"}]},{"lat":"37.107144314","long":"127.02517975","imageIndex":17,"items":[{"name":"성광유리","tel":"031-668-6586","addr":"경기도 평택시 서탄면 금암리 772-1번지 B동,A동","indutype":"건축자재 - 유리","category":"other"}]},{"lat":"37.110728916","long":"127.03244873","imageIndex":17,"items":[{"name":"성화에스틱평택대리점","tel":"031-668-5942","addr":"경기도 평택시 서탄면 금암리 577","indutype":"건축자재 - 기타건축자재","category":"other"}]},{"lat":"37.109115884","long":"127.03303312","imageIndex":17,"items":[{"name":"세븐일레븐","tel":"031-666-1888","addr":"경기도 평택시 서탄면 금암리 596-1번지","indutype":"소매업 - 편의점","category":"other"},{"name":"세븐일레븐평택서탄점","tel":"","addr":"경기도 평택시 서탄면 금암리 596-1번지","indutype":"유통업 영리 - 편 의 점","category":"other"}]},{"lat":"37.108060897","long":"127.03586777","imageIndex":17,"items":[{"name":"세이프티 카 코리아 (SCK)","tel":"","addr":"경기도 평택시 서탄면 금암리 246-15번지 205호","indutype":"수리서비스 - 기타수리서비스","category":"other"}]},{"lat":"37.112170564","long":"127.03259555","imageIndex":17,"items":[{"name":"승진테크","tel":"031-663-7497","addr":"경기도 평택시 서탄면 금암리 509","indutype":"기타 - 기계공구","category":"other"}]},{"lat":"37.111287441","long":"127.03295523","imageIndex":17,"items":[{"name":"엔티엠주식회사/원격지","tel":"031-662-9555","addr":"경기도 평택시 서탄면 금암리 512-6번지","indutype":"기타 - 기타 전문점","category":"other"}]},{"lat":"37.108836682","long":"127.03253799","imageIndex":17,"items":[{"name":"은혜종합상사","tel":"","addr":"경기도 평택시 서탄면 금암리 602번지","indutype":"소매업 - 철물","category":"other"},{"name":"은혜종합상사","tel":"031-667-5050","addr":"경기도 평택시 서탄면 금암리 602","indutype":"건축자재 - 목재·석재·철물","category":"other"}]},{"lat":"37.109871423","long":"127.0379274","imageIndex":17,"items":[{"name":"이레테크","tel":"031-611-4571","addr":"경기도 평택시 서탄면 금암리 445번지","indutype":"전기제품 - 가전제품","category":"other"}]},{"lat":"37.108367193","long":"127.03609291","imageIndex":17,"items":[{"name":"인호상사","tel":"031-667-1477","addr":"경기도 평택시 서탄면 금암리 246-4번지","indutype":"신변잡화 - 기타잡화","category":"other"}]},{"lat":"37.108394732","long":"127.03422537","imageIndex":17,"items":[{"name":"재영상사","tel":"031-666-2626","addr":"경기도 평택시 서탄면 금암리 252-12번지","indutype":"직물 - 카페트,커튼,천막,지물","category":"other"}]},{"lat":"37.112476631","long":"127.03373201","imageIndex":17,"items":[{"name":"주식회사 아성피앤씨","tel":"070-7777-1262","addr":"경기도 평택시 서탄면 금암리 502번지 1층동 9","indutype":"신변잡화 - 액세서리","category":"other"}]},{"lat":"37.109062641","long":"127.02961297","imageIndex":17,"items":[{"name":"주식회사 알엔디솔루션","tel":"070-8876-0777","addr":"경기도 평택시 서탄면 금암리 607-10번지","indutype":"기타 - 기계공구","category":"other"}]},{"lat":"37.105537401","long":"127.03777916","imageIndex":17,"items":[{"name":"코리아오토툴스(korea auto tools)","tel":"031-662-0959","addr":"경기도 평택시 서탄면 금암리 220번지","indutype":"기타 - 기계공구","category":"other"}]},{"lat":"37.108061643","long":"127.03306645","imageIndex":17,"items":[{"name":"토박이공인중개사","tel":"031-667-5050","addr":"경기도 평택시 서탄면 금암리 640-4번지","indutype":"서비스업 - 부동산","category":"other"}]},{"lat":"37.109673876","long":"127.03553095","imageIndex":17,"items":[{"name":"하늘이네","tel":"031-664-0378","addr":"경기도 평택시 서탄면 금암리 488-7","indutype":"의류 - 정장","category":"other"}]},{"lat":"37.106175287","long":"127.04361819","imageIndex":17,"items":[{"name":"해피트리","tel":"070-2699-0807","addr":"경기도 평택시 서탄면 금암리 380번지","indutype":"의류 - 내의판매","category":"other"}]},{"lat":"37.106284787","long":"127.0393995","imageIndex":7,"items":[{"name":"가마애곤충농장","tel":"031-611-7677","addr":"경기도 평택시 서탄면 금암리 306-3번지","indutype":"소매업 - 가공식품","category":"food"},{"name":"가마애곤충농장","tel":"","addr":"경기도 평택시 서탄면 금암리 306-3번지","indutype":"음료식품 - 농·축·수산품","category":"food"}]},{"lat":"37.106261281","long":"127.02517949","imageIndex":7,"items":[{"name":"글로리아식품","tel":"","addr":"경기도 평택시 서탄면 금암리 815-6번지","indutype":"소매업 - 식품","category":"food"}]},{"lat":"37.107673875","long":"127.03428132","imageIndex":7,"items":[{"name":"서탄만물공판장","tel":"031-668-9627","addr":"경기도 평택시 서탄면 금암리 242-21번지","indutype":"소매업 - 식품, 잡화","category":"food"}]},{"lat":"37.107260974","long":"127.02758731","imageIndex":7,"items":[{"name":"홍성정육점","tel":"031-666-8707","addr":"경기도 평택시 서탄면 금암리 832-1번지","indutype":"음료식품 - 정육점","category":"food"}]},{"lat":"37.108703016","long":"127.02581023","imageIndex":7,"items":[{"name":"황금정육점","tel":"031-664-8811","addr":"경기도 평택시 서탄면 금암리 842-2","indutype":"음료식품 - 정육점","category":"food"}]},{"lat":"37.109115995","long":"127.03259435","imageIndex":7,"items":[{"name":"굿마트 평택서탄점","tel":"031-664-4144","addr":"경기도 평택시 서탄면 금암리 568번지","indutype":"유통업 영리 - 슈퍼마켓","category":"mart"}]},{"lat":"37.107673875","long":"127.03428132","imageIndex":7,"items":[{"name":"만물디시마트","tel":"031-665-6114","addr":"경기도 평택시 서탄면 금암리 242-21번지","indutype":"소매업 - 슈퍼","category":"mart"}]},{"lat":"37.107619773","long":"127.03442755","imageIndex":7,"items":[{"name":"서탄할인마트","tel":"031-665-3428","addr":"경기도 평택시 서탄면 금암리 242-22번지","indutype":"유통업 영리 - 슈퍼마켓","category":"mart"}]},{"lat":"37.107260974","long":"127.02758731","imageIndex":7,"items":[{"name":"코끼리타이마트","tel":"031-664-0130","addr":"경기도 평택시 서탄면 금암리 832-1번지 101-1호","indutype":"유통업 영리 - 슈퍼마켓","category":"mart"}]},{"lat":"37.109422353","long":"127.03259447","imageIndex":4,"items":[{"name":"김부대찌개","tel":"031-668-2386","addr":"경기도 평택시 서탄면 금암리 568-1번지","indutype":"일반휴게음식 - 일반한식","category":"restaurant"},{"name":"큰집해장국","tel":"031-662-2966","addr":"경기도 평택시 서탄면 금암리 568-1번지","indutype":"일반휴게음식 - 일반한식","category":"restaurant"}]},{"lat":"37.108368024","long":"127.03297657","imageIndex":4,"items":[{"name":"깡통치킨 서탄1호점","tel":"031-667-1123","addr":"경기도 평택시 서탄면 금암리 641-1번지","indutype":"일반휴게음식 - 스넥","category":"restaurant"},{"name":"솔밭식당","tel":"031-663-1954","addr":"경기도 평택시 서탄면 금암리 641-1","indutype":"일반휴게음식 - 일반한식","category":"restaurant"}]},{"lat":"37.108061643","long":"127.03306645","imageIndex":4,"items":[{"name":"덕성한식부페","tel":"031-667-0309","addr":"경기도 평택시 서탄면 금암리 640-4번지","indutype":"일반휴게음식 - 일반한식","category":"restaurant"}]},{"lat":"37.108836558","long":"127.03303301","imageIndex":4,"items":[{"name":"맛마루","tel":"031-667-4117","addr":"경기도 평택시 서탄면 금암리 597-3번지","indutype":"일반휴게음식 - 스넥","category":"restaurant"}]},{"lat":"37.112621168","long":"127.0322807","imageIndex":4,"items":[{"name":"명당리김치찌개본점","tel":"031-611-6729","addr":"경기도 평택시 서탄면 금암리 507-2번지 1층","indutype":"일반휴게음식 - 일반한식","category":"restaurant"}]},{"lat":"37.108836682","long":"127.03253799","imageIndex":4,"items":[{"name":"바이올렛","tel":"031-663-0609","addr":"경기도 평택시 서탄면 금암리 602번지","indutype":"일반휴게음식 - 서양음식","category":"restaurant"}]},{"lat":"37.108701476","long":"127.0327292","imageIndex":4,"items":[{"name":"수연정","tel":"031-662-1601","addr":"경기도 평택시 서탄면 금암리 602-2번지","indutype":"일반휴게음식 - 일반한식","category":"restaurant"}]},{"lat":"37.112530854","long":"127.03311323","imageIndex":4,"items":[{"name":"써니한식 (서탄점)","tel":"031-663-1999","addr":"경기도 평택시 서탄면 금암리 506번지 1층","indutype":"일반휴게음식 - 일반한식","category":"restaurant"}]},{"lat":"37.108475992","long":"127.03359538","imageIndex":4,"items":[{"name":"아임파인","tel":"070-7778-6189","addr":"경기도 평택시 서탄면 금암리 600번지 2층","indutype":"일반휴게음식 - 서양음식","category":"restaurant"}]},{"lat":"37.108703016","long":"127.02581023","imageIndex":4,"items":[{"name":"온담","tel":"031-000-0000","addr":"경기도 평택시 서탄면 금암리 842-2번지","indutype":"일반휴게음식 - 일반한식","category":"restaurant"}]},{"lat":"37.109115995","long":"127.03259435","imageIndex":4,"items":[{"name":"자매한식부페","tel":"031-611-0155","addr":"경기도 평택시 서탄면 금암리 568번지","indutype":"일반휴게음식 - 일반한식","category":"restaurant"}]},{"lat":"37.107899174","long":"127.03414641","imageIndex":4,"items":[{"name":"제이탑푸드","tel":"031-665-2991","addr":"경기도 평택시 서탄면 금암리 251-3번지 1층","indutype":"일반휴게음식 - 일반한식","category":"restaurant"},{"name":"제이탑푸드(J TOP FOOD)","tel":"031-665-2991","addr":"경기도 평택시 서탄면 금암리 251-3번지 1층","indutype":"일반휴게음식 - 일반한식","category":"restaurant"}]},{"lat":"37.108060897","long":"127.03586777","imageIndex":4,"items":[{"name":"커피썬","tel":"","addr":"경기도 평택시 서탄면 금암리 246-15번지 1층","indutype":"일반휴게음식 - 서양음식","category":"restaurant"}]},{"lat":"37.107260974","long":"127.02758731","imageIndex":4,"items":[{"name":"큰집백반부페","tel":"031-611-9577","addr":"경기도 평택시 서탄면 금암리 832-1번지","indutype":"일반휴게음식 - 일반한식","category":"restaurant"},{"name":"홍성한우마을","tel":"031-666-8707","addr":"경기도 평택시 서탄면 금암리 832-1 1층 102","indutype":"일반휴게음식 - 일반한식","category":"restaurant"}]},{"lat":"37.110341455","long":"127.03248233","imageIndex":0,"items":[{"name":"동산자동차공업사","tel":"031-666-8582","addr":"경기도 평택시 서탄면 금암리 577-2","indutype":"자동차정비 유지 - 자동차정비","category":"car"}]},{"lat":"37.109872817","long":"127.03284216","imageIndex":0,"items":[{"name":"신우CHEM","tel":"031-665-1762","addr":"경기도 평택시 서탄면 금암리 573-5","indutype":"자동차정비 유지 - 윤활유 전문 판매","category":"car"}]},{"lat":"37.105896122","long":"127.04314555","imageIndex":0,"items":[{"name":"정성손세차","tel":"031-662-1873","addr":"경기도 평택시 서탄면 금암리 371-1번지 금암빌라 A동 301호","indutype":"자동차정비 유지 - 세차장","category":"car"}]},{"lat":"37.107928226","long":"127.02520248","imageIndex":0,"items":[{"name":"한양자동차공업사","tel":"031-668-8207","addr":"경기도 평택시 서탄면 금암리 821-1번지","indutype":"자동차정비 유지 - 자동차정비","category":"car"}]},{"lat":"37.107033634","long":"127.03609233","imageIndex":16,"items":[{"name":"서탄초등학교","tel":"031-611-1924","addr":"경기도 평택시 서탄면 금암리 233-1번지 서탄초등학교","indutype":"학원 - 초중고교육기관","category":"study"},{"name":"서탄초등학교병설유치원[아이행복]","tel":"031-611-1926","addr":"경기도 평택시 서탄면 금암리 233-1번지 서탄초등학교","indutype":"학원 - 유치원","category":"study"}]}]