[{"lat":"37.466420731","long":"127.56633714","imageIndex":5,"items":[{"name":"들꽃향기머무는곳(민박)","tel":"031-772-6195","addr":"경기도 양평군 용문면 삼성리 549-1번지 나동","indutype":"숙박업 - 여관/기타숙박업","category":"hotel"}]},{"lat":"37.474226032","long":"127.56386345","imageIndex":5,"items":[{"name":"맑은물펜션","tel":"031-772-5350","addr":"경기도 양평군 용문면 삼성리 710-7번지","indutype":"숙박업 - 여관/기타숙박업","category":"hotel"}]},{"lat":"37.483946051","long":"127.57546848","imageIndex":5,"items":[{"name":"비앤비모텔","tel":"031-775-5547","addr":"경기도 양평군 용문면 삼성리 246-1번지 1층","indutype":"숙박업 - 여관/기타숙박업","category":"hotel"},{"name":"비앤비모텔","tel":"031-774-5547","addr":"경기도 양평군 용문면 삼성리 246-1번지","indutype":"숙박업 - 여관/기타숙박업","category":"hotel"}]},{"lat":"37.467444678","long":"127.56511271","imageIndex":5,"items":[{"name":"산과강","tel":"031-773-8913","addr":"경기도 양평군 용문면 삼성리 568-1번지","indutype":"숙박업 - 여관/기타숙박업","category":"hotel"}]},{"lat":"37.466834793","long":"127.56641937","imageIndex":5,"items":[{"name":"아나톨레펜션","tel":"031-775-7114","addr":"경기도 양평군 용문면 삼성리 542번지","indutype":"숙박업 - 여관/기타숙박업","category":"hotel"}]},{"lat":"37.482920403","long":"127.57330119","imageIndex":5,"items":[{"name":"양평SN유스호스텔","tel":"031-771-7300","addr":"경기도 양평군 용문면 삼성리 268-1번지","indutype":"숙박업 - 여관/기타숙박업","category":"hotel"}]},{"lat":"37.467253756","long":"127.565473","imageIndex":5,"items":[{"name":"토브의강가펜션","tel":"031-771-5590","addr":"경기도 양평군 용문면 삼성리 576-5번지","indutype":"숙박업 - 여관/기타숙박업","category":"hotel"}]}]