[{"lat":"38.02394812","long":"127.0725589","imageIndex":7,"items":[{"name":"1등 한우전문점","tel":"031-832-6626","addr":"경기도 연천군 전곡읍 전곡리 333-543","indutype":"음료식품 - 정육점","category":"food"}]},{"lat":"38.0153945","long":"127.063418","imageIndex":7,"items":[{"name":"구석기랜드","tel":"031-833-6300","addr":"경기도 연천군 전곡읍 전곡리 189번지","indutype":"음료식품 - 농·축·수산품","category":"food"}]},{"lat":"38.02820319","long":"127.0677224","imageIndex":7,"items":[{"name":"금산인삼사","tel":"031-832-7224","addr":"경기도 연천군 전곡읍 전곡리 455-75번지","indutype":"건강식품 - 기타건강식품","category":"food"}]},{"lat":"38.02428286","long":"127.0701447","imageIndex":7,"items":[{"name":"꽁마님","tel":"070-2078-2755","addr":"경기도 연천군 전곡읍 전곡리 306-2번지","indutype":"음료식품 - 기타음료식품","category":"food"}]},{"lat":"38.01436853","long":"127.0613105","imageIndex":7,"items":[{"name":"농업법인회사 주식회사 가온누리","tel":"031-833-6300","addr":"경기도 연천군 전곡읍 전곡리 515번지","indutype":"음료식품 - 농·축·수산품","category":"food"}]},{"lat":"38.01961541","long":"127.0713932","imageIndex":7,"items":[{"name":"농협앞과일","tel":"031-833-6193","addr":"경기도 연천군 전곡읍 전곡리 318-52번지","indutype":"음료식품 - 농·축·수산품","category":"food"}]},{"lat":"38.00745786","long":"127.0626144","imageIndex":7,"items":[{"name":"뉴요커핫도그","tel":"","addr":"경기도 연천군 전곡읍 전곡리 705-2번지","indutype":"음료식품 - 기타음료식품","category":"food"}]},{"lat":"38.02284169","long":"127.0696423","imageIndex":7,"items":[{"name":"달카롱디져트작업실","tel":"031-000-0000","addr":"경기도 연천군 전곡읍 전곡리 312-15번지","indutype":"음료식품 - 기타음료식품","category":"food"}]},{"lat":"38.02676163","long":"127.0678919","imageIndex":7,"items":[{"name":"대륙정육점","tel":"031-832-2008","addr":"경기도 연천군 전곡읍 전곡리 479-12번지","indutype":"음료식품 - 정육점","category":"food"},{"name":"대륙정육점 2호","tel":"031-832-2008","addr":"경기도 연천군 전곡읍 전곡리 479-12번지","indutype":"음료식품 - 정육점","category":"food"}]},{"lat":"38.02014583","long":"127.0732841","imageIndex":7,"items":[{"name":"대웅상사","tel":"031-832-2984","addr":"경기도 연천군 전곡읍 전곡리 254","indutype":"음료식품 - 기타음료식품","category":"food"}]},{"lat":"38.02525704","long":"127.0680273","imageIndex":7,"items":[{"name":"대흥","tel":"031-832-0038","addr":"경기도 연천군 전곡읍 전곡리 469-22번지","indutype":"음료식품 - 정육점","category":"food"}]},{"lat":"38.0255364","long":"127.0678908","imageIndex":7,"items":[{"name":"던킨도너츠 (전곡터미널점)","tel":"031-833-9869","addr":"경기도 연천군 전곡읍 전곡리 466-9번지","indutype":"음료식품 - 제과점","category":"food"},{"name":"던킨도너츠(전곡터미널점)","tel":"","addr":"경기도 연천군 전곡읍 전곡리 466-9번지","indutype":"음료식품 - 제과점","category":"food"}]},{"lat":"38.0187858","long":"127.072702","imageIndex":7,"items":[{"name":"로하스유통","tel":"031-832-7236","addr":"경기도 연천군 전곡읍 전곡리 261-18","indutype":"음료식품 - 정육점","category":"food"}]},{"lat":"38.02589591","long":"127.0694173","imageIndex":7,"items":[{"name":"민경찬방","tel":"031-832-8819","addr":"경기도 연천군 전곡읍 전곡리 336-16번지","indutype":"음료식품 - 기타음료식품","category":"food"}]},{"lat":"38.02745532","long":"127.0679267","imageIndex":7,"items":[{"name":"바우네집","tel":"031-832-7339","addr":"경기도 연천군 전곡읍 전곡리 458-23","indutype":"음료식품 - 기타음료식품","category":"food"}]},{"lat":"38.02269776","long":"127.069255","imageIndex":7,"items":[{"name":"박사식품","tel":"031-832-6942","addr":"경기도 연천군 전곡읍 전곡리 300-3번지 나동","indutype":"음료식품 - 정육점","category":"food"}]},{"lat":"38.02645523","long":"127.0680625","imageIndex":7,"items":[{"name":"배스킨라빈스","tel":"031-832-3133","addr":"경기도 연천군 전곡읍 전곡리 460-4번지","indutype":"음료식품 - 제과점","category":"food"}]},{"lat":"38.0207262","long":"127.0666453","imageIndex":7,"items":[{"name":"사단법인연천군새마을회","tel":"031-835-1023","addr":"경기도 연천군 전곡읍 전곡리 296-6","indutype":"음료식품 - 기타음료식품","category":"food"}]},{"lat":"38.02828369","long":"127.0687589","imageIndex":7,"items":[{"name":"사랑방떡집","tel":"031-833-1213","addr":"경기도 연천군 전곡읍 전곡리 454-25","indutype":"음료식품 - 제과점","category":"food"}]},{"lat":"38.0183448","long":"127.07195","imageIndex":7,"items":[{"name":"산야초건강원","tel":"","addr":"경기도 연천군 전곡읍 전곡리 260-2번지","indutype":"건강식품 - 기타건강식품","category":"food"}]},{"lat":"38.02705866","long":"127.0683933","imageIndex":7,"items":[{"name":"서울제일떡집","tel":"031-832-3098","addr":"경기도 연천군 전곡읍 전곡리 460-33","indutype":"음료식품 - 제과점","category":"food"}]},{"lat":"38.02575325","long":"127.0667293","imageIndex":7,"items":[{"name":"성심유통","tel":"","addr":"경기도 연천군 전곡읍 전곡리 483-300번지","indutype":"음료식품 - 정육점","category":"food"}]},{"lat":"38.02748285","long":"127.0670042","imageIndex":7,"items":[{"name":"엄수산","tel":"031-832-8240","addr":"경기도 연천군 전곡읍 전곡리 483-68번지 (주)삼주국민마트내","indutype":"음료식품 - 농·축·수산품","category":"food"}]},{"lat":"38.01492307","long":"127.0689177","imageIndex":7,"items":[{"name":"에이미스","tel":"031-8088-7018","addr":"경기도 연천군 전곡읍 전곡리 217-17번지","indutype":"음료식품 - 기타음료식품","category":"food"}]},{"lat":"38.02397765","long":"127.068197","imageIndex":7,"items":[{"name":"에이플러스24","tel":"031-833-6004","addr":"경기도 연천군 전곡읍 전곡리 302-26번지","indutype":"음료식품 - 기타음료식품","category":"food"}]},{"lat":"38.01470661","long":"127.0693389","imageIndex":7,"items":[{"name":"연천네츄럴조경","tel":"031-832-1472","addr":"경기도 연천군 전곡읍 전곡리 217-5번지 1층 (외11필지(217-3번지포함))","indutype":"음료식품 - 기타음료식품","category":"food"}]},{"lat":"38.023031","long":"127.0694261","imageIndex":7,"items":[{"name":"연천양봉영농조합법인","tel":"","addr":"경기도 연천군 전곡읍 전곡리 311-3번지 한진임대연립 302호","indutype":"건강식품 - 기타건강식품","category":"food"}]},{"lat":"38.03430792","long":"127.0736963","imageIndex":7,"items":[{"name":"열두개울식품","tel":"031-835-1161","addr":"경기도 연천군 전곡읍 전곡리 430-14번지","indutype":"음료식품 - 기타음료식품","category":"food"}]},{"lat":"38.02384246","long":"127.068288","imageIndex":7,"items":[{"name":"열두달. 찬","tel":"031-833-2227","addr":"경기도 연천군 전곡읍 전곡리 302-31번지 1층","indutype":"음료식품 - 기타음료식품","category":"food"},{"name":"철구네반찬","tel":"031-833-2227","addr":"경기도 연천군 전곡읍 전곡리 302-31번지","indutype":"음료식품 - 기타음료식품","category":"food"}]},{"lat":"38.02401062","long":"127.0735042","imageIndex":7,"items":[{"name":"오리정육점","tel":"031-835-0415","addr":"경기도 연천군 전곡읍 전곡리 329-8번지 외2필지","indutype":"음료식품 - 정육점","category":"food"}]},{"lat":"38.02261657","long":"127.0694485","imageIndex":7,"items":[{"name":"유진계란농장","tel":"031-835-3354","addr":"경기도 연천군 전곡읍 전곡리 300-17번지","indutype":"음료식품 - 농·축·수산품","category":"food"}]},{"lat":"38.02131015","long":"127.0696182","imageIndex":7,"items":[{"name":"자연의마음영농조합법인","tel":"070-8161-2883","addr":"경기도 연천군 전곡읍 전곡리 318-29번지","indutype":"건강식품 - 인삼제품","category":"food"}]},{"lat":"38.02253517","long":"127.0700065","imageIndex":7,"items":[{"name":"전곡건강원","tel":"031-835-2913","addr":"경기도 연천군 전곡읍 전곡리 314-7번지","indutype":"건강식품 - 기타건강식품","category":"food"}]},{"lat":"38.02836454","long":"127.069169","imageIndex":7,"items":[{"name":"전곡정육점","tel":"031-835-8355","addr":"경기도 연천군 전곡읍 전곡리 454-11번지 1층","indutype":"음료식품 - 정육점","category":"food"}]},{"lat":"38.01772644","long":"127.0661416","imageIndex":7,"items":[{"name":"제주수산","tel":"031-832-8889","addr":"경기도 연천군 전곡읍 전곡리 278-19번지","indutype":"음료식품 - 농·축·수산품","category":"food"}]},{"lat":"38.02753547","long":"127.0695896","imageIndex":7,"items":[{"name":"참게여울주가 주식회사","tel":"031-835-6788","addr":"경기도 연천군 전곡읍 전곡리 333-239번지","indutype":"음료식품 - 농·축·수산품","category":"food"}]},{"lat":"38.02848185","long":"127.0688388","imageIndex":7,"items":[{"name":"참누렁소","tel":"031-832-9295","addr":"경기도 연천군 전곡읍 전곡리 454-19","indutype":"음료식품 - 정육점","category":"food"}]},{"lat":"38.02261579","long":"127.0708151","imageIndex":7,"items":[{"name":"창산흑염소","tel":"031-835-6633","addr":"경기도 연천군 전곡읍 전곡리 315-36번지","indutype":"건강식품 - 기타건강식품","category":"food"}]},{"lat":"38.01981286","long":"127.0726688","imageIndex":7,"items":[{"name":"케이씨","tel":"031-832-6722","addr":"경기도 연천군 전곡읍 전곡리 266-36번지","indutype":"음료식품 - 기타음료식품","category":"food"}]},{"lat":"38.01837135","long":"127.0727586","imageIndex":7,"items":[{"name":"태산건강원","tel":"031-832-0742","addr":"경기도 연천군 전곡읍 전곡리 245-9번지","indutype":"건강식품 - 기타건강식품","category":"food"}]},{"lat":"38.02625731","long":"127.0675612","imageIndex":7,"items":[{"name":"파리바게트","tel":"031-835-3415","addr":"경기도 연천군 전곡읍 전곡리 480-30번지 파리바게트","indutype":"음료식품 - 제과점","category":"food"}]},{"lat":"38.02600427","long":"127.0689732","imageIndex":7,"items":[{"name":"피움(전곡점)","tel":"031-1111-1111","addr":"경기도 연천군 전곡읍 전곡리 336-23번지","indutype":"음료식품 - 기타음료식품","category":"food"}]},{"lat":"38.02812237","long":"127.0672325","imageIndex":7,"items":[{"name":"하나 축산물 판매장","tel":"031-833-6578","addr":"경기도 연천군 전곡읍 전곡리 458-5번지","indutype":"음료식품 - 정육점","category":"food"}]},{"lat":"38.00875654","long":"127.0598713","imageIndex":7,"items":[{"name":"한탄강관광지구내매점","tel":"031-832-2036","addr":"경기도 연천군 전곡읍 전곡리 640 한탄강관광지내","indutype":"음료식품 - 기타음료식품","category":"food"}]},{"lat":"38.02217685","long":"127.0663162","imageIndex":7,"items":[{"name":"해인축산","tel":"031-000-0000","addr":"경기도 연천군 전곡읍 전곡리 292번지 1층","indutype":"음료식품 - 정육점","category":"food"}]},{"lat":"38.025337","long":"127.070009","imageIndex":7,"items":[{"name":"행복가득찬","tel":"031-835-4000","addr":"경기도 연천군 전곡읍 전곡리 333-440번지","indutype":"음료식품 - 기타음료식품","category":"food"}]},{"lat":"38.02489371","long":"127.0731748","imageIndex":7,"items":[{"name":"허니브래드","tel":"031-833-7858","addr":"경기도 연천군 전곡읍 전곡리 332-10번지","indutype":"음료식품 - 제과점","category":"food"}]},{"lat":"38.02403219","long":"127.0673087","imageIndex":7,"items":[{"name":"현대떡방아간","tel":"031-832-2609","addr":"경기도 연천군 전곡읍 전곡리 485-7","indutype":"음료식품 - 제과점","category":"food"}]},{"lat":"38.0270948","long":"127.0681997","imageIndex":7,"items":[{"name":"홍가네떡집","tel":"031-833-1253","addr":"경기도 연천군 전곡읍 전곡리 460-43번지","indutype":"음료식품 - 제과점","category":"food"}]},{"lat":"38.01740056","long":"127.0689541","imageIndex":7,"items":[{"name":"효사랑병원 구내매점","tel":"031-833-5696","addr":"경기도 연천군 전곡읍 전곡리 235번지","indutype":"음료식품 - 기타음료식품","category":"food"}]}]