[{"lat":"37.622644379","long":"127.49503116","imageIndex":4,"items":[{"name":"가마솥해장국","tel":"031-584-9351","addr":"경기도 가평군 설악면 방일리 254 255-2","indutype":"일반휴게음식 - 일반한식","category":"restaurant"}]},{"lat":"37.620511886","long":"127.49436015","imageIndex":4,"items":[{"name":"느티나무식당","tel":"031-584-7815","addr":"경기도 가평군 설악면 방일리 242-1번지","indutype":"일반휴게음식 - 일반한식","category":"restaurant"}]},{"lat":"37.622004805","long":"127.49500429","imageIndex":4,"items":[{"name":"담터원조추어탕","tel":"031-584-9749","addr":"경기도 가평군 설악면 방일리 251-1번지","indutype":"일반휴게음식 - 일반한식","category":"restaurant"}]},{"lat":"37.615228495","long":"127.49091621","imageIndex":4,"items":[{"name":"방일가든","tel":"031-585-4300","addr":"경기도 가평군 설악면 방일리 545-3번지","indutype":"일반휴게음식 - 일반한식","category":"restaurant"}]},{"lat":"37.622843389","long":"127.49483991","imageIndex":4,"items":[{"name":"방일일번지해장국","tel":"031-584-7974","addr":"경기도 가평군 설악면 방일리 231번지","indutype":"일반휴게음식 - 중국식","category":"restaurant"}]},{"lat":"37.624170934","long":"127.49408972","imageIndex":4,"items":[{"name":"방일추어탕","tel":"031-584-6365","addr":"경기도 가평군 설악면 방일리 226-1번지 1층","indutype":"일반휴게음식 - 일반한식","category":"restaurant"}]},{"lat":"37.622202682","long":"127.49508489","imageIndex":4,"items":[{"name":"솔모랑해장국","tel":"031-584-7294","addr":"경기도 가평군 설악면 방일리 253-1번지","indutype":"일반휴게음식 - 일반한식","category":"restaurant"}]},{"lat":"37.617345195","long":"127.49105463","imageIndex":4,"items":[{"name":"유명산식당","tel":"031-000-0000","addr":"경기도 가평군 설악면 방일리 378-1번지","indutype":"일반휴게음식 - 일반한식","category":"restaurant"},{"name":"유명산식당","tel":"031-585-7731","addr":"경기도 가평군 설악면 방일리 378-1번지","indutype":"일반휴게음식 - 일반한식","category":"restaurant"},{"name":"유명산식당","tel":"031-585-7731","addr":"경기도 가평군 설악면 방일리 378-1","indutype":"일반휴게음식 - 일반한식","category":"restaurant"}]},{"lat":"37.625760452","long":"127.49317131","imageIndex":4,"items":[{"name":"이문안짚불쌈밥","tel":"031-585-8808","addr":"경기도 가평군 설악면 방일리 446-1번지","indutype":"일반휴게음식 - 일반한식","category":"restaurant"}]},{"lat":"37.613091404","long":"127.4891694","imageIndex":4,"items":[{"name":"제일콩집","tel":"031-585-1600","addr":"경기도 가평군 설악면 방일리 530번지","indutype":"일반휴게음식 - 일반한식","category":"restaurant"}]},{"lat":"37.677727681","long":"127.48447858","imageIndex":4,"items":[{"name":"토종추어탕","tel":"031-584-6365","addr":"경기도 가평군 설악면 방일리 226-1번지","indutype":"일반휴게음식 - 일반한식","category":"restaurant"}]},{"lat":"37.61745752","long":"127.49003599","imageIndex":4,"items":[{"name":"행복사랑","tel":"031-585-6630","addr":"경기도 가평군 설악면 방일리 380번지 2층","indutype":"일반휴게음식 - 서양음식","category":"restaurant"}]},{"lat":"37.620147743","long":"127.497416","imageIndex":7,"items":[{"name":"농부들의카페장터","tel":"031-584-8838","addr":"경기도 가평군 설악면 방일리 288-11번지","indutype":"음료식품 - 농·축·수산품","category":"food"}]},{"lat":"37.622843389","long":"127.49483991","imageIndex":7,"items":[{"name":"방일정육점","tel":"031-584-7974","addr":"경기도 가평군 설악면 방일리 231번지","indutype":"음료식품 - 정육점","category":"food"}]},{"lat":"37.612983311","long":"127.49783291","imageIndex":7,"items":[{"name":"백림영농조합법인","tel":"031-585-7472","addr":"경기도 가평군 설악면 방일리 586-3번지 백림영농조합법인","indutype":"음료식품 - 농·축·수산품","category":"food"}]},{"lat":"37.615008338","long":"127.48086853","imageIndex":7,"items":[{"name":"유명산 윤사랑 농원","tel":"","addr":"경기도 가평군 설악면 방일리 518번지","indutype":"음료식품 - 농·축·수산품","category":"food"}]},{"lat":"37.616507171","long":"127.49325779","imageIndex":7,"items":[{"name":"유명산 한들농원","tel":"","addr":"경기도 가평군 설악면 방일리 356번지","indutype":"음료식품 - 농·축·수산품","category":"food"}]},{"lat":"37.625949745","long":"127.49531349","imageIndex":7,"items":[{"name":"유명산 힐링 \"891 꼬떼\"","tel":"031-000-0000","addr":"경기도 가평군 설악면 방일리 195번지","indutype":"음료식품 - 기타음료식품","category":"food"}]},{"lat":"37.629095051","long":"127.49938975","imageIndex":16,"items":[{"name":"방일초등학교","tel":"031-584-7209","addr":"경기도 가평군 설악면 방일리 50번지 방일초등학교","indutype":"학원 - 초중고교육기관","category":"study"},{"name":"방일초병설유치원[아이행복]","tel":"031-584-7214","addr":"경기도 가평군 설악면 방일리 50번지 방일초등학교","indutype":"학원 - 유치원","category":"study"}]},{"lat":"37.615312574","long":"127.48580867","imageIndex":5,"items":[{"name":"서락나인","tel":"031-585-7827","addr":"경기도 가평군 설악면 방일리 523-5번지","indutype":"숙박업 - 여관/기타숙박업","category":"hotel"}]},{"lat":"37.626448927","long":"127.48350186","imageIndex":5,"items":[{"name":"아난티펜트하우스 서울","tel":"031-581-4000","addr":"경기도 가평군 설악면 방일리 산 94-1","indutype":"숙박업 - 콘도","category":"hotel"}]},{"lat":"37.618564611","long":"127.49247843","imageIndex":5,"items":[{"name":"유명산 주말농원","tel":"031-584-7830","addr":"경기도 가평군 설악면 방일리 360-2","indutype":"숙박업 - 여관/기타숙박업","category":"hotel"}]},{"lat":"37.616539041","long":"127.49209138","imageIndex":5,"items":[{"name":"지지밸리야영장","tel":"031-585-5885","addr":"경기도 가평군 설악면 방일리 545-4번지","indutype":"숙박업 - 여관/기타숙박업","category":"hotel"}]},{"lat":"37.619893844","long":"127.48253087","imageIndex":13,"items":[{"name":"아난티클럽서울주식회사","tel":"031-589-3339","addr":"경기도 가평군 설악면 방일리 산90-2번지","indutype":"레저업소 - 골프경기장","category":"leisure"}]},{"lat":"37.621095186","long":"127.49491901","imageIndex":9,"items":[{"name":"유명산주유소","tel":"031-584-7776","addr":"경기도 가평군 설악면 방일리 248-1번지","indutype":"연료판매점 - GS주유소","category":"oil"}]}]