[{"lat":"37.222916975","long":"127.55828997","imageIndex":4,"items":[{"name":"경기순대국해장국","tel":"031-884-8220","addr":"경기도 여주시 가남읍 삼군리 335-1번지","indutype":"일반휴게음식 - 일반한식","category":"restaurant"}]},{"lat":"37.212589903","long":"127.55664835","imageIndex":4,"items":[{"name":"구좌리얼크니손칼국수","tel":"031-882-3903","addr":"경기도 여주시 가남읍 삼군리 565-3번지","indutype":"일반휴게음식 - 일반한식","category":"restaurant"}]},{"lat":"37.221640062","long":"127.56728292","imageIndex":4,"items":[{"name":"국민해장국","tel":"031-883-9833","addr":"경기도 여주시 가남읍 삼군리 424-2번지 1층","indutype":"일반휴게음식 - 일반한식","category":"restaurant"}]},{"lat":"37.224448729","long":"127.56020539","imageIndex":4,"items":[{"name":"남도정","tel":"031-881-0116","addr":"경기도 여주시 가남읍 삼군리 199-2번지","indutype":"일반휴게음식 - 일반한식","category":"restaurant"}]},{"lat":"37.215778003","long":"127.55697583","imageIndex":4,"items":[{"name":"마당집","tel":"031-884-2883","addr":"경기도 여주시 가남읍 삼군리 556-3번지","indutype":"일반휴게음식 - 일반한식","category":"restaurant"}]},{"lat":"37.223924079","long":"127.55872551","imageIndex":4,"items":[{"name":"백년식당","tel":"031-884-2216","addr":"경기도 여주시 가남읍 삼군리 215-3번지 1층","indutype":"일반휴게음식 - 일반한식","category":"restaurant"}]},{"lat":"37.217560865","long":"127.55722547","imageIndex":4,"items":[{"name":"송어횟집","tel":"031-883-5166","addr":"경기도 여주시 가남읍 삼군리 546-5번지","indutype":"일반휴게음식 - 일반한식","category":"restaurant"}]},{"lat":"37.222339292","long":"127.56042648","imageIndex":4,"items":[{"name":"수연 잣두부","tel":"031-886-1072","addr":"경기도 여주시 가남읍 삼군리 356-1번지 2동 1층","indutype":"일반휴게음식 - 일반한식","category":"restaurant"}]},{"lat":"37.224558703","long":"127.55981184","imageIndex":4,"items":[{"name":"어가명가","tel":"031-886-0600","addr":"경기도 여주시 가남읍 삼군리 198-4번지","indutype":"일반휴게음식 - 일반한식","category":"restaurant"}]},{"lat":"37.231251958","long":"127.55625518","imageIndex":4,"items":[{"name":"엘가든","tel":"031-882-3058","addr":"경기도 여주시 가남읍 삼군리 77번지","indutype":"일반휴게음식 - 일반한식","category":"restaurant"}]},{"lat":"37.222200219","long":"127.55934382","imageIndex":4,"items":[{"name":"예가낙지마을","tel":"031-883-7789","addr":"경기도 여주시 가남읍 삼군리 336-2번지","indutype":"일반휴게음식 - 일반한식","category":"restaurant"}]},{"lat":"37.224111669","long":"127.55714946","imageIndex":4,"items":[{"name":"한마당 대왕갈비","tel":"031-884-8843","addr":"경기도 여주시 가남읍 삼군리 224-5번지 1층","indutype":"일반휴게음식 - 일반한식","category":"restaurant"}]},{"lat":"37.224500309","long":"127.55689316","imageIndex":4,"items":[{"name":"현대가든","tel":"031-881-5292","addr":"경기도 여주시 가남읍 삼군리 224-1번지","indutype":"일반휴게음식 - 일반한식","category":"restaurant"}]}]