[{"lat":"37.75786612","long":"126.77090755","imageIndex":4,"items":[{"name":"(고조)청담꼬치","tel":"031-946-3345","addr":"경기도 파주시 금촌동 944-31번지","indutype":"일반휴게음식 - 일반한식","category":"restaurant"},{"name":"가장맛있는족발","tel":"031-943-5849","addr":"경기도 파주시 금촌동 944-31번지","indutype":"일반휴게음식 - 일반한식","category":"restaurant"},{"name":"금촌돼지감자대패삼겹살","tel":"031-941-4421","addr":"경기도 파주시 금촌동 944-31번지","indutype":"일반휴게음식 - 일반한식","category":"restaurant"},{"name":"김밥이야기","tel":"031-0944-2278","addr":"경기도 파주시 금촌동 944-31번지","indutype":"일반휴게음식 - 스넥","category":"restaurant"},{"name":"너라면","tel":"031-957-8887","addr":"경기도 파주시 금촌동 944-31번지","indutype":"일반휴게음식 - 일반한식","category":"restaurant"},{"name":"뉴욕야시장","tel":"031-947-8944","addr":"경기도 파주시 금촌동 944-31번지","indutype":"일반휴게음식 - 주점","category":"restaurant"},{"name":"다카미","tel":"031-949-1718","addr":"경기도 파주시 금촌동 944-31번지","indutype":"일반휴게음식 - 일반한식","category":"restaurant"},{"name":"닭스","tel":"031-949-9242","addr":"경기도 파주시 금촌동 944-31번지","indutype":"일반휴게음식 - 서양음식","category":"restaurant"},{"name":"모모닭강정","tel":"031-944-9298","addr":"경기도 파주시 금촌동 944-31번지 INO프라자 106호","indutype":"일반휴게음식 - 스넥","category":"restaurant"},{"name":"세시봉","tel":"031-945-6080","addr":"경기도 파주시 금촌동 944-31번지","indutype":"일반휴게음식 - 일반한식","category":"restaurant"},{"name":"술술포차","tel":"031-8071-0204","addr":"경기도 파주시 금촌동 944-31번지","indutype":"일반휴게음식 - 일반한식","category":"restaurant"},{"name":"잔비어스","tel":"031-949-9244","addr":"경기도 파주시 금촌동 944-31번지","indutype":"일반휴게음식 - 주점","category":"restaurant"},{"name":"진진","tel":"031-943-1880","addr":"경기도 파주시 금촌동 944-31번지","indutype":"일반휴게음식 - 중국식","category":"restaurant"},{"name":"청춘막창0915","tel":"031-946-9599","addr":"경기도 파주시 금촌동 944-31번지","indutype":"일반휴게음식 - 일반한식","category":"restaurant"},{"name":"카페하나","tel":"031-543-8324","addr":"경기도 파주시 금촌동 944-31번지","indutype":"일반휴게음식 - 서양음식","category":"restaurant"}]},{"lat":"37.751094733","long":"126.76826217","imageIndex":4,"items":[{"name":"1층커피","tel":"031-948-9536","addr":"경기도 파주시 금촌동 989-8번지","indutype":"일반휴게음식 - 서양음식","category":"restaurant"}]},{"lat":"37.75534289","long":"126.77523884","imageIndex":4,"items":[{"name":"3900냥행복","tel":"031-949-6120","addr":"경기도 파주시 금촌동 789-8번지","indutype":"일반휴게음식 - 일반한식","category":"restaurant"}]},{"lat":"37.75822917","long":"126.77226817","imageIndex":4,"items":[{"name":"59년왕십리곱창","tel":"031-945-7207","addr":"경기도 파주시 금촌동 945-35번지","indutype":"일반휴게음식 - 일반한식","category":"restaurant"},{"name":"와규앤막창","tel":"031-948-2585","addr":"경기도 파주시 금촌동 945-35번지","indutype":"일반휴게음식 - 일반한식","category":"restaurant"}]},{"lat":"37.751227338","long":"126.7669909","imageIndex":4,"items":[{"name":"678강호동치킨","tel":"02-1234-1234","addr":"경기도 파주시 금촌동 990-1번지","indutype":"일반휴게음식 - 스넥","category":"restaurant"},{"name":"백채김치찌개","tel":"031-943-1261","addr":"경기도 파주시 금촌동 990-1번지","indutype":"일반휴게음식 - 일반한식","category":"restaurant"},{"name":"젠(Zen)","tel":"","addr":"경기도 파주시 금촌동 990-1번지","indutype":"일반휴게음식 - 일반한식","category":"restaurant"}]},{"lat":"37.751869457","long":"126.76821434","imageIndex":4,"items":[{"name":"9라파부대찌개(금릉점)","tel":"031-957-9991","addr":"경기도 파주시 금촌동 988-6번지","indutype":"일반휴게음식 - 일반한식","category":"restaurant"},{"name":"가마솥수제닭강정","tel":"031-947-5795","addr":"경기도 파주시 금촌동 988-6번지","indutype":"일반휴게음식 - 스넥","category":"restaurant"},{"name":"베네치아","tel":"031-945-5505","addr":"경기도 파주시 금촌동 988-6번지","indutype":"일반휴게음식 - 일반한식","category":"restaurant"},{"name":"복성손만두","tel":"","addr":"경기도 파주시 금촌동 988-6번지","indutype":"일반휴게음식 - 스넥","category":"restaurant"},{"name":"엉터리생고기 두번째이야기 파주금촌점","tel":"031-941-5551","addr":"경기도 파주시 금촌동 988-6번지","indutype":"일반휴게음식 - 일반한식","category":"restaurant"},{"name":"용우동","tel":"031-943-8229","addr":"경기도 파주시 금촌동 988-6번지","indutype":"일반휴게음식 - 일반한식","category":"restaurant"},{"name":"죠스떡볶이금촌로데오점","tel":"031-957-7975","addr":"경기도 파주시 금촌동 988-6번지 제일메디컬 103호","indutype":"일반휴게음식 - 스넥","category":"restaurant"}]},{"lat":"37.756644572","long":"126.7774817","imageIndex":4,"items":[{"name":"BHC파주시청점","tel":"031-943-9994","addr":"경기도 파주시 금촌동 785-1번지","indutype":"일반휴게음식 - 일반한식","category":"restaurant"}]},{"lat":"37.756482554","long":"126.77289772","imageIndex":4,"items":[{"name":"DD치킨금촌점","tel":"031-957-0888","addr":"경기도 파주시 금촌동 957-5번지","indutype":"일반휴게음식 - 스넥","category":"restaurant"},{"name":"잘구워보세","tel":"031-941-5116","addr":"경기도 파주시 금촌동 957-5번지","indutype":"일반휴게음식 - 일반한식","category":"restaurant"},{"name":"투다리 금촌주공점","tel":"","addr":"경기도 파주시 금촌동 957-5번지","indutype":"일반휴게음식 - 일반한식","category":"restaurant"},{"name":"파주리칼국수","tel":"031-949-7477","addr":"경기도 파주시 금촌동 957-5번지","indutype":"일반휴게음식 - 일반한식","category":"restaurant"}]},{"lat":"37.75186667","long":"126.76681867","imageIndex":4,"items":[{"name":"EDIYA(이디야)","tel":"031-948-9177","addr":"경기도 파주시 금촌동 988-1번지","indutype":"일반휴게음식 - 서양음식","category":"restaurant"},{"name":"금수저","tel":"031-945-8815","addr":"경기도 파주시 금촌동 988-1번지","indutype":"일반휴게음식 - 일반한식","category":"restaurant"},{"name":"도원참치","tel":"031-944-6446","addr":"경기도 파주시 금촌동 988-1번지","indutype":"일반휴게음식 - 일식·회집","category":"restaurant"},{"name":"마포숯불갈매기","tel":"031-947-9969","addr":"경기도 파주시 금촌동 988-1번지","indutype":"일반휴게음식 - 일반한식","category":"restaurant"},{"name":"베트남쌀국수호아빈","tel":"031-943-6200","addr":"경기도 파주시 금촌동 988-1번지 우평프라자 202호","indutype":"일반휴게음식 - 서양음식","category":"restaurant"},{"name":"빽다방 금릉역점","tel":"031-949-1917","addr":"경기도 파주시 금촌동 988-1번지","indutype":"일반휴게음식 - 서양음식","category":"restaurant"},{"name":"설빙 금촌로데오점","tel":"031-945-7289","addr":"경기도 파주시 금촌동 988-1번지","indutype":"일반휴게음식 - 서양음식","category":"restaurant"},{"name":"스윽포차","tel":"","addr":"경기도 파주시 금촌동 988-1번지","indutype":"일반휴게음식 - 일반한식","category":"restaurant"},{"name":"오빠(O Bar)","tel":"","addr":"경기도 파주시 금촌동 988-1번지","indutype":"일반휴게음식 - 칵테일바","category":"restaurant"},{"name":"커피샘터","tel":"","addr":"경기도 파주시 금촌동 988-1번지","indutype":"일반휴게음식 - 칵테일바","category":"restaurant"},{"name":"한솥도시락(금릉역앞점)","tel":"031-945-7694","addr":"경기도 파주시 금촌동 988-1번지","indutype":"일반휴게음식 - 일반한식","category":"restaurant"}]},{"lat":"37.759288854","long":"126.77051727","imageIndex":4,"items":[{"name":"LABEL(레이블)","tel":"070-8614-5277","addr":"경기도 파주시 금촌동 935-15번지","indutype":"일반휴게음식 - 서양음식","category":"restaurant"}]},{"lat":"37.762780366","long":"126.77298036","imageIndex":4,"items":[{"name":"malni Thai BBQ","tel":"031-000-0000","addr":"경기도 파주시 금촌동 321-11번지","indutype":"일반휴게음식 - 일반한식","category":"restaurant"}]},{"lat":"37.760199451","long":"126.77546227","imageIndex":4,"items":[{"name":"가나무골","tel":"031-941-5658","addr":"경기도 파주시 금촌동 71-30번지","indutype":"일반휴게음식 - 일반한식","category":"restaurant"}]},{"lat":"37.760703214","long":"126.77506353","imageIndex":4,"items":[{"name":"가마꿉","tel":"031-944-3444","addr":"경기도 파주시 금촌동 71-9번지 장안아파트","indutype":"일반휴게음식 - 스넥","category":"restaurant"},{"name":"명동해장국","tel":"031-941-7510","addr":"경기도 파주시 금촌동 71-9번지 장안아파트","indutype":"일반휴게음식 - 일반한식","category":"restaurant"},{"name":"물망초","tel":"","addr":"경기도 파주시 금촌동 71-9번지 장안아파트","indutype":"일반휴게음식 - 서양음식","category":"restaurant"},{"name":"시골집","tel":"031-946-5215","addr":"경기도 파주시 금촌동 71-9번지 장안아파트","indutype":"일반휴게음식 - 일반한식","category":"restaurant"},{"name":"태국식당","tel":"","addr":"경기도 파주시 금촌동 71-9번지 장안아파트","indutype":"일반휴게음식 - 서양음식","category":"restaurant"}]},{"lat":"37.762646639","long":"126.77370708","imageIndex":4,"items":[{"name":"가마솥튀김","tel":"031-947-1312","addr":"경기도 파주시 금촌동 320-10번지","indutype":"일반휴게음식 - 일반한식","category":"restaurant"},{"name":"신설설통닭2호점","tel":"031-941-2450","addr":"경기도 파주시 금촌동 320-10번지","indutype":"일반휴게음식 - 스넥","category":"restaurant"}]},{"lat":"37.756148561","long":"126.77256967","imageIndex":4,"items":[{"name":"가마치통닭 금촌점","tel":"031-943-0885","addr":"경기도 파주시 금촌동 257번지","indutype":"일반휴게음식 - 일반한식","category":"restaurant"},{"name":"월드돈까스","tel":"031-948-8775","addr":"경기도 파주시 금촌동 257번지","indutype":"일반휴게음식 - 일반한식","category":"restaurant"}]},{"lat":"37.764037327","long":"126.77537107","imageIndex":4,"items":[{"name":"간이역분식","tel":"031-945-7789","addr":"경기도 파주시 금촌동 50-3번지","indutype":"일반휴게음식 - 스넥","category":"restaurant"},{"name":"곱창고","tel":"031-947-9229","addr":"경기도 파주시 금촌동 50-3번지","indutype":"일반휴게음식 - 일반한식","category":"restaurant"},{"name":"빠시옹(금촌점)","tel":"031-943-9259","addr":"경기도 파주시 금촌동 50-3번지","indutype":"일반휴게음식 - 스넥","category":"restaurant"},{"name":"전라도회포차","tel":"031-8245-1075","addr":"경기도 파주시 금촌동 50-3번지","indutype":"일반휴게음식 - 일반한식","category":"restaurant"}]},{"lat":"37.758364357","long":"126.77229045","imageIndex":4,"items":[{"name":"갈통삼 금촌점","tel":"031-000-0000","addr":"경기도 파주시 금촌동 945-36번지","indutype":"일반휴게음식 - 일반한식","category":"restaurant"},{"name":"술청거리","tel":"031-945-8149","addr":"경기도 파주시 금촌동 945-36번지","indutype":"일반휴게음식 - 일반한식","category":"restaurant"},{"name":"인생닭발","tel":"031-942-0064","addr":"경기도 파주시 금촌동 945-36번지","indutype":"일반휴게음식 - 일반한식","category":"restaurant"}]},{"lat":"37.763476764","long":"126.7743514","imageIndex":4,"items":[{"name":"감성커피 파주금촌점","tel":"070-8285-0585","addr":"경기도 파주시 금촌동 60-7번지","indutype":"일반휴게음식 - 서양음식","category":"restaurant"},{"name":"틈새라면","tel":"031-948-8269","addr":"경기도 파주시 금촌동 60-7번지","indutype":"일반휴게음식 - 일반한식","category":"restaurant"}]},{"lat":"37.751868167","long":"126.76756756","imageIndex":4,"items":[{"name":"감자는우리가지킨다","tel":"031-941-2174","addr":"경기도 파주시 금촌동 988-4번지 월드프라자 1층 106호","indutype":"일반휴게음식 - 일반한식","category":"restaurant"},{"name":"공차 금릉역점","tel":"","addr":"경기도 파주시 금촌동 988-4번지","indutype":"일반휴게음식 - 서양음식","category":"restaurant"},{"name":"비어캠프","tel":"031-947-5531","addr":"경기도 파주시 금촌동 988-4번지","indutype":"일반휴게음식 - 일반한식","category":"restaurant"},{"name":"인생닭강정금릉점","tel":"","addr":"경기도 파주시 금촌동 988-4번지","indutype":"일반휴게음식 - 스넥","category":"restaurant"},{"name":"인생만화","tel":"070-4065-2382","addr":"경기도 파주시 금촌동 988-4번지","indutype":"일반휴게음식 - 일반한식","category":"restaurant"},{"name":"진부령시레기초록메밀","tel":"031-957-7690","addr":"경기도 파주시 금촌동 988-4번지","indutype":"일반휴게음식 - 일반한식","category":"restaurant"},{"name":"춘천명품닭갈비","tel":"031-949-6685","addr":"경기도 파주시 금촌동 988-4번지","indutype":"일반휴게음식 - 일반한식","category":"restaurant"}]},{"lat":"37.751535383","long":"126.76785229","imageIndex":4,"items":[{"name":"감탄","tel":"031-948-5762","addr":"경기도 파주시 금촌동 989-5번지","indutype":"일반휴게음식 - 스넥","category":"restaurant"},{"name":"베베파티쉐","tel":"","addr":"경기도 파주시 금촌동 989-5번지","indutype":"일반휴게음식 - 서양음식","category":"restaurant"},{"name":"썰족","tel":"031-957-2022","addr":"경기도 파주시 금촌동 989-5번지","indutype":"일반휴게음식 - 일반한식","category":"restaurant"},{"name":"큰손집 2호점","tel":"031-948-7726","addr":"경기도 파주시 금촌동 989-5번지","indutype":"일반휴게음식 - 일반한식","category":"restaurant"}]},{"lat":"37.757786172","long":"126.77148654","imageIndex":4,"items":[{"name":"강순자옛맛김치찌개 금촌점","tel":"031-945-7982","addr":"경기도 파주시 금촌동 944-28번지","indutype":"일반휴게음식 - 일반한식","category":"restaurant"}]},{"lat":"37.755871836","long":"126.77857341","imageIndex":4,"items":[{"name":"개미주막","tel":"031-000-0000","addr":"경기도 파주시 금촌동 791-3번지","indutype":"일반휴게음식 - 일반한식","category":"restaurant"}]},{"lat":"37.751867396","long":"126.76718177","imageIndex":4,"items":[{"name":"갤러리","tel":"070-5029-5595","addr":"경기도 파주시 금촌동 988-2번지","indutype":"일반휴게음식 - 일반한식","category":"restaurant"},{"name":"고고야시장","tel":"031-969-1625","addr":"경기도 파주시 금촌동 988-2번지","indutype":"일반휴게음식 - 일반한식","category":"restaurant"},{"name":"국수집닐리리맘보","tel":"031-945-9992","addr":"경기도 파주시 금촌동 988-2번지","indutype":"일반휴게음식 - 스넥","category":"restaurant"},{"name":"스시원","tel":"031-945-6863","addr":"경기도 파주시 금촌동 988-2번지","indutype":"일반휴게음식 - 일식·회집","category":"restaurant"},{"name":"신전떡볶이 금촌점","tel":"031-944-2221","addr":"경기도 파주시 금촌동 988-2번지 조인프라자 110호","indutype":"일반휴게음식 - 일반한식","category":"restaurant"},{"name":"엠바 (M BAR)","tel":"","addr":"경기도 파주시 금촌동 988-2번지","indutype":"일반휴게음식 - 칵테일바","category":"restaurant"},{"name":"카페게이트 금릉점","tel":"031-111-1111","addr":"경기도 파주시 금촌동 988-2번지","indutype":"일반휴게음식 - 서양음식","category":"restaurant"},{"name":"피자마루금촌금릉점","tel":"031-944-0567","addr":"경기도 파주시 금촌동 988-2번지","indutype":"일반휴게음식 - 서양음식","category":"restaurant"}]},{"lat":"37.757955432","long":"126.77051009","imageIndex":4,"items":[{"name":"거미","tel":"031-946-5589","addr":"경기도 파주시 금촌동 943-7 2층","indutype":"일반휴게음식 - 주점","category":"restaurant"},{"name":"술한모금","tel":"031-8070-7311","addr":"경기도 파주시 금촌동 943-7번지","indutype":"일반휴게음식 - 주점","category":"restaurant"}]},{"lat":"37.761061239","long":"126.77384816","imageIndex":4,"items":[{"name":"거북정","tel":"031-941-3143","addr":"경기도 파주시 금촌동 311-14번지","indutype":"일반휴게음식 - 일반한식","category":"restaurant"}]},{"lat":"37.757393387","long":"126.76876428","imageIndex":4,"items":[{"name":"건어물계절포차","tel":"031-949-2528","addr":"경기도 파주시 금촌동 961-8번지","indutype":"일반휴게음식 - 일반한식","category":"restaurant"}]},{"lat":"37.761423782","long":"126.77035171","imageIndex":4,"items":[{"name":"경성보쌈그리고","tel":"031-945-5673","addr":"경기도 파주시 금촌동 929-6번지","indutype":"일반휴게음식 - 일반한식","category":"restaurant"}]},{"lat":"37.758618306","long":"126.77315211","imageIndex":4,"items":[{"name":"계림원(파주금촌점)","tel":"031-942-5395","addr":"경기도 파주시 금촌동 946-20번지","indutype":"일반휴게음식 - 일반한식","category":"restaurant"}]},{"lat":"37.757226604","long":"126.77098898","imageIndex":4,"items":[{"name":"고고감성포차","tel":"070-4355-1664","addr":"경기도 파주시 금촌동 959-11번지","indutype":"일반휴게음식 - 일반한식","category":"restaurant"},{"name":"길마중","tel":"031-946-0476","addr":"경기도 파주시 금촌동 959-11번지","indutype":"일반휴게음식 - 일반한식","category":"restaurant"},{"name":"라이브JSA","tel":"031-942-5542","addr":"경기도 파주시 금촌동 959-11번지","indutype":"일반휴게음식 - 주점","category":"restaurant"},{"name":"마슐랭","tel":"","addr":"경기도 파주시 금촌동 959-11번지","indutype":"일반휴게음식 - 서양음식","category":"restaurant"},{"name":"소스와꼬꼬","tel":"031-941-9663","addr":"경기도 파주시 금촌동 959-11번지","indutype":"일반휴게음식 - 주점","category":"restaurant"},{"name":"육회지존","tel":"031-947-6360","addr":"경기도 파주시 금촌동 959-11번지","indutype":"일반휴게음식 - 일반한식","category":"restaurant"}]},{"lat":"37.758780956","long":"126.76881665","imageIndex":4,"items":[{"name":"고고족발","tel":"031-944-5553","addr":"경기도 파주시 금촌동 933-8번지","indutype":"일반휴게음식 - 일반한식","category":"restaurant"}]},{"lat":"37.756786547","long":"126.77634649","imageIndex":4,"items":[{"name":"고고초밥&컵밥","tel":"031-944-3546","addr":"경기도 파주시 금촌동 774-22번지","indutype":"일반휴게음식 - 일반한식","category":"restaurant"},{"name":"하루","tel":"031-111-1111","addr":"경기도 파주시 금촌동 774-22번지","indutype":"일반휴게음식 - 일반한식","category":"restaurant"}]},{"lat":"37.75558862","long":"126.78126364","imageIndex":4,"items":[{"name":"고기가","tel":"031-944-4927","addr":"경기도 파주시 금촌동 796-1번지","indutype":"일반휴게음식 - 일반한식","category":"restaurant"},{"name":"토방","tel":"031-943-9945","addr":"경기도 파주시 금촌동 796-1번지 아림프라자 101호","indutype":"일반휴게음식 - 일반한식","category":"restaurant"}]},{"lat":"37.766671792","long":"126.76806543","imageIndex":4,"items":[{"name":"고기다프라자","tel":"031-948-8822","addr":"경기도 파주시 금촌동 437-4번지","indutype":"일반휴게음식 - 일반한식","category":"restaurant"},{"name":"고기다프라자 정육식당","tel":"031-948-8822","addr":"경기도 파주시 금촌동 437-4번지","indutype":"일반휴게음식 - 일반한식","category":"restaurant"},{"name":"고기다프라자정육식당","tel":"070-8628-5763","addr":"경기도 파주시 금촌동 437-4번지","indutype":"일반휴게음식 - 일반한식","category":"restaurant"}]},{"lat":"37.760287285","long":"126.77429313","imageIndex":4,"items":[{"name":"고기랑찌개랑","tel":"031-959-6689","addr":"경기도 파주시 금촌동 73-1번지","indutype":"일반휴게음식 - 일반한식","category":"restaurant"},{"name":"유정","tel":"031-948-9908","addr":"경기도 파주시 금촌동 73-1번지","indutype":"일반휴게음식 - 주점","category":"restaurant"}]},{"lat":"37.758622248","long":"126.77518339","imageIndex":4,"items":[{"name":"고무래황소곱창전문점","tel":"031-945-6729","addr":"경기도 파주시 금촌동 947-29번지","indutype":"일반휴게음식 - 일반한식","category":"restaurant"},{"name":"금촌아구탕","tel":"031-941-1600","addr":"경기도 파주시 금촌동 947-29번지","indutype":"일반휴게음식 - 일반한식","category":"restaurant"}]},{"lat":"37.764087246","long":"126.77323734","imageIndex":4,"items":[{"name":"고조선","tel":"031-945-0409","addr":"경기도 파주시 금촌동 329-183번지","indutype":"일반휴게음식 - 일반한식","category":"restaurant"},{"name":"바글바글","tel":"031-943-9269","addr":"경기도 파주시 금촌동 329-183번지","indutype":"일반휴게음식 - 일반한식","category":"restaurant"},{"name":"우리집","tel":"031-941-6700","addr":"경기도 파주시 금촌동 329-183번지","indutype":"일반휴게음식 - 주점","category":"restaurant"}]},{"lat":"37.763700149","long":"126.77339742","imageIndex":4,"items":[{"name":"고조선별관","tel":"","addr":"경기도 파주시 금촌동 325-26번지","indutype":"일반휴게음식 - 일반한식","category":"restaurant"},{"name":"통일가마솥보신탕","tel":"031-944-0908","addr":"경기도 파주시 금촌동 325-26번지","indutype":"일반휴게음식 - 일반한식","category":"restaurant"},{"name":"현대의정부 부대찌개","tel":"031-944-9712","addr":"경기도 파주시 금촌동 325-26번지","indutype":"일반휴게음식 - 일반한식","category":"restaurant"}]},{"lat":"37.755781266","long":"126.77832404","imageIndex":4,"items":[{"name":"고향집","tel":"","addr":"경기도 파주시 금촌동 791-1번지","indutype":"일반휴게음식 - 일반한식","category":"restaurant"}]},{"lat":"37.751534091","long":"126.76720552","imageIndex":4,"items":[{"name":"골드바","tel":"02-778-4169","addr":"경기도 파주시 금촌동 989-2번지","indutype":"일반휴게음식 - 일반한식","category":"restaurant"},{"name":"마리웨일마카롱 금릉로데오점","tel":"031-947-0319","addr":"경기도 파주시 금촌동 989-2번지","indutype":"일반휴게음식 - 서양음식","category":"restaurant"},{"name":"메가커피","tel":"070-6746-0329","addr":"경기도 파주시 금촌동 989-2번지","indutype":"일반휴게음식 - 서양음식","category":"restaurant"},{"name":"바울아저씨","tel":"031-942-5352","addr":"경기도 파주시 금촌동 989-2번지","indutype":"일반휴게음식 - 서양음식","category":"restaurant"},{"name":"잇또라멘 파주금촌점","tel":"031-947-1816","addr":"경기도 파주시 금촌동 989-2번지","indutype":"일반휴게음식 - 일반한식","category":"restaurant"},{"name":"천하대장군","tel":"031-943-5392","addr":"경기도 파주시 금촌동 989-2번지106.107호","indutype":"일반휴게음식 - 일반한식","category":"restaurant"},{"name":"펀비어킹 금촌로데오점","tel":"031-943-5689","addr":"경기도 파주시 금촌동 989-2번지","indutype":"일반휴게음식 - 주점","category":"restaurant"}]},{"lat":"37.76436804","long":"126.77400819","imageIndex":4,"items":[{"name":"골목포차","tel":"070-0000-0000","addr":"경기도 파주시 금촌동 329-101번지","indutype":"일반휴게음식 - 일반한식","category":"restaurant"},{"name":"디저트39(파주금촌점)","tel":"031-941-5977","addr":"경기도 파주시 금촌동 329-101번지","indutype":"일반휴게음식 - 서양음식","category":"restaurant"},{"name":"황제짬뽕","tel":"031-948-1571","addr":"경기도 파주시 금촌동 329-101번지","indutype":"일반휴게음식 - 중국식","category":"restaurant"}]},{"lat":"37.758092872","long":"126.7716785","imageIndex":4,"items":[{"name":"골목포차","tel":"031-943-5977","addr":"경기도 파주시 금촌동 944-4번지","indutype":"일반휴게음식 - 일반한식","category":"restaurant"}]},{"lat":"37.75420437","long":"126.77820398","imageIndex":4,"items":[{"name":"곱창언니쭈꾸미오빠","tel":"031-942-9444","addr":"경기도 파주시 금촌동 104-1번지 외4필지 조인투프라자 105호","indutype":"일반휴게음식 - 일반한식","category":"restaurant"},{"name":"하루끝","tel":"031-939-7717","addr":"경기도 파주시 금촌동 104-1번지","indutype":"일반휴게음식 - 서양음식","category":"restaurant"}]},{"lat":"37.752144734","long":"126.76620504","imageIndex":4,"items":[{"name":"곱창이야기 (파주금릉역점)","tel":"","addr":"경기도 파주시 금촌동 986-2번지","indutype":"일반휴게음식 - 일반한식","category":"restaurant"},{"name":"금릉족발","tel":"031-944-0435","addr":"경기도 파주시 금촌동 986-2번지","indutype":"일반휴게음식 - 일반한식","category":"restaurant"},{"name":"금촌뼈다귀감자탕","tel":"031-957-1989","addr":"경기도 파주시 금촌동 986-2번지","indutype":"일반휴게음식 - 일반한식","category":"restaurant"},{"name":"놀란돼지","tel":"031-945-0064","addr":"경기도 파주시 금촌동 986-2번지","indutype":"일반휴게음식 - 일반한식","category":"restaurant"},{"name":"돌배기집 파주금릉역점","tel":"031-941-5571","addr":"경기도 파주시 금촌동 986-2번지","indutype":"일반휴게음식 - 일반한식","category":"restaurant"},{"name":"본죽금촌주공점","tel":"031-947-4588","addr":"경기도 파주시 금촌동 986-2번지","indutype":"일반휴게음식 - 일반한식","category":"restaurant"},{"name":"수철이네 왕새우튀김 금촌점","tel":"031-957-9381","addr":"경기도 파주시 금촌동 986-2번지","indutype":"일반휴게음식 - 일반한식","category":"restaurant"},{"name":"아씨보쌈","tel":"031-957-5354","addr":"경기도 파주시 금촌동 986-2.204호205호","indutype":"일반휴게음식 - 일반한식","category":"restaurant"},{"name":"월드비어","tel":"031-947-5531","addr":"경기도 파주시 금촌동 986-2번지","indutype":"일반휴게음식 - 일반한식","category":"restaurant"},{"name":"짚불돌삼겹살","tel":"031-946-8892","addr":"경기도 파주시 금촌동 986-2번지","indutype":"일반휴게음식 - 일반한식","category":"restaurant"}]},{"lat":"37.757227318","long":"126.77135211","imageIndex":4,"items":[{"name":"곱창하소","tel":"031-1111-1111","addr":"경기도 파주시 금촌동 959-10번지","indutype":"일반휴게음식 - 일반한식","category":"restaurant"},{"name":"길마차","tel":"031-957-7892","addr":"경기도 파주시 금촌동 959-10번지","indutype":"일반휴게음식 - 주점","category":"restaurant"},{"name":"야들리애 플레이트","tel":"031-942-3434","addr":"경기도 파주시 금촌동 959-10번지","indutype":"일반휴게음식 - 주점","category":"restaurant"},{"name":"청기와집","tel":"031-945-1456","addr":"경기도 파주시 금촌동 959-10번지","indutype":"일반휴게음식 - 일반한식","category":"restaurant"}]},{"lat":"37.76483783","long":"126.77467633","imageIndex":4,"items":[{"name":"곽만근갈비탕 금촌역점","tel":"031-957-5885","addr":"경기도 파주시 금촌동 329-158번지","indutype":"일반휴게음식 - 일반한식","category":"restaurant"},{"name":"동태조림.감자탕","tel":"","addr":"경기도 파주시 금촌동 329-158번지","indutype":"일반휴게음식 - 일반한식","category":"restaurant"},{"name":"손큰할매순대국금촌지점","tel":"031-944-7596","addr":"경기도 파주시 금촌동 329-158번지","indutype":"일반휴게음식 - 일반한식","category":"restaurant"},{"name":"썸타임즈","tel":"031-948-0079","addr":"경기도 파주시 금촌동 329-158번지","indutype":"일반휴게음식 - 일반한식","category":"restaurant"},{"name":"어부몽명태조림감자탕","tel":"031-949-9955","addr":"경기도 파주시 금촌동 329-158번지","indutype":"일반휴게음식 - 일반한식","category":"restaurant"},{"name":"왕통통김밥","tel":"031-944-1008","addr":"경기도 파주시 금촌동 329-158번지","indutype":"일반휴게음식 - 스넥","category":"restaurant"},{"name":"할리스커피 금촌역점","tel":"031-946-8011","addr":"경기도 파주시 금촌동 329-158번지","indutype":"일반휴게음식 - 서양음식","category":"restaurant"}]},{"lat":"37.759894878","long":"126.77637106","imageIndex":4,"items":[{"name":"광장숯불갈비","tel":"031-945-9255","addr":"경기도 파주시 금촌동 767-1번지","indutype":"일반휴게음식 - 일반한식","category":"restaurant"},{"name":"태화루","tel":"031-941-9591","addr":"경기도 파주시 금촌동 767-1번지","indutype":"일반휴게음식 - 중국식","category":"restaurant"},{"name":"행스시","tel":"031-947-2887","addr":"경기도 파주시 금촌동 767-1번지","indutype":"일반휴게음식 - 일반한식","category":"restaurant"}]},{"lat":"37.762421181","long":"126.77359429","imageIndex":4,"items":[{"name":"괴흐엉관(QUE HUONG QUAN)베트남쌀국수","tel":"031-946-0506","addr":"경기도 파주시 금촌동 319-37번지","indutype":"일반휴게음식 - 일반한식","category":"restaurant"}]},{"lat":"37.755427598","long":"126.77712227","imageIndex":4,"items":[{"name":"교촌치킨(금촌1호점)","tel":"031-941-4043","addr":"경기도 파주시 금촌동 790-10번지 1층","indutype":"일반휴게음식 - 스넥","category":"restaurant"}]},{"lat":"37.75083909","long":"126.7665723","imageIndex":4,"items":[{"name":"교촌치킨금촌2호점","tel":"031-946-9222","addr":"경기도 파주시 금촌동 986-5번지 미라클프라자 106호","indutype":"일반휴게음식 - 주점","category":"restaurant"},{"name":"미당","tel":"031-947-7103","addr":"경기도 파주시 금촌동 986-5번지","indutype":"일반휴게음식 - 일반한식","category":"restaurant"},{"name":"소나기전","tel":"031-942-3833","addr":"경기도 파주시 금촌동 986-5번지","indutype":"일반휴게음식 - 일반한식","category":"restaurant"},{"name":"솥뚜껑삼겹살","tel":"031-949-4100","addr":"경기도 파주시 금촌동 986-5번지","indutype":"일반휴게음식 - 일반한식","category":"restaurant"},{"name":"옹골찬콩나물해장국","tel":"031-949-3146","addr":"경기도 파주시 금촌동 986-5번지","indutype":"일반휴게음식 - 일반한식","category":"restaurant"},{"name":"커피홀릭","tel":"031-942-3989","addr":"경기도 파주시 금촌동 986-5번지","indutype":"일반휴게음식 - 주점","category":"restaurant"},{"name":"홍대교동짬뽕","tel":"031-947-4203","addr":"경기도 파주시 금촌동 986-5번지","indutype":"일반휴게음식 - 일반한식","category":"restaurant"}]},{"lat":"37.757783983","long":"126.77037445","imageIndex":4,"items":[{"name":"구워더존치킨","tel":"031-944-0030","addr":"경기도 파주시 금촌동 943-10번지","indutype":"일반휴게음식 - 스넥","category":"restaurant"}]},{"lat":"37.761225828","long":"126.77509598","imageIndex":4,"items":[{"name":"국민통닭","tel":"031-949-9674","addr":"경기도 파주시 금촌동 68-2번지","indutype":"일반휴게음식 - 스넥","category":"restaurant"}]},{"lat":"37.75851074","long":"126.76885155","imageIndex":4,"items":[{"name":"굽네치킨파주금촌점","tel":"031-949-9339","addr":"경기도 파주시 금촌동 942-1번지","indutype":"일반휴게음식 - 일반한식","category":"restaurant"},{"name":"모녀곰탕","tel":"031-943-6283","addr":"경기도 파주시 금촌동 942-1번지","indutype":"일반휴게음식 - 일반한식","category":"restaurant"},{"name":"술맛애짱포차","tel":"031-942-0218","addr":"경기도 파주시 금촌동 942-1번지","indutype":"일반휴게음식 - 주점","category":"restaurant"},{"name":"클라이막스","tel":"","addr":"경기도 파주시 금촌동 942-1번지","indutype":"일반휴게음식 - 서양음식","category":"restaurant"},{"name":"한스돈가스","tel":"031-949-7535","addr":"경기도 파주시 금촌동 942-1번지","indutype":"일반휴게음식 - 일반한식","category":"restaurant"}]},{"lat":"37.755948929","long":"126.77648522","imageIndex":4,"items":[{"name":"그때그시절","tel":"031-947-0921","addr":"경기도 파주시 금촌동 786-23번지","indutype":"일반휴게음식 - 일반한식","category":"restaurant"},{"name":"깡통생고기만나정","tel":"031-945-3704","addr":"경기도 파주시 금촌동 786-23번지","indutype":"일반휴게음식 - 일반한식","category":"restaurant"}]},{"lat":"37.770086009","long":"126.77243565","imageIndex":4,"items":[{"name":"그린분식","tel":"031-946-2847","addr":"경기도 파주시 금촌동 424-9번지 경신아파트","indutype":"일반휴게음식 - 스넥","category":"restaurant"}]},{"lat":"37.755393557","long":"126.76890676","imageIndex":4,"items":[{"name":"금릉떡볶이","tel":"031-945-8430","addr":"경기도 파주시 금촌동 237-1번지","indutype":"일반휴게음식 - 스넥","category":"restaurant"},{"name":"김밥천국","tel":"031-957-5611","addr":"경기도 파주시 금촌동 237-1번지","indutype":"일반휴게음식 - 스넥","category":"restaurant"},{"name":"통큰떡볶이푸드","tel":"031-941-9789","addr":"경기도 파주시 금촌동 237-1번지","indutype":"일반휴게음식 - 스넥","category":"restaurant"},{"name":"피자스쿨금촌점","tel":"031-943-5755","addr":"경기도 파주시 금촌동 237-1번지","indutype":"일반휴게음식 - 서양음식","category":"restaurant"},{"name":"후라이드참잘하는집 금촌점","tel":"031-944-8892","addr":"경기도 파주시 금촌동 237-1번지","indutype":"일반휴게음식 - 일반한식","category":"restaurant"}]},{"lat":"37.751534817","long":"126.76756862","imageIndex":4,"items":[{"name":"금릉역분식","tel":"031-997-2679","addr":"경기도 파주시 금촌동 989-4번지","indutype":"일반휴게음식 - 일반한식","category":"restaurant"},{"name":"김밥천국","tel":"031-941-3318","addr":"경기도 파주시 금촌동 989-4번지","indutype":"일반휴게음식 - 일반한식","category":"restaurant"},{"name":"맘스터치","tel":"031-948-1011","addr":"경기도 파주시 금촌동 989-4번지","indutype":"일반휴게음식 - 서양음식","category":"restaurant"},{"name":"미스터 브리즈 커피","tel":"031-947-3088","addr":"경기도 파주시 금촌동 989-4번지","indutype":"일반휴게음식 - 서양음식","category":"restaurant"},{"name":"인생타코","tel":"031-866-8222","addr":"경기도 파주시 금촌동 989-4번지","indutype":"일반휴게음식 - 일반한식","category":"restaurant"},{"name":"지호한방삼계탕","tel":"031-945-3989","addr":"경기도 파주시 금촌동 989-4 거성프라자 204호~205호","indutype":"일반휴게음식 - 일반한식","category":"restaurant"},{"name":"토마토김밥","tel":"031-948-8005","addr":"경기도 파주시 금촌동 989-4번지 거성프라자 106호","indutype":"일반휴게음식 - 일반한식","category":"restaurant"},{"name":"파주김밥짱","tel":"031-943-0288","addr":"경기도 파주시 금촌동 989-4번지","indutype":"일반휴게음식 - 스넥","category":"restaurant"}]},{"lat":"37.751118042","long":"126.76640121","imageIndex":4,"items":[{"name":"금릉참치","tel":"031-948-1263","addr":"경기도 파주시 금촌동 986-4번지","indutype":"일반휴게음식 - 일식·회집","category":"restaurant"},{"name":"꾸바꾸바","tel":"031-941-9254","addr":"경기도 파주시 금촌동 986-4번지","indutype":"일반휴게음식 - 일반한식","category":"restaurant"},{"name":"동대문엽기떡볶이","tel":"031-941-8595","addr":"경기도 파주시 금촌동 986-4번지","indutype":"일반휴게음식 - 일반한식","category":"restaurant"},{"name":"봉림갈비탕전골","tel":"031-949-5500","addr":"경기도 파주시 금촌동 986-4번지","indutype":"일반휴게음식 - 일반한식","category":"restaurant"},{"name":"사거리양꼬치","tel":"031-957-9598","addr":"경기도 파주시 금촌동 986-4번지","indutype":"일반휴게음식 - 서양음식","category":"restaurant"},{"name":"생생드럼통","tel":"","addr":"경기도 파주시 금촌동 986-4번지","indutype":"일반휴게음식 - 일반한식","category":"restaurant"},{"name":"오징어나라","tel":"031-994-1517","addr":"경기도 파주시 금촌동 986-4번지","indutype":"일반휴게음식 - 일반한식","category":"restaurant"},{"name":"정통수제준도넛앤커피","tel":"031-946-7040","addr":"경기도 파주시 금촌동 986-4번지","indutype":"일반휴게음식 - 서양음식","category":"restaurant"},{"name":"짜장면","tel":"","addr":"경기도 파주시 금촌동 986-4번지","indutype":"일반휴게음식 - 중국식","category":"restaurant"},{"name":"착한밥집","tel":"02-1600-8904","addr":"경기도 파주시 금촌동 986-4번지","indutype":"일반휴게음식 - 일반한식","category":"restaurant"},{"name":"호우양꼬치","tel":"031-957-9598","addr":"경기도 파주시 금촌동 986-4번지","indutype":"일반휴게음식 - 일반한식","category":"restaurant"}]},{"lat":"37.757005384","long":"126.77770756","imageIndex":4,"items":[{"name":"금정카페","tel":"031-944-8857","addr":"경기도 파주시 금촌동 775-6번지","indutype":"일반휴게음식 - 일반한식","category":"restaurant"}]},{"lat":"37.757562936","long":"126.77250854","imageIndex":4,"items":[{"name":"금촌 양꼬치","tel":"031-957-7276","addr":"경기도 파주시 금촌동 958-3번지","indutype":"일반휴게음식 - 일반한식","category":"restaurant"},{"name":"세븐어클락(7 O'CLOCK)","tel":"","addr":"경기도 파주시 금촌동 958-3번지","indutype":"일반휴게음식 - 일반한식","category":"restaurant"}]},{"lat":"37.755062521","long":"126.77468367","imageIndex":4,"items":[{"name":"금촌능이버섯백숙","tel":"031-948-2345","addr":"경기도 파주시 금촌동 802-3번지","indutype":"일반휴게음식 - 일반한식","category":"restaurant"},{"name":"속초코다리동태","tel":"031-949-2388","addr":"경기도 파주시 금촌동 802-3번지","indutype":"일반휴게음식 - 일반한식","category":"restaurant"}]},{"lat":"37.762504849","long":"126.77031428","imageIndex":4,"items":[{"name":"금촌댁네사람들","tel":"031-946-4772","addr":"경기도 파주시 금촌동 334-80번지","indutype":"일반휴게음식 - 일반한식","category":"restaurant"}]},{"lat":"37.756815528","long":"126.77270377","imageIndex":4,"items":[{"name":"금촌동갈비","tel":"02-943-7330","addr":"경기도 파주시 금촌동 957-6번지","indutype":"일반휴게음식 - 일반한식","category":"restaurant"},{"name":"나정순할매쭈꾸미","tel":"031-957-3383","addr":"경기도 파주시 금촌동 957-6번지","indutype":"일반휴게음식 - 일반한식","category":"restaurant"},{"name":"투다리","tel":"031-948-9799","addr":"경기도 파주시 금촌동 957-6번지","indutype":"일반휴게음식 - 서양음식","category":"restaurant"}]},{"lat":"37.757922404","long":"126.77204217","imageIndex":4,"items":[{"name":"금촌마포갈매기","tel":"031-945-8338","addr":"경기도 파주시 금촌동 944-13번지","indutype":"일반휴게음식 - 일반한식","category":"restaurant"}]},{"lat":"37.757086361","long":"126.77765057","imageIndex":4,"items":[{"name":"금촌묵은지두루치기","tel":"031-943-1644","addr":"경기도 파주시 금촌동 775-5번지","indutype":"일반휴게음식 - 일반한식","category":"restaurant"}]},{"lat":"37.758562175","long":"126.77673826","imageIndex":4,"items":[{"name":"금촌복집","tel":"031-943-0301","addr":"경기도 파주시 금촌동 772-9번지","indutype":"일반휴게음식 - 일반한식","category":"restaurant"},{"name":"임진갈비","tel":"031-949-3006","addr":"경기도 파주시 금촌동 772-9번지","indutype":"일반휴게음식 - 일반한식","category":"restaurant"},{"name":"정희네","tel":"031-947-9355","addr":"경기도 파주시 금촌동 772-9번지","indutype":"일반휴게음식 - 일반한식","category":"restaurant"}]},{"lat":"37.76139986","long":"126.76737849","imageIndex":4,"items":[{"name":"금촌야식","tel":"031-949-8664","addr":"경기도 파주시 금촌동 495-1번지","indutype":"일반휴게음식 - 일반한식","category":"restaurant"}]},{"lat":"37.76022534","long":"126.77487208","imageIndex":4,"items":[{"name":"금촌양푼이김치찌개","tel":"031-943-8596","addr":"경기도 파주시 금촌동 72-4번지","indutype":"일반휴게음식 - 일반한식","category":"restaurant"}]},{"lat":"37.75834418","long":"126.77581973","imageIndex":4,"items":[{"name":"금촌옻닭","tel":"031-942-9343","addr":"경기도 파주시 금촌동 772-21번지","indutype":"일반휴게음식 - 스넥","category":"restaurant"}]},{"lat":"37.757617985","long":"126.77768301","imageIndex":4,"items":[{"name":"금촌장군돼지부속","tel":"031-942-2865","addr":"경기도 파주시 금촌동 776-17번지","indutype":"일반휴게음식 - 주점","category":"restaurant"},{"name":"카페올레","tel":"","addr":"경기도 파주시 금촌동 776-17번지","indutype":"일반휴게음식 - 서양음식","category":"restaurant"}]},{"lat":"37.757814735","long":"126.77226946","imageIndex":4,"items":[{"name":"금촌집","tel":"031-941-3925","addr":"경기도 파주시 금촌동 945-32번지","indutype":"일반휴게음식 - 일반한식","category":"restaurant"}]},{"lat":"37.757978146","long":"126.77756843","imageIndex":4,"items":[{"name":"금촌쭈꾸미볶음","tel":"031-946-2560","addr":"경기도 파주시 금촌동 776-1번지","indutype":"일반휴게음식 - 일반한식","category":"restaurant"},{"name":"깡통왕연탄갈비","tel":"031-943-5592","addr":"경기도 파주시 금촌동 776-1번지","indutype":"일반휴게음식 - 일반한식","category":"restaurant"},{"name":"돈뼈락","tel":"031-942-5151","addr":"경기도 파주시 금촌동 776-1번지","indutype":"일반휴게음식 - 일반한식","category":"restaurant"},{"name":"동강매운탕","tel":"031-945-5996","addr":"경기도 파주시 금촌동 776-1번지","indutype":"일반휴게음식 - 일반한식","category":"restaurant"},{"name":"뽕나무누룽오리백숙.설렁탕","tel":"031-944-5253","addr":"경기도 파주시 금촌동 776-1번지","indutype":"일반휴게음식 - 일반한식","category":"restaurant"},{"name":"지인","tel":"031-945-7023","addr":"경기도 파주시 금촌동 776-1번지","indutype":"일반휴게음식 - 서양음식","category":"restaurant"},{"name":"춘천닭갈비","tel":"031-941-7171","addr":"경기도 파주시 금촌동 776-1번지","indutype":"일반휴게음식 - 일반한식","category":"restaurant"},{"name":"현대식당","tel":"031-946-5121","addr":"경기도 파주시 금촌동 776-1번지","indutype":"일반휴게음식 - 일반한식","category":"restaurant"}]},{"lat":"37.764252105","long":"126.77462139","imageIndex":4,"items":[{"name":"금촌찌개&회포장마차","tel":"031-942-4114","addr":"경기도 파주시 금촌동 44-14번지","indutype":"일반휴게음식 - 일반한식","category":"restaurant"}]},{"lat":"37.756258202","long":"126.77335232","imageIndex":4,"items":[{"name":"금촌최현숙족발보쌈","tel":"031-946-8832","addr":"경기도 파주시 금촌동 956-3번지","indutype":"일반휴게음식 - 일반한식","category":"restaurant"}]},{"lat":"37.751868733","long":"126.76785124","imageIndex":4,"items":[{"name":"금촌칼국수","tel":"031-949-0881","addr":"경기도 파주시 금촌동 988-5번지","indutype":"일반휴게음식 - 일반한식","category":"restaurant"},{"name":"노랑통닭 금릉점","tel":"02-000-0000","addr":"경기도 파주시 금촌동 988-5번지","indutype":"일반휴게음식 - 스넥","category":"restaurant"},{"name":"더벤티 파주금릉점","tel":"031-942-3202","addr":"경기도 파주시 금촌동 988-5번지","indutype":"일반휴게음식 - 서양음식","category":"restaurant"},{"name":"몰리제피자금촌점","tel":"031-957-6464","addr":"경기도 파주시 금촌동 988-5번지","indutype":"일반휴게음식 - 서양음식","category":"restaurant"},{"name":"제일식당(쌈싸먹는 김치찌개)","tel":"031-943-9488","addr":"경기도 파주시 금촌동 988-5번지","indutype":"일반휴게음식 - 일반한식","category":"restaurant"},{"name":"죽이야기","tel":"031-946-6642","addr":"경기도 파주시 금촌동 988-5번지","indutype":"일반휴게음식 - 일반한식","category":"restaurant"}]},{"lat":"37.758150128","long":"126.77798779","imageIndex":4,"items":[{"name":"금촌해장국","tel":"031-945-7996","addr":"경기도 파주시 금촌동 777-1번지","indutype":"일반휴게음식 - 일반한식","category":"restaurant"},{"name":"미스터.쿡부대찌개","tel":"031-944-5131","addr":"경기도 파주시 금촌동 777-1번지","indutype":"일반휴게음식 - 일반한식","category":"restaurant"}]},{"lat":"37.764036801","long":"126.7750987","imageIndex":4,"items":[{"name":"길목해장국","tel":"031-943-7456","addr":"경기도 파주시 금촌동 50-36번지","indutype":"일반휴게음식 - 일반한식","category":"restaurant"}]},{"lat":"37.7617562","long":"126.77448153","imageIndex":4,"items":[{"name":"길향불고기냉면","tel":"031-943-7097","addr":"경기도 파주시 금촌동 65-25번지","indutype":"일반휴게음식 - 일반한식","category":"restaurant"},{"name":"전통","tel":"031-945-3855","addr":"경기도 파주시 금촌동 65-25번지","indutype":"일반휴게음식 - 일반한식","category":"restaurant"},{"name":"파도소리","tel":"031-946-1515","addr":"경기도 파주시 금촌동 65-25번지","indutype":"일반휴게음식 - 일반한식","category":"restaurant"},{"name":"해성호프","tel":"031-957-7537","addr":"경기도 파주시 금촌동 65-25번지","indutype":"일반휴게음식 - 주점","category":"restaurant"}]},{"lat":"37.755697821","long":"126.78184204","imageIndex":4,"items":[{"name":"김가네생선구이전문점","tel":"031-957-3392","addr":"경기도 파주시 금촌동 795-4번지","indutype":"일반휴게음식 - 일반한식","category":"restaurant"}]},{"lat":"37.756920394","long":"126.77104667","imageIndex":4,"items":[{"name":"김밥나라","tel":"031-957-3172","addr":"경기도 파주시 금촌동 253-5번지","indutype":"일반휴게음식 - 일반한식","category":"restaurant"},{"name":"꿀돼지","tel":"031-944-2136","addr":"경기도 파주시 금촌동 253-5번지","indutype":"일반휴게음식 - 일반한식","category":"restaurant"},{"name":"꿀막족발","tel":"031-944-2111","addr":"경기도 파주시 금촌동 253-5번지","indutype":"일반휴게음식 - 일반한식","category":"restaurant"},{"name":"드렁큰","tel":"","addr":"경기도 파주시 금촌동 253-5번지","indutype":"일반휴게음식 - 주점","category":"restaurant"},{"name":"벙개막창","tel":"031-946-9090","addr":"경기도 파주시 금촌동 253-5번지","indutype":"일반휴게음식 - 일반한식","category":"restaurant"},{"name":"부산오뎅","tel":"031-943-3747","addr":"경기도 파주시 금촌동 253-5번지","indutype":"일반휴게음식 - 일반한식","category":"restaurant"},{"name":"블루문","tel":"031-949-5339","addr":"경기도 파주시 금촌동 253-5번지","indutype":"일반휴게음식 - 일반한식","category":"restaurant"},{"name":"신나라 뽕스토리","tel":"031-943-4569","addr":"경기도 파주시 금촌동 253-5번지 골드시티프라자 116호","indutype":"일반휴게음식 - 중국식","category":"restaurant"},{"name":"싸가정곱창","tel":"031-111-1111","addr":"경기도 파주시 금촌동 253-5번지","indutype":"일반휴게음식 - 일반한식","category":"restaurant"},{"name":"싸돈","tel":"031-944-4544","addr":"경기도 파주시 금촌동 253-5번지","indutype":"일반휴게음식 - 일반한식","category":"restaurant"},{"name":"영동빈대떡","tel":"","addr":"경기도 파주시 금촌동 253-5번지","indutype":"일반휴게음식 - 일반한식","category":"restaurant"},{"name":"원조멍군돼지부속","tel":"031-945-2917","addr":"경기도 파주시 금촌동 253-5번지 골드시티프라자 105호","indutype":"일반휴게음식 - 일반한식","category":"restaurant"},{"name":"진참치","tel":"031-957-1522","addr":"경기도 파주시 금촌동 253-5번지","indutype":"일반휴게음식 - 일식·회집","category":"restaurant"},{"name":"치킨더홈","tel":"031-949-9278","addr":"경기도 파주시 금촌동 253-5번지 골드시티프라자 117호","indutype":"일반휴게음식 - 스넥","category":"restaurant"},{"name":"커피설","tel":"","addr":"경기도 파주시 금촌동 253-5번지","indutype":"일반휴게음식 - 서양음식","category":"restaurant"},{"name":"콩밭뜰 금촌2호직영점","tel":"031-941-1517","addr":"경기도 파주시 금촌동 253-5번지","indutype":"일반휴게음식 - 일반한식","category":"restaurant"},{"name":"한식당","tel":"031-942-4421","addr":"경기도 파주시 금촌동 253-5번지","indutype":"일반휴게음식 - 일반한식","category":"restaurant"},{"name":"화썸남썸녀(Something)","tel":"031-903-7072","addr":"경기도 파주시 금촌동 253-5번지","indutype":"일반휴게음식 - 주점","category":"restaurant"}]},{"lat":"37.755060782","long":"126.77378722","imageIndex":4,"items":[{"name":"김밥나라","tel":"031-941-1516","addr":"경기도 파주시 금촌동 954-1번지","indutype":"일반휴게음식 - 일반한식","category":"restaurant"},{"name":"브라보명품찹쌀꽈배기","tel":"031-943-6777","addr":"경기도 파주시 금촌동 954-1번지","indutype":"일반휴게음식 - 일반한식","category":"restaurant"},{"name":"피자알볼로 금촌점","tel":"031-944-8495","addr":"경기도 파주시 금촌동 954-1번지","indutype":"일반휴게음식 - 서양음식","category":"restaurant"}]},{"lat":"37.763288204","long":"126.7746811","imageIndex":4,"items":[{"name":"김밥천국","tel":"031-941-2999","addr":"경기도 파주시 금촌동 54-33번지","indutype":"일반휴게음식 - 스넥","category":"restaurant"},{"name":"빽다방 파주금촌 1호점","tel":"031-948-3358","addr":"경기도 파주시 금촌동 54-33번지","indutype":"일반휴게음식 - 서양음식","category":"restaurant"}]},{"lat":"37.761230106","long":"126.76809398","imageIndex":4,"items":[{"name":"까막도야지","tel":"031-946-9925","addr":"경기도 파주시 금촌동 349-6번지","indutype":"일반휴게음식 - 일반한식","category":"restaurant"}]},{"lat":"37.757233757","long":"126.77004709","imageIndex":4,"items":[{"name":"깡통소갈비","tel":"031-945-9124","addr":"경기도 파주시 금촌동 960-10번지","indutype":"일반휴게음식 - 일반한식","category":"restaurant"}]},{"lat":"37.765612928","long":"126.77482149","imageIndex":4,"items":[{"name":"꼬레랑 역전통닭","tel":"031-947-8292","addr":"경기도 파주시 금촌동 329-178번지","indutype":"일반휴게음식 - 스넥","category":"restaurant"}]},{"lat":"37.770421727","long":"126.77364904","imageIndex":4,"items":[{"name":"꼬레랑옛날통닭","tel":"031-941-5888","addr":"경기도 파주시 금촌동 424-49번지","indutype":"일반휴게음식 - 일반한식","category":"restaurant"},{"name":"정가부대찌개","tel":"","addr":"경기도 파주시 금촌동 424-49번지","indutype":"일반휴게음식 - 일반한식","category":"restaurant"}]},{"lat":"37.763757815","long":"126.77525844","imageIndex":4,"items":[{"name":"꼼장어데이","tel":"02-6404-4374","addr":"경기도 파주시 금촌동 51-12번지","indutype":"일반휴게음식 - 일반한식","category":"restaurant"}]},{"lat":"37.757814391","long":"126.76753738","imageIndex":4,"items":[{"name":"꾸밈채 소소 커피","tel":"","addr":"경기도 파주시 금촌동 970번지","indutype":"일반휴게음식 - 서양음식","category":"restaurant"},{"name":"라이브학창시절","tel":"","addr":"경기도 파주시 금촌동 970번지","indutype":"일반휴게음식 - 일반한식","category":"restaurant"}]},{"lat":"37.769920695","long":"126.7754552","imageIndex":4,"items":[{"name":"꿀꿀이연탄갈비","tel":"","addr":"경기도 파주시 금촌동 18-3번지","indutype":"일반휴게음식 - 주점","category":"restaurant"}]},{"lat":"37.752338062","long":"126.76826959","imageIndex":4,"items":[{"name":"꿀먹은 강정","tel":"031-945-9869","addr":"경기도 파주시 금촌동 988-8번지 금촌크리닉센터 111호","indutype":"일반휴게음식 - 스넥","category":"restaurant"},{"name":"리민","tel":"","addr":"경기도 파주시 금촌동 988-8번지","indutype":"일반휴게음식 - 서양음식","category":"restaurant"},{"name":"스마일 명품 찹쌀 꽈베기","tel":"031-948-4393","addr":"경기도 파주시 금촌동 988-8번지","indutype":"일반휴게음식 - 일반한식","category":"restaurant"},{"name":"커피에반하다","tel":"031-000-0000","addr":"경기도 파주시 금촌동 988-8번지","indutype":"일반휴게음식 - 서양음식","category":"restaurant"},{"name":"홍춘천 치즈닭갈비 금릉역점","tel":"031-8071-1077","addr":"경기도 파주시 금촌동 988-8번지","indutype":"일반휴게음식 - 일반한식","category":"restaurant"}]},{"lat":"37.75828037","long":"126.7754341","imageIndex":4,"items":[{"name":"꿀벅지 닭갈비","tel":"031-942-5992","addr":"경기도 파주시 금촌동 948-8번지","indutype":"일반휴게음식 - 일반한식","category":"restaurant"}]},{"lat":"37.756591597","long":"126.77337398","imageIndex":4,"items":[{"name":"나정순할매쭈꾸미","tel":"031-957-3383","addr":"경기도 파주시 금촌동 958-13번지","indutype":"일반휴게음식 - 일반한식","category":"restaurant"}]},{"lat":"37.762286591","long":"126.77387842","imageIndex":4,"items":[{"name":"낙원","tel":"031-943-8545","addr":"경기도 파주시 금촌동 319-5","indutype":"일반휴게음식 - 주점","category":"restaurant"}]},{"lat":"37.757505182","long":"126.77062498","imageIndex":4,"items":[{"name":"남도술상 금촌점","tel":"031-947-7898","addr":"경기도 파주시 금촌동 960-5번지","indutype":"일반휴게음식 - 일반한식","category":"restaurant"}]},{"lat":"37.757227897","long":"126.77164715","imageIndex":4,"items":[{"name":"낭만주막","tel":"031-000-0000","addr":"경기도 파주시 금촌동 959-9번지","indutype":"일반휴게음식 - 일반한식","category":"restaurant"},{"name":"돈백집","tel":"031-973-0807","addr":"경기도 파주시 금촌동 959-9번지","indutype":"일반휴게음식 - 일반한식","category":"restaurant"},{"name":"모야","tel":"031-943-2099","addr":"경기도 파주시 금촌동 959-9번지","indutype":"일반휴게음식 - 일반한식","category":"restaurant"},{"name":"백년불족발","tel":"031-957-7878","addr":"경기도 파주시 금촌동 959-9번지","indutype":"일반휴게음식 - 일반한식","category":"restaurant"},{"name":"육회본가","tel":"","addr":"경기도 파주시 금촌동 959-9번지","indutype":"일반휴게음식 - 일반한식","category":"restaurant"}]},{"lat":"37.757837166","long":"126.76993172","imageIndex":4,"items":[{"name":"내찜닭","tel":"031-944-8859","addr":"경기도 파주시 금촌동 943-17번지","indutype":"일반휴게음식 - 일반한식","category":"restaurant"}]},{"lat":"37.755336437","long":"126.77656652","imageIndex":4,"items":[{"name":"네네치킨","tel":"031-949-4355","addr":"경기도 파주시 금촌동 790-3번지","indutype":"일반휴게음식 - 일반한식","category":"restaurant"},{"name":"모두의만족(금촌점)","tel":"031-949-2345","addr":"경기도 파주시 금촌동 790-3번지","indutype":"일반휴게음식 - 일반한식","category":"restaurant"}]},{"lat":"37.76178098","long":"126.7733239","imageIndex":4,"items":[{"name":"노가리와 생맥주","tel":"","addr":"경기도 파주시 금촌동 64-39번지","indutype":"일반휴게음식 - 주점","category":"restaurant"},{"name":"카페 (cafe CS)","tel":"02-111-1111","addr":"경기도 파주시 금촌동 64-39번지","indutype":"일반휴게음식 - 서양음식","category":"restaurant"}]},{"lat":"37.756532965","long":"126.77103654","imageIndex":4,"items":[{"name":"노가리호프","tel":"031-942-0150","addr":"경기도 파주시 금촌동 251-10번지","indutype":"일반휴게음식 - 주점","category":"restaurant"},{"name":"베리굿","tel":"031-945-8101","addr":"경기도 파주시 금촌동 251-10번지","indutype":"일반휴게음식 - 주점","category":"restaurant"},{"name":"역전할머니맥주 금촌점","tel":"031-947-3033","addr":"경기도 파주시 금촌동 251-10번지","indutype":"일반휴게음식 - 주점","category":"restaurant"}]},{"lat":"37.758147597","long":"126.77201877","imageIndex":4,"items":[{"name":"노래가좋아포차","tel":"","addr":"경기도 파주시 금촌동 944-9번지","indutype":"일반휴게음식 - 일반한식","category":"restaurant"},{"name":"빠시옹","tel":"031-943-9258","addr":"경기도 파주시 금촌동 944-9번지","indutype":"일반휴게음식 - 스넥","category":"restaurant"}]},{"lat":"37.762758794","long":"126.77579489","imageIndex":4,"items":[{"name":"논도랑추어탕","tel":"031-943-6565","addr":"경기도 파주시 금촌동 54-55번지","indutype":"일반휴게음식 - 일반한식","category":"restaurant"}]},{"lat":"37.765701814","long":"126.76960063","imageIndex":4,"items":[{"name":"논두렁 추어탕 흑염소","tel":"031-944-9000","addr":"경기도 파주시 금촌동 386-1번지","indutype":"일반휴게음식 - 일반한식","category":"restaurant"},{"name":"드림푸드팩토리","tel":"031-944-4722","addr":"경기도 파주시 금촌동 386-1번지","indutype":"일반휴게음식 - 일반한식","category":"restaurant"}]},{"lat":"37.756816446","long":"126.7778443","imageIndex":4,"items":[{"name":"놀란곱창","tel":"031-942-9230","addr":"경기도 파주시 금촌동 785-3번지","indutype":"일반휴게음식 - 일반한식","category":"restaurant"}]},{"lat":"37.758147631","long":"126.77668278","imageIndex":4,"items":[{"name":"누나네","tel":"031-945-5445","addr":"경기도 파주시 금촌동 773-3번지","indutype":"일반휴게음식 - 일반한식","category":"restaurant"},{"name":"산애들애","tel":"031-943-9189","addr":"경기도 파주시 금촌동 773-3번지","indutype":"일반휴게음식 - 일반한식","category":"restaurant"},{"name":"수릿골","tel":"031-945-6969","addr":"경기도 파주시 금촌동 773-3번지","indutype":"일반휴게음식 - 일반한식","category":"restaurant"}]},{"lat":"37.762504315","long":"126.77464946","imageIndex":4,"items":[{"name":"누들떡볶이","tel":"031-941-3094","addr":"경기도 파주시 금촌동 62-6번지","indutype":"일반휴게음식 - 일반한식","category":"restaurant"}]},{"lat":"37.764259397","long":"126.77373615","imageIndex":4,"items":[{"name":"눈내리는커피콩(눈콩)","tel":"031-939-8828","addr":"경기도 파주시 금촌동 329-186번지","indutype":"일반휴게음식 - 일반한식","category":"restaurant"}]},{"lat":"37.758256223","long":"126.7769321","imageIndex":4,"items":[{"name":"뉴욕카페","tel":"031-945-6603","addr":"경기도 파주시 금촌동 773-4번지","indutype":"일반휴게음식 - 서양음식","category":"restaurant"},{"name":"부산명가돼지국밥","tel":"031-443-2023","addr":"경기도 파주시 금촌동 773-4번지","indutype":"일반휴게음식 - 일반한식","category":"restaurant"}]},{"lat":"37.757891494","long":"126.77467498","imageIndex":4,"items":[{"name":"뉴욕커피앤베스트몰","tel":"031-1566-1991","addr":"경기도 파주시 금촌동 948-3,4번지메디인병원1층","indutype":"일반휴게음식 - 서양음식","category":"restaurant"}]},{"lat":"37.758336395","long":"126.77181392","imageIndex":4,"items":[{"name":"늑대양곱창","tel":"031-949-2727","addr":"경기도 파주시 금촌동 939-22번지","indutype":"일반휴게음식 - 일반한식","category":"restaurant"}]},{"lat":"37.757225822","long":"126.77059181","imageIndex":4,"items":[{"name":"늦은.오후","tel":"031-111-1111","addr":"경기도 파주시 금촌동 960-7번지","indutype":"일반휴게음식 - 서양음식","category":"restaurant"},{"name":"봉마담쌀롱","tel":"031-942-6664","addr":"경기도 파주시 금촌동 960-7번지","indutype":"일반휴게음식 - 주점","category":"restaurant"},{"name":"지금보고싶다금촌점","tel":"","addr":"경기도 파주시 금촌동 960-7번지","indutype":"일반휴게음식 - 일반한식","category":"restaurant"},{"name":"짠","tel":"031-946-1222","addr":"경기도 파주시 금촌동 960-7번지","indutype":"일반휴게음식 - 주점","category":"restaurant"}]},{"lat":"37.758059564","long":"126.7730744","imageIndex":4,"items":[{"name":"다구어","tel":"","addr":"경기도 파주시 금촌동 945-8번지","indutype":"일반휴게음식 - 일반한식","category":"restaurant"},{"name":"수복두루치기 닭볶음탕","tel":"031-946-1855","addr":"경기도 파주시 금촌동 945-8번지","indutype":"일반휴게음식 - 일반한식","category":"restaurant"}]},{"lat":"37.761593282","long":"126.77409618","imageIndex":4,"items":[{"name":"다손식당","tel":"031-943-5898","addr":"경기도 파주시 금촌동 70-1번지","indutype":"일반휴게음식 - 일반한식","category":"restaurant"},{"name":"약산흑대장","tel":"031-941-2522","addr":"경기도 파주시 금촌동 70-1번지","indutype":"일반휴게음식 - 일반한식","category":"restaurant"}]},{"lat":"37.757780951","long":"126.7688425","imageIndex":4,"items":[{"name":"다옴","tel":"031-947-4549","addr":"경기도 파주시 금촌동 942-6번지","indutype":"일반휴게음식 - 일반한식","category":"restaurant"}]},{"lat":"37.770532219","long":"126.77487448","imageIndex":4,"items":[{"name":"다육숲돈까스","tel":"031-941-9339","addr":"경기도 파주시 금촌동 11-25번지","indutype":"일반휴게음식 - 일반한식","category":"restaurant"}]},{"lat":"37.758761328","long":"126.77257292","imageIndex":4,"items":[{"name":"다해수산","tel":"031-946-9006","addr":"경기도 파주시 금촌동 938-15번지","indutype":"일반휴게음식 - 일반한식","category":"restaurant"}]},{"lat":"37.76120528","long":"126.77379097","imageIndex":4,"items":[{"name":"단골","tel":"031-944-8397","addr":"경기도 파주시 금촌동 70-14번지","indutype":"일반휴게음식 - 주점","category":"restaurant"}]},{"lat":"37.75787025","long":"126.77768224","imageIndex":4,"items":[{"name":"달개비","tel":"031-949-1382","addr":"경기도 파주시 금촌동 776-2번지","indutype":"일반휴게음식 - 일반한식","category":"restaurant"}]},{"lat":"37.764199125","long":"126.77517765","imageIndex":4,"items":[{"name":"달구지 막창","tel":"070-4900-5343","addr":"경기도 파주시 금촌동 45-25번지","indutype":"일반휴게음식 - 일반한식","category":"restaurant"}]},{"lat":"37.757370085","long":"126.7706481","imageIndex":4,"items":[{"name":"달빛담은술잔","tel":"031-939-8797","addr":"경기도 파주시 금촌동 960-6번지","indutype":"일반휴게음식 - 일반한식","category":"restaurant"},{"name":"스킁술집","tel":"02-1234-1234","addr":"경기도 파주시 금촌동 960-6번지","indutype":"일반휴게음식 - 주점","category":"restaurant"}]},{"lat":"37.762172104","long":"126.77062174","imageIndex":4,"items":[{"name":"달인푸드","tel":"031-947-4123","addr":"경기도 파주시 금촌동 334-167번지","indutype":"일반휴게음식 - 일반한식","category":"restaurant"}]},{"lat":"37.7554499","long":"126.77936901","imageIndex":4,"items":[{"name":"달카페","tel":"031-944-9262","addr":"경기도 파주시 금촌동 791-10번지","indutype":"일반휴게음식 - 일반한식","category":"restaurant"}]},{"lat":"37.758703968","long":"126.77551224","imageIndex":4,"items":[{"name":"달콤짬뽕","tel":"031-943-4333","addr":"경기도 파주시 금촌동 765-23번지","indutype":"일반휴게음식 - 중국식","category":"restaurant"}]},{"lat":"37.760146837","long":"126.77621141","imageIndex":4,"items":[{"name":"대가감자탕","tel":"031-947-4343","addr":"경기도 파주시 금촌동 767-2번지","indutype":"일반휴게음식 - 일반한식","category":"restaurant"}]},{"lat":"37.757203332","long":"126.77757078","imageIndex":4,"items":[{"name":"대구뿔찜","tel":"031-942-1509","addr":"경기도 파주시 금촌동 775-4번지","indutype":"일반휴게음식 - 일반한식","category":"restaurant"}]},{"lat":"37.755726819","long":"126.77811995","imageIndex":4,"items":[{"name":"대로포차","tel":"031-943-6245","addr":"경기도 파주시 금촌동 791-17번지","indutype":"일반휴게음식 - 일반한식","category":"restaurant"}]},{"lat":"37.757087978","long":"126.77381501","imageIndex":4,"items":[{"name":"대박쭈꾸미부대찌개","tel":"031-946-9982","addr":"경기도 파주시 금촌동 952-6번지 외1필지 현인메트로 105호","indutype":"일반휴게음식 - 일반한식","category":"restaurant"},{"name":"스시선인1999","tel":"070-7405-0531","addr":"경기도 파주시 금촌동 952-6번지","indutype":"일반휴게음식 - 일식·회집","category":"restaurant"},{"name":"주화자(금촌점)","tel":"","addr":"경기도 파주시 금촌동 952-6번지","indutype":"일반휴게음식 - 일반한식","category":"restaurant"},{"name":"한상에 소두마리","tel":"031-943-8989","addr":"경기도 파주시 금촌동 952-6번지","indutype":"일반휴게음식 - 일반한식","category":"restaurant"}]},{"lat":"37.757979165","long":"126.77810178","imageIndex":4,"items":[{"name":"대박해물탕","tel":"031-946-4989","addr":"경기도 파주시 금촌동 777-12번지","indutype":"일반휴게음식 - 일반한식","category":"restaurant"}]},{"lat":"37.758475391","long":"126.77378804","imageIndex":4,"items":[{"name":"대성동민물매운탕","tel":"031-945-6888","addr":"경기도 파주시 금촌동 946-24,946-25","indutype":"일반휴게음식 - 일반한식","category":"restaurant"}]},{"lat":"37.762169292","long":"126.773788","imageIndex":4,"items":[{"name":"대성실내포장마차","tel":"031-528-4657","addr":"경기도 파주시 금촌동 319-70번지","indutype":"일반휴게음식 - 일반한식","category":"restaurant"}]},{"lat":"37.762699613","long":"126.77315084","imageIndex":4,"items":[{"name":"대일정육식당","tel":"031-941-3521","addr":"경기도 파주시 금촌동 321-12번지","indutype":"일반휴게음식 - 일반한식","category":"restaurant"},{"name":"이팔치킨","tel":"031-944-9588","addr":"경기도 파주시 금촌동 321-12번지","indutype":"일반휴게음식 - 스넥","category":"restaurant"}]},{"lat":"37.763617181","long":"126.77243302","imageIndex":4,"items":[{"name":"대청수산(풍천장어직판장)","tel":"031-948-0059","addr":"경기도 파주시 금촌동 326-5번지","indutype":"일반휴게음식 - 일반한식","category":"restaurant"}]},{"lat":"37.76147783","long":"126.77495902","imageIndex":4,"items":[{"name":"대한민국대표고기","tel":"031-945-8292","addr":"경기도 파주시 금촌동 65-10","indutype":"일반휴게음식 - 일반한식","category":"restaurant"}]},{"lat":"37.76519812","long":"126.77462983","imageIndex":4,"items":[{"name":"더 히말라얀","tel":"031-943-2256","addr":"경기도 파주시 금촌동 329-19번지","indutype":"일반휴게음식 - 서양음식","category":"restaurant"},{"name":"마운트안나푸르나(주)","tel":"031-943-2256","addr":"경기도 파주시 금촌동 329-19번지","indutype":"일반휴게음식 - 일반한식","category":"restaurant"},{"name":"봉칠이치킨","tel":"031-945-5123","addr":"경기도 파주시 금촌동 329-19번지","indutype":"일반휴게음식 - 스넥","category":"restaurant"},{"name":"빨간머리앤","tel":"031-957-4309","addr":"경기도 파주시 금촌동 329-19번지","indutype":"일반휴게음식 - 스넥","category":"restaurant"},{"name":"알머디나할랄음식앤레스토랑","tel":"","addr":"경기도 파주시 금촌동 329-19번지","indutype":"일반휴게음식 - 서양음식","category":"restaurant"},{"name":"쥬씨파주금촌점","tel":"031-1111-2222","addr":"경기도 파주시 금촌동 329-19번지","indutype":"일반휴게음식 - 서양음식","category":"restaurant"}]},{"lat":"37.751533433","long":"126.76687646","imageIndex":4,"items":[{"name":"더블유(W)","tel":"031-0000-0000","addr":"경기도 파주시 금촌동 989-1번지","indutype":"일반휴게음식 - 주점","category":"restaurant"},{"name":"명랑시대 쌀핫도그 금릉점","tel":"","addr":"경기도 파주시 금촌동 989-1번지","indutype":"일반휴게음식 - 일반한식","category":"restaurant"},{"name":"이삭토스트","tel":"031-944-8523","addr":"경기도 파주시 금촌동 989-1번지","indutype":"일반휴게음식 - 일반한식","category":"restaurant"},{"name":"쥬씨앤차암 파주금릉점","tel":"031-000-0000","addr":"경기도 파주시 금촌동 989-1번지","indutype":"일반휴게음식 - 서양음식","category":"restaurant"},{"name":"텐션 (TENTION)","tel":"031-948-6825","addr":"경기도 파주시 금촌동 989-1번지","indutype":"일반휴게음식 - 주점","category":"restaurant"},{"name":"홍루이젠 금릉점","tel":"","addr":"경기도 파주시 금촌동 989-1번지","indutype":"일반휴게음식 - 일반한식","category":"restaurant"}]},{"lat":"37.758616511","long":"126.77223293","imageIndex":4,"items":[{"name":"더샵THE쪽갈비#치킨","tel":"","addr":"경기도 파주시 금촌동 938-17번지","indutype":"일반휴게음식 - 주점","category":"restaurant"}]},{"lat":"37.764252699","long":"126.77492781","imageIndex":4,"items":[{"name":"덕수포차","tel":"031-111-1112","addr":"경기도 파주시 금촌동 44-20번지","indutype":"일반휴게음식 - 일반한식","category":"restaurant"}]},{"lat":"37.762196607","long":"126.77393544","imageIndex":4,"items":[{"name":"덕이네","tel":"031-941-2443","addr":"경기도 파주시 금촌동 64-31번지","indutype":"일반휴게음식 - 일반한식","category":"restaurant"}]},{"lat":"37.767946542","long":"126.76576881","imageIndex":4,"items":[{"name":"도마손국수","tel":"031-949-2249","addr":"경기도 파주시 금촌동 446-1번지","indutype":"일반휴게음식 - 일반한식","category":"restaurant"}]},{"lat":"37.758839767","long":"126.77585226","imageIndex":4,"items":[{"name":"도미노피자금촌점","tel":"031-946-8230","addr":"경기도 파주시 금촌동 765-21번지","indutype":"일반휴게음식 - 서양음식","category":"restaurant"}]},{"lat":"37.757896397","long":"126.77256425","imageIndex":4,"items":[{"name":"도야족발","tel":"031-8070-2525","addr":"경기도 파주시 금촌동 945-12번지","indutype":"일반휴게음식 - 일반한식","category":"restaurant"}]},{"lat":"37.757005059","long":"126.7728734","imageIndex":4,"items":[{"name":"도톰한","tel":"031-943-8214","addr":"경기도 파주시 금촌동 958-16번지","indutype":"일반휴게음식 - 일반한식","category":"restaurant"}]},{"lat":"37.757174397","long":"126.77193101","imageIndex":4,"items":[{"name":"돈곳간","tel":"031-941-5953","addr":"경기도 파주시 금촌동 959-8번지","indutype":"일반휴게음식 - 일반한식","category":"restaurant"},{"name":"한신포차 파주금촌점","tel":"031-941-5953","addr":"경기도 파주시 금촌동 959-8번지","indutype":"일반휴게음식 - 일반한식","category":"restaurant"}]},{"lat":"37.758510347","long":"126.77323188","imageIndex":4,"items":[{"name":"돈육몽","tel":"031-946-1524","addr":"경기도 파주시 금촌동 946-19번지","indutype":"일반휴게음식 - 일반한식","category":"restaurant"}]},{"lat":"37.756563263","long":"126.77270456","imageIndex":4,"items":[{"name":"돈자루","tel":"031-949-1092","addr":"경기도 파주시 금촌동 957-4번지","indutype":"일반휴게음식 - 일반한식","category":"restaurant"},{"name":"모퉁이생선구이전문점","tel":"031-943-5914","addr":"경기도 파주시 금촌동 957-4번지","indutype":"일반휴게음식 - 일반한식","category":"restaurant"},{"name":"불닭발천국","tel":"031-948-0773","addr":"경기도 파주시 금촌동 957-4번지","indutype":"일반휴게음식 - 일반한식","category":"restaurant"}]},{"lat":"37.758030474","long":"126.77201913","imageIndex":4,"items":[{"name":"돌판생삼겹살","tel":"031-942-4292","addr":"경기도 파주시 금촌동 944-12번지","indutype":"일반휴게음식 - 일반한식","category":"restaurant"}]},{"lat":"37.755870126","long":"126.77767696","imageIndex":4,"items":[{"name":"동킨호프","tel":"031-942-9242","addr":"경기도 파주시 금촌동 786-36번지","indutype":"일반휴게음식 - 스넥","category":"restaurant"}]},{"lat":"37.763423119","long":"126.7699596","imageIndex":4,"items":[{"name":"동해바다","tel":"031-945-5949","addr":"경기도 파주시 금촌동 355-1번지 지연빌딩 1층","indutype":"일반휴게음식 - 일반한식","category":"restaurant"}]},{"lat":"37.760282568","long":"126.7765174","imageIndex":4,"items":[{"name":"돼지구이연구소","tel":"031-948-9209","addr":"경기도 파주시 금촌동 767-4번지","indutype":"일반휴게음식 - 일반한식","category":"restaurant"}]},{"lat":"37.755421271","long":"126.77384285","imageIndex":4,"items":[{"name":"두껍삼","tel":"031-944-1237","addr":"경기도 파주시 금촌동 953-9번지","indutype":"일반휴게음식 - 일반한식","category":"restaurant"},{"name":"두리돈까스","tel":"031-957-3396","addr":"경기도 파주시 금촌동 953-9번지","indutype":"일반휴게음식 - 서양음식","category":"restaurant"},{"name":"치킨뱅이","tel":"031-949-0408","addr":"경기도 파주시 금촌동 953-9번지","indutype":"일반휴게음식 - 주점","category":"restaurant"}]},{"lat":"37.758146497","long":"126.77609269","imageIndex":4,"items":[{"name":"두만강찹쌀순대","tel":"031-944-8948","addr":"경기도 파주시 금촌동 772-15번지","indutype":"일반휴게음식 - 일반한식","category":"restaurant"},{"name":"여우별","tel":"","addr":"경기도 파주시 금촌동 772-15번지","indutype":"일반휴게음식 - 서양음식","category":"restaurant"}]},{"lat":"37.75928094","long":"126.77107335","imageIndex":4,"items":[{"name":"두번째작업실","tel":"","addr":"경기도 파주시 금촌동 939-2번지","indutype":"일반휴게음식 - 일반한식","category":"restaurant"}]},{"lat":"37.760228293","long":"126.77640409","imageIndex":4,"items":[{"name":"두이모다방","tel":"031-948-4666","addr":"경기도 파주시 금촌동 767-3번지","indutype":"일반휴게음식 - 서양음식","category":"restaurant"},{"name":"소담능이백숙","tel":"031-947-2749","addr":"경기도 파주시 금촌동 767-3번지","indutype":"일반휴게음식 - 일반한식","category":"restaurant"}]},{"lat":"37.755594116","long":"126.77940262","imageIndex":4,"items":[{"name":"두툼두루치기","tel":"031-944-5599","addr":"경기도 파주시 금촌동 791-9번지","indutype":"일반휴게음식 - 일반한식","category":"restaurant"}]},{"lat":"37.762033995","long":"126.77370897","imageIndex":4,"items":[{"name":"둥지","tel":"031-944-8749","addr":"경기도 파주시 금촌동 64-48번지","indutype":"일반휴게음식 - 일반한식","category":"restaurant"}]},{"lat":"37.752094784","long":"126.76825901","imageIndex":4,"items":[{"name":"땡큐37","tel":"031-946-3637","addr":"경기도 파주시 금촌동 988-7번지","indutype":"일반휴게음식 - 일반한식","category":"restaurant"},{"name":"버거월드(금촌로데오점)","tel":"031-949-9449","addr":"경기도 파주시 금촌동 988-7번지","indutype":"일반휴게음식 - 서양음식","category":"restaurant"},{"name":"족발가문","tel":"031-957-8586","addr":"경기도 파주시 금촌동 988-7번지","indutype":"일반휴게음식 - 일반한식","category":"restaurant"},{"name":"짚신매운갈비찜","tel":"031-941-3224","addr":"경기도 파주시 금촌동 988-7번지","indutype":"일반휴게음식 - 일반한식","category":"restaurant"}]},{"lat":"37.75628197","long":"126.77168414","imageIndex":4,"items":[{"name":"땡큐맘치킨(Thank u mom) 파주금촌점","tel":"031-949-3391","addr":"경기도 파주시 금촌동 251-5번지","indutype":"일반휴게음식 - 스넥","category":"restaurant"},{"name":"라이브클럽 킹","tel":"031-949-5566","addr":"경기도 파주시 금촌동 251-5번지","indutype":"일반휴게음식 - 주점","category":"restaurant"},{"name":"오떡금촌점","tel":"031-942-5758","addr":"경기도 파주시 금촌동 251-5번지","indutype":"일반휴게음식 - 일반한식","category":"restaurant"}]},{"lat":"37.750755906","long":"126.77465151","imageIndex":4,"items":[{"name":"떡세끼떡볶이","tel":"031-942-9258","addr":"경기도 파주시 금촌동 1008번지 금촌풍림아이원아파트","indutype":"일반휴게음식 - 스넥","category":"restaurant"},{"name":"컬투치킨 금촌사랑점","tel":"031-948-5123","addr":"경기도 파주시 금촌동 1008번지 금촌풍림아이원아파트","indutype":"일반휴게음식 - 스넥","category":"restaurant"},{"name":"피자연합 협동조합(파주 금촌점)","tel":"031-223-5214","addr":"경기도 파주시 금촌동 1008번지 금촌풍림아이원아파트","indutype":"일반휴게음식 - 서양음식","category":"restaurant"}]},{"lat":"37.755368013","long":"126.76965577","imageIndex":4,"items":[{"name":"떳다분식","tel":"031-945-1432","addr":"경기도 파주시 금촌동 246-29번지 태윤빌딩 1층 104호","indutype":"일반휴게음식 - 스넥","category":"restaurant"}]},{"lat":"37.755621869","long":"126.77046065","imageIndex":4,"items":[{"name":"또래오래","tel":"031-957-9222","addr":"경기도 파주시 금촌동 246-23번지","indutype":"일반휴게음식 - 스넥","category":"restaurant"},{"name":"웰뎀치킨","tel":"031-946-7368","addr":"경기도 파주시 금촌동 246-23번지","indutype":"일반휴게음식 - 스넥","category":"restaurant"}]},{"lat":"37.763812047","long":"126.77534907","imageIndex":4,"items":[{"name":"라마단레스토랑","tel":"070-7420-8520","addr":"경기도 파주시 금촌동 51-11번지","indutype":"일반휴게음식 - 서양음식","category":"restaurant"},{"name":"한앤둘금촌역점","tel":"031-944-2778","addr":"경기도 파주시 금촌동 51-11번지","indutype":"일반휴게음식 - 주점","category":"restaurant"}]},{"lat":"37.758058232","long":"126.77704619","imageIndex":4,"items":[{"name":"라이브7080젊은날","tel":"031-949-8839","addr":"경기도 파주시 금촌동 773-5번지","indutype":"일반휴게음식 - 주점","category":"restaurant"},{"name":"왕건이","tel":"031-941-8665","addr":"경기도 파주시 금촌동 773-5번지","indutype":"일반휴게음식 - 일반한식","category":"restaurant"}]},{"lat":"37.763455011","long":"126.77243353","imageIndex":4,"items":[{"name":"락푸드항아리해물짬뽕","tel":"031-944-9917","addr":"경기도 파주시 금촌동 326-7번지","indutype":"일반휴게음식 - 일반한식","category":"restaurant"}]},{"lat":"37.757539181","long":"126.76959222","imageIndex":4,"items":[{"name":"랄천하마라탕","tel":"031-943-3626","addr":"경기도 파주시 금촌동 960-17번지","indutype":"일반휴게음식 - 중국식","category":"restaurant"}]},{"lat":"37.766564867","long":"126.77324102","imageIndex":4,"items":[{"name":"러나","tel":"031-947-1141","addr":"경기도 파주시 금촌동 369-37번지","indutype":"일반휴게음식 - 서양음식","category":"restaurant"}]},{"lat":"37.759225663","long":"126.77506806","imageIndex":4,"items":[{"name":"로고스카페","tel":"031-939-6649","addr":"경기도 파주시 금촌동 764-12번지","indutype":"일반휴게음식 - 서양음식","category":"restaurant"}]},{"lat":"37.755503536","long":"126.76984826","imageIndex":4,"items":[{"name":"로뎀카페","tel":"070-4173-3955","addr":"경기도 파주시 금촌동 246-14번지","indutype":"일반휴게음식 - 서양음식","category":"restaurant"}]},{"lat":"37.762702413","long":"126.77459211","imageIndex":4,"items":[{"name":"로스팅하우스","tel":"070-8806-2213","addr":"경기도 파주시 금촌동 62-4번지","indutype":"일반휴게음식 - 일반한식","category":"restaurant"},{"name":"신장터분식","tel":"031-941-2523","addr":"경기도 파주시 금촌동 62-4","indutype":"일반휴게음식 - 일반한식","category":"restaurant"},{"name":"커피의정석","tel":"070-8806-2213","addr":"경기도 파주시 금촌동 62-4번지","indutype":"일반휴게음식 - 서양음식","category":"restaurant"}]},{"lat":"37.757534664","long":"126.77187315","imageIndex":4,"items":[{"name":"로타리잠실감자탕&쭈꾸미","tel":"031-943-9494","addr":"경기도 파주시 금촌동 959-4번지","indutype":"일반휴게음식 - 일반한식","category":"restaurant"}]},{"lat":"37.758204688","long":"126.77357326","imageIndex":4,"items":[{"name":"로타리잠실감자탕&쭈꾸미삼겹살","tel":"031-943-9494","addr":"경기도 파주시 금촌동 946-17번지 1층","indutype":"일반휴게음식 - 일반한식","category":"restaurant"}]},{"lat":"37.757480874","long":"126.77200949","imageIndex":4,"items":[{"name":"로타리장어집","tel":"031-957-3210","addr":"경기도 파주시 금촌동 959-6번지","indutype":"일반휴게음식 - 일반한식","category":"restaurant"}]},{"lat":"37.755672189","long":"126.77314987","imageIndex":4,"items":[{"name":"롯데리아LG금촌점","tel":"031-944-4611","addr":"경기도 파주시 금촌동 956-5번지","indutype":"일반휴게음식 - 서양음식","category":"restaurant"}]},{"lat":"37.760391161","long":"126.77676673","imageIndex":4,"items":[{"name":"마뇨떡볶이 금촌점","tel":"031-947-1235","addr":"경기도 파주시 금촌동 767-6번지","indutype":"일반휴게음식 - 스넥","category":"restaurant"}]},{"lat":"37.769477333","long":"126.76987251","imageIndex":4,"items":[{"name":"마음밭길앤포차","tel":"","addr":"경기도 파주시 금촌동 415-8번지","indutype":"일반휴게음식 - 일반한식","category":"restaurant"}]},{"lat":"37.75878715","long":"126.7766014","imageIndex":4,"items":[{"name":"마이피앙새","tel":"031-000-0000","addr":"경기도 파주시 금촌동 772-8번지","indutype":"일반휴게음식 - 일반한식","category":"restaurant"}]},{"lat":"37.760252631","long":"126.77500817","imageIndex":4,"items":[{"name":"마촌아구탕","tel":"031-944-3945","addr":"경기도 파주시 금촌동 72-23번지","indutype":"일반휴게음식 - 일반한식","category":"restaurant"}]},{"lat":"37.763982898","long":"126.77517831","imageIndex":4,"items":[{"name":"마카롱공방","tel":"","addr":"경기도 파주시 금촌동 50-30번지","indutype":"일반휴게음식 - 서양음식","category":"restaurant"}]},{"lat":"37.761371402","long":"126.77120301","imageIndex":4,"items":[{"name":"마포갈비","tel":"031-944-9271","addr":"경기도 파주시 금촌동 343-6.7","indutype":"일반휴게음식 - 일반한식","category":"restaurant"}]},{"lat":"37.761173595","long":"126.7714079","imageIndex":4,"items":[{"name":"마포갈비","tel":"031-946-1992","addr":"경기도 파주시 금촌동 342-2번지","indutype":"일반휴게음식 - 일반한식","category":"restaurant"}]},{"lat":"37.756400143","long":"126.77686966","imageIndex":4,"items":[{"name":"만나","tel":"031-945-5683","addr":"경기도 파주시 금촌동 786-19번지","indutype":"일반휴게음식 - 일반한식","category":"restaurant"},{"name":"우리식당","tel":"031-945-3282","addr":"경기도 파주시 금촌동 786-19번지","indutype":"일반휴게음식 - 일반한식","category":"restaurant"}]},{"lat":"37.762724734","long":"126.77217477","imageIndex":4,"items":[{"name":"만나수제돈까스","tel":"070-7686-1376","addr":"경기도 파주시 금촌동 335-2번지","indutype":"일반휴게음식 - 서양음식","category":"restaurant"}]},{"lat":"37.756897964","long":"126.77807101","imageIndex":4,"items":[{"name":"만리장성","tel":"031-945-0188","addr":"경기도 파주시 금촌동 784-1번지","indutype":"일반휴게음식 - 중국식","category":"restaurant"}]},{"lat":"37.764697333","long":"126.77657204","imageIndex":4,"items":[{"name":"만선포차","tel":"","addr":"경기도 파주시 금촌동 50-12번지","indutype":"일반휴게음식 - 일반한식","category":"restaurant"}]},{"lat":"37.765171136","long":"126.77465261","imageIndex":4,"items":[{"name":"맘스터치 금촌역점","tel":"031-948-7666","addr":"경기도 파주시 금촌동 329-223번지","indutype":"일반휴게음식 - 서양음식","category":"restaurant"},{"name":"카페게이트 파주금촌역점","tel":"","addr":"경기도 파주시 금촌동 329-223번지","indutype":"일반휴게음식 - 서양음식","category":"restaurant"},{"name":"커피에 반하다","tel":"031-945-4145","addr":"경기도 파주시 금촌동 329-223번지","indutype":"일반휴게음식 - 서양음식","category":"restaurant"}]},{"lat":"37.757535708","long":"126.7724065","imageIndex":4,"items":[{"name":"맛나","tel":"031-946-4222","addr":"경기도 파주시 금촌동 958-2번지","indutype":"일반휴게음식 - 일반한식","category":"restaurant"}]},{"lat":"37.75775701","long":"126.77501583","imageIndex":4,"items":[{"name":"맛나네밥상","tel":"031-949-9292","addr":"경기도 파주시 금촌동 948-16번지","indutype":"일반휴게음식 - 일반한식","category":"restaurant"}]},{"lat":"37.7642822","long":"126.77621014","imageIndex":4,"items":[{"name":"맛양값","tel":"031-876-7993","addr":"경기도 파주시 금촌동 51-2번지","indutype":"일반휴게음식 - 일반한식","category":"restaurant"},{"name":"새마을전집","tel":"031-943-0433","addr":"경기도 파주시 금촌동 51-2번지","indutype":"일반휴게음식 - 일반한식","category":"restaurant"}]},{"lat":"37.756510492","long":"126.77803814","imageIndex":4,"items":[{"name":"맛으로채움","tel":"031-941-5678","addr":"경기도 파주시 금촌동 785-5번지","indutype":"일반휴게음식 - 일반한식","category":"restaurant"},{"name":"왕대박순대국","tel":"031-941-7785","addr":"경기도 파주시 금촌동 785-5번지","indutype":"일반휴게음식 - 일반한식","category":"restaurant"},{"name":"일번가","tel":"031-945-0809","addr":"경기도 파주시 금촌동 785-5번지","indutype":"일반휴게음식 - 일반한식","category":"restaurant"}]},{"lat":"37.757786551","long":"126.77167945","imageIndex":4,"items":[{"name":"매운집","tel":"031-949-9976","addr":"경기도 파주시 금촌동 944-26번지","indutype":"일반휴게음식 - 일반한식","category":"restaurant"}]},{"lat":"37.75869928","long":"126.77309512","imageIndex":4,"items":[{"name":"맥주창고","tel":"031-111-1111","addr":"경기도 파주시 금촌동 946-3번지","indutype":"일반휴게음식 - 일반한식","category":"restaurant"}]},{"lat":"37.761730621","long":"126.77523061","imageIndex":4,"items":[{"name":"맥주콜","tel":"031-939-1952","addr":"경기도 파주시 금촌동 56-9번지","indutype":"일반휴게음식 - 주점","category":"restaurant"}]},{"lat":"37.76270096","long":"126.7738431","imageIndex":4,"items":[{"name":"맷돌손두부","tel":"031-943-2060","addr":"경기도 파주시 금촌동 320-6번지","indutype":"일반휴게음식 - 일반한식","category":"restaurant"}]},{"lat":"37.759065265","long":"126.77598775","imageIndex":4,"items":[{"name":"머꼬가","tel":"031-943-1031","addr":"경기도 파주시 금촌동 765-19번지","indutype":"일반휴게음식 - 일반한식","category":"restaurant"},{"name":"북엘라(Book ELLA)","tel":"031-945-0344","addr":"경기도 파주시 금촌동 765-19번지","indutype":"일반휴게음식 - 서양음식","category":"restaurant"},{"name":"시청앞김밥","tel":"031-949-5589","addr":"경기도 파주시 금촌동 765-19번지","indutype":"일반휴게음식 - 스넥","category":"restaurant"},{"name":"월계관","tel":"","addr":"경기도 파주시 금촌동 765-19번지","indutype":"일반휴게음식 - 일반한식","category":"restaurant"},{"name":"정연이네","tel":"031-948-0207","addr":"경기도 파주시 금촌동 765-19번지","indutype":"일반휴게음식 - 일반한식","category":"restaurant"},{"name":"쪼매난카페","tel":"031-941-5207","addr":"경기도 파주시 금촌동 765-19번지","indutype":"일반휴게음식 - 서양음식","category":"restaurant"},{"name":"카페 콩","tel":"","addr":"경기도 파주시 금촌동 765-19번지","indutype":"일반휴게음식 - 서양음식","category":"restaurant"},{"name":"페이지원","tel":"031-935-6557","addr":"경기도 파주시 금촌동 765-19번지","indutype":"일반휴게음식 - 서양음식","category":"restaurant"}]},{"lat":"37.761421463","long":"126.77376761","imageIndex":4,"items":[{"name":"먹깨비","tel":"031-0000-0000","addr":"경기도 파주시 금촌동 70-10번지","indutype":"일반휴게음식 - 일반한식","category":"restaurant"}]},{"lat":"37.757563601","long":"126.77284898","imageIndex":4,"items":[{"name":"메가엠지씨커피(금촌로터리점)","tel":"","addr":"경기도 파주시 금촌동 958-9번지","indutype":"일반휴게음식 - 서양음식","category":"restaurant"}]},{"lat":"37.764927066","long":"126.77423345","imageIndex":4,"items":[{"name":"메가엠지씨커피금촌역점","tel":"","addr":"경기도 파주시 금촌동 329-33번지","indutype":"일반휴게음식 - 서양음식","category":"restaurant"},{"name":"미소다방","tel":"","addr":"경기도 파주시 금촌동 329-33번지","indutype":"일반휴게음식 - 서양음식","category":"restaurant"}]},{"lat":"37.757427306","long":"126.77225931","imageIndex":4,"items":[{"name":"메인","tel":"031-943-0553","addr":"경기도 파주시 금촌동 958-22번지","indutype":"일반휴게음식 - 주점","category":"restaurant"},{"name":"옛날노가리호프","tel":"031-947-0856","addr":"경기도 파주시 금촌동 958-22번지","indutype":"일반휴게음식 - 주점","category":"restaurant"},{"name":"오징어우미","tel":"031-947-0856","addr":"경기도 파주시 금촌동 958-22번지","indutype":"일반휴게음식 - 일반한식","category":"restaurant"}]},{"lat":"37.748757369","long":"126.77084521","imageIndex":4,"items":[{"name":"멕시카나치킨(주공)","tel":"031-943-3007","addr":"경기도 파주시 금촌동 1019번지 서원마을뜨란채","indutype":"일반휴게음식 - 스넥","category":"restaurant"},{"name":"언니네분식","tel":"031-947-5533","addr":"경기도 파주시 금촌동 1019번지 서원마을뜨란채","indutype":"일반휴게음식 - 스넥","category":"restaurant"}]},{"lat":"37.757340228","long":"126.77848954","imageIndex":4,"items":[{"name":"멕시칸양념통닭","tel":"031-944-2555","addr":"경기도 파주시 금촌동 777-7번지","indutype":"일반휴게음식 - 스넥","category":"restaurant"}]},{"lat":"37.755510116","long":"126.77787096","imageIndex":4,"items":[{"name":"멜팅하우스","tel":"02-305-2070","addr":"경기도 파주시 금촌동 790-29번지","indutype":"일반휴게음식 - 일반한식","category":"restaurant"}]},{"lat":"37.758230368","long":"126.77754497","imageIndex":4,"items":[{"name":"명동닭한마리","tel":"031-948-9188","addr":"경기도 파주시 금촌동 770-13번지","indutype":"일반휴게음식 - 일반한식","category":"restaurant"}]},{"lat":"37.760309793","long":"126.77661945","imageIndex":4,"items":[{"name":"명동칼국수","tel":"031-941-0788","addr":"경기도 파주시 금촌동 767-5번지","indutype":"일반휴게음식 - 일반한식","category":"restaurant"},{"name":"전통의 옛날통닭","tel":"","addr":"경기도 파주시 금촌동 767-5번지","indutype":"일반휴게음식 - 스넥","category":"restaurant"}]},{"lat":"37.761037481","long":"126.76638098","imageIndex":4,"items":[{"name":"명태명가","tel":"031-948-8184","addr":"경기도 파주시 금촌동 496-4번지","indutype":"일반휴게음식 - 일반한식","category":"restaurant"}]},{"lat":"37.758343733","long":"126.7709628","imageIndex":4,"items":[{"name":"명품흑대감흑마늘보쌈족발","tel":"","addr":"경기도 파주시 금촌동 940-10번지 리치빌","indutype":"일반휴게음식 - 일반한식","category":"restaurant"}]},{"lat":"37.761810543","long":"126.77462889","imageIndex":4,"items":[{"name":"모이자","tel":"031-945-7780","addr":"경기도 파주시 금촌동 65-24번지","indutype":"일반휴게음식 - 일반한식","category":"restaurant"}]},{"lat":"37.756620895","long":"126.77454271","imageIndex":4,"items":[{"name":"모퉁이","tel":"031-948-5984","addr":"경기도 파주시 금촌동 951-2번지","indutype":"일반휴게음식 - 서양음식","category":"restaurant"}]},{"lat":"37.764315062","long":"126.77456445","imageIndex":4,"items":[{"name":"몰토베네(Molto bene)","tel":"070-7755-3605","addr":"경기도 파주시 금촌동 44-15번지","indutype":"일반휴게음식 - 일반한식","category":"restaurant"}]},{"lat":"37.751038457","long":"126.76715036","imageIndex":4,"items":[{"name":"못난감자앤치킨금촌점","tel":"031-946-0808","addr":"경기도 파주시 금촌동 990-3번지","indutype":"일반휴게음식 - 주점","category":"restaurant"},{"name":"본도시락금릉점","tel":"031-943-4289","addr":"경기도 파주시 금촌동 990-3번지","indutype":"일반휴게음식 - 일반한식","category":"restaurant"},{"name":"최가네일산김밥","tel":"031-945-6988","addr":"경기도 파주시 금촌동 990-3번지","indutype":"일반휴게음식 - 일반한식","category":"restaurant"},{"name":"케익플러스(아띠애)","tel":"031-941-5048","addr":"경기도 파주시 금촌동 990-3번지","indutype":"일반휴게음식 - 서양음식","category":"restaurant"}]},{"lat":"37.759756957","long":"126.77493026","imageIndex":4,"items":[{"name":"못난이","tel":"031-000-0000","addr":"경기도 파주시 금촌동 73-26번지","indutype":"일반휴게음식 - 서양음식","category":"restaurant"}]},{"lat":"37.759480129","long":"126.77157205","imageIndex":4,"items":[{"name":"못말리는파닭","tel":"031-957-1003","addr":"경기도 파주시 금촌동 938-1번지 순흥","indutype":"일반휴게음식 - 스넥","category":"restaurant"}]},{"lat":"37.757149808","long":"126.77317935","imageIndex":4,"items":[{"name":"무봉리토종순대국","tel":"031-945-7707","addr":"경기도 파주시 금촌동 958-11번지 무봉리순대국","indutype":"일반휴게음식 - 일반한식","category":"restaurant"}]},{"lat":"37.755979193","long":"126.77817592","imageIndex":4,"items":[{"name":"미가푸드","tel":"031-941-4254","addr":"경기도 파주시 금촌동 785-13번지","indutype":"일반휴게음식 - 일반한식","category":"restaurant"}]},{"lat":"37.762673137","long":"126.77343463","imageIndex":4,"items":[{"name":"미나네","tel":"","addr":"경기도 파주시 금촌동 320-3번지","indutype":"일반휴게음식 - 일반한식","category":"restaurant"},{"name":"양순네칼국수","tel":"031-1111-1111","addr":"경기도 파주시 금촌동 320-3번지","indutype":"일반휴게음식 - 일반한식","category":"restaurant"}]},{"lat":"37.759669929","long":"126.77187786","imageIndex":4,"items":[{"name":"미루","tel":"031-944-6776","addr":"경기도 파주시 금촌동 938-8번지","indutype":"일반휴게음식 - 일반한식","category":"restaurant"}]},{"lat":"37.76370367","long":"126.77521321","imageIndex":4,"items":[{"name":"미미만두","tel":"031-123-4567","addr":"경기도 파주시 금촌동 51-13번지","indutype":"일반휴게음식 - 일반한식","category":"restaurant"},{"name":"참치회","tel":"","addr":"경기도 파주시 금촌동 51-13번지","indutype":"일반휴게음식 - 일식·회집","category":"restaurant"}]},{"lat":"37.757454889","long":"126.77254292","imageIndex":4,"items":[{"name":"미미식당","tel":"031-942-9635","addr":"경기도 파주시 금촌동 958-4번지","indutype":"일반휴게음식 - 일반한식","category":"restaurant"}]},{"lat":"37.756257804","long":"126.77314806","imageIndex":4,"items":[{"name":"미술관","tel":"031-946-9468","addr":"경기도 파주시 금촌동 956-2번지","indutype":"일반휴게음식 - 일반한식","category":"restaurant"}]},{"lat":"37.752364186","long":"126.76781563","imageIndex":4,"items":[{"name":"미스터피자(금촌점)","tel":"031-943-6735","addr":"경기도 파주시 금촌동 987-4번지","indutype":"일반휴게음식 - 서양음식","category":"restaurant"},{"name":"용보쌈","tel":"031-949-0110","addr":"경기도 파주시 금촌동 987-4번지","indutype":"일반휴게음식 - 일반한식","category":"restaurant"},{"name":"해적참치","tel":"","addr":"경기도 파주시 금촌동 987-4번지","indutype":"일반휴게음식 - 일반한식","category":"restaurant"}]},{"lat":"37.752174489","long":"126.76756659","imageIndex":4,"items":[{"name":"미주포차(Me Joo)","tel":"031-946-8194","addr":"경기도 파주시 금촌동 987-6번지","indutype":"일반휴게음식 - 일반한식","category":"restaurant"},{"name":"커피팩토리 파주","tel":"031-944-1388","addr":"경기도 파주시 금촌동 987-6번지","indutype":"일반휴게음식 - 서양음식","category":"restaurant"}]},{"lat":"37.757477774","long":"126.77043215","imageIndex":4,"items":[{"name":"민이네 숯불 닭갈비 막창","tel":"031-945-4541","addr":"경기도 파주시 금촌동 960-4번지","indutype":"일반휴게음식 - 일반한식","category":"restaurant"},{"name":"부담없소","tel":"031-949-4554","addr":"경기도 파주시 금촌동 960-4번지","indutype":"일반휴게음식 - 일반한식","category":"restaurant"},{"name":"참숯꼼장어 민물장어","tel":"031-945-6163","addr":"경기도 파주시 금촌동 960-4번지","indutype":"일반휴게음식 - 일반한식","category":"restaurant"}]},{"lat":"37.756226628","long":"126.77565599","imageIndex":4,"items":[{"name":"밀내음","tel":"031-943-1018","addr":"경기도 파주시 금촌동 787-2번지","indutype":"일반휴게음식 - 일반한식","category":"restaurant"}]},{"lat":"37.757059779","long":"126.77321367","imageIndex":4,"items":[{"name":"밀러타임","tel":"031-948-5342","addr":"경기도 파주시 금촌동 958-24번지","indutype":"일반휴게음식 - 주점","category":"restaurant"},{"name":"이도옥설렁탕","tel":"02-000-0000","addr":"경기도 파주시 금촌동 958-24번지","indutype":"일반휴게음식 - 일반한식","category":"restaurant"}]},{"lat":"37.76114217","long":"126.77376847","imageIndex":4,"items":[{"name":"밀밭사랑","tel":"031-948-6988","addr":"경기도 파주시 금촌동 311-13 외2필지 1층","indutype":"일반휴게음식 - 일반한식","category":"restaurant"}]},{"lat":"37.757204502","long":"126.77818356","imageIndex":4,"items":[{"name":"반딧불","tel":"031-943-5954","addr":"경기도 파주시 금촌동 776-19번지","indutype":"일반휴게음식 - 주점","category":"restaurant"}]},{"lat":"37.757896087","long":"126.77240538","imageIndex":4,"items":[{"name":"발치칸룸호프","tel":"031-945-8188","addr":"경기도 파주시 금촌동 945-30번지","indutype":"일반휴게음식 - 일반한식","category":"restaurant"},{"name":"별밤라이브(지기)","tel":"031-942-4474","addr":"경기도 파주시 금촌동 945-30번지","indutype":"일반휴게음식 - 일반한식","category":"restaurant"}]},{"lat":"37.764093743","long":"126.77659658","imageIndex":4,"items":[{"name":"밥꼬찜닭","tel":"031-942-0777","addr":"경기도 파주시 금촌동 51-49번지","indutype":"일반휴게음식 - 일반한식","category":"restaurant"},{"name":"옛추억","tel":"031-949-2375","addr":"경기도 파주시 금촌동 51-49번지","indutype":"일반휴게음식 - 서양음식","category":"restaurant"}]},{"lat":"37.757648304","long":"126.77470977","imageIndex":4,"items":[{"name":"밥상머리","tel":"031-941-6677","addr":"경기도 파주시 금촌동 948-19번지","indutype":"일반휴게음식 - 일반한식","category":"restaurant"}]},{"lat":"37.757230881","long":"126.77784305","imageIndex":4,"items":[{"name":"밥한끼술한잔","tel":"031-944-0092","addr":"경기도 파주시 금촌동 776-12번지","indutype":"일반휴게음식 - 일반한식","category":"restaurant"}]},{"lat":"37.755117105","long":"126.77495584","imageIndex":4,"items":[{"name":"배달삼겹돼지되지","tel":"031-946-8591","addr":"경기도 파주시 금촌동 802-5번지","indutype":"일반휴게음식 - 일반한식","category":"restaurant"}]},{"lat":"37.758090574","long":"126.77050967","imageIndex":4,"items":[{"name":"배통삼석쇠구이삼겹","tel":"031-941-1444","addr":"경기도 파주시 금촌동 943-6번지","indutype":"일반휴게음식 - 일반한식","category":"restaurant"},{"name":"샤로수펍","tel":"031-941-1825","addr":"경기도 파주시 금촌동 943-6번지","indutype":"일반휴게음식 - 일반한식","category":"restaurant"},{"name":"시골통돼지김치찌개전문점","tel":"031-944-0202","addr":"경기도 파주시 금촌동 943-6번지","indutype":"일반휴게음식 - 일반한식","category":"restaurant"},{"name":"야끼도리 히카리","tel":"031-944-4312","addr":"경기도 파주시 금촌동 943-6번지","indutype":"일반휴게음식 - 일반한식","category":"restaurant"}]},{"lat":"37.757365915","long":"126.7777859","imageIndex":4,"items":[{"name":"백가네곰탕0407","tel":"031-945-5112","addr":"경기도 파주시 금촌동 776-15번지","indutype":"일반휴게음식 - 일반한식","category":"restaurant"},{"name":"신간짬뽕","tel":"031-944-8910","addr":"경기도 파주시 금촌동 776-15번지","indutype":"일반휴게음식 - 중국식","category":"restaurant"},{"name":"아싸","tel":"031-947-2633","addr":"경기도 파주시 금촌동 776-15번지","indutype":"일반휴게음식 - 주점","category":"restaurant"}]},{"lat":"37.7577585","long":"126.77578748","imageIndex":4,"items":[{"name":"벌떡구이냉면","tel":"031-945-3850","addr":"경기도 파주시 금촌동 949-11번지","indutype":"일반휴게음식 - 일반한식","category":"restaurant"}]},{"lat":"37.765118417","long":"126.77534506","imageIndex":4,"items":[{"name":"별미감자탕","tel":"031-949-4455","addr":"경기도 파주시 금촌동 329-381번지","indutype":"일반휴게음식 - 일반한식","category":"restaurant"}]},{"lat":"37.757391601","long":"126.77242964","imageIndex":4,"items":[{"name":"별밤","tel":"031-945-2289","addr":"경기도 파주시 금촌동 958-21번지","indutype":"일반휴게음식 - 일반한식","category":"restaurant"},{"name":"유바에","tel":"031-941-2824","addr":"경기도 파주시 금촌동 958-21번지","indutype":"일반휴게음식 - 주점","category":"restaurant"}]},{"lat":"37.758419456","long":"126.77282363","imageIndex":4,"items":[{"name":"보드람치킨금촌로타리점","tel":"031-947-9296","addr":"경기도 파주시 금촌동 945-4번지","indutype":"일반휴게음식 - 주점","category":"restaurant"}]},{"lat":"37.763479636","long":"126.77120778","imageIndex":4,"items":[{"name":"보라보라","tel":"031-946-6369","addr":"경기도 파주시 금촌동 329-155번지","indutype":"일반휴게음식 - 서양음식","category":"restaurant"}]},{"lat":"37.758003867","long":"126.77223483","imageIndex":4,"items":[{"name":"보라카이","tel":"031-948-8939","addr":"경기도 파주시 금촌동 945-34번지","indutype":"일반휴게음식 - 일반한식","category":"restaurant"},{"name":"첼시","tel":"070-4124-2579","addr":"경기도 파주시 금촌동 945-34번지","indutype":"일반휴게음식 - 주점","category":"restaurant"}]},{"lat":"37.758531868","long":"126.77503615","imageIndex":4,"items":[{"name":"보배집","tel":"031-941-3660","addr":"경기도 파주시 금촌동 947-30번지","indutype":"일반휴게음식 - 일반한식","category":"restaurant"},{"name":"오이시","tel":"031-945-2700","addr":"경기도 파주시 금촌동 947-30번지","indutype":"일반휴게음식 - 일식·회집","category":"restaurant"}]},{"lat":"37.762559557","long":"126.77526211","imageIndex":4,"items":[{"name":"본죽&비빔밥cafe금촌점","tel":"031-957-2345","addr":"경기도 파주시 금촌동 56-3번지","indutype":"일반휴게음식 - 일반한식","category":"restaurant"},{"name":"킹부대찌개테이크아웃 파주금촌점","tel":"031-942-1788","addr":"경기도 파주시 금촌동 56-3번지","indutype":"일반휴게음식 - 일반한식","category":"restaurant"}]},{"lat":"37.761341875","long":"126.77453955","imageIndex":4,"items":[{"name":"부촌","tel":"031-944-1713","addr":"경기도 파주시 금촌동 65-4번지","indutype":"일반휴게음식 - 일반한식","category":"restaurant"}]},{"lat":"37.755368082","long":"126.77898344","imageIndex":4,"items":[{"name":"분식가든","tel":"031-941-9148","addr":"경기도 파주시 금촌동 791-12번지","indutype":"일반휴게음식 - 스넥","category":"restaurant"},{"name":"카페801샵","tel":"","addr":"경기도 파주시 금촌동 791-12번지","indutype":"일반휴게음식 - 서양음식","category":"restaurant"}]},{"lat":"37.761559025","long":"126.77501551","imageIndex":4,"items":[{"name":"불만두","tel":"031-948-0550","addr":"경기도 파주시 금촌동 67-9번지","indutype":"일반휴게음식 - 일반한식","category":"restaurant"}]},{"lat":"37.759371587","long":"126.77598682","imageIndex":4,"items":[{"name":"불뽕천하","tel":"031-945-8661","addr":"경기도 파주시 금촌동 765-7번지","indutype":"일반휴게음식 - 일반한식","category":"restaurant"},{"name":"빨간망토","tel":"031-949-6777","addr":"경기도 파주시 금촌동 765-7번지","indutype":"일반휴게음식 - 일반한식","category":"restaurant"},{"name":"조은친구들","tel":"031-948-2288","addr":"경기도 파주시 금촌동 765-7번지 2층","indutype":"일반휴게음식 - 일반한식","category":"restaurant"}]},{"lat":"37.757538911","long":"126.76945604","imageIndex":4,"items":[{"name":"불탄곱창&지지미","tel":"031-947-4785","addr":"경기도 파주시 금촌동 960-1번지","indutype":"일반휴게음식 - 일반한식","category":"restaurant"}]},{"lat":"37.756060559","long":"126.77832319","imageIndex":4,"items":[{"name":"비갠후","tel":"031-941-3537","addr":"경기도 파주시 금촌동 785-11번지","indutype":"일반휴게음식 - 서양음식","category":"restaurant"}]},{"lat":"37.76289771","long":"126.77309348","imageIndex":4,"items":[{"name":"비바리","tel":"031-947-3329","addr":"경기도 파주시 금촌동 321-18번지","indutype":"일반휴게음식 - 주점","category":"restaurant"}]},{"lat":"37.757978348","long":"126.76843335","imageIndex":4,"items":[{"name":"비밥빠","tel":"","addr":"경기도 파주시 금촌동 273-1번지","indutype":"일반휴게음식 - 일반한식","category":"restaurant"}]},{"lat":"37.757865516","long":"126.77060116","imageIndex":4,"items":[{"name":"비비큐참숯바베큐","tel":"031-8071-2333","addr":"경기도 파주시 금촌동 943-30번지","indutype":"일반휴게음식 - 서양음식","category":"restaurant"}]},{"lat":"37.759172526","long":"126.77554485","imageIndex":4,"items":[{"name":"비어1985(Beer1985)","tel":"","addr":"경기도 파주시 금촌동 765-4번지","indutype":"일반휴게음식 - 일반한식","category":"restaurant"}]},{"lat":"37.757921425","long":"126.77154286","imageIndex":4,"items":[{"name":"비에이치씨(BHC금촌점)","tel":"031-946-2368","addr":"경기도 파주시 금촌동 944-18번지","indutype":"일반휴게음식 - 일반한식","category":"restaurant"},{"name":"초원","tel":"031-947-6254","addr":"경기도 파주시 금촌동 944-18번지","indutype":"일반휴게음식 - 주점","category":"restaurant"}]},{"lat":"37.767668896","long":"126.77112662","imageIndex":4,"items":[{"name":"빅베리","tel":"031-943-3934","addr":"경기도 파주시 금촌동 390-2번지","indutype":"일반휴게음식 - 서양음식","category":"restaurant"}]},{"lat":"37.755455364","long":"126.77284416","imageIndex":4,"items":[{"name":"빅타임","tel":"031-946-0992","addr":"경기도 파주시 금촌동 956-9번지","indutype":"일반휴게음식 - 일반한식","category":"restaurant"},{"name":"아낙","tel":"","addr":"경기도 파주시 금촌동 956-9번지","indutype":"일반휴게음식 - 주점","category":"restaurant"}]},{"lat":"37.754426176","long":"126.77176934","imageIndex":4,"items":[{"name":"빈입니다","tel":"031-000-0000","addr":"경기도 파주시 금촌동 233-6번지 대영장미아파트","indutype":"일반휴게음식 - 서양음식","category":"restaurant"}]},{"lat":"37.763509977","long":"126.77289866","imageIndex":4,"items":[{"name":"빠뜨레스타","tel":"070-7797-0677","addr":"경기도 파주시 금촌동 324-31번지","indutype":"일반휴게음식 - 서양음식","category":"restaurant"}]},{"lat":"37.75534224","long":"126.77029132","imageIndex":4,"items":[{"name":"뽕뜨락피자 금촌점","tel":"031-944-0090","addr":"경기도 파주시 금촌동 235-1번지","indutype":"일반휴게음식 - 일반한식","category":"restaurant"},{"name":"제이밥(J.Bob)","tel":"031-942-7808","addr":"경기도 파주시 금촌동 235-1번지","indutype":"일반휴게음식 - 일반한식","category":"restaurant"},{"name":"진뚝배기","tel":"031-944-3252","addr":"경기도 파주시 금촌동 235-1번지","indutype":"일반휴게음식 - 일반한식","category":"restaurant"},{"name":"처갓집양념치킨 금촌2호점","tel":"031-946-1282","addr":"경기도 파주시 금촌동 235-1번지","indutype":"일반휴게음식 - 스넥","category":"restaurant"},{"name":"푸른물고기 금촌점","tel":"031-000-0000","addr":"경기도 파주시 금촌동 235-1번지","indutype":"일반휴게음식 - 일반한식","category":"restaurant"}]},{"lat":"37.757225061","long":"126.77020599","imageIndex":4,"items":[{"name":"사랑해 카페","tel":"","addr":"경기도 파주시 금촌동 960-9번지","indutype":"일반휴게음식 - 서양음식","category":"restaurant"}]},{"lat":"37.757175906","long":"126.77270266","imageIndex":4,"items":[{"name":"산초","tel":"031-945-7002","addr":"경기도 파주시 금촌동 958-18번지","indutype":"일반휴게음식 - 일반한식","category":"restaurant"},{"name":"어주","tel":"031-947-1106","addr":"경기도 파주시 금촌동 958-18번지","indutype":"일반휴게음식 - 일반한식","category":"restaurant"}]},{"lat":"37.755731875","long":"126.78078661","imageIndex":4,"items":[{"name":"살구맛집","tel":"031-941-9297","addr":"경기도 파주시 금촌동 793-4번지","indutype":"일반휴게음식 - 일반한식","category":"restaurant"},{"name":"인삼닭강정","tel":"031-957-9982","addr":"경기도 파주시 금촌동 793-4번지","indutype":"일반휴게음식 - 일반한식","category":"restaurant"},{"name":"장강","tel":"031-949-4114","addr":"경기도 파주시 금촌동 793-4번지","indutype":"일반휴게음식 - 중국식","category":"restaurant"}]},{"lat":"37.762280016","long":"126.77051926","imageIndex":4,"items":[{"name":"삶는족족","tel":"02-942-5521","addr":"경기도 파주시 금촌동 334-112번지","indutype":"일반휴게음식 - 일반한식","category":"restaurant"}]},{"lat":"37.757311823","long":"126.77309941","imageIndex":4,"items":[{"name":"삼육오가마구이","tel":"031-945-9898","addr":"경기도 파주시 금촌동 958-10번지","indutype":"일반휴게음식 - 일반한식","category":"restaurant"},{"name":"주토피아","tel":"031-000-0000","addr":"경기도 파주시 금촌동 958-10번지","indutype":"일반휴게음식 - 일반한식","category":"restaurant"}]},{"lat":"37.764065206","long":"126.77118326","imageIndex":4,"items":[{"name":"삼화","tel":"031-943-6008","addr":"경기도 파주시 금촌동 329-59번지","indutype":"일반휴게음식 - 주점","category":"restaurant"},{"name":"파이스트 마트&베이커리","tel":"070-4282-2467","addr":"경기도 파주시 금촌동 329-59번지","indutype":"일반휴게음식 - 일반한식","category":"restaurant"}]},{"lat":"37.768864915","long":"126.76998793","imageIndex":4,"items":[{"name":"새말돈장군","tel":"031-947-9285","addr":"경기도 파주시 금촌동 400-9번지","indutype":"일반휴게음식 - 일반한식","category":"restaurant"}]},{"lat":"37.76739805","long":"126.77546292","imageIndex":4,"items":[{"name":"새말칼국수","tel":"031-947-2569","addr":"경기도 파주시 금촌동 27-30번지","indutype":"일반휴게음식 - 일반한식","category":"restaurant"}]},{"lat":"37.757983474","long":"126.77565062","imageIndex":4,"items":[{"name":"생선구이&삼겹살","tel":"031-947-8488","addr":"경기도 파주시 금촌동 948-11번지","indutype":"일반휴게음식 - 일반한식","category":"restaurant"}]},{"lat":"37.752035959","long":"126.76587633","imageIndex":4,"items":[{"name":"서유기철판짜장","tel":"031-947-2432","addr":"경기도 파주시 금촌동 986-1번지","indutype":"일반휴게음식 - 중국식","category":"restaurant"},{"name":"쏭쏭돈까스","tel":"031-943-9933","addr":"경기도 파주시 금촌동 986-1번지 청원센트럴타워 1층 103호","indutype":"일반휴게음식 - 일반한식","category":"restaurant"},{"name":"토고리옛날막창","tel":"031-1899-3272","addr":"경기도 파주시 금촌동 986-1번지","indutype":"일반휴게음식 - 일반한식","category":"restaurant"},{"name":"파주대게하우스","tel":"031-949-7188","addr":"경기도 파주시 금촌동 986-1번지","indutype":"일반휴게음식 - 일반한식","category":"restaurant"}]},{"lat":"37.75508922","long":"126.77451337","imageIndex":4,"items":[{"name":"세기유통","tel":"031-946-3392","addr":"경기도 파주시 금촌동 802-1번지","indutype":"일반휴게음식 - 일반한식","category":"restaurant"}]},{"lat":"37.763147156","long":"126.77165142","imageIndex":4,"items":[{"name":"세화호프","tel":"031-944-5518","addr":"경기도 파주시 금촌동 327-8번지","indutype":"일반휴게음식 - 일반한식","category":"restaurant"}]},{"lat":"37.762144266","long":"126.77482079","imageIndex":4,"items":[{"name":"셀렉토커피 파주금촌점","tel":"031-941-2840","addr":"경기도 파주시 금촌동 66-4번지","indutype":"일반휴게음식 - 서양음식","category":"restaurant"},{"name":"셀렉토커피파주금촌점","tel":"031-941-2840","addr":"경기도 파주시 금촌동 66-4번지","indutype":"일반휴게음식 - 서양음식","category":"restaurant"}]},{"lat":"37.760649859","long":"126.77542684","imageIndex":4,"items":[{"name":"셀프 회 수산","tel":"031-941-8030","addr":"경기도 파주시 금촌동 71-6번지","indutype":"일반휴게음식 - 일식·회집","category":"restaurant"},{"name":"이신란타이","tel":"","addr":"경기도 파주시 금촌동 71-6번지","indutype":"일반휴게음식 - 서양음식","category":"restaurant"}]},{"lat":"37.75945057","long":"126.77489715","imageIndex":4,"items":[{"name":"소담","tel":"031-944-4192","addr":"경기도 파주시 금촌동 764-14번지","indutype":"일반휴게음식 - 일반한식","category":"restaurant"}]},{"lat":"37.755673536","long":"126.77384207","imageIndex":4,"items":[{"name":"소담촌","tel":"031-944-8698","addr":"경기도 파주시 금촌동 953-5번지","indutype":"일반휴게음식 - 일반한식","category":"restaurant"},{"name":"카페위","tel":"031-940-1798","addr":"경기도 파주시 금촌동 953-5번지","indutype":"일반휴게음식 - 서양음식","category":"restaurant"}]},{"lat":"37.762447613","long":"126.7732878","imageIndex":4,"items":[{"name":"소망분식","tel":"031-944-3929","addr":"경기도 파주시 금촌동 320-20번지","indutype":"일반휴게음식 - 일반한식","category":"restaurant"}]},{"lat":"37.75592012","long":"126.77093632","imageIndex":4,"items":[{"name":"소문난돼지뽈집","tel":"031-941-1428","addr":"경기도 파주시 금촌동 246-45번지","indutype":"일반휴게음식 - 일반한식","category":"restaurant"}]},{"lat":"37.763310416","long":"126.772207","imageIndex":4,"items":[{"name":"소페맹골캄부지어","tel":"031-949-0147","addr":"경기도 파주시 금촌동 327-23번지","indutype":"일반휴게음식 - 서양음식","category":"restaurant"}]},{"lat":"37.758233326","long":"126.77440158","imageIndex":4,"items":[{"name":"속초생선찜","tel":"031-946-8849","addr":"경기도 파주시 금촌동 947-37번지","indutype":"일반휴게음식 - 일반한식","category":"restaurant"},{"name":"순짬봉","tel":"031-958-6066","addr":"경기도 파주시 금촌동 947-37번지","indutype":"일반휴게음식 - 중국식","category":"restaurant"}]},{"lat":"37.755339629","long":"126.77823459","imageIndex":4,"items":[{"name":"속초한성장칼국수","tel":"031-946-9690","addr":"경기도 파주시 금촌동 791-24번지","indutype":"일반휴게음식 - 일반한식","category":"restaurant"}]},{"lat":"37.764727955","long":"126.77376876","imageIndex":4,"items":[{"name":"송화카페","tel":"031-948-5568","addr":"경기도 파주시 금촌동 329-11번지","indutype":"일반휴게음식 - 서양음식","category":"restaurant"},{"name":"착한왕만두","tel":"031-945-5674","addr":"경기도 파주시 금촌동 329-11번지","indutype":"일반휴게음식 - 스넥","category":"restaurant"}]},{"lat":"37.75898267","long":"126.77520499","imageIndex":4,"items":[{"name":"수제왕만두 포","tel":"","addr":"경기도 파주시 금촌동 765-1번지","indutype":"일반휴게음식 - 일반한식","category":"restaurant"},{"name":"써니","tel":"031-943-1885","addr":"경기도 파주시 금촌동 765-1번지","indutype":"일반휴게음식 - 주점","category":"restaurant"}]},{"lat":"37.758560763","long":"126.77137065","imageIndex":4,"items":[{"name":"술이그리울때","tel":"031-943-9410","addr":"경기도 파주시 금촌동 939-30번지","indutype":"일반휴게음식 - 주점","category":"restaurant"}]},{"lat":"37.759506248","long":"126.77573675","imageIndex":4,"items":[{"name":"숲속보신탕","tel":"031-946-7801","addr":"경기도 파주시 금촌동 764-9번지","indutype":"일반휴게음식 - 일반한식","category":"restaurant"}]},{"lat":"37.757562448","long":"126.77225889","imageIndex":4,"items":[{"name":"쉼터","tel":"031-947-2127","addr":"경기도 파주시 금촌동 958-1번지","indutype":"일반휴게음식 - 일반한식","category":"restaurant"}]},{"lat":"37.761366368","long":"126.7732344","imageIndex":4,"items":[{"name":"스마일 꽈배기","tel":"031-949-4393","addr":"경기도 파주시 금촌동 311-22번지","indutype":"일반휴게음식 - 서양음식","category":"restaurant"},{"name":"장터식당","tel":"031-942-6069","addr":"경기도 파주시 금촌동 311-22번지","indutype":"일반휴게음식 - 일반한식","category":"restaurant"}]},{"lat":"37.757593059","long":"126.77409715","imageIndex":4,"items":[{"name":"스카이카페","tel":"031-945-7151","addr":"경기도 파주시 금촌동 948-23번지","indutype":"일반휴게음식 - 서양음식","category":"restaurant"}]},{"lat":"37.759259673","long":"126.76942794","imageIndex":4,"items":[{"name":"스테어커피","tel":"","addr":"경기도 파주시 금촌동 934-8번지","indutype":"일반휴게음식 - 서양음식","category":"restaurant"}]},{"lat":"37.756921689","long":"126.77634608","imageIndex":4,"items":[{"name":"시골손칼국수","tel":"031-941-9211","addr":"경기도 파주시 금촌동 774-21번지","indutype":"일반휴게음식 - 일반한식","category":"restaurant"},{"name":"유민이네","tel":"031-943-7742","addr":"경기도 파주시 금촌동 774-21번지","indutype":"일반휴게음식 - 일반한식","category":"restaurant"},{"name":"천안문","tel":"031-943-7736","addr":"경기도 파주시 금촌동 774-21번지","indutype":"일반휴게음식 - 중국식","category":"restaurant"}]},{"lat":"37.758064996","long":"126.77587733","imageIndex":4,"items":[{"name":"시레기국밥","tel":"031-942-8865","addr":"경기도 파주시 금촌동 772-17번지","indutype":"일반휴게음식 - 일반한식","category":"restaurant"}]},{"lat":"37.752372652","long":"126.76754327","imageIndex":4,"items":[{"name":"시옌차이","tel":"031-941-3777","addr":"경기도 파주시 금촌동 987-3번지","indutype":"일반휴게음식 - 중국식","category":"restaurant"},{"name":"하루꼬지","tel":"","addr":"경기도 파주시 금촌동 987-3번지","indutype":"일반휴게음식 - 일반한식","category":"restaurant"},{"name":"호치킨하우스","tel":"031-943-5727","addr":"경기도 파주시 금촌동 987-3번지","indutype":"일반휴게음식 - 주점","category":"restaurant"}]},{"lat":"37.75570154","long":"126.77903918","imageIndex":4,"items":[{"name":"시집안간돼지","tel":"031-111-1111","addr":"경기도 파주시 금촌동 791-7번지","indutype":"일반휴게음식 - 일반한식","category":"restaurant"}]},{"lat":"37.75789582","long":"126.77226921","imageIndex":4,"items":[{"name":"신길양꼬치","tel":"031-947-8666","addr":"경기도 파주시 금촌동 945-33번지","indutype":"일반휴게음식 - 일반한식","category":"restaurant"}]},{"lat":"37.765531404","long":"126.77459476","imageIndex":4,"items":[{"name":"신촌갈비","tel":"031-941-7310","addr":"경기도 파주시 금촌동 329-41번지","indutype":"일반휴게음식 - 일반한식","category":"restaurant"},{"name":"원조한치회","tel":"031-944-8882","addr":"경기도 파주시 금촌동 329-41번지","indutype":"일반휴게음식 - 일반한식","category":"restaurant"},{"name":"추억82금촌점","tel":"02-111-1111","addr":"경기도 파주시 금촌동 329-41번지","indutype":"일반휴게음식 - 서양음식","category":"restaurant"}]},{"lat":"37.756976077","long":"126.77187489","imageIndex":4,"items":[{"name":"신통치킨","tel":"031-941-7677","addr":"경기도 파주시 금촌동 254-1번지","indutype":"일반휴게음식 - 스넥","category":"restaurant"},{"name":"옛날포차","tel":"031-945-3420","addr":"경기도 파주시 금촌동 254-1번지","indutype":"일반휴게음식 - 일반한식","category":"restaurant"},{"name":"팔팔회수산","tel":"031-946-8846","addr":"경기도 파주시 금촌동 254-1번지","indutype":"일반휴게음식 - 일식·회집","category":"restaurant"}]},{"lat":"37.757537696","long":"126.76884326","imageIndex":4,"items":[{"name":"싱싱김밥","tel":"031-946-5877","addr":"경기도 파주시 금촌동 961-1번지","indutype":"일반휴게음식 - 스넥","category":"restaurant"}]},{"lat":"37.758534826","long":"126.77192678","imageIndex":4,"items":[{"name":"싸와디카ㅂ","tel":"","addr":"경기도 파주시 금촌동 939-19번지","indutype":"일반휴게음식 - 서양음식","category":"restaurant"},{"name":"행복한꼬치","tel":"031-942-0359","addr":"경기도 파주시 금촌동 939-19번지","indutype":"일반휴게음식 - 일반한식","category":"restaurant"}]},{"lat":"37.764371268","long":"126.77567647","imageIndex":4,"items":[{"name":"싼타나","tel":"031-942-5818","addr":"경기도 파주시 금촌동 50-23번지","indutype":"일반휴게음식 - 주점","category":"restaurant"}]},{"lat":"37.759315148","long":"126.76562614","imageIndex":4,"items":[{"name":"쌈싸먹는함흥냉면&왕갈비탕","tel":"031-941-1453","addr":"경기도 파주시 금촌동 540-1번지","indutype":"일반휴게음식 - 일반한식","category":"restaurant"}]},{"lat":"37.757310849","long":"126.77260011","imageIndex":4,"items":[{"name":"쏘주한잔","tel":"031-949-1388","addr":"경기도 파주시 금촌동 958-19번지","indutype":"일반휴게음식 - 주점","category":"restaurant"},{"name":"해븐(Heaven)","tel":"031-111-1111","addr":"경기도 파주시 금촌동 958-19번지","indutype":"일반휴게음식 - 주점","category":"restaurant"}]},{"lat":"37.752174987","long":"126.76781623","imageIndex":4,"items":[{"name":"쏘쿨","tel":"031-942-1863","addr":"경기도 파주시 금촌동 987-5번지","indutype":"일반휴게음식 - 주점","category":"restaurant"},{"name":"연어있소","tel":"","addr":"경기도 파주시 금촌동 987-5번지","indutype":"일반휴게음식 - 일식·회집","category":"restaurant"},{"name":"투다리","tel":"031-949-3481","addr":"경기도 파주시 금촌동 987-5번지","indutype":"일반휴게음식 - 일반한식","category":"restaurant"},{"name":"피렌체풍경","tel":"031-942-1863","addr":"경기도 파주시 금촌동 987-5번지","indutype":"일반휴게음식 - 서양음식","category":"restaurant"}]},{"lat":"37.760116633","long":"126.77456601","imageIndex":4,"items":[{"name":"아구야","tel":"031-945-7999","addr":"경기도 파주시 금촌동 72-29번지","indutype":"일반휴게음식 - 일반한식","category":"restaurant"}]},{"lat":"37.75584161","long":"126.7816487","imageIndex":4,"items":[{"name":"아리치킨","tel":"070-8955-8237","addr":"경기도 파주시 금촌동 795-5번지 제3호","indutype":"일반휴게음식 - 스넥","category":"restaurant"},{"name":"한마을돼지부속","tel":"031-957-4552","addr":"경기도 파주시 금촌동 795-5번지","indutype":"일반휴게음식 - 일반한식","category":"restaurant"}]},{"lat":"37.754594622","long":"126.77499149","imageIndex":4,"items":[{"name":"아씨논도랑","tel":"031-957-5357","addr":"경기도 파주시 금촌동 120-2번지","indutype":"일반휴게음식 - 일반한식","category":"restaurant"}]},{"lat":"37.757784476","long":"126.77062411","imageIndex":4,"items":[{"name":"안군비어","tel":"","addr":"경기도 파주시 금촌동 943-8번지","indutype":"일반휴게음식 - 주점","category":"restaurant"},{"name":"이태리회관","tel":"","addr":"경기도 파주시 금촌동 943-8번지","indutype":"일반휴게음식 - 서양음식","category":"restaurant"}]},{"lat":"37.76411714","long":"126.7747126","imageIndex":4,"items":[{"name":"안나푸르나","tel":"031-945-9849","addr":"경기도 파주시 금촌동 44-12번지","indutype":"일반휴게음식 - 서양음식","category":"restaurant"}]},{"lat":"37.755117763","long":"126.77529626","imageIndex":4,"items":[{"name":"안서방왕족발","tel":"031-943-2340","addr":"경기도 파주시 금촌동 802-7번지","indutype":"일반휴게음식 - 일반한식","category":"restaurant"}]},{"lat":"37.754921029","long":"126.77142738","imageIndex":4,"items":[{"name":"안지랑곱창","tel":"031-947-6320","addr":"경기도 파주시 금촌동 230-1번지 대영장미아파트","indutype":"일반휴게음식 - 일반한식","category":"restaurant"},{"name":"커피지애 금촌점","tel":"031-946-1021","addr":"경기도 파주시 금촌동 230-1번지 대영장미아파트","indutype":"일반휴게음식 - 서양음식","category":"restaurant"}]},{"lat":"37.756869026","long":"126.7770725","imageIndex":4,"items":[{"name":"애플돈까스","tel":"031-946-2304","addr":"경기도 파주시 금촌동 774-5번지","indutype":"일반휴게음식 - 일반한식","category":"restaurant"},{"name":"연신칡냉면","tel":"031-942-2777","addr":"경기도 파주시 금촌동 774-5번지","indutype":"일반휴게음식 - 일반한식","category":"restaurant"}]},{"lat":"37.757785591","long":"126.76665234","imageIndex":4,"items":[{"name":"야래향","tel":"031-8071-3488","addr":"경기도 파주시 금촌동 967-4번지","indutype":"일반휴게음식 - 일반한식","category":"restaurant"}]},{"lat":"37.758974996","long":"126.77589724","imageIndex":4,"items":[{"name":"어랑생선구이","tel":"070-8398-0348","addr":"경기도 파주시 금촌동 765-18번지","indutype":"일반휴게음식 - 일반한식","category":"restaurant"}]},{"lat":"37.761864798","long":"126.77473086","imageIndex":4,"items":[{"name":"언칼국수","tel":"031-949-8839","addr":"경기도 파주시 금촌동 65-7번지","indutype":"일반휴게음식 - 일반한식","category":"restaurant"}]},{"lat":"37.771256526","long":"126.77206882","imageIndex":4,"items":[{"name":"엄마손도시락","tel":"031-943-8946","addr":"경기도 파주시 금촌동 423번지","indutype":"일반휴게음식 - 일반한식","category":"restaurant"}]},{"lat":"37.757810564","long":"126.77014741","imageIndex":4,"items":[{"name":"엔","tel":"031-948-5439","addr":"경기도 파주시 금촌동 943-15번지","indutype":"일반휴게음식 - 일반한식","category":"restaurant"},{"name":"용범이네인계동껍데기파주금촌점","tel":"031-365-4369","addr":"경기도 파주시 금촌동 943-15번지","indutype":"일반휴게음식 - 일반한식","category":"restaurant"}]},{"lat":"37.760035987","long":"126.77479322","imageIndex":4,"items":[{"name":"엣 싸얌 타이레스토랑","tel":"031-945-1830","addr":"경기도 파주시 금촌동 72-6번지","indutype":"일반휴게음식 - 일반한식","category":"restaurant"}]},{"lat":"37.752892806","long":"126.77087769","imageIndex":4,"items":[{"name":"여기야 요기","tel":"031-942-4066","addr":"경기도 파주시 금촌동 992번지 후곡마을뜨란채","indutype":"일반휴게음식 - 스넥","category":"restaurant"},{"name":"옛날통닭","tel":"","addr":"경기도 파주시 금촌동 992번지 후곡마을뜨란채","indutype":"일반휴게음식 - 스넥","category":"restaurant"},{"name":"해달","tel":"031-946-2203","addr":"경기도 파주시 금촌동 992번지 후곡마을뜨란채","indutype":"일반휴게음식 - 일반한식","category":"restaurant"}]},{"lat":"37.757835796","long":"126.7692395","imageIndex":4,"items":[{"name":"여명양평해장국","tel":"031-945-3306","addr":"경기도 파주시 금촌동 942-11번지","indutype":"일반휴게음식 - 일반한식","category":"restaurant"}]},{"lat":"37.764674097","long":"126.77387106","imageIndex":4,"items":[{"name":"여운식당","tel":"031-944-7526","addr":"경기도 파주시 금촌동 329-97번지","indutype":"일반휴게음식 - 일반한식","category":"restaurant"}]},{"lat":"37.764566093","long":"126.77392814","imageIndex":4,"items":[{"name":"역전노가리포차","tel":"031-000-0000","addr":"경기도 파주시 금촌동 329-98번지","indutype":"일반휴게음식 - 주점","category":"restaurant"}]},{"lat":"37.751536084","long":"126.76820404","imageIndex":4,"items":[{"name":"역전우동 파주금릉역점","tel":"031-943-0410","addr":"경기도 파주시 금촌동 989-6번지","indutype":"일반휴게음식 - 일반한식","category":"restaurant"},{"name":"일산칼국수 금릉점","tel":"031-944-7474","addr":"경기도 파주시 금촌동 989-6번지","indutype":"일반휴게음식 - 일반한식","category":"restaurant"}]},{"lat":"37.759698216","long":"126.77717738","imageIndex":4,"items":[{"name":"연안식당 파주금촌점","tel":"031-943-9806","addr":"경기도 파주시 금촌동 767-10번지","indutype":"일반휴게음식 - 일반한식","category":"restaurant"},{"name":"족발야시장","tel":"031-945-4969","addr":"경기도 파주시 금촌동 767-10번지","indutype":"일반휴게음식 - 일반한식","category":"restaurant"}]},{"lat":"37.76492102","long":"126.77576558","imageIndex":4,"items":[{"name":"영월식당","tel":"031-947-2368","addr":"경기도 파주시 금촌동 41-1번지 1층","indutype":"일반휴게음식 - 일반한식","category":"restaurant"},{"name":"왔다삼겹살","tel":"031-944-9254","addr":"경기도 파주시 금촌동 41-1번지","indutype":"일반휴게음식 - 일반한식","category":"restaurant"}]},{"lat":"37.758308007","long":"126.77112178","imageIndex":4,"items":[{"name":"옛고을","tel":"031-948-3576","addr":"경기도 파주시 금촌동 940-7번지","indutype":"일반휴게음식 - 일반한식","category":"restaurant"},{"name":"유기택피자","tel":"031-943-9967","addr":"경기도 파주시 금촌동 940-7번지","indutype":"일반휴게음식 - 서양음식","category":"restaurant"}]},{"lat":"37.76470022","long":"126.77340567","imageIndex":4,"items":[{"name":"옛날버스포장마차","tel":"031-945-9279","addr":"경기도 파주시 금촌동 329-317번지","indutype":"일반휴게음식 - 일반한식","category":"restaurant"}]},{"lat":"37.756037847","long":"126.76670329","imageIndex":4,"items":[{"name":"옛날장터치킨","tel":"031-943-5254","addr":"경기도 파주시 금촌동 972번지 새꽃마을뜨란채상가 102호","indutype":"일반휴게음식 - 스넥","category":"restaurant"}]},{"lat":"37.770226819","long":"126.77073274","imageIndex":4,"items":[{"name":"옛날장터치킨","tel":"031-946-5989","addr":"경기도 파주시 금촌동 1015번지 대방노블랜드아파트","indutype":"일반휴게음식 - 스넥","category":"restaurant"},{"name":"카페인","tel":"031-8071-3331","addr":"경기도 파주시 금촌동 1015번지 대방노블랜드아파트","indutype":"일반휴게음식 - 서양음식","category":"restaurant"}]},{"lat":"37.762536579","long":"126.77270874","imageIndex":4,"items":[{"name":"옛만두","tel":"031-000-0000","addr":"경기도 파주시 금촌동 322-10번지","indutype":"일반휴게음식 - 일반한식","category":"restaurant"}]},{"lat":"37.759979331","long":"126.77812978","imageIndex":4,"items":[{"name":"오늘카페(Oneulcafe)","tel":"031-945-0910","addr":"경기도 파주시 금촌동 768-6번지","indutype":"일반휴게음식 - 서양음식","category":"restaurant"}]},{"lat":"37.773035017","long":"126.77392473","imageIndex":4,"items":[{"name":"오쉐르플라워카페","tel":"031-942-8221","addr":"경기도 파주시 금촌동 7-21번지","indutype":"일반휴게음식 - 서양음식","category":"restaurant"}]},{"lat":"37.768306737","long":"126.76567686","imageIndex":4,"items":[{"name":"옥이네 기사한식뷔페","tel":"031-948-4458","addr":"경기도 파주시 금촌동 433-1번지","indutype":"일반휴게음식 - 일반한식","category":"restaurant"}]},{"lat":"37.759308193","long":"126.77581679","imageIndex":4,"items":[{"name":"와우식당","tel":"031-941-6398","addr":"경기도 파주시 금촌동 765-6","indutype":"일반휴게음식 - 일반한식","category":"restaurant"}]},{"lat":"37.755398888","long":"126.78098052","imageIndex":4,"items":[{"name":"왕가뼈해장국","tel":"031-946-0768","addr":"경기도 파주시 금촌동 796-7번지","indutype":"일반휴게음식 - 일반한식","category":"restaurant"},{"name":"왕가뼈해장국","tel":"031-946-0768","addr":"경기도 파주시 금촌동 796-7번지","indutype":"일반휴게음식 - 일반한식","category":"restaurant"}]},{"lat":"37.756178093","long":"126.77853844","imageIndex":4,"items":[{"name":"왕노가리호프","tel":"070-4530-3301","addr":"경기도 파주시 금촌동 784-8번지","indutype":"일반휴게음식 - 주점","category":"restaurant"},{"name":"참맛","tel":"031-943-2882","addr":"경기도 파주시 금촌동 784-8번지","indutype":"일반휴게음식 - 서양음식","category":"restaurant"}]},{"lat":"37.763476655","long":"126.77429466","imageIndex":4,"items":[{"name":"왕세숫대야냉면","tel":"031-957-8579","addr":"경기도 파주시 금촌동 60-8번지1,2층","indutype":"일반휴게음식 - 일반한식","category":"restaurant"}]},{"lat":"37.763729337","long":"126.77450951","imageIndex":4,"items":[{"name":"왕순이주먹밥김밥","tel":"031-945-2668","addr":"경기도 파주시 금촌동 48번지","indutype":"일반휴게음식 - 스넥","category":"restaurant"}]},{"lat":"37.760037478","long":"126.7755649","imageIndex":4,"items":[{"name":"용이네양꼬치","tel":"070-8623-3320","addr":"경기도 파주시 금촌동 71-29번지","indutype":"일반휴게음식 - 일반한식","category":"restaurant"},{"name":"초이","tel":"031-941-8368","addr":"경기도 파주시 금촌동 71-29번지","indutype":"일반휴게음식 - 주점","category":"restaurant"}]},{"lat":"37.758341989","long":"126.77468494","imageIndex":4,"items":[{"name":"용해물탕","tel":"031-945-5279","addr":"경기도 파주시 금촌동 947-35번지","indutype":"일반휴게음식 - 일반한식","category":"restaurant"}]},{"lat":"37.75983734","long":"126.77456687","imageIndex":4,"items":[{"name":"우대","tel":"031-941-0044","addr":"경기도 파주시 금촌동 73-21번지","indutype":"일반휴게음식 - 주점","category":"restaurant"}]},{"lat":"37.7576152","long":"126.77623049","imageIndex":4,"items":[{"name":"우리집치킨","tel":"031-8071-1253","addr":"경기도 파주시 금촌동 773-7.1","indutype":"일반휴게음식 - 주점","category":"restaurant"},{"name":"윤카페","tel":"031-946-0110","addr":"경기도 파주시 금촌동 773-7번지","indutype":"일반휴게음식 - 서양음식","category":"restaurant"}]},{"lat":"37.76172785","long":"126.76471056","imageIndex":4,"items":[{"name":"원미정","tel":"031-944-2647","addr":"경기도 파주시 금촌동 736-2번지","indutype":"일반휴게음식 - 일반한식","category":"restaurant"}]},{"lat":"37.759366481","long":"126.76876941","imageIndex":4,"items":[{"name":"원조완도실내포장마차","tel":"031-942-7113","addr":"경기도 파주시 금촌동 933-13번지","indutype":"일반휴게음식 - 일반한식","category":"restaurant"}]},{"lat":"37.760530166","long":"126.77409946","imageIndex":4,"items":[{"name":"월드컵라이브","tel":"031-945-5121","addr":"경기도 파주시 금촌동 74-1번지 삼흥빌딩 지하","indutype":"일반휴게음식 - 주점","category":"restaurant"}]},{"lat":"37.75922666","long":"126.77096004","imageIndex":4,"items":[{"name":"유로코피자&족발맨금촌점","tel":"031-941-6038","addr":"경기도 파주시 금촌동 939-1번지","indutype":"일반휴게음식 - 서양음식","category":"restaurant"}]},{"lat":"37.757811287","long":"126.77512914","imageIndex":4,"items":[{"name":"유천칡냉면","tel":"031-957-2001","addr":"경기도 파주시 금촌동 948-15 948-16","indutype":"일반휴게음식 - 일반한식","category":"restaurant"}]},{"lat":"37.755979704","long":"126.77376169","imageIndex":4,"items":[{"name":"육감만족","tel":"031-945-9212","addr":"경기도 파주시 금촌동 953-2번지","indutype":"일반휴게음식 - 일반한식","category":"restaurant"},{"name":"카네포라","tel":"070-7758-5526","addr":"경기도 파주시 금촌동 953-2번지 1층","indutype":"일반휴게음식 - 주점","category":"restaurant"}]},{"lat":"37.757782896","long":"126.77442566","imageIndex":4,"items":[{"name":"육대장금촌점","tel":"031-949-8889","addr":"경기도 파주시 금촌동 948-2번지","indutype":"일반휴게음식 - 일반한식","category":"restaurant"}]},{"lat":"37.758120123","long":"126.7717919","imageIndex":4,"items":[{"name":"육선 뒷고기","tel":"031-943-8715","addr":"경기도 파주시 금촌동 944-7번지","indutype":"일반휴게음식 - 일반한식","category":"restaurant"}]},{"lat":"37.758365596","long":"126.76835269","imageIndex":4,"items":[{"name":"육일식당","tel":"","addr":"경기도 파주시 금촌동 521-2번지","indutype":"일반휴게음식 - 일반한식","category":"restaurant"}]},{"lat":"37.76420512","long":"126.77362283","imageIndex":4,"items":[{"name":"은빛다밤","tel":"031-941-7366","addr":"경기도 파주시 금촌동 329-180번지","indutype":"일반휴게음식 - 주점","category":"restaurant"},{"name":"호호구이","tel":"031-000-0000","addr":"경기도 파주시 금촌동 329-180번지","indutype":"일반휴게음식 - 일반한식","category":"restaurant"}]},{"lat":"37.764727558","long":"126.77356448","imageIndex":4,"items":[{"name":"응급실국물떡볶이 파주금촌점","tel":"031-947-3119","addr":"경기도 파주시 금촌동 329-318번지","indutype":"일반휴게음식 - 스넥","category":"restaurant"}]},{"lat":"37.758892975","long":"126.77079086","imageIndex":4,"items":[{"name":"응답하라 야식","tel":"070-8987-7575","addr":"경기도 파주시 금촌동 941-9번지","indutype":"일반휴게음식 - 일반한식","category":"restaurant"}]},{"lat":"37.756618973","long":"126.77823072","imageIndex":4,"items":[{"name":"이대감족발","tel":"031-957-5778","addr":"경기도 파주시 금촌동 784-3번지","indutype":"일반휴게음식 - 일반한식","category":"restaurant"}]},{"lat":"37.765476819","long":"126.77432255","imageIndex":4,"items":[{"name":"이디야커피 금촌역점","tel":"031-941-6499","addr":"경기도 파주시 금촌동 329-39번지","indutype":"일반휴게음식 - 서양음식","category":"restaurant"}]},{"lat":"37.758343442","long":"126.77081527","imageIndex":4,"items":[{"name":"이리오너라","tel":"031-948-5078","addr":"경기도 파주시 금촌동 940-8번지","indutype":"일반휴게음식 - 일반한식","category":"restaurant"}]},{"lat":"37.757286646","long":"126.76945684","imageIndex":4,"items":[{"name":"이모네","tel":"031-945-5892","addr":"경기도 파주시 금촌동 960-15번지","indutype":"일반휴게음식 - 일반한식","category":"restaurant"}]},{"lat":"37.756588383","long":"126.77636979","imageIndex":4,"items":[{"name":"이모네식당","tel":"031-943-5843","addr":"경기도 파주시 금촌동 774-13번지","indutype":"일반휴게음식 - 일반한식","category":"restaurant"}]},{"lat":"37.760199823","long":"126.77565519","imageIndex":4,"items":[{"name":"이삭토스트","tel":"031-957-8816","addr":"경기도 파주시 금촌동 71-26번지","indutype":"일반휴게음식 - 일반한식","category":"restaurant"}]},{"lat":"37.757479694","long":"126.77140806","imageIndex":4,"items":[{"name":"이신치킨강정","tel":"031-946-9889","addr":"경기도 파주시 금촌동 959-2번지","indutype":"일반휴게음식 - 스넥","category":"restaurant"}]},{"lat":"37.762227608","long":"126.77598944","imageIndex":4,"items":[{"name":"이조칡냉면전문점","tel":"031-941-1585","addr":"경기도 파주시 금촌동 56-56번지","indutype":"일반휴게음식 - 일반한식","category":"restaurant"}]},{"lat":"37.75878359","long":"126.76562784","imageIndex":4,"items":[{"name":"이종구 낙지세상","tel":"031-943-1183","addr":"경기도 파주시 금촌동 538-3번지","indutype":"일반휴게음식 - 일반한식","category":"restaurant"}]},{"lat":"37.758590259","long":"126.77263019","imageIndex":4,"items":[{"name":"인두삼","tel":"031-948-3533","addr":"경기도 파주시 금촌동 945-1번지","indutype":"일반휴게음식 - 일반한식","category":"restaurant"}]},{"lat":"37.758033239","long":"126.76885305","imageIndex":4,"items":[{"name":"일루션 커피","tel":"031-959-7896","addr":"경기도 파주시 금촌동 942-8번지","indutype":"일반휴게음식 - 서양음식","category":"restaurant"}]},{"lat":"37.758121057","long":"126.77226851","imageIndex":4,"items":[{"name":"임진갈비3호점","tel":"031-944-5352","addr":"경기도 파주시 금촌동 945-37번지","indutype":"일반휴게음식 - 일반한식","category":"restaurant"}]},{"lat":"37.757785978","long":"126.76684525","imageIndex":4,"items":[{"name":"잇쇼니키친","tel":"","addr":"경기도 파주시 금촌동 967-3번지","indutype":"일반휴게음식 - 일식·회집","category":"restaurant"}]},{"lat":"37.752928549","long":"126.77534836","imageIndex":4,"items":[{"name":"자전거가있는풍경","tel":"031-945-5551","addr":"경기도 파주시 금촌동 1003번지 쇠재마을뜨란채","indutype":"일반휴게음식 - 일반한식","category":"restaurant"}]},{"lat":"37.763558261","long":"126.76995917","imageIndex":4,"items":[{"name":"장길수피자","tel":"031-944-3363","addr":"경기도 파주시 금촌동 329-134번지","indutype":"일반휴게음식 - 서양음식","category":"restaurant"}]},{"lat":"37.763308903","long":"126.77143529","imageIndex":4,"items":[{"name":"장미","tel":"031-941-3955","addr":"경기도 파주시 금촌동 329-157번지","indutype":"일반휴게음식 - 서양음식","category":"restaurant"}]},{"lat":"37.763284031","long":"126.7725362","imageIndex":4,"items":[{"name":"장복어","tel":"031-944-6870","addr":"경기도 파주시 금촌동 324-16번지","indutype":"일반휴게음식 - 일반한식","category":"restaurant"}]},{"lat":"37.755672243","long":"126.77784777","imageIndex":4,"items":[{"name":"장수통닭","tel":"","addr":"경기도 파주시 금촌동 790-28번지","indutype":"일반휴게음식 - 스넥","category":"restaurant"}]},{"lat":"37.757786885","long":"126.77184967","imageIndex":4,"items":[{"name":"장수한우곱창","tel":"031-947-3737","addr":"경기도 파주시 금촌동 944-24번지","indutype":"일반휴게음식 - 일반한식","category":"restaurant"},{"name":"희전","tel":"031-947-3737","addr":"경기도 파주시 금촌동 944-24번지","indutype":"일반휴게음식 - 일식·회집","category":"restaurant"}]},{"lat":"37.7644241","long":"126.76590489","imageIndex":4,"items":[{"name":"장어본가","tel":"031-946-5577","addr":"경기도 파주시 금촌동 466-60번지","indutype":"일반휴게음식 - 일반한식","category":"restaurant"}]},{"lat":"37.759503572","long":"126.77435228","imageIndex":4,"items":[{"name":"장터식당","tel":"031-943-7757","addr":"경기도 파주시 금촌동 77-6번지","indutype":"일반휴게음식 - 일반한식","category":"restaurant"}]},{"lat":"37.755115764","long":"126.77426365","imageIndex":4,"items":[{"name":"저팔계돼지부속","tel":"031-944-0897","addr":"경기도 파주시 금촌동 954-7번지","indutype":"일반휴게음식 - 일반한식","category":"restaurant"}]},{"lat":"37.760647509","long":"126.77421258","imageIndex":4,"items":[{"name":"전주보신탕","tel":"031-945-8044","addr":"경기도 파주시 금촌동 72-1번지","indutype":"일반휴게음식 - 일반한식","category":"restaurant"}]},{"lat":"37.757813574","long":"126.76712886","imageIndex":4,"items":[{"name":"전주야식","tel":"031-946-2322","addr":"경기도 파주시 금촌동 968-3번지","indutype":"일반휴게음식 - 일반한식","category":"restaurant"}]},{"lat":"37.757455709","long":"126.77296279","imageIndex":4,"items":[{"name":"전주콩나물국밥&복국","tel":"031-948-9080","addr":"경기도 파주시 금촌동 958-30번지","indutype":"일반휴게음식 - 일반한식","category":"restaurant"}]},{"lat":"37.762927452","long":"126.77448928","imageIndex":4,"items":[{"name":"전통분식","tel":"02-1234-1234","addr":"경기도 파주시 금촌동 62-14번지","indutype":"일반휴게음식 - 스넥","category":"restaurant"}]},{"lat":"37.756672511","long":"126.77795822","imageIndex":4,"items":[{"name":"정희호프","tel":"031-944-1080","addr":"경기도 파주시 금촌동 785-4번지","indutype":"일반휴게음식 - 주점","category":"restaurant"}]},{"lat":"37.75644801","long":"126.77834472","imageIndex":4,"items":[{"name":"제이(J)","tel":"031-000-0000","addr":"경기도 파주시 금촌동 784-5번지","indutype":"일반휴게음식 - 일반한식","category":"restaurant"},{"name":"충무로사랑방백숙백반","tel":"031-943-5115","addr":"경기도 파주시 금촌동 784-5번지","indutype":"일반휴게음식 - 일반한식","category":"restaurant"}]},{"lat":"37.75028173","long":"126.7671868","imageIndex":4,"items":[{"name":"제이앤제이 (J&J)","tel":"031-956-0614","addr":"경기도 파주시 금촌동 1024번지","indutype":"일반휴게음식 - 위탁급식업","category":"restaurant"}]},{"lat":"37.757810855","long":"126.77029493","imageIndex":4,"items":[{"name":"제주돌삼겹","tel":"031-941-7156","addr":"경기도 파주시 금촌동 943-11번지","indutype":"일반휴게음식 - 일반한식","category":"restaurant"}]},{"lat":"37.771228184","long":"126.77139926","imageIndex":4,"items":[{"name":"조선야시장","tel":"031-948-3417","addr":"경기도 파주시 금촌동 420-4번지","indutype":"일반휴게음식 - 일반한식","category":"restaurant"}]},{"lat":"37.755812553","long":"126.78057077","imageIndex":4,"items":[{"name":"조선옥","tel":"031-947-9645","addr":"경기도 파주시 금촌동 793-17번지","indutype":"일반휴게음식 - 일반한식","category":"restaurant"}]},{"lat":"37.758230146","long":"126.77276748","imageIndex":4,"items":[{"name":"조은사주카페","tel":"","addr":"경기도 파주시 금촌동 945-17번지","indutype":"일반휴게음식 - 서양음식","category":"restaurant"},{"name":"카페 필","tel":"031-945-7087","addr":"경기도 파주시 금촌동 945-17번지","indutype":"일반휴게음식 - 서양음식","category":"restaurant"}]},{"lat":"37.762233019","long":"126.77412826","imageIndex":4,"items":[{"name":"주막가정식백반","tel":"031-947-6254","addr":"경기도 파주시 금촌동 64-34번지","indutype":"일반휴게음식 - 일반한식","category":"restaurant"}]},{"lat":"37.756309741","long":"126.7814544","imageIndex":4,"items":[{"name":"주막과탁배기","tel":"031-945-1259","addr":"경기도 파주시 금촌동 794-2","indutype":"일반휴게음식 - 일반한식","category":"restaurant"}]},{"lat":"37.759341291","long":"126.77429604","imageIndex":4,"items":[{"name":"주막집","tel":"031-944-7617","addr":"경기도 파주시 금촌동 947-20번지","indutype":"일반휴게음식 - 일반한식","category":"restaurant"},{"name":"호박꽃","tel":"031-947-2589","addr":"경기도 파주시 금촌동 947-20번지","indutype":"일반휴게음식 - 일반한식","category":"restaurant"}]},{"lat":"37.771256037","long":"126.77181912","imageIndex":4,"items":[{"name":"주식회싸","tel":"031-943-1710","addr":"경기도 파주시 금촌동 423-5번지","indutype":"일반휴게음식 - 일반한식","category":"restaurant"}]},{"lat":"37.758230523","long":"126.77296039","imageIndex":4,"items":[{"name":"죽이야기 금촌로터리점","tel":"031-946-6233","addr":"경기도 파주시 금촌동 945-7번지","indutype":"일반휴게음식 - 일반한식","category":"restaurant"}]},{"lat":"37.761892111","long":"126.77487831","imageIndex":4,"items":[{"name":"줄라이텐(July10)","tel":"031-945-8770","addr":"경기도 파주시 금촌동 67-5번지","indutype":"일반휴게음식 - 서양음식","category":"restaurant"}]},{"lat":"37.764759483","long":"126.7760952","imageIndex":4,"items":[{"name":"중국성","tel":"031-946-7982","addr":"경기도 파주시 금촌동 42-1번지","indutype":"일반휴게음식 - 중국식","category":"restaurant"},{"name":"춘천애(  )닭갈비","tel":"02-1566-7095","addr":"경기도 파주시 금촌동 42-1번지","indutype":"일반휴게음식 - 일반한식","category":"restaurant"}]},{"lat":"37.763007392","long":"126.7738989","imageIndex":4,"items":[{"name":"중앙스넥","tel":"031-943-1252","addr":"경기도 파주시 금촌동 60-6","indutype":"일반휴게음식 - 일반한식","category":"restaurant"}]},{"lat":"37.763560963","long":"126.77596267","imageIndex":4,"items":[{"name":"중한전통고기요리","tel":"070-8621-2819","addr":"경기도 파주시 금촌동 52-36번지","indutype":"일반휴게음식 - 일반한식","category":"restaurant"},{"name":"코리엔탈깻잎두마리치킨","tel":"031-111-1111","addr":"경기도 파주시 금촌동 52-36번지","indutype":"일반휴게음식 - 스넥","category":"restaurant"}]},{"lat":"37.758372388","long":"126.77643244","imageIndex":4,"items":[{"name":"지우네포차","tel":"031-944-4775","addr":"경기도 파주시 금촌동 772-12번지","indutype":"일반휴게음식 - 주점","category":"restaurant"},{"name":"행복한맛집","tel":"031-943-2774","addr":"경기도 파주시 금촌동 772-12번지","indutype":"일반휴게음식 - 일반한식","category":"restaurant"}]},{"lat":"37.758147374","long":"126.77190529","imageIndex":4,"items":[{"name":"지지미","tel":"031-943-2212","addr":"경기도 파주시 금촌동 944-8번지","indutype":"일반휴게음식 - 일반한식","category":"restaurant"}]},{"lat":"37.76819819","long":"126.76546157","imageIndex":4,"items":[{"name":"지푸라기동태한마리","tel":"031-941-3930","addr":"경기도 파주시 금촌동 433-7번지","indutype":"일반휴게음식 - 일반한식","category":"restaurant"}]},{"lat":"37.762871279","long":"126.77339998","imageIndex":4,"items":[{"name":"지하다방","tel":"031-943-0946","addr":"경기도 파주시 금촌동 321-9번지","indutype":"일반휴게음식 - 서양음식","category":"restaurant"},{"name":"통일집","tel":"031-948-0630","addr":"경기도 파주시 금촌동 321-9번지","indutype":"일반휴게음식 - 일반한식","category":"restaurant"}]},{"lat":"37.759954309","long":"126.77448707","imageIndex":4,"items":[{"name":"진도식당","tel":"031-949-8292","addr":"경기도 파주시 금촌동 73-18번지","indutype":"일반휴게음식 - 일반한식","category":"restaurant"}]},{"lat":"37.756286055","long":"126.77845869","imageIndex":4,"items":[{"name":"쭈꾸미와 생선구이","tel":"031-946-9236","addr":"경기도 파주시 금촌동 784-7번지","indutype":"일반휴게음식 - 일반한식","category":"restaurant"}]},{"lat":"37.758204596","long":"126.77820323","imageIndex":4,"items":[{"name":"차이","tel":"031-948-9355","addr":"경기도 파주시 금촌동 777-2번지","indutype":"일반휴게음식 - 중국식","category":"restaurant"}]},{"lat":"37.760141219","long":"126.77798176","imageIndex":4,"items":[{"name":"착한생선구이","tel":"031-948-5592","addr":"경기도 파주시 금촌동 768-5번지","indutype":"일반휴게음식 - 일반한식","category":"restaurant"}]},{"lat":"37.755309177","long":"126.78118504","imageIndex":4,"items":[{"name":"찬찬찬순대국","tel":"031-942-8338","addr":"경기도 파주시 금촌동 796-6번지","indutype":"일반휴게음식 - 일반한식","category":"restaurant"}]},{"lat":"37.75917621","long":"126.77746267","imageIndex":4,"items":[{"name":"참","tel":"031-948-1255","addr":"경기도 파주시 금촌동 770-1번지","indutype":"일반휴게음식 - 일반한식","category":"restaurant"}]},{"lat":"37.767062966","long":"126.77456735","imageIndex":4,"items":[{"name":"참맛깔 곱창","tel":"031-942-7336","addr":"경기도 파주시 금촌동 30-1번지","indutype":"일반휴게음식 - 일반한식","category":"restaurant"}]},{"lat":"37.757031979","long":"126.77748052","imageIndex":4,"items":[{"name":"참새와방앗간","tel":"","addr":"경기도 파주시 금촌동 775-7번지","indutype":"일반휴게음식 - 주점","category":"restaurant"},{"name":"힐링호프","tel":"031-946-6316","addr":"경기도 파주시 금촌동 775-7번지","indutype":"일반휴게음식 - 일반한식","category":"restaurant"}]},{"lat":"37.75778704","long":"126.77192911","imageIndex":4,"items":[{"name":"참숯불닭발불떡볶이영웅싸롱","tel":"031-949-2253","addr":"경기도 파주시 금촌동 944-23번지","indutype":"일반휴게음식 - 일반한식","category":"restaurant"},{"name":"취하는 밤","tel":"","addr":"경기도 파주시 금촌동 944-23번지","indutype":"일반휴게음식 - 주점","category":"restaurant"}]},{"lat":"37.755647807","long":"126.77920955","imageIndex":4,"items":[{"name":"처갓집양념치킨","tel":"031-941-3060","addr":"경기도 파주시 금촌동 791-8번지","indutype":"일반휴게음식 - 스넥","category":"restaurant"}]},{"lat":"37.764313983","long":"126.77400836","imageIndex":4,"items":[{"name":"천냥하우스","tel":"031-941-4582","addr":"경기도 파주시 금촌동 58번지","indutype":"일반휴게음식 - 스넥","category":"restaurant"}]},{"lat":"37.76128707","long":"126.77415387","imageIndex":4,"items":[{"name":"청담","tel":"031-941-6552","addr":"경기도 파주시 금촌동 70-25번지","indutype":"일반휴게음식 - 일반한식","category":"restaurant"}]},{"lat":"37.763059725","long":"126.77301354","imageIndex":4,"items":[{"name":"청진동해장국","tel":"031-975-2222","addr":"경기도 파주시 금촌동 323-8번지","indutype":"일반휴게음식 - 일반한식","category":"restaurant"}]},{"lat":"37.758172935","long":"126.77578621","imageIndex":4,"items":[{"name":"청춘 꿀벅지 닭갈비","tel":"031-947-5992","addr":"경기도 파주시 금촌동 772-18번지","indutype":"일반휴게음식 - 일반한식","category":"restaurant"}]},{"lat":"37.758255047","long":"126.77631932","imageIndex":4,"items":[{"name":"청학동","tel":"031-946-1363","addr":"경기도 파주시 금촌동 772-13번지 연우원룸","indutype":"일반휴게음식 - 주점","category":"restaurant"}]},{"lat":"37.757284265","long":"126.7774911","imageIndex":4,"items":[{"name":"초원카페","tel":"031-8071-5802","addr":"경기도 파주시 금촌동 775-3번지","indutype":"일반휴게음식 - 서양음식","category":"restaurant"}]},{"lat":"37.770782444","long":"126.76923282","imageIndex":4,"items":[{"name":"최가네고집칼국수","tel":"031-8071-6671","addr":"경기도 파주시 금촌동 410-4번지","indutype":"일반휴게음식 - 일반한식","category":"restaurant"}]},{"lat":"37.762781736","long":"126.77368397","imageIndex":4,"items":[{"name":"충남통닭","tel":"031-949-8670","addr":"경기도 파주시 금촌동 320-1","indutype":"일반휴게음식 - 스넥","category":"restaurant"}]},{"lat":"37.761340047","long":"126.77359763","imageIndex":4,"items":[{"name":"충무곱창","tel":"031-947-7774","addr":"경기도 파주시 금촌동 70-11번지","indutype":"일반휴게음식 - 일반한식","category":"restaurant"},{"name":"해동식당","tel":"031-946-5234","addr":"경기도 파주시 금촌동 70-11번지","indutype":"일반휴게음식 - 일반한식","category":"restaurant"}]},{"lat":"37.758338459","long":"126.77286928","imageIndex":4,"items":[{"name":"치킨플러스 금촌2호점","tel":"031-943-9554","addr":"경기도 파주시 금촌동 945-5번지","indutype":"일반휴게음식 - 스넥","category":"restaurant"},{"name":"파주맛전집","tel":"031-944-1110","addr":"경기도 파주시 금촌동 945-5번지 1층","indutype":"일반휴게음식 - 일반한식","category":"restaurant"}]},{"lat":"37.760117555","long":"126.77504263","imageIndex":4,"items":[{"name":"친구네","tel":"031-943-7987","addr":"경기도 파주시 금촌동 72-10번지","indutype":"일반휴게음식 - 일반한식","category":"restaurant"}]},{"lat":"37.76014511","long":"126.77531491","imageIndex":4,"items":[{"name":"칭따오","tel":"031-945-8245","addr":"경기도 파주시 금촌동 71-32번지","indutype":"일반휴게음식 - 중국식","category":"restaurant"}]},{"lat":"37.763812419","long":"126.775542","imageIndex":4,"items":[{"name":"카스톡스","tel":"031-949-3264","addr":"경기도 파주시 금촌동 51-39 2층","indutype":"일반휴게음식 - 주점","category":"restaurant"},{"name":"파주골","tel":"031-941-2510","addr":"경기도 파주시 금촌동 51-39번지","indutype":"일반휴게음식 - 일반한식","category":"restaurant"}]},{"lat":"37.763204474","long":"126.77331951","imageIndex":4,"items":[{"name":"카툰공감 파주 금촌역점","tel":"","addr":"경기도 파주시 금촌동 323-1번지","indutype":"일반휴게음식 - 스넥","category":"restaurant"}]},{"lat":"37.758176172","long":"126.76823981","imageIndex":4,"items":[{"name":"카페 내옆에있는사람","tel":"070-7872-8733","addr":"경기도 파주시 금촌동 521-15번지","indutype":"일반휴게음식 - 주점","category":"restaurant"}]},{"lat":"37.758455388","long":"126.77743081","imageIndex":4,"items":[{"name":"카페 에스쁘아","tel":"031-949-3620","addr":"경기도 파주시 금촌동 771번지","indutype":"일반휴게음식 - 서양음식","category":"restaurant"}]},{"lat":"37.75748034","long":"126.77173715","imageIndex":4,"items":[{"name":"카페베네 금촌로타리점","tel":"031-949-0533","addr":"경기도 파주시 금촌동 959-3번지 1층","indutype":"일반휴게음식 - 서양음식","category":"restaurant"}]},{"lat":"37.756561943","long":"126.77667626","imageIndex":4,"items":[{"name":"카페브레쏘(BRESSO)","tel":"070-7766-7500","addr":"경기도 파주시 금촌동 774-8번지","indutype":"일반휴게음식 - 서양음식","category":"restaurant"}]},{"lat":"37.755837995","long":"126.77973097","imageIndex":4,"items":[{"name":"카페에세이(Cafe Essay)","tel":"","addr":"경기도 파주시 금촌동 792-2번지","indutype":"일반휴게음식 - 서양음식","category":"restaurant"}]},{"lat":"37.758676721","long":"126.77539884","imageIndex":4,"items":[{"name":"카페제이드","tel":"031-941-9292","addr":"경기도 파주시 금촌동 765-24번지 1층","indutype":"일반휴게음식 - 서양음식","category":"restaurant"}]},{"lat":"37.751311028","long":"126.76829553","imageIndex":4,"items":[{"name":"카페토토","tel":"031-941-6688","addr":"경기도 파주시 금촌동 989-7번지","indutype":"일반휴게음식 - 일반한식","category":"restaurant"},{"name":"카페플라타너스 (금촌점)","tel":"031-941-1017","addr":"경기도 파주시 금촌동 989-7번지","indutype":"일반휴게음식 - 서양음식","category":"restaurant"}]},{"lat":"37.762009124","long":"126.77482121","imageIndex":4,"items":[{"name":"캔모아","tel":"031-947-6296","addr":"경기도 파주시 금촌동 67번지","indutype":"일반휴게음식 - 스넥","category":"restaurant"}]},{"lat":"37.759448335","long":"126.77842644","imageIndex":4,"items":[{"name":"커피에반하다","tel":"070-8784-3522","addr":"경기도 파주시 금촌동 769-3번지","indutype":"일반휴게음식 - 서양음식","category":"restaurant"}]},{"lat":"37.759558903","long":"126.7750103","imageIndex":4,"items":[{"name":"코다리집","tel":"031-942-3113","addr":"경기도 파주시 금촌동 764-2번지","indutype":"일반휴게음식 - 일반한식","category":"restaurant"}]},{"lat":"37.76292507","long":"126.77326363","imageIndex":4,"items":[{"name":"코스모스분식","tel":"031-941-8796","addr":"경기도 파주시 금촌동 321-17번지","indutype":"일반휴게음식 - 스넥","category":"restaurant"}]},{"lat":"37.760811766","long":"126.77529017","imageIndex":4,"items":[{"name":"큰맘할매순대국금촌점","tel":"031-946-8466","addr":"경기도 파주시 금촌동 71-4번지","indutype":"일반휴게음식 - 일반한식","category":"restaurant"}]},{"lat":"37.758200368","long":"126.76682124","imageIndex":4,"items":[{"name":"큰샛곳옛날집","tel":"031-943-0651","addr":"경기도 파주시 금촌동 518-8번지","indutype":"일반휴게음식 - 일반한식","category":"restaurant"}]},{"lat":"37.76012242","long":"126.77757328","imageIndex":4,"items":[{"name":"큰손부대찌게","tel":"031-942-4321","addr":"경기도 파주시 금촌동 768-13번지","indutype":"일반휴게음식 - 일반한식","category":"restaurant"}]},{"lat":"37.757581122","long":"126.7772519","imageIndex":4,"items":[{"name":"킹노가리","tel":"031-942-5370","addr":"경기도 파주시 금촌동 775-2번지 동산빌라","indutype":"일반휴게음식 - 일반한식","category":"restaurant"}]},{"lat":"37.759615585","long":"126.77637191","imageIndex":4,"items":[{"name":"태능갈비","tel":"031-948-9211","addr":"경기도 파주시 금촌동 767-13번지","indutype":"일반휴게음식 - 일반한식","category":"restaurant"}]},{"lat":"37.757233039","long":"126.76968396","imageIndex":4,"items":[{"name":"테마스시","tel":"02-957-6868","addr":"경기도 파주시 금촌동 960-12번지","indutype":"일반휴게음식 - 일식·회집","category":"restaurant"}]},{"lat":"37.757313435","long":"126.7739278","imageIndex":4,"items":[{"name":"통큰갈비(파주금촌점)","tel":"031-946-8536","addr":"경기도 파주시 금촌동 952-1번지","indutype":"일반휴게음식 - 일반한식","category":"restaurant"}]},{"lat":"37.757784207","long":"126.77048793","imageIndex":4,"items":[{"name":"통큰포차","tel":"031-944-5753","addr":"경기도 파주시 금촌동 943-9번지","indutype":"일반휴게음식 - 스넥","category":"restaurant"}]},{"lat":"37.759006547","long":"126.77825755","imageIndex":4,"items":[{"name":"투썸플레이스 파주시청사거리점","tel":"031-947-3932","addr":"경기도 파주시 금촌동 769-14번지","indutype":"일반휴게음식 - 서양음식","category":"restaurant"}]},{"lat":"37.757399038","long":"126.77626519","imageIndex":4,"items":[{"name":"티바두마리치킨","tel":"031-944-3443","addr":"경기도 파주시 금촌동 774-1번지","indutype":"일반휴게음식 - 스넥","category":"restaurant"}]},{"lat":"37.756951754","long":"126.77325939","imageIndex":4,"items":[{"name":"티케이라운지","tel":"","addr":"경기도 파주시 금촌동 958-25번지","indutype":"일반휴게음식 - 일반한식","category":"restaurant"},{"name":"하바나","tel":"031-943-0095","addr":"경기도 파주시 금촌동 958-25번지","indutype":"일반휴게음식 - 주점","category":"restaurant"}]},{"lat":"37.754228534","long":"126.77670606","imageIndex":4,"items":[{"name":"페리카나","tel":"031-943-9955","addr":"경기도 파주시 금촌동 123-28번지","indutype":"일반휴게음식 - 스넥","category":"restaurant"}]},{"lat":"37.763397502","long":"126.77529359","imageIndex":4,"items":[{"name":"피앤티타이클럽","tel":"031-941-8487","addr":"경기도 파주시 금촌동 51-43번지","indutype":"일반휴게음식 - 서양음식","category":"restaurant"}]},{"lat":"37.758280896","long":"126.77570645","imageIndex":4,"items":[{"name":"피자에땅","tel":"031-948-6660","addr":"경기도 파주시 금촌동 772-22번지","indutype":"일반휴게음식 - 서양음식","category":"restaurant"}]},{"lat":"37.758447657","long":"126.77810037","imageIndex":4,"items":[{"name":"피자헛파주금촌점","tel":"031-957-3082","addr":"경기도 파주시 금촌동 770-9번지","indutype":"일반휴게음식 - 서양음식","category":"restaurant"}]},{"lat":"37.76094731","long":"126.77087523","imageIndex":4,"items":[{"name":"피자헤븐 파주금촌점","tel":"031-942-8482","addr":"경기도 파주시 금촌동 930-15번지","indutype":"일반휴게음식 - 서양음식","category":"restaurant"}]},{"lat":"37.763811235","long":"126.77492916","imageIndex":4,"items":[{"name":"필(FEEL)","tel":"070-7722-4890","addr":"경기도 파주시 금촌동 50-8번지","indutype":"일반휴게음식 - 일반한식","category":"restaurant"}]},{"lat":"37.750845058","long":"126.76956785","imageIndex":4,"items":[{"name":"핑크곱창","tel":"070-4196-7277","addr":"경기도 파주시 금촌동 1022번지 후곡마을주공아파트","indutype":"일반휴게음식 - 일반한식","category":"restaurant"}]},{"lat":"37.762395784","long":"126.77443417","imageIndex":4,"items":[{"name":"하나꼬치","tel":"031-948-1843","addr":"경기도 파주시 금촌동 65-1번지 외1필지","indutype":"일반휴게음식 - 일반한식","category":"restaurant"}]},{"lat":"37.768613185","long":"126.77486903","imageIndex":4,"items":[{"name":"하림치킨익스프레스","tel":"031-944-9989","addr":"경기도 파주시 금촌동 20-37번지","indutype":"일반휴게음식 - 서양음식","category":"restaurant"}]},{"lat":"37.760844077","long":"126.76878745","imageIndex":4,"items":[{"name":"한씨네","tel":"031-944-7988","addr":"경기도 파주시 금촌동 929-24번지","indutype":"일반휴게음식 - 일반한식","category":"restaurant"}]},{"lat":"37.757477326","long":"126.7702052","imageIndex":4,"items":[{"name":"한우애","tel":"","addr":"경기도 파주시 금촌동 960-3번지","indutype":"일반휴게음식 - 일반한식","category":"restaurant"}]},{"lat":"37.761259491","long":"126.77387024","imageIndex":4,"items":[{"name":"할매감자옹심이 메밀칼국수","tel":"031-946-9965","addr":"경기도 파주시 금촌동 70-28번지","indutype":"일반휴게음식 - 일반한식","category":"restaurant"}]},{"lat":"37.762116051","long":"126.77420806","imageIndex":4,"items":[{"name":"할매보신탕","tel":"031-947-6665","addr":"경기도 파주시 금촌동 64-36번지 1층","indutype":"일반휴게음식 - 일반한식","category":"restaurant"}]},{"lat":"37.756204538","long":"126.77823198","imageIndex":4,"items":[{"name":"해밥달술","tel":"031-947-9761","addr":"경기도 파주시 금촌동 785-10번지","indutype":"일반휴게음식 - 일반한식","category":"restaurant"}]},{"lat":"37.757286106","long":"126.76918449","imageIndex":4,"items":[{"name":"해운대 가야 밀면 (직영점)","tel":"031-946-3465","addr":"경기도 파주시 금촌동 961-4번지","indutype":"일반휴게음식 - 일반한식","category":"restaurant"}]},{"lat":"37.762366152","long":"126.77309512","imageIndex":4,"items":[{"name":"해주통닭","tel":"032-941-2344","addr":"경기도 파주시 금촌동 319-15번지","indutype":"일반휴게음식 - 스넥","category":"restaurant"}]},{"lat":"37.756725167","long":"126.77256788","imageIndex":4,"items":[{"name":"행복한초밥","tel":"031-941-7972","addr":"경기도 파주시 금촌동 957-2번지","indutype":"일반휴게음식 - 일식·회집","category":"restaurant"}]},{"lat":"37.762809889","long":"126.77426266","imageIndex":4,"items":[{"name":"현대식당","tel":"031-941-3671","addr":"경기도 파주시 금촌동 62-12번지","indutype":"일반휴게음식 - 일반한식","category":"restaurant"}]},{"lat":"37.76075531","long":"126.76945729","imageIndex":4,"items":[{"name":"호까호까피자&치킨","tel":"031-948-9484","addr":"경기도 파주시 금촌동 929-10번지","indutype":"일반휴게음식 - 서양음식","category":"restaurant"}]},{"lat":"37.756537996","long":"126.77828771","imageIndex":4,"items":[{"name":"호미불닭발","tel":"031-941-3769","addr":"경기도 파주시 금촌동 784-4번지","indutype":"일반휴게음식 - 일반한식","category":"restaurant"}]},{"lat":"37.757538304","long":"126.76914965","imageIndex":4,"items":[{"name":"호반닭갈비막국수","tel":"031-957-6999","addr":"경기도 파주시 금촌동 961-2번지","indutype":"일반휴게음식 - 일반한식","category":"restaurant"}]},{"lat":"37.75572831","long":"126.77890293","imageIndex":4,"items":[{"name":"호식이두마리치킨","tel":"031-941-4547","addr":"경기도 파주시 금촌동 791-6번지","indutype":"일반휴게음식 - 주점","category":"restaurant"}]},{"lat":"37.756064272","long":"126.77093587","imageIndex":4,"items":[{"name":"호연지기","tel":"031-943-5447","addr":"경기도 파주시 금촌동 246-38번지","indutype":"일반휴게음식 - 주점","category":"restaurant"}]},{"lat":"37.759726137","long":"126.76840514","imageIndex":4,"items":[{"name":"홍가","tel":"031-942-8193","addr":"경기도 파주시 금촌동 286-3번지","indutype":"일반휴게음식 - 일반한식","category":"restaurant"}]},{"lat":"37.757921693","long":"126.77167903","imageIndex":4,"items":[{"name":"홍대불닭발","tel":"031-941-7788","addr":"경기도 파주시 금촌동 944-16번지 대림빌","indutype":"일반휴게음식 - 일반한식","category":"restaurant"}]},{"lat":"37.76295371","long":"126.77409199","imageIndex":4,"items":[{"name":"홍미식당","tel":"031-946-4153","addr":"경기도 파주시 금촌동 63-1번지","indutype":"일반휴게음식 - 일반한식","category":"restaurant"}]},{"lat":"37.758204419","long":"126.76885251","imageIndex":4,"items":[{"name":"홍박","tel":"031-941-2030","addr":"경기도 파주시 금촌동 942-9번지","indutype":"일반휴게음식 - 일반한식","category":"restaurant"}]},{"lat":"37.756726935","long":"126.77815096","imageIndex":4,"items":[{"name":"홍보식당","tel":"031-946-7322","addr":"경기도 파주시 금촌동 784-2번지","indutype":"일반휴게음식 - 일반한식","category":"restaurant"}]},{"lat":"37.763449296","long":"126.77412451","imageIndex":4,"items":[{"name":"홍어집","tel":"031-943-5744","addr":"경기도 파주시 금촌동 60-12번지","indutype":"일반휴게음식 - 일반한식","category":"restaurant"}]},{"lat":"37.763919568","long":"126.77504232","imageIndex":4,"items":[{"name":"화정족발","tel":"031-943-0882","addr":"경기도 파주시 금촌동 50-2번지","indutype":"일반휴게음식 - 일반한식","category":"restaurant"}]},{"lat":"37.760170316","long":"126.77437292","imageIndex":4,"items":[{"name":"황골이야기","tel":"031-945-8845","addr":"경기도 파주시 금촌동 73-13번지","indutype":"일반휴게음식 - 일반한식","category":"restaurant"}]},{"lat":"37.763259237","long":"126.7736825","imageIndex":4,"items":[{"name":"황금식당","tel":"031-1111-1111","addr":"경기도 파주시 금촌동 325-4번지","indutype":"일반휴게음식 - 일반한식","category":"restaurant"}]},{"lat":"37.75700355","long":"126.77210176","imageIndex":4,"items":[{"name":"황소숯불꼼장어구이","tel":"031-949-7595","addr":"경기도 파주시 금촌동 259-6번지","indutype":"일반휴게음식 - 일반한식","category":"restaurant"}]}]