[{"lat":"37.001550269","long":"127.22510132","imageIndex":13,"items":[{"name":"YJ INTERNATIONAL","tel":"031-676-3357","addr":"경기도 안성시 대덕면 내리 684-6 2층","indutype":"보건위생 - 미용재료","category":"beauty"}]},{"lat":"37.000992114","long":"127.22483007","imageIndex":13,"items":[{"name":"가르마헤어","tel":"031-675-9556","addr":"경기도 안성시 대덕면 내리 686-5번지","indutype":"보건위생 - 미용원","category":"beauty"},{"name":"르마화장품","tel":"070-4799-9156","addr":"경기도 안성시 대덕면 내리 686-5번지","indutype":"보건위생 - 화장품","category":"beauty"}]},{"lat":"37.000910767","long":"127.22496465","imageIndex":13,"items":[{"name":"권홍헤어 안성중앙대","tel":"031-675-7585","addr":"경기도 안성시 대덕면 내리 686-4번지 2층","indutype":"보건위생 - 미용원","category":"beauty"}]},{"lat":"37.000158679","long":"127.22237857","imageIndex":13,"items":[{"name":"김규리헤어","tel":"031-673-7200","addr":"경기도 안성시 대덕면 내리 704-8번지 씨티원룸 101호","indutype":"보건위생 - 미용원","category":"beauty"}]},{"lat":"37.001689092","long":"127.22313568","imageIndex":13,"items":[{"name":"네일쌀롱","tel":"031-672-2502","addr":"경기도 안성시 대덕면 내리 690-6번지 1층 102호","indutype":"보건위생 - 화장품","category":"beauty"}]},{"lat":"37.005324858","long":"127.23032539","imageIndex":13,"items":[{"name":"대학안경원","tel":"031-676-1001","addr":"경기도 안성시 대덕면 내리 산40-1번지 중앙대학교 구내","indutype":"보건위생 - 안경","category":"beauty"}]},{"lat":"37.001721113","long":"127.22529281","imageIndex":13,"items":[{"name":"소소한미용실","tel":"031-000-0000","addr":"경기도 안성시 대덕면 내리 684-4번지 1층","indutype":"보건위생 - 미용원","category":"beauty"}]},{"lat":"37.001192422","long":"127.22371844","imageIndex":13,"items":[{"name":"아톰헤어","tel":"031-677-3439","addr":"경기도 안성시 대덕면 내리 691-5번지 2층","indutype":"보건위생 - 미용원","category":"beauty"}]},{"lat":"37.000380859","long":"127.22404189","imageIndex":13,"items":[{"name":"에벤에셀 미용실","tel":"031-675-5074","addr":"경기도 안성시 대덕면 내리 701-10번지","indutype":"보건위생 - 미용원","category":"beauty"}]},{"lat":"37.002494229","long":"127.23099104","imageIndex":13,"items":[{"name":"엠플러스","tel":"031-1644-0925","addr":"경기도 안성시 대덕면 내리 10-1번지 213호(중앙대학교 생활과학관 609관)","indutype":"보건위생 - 의료용품","category":"beauty"}]},{"lat":"37.001327958","long":"127.22351661","imageIndex":13,"items":[{"name":"오드리","tel":"070-7503-2518","addr":"경기도 안성시 대덕면 내리 691-3","indutype":"보건위생 - 화장품","category":"beauty"}]},{"lat":"37.002744169","long":"127.22268934","imageIndex":13,"items":[{"name":"와이디자인헤어","tel":"031-618-6399","addr":"경기도 안성시 대덕면 내리 688-11번지","indutype":"보건위생 - 미용원","category":"beauty"}]},{"lat":"37.000692109","long":"127.22624474","imageIndex":13,"items":[{"name":"지미헤어 (ZIMY HAIR)","tel":"","addr":"경기도 안성시 대덕면 내리 141-39번지","indutype":"보건위생 - 미용원","category":"beauty"}]},{"lat":"36.999833319","long":"127.22290564","imageIndex":13,"items":[{"name":"헤라스킨케어","tel":"","addr":"경기도 안성시 대덕면 내리 705-3번지 용마오피스텔 1층 101호","indutype":"보건위생 - 화장품","category":"beauty"}]},{"lat":"36.999554489","long":"127.22263522","imageIndex":13,"items":[{"name":"헤어매니아","tel":"031-674-5679","addr":"경기도 안성시 대덕면 내리 705-5번지","indutype":"보건위생 - 미용원","category":"beauty"}]},{"lat":"37.001551508","long":"127.22443849","imageIndex":13,"items":[{"name":"헤어바이리","tel":"070-7619-0049","addr":"경기도 안성시 대덕면 내리 689-3번지 에벤에셀오피스텔 203호","indutype":"보건위생 - 미용원","category":"beauty"}]},{"lat":"37.003550943","long":"127.22493862","imageIndex":13,"items":[{"name":"헤어칼리지","tel":"031-677-2072","addr":"경기도 안성시 대덕면 내리 675,신라상가104호","indutype":"보건위생 - 미용원","category":"beauty"}]},{"lat":"36.998468402","long":"127.22521593","imageIndex":13,"items":[{"name":"황금사우나","tel":"031-675-3717","addr":"경기도 안성시 대덕면 내리 165번지","indutype":"보건위생 - 사우나","category":"beauty"}]}]