[{"lat":"37.15197223","long":"126.98456723","imageIndex":17,"items":[{"name":"(주)이지크린","tel":"02-1600-7439","addr":"경기도 화성시 정남면 발산리 673-4번지","indutype":"주방용구 - 주방용구","category":"other"}]},{"lat":"37.15286378","long":"126.98165147","imageIndex":17,"items":[{"name":"GS25화성발산점","tel":"","addr":"경기도 화성시 정남면 발산리 689-1번지 1층","indutype":"유통업 영리 - 편 의 점","category":"other"}]},{"lat":"37.168722713","long":"126.98490096","imageIndex":17,"items":[{"name":"국제모터","tel":"031-366-3959","addr":"경기도 화성시 정남면 발산리 729-29","indutype":"수리서비스 - 기타수리서비스","category":"other"}]},{"lat":"37.160829597","long":"126.98512799","imageIndex":17,"items":[{"name":"나눔정보통신","tel":"031-233-0369","addr":"경기도 화성시 정남면 발산리 490-12번지 동남훼미리아파트 106동 904호","indutype":"회원제형태 - 기타1","category":"other"}]},{"lat":"37.168668845","long":"126.98622956","imageIndex":17,"items":[{"name":"대성상사","tel":"070-5121-0211","addr":"경기도 화성시 정남면 발산리 113-2번지","indutype":"신변잡화 - 기타잡화","category":"other"}]},{"lat":"37.16872235","long":"126.98264911","imageIndex":17,"items":[{"name":"대진광고인테리어","tel":"031-353-6158","addr":"경기도 화성시 정남면 발산리 403-6","indutype":"용역 서비스 - 종합용역","category":"other"},{"name":"정남농약종묘사","tel":"031-352-4422","addr":"경기도 화성시 정남면 발산리 403-6번지","indutype":"농업 - 비료,사료,종자","category":"other"}]},{"lat":"37.155242727","long":"126.98270899","imageIndex":17,"items":[{"name":"대한에너지관리","tel":"031-242-6055","addr":"경기도 화성시 정남면 발산리 702-1번지 B동 102호","indutype":"용역 서비스 - 기타용역서비스","category":"other"}]},{"lat":"37.168416147","long":"126.98356119","imageIndex":17,"items":[{"name":"더 클래스","tel":"031-352-5204","addr":"경기도 화성시 정남면 발산리 407-8번지","indutype":"의류 - 정장","category":"other"},{"name":"부원상사","tel":"031-353-7148","addr":"경기도 화성시 정남면 발산리 407-8번지","indutype":"직물 - 옷감·직물","category":"other"}]},{"lat":"37.160387635","long":"126.98234737","imageIndex":17,"items":[{"name":"매교볼트","tel":"031-8059-4700","addr":"경기도 화성시 정남면 발산리 539-2번지 1층","indutype":"기타 - 기계공구","category":"other"},{"name":"화성연합","tel":"031-354-7731","addr":"경기도 화성시 정남면 발산리 539-2","indutype":"건축자재 - 보일러·펌프·샷시","category":"other"}]},{"lat":"37.160973338","long":"126.98248231","imageIndex":17,"items":[{"name":"미니스톱 화성동남점","tel":"031-1577-9621","addr":"경기도 화성시 정남면 발산리 540-2번지","indutype":"유통업 영리 - 편 의 점","category":"other"},{"name":"후문 옷수선","tel":"031-352-1143","addr":"경기도 화성시 정남면 발산리 540-2번지","indutype":"수리서비스 - 세탁소","category":"other"}]},{"lat":"37.169723637","long":"126.99095828","imageIndex":17,"items":[{"name":"삼영","tel":"031-353-9337","addr":"경기도 화성시 정남면 발산리 376-6번지","indutype":"기타 - 기계공구","category":"other"},{"name":"정성정밀","tel":"031-366-4948","addr":"경기도 화성시 정남면 발산리 376-6","indutype":"기타 - 기계공구","category":"other"}]},{"lat":"37.163586599","long":"126.9838664","imageIndex":17,"items":[{"name":"성천기업상사","tel":"031-353-8412","addr":"경기도 화성시 정남면 발산리 484번지","indutype":"기타 - 기계공구","category":"other"}]},{"lat":"37.161649416","long":"126.98427218","imageIndex":17,"items":[{"name":"신영공조","tel":"031-353-1028","addr":"경기도 화성시 정남면 발산리 490-12번지 동남훼미리마트 102동 1411호","indutype":"전기제품 - 냉열기기","category":"other"}]},{"lat":"37.159774919","long":"126.98231376","imageIndex":17,"items":[{"name":"신원유통","tel":"031-354-9337","addr":"경기도 화성시 정남면 발산리 719번지 1층","indutype":"서적문구 - 문구용품","category":"other"}]},{"lat":"37.154945265","long":"126.98203364","imageIndex":17,"items":[{"name":"씨유화성정남에이스점","tel":"031-354-1026","addr":"경기도 화성시 정남면 발산리 697번지","indutype":"유통업 영리 - 편 의 점","category":"other"},{"name":"와이제이정밀","tel":"031-223-5214","addr":"경기도 화성시 정남면 발산리 697번지","indutype":"기타 - 기계공구","category":"other"}]},{"lat":"37.168470141","long":"126.98314458","imageIndex":17,"items":[{"name":"아이비(구제)","tel":"031-352-6032","addr":"경기도 화성시 정남면 발산리 405-2번지","indutype":"의류 - 정장","category":"other"}]},{"lat":"37.165749322","long":"126.98526195","imageIndex":17,"items":[{"name":"에투알(ETOILE)","tel":"070-5566-2234","addr":"경기도 화성시 정남면 발산리 245-2번지","indutype":"문화.취미 - 애완동물","category":"other"}]},{"lat":"37.160468827","long":"126.9829215","imageIndex":17,"items":[{"name":"영전산업(주)","tel":"031-353-8262","addr":"경기도 화성시 정남면 발산리 539-4번지","indutype":"전기제품 - 기타전기제품","category":"other"}]},{"lat":"37.167947918","long":"126.98558795","imageIndex":17,"items":[{"name":"오케이테크(OK TECH)","tel":"031-352-0105","addr":"경기도 화성시 정남면 발산리 183-2번지","indutype":"전기제품 - 기타전기제품","category":"other"}]},{"lat":"37.155693152","long":"126.98214601","imageIndex":17,"items":[{"name":"우리전기","tel":"031-354-7379","addr":"경기도 화성시 정남면 발산리 705. 101호","indutype":"전기제품 - 기타전기제품","category":"other"},{"name":"일심천막기업","tel":"031-354-6888","addr":"경기도 화성시 정남면 발산리 705번지 104호","indutype":"직물 - 카페트,커튼,천막,지물","category":"other"},{"name":"효성중전기","tel":"031-354-7164","addr":"경기도 화성시 정남면 발산리 705번지 1층 102호","indutype":"전기제품 - 기타전기제품","category":"other"}]},{"lat":"37.16957957","long":"126.99200543","imageIndex":17,"items":[{"name":"이레상사","tel":"031-352-4694","addr":"경기도 화성시 정남면 발산리 370-6번지 1층","indutype":"건축자재 - 기타건축자재","category":"other"}]},{"lat":"37.162802628","long":"126.98348381","imageIndex":17,"items":[{"name":"이불마트","tel":"031-352-6560","addr":"경기도 화성시 정남면 발산리 486-3번지","indutype":"직물 - 침구·수예점","category":"other"}]},{"lat":"37.161306725","long":"126.98248222","imageIndex":17,"items":[{"name":"정남열쇠,도장","tel":"031-354-3030","addr":"경기도 화성시 정남면 발산리 723-1번지 1층","indutype":"건축자재 - 목재·석재·철물","category":"other"}]},{"lat":"37.157170907","long":"126.98237075","imageIndex":17,"items":[{"name":"정남합판목재","tel":"031-354-0747","addr":"경기도 화성시 정남면 발산리 711-6번지","indutype":"건축자재 - 기타건축자재","category":"other"}]},{"lat":"37.155531001","long":"126.98235994","imageIndex":17,"items":[{"name":"제이제이 사무기기","tel":"031-354-1511","addr":"경기도 화성시 정남면 발산리 703번지 1동","indutype":"사무통신 - 사무용 OA기기","category":"other"}]},{"lat":"37.156946072","long":"126.98500507","imageIndex":17,"items":[{"name":"제일특수","tel":"031-353-6353","addr":"경기도 화성시 정남면 발산리 556번지","indutype":"용역 서비스 - 기타용역서비스","category":"other"}]},{"lat":"37.16780378","long":"126.98579065","imageIndex":17,"items":[{"name":"진덕ENG","tel":"031-353-3753","addr":"경기도 화성시 정남면 발산리 183번지","indutype":"기타 - 기계공구","category":"other"}]},{"lat":"37.156747994","long":"126.9860408","imageIndex":17,"items":[{"name":"진원테크","tel":"031-352-6215","addr":"경기도 화성시 정남면 발산리 571-3번지","indutype":"기타 - 기계공구","category":"other"}]},{"lat":"37.16538896","long":"126.98564483","imageIndex":17,"items":[{"name":"큐 빌리어드","tel":"02-1111-1111","addr":"경기도 화성시 정남면 발산리 244-6번지","indutype":"레져용품 - 스포츠·레져용품","category":"other"}]},{"lat":"37.161721368","long":"126.98345031","imageIndex":17,"items":[{"name":"크린가이드","tel":"031-854-6243","addr":"경기도 화성시 정남면 발산리 490-12번지 동남 상가 106호","indutype":"수리서비스 - 세탁소","category":"other"}]},{"lat":"37.156972725","long":"126.98265224","imageIndex":17,"items":[{"name":"형제클라크지게차","tel":"031-366-4548","addr":"경기도 화성시 정남면 발산리 709번지","indutype":"기타 - 기계공구","category":"other"}]}]