[{"lat":"37.807610447","long":"126.8898602","imageIndex":17,"items":[{"name":"Stage Big Bell","tel":"031-957-9337","addr":"경기도 파주시 광탄면 발랑리 357-1번지","indutype":"용역 서비스 - 종합용역","category":"other"}]},{"lat":"37.810670762","long":"126.8964193","imageIndex":17,"items":[{"name":"국제애견","tel":"031-595-1199","addr":"경기도 파주시 광탄면 발랑리 149-9번지","indutype":"문화.취미 - 애완동물","category":"other"}]},{"lat":"37.811423072","long":"126.90155119","imageIndex":17,"items":[{"name":"대광","tel":"031-941-7812","addr":"경기도 파주시 광탄면 발랑리 47-6번지","indutype":"건축자재 - 목재·석재·철물","category":"other"}]},{"lat":"37.806951943","long":"126.89875251","imageIndex":17,"items":[{"name":"모든기계상사","tel":"031-988-2523","addr":"경기도 파주시 광탄면 발랑리 39-2번지","indutype":"기타 - 기타 전문점","category":"other"}]},{"lat":"37.806139952","long":"126.8974705","imageIndex":17,"items":[{"name":"모토부스","tel":"031-111-1111","addr":"경기도 파주시 광탄면 발랑리 162-3번지","indutype":"레져용품 - 스포츠·레져용품","category":"other"}]},{"lat":"37.809254452","long":"126.90468835","imageIndex":17,"items":[{"name":"미니스톱파주발랑점","tel":"031-1577-9621","addr":"경기도 파주시 광탄면 발랑리 68-2번지","indutype":"유통업 영리 - 편 의 점","category":"other"}]},{"lat":"37.798113289","long":"126.89833346","imageIndex":17,"items":[{"name":"살롱드발롱","tel":"031-000-0000","addr":"경기도 파주시 광탄면 발랑리 228-1번지","indutype":"문화.취미 - 문화취미기타","category":"other"}]},{"lat":"37.813672965","long":"126.89872036","imageIndex":17,"items":[{"name":"세종봉투&프린팅","tel":"02-2265-6713","addr":"경기도 파주시 광탄면 발랑리 97-3","indutype":"서적문구 - 출판 및 인쇄물","category":"other"}]},{"lat":"37.813055627","long":"126.90371803","imageIndex":17,"items":[{"name":"제이제이컴퍼니","tel":"070-4128-7174","addr":"경기도 파주시 광탄면 발랑리 86번지","indutype":"광학제품 - 사진관","category":"other"}]},{"lat":"37.806277788","long":"126.89063439","imageIndex":17,"items":[{"name":"진스포츠","tel":"","addr":"경기도 파주시 광탄면 발랑리 367-2번지","indutype":"레져용품 - 골프용품 전문점","category":"other"}]},{"lat":"37.807141213","long":"126.88908874","imageIndex":17,"items":[{"name":"진원","tel":"031-944-5598","addr":"경기도 파주시 광탄면 발랑리 356-1번지","indutype":"용역 서비스 - 기타용역서비스","category":"other"}]},{"lat":"37.807421819","long":"126.90033026","imageIndex":17,"items":[{"name":"창조기획","tel":"031-941-5588","addr":"경기도 파주시 광탄면 발랑리 41-4번지","indutype":"서적문구 - 출판 및 인쇄물","category":"other"}]},{"lat":"37.812366015","long":"126.88838799","imageIndex":17,"items":[{"name":"컴닥터","tel":"070-8682-2263","addr":"경기도 파주시 광탄면 발랑리 410-1번지","indutype":"사무통신 - 컴퓨터","category":"other"}]},{"lat":"37.807584206","long":"126.90057986","imageIndex":17,"items":[{"name":"프레시독","tel":"031-946-1114","addr":"경기도 파주시 광탄면 발랑리 41번지","indutype":"문화.취미 - 애완동물","category":"other"}]},{"lat":"37.806502806","long":"126.90027476","imageIndex":17,"items":[{"name":"한국필라테스","tel":"031-946-4243","addr":"경기도 파주시 광탄면 발랑리 39-15번지","indutype":"레져용품 - 스포츠·레져용품","category":"other"}]}]