[{"lat":"37.098313737","long":"126.84102272","imageIndex":0,"items":[{"name":"(주)다원특장","tel":"031-358-9239","addr":"경기도 화성시 장안면 어은리 1-51번지","indutype":"자동차정비 유지 - 자동차부품","category":"car"}]},{"lat":"37.095529926","long":"126.83486452","imageIndex":0,"items":[{"name":"MIREU광택","tel":"031-351-1379","addr":"경기도 화성시 장안면 어은리 73-10번지","indutype":"자동차정비 유지 - 카인테리어","category":"car"}]},{"lat":"37.084509152","long":"126.82802831","imageIndex":0,"items":[{"name":"블랙 앤트(black ant)","tel":"031-351-6103","addr":"경기도 화성시 장안면 어은리 659번지","indutype":"자동차정비 유지 - 자동차부품","category":"car"}]},{"lat":"37.098253573","long":"126.83661332","imageIndex":0,"items":[{"name":"조암 프리미엄 셀프세차장","tel":"031-358-5355","addr":"경기도 화성시 장안면 어은리 34-5번지","indutype":"자동차정비 유지 - 세차장","category":"car"}]},{"lat":"37.08492224","long":"126.82708263","imageIndex":0,"items":[{"name":"조암세차장","tel":"031-351-1765","addr":"경기도 화성시 장안면 어은리 657-1번지","indutype":"자동차정비 유지 - 세차장","category":"car"}]},{"lat":"37.082758543","long":"126.82630037","imageIndex":0,"items":[{"name":"조암카서비스","tel":"031-351-0928","addr":"경기도 화성시 장안면 어은리 736-2번지","indutype":"자동차정비 유지 - 자동차부품","category":"car"}]},{"lat":"37.087475498","long":"126.82930368","imageIndex":0,"items":[{"name":"중앙카센타","tel":"031-351-8025","addr":"경기도 화성시 장안면 어은리 360-1번지","indutype":"자동차정비 유지 - 자동차시트·타이어","category":"car"}]},{"lat":"37.088058933","long":"126.82777272","imageIndex":0,"items":[{"name":"타이어월드 어은리","tel":"031-351-1888","addr":"경기도 화성시 장안면 어은리 363-19번지","indutype":"자동차정비 유지 - 자동차시트·타이어","category":"car"}]},{"lat":"37.088309119","long":"126.84555418","imageIndex":0,"items":[{"name":"피알엔디모터스","tel":"","addr":"경기도 화성시 장안면 어은리 529-19번지","indutype":"자동차정비 유지 - 카인테리어","category":"car"}]}]