[{"lat":"37.240912072","long":"127.07380395","imageIndex":13,"items":[{"name":"180도 스킨케어","tel":"031-202-0779","addr":"경기도 용인시 기흥구 서천동 729번지 상가동 101호","indutype":"보건위생 - 화장품","category":"beauty"}]},{"lat":"37.238017642","long":"127.07724972","imageIndex":13,"items":[{"name":"21번길6-5호 미장원","tel":"031-205-2165","addr":"경기도 용인시 기흥구 서천동 789-9번지 1층","indutype":"보건위생 - 미용원","category":"beauty"}]},{"lat":"37.241687275","long":"127.07327498","imageIndex":13,"items":[{"name":"네일공방","tel":"051-805-0052","addr":"경기도 용인시 기흥구 서천동 716-5번지 101호","indutype":"보건위생 - 피부미용실","category":"beauty"}]},{"lat":"37.240488587","long":"127.07380355","imageIndex":13,"items":[{"name":"네일따옴","tel":"","addr":"경기도 용인시 기흥구 서천동 730-1번지","indutype":"보건위생 - 피부미용실","category":"beauty"},{"name":"올가스킨","tel":"02-6340-5359","addr":"경기도 용인시 기흥구 서천동 730-1번지 102호","indutype":"보건위생 - 화장품","category":"beauty"}]},{"lat":"37.244299668","long":"127.07428049","imageIndex":13,"items":[{"name":"누벨르","tel":"031-202-1727","addr":"경기도 용인시 기흥구 서천동 834번지 용인서천효성해링턴플레이스 116((상가)동 1층 103호","indutype":"보건위생 - 미용원","category":"beauty"},{"name":"청명","tel":"031-275-9994","addr":"경기도 용인시 기흥구 서천동 834번지 효성해링턴플레이스 106동 2102호","indutype":"보건위생 - 기타대인서비스","category":"beauty"}]},{"lat":"37.237047298","long":"127.07269593","imageIndex":13,"items":[{"name":"더인코어유통","tel":"","addr":"경기도 용인시 기흥구 서천동 813번지 원희캐슬서천프라자 1층 103호","indutype":"보건위생 - 화장품","category":"beauty"},{"name":"머리에 반하다","tel":"031-202-0815","addr":"경기도 용인시 기흥구 서천동 813번지 원희캐슬 106호","indutype":"보건위생 - 미용원","category":"beauty"},{"name":"엘지(LG)럭셔리뷰티 서천점","tel":"031-204-5279","addr":"경기도 용인시 기흥구 서천동 813번지 원희캐슬 4층 402호","indutype":"보건위생 - 화장품","category":"beauty"},{"name":"헤어마루","tel":"031-204-4858","addr":"경기도 용인시 기흥구 서천동 813번지 원희캐슬 203호","indutype":"보건위생 - 미용원","category":"beauty"}]},{"lat":"37.243493026","long":"127.06677366","imageIndex":13,"items":[{"name":"마벨헤어","tel":"031-202-2181","addr":"경기도 용인시 기흥구 서천동 370번지 1층 102호","indutype":"보건위생 - 미용원","category":"beauty"}]},{"lat":"37.238174489","long":"127.07115304","imageIndex":13,"items":[{"name":"머리한올","tel":"031-206-2272","addr":"경기도 용인시 기흥구 서천동 743번지 서천마을2단지 상가동 104호","indutype":"보건위생 - 미용원","category":"beauty"}]},{"lat":"37.240515719","long":"127.07363453","imageIndex":13,"items":[{"name":"무이헤어살롱(Mooi hair salon)","tel":"","addr":"경기도 용인시 기흥구 서천동 730번지 1층 101호","indutype":"보건위생 - 미용원","category":"beauty"}]},{"lat":"37.245239136","long":"127.07019014","imageIndex":13,"items":[{"name":"문헤어","tel":"031-204-9323","addr":"경기도 용인시 기흥구 서천동 828번지 영통로효성해링턴플레이스 108호","indutype":"보건위생 - 미용원","category":"beauty"}]},{"lat":"37.237739592","long":"127.0751984","imageIndex":13,"items":[{"name":"벨로(BELLO)","tel":"","addr":"경기도 용인시 기흥구 서천동 801번지 힐스테이트서천 상가동 104일부호","indutype":"보건위생 - 미용원","category":"beauty"}]},{"lat":"37.23626983","long":"127.07694373","imageIndex":13,"items":[{"name":"블룸바이영","tel":"031-713-7050","addr":"경기도 용인시 기흥구 서천동 780-2번지 102호","indutype":"보건위생 - 화장품","category":"beauty"}]},{"lat":"37.24060597","long":"127.07338668","imageIndex":13,"items":[{"name":"쁘띠헤어","tel":"031-205-8952","addr":"경기도 용인시 기흥구 서천동 722-4번지","indutype":"보건위생 - 미용원","category":"beauty"}]},{"lat":"37.23682847","long":"127.07694428","imageIndex":13,"items":[{"name":"살롱드비안","tel":"031-205-0222","addr":"경기도 용인시 기흥구 서천동 782-6번지 1층","indutype":"보건위생 - 미용원","category":"beauty"}]},{"lat":"37.241218524","long":"127.07363519","imageIndex":13,"items":[{"name":"서네일","tel":"070-4254-0160","addr":"경기도 용인시 기흥구 서천동 718-4번지 101호","indutype":"보건위생 - 피부미용실","category":"beauty"},{"name":"헤어플랜","tel":"031-206-8834","addr":"경기도 용인시 기흥구 서천동 718-4번지 1층 102호","indutype":"보건위생 - 미용원","category":"beauty"}]},{"lat":"37.236575585","long":"127.07789066","imageIndex":13,"items":[{"name":"손톱에반하다","tel":"","addr":"경기도 용인시 기흥구 서천동 776-2번지 402호","indutype":"보건위생 - 화장품","category":"beauty"}]},{"lat":"37.240769921","long":"127.07035521","imageIndex":13,"items":[{"name":"시저스닥터","tel":"031-254-3048","addr":"경기도 용인시 기흥구 서천동 397-19번지","indutype":"보건위생 - 미용재료","category":"beauty"}]},{"lat":"37.242852698","long":"127.06786634","imageIndex":13,"items":[{"name":"시저스닥터헤어살롱","tel":"031-254-3048","addr":"경기도 용인시 기흥구 서천동 379-3번지 102호","indutype":"보건위생 - 미용원","category":"beauty"}]},{"lat":"37.236911399","long":"127.07394671","imageIndex":13,"items":[{"name":"아이라운지 서천점","tel":"031-206-0405","addr":"경기도 용인시 기흥구 서천동 807번지 1층","indutype":"보건위생 - 안경","category":"beauty"}]},{"lat":"37.237738548","long":"127.07688882","imageIndex":13,"items":[{"name":"엘디에스메디칼","tel":"031-205-0013","addr":"경기도 용인시 기흥구 서천동 791-6번지","indutype":"보건위생 - 의료용품","category":"beauty"}]},{"lat":"37.236714095","long":"127.07239135","imageIndex":13,"items":[{"name":"웰컴에스테틱","tel":"031-203-0222","addr":"경기도 용인시 기흥구 서천동 814번지 401호","indutype":"보건위생 - 피부미용실","category":"beauty"}]},{"lat":"37.239624397","long":"127.07245037","imageIndex":13,"items":[{"name":"쩡헤어#","tel":"031-205-3339","addr":"경기도 용인시 기흥구 서천동 736번지 서천마을1단지 상가동 1층 105호","indutype":"보건위생 - 미용원","category":"beauty"}]},{"lat":"37.235604583","long":"127.07447513","imageIndex":13,"items":[{"name":"카라헤어","tel":"031-203-7706","addr":"경기도 용인시 기흥구 서천동 823번지 서천마을4단지 상가 104호","indutype":"보건위생 - 미용원","category":"beauty"}]},{"lat":"37.242068552","long":"127.06831647","imageIndex":13,"items":[{"name":"태양네일일산","tel":"","addr":"경기도 용인시 기흥구 서천동 705번지 예현마을현대홈타운","indutype":"보건위생 - 미용재료","category":"beauty"}]},{"lat":"37.240633101","long":"127.07321765","imageIndex":13,"items":[{"name":"토브(TOV)네일","tel":"070-4212-4141","addr":"경기도 용인시 기흥구 서천동 722-3번지 104호","indutype":"보건위생 - 피부미용실","category":"beauty"}]},{"lat":"37.240883243","long":"127.07674539","imageIndex":13,"items":[{"name":"파크헤어","tel":"031-204-4421","addr":"경기도 용인시 기흥구 서천동 755번지 서천2차아이파크 상가 105호","indutype":"보건위생 - 미용원","category":"beauty"}]},{"lat":"37.241272814","long":"127.07325206","imageIndex":13,"items":[{"name":"편백숲힐링하우스","tel":"070-8273-4744","addr":"경기도 용인시 기흥구 서천동 718-6번지 101호","indutype":"보건위생 - 화장품","category":"beauty"}]},{"lat":"37.245129789","long":"127.07230891","imageIndex":13,"items":[{"name":"헤어지지마","tel":"070-7642-4691","addr":"경기도 용인시 기흥구 서천동 294-17번지","indutype":"보건위생 - 미용원","category":"beauty"}]},{"lat":"37.240524228","long":"127.07446851","imageIndex":13,"items":[{"name":"헤어톡","tel":"031-203-6655","addr":"경기도 용인시 기흥구 서천동 729-6번지","indutype":"보건위생 - 미용원","category":"beauty"}]},{"lat":"37.236323701","long":"127.07724806","imageIndex":13,"items":[{"name":"호기(Hoki)헤어살롱","tel":"031-205-9867","addr":"경기도 용인시 기흥구 서천동 778-7번지 1층 우측","indutype":"보건위생 - 미용원","category":"beauty"}]}]