[{"lat":"37.724101174","long":"126.72245456","imageIndex":0,"items":[{"name":"1만원대파주시출장세차","tel":"","addr":"경기도 파주시 동패동 1702번지 진흥효자아파트","indutype":"자동차정비 유지 - 세차장","category":"car"}]},{"lat":"37.706369428","long":"126.72974499","imageIndex":0,"items":[{"name":"911서비스(911 Service)","tel":"031-941-0918","addr":"경기도 파주시 동패동 1341번지","indutype":"자동차정비 유지 - 자동차부품","category":"car"}]},{"lat":"37.702983053","long":"126.71882611","imageIndex":0,"items":[{"name":"EVO1모터스","tel":"031-1899-1673","addr":"경기도 파주시 동패동 587-15번지","indutype":"자동차정비 유지 - 자동차부품","category":"car"}]},{"lat":"37.715204032","long":"126.73996518","imageIndex":0,"items":[{"name":"교하점기아오토큐","tel":"031-946-3151","addr":"경기도 파주시 동패동 1828번지","indutype":"자동차정비 유지 - 자동차정비","category":"car"}]},{"lat":"37.709127181","long":"126.73402157","imageIndex":0,"items":[{"name":"그린세차장","tel":"02-1577-0000","addr":"경기도 파주시 동패동 2003번지","indutype":"자동차정비 유지 - 세차장","category":"car"}]},{"lat":"37.706602193","long":"126.73697911","imageIndex":0,"items":[{"name":"그린유화","tel":"031-499-5185","addr":"경기도 파주시 동패동 143-2번지","indutype":"자동차정비 유지 - 윤활유 전문 판매","category":"car"}]},{"lat":"37.706317237","long":"126.7466305","imageIndex":0,"items":[{"name":"금호타이어운정신도시점","tel":"031-943-7887","addr":"경기도 파주시 동패동 22-4번지","indutype":"자동차정비 유지 - 자동차시트·타이어","category":"car"}]},{"lat":"37.706265737","long":"126.73166184","imageIndex":0,"items":[{"name":"기아오토큐운정점","tel":"031-941-1515","addr":"경기도 파주시 동패동 287-4번지","indutype":"자동차정비 유지 - 자동차부품","category":"car"}]},{"lat":"37.713092866","long":"126.73865708","imageIndex":0,"items":[{"name":"네오플로텍스(NEOPLOTEX)","tel":"","addr":"경기도 파주시 동패동 200-1번지 교하벽산아파트","indutype":"자동차정비 유지 - 자동차부품","category":"car"}]},{"lat":"37.719679681","long":"126.71588148","imageIndex":0,"items":[{"name":"노블","tel":"070-7543-2823","addr":"경기도 파주시 동패동 1738-4번지","indutype":"자동차정비 유지 - 카인테리어","category":"car"}]},{"lat":"37.704425437","long":"126.72676977","imageIndex":0,"items":[{"name":"대우자동차공업사","tel":"031-947-8055","addr":"경기도 파주시 동패동 325-3번지","indutype":"자동차정비 유지 - 자동차정비","category":"car"}]},{"lat":"37.70504011","long":"126.72002028","imageIndex":0,"items":[{"name":"대중사","tel":"031-949-4505","addr":"경기도 파주시 동패동 580-9번지","indutype":"자동차정비 유지 - 자동차정비","category":"car"}]},{"lat":"37.724813325","long":"126.71885619","imageIndex":0,"items":[{"name":"더조은상사","tel":"031-949-0259","addr":"경기도 파주시 동패동 1701번지","indutype":"자동차정비 유지 - 주차장","category":"car"},{"name":"두손비채 관리단","tel":"031-948-9952","addr":"경기도 파주시 동패동 1701번지","indutype":"자동차정비 유지 - 주차장","category":"car"},{"name":"양정E&C","tel":"031-948-9952","addr":"경기도 파주시 동패동 1701번지","indutype":"자동차정비 유지 - 주차장","category":"car"}]},{"lat":"37.70612533","long":"126.729383","imageIndex":0,"items":[{"name":"더프라임","tel":"","addr":"경기도 파주시 동패동 1342번지","indutype":"자동차정비 유지 - 세차장","category":"car"}]},{"lat":"37.70909197","long":"126.73438459","imageIndex":0,"items":[{"name":"동패점 현대자동차","tel":"031-947-7884","addr":"경기도 파주시 동패동 1981-5번지","indutype":"자동차정비 유지 - 자동차정비","category":"car"}]},{"lat":"37.705065998","long":"126.73895773","imageIndex":0,"items":[{"name":"모션(MOTION)","tel":"031-000-0000","addr":"경기도 파주시 동패동 140-7번지","indutype":"자동차정비 유지 - 자동차부품","category":"car"},{"name":"케이앤케이드레이드(K&K TRADE)","tel":"070-4325-1393","addr":"경기도 파주시 동패동 140-7번지","indutype":"자동차정비 유지 - 자동차부품","category":"car"}]},{"lat":"37.704344077","long":"126.74660328","imageIndex":0,"items":[{"name":"미래로카센타","tel":"031-947-5154","addr":"경기도 파주시 동패동 20-1번지","indutype":"자동차정비 유지 - 자동차정비","category":"car"}]},{"lat":"37.709153673","long":"126.73776383","imageIndex":0,"items":[{"name":"바로자동차공업사","tel":"031-948-8000","addr":"경기도 파주시 동패동 1933-3번지","indutype":"자동차정비 유지 - 자동차정비","category":"car"}]},{"lat":"37.705569688","long":"126.74263008","imageIndex":0,"items":[{"name":"비엔느디젤서비스","tel":"031-922-9335","addr":"경기도 파주시 동패동 118번지 나동","indutype":"자동차정비 유지 - 자동차정비","category":"car"}]},{"lat":"37.709819331","long":"126.73729649","imageIndex":0,"items":[{"name":"세덴자동차외형복원 파주운정점","tel":"031-942-7294","addr":"경기도 파주시 동패동 1927번지 1층 상가","indutype":"자동차정비 유지 - 자동차정비","category":"car"}]},{"lat":"37.709650394","long":"126.73829506","imageIndex":0,"items":[{"name":"수 손세차장","tel":"","addr":"경기도 파주시 동패동 1919번지","indutype":"자동차정비 유지 - 세차장","category":"car"}]},{"lat":"37.710982391","long":"126.74579791","imageIndex":0,"items":[{"name":"씨티타워관리단","tel":"031-942-1136","addr":"경기도 파주시 동패동 1759-6번지","indutype":"자동차정비 유지 - 주차장","category":"car"}]},{"lat":"37.705707825","long":"126.73195871","imageIndex":0,"items":[{"name":"에스디바이크","tel":"031-946-8426","addr":"경기도 파주시 동패동 301-2번지","indutype":"자동차판매 - 이륜차판매","category":"car"}]},{"lat":"37.706792863","long":"126.73365577","imageIndex":0,"items":[{"name":"에스플러스(주)","tel":"031-901-8877","addr":"경기도 파주시 동패동 291번지","indutype":"자동차정비 유지 - 주차장","category":"car"},{"name":"에스플러스(주)","tel":"031-901-8877","addr":"경기도 파주시 동패동 291번지","indutype":"자동차정비 유지 - 주차장","category":"car"}]},{"lat":"37.711649145","long":"126.74581828","imageIndex":0,"items":[{"name":"운정빌딩","tel":"031-957-0476","addr":"경기도 파주시 동패동 1759-4번지","indutype":"자동차정비 유지 - 주차장","category":"car"}]},{"lat":"37.714349272","long":"126.73646375","imageIndex":0,"items":[{"name":"운정셀프세차장","tel":"031-000-0000","addr":"경기도 파주시 동패동 1845번지","indutype":"자동차정비 유지 - 세차장","category":"car"}]},{"lat":"37.703763529","long":"126.72118178","imageIndex":0,"items":[{"name":"제일자동차공업사","tel":"031-942-7544","addr":"경기도 파주시 동패동 594-1번지","indutype":"자동차정비 유지 - 자동차정비","category":"car"}]},{"lat":"37.711315743","long":"126.74579675","imageIndex":0,"items":[{"name":"주식회사 다옴산업","tel":"070-4215-4961","addr":"경기도 파주시 동패동 1759-5번지","indutype":"자동차정비 유지 - 주차장","category":"car"}]},{"lat":"37.704764126","long":"126.72140479","imageIndex":0,"items":[{"name":"주식회사엘제이모터스(오토오아시스정비공","tel":"031-935-5000","addr":"경기도 파주시 동패동 579-17번지","indutype":"자동차정비 유지 - 자동차정비","category":"car"}]},{"lat":"37.713929402","long":"126.73805302","imageIndex":0,"items":[{"name":"출장세차","tel":"","addr":"경기도 파주시 동패동 200-1번지 교하벽산아파트","indutype":"자동차정비 유지 - 세차장","category":"car"}]},{"lat":"37.705203683","long":"126.73213064","imageIndex":0,"items":[{"name":"카보드 파주","tel":"031-947-0687","addr":"경기도 파주시 동패동 299-11번지","indutype":"자동차정비 유지 - 자동차부품","category":"car"}]},{"lat":"37.704371061","long":"126.72663389","imageIndex":0,"items":[{"name":"카젠교하점","tel":"031-947-5931","addr":"경기도 파주시 동패동 324-2","indutype":"자동차정비 유지 - 자동차정비","category":"car"}]},{"lat":"37.71164751","long":"126.74506979","imageIndex":0,"items":[{"name":"클라우드스트리트 (Cloud Street)","tel":"031-903-6641","addr":"경기도 파주시 동패동 1761번지","indutype":"자동차정비 유지 - 주차장","category":"car"}]},{"lat":"37.710325612","long":"126.74211446","imageIndex":0,"items":[{"name":"클린마스터","tel":"","addr":"경기도 파주시 동패동 1753번지 휴먼시아한울마을","indutype":"자동차정비 유지 - 세차장","category":"car"}]},{"lat":"37.71973","long":"126.7143501","imageIndex":0,"items":[{"name":"태영모터스","tel":"031-943-3222","addr":"경기도 파주시 동패동 1740-10번지","indutype":"자동차정비 유지 - 자동차정비","category":"car"}]},{"lat":"37.708607221","long":"126.73916064","imageIndex":0,"items":[{"name":"프라임 스팀세차","tel":"031-4081-6520","addr":"경기도 파주시 동패동 1768번지 휴먼시아한울마을","indutype":"자동차정비 유지 - 세차장","category":"car"}]},{"lat":"37.703705533","long":"126.7471271","imageIndex":0,"items":[{"name":"플레이 카방 (Play car bang)","tel":"031-945-3113","addr":"경기도 파주시 동패동 19번지","indutype":"자동차정비 유지 - 세차장","category":"car"}]},{"lat":"37.703066075","long":"126.7196309","imageIndex":0,"items":[{"name":"하나모터스","tel":"031-948-6963","addr":"경기도 파주시 동패동 591-5번지","indutype":"자동차정비 유지 - 자동차정비","category":"car"}]},{"lat":"37.714012864","long":"126.7196913","imageIndex":0,"items":[{"name":"한국프로시스템파주교하점","tel":"031-946-9759","addr":"경기도 파주시 동패동 487-46","indutype":"자동차정비 유지 - 자동차정비","category":"car"}]}]