[{"lat":"37.743352778","long":"127.19963932","imageIndex":7,"items":[{"name":"강산떡방앗간","tel":"031-527-7291","addr":"경기도 남양주시 진접읍 부평리 528-17번지","indutype":"음료식품 - 제과점","category":"food"}]},{"lat":"37.729799013","long":"127.19624574","imageIndex":7,"items":[{"name":"개나리식품(카페 토르)","tel":"031-572-8888","addr":"경기도 남양주시 진접읍 부평리 745-2번지","indutype":"음료식품 - 기타음료식품","category":"food"}]},{"lat":"37.743991295","long":"127.2003331","imageIndex":7,"items":[{"name":"광천정육점","tel":"031-527-7002","addr":"경기도 남양주시 진접읍 부평리 525-8번지","indutype":"음료식품 - 정육점","category":"food"}]},{"lat":"37.742624764","long":"127.19858225","imageIndex":7,"items":[{"name":"대흥양행","tel":"031-575-4620","addr":"경기도 남양주시 진접읍 부평리 615-1번지 대흥양행","indutype":"건강식품 - 기타건강식품","category":"food"}]},{"lat":"37.746650451","long":"127.1884153","imageIndex":7,"items":[{"name":"만물건강식품","tel":"031-527-8375","addr":"경기도 남양주시 진접읍 부평리 258-12","indutype":"회원제형태 - 건강식품","category":"food"}]},{"lat":"37.740463704","long":"127.19783912","imageIndex":7,"items":[{"name":"메레인","tel":"031-527-8977","addr":"경기도 남양주시 진접읍 부평리 751-5번지 1층 102호, 103호","indutype":"음료식품 - 기타음료식품","category":"food"}]},{"lat":"37.740461917","long":"127.19891692","imageIndex":7,"items":[{"name":"베이크하임","tel":"031-528-9290","addr":"경기도 남양주시 진접읍 부평리 751-9번지 1층 103호","indutype":"음료식품 - 제과점","category":"food"},{"name":"우리네축산 광릉점","tel":"031-573-9006","addr":"경기도 남양주시 진접읍 부평리 751-9번지 1층","indutype":"음료식품 - 정육점","category":"food"}]},{"lat":"37.760239056","long":"127.19267079","imageIndex":7,"items":[{"name":"설악양봉원","tel":"02-2297-5424","addr":"경기도 남양주시 진접읍 부평리 117-2번지","indutype":"건강식품 - 기타건강식품","category":"food"}]},{"lat":"37.750292104","long":"127.19294041","imageIndex":7,"items":[{"name":"숲266","tel":"031-529-2660","addr":"경기도 남양주시 진접읍 부평리 266-28번지","indutype":"음료식품 - 기타음료식품","category":"food"}]},{"lat":"37.739891913","long":"127.20035625","imageIndex":7,"items":[{"name":"엠엔비","tel":"031-532-8487","addr":"경기도 남양주시 진접읍 부평리 764번지 진접센트레빌시티1단지 103동 804호","indutype":"음료식품 - 농·축·수산품","category":"food"}]},{"lat":"37.741040463","long":"127.19774987","imageIndex":7,"items":[{"name":"유정쌀공방","tel":"031-529-8821","addr":"경기도 남양주시 진접읍 부평리 751-1번지 1층 일부","indutype":"음료식품 - 기타음료식품","category":"food"}]},{"lat":"37.742533688","long":"127.19917198","imageIndex":7,"items":[{"name":"으뜸식품","tel":"031-527-3839","addr":"경기도 남양주시 진접읍 부평리 601-14번지 창성빌라 B동 101호","indutype":"음료식품 - 기타음료식품","category":"food"}]},{"lat":"37.747623433","long":"127.19955985","imageIndex":7,"items":[{"name":"주식회사 윈즈원","tel":"031-000-0000","addr":"경기도 남양주시 진접읍 부평리 497-2번지","indutype":"음료식품 - 기타음료식품","category":"food"}]},{"lat":"37.741742247","long":"127.19833033","imageIndex":7,"items":[{"name":"파리바게뜨진접센트레빌점","tel":"031-528-8170","addr":"경기도 남양주시 진접읍 부평리 612-2번지 동호빌딩 1층","indutype":"음료식품 - 제과점","category":"food"}]},{"lat":"37.739128641","long":"127.19883398","imageIndex":7,"items":[{"name":"퍼담아","tel":"031-111-1111","addr":"경기도 남양주시 진접읍 부평리 764번지 진접센트레빌시티1단지 상가동 129호","indutype":"음료식품 - 기타음료식품","category":"food"}]},{"lat":"37.742211286","long":"127.19800254","imageIndex":7,"items":[{"name":"푸드박스","tel":"031-551-7710","addr":"경기도 남양주시 진접읍 부평리 613-2번지","indutype":"음료식품 - 기타음료식품","category":"food"}]}]