[{"lat":"37.308954522","long":"126.85177344","imageIndex":16,"items":[{"name":"(주)안산직업전문학교","tel":"031-401-3399","addr":"경기도 안산시 상록구 이동 715번지 엔타운빌딩 501~506호","indutype":"회원제형태 - 학원","category":"study"}]},{"lat":"37.307594357","long":"126.85206944","imageIndex":16,"items":[{"name":"(주)온라인학교","tel":"031-415-3066","addr":"경기도 안산시 상록구 이동 716-3번지 숭실프라자 402호","indutype":"회원제형태 - 학원","category":"study"},{"name":"안산상록검도관","tel":"031-415-3636","addr":"경기도 안산시 상록구 이동 716-3번지 숭실프라자","indutype":"학원 - 예·체능계학원","category":"study"},{"name":"청운독서실","tel":"031-407-2407","addr":"경기도 안산시 상록구 이동 716-3번지 숭실프라자 501동 503호","indutype":"학원 - 독서실","category":"study"},{"name":"한우리상록도서논술학원","tel":"031-408-1939","addr":"경기도 안산시 상록구 이동 716-3번지 숭실프라자 401","indutype":"학원 - 기타 교육기관","category":"study"}]},{"lat":"37.307538839","long":"126.85093028","imageIndex":16,"items":[{"name":"(주)이지스교육","tel":"031-502-2214","addr":"경기도 안산시 상록구 이동 716-8번지 코로스프라자 6층","indutype":"회원제형태 - 학원","category":"study"},{"name":"다리꿈평생교육원","tel":"031-416-7179","addr":"경기도 안산시 상록구 이동 716-8번지 코로스프라자 4층 406호","indutype":"회원제형태 - 학원","category":"study"},{"name":"에듀윌공인중개사학원/(주)에듀윌 안산학원","tel":"031-505-0200","addr":"경기도 안산시 상록구 이동 716-8번지 코로스프라자 604동 606호","indutype":"학원 - 기능학원","category":"study"},{"name":"엠베스트에스이한대앞학원","tel":"031-408-1992","addr":"경기도 안산시 상록구 이동 716-8번지 코로스프라자 4003호","indutype":"학원 - 보습학원","category":"study"},{"name":"포시즌타일기술아카데미학원","tel":"031-439-7750","addr":"경기도 안산시 상록구 이동 716-8번지 코로스프라자 302호","indutype":"학원 - 기능학원","category":"study"},{"name":"폴리어학원","tel":"031-416-0511","addr":"경기도 안산시 상록구 이동 716-8번지 코로스프라자 501,502,503,504","indutype":"학원 - 외국어학원","category":"study"}]},{"lat":"37.308367791","long":"126.8509399","imageIndex":16,"items":[{"name":"(주)중앙아이티직업전문학교","tel":"031-502-2631","addr":"경기도 안산시 상록구 이동 715-3번지 강우프라자 5층","indutype":"회원제형태 - 학원","category":"study"},{"name":"나라연기학원","tel":"031-411-9914","addr":"경기도 안산시 상록구 이동 715-3 강우빌딩605호~606호","indutype":"회원제형태 - 학원","category":"study"},{"name":"사단법인 한국환경안전원","tel":"02-571-6155","addr":"경기도 안산시 상록구 이동 715-3번지 강우프라자 601호","indutype":"학원 - 기타 교육기관","category":"study"}]},{"lat":"37.311923398","long":"126.84829309","imageIndex":16,"items":[{"name":"J English","tel":"","addr":"경기도 안산시 상록구 이동 655-9번지 202호","indutype":"학원 - 기타 교육기관","category":"study"}]},{"lat":"37.305978387","long":"126.84962498","imageIndex":16,"items":[{"name":"경희대성안태권도","tel":"031-502-0304","addr":"경기도 안산시 상록구 이동 718-5번지 금강프라자 4층","indutype":"학원 - 예·체능계학원","category":"study"},{"name":"늘푸른소망태권도장","tel":"031-502-0304","addr":"경기도 안산시 상록구 이동 718-5번지 금강프라자 4층 404,405호","indutype":"학원 - 예·체능계학원","category":"study"},{"name":"크리아트이동교육학원","tel":"031-501-0322","addr":"경기도 안산시 상록구 이동 718-5번지 금강프라자 403호","indutype":"학원 - 예·체능계학원","category":"study"}]},{"lat":"37.306316187","long":"126.86037387","imageIndex":16,"items":[{"name":"고운손피아노교습소","tel":"031-406-1330","addr":"경기도 안산시 상록구 이동 602-8번지 상가 1층 101호","indutype":"학원 - 예·체능계학원","category":"study"}]},{"lat":"37.308008366","long":"126.85170766","imageIndex":16,"items":[{"name":"광폴","tel":"031-415-8213","addr":"경기도 안산시 상록구 이동 716-10번지 한빛프라자 2층 205호","indutype":"학원 - 예·체능계학원","category":"study"},{"name":"마린실용음악학원","tel":"031-438-9138","addr":"경기도 안산시 상록구 이동 716-10번지","indutype":"학원 - 예·체능계학원","category":"study"},{"name":"스마트러닝센터안산학원","tel":"031-415-5850","addr":"경기도 안산시 상록구 이동 716-10번지 한빛프라자 605,606","indutype":"학원 - 보습학원","category":"study"},{"name":"안산에스엘피영어학원주식회사","tel":"031-438-0505","addr":"경기도 안산시 상록구 이동 716-10번지 한빛프라자 3층","indutype":"회원제형태 - 학원","category":"study"},{"name":"팝콘미술학원","tel":"031-409-3109","addr":"경기도 안산시 상록구 이동 716-10번지 한빛프라자 208호","indutype":"학원 - 예·체능계학원","category":"study"},{"name":"페르마수학전문학원","tel":"031-501-9501","addr":"경기도 안산시 상록구 이동 716-10번지 한빛프라자 401~404호","indutype":"회원제형태 - 학원","category":"study"}]},{"lat":"37.306976287","long":"126.84790842","imageIndex":16,"items":[{"name":"구장명품수학전문학원","tel":"031-408-9921","addr":"경기도 안산시 상록구 이동 712-2번지 제스트프라자 6층 603호","indutype":"학원 - 기타 교육기관","category":"study"},{"name":"앤더슨스템과학센터학원","tel":"","addr":"경기도 안산시 상록구 이동 712-2번지 제스트3 504호","indutype":"학원 - 보습학원","category":"study"},{"name":"에뚜왈발레아카데미학원","tel":"031-501-4451","addr":"경기도 안산시 상록구 이동 712-2번지 제스트3 202호","indutype":"학원 - 예·체능계학원","category":"study"}]},{"lat":"37.3069762865","long":"126.8479084246","imageIndex":16,"items":[{"name":"구장명품수학전문학원","tel":"031-408-9921","addr":"경기도 안산시 상록구 이동 712-2번지","indutype":"교육서비스업 - 수학학원","category":"study"}]},{"lat":"37.309177488","long":"126.84999073","imageIndex":16,"items":[{"name":"그림과사람들미술교습소","tel":"","addr":"경기도 안산시 상록구 이동 710-14번지 201호","indutype":"학원 - 예·체능계학원","category":"study"},{"name":"주식회사 이웨이교육","tel":"031-502-7577","addr":"경기도 안산시 상록구 이동 710-14번지 201호","indutype":"학원 - 기타 교육기관","category":"study"}]},{"lat":"37.304976361","long":"126.86263231","imageIndex":16,"items":[{"name":"꿈소담어린이집[아이행복]","tel":"031-437-8620","addr":"경기도 안산시 상록구 이동 569-3번지","indutype":"학원 - 유아원","category":"study"}]},{"lat":"37.30667207","long":"126.84954462","imageIndex":16,"items":[{"name":"달빛이머무는독서실","tel":"031-520-1020","addr":"경기도 안산시 상록구 이동 717-4번지 네스트빌 204호","indutype":"학원 - 독서실","category":"study"},{"name":"아벨국영수학원","tel":"031-406-0240","addr":"경기도 안산시 상록구 이동 717-4번지 네스트빌 2층 201호","indutype":"학원 - 보습학원","category":"study"},{"name":"케이매쓰학원","tel":"031-409-0953","addr":"경기도 안산시 상록구 이동 717-4번지 네스트빌 201호","indutype":"학원 - 보습학원","category":"study"}]},{"lat":"37.307809453","long":"126.84429713","imageIndex":16,"items":[{"name":"도담어린이집[아이행복]","tel":"031-417-1003","addr":"경기도 안산시 상록구 이동 685-10번지","indutype":"학원 - 유아원","category":"study"}]},{"lat":"37.308728864","long":"126.85145805","imageIndex":16,"items":[{"name":"동산원룸하우스","tel":"031-408-2828","addr":"경기도 안산시 상록구 이동 715-1번지 3층 301호 302","indutype":"학원 - 독서실","category":"study"}]},{"lat":"37.307006133","long":"126.85007409","imageIndex":16,"items":[{"name":"러시아교육센터어학원","tel":"031-406-6101","addr":"경기도 안산시 상록구 이동 717-2번지 한양프라자 404동 405호","indutype":"학원 - 보습학원","category":"study"}]},{"lat":"37.309395633","long":"126.851468","imageIndex":16,"items":[{"name":"러시아아카데미안산어학원","tel":"031-501-3800","addr":"경기도 안산시 상록구 이동 715-11번지 보은타운 301호","indutype":"학원 - 외국어학원","category":"study"},{"name":"베스트간호학원","tel":"031-408-8870","addr":"경기도 안산시 상록구 이동 715-11번지 보은타운 302호","indutype":"회원제형태 - 학원","category":"study"},{"name":"빌도르프교육예술학원","tel":"070-4207-1616","addr":"경기도 안산시 상록구 이동 715-11번지 보은타운 401호","indutype":"학원 - 예·체능계학원","category":"study"},{"name":"주식회사 핑크엠콘서바토리 (안산캠퍼스)","tel":"031-437-1231","addr":"경기도 안산시 상록구 이동 715-11번지 5층","indutype":"학원 - 예·체능계학원","category":"study"}]},{"lat":"37.308197939","long":"126.85198928","imageIndex":16,"items":[{"name":"럭셔리리빙텔고시원","tel":"031-407-0811","addr":"경기도 안산시 상록구 이동 716-11번지 덕성프라자 602호","indutype":"학원 - 독서실","category":"study"}]},{"lat":"37.306122886","long":"126.84988412","imageIndex":16,"items":[{"name":"루루태권스쿨","tel":"031-502-6167","addr":"경기도 안산시 상록구 이동 718-4번지 5층 501호","indutype":"학원 - 예·체능계학원","category":"study"}]},{"lat":"37.308010336","long":"126.84629327","imageIndex":16,"items":[{"name":"리베어린이집","tel":"031-502-5279","addr":"경기도 안산시 상록구 이동 683-1번지","indutype":"학원 - 유치원","category":"study"},{"name":"리베어린이집[아이행복]","tel":"031-502-5279","addr":"경기도 안산시 상록구 이동 683-1번지","indutype":"학원 - 유아원","category":"study"}]},{"lat":"37.3080083655","long":"126.8517076577","imageIndex":16,"items":[{"name":"마린실용음악학원","tel":"031-438-9138","addr":"경기도 안산시 상록구 이동 716-10번지","indutype":"교육서비스업 - 음악학원","category":"study"},{"name":"팝콘미술학원","tel":"031-439-3109","addr":"경기도 안산시 상록구 이동 716-10번지","indutype":"교육서비스업 - 미술학원","category":"study"}]},{"lat":"37.304534098","long":"126.8619902","imageIndex":16,"items":[{"name":"매화영재학원","tel":"031-505-6500","addr":"경기도 안산시 상록구 이동 573-9번지 1층","indutype":"학원 - 보습학원","category":"study"}]},{"lat":"37.305841301","long":"126.86259686","imageIndex":16,"items":[{"name":"매화초등학교","tel":"031-400-1508","addr":"경기도 안산시 상록구 이동 608번지 매화초등학교","indutype":"학원 - 초중고교육기관","category":"study"}]},{"lat":"37.306400797","long":"126.8488007","imageIndex":16,"items":[{"name":"모젠하우스","tel":"031-438-3800","addr":"경기도 안산시 상록구 이동 720번지 신도프라자 5층 501-506호","indutype":"학원 - 독서실","category":"study"},{"name":"예스(yes)학원","tel":"031-418-3207","addr":"경기도 안산시 상록구 이동 720번지 신도프라자 305호","indutype":"학원 - 예·체능계학원","category":"study"}]},{"lat":"37.3098972661","long":"126.8491883787","imageIndex":16,"items":[{"name":"미술Q미술학원","tel":"031-406-9216","addr":"경기도 안산시 상록구 이동 710-7번지","indutype":"교육서비스업 - 미술학원","category":"study"}]},{"lat":"37.309897266","long":"126.84918838","imageIndex":16,"items":[{"name":"미술큐미술학원","tel":"031-406-9216","addr":"경기도 안산시 상록구 이동 710-7번지 상가 1층","indutype":"학원 - 예·체능계학원","category":"study"}]},{"lat":"37.308476158","long":"126.85832811","imageIndex":16,"items":[{"name":"미용실무기술교육학원","tel":"031-416-3323","addr":"경기도 안산시 상록구 이동 594-4번지 (201~202호)","indutype":"회원제형태 - 학원","category":"study"}]},{"lat":"37.306651267","long":"126.86179449","imageIndex":16,"items":[{"name":"배움이라는꿈동산음악학원","tel":"031-408-0010","addr":"경기도 안산시 상록구 이동 607-5번지 1층","indutype":"학원 - 예·체능계학원","category":"study"}]},{"lat":"37.3093956326","long":"126.8514679965","imageIndex":16,"items":[{"name":"베스트간호학원","tel":"031-408-8870","addr":"경기도 안산시 상록구 이동 715-11번지","indutype":"교육서비스업 - 평생직업교육학원","category":"study"}]},{"lat":"37.306563553","long":"126.84924028","imageIndex":16,"items":[{"name":"브라이튼어학원","tel":"031-437-0505","addr":"경기도 안산시 상록구 이동 717-5번지 브라이튼빌 2층","indutype":"학원 - 보습학원","category":"study"}]},{"lat":"37.311256393","long":"126.84810269","imageIndex":16,"items":[{"name":"비와이음악학원","tel":"02-1111-1111","addr":"경기도 안산시 상록구 이동 695번지 2층","indutype":"학원 - 예·체능계학원","category":"study"}]},{"lat":"37.309478045","long":"126.85977005","imageIndex":16,"items":[{"name":"상록수정어린이집[아이행복]","tel":"031-408-7101","addr":"경기도 안산시 상록구 이동 610-9번지","indutype":"학원 - 유아원","category":"study"},{"name":"천재어린이집","tel":"031-408-7101","addr":"경기도 안산시 상록구 이동 610-9번지 1층","indutype":"학원 - 유치원","category":"study"}]},{"lat":"37.309865115","long":"126.85946475","imageIndex":16,"items":[{"name":"상록탑영수전문학원","tel":"031-408-7030","addr":"경기도 안산시 상록구 이동 612-19번지 301호","indutype":"회원제형태 - 학원","category":"study"},{"name":"용인대초당태권도","tel":"031-438-2091","addr":"경기도 안산시 상록구 이동 612-19번지 2층 201호","indutype":"학원 - 예·체능계학원","category":"study"}]},{"lat":"37.3098651148","long":"126.8594647539","imageIndex":16,"items":[{"name":"상록탑영수전문학원","tel":"031-408-7030","addr":"경기도 안산시 상록구 이동 612-19번지","indutype":"도매 및 소매업 - 학원,도서","category":"study"}]},{"lat":"37.30853207","long":"126.85985081","imageIndex":16,"items":[{"name":"새천재어린이집","tel":"031-408-7170","addr":"경기도 안산시 상록구 이동 609-2번지 1층","indutype":"학원 - 유치원","category":"study"},{"name":"이동수정어린이집[아이행복]","tel":"031-408-7170","addr":"경기도 안산시 상록구 이동 609-2번지","indutype":"학원 - 유아원","category":"study"}]},{"lat":"37.313169378","long":"126.84343982","imageIndex":16,"items":[{"name":"서원유치원[아이행복]","tel":"031-419-3441","addr":"경기도 안산시 상록구 이동 630-1,4","indutype":"학원 - 유치원","category":"study"}]},{"lat":"37.3075928","long":"126.84399303","imageIndex":16,"items":[{"name":"세명음악학원","tel":"031-408-1341","addr":"경기도 안산시 상록구 이동 686-2번지 3층","indutype":"학원 - 예·체능계학원","category":"study"},{"name":"예영댄스무용학원","tel":"031-502-3880","addr":"경기도 안산시 상록구 이동 686-2번지 2층","indutype":"학원 - 예·체능계학원","category":"study"}]},{"lat":"37.308754649","long":"126.85048791","imageIndex":16,"items":[{"name":"소비자문제를연구하는시민의모임안산지부","tel":"031-482-9898","addr":"경기도 안산시 상록구 이동 715-7번지 진성프라자 407,408호","indutype":"학원 - 기타 교육기관","category":"study"}]},{"lat":"37.310784637","long":"126.84565581","imageIndex":16,"items":[{"name":"송호고등학교","tel":"031-415-8680","addr":"경기도 안산시 상록구 이동 665번지 송호고등학교","indutype":"학원 - 초중고교육기관","category":"study"},{"name":"송호고등학교_수업료","tel":"031-415-8680","addr":"경기도 안산시 상록구 이동 665번지","indutype":"학원 - 초중고교육기관","category":"study"}]},{"lat":"37.308339715","long":"126.85012779","imageIndex":16,"items":[{"name":"수인아트","tel":"031-416-5373","addr":"경기도 안산시 상록구 이동 715-5번지 대성프라자 206호","indutype":"회원제형태 - 학원","category":"study"}]},{"lat":"37.306420863","long":"126.85037983","imageIndex":16,"items":[{"name":"숲아카데미학원","tel":"031-407-0588","addr":"경기도 안산시 상록구 이동 718-2번지 썬프라자 204호","indutype":"학원 - 보습학원","category":"study"},{"name":"지니어스학원","tel":"","addr":"경기도 안산시 상록구 이동 718-2번지 썬프라자 4층 401,402,403호","indutype":"학원 - 보습학원","category":"study"}]},{"lat":"37.305451343","long":"126.8604883","imageIndex":16,"items":[{"name":"시립이동어린이집[아이행복]","tel":"031-409-6277","addr":"경기도 안산시 상록구 이동 578번지","indutype":"학원 - 유아원","category":"study"}]},{"lat":"37.307789947","long":"126.8500161","imageIndex":16,"items":[{"name":"신선고시원","tel":"031-409-3581","addr":"경기도 안산시 상록구 이동 714번지 신화프라자 605호 603 604","indutype":"학원 - 독서실","category":"study"},{"name":"주식회사 에스엠티코리아","tel":"070-4115-4717","addr":"경기도 안산시 상록구 이동 714번지 신화프라자 203호","indutype":"학원 - 기타 교육기관","category":"study"},{"name":"탑실용음악아카데미","tel":"031-417-0031","addr":"경기도 안산시 상록구 이동 714번지 신화타운 501동 502호","indutype":"학원 - 예·체능계학원","category":"study"}]},{"lat":"37.307865309","long":"126.8525765","imageIndex":16,"items":[{"name":"씨모션5","tel":"031-000-0000","addr":"경기도 안산시 상록구 이동 716-1번지 삼성프라자 601,604호","indutype":"학원 - 독서실","category":"study"}]},{"lat":"37.306227761","long":"126.86177272","imageIndex":16,"items":[{"name":"아르떼음악","tel":"031-502-0908","addr":"경기도 안산시 상록구 이동 605-4번지 1층 101호 아르떼음악","indutype":"학원 - 예·체능계학원","category":"study"},{"name":"한솔 플러스 영어","tel":"031-504-7889","addr":"경기도 안산시 상록구 이동 605-4번지","indutype":"학원 - 보습학원","category":"study"}]},{"lat":"37.313116544","long":"126.84435367","imageIndex":16,"items":[{"name":"아이클로버","tel":"","addr":"경기도 안산시 상록구 이동 633번지 2층","indutype":"학원 - 기타 교육기관","category":"study"}]},{"lat":"37.305894343","long":"126.86173951","imageIndex":16,"items":[{"name":"아트샘미술학원","tel":"031-520-4709","addr":"경기도 안산시 상록구 이동 604-5번지 2층 203호","indutype":"학원 - 예·체능계학원","category":"study"}]},{"lat":"37.308566363","long":"126.85121022","imageIndex":16,"items":[{"name":"안산인테리어기술학원","tel":"031-408-3338","addr":"경기도 안산시 상록구 이동 715-2번지 한남빌딩 503호","indutype":"학원 - 기능학원","category":"study"}]},{"lat":"37.3085663625","long":"126.8512102180","imageIndex":16,"items":[{"name":"안산인테리어기술학원","tel":"031-408-3338","addr":"경기도 안산시 상록구 이동 715-2번지","indutype":"교육서비스업 - 평생직업기술학원","category":"study"}]},{"lat":"37.308060528","long":"126.85738138","imageIndex":16,"items":[{"name":"엘림고시원","tel":"031-406-9181","addr":"경기도 안산시 상록구 이동 593-3번지 401호","indutype":"학원 - 독서실","category":"study"}]},{"lat":"37.308009615","long":"126.8599646","imageIndex":16,"items":[{"name":"예지슬어린이집[아이행복]","tel":"031-406-4595","addr":"경기도 안산시 상록구 이동 598-1번지","indutype":"학원 - 유아원","category":"study"}]},{"lat":"37.309593134","long":"126.85090359","imageIndex":16,"items":[{"name":"유(U)댄스스포츠학원","tel":"031-415-0878","addr":"경기도 안산시 상록구 이동 709-1번지 4층","indutype":"학원 - 예·체능계학원","category":"study"}]},{"lat":"37.312871026","long":"126.85660503","imageIndex":16,"items":[{"name":"율곡어린이집[아이행복]","tel":"031-406-3888","addr":"경기도 안산시 상록구 이동 522-9번지","indutype":"학원 - 유아원","category":"study"}]},{"lat":"37.311370186","long":"126.85976647","imageIndex":16,"items":[{"name":"이동아이뜰어린이집[아이행복]","tel":"031-408-1139","addr":"경기도 안산시 상록구 이동 536-5번지","indutype":"학원 - 유아원","category":"study"},{"name":"이동아이뜰어린이집[아이행복]","tel":"031-408-1139","addr":"경기도 안산시 상록구 이동 536-5번지","indutype":"학원 - 유아원","category":"study"}]},{"lat":"37.304841702","long":"126.8630499","imageIndex":16,"items":[{"name":"인성태권도체육관","tel":"031-501-7090","addr":"경기도 안산시 상록구 이동 569-8번지","indutype":"학원 - 예·체능계학원","category":"study"},{"name":"해법영어해법셀파수학학원","tel":"031-409-8205","addr":"경기도 안산시 상록구 이동 569-8번지 1층","indutype":"학원 - 보습학원","category":"study"}]},{"lat":"37.308703059","long":"126.85968128","imageIndex":16,"items":[{"name":"일대일코칭수학","tel":"031-408-1231","addr":"경기도 안산시 상록구 이동 609-1번지 원천교회 202호","indutype":"회원제형태 - 학원","category":"study"},{"name":"푸른솔피아노학원","tel":"031-407-9632","addr":"경기도 안산시 상록구 이동 609-1번지 원천교회 1층 101호","indutype":"학원 - 예·체능계학원","category":"study"},{"name":"해법영어 이동교습소","tel":"031-409-0984","addr":"경기도 안산시 상록구 이동 609-1번지 1층","indutype":"회원제형태 - 학원","category":"study"}]},{"lat":"37.310119074","long":"126.86085175","imageIndex":16,"items":[{"name":"자연어린이집[아이행복]","tel":"031-417-8626","addr":"경기도 안산시 상록구 이동 611-2번지","indutype":"학원 - 유아원","category":"study"}]},{"lat":"37.312480328","long":"126.84699468","imageIndex":16,"items":[{"name":"지니어린이집[아이행복]","tel":"031-437-1341","addr":"경기도 안산시 상록구 이동 653-1번지","indutype":"학원 - 유아원","category":"study"}]},{"lat":"37.306947729","long":"126.84674666","imageIndex":16,"items":[{"name":"지엠 댄스아카데미","tel":"031-517-8271","addr":"경기도 안산시 상록구 이동 692-4번지 3층 301호","indutype":"학원 - 예·체능계학원","category":"study"}]},{"lat":"37.306754382","long":"126.85765462","imageIndex":16,"items":[{"name":"초롱교육","tel":"070-7420-0321","addr":"경기도 안산시 상록구 이동 589-7번지 102호","indutype":"학원 - 기타 교육기관","category":"study"}]},{"lat":"37.309699364","long":"126.84943695","imageIndex":16,"items":[{"name":"카네기아이사랑어린이집[아이행복]","tel":"031-438-8558","addr":"경기도 안산시 상록구 이동 710-9번지","indutype":"학원 - 유아원","category":"study"}]},{"lat":"37.311588896","long":"126.86181911","imageIndex":16,"items":[{"name":"코끼리어린이집[아이행복]","tel":"031-502-2885","addr":"경기도 안산시 상록구 이동 539-17번지","indutype":"학원 - 유아원","category":"study"}]},{"lat":"37.307257582","long":"126.84262887","imageIndex":16,"items":[{"name":"팝콘미술학원","tel":"031-409-3109","addr":"경기도 안산시 상록구 이동 664-3번지 207,208호","indutype":"학원 - 예·체능계학원","category":"study"}]},{"lat":"37.307422818","long":"126.85179907","imageIndex":16,"items":[{"name":"펜트하우스","tel":"031-416-3600","addr":"경기도 안산시 상록구 이동 716-4번지 고잔프라자 6층 601호","indutype":"학원 - 독서실","category":"study"}]},{"lat":"37.3087030590","long":"126.8596812826","imageIndex":16,"items":[{"name":"푸른솔 피아노학원","tel":"031-407-9632","addr":"경기도 안산시 상록구 이동 609-1번지","indutype":"교육서비스업 - 피아노학원","category":"study"}]},{"lat":"37.308009787","long":"126.85282437","imageIndex":16,"items":[{"name":"플러스스피치인재교육학원","tel":"031-475-0387","addr":"경기도 안산시 상록구 이동 716번지 한양대프라자 605호","indutype":"학원 - 기타 교육기관","category":"study"}]},{"lat":"37.307115184","long":"126.84393764","imageIndex":16,"items":[{"name":"하이독서실","tel":"031-417-9988","addr":"경기도 안산시 상록구 이동 686-5번지 민영빌딩 301호,401호","indutype":"학원 - 독서실","category":"study"}]},{"lat":"37.310732381","long":"126.84702085","imageIndex":16,"items":[{"name":"학현초등학교","tel":"070-8277-2405","addr":"경기도 안산시 상록구 이동 665-1번지 학현초등학교","indutype":"학원 - 초중고교육기관","category":"study"}]},{"lat":"37.3075943570","long":"126.8520694438","imageIndex":16,"items":[{"name":"한우리상록독서논술학원","tel":"031-408-1939","addr":"경기도 안산시 상록구 이동 716-3번지","indutype":"교육서비스업 - 논술학원","category":"study"}]},{"lat":"37.3048417022","long":"126.8630498967","imageIndex":16,"items":[{"name":"해법영어 해법셀파수학학원","tel":"","addr":"경기도 안산시 상록구 이동 569-8번지","indutype":"교육서비스업 - 학원","category":"study"}]},{"lat":"37.305782673","long":"126.85879573","imageIndex":16,"items":[{"name":"행복한이동어린이집[아이행복]","tel":"031-419-1448","addr":"경기도 안산시 상록구 이동 584-1번지","indutype":"학원 - 유아원","category":"study"}]},{"lat":"37.311953109","long":"126.84352135","imageIndex":16,"items":[{"name":"행복한커피&요리학원","tel":"031-407-7612","addr":"경기도 안산시 상록구 이동 636-4번지 3층","indutype":"학원 - 기능학원","category":"study"}]},{"lat":"37.305785154","long":"126.86084862","imageIndex":16,"items":[{"name":"후후미술학원","tel":"031-9024-0845","addr":"경기도 안산시 상록구 이동 603-14번지 201호","indutype":"학원 - 예·체능계학원","category":"study"}]},{"lat":"37.310615566","long":"126.86162916","imageIndex":16,"items":[{"name":"희망어린이집[아이행복]","tel":"031-408-0072","addr":"경기도 안산시 상록구 이동 542-6번지","indutype":"학원 - 유아원","category":"study"}]}]