[{"lat":"37.312092505","long":"126.79411212","imageIndex":0,"items":[{"name":"(주)비스로","tel":"031-491-0226","addr":"경기도 안산시 단원구 원시동 778번지 중앙일보사 9층 904호","indutype":"자동차정비 유지 - 자동차부품","category":"car"}]},{"lat":"37.299003898","long":"126.78103127","imageIndex":0,"items":[{"name":"ARTREA정밀","tel":"031-494-7167","addr":"경기도 안산시 단원구 원시동 742-4번지 반월공단 8블럭25","indutype":"자동차정비 유지 - 자동차부품","category":"car"}]},{"lat":"37.321786188","long":"126.78835404","imageIndex":0,"items":[{"name":"G.T.C코리아","tel":"031-493-7888","addr":"경기도 안산시 단원구 원시동 768-1번지 D136,137호","indutype":"자동차정비 유지 - 카인테리어","category":"car"},{"name":"한주자동차정비","tel":"031-494-3391","addr":"경기도 안산시 단원구 원시동 768-1번지 안산대우테크노피아 1층 E101호","indutype":"자동차정비 유지 - 카인테리어","category":"car"}]},{"lat":"37.305421204","long":"126.78700187","imageIndex":0,"items":[{"name":"가순국카센타","tel":"031-508-8555","addr":"경기도 안산시 단원구 원시동 731-4번지 서흥테크노밸리 120호","indutype":"자동차정비 유지 - 자동차정비","category":"car"},{"name":"주식회사 가순국자동차정비","tel":"031-508-8555","addr":"경기도 안산시 단원구 원시동 731-4번지 서흥테크노벨리120호외2호","indutype":"자동차정비 유지 - 자동차정비","category":"car"},{"name":"주식회사 원시점현대자동차","tel":"031-508-9990","addr":"경기도 안산시 단원구 원시동 731-4번지 서흥테크노밸리101-1/101-2","indutype":"자동차정비 유지 - 자동차정비","category":"car"}]},{"lat":"37.312618501","long":"126.79605094","imageIndex":0,"items":[{"name":"공단윤활유","tel":"031-494-4466","addr":"경기도 안산시 단원구 원시동 777번지","indutype":"자동차정비 유지 - 자동차부품","category":"car"},{"name":"금호타이어원시점","tel":"031-406-9575","addr":"경기도 안산시 단원구 원시동 777번지 지원회관빌딩 1층","indutype":"자동차정비 유지 - 자동차시트·타이어","category":"car"},{"name":"기아자동차비제이대리점","tel":"031-495-0100","addr":"경기도 안산시 단원구 원시동 777번지 지원회관빌딩 1층","indutype":"자동차판매 - 국산신차판매","category":"car"},{"name":"대양카","tel":"031-495-4282","addr":"경기도 안산시 단원구 원시동 777번지 지원회관빌딩 35 36호","indutype":"자동차정비 유지 - 자동차정비","category":"car"},{"name":"청원카인테리어","tel":"031-494-4133","addr":"경기도 안산시 단원구 원시동 777번지 1층4~6호","indutype":"자동차정비 유지 - 자동차정비","category":"car"}]},{"lat":"37.312202671","long":"126.79527372","imageIndex":0,"items":[{"name":"공단자동차종합정비(주)","tel":"031-485-0088","addr":"경기도 안산시 단원구 원시동 777-5번지","indutype":"자동차정비 유지 - 자동차정비","category":"car"}]},{"lat":"37.31534079","long":"126.7967429","imageIndex":0,"items":[{"name":"광명차유리","tel":"031-494-3030","addr":"경기도 안산시 단원구 원시동 773-1,광명상가다동2호~3호","indutype":"자동차정비 유지 - 자동차부품","category":"car"},{"name":"안산브란자","tel":"031-491-2400","addr":"경기도 안산시 단원구 원시동 773-1번지","indutype":"자동차정비 유지 - 자동차정비","category":"car"},{"name":"안산세차장","tel":"031-494-0136","addr":"경기도 안산시 단원구 원시동 773-1번지 안산자동차정비(주) 나동 6호","indutype":"자동차정비 유지 - 세차장","category":"car"},{"name":"안산현대상사","tel":"031-494-2323","addr":"경기도 안산시 단원구 원시동 773-1번지","indutype":"자동차정비 유지 - 자동차부품","category":"car"},{"name":"원창상사","tel":"031-493-5180","addr":"경기도 안산시 단원구 원시동 773-1번지","indutype":"자동차정비 유지 - 자동차부품","category":"car"},{"name":"주식회사 안산모터스","tel":"031-491-2020","addr":"경기도 안산시 단원구 원시동 773-1번지","indutype":"자동차정비 유지 - 자동차정비","category":"car"},{"name":"천호상사","tel":"031-495-0092","addr":"경기도 안산시 단원구 원시동 773-1번지","indutype":"자동차정비 유지 - 자동차부품","category":"car"},{"name":"현민상사","tel":"031-494-0933","addr":"경기도 안산시 단원구 원시동 773-1번지 나동 1~3호","indutype":"자동차정비 유지 - 자동차부품","category":"car"}]},{"lat":"37.312863467","long":"126.79702041","imageIndex":0,"items":[{"name":"금강카센타","tel":"031-493-3078","addr":"경기도 안산시 단원구 원시동 777-6번지","indutype":"자동차정비 유지 - 카인테리어","category":"car"},{"name":"서부공단카센타","tel":"031-492-4510","addr":"경기도 안산시 단원구 원시동 777-6번지","indutype":"자동차정비 유지 - 카인테리어","category":"car"},{"name":"수정카서비스","tel":"031-495-9831","addr":"경기도 안산시 단원구 원시동 777-6번지 반월공단종합상가 종합상가 102동 103호","indutype":"자동차정비 유지 - 카인테리어","category":"car"},{"name":"주식회사 한림","tel":"031-796-6061","addr":"경기도 안산시 단원구 원시동 777-6번지 반월공단종합상가 403호","indutype":"자동차정비 유지 - 주차장","category":"car"}]},{"lat":"37.311562018","long":"126.79474529","imageIndex":0,"items":[{"name":"대명정밀","tel":"031-493-8190","addr":"경기도 안산시 단원구 원시동 778-7번지","indutype":"자동차정비 유지 - 자동차부품","category":"car"}]},{"lat":"37.316223648","long":"126.79666153","imageIndex":0,"items":[{"name":"반월 ENG","tel":"031-494-1100","addr":"경기도 안산시 단원구 원시동 773-8번지","indutype":"자동차정비 유지 - 자동차시트·타이어","category":"car"}]},{"lat":"37.317426189","long":"126.78394413","imageIndex":0,"items":[{"name":"삼우공주(주)","tel":"031-495-7421","addr":"경기도 안산시 단원구 원시동 724번지","indutype":"자동차정비 유지 - 자동차부품","category":"car"}]},{"lat":"37.312947549","long":"126.79874612","imageIndex":0,"items":[{"name":"신우자동차정비","tel":"031-380-8119","addr":"경기도 안산시 단원구 원시동 775-3번지 (주)서흥단조공업 B동 120호","indutype":"자동차정비 유지 - 자동차정비","category":"car"},{"name":"중앙코퍼레이션","tel":"031-380-8141","addr":"경기도 안산시 단원구 원시동 775-3번지 타원TAKRA2지식산업센타 5층 505호","indutype":"자동차정비 유지 - 자동차부품","category":"car"},{"name":"코리아시스템","tel":"031-380-8183","addr":"경기도 안산시 단원구 원시동 775-3번지 타원TAKRA2지식산업센타 1동 4층 415호","indutype":"자동차정비 유지 - 자동차부품","category":"car"}]},{"lat":"37.306368525","long":"126.78768722","imageIndex":0,"items":[{"name":"원시점 오토카서비스","tel":"031-492-6677","addr":"경기도 안산시 단원구 원시동 730-1 JS테크노타워C동1층114.112.113호","indutype":"자동차정비 유지 - 자동차부품","category":"car"},{"name":"주식회사 오토스텝코리아","tel":"031-492-6677","addr":"경기도 안산시 단원구 원시동 730-1번지 JS테크노타워공장 A동 106호","indutype":"자동차정비 유지 - 카인테리어","category":"car"}]},{"lat":"37.316752755","long":"126.79016207","imageIndex":0,"items":[{"name":"유진차량정비(주)","tel":"031-491-4711","addr":"경기도 안산시 단원구 원시동 770-2번지","indutype":"자동차정비 유지 - 자동차정비","category":"car"}]},{"lat":"37.312508779","long":"126.79513751","imageIndex":0,"items":[{"name":"타이어앤피트안산점","tel":"031-494-3707","addr":"경기도 안산시 단원구 원시동 777-4번지","indutype":"자동차정비 유지 - 자동차정비","category":"car"}]},{"lat":"37.313952301","long":"126.7962165","imageIndex":0,"items":[{"name":"한국산업단지공단 경기지역본부 관리소","tel":"070-8895-7545","addr":"경기도 안산시 단원구 원시동 773-2번지 한국산업단지공단 302호","indutype":"자동차정비 유지 - 주차장","category":"car"}]}]