[{"lat":"37.253905353","long":"127.10935646","imageIndex":13,"items":[{"name":"ARITAUM/주식회사 여목","tel":"031-285-3012","addr":"경기도 용인시 기흥구 보라동 573-6번지 스카이프라자 1층 106호","indutype":"보건위생 - 화장품","category":"beauty"},{"name":"드림안경 (영통점)","tel":"031-287-2228","addr":"경기도 용인시 기흥구 보라동 573-6번지 스카이프라자 203호","indutype":"보건위생 - 안경","category":"beauty"},{"name":"아리따움 용인보라점","tel":"031-285-3012","addr":"경기도 용인시 기흥구 보라동 573-6번지 스카이프라자 106호","indutype":"보건위생 - 화장품","category":"beauty"},{"name":"이가자헤어비스 용인보라점","tel":"031-275-3778","addr":"경기도 용인시 기흥구 보라동 573-6번지 스카이프라자 202호","indutype":"보건위생 - 미용원","category":"beauty"}]},{"lat":"37.250768958","long":"127.11976686","imageIndex":13,"items":[{"name":"김숙주피부관리","tel":"031-283-5222","addr":"경기도 용인시 기흥구 보라동 570번지 민속마을현대모닝사이드 202호","indutype":"보건위생 - 화장품","category":"beauty"},{"name":"모닝헤어살롱","tel":"031-274-9692","addr":"경기도 용인시 기흥구 보라동 570번지 민속마을 현대모닝사이드단지 상가 203동 204호","indutype":"보건위생 - 미용원","category":"beauty"}]},{"lat":"37.254101086","long":"127.1214628","imageIndex":13,"items":[{"name":"네일샵501","tel":"031-281-0501","addr":"경기도 용인시 기흥구 보라동 167번지 이지골프연습장,만도자동차공업사 116호","indutype":"보건위생 - 피부미용실","category":"beauty"},{"name":"더 골드 스킨케어","tel":"031-283-1711","addr":"경기도 용인시 기흥구 보라동 167번지 이지골프연습장,만도자동차공업사 1층 111호","indutype":"보건위생 - 화장품","category":"beauty"}]},{"lat":"37.254238256","long":"127.10988671","imageIndex":13,"items":[{"name":"뉴밸런스M&T","tel":"","addr":"경기도 용인시 기흥구 보라동 578-1번지 보라메가타운 401호","indutype":"보건위생 - 의료용품","category":"beauty"},{"name":"더페이스샵 용인보라점","tel":"031-284-6364","addr":"경기도 용인시 기흥구 보라동 578-1번지 보라메가타운 1층 112호","indutype":"보건위생 - 화장품","category":"beauty"},{"name":"라브리지헤어","tel":"031-287-5548","addr":"경기도 용인시 기흥구 보라동 578-1번지 보라메가타운 203호","indutype":"보건위생 - 미용원","category":"beauty"}]},{"lat":"37.254300016","long":"127.11132961","imageIndex":13,"items":[{"name":"뉴아즈헤어","tel":"031-283-0787","addr":"경기도 용인시 기흥구 보라동 580-4번지 랜드빌2 2층","indutype":"보건위생 - 미용원","category":"beauty"},{"name":"아르떼인한생인","tel":"031-351-3366","addr":"경기도 용인시 기흥구 보라동 580-4번지 랜드빌2","indutype":"보건위생 - 피부미용실","category":"beauty"}]},{"lat":"37.253797623","long":"127.10891671","imageIndex":13,"items":[{"name":"다다헤어","tel":"031-285-9222","addr":"경기도 용인시 기흥구 보라동 574-2번지 테마프라자 2층일부","indutype":"보건위생 - 미용원","category":"beauty"},{"name":"도로시헤어","tel":"031-275-2662","addr":"경기도 용인시 기흥구 보라동 574-2번지 테마프라자 102호","indutype":"보건위생 - 미용원","category":"beauty"},{"name":"르샤헤어","tel":"031-283-1222","addr":"경기도 용인시 기흥구 보라동 574-2번지 테마프라자 2층","indutype":"보건위생 - 미용원","category":"beauty"}]},{"lat":"37.253542944","long":"127.11155396","imageIndex":13,"items":[{"name":"다온","tel":"031-282-4588","addr":"경기도 용인시 기흥구 보라동 587-12번지 103호","indutype":"보건위생 - 미용원","category":"beauty"},{"name":"섬김뷰티","tel":"031-8005-5010","addr":"경기도 용인시 기흥구 보라동 587-12번지 101호","indutype":"보건위생 - 피부미용실","category":"beauty"},{"name":"제인래쉬","tel":"031-282-6804","addr":"경기도 용인시 기흥구 보라동 587-12번지 102호","indutype":"보건위생 - 피부미용실","category":"beauty"}]},{"lat":"37.25451733","long":"127.11015763","imageIndex":13,"items":[{"name":"더네일","tel":"031-8004-5156","addr":"경기도 용인시 기흥구 보라동 578-3번지 보라메가타운 B03호","indutype":"보건위생 - 피부미용실","category":"beauty"},{"name":"위드미","tel":"031-274-5695","addr":"경기도 용인시 기흥구 보라동 578-3번지 보라메가타운2 203호","indutype":"보건위생 - 화장품","category":"beauty"}]},{"lat":"37.253522928","long":"127.12294978","imageIndex":13,"items":[{"name":"더블유뷰티랩","tel":"","addr":"경기도 용인시 기흥구 보라동 558번지 민속마을신창미션힐아파트","indutype":"보건위생 - 화장품","category":"beauty"}]},{"lat":"37.253437161","long":"127.10897256","imageIndex":13,"items":[{"name":"더헤어(The Hair)","tel":"031-281-5987","addr":"경기도 용인시 기흥구 보라동 576번지 115호","indutype":"보건위생 - 미용원","category":"beauty"}]},{"lat":"37.250518869","long":"127.10779624","imageIndex":13,"items":[{"name":"드라마안경","tel":"031-285-2343","addr":"경기도 용인시 기흥구 보라동 612-6번지 메디프라자 1층 101호~102호","indutype":"보건위생 - 안경","category":"beauty"},{"name":"본헤어","tel":"031-285-0595","addr":"경기도 용인시 기흥구 보라동 612-6번지 103,104호","indutype":"보건위생 - 미용원","category":"beauty"}]},{"lat":"37.253659954","long":"127.11168939","imageIndex":13,"items":[{"name":"라뷰티","tel":"070-6216-8263","addr":"경기도 용인시 기흥구 보라동 587-3번지 상가동 101호","indutype":"보건위생 - 피부미용실","category":"beauty"},{"name":"스타일바이제니(Style by Jenny)","tel":"031-286-2658","addr":"경기도 용인시 기흥구 보라동 587-3번지 103호","indutype":"보건위생 - 미용원","category":"beauty"}]},{"lat":"37.247520814","long":"127.10507579","imageIndex":13,"items":[{"name":"렌즈맨안경","tel":"031-286-3336","addr":"경기도 용인시 기흥구 보라동 623-1번지 보라지구 EMART2층","indutype":"보건위생 - 안경","category":"beauty"},{"name":"이철헤어커커 (보라이마트점)","tel":"031-282-2326","addr":"경기도 용인시 기흥구 보라동 623-1번지 이마트보라점 2층 일부","indutype":"보건위생 - 미용원","category":"beauty"}]},{"lat":"37.251490786","long":"127.1091389","imageIndex":13,"items":[{"name":"린지젤네일&속눈썹","tel":"","addr":"경기도 용인시 기흥구 보라동 607-1번지 동우프라자 105호","indutype":"보건위생 - 피부미용실","category":"beauty"},{"name":"이안헤어","tel":"031-275-4590","addr":"경기도 용인시 기흥구 보라동 607-1번지 동우프라자 201호","indutype":"보건위생 - 미용원","category":"beauty"}]},{"lat":"37.254157762","long":"127.10922155","imageIndex":13,"items":[{"name":"마음이자라는센터","tel":"031-274-7311","addr":"경기도 용인시 기흥구 보라동 573-5번지 제일프라자 403호","indutype":"보건위생 - 기타대인서비스","category":"beauty"},{"name":"이니스프리 보라점","tel":"031-286-7972","addr":"경기도 용인시 기흥구 보라동 573-5번지 제일프라자 1층 103호","indutype":"보건위생 - 화장품","category":"beauty"},{"name":"제이(J)","tel":"","addr":"경기도 용인시 기흥구 보라동 573-5번지 제일프라자 106호","indutype":"보건위생 - 화장품","category":"beauty"}]},{"lat":"37.250159015","long":"127.10716455","imageIndex":13,"items":[{"name":"머리못하는집(보라점)","tel":"0301-281-7878","addr":"경기도 용인시 기흥구 보라동 612-4번지 센타프라자 102호","indutype":"보건위생 - 미용원","category":"beauty"}]},{"lat":"37.253490707","long":"127.1095475","imageIndex":13,"items":[{"name":"멀티","tel":"031-8005-6381","addr":"경기도 용인시 기흥구 보라동 577번지 베스트프라자 5층 502호","indutype":"보건위생 - 기타대인서비스","category":"beauty"}]},{"lat":"37.250199616","long":"127.11210146","imageIndex":13,"items":[{"name":"미라이","tel":"031-283-6331","addr":"경기도 용인시 기흥구 보라동 606번지 한보라마을휴먼시아4단지아파트","indutype":"보건위생 - 기타대인서비스","category":"beauty"}]},{"lat":"37.255239479","long":"127.11833094","imageIndex":13,"items":[{"name":"벤자롱","tel":"070-4898-2357","addr":"경기도 용인시 기흥구 보라동 140-7번지 신원프라자 114호","indutype":"보건위생 - 화장품","category":"beauty"},{"name":"헤어스토리","tel":"031-285-6100","addr":"경기도 용인시 기흥구 보라동 139 외8필지 신원프라자304","indutype":"보건위생 - 미용원","category":"beauty"}]},{"lat":"37.254571413","long":"127.11966001","imageIndex":13,"items":[{"name":"봄스킨","tel":"031-286-3272","addr":"경기도 용인시 기흥구 보라동 138번지 민속프라자","indutype":"보건위생 - 화장품","category":"beauty"},{"name":"살롱닛시 (SALON NISSI)","tel":"031-281-4414","addr":"경기도 용인시 기흥구 보라동 138번지 싸이칸프라자 109호","indutype":"보건위생 - 미용원","category":"beauty"}]},{"lat":"37.253903872","long":"127.11099089","imageIndex":13,"items":[{"name":"빨강머리","tel":"031-8005-6344","addr":"경기도 용인시 기흥구 보라동 582-4번지 1층","indutype":"보건위생 - 미용원","category":"beauty"}]},{"lat":"37.254686514","long":"127.11235592","imageIndex":13,"items":[{"name":"삼정헤어라인미용실","tel":"031-286-9159","addr":"경기도 용인시 기흥구 보라동 289-12 삼정선비마을상가 202","indutype":"보건위생 - 미용원","category":"beauty"}]},{"lat":"37.252939914","long":"127.1108317","imageIndex":13,"items":[{"name":"설탕헤어","tel":"031-281-6655","addr":"경기도 용인시 기흥구 보라동 585-2번지 1층 3-10","indutype":"보건위생 - 미용원","category":"beauty"}]},{"lat":"37.253352991","long":"127.11235399","imageIndex":13,"items":[{"name":"스페이스옴므","tel":"031-285-6232","addr":"경기도 용인시 기흥구 보라동 587-8번지 101호 상가","indutype":"보건위생 - 미용원","category":"beauty"},{"name":"태후사랑","tel":"031-286-1115","addr":"경기도 용인시 기흥구 보라동 587-8번지 상가 103호","indutype":"보건위생 - 화장품","category":"beauty"}]},{"lat":"37.248523669","long":"127.11213285","imageIndex":13,"items":[{"name":"승희헤어샵","tel":"031-284-9010","addr":"경기도 용인시 기흥구 보라동 633번지 한보라마을화성파크드림 상가동 1층 102호","indutype":"보건위생 - 미용원","category":"beauty"}]},{"lat":"37.257098341","long":"127.10557343","imageIndex":13,"items":[{"name":"실크헤어","tel":"070-7690-7000","addr":"경기도 용인시 기흥구 보라동 388-15번지 103호","indutype":"보건위생 - 미용원","category":"beauty"}]},{"lat":"37.253715384","long":"127.11019031","imageIndex":13,"items":[{"name":"아쿠아","tel":"031-287-8128","addr":"경기도 용인시 기흥구 보라동 581-1번지 1층","indutype":"보건위생 - 화장품","category":"beauty"},{"name":"아쿠아","tel":"031-287-8128","addr":"경기도 용인시 기흥구 보라동 581-1번지","indutype":"보건위생 - 화장품","category":"beauty"}]},{"lat":"37.253493529","long":"127.11620916","imageIndex":13,"items":[{"name":"열린마음가족연구소","tel":"070-4870-2819","addr":"경기도 용인시 기흥구 보라동 553번지 민속마을쌍용아파트","indutype":"보건위생 - 기타대인서비스","category":"beauty"}]},{"lat":"37.254077074","long":"127.10877056","imageIndex":13,"items":[{"name":"왁싱미카 용인보라점","tel":"031-284-7222","addr":"경기도 용인시 기흥구 보라동 573-4번지 308호","indutype":"보건위생 - 피부미용실","category":"beauty"}]},{"lat":"37.25543765","long":"127.1183876","imageIndex":13,"items":[{"name":"우리안경","tel":"031-286-8002","addr":"경기도 용인시 기흥구 보라동 140-2번지 지산빌딩 101호","indutype":"보건위생 - 안경","category":"beauty"}]},{"lat":"37.249004145","long":"127.10890999","imageIndex":13,"items":[{"name":"이니떼","tel":"031-548-0052","addr":"경기도 용인시 기흥구 보라동 617번지","indutype":"보건위생 - 화장품","category":"beauty"}]},{"lat":"37.253461031","long":"127.11244432","imageIndex":13,"items":[{"name":"이다위헤어(DAWE HAIR)","tel":"031-282-1899","addr":"경기도 용인시 기흥구 보라동 587-7번지 103호","indutype":"보건위생 - 미용원","category":"beauty"}]},{"lat":"37.250227866","long":"127.11077148","imageIndex":13,"items":[{"name":"인셀덤 수원지사","tel":"031-223-5214","addr":"경기도 용인시 기흥구 보라동 606번지 한보라마을휴먼시아4단지아파트","indutype":"보건위생 - 화장품","category":"beauty"}]},{"lat":"37.253438206","long":"127.10780029","imageIndex":13,"items":[{"name":"채움애스테틱","tel":"031-285-5550","addr":"경기도 용인시 기흥구 보라동 575-2번지 월드프라자 3층 302호","indutype":"보건위생 - 피부미용실","category":"beauty"},{"name":"헤라헤어샵","tel":"031-263-6366","addr":"경기도 용인시 기흥구 보라동 575-2번지 3층 302호","indutype":"보건위생 - 미용원","category":"beauty"}]},{"lat":"37.253796272","long":"127.11041587","imageIndex":13,"items":[{"name":"커트27","tel":"031-274-6549","addr":"경기도 용인시 기흥구 보라동 582-1번지 1층 103호","indutype":"보건위생 - 미용원","category":"beauty"}]},{"lat":"37.254210847","long":"127.11030373","imageIndex":13,"items":[{"name":"타스","tel":"031-274-1176","addr":"경기도 용인시 기흥구 보라동 579-1번지 랜드빌4 403,404호","indutype":"보건위생 - 화장품","category":"beauty"},{"name":"힐링데이","tel":"031-274-1176","addr":"경기도 용인시 기흥구 보라동 579-1번지 랜드빌4 4층","indutype":"보건위생 - 화장품","category":"beauty"}]},{"lat":"37.252215806","long":"127.12356764","imageIndex":13,"items":[{"name":"탐나도다","tel":"031-805-4959","addr":"경기도 용인시 기흥구 보라동 558","indutype":"보건위생 - 미용재료","category":"beauty"}]},{"lat":"37.254074966","long":"127.12054973","imageIndex":13,"items":[{"name":"포맨","tel":"031-286-6312","addr":"경기도 용인시 기흥구 보라동 166번지 한성마트 2층","indutype":"보건위생 - 미용원","category":"beauty"},{"name":"해피기흥 민속대리점","tel":"031-274-1102","addr":"경기도 용인시 기흥구 보라동 166번지 쇼핑이지 01층 111호,112호","indutype":"보건위생 - 의료용품","category":"beauty"}]},{"lat":"37.255131685","long":"127.11799261","imageIndex":13,"items":[{"name":"헤어나라","tel":"031-275-3533","addr":"경기도 용인시 기흥구 보라동 139","indutype":"보건위생 - 미용원","category":"beauty"}]},{"lat":"37.247411091","long":"127.1069128","imageIndex":13,"items":[{"name":"헤어샵","tel":"031-287-2383","addr":"경기도 용인시 기흥구 보라동 620번지 휴먼시아6단지 203호","indutype":"보건위생 - 미용원","category":"beauty"}]},{"lat":"37.253877016","long":"127.11079922","imageIndex":13,"items":[{"name":"헤어엘 (보라점)","tel":"031-283-6778","addr":"경기도 용인시 기흥구 보라동 582-3번지","indutype":"보건위생 - 미용원","category":"beauty"}]},{"lat":"37.250384471","long":"127.10693943","imageIndex":13,"items":[{"name":"힐스템건강 용인보라점","tel":"031-274-5865","addr":"경기도 용인시 기흥구 보라동 612-3번지 우리프라자 101호,102호","indutype":"보건위생 - 피부미용실","category":"beauty"}]}]