[{"lat":"37.736455291","long":"127.06469902","imageIndex":7,"items":[{"name":"s마트의정부신곡점","tel":"031-856-7733","addr":"경기도 의정부시 신곡동 143-6번지 장령상가 2동 104호","indutype":"유통업 영리 - 슈퍼마켓","category":"mart"}]},{"lat":"37.747960722","long":"127.06426607","imageIndex":7,"items":[{"name":"가락공판장 신곡점","tel":"031-853-0988","addr":"경기도 의정부시 신곡동 756-6번지","indutype":"유통업 영리 - 슈퍼마켓","category":"mart"}]},{"lat":"37.73518004","long":"127.0562917","imageIndex":7,"items":[{"name":"개나리슈퍼","tel":"031-841-6726","addr":"경기도 의정부시 신곡동 597-132번지","indutype":"유통업 영리 - 슈퍼마켓","category":"mart"}]},{"lat":"37.734961025","long":"127.06212259","imageIndex":7,"items":[{"name":"꼬마마트","tel":"031-846-4481","addr":"경기도 의정부시 신곡동 448-16번지","indutype":"유통업 영리 - 슈퍼마켓","category":"mart"}]},{"lat":"37.743765542","long":"127.05762533","imageIndex":7,"items":[{"name":"대명마트","tel":"031-847-7738","addr":"경기도 의정부시 신곡동 671-8번지","indutype":"유통업 영리 - 슈퍼마켓","category":"mart"}]},{"lat":"37.74548578","long":"127.05887466","imageIndex":7,"items":[{"name":"동오슈퍼","tel":"","addr":"경기도 의정부시 신곡동 669번지 극동.동성아파트 1층","indutype":"유통업 영리 - 슈퍼마켓","category":"mart"}]},{"lat":"37.744178535","long":"127.06065497","imageIndex":7,"items":[{"name":"벽산마트","tel":"031-848-0948","addr":"경기도 의정부시 신곡동 685번지 벽산아파트 상가동 101호","indutype":"유통업 영리 - 슈퍼마켓","category":"mart"}]},{"lat":"37.731962676","long":"127.05834265","imageIndex":7,"items":[{"name":"슈퍼일번지","tel":"031-876-3145","addr":"경기도 의정부시 신곡동 715-6번지 1층","indutype":"유통업 영리 - 슈퍼마켓","category":"mart"}]},{"lat":"37.733546925","long":"127.06131602","imageIndex":7,"items":[{"name":"슬기마트","tel":"031-847-7444","addr":"경기도 의정부시 신곡동 409-40번지","indutype":"유통업 영리 - 슈퍼마켓","category":"mart"}]},{"lat":"37.73418004","long":"127.05615485","imageIndex":7,"items":[{"name":"연지슈퍼","tel":"031-847-3369","addr":"경기도 의정부시 신곡동 605-3번지","indutype":"유통업 영리 - 슈퍼마켓","category":"mart"}]},{"lat":"37.736766101","long":"127.05545333","imageIndex":7,"items":[{"name":"영민슈퍼","tel":"031-848-0028","addr":"경기도 의정부시 신곡동 597-6번지","indutype":"유통업 영리 - 슈퍼마켓","category":"mart"}]},{"lat":"37.733847233","long":"127.05492943","imageIndex":7,"items":[{"name":"우진마트","tel":"031-846-4095","addr":"경기도 의정부시 신곡동 615-44번지","indutype":"유통업 영리 - 슈퍼마켓","category":"mart"}]},{"lat":"37.742927936","long":"127.05701205","imageIndex":7,"items":[{"name":"초록마을 신곡점","tel":"031-821-6236","addr":"경기도 의정부시 신곡동 673번지 휴먼시티 102호","indutype":"유통업 영리 - 슈퍼마켓","category":"mart"}]},{"lat":"37.750370877","long":"127.07221082","imageIndex":7,"items":[{"name":"초록마을 의정부금오점","tel":"031-853-6289","addr":"경기도 의정부시 신곡동 765-1번지 금오종합상가 A동 104호","indutype":"유통업 영리 - 슈퍼마켓","category":"mart"}]},{"lat":"37.730963587","long":"127.05623196","imageIndex":7,"items":[{"name":"초록마을 장암점","tel":"031-879-6203","addr":"경기도 의정부시 신곡동 719-4번지 우신프라자 1층 12호","indutype":"유통업 영리 - 슈퍼마켓","category":"mart"}]},{"lat":"37.75126063","long":"127.07584266","imageIndex":7,"items":[{"name":"파란마트","tel":"031-851-8509","addr":"경기도 의정부시 신곡동 767-2번지 상록아이파크 상가동 106호","indutype":"유통업 영리 - 슈퍼마켓","category":"mart"}]},{"lat":"37.735205093","long":"127.06048918","imageIndex":7,"items":[{"name":"프롬라떼","tel":"031-872-1688","addr":"경기도 의정부시 신곡동 436-1번지","indutype":"유통업 영리 - 슈퍼마켓","category":"mart"}]},{"lat":"37.73340345","long":"127.05993192","imageIndex":7,"items":[{"name":"형제슈퍼","tel":"031-848-6734","addr":"경기도 의정부시 신곡동 427-18번지","indutype":"유통업 영리 - 슈퍼마켓","category":"mart"}]}]