[{"lat":"37.444015634","long":"126.79765606","imageIndex":7,"items":[{"name":"경기두레생협 은행점","tel":"031-311-3886","addr":"경기도 시흥시 은행동 537-1번지 101~102호","indutype":"소매업 - 슈퍼마켓","category":"mart"}]},{"lat":"37.432742177","long":"126.79654568","imageIndex":7,"items":[{"name":"대수할인마트","tel":"031-315-6902","addr":"경기도 시흥시 은행동 261-21번지 건일베스트빌 1층","indutype":"소매업 - 슈퍼마켓","category":"mart"}]},{"lat":"37.44315318","long":"126.79910484","imageIndex":7,"items":[{"name":"성원할인마트","tel":"031-314-8943","addr":"경기도 시흥시 은행동 538-2번지","indutype":"소매업 - 슈퍼마켓","category":"mart"}]},{"lat":"37.431019611","long":"126.79560134","imageIndex":7,"items":[{"name":"시흥그린슈퍼","tel":"031-311-3611","addr":"경기도 시흥시 은행동 289-1번지","indutype":"소매업 - 슈퍼마켓","category":"mart"}]},{"lat":"37.439158222","long":"126.79707044","imageIndex":7,"items":[{"name":"아이스크림 전문점","tel":"","addr":"경기도 시흥시 은행동 547-4번지 경동프라자 101호","indutype":"소매업 - 슈퍼","category":"mart"}]},{"lat":"37.438184042","long":"126.79644034","imageIndex":7,"items":[{"name":"엘마트㈜- 시흥","tel":"031-404-6750","addr":"경기도 시흥시 은행동 105-14번지","indutype":"소매업 - 슈퍼","category":"mart"}]},{"lat":"37.435913656","long":"126.80174587","imageIndex":7,"items":[{"name":"올인원아이스크림시흥은계점","tel":"","addr":"경기도 시흥시 은행동 644번지 판매시설동 111호","indutype":"소매업 - 슈퍼마켓","category":"mart"},{"name":"은계홈마트","tel":"031-318-8985","addr":"경기도 시흥시 은행동 644번지 시흥은계호반써밋플레이스 호반써밋상가 135~139호","indutype":"소매업 - 마트","category":"mart"}]},{"lat":"37.443542416","long":"126.80015471","imageIndex":7,"items":[{"name":"은행동 우리농산물","tel":"031-318-6876","addr":"경기도 시흥시 은행동 540-3번지","indutype":"소매업 - 슈퍼마켓","category":"mart"}]},{"lat":"37.434877126","long":"126.79630254","imageIndex":7,"items":[{"name":"은행마트","tel":"031-311-1354","addr":"경기도 시흥시 은행동 248-70번지","indutype":"소매업 - 슈퍼마켓","category":"mart"}]},{"lat":"37.433634164","long":"126.79654323","imageIndex":7,"items":[{"name":"이레마트","tel":"031-404-6181","addr":"경기도 시흥시 은행동 252-53번지 진성빌라 1층","indutype":"소매업 - 슈퍼","category":"mart"}]},{"lat":"37.439550867","long":"126.80540853","imageIndex":7,"items":[{"name":"플러스마트","tel":"031-435-5675","addr":"경기도 시흥시 은행동 632번지 네이처포레 상가동 101호","indutype":"소매업 - 슈퍼마켓","category":"mart"}]},{"lat":"37.437767982","long":"126.79552623","imageIndex":7,"items":[{"name":"학생서점문구","tel":"031-313-6805","addr":"경기도 시흥시 은행동 105-7번지","indutype":"소매업 - 문구,서적,슈퍼","category":"mart"}]}]