[{"lat":"37.903684695","long":"127.05378669","imageIndex":4,"items":[{"name":"(주)미다운","tel":"031-858-5041","addr":"경기도 동두천시 생연동 666-25번지 2층","indutype":"일반휴게음식 - 서양음식","category":"restaurant"}]},{"lat":"37.90935785","long":"127.05970361","imageIndex":4,"items":[{"name":"1동별미식당","tel":"031-862-1284","addr":"경기도 동두천시 생연동 498-10번지","indutype":"일반휴게음식 - 일반한식","category":"restaurant"}]},{"lat":"37.896743472","long":"127.06242252","imageIndex":4,"items":[{"name":"1박2일","tel":"031-862-1118","addr":"경기도 동두천시 생연동 342-4번지","indutype":"일반휴게음식 - 주점","category":"restaurant"},{"name":"내고향포차","tel":"","addr":"경기도 동두천시 생연동 342-4번지 106호","indutype":"일반휴게음식 - 일반한식","category":"restaurant"},{"name":"스시 마코토","tel":"031-861-9982","addr":"경기도 동두천시 생연동 342-4번지","indutype":"일반휴게음식 - 일식·회집","category":"restaurant"},{"name":"원샷호프","tel":"031-862-4207","addr":"경기도 동두천시 생연동 342-4번지 104호","indutype":"일반휴게음식 - 주점","category":"restaurant"},{"name":"콩죽 팥죽","tel":"031-867-7151","addr":"경기도 동두천시 생연동 342-4번지 108호","indutype":"일반휴게음식 - 일반한식","category":"restaurant"}]},{"lat":"37.908379018","long":"127.05267557","imageIndex":4,"items":[{"name":"39번종점","tel":"031-838-7232","addr":"경기도 동두천시 생연동 585-145번지","indutype":"일반휴게음식 - 일반한식","category":"restaurant"}]},{"lat":"37.912828241","long":"127.05581715","imageIndex":4,"items":[{"name":"4동뼈다귀해장국","tel":"031-861-0885","addr":"경기도 동두천시 생연동 570-7번지","indutype":"일반휴게음식 - 일반한식","category":"restaurant"}]},{"lat":"37.899356533","long":"127.06170834","imageIndex":4,"items":[{"name":"59쌀피자(생연동)","tel":"031-859-5933","addr":"경기도 동두천시 생연동 385-1번지","indutype":"일반휴게음식 - 서양음식","category":"restaurant"}]},{"lat":"37.912044596","long":"127.0554527","imageIndex":4,"items":[{"name":"59피자","tel":"031-857-5984","addr":"경기도 동두천시 생연동 570-26번지","indutype":"일반휴게음식 - 서양음식","category":"restaurant"}]},{"lat":"37.900050963","long":"127.06026494","imageIndex":4,"items":[{"name":"BBQ 생연점","tel":"031-864-9582","addr":"경기도 동두천시 생연동 391-1번지 104호","indutype":"일반휴게음식 - 스넥","category":"restaurant"},{"name":"뚱보족발","tel":"031-859-7676","addr":"경기도 동두천시 생연동 391-1번지","indutype":"일반휴게음식 - 일반한식","category":"restaurant"},{"name":"카페맥","tel":"031-862-1128","addr":"경기도 동두천시 생연동 391-1번지","indutype":"일반휴게음식 - 서양음식","category":"restaurant"}]},{"lat":"37.903519992","long":"127.05934664","imageIndex":4,"items":[{"name":"BC800","tel":"031-823-6054","addr":"경기도 동두천시 생연동 440-2번지","indutype":"일반휴게음식 - 서양음식","category":"restaurant"}]},{"lat":"37.903046075","long":"127.05131892","imageIndex":4,"items":[{"name":"DDC 부대찌개","tel":"","addr":"경기도 동두천시 생연동 823-182번지 1층","indutype":"일반휴게음식 - 일반한식","category":"restaurant"}]},{"lat":"37.906658405","long":"127.0522878","imageIndex":4,"items":[{"name":"NEW고대닭발","tel":"031-865-8258","addr":"경기도 동두천시 생연동 589-52번지","indutype":"일반휴게음식 - 일반한식","category":"restaurant"}]},{"lat":"37.904323621","long":"127.05545858","imageIndex":4,"items":[{"name":"가마소","tel":"031-868-8863","addr":"경기도 동두천시 생연동 645-14번지","indutype":"일반휴게음식 - 일반한식","category":"restaurant"}]},{"lat":"37.901109324","long":"127.05070368","imageIndex":4,"items":[{"name":"가화","tel":"031-858-8539","addr":"경기도 동두천시 생연동 814-1번지","indutype":"일반휴게음식 - 일반한식","category":"restaurant"},{"name":"골목포차","tel":"","addr":"경기도 동두천시 생연동 814-1번지 1층","indutype":"일반휴게음식 - 일반한식","category":"restaurant"},{"name":"노다지","tel":"031-861-0021","addr":"경기도 동두천시 생연동 814-1번지 1층","indutype":"일반휴게음식 - 일반한식","category":"restaurant"},{"name":"단비","tel":"031-863-5089","addr":"경기도 동두천시 생연동 814-1번지","indutype":"일반휴게음식 - 일반한식","category":"restaurant"},{"name":"대박2","tel":"031-868-4331","addr":"경기도 동두천시 생연동 814-1번지","indutype":"일반휴게음식 - 일반한식","category":"restaurant"},{"name":"림보","tel":"031-863-3535","addr":"경기도 동두천시 생연동 814-1번지 42호","indutype":"일반휴게음식 - 일반한식","category":"restaurant"},{"name":"물보라","tel":"031-868-1857","addr":"경기도 동두천시 생연동 814-1 제17호","indutype":"일반휴게음식 - 서양음식","category":"restaurant"},{"name":"별님","tel":"031-868-3184","addr":"경기도 동두천시 생연동 814-1번지 1층","indutype":"일반휴게음식 - 일반한식","category":"restaurant"},{"name":"보리밭","tel":"031-859-8573","addr":"경기도 동두천시 생연동 814-1번지","indutype":"일반휴게음식 - 일반한식","category":"restaurant"},{"name":"북경불고기판점","tel":"031-222-2222","addr":"경기도 동두천시 생연동 814-1번지","indutype":"일반휴게음식 - 일반한식","category":"restaurant"},{"name":"비몽","tel":"031-864-1706","addr":"경기도 동두천시 생연동 814-1번지","indutype":"일반휴게음식 - 일반한식","category":"restaurant"},{"name":"아모르","tel":"031-864-4940","addr":"경기도 동두천시 생연동 814-1","indutype":"일반휴게음식 - 일반한식","category":"restaurant"},{"name":"앵두","tel":"031-861-8766","addr":"경기도 동두천시 생연동 814-1번지 1층","indutype":"일반휴게음식 - 일반한식","category":"restaurant"},{"name":"야생초","tel":"031-864-7004","addr":"경기도 동두천시 생연동 814-1번지","indutype":"일반휴게음식 - 일반한식","category":"restaurant"},{"name":"야화","tel":"031-861-3990","addr":"경기도 동두천시 생연동 814-1번지","indutype":"일반휴게음식 - 일반한식","category":"restaurant"},{"name":"연못","tel":"031-861-4665","addr":"경기도 동두천시 생연동 814-1번지","indutype":"일반휴게음식 - 일반한식","category":"restaurant"},{"name":"짝꿍","tel":"031-861-7144","addr":"경기도 동두천시 생연동 814-1번지","indutype":"일반휴게음식 - 일반한식","category":"restaurant"},{"name":"하나","tel":"031-861-8539","addr":"경기도 동두천시 생연동 814-1","indutype":"일반휴게음식 - 주점","category":"restaurant"}]},{"lat":"37.900383764","long":"127.06136807","imageIndex":4,"items":[{"name":"가화만사흥","tel":"031-859-4092","addr":"경기도 동두천시 생연동 407-8번지","indutype":"일반휴게음식 - 일반한식","category":"restaurant"},{"name":"인투LA","tel":"031-861-5588","addr":"경기도 동두천시 생연동 407-8번지","indutype":"일반휴게음식 - 서양음식","category":"restaurant"}]},{"lat":"37.897079559","long":"127.05672679","imageIndex":4,"items":[{"name":"간절곶횟집","tel":"031-863-1005","addr":"경기도 동두천시 생연동 754-12번지 103호 102호,103호","indutype":"일반휴게음식 - 일반한식","category":"restaurant"},{"name":"샘터닭발","tel":"031-858-9181","addr":"경기도 동두천시 생연동 754-12번지 2동 104호","indutype":"일반휴게음식 - 일반한식","category":"restaurant"},{"name":"솜씨왕 생 고기집","tel":"031-867-8886","addr":"경기도 동두천시 생연동 754-12번지","indutype":"일반휴게음식 - 일반한식","category":"restaurant"},{"name":"워낭소리","tel":"031-857-3434","addr":"경기도 동두천시 생연동 754-12번지 2동 2호","indutype":"일반휴게음식 - 일반한식","category":"restaurant"},{"name":"호연이네포차","tel":"031-863-1005","addr":"경기도 동두천시 생연동 754-12번지 1동 101호","indutype":"일반휴게음식 - 일반한식","category":"restaurant"}]},{"lat":"37.910495643","long":"127.0539847","imageIndex":4,"items":[{"name":"갈매기숯불소금구이","tel":"031-865-1990","addr":"경기도 동두천시 생연동 579-9번지","indutype":"일반휴게음식 - 일반한식","category":"restaurant"}]},{"lat":"37.900410486","long":"127.06198205","imageIndex":4,"items":[{"name":"갑순이네떡볶이","tel":"031-867-6835","addr":"경기도 동두천시 생연동 406-1번지","indutype":"일반휴게음식 - 일반한식","category":"restaurant"},{"name":"완도식당","tel":"031-864-7895","addr":"경기도 동두천시 생연동 406-1번지","indutype":"일반휴게음식 - 일반한식","category":"restaurant"}]},{"lat":"37.902379259","long":"127.05162548","imageIndex":4,"items":[{"name":"강변공원","tel":"031-865-2076","addr":"경기도 동두천시 생연동 822-14번지","indutype":"일반휴게음식 - 일반한식","category":"restaurant"},{"name":"어랑해장국","tel":"031-863-1989","addr":"경기도 동두천시 생연동 822-14번지","indutype":"일반휴게음식 - 일반한식","category":"restaurant"}]},{"lat":"37.904270819","long":"127.05257047","imageIndex":4,"items":[{"name":"강스시","tel":"031-865-8259","addr":"경기도 동두천시 생연동 660-50번지","indutype":"일반휴게음식 - 일식·회집","category":"restaurant"}]},{"lat":"37.898999195","long":"127.05528425","imageIndex":4,"items":[{"name":"강호족발","tel":"031-862-2008","addr":"경기도 동두천시 생연동 712번지","indutype":"일반휴게음식 - 일반한식","category":"restaurant"}]},{"lat":"37.90241244","long":"127.05809508","imageIndex":4,"items":[{"name":"개성왕족발","tel":"031-863-2927","addr":"경기도 동두천시 생연동 426-5번지","indutype":"일반휴게음식 - 일반한식","category":"restaurant"}]},{"lat":"37.903298499","long":"127.05092113","imageIndex":4,"items":[{"name":"거북이삼겹살","tel":"031-846-3229","addr":"경기도 동두천시 생연동 820-12번지","indutype":"일반휴게음식 - 일반한식","category":"restaurant"}]},{"lat":"37.906964769","long":"127.0521743","imageIndex":4,"items":[{"name":"거제도식당","tel":"031-866-7882","addr":"경기도 동두천시 생연동 825-22번지","indutype":"일반휴게음식 - 일반한식","category":"restaurant"}]},{"lat":"37.908829661","long":"127.05225514","imageIndex":4,"items":[{"name":"고기랑냉면","tel":"031-836-8255","addr":"경기도 동두천시 생연동 578-31번지","indutype":"일반휴게음식 - 일반한식","category":"restaurant"}]},{"lat":"37.906021858","long":"127.06476098","imageIndex":4,"items":[{"name":"고려설렁탕","tel":"031-858-0048","addr":"경기도 동두천시 생연동 213-7번지","indutype":"일반휴게음식 - 일반한식","category":"restaurant"},{"name":"속초상회","tel":"031-858-0048","addr":"경기도 동두천시 생연동 213-7번지","indutype":"일반휴게음식 - 일반한식","category":"restaurant"}]},{"lat":"37.89891523","long":"127.06140101","imageIndex":4,"items":[{"name":"고박사족발.보쌈","tel":"031-866-5672","addr":"경기도 동두천시 생연동 385-2번지","indutype":"일반휴게음식 - 일반한식","category":"restaurant"},{"name":"꼴통곱창","tel":"031-859-5002","addr":"경기도 동두천시 생연동 385-2번지","indutype":"일반휴게음식 - 일반한식","category":"restaurant"},{"name":"꼴통곱창","tel":"031-859-5002","addr":"경기도 동두천시 생연동 385-2번지","indutype":"일반휴게음식 - 일반한식","category":"restaurant"},{"name":"사동뼈해장국에이스","tel":"031-861-6506","addr":"경기도 동두천시 생연동 385-2번지","indutype":"일반휴게음식 - 일반한식","category":"restaurant"},{"name":"양평해장국동두천점","tel":"031-863-3683","addr":"경기도 동두천시 생연동 385-2번지","indutype":"일반휴게음식 - 일반한식","category":"restaurant"},{"name":"치킨플러스(동두천 생연점)","tel":"02-000-0000","addr":"경기도 동두천시 생연동 385-2번지","indutype":"일반휴게음식 - 스넥","category":"restaurant"}]},{"lat":"37.908692137","long":"127.05764493","imageIndex":4,"items":[{"name":"고향식당","tel":"031-862-7277","addr":"경기도 동두천시 생연동 489-15번지","indutype":"일반휴게음식 - 스넥","category":"restaurant"},{"name":"해물칼국수","tel":"031-862-6113","addr":"경기도 동두천시 생연동 489-15번지","indutype":"일반휴게음식 - 일반한식","category":"restaurant"}]},{"lat":"37.909855398","long":"127.05531469","imageIndex":4,"items":[{"name":"곤지암할매소머리국밥","tel":"031-862-8150","addr":"경기도 동두천시 생연동 555-4번지","indutype":"일반휴게음식 - 일반한식","category":"restaurant"}]},{"lat":"37.900383668","long":"127.06156135","imageIndex":4,"items":[{"name":"구구수산","tel":"031-865-9919","addr":"경기도 동두천시 생연동 407-23번지","indutype":"일반휴게음식 - 일식·회집","category":"restaurant"}]},{"lat":"37.90591408","long":"127.06412413","imageIndex":4,"items":[{"name":"구양주골","tel":"031-861-0150","addr":"경기도 동두천시 생연동 227-2번지","indutype":"일반휴게음식 - 일반한식","category":"restaurant"}]},{"lat":"37.909132738","long":"127.05945327","imageIndex":4,"items":[{"name":"국수랑놀자","tel":"031-868-4946","addr":"경기도 동두천시 생연동 498-33번지","indutype":"일반휴게음식 - 일반한식","category":"restaurant"},{"name":"사랑이네","tel":"031-866-0077","addr":"경기도 동두천시 생연동 498-33번지","indutype":"일반휴게음식 - 일반한식","category":"restaurant"},{"name":"사랑이네식당","tel":"031-866-0077","addr":"경기도 동두천시 생연동 498-33번지","indutype":"일반휴게음식 - 일반한식","category":"restaurant"}]},{"lat":"37.908685325","long":"127.05269852","imageIndex":4,"items":[{"name":"군산아구찜","tel":"031-867-3794","addr":"경기도 동두천시 생연동 578-5번지","indutype":"일반휴게음식 - 일반한식","category":"restaurant"}]},{"lat":"37.908324823","long":"127.05300529","imageIndex":4,"items":[{"name":"굿타임","tel":"031-866-7982","addr":"경기도 동두천시 생연동 586-25번지","indutype":"일반휴게음식 - 주점","category":"restaurant"}]},{"lat":"37.908386433","long":"127.0563143","imageIndex":4,"items":[{"name":"귀빈식당","tel":"031-861-8788","addr":"경기도 동두천시 생연동 619-3번지 지하1층","indutype":"일반휴게음식 - 일반한식","category":"restaurant"}]},{"lat":"37.892717122","long":"127.07686877","imageIndex":4,"items":[{"name":"그린나래","tel":"031-858-4749","addr":"경기도 동두천시 생연동 19-1번지 1층","indutype":"일반휴게음식 - 일반한식","category":"restaurant"}]},{"lat":"37.894520731","long":"127.07403973","imageIndex":4,"items":[{"name":"그린힐경양식","tel":"031-861-0802","addr":"경기도 동두천시 생연동 38번지","indutype":"일반휴게음식 - 서양음식","category":"restaurant"}]},{"lat":"37.904692982","long":"127.05550433","imageIndex":4,"items":[{"name":"그시절그맛","tel":"031-863-0613","addr":"경기도 동두천시 생연동 645-38번지","indutype":"일반휴게음식 - 일반한식","category":"restaurant"}]},{"lat":"37.895746217","long":"127.05664623","imageIndex":4,"items":[{"name":"금락횟집","tel":"","addr":"경기도 동두천시 생연동 747-7번지 1층","indutype":"일반휴게음식 - 일반한식","category":"restaurant"}]},{"lat":"37.902053316","long":"127.05536601","imageIndex":4,"items":[{"name":"기장꼼장어","tel":"031-857-6402","addr":"경기도 동두천시 생연동 684-2번지","indutype":"일반휴게음식 - 일반한식","category":"restaurant"},{"name":"이어정아구찜","tel":"031-864-1370","addr":"경기도 동두천시 생연동 684-2번지","indutype":"일반휴게음식 - 일반한식","category":"restaurant"}]},{"lat":"37.901936889","long":"127.05378549","imageIndex":4,"items":[{"name":"길손식당","tel":"031-862-0511","addr":"경기도 동두천시 생연동 686-3번지","indutype":"일반휴게음식 - 일반한식","category":"restaurant"}]},{"lat":"37.906107341","long":"127.05573275","imageIndex":4,"items":[{"name":"김가네 삼계 생고기","tel":"031-859-4721","addr":"경기도 동두천시 생연동 600-4번지","indutype":"일반휴게음식 - 일반한식","category":"restaurant"}]},{"lat":"37.905351451","long":"127.05370825","imageIndex":4,"items":[{"name":"김밥천국","tel":"031-862-8585","addr":"경기도 동두천시 생연동 593-4번지","indutype":"일반휴게음식 - 일반한식","category":"restaurant"},{"name":"버팔로바베큐","tel":"031-861-1999","addr":"경기도 동두천시 생연동 593-4번지 5층","indutype":"일반휴게음식 - 일반한식","category":"restaurant"}]},{"lat":"37.899518507","long":"127.06209504","imageIndex":4,"items":[{"name":"깔깔이떡볶이","tel":"031-861-8832","addr":"경기도 동두천시 생연동 397-1번지","indutype":"일반휴게음식 - 스넥","category":"restaurant"},{"name":"더블킹커피에이스점","tel":"031-868-8259","addr":"경기도 동두천시 생연동 397-1번지","indutype":"일반휴게음식 - 서양음식","category":"restaurant"},{"name":"청춘핫도그 생연점","tel":"031-111-1111","addr":"경기도 동두천시 생연동 397-1번지 외1필지","indutype":"일반휴게음식 - 서양음식","category":"restaurant"},{"name":"하리똥바베큐","tel":"031-859-6963","addr":"경기도 동두천시 생연동 397-1","indutype":"일반휴게음식 - 스넥","category":"restaurant"},{"name":"형제부대찌개","tel":"031-861-8728","addr":"경기도 동두천시 생연동 397-1번지 2호","indutype":"일반휴게음식 - 일반한식","category":"restaurant"}]},{"lat":"37.90977198","long":"127.06031797","imageIndex":4,"items":[{"name":"깡돈","tel":"","addr":"경기도 동두천시 생연동 516-3번지 1층","indutype":"일반휴게음식 - 일반한식","category":"restaurant"}]},{"lat":"37.908657034","long":"127.05559812","imageIndex":4,"items":[{"name":"꼬꼬마김밥","tel":"02-000-0000","addr":"경기도 동두천시 생연동 615-31번지 1층","indutype":"일반휴게음식 - 스넥","category":"restaurant"}]},{"lat":"37.901192576","long":"127.06531406","imageIndex":4,"items":[{"name":"꼬꼬치킨","tel":"031-865-0373","addr":"경기도 동두천시 생연동 268번지","indutype":"일반휴게음식 - 일반한식","category":"restaurant"},{"name":"어수정","tel":"031-863-8896","addr":"경기도 동두천시 생연동 268번지","indutype":"일반휴게음식 - 일반한식","category":"restaurant"}]},{"lat":"37.905802635","long":"127.05201434","imageIndex":4,"items":[{"name":"꼼장어포차","tel":"031-859-9291","addr":"경기도 동두천시 생연동 589-71번지","indutype":"일반휴게음식 - 일반한식","category":"restaurant"}]},{"lat":"37.900303455","long":"127.0597876","imageIndex":4,"items":[{"name":"꽃돼지","tel":"070-4065-6401","addr":"경기도 동두천시 생연동 412-5번지","indutype":"일반휴게음식 - 일반한식","category":"restaurant"},{"name":"대구막창구이","tel":"031-861-8999","addr":"경기도 동두천시 생연동 412-5번지","indutype":"일반휴게음식 - 일반한식","category":"restaurant"},{"name":"미스터바베큐","tel":"031-863-3541","addr":"경기도 동두천시 생연동 412-5번지","indutype":"일반휴게음식 - 일반한식","category":"restaurant"},{"name":"해물먹거리세상","tel":"031-864-0255","addr":"경기도 동두천시 생연동 412-5번지","indutype":"일반휴게음식 - 일반한식","category":"restaurant"}]},{"lat":"37.900081351","long":"127.05289737","imageIndex":4,"items":[{"name":"나그네집","tel":"031-861-9187","addr":"경기도 동두천시 생연동 696-3번지 평화빌딩 110호","indutype":"일반휴게음식 - 일반한식","category":"restaurant"},{"name":"산까치식당","tel":"031-868-2541","addr":"경기도 동두천시 생연동 696-3번지 지층1층","indutype":"일반휴게음식 - 일반한식","category":"restaurant"},{"name":"수제고로케","tel":"031-865-8253","addr":"경기도 동두천시 생연동 696-3번지 삼풍빌딩 1층","indutype":"일반휴게음식 - 일반한식","category":"restaurant"}]},{"lat":"37.903656759","long":"127.0558447","imageIndex":4,"items":[{"name":"나날이","tel":"031-865-6390","addr":"경기도 동두천시 생연동 641-5번지","indutype":"일반휴게음식 - 일반한식","category":"restaurant"}]},{"lat":"37.897604776","long":"127.0691425","imageIndex":4,"items":[{"name":"남촌","tel":"031-862-5277","addr":"경기도 동두천시 생연동 57-5번지","indutype":"일반휴게음식 - 일반한식","category":"restaurant"}]},{"lat":"37.908352616","long":"127.05117458","imageIndex":4,"items":[{"name":"남춘천식당","tel":"031-862-7944","addr":"경기도 동두천시 생연동 829-19번지","indutype":"일반휴게음식 - 일반한식","category":"restaurant"}]},{"lat":"37.898963816","long":"127.05378344","imageIndex":4,"items":[{"name":"남해수산 회직판장(동두천점)","tel":"031-867-8885","addr":"경기도 동두천시 생연동 713-2번지 1층","indutype":"일반휴게음식 - 일식·회집","category":"restaurant"}]},{"lat":"37.905469352","long":"127.0518663","imageIndex":4,"items":[{"name":"너랑나랑","tel":"031-862-2419","addr":"경기도 동두천시 생연동 589-79번지 2층","indutype":"일반휴게음식 - 주점","category":"restaurant"},{"name":"투다리","tel":"031-862-3926","addr":"경기도 동두천시 생연동 589-79번지","indutype":"일반휴게음식 - 주점","category":"restaurant"}]},{"lat":"37.898772432","long":"127.05861536","imageIndex":4,"items":[{"name":"네네치킨","tel":"031-862-9298","addr":"경기도 동두천시 생연동 369-7번지","indutype":"일반휴게음식 - 일반한식","category":"restaurant"},{"name":"원조다래솥뚜껑","tel":"031-868-5353","addr":"경기도 동두천시 생연동 369-7번지","indutype":"일반휴게음식 - 일반한식","category":"restaurant"}]},{"lat":"37.909548226","long":"127.05720209","imageIndex":4,"items":[{"name":"네네치킨 중앙점","tel":"031-861-2234","addr":"경기도 동두천시 생연동 551-34번지","indutype":"일반휴게음식 - 스넥","category":"restaurant"}]},{"lat":"37.904964314","long":"127.05309398","imageIndex":4,"items":[{"name":"노고지리","tel":"031-865-8650","addr":"경기도 동두천시 생연동 592-11번지","indutype":"일반휴게음식 - 일반한식","category":"restaurant"}]},{"lat":"37.908442327","long":"127.05209569","imageIndex":4,"items":[{"name":"노랑곰팡이","tel":"031-859-7243","addr":"경기도 동두천시 생연동 585-122번지","indutype":"일반휴게음식 - 서양음식","category":"restaurant"}]},{"lat":"37.900024538","long":"127.05901425","imageIndex":4,"items":[{"name":"논도랑추어탕","tel":"031-857-0878","addr":"경기도 동두천시 생연동 415번지 1층","indutype":"일반휴게음식 - 일반한식","category":"restaurant"}]},{"lat":"37.902684984","long":"127.05303558","imageIndex":4,"items":[{"name":"놀러와","tel":"031-868-8080","addr":"경기도 동두천시 생연동 688-52번지","indutype":"일반휴게음식 - 서양음식","category":"restaurant"}]},{"lat":"37.904073056","long":"127.05151289","imageIndex":4,"items":[{"name":"누룽지백숙","tel":"031-858-2321","addr":"경기도 동두천시 생연동 823-53번지","indutype":"일반휴게음식 - 일반한식","category":"restaurant"}]},{"lat":"37.904496461","long":"127.05159276","imageIndex":4,"items":[{"name":"눈보라식당","tel":"031-863-8573","addr":"경기도 동두천시 생연동 823-146번지","indutype":"일반휴게음식 - 일반한식","category":"restaurant"},{"name":"양구가마솥손두부","tel":"031-868-1711","addr":"경기도 동두천시 생연동 823-146번지","indutype":"일반휴게음식 - 일반한식","category":"restaurant"}]},{"lat":"37.908712663","long":"127.05195942","imageIndex":4,"items":[{"name":"뉴체어맨","tel":"","addr":"경기도 동두천시 생연동 828-2번지","indutype":"일반휴게음식 - 일반한식","category":"restaurant"},{"name":"종로빈대떡","tel":"031-867-3030","addr":"경기도 동두천시 생연동 828-2번지 동광극장","indutype":"일반휴게음식 - 일반한식","category":"restaurant"}]},{"lat":"37.899550993","long":"127.05000912","imageIndex":4,"items":[{"name":"늘푸른식당","tel":"031-862-9894","addr":"경기도 동두천시 생연동 714번지 1동 101호","indutype":"일반휴게음식 - 일반한식","category":"restaurant"}]},{"lat":"37.90077528","long":"127.05239757","imageIndex":4,"items":[{"name":"다래보리밥","tel":"031-862-7600","addr":"경기도 동두천시 생연동 813-3번지","indutype":"일반휴게음식 - 일반한식","category":"restaurant"}]},{"lat":"37.908189823","long":"127.05267544","imageIndex":4,"items":[{"name":"다복식당","tel":"070-7782-2292","addr":"경기도 동두천시 생연동 586-4번지","indutype":"일반휴게음식 - 일반한식","category":"restaurant"}]},{"lat":"37.900387927","long":"127.05228361","imageIndex":4,"items":[{"name":"다사랑","tel":"031-865-4444","addr":"경기도 동두천시 생연동 698-16번지","indutype":"일반휴게음식 - 일반한식","category":"restaurant"}]},{"lat":"37.908657603","long":"127.05431319","imageIndex":4,"items":[{"name":"다선죽","tel":"031-862-6059","addr":"경기도 동두천시 생연동 611-98번지","indutype":"일반휴게음식 - 일반한식","category":"restaurant"}]},{"lat":"37.901136486","long":"127.05037397","imageIndex":4,"items":[{"name":"다연","tel":"031-1111-1111","addr":"경기도 동두천시 생연동 814-5번지 1층 3호","indutype":"일반휴게음식 - 서양음식","category":"restaurant"},{"name":"시골보리밥","tel":"031-861-2825","addr":"경기도 동두천시 생연동 814-5번지","indutype":"일반휴게음식 - 일반한식","category":"restaurant"},{"name":"할매밥상","tel":"031-858-1211","addr":"경기도 동두천시 생연동 814-5번지","indutype":"일반휴게음식 - 일반한식","category":"restaurant"},{"name":"황금사과","tel":"031-866-8999","addr":"경기도 동두천시 생연동 814-5번지","indutype":"일반휴게음식 - 일반한식","category":"restaurant"}]},{"lat":"37.906937645","long":"127.0524017","imageIndex":4,"items":[{"name":"다온식당","tel":"031-858-9952","addr":"경기도 동두천시 생연동 589-45번지 1층","indutype":"일반휴게음식 - 일반한식","category":"restaurant"},{"name":"술창고","tel":"031-858-3683","addr":"경기도 동두천시 생연동 589-45번지","indutype":"일반휴게음식 - 일반한식","category":"restaurant"}]},{"lat":"37.903244303","long":"127.0512622","imageIndex":4,"items":[{"name":"다올호프","tel":"031-867-7877","addr":"경기도 동두천시 생연동 823-40번지","indutype":"일반휴게음식 - 주점","category":"restaurant"},{"name":"옛날시골집","tel":"031-864-8828","addr":"경기도 동두천시 생연동 823-40번지","indutype":"일반휴게음식 - 일반한식","category":"restaurant"}]},{"lat":"37.90196401","long":"127.05356948","imageIndex":4,"items":[{"name":"다원","tel":"031-862-0841","addr":"경기도 동두천시 생연동 686-4번지","indutype":"일반휴게음식 - 일반한식","category":"restaurant"}]},{"lat":"37.904719944","long":"127.05565216","imageIndex":4,"items":[{"name":"다원부대찌개","tel":"031-858-8998","addr":"경기도 동두천시 생연동 643-1번지","indutype":"일반휴게음식 - 일반한식","category":"restaurant"},{"name":"모범호프","tel":"031-862-7931","addr":"경기도 동두천시 생연동 643-1번지","indutype":"일반휴게음식 - 주점","category":"restaurant"},{"name":"이천식당","tel":"031-867-3637","addr":"경기도 동두천시 생연동 643-1번지","indutype":"일반휴게음식 - 일반한식","category":"restaurant"}]},{"lat":"37.908630876","long":"127.05361953","imageIndex":4,"items":[{"name":"다원실내포장마차","tel":"031-858-7010","addr":"경기도 동두천시 생연동 610-2번지","indutype":"일반휴게음식 - 일반한식","category":"restaurant"}]},{"lat":"37.908351942","long":"127.05278926","imageIndex":4,"items":[{"name":"다인호프","tel":"031-861-2223","addr":"경기도 동두천시 생연동 586-2번지 2층","indutype":"일반휴게음식 - 주점","category":"restaurant"}]},{"lat":"37.900577863","long":"127.05048731","imageIndex":4,"items":[{"name":"달보드레보리빵","tel":"","addr":"경기도 동두천시 생연동 809번지 지층 47,48호","indutype":"일반휴게음식 - 일반한식","category":"restaurant"}]},{"lat":"37.911603302","long":"127.0550885","imageIndex":4,"items":[{"name":"대기철판요리","tel":"031-858-7852","addr":"경기도 동두천시 생연동 570-37번지","indutype":"일반휴게음식 - 일반한식","category":"restaurant"}]},{"lat":"37.906162754","long":"127.05261722","imageIndex":4,"items":[{"name":"대도식당","tel":"031-858-3894","addr":"경기도 동두천시 생연동 590-6번지","indutype":"일반휴게음식 - 일반한식","category":"restaurant"},{"name":"산머루","tel":"031-111-1111","addr":"경기도 동두천시 생연동 590-6번지 충무빌딩","indutype":"일반휴게음식 - 일반한식","category":"restaurant"},{"name":"해피타임호프","tel":"031-865-2711","addr":"경기도 동두천시 생연동 590-6번지 2층","indutype":"일반휴게음식 - 주점","category":"restaurant"}]},{"lat":"37.908775322","long":"127.052926","imageIndex":4,"items":[{"name":"대동곱창","tel":"031-865-2178","addr":"경기도 동두천시 생연동 584-23번지","indutype":"일반휴게음식 - 일반한식","category":"restaurant"}]},{"lat":"37.897610488","long":"127.05806876","imageIndex":4,"items":[{"name":"대박","tel":"031-866-2360","addr":"경기도 동두천시 생연동 361-22번지","indutype":"일반휴게음식 - 일반한식","category":"restaurant"}]},{"lat":"37.908045005","long":"127.05423316","imageIndex":4,"items":[{"name":"대박삼겹살","tel":"","addr":"경기도 동두천시 생연동 611-4번지 101,102호","indutype":"일반휴게음식 - 일반한식","category":"restaurant"},{"name":"카페캐빈","tel":"031-1111-1111","addr":"경기도 동두천시 생연동 611-4번지 1층 112호","indutype":"일반휴게음식 - 서양음식","category":"restaurant"}]},{"lat":"37.903909903","long":"127.0538437","imageIndex":4,"items":[{"name":"대성삼계탕","tel":"031-864-4177","addr":"경기도 동두천시 생연동 666-18번지","indutype":"일반휴게음식 - 일반한식","category":"restaurant"}]},{"lat":"37.908629288","long":"127.05717867","imageIndex":4,"items":[{"name":"대패삼겹살","tel":"031-859-9326","addr":"경기도 동두천시 생연동 488-5","indutype":"일반휴게음식 - 일반한식","category":"restaurant"}]},{"lat":"37.902053387","long":"127.05520683","imageIndex":4,"items":[{"name":"대한식당","tel":"031-863-8752","addr":"경기도 동두천시 생연동 684-20번지","indutype":"일반휴게음식 - 일반한식","category":"restaurant"}]},{"lat":"37.905352662","long":"127.05082013","imageIndex":4,"items":[{"name":"대해식당","tel":"031-867-5246","addr":"경기도 동두천시 생연동 818-52번지","indutype":"일반휴게음식 - 일반한식","category":"restaurant"}]},{"lat":"37.905162721","long":"127.05261655","imageIndex":4,"items":[{"name":"대호숯불갈비","tel":"031-865-9555","addr":"경기도 동두천시 생연동 659-32번지","indutype":"일반휴게음식 - 일반한식","category":"restaurant"}]},{"lat":"37.900937375","long":"127.05256823","imageIndex":4,"items":[{"name":"대흥구구식당","tel":"031-864-0015","addr":"경기도 동두천시 생연동 689-21번지 1층","indutype":"일반휴게음식 - 일반한식","category":"restaurant"},{"name":"해금강","tel":"031-863-2527","addr":"경기도 동두천시 생연동 689-21번지","indutype":"일반휴게음식 - 서양음식","category":"restaurant"}]},{"lat":"37.901990945","long":"127.05378553","imageIndex":4,"items":[{"name":"더 (The) 군침","tel":"070-0000-0000","addr":"경기도 동두천시 생연동 686-6번지 청백빌딩 1층","indutype":"일반휴게음식 - 일반한식","category":"restaurant"}]},{"lat":"37.900077073","long":"127.06211822","imageIndex":4,"items":[{"name":"도니스 (DONNY'S)","tel":"031-866-6037","addr":"경기도 동두천시 생연동 400-5번지","indutype":"일반휴게음식 - 주점","category":"restaurant"},{"name":"쪼끼쪼끼","tel":"031-857-2929","addr":"경기도 동두천시 생연동 400-5번지","indutype":"일반휴게음식 - 주점","category":"restaurant"},{"name":"현가네","tel":"031-862-1163","addr":"경기도 동두천시 생연동 400-5번지","indutype":"일반휴게음식 - 일반한식","category":"restaurant"}]},{"lat":"37.898963449","long":"127.05462479","imageIndex":4,"items":[{"name":"도미노피자(동두천점)","tel":"031-866-3084","addr":"경기도 동두천시 생연동 713-1번지","indutype":"일반휴게음식 - 서양음식","category":"restaurant"},{"name":"명가장군왕족발","tel":"031-866-8285","addr":"경기도 동두천시 생연동 713-1번지 은혜 상가 101,102호","indutype":"일반휴게음식 - 일반한식","category":"restaurant"},{"name":"커피(COFEE)앤쥬우스(JUICE)","tel":"031-863-2564","addr":"경기도 동두천시 생연동 713-1번지","indutype":"일반휴게음식 - 서양음식","category":"restaurant"}]},{"lat":"37.910989237","long":"127.05822658","imageIndex":4,"items":[{"name":"돈마을","tel":"031-863-7440","addr":"경기도 동두천시 생연동 504-30번지","indutype":"일반휴게음식 - 일반한식","category":"restaurant"}]},{"lat":"37.897022605","long":"127.06272972","imageIndex":4,"items":[{"name":"돈몽분식","tel":"031-864-2791","addr":"경기도 동두천시 생연동 342-5 에이스상가 101","indutype":"일반휴게음식 - 스넥","category":"restaurant"},{"name":"술깨비","tel":"031-864-0219","addr":"경기도 동두천시 생연동 342-5번지 에이스 1층 104호","indutype":"일반휴게음식 - 일반한식","category":"restaurant"},{"name":"추억 만들기","tel":"","addr":"경기도 동두천시 생연동 342-5번지 에이스 상가 2층 201호","indutype":"일반휴게음식 - 주점","category":"restaurant"},{"name":"피자스쿨","tel":"031-864-1114","addr":"경기도 동두천시 생연동 342-5번지 에이스 상가 1층 103호","indutype":"일반휴게음식 - 서양음식","category":"restaurant"}]},{"lat":"37.895854494","long":"127.0562825","imageIndex":4,"items":[{"name":"돈앤짱","tel":"031-868-1555","addr":"경기도 동두천시 생연동 755-9번지","indutype":"일반휴게음식 - 일반한식","category":"restaurant"},{"name":"미소미","tel":"070-4176-9931","addr":"경기도 동두천시 생연동 755-9번지 102호","indutype":"일반휴게음식 - 일반한식","category":"restaurant"}]},{"lat":"37.904108313","long":"127.05336628","imageIndex":4,"items":[{"name":"돈이야","tel":"031-836-8949","addr":"경기도 동두천시 생연동 665-32번지 외2필지 나동","indutype":"일반휴게음식 - 일반한식","category":"restaurant"}]},{"lat":"37.901441675","long":"127.05309158","imageIndex":4,"items":[{"name":"동네호프","tel":"031-857-3300","addr":"경기도 동두천시 생연동 688-18번지 1층","indutype":"일반휴게음식 - 주점","category":"restaurant"}]},{"lat":"37.904801532","long":"127.05451517","imageIndex":4,"items":[{"name":"동대문식당","tel":"031-861-5889","addr":"경기도 동두천시 생연동 650-3번지","indutype":"일반휴게음식 - 일반한식","category":"restaurant"}]},{"lat":"37.907630567","long":"127.05425562","imageIndex":4,"items":[{"name":"동두천 브루어리","tel":"031-861-8833","addr":"경기도 동두천시 생연동 608-14번지 2층","indutype":"일반휴게음식 - 일반한식","category":"restaurant"}]},{"lat":"37.905576456","long":"127.05423145","imageIndex":4,"items":[{"name":"동두천라이브","tel":"031-865-7692","addr":"경기도 동두천시 생연동 595-1번지 3층","indutype":"일반휴게음식 - 주점","category":"restaurant"},{"name":"롯데리아동두천점","tel":"031-864-4343","addr":"경기도 동두천시 생연동 595-1번지","indutype":"일반휴게음식 - 서양음식","category":"restaurant"}]},{"lat":"37.905216973","long":"127.05215039","imageIndex":4,"items":[{"name":"동원생맥주","tel":"031-864-4049","addr":"경기도 동두천시 생연동 588-19번지","indutype":"일반휴게음식 - 서양음식","category":"restaurant"}]},{"lat":"37.89968946","long":"127.06253859","imageIndex":4,"items":[{"name":"동키치킨","tel":"031-863-9773","addr":"경기도 동두천시 생연동 397-3번지","indutype":"일반휴게음식 - 일반한식","category":"restaurant"}]},{"lat":"37.909378152","long":"127.05475716","imageIndex":4,"items":[{"name":"동키호프","tel":"031-861-0021","addr":"경기도 동두천시 생연동 611-94번지","indutype":"일반휴게음식 - 주점","category":"restaurant"}]},{"lat":"37.906271181","long":"127.05186683","imageIndex":4,"items":[{"name":"동태한그릇","tel":"031-862-0066","addr":"경기도 동두천시 생연동 825-38번지","indutype":"일반휴게음식 - 일반한식","category":"restaurant"}]},{"lat":"37.911801738","long":"127.05456555","imageIndex":4,"items":[{"name":"동해코다리찜","tel":"031-863-9185","addr":"경기도 동두천시 생연동 570-81번지","indutype":"일반휴게음식 - 일반한식","category":"restaurant"},{"name":"성연김밥","tel":"031-861-0021","addr":"경기도 동두천시 생연동 570-81번지 1층","indutype":"일반휴게음식 - 일반한식","category":"restaurant"}]},{"lat":"37.904631713","long":"127.05131996","imageIndex":4,"items":[{"name":"동해해물","tel":"031-865-2647","addr":"경기도 동두천시 생연동 824-18번지","indutype":"일반휴게음식 - 일반한식","category":"restaurant"}]},{"lat":"37.897268473","long":"127.05734087","imageIndex":4,"items":[{"name":"돼지네","tel":"031-866-4897","addr":"경기도 동두천시 생연동 745번지","indutype":"일반휴게음식 - 일반한식","category":"restaurant"}]},{"lat":"37.900019322","long":"127.05039599","imageIndex":4,"items":[{"name":"돼지네집","tel":"031-864-3129","addr":"경기도 동두천시 생연동 809-7번지 1층 돼지네집","indutype":"일반휴게음식 - 일반한식","category":"restaurant"},{"name":"장흥","tel":"031-863-8139","addr":"경기도 동두천시 생연동 809-7","indutype":"일반휴게음식 - 일반한식","category":"restaurant"},{"name":"큰시장빈대떡","tel":"031-861-3704","addr":"경기도 동두천시 생연동 809-7번지","indutype":"일반휴게음식 - 일반한식","category":"restaurant"}]},{"lat":"37.900881928","long":"127.05576312","imageIndex":4,"items":[{"name":"두꺼비생고기","tel":"031-866-2449","addr":"경기도 동두천시 생연동 707-16번지","indutype":"일반휴게음식 - 일반한식","category":"restaurant"}]},{"lat":"37.907631376","long":"127.05236805","imageIndex":4,"items":[{"name":"두꺼비실내포차","tel":"031-863-8487","addr":"경기도 동두천시 생연동 586-47번지","indutype":"일반휴게음식 - 일반한식","category":"restaurant"},{"name":"안","tel":"031-862-2227","addr":"경기도 동두천시 생연동 586-47번지","indutype":"일반휴게음식 - 서양음식","category":"restaurant"}]},{"lat":"37.905053314","long":"127.05559555","imageIndex":4,"items":[{"name":"두레박","tel":"031-868-0342","addr":"경기도 동두천시 생연동 644-2번지","indutype":"일반휴게음식 - 일반한식","category":"restaurant"},{"name":"수풀림식당","tel":"","addr":"경기도 동두천시 생연동 644-2번지","indutype":"일반휴게음식 - 일반한식","category":"restaurant"}]},{"lat":"37.906018271","long":"127.0534017","imageIndex":4,"items":[{"name":"둘리곱창","tel":"031-865-2433","addr":"경기도 동두천시 생연동 592-1번지","indutype":"일반휴게음식 - 일반한식","category":"restaurant"},{"name":"하이츠","tel":"031-867-6800","addr":"경기도 동두천시 생연동 592-1번지","indutype":"일반휴게음식 - 주점","category":"restaurant"},{"name":"해수산삼 황태해장국","tel":"031-868-7736","addr":"경기도 동두천시 생연동 592-1번지 1층 102호","indutype":"일반휴게음식 - 일반한식","category":"restaurant"}]},{"lat":"37.897580581","long":"127.06390121","imageIndex":4,"items":[{"name":"둘마니치킨(동두천점)","tel":"031-868-2282","addr":"경기도 동두천시 생연동 334번지 황금프라자 1층 104호","indutype":"일반휴게음식 - 스넥","category":"restaurant"},{"name":"미녀홍어","tel":"031-861-2087","addr":"경기도 동두천시 생연동 334번지 황금프라자","indutype":"일반휴게음식 - 일반한식","category":"restaurant"},{"name":"양쉐프'S 면공장","tel":"031-861-8832","addr":"경기도 동두천시 생연동 334번지 황금프라자 1층 107호","indutype":"일반휴게음식 - 중국식","category":"restaurant"},{"name":"캡틴","tel":"070-7435-3993","addr":"경기도 동두천시 생연동 334번지 황금프라자 105호","indutype":"일반휴게음식 - 서양음식","category":"restaurant"}]},{"lat":"37.901163459","long":"127.05051043","imageIndex":4,"items":[{"name":"둥지","tel":"031-868-0538","addr":"경기도 동두천시 생연동 814-2번지","indutype":"일반휴게음식 - 일반한식","category":"restaurant"}]},{"lat":"37.895935256","long":"127.05698744","imageIndex":4,"items":[{"name":"든든한식당","tel":"031-866-3641","addr":"경기도 동두천시 생연동 747-2번지","indutype":"일반휴게음식 - 일반한식","category":"restaurant"}]},{"lat":"37.900106238","long":"127.05770679","imageIndex":4,"items":[{"name":"딜리버리타운","tel":"031-863-3533","addr":"경기도 동두천시 생연동 730-11번지","indutype":"일반휴게음식 - 스넥","category":"restaurant"}]},{"lat":"37.905441986","long":"127.05267359","imageIndex":4,"items":[{"name":"따봉실내마차","tel":"031-862-3671","addr":"경기도 동두천시 생연동 659-8번지","indutype":"일반휴게음식 - 일반한식","category":"restaurant"},{"name":"반딧불","tel":"031-867-0886","addr":"경기도 동두천시 생연동 659-8번지","indutype":"일반휴게음식 - 일반한식","category":"restaurant"}]},{"lat":"37.906910722","long":"127.05215152","imageIndex":4,"items":[{"name":"뚝배기영양탕","tel":"031-857-1986","addr":"경기도 동두천시 생연동 825-23","indutype":"일반휴게음식 - 일반한식","category":"restaurant"}]},{"lat":"37.905442277","long":"127.05197999","imageIndex":4,"items":[{"name":"뚱이네","tel":"070-4763-5711","addr":"경기도 동두천시 생연동 589-78번지","indutype":"일반휴게음식 - 일반한식","category":"restaurant"}]},{"lat":"37.901018603","long":"127.05222718","imageIndex":4,"items":[{"name":"라희커피","tel":"02-000-0000","addr":"경기도 동두천시 생연동 691-107번지","indutype":"일반휴게음식 - 서양음식","category":"restaurant"}]},{"lat":"37.908657323","long":"127.05494997","imageIndex":4,"items":[{"name":"리가돈까스","tel":"031-865-5115","addr":"경기도 동두천시 생연동 611-76번지","indutype":"일반휴게음식 - 서양음식","category":"restaurant"},{"name":"리가돈까스","tel":"031-865-5115","addr":"경기도 동두천시 생연동 611-76번지","indutype":"일반휴게음식 - 서양음식","category":"restaurant"}]},{"lat":"37.909855595","long":"127.05487121","imageIndex":4,"items":[{"name":"림스치킨","tel":"031-865-6514","addr":"경기도 동두천시 생연동 555-34번지","indutype":"일반휴게음식 - 일반한식","category":"restaurant"}]},{"lat":"37.90429778","long":"127.05272967","imageIndex":4,"items":[{"name":"마로니에","tel":"031-861-5954","addr":"경기도 동두천시 생연동 660-9번지 2층","indutype":"일반휴게음식 - 주점","category":"restaurant"},{"name":"옛날통닭1번지","tel":"031-865-7279","addr":"경기도 동두천시 생연동 660-9번지 1층","indutype":"일반휴게음식 - 스넥","category":"restaurant"}]},{"lat":"37.908378275","long":"127.05440396","imageIndex":4,"items":[{"name":"마비노스커피","tel":"031-866-8959","addr":"경기도 동두천시 생연동 611-42번지 1층","indutype":"일반휴게음식 - 서양음식","category":"restaurant"},{"name":"부어치킨(생연점)","tel":"031-863-9296","addr":"경기도 동두천시 생연동 611-42번지","indutype":"일반휴게음식 - 주점","category":"restaurant"},{"name":"부어치킨(생연점)","tel":"031-863-9296","addr":"경기도 동두천시 생연동 611-42번지 1층","indutype":"일반휴게음식 - 스넥","category":"restaurant"}]},{"lat":"37.907550316","long":"127.05231114","imageIndex":4,"items":[{"name":"막국수춘천댁닭갈비","tel":"031-866-6887","addr":"경기도 동두천시 생연동 586-8번지","indutype":"일반휴게음식 - 일반한식","category":"restaurant"}]},{"lat":"37.900576757","long":"127.05314784","imageIndex":4,"items":[{"name":"만다린","tel":"031-868-3322","addr":"경기도 동두천시 생연동 693-23번지","indutype":"일반휴게음식 - 중국식","category":"restaurant"}]},{"lat":"37.900189215","long":"127.0534773","imageIndex":4,"items":[{"name":"만리장성","tel":"031-862-2333","addr":"경기도 동두천시 생연동 693-10번지 8호 9호 평화상가제1층","indutype":"일반휴게음식 - 중국식","category":"restaurant"}]},{"lat":"37.905135809","long":"127.05234364","imageIndex":4,"items":[{"name":"만리향","tel":"031-865-4722","addr":"경기도 동두천시 생연동 659-34번지","indutype":"일반휴게음식 - 중국식","category":"restaurant"}]},{"lat":"37.905243675","long":"127.05292361","imageIndex":4,"items":[{"name":"매드맥스","tel":"031-859-6569","addr":"경기도 동두천시 생연동 659-15번지","indutype":"일반휴게음식 - 주점","category":"restaurant"}]},{"lat":"37.898418383","long":"127.06402697","imageIndex":4,"items":[{"name":"매코미통닭발","tel":"031-866-7664","addr":"경기도 동두천시 생연동 831번지 휴먼시아 상가동 1층 101호","indutype":"일반휴게음식 - 일반한식","category":"restaurant"}]},{"lat":"37.901574914","long":"127.05736678","imageIndex":4,"items":[{"name":"맥85김밥&덮밥(MAC)","tel":"031-859-8588","addr":"경기도 동두천시 생연동 638-6번지 1층","indutype":"일반휴게음식 - 스넥","category":"restaurant"},{"name":"맥85커피(MAC85coffee)","tel":"031-859-8588","addr":"경기도 동두천시 생연동 638-6번지","indutype":"일반휴게음식 - 서양음식","category":"restaurant"}]},{"lat":"37.897659296","long":"127.06831259","imageIndex":4,"items":[{"name":"먹보냉면","tel":"031-862-7900","addr":"경기도 동두천시 생연동 317-11번지","indutype":"일반휴게음식 - 일반한식","category":"restaurant"}]},{"lat":"37.899798199","long":"127.06128801","imageIndex":4,"items":[{"name":"명동분식","tel":"031-858-4683","addr":"경기도 동두천시 생연동 387-1번지","indutype":"일반휴게음식 - 스넥","category":"restaurant"}]},{"lat":"37.905658614","long":"127.05170723","imageIndex":4,"items":[{"name":"명성분식","tel":"031-863-8309","addr":"경기도 동두천시 생연동 825-14번지","indutype":"일반휴게음식 - 일반한식","category":"restaurant"}]},{"lat":"37.89593535","long":"127.0567828","imageIndex":4,"items":[{"name":"모랫말정육식당","tel":"031-861-3210","addr":"경기도 동두천시 생연동 747-1번지","indutype":"일반휴게음식 - 일반한식","category":"restaurant"}]},{"lat":"37.898049609","long":"127.06284424","imageIndex":4,"items":[{"name":"모모","tel":"031-858-4422","addr":"경기도 동두천시 생연동 346번지 1층","indutype":"일반휴게음식 - 서양음식","category":"restaurant"},{"name":"여고시절","tel":"031-858-4422","addr":"경기도 동두천시 생연동 346번지 2층","indutype":"일반휴게음식 - 서양음식","category":"restaurant"}]},{"lat":"37.902630996","long":"127.05287636","imageIndex":4,"items":[{"name":"목포실내포장마차","tel":"031-863-1203","addr":"경기도 동두천시 생연동 688-4번지","indutype":"일반휴게음식 - 일반한식","category":"restaurant"},{"name":"베트남쌀국수","tel":"031-861-8832","addr":"경기도 동두천시 생연동 688-4번지","indutype":"일반휴게음식 - 일반한식","category":"restaurant"},{"name":"소래손칼국수","tel":"031-862-2159","addr":"경기도 동두천시 생연동 688-4번지 1층","indutype":"일반휴게음식 - 일반한식","category":"restaurant"}]},{"lat":"37.908325728","long":"127.06936817","imageIndex":4,"items":[{"name":"못골장원순두부","tel":"031-862-4565","addr":"경기도 동두천시 생연동 113","indutype":"일반휴게음식 - 일반한식","category":"restaurant"}]},{"lat":"37.90141363","long":"127.0554224","imageIndex":4,"items":[{"name":"못난이옛날통닭","tel":"031-825-1275","addr":"경기도 동두천시 생연동 683-21번지","indutype":"일반휴게음식 - 스넥","category":"restaurant"},{"name":"역전황가네분식","tel":"031-867-5085","addr":"경기도 동두천시 생연동 683-21번지","indutype":"일반휴게음식 - 일반한식","category":"restaurant"},{"name":"홍가네김밥세상","tel":"031-864-1967","addr":"경기도 동두천시 생연동 683-21번지 외1필지","indutype":"일반휴게음식 - 스넥","category":"restaurant"}]},{"lat":"37.911161797","long":"127.0552019","imageIndex":4,"items":[{"name":"무교동포장마차","tel":"031-862-7315","addr":"경기도 동두천시 생연동 560-10번지","indutype":"일반휴게음식 - 일반한식","category":"restaurant"}]},{"lat":"37.899272033","long":"127.04917896","imageIndex":4,"items":[{"name":"미락 부대찌개","tel":"031-865-5485","addr":"경기도 동두천시 생연동 797-16번지","indutype":"일반휴게음식 - 일반한식","category":"restaurant"}]},{"lat":"37.90552337","long":"127.0519573","imageIndex":4,"items":[{"name":"민들레홀씨","tel":"031-858-6735","addr":"경기도 동두천시 생연동 589-77번지 2층","indutype":"일반휴게음식 - 주점","category":"restaurant"}]},{"lat":"37.901021562","long":"127.06500693","imageIndex":4,"items":[{"name":"밀밭비빔국수","tel":"031-865-1060","addr":"경기도 동두천시 생연동 287-6","indutype":"일반휴게음식 - 일반한식","category":"restaurant"}]},{"lat":"37.898665157","long":"127.0568189","imageIndex":4,"items":[{"name":"박원석39면옥","tel":"031-866-3322","addr":"경기도 동두천시 생연동 742번지 1층","indutype":"일반휴게음식 - 일반한식","category":"restaurant"}]},{"lat":"37.910186612","long":"127.05989756","imageIndex":4,"items":[{"name":"밥도그(BOB DOG)야식","tel":"070-4176-9931","addr":"경기도 동두천시 생연동 515-20번지","indutype":"일반휴게음식 - 일반한식","category":"restaurant"}]},{"lat":"37.905859738","long":"127.06466988","imageIndex":4,"items":[{"name":"방축골구들장삼겹살","tel":"031-864-3332","addr":"경기도 동두천시 생연동 213-8번지","indutype":"일반휴게음식 - 일반한식","category":"restaurant"},{"name":"카페124","tel":"070-8124-5795","addr":"경기도 동두천시 생연동 213-8번지","indutype":"일반휴게음식 - 서양음식","category":"restaurant"}]},{"lat":"37.906243085","long":"127.05436836","imageIndex":4,"items":[{"name":"밴허호프","tel":"031-868-7722","addr":"경기도 동두천시 생연동 601-19번지 2층","indutype":"일반휴게음식 - 주점","category":"restaurant"}]},{"lat":"37.898106313","long":"127.05739833","imageIndex":4,"items":[{"name":"베드독(Bad Dog)","tel":"031-868-6008","addr":"경기도 동두천시 생연동 743-6번지","indutype":"일반휴게음식 - 스넥","category":"restaurant"}]},{"lat":"37.900665099","long":"127.05709323","imageIndex":4,"items":[{"name":"보난자","tel":"031-865-7977","addr":"경기도 동두천시 생연동 725-3번지","indutype":"일반휴게음식 - 주점","category":"restaurant"}]},{"lat":"37.900523515","long":"127.05120357","imageIndex":4,"items":[{"name":"보덕식당","tel":"031-858-3666","addr":"경기도 동두천시 생연동 812-10번지 1호","indutype":"일반휴게음식 - 일반한식","category":"restaurant"},{"name":"세아분식","tel":"031-865-9898","addr":"경기도 동두천시 생연동 812-10번지 104호","indutype":"일반휴게음식 - 일반한식","category":"restaurant"}]},{"lat":"37.90827047","long":"127.05369888","imageIndex":4,"items":[{"name":"보름이네분식","tel":"031-865-1645","addr":"경기도 동두천시 생연동 577-13번지","indutype":"일반휴게음식 - 일반한식","category":"restaurant"},{"name":"비금","tel":"031-857-9324","addr":"경기도 동두천시 생연동 577-13번지","indutype":"일반휴게음식 - 일반한식","category":"restaurant"}]},{"lat":"37.901385395","long":"127.05806021","imageIndex":4,"items":[{"name":"보해보쌈족발","tel":"031-862-4501","addr":"경기도 동두천시 생연동 424-5번지","indutype":"일반휴게음식 - 일반한식","category":"restaurant"}]},{"lat":"37.895691826","long":"127.05737381","imageIndex":4,"items":[{"name":"복돈이야","tel":"031-867-9921","addr":"경기도 동두천시 생연동 745-12번지","indutype":"일반휴게음식 - 일반한식","category":"restaurant"}]},{"lat":"37.901829041","long":"127.05317144","imageIndex":4,"items":[{"name":"본스치킨","tel":"031-864-6454","addr":"경기도 동두천시 생연동 688-11번지","indutype":"일반휴게음식 - 서양음식","category":"restaurant"}]},{"lat":"37.904018049","long":"127.05376418","imageIndex":4,"items":[{"name":"본죽중앙로점","tel":"031-862-5442","addr":"경기도 동두천시 생연동 665-22번지","indutype":"일반휴게음식 - 일반한식","category":"restaurant"}]},{"lat":"37.909270609","long":"127.05344941","imageIndex":4,"items":[{"name":"봉카페","tel":"070-4176-9931","addr":"경기도 동두천시 생연동 584-2번지 1층","indutype":"일반휴게음식 - 일반한식","category":"restaurant"},{"name":"산수","tel":"031-867-8253","addr":"경기도 동두천시 생연동 584-2번지","indutype":"일반휴게음식 - 일반한식","category":"restaurant"}]},{"lat":"37.907108903","long":"127.05220851","imageIndex":4,"items":[{"name":"부흥실내마차","tel":"031-863-8837","addr":"경기도 동두천시 생연동 825-20번지","indutype":"일반휴게음식 - 주점","category":"restaurant"}]},{"lat":"37.90840608","long":"127.05259599","imageIndex":4,"items":[{"name":"불타는 솥뚜껑","tel":"070-4176-9931","addr":"경기도 동두천시 생연동 585-146번지 1층","indutype":"일반휴게음식 - 일반한식","category":"restaurant"}]},{"lat":"37.902137538","long":"127.06720229","imageIndex":4,"items":[{"name":"붕닭","tel":"031-861-0862","addr":"경기도 동두천시 생연동 255-2번지","indutype":"일반휴게음식 - 스넥","category":"restaurant"},{"name":"안흥감자탕","tel":"031-863-2285","addr":"경기도 동두천시 생연동 255-2번지","indutype":"일반휴게음식 - 일반한식","category":"restaurant"}]},{"lat":"37.911774575","long":"127.05487256","imageIndex":4,"items":[{"name":"브라보공간","tel":"031-858-6301","addr":"경기도 동두천시 생연동 570-76번지","indutype":"일반휴게음식 - 서양음식","category":"restaurant"}]},{"lat":"37.906802544","long":"127.05231064","imageIndex":4,"items":[{"name":"비어비워","tel":"","addr":"경기도 동두천시 생연동 589-50번지","indutype":"일반휴게음식 - 주점","category":"restaurant"}]},{"lat":"37.904188144","long":"127.05620893","imageIndex":4,"items":[{"name":"비엔비바","tel":"070-4176-9931","addr":"경기도 동두천시 생연동 641-24번지 2층","indutype":"일반휴게음식 - 칵테일바","category":"restaurant"}]},{"lat":"37.898275387","long":"127.06176433","imageIndex":4,"items":[{"name":"비우소","tel":"031-861-8832","addr":"경기도 동두천시 생연동 383번지 103,104호","indutype":"일반휴게음식 - 주점","category":"restaurant"},{"name":"에이스민속촌","tel":"031-868-0658","addr":"경기도 동두천시 생연동 383번지 에이스프라자 109호","indutype":"일반휴게음식 - 일반한식","category":"restaurant"},{"name":"예그리나","tel":"031-1111-1111","addr":"경기도 동두천시 생연동 383번지 에이스프라자 105호","indutype":"일반휴게음식 - 서양음식","category":"restaurant"},{"name":"휴즈스 커피하우스 (Hughes's Coffee House","tel":"031-868-7474","addr":"경기도 동두천시 생연동 383번지 에이스프라자","indutype":"일반휴게음식 - 서양음식","category":"restaurant"}]},{"lat":"37.906553586","long":"127.0644203","imageIndex":4,"items":[{"name":"비큐(BQ)","tel":"031-111-1111","addr":"경기도 동두천시 생연동 225-19번지 101호","indutype":"일반휴게음식 - 일반한식","category":"restaurant"}]},{"lat":"37.913602953","long":"127.05601103","imageIndex":4,"items":[{"name":"빅마마하우스","tel":"031-861-5259","addr":"경기도 동두천시 생연동 542-16번지","indutype":"일반휴게음식 - 서양음식","category":"restaurant"}]},{"lat":"37.907829417","long":"127.05275479","imageIndex":4,"items":[{"name":"빠세","tel":"031-865-7683","addr":"경기도 동두천시 생연동 586-36번지 1층","indutype":"일반휴게음식 - 주점","category":"restaurant"}]},{"lat":"37.905963167","long":"127.0557895","imageIndex":4,"items":[{"name":"사랑방호프","tel":"031-868-5700","addr":"경기도 동두천시 생연동 599-2번지","indutype":"일반휴게음식 - 주점","category":"restaurant"}]},{"lat":"37.907439686","long":"127.05798513","imageIndex":4,"items":[{"name":"사랑의손길엄마손맛집/사랑의손길 협동조합","tel":"031-000-0000","addr":"경기도 동두천시 생연동 487-28번지","indutype":"일반휴게음식 - 서양음식","category":"restaurant"}]},{"lat":"37.904162813","long":"127.05232025","imageIndex":4,"items":[{"name":"살다보면","tel":"031-864-4233","addr":"경기도 동두천시 생연동 664-101번지","indutype":"일반휴게음식 - 주점","category":"restaurant"}]},{"lat":"37.907442319","long":"127.05203817","imageIndex":4,"items":[{"name":"삼미식당","tel":"031-862-1832","addr":"경기도 동두천시 생연동 585-58번지","indutype":"일반휴게음식 - 일반한식","category":"restaurant"}]},{"lat":"37.901637656","long":"127.05806039","imageIndex":4,"items":[{"name":"삼성수산식당","tel":"031-867-8288","addr":"경기도 동두천시 생연동 426-20,21","indutype":"일반휴게음식 - 일반한식","category":"restaurant"}]},{"lat":"37.901686077","long":"127.05031747","imageIndex":4,"items":[{"name":"삼순이(생연점)","tel":"031-861-4110","addr":"경기도 동두천시 생연동 820-33번지","indutype":"일반휴게음식 - 일반한식","category":"restaurant"},{"name":"이계화커피&마카롱","tel":"031-827-9288","addr":"경기도 동두천시 생연동 820-33번지 1층","indutype":"일반휴게음식 - 서양음식","category":"restaurant"},{"name":"작은공간","tel":"031-861-8285","addr":"경기도 동두천시 생연동 820-33","indutype":"일반휴게음식 - 주점","category":"restaurant"}]},{"lat":"37.900856606","long":"127.05181776","imageIndex":4,"items":[{"name":"삼시세끼","tel":"031-866-1319","addr":"경기도 동두천시 생연동 813-26번지","indutype":"일반휴게음식 - 일반한식","category":"restaurant"},{"name":"인사동","tel":"031-866-1025","addr":"경기도 동두천시 생연동 813-26번지","indutype":"일반휴게음식 - 일반한식","category":"restaurant"}]},{"lat":"37.897691847","long":"127.05747761","imageIndex":4,"items":[{"name":"삼억품은풍천민물장어","tel":"031-868-6274","addr":"경기도 동두천시 생연동 743-9번지 1층","indutype":"일반휴게음식 - 일반한식","category":"restaurant"},{"name":"특허받은마늘콩짜장","tel":"031-858-3110","addr":"경기도 동두천시 생연동 743-9번지","indutype":"일반휴게음식 - 중국식","category":"restaurant"}]},{"lat":"37.900496566","long":"127.05101027","imageIndex":4,"items":[{"name":"삼화식당","tel":"031-865-7889","addr":"경기도 동두천시 생연동 812-6번지","indutype":"일반휴게음식 - 일반한식","category":"restaurant"},{"name":"서울추어탕","tel":"031-862-7176","addr":"경기도 동두천시 생연동 812-6번지","indutype":"일반휴게음식 - 일반한식","category":"restaurant"}]},{"lat":"37.908414047","long":"127.05500665","imageIndex":4,"items":[{"name":"샐리의 법칙","tel":"031-862-5011","addr":"경기도 동두천시 생연동 611-78번지","indutype":"일반휴게음식 - 일반한식","category":"restaurant"}]},{"lat":"37.900748228","long":"127.0524544","imageIndex":4,"items":[{"name":"샛별다방","tel":"031-865-3151","addr":"경기도 동두천시 생연동 694-7","indutype":"일반휴게음식 - 서양음식","category":"restaurant"},{"name":"옛날산골통닭","tel":"031-865-1588","addr":"경기도 동두천시 생연동 694-7번지","indutype":"일반휴게음식 - 스넥","category":"restaurant"}]},{"lat":"37.903215749","long":"127.0548438","imageIndex":4,"items":[{"name":"생고기 스쿨","tel":"031-866-8366","addr":"경기도 동두천시 생연동 673-6번지","indutype":"일반휴게음식 - 일반한식","category":"restaurant"},{"name":"오리시대","tel":"031-861-9293","addr":"경기도 동두천시 생연동 673-6번지","indutype":"일반휴게음식 - 일반한식","category":"restaurant"}]},{"lat":"37.899437798","long":"127.06134458","imageIndex":4,"items":[{"name":"생골추어탕","tel":"031-861-5020","addr":"경기도 동두천시 생연동 386-14번지","indutype":"일반휴게음식 - 일반한식","category":"restaurant"},{"name":"장위동유성집동두천점","tel":"031-861-7050","addr":"경기도 동두천시 생연동 386-14번지","indutype":"일반휴게음식 - 일반한식","category":"restaurant"}]},{"lat":"37.903550587","long":"127.05134199","imageIndex":4,"items":[{"name":"생연골","tel":"031-861-4601","addr":"경기도 동두천시 생연동 823-38번지","indutype":"일반휴게음식 - 일반한식","category":"restaurant"}]},{"lat":"37.89946744","long":"127.05581896","imageIndex":4,"items":[{"name":"생연맛있는돈가","tel":"031-864-2013","addr":"경기도 동두천시 생연동 711번지 A동 1층","indutype":"일반휴게음식 - 일반한식","category":"restaurant"}]},{"lat":"37.89869011","long":"127.06117344","imageIndex":4,"items":[{"name":"생연오리타운","tel":"031-868-5288","addr":"경기도 동두천시 생연동 385-19번지 1층","indutype":"일반휴게음식 - 일반한식","category":"restaurant"}]},{"lat":"37.903442484","long":"127.05131918","imageIndex":4,"items":[{"name":"생연칼국수 삼계탕","tel":"031-863-2011","addr":"경기도 동두천시 생연동 823-188번지 생연칼국수 삼계탕","indutype":"일반휴게음식 - 일반한식","category":"restaurant"}]},{"lat":"37.908162665","long":"127.05298244","imageIndex":4,"items":[{"name":"생연파머스치킨","tel":"031-868-9992","addr":"경기도 동두천시 생연동 586-16번지","indutype":"일반휴게음식 - 주점","category":"restaurant"}]},{"lat":"37.90524353","long":"127.05326472","imageIndex":4,"items":[{"name":"서울밥집","tel":"031-861-1263","addr":"경기도 동두천시 생연동 592-3번지","indutype":"일반휴게음식 - 일반한식","category":"restaurant"}]},{"lat":"37.909684443","long":"127.05481424","imageIndex":4,"items":[{"name":"서일옥","tel":"031-864-5911","addr":"경기도 동두천시 생연동 575-11번지","indutype":"일반휴게음식 - 일반한식","category":"restaurant"}]},{"lat":"37.90760385","long":"127.05353923","imageIndex":4,"items":[{"name":"서해식당","tel":"031-868-1655","addr":"경기도 동두천시 생연동 609-16번지","indutype":"일반휴게음식 - 일반한식","category":"restaurant"}]},{"lat":"37.903549604","long":"127.0536729","imageIndex":4,"items":[{"name":"설빙동두천중앙로점","tel":"031-862-4287","addr":"경기도 동두천시 생연동 669-17번지","indutype":"일반휴게음식 - 일반한식","category":"restaurant"}]},{"lat":"37.907271071","long":"127.05220862","imageIndex":4,"items":[{"name":"성심당왕만두","tel":"031-868-9292","addr":"경기도 동두천시 생연동 825-107번지","indutype":"일반휴게음식 - 일반한식","category":"restaurant"}]},{"lat":"37.908859439","long":"127.06542288","imageIndex":4,"items":[{"name":"세군다까사","tel":"031-863-2254","addr":"경기도 동두천시 생연동 219-4번지","indutype":"일반휴게음식 - 서양음식","category":"restaurant"}]},{"lat":"37.909215859","long":"127.05504133","imageIndex":4,"items":[{"name":"세종식당","tel":"031-858-1731","addr":"경기도 동두천시 생연동 615-38번지","indutype":"일반휴게음식 - 일반한식","category":"restaurant"}]},{"lat":"37.90082953","long":"127.05193144","imageIndex":4,"items":[{"name":"소라네국시","tel":"031-866-0058","addr":"경기도 동두천시 생연동 813-18번지 1층","indutype":"일반휴게음식 - 일반한식","category":"restaurant"}]},{"lat":"37.906607301","long":"127.06506848","imageIndex":4,"items":[{"name":"소요담","tel":"031-858-0000","addr":"경기도 동두천시 생연동 213번지 1층","indutype":"일반휴게음식 - 일반한식","category":"restaurant"}]},{"lat":"37.897277403","long":"127.05751141","imageIndex":4,"items":[{"name":"소요산면옥","tel":"031-863-5147","addr":"경기도 동두천시 생연동 745-1번지","indutype":"일반휴게음식 - 일반한식","category":"restaurant"}]},{"lat":"37.907217015","long":"127.05220858","imageIndex":4,"items":[{"name":"속초회수산","tel":"031-862-8281","addr":"경기도 동두천시 생연동 825-108번지","indutype":"일반휴게음식 - 일식·회집","category":"restaurant"}]},{"lat":"37.912382091","long":"127.06539175","imageIndex":4,"items":[{"name":"손칼국수와보리밥","tel":"031-865-5955","addr":"경기도 동두천시 생연동 180-4번지","indutype":"일반휴게음식 - 일반한식","category":"restaurant"}]},{"lat":"37.900109063","long":"127.05126015","imageIndex":4,"items":[{"name":"솜씨왕축산","tel":"031-867-8886","addr":"경기도 동두천시 생연동 698-9번지 외1필지","indutype":"일반휴게음식 - 일반한식","category":"restaurant"},{"name":"신노을","tel":"031-863-1857","addr":"경기도 동두천시 생연동 698-9번지","indutype":"일반휴게음식 - 일반한식","category":"restaurant"}]},{"lat":"37.910467995","long":"127.05539472","imageIndex":4,"items":[{"name":"수경반점","tel":"031-865-8510","addr":"경기도 동두천시 생연동 557-43번지 1층","indutype":"일반휴게음식 - 중국식","category":"restaurant"}]},{"lat":"37.908685112","long":"127.05319884","imageIndex":4,"items":[{"name":"숙이네식당","tel":"031-865-4913","addr":"경기도 동두천시 생연동 584-17번지 1층","indutype":"일반휴게음식 - 일반한식","category":"restaurant"},{"name":"황돈(생연점)","tel":"031-865-4913","addr":"경기도 동두천시 생연동 584-17번지 1층","indutype":"일반휴게음식 - 일반한식","category":"restaurant"}]},{"lat":"37.900967566","long":"127.06489319","imageIndex":4,"items":[{"name":"순이네","tel":"031-863-7779","addr":"경기도 동두천시 생연동 287-7번지","indutype":"일반휴게음식 - 일반한식","category":"restaurant"}]},{"lat":"37.901855913","long":"127.05353529","imageIndex":4,"items":[{"name":"순이네밥상","tel":"031-859-2978","addr":"경기도 동두천시 생연동 687-94번지","indutype":"일반휴게음식 - 일반한식","category":"restaurant"}]},{"lat":"37.896554345","long":"127.06228594","imageIndex":4,"items":[{"name":"술마루","tel":"031-861-6088","addr":"경기도 동두천시 생연동 342-11번지","indutype":"일반휴게음식 - 일반한식","category":"restaurant"},{"name":"인생뭐있어","tel":"031-858-8466","addr":"경기도 동두천시 생연동 342-11번지","indutype":"일반휴게음식 - 주점","category":"restaurant"},{"name":"헷세드커피","tel":"031-858-8830","addr":"경기도 동두천시 생연동 342-11번지","indutype":"일반휴게음식 - 스넥","category":"restaurant"}]},{"lat":"37.905604445","long":"127.05198009","imageIndex":4,"items":[{"name":"술쉼터","tel":"031-861-9289","addr":"경기도 동두천시 생연동 589-76번지","indutype":"일반휴게음식 - 스넥","category":"restaurant"}]},{"lat":"37.910576081","long":"127.05545166","imageIndex":4,"items":[{"name":"술친구","tel":"031-837-4298","addr":"경기도 동두천시 생연동 557-41번지 1층","indutype":"일반휴게음식 - 일반한식","category":"restaurant"}]},{"lat":"37.900045801","long":"127.05173764","imageIndex":4,"items":[{"name":"스마일꽈배기","tel":"031-865-8885","addr":"경기도 동두천시 생연동 698-6번지 1층 101호","indutype":"일반휴게음식 - 서양음식","category":"restaurant"}]},{"lat":"37.9083791","long":"127.05248226","imageIndex":4,"items":[{"name":"스카렛","tel":"031-858-0512","addr":"경기도 동두천시 생연동 585-143번지 2층","indutype":"일반휴게음식 - 주점","category":"restaurant"},{"name":"행복한날들","tel":"031-862-5051","addr":"경기도 동두천시 생연동 585-143번지","indutype":"일반휴게음식 - 서양음식","category":"restaurant"}]},{"lat":"37.906576573","long":"127.05403884","imageIndex":4,"items":[{"name":"스텔라토","tel":"031-864-1282","addr":"경기도 동두천시 생연동 605-5번지 3층","indutype":"일반휴게음식 - 서양음식","category":"restaurant"}]},{"lat":"37.903351424","long":"127.05361591","imageIndex":4,"items":[{"name":"스토리","tel":"031-868-5577","addr":"경기도 동두천시 생연동 669-8번지 지층","indutype":"일반휴게음식 - 주점","category":"restaurant"}]},{"lat":"37.9059907","long":"127.05465245","imageIndex":4,"items":[{"name":"시마레스토랑","tel":"031-865-3200","addr":"경기도 동두천시 생연동 595-8번지","indutype":"일반휴게음식 - 서양음식","category":"restaurant"}]},{"lat":"37.899748886","long":"127.05078239","imageIndex":4,"items":[{"name":"시장바지락칼국수","tel":"031-862-1555","addr":"경기도 동두천시 생연동 803-31번지","indutype":"일반휴게음식 - 일반한식","category":"restaurant"}]},{"lat":"37.899630885","long":"127.05289707","imageIndex":4,"items":[{"name":"시장밥집","tel":"031-864-5339","addr":"경기도 동두천시 생연동 695-23번지","indutype":"일반휴게음식 - 일반한식","category":"restaurant"}]},{"lat":"37.90282954","long":"127.05206921","imageIndex":4,"items":[{"name":"신봉평막국수","tel":"031-861-8800","addr":"경기도 동두천시 생연동 662-13,662-12","indutype":"일반휴게음식 - 일반한식","category":"restaurant"}]},{"lat":"37.900184914","long":"127.06265269","imageIndex":4,"items":[{"name":"신양자강","tel":"031-861-3544","addr":"경기도 동두천시 생연동 401-2번지","indutype":"일반휴게음식 - 중국식","category":"restaurant"}]},{"lat":"37.905379155","long":"127.05211639","imageIndex":4,"items":[{"name":"신예닮","tel":"031-865-2786","addr":"경기도 동두천시 생연동 588-18번지","indutype":"일반휴게음식 - 일반한식","category":"restaurant"}]},{"lat":"37.901081268","long":"127.05317093","imageIndex":4,"items":[{"name":"신의주가마솥찹쌀순대(큰시장점)","tel":"031-865-9696","addr":"경기도 동두천시 생연동 689-28번지 센츄럴시티 103호","indutype":"일반휴게음식 - 일반한식","category":"restaurant"},{"name":"커피마마","tel":"031-859-7494","addr":"경기도 동두천시 생연동 689-28번지 센츄럴시티 104호","indutype":"일반휴게음식 - 서양음식","category":"restaurant"}]},{"lat":"37.91074775","long":"127.05433738","imageIndex":4,"items":[{"name":"신의주찹쌀순대","tel":"070-4800-1494","addr":"경기도 동두천시 생연동 577-1번지 1층","indutype":"일반휴게음식 - 일반한식","category":"restaurant"}]},{"lat":"37.909747337","long":"127.0552009","imageIndex":4,"items":[{"name":"신진부대찌게","tel":"031-866-6636","addr":"경기도 동두천시 생연동 553-20번지","indutype":"일반휴게음식 - 일반한식","category":"restaurant"}]},{"lat":"37.899884136","long":"127.0505096","imageIndex":4,"items":[{"name":"신천순대국","tel":"031-865-7351","addr":"경기도 동두천시 생연동 809-9번지","indutype":"일반휴게음식 - 일반한식","category":"restaurant"}]},{"lat":"37.90110634","long":"127.05755972","imageIndex":4,"items":[{"name":"신촌설렁탕","tel":"031-865-2101","addr":"경기도 동두천시 생연동 728-6번지","indutype":"일반휴게음식 - 일반한식","category":"restaurant"}]},{"lat":"37.898718187","long":"127.05901326","imageIndex":4,"items":[{"name":"신촌설렁탕 동두천점","tel":"031-865-2101","addr":"경기도 동두천시 생연동 369-8번지 동두천고용복지플러스센터 1층","indutype":"일반휴게음식 - 일반한식","category":"restaurant"}]},{"lat":"37.897997496","long":"127.05889901","imageIndex":4,"items":[{"name":"신탕국물떡볶이&도시락","tel":"031-858-7870","addr":"경기도 동두천시 생연동 832번지 브라운스톤 동두천 105-1호","indutype":"일반휴게음식 - 스넥","category":"restaurant"},{"name":"한장군부대찌개","tel":"031-873-0447","addr":"경기도 동두천시 생연동 832번지 브라운스톤동두천 1층 107호","indutype":"일반휴게음식 - 일반한식","category":"restaurant"}]},{"lat":"37.902549999","long":"127.05267164","imageIndex":4,"items":[{"name":"실비집","tel":"031-865-8079","addr":"경기도 동두천시 생연동 690-2번지","indutype":"일반휴게음식 - 일반한식","category":"restaurant"}]},{"lat":"37.909187442","long":"127.05808877","imageIndex":4,"items":[{"name":"심향","tel":"031-862-6014","addr":"경기도 동두천시 생연동 491-20번지","indutype":"일반휴게음식 - 일반한식","category":"restaurant"}]},{"lat":"37.903826854","long":"127.05819847","imageIndex":4,"items":[{"name":"싹쓰리 솥뚜껑 김치 생삼겹살","tel":"031-864-5999","addr":"경기도 동두천시 생연동 453-1번지","indutype":"일반휴게음식 - 일반한식","category":"restaurant"},{"name":"조아피자호마루떡볶이","tel":"031-859-8251","addr":"경기도 동두천시 생연동 453-1번지","indutype":"일반휴게음식 - 일반한식","category":"restaurant"}]},{"lat":"37.907216533","long":"127.05334566","imageIndex":4,"items":[{"name":"쌍둥이족발","tel":"031-863-4593","addr":"경기도 동두천시 생연동 607-17번지","indutype":"일반휴게음식 - 일반한식","category":"restaurant"}]},{"lat":"37.90537905","long":"127.05236654","imageIndex":4,"items":[{"name":"써니","tel":"","addr":"경기도 동두천시 생연동 659-18번지","indutype":"일반휴게음식 - 주점","category":"restaurant"}]},{"lat":"37.909160124","long":"127.05870279","imageIndex":4,"items":[{"name":"썬더치킨(생연점)","tel":"031-867-7792","addr":"경기도 동두천시 생연동 497-6번지","indutype":"일반휴게음식 - 스넥","category":"restaurant"}]},{"lat":"37.904963393","long":"127.05520889","imageIndex":4,"items":[{"name":"썸포차","tel":"031-866-7214","addr":"경기도 동두천시 생연동 649-1번지","indutype":"일반휴게음식 - 일반한식","category":"restaurant"},{"name":"알리바바","tel":"031-868-6754","addr":"경기도 동두천시 생연동 649-1번지","indutype":"일반휴게음식 - 서양음식","category":"restaurant"},{"name":"으뜸부대찌개","tel":"031-858-8702","addr":"경기도 동두천시 생연동 649-1번지 1층","indutype":"일반휴게음식 - 일반한식","category":"restaurant"}]},{"lat":"37.899052662","long":"127.05659179","imageIndex":4,"items":[{"name":"아사랑해물짬뽕","tel":"031-863-4642","addr":"경기도 동두천시 생연동 737-6번지","indutype":"일반휴게음식 - 중국식","category":"restaurant"}]},{"lat":"37.905045601","long":"127.05261647","imageIndex":4,"items":[{"name":"아지네포차","tel":"031-864-6083","addr":"경기도 동두천시 생연동 659-30번지","indutype":"일반휴게음식 - 일반한식","category":"restaurant"}]},{"lat":"37.905910728","long":"127.05205989","imageIndex":4,"items":[{"name":"아지트","tel":"","addr":"경기도 동두천시 생연동 589-67번지","indutype":"일반휴게음식 - 주점","category":"restaurant"}]},{"lat":"37.903217424","long":"127.05089834","imageIndex":4,"items":[{"name":"안흥콩터","tel":"","addr":"경기도 동두천시 생연동 820-7번지 1층","indutype":"일반휴게음식 - 일반한식","category":"restaurant"}]},{"lat":"37.9032972355","long":"127.0539228697","imageIndex":4,"items":[{"name":"알짜고기","tel":"031-864-8955","addr":"경기도 동두천시 생연동 670-21번지","indutype":"일반휴게음식 - 일반한식","category":"restaurant"}]},{"lat":"37.896189686","long":"127.05204206","imageIndex":4,"items":[{"name":"앤디네방(ANDY'S ROOM)","tel":"031-857-7988","addr":"경기도 동두천시 생연동 714-12번지 은혜빌딩 5층","indutype":"일반휴게음식 - 서양음식","category":"restaurant"}]},{"lat":"37.901775019","long":"127.05309181","imageIndex":4,"items":[{"name":"야우리","tel":"031-865-9179","addr":"경기도 동두천시 생연동 688-12번지","indutype":"일반휴게음식 - 일반한식","category":"restaurant"}]},{"lat":"37.898214603","long":"127.05701185","imageIndex":4,"items":[{"name":"양구옛날손두부","tel":"031-863-3554","addr":"경기도 동두천시 생연동 744-2번지","indutype":"일반휴게음식 - 일반한식","category":"restaurant"}]},{"lat":"37.903217299","long":"127.05120533","imageIndex":4,"items":[{"name":"양지식당","tel":"031-859-4996","addr":"경기도 동두천시 생연동 823-191번지","indutype":"일반휴게음식 - 일반한식","category":"restaurant"}]},{"lat":"37.901602825","long":"127.05542254","imageIndex":4,"items":[{"name":"어게인","tel":"031-861-9599","addr":"경기도 동두천시 생연동 684-5번지","indutype":"일반휴게음식 - 서양음식","category":"restaurant"}]},{"lat":"37.90860399","long":"127.05328976","imageIndex":4,"items":[{"name":"어그집문열었네","tel":"031-863-6645","addr":"경기도 동두천시 생연동 583-33번지 1층","indutype":"일반휴게음식 - 일반한식","category":"restaurant"}]},{"lat":"37.897881523","long":"127.05643177","imageIndex":4,"items":[{"name":"어사랑","tel":"031-859-8400","addr":"경기도 동두천시 생연동 736-6번지","indutype":"일반휴게음식 - 일식·회집","category":"restaurant"},{"name":"어사랑","tel":"031-859-8400","addr":"경기도 동두천시 생연동 736-6번지","indutype":"일반휴게음식 - 일식·회집","category":"restaurant"}]},{"lat":"37.903828735","long":"127.05403694","imageIndex":4,"items":[{"name":"어수냉면","tel":"031-865-5425","addr":"경기도 동두천시 생연동 666-14번지 외1필지","indutype":"일반휴게음식 - 일반한식","category":"restaurant"}]},{"lat":"37.902243595","long":"127.0528761","imageIndex":4,"items":[{"name":"어수레스토랑","tel":"031-862-8897","addr":"경기도 동두천시 생연동 689-8번지","indutype":"일반휴게음식 - 서양음식","category":"restaurant"}]},{"lat":"37.908775191","long":"127.05323302","imageIndex":4,"items":[{"name":"어전생선구이","tel":"031-864-0080","addr":"경기도 동두천시 생연동 583-4번지","indutype":"일반휴게음식 - 일반한식","category":"restaurant"}]},{"lat":"37.904522907","long":"127.05297997","imageIndex":4,"items":[{"name":"얼큰동태찌게","tel":"031-858-2213","addr":"경기도 동두천시 생연동 665-14번지","indutype":"일반휴게음식 - 일반한식","category":"restaurant"},{"name":"충남칼국수","tel":"031-865-7659","addr":"경기도 동두천시 생연동 665-14번지","indutype":"일반휴게음식 - 일반한식","category":"restaurant"}]},{"lat":"37.908351705","long":"127.05334644","imageIndex":4,"items":[{"name":"엠(M) 포차","tel":"031-866-0058","addr":"경기도 동두천시 생연동 583-35번지 1층","indutype":"일반휴게음식 - 주점","category":"restaurant"}]},{"lat":"37.908387079","long":"127.05487018","imageIndex":4,"items":[{"name":"여울목","tel":"031-861-4505","addr":"경기도 동두천시 생연동 611-75번지 2층","indutype":"일반휴게음식 - 일반한식","category":"restaurant"},{"name":"핫도그 꽈배기스타","tel":"031-866-5139","addr":"경기도 동두천시 생연동 611-75번지","indutype":"일반휴게음식 - 스넥","category":"restaurant"}]},{"lat":"37.907495621","long":"127.05381206","imageIndex":4,"items":[{"name":"연천만두","tel":"031-862-5755","addr":"경기도 동두천시 생연동 609-29번지 1층","indutype":"일반휴게음식 - 일반한식","category":"restaurant"},{"name":"중국식품식당","tel":"031-858-2825","addr":"경기도 동두천시 생연동 609-29번지 1층","indutype":"일반휴게음식 - 중국식","category":"restaurant"}]},{"lat":"37.908188884","long":"127.0548473","imageIndex":4,"items":[{"name":"영풍각","tel":"031-862-2154","addr":"경기도 동두천시 생연동 612-2번지","indutype":"일반휴게음식 - 중국식","category":"restaurant"}]},{"lat":"37.908270718","long":"127.05311896","imageIndex":4,"items":[{"name":"예일삼겹살","tel":"031-857-3648","addr":"경기도 동두천시 생연동 586-13번지","indutype":"일반휴게음식 - 일반한식","category":"restaurant"}]},{"lat":"37.91262994","long":"127.05603307","imageIndex":4,"items":[{"name":"예전식당","tel":"031-865-5678","addr":"경기도 동두천시 생연동 567-5번지","indutype":"일반휴게음식 - 일반한식","category":"restaurant"}]},{"lat":"37.899497213","long":"127.04931554","imageIndex":4,"items":[{"name":"오복순대","tel":"031-865-7090","addr":"경기도 동두천시 생연동 805-3번지","indutype":"일반휴게음식 - 일반한식","category":"restaurant"}]},{"lat":"37.90313635","long":"127.05087554","imageIndex":4,"items":[{"name":"오에이치 (OH)스토리","tel":"031-861-8832","addr":"경기도 동두천시 생연동 820-14번지","indutype":"일반휴게음식 - 주점","category":"restaurant"}]},{"lat":"37.900991632","long":"127.05209073","imageIndex":4,"items":[{"name":"오이소","tel":"031-862-5286","addr":"경기도 동두천시 생연동 691-32번지","indutype":"일반휴게음식 - 일반한식","category":"restaurant"}]},{"lat":"37.906351365","long":"127.05398183","imageIndex":4,"items":[{"name":"오페라","tel":"031-865-3223","addr":"경기도 동두천시 생연동 602-11번지","indutype":"일반휴게음식 - 서양음식","category":"restaurant"},{"name":"커피폴","tel":"031-865-3272","addr":"경기도 동두천시 생연동 602-11번지","indutype":"일반휴게음식 - 서양음식","category":"restaurant"}]},{"lat":"37.899165877","long":"127.06456196","imageIndex":4,"items":[{"name":"왕가네본가뼈다귀","tel":"031-863-2237","addr":"경기도 동두천시 생연동 304번지 생연빌딩 104호","indutype":"일반휴게음식 - 일반한식","category":"restaurant"}]},{"lat":"37.905936754","long":"127.05440226","imageIndex":4,"items":[{"name":"욕지도","tel":"031-866-3100","addr":"경기도 동두천시 생연동 601-48번지 1층","indutype":"일반휴게음식 - 일반한식","category":"restaurant"}]},{"lat":"37.90116524","long":"127.0658939","imageIndex":4,"items":[{"name":"용궁횟집","tel":"031-867-8881","addr":"경기도 동두천시 생연동 268-11번지","indutype":"일반휴게음식 - 일식·회집","category":"restaurant"}]},{"lat":"37.908379181","long":"127.05228895","imageIndex":4,"items":[{"name":"우리동내","tel":"031-868-6600","addr":"경기도 동두천시 생연동 585-85번지","indutype":"일반휴게음식 - 일반한식","category":"restaurant"}]},{"lat":"37.908989497","long":"127.05753144","imageIndex":4,"items":[{"name":"우리동네 국물떡볶이","tel":"031-863-0521","addr":"경기도 동두천시 생연동 551-26번지","indutype":"일반휴게음식 - 스넥","category":"restaurant"}]},{"lat":"37.913188211","long":"127.05670441","imageIndex":4,"items":[{"name":"우리영양탕","tel":"031-865-3646","addr":"경기도 동두천시 생연동 567-1번지","indutype":"일반휴게음식 - 일반한식","category":"restaurant"},{"name":"하루방","tel":"031-865-3651","addr":"경기도 동두천시 생연동 567-1","indutype":"일반휴게음식 - 일반한식","category":"restaurant"}]},{"lat":"37.90637914","long":"127.05223076","imageIndex":4,"items":[{"name":"워리","tel":"031-861-5026","addr":"경기도 동두천시 생연동 589-60번지","indutype":"일반휴게음식 - 주점","category":"restaurant"}]},{"lat":"37.909052636","long":"127.05737229","imageIndex":4,"items":[{"name":"원조고향식당","tel":"031-865-8882","addr":"경기도 동두천시 생연동 551-46번지","indutype":"일반휴게음식 - 일반한식","category":"restaurant"}]},{"lat":"37.909576601","long":"127.05420012","imageIndex":4,"items":[{"name":"원조닭한마리","tel":"031-863-9713","addr":"경기도 동두천시 생연동 611-9번지","indutype":"일반휴게음식 - 일반한식","category":"restaurant"}]},{"lat":"37.905775166","long":"127.05306041","imageIndex":4,"items":[{"name":"원조마차","tel":"031-857-0678","addr":"경기도 동두천시 생연동 590-16번지","indutype":"일반휴게음식 - 주점","category":"restaurant"}]},{"lat":"37.905658501","long":"127.05198013","imageIndex":4,"items":[{"name":"원조콩나물식당","tel":"031-862-2039","addr":"경기도 동두천시 생연동 589-74번지","indutype":"일반휴게음식 - 일반한식","category":"restaurant"}]},{"lat":"37.907883579","long":"127.05250467","imageIndex":4,"items":[{"name":"원터식당","tel":"031-867-6456","addr":"경기도 동두천시 생연동 586-44번지","indutype":"일반휴게음식 - 일반한식","category":"restaurant"}]},{"lat":"37.902136464","long":"127.05051105","imageIndex":4,"items":[{"name":"위풍당당","tel":"031-864-2367","addr":"경기도 동두천시 생연동 820-29번지","indutype":"일반휴게음식 - 주점","category":"restaurant"}]},{"lat":"37.905190177","long":"127.05159322","imageIndex":4,"items":[{"name":"유림할머니보쌈","tel":"031-866-5353","addr":"경기도 동두천시 생연동 824-59번지","indutype":"일반휴게음식 - 일반한식","category":"restaurant"}]},{"lat":"37.903189301","long":"127.05351347","imageIndex":4,"items":[{"name":"윤선수","tel":"031-858-5155","addr":"경기도 동두천시 생연동 669-7번지","indutype":"일반휴게음식 - 일반한식","category":"restaurant"}]},{"lat":"37.907469242","long":"127.05228835","imageIndex":4,"items":[{"name":"윤아포차","tel":"031-863-2648","addr":"경기도 동두천시 생연동 586-48번지 1층","indutype":"일반휴게음식 - 일반한식","category":"restaurant"}]},{"lat":"37.907441717","long":"127.05345953","imageIndex":4,"items":[{"name":"으뜸분식","tel":"031-862-8510","addr":"경기도 동두천시 생연동 609-20번지","indutype":"일반휴게음식 - 일반한식","category":"restaurant"}]},{"lat":"37.904801472","long":"127.05465162","imageIndex":4,"items":[{"name":"이담양평해장국","tel":"031-866-1160","addr":"경기도 동두천시 생연동 644-14번지","indutype":"일반휴게음식 - 일반한식","category":"restaurant"}]},{"lat":"37.906134999","long":"127.05431143","imageIndex":4,"items":[{"name":"이디야커피 동두천중앙역점","tel":"031-859-8850","addr":"경기도 동두천시 생연동 601-20번지 1층","indutype":"일반휴게음식 - 서양음식","category":"restaurant"}]},{"lat":"37.898942477","long":"127.06095762","imageIndex":4,"items":[{"name":"이라엘의하늘양식","tel":"031-857-5540","addr":"경기도 동두천시 생연동 387-4번지 1층","indutype":"일반휴게음식 - 일반한식","category":"restaurant"}]},{"lat":"37.902802221","long":"127.05276277","imageIndex":4,"items":[{"name":"이모네","tel":"031-867-5355","addr":"경기도 동두천시 생연동 690-24번지 1층","indutype":"일반휴게음식 - 일반한식","category":"restaurant"}]},{"lat":"37.905108536","long":"127.05292352","imageIndex":4,"items":[{"name":"일미식당","tel":"031-863-6700","addr":"경기도 동두천시 생연동 659-42번지 1층","indutype":"일반휴게음식 - 일반한식","category":"restaurant"}]},{"lat":"37.902523809","long":"127.05064774","imageIndex":4,"items":[{"name":"일미옥뼈다귀해장국","tel":"031-862-4667","addr":"경기도 동두천시 생연동 820-24번지","indutype":"일반휴게음식 - 일반한식","category":"restaurant"}]},{"lat":"37.904580441","long":"127.06462333","imageIndex":4,"items":[{"name":"작은술집","tel":"031-865-8295","addr":"경기도 동두천시 생연동 231번지 월드메르디앙 상가동 1층 103호","indutype":"일반휴게음식 - 주점","category":"restaurant"}]},{"lat":"37.900410611","long":"127.06173192","imageIndex":4,"items":[{"name":"장터옛날통닭","tel":"031-858-9932","addr":"경기도 동두천시 생연동 407-24번지 1층 103호","indutype":"일반휴게음식 - 스넥","category":"restaurant"}]},{"lat":"37.900442361","long":"127.05137407","imageIndex":4,"items":[{"name":"장터왕족발","tel":"031-868-6163","addr":"경기도 동두천시 생연동 698-7번지","indutype":"일반휴게음식 - 일반한식","category":"restaurant"},{"name":"큰시장예전보리쌈밥","tel":"031-862-9005","addr":"경기도 동두천시 생연동 698-7번지 1층","indutype":"일반휴게음식 - 일반한식","category":"restaurant"}]},{"lat":"37.900415069","long":"127.05201076","imageIndex":4,"items":[{"name":"장터해물포차","tel":"031-862-7407","addr":"경기도 동두천시 생연동 698-1번지 1층","indutype":"일반휴게음식 - 일반한식","category":"restaurant"},{"name":"큰시장야식","tel":"031-861-8832","addr":"경기도 동두천시 생연동 698-1번지 1층","indutype":"일반휴게음식 - 일반한식","category":"restaurant"}]},{"lat":"37.904963322","long":"127.05536807","imageIndex":4,"items":[{"name":"장현식당","tel":"031-863-4984","addr":"경기도 동두천시 생연동 649-14번지","indutype":"일반휴게음식 - 일반한식","category":"restaurant"}]},{"lat":"37.907469127","long":"127.05256125","imageIndex":4,"items":[{"name":"정미식당","tel":"031-862-1048","addr":"경기도 동두천시 생연동 586-40번지","indutype":"일반휴게음식 - 일반한식","category":"restaurant"}]},{"lat":"37.912548882","long":"127.05597616","imageIndex":4,"items":[{"name":"정성이 가득찬 집밥(정성찬)","tel":"031-857-4400","addr":"경기도 동두천시 생연동 567-6번지 1층","indutype":"일반휴게음식 - 일반한식","category":"restaurant"}]},{"lat":"37.900303334","long":"127.06003774","imageIndex":4,"items":[{"name":"정장로마차","tel":"031-861-0531","addr":"경기도 동두천시 생연동 412-6번지","indutype":"일반휴게음식 - 일반한식","category":"restaurant"}]},{"lat":"37.914107288","long":"127.05642078","imageIndex":4,"items":[{"name":"정하우스","tel":"031-857-6015","addr":"경기도 동두천시 생연동 541-5번지","indutype":"일반휴게음식 - 일반한식","category":"restaurant"}]},{"lat":"37.904442254","long":"127.05195658","imageIndex":4,"items":[{"name":"제일순대국","tel":"031-865-8422","addr":"경기도 동두천시 생연동 823-78번지","indutype":"일반휴게음식 - 일반한식","category":"restaurant"}]},{"lat":"37.901657874","long":"127.05314858","imageIndex":4,"items":[{"name":"조마루뼈다귀","tel":"031-866-8855","addr":"경기도 동두천시 생연동 688-14번지","indutype":"일반휴게음식 - 일반한식","category":"restaurant"}]},{"lat":"37.898825193","long":"127.06128725","imageIndex":4,"items":[{"name":"조아조아","tel":"031-866-2258","addr":"경기도 동두천시 생연동 385-3번지","indutype":"일반휴게음식 - 주점","category":"restaurant"}]},{"lat":"37.908739611","long":"127.05215274","imageIndex":4,"items":[{"name":"조은누리삼겹살","tel":"031-867-0538","addr":"경기도 동두천시 생연동 828-5번지","indutype":"일반휴게음식 - 일반한식","category":"restaurant"}]},{"lat":"37.905189817","long":"127.05245738","imageIndex":4,"items":[{"name":"좋은날","tel":"031-864-0165","addr":"경기도 동두천시 생연동 659-33번지","indutype":"일반휴게음식 - 주점","category":"restaurant"}]},{"lat":"37.913575812","long":"127.05626119","imageIndex":4,"items":[{"name":"좋은사람들","tel":"031-864-3419","addr":"경기도 동두천시 생연동 541-38번지","indutype":"일반휴게음식 - 일반한식","category":"restaurant"}]},{"lat":"37.908856265","long":"127.05325581","imageIndex":4,"items":[{"name":"좋은세상","tel":"031-868-8006","addr":"경기도 동두천시 생연동 584-16번지","indutype":"일반휴게음식 - 주점","category":"restaurant"}]},{"lat":"37.899464002","long":"127.06298183","imageIndex":4,"items":[{"name":"주화랑","tel":"031-866-0058","addr":"경기도 동두천시 생연동 396-1번지","indutype":"일반휴게음식 - 주점","category":"restaurant"},{"name":"카페쇼콜라","tel":"031-859-4311","addr":"경기도 동두천시 생연동 396-1번지 1층","indutype":"일반휴게음식 - 서양음식","category":"restaurant"}]},{"lat":"37.90882814","long":"127.05575743","imageIndex":4,"items":[{"name":"중앙길손식당","tel":"031-865-2325","addr":"경기도 동두천시 생연동 615-27번지","indutype":"일반휴게음식 - 일반한식","category":"restaurant"}]},{"lat":"37.901269506","long":"127.05536545","imageIndex":4,"items":[{"name":"중앙다방","tel":"031-862-5270","addr":"경기도 동두천시 생연동 683-37번지","indutype":"일반휴게음식 - 서양음식","category":"restaurant"}]},{"lat":"37.899075623","long":"127.06486886","imageIndex":4,"items":[{"name":"중앙돌곱창","tel":"031-864-5757","addr":"경기도 동두천시 생연동 304-3번지","indutype":"일반휴게음식 - 일반한식","category":"restaurant"}]},{"lat":"37.908045149","long":"127.05390341","imageIndex":4,"items":[{"name":"중앙보산분식","tel":"031-862-0757","addr":"경기도 동두천시 생연동 609-3번지","indutype":"일반휴게음식 - 일반한식","category":"restaurant"}]},{"lat":"37.906550407","long":"127.05201483","imageIndex":4,"items":[{"name":"중한반점","tel":"031-863-3888","addr":"경기도 동두천시 생연동 825-31번지","indutype":"일반휴게음식 - 중국식","category":"restaurant"}]},{"lat":"37.905964015","long":"127.05386786","imageIndex":4,"items":[{"name":"쥬스식스 동두천중앙점","tel":"031-862-4596","addr":"경기도 동두천시 생연동 601-23번지","indutype":"일반휴게음식 - 서양음식","category":"restaurant"}]},{"lat":"37.901494107","long":"127.05676411","imageIndex":4,"items":[{"name":"지금","tel":"031-2258-8008","addr":"경기도 동두천시 생연동 726-1번지 104호","indutype":"일반휴게음식 - 서양음식","category":"restaurant"}]},{"lat":"37.902081452","long":"127.05281914","imageIndex":4,"items":[{"name":"지인","tel":"031-868-5805","addr":"경기도 동두천시 생연동 689-5번지","indutype":"일반휴게음식 - 서양음식","category":"restaurant"}]},{"lat":"37.908243724","long":"127.05303935","imageIndex":4,"items":[{"name":"진까페","tel":"031-864-3310","addr":"경기도 동두천시 생연동 586-26번지 2층","indutype":"일반휴게음식 - 서양음식","category":"restaurant"}]},{"lat":"37.906018944","long":"127.05180981","imageIndex":4,"items":[{"name":"진주옥","tel":"031-863-2775","addr":"경기도 동두천시 생연동 825-90번지","indutype":"일반휴게음식 - 일반한식","category":"restaurant"}]},{"lat":"37.896131141","long":"127.06181947","imageIndex":4,"items":[{"name":"짬짜루","tel":"031-857-8215","addr":"경기도 동두천시 생연동 353-5번지","indutype":"일반휴게음식 - 중국식","category":"restaurant"}]},{"lat":"37.908189683","long":"127.0530052","imageIndex":4,"items":[{"name":"쭈니네밥집","tel":"031-863-2443","addr":"경기도 동두천시 생연동 586-15번지","indutype":"일반휴게음식 - 일반한식","category":"restaurant"}]},{"lat":"37.908773205","long":"127.05767911","imageIndex":4,"items":[{"name":"쭈봉이네","tel":"031-866-8187","addr":"경기도 동두천시 생연동 489-14번지","indutype":"일반휴게음식 - 주점","category":"restaurant"}]},{"lat":"37.897908286","long":"127.05701163","imageIndex":4,"items":[{"name":"차오수제돈까스","tel":"031-866-3355","addr":"경기도 동두천시 생연동 744-4번지","indutype":"일반휴게음식 - 일반한식","category":"restaurant"}]},{"lat":"37.903601621","long":"127.0581983","imageIndex":4,"items":[{"name":"차와 도자기가 있는 풍경","tel":"031-858-7707","addr":"경기도 동두천시 생연동 441-10번지","indutype":"일반휴게음식 - 서양음식","category":"restaurant"}]},{"lat":"37.905991693","long":"127.05234421","imageIndex":4,"items":[{"name":"참치마니아","tel":"031-857-8816","addr":"경기도 동두천시 생연동 589-27번지","indutype":"일반휴게음식 - 일식·회집","category":"restaurant"}]},{"lat":"37.902685138","long":"127.05267173","imageIndex":4,"items":[{"name":"처가집","tel":"031-864-6640","addr":"경기도 동두천시 생연동 690-25번지","indutype":"일반휴게음식 - 일반한식","category":"restaurant"}]},{"lat":"37.901827132","long":"127.05745793","imageIndex":4,"items":[{"name":"청년순대국","tel":"031-861-8832","addr":"경기도 동두천시 생연동 638-2번지 1층","indutype":"일반휴게음식 - 일반한식","category":"restaurant"}]},{"lat":"37.899273327","long":"127.0658127","imageIndex":4,"items":[{"name":"청수면옥","tel":"031-861-3066","addr":"경기도 동두천시 생연동 293-9번지","indutype":"일반휴게음식 - 일반한식","category":"restaurant"}]},{"lat":"37.900658631","long":"127.05126051","imageIndex":4,"items":[{"name":"청주집","tel":"031-862-3643","addr":"경기도 동두천시 생연동 812-7번지","indutype":"일반휴게음식 - 일반한식","category":"restaurant"}]},{"lat":"37.906109126","long":"127.05159383","imageIndex":4,"items":[{"name":"청하","tel":"031-861-3737","addr":"경기도 동두천시 생연동 825-48번지","indutype":"일반휴게음식 - 주점","category":"restaurant"}]},{"lat":"37.910080458","long":"127.05570147","imageIndex":4,"items":[{"name":"초당두부촌","tel":"","addr":"경기도 동두천시 생연동 557-67번지 1층","indutype":"일반휴게음식 - 일반한식","category":"restaurant"}]},{"lat":"37.905496252","long":"127.05217332","imageIndex":4,"items":[{"name":"초원마차","tel":"031-862-5111","addr":"경기도 동두천시 생연동 588-62번지","indutype":"일반휴게음식 - 일반한식","category":"restaurant"}]},{"lat":"37.900468693","long":"127.05303407","imageIndex":4,"items":[{"name":"초코파이","tel":"031-861-7922","addr":"경기도 동두천시 생연동 695-3번지","indutype":"일반휴게음식 - 일반한식","category":"restaurant"}]},{"lat":"37.906162845","long":"127.05240118","imageIndex":4,"items":[{"name":"촌가","tel":"031-857-3369","addr":"경기도 동두천시 생연동 588-53번지","indutype":"일반휴게음식 - 일반한식","category":"restaurant"}]},{"lat":"37.909495935","long":"127.05323351","imageIndex":4,"items":[{"name":"촌닭","tel":"031-866-0910","addr":"경기도 동두천시 생연동 578-15번지","indutype":"일반휴게음식 - 일반한식","category":"restaurant"}]},{"lat":"37.907688888","long":"127.06417109","imageIndex":4,"items":[{"name":"추도령남원추어탕","tel":"031-863-9228","addr":"경기도 동두천시 생연동 223번지","indutype":"일반휴게음식 - 일반한식","category":"restaurant"}]},{"lat":"37.903385742","long":"127.05745908","imageIndex":4,"items":[{"name":"춘하추동식당","tel":"031-862-5252","addr":"경기도 동두천시 생연동 635-3번지","indutype":"일반휴게음식 - 일반한식","category":"restaurant"}]},{"lat":"37.904745824","long":"127.05815368","imageIndex":4,"items":[{"name":"츄츄바츄밥밥","tel":"031-861-7959","addr":"경기도 동두천시 생연동 450-34번지","indutype":"일반휴게음식 - 스넥","category":"restaurant"}]},{"lat":"37.911909467","long":"127.05542986","imageIndex":4,"items":[{"name":"치킨&하우스","tel":"031-867-0006","addr":"경기도 동두천시 생연동 570-30번지 1층","indutype":"일반휴게음식 - 주점","category":"restaurant"}]},{"lat":"37.899159568","long":"127.05917277","imageIndex":4,"items":[{"name":"치킨마루 생연점","tel":"031-862-8292","addr":"경기도 동두천시 생연동 376-2번지","indutype":"일반휴게음식 - 스넥","category":"restaurant"}]},{"lat":"37.897268625","long":"127.05701116","imageIndex":4,"items":[{"name":"치킨아지트","tel":"031-861-9982","addr":"경기도 동두천시 생연동 754-1번지 2동 3호","indutype":"일반휴게음식 - 스넥","category":"restaurant"}]},{"lat":"37.90835142","long":"127.05400596","imageIndex":4,"items":[{"name":"카리스마","tel":"031-861-6424","addr":"경기도 동두천시 생연동 611-27번지 2층","indutype":"일반휴게음식 - 주점","category":"restaurant"}]},{"lat":"37.897221046","long":"127.06226374","imageIndex":4,"items":[{"name":"카야","tel":"031-861-7170","addr":"경기도 동두천시 생연동 349-1번지","indutype":"일반휴게음식 - 주점","category":"restaurant"},{"name":"해피바이러스 테이블","tel":"031-868-0352","addr":"경기도 동두천시 생연동 349-1번지","indutype":"일반휴게음식 - 일반한식","category":"restaurant"},{"name":"후라이드참잘하는집","tel":"031-863-9291","addr":"경기도 동두천시 생연동 349-1번지 1층","indutype":"일반휴게음식 - 스넥","category":"restaurant"}]},{"lat":"37.903743266","long":"127.0632923","imageIndex":4,"items":[{"name":"카페모넬로","tel":"070-4845-0716","addr":"경기도 동두천시 생연동 433-1번지","indutype":"일반휴게음식 - 서양음식","category":"restaurant"}]},{"lat":"37.905324744","long":"127.05295777","imageIndex":4,"items":[{"name":"커피&유","tel":"031-865-3213","addr":"경기도 동두천시 생연동 659-2번지","indutype":"일반휴게음식 - 서양음식","category":"restaurant"}]},{"lat":"37.904550493","long":"127.05164965","imageIndex":4,"items":[{"name":"커피나무","tel":"070-8635-6274","addr":"경기도 동두천시 생연동 823-145번지","indutype":"일반휴게음식 - 서양음식","category":"restaurant"}]},{"lat":"37.912576083","long":"127.05558954","imageIndex":4,"items":[{"name":"커피닮다","tel":"031-822-7757","addr":"경기도 동두천시 생연동 570-12번지","indutype":"일반휴게음식 - 서양음식","category":"restaurant"}]},{"lat":"37.904495713","long":"127.05336655","imageIndex":4,"items":[{"name":"커피볶는집 카페엣","tel":"031-861-5330","addr":"경기도 동두천시 생연동 658-9번지","indutype":"일반휴게음식 - 서양음식","category":"restaurant"}]},{"lat":"37.913774094","long":"127.05609076","imageIndex":4,"items":[{"name":"코리아스넥","tel":"031-862-5401","addr":"경기도 동두천시 생연동 542-12번지","indutype":"일반휴게음식 - 스넥","category":"restaurant"}]},{"lat":"37.903604629","long":"127.05137614","imageIndex":4,"items":[{"name":"코코코","tel":"031-862-8416","addr":"경기도 동두천시 생연동 823-37번지","indutype":"일반휴게음식 - 일반한식","category":"restaurant"}]},{"lat":"37.913017477","long":"127.05572632","imageIndex":4,"items":[{"name":"콕스바베큐","tel":"031-864-5485","addr":"경기도 동두천시 생연동 570-110번지","indutype":"일반휴게음식 - 일반한식","category":"restaurant"}]},{"lat":"37.900856813","long":"127.05131749","imageIndex":4,"items":[{"name":"큰시장순대국","tel":"031-863-3357","addr":"경기도 동두천시 생연동 812-4번지","indutype":"일반휴게음식 - 일반한식","category":"restaurant"}]},{"lat":"37.91341381","long":"127.05589718","imageIndex":4,"items":[{"name":"킴스인터내셔날컴퍼니&킴스와우인디안레스","tel":"031-858-4006","addr":"경기도 동두천시 생연동 542-22번지","indutype":"일반휴게음식 - 서양음식","category":"restaurant"}]},{"lat":"37.907351348","long":"127.05409623","imageIndex":4,"items":[{"name":"타이춤페이","tel":"031-1111-1111","addr":"경기도 동두천시 생연동 608-22번지 2층","indutype":"일반휴게음식 - 일반한식","category":"restaurant"}]},{"lat":"37.908657075","long":"127.05550715","imageIndex":4,"items":[{"name":"타임머신","tel":"031-111-1111","addr":"경기도 동두천시 생연동 615-29번지","indutype":"일반휴게음식 - 일반한식","category":"restaurant"}]},{"lat":"37.913661848","long":"127.06456268","imageIndex":4,"items":[{"name":"털보네","tel":"031-861-6064","addr":"경기도 동두천시 생연동 162-2번지","indutype":"일반휴게음식 - 일반한식","category":"restaurant"}]},{"lat":"37.912827494","long":"127.05745468","imageIndex":4,"items":[{"name":"텍사스바베큐","tel":"031-861-3634","addr":"경기도 동두천시 생연동 538-8번지","indutype":"일반휴게음식 - 주점","category":"restaurant"}]},{"lat":"37.909438652","long":"127.0602836","imageIndex":4,"items":[{"name":"토박이네","tel":"031-857-3353","addr":"경기도 동두천시 생연동 516-16번지","indutype":"일반휴게음식 - 일반한식","category":"restaurant"}]},{"lat":"37.899303018","long":"127.06061682","imageIndex":4,"items":[{"name":"통큰갈비","tel":"031-859-5622","addr":"경기도 동두천시 생연동 388번지","indutype":"일반휴게음식 - 일반한식","category":"restaurant"}]},{"lat":"37.907991546","long":"127.05284587","imageIndex":4,"items":[{"name":"투투호프","tel":"031-866-8680","addr":"경기도 동두천시 생연동 586-35","indutype":"일반휴게음식 - 주점","category":"restaurant"}]},{"lat":"37.906325198","long":"127.05195783","imageIndex":4,"items":[{"name":"트위터","tel":"031-864-5633","addr":"경기도 동두천시 생연동 825-87번지","indutype":"일반휴게음식 - 주점","category":"restaurant"},{"name":"티디씨바(TDC Bar)","tel":"","addr":"경기도 동두천시 생연동 825-87번지 2층","indutype":"일반휴게음식 - 주점","category":"restaurant"}]},{"lat":"37.906108578","long":"127.05290145","imageIndex":4,"items":[{"name":"팝콘","tel":"031-858-9755","addr":"경기도 동두천시 생연동 590-9번지 1층","indutype":"일반휴게음식 - 주점","category":"restaurant"},{"name":"행복한밥집","tel":"031-859-6947","addr":"경기도 동두천시 생연동 590-9번지","indutype":"일반휴게음식 - 일반한식","category":"restaurant"}]},{"lat":"37.905108569","long":"127.05284392","imageIndex":4,"items":[{"name":"페리카나 터미널점","tel":"031-862-7853","addr":"경기도 동두천시 생연동 659-22번지","indutype":"일반휴게음식 - 스넥","category":"restaurant"}]},{"lat":"37.902297757","long":"127.05262599","imageIndex":4,"items":[{"name":"페리카나통","tel":"031-862-7666","addr":"경기도 동두천시 생연동 690-19번지","indutype":"일반휴게음식 - 일반한식","category":"restaurant"}]},{"lat":"37.903830001","long":"127.05103518","imageIndex":4,"items":[{"name":"평남면옥","tel":"031-865-2413","addr":"경기도 동두천시 생연동 824-28번지","indutype":"일반휴게음식 - 일반한식","category":"restaurant"}]},{"lat":"37.899218972","long":"127.06636977","imageIndex":4,"items":[{"name":"평남초계탕막국수","tel":"031-861-1354","addr":"경기도 동두천시 생연동 294-1번지","indutype":"일반휴게음식 - 일반한식","category":"restaurant"}]},{"lat":"37.898799075","long":"127.05942262","imageIndex":4,"items":[{"name":"평양초계탕막국수","tel":"031-858-1116","addr":"경기도 동두천시 생연동 369-10번지","indutype":"일반휴게음식 - 일반한식","category":"restaurant"}]},{"lat":"37.911773788","long":"127.05662378","imageIndex":4,"items":[{"name":"평양탕집","tel":"031-865-4047","addr":"경기도 동두천시 생연동 561-24번지","indutype":"일반휴게음식 - 일반한식","category":"restaurant"}]},{"lat":"37.910024268","long":"127.06026131","imageIndex":4,"items":[{"name":"평화반점","tel":"031-865-2606","addr":"경기도 동두천시 생연동 516-7번지","indutype":"일반휴게음식 - 중국식","category":"restaurant"}]},{"lat":"37.902466496","long":"127.05809512","imageIndex":4,"items":[{"name":"푸드딜라이트 동두천점","tel":"031-866-1944","addr":"경기도 동두천시 생연동 426-4번지","indutype":"일반휴게음식 - 일반한식","category":"restaurant"}]},{"lat":"37.898358752","long":"127.05701196","imageIndex":4,"items":[{"name":"풍천민물장어드림하우스","tel":"031-867-0592","addr":"경기도 동두천시 생연동 744-1번지","indutype":"일반휴게음식 - 일반한식","category":"restaurant"}]},{"lat":"37.907801754","long":"127.054233","imageIndex":4,"items":[{"name":"프로포즈","tel":"031-861-4979","addr":"경기도 동두천시 생연동 611-56번지","indutype":"일반휴게음식 - 서양음식","category":"restaurant"}]},{"lat":"37.901910299","long":"127.05276217","imageIndex":4,"items":[{"name":"피자스쿨동두천중앙역점","tel":"031-857-1191","addr":"경기도 동두천시 생연동 689-10번지 101호","indutype":"일반휴게음식 - 서양음식","category":"restaurant"}]},{"lat":"37.904800024","long":"127.05784672","imageIndex":4,"items":[{"name":"피자하우스","tel":"031-867-8822","addr":"경기도 동두천시 생연동 449-1번지","indutype":"일반휴게음식 - 서양음식","category":"restaurant"}]},{"lat":"37.906298066","long":"127.05220797","imageIndex":4,"items":[{"name":"하나네","tel":"031-868-0846","addr":"경기도 동두천시 생연동 589-3번지","indutype":"일반휴게음식 - 일반한식","category":"restaurant"}]},{"lat":"37.899802364","long":"127.05218089","imageIndex":4,"items":[{"name":"하나로웨딩부페","tel":"031-868-3310","addr":"경기도 동두천시 생연동 698-11번지","indutype":"일반휴게음식 - 일반한식","category":"restaurant"}]},{"lat":"37.905324875","long":"127.05265077","imageIndex":4,"items":[{"name":"하나식당","tel":"031-863-2552","addr":"경기도 동두천시 생연동 659-16 8","indutype":"일반휴게음식 - 일반한식","category":"restaurant"}]},{"lat":"37.909052741","long":"127.05714487","imageIndex":4,"items":[{"name":"하누옥","tel":"031-864-7443","addr":"경기도 동두천시 생연동 621-5번지","indutype":"일반휴게음식 - 일반한식","category":"restaurant"}]},{"lat":"37.908378664","long":"127.05350565","imageIndex":4,"items":[{"name":"하늘양푼","tel":"031-111-1111","addr":"경기도 동두천시 생연동 610-9번지","indutype":"일반휴게음식 - 일반한식","category":"restaurant"}]},{"lat":"37.900441921","long":"127.05243146","imageIndex":4,"items":[{"name":"하루엔소쿠","tel":"031-863-5550","addr":"경기도 동두천시 생연동 697-4번지","indutype":"일반휴게음식 - 일반한식","category":"restaurant"}]},{"lat":"37.902601636","long":"127.05809522","imageIndex":4,"items":[{"name":"하예랑","tel":"031-863-5788","addr":"경기도 동두천시 생연동 427-14번지","indutype":"일반휴게음식 - 스넥","category":"restaurant"}]},{"lat":"37.907747842","long":"127.0539032","imageIndex":4,"items":[{"name":"한방닭강정","tel":"031-857-5101","addr":"경기도 동두천시 생연동 609-18번지 106호","indutype":"일반휴게음식 - 스넥","category":"restaurant"}]},{"lat":"37.906018801","long":"127.05215093","imageIndex":4,"items":[{"name":"한잔포차","tel":"031-824-8220","addr":"경기도 동두천시 생연동 589-4번지","indutype":"일반휴게음식 - 일반한식","category":"restaurant"}]},{"lat":"37.899192109","long":"127.06606277","imageIndex":4,"items":[{"name":"할매왕족발","tel":"031-864-5251","addr":"경기도 동두천시 생연동 293-2번지","indutype":"일반휴게음식 - 일반한식","category":"restaurant"}]},{"lat":"37.905720376","long":"127.0547546","imageIndex":4,"items":[{"name":"할매우동","tel":"031-863-6869","addr":"경기도 동두천시 생연동 595-7번지","indutype":"일반휴게음식 - 스넥","category":"restaurant"}]},{"lat":"37.897470006","long":"127.06848296","imageIndex":4,"items":[{"name":"함경옥","tel":"031-861-3292","addr":"경기도 동두천시 생연동 317-17번지","indutype":"일반휴게음식 - 일반한식","category":"restaurant"}]},{"lat":"37.895495255","long":"127.07148263","imageIndex":4,"items":[{"name":"함흥냉면 생연점","tel":"031-858-7273","addr":"경기도 동두천시 생연동 45-1번지","indutype":"일반휴게음식 - 일반한식","category":"restaurant"}]},{"lat":"37.903914373","long":"127.06342889","imageIndex":4,"items":[{"name":"해물나무 동두천점","tel":"031-858-4343","addr":"경기도 동두천시 생연동 231-2번지","indutype":"일반휴게음식 - 일반한식","category":"restaurant"}]},{"lat":"37.899249283","long":"127.05995734","imageIndex":4,"items":[{"name":"해미원","tel":"031-859-5408","addr":"경기도 동두천시 생연동 378번지","indutype":"일반휴게음식 - 일반한식","category":"restaurant"}]},{"lat":"37.912214629","long":"127.05795458","imageIndex":4,"items":[{"name":"해바라기식당","tel":"031-864-0853","addr":"경기도 동두천시 생연동 506-1","indutype":"일반휴게음식 - 일반한식","category":"restaurant"}]},{"lat":"37.907526093","long":"127.0653649","imageIndex":4,"items":[{"name":"해방촌부흥국수","tel":"031-862-4939","addr":"경기도 동두천시 생연동 222-33번지","indutype":"일반휴게음식 - 일반한식","category":"restaurant"}]},{"lat":"37.903384196","long":"127.06069959","imageIndex":4,"items":[{"name":"햇살꿈앤카페매점","tel":"031-867-0090","addr":"경기도 동두천시 생연동 438번지 동두천시청","indutype":"일반휴게음식 - 서양음식","category":"restaurant"}]},{"lat":"37.908378708","long":"127.05340331","imageIndex":4,"items":[{"name":"행복한식당","tel":"031-862-0153","addr":"경기도 동두천시 생연동 583-7번지","indutype":"일반휴게음식 - 일반한식","category":"restaurant"}]},{"lat":"37.90746737","long":"127.05656379","imageIndex":4,"items":[{"name":"행운마차","tel":"001-0000-0000","addr":"경기도 동두천시 생연동 617-11번지 외2필지","indutype":"일반휴게음식 - 주점","category":"restaurant"}]},{"lat":"37.906189969","long":"127.05217378","imageIndex":4,"items":[{"name":"행운목","tel":"031-111-1111","addr":"경기도 동두천시 생연동 589-63번지","indutype":"일반휴게음식 - 일반한식","category":"restaurant"}]},{"lat":"37.901685943","long":"127.0506472","imageIndex":4,"items":[{"name":"향미식당","tel":"031-867-6579","addr":"경기도 동두천시 생연동 821-60번지","indutype":"일반휴게음식 - 일반한식","category":"restaurant"}]},{"lat":"37.902073274","long":"127.050818","imageIndex":4,"items":[{"name":"향촌숯불갈비","tel":"031-864-3833","addr":"경기도 동두천시 생연동 821-55번지","indutype":"일반휴게음식 - 일반한식","category":"restaurant"}]},{"lat":"37.909712099","long":"127.05337011","imageIndex":4,"items":[{"name":"허가네","tel":"031-859-8183","addr":"경기도 동두천시 생연동 578-12번지","indutype":"일반휴게음식 - 일반한식","category":"restaurant"}]},{"lat":"37.901108881","long":"127.05178382","imageIndex":4,"items":[{"name":"현재네시장식당","tel":"031-867-1217","addr":"경기도 동두천시 생연동 692-10번지","indutype":"일반휴게음식 - 일반한식","category":"restaurant"}]},{"lat":"37.907577215","long":"127.05261817","imageIndex":4,"items":[{"name":"협신오리더덕구이사골해장국","tel":"070-4176-9931","addr":"경기도 동두천시 생연동 586-38번지","indutype":"일반휴게음식 - 일반한식","category":"restaurant"}]},{"lat":"37.903883828","long":"127.05159236","imageIndex":4,"items":[{"name":"형제불고기","tel":"031-865-2021","addr":"경기도 동두천시 생연동 823-201번지","indutype":"일반휴게음식 - 일반한식","category":"restaurant"},{"name":"형제주점","tel":"031-865-2021","addr":"경기도 동두천시 생연동 823-201번지","indutype":"일반휴게음식 - 일반한식","category":"restaurant"}]},{"lat":"37.90908072","long":"127.05504123","imageIndex":4,"items":[{"name":"호수식당","tel":"031-865-3324","addr":"경기도 동두천시 생연동 613-44번지","indutype":"일반휴게음식 - 일반한식","category":"restaurant"}]},{"lat":"37.908297944","long":"127.05265277","imageIndex":4,"items":[{"name":"호우양꼬치","tel":"031-861-1919","addr":"경기도 동두천시 생연동 585-23번지","indutype":"일반휴게음식 - 일반한식","category":"restaurant"}]},{"lat":"37.898912372","long":"127.0668925","imageIndex":4,"items":[{"name":"홍국수","tel":"031-865-7679","addr":"경기도 동두천시 생연동 294-3번지","indutype":"일반휴게음식 - 일반한식","category":"restaurant"}]},{"lat":"37.902442758","long":"127.0505681","imageIndex":4,"items":[{"name":"홍대앞 카페","tel":"031-866-2339","addr":"경기도 동두천시 생연동 820-26번지 홍익빌라 102호","indutype":"일반휴게음식 - 서양음식","category":"restaurant"}]},{"lat":"37.909405866","long":"127.05317659","imageIndex":4,"items":[{"name":"홍삼오리회전구이","tel":"031-866-9297","addr":"경기도 동두천시 생연동 578-16번지","indutype":"일반휴게음식 - 일반한식","category":"restaurant"}]},{"lat":"37.905161689","long":"127.05500436","imageIndex":4,"items":[{"name":"홍성냉면옥숯불갈비","tel":"031-863-6963","addr":"경기도 동두천시 생연동 651-6번지","indutype":"일반휴게음식 - 일반한식","category":"restaurant"}]},{"lat":"37.898825966","long":"127.05970688","imageIndex":4,"items":[{"name":"홍익돈까스 동두천점","tel":"031-822-9890","addr":"경기도 동두천시 생연동 369-2번지 1층","indutype":"일반휴게음식 - 일반한식","category":"restaurant"}]},{"lat":"37.896914855","long":"127.06201337","imageIndex":4,"items":[{"name":"환희호프치킨","tel":"031-863-1118","addr":"경기도 동두천시 생연동 351번지","indutype":"일반휴게음식 - 주점","category":"restaurant"}]},{"lat":"37.904685204","long":"127.05267308","imageIndex":4,"items":[{"name":"황제포차","tel":"031-868-1238","addr":"경기도 동두천시 생연동 660-19번지 1층","indutype":"일반휴게음식 - 주점","category":"restaurant"}]},{"lat":"37.904991878","long":"127.0518205","imageIndex":4,"items":[{"name":"황주생고기","tel":"031-865-2026","addr":"경기도 동두천시 생연동 823-19번지","indutype":"일반휴게음식 - 일반한식","category":"restaurant"}]},{"lat":"37.908719202","long":"127.05756535","imageIndex":4,"items":[{"name":"황해집","tel":"031-865-3439","addr":"경기도 동두천시 생연동 489-16번지","indutype":"일반휴게음식 - 일반한식","category":"restaurant"}]},{"lat":"37.91057685","long":"127.05370047","imageIndex":4,"items":[{"name":"회관식당","tel":"031-864-2402","addr":"경기도 동두천시 생연동 579-23번지","indutype":"일반휴게음식 - 일반한식","category":"restaurant"}]},{"lat":"37.903052245","long":"127.05778857","imageIndex":4,"items":[{"name":"효서","tel":"070-4176-9931","addr":"경기도 동두천시 생연동 445-28번지 1층","indutype":"일반휴게음식 - 서양음식","category":"restaurant"}]},{"lat":"37.908406243","long":"127.05220937","imageIndex":4,"items":[{"name":"흙집","tel":"031-865-4992","addr":"경기도 동두천시 생연동 585-149번지","indutype":"일반휴게음식 - 일반한식","category":"restaurant"}]},{"lat":"37.908270118","long":"127.05450622","imageIndex":4,"items":[{"name":"히말라야레스토랑","tel":"070-4038-1729","addr":"경기도 동두천시 생연동 611-51번지","indutype":"일반휴게음식 - 서양음식","category":"restaurant"}]},{"lat":"37.904190144","long":"127.05159256","imageIndex":4,"items":[{"name":"힐링호프","tel":"031-866-2326","addr":"경기도 동두천시 생연동 823-48번지","indutype":"일반휴게음식 - 주점","category":"restaurant"}]}]