[{"lat":"37.300429205","long":"127.0464409","imageIndex":0,"items":[{"name":"(주)순리에너지","tel":"031-216-7201","addr":"경기도 수원시 영통구 이의동 1248-3번지 에이스광교타워 B114호","indutype":"자동차정비 유지 - 자동차부품","category":"car"},{"name":"에이스광교타워1관리단","tel":"031-217-7650","addr":"경기도 수원시 영통구 이의동 1248-3번지","indutype":"자동차정비 유지 - 주차장","category":"car"},{"name":"에이스광교타워1관리단","tel":"031-217-7650","addr":"경기도 수원시 영통구 이의동 1248-3번지","indutype":"자동차정비 유지 - 주차장","category":"car"},{"name":"주식회사 더볼드","tel":"","addr":"경기도 수원시 영통구 이의동 1248-3번지 316-3호","indutype":"자동차정비 유지 - 자동차부품","category":"car"}]},{"lat":"37.292066488","long":"127.04961636","imageIndex":0,"items":[{"name":"W타워주차장","tel":"031-225-7222","addr":"경기도 수원시 영통구 이의동 1330-1번지 더블유타워 301호~801호","indutype":"자동차정비 유지 - 주차장","category":"car"},{"name":"주식회사 케이식스","tel":"031-293-0369","addr":"경기도 수원시 영통구 이의동 1330-1번지 401호","indutype":"자동차정비 유지 - 주차장","category":"car"}]},{"lat":"37.298790462","long":"127.04328195","imageIndex":0,"items":[{"name":"광교대학로셀프세차장","tel":"031-898-9987","addr":"경기도 수원시 영통구 이의동 1275번지 1층","indutype":"자동차정비 유지 - 세차장","category":"car"}]},{"lat":"37.291850743","long":"127.04833059","imageIndex":0,"items":[{"name":"광교푸르지오 월드스퀘어","tel":"031-212-6611","addr":"경기도 수원시 영통구 이의동 1331번지 생활지원센터","indutype":"자동차정비 유지 - 주차장","category":"car"}]},{"lat":"37.297735988","long":"127.04408215","imageIndex":0,"items":[{"name":"뉴존","tel":"031-217-2508","addr":"경기도 수원시 영통구 이의동 1270-6번지","indutype":"자동차정비 유지 - 자동차부품","category":"car"}]},{"lat":"37.298680909","long":"127.04727451","imageIndex":0,"items":[{"name":"랩샵 (WRAP # )","tel":"031-213-5326","addr":"경기도 수원시 영통구 이의동 1243-8번지","indutype":"자동차정비 유지 - 자동차부품","category":"car"}]},{"lat":"37.298762061","long":"127.04711665","imageIndex":0,"items":[{"name":"리스토어 글래스","tel":"","addr":"경기도 수원시 영통구 이의동 1243-9번지 201호","indutype":"자동차정비 유지 - 카인테리어","category":"car"}]},{"lat":"37.298762361","long":"127.0463046","imageIndex":0,"items":[{"name":"리스토어 휠","tel":"031-216-1264","addr":"경기도 수원시 영통구 이의동 1264-1번지 102호 101","indutype":"자동차정비 유지 - 자동차시트·타이어","category":"car"}]},{"lat":"37.300483599","long":"127.04552734","imageIndex":0,"items":[{"name":"리치플러스건물관리 (주)","tel":"031-214-5522","addr":"경기도 수원시 영통구 이의동 1250번지 리치프라자2 901호","indutype":"자동차정비 유지 - 주차장","category":"car"}]},{"lat":"37.293843377","long":"127.04461009","imageIndex":0,"items":[{"name":"미소공(      )","tel":"031-252-4406","addr":"경기도 수원시 영통구 이의동 864-1번지 융합기술원 A동 10층","indutype":"자동차정비 유지 - 세차장","category":"car"}]},{"lat":"37.295072447","long":"127.05769331","imageIndex":0,"items":[{"name":"배터리세상","tel":"031-1666-5685","addr":"경기도 수원시 영통구 이의동 1298-3번지 302호","indutype":"자동차정비 유지 - 자동차부품","category":"car"}]},{"lat":"37.29859136","long":"127.0457744","imageIndex":0,"items":[{"name":"삼마일커스텀광교점(3마일커스텀광교점)","tel":"","addr":"경기도 수원시 영통구 이의동 1263-5번지 1층","indutype":"자동차정비 유지 - 자동차부품","category":"car"}]},{"lat":"37.298960657","long":"127.04611297","imageIndex":0,"items":[{"name":"세븐카","tel":"031-212-5006","addr":"경기도 수원시 영통구 이의동 1263-2번지 1층","indutype":"자동차정비 유지 - 자동차부품","category":"car"},{"name":"팬시라이드","tel":"031-214-5260","addr":"경기도 수원시 영통구 이의동 1263-2번지 101호","indutype":"자동차정비 유지 - 카인테리어","category":"car"}]},{"lat":"37.298537546","long":"127.04508638","imageIndex":0,"items":[{"name":"슈퍼윅스","tel":"031-214-2793","addr":"경기도 수원시 영통구 이의동 1262-7번지 101호","indutype":"자동차정비 유지 - 카인테리어","category":"car"}]},{"lat":"37.294399568","long":"127.05105011","imageIndex":0,"items":[{"name":"스팀보이 광교점","tel":"031-211-6980","addr":"경기도 수원시 영통구 이의동 1305-2번지","indutype":"자동차정비 유지 - 세차장","category":"car"}]},{"lat":"37.296316392","long":"127.05653255","imageIndex":0,"items":[{"name":"스피드메이트대호점","tel":"031-211-8363","addr":"경기도 수원시 영통구 이의동 27-1번지","indutype":"자동차정비 유지 - 자동차정비","category":"car"}]},{"lat":"37.288044605","long":"127.05736118","imageIndex":0,"items":[{"name":"신안개발","tel":"031-411-4127","addr":"경기도 수원시 영통구 이의동 1335번지 아이플렉스 202호","indutype":"자동차정비 유지 - 주차장","category":"car"}]},{"lat":"37.294011422","long":"127.05275282","imageIndex":0,"items":[{"name":"쌔카스팀세차 수원광교점","tel":"","addr":"경기도 수원시 영통구 이의동 1309-5번지 1층","indutype":"자동차정비 유지 - 세차장","category":"car"}]},{"lat":"37.295180659","long":"127.05750166","imageIndex":0,"items":[{"name":"쓰리와이드","tel":"031-8013-1066","addr":"경기도 수원시 영통구 이의동 1298-5번지 1층","indutype":"자동차정비 유지 - 자동차부품","category":"car"},{"name":"제이와이드","tel":"","addr":"경기도 수원시 영통구 이의동 1298-5번지","indutype":"자동차정비 유지 - 자동차부품","category":"car"}]},{"lat":"37.297600262","long":"127.04569489","imageIndex":0,"items":[{"name":"쓰리원샷(3ONESHOT)","tel":"031-306-0070","addr":"경기도 수원시 영통구 이의동 1267-3번지","indutype":"자동차정비 유지 - 카인테리어","category":"car"}]},{"lat":"37.297430096","long":"127.04275113","imageIndex":0,"items":[{"name":"에이스","tel":"","addr":"경기도 수원시 영통구 이의동 1276-4번지","indutype":"자동차정비 유지 - 카인테리어","category":"car"}]},{"lat":"37.295619415","long":"127.04161109","imageIndex":0,"items":[{"name":"에이스광교타워2 입주자대표위원회","tel":"031-8014-2700","addr":"경기도 수원시 영통구 이의동 1286-1번지","indutype":"자동차정비 유지 - 주차장","category":"car"}]},{"lat":"37.299348289","long":"127.0455831","imageIndex":0,"items":[{"name":"에이지트오일","tel":"031-212-1262","addr":"경기도 수원시 영통구 이의동 1262번지","indutype":"자동차정비 유지 - 윤활유 전문 판매","category":"car"},{"name":"에이지트카오디오","tel":"031-212-1262","addr":"경기도 수원시 영통구 이의동 1262번지","indutype":"자동차정비 유지 - 자동차부품","category":"car"}]},{"lat":"37.296036709","long":"127.05733311","imageIndex":0,"items":[{"name":"오토핏(Autofit)","tel":"070-7869-0909","addr":"경기도 수원시 영통구 이의동 1296-3번지 1층","indutype":"자동차정비 유지 - 세차장","category":"car"}]},{"lat":"37.300736016","long":"127.04516656","imageIndex":0,"items":[{"name":"주식회사 건물과사람","tel":"031-265-0065","addr":"경기도 수원시 영통구 이의동 1248번지 리치프라자 703호","indutype":"자동차정비 유지 - 주차장","category":"car"}]},{"lat":"37.292651957","long":"127.05011294","imageIndex":0,"items":[{"name":"주식회사 광교피에이","tel":"","addr":"경기도 수원시 영통구 이의동 1322-5번지 센트럴프라자 137호","indutype":"자동차정비 유지 - 주차장","category":"car"}]},{"lat":"37.299844614","long":"127.04341785","imageIndex":0,"items":[{"name":"주식회사 비엠에스종합관리","tel":"031-213-6755","addr":"경기도 수원시 영통구 이의동 1257-3번지 이스턴타워 206호","indutype":"자동차정비 유지 - 주차장","category":"car"}]},{"lat":"37.291510262","long":"127.0430525","imageIndex":0,"items":[{"name":"주식회사 홈엔카(HomenCar)","tel":"","addr":"경기도 수원시 영통구 이의동 906-5번지 경기도중소기업지원센터 305호","indutype":"자동차정비 유지 - 자동차부품","category":"car"}]},{"lat":"37.292877855","long":"127.04847782","imageIndex":0,"items":[{"name":"청송심씨안효공파종회","tel":"031-253-8060","addr":"경기도 수원시 영통구 이의동 1329번지 안효빌딩","indutype":"자동차정비 유지 - 주차장","category":"car"}]},{"lat":"37.293794244","long":"127.05491803","imageIndex":0,"items":[{"name":"카 팰리스","tel":"","addr":"경기도 수원시 영통구 이의동 1319-4번지 1층","indutype":"자동차정비 유지 - 카인테리어","category":"car"}]},{"lat":"37.298707826","long":"127.04757905","imageIndex":0,"items":[{"name":"크라운디테일링","tel":"031-213-3356","addr":"경기도 수원시 영통구 이의동 1243-2번지 1층","indutype":"자동차정비 유지 - 세차장","category":"car"}]},{"lat":"37.29898738","long":"127.04694761","imageIndex":0,"items":[{"name":"클란츠바겐","tel":"031-212-5807","addr":"경기도 수원시 영통구 이의동 1244-4번지 B101호","indutype":"자동차정비 유지 - 카인테리어","category":"car"}]},{"lat":"37.294370555","long":"127.0556966","imageIndex":0,"items":[{"name":"티팔육디테일링(T-86 Detailing)","tel":"031-213-5501","addr":"경기도 수원시 영통구 이의동 1317-3번지 1층 102호","indutype":"자동차정비 유지 - 세차장","category":"car"}]},{"lat":"37.294956422","long":"127.05524589","imageIndex":0,"items":[{"name":"헬라 카 케어","tel":"031-212-6304","addr":"경기도 수원시 영통구 이의동 1314-3번지 상가전체 1층","indutype":"자동차정비 유지 - 카인테리어","category":"car"}]}]