[{"lat":"37.41788842","long":"127.2932228","imageIndex":7,"items":[{"name":"(주)해드림푸드","tel":"","addr":"경기도 광주시 초월읍 지월리 397-2번지","indutype":"음료식품 - 기타음료식품","category":"food"}]},{"lat":"37.41783505","long":"127.2778595","imageIndex":7,"items":[{"name":"강민주의 집반찬","tel":"031-635-2000","addr":"경기도 광주시 초월읍 지월리 715-2번지 나동 1층","indutype":"음료식품 - 기타음료식품","category":"food"}]},{"lat":"37.40803386","long":"127.2885313","imageIndex":7,"items":[{"name":"갯마을","tel":"070-8200-5848","addr":"경기도 광주시 초월읍 지월리 638-4","indutype":"음료식품 - 농·축·수산품","category":"food"}]},{"lat":"37.41631266","long":"127.29647","imageIndex":7,"items":[{"name":"금강","tel":"031-761-8962","addr":"경기도 광주시 초월읍 지월리 885","indutype":"음료식품 - 기타음료식품","category":"food"}]},{"lat":"37.41603305","long":"127.3001967","imageIndex":7,"items":[{"name":"금빛농산","tel":"031-761-4933","addr":"경기도 광주시 초월읍 지월리 500-4번지","indutype":"음료식품 - 기타음료식품","category":"food"}]},{"lat":"37.40914288","long":"127.299198","imageIndex":7,"items":[{"name":"기가식품","tel":"031-769-9233","addr":"경기도 광주시 초월읍 지월리 159번지 32호","indutype":"음료식품 - 기타음료식품","category":"food"}]},{"lat":"37.42347561","long":"127.2964754","imageIndex":7,"items":[{"name":"농업회사법인 아이새참(주)","tel":"031-1644-8276","addr":"경기도 광주시 초월읍 지월리 470-1번지","indutype":"음료식품 - 농·축·수산품","category":"food"}]},{"lat":"37.41913739","long":"127.2872178","imageIndex":7,"items":[{"name":"뜰애","tel":"","addr":"경기도 광주시 초월읍 지월리 729-5번지","indutype":"음료식품 - 기타음료식품","category":"food"},{"name":"베네라이프 마켓","tel":"031-760-3664","addr":"경기도 광주시 초월읍 지월리 729-5번지 1층 SRC내 베네라이프마켓","indutype":"음료식품 - 기타음료식품","category":"food"}]},{"lat":"37.42650122","long":"127.2861159","imageIndex":7,"items":[{"name":"레드밀크","tel":"031-000-0000","addr":"경기도 광주시 초월읍 지월리 785-4번지 1층","indutype":"음료식품 - 기타음료식품","category":"food"}]},{"lat":"37.41753013","long":"127.2923629","imageIndex":7,"items":[{"name":"맑은들 F&B","tel":"031-000-0000","addr":"경기도 광주시 초월읍 지월리 568-20번지 현대밸리타운","indutype":"음료식품 - 기타음료식품","category":"food"}]},{"lat":"37.40833252","long":"127.291695","imageIndex":7,"items":[{"name":"모세수산","tel":"031-797-5400","addr":"경기도 광주시 초월읍 지월리 625번지","indutype":"음료식품 - 농·축·수산품","category":"food"}]},{"lat":"37.40883707","long":"127.2916969","imageIndex":7,"items":[{"name":"산우리","tel":"031-769-0136","addr":"경기도 광주시 초월읍 지월리 621번지","indutype":"음료식품 - 정육점","category":"food"}]},{"lat":"37.42672568","long":"127.2864444","imageIndex":7,"items":[{"name":"성진유통","tel":"070-4763-5713","addr":"경기도 광주시 초월읍 지월리 787-2번지","indutype":"음료식품 - 기타음료식품","category":"food"}]},{"lat":"37.41708602","long":"127.2860014","imageIndex":7,"items":[{"name":"아이유통","tel":"031-767-1503","addr":"경기도 광주시 초월읍 지월리 709-1번지 103호","indutype":"음료식품 - 기타음료식품","category":"food"}]},{"lat":"37.40952874","long":"127.292558","imageIndex":7,"items":[{"name":"우리산 양삼영농조합법인","tel":"031-797-9757","addr":"경기도 광주시 초월읍 지월리 619-1","indutype":"건강식품 - 인삼제품","category":"food"}]},{"lat":"37.40364064","long":"127.2907283","imageIndex":7,"items":[{"name":"우생미트","tel":"031-797-9235","addr":"경기도 광주시 초월읍 지월리 687번지","indutype":"음료식품 - 정육점","category":"food"}]},{"lat":"37.42572245","long":"127.2839777","imageIndex":7,"items":[{"name":"우진상회","tel":"031-762-2151","addr":"경기도 광주시 초월읍 지월리 751번지","indutype":"음료식품 - 기타음료식품","category":"food"}]},{"lat":"37.41478058","long":"127.3002256","imageIndex":7,"items":[{"name":"이디피(EDP) 신중원점","tel":"","addr":"경기도 광주시 초월읍 지월리 502-1번지","indutype":"음료식품 - 기타음료식품","category":"food"}]},{"lat":"37.42700105","long":"127.2880836","imageIndex":7,"items":[{"name":"자연광주리협동조합","tel":"031-768-0486","addr":"경기도 광주시 초월읍 지월리 548-6번지 1층","indutype":"음료식품 - 기타음료식품","category":"food"}]},{"lat":"37.41583874","long":"127.2761691","imageIndex":7,"items":[{"name":"자유공원","tel":"031-798-6117","addr":"경기도 광주시 초월읍 지월리 713-2번지","indutype":"음료식품 - 정육점","category":"food"}]},{"lat":"37.40278012","long":"127.2888953","imageIndex":7,"items":[{"name":"지월농원","tel":"031-762-0079","addr":"경기도 광주시 초월읍 지월리 681-2번지","indutype":"음료식품 - 농·축·수산품","category":"food"}]},{"lat":"37.42539154","long":"127.2867218","imageIndex":7,"items":[{"name":"킹크랩스","tel":"031-761-6007","addr":"경기도 광주시 초월읍 지월리 550-2번지","indutype":"음료식품 - 농·축·수산품","category":"food"}]},{"lat":"37.40423021","long":"127.2891154","imageIndex":7,"items":[{"name":"한국농산","tel":"031-718-3338","addr":"경기도 광주시 초월읍 지월리 685-1번지","indutype":"음료식품 - 농·축·수산품","category":"food"}]}]