[{"lat":"36.97160581","long":"127.07283462","imageIndex":17,"items":[{"name":"문성농기계","tel":"031-656-9227","addr":"경기도 평택시 팽성읍 추팔리 530-2번지","indutype":"수리서비스 - 기타수리서비스","category":"other"}]},{"lat":"36.956888602","long":"127.07720007","imageIndex":17,"items":[{"name":"미니스톱 추팔산업센터점","tel":"031-1577-9621","addr":"경기도 평택시 팽성읍 추팔리 396-1번지","indutype":"유통업 영리 - 편 의 점","category":"other"}]},{"lat":"36.960969865","long":"127.07816969","imageIndex":17,"items":[{"name":"성화스틸","tel":"031-651-2904","addr":"경기도 평택시 팽성읍 추팔리 349-6번지 1층","indutype":"건축자재 - 기타건축자재","category":"other"}]},{"lat":"36.962442411","long":"127.07192793","imageIndex":17,"items":[{"name":"씨유평택추팔산업단지점","tel":"031-657-2522","addr":"경기도 평택시 팽성읍 추팔리 273-2번지","indutype":"유통업 영리 - 편 의 점","category":"other"}]},{"lat":"36.961530155","long":"127.07556519","imageIndex":17,"items":[{"name":"아르가구","tel":"031-651-2310","addr":"경기도 평택시 팽성읍 추팔리 338-8","indutype":"주방용구 - 주방용식기","category":"other"},{"name":"아르가구","tel":"031-651-2310","addr":"경기도 평택시 팽성읍 추팔리 338-8번지","indutype":"가구 - 일반가구","category":"other"}]},{"lat":"36.962162645","long":"127.07266878","imageIndex":17,"items":[{"name":"우진무역","tel":"031-691-8158","addr":"경기도 평택시 팽성읍 추팔리 285-4번지","indutype":"유통업 영리 - 기타유통업","category":"other"}]},{"lat":"36.959719851","long":"127.0741487","imageIndex":17,"items":[{"name":"이마트24 평택추팔공단점","tel":"","addr":"경기도 평택시 팽성읍 추팔리 346-14번지 1층","indutype":"유통업 영리 - 편 의 점","category":"other"}]},{"lat":"36.973028394","long":"127.07470016","imageIndex":17,"items":[{"name":"진영산업","tel":"031-691-1844","addr":"경기도 평택시 팽성읍 추팔리 203-1번지","indutype":"레져용품 - 스포츠·레져용품","category":"other"}]},{"lat":"36.972551405","long":"127.0737339","imageIndex":17,"items":[{"name":"초원조경","tel":"070-7786-0708","addr":"경기도 평택시 팽성읍 추팔리 227-4번지","indutype":"소매업 - 조경수, 묘목","category":"other"}]},{"lat":"36.958165746","long":"127.08091784","imageIndex":17,"items":[{"name":"케이원 인터내셔널","tel":"070-5035-8966","addr":"경기도 평택시 팽성읍 추팔리 60-24번지","indutype":"농업 - 비료,사료,종자","category":"other"},{"name":"평택살수 주식회사","tel":"","addr":"경기도 평택시 팽성읍 추팔리 60-24번지","indutype":"용역 서비스 - 기타용역서비스","category":"other"}]},{"lat":"36.970300331","long":"127.07098048","imageIndex":17,"items":[{"name":"팽성농협 미곡처리장","tel":"031-656-1008","addr":"경기도 평택시 팽성읍 추팔리 228-16번지","indutype":"소매업 - 쌀","category":"other"}]}]