[{"lat":"37.286213591","long":"127.45684806","imageIndex":7,"items":[{"name":"RiNi베이킹스튜디오","tel":"070-4112-5062","addr":"경기도 이천시 갈산동 592-2번지 1층","indutype":"음료식품 - 제과점","category":"food"}]},{"lat":"37.28465676","long":"127.45398578","imageIndex":7,"items":[{"name":"가루영웅베이커리 갈산점","tel":"031-632-0459","addr":"경기도 이천시 갈산동 783번지 설봉1차푸르지오 113동 1층 101호","indutype":"음료식품 - 제과점","category":"food"}]},{"lat":"37.280803898","long":"127.4670653","imageIndex":7,"items":[{"name":"갈산상회","tel":"031-633-6331","addr":"경기도 이천시 갈산동 82-3번지","indutype":"음료식품 - 미곡상","category":"food"}]},{"lat":"37.284270028","long":"127.45615981","imageIndex":7,"items":[{"name":"경복궁","tel":"031-634-7803","addr":"경기도 이천시 갈산동 781번지 힐스테이트제 상가동 104호","indutype":"음료식품 - 제과점","category":"food"}]},{"lat":"37.285326582","long":"127.4648716","imageIndex":7,"items":[{"name":"굿모닝 유통","tel":"031-638-9986","addr":"경기도 이천시 갈산동 172-5번지","indutype":"음료식품 - 기타음료식품","category":"food"}]},{"lat":"37.282909221","long":"127.467845","imageIndex":7,"items":[{"name":"나이스0","tel":"031-636-7167","addr":"경기도 이천시 갈산동 141-3번지 10호","indutype":"음료식품 - 기타음료식품","category":"food"}]},{"lat":"37.282580162","long":"127.455101","imageIndex":7,"items":[{"name":"뚜레쥬르 이천갈산(2)","tel":"031-637-2249","addr":"경기도 이천시 갈산동 610번지 외1필지 1층","indutype":"음료식품 - 제과점","category":"food"}]},{"lat":"37.291104476","long":"127.46426412","imageIndex":7,"items":[{"name":"빈스맘마","tel":"","addr":"경기도 이천시 갈산동 510-2번지 1동 103호","indutype":"음료식품 - 기타음료식품","category":"food"}]},{"lat":"37.289299134","long":"127.46279835","imageIndex":7,"items":[{"name":"아이엠씨푸드","tel":"031-632-6009","addr":"경기도 이천시 갈산동 473번지","indutype":"음료식품 - 농·축·수산품","category":"food"}]},{"lat":"37.284382503","long":"127.45502157","imageIndex":7,"items":[{"name":"오마이베이커리","tel":"02-1234-1234","addr":"경기도 이천시 갈산동 601번지 스마트빌딩 1층 102-4호","indutype":"음료식품 - 제과점","category":"food"}]},{"lat":"37.280964662","long":"127.46742711","imageIndex":7,"items":[{"name":"이천정육점","tel":"031-635-2061","addr":"경기도 이천시 갈산동 81-2번지","indutype":"음료식품 - 정육점","category":"food"},{"name":"축산기업조합정육점","tel":"031-634-2061","addr":"경기도 이천시 갈산동 81-2번지","indutype":"음료식품 - 정육점","category":"food"}]},{"lat":"37.285435617","long":"127.4576553","imageIndex":7,"items":[{"name":"이현고등학교 매점","tel":"031-645-6591","addr":"경기도 이천시 갈산동 588번지 이현고등학교 지층","indutype":"음료식품 - 기타음료식품","category":"food"}]},{"lat":"37.283184606","long":"127.45490164","imageIndex":7,"items":[{"name":"청지기아이스크림","tel":"031-637-9292","addr":"경기도 이천시 갈산동 605-1번지","indutype":"음료식품 - 기타음료식품","category":"food"}]},{"lat":"37.28713609","long":"127.46756654","imageIndex":7,"items":[{"name":"충만한교회","tel":"070-7793-9179","addr":"경기도 이천시 갈산동 219-3번지","indutype":"음료식품 - 농·축·수산품","category":"food"}]},{"lat":"37.280768663","long":"127.45757084","imageIndex":7,"items":[{"name":"파리바게트 이천갈산주공점","tel":"031-635-7598","addr":"경기도 이천시 갈산동 716-1번지 주공프라자 1층 102,103호","indutype":"음료식품 - 제과점","category":"food"},{"name":"하루떡방","tel":"031-635-4535","addr":"경기도 이천시 갈산동 716-1번지 주공프라자 105호","indutype":"음료식품 - 제과점","category":"food"}]},{"lat":"37.289525057","long":"127.46724291","imageIndex":7,"items":[{"name":"해뜨락","tel":"031-632-8468","addr":"경기도 이천시 갈산동 539-3번지","indutype":"음료식품 - 기타음료식품","category":"food"}]}]