[{"lat":"37.066100271","long":"127.38788926","imageIndex":4,"items":[{"name":"30년옹고집","tel":"031-671-0082","addr":"경기도 안성시 죽산면 장능리 778번지","indutype":"일반휴게음식 - 일반한식","category":"restaurant"}]},{"lat":"37.063959564","long":"127.38392066","imageIndex":4,"items":[{"name":"다원","tel":"031-676-6068","addr":"경기도 안성시 죽산면 장능리 688번지","indutype":"일반휴게음식 - 일반한식","category":"restaurant"}]},{"lat":"37.06651453","long":"127.39072485","imageIndex":4,"items":[{"name":"맛집 세영이네","tel":"031-671-5504","addr":"경기도 안성시 죽산면 장능리 794-2번지","indutype":"일반휴게음식 - 일반한식","category":"restaurant"}]},{"lat":"37.069793506","long":"127.39916371","imageIndex":4,"items":[{"name":"본가장수촌","tel":"031-676-9285","addr":"경기도 안성시 죽산면 장능리 23-1번지","indutype":"일반휴게음식 - 일반한식","category":"restaurant"}]},{"lat":"37.073153675","long":"127.3912197","imageIndex":4,"items":[{"name":"소들목장","tel":"031-671-4117","addr":"경기도 안성시 죽산면 장능리 582-13번지","indutype":"일반휴게음식 - 일반한식","category":"restaurant"}]},{"lat":"37.066876965","long":"127.39010827","imageIndex":4,"items":[{"name":"솔밭","tel":"031-672-0650","addr":"경기도 안성시 죽산면 장능리 793-4번지 1층","indutype":"일반휴게음식 - 일반한식","category":"restaurant"}]},{"lat":"37.069268501","long":"127.38056263","imageIndex":4,"items":[{"name":"원해장국","tel":"031-673-1212","addr":"경기도 안성시 죽산면 장능리 670번지","indutype":"일반휴게음식 - 일반한식","category":"restaurant"}]},{"lat":"37.057774122","long":"127.38522762","imageIndex":4,"items":[{"name":"죽산개발주식회사","tel":"031-678-7024","addr":"경기도 안성시 죽산면 장능리 848-5번지","indutype":"일반휴게음식 - 일반한식","category":"restaurant"}]}]