[{"lat":"37.213686444","long":"126.73767101","imageIndex":8,"items":[{"name":"감초약국","tel":"031-357-1415","addr":"경기도 화성시 송산면 사강리 646-4번지","indutype":"약국 - 약국","category":"medical"}]},{"lat":"37.213407756","long":"126.73795363","imageIndex":8,"items":[{"name":"강치과의원","tel":"031-357-7669","addr":"경기도 화성시 송산면 사강리 643번지 2층","indutype":"의원 - 의원","category":"medical"},{"name":"중심한의원","tel":"031-357-8205","addr":"경기도 화성시 송산면 사강리 643번지","indutype":"의원 - 한의원","category":"medical"}]},{"lat":"37.213020235","long":"126.73392183","imageIndex":8,"items":[{"name":"미래약국","tel":"031-355-0513","addr":"경기도 화성시 송산면 사강리 694-8번지","indutype":"약국 - 약국","category":"medical"},{"name":"서울 선내과의원","tel":"","addr":"경기도 화성시 송산면 사강리 694-8번지 2층","indutype":"의원 - 의원","category":"medical"}]},{"lat":"37.213295131","long":"126.73594871","imageIndex":8,"items":[{"name":"미소한의원","tel":"031-357-9409","addr":"경기도 화성시 송산면 사강리 662-2번지 4층","indutype":"의원 - 한의원","category":"medical"}]},{"lat":"37.212847681","long":"126.73731344","imageIndex":8,"items":[{"name":"사강프라자약국","tel":"031-356-5132","addr":"경기도 화성시 송산면 사강리 647-3번지","indutype":"약국 - 약국","category":"medical"}]},{"lat":"37.213322922","long":"126.73628658","imageIndex":8,"items":[{"name":"송산그린한의원","tel":"031-355-7089","addr":"경기도 화성시 송산면 사강리 661-2번지 2층","indutype":"의원 - 한의원","category":"medical"}]},{"lat":"37.213298321","long":"126.73736819","imageIndex":8,"items":[{"name":"송산사강한의원","tel":"031-356-4024","addr":"경기도 화성시 송산면 사강리 647-7번지 한진빌딩 201호","indutype":"의원 - 한의원","category":"medical"}]},{"lat":"37.214074088","long":"126.73775978","imageIndex":8,"items":[{"name":"송산약국","tel":"031-355-0217","addr":"경기도 화성시 송산면 사강리 634-5번지 102호","indutype":"약국 - 약국","category":"medical"}]},{"lat":"37.213874852","long":"126.73730984","imageIndex":8,"items":[{"name":"연세홍내과","tel":"031-357-1150","addr":"경기도 화성시 송산면 사강리 632-3","indutype":"의원 - 의원","category":"medical"}]},{"lat":"37.214290763","long":"126.73795055","imageIndex":8,"items":[{"name":"제일의원","tel":"031-357-1503","addr":"경기도 화성시 송산면 사강리 634-1번지","indutype":"의원 - 의원","category":"medical"}]}]