[{"lat":"37.81636741","long":"127.09553138","imageIndex":13,"items":[{"name":"S#헤어(에스샵헤어)","tel":"","addr":"경기도 양주시 옥정동 1072-7번지 1층","indutype":"보건위생 - 미용원","category":"beauty"}]},{"lat":"37.815060207","long":"127.09658592","imageIndex":13,"items":[{"name":"To m hair(투엠헤어)","tel":"031-846-1359","addr":"경기도 양주시 옥정동 1069-5번지 103호","indutype":"보건위생 - 미용원","category":"beauty"},{"name":"잇츠네일","tel":"","addr":"경기도 양주시 옥정동 1069-5번지 1층 103호","indutype":"보건위생 - 피부미용실","category":"beauty"}]},{"lat":"37.820117037","long":"127.09334407","imageIndex":13,"items":[{"name":"VIP뷰티샵","tel":"031-861-5854","addr":"경기도 양주시 옥정동 966-2번지 폴리프라자1 606호","indutype":"보건위생 - 화장품","category":"beauty"},{"name":"어센드헤어","tel":"031-857-3636","addr":"경기도 양주시 옥정동 966-2번지 폴리프라자1 2층 205,206호","indutype":"보건위생 - 미용원","category":"beauty"}]},{"lat":"37.819369697","long":"127.09276394","imageIndex":13,"items":[{"name":"그룸헤어(Groom hair)","tel":"","addr":"경기도 양주시 옥정동 966-8번지 폴리프라자4 209호","indutype":"보건위생 - 미용원","category":"beauty"},{"name":"다온네일","tel":"","addr":"경기도 양주시 옥정동 966-8번지 폴리프라자4 305호","indutype":"보건위생 - 피부미용실","category":"beauty"},{"name":"스마일","tel":"031-857-5882","addr":"경기도 양주시 옥정동 966-8번지 5층 509호,510호","indutype":"보건위생 - 미용재료","category":"beauty"},{"name":"안경","tel":"031-928-6466","addr":"경기도 양주시 옥정동 966-8번지 105호","indutype":"보건위생 - 안경","category":"beauty"},{"name":"위맨즈WEMANZ","tel":"","addr":"경기도 양주시 옥정동 966-8번지 302호","indutype":"보건위생 - 피부미용실","category":"beauty"},{"name":"하나네일","tel":"","addr":"경기도 양주시 옥정동 966-8번지 폴리프라자4 401호","indutype":"보건위생 - 피부미용실","category":"beauty"}]},{"lat":"37.815059626","long":"127.09731274","imageIndex":13,"items":[{"name":"달콤헤어","tel":"031-858-0335","addr":"경기도 양주시 옥정동 1068-3번지 102호","indutype":"보건위생 - 미용원","category":"beauty"}]},{"lat":"37.831896335","long":"127.08800824","imageIndex":13,"items":[{"name":"도로시헤어","tel":"031-866-3989","addr":"경기도 양주시 옥정동 176-5번지 세창리베하우스 상가동 104호","indutype":"보건위생 - 미용원","category":"beauty"}]},{"lat":"37.820116502","long":"127.09403688","imageIndex":13,"items":[{"name":"라썸헤어 뷰티컴퍼니 옥점점","tel":"031-864-5333","addr":"경기도 양주시 옥정동 967-1번지 2층 206호","indutype":"보건위생 - 미용원","category":"beauty"},{"name":"명품 피부샵","tel":"031-841-9077","addr":"경기도 양주시 옥정동 967-1번지 601호","indutype":"보건위생 - 화장품","category":"beauty"}]},{"lat":"37.815953128","long":"127.09533779","imageIndex":13,"items":[{"name":"라이프 (Life)미용실","tel":"031-857-7199","addr":"경기도 양주시 옥정동 1071-12번지 104호","indutype":"보건위생 - 미용원","category":"beauty"}]},{"lat":"37.816176211","long":"127.098041","imageIndex":13,"items":[{"name":"래쉬홀릭","tel":"","addr":"경기도 양주시 옥정동 1079-4번지 조이빌딩 상가 102호","indutype":"보건위생 - 피부미용실","category":"beauty"}]},{"lat":"37.81847823","long":"127.09214957","imageIndex":13,"items":[{"name":"렌즈미 양주옥정점","tel":"031-867-3335","addr":"경기도 양주시 옥정동 963-14번지 센타프라자 113호,114호","indutype":"보건위생 - 안경","category":"beauty"}]},{"lat":"37.814533981","long":"127.08962365","imageIndex":13,"items":[{"name":"머리잘헤어#","tel":"031-000-0000","addr":"경기도 양주시 옥정동 1049-4번지 2층","indutype":"보건위생 - 미용원","category":"beauty"}]},{"lat":"37.830175015","long":"127.10030806","imageIndex":13,"items":[{"name":"미담헤어","tel":"","addr":"경기도 양주시 옥정동 1032번지 옥정천년나무8단지 상가동 102호","indutype":"보건위생 - 미용원","category":"beauty"}]},{"lat":"37.816315335","long":"127.09297602","imageIndex":13,"items":[{"name":"미소헤어","tel":"031-867-8877","addr":"경기도 양주시 옥정동 1051번지 e편한세상양주신도시2차 1동 105호","indutype":"보건위생 - 미용원","category":"beauty"}]},{"lat":"37.820919828","long":"127.09209572","imageIndex":13,"items":[{"name":"버즈헤어","tel":"","addr":"경기도 양주시 옥정동 963-6번지 202호","indutype":"보건위생 - 미용원","category":"beauty"},{"name":"안경창고싸군 옥정점","tel":"031-868-2438","addr":"경기도 양주시 옥정동 963-6번지 신운정프라자 1층 107호","indutype":"보건위생 - 안경","category":"beauty"},{"name":"트리스헤어","tel":"031-868-8282","addr":"경기도 양주시 옥정동 963-6번지 3층 303호","indutype":"보건위생 - 미용원","category":"beauty"}]},{"lat":"37.820117489","long":"127.09275349","imageIndex":13,"items":[{"name":"벌써일년","tel":"","addr":"경기도 양주시 옥정동 966-1번지 대길프라자 2층 203호","indutype":"보건위생 - 미용원","category":"beauty"},{"name":"베라스킨케어","tel":"031-847-2180","addr":"경기도 양주시 옥정동 966-1번지 303호","indutype":"보건위생 - 피부미용실","category":"beauty"},{"name":"부림케어","tel":"","addr":"경기도 양주시 옥정동 966-1번지 4층 404호","indutype":"보건위생 - 화장품","category":"beauty"},{"name":"옥정스파","tel":"031-868-8289","addr":"경기도 양주시 옥정동 966-1번지","indutype":"보건위생 - 피부미용실","category":"beauty"},{"name":"옥정스파24시사우나","tel":"031-868-6653","addr":"경기도 양주시 옥정동 966-1번지 8층","indutype":"보건위생 - 사우나","category":"beauty"},{"name":"윤헤어","tel":"031-821-3881","addr":"경기도 양주시 옥정동 966-1번지 2층 204호","indutype":"보건위생 - 미용원","category":"beauty"}]},{"lat":"37.819198075","long":"127.09334295","imageIndex":13,"items":[{"name":"뷰티케어","tel":"031-000-0000","addr":"경기도 양주시 옥정동 966-5번지 폴리타워 4층 411호","indutype":"보건위생 - 화장품","category":"beauty"}]},{"lat":"37.819036348","long":"127.09276353","imageIndex":13,"items":[{"name":"브로우하임","tel":"02-0000-0000","addr":"경기도 양주시 옥정동 966-7번지 폴리프라자 4층 410호","indutype":"보건위생 - 미용재료","category":"beauty"},{"name":"빗다(Bitta)","tel":"","addr":"경기도 양주시 옥정동 966-7번지 폴리프라자5차 2층 205호","indutype":"보건위생 - 미용원","category":"beauty"}]},{"lat":"37.820613508","long":"127.09209535","imageIndex":13,"items":[{"name":"블루클럽 옥정점","tel":"","addr":"경기도 양주시 옥정동 963-7번지 POP타워 110호","indutype":"보건위생 - 미용원","category":"beauty"}]},{"lat":"37.821254716","long":"127.09004039","imageIndex":13,"items":[{"name":"빗그리고가위","tel":"031-868-8414","addr":"경기도 양주시 옥정동 958번지 이편한세상양주 상가동 202호","indutype":"보건위생 - 미용원","category":"beauty"},{"name":"엔블리","tel":"031-1111-1111","addr":"경기도 양주시 옥정동 958번지 이편한세상양주 상가동 101호","indutype":"보건위생 - 피부미용실","category":"beauty"}]},{"lat":"37.816419512","long":"127.09798453","imageIndex":13,"items":[{"name":"샤플리헤어","tel":"031-859-2228","addr":"경기도 양주시 옥정동 1065-4번지 102호","indutype":"보건위생 - 미용원","category":"beauty"}]},{"lat":"37.815059917","long":"127.09694933","imageIndex":13,"items":[{"name":"샵히얼(#HERE)","tel":"070-7718-2283","addr":"경기도 양주시 옥정동 1068-1번지 1층 일부","indutype":"보건위생 - 피부미용실","category":"beauty"}]},{"lat":"37.817114951","long":"127.09583895","imageIndex":13,"items":[{"name":"손길미장원","tel":"070-4574-9636","addr":"경기도 양주시 옥정동 1073-1번지 103호","indutype":"보건위생 - 미용원","category":"beauty"}]},{"lat":"37.81978414","long":"127.09275308","imageIndex":13,"items":[{"name":"수뷰티","tel":"031-867-5789","addr":"경기도 양주시 옥정동 966-10번지 201호","indutype":"보건위생 - 화장품","category":"beauty"},{"name":"헤어하우스(HAIR HAUS.N)","tel":"031-866-2731","addr":"경기도 양주시 옥정동 966-10번지 폴리프라자3 2층 204호","indutype":"보건위생 - 미용원","category":"beauty"},{"name":"힐링뷰티샵","tel":"031-868-5953","addr":"경기도 양주시 옥정동 966-10번지 5층 507호","indutype":"보건위생 - 화장품","category":"beauty"}]},{"lat":"37.824696793","long":"127.08939702","imageIndex":13,"items":[{"name":"시몽헤어","tel":"070-7543-8880","addr":"경기도 양주시 옥정동 955번지 옥정센트럴파크푸르지오 상가 2층 102호","indutype":"보건위생 - 미용원","category":"beauty"}]},{"lat":"37.822446036","long":"127.09895768","imageIndex":13,"items":[{"name":"아까르마","tel":"031-858-5255","addr":"경기도 양주시 옥정동 1041-6번지 다올레이크프라자 1동 404호","indutype":"보건위생 - 미용원","category":"beauty"}]},{"lat":"37.81506036","long":"127.09639285","imageIndex":13,"items":[{"name":"아름드리","tel":"070-7878-5086","addr":"경기도 양주시 옥정동 1069-4번지 104호","indutype":"보건위생 - 화장품","category":"beauty"}]},{"lat":"37.835671343","long":"127.0879217","imageIndex":13,"items":[{"name":"어바웃네일","tel":"031-866-3781","addr":"경기도 양주시 옥정동 145-4번지 양주옥정3단지 상가동 204호","indutype":"보건위생 - 피부미용실","category":"beauty"}]},{"lat":"37.818450761","long":"127.09272875","imageIndex":13,"items":[{"name":"오렌즈아이웨어 양주옥정신도시점","tel":"031-857-0867","addr":"경기도 양주시 옥정동 963-15번지 M타워 1층 111호","indutype":"보건위생 - 안경","category":"beauty"},{"name":"플랜 제이 (PLAN J)","tel":"070-9856-8587","addr":"경기도 양주시 옥정동 963-15번지 M타워 110호","indutype":"보건위생 - 미용원","category":"beauty"}]},{"lat":"37.815029157","long":"127.09008986","imageIndex":13,"items":[{"name":"이루아","tel":"031-858-3624","addr":"경기도 양주시 옥정동 1049-2번지 중앙프라자 2층 202-2호","indutype":"보건위생 - 미용원","category":"beauty"}]},{"lat":"37.830006478","long":"127.09705917","imageIndex":13,"items":[{"name":"이유(2U)헤어","tel":"031-865-8298","addr":"경기도 양주시 옥정동 1027번지 율정마을7단지 105호","indutype":"보건위생 - 미용원","category":"beauty"}]},{"lat":"37.81978464","long":"127.09209435","imageIndex":13,"items":[{"name":"제로헤어","tel":"031-857-0780","addr":"경기도 양주시 옥정동 963-10번지 한길프라자 106호","indutype":"보건위생 - 미용원","category":"beauty"}]},{"lat":"37.821667611","long":"127.09209662","imageIndex":13,"items":[{"name":"진아트뮤직","tel":"031-1111-1111","addr":"경기도 양주시 옥정동 963-3번지 제일타워 405호","indutype":"보건위생 - 기타대인서비스","category":"beauty"},{"name":"청담","tel":"","addr":"경기도 양주시 옥정동 963-3번지 제일타워 11동 1105호","indutype":"보건위생 - 화장품","category":"beauty"},{"name":"헤어본","tel":"031-866-4032","addr":"경기도 양주시 옥정동 963-3번지 제일타워 301호","indutype":"보건위생 - 미용원","category":"beauty"}]},{"lat":"37.815474386","long":"127.08484356","imageIndex":13,"items":[{"name":"초록가위","tel":"031-864-1141","addr":"경기도 양주시 옥정동 936번지 e편한세상옥정더퍼스트 상가동 202호","indutype":"보건위생 - 미용원","category":"beauty"}]},{"lat":"37.814814799","long":"127.09925442","imageIndex":13,"items":[{"name":"트리니티헤어 옥정신도시점","tel":"031-868-9696","addr":"경기도 양주시 옥정동 1085-1번지 2016호","indutype":"보건위생 - 미용원","category":"beauty"}]},{"lat":"37.823563528","long":"127.0985616","imageIndex":13,"items":[{"name":"하랑","tel":"031-868-0351","addr":"경기도 양주시 옥정동 1041-1번지 201호","indutype":"보건위생 - 화장품","category":"beauty"},{"name":"하랑","tel":"031-868-0351","addr":"경기도 양주시 옥정동 1041-1번지 다올블루타워 2층 201호","indutype":"보건위생 - 피부미용실","category":"beauty"}]},{"lat":"37.81936872","long":"127.09403596","imageIndex":13,"items":[{"name":"헤아림 아동발달센터","tel":"031-866-7576","addr":"경기도 양주시 옥정동 967-4번지 비타민프라자 1동 6층 603호","indutype":"보건위생 - 기타대인서비스","category":"beauty"}]},{"lat":"37.831338302","long":"127.09900328","imageIndex":13,"items":[{"name":"헤어콜","tel":"","addr":"경기도 양주시 옥정동 1032-1번지 1층 107호","indutype":"보건위생 - 화장품","category":"beauty"}]}]