[{"lat":"37.672690317","long":"127.19974732","imageIndex":4,"items":[{"name":"광주식당","tel":"031-573-3780","addr":"경기도 남양주시 진건읍 송능리 130-3번지","indutype":"일반휴게음식 - 스넥","category":"restaurant"}]},{"lat":"37.648524323","long":"127.20097529","imageIndex":4,"items":[{"name":"기호네영양탕","tel":"031-573-3261","addr":"경기도 남양주시 진건읍 송능리 387-1","indutype":"일반휴게음식 - 일반한식","category":"restaurant"}]},{"lat":"37.676048657","long":"127.20638743","imageIndex":4,"items":[{"name":"남양동산식당","tel":"031-528-4444","addr":"경기도 남양주시 진건읍 송능리 48-3번지","indutype":"일반휴게음식 - 일반한식","category":"restaurant"}]},{"lat":"37.672193803","long":"127.20033542","imageIndex":4,"items":[{"name":"다솜이네","tel":"031-572-8836","addr":"경기도 남양주시 진건읍 송능리 134-1번지","indutype":"일반휴게음식 - 일반한식","category":"restaurant"},{"name":"청목","tel":"031-574-0610","addr":"경기도 남양주시 진건읍 송능리 134-1번지","indutype":"일반휴게음식 - 주점","category":"restaurant"}]},{"lat":"37.674913779","long":"127.20619163","imageIndex":4,"items":[{"name":"동산농장오리촌","tel":"031-529-5363","addr":"경기도 남양주시 진건읍 송능리 산19번지","indutype":"일반휴게음식 - 일반한식","category":"restaurant"}]},{"lat":"37.673915294","long":"127.19447972","imageIndex":4,"items":[{"name":"만수 염소탕","tel":"070-2648-1548","addr":"경기도 남양주시 진건읍 송능리 84-6번지 1층 일부","indutype":"일반휴게음식 - 일반한식","category":"restaurant"}]},{"lat":"37.669573047","long":"127.20503228","imageIndex":4,"items":[{"name":"부자밥상","tel":"031-574-0767","addr":"경기도 남양주시 진건읍 송능리 174-10번지 원미그린빌라 C동 101호","indutype":"일반휴게음식 - 일반한식","category":"restaurant"}]},{"lat":"37.672328491","long":"127.20060781","imageIndex":4,"items":[{"name":"송능한식뷔페쌈밥","tel":"031-527-6878","addr":"경기도 남양주시 진건읍 송능리 151-4번지","indutype":"일반휴게음식 - 일반한식","category":"restaurant"}]},{"lat":"37.673715957","long":"127.19517065","imageIndex":4,"items":[{"name":"수돈까스","tel":"031-529-2929","addr":"경기도 남양주시 진건읍 송능리 93-2번지","indutype":"일반휴게음식 - 서양음식","category":"restaurant"},{"name":"카페플라워","tel":"031-575-1360","addr":"경기도 남양주시 진건읍 송능리 93-2번지 중고백화점 1층","indutype":"일반휴게음식 - 서양음식","category":"restaurant"}]},{"lat":"37.672885201","long":"127.19631334","imageIndex":4,"items":[{"name":"시골밥상","tel":"031-529-5928","addr":"경기도 남양주시 진건읍 송능리 105번지","indutype":"일반휴게음식 - 일반한식","category":"restaurant"}]},{"lat":"37.67294234","long":"127.19989534","imageIndex":4,"items":[{"name":"시골순대국","tel":"031-571-9461","addr":"경기도 남양주시 진건읍 송능리 129-3번지 경남하이츠빌라","indutype":"일반휴게음식 - 일반한식","category":"restaurant"}]},{"lat":"37.672526037","long":"127.20100506","imageIndex":4,"items":[{"name":"써니포차","tel":"031-000-0000","addr":"경기도 남양주시 진건읍 송능리 150-5번지","indutype":"일반휴게음식 - 주점","category":"restaurant"},{"name":"착한식당","tel":"031-575-1025","addr":"경기도 남양주시 진건읍 송능리 150-5번지 1층","indutype":"일반휴게음식 - 일반한식","category":"restaurant"}]},{"lat":"37.668274425","long":"127.21092258","imageIndex":4,"items":[{"name":"약수울타리식당","tel":"031-574-9087","addr":"경기도 남양주시 진건읍 송능리 29-1번지","indutype":"일반휴게음식 - 일반한식","category":"restaurant"}]},{"lat":"37.669243969","long":"127.20777431","imageIndex":4,"items":[{"name":"에뜨왈","tel":"070-7997-0318","addr":"경기도 남양주시 진건읍 송능리 179-1번지","indutype":"일반휴게음식 - 서양음식","category":"restaurant"}]},{"lat":"37.672692898","long":"127.19819444","imageIndex":4,"items":[{"name":"우리식당","tel":"031-574-8591","addr":"경기도 남양주시 진건읍 송능리 121-38번지 외2필지","indutype":"일반휴게음식 - 일반한식","category":"restaurant"}]},{"lat":"37.67235681","long":"127.19983712","imageIndex":4,"items":[{"name":"원조멸치국수 진건점","tel":"031-572-9981","addr":"경기도 남양주시 진건읍 송능리 133번지 1층","indutype":"일반휴게음식 - 일반한식","category":"restaurant"}]},{"lat":"37.642998002","long":"127.20297743","imageIndex":4,"items":[{"name":"원조옛날에손만두국","tel":"031-575-9323","addr":"경기도 남양주시 진건읍 송능리 509번지 1층","indutype":"일반휴게음식 - 일반한식","category":"restaurant"}]},{"lat":"37.672633543","long":"127.20136806","imageIndex":4,"items":[{"name":"이가네통큰민물매운탕","tel":"031-573-7008","addr":"경기도 남양주시 진건읍 송능리 155-1번지","indutype":"일반휴게음식 - 일반한식","category":"restaurant"}]},{"lat":"37.647469528","long":"127.20136907","imageIndex":4,"items":[{"name":"적송골식당","tel":"031-573-7527","addr":"경기도 남양주시 진건읍 송능리 394-13","indutype":"일반휴게음식 - 일반한식","category":"restaurant"}]},{"lat":"37.669746379","long":"127.20377462","imageIndex":4,"items":[{"name":"주막거리","tel":"031-573-5599","addr":"경기도 남양주시 진건읍 송능리 238-1번지","indutype":"일반휴게음식 - 주점","category":"restaurant"}]},{"lat":"37.641255182","long":"127.19997026","imageIndex":4,"items":[{"name":"프로하스","tel":"031-529-4801","addr":"경기도 남양주시 진건읍 송능리 549번지 외12필지","indutype":"일반휴게음식 - 서양음식","category":"restaurant"},{"name":"프로하스/퓨전일식","tel":"031-529-4801","addr":"경기도 남양주시 진건읍 송능리 549번지 외12필지","indutype":"일반휴게음식 - 서양음식","category":"restaurant"},{"name":"프로하스/한식","tel":"031-529-4801","addr":"경기도 남양주시 진건읍 송능리 549번지 외12필지","indutype":"일반휴게음식 - 일반한식","category":"restaurant"}]},{"lat":"37.672772555","long":"127.1990561","imageIndex":4,"items":[{"name":"행복일번지분식카페","tel":"031-575-6080","addr":"경기도 남양주시 진건읍 송능리 115-22번지","indutype":"일반휴게음식 - 스넥","category":"restaurant"}]},{"lat":"37.671913612","long":"127.20086741","imageIndex":4,"items":[{"name":"흑룡각","tel":"031-573-3005","addr":"경기도 남양주시 진건읍 송능리 136-7번지","indutype":"일반휴게음식 - 중국식","category":"restaurant"}]}]