[{"lat":"37.824495827","long":"126.72329043","imageIndex":17,"items":[{"name":"(주)엘앤에스엘","tel":"070-4800-5069","addr":"경기도 파주시 탄현면 문지리 175-13번지","indutype":"레져용품 - 스포츠·레져용품","category":"other"},{"name":"정온쉘터(주)","tel":"031-8071-1430","addr":"경기도 파주시 탄현면 문지리 175-13번지","indutype":"레져용품 - 스포츠·레져용품","category":"other"}]},{"lat":"37.823390029","long":"126.72812172","imageIndex":17,"items":[{"name":"(주)월드윈/원격지","tel":"031-903-8935","addr":"경기도 파주시 탄현면 문지리 37-1번지","indutype":"기타 - 기타 전문점","category":"other"}]},{"lat":"37.826334355","long":"126.72737251","imageIndex":17,"items":[{"name":"(주)한국펌프","tel":"031-943-6651","addr":"경기도 파주시 탄현면 문지리 622번지","indutype":"건축자재 - 보일러·펌프·샷시","category":"other"}]},{"lat":"37.822972759","long":"126.72690798","imageIndex":17,"items":[{"name":"GS25탄현본점","tel":"","addr":"경기도 파주시 탄현면 문지리 208-1번지","indutype":"유통업 영리 - 편 의 점","category":"other"}]},{"lat":"37.822779452","long":"126.72515959","imageIndex":17,"items":[{"name":"디엔씨 테크","tel":"031-935-4000","addr":"경기도 파주시 탄현면 문지리 197번지","indutype":"전기제품 - 기타전기제품","category":"other"}]},{"lat":"37.826723659","long":"126.72434972","imageIndex":17,"items":[{"name":"리플랜","tel":"031-944-8616","addr":"경기도 파주시 탄현면 문지리 237-1번지","indutype":"용역 서비스 - 종합용역","category":"other"}]},{"lat":"37.822746487","long":"126.72646586","imageIndex":17,"items":[{"name":"보람안전물산","tel":"031-948-0572","addr":"경기도 파주시 탄현면 문지리 199-1번지","indutype":"기타 - 기계공구","category":"other"}]},{"lat":"37.826301313","long":"126.72865613","imageIndex":17,"items":[{"name":"빈세앙","tel":"070-8831-4750","addr":"경기도 파주시 탄현면 문지리 15-4번지","indutype":"주방용구 - 주방용구","category":"other"}]},{"lat":"37.828527462","long":"126.72901137","imageIndex":17,"items":[{"name":"신성유통","tel":"031-943-4113","addr":"경기도 파주시 탄현면 문지리 1번지","indutype":"레져용품 - 스포츠·레져용품","category":"other"}]},{"lat":"37.824224585","long":"126.73057197","imageIndex":17,"items":[{"name":"지오 공구","tel":"031-941-2509","addr":"경기도 파주시 탄현면 문지리 29번지","indutype":"기타 - 기계공구","category":"other"}]},{"lat":"37.824163558","long":"126.72757367","imageIndex":17,"items":[{"name":"진영공조 주식회사","tel":"031-948-1171","addr":"경기도 파주시 탄현면 문지리 210-18번지","indutype":"전기제품 - 냉열기기","category":"other"}]}]