[{"lat":"37.540789601","long":"127.20908562","imageIndex":16,"items":[{"name":"(주)비오비에듀테인먼트","tel":"031-793-8807","addr":"경기도 하남시 신장동 565-11번지 이현빌딩 2,4층","indutype":"학원 - 보습학원","category":"study"},{"name":"비오비플러스어학원","tel":"031-796-2666","addr":"경기도 하남시 신장동 565-11번지 이현빌딩 2층","indutype":"학원 - 외국어학원","category":"study"},{"name":"비오비학원","tel":"031-796-2666","addr":"경기도 하남시 신장동 565-11번지 4층","indutype":"회원제형태 - 학원","category":"study"},{"name":"하남와이즈만학원","tel":"031-793-1555","addr":"경기도 하남시 신장동 565-11번지 이현빌딩 3층","indutype":"학원 - 보습학원","category":"study"}]},{"lat":"37.539899175","long":"127.21331491","imageIndex":16,"items":[{"name":"(주)에듀비젼","tel":"031-792-6100","addr":"경기도 하남시 신장동 519-4번지 우정빌딩 6층","indutype":"학원 - 보습학원","category":"study"},{"name":"위너독서실","tel":"031-796-1020","addr":"경기도 하남시 신장동 519-4번지 우정빌딩 9층","indutype":"학원 - 독서실","category":"study"}]},{"lat":"37.541011665","long":"127.21595442","imageIndex":16,"items":[{"name":"ALL바른","tel":"070-4763-5091","addr":"경기도 하남시 신장동 523-1번지 현대베스코아빌딩 415호","indutype":"학원 - 기타 교육기관","category":"study"},{"name":"현대요양보호사교육원","tel":"031-796-0288","addr":"경기도 하남시 신장동 523-1번지 현대베스코아빌딩 1003호","indutype":"회원제형태 - 학원","category":"study"}]},{"lat":"37.541960448","long":"127.21939691","imageIndex":16,"items":[{"name":"ELI 영어 교습소","tel":"","addr":"경기도 하남시 신장동 96-15번지","indutype":"학원 - 외국어학원","category":"study"},{"name":"아소비학원","tel":"031-791-0799","addr":"경기도 하남시 신장동 96-15번지 201호","indutype":"학원 - 보습학원","category":"study"}]},{"lat":"37.540623132","long":"127.21152918","imageIndex":16,"items":[{"name":"K&J Academy","tel":"031-559-4416","addr":"경기도 하남시 신장동 387-1번지","indutype":"회원제형태 - 학원","category":"study"},{"name":"오선생영어조선생수학","tel":"","addr":"경기도 하남시 신장동 387-1번지 301호","indutype":"학원 - 보습학원","category":"study"},{"name":"용인대선일","tel":"031-795-4496","addr":"경기도 하남시 신장동 387-1번지","indutype":"학원 - 예·체능계학원","category":"study"},{"name":"이화뮤직스쿨음악학원","tel":"031-792-7345","addr":"경기도 하남시 신장동 387-1번지 302호","indutype":"학원 - 예·체능계학원","category":"study"}]},{"lat":"37.540426537","long":"127.21566988","imageIndex":16,"items":[{"name":"고시원","tel":"031-796-4900","addr":"경기도 하남시 신장동 524-3번지 4층","indutype":"학원 - 독서실","category":"study"}]},{"lat":"37.540681088","long":"127.20931162","imageIndex":16,"items":[{"name":"공부뒤집기학원","tel":"031-796-0996","addr":"경기도 하남시 신장동 565-9번지 수헌빌딩 4층","indutype":"학원 - 보습학원","category":"study"},{"name":"오름학원","tel":"02-778-4169","addr":"경기도 하남시 신장동 565-9번지 수헌빌딩 6층","indutype":"학원 - 보습학원","category":"study"},{"name":"위너스학원","tel":"031-794-8616","addr":"경기도 하남시 신장동 565-9번지 수헌빌딩 3층","indutype":"학원 - 보습학원","category":"study"},{"name":"정쓰잉글리쉬","tel":"031-794-0582","addr":"경기도 하남시 신장동 565-9번지 수헌빌딩 6층","indutype":"회원제형태 - 학원","category":"study"},{"name":"하늘그리는코끼리미술학원","tel":"031-794-9279","addr":"경기도 하남시 신장동 565-9번지","indutype":"학원 - 예·체능계학원","category":"study"}]},{"lat":"37.543262992","long":"127.22150533","imageIndex":16,"items":[{"name":"관인하남유치원[아이행복]","tel":"031-793-6701","addr":"경기도 하남시 신장동 89-1","indutype":"학원 - 유치원","category":"study"}]},{"lat":"37.539510444","long":"127.21902776","imageIndex":16,"items":[{"name":"광개토학원","tel":"070-8145-6462","addr":"경기도 하남시 신장동 528번지 3층 일부","indutype":"학원 - 보습학원","category":"study"},{"name":"한국체대천마태권도","tel":"031-793-0098","addr":"경기도 하남시 신장동 528번지 116동 201호 203호 백조현대하파트단지내상가","indutype":"학원 - 예·체능계학원","category":"study"}]},{"lat":"37.540510853","long":"127.21387105","imageIndex":16,"items":[{"name":"그리다봄 작업실","tel":"070-4645-5995","addr":"경기도 하남시 신장동 519번지","indutype":"학원 - 예·체능계학원","category":"study"}]},{"lat":"37.536902052","long":"127.20637079","imageIndex":16,"items":[{"name":"그린 고시텔","tel":"031-791-2019","addr":"경기도 하남시 신장동 430-23번지 외 1필지","indutype":"학원 - 독서실","category":"study"}]},{"lat":"37.542069498","long":"127.21888805","imageIndex":16,"items":[{"name":"금강유치원[아이행복]","tel":"031-796-6900","addr":"경기도 하남시 신장동 527-4번지","indutype":"학원 - 유치원","category":"study"}]},{"lat":"37.543317025","long":"127.21155932","imageIndex":16,"items":[{"name":"깨비논술전문학원","tel":"031-791-1133","addr":"경기도 하남시 신장동 589-3번지 덕풍프라자 401호","indutype":"학원 - 보습학원","category":"study"},{"name":"엠베스트SE(신장본원)","tel":"031-796-1389","addr":"경기도 하남시 신장동 589-3번지 덕풍프라자 302호","indutype":"학원 - 보습학원","category":"study"},{"name":"잉글리시아이&차이랑하남신장점학원","tel":"070-4789-2381","addr":"경기도 하남시 신장동 589-3번지 덕풍프라자 4층 402호","indutype":"학원 - 보습학원","category":"study"},{"name":"탑연세음악학원","tel":"031-791-3372","addr":"경기도 하남시 신장동 589-3번지 덕풍프라자 501호","indutype":"학원 - 예·체능계학원","category":"study"}]},{"lat":"37.541259978","long":"127.22302701","imageIndex":16,"items":[{"name":"꿈꾸는 모차르트 음악학원","tel":"031-793-1375","addr":"경기도 하남시 신장동 82-2번지 2층","indutype":"학원 - 예·체능계학원","category":"study"}]},{"lat":"37.540626831","long":"127.20942462","imageIndex":16,"items":[{"name":"꿈이룸영수학원","tel":"031-793-8828","addr":"경기도 하남시 신장동 565-8번지 소원빌딩 3층","indutype":"학원 - 보습학원","category":"study"}]},{"lat":"37.536317061","long":"127.21116644","imageIndex":16,"items":[{"name":"네오영어 버디매쓰","tel":"031-795-0591","addr":"경기도 하남시 신장동 472-9번지 3층","indutype":"학원 - 보습학원","category":"study"}]},{"lat":"37.540934193","long":"127.20883709","imageIndex":16,"items":[{"name":"담헌수학학원","tel":"031-795-3077","addr":"경기도 하남시 신장동 565-13번지 6층","indutype":"회원제형태 - 학원","category":"study"},{"name":"최문일영어교습소","tel":"031-792-0579","addr":"경기도 하남시 신장동 565-13번지 4층","indutype":"회원제형태 - 학원","category":"study"}]},{"lat":"37.536516952","long":"127.2152854","imageIndex":16,"items":[{"name":"동부주산학원","tel":"031-792-3156","addr":"경기도 하남시 신장동 531-8번지 2층","indutype":"학원 - 기타 교육기관","category":"study"}]},{"lat":"37.540649521","long":"127.21189133","imageIndex":16,"items":[{"name":"딱따구리 어린이집[아이행복]","tel":"031-792-9902","addr":"경기도 하남시 신장동 388-9번지 지앤지빌","indutype":"학원 - 유아원","category":"study"}]},{"lat":"37.541458651","long":"127.20775229","imageIndex":16,"items":[{"name":"뚱스학원","tel":"031-794-4159","addr":"경기도 하남시 신장동 564-7번지 우리빌딩 6층","indutype":"학원 - 보습학원","category":"study"},{"name":"주식회사 하남정상어학원","tel":"031-793-0020","addr":"경기도 하남시 신장동 564-7번지 우리빌딩 4층","indutype":"학원 - 외국어학원","category":"study"},{"name":"주식회사 하남페르마학원","tel":"031-793-7020","addr":"경기도 하남시 신장동 564-7번지 우리빌딩 5층","indutype":"학원 - 보습학원","category":"study"}]},{"lat":"37.540434383","long":"127.21631485","imageIndex":16,"items":[{"name":"라온독서실","tel":"031-793-1997","addr":"경기도 하남시 신장동 524-6번지 2층, 5층 일부","indutype":"학원 - 독서실","category":"study"},{"name":"메이저수학전문학원","tel":"031-796-0577","addr":"경기도 하남시 신장동 524-6번지 6층","indutype":"학원 - 보습학원","category":"study"},{"name":"현대컴퓨터전산회계학원","tel":"031-794-9873","addr":"경기도 하남시 신장동 524-6번지","indutype":"회원제형태 - 학원","category":"study"}]},{"lat":"37.540292299","long":"127.21009127","imageIndex":16,"items":[{"name":"리딩스쿨영어독서전문학원","tel":"031-796-4805","addr":"경기도 하남시 신장동 565-2번지 3층","indutype":"학원 - 보습학원","category":"study"}]},{"lat":"37.54167762","long":"127.21133977","imageIndex":16,"items":[{"name":"리만수학보습학원","tel":"031-795-7920","addr":"경기도 하남시 신장동 381-31번지","indutype":"학원 - 보습학원","category":"study"},{"name":"어린음악대칸타빌레학원","tel":"031-793-3573","addr":"경기도 하남시 신장동 381-31번지 3층","indutype":"학원 - 예·체능계학원","category":"study"}]},{"lat":"37.542073171","long":"127.21183873","imageIndex":16,"items":[{"name":"마루한보습학원","tel":"031-795-7634","addr":"경기도 하남시 신장동 381-57번지 아트빌딩 2층","indutype":"학원 - 기타 교육기관","category":"study"}]},{"lat":"37.54048214","long":"127.20972972","imageIndex":16,"items":[{"name":"매쓰메이트수학학원","tel":"031-793-1866","addr":"경기도 하남시 신장동 565-5번지 3층","indutype":"학원 - 보습학원","category":"study"}]},{"lat":"37.540876607","long":"127.22084209","imageIndex":16,"items":[{"name":"맵플러스수학전문학원","tel":"031-796-8033","addr":"경기도 하남시 신장동 105-4번지","indutype":"회원제형태 - 학원","category":"study"},{"name":"이엠제이 영어학원","tel":"02-1111-1111","addr":"경기도 하남시 신장동 105-4번지 하남프라자 3층 306,307호","indutype":"학원 - 외국어학원","category":"study"},{"name":"인스영수전문학원","tel":"031-796-4183","addr":"경기도 하남시 신장동 105-4번지 대명상가 402,403호","indutype":"학원 - 보습학원","category":"study"},{"name":"차수학신장한신학원","tel":"031-796-3537","addr":"경기도 하남시 신장동 105-4번지 대영상가 407호","indutype":"학원 - 보습학원","category":"study"},{"name":"튼튼영어(튼튼영어마스터클럽하남학원)","tel":"031-791-0502","addr":"경기도 하남시 신장동 105-4번지 하남프라자 307호","indutype":"학원 - 보습학원","category":"study"},{"name":"해법수학셀파수학교실교습소","tel":"031-792-8891","addr":"경기도 하남시 신장동 105-4번지 대명상가(지우제) 404호","indutype":"학원 - 보습학원","category":"study"}]},{"lat":"37.541564741","long":"127.20891803","imageIndex":16,"items":[{"name":"메리트어학원","tel":"070-8804-0579","addr":"경기도 하남시 신장동 563-4번지 3층","indutype":"학원 - 외국어학원","category":"study"},{"name":"메리트엠알스터디학원","tel":"031-793-1615","addr":"경기도 하남시 신장동 563-4번지 2층","indutype":"학원 - 보습학원","category":"study"},{"name":"신장피플미술학원","tel":"031-796-4048","addr":"경기도 하남시 신장동 563-4번지 그랜드이엔씨빌딩 5층","indutype":"학원 - 예·체능계학원","category":"study"},{"name":"키즈킹","tel":"031-791-5570","addr":"경기도 하남시 신장동 563-4번지 그랜드빌딩 6층","indutype":"학원 - 보습학원","category":"study"}]},{"lat":"37.540735345","long":"127.20919862","imageIndex":16,"items":[{"name":"메이커킹미술학원","tel":"031-796-6220","addr":"경기도 하남시 신장동 565-10번지 재옥빌딩 2층","indutype":"학원 - 예·체능계학원","category":"study"},{"name":"윌리엄슨영어학원","tel":"031-796-0085","addr":"경기도 하남시 신장동 565-10번지 재옥빌딩 4층","indutype":"회원제형태 - 학원","category":"study"},{"name":"큐수학학원","tel":"","addr":"경기도 하남시 신장동 565-10번지 재옥빌딩 3층","indutype":"학원 - 보습학원","category":"study"}]},{"lat":"37.545204699","long":"127.21403138","imageIndex":16,"items":[{"name":"뮤엠영어신평초점","tel":"","addr":"경기도 하남시 신장동 593번지 하남유시티대명루첸리버파크 108동 302호","indutype":"학원 - 기타 교육기관","category":"study"},{"name":"시립대명루첸어린이집[아이행복]","tel":"031-796-1279","addr":"경기도 하남시 신장동 593번지 하남유시티대명루첸리버파크","indutype":"학원 - 유아원","category":"study"}]},{"lat":"37.540426129","long":"127.21589618","imageIndex":16,"items":[{"name":"미니하우스","tel":"031-793-3500","addr":"경기도 하남시 신장동 524-4번지 4층","indutype":"학원 - 독서실","category":"study"},{"name":"제일빌딩","tel":"031-795-4000","addr":"경기도 하남시 신장동 524-4번지","indutype":"학원 - 독서실","category":"study"},{"name":"토즈스터디센터 신장독서실","tel":"031-792-0956","addr":"경기도 하남시 신장동 524-4번지 제일빌딩","indutype":"학원 - 독서실","category":"study"},{"name":"하남고시텔","tel":"031-794-0404","addr":"경기도 하남시 신장동 524-4번지 5층","indutype":"학원 - 독서실","category":"study"}]},{"lat":"37.540238042","long":"127.21020427","imageIndex":16,"items":[{"name":"미술로생각하기 하남학원","tel":"031-794-0946","addr":"경기도 하남시 신장동 565-1번지 진성빌딩 3층","indutype":"학원 - 예·체능계학원","category":"study"}]},{"lat":"37.540155839","long":"127.21083768","imageIndex":16,"items":[{"name":"박윤정국악예술원","tel":"031-792-0909","addr":"경기도 하남시 신장동 407-6번지","indutype":"학원 - 예·체능계학원","category":"study"}]},{"lat":"37.53839846","long":"127.20592227","imageIndex":16,"items":[{"name":"백제고시텔","tel":"070-7420-1952","addr":"경기도 하남시 신장동 427-464번지 1,2층","indutype":"학원 - 독서실","category":"study"}]},{"lat":"37.541929314","long":"127.2116686","imageIndex":16,"items":[{"name":"블랙수학전문학원","tel":"","addr":"경기도 하남시 신장동 381-26번지 3층","indutype":"학원 - 보습학원","category":"study"},{"name":"신장지앤비학원","tel":"031-795-0504","addr":"경기도 하남시 신장동 381-26번지 2층","indutype":"학원 - 보습학원","category":"study"},{"name":"엠스터디수학전문학원","tel":"031-792-6098","addr":"경기도 하남시 신장동 381-26번지 외1필지 3층","indutype":"학원 - 보습학원","category":"study"},{"name":"이지영어전문학원","tel":"031-796-4441","addr":"경기도 하남시 신장동 381-26번지 2층 외1필지","indutype":"학원 - 보습학원","category":"study"}]},{"lat":"37.541124128","long":"127.20841896","imageIndex":16,"items":[{"name":"사쿠라일본어어학원","tel":"031-796-7533","addr":"경기도 하남시 신장동 564-1번지","indutype":"회원제형태 - 학원","category":"study"},{"name":"수학과표현학원","tel":"031-796-9001","addr":"경기도 하남시 신장동 564-1번지 심산빌딩 5층","indutype":"학원 - 보습학원","category":"study"},{"name":"장원독서실","tel":"031-795-5735","addr":"경기도 하남시 신장동 564-1번지 심산빌딩 8층","indutype":"학원 - 독서실","category":"study"}]},{"lat":"37.539537178","long":"127.20911612","imageIndex":16,"items":[{"name":"새별어린이집[아이행복]","tel":"031-793-1273","addr":"경기도 하남시 신장동 444-50번지","indutype":"학원 - 유아원","category":"study"}]},{"lat":"37.54123262","long":"127.20820427","imageIndex":16,"items":[{"name":"새하남 학원","tel":"031-8027-0800","addr":"경기도 하남시 신장동 564-3번지 새하남빌딩 6층","indutype":"학원 - 기능학원","category":"study"},{"name":"세종학원","tel":"031-793-7149","addr":"경기도 하남시 신장동 564-3번지 새하남빌딩 2층","indutype":"학원 - 보습학원","category":"study"},{"name":"스토리가든어학원","tel":"031-796-6675","addr":"경기도 하남시 신장동 564-3새하남빌딩6층602.7층","indutype":"회원제형태 - 학원","category":"study"}]},{"lat":"37.540346616","long":"127.20994433","imageIndex":16,"items":[{"name":"생각만큼수학","tel":"031-111-1111","addr":"경기도 하남시 신장동 565-3번지 보문빌딩 2층","indutype":"학원 - 보습학원","category":"study"},{"name":"아이리스피부미용학원","tel":"031-795-5376","addr":"경기도 하남시 신장동 565-3번지 보문빌딩 5층","indutype":"학원 - 기능학원","category":"study"},{"name":"은가람무용학원","tel":"031-795-3636","addr":"경기도 하남시 신장동 565-3번지 보문빌딩 8층","indutype":"학원 - 예·체능계학원","category":"study"}]},{"lat":"37.542234867","long":"127.21211075","imageIndex":16,"items":[{"name":"서영샘영어학원","tel":"031-796-5202","addr":"경기도 하남시 신장동 381-22번지 3층","indutype":"학원 - 외국어학원","category":"study"}]},{"lat":"37.546487113","long":"127.21233763","imageIndex":16,"items":[{"name":"성심어린이집[아이행복]","tel":"031-796-5408","addr":"경기도 하남시 신장동 330-4번지","indutype":"학원 - 유아원","category":"study"}]},{"lat":"37.539649272","long":"127.21197906","imageIndex":16,"items":[{"name":"수학능력발전소","tel":"","addr":"경기도 하남시 신장동 517번지 블루밍더클래식 102동 902호","indutype":"회원제형태 - 학원","category":"study"}]},{"lat":"37.540183744","long":"127.2103399","imageIndex":16,"items":[{"name":"수학예찬스카이랩학원","tel":"031-000-0000","addr":"경기도 하남시 신장동 565번지 SK빌딩 5층","indutype":"학원 - 보습학원","category":"study"},{"name":"천지개벽학원","tel":"031-791-0200","addr":"경기도 하남시 신장동 565번지 SK빌딩 5층","indutype":"학원 - 보습학원","category":"study"}]},{"lat":"37.542822954","long":"127.22072329","imageIndex":16,"items":[{"name":"스타필드어린이집[아이행복]","tel":"070-4600-7405","addr":"경기도 하남시 신장동 90-7번지","indutype":"학원 - 유아원","category":"study"}]},{"lat":"37.540399956","long":"127.21542088","imageIndex":16,"items":[{"name":"시작독서실","tel":"031-795-4377","addr":"경기도 하남시 신장동 524-2번지 우신빌딩 6층 601호","indutype":"학원 - 독서실","category":"study"},{"name":"시작독서실 (하남점)","tel":"031-795-4377","addr":"경기도 하남시 신장동 524-2번지 우신빌딩","indutype":"학원 - 독서실","category":"study"}]},{"lat":"37.540155335","long":"127.20594966","imageIndex":16,"items":[{"name":"신성태권도","tel":"031-794-7798","addr":"경기도 하남시 신장동 427-246번지","indutype":"학원 - 예·체능계학원","category":"study"}]},{"lat":"37.540794558","long":"127.21139388","imageIndex":16,"items":[{"name":"신호등아카데미컴퓨터교습소","tel":"","addr":"경기도 하남시 신장동 387-6번지 2층","indutype":"학원 - 기타 교육기관","category":"study"}]},{"lat":"37.541933024","long":"127.21961182","imageIndex":16,"items":[{"name":"썬앤문영어학원","tel":"070-7787-0098","addr":"경기도 하남시 신장동 96-2번지 2층","indutype":"학원 - 보습학원","category":"study"}]},{"lat":"37.544235484","long":"127.2118674","imageIndex":16,"items":[{"name":"알던트학원","tel":"031-204-1453","addr":"경기도 하남시 신장동 581-5번지 제이빌 1층","indutype":"학원 - 보습학원","category":"study"}]},{"lat":"37.541433735","long":"127.2065302","imageIndex":16,"items":[{"name":"애니윈 만화학원","tel":"031-792-8028","addr":"경기도 하남시 신장동 423-13번지 하나빌딩 3층","indutype":"학원 - 기능학원","category":"study"}]},{"lat":"37.541099671","long":"127.21208495","imageIndex":16,"items":[{"name":"에이치(H)독서실","tel":"031-795-5579","addr":"경기도 하남시 신장동 386-3번지 4층","indutype":"학원 - 독서실","category":"study"}]},{"lat":"37.539371941","long":"127.21591581","imageIndex":16,"items":[{"name":"에이치스실용음악학원","tel":"031-792-6770","addr":"경기도 하남시 신장동 526-3번지 성제빌딩 3층","indutype":"회원제형태 - 학원","category":"study"}]},{"lat":"37.538544336","long":"127.21012038","imageIndex":16,"items":[{"name":"예뜰어린이집[아이행복]","tel":"031-795-6545","addr":"경기도 하남시 신장동 450-10번지 1층","indutype":"학원 - 유아원","category":"study"}]},{"lat":"37.547183624","long":"127.21583619","imageIndex":16,"items":[{"name":"예솜어린이집[아이행복]","tel":"031-794-6007","addr":"경기도 하남시 신장동 258-15번지","indutype":"학원 - 유아원","category":"study"}]},{"lat":"37.541072659","long":"127.20692524","imageIndex":16,"items":[{"name":"올패스영어학원","tel":"031-792-2245","addr":"경기도 하남시 신장동 415-10번지 명지캐럿 208호","indutype":"학원 - 외국어학원","category":"study"},{"name":"혜윰수학전문학원","tel":"02-6340-5385","addr":"경기도 하남시 신장동 415-10번지 명지캐럿 2층 213호","indutype":"학원 - 보습학원","category":"study"}]},{"lat":"37.542572865","long":"127.21953447","imageIndex":16,"items":[{"name":"원칙수학","tel":"070-8770-7196","addr":"경기도 하남시 신장동 93-7번지 3층","indutype":"학원 - 보습학원","category":"study"},{"name":"웨슬리보습학원","tel":"031-1661-3378","addr":"경기도 하남시 신장동 93-7번지 2층전체","indutype":"학원 - 보습학원","category":"study"}]},{"lat":"37.537350196","long":"127.20772973","imageIndex":16,"items":[{"name":"월드피지컬에듀케이션","tel":"070-7199-4700","addr":"경기도 하남시 신장동 432-9번지","indutype":"학원 - 기타 교육기관","category":"study"}]},{"lat":"37.536428214","long":"127.21452709","imageIndex":16,"items":[{"name":"위키즈어린이집[아이행복]","tel":"031-791-7898","addr":"경기도 하남시 신장동 533-3번지","indutype":"학원 - 유아원","category":"study"}]},{"lat":"37.54090395","long":"127.22067245","imageIndex":16,"items":[{"name":"유투엠 하남학원","tel":"031-796-0505","addr":"경기도 하남시 신장동 99-34번지 2층","indutype":"학원 - 보습학원","category":"study"},{"name":"이엔엠학원","tel":"031-796-0505","addr":"경기도 하남시 신장동 99-34번지","indutype":"학원 - 보습학원","category":"study"},{"name":"플래닛어학원","tel":"031-795-3141","addr":"경기도 하남시 신장동 99-34번지 3층","indutype":"학원 - 외국어학원","category":"study"}]},{"lat":"37.539597485","long":"127.20550687","imageIndex":16,"items":[{"name":"이지탑학원","tel":"031-792-7737","addr":"경기도 하남시 신장동 427-286번지","indutype":"학원 - 기타 교육기관","category":"study"}]},{"lat":"37.540488265","long":"127.2113704","imageIndex":16,"items":[{"name":"제이제이잉글리쉬학원","tel":"031-792-3615","addr":"경기도 하남시 신장동 399-4번지 2-3층","indutype":"학원 - 보습학원","category":"study"}]},{"lat":"37.541070773","long":"127.22302645","imageIndex":16,"items":[{"name":"조이음악학원","tel":"031-795-8708","addr":"경기도 하남시 신장동 81-4 현대빌딩3층 2","indutype":"회원제형태 - 학원","category":"study"},{"name":"초아태권도","tel":"031-795-7483","addr":"경기도 하남시 신장동 81-4번지","indutype":"학원 - 예·체능계학원","category":"study"},{"name":"하우스터디하남신장센터독서실","tel":"031-796-1995","addr":"경기도 하남시 신장동 81-4번지 5층일부 6층","indutype":"학원 - 독서실","category":"study"}]},{"lat":"37.542180948","long":"127.21203139","imageIndex":16,"items":[{"name":"좋은보습학원","tel":"031-794-0985","addr":"경기도 하남시 신장동 381-23번지","indutype":"학원 - 기타 교육기관","category":"study"}]},{"lat":"37.541069872","long":"127.20853196","imageIndex":16,"items":[{"name":"주니어랩영어김주연수학학원","tel":"031-796-0536","addr":"경기도 하남시 신장동 564번지 글로벌빌딩 3층","indutype":"학원 - 보습학원","category":"study"}]},{"lat":"37.546709335","long":"127.21403563","imageIndex":16,"items":[{"name":"주식회사 하남 유소년축구클럽","tel":"070-8955-0186","addr":"경기도 하남시 신장동 260-8번지","indutype":"학원 - 기타 교육기관","category":"study"}]},{"lat":"37.539683484","long":"127.2130088","imageIndex":16,"items":[{"name":"주식회사웅쌤수학","tel":"031-791-1335","addr":"경기도 하남시 신장동 519-6번지 우성빌딩 5층","indutype":"학원 - 보습학원","category":"study"}]},{"lat":"37.54740547","long":"127.21270231","imageIndex":16,"items":[{"name":"천사어린이집[아이행복]","tel":"031-795-1004","addr":"경기도 하남시 신장동 300-3번지","indutype":"학원 - 유아원","category":"study"}]},{"lat":"37.537101489","long":"127.21589804","imageIndex":16,"items":[{"name":"천현태권도","tel":"031-794-9998","addr":"경기도 하남시 신장동 531-1번지","indutype":"학원 - 예·체능계학원","category":"study"}]},{"lat":"37.540260649","long":"127.22261673","imageIndex":16,"items":[{"name":"태사자태권도장","tel":"031-793-9114","addr":"경기도 하남시 신장동 81-13번지 3층","indutype":"학원 - 예·체능계학원","category":"study"}]},{"lat":"37.541066706","long":"127.21034235","imageIndex":16,"items":[{"name":"탱글어린이집[아이행복]","tel":"031-777-0302","addr":"경기도 하남시 신장동 562번지 에코타운","indutype":"학원 - 유아원","category":"study"}]},{"lat":"37.540873386","long":"127.2075357","imageIndex":16,"items":[{"name":"토이미술학원","tel":"031-792-8078","addr":"경기도 하남시 신장동 424-2 경림빌딩4층","indutype":"학원 - 예·체능계학원","category":"study"},{"name":"하남신세계간호학원","tel":"031-8027-6770","addr":"경기도 하남시 신장동 424-2번지 경림빌딩 4층","indutype":"학원 - 기능학원","category":"study"},{"name":"하남신세계간호학원.신세계탑요양보호사교","tel":"031-8027-6770","addr":"경기도 하남시 신장동 424-2번지 경림빌딩 4층","indutype":"학원 - 기능학원","category":"study"}]},{"lat":"37.543290934","long":"127.21102743","imageIndex":16,"items":[{"name":"플러스학원","tel":"031-794-5048","addr":"경기도 하남시 신장동 589-1번지 유니온 3층 304호","indutype":"학원 - 보습학원","category":"study"},{"name":"해바라기미술학원","tel":"031-792-6329","addr":"경기도 하남시 신장동 589-1번지 유니온프라자 304호 일부","indutype":"학원 - 예·체능계학원","category":"study"}]},{"lat":"37.538516531","long":"127.21056157","imageIndex":16,"items":[{"name":"피아노","tel":"","addr":"경기도 하남시 신장동 449-7번지","indutype":"학원 - 예·체능계학원","category":"study"}]},{"lat":"37.541456801","long":"127.2088159","imageIndex":16,"items":[{"name":"하남 합기도","tel":"031-791-5522","addr":"경기도 하남시 신장동 563-3번지","indutype":"학원 - 예·체능계학원","category":"study"},{"name":"하이엔드학원","tel":"031-793-8668","addr":"경기도 하남시 신장동 563-3번지 4층","indutype":"회원제형태 - 학원","category":"study"}]},{"lat":"37.540678809","long":"127.22061522","imageIndex":16,"items":[{"name":"하남3D소프트웨어교습소","tel":"031-792-2475","addr":"경기도 하남시 신장동 99-30번지","indutype":"학원 - 컴퓨터학원","category":"study"}]},{"lat":"37.54135014","long":"127.20797829","imageIndex":16,"items":[{"name":"하남간호학원","tel":"031-796-0188","addr":"경기도 하남시 신장동 564-5번지 주원빌딩 4층","indutype":"학원 - 기능학원","category":"study"}]},{"lat":"37.541624699","long":"127.21575249","imageIndex":16,"items":[{"name":"하남시립은방울어린이집[아이행복]","tel":"031-790-2970","addr":"경기도 하남시 신장동 521-5번지","indutype":"학원 - 유아원","category":"study"}]},{"lat":"37.539040918","long":"127.21461368","imageIndex":16,"items":[{"name":"하남시청(교육지원과)","tel":"031-790-5650","addr":"경기도 하남시 신장동 520번지 하남시청","indutype":"학원 - 기타 교육기관","category":"study"}]},{"lat":"37.541350962","long":"127.21264008","imageIndex":16,"items":[{"name":"한양어린이집[아이행복]","tel":"031-7410-9034","addr":"경기도 하남시 신장동 385-2번지","indutype":"학원 - 유아원","category":"study"}]},{"lat":"37.539431771","long":"127.21770371","imageIndex":16,"items":[{"name":"한우리","tel":"031-794-5519","addr":"경기도 하남시 신장동 528-5백송한신상가207","indutype":"학원 - 기타 교육기관","category":"study"}]},{"lat":"37.538427308","long":"127.21006348","imageIndex":16,"items":[{"name":"해법독서논술 하남이레교실","tel":"031-791-9116","addr":"경기도 하남시 신장동 450-14번지 102호","indutype":"학원 - 보습학원","category":"study"}]}]