[{"lat":"37.39252908","long":"126.95408648","imageIndex":4,"items":[{"name":",콤마","tel":"","addr":"경기도 안양시 동안구 비산동 1115번지","indutype":"일반휴게음식 - 서양음식","category":"restaurant"},{"name":"라떼야(범계점)","tel":"031-387-6660","addr":"경기도 안양시 동안구 비산동 1115번지","indutype":"일반휴게음식 - 서양음식","category":"restaurant"},{"name":"명동김밥","tel":"031-385-2300","addr":"경기도 안양시 동안구 비산동 1115번지","indutype":"일반휴게음식 - 일반한식","category":"restaurant"},{"name":"모박사부대찌게범계점","tel":"031-327-7179","addr":"경기도 안양시 동안구 비산동 1115번지","indutype":"일반휴게음식 - 일반한식","category":"restaurant"},{"name":"서프라이즈","tel":"031-386-2016","addr":"경기도 안양시 동안구 비산동 1115번지","indutype":"일반휴게음식 - 서양음식","category":"restaurant"},{"name":"스시가이센","tel":"031-386-4131","addr":"경기도 안양시 동안구 비산동 1115번지","indutype":"일반휴게음식 - 일식·회집","category":"restaurant"},{"name":"칸지고고","tel":"031-384-4700","addr":"경기도 안양시 동안구 비산동 1115번지","indutype":"일반휴게음식 - 중국식","category":"restaurant"},{"name":"타코피에스타","tel":"031-384-5599","addr":"경기도 안양시 동안구 비산동 1115번지","indutype":"일반휴게음식 - 서양음식","category":"restaurant"}]},{"lat":"37.391552459","long":"126.94617108","imageIndex":4,"items":[{"name":"15호스넥","tel":"031-381-1669","addr":"경기도 안양시 동안구 비산동","indutype":"일반휴게음식 - 스넥","category":"restaurant"},{"name":"구워주면돼지","tel":"031-382-9242","addr":"경기도 안양시 동안구 비산동 1104번지","indutype":"일반휴게음식 - 일반한식","category":"restaurant"},{"name":"심쿵카롱","tel":"","addr":"경기도 안양시 동안구 비산동 1104번지","indutype":"일반휴게음식 - 서양음식","category":"restaurant"},{"name":"제일푸드","tel":"031-385-2218","addr":"경기도 안양시 동안구 비산동 1104번지","indutype":"일반휴게음식 - 스넥","category":"restaurant"}]},{"lat":"37.396719224","long":"126.93651144","imageIndex":4,"items":[{"name":"1988돈까사","tel":"031-422-2323","addr":"경기도 안양시 동안구 비산동 566-8번지","indutype":"일반휴게음식 - 일반한식","category":"restaurant"}]},{"lat":"37.396446217","long":"126.94890035","imageIndex":4,"items":[{"name":"60계치킨&짝태앤노가리","tel":"031-388-5959","addr":"경기도 안양시 동안구 비산동 1101-2번지","indutype":"일반휴게음식 - 스넥","category":"restaurant"},{"name":"감성다락방","tel":"031-388-5001","addr":"경기도 안양시 동안구 비산동 1101-2번지","indutype":"일반휴게음식 - 일반한식","category":"restaurant"},{"name":"감탄(범계점)","tel":"031-387-5511","addr":"경기도 안양시 동안구 비산동 1101-2번지","indutype":"일반휴게음식 - 스넥","category":"restaurant"},{"name":"고봉민김밥인안양샛별마을점","tel":"031-381-4429","addr":"경기도 안양시 동안구 비산동 1101-2번지","indutype":"일반휴게음식 - 일반한식","category":"restaurant"},{"name":"국수나무","tel":"031-388-4594","addr":"경기도 안양시 동안구 비산동 1101-2번지","indutype":"일반휴게음식 - 일반한식","category":"restaurant"},{"name":"굽네치킨 부흥달안점","tel":"031-388-9492","addr":"경기도 안양시 동안구 비산동 1101-2번지","indutype":"일반휴게음식 - 스넥","category":"restaurant"},{"name":"꼬꼬올래","tel":"031-383-9245","addr":"경기도 안양시 동안구 비산동 1101-2번지","indutype":"일반휴게음식 - 스넥","category":"restaurant"},{"name":"다정","tel":"031-388-1700","addr":"경기도 안양시 동안구 비산동 1101-2번지","indutype":"일반휴게음식 - 서양음식","category":"restaurant"},{"name":"불불이족발","tel":"031-382-2020","addr":"경기도 안양시 동안구 비산동 1101-2번지","indutype":"일반휴게음식 - 일반한식","category":"restaurant"},{"name":"시골숯불돼지갈비","tel":"031-385-7667","addr":"경기도 안양시 동안구 비산동","indutype":"일반휴게음식 - 일반한식","category":"restaurant"},{"name":"요거프레소 평촌샛별마을점","tel":"","addr":"경기도 안양시 동안구 비산동 1101-2번지","indutype":"일반휴게음식 - 서양음식","category":"restaurant"},{"name":"이디야 평촌샛별점","tel":"031-382-5288","addr":"경기도 안양시 동안구 비산동 1101-2번지","indutype":"일반휴게음식 - 서양음식","category":"restaurant"},{"name":"치킨마루(평촌달안점)","tel":"031-382-9889","addr":"경기도 안양시 동안구 비산동 1101-2번지","indutype":"일반휴게음식 - 스넥","category":"restaurant"},{"name":"피자마루한양스포츠센터점","tel":"031-386-1082","addr":"경기도 안양시 동안구 비산동","indutype":"일반휴게음식 - 서양음식","category":"restaurant"},{"name":"화평동 왕냉면 왕갈비","tel":"031-387-4594","addr":"경기도 안양시 동안구 비산동 1101-2번지 샛별한양아파트","indutype":"일반휴게음식 - 일반한식","category":"restaurant"}]},{"lat":"37.414025213","long":"126.94964456","imageIndex":4,"items":[{"name":"6950부대","tel":"031-440-4615","addr":"경기도 안양시 동안구 비산동 산11-1번지","indutype":"일반휴게음식 - 위탁급식업","category":"restaurant"},{"name":"6950부대","tel":"","addr":"경기도 안양시 동안구 비산동 산11-1번지","indutype":"일반휴게음식 - 위탁급식업","category":"restaurant"}]},{"lat":"37.399137256","long":"126.9427321","imageIndex":4,"items":[{"name":"BHC치킨비산점","tel":"031-388-9977","addr":"경기도 안양시 동안구 비산동","indutype":"일반휴게음식 - 주점","category":"restaurant"},{"name":"파스쿠찌 안양비산점","tel":"031-387-6600","addr":"경기도 안양시 동안구 비산동 405-19번지","indutype":"일반휴게음식 - 서양음식","category":"restaurant"}]},{"lat":"37.399108075","long":"126.93864383","imageIndex":4,"items":[{"name":"가마로강정 비산점","tel":"031-442-7292","addr":"경기도 안양시 동안구 비산동 459-52번지","indutype":"일반휴게음식 - 일반한식","category":"restaurant"},{"name":"삼성갈비","tel":"031-441-7635","addr":"경기도 안양시 동안구 비산동 459-52번지","indutype":"일반휴게음식 - 일반한식","category":"restaurant"}]},{"lat":"37.404195316","long":"126.94984352","imageIndex":4,"items":[{"name":"가마솥 소머리곰탕","tel":"","addr":"경기도 안양시 동안구 비산동 1031-8번지","indutype":"일반휴게음식 - 일반한식","category":"restaurant"},{"name":"장강중화요리","tel":"031-386-6295","addr":"경기도 안양시 동안구 비산동 1031-8번지","indutype":"일반휴게음식 - 중국식","category":"restaurant"},{"name":"탑라이브","tel":"031-386-0052","addr":"경기도 안양시 동안구 비산동 1031-8번지","indutype":"일반휴게음식 - 주점","category":"restaurant"}]},{"lat":"37.406078608","long":"126.95026009","imageIndex":4,"items":[{"name":"가야촌유황오리","tel":"031-384-9242","addr":"경기도 안양시 동안구 비산동 1029-7번지 삼성빌라트","indutype":"일반휴게음식 - 일반한식","category":"restaurant"}]},{"lat":"37.400667319","long":"126.9395686","imageIndex":4,"items":[{"name":"감탄(비산2호점)","tel":"031-465-5889","addr":"경기도 안양시 동안구 비산동 425번지","indutype":"일반휴게음식 - 스넥","category":"restaurant"},{"name":"공씨네주먹밥(비산점)","tel":"031-442-8400","addr":"경기도 안양시 동안구 비산동 425번지","indutype":"일반휴게음식 - 일반한식","category":"restaurant"},{"name":"국이오 비산점","tel":"031-466-0925","addr":"경기도 안양시 동안구 비산동 425번지","indutype":"일반휴게음식 - 일반한식","category":"restaurant"},{"name":"땡큐맘치킨안양비산점","tel":"031-469-6692","addr":"경기도 안양시 동안구 비산동 425번지 비산삼성래미안","indutype":"일반휴게음식 - 주점","category":"restaurant"},{"name":"라이스스토리","tel":"031-789-9245","addr":"경기도 안양시 동안구 비산동 425번지","indutype":"일반휴게음식 - 서양음식","category":"restaurant"},{"name":"래미안분식","tel":"031-466-6785","addr":"경기도 안양시 동안구 비산동 425번지 비산삼성래미안","indutype":"일반휴게음식 - 스넥","category":"restaurant"},{"name":"마꼬또","tel":"","addr":"경기도 안양시 동안구 비산동 425번지","indutype":"일반휴게음식 - 일반한식","category":"restaurant"},{"name":"마리짱","tel":"031-443-2757","addr":"경기도 안양시 동안구 비산동 425번지 비산삼성래미안","indutype":"일반휴게음식 - 스넥","category":"restaurant"},{"name":"바르바커피안양지점","tel":"","addr":"경기도 안양시 동안구 비산동 425번지","indutype":"일반휴게음식 - 서양음식","category":"restaurant"},{"name":"옐로우펍","tel":"031-465-0136","addr":"경기도 안양시 동안구 비산동 425번지","indutype":"일반휴게음식 - 일반한식","category":"restaurant"},{"name":"째이마카롱","tel":"","addr":"경기도 안양시 동안구 비산동 425번지","indutype":"일반휴게음식 - 일반한식","category":"restaurant"},{"name":"커피볶는집고노","tel":"031-441-1226","addr":"경기도 안양시 동안구 비산동 425번지","indutype":"일반휴게음식 - 서양음식","category":"restaurant"},{"name":"커피에반하다 (비산점)","tel":"031-464-6361","addr":"경기도 안양시 동안구 비산동 425번지","indutype":"일반휴게음식 - 서양음식","category":"restaurant"},{"name":"펀비어킹 비산래미안점","tel":"031-468-1357","addr":"경기도 안양시 동안구 비산동 425번지","indutype":"일반휴게음식 - 주점","category":"restaurant"}]},{"lat":"37.403799596","long":"126.95148148","imageIndex":4,"items":[{"name":"강고집","tel":"031-388-9233","addr":"경기도 안양시 동안구 비산동 1038-13번지","indutype":"일반휴게음식 - 일반한식","category":"restaurant"},{"name":"길목포차","tel":"","addr":"경기도 안양시 동안구 비산동 1038-13번지","indutype":"일반휴게음식 - 주점","category":"restaurant"},{"name":"으리라이브","tel":"031-383-0399","addr":"경기도 안양시 동안구 비산동 1038-13번지","indutype":"일반휴게음식 - 주점","category":"restaurant"}]},{"lat":"37.407556098","long":"126.94989762","imageIndex":4,"items":[{"name":"갱번","tel":"031-385-1104","addr":"경기도 안양시 동안구 비산동 1017-33번지","indutype":"일반휴게음식 - 주점","category":"restaurant"},{"name":"온양참숯불갈비","tel":"031-385-9333","addr":"경기도 안양시 동안구 비산동 1017-33번지","indutype":"일반휴게음식 - 일반한식","category":"restaurant"}]},{"lat":"37.405275074","long":"126.94670287","imageIndex":4,"items":[{"name":"게릴러푸드트럭","tel":"","addr":"경기도 안양시 동안구 비산동 1023번지","indutype":"일반휴게음식 - 일반한식","category":"restaurant"},{"name":"마이츄","tel":"02-1313-1212","addr":"경기도 안양시 동안구 비산동 1023번지","indutype":"일반휴게음식 - 서양음식","category":"restaurant"},{"name":"맛있다 타코야끼","tel":"","addr":"경기도 안양시 동안구 비산동 1023번지","indutype":"일반휴게음식 - 일반한식","category":"restaurant"},{"name":"용쓰화덕","tel":"070-9310-5053","addr":"경기도 안양시 동안구 비산동 1023번지","indutype":"일반휴게음식 - 일반한식","category":"restaurant"},{"name":"저크트럭","tel":"","addr":"경기도 안양시 동안구 비산동 1023번지","indutype":"일반휴게음식 - 일반한식","category":"restaurant"},{"name":"청춘을 마시다","tel":"","addr":"경기도 안양시 동안구 비산동 1023번지","indutype":"일반휴게음식 - 서양음식","category":"restaurant"}]},{"lat":"37.403771169","long":"126.94836426","imageIndex":4,"items":[{"name":"고래사냥","tel":"031-386-2337","addr":"경기도 안양시 동안구 비산동 1026-5번지","indutype":"일반휴게음식 - 주점","category":"restaurant"}]},{"lat":"37.41094468","long":"126.9517025","imageIndex":4,"items":[{"name":"고을갈비","tel":"031-386-8816","addr":"경기도 안양시 동안구 비산동 14-3번지","indutype":"일반휴게음식 - 일반한식","category":"restaurant"}]},{"lat":"37.404799052","long":"126.94997863","imageIndex":4,"items":[{"name":"곰바우","tel":"031-387-3324","addr":"경기도 안양시 동안구 비산동 1031번지","indutype":"일반휴게음식 - 일반한식","category":"restaurant"},{"name":"꽁다리김밥과으뜸만두","tel":"031-384-0907","addr":"경기도 안양시 동안구 비산동 1031번지","indutype":"일반휴게음식 - 스넥","category":"restaurant"},{"name":"내고향","tel":"031-1577-0217","addr":"경기도 안양시 동안구 비산동 1031번지","indutype":"일반휴게음식 - 일반한식","category":"restaurant"},{"name":"뚬방각하솥뚜껑생삼겹살","tel":"031-388-2370","addr":"경기도 안양시 동안구 비산동 1031번지","indutype":"일반휴게음식 - 일반한식","category":"restaurant"},{"name":"만나순대","tel":"031-387-7574","addr":"경기도 안양시 동안구 비산동 1031번지","indutype":"일반휴게음식 - 일반한식","category":"restaurant"},{"name":"만나식당","tel":"031-388-8792","addr":"경기도 안양시 동안구 비산동 1031번지","indutype":"일반휴게음식 - 일반한식","category":"restaurant"},{"name":"장군네순대국","tel":"031-387-3933","addr":"경기도 안양시 동안구 비산동 1031번지","indutype":"일반휴게음식 - 일반한식","category":"restaurant"}]},{"lat":"37.403529304","long":"126.95150425","imageIndex":4,"items":[{"name":"곱","tel":"031-341-8101","addr":"경기도 안양시 동안구 비산동 1037-2번지","indutype":"일반휴게음식 - 일반한식","category":"restaurant"},{"name":"굴사냥","tel":"031-383-9455","addr":"경기도 안양시 동안구 비산동 1037-2번지","indutype":"일반휴게음식 - 일반한식","category":"restaurant"},{"name":"룡참치","tel":"031-385-4311","addr":"경기도 안양시 동안구 비산동 1037-2번지","indutype":"일반휴게음식 - 일반한식","category":"restaurant"},{"name":"술촌","tel":"","addr":"경기도 안양시 동안구 비산동 1037-2번지","indutype":"일반휴게음식 - 주점","category":"restaurant"},{"name":"시장냉면","tel":"031-385-0306","addr":"경기도 안양시 동안구 비산동 1037-2번지","indutype":"일반휴게음식 - 일반한식","category":"restaurant"}]},{"lat":"37.403466805","long":"126.95283702","imageIndex":4,"items":[{"name":"공존찻집","tel":"","addr":"경기도 안양시 동안구 비산동 1050-4번지 골든클래스3차","indutype":"일반휴게음식 - 일반한식","category":"restaurant"},{"name":"뉴욕야시장","tel":"031-381-4427","addr":"경기도 안양시 동안구 비산동 1050-4번지 골든클래스3차","indutype":"일반휴게음식 - 서양음식","category":"restaurant"},{"name":"돝고깃집","tel":"031-386-3592","addr":"경기도 안양시 동안구 비산동 1050-4번지 골든클래스3차","indutype":"일반휴게음식 - 일반한식","category":"restaurant"}]},{"lat":"37.403248854","long":"126.94895194","imageIndex":4,"items":[{"name":"관악관","tel":"031-385-6402","addr":"경기도 안양시 동안구 비산동 1027번지","indutype":"일반휴게음식 - 일반한식","category":"restaurant"}]},{"lat":"37.406276855","long":"126.95031643","imageIndex":4,"items":[{"name":"관악산탐관오리","tel":"031-383-5255","addr":"경기도 안양시 동안구 비산동 1029-8번지","indutype":"일반휴게음식 - 일반한식","category":"restaurant"}]},{"lat":"37.40305072","long":"126.94914408","imageIndex":4,"items":[{"name":"관악샤브칼국수","tel":"031-388-0558","addr":"경기도 안양시 동안구 비산동 1027번지","indutype":"일반휴게음식 - 일반한식","category":"restaurant"}]},{"lat":"37.390725081","long":"126.94950295","imageIndex":4,"items":[{"name":"광계토(범계점)","tel":"031-383-3532","addr":"경기도 안양시 동안구 비산동 1107-1번지","indutype":"일반휴게음식 - 일반한식","category":"restaurant"},{"name":"이디야(범계벤처텔)","tel":"031-389-0510","addr":"경기도 안양시 동안구 비산동 1107-1번지","indutype":"일반휴게음식 - 서양음식","category":"restaurant"},{"name":"킹콩부대찌개 안양범계점","tel":"031-388-3646","addr":"경기도 안양시 동안구 비산동 1107-1번지","indutype":"일반휴게음식 - 일반한식","category":"restaurant"}]},{"lat":"37.403744305","long":"126.9487257","imageIndex":4,"items":[{"name":"광어9900","tel":"031-382-3696","addr":"경기도 안양시 동안구 비산동 1026-11번지","indutype":"일반휴게음식 - 일식·회집","category":"restaurant"},{"name":"김밥나라","tel":"031-384-1938","addr":"경기도 안양시 동안구 비산동 1026-11번지","indutype":"일반휴게음식 - 일반한식","category":"restaurant"},{"name":"쏘뇨","tel":"031-381-7275","addr":"경기도 안양시 동안구 비산동 1026-11번지","indutype":"일반휴게음식 - 서양음식","category":"restaurant"},{"name":"투다리","tel":"031-388-6140","addr":"경기도 안양시 동안구 비산동 1026-11번지","indutype":"일반휴게음식 - 주점","category":"restaurant"}]},{"lat":"37.396917459","long":"126.93653386","imageIndex":4,"items":[{"name":"교촌치킨비산1호점","tel":"031-388-9984","addr":"경기도 안양시 동안구 비산동 566-7번지","indutype":"일반휴게음식 - 서양음식","category":"restaurant"},{"name":"명륜진사갈비 안양 비산점","tel":"031-469-1224","addr":"경기도 안양시 동안구 비산동 566-7번지","indutype":"일반휴게음식 - 일반한식","category":"restaurant"}]},{"lat":"37.399079207","long":"126.93534612","imageIndex":4,"items":[{"name":"구팔한우(안양비산점)","tel":"031-442-9892","addr":"경기도 안양시 동안구 비산동 550-1번지","indutype":"일반휴게음식 - 일반한식","category":"restaurant"},{"name":"당가원 안양비산점","tel":"","addr":"경기도 안양시 동안구 비산동 550-1번지","indutype":"일반휴게음식 - 중국식","category":"restaurant"},{"name":"돈박","tel":"031-382-4698","addr":"경기도 안양시 동안구 비산동 550-1번지","indutype":"일반휴게음식 - 일반한식","category":"restaurant"},{"name":"비엔나커피하우스","tel":"","addr":"경기도 안양시 동안구 비산동 550-1번지","indutype":"일반휴게음식 - 서양음식","category":"restaurant"},{"name":"조가네갑오징어 비산점","tel":"031-444-1777","addr":"경기도 안양시 동안구 비산동 550-1번지","indutype":"일반휴게음식 - 일반한식","category":"restaurant"},{"name":"지기현소머리해장국","tel":"02-1577-0000","addr":"경기도 안양시 동안구 비산동 550-1번지","indutype":"일반휴게음식 - 일반한식","category":"restaurant"},{"name":"키키카페","tel":"031-465-7172","addr":"경기도 안양시 동안구 비산동 550-1번지","indutype":"일반휴게음식 - 서양음식","category":"restaurant"}]},{"lat":"37.390418563","long":"126.94911923","imageIndex":4,"items":[{"name":"구포국수","tel":"031-381-4888","addr":"경기도 안양시 동안구 비산동 1107번지","indutype":"일반휴게음식 - 일반한식","category":"restaurant"},{"name":"멕씸","tel":"031-380-4279","addr":"경기도 안양시 동안구 비산동 1107번지","indutype":"일반휴게음식 - 서양음식","category":"restaurant"},{"name":"밀숲범계점","tel":"031-388-0086","addr":"경기도 안양시 동안구 비산동 1107번지","indutype":"일반휴게음식 - 일반한식","category":"restaurant"},{"name":"사계절집밥","tel":"031-381-8871","addr":"경기도 안양시 동안구 비산동 1107번지","indutype":"일반휴게음식 - 일반한식","category":"restaurant"},{"name":"초밥집","tel":"031-440-8988","addr":"경기도 안양시 동안구 비산동 1107번지","indutype":"일반휴게음식 - 일식·회집","category":"restaurant"},{"name":"커피베이 안양무역센터점","tel":"031-387-7945","addr":"경기도 안양시 동안구 비산동 1107번지","indutype":"일반휴게음식 - 서양음식","category":"restaurant"},{"name":"키도리03","tel":"031-8091-0303","addr":"경기도 안양시 동안구 비산동 1107번지","indutype":"일반휴게음식 - 일식·회집","category":"restaurant"}]},{"lat":"37.39908261","long":"126.94159149","imageIndex":4,"items":[{"name":"국수나무 비산점","tel":"031-383-0210","addr":"경기도 안양시 동안구 비산동 405-10번지","indutype":"일반휴게음식 - 스넥","category":"restaurant"},{"name":"본죽비산점","tel":"031-476-6288","addr":"경기도 안양시 동안구 비산동 405-10번지","indutype":"일반휴게음식 - 일반한식","category":"restaurant"},{"name":"불닭발땡초동대문엽기떡볶이비산점","tel":"031-388-8592","addr":"경기도 안양시 동안구 비산동 405-10번지","indutype":"일반휴게음식 - 일반한식","category":"restaurant"},{"name":"엔제리너스커피(비산점)","tel":"031-384-7280","addr":"경기도 안양시 동안구 비산동 405-10번지","indutype":"일반휴게음식 - 서양음식","category":"restaurant"}]},{"lat":"37.406690423","long":"126.94833956","imageIndex":4,"items":[{"name":"국수만세","tel":"031-381-8838","addr":"경기도 안양시 동안구 비산동 1020-7번지","indutype":"일반휴게음식 - 일반한식","category":"restaurant"}]},{"lat":"37.403744409","long":"126.94895159","imageIndex":4,"items":[{"name":"국수포장마차","tel":"031-381-4672","addr":"경기도 안양시 동안구 비산동 1026-14번지","indutype":"일반휴게음식 - 주점","category":"restaurant"},{"name":"커피에반하다(안양종합운동장점)","tel":"070-5089-3727","addr":"경기도 안양시 동안구 비산동 1026-14번지","indutype":"일반휴게음식 - 서양음식","category":"restaurant"}]},{"lat":"37.391085698","long":"126.94997697","imageIndex":4,"items":[{"name":"국이오","tel":"031-383-0925","addr":"경기도 안양시 동안구 비산동 1108번지","indutype":"일반휴게음식 - 일반한식","category":"restaurant"},{"name":"나김밥","tel":"031-386-8111","addr":"경기도 안양시 동안구 비산동 1108번지","indutype":"일반휴게음식 - 스넥","category":"restaurant"},{"name":"루나(LUNA)","tel":"031-388-9668","addr":"경기도 안양시 동안구 비산동 1108번지","indutype":"일반휴게음식 - 서양음식","category":"restaurant"},{"name":"본죽,본비빔밥","tel":"031-386-3123","addr":"경기도 안양시 동안구 비산동 1108번지","indutype":"일반휴게음식 - 일반한식","category":"restaurant"},{"name":"빽다방 범계역사거리점","tel":"070-8416-2160","addr":"경기도 안양시 동안구 비산동 1108번지","indutype":"일반휴게음식 - 서양음식","category":"restaurant"},{"name":"시골보쌈","tel":"031-389-1750","addr":"경기도 안양시 동안구 비산동 1108번지","indutype":"일반휴게음식 - 일반한식","category":"restaurant"},{"name":"신의주순대와쭈꾸미(범계점)","tel":"031-387-9759","addr":"경기도 안양시 동안구 비산동 1108번지","indutype":"일반휴게음식 - 일반한식","category":"restaurant"},{"name":"아띠참치초밥","tel":"070-7019-8617","addr":"경기도 안양시 동안구 비산동 1108번지","indutype":"일반휴게음식 - 일식·회집","category":"restaurant"},{"name":"아마스빈 범계점","tel":"031-381-3696","addr":"경기도 안양시 동안구 비산동 1108번지","indutype":"일반휴게음식 - 서양음식","category":"restaurant"},{"name":"일지오","tel":"031-381-1919","addr":"경기도 안양시 동안구 비산동 1108번지","indutype":"일반휴게음식 - 서양음식","category":"restaurant"},{"name":"자매식당","tel":"031-389-0556","addr":"경기도 안양시 동안구 비산동 1108번지","indutype":"일반휴게음식 - 일반한식","category":"restaurant"},{"name":"저스트까페","tel":"031-457-0026","addr":"경기도 안양시 동안구 비산동 1108번지","indutype":"일반휴게음식 - 서양음식","category":"restaurant"},{"name":"쿠바커피","tel":"031-386-9558","addr":"경기도 안양시 동안구 비산동 1108번지","indutype":"일반휴게음식 - 서양음식","category":"restaurant"},{"name":"홍씨네감자탕","tel":"","addr":"경기도 안양시 동안구 비산동 1108번지","indutype":"일반휴게음식 - 일반한식","category":"restaurant"},{"name":"홍짜장(범계점)","tel":"031-388-0112","addr":"경기도 안양시 동안구 비산동 1108번지","indutype":"일반휴게음식 - 일반한식","category":"restaurant"}]},{"lat":"37.405582979","long":"126.95009102","imageIndex":4,"items":[{"name":"군산옥","tel":"031-387-0551","addr":"경기도 안양시 동안구 비산동 1030-8번지","indutype":"일반휴게음식 - 일반한식","category":"restaurant"}]},{"lat":"37.408195935","long":"126.95016825","imageIndex":4,"items":[{"name":"굼터","tel":"031-382-7376","addr":"경기도 안양시 동안구 비산동 1017-21번지","indutype":"일반휴게음식 - 일반한식","category":"restaurant"}]},{"lat":"37.392417879","long":"126.94711901","imageIndex":4,"items":[{"name":"굿떡볶이","tel":"031-382-1667","addr":"경기도 안양시 동안구 비산동 1103번지","indutype":"일반휴게음식 - 일반한식","category":"restaurant"},{"name":"만리장성","tel":"031-381-8585","addr":"경기도 안양시 동안구 비산동 1103번지","indutype":"일반휴게음식 - 중국식","category":"restaurant"},{"name":"은하수치킨","tel":"031-383-4698","addr":"경기도 안양시 동안구 비산동 1103번지","indutype":"일반휴게음식 - 스넥","category":"restaurant"}]},{"lat":"37.403105142","long":"126.94994594","imageIndex":4,"items":[{"name":"그날","tel":"031-381-3634","addr":"경기도 안양시 동안구 비산동 1032-13번지","indutype":"일반휴게음식 - 서양음식","category":"restaurant"},{"name":"유황오리먹는날","tel":"031-476-9596","addr":"경기도 안양시 동안구 비산동 1032-13번지","indutype":"일반휴게음식 - 일반한식","category":"restaurant"}]},{"lat":"37.403493657","long":"126.95241911","imageIndex":4,"items":[{"name":"그남자의밥상","tel":"031-388-8666","addr":"경기도 안양시 동안구 비산동 1050-10번지","indutype":"일반휴게음식 - 일반한식","category":"restaurant"}]},{"lat":"37.392523161","long":"126.94139356","imageIndex":4,"items":[{"name":"금관꽃돼지","tel":"031-468-8282","addr":"경기도 안양시 동안구 비산동 577번지","indutype":"일반휴게음식 - 일반한식","category":"restaurant"},{"name":"비산안심한우마을","tel":"031-468-8282","addr":"경기도 안양시 동안구 비산동 577번지","indutype":"일반휴게음식 - 일반한식","category":"restaurant"}]},{"lat":"37.399859035","long":"126.94467404","imageIndex":4,"items":[{"name":"김가네손칼국수","tel":"031-477-2882","addr":"경기도 안양시 동안구 비산동 378-2번지","indutype":"일반휴게음식 - 일반한식","category":"restaurant"},{"name":"이석민피자","tel":"031-386-1939","addr":"경기도 안양시 동안구 비산동 378-2번지","indutype":"일반휴게음식 - 스넥","category":"restaurant"}]},{"lat":"37.402249521","long":"126.95070324","imageIndex":4,"items":[{"name":"까사밍고키친","tel":"031-387-4882","addr":"경기도 안양시 동안구 비산동 1034-15번지","indutype":"일반휴게음식 - 일반한식","category":"restaurant"}]},{"lat":"37.402501533","long":"126.95009318","imageIndex":4,"items":[{"name":"깐꼬시","tel":"031-386-5432","addr":"경기도 안양시 동안구 비산동 1033-1번지","indutype":"일반휴게음식 - 주점","category":"restaurant"}]},{"lat":"37.403970431","long":"126.95066817","imageIndex":4,"items":[{"name":"꼼장어.바다장어","tel":"031-383-7894","addr":"경기도 안양시 동안구 비산동 1038-18번지","indutype":"일반휴게음식 - 일반한식","category":"restaurant"},{"name":"마당","tel":"031-385-8500","addr":"경기도 안양시 동안구 비산동 1038-18번지","indutype":"일반휴게음식 - 일반한식","category":"restaurant"}]},{"lat":"37.404501905","long":"126.95039673","imageIndex":4,"items":[{"name":"꿀꿀이네 연탄","tel":"031-381-6168","addr":"경기도 안양시 동안구 비산동 1038번지","indutype":"일반휴게음식 - 일반한식","category":"restaurant"}]},{"lat":"37.397889101","long":"126.93400327","imageIndex":4,"items":[{"name":"낙지촌","tel":"031-466-3337","addr":"경기도 안양시 동안구 비산동 570번지","indutype":"일반휴게음식 - 일반한식","category":"restaurant"},{"name":"명궁","tel":"031-43-1007","addr":"경기도 안양시 동안구 비산동 570번지","indutype":"일반휴게음식 - 일반한식","category":"restaurant"}]},{"lat":"37.392744861","long":"126.95297966","imageIndex":4,"items":[{"name":"남대문갈치조림","tel":"031-387-2088","addr":"경기도 안양시 동안구 비산동 1110-1번지","indutype":"일반휴게음식 - 일반한식","category":"restaurant"},{"name":"맛나분식","tel":"031-388-6103","addr":"경기도 안양시 동안구 비산동 1110-1번지","indutype":"일반휴게음식 - 일반한식","category":"restaurant"},{"name":"배추나무","tel":"031-385-8778","addr":"경기도 안양시 동안구 비산동 1110-1번지","indutype":"일반휴게음식 - 일반한식","category":"restaurant"},{"name":"산","tel":"031-388-5445","addr":"경기도 안양시 동안구 비산동","indutype":"일반휴게음식 - 일반한식","category":"restaurant"},{"name":"일번가","tel":"031-382-3535","addr":"경기도 안양시 동안구 비산동 1110-1번지","indutype":"일반휴게음식 - 일반한식","category":"restaurant"},{"name":"참치랑","tel":"031-388-2989","addr":"경기도 안양시 동안구 비산동 1110-1번지","indutype":"일반휴게음식 - 일식·회집","category":"restaurant"},{"name":"초록분식","tel":"","addr":"경기도 안양시 동안구 비산동 1110-1번지","indutype":"일반휴게음식 - 일반한식","category":"restaurant"}]},{"lat":"37.414107295","long":"126.95189238","imageIndex":4,"items":[{"name":"남도에서","tel":"031-387-9614","addr":"경기도 안양시 동안구 비산동 40-1번지","indutype":"일반휴게음식 - 일반한식","category":"restaurant"}]},{"lat":"37.404555754","long":"126.94992233","imageIndex":4,"items":[{"name":"네네치킨 (관양비산점)","tel":"031-386-4490","addr":"경기도 안양시 동안구 비산동 1031-11번지","indutype":"일반휴게음식 - 스넥","category":"restaurant"}]},{"lat":"37.397528718","long":"126.93403748","imageIndex":4,"items":[{"name":"노리노리","tel":"","addr":"경기도 안양시 동안구 비산동 570-11번지","indutype":"일반휴게음식 - 일반한식","category":"restaurant"},{"name":"별난방앗간","tel":"031-466-7222","addr":"경기도 안양시 동안구 비산동 570-11번지","indutype":"일반휴게음식 - 일반한식","category":"restaurant"},{"name":"콩분식","tel":"031-468-8117","addr":"경기도 안양시 동안구 비산동 570-11번지","indutype":"일반휴게음식 - 일반한식","category":"restaurant"}]},{"lat":"37.399967061","long":"126.94448197","imageIndex":4,"items":[{"name":"노리토","tel":"031-381-3367","addr":"경기도 안양시 동안구 비산동 378-6번지 비산팰리스","indutype":"일반휴게음식 - 서양음식","category":"restaurant"}]},{"lat":"37.394522808","long":"126.94026263","imageIndex":4,"items":[{"name":"누렁소마루","tel":"031-464-2500","addr":"경기도 안양시 동안구 비산동 576-8번지","indutype":"일반휴게음식 - 일반한식","category":"restaurant"}]},{"lat":"37.400247623","long":"126.93045486","imageIndex":4,"items":[{"name":"다온","tel":"031-441-0040","addr":"경기도 안양시 동안구 비산동 540-17번지","indutype":"일반휴게음식 - 일반한식","category":"restaurant"},{"name":"한식마을","tel":"031-464-0400","addr":"경기도 안양시 동안구 비산동 540-17번지","indutype":"일반휴게음식 - 일반한식","category":"restaurant"}]},{"lat":"37.403716915","long":"126.94794641","imageIndex":4,"items":[{"name":"다저스호프","tel":"031-387-5681","addr":"경기도 안양시 동안구 비산동 1026번지","indutype":"일반휴게음식 - 주점","category":"restaurant"}]},{"lat":"37.399942569","long":"126.93258967","imageIndex":4,"items":[{"name":"단돈이","tel":"031-448-6038","addr":"경기도 안양시 동안구 비산동 554-9번지","indutype":"일반휴게음식 - 일반한식","category":"restaurant"},{"name":"집밥두끼(비산점)","tel":"031-575-5575","addr":"경기도 안양시 동안구 비산동 554-9번지","indutype":"일반휴게음식 - 일반한식","category":"restaurant"},{"name":"한식뷔페","tel":"","addr":"경기도 안양시 동안구 비산동 554-9번지","indutype":"일반휴게음식 - 일반한식","category":"restaurant"}]},{"lat":"37.392725019","long":"126.94883526","imageIndex":4,"items":[{"name":"달그락","tel":"031-381-8294","addr":"경기도 안양시 동안구 비산동 1103-5번지","indutype":"일반휴게음식 - 스넥","category":"restaurant"},{"name":"온양식당","tel":"031-385-1998","addr":"경기도 안양시 동안구 비산동","indutype":"일반휴게음식 - 일반한식","category":"restaurant"},{"name":"프랭크서울 평촌은하수점","tel":"031-383-3832","addr":"경기도 안양시 동안구 비산동 1103-5번지","indutype":"일반휴게음식 - 서양음식","category":"restaurant"},{"name":"후랭크치킨","tel":"031-383-2561","addr":"경기도 안양시 동안구 비산동 1103-5번지","indutype":"일반휴게음식 - 일반한식","category":"restaurant"}]},{"lat":"37.396221796","long":"126.95075259","imageIndex":4,"items":[{"name":"달콤레시피","tel":"","addr":"경기도 안양시 동안구 비산동 1101-9번지","indutype":"일반휴게음식 - 서양음식","category":"restaurant"},{"name":"이삭토스트&카페","tel":"031-383-7175","addr":"경기도 안양시 동안구 비산동 1101-9번지","indutype":"일반휴게음식 - 서양음식","category":"restaurant"},{"name":"지코바평촌1호점","tel":"031-385-6554","addr":"경기도 안양시 동안구 비산동 1101-9번지","indutype":"일반휴게음식 - 스넥","category":"restaurant"}]},{"lat":"37.399222402","long":"126.93367453","imageIndex":4,"items":[{"name":"대가순대국","tel":"031-468-4636","addr":"경기도 안양시 동안구 비산동","indutype":"일반휴게음식 - 일반한식","category":"restaurant"}]},{"lat":"37.406556192","long":"126.95037271","imageIndex":4,"items":[{"name":"대가식당(비산점)","tel":"031-386-8385","addr":"경기도 안양시 동안구 비산동 1029-10번지","indutype":"일반휴게음식 - 일반한식","category":"restaurant"},{"name":"소슬대문","tel":"031-381-9289","addr":"경기도 안양시 동안구 비산동 1029-10번지","indutype":"일반휴게음식 - 일반한식","category":"restaurant"}]},{"lat":"37.403717125","long":"126.94839818","imageIndex":4,"items":[{"name":"대관령생고기","tel":"031-388-7600","addr":"경기도 안양시 동안구 비산동 1026-6번지","indutype":"일반휴게음식 - 일반한식","category":"restaurant"}]},{"lat":"37.402915931","long":"126.94994607","imageIndex":4,"items":[{"name":"더담 부대찌개","tel":"031-384-1991","addr":"경기도 안양시 동안구 비산동 1032-14번지","indutype":"일반휴게음식 - 일반한식","category":"restaurant"},{"name":"드림온","tel":"070-7862-1697","addr":"경기도 안양시 동안구 비산동 1032-14번지","indutype":"일반휴게음식 - 주점","category":"restaurant"}]},{"lat":"37.401772958","long":"126.95295108","imageIndex":4,"items":[{"name":"데니스커피","tel":"031-386-1646","addr":"경기도 안양시 동안구 비산동 1059번지","indutype":"일반휴게음식 - 일반한식","category":"restaurant"},{"name":"자마이카 볼링 라운지","tel":"031-381-8533","addr":"경기도 안양시 동안구 비산동 1059번지","indutype":"일반휴게음식 - 서양음식","category":"restaurant"},{"name":"제이카페","tel":"031-441-4828","addr":"경기도 안양시 동안구 비산동 1059번지","indutype":"일반휴게음식 - 서양음식","category":"restaurant"},{"name":"주식회사 한상차림코다리명가","tel":"031-384-9245","addr":"경기도 안양시 동안구 비산동 1059번지","indutype":"일반휴게음식 - 일반한식","category":"restaurant"},{"name":"짬뽕타운(동안점)","tel":"031-387-9798","addr":"경기도 안양시 동안구 비산동 1059번지","indutype":"일반휴게음식 - 중국식","category":"restaurant"},{"name":"파파마마","tel":"031-381-6900","addr":"경기도 안양시 동안구 비산동 1059번지","indutype":"일반휴게음식 - 일반한식","category":"restaurant"}]},{"lat":"37.403773209","long":"126.95298364","imageIndex":4,"items":[{"name":"도야지껍데기","tel":"031-382-9211","addr":"경기도 안양시 동안구 비산동 1049-8번지","indutype":"일반휴게음식 - 일반한식","category":"restaurant"}]},{"lat":"37.40305247","long":"126.95314224","imageIndex":4,"items":[{"name":"돈골순대국","tel":"031-383-7205","addr":"경기도 안양시 동안구 비산동 1050-12번지 우즈빌","indutype":"일반휴게음식 - 일반한식","category":"restaurant"}]},{"lat":"37.394222387","long":"126.95267377","imageIndex":4,"items":[{"name":"돈까스랑쌀국수","tel":"","addr":"경기도 안양시 동안구 비산동 1109-6번지 샛별한양아파트","indutype":"일반휴게음식 - 서양음식","category":"restaurant"}]},{"lat":"37.406770928","long":"126.94708578","imageIndex":4,"items":[{"name":"동네북카페","tel":"031-382-3044","addr":"경기도 안양시 동안구 비산동 1022-4번지","indutype":"일반휴게음식 - 서양음식","category":"restaurant"}]},{"lat":"37.400301566","long":"126.93026281","imageIndex":4,"items":[{"name":"동네호프","tel":"031-444-0062","addr":"경기도 안양시 동안구 비산동 541-9번지","indutype":"일반휴게음식 - 주점","category":"restaurant"},{"name":"북경","tel":"031-443-1412","addr":"경기도 안양시 동안구 비산동 541-9번지","indutype":"일반휴게음식 - 중국식","category":"restaurant"},{"name":"자연농장오리전문점","tel":"031-448-0062","addr":"경기도 안양시 동안구 비산동 541-9번지","indutype":"일반휴게음식 - 일반한식","category":"restaurant"}]},{"lat":"37.403554492","long":"126.94742699","imageIndex":4,"items":[{"name":"동태가","tel":"031-388-6107","addr":"경기도 안양시 동안구 비산동 255-3번지","indutype":"일반휴게음식 - 일반한식","category":"restaurant"},{"name":"삼오생고기","tel":"031-386-2048","addr":"경기도 안양시 동안구 비산동 255-3번지","indutype":"일반휴게음식 - 일반한식","category":"restaurant"},{"name":"임철호24시해장국","tel":"031-388-7268","addr":"경기도 안양시 동안구 비산동 255-3번지","indutype":"일반휴게음식 - 일반한식","category":"restaurant"}]},{"lat":"37.404051241","long":"126.95003562","imageIndex":4,"items":[{"name":"동해물과냉면","tel":"031-381-9545","addr":"경기도 안양시 동안구 비산동 1031-6번지","indutype":"일반휴게음식 - 일반한식","category":"restaurant"},{"name":"라디오 스타","tel":"031-423-0380","addr":"경기도 안양시 동안구 비산동 1031-6번지","indutype":"일반휴게음식 - 일반한식","category":"restaurant"},{"name":"우정포차","tel":"031-381-1428","addr":"경기도 안양시 동안구 비산동 1031-6번지","indutype":"일반휴게음식 - 일반한식","category":"restaurant"}]},{"lat":"37.403799762","long":"126.95186548","imageIndex":4,"items":[{"name":"동해바다","tel":"031-388-0070","addr":"경기도 안양시 동안구 비산동 1049-15번지","indutype":"일반휴게음식 - 일반한식","category":"restaurant"},{"name":"주유소","tel":"031-386-7750","addr":"경기도 안양시 동안구 비산동 1049-15번지","indutype":"일반휴게음식 - 주점","category":"restaurant"}]},{"lat":"37.407159665","long":"126.94992049","imageIndex":4,"items":[{"name":"둘리바베큐","tel":"031-388-4397","addr":"경기도 안양시 동안구 비산동 1018-21번지","indutype":"일반휴게음식 - 칵테일바","category":"restaurant"},{"name":"왕뚜껑삼겹살","tel":"031-476-7035","addr":"경기도 안양시 동안구 비산동 1018-21번지","indutype":"일반휴게음식 - 일반한식","category":"restaurant"}]},{"lat":"37.403635709","long":"126.947698","imageIndex":4,"items":[{"name":"라츠","tel":"031-388-8399","addr":"경기도 안양시 동안구 비산동 255-5번지","indutype":"일반휴게음식 - 서양음식","category":"restaurant"}]},{"lat":"37.412278145","long":"126.95164512","imageIndex":4,"items":[{"name":"라츠3","tel":"031-388-8399","addr":"경기도 안양시 동안구 비산동 6-5번지","indutype":"일반휴게음식 - 일반한식","category":"restaurant"}]},{"lat":"37.39169011","long":"126.95164784","imageIndex":4,"items":[{"name":"란죽","tel":"031-476-8288","addr":"경기도 안양시 동안구 비산동 1112-1번지","indutype":"일반휴게음식 - 일반한식","category":"restaurant"},{"name":"시래와보리","tel":"070-8945-3313","addr":"경기도 안양시 동안구 비산동 1112-1번지","indutype":"일반휴게음식 - 일반한식","category":"restaurant"},{"name":"착한동안부페","tel":"031-381-8830","addr":"경기도 안양시 동안구 비산동 1112-1번지","indutype":"일반휴게음식 - 일반한식","category":"restaurant"},{"name":"카페두둥실","tel":"031-385-0713","addr":"경기도 안양시 동안구 비산동 1112-1번지","indutype":"일반휴게음식 - 일반한식","category":"restaurant"},{"name":"케빈스캐빈(Kevin's cabin)","tel":"031-381-2806","addr":"경기도 안양시 동안구 비산동 1112-1번지","indutype":"일반휴게음식 - 서양음식","category":"restaurant"}]},{"lat":"37.399363386","long":"126.94448244","imageIndex":4,"items":[{"name":"랜드에이엘","tel":"","addr":"경기도 안양시 동안구 비산동 379-3번지 동양월드타워","indutype":"일반휴게음식 - 일반한식","category":"restaurant"},{"name":"헬로우안녕카페","tel":"02-593-4680","addr":"경기도 안양시 동안구 비산동 379-3번지 동양월드타워","indutype":"일반휴게음식 - 서양음식","category":"restaurant"}]},{"lat":"37.397024999","long":"126.93550607","imageIndex":4,"items":[{"name":"레드킹치킨","tel":"031-441-9229","addr":"경기도 안양시 동안구 비산동 566-1번지","indutype":"일반휴게음식 - 일반한식","category":"restaurant"},{"name":"업텐브로피자 안양점","tel":"031-466-8942","addr":"경기도 안양시 동안구 비산동 566-1번지","indutype":"일반휴게음식 - 서양음식","category":"restaurant"},{"name":"옷장속엔 커피향기","tel":"070-8236-1574","addr":"경기도 안양시 동안구 비산동 566-1번지","indutype":"일반휴게음식 - 서양음식","category":"restaurant"},{"name":"우가네왕갈비","tel":"031-465-8050","addr":"경기도 안양시 동안구 비산동 566-1번지","indutype":"일반휴게음식 - 일반한식","category":"restaurant"}]},{"lat":"37.400527416","long":"126.94809556","imageIndex":4,"items":[{"name":"레스토랑펍피","tel":"031-383-9009","addr":"경기도 안양시 동안구 비산동 1053번지","indutype":"일반휴게음식 - 일반한식","category":"restaurant"},{"name":"육대장","tel":"031-387-8008","addr":"경기도 안양시 동안구 비산동 1053번지","indutype":"일반휴게음식 - 일반한식","category":"restaurant"}]},{"lat":"37.394307619","long":"126.94228424","imageIndex":4,"items":[{"name":"마마스 (치킨호프)","tel":"","addr":"경기도 안양시 동안구 비산동 1102번지","indutype":"일반휴게음식 - 주점","category":"restaurant"},{"name":"미드모닝(mid-morning)","tel":"031-388-0504","addr":"경기도 안양시 동안구 비산동 1102번지 관악아파트","indutype":"일반휴게음식 - 서양음식","category":"restaurant"},{"name":"헤이헤이","tel":"031-383-5066","addr":"경기도 안양시 동안구 비산동 1102번지 관악아파트","indutype":"일반휴게음식 - 서양음식","category":"restaurant"}]},{"lat":"37.403835562","long":"126.95131204","imageIndex":4,"items":[{"name":"막걸리와빈대떡","tel":"031-382-7182","addr":"경기도 안양시 동안구 비산동 1038-14번지","indutype":"일반휴게음식 - 주점","category":"restaurant"},{"name":"황금돼지순대국","tel":"031-387-9088","addr":"경기도 안양시 동안구 비산동 1038-14번지","indutype":"일반휴게음식 - 일반한식","category":"restaurant"}]},{"lat":"37.403690157","long":"126.94853374","imageIndex":4,"items":[{"name":"막비어","tel":"070-8968-3373","addr":"경기도 안양시 동안구 비산동 1026-10번지","indutype":"일반휴게음식 - 일반한식","category":"restaurant"}]},{"lat":"37.405826121","long":"126.932539","imageIndex":4,"items":[{"name":"맛데이더블치킨","tel":"031-465-1256","addr":"경기도 안양시 동안구 비산동 1155번지","indutype":"일반휴게음식 - 스넥","category":"restaurant"}]},{"lat":"37.39646722","long":"126.93700857","imageIndex":4,"items":[{"name":"메인디쉬","tel":"031-388-2799","addr":"경기도 안양시 동안구 비산동 466-4번지","indutype":"일반휴게음식 - 일반한식","category":"restaurant"}]},{"lat":"37.394722606","long":"126.94331157","imageIndex":4,"items":[{"name":"모모치킨비산점","tel":"031-382-9886","addr":"경기도 안양시 동안구 비산동 1102번지","indutype":"일반휴게음식 - 스넥","category":"restaurant"},{"name":"블랙빈","tel":"031-382-8960","addr":"경기도 안양시 동안구 비산동 1102번지","indutype":"일반휴게음식 - 주점","category":"restaurant"},{"name":"블랙빈(Black Bean)","tel":"","addr":"경기도 안양시 동안구 비산동 1102번지","indutype":"일반휴게음식 - 서양음식","category":"restaurant"},{"name":"처갓집양념통닭 범계점","tel":"031-381-8238","addr":"경기도 안양시 동안구 비산동","indutype":"일반휴게음식 - 주점","category":"restaurant"},{"name":"카페모티","tel":"031-383-1510","addr":"경기도 안양시 동안구 비산동 1102번지 관악아파트","indutype":"일반휴게음식 - 서양음식","category":"restaurant"},{"name":"평촌한식분식","tel":"031-381-6888","addr":"경기도 안양시 동안구 비산동 1102번지","indutype":"일반휴게음식 - 일반한식","category":"restaurant"},{"name":"호프하우스","tel":"031-382-5585","addr":"경기도 안양시 동안구 비산동 1102번지 관악아파트","indutype":"일반휴게음식 - 주점","category":"restaurant"}]},{"lat":"37.402274062","long":"126.94533853","imageIndex":4,"items":[{"name":"무무커피","tel":"031-1234-1234","addr":"경기도 안양시 동안구 비산동 354-10번지 뉴타운아파트","indutype":"일반휴게음식 - 서양음식","category":"restaurant"},{"name":"박찬희칼국수","tel":"031-383-6788","addr":"경기도 안양시 동안구 비산동 354-10번지 뉴타운아파트","indutype":"일반휴게음식 - 일반한식","category":"restaurant"},{"name":"팥선생","tel":"031-384-8945","addr":"경기도 안양시 동안구 비산동 354-10번지 뉴타운삼호아파트","indutype":"일반휴게음식 - 일반한식","category":"restaurant"},{"name":"피자마루(안양비산점)","tel":"031-388-1233","addr":"경기도 안양시 동안구 비산동 354-10번지 뉴타운아파트","indutype":"일반휴게음식 - 서양음식","category":"restaurant"}]},{"lat":"37.404772642","long":"126.9337259","imageIndex":4,"items":[{"name":"무한맛집","tel":"031-443-5563","addr":"경기도 안양시 동안구 비산동 514번지","indutype":"일반휴게음식 - 일반한식","category":"restaurant"},{"name":"무한맛향기","tel":"031-443-5563","addr":"경기도 안양시 동안구 비산동 514번지","indutype":"일반휴게음식 - 일반한식","category":"restaurant"},{"name":"범벅스","tel":"031-747-8874","addr":"경기도 안양시 동안구 비산동 514번지","indutype":"일반휴게음식 - 일반한식","category":"restaurant"},{"name":"소문난김밥임곡점","tel":"031-445-5004","addr":"경기도 안양시 동안구 비산동 514번지","indutype":"일반휴게음식 - 일반한식","category":"restaurant"},{"name":"진's키친","tel":"031-441-5677","addr":"경기도 안양시 동안구 비산동 514번지","indutype":"일반휴게음식 - 일반한식","category":"restaurant"}]},{"lat":"37.403943609","long":"126.95114255","imageIndex":4,"items":[{"name":"미성식당","tel":"031-386-0745","addr":"경기도 안양시 동안구 비산동 1038-15번지","indutype":"일반휴게음식 - 일반한식","category":"restaurant"}]},{"lat":"37.403581207","long":"126.94676061","imageIndex":4,"items":[{"name":"민지네곱창","tel":"031-423-5494","addr":"경기도 안양시 동안구 비산동 355-1번지","indutype":"일반휴게음식 - 일반한식","category":"restaurant"},{"name":"오후엔(오후n)","tel":"","addr":"경기도 안양시 동안구 비산동 355-1번지","indutype":"일반휴게음식 - 서양음식","category":"restaurant"},{"name":"펀비어킹 안양종합운동장점","tel":"031-387-3179","addr":"경기도 안양시 동안구 비산동 355-1번지","indutype":"일반휴게음식 - 주점","category":"restaurant"}]},{"lat":"37.403528192","long":"126.94900821","imageIndex":4,"items":[{"name":"바움","tel":"031-385-5017","addr":"경기도 안양시 동안구 비산동 1026-13번지","indutype":"일반휴게음식 - 일반한식","category":"restaurant"},{"name":"월수금(비산점)","tel":"031-469-7070","addr":"경기도 안양시 동안구 비산동 1026-13번지","indutype":"일반휴게음식 - 일반한식","category":"restaurant"}]},{"lat":"37.413548686","long":"126.95192665","imageIndex":4,"items":[{"name":"박가네해신탕","tel":"031-387-5151","addr":"경기도 안양시 동안구 비산동 28번지","indutype":"일반휴게음식 - 일반한식","category":"restaurant"}]},{"lat":"37.400417754","long":"126.94486561","imageIndex":4,"items":[{"name":"반해밥 김밥","tel":"031-381-0012","addr":"경기도 안양시 동안구 비산동 377-4번지","indutype":"일반휴게음식 - 일반한식","category":"restaurant"},{"name":"아베크누","tel":"031-405-4404","addr":"경기도 안양시 동안구 비산동 377-4번지","indutype":"일반휴게음식 - 서양음식","category":"restaurant"},{"name":"장금갯벌신안낙지","tel":"031-383-0543","addr":"경기도 안양시 동안구 비산동 377-4번지","indutype":"일반휴게음식 - 일반한식","category":"restaurant"},{"name":"페리카나치킨","tel":"031-388-9672","addr":"경기도 안양시 동안구 비산동 377-4번지","indutype":"일반휴게음식 - 주점","category":"restaurant"}]},{"lat":"37.391248056","long":"126.9503721","imageIndex":4,"items":[{"name":"밥보야","tel":"031-386-1962","addr":"경기도 안양시 동안구 비산동 1108-1번지","indutype":"일반휴게음식 - 스넥","category":"restaurant"},{"name":"베베엉클","tel":"","addr":"경기도 안양시 동안구 비산동 1108-1번지","indutype":"일반휴게음식 - 서양음식","category":"restaurant"},{"name":"신교동짬뽕","tel":"031-381-8116","addr":"경기도 안양시 동안구 비산동 1108-1번지","indutype":"일반휴게음식 - 중국식","category":"restaurant"},{"name":"오캄앤티","tel":"","addr":"경기도 안양시 동안구 비산동 1108-1번지","indutype":"일반휴게음식 - 스넥","category":"restaurant"},{"name":"카페일안","tel":"","addr":"경기도 안양시 동안구 비산동 1108-1번지","indutype":"일반휴게음식 - 서양음식","category":"restaurant"},{"name":"커피양만화군","tel":"070-7503-4388","addr":"경기도 안양시 동안구 비산동 1108-1번지","indutype":"일반휴게음식 - 서양음식","category":"restaurant"},{"name":"커피에반하다(동안구청점)","tel":"","addr":"경기도 안양시 동안구 비산동 1108-1번지","indutype":"일반휴게음식 - 서양음식","category":"restaurant"},{"name":"핀펍","tel":"031-386-9000","addr":"경기도 안양시 동안구 비산동 1108-1번지","indutype":"일반휴게음식 - 일반한식","category":"restaurant"},{"name":"홍루이젠 안양범계점","tel":"","addr":"경기도 안양시 동안구 비산동 1108-1번지","indutype":"일반휴게음식 - 스넥","category":"restaurant"},{"name":"황고집칼국수","tel":"031-388-7181","addr":"경기도 안양시 동안구 비산동 1108-1번지","indutype":"일반휴게음식 - 일반한식","category":"restaurant"}]},{"lat":"37.410276508","long":"126.94850639","imageIndex":4,"items":[{"name":"밥이(Babi)술술","tel":"031-387-3131","addr":"경기도 안양시 동안구 비산동 106-1번지","indutype":"일반휴게음식 - 일반한식","category":"restaurant"}]},{"lat":"37.400355492","long":"126.94653714","imageIndex":4,"items":[{"name":"밥이랑반찬이랑","tel":"031-381-4866","addr":"경기도 안양시 동안구 비산동 360-17번지","indutype":"일반휴게음식 - 일반한식","category":"restaurant"},{"name":"스위치(SWITCH)","tel":"031-385-7070","addr":"경기도 안양시 동안구 비산동 360-17번지","indutype":"일반휴게음식 - 일반한식","category":"restaurant"}]},{"lat":"37.402330367","long":"126.95014977","imageIndex":4,"items":[{"name":"배영만당진아구동태찜탕","tel":"031-382-9989","addr":"경기도 안양시 동안구 비산동 1033-8번지","indutype":"일반휴게음식 - 일반한식","category":"restaurant"},{"name":"포이 (Poi)슬라임카페","tel":"031-342-3229","addr":"경기도 안양시 동안구 비산동 1033-8번지","indutype":"일반휴게음식 - 서양음식","category":"restaurant"}]},{"lat":"37.409466664","long":"126.95086766","imageIndex":4,"items":[{"name":"봉가진","tel":"031-382-9616","addr":"경기도 안양시 동안구 비산동 168-2번지","indutype":"일반휴게음식 - 일반한식","category":"restaurant"}]},{"lat":"37.413251207","long":"126.95158797","imageIndex":4,"items":[{"name":"봉평메밀막국수","tel":"031-443-0592","addr":"경기도 안양시 동안구 비산동 26-6번지","indutype":"일반휴게음식 - 일반한식","category":"restaurant"}]},{"lat":"37.412638694","long":"126.95198374","imageIndex":4,"items":[{"name":"비산누룽지백숙","tel":"031-383-5252","addr":"경기도 안양시 동안구 비산동 6-3번지","indutype":"일반휴게음식 - 일반한식","category":"restaurant"},{"name":"통큰낙지","tel":"031-383-3399","addr":"경기도 안양시 동안구 비산동 6-3번지","indutype":"일반휴게음식 - 일반한식","category":"restaurant"}]},{"lat":"37.396828481","long":"126.93856672","imageIndex":4,"items":[{"name":"비산명품 함바식당/(주)엠더블유컴퍼니(M.W","tel":"031-405-4404","addr":"경기도 안양시 동안구 비산동 422-13번지","indutype":"일반휴게음식 - 일반한식","category":"restaurant"},{"name":"홍천참숯화로구이","tel":"031-476-6268","addr":"경기도 안양시 동안구 비산동 422-13번지","indutype":"일반휴게음식 - 일반한식","category":"restaurant"}]},{"lat":"37.406745404","long":"126.95037258","imageIndex":4,"items":[{"name":"비산박족발","tel":"031-388-5882","addr":"경기도 안양시 동안구 비산동 1029-12번지","indutype":"일반휴게음식 - 일반한식","category":"restaurant"},{"name":"형씨니막소호프","tel":"","addr":"경기도 안양시 동안구 비산동 1029-12번지","indutype":"일반휴게음식 - 주점","category":"restaurant"}]},{"lat":"37.398716583","long":"126.9315631","imageIndex":4,"items":[{"name":"비에이치씨(BHC)비어존(안양1동점)","tel":"031-442-9989","addr":"경기도 안양시 동안구 비산동 1166번지","indutype":"일반휴게음식 - 일반한식","category":"restaurant"},{"name":"피자헤븐 인 눈치떡 안양동안점","tel":"031-444-9282","addr":"경기도 안양시 동안구 비산동 1166번지","indutype":"일반휴게음식 - 서양음식","category":"restaurant"}]},{"lat":"37.398248955","long":"126.95050273","imageIndex":4,"items":[{"name":"비에이치씨치킨(bhc치킨) 평천3호점","tel":"031-381-9994","addr":"경기도 안양시 동안구 비산동 1101-6번지","indutype":"일반휴게음식 - 스넥","category":"restaurant"},{"name":"카페비원(Cafe B1)","tel":"","addr":"경기도 안양시 동안구 비산동 1101-6번지","indutype":"일반휴게음식 - 서양음식","category":"restaurant"},{"name":"풀하우스","tel":"031-384-6297","addr":"경기도 안양시 동안구 비산동 1101-6번지 샛별한양아파트","indutype":"일반휴게음식 - 스넥","category":"restaurant"}]},{"lat":"37.403690711","long":"126.94975352","imageIndex":4,"items":[{"name":"뼈대감자탕","tel":"031-384-8811","addr":"경기도 안양시 동안구 비산동 1032-1번지","indutype":"일반휴게음식 - 일반한식","category":"restaurant"}]},{"lat":"37.400995534","long":"126.94722559","imageIndex":4,"items":[{"name":"뽀빠이앤올리브","tel":"031-387-5837","addr":"경기도 안양시 동안구 비산동","indutype":"일반휴게음식 - 스넥","category":"restaurant"}]},{"lat":"37.397717699","long":"126.93364204","imageIndex":4,"items":[{"name":"사거리포장마차","tel":"031-449-1321","addr":"경기도 안양시 동안구 비산동 571-28번지","indutype":"일반휴게음식 - 일반한식","category":"restaurant"},{"name":"어린왕자카페","tel":"031-466-2811","addr":"경기도 안양시 동안구 비산동 571-28번지","indutype":"일반휴게음식 - 서양음식","category":"restaurant"},{"name":"장터","tel":"031-476-7170","addr":"경기도 안양시 동안구 비산동 571-28번지","indutype":"일반휴게음식 - 일반한식","category":"restaurant"},{"name":"화도","tel":"031-469-0402","addr":"경기도 안양시 동안구 비산동 571-28번지","indutype":"일반휴게음식 - 일반한식","category":"restaurant"}]},{"lat":"37.403718149","long":"126.95066834","imageIndex":4,"items":[{"name":"사탄곱창","tel":"031-384-5583","addr":"경기도 안양시 동안구 비산동 1032-21번지","indutype":"일반휴게음식 - 일반한식","category":"restaurant"}]},{"lat":"37.399582347","long":"126.93289494","imageIndex":4,"items":[{"name":"산골식당","tel":"","addr":"경기도 안양시 동안구 비산동 554-7번지","indutype":"일반휴게음식 - 일반한식","category":"restaurant"}]},{"lat":"37.414666088","long":"126.95228736","imageIndex":4,"items":[{"name":"산마을민속촌","tel":"031-388-8816","addr":"경기도 안양시 동안구 비산동 38-1번지","indutype":"일반휴게음식 - 일반한식","category":"restaurant"}]},{"lat":"37.414665943","long":"126.95194848","imageIndex":4,"items":[{"name":"산마을보리밥/주식회사 애산마을","tel":"031-388-8816","addr":"경기도 안양시 동안구 비산동 45번지","indutype":"일반휴게음식 - 일반한식","category":"restaurant"}]},{"lat":"37.41049403","long":"126.95136395","imageIndex":4,"items":[{"name":"산마을샤브샤브/주식회사 더아침뜰","tel":"031-386-8815","addr":"경기도 안양시 동안구 비산동 162-1번지","indutype":"일반휴게음식 - 일반한식","category":"restaurant"}]},{"lat":"37.413972664","long":"126.95311242","imageIndex":4,"items":[{"name":"산마을우물가","tel":"031-385-7740","addr":"경기도 안양시 동안구 비산동 34-2번지","indutype":"일반휴게음식 - 일반한식","category":"restaurant"}]},{"lat":"37.410277803","long":"126.95139798","imageIndex":4,"items":[{"name":"산채고을","tel":"031-387-8816","addr":"경기도 안양시 동안구 비산동 162-4번지","indutype":"일반휴게음식 - 일반한식","category":"restaurant"}]},{"lat":"37.399107928","long":"126.93837278","imageIndex":4,"items":[{"name":"삼성감자탕","tel":"031-443-7600","addr":"경기도 안양시 동안구 비산동 459-28번지","indutype":"일반휴게음식 - 일반한식","category":"restaurant"},{"name":"셀렉토커피","tel":"031-441-0754","addr":"경기도 안양시 동안구 비산동 459-28번지","indutype":"일반휴게음식 - 서양음식","category":"restaurant"}]},{"lat":"37.406717375","long":"126.94817012","imageIndex":4,"items":[{"name":"샨띠","tel":"031-388-8441","addr":"경기도 안양시 동안구 비산동 1020-8번지","indutype":"일반휴게음식 - 서양음식","category":"restaurant"}]},{"lat":"37.390525929","long":"126.94748176","imageIndex":4,"items":[{"name":"샵카페 코코더","tel":"031-388-7177","addr":"경기도 안양시 동안구 비산동 1104-1번지","indutype":"일반휴게음식 - 서양음식","category":"restaurant"},{"name":"성경만두요리전문점 (범계점)","tel":"031-387-8566","addr":"경기도 안양시 동안구 비산동 1104-1번지","indutype":"일반휴게음식 - 일반한식","category":"restaurant"},{"name":"스시코노미","tel":"031-384-4131","addr":"경기도 안양시 동안구 비산동 1104-1번지","indutype":"일반휴게음식 - 일식·회집","category":"restaurant"},{"name":"우리네설렁탕","tel":"031-386-3773","addr":"경기도 안양시 동안구 비산동 1104-1번지","indutype":"일반휴게음식 - 일반한식","category":"restaurant"},{"name":"착한피자","tel":"031-387-0055","addr":"경기도 안양시 동안구 비산동 1104-1번지","indutype":"일반휴게음식 - 서양음식","category":"restaurant"},{"name":"현대옥 범계역점","tel":"031-388-2911","addr":"경기도 안양시 동안구 비산동 1104-1번지","indutype":"일반휴게음식 - 일반한식","category":"restaurant"}]},{"lat":"37.400780067","long":"126.94889724","imageIndex":4,"items":[{"name":"설악추어탕","tel":"031-383-2230","addr":"경기도 안양시 동안구 비산동 1053-6번지","indutype":"일반휴게음식 - 일반한식","category":"restaurant"}]},{"lat":"37.405078389","long":"126.9500349","imageIndex":4,"items":[{"name":"세수대야냉면과 생바지락칼국수","tel":"031-388-1537","addr":"경기도 안양시 동안구 비산동 1030-5번지","indutype":"일반휴게음식 - 일반한식","category":"restaurant"},{"name":"한성갈비촌","tel":"031-457-6666","addr":"경기도 안양시 동안구 비산동 1030-5번지","indutype":"일반휴게음식 - 일반한식","category":"restaurant"}]},{"lat":"37.414611741","long":"126.95162093","imageIndex":4,"items":[{"name":"소담원","tel":"031-388-5536","addr":"경기도 안양시 동안구 비산동 44-2번지","indutype":"일반휴게음식 - 일반한식","category":"restaurant"}]},{"lat":"37.400247727","long":"126.93062427","imageIndex":4,"items":[{"name":"소생갈비살참숯구이","tel":"031-468-6635","addr":"경기도 안양시 동안구 비산동 547-16번지","indutype":"일반휴게음식 - 일반한식","category":"restaurant"}]},{"lat":"37.393856193","long":"126.94051163","imageIndex":4,"items":[{"name":"소향카페","tel":"","addr":"경기도 안양시 동안구 비산동 576-7번지 비산힐스테이트아파트","indutype":"일반휴게음식 - 서양음식","category":"restaurant"}]},{"lat":"37.396915796","long":"126.95126031","imageIndex":4,"items":[{"name":"수리치골영양탕","tel":"031-385-4212","addr":"경기도 안양시 동안구 비산동 1101-8번지","indutype":"일반휴게음식 - 일반한식","category":"restaurant"}]},{"lat":"37.404303498","long":"126.94997898","imageIndex":4,"items":[{"name":"술통","tel":"031-388-6267","addr":"경기도 안양시 동안구 비산동 1031-4번지","indutype":"일반휴게음식 - 일반한식","category":"restaurant"},{"name":"장수추어탕","tel":"031-384-9821","addr":"경기도 안양시 동안구 비산동 1031-4번지","indutype":"일반휴게음식 - 일반한식","category":"restaurant"}]},{"lat":"37.397446676","long":"126.9324226","imageIndex":4,"items":[{"name":"숯불구이","tel":"031-348-0766","addr":"경기도 안양시 동안구 비산동 558-2번지","indutype":"일반휴게음식 - 일반한식","category":"restaurant"}]},{"lat":"37.401193355","long":"126.92992313","imageIndex":4,"items":[{"name":"쉐프밥버거 (대림대점)","tel":"031-443-8889","addr":"경기도 안양시 동안구 비산동 1163번지","indutype":"일반휴게음식 - 일반한식","category":"restaurant"},{"name":"카페모먼트(Cafe Moment)","tel":"","addr":"경기도 안양시 동안구 비산동 1163번지","indutype":"일반휴게음식 - 서양음식","category":"restaurant"},{"name":"피자스쿨비산점","tel":"031-466-2626","addr":"경기도 안양시 동안구 비산동 1163번지","indutype":"일반휴게음식 - 서양음식","category":"restaurant"},{"name":"훌랄라참숯바베큐대림대점","tel":"031-443-9204","addr":"경기도 안양시 동안구 비산동","indutype":"일반휴게음식 - 주점","category":"restaurant"}]},{"lat":"37.405772336","long":"126.95041843","imageIndex":4,"items":[{"name":"슬로우커피","tel":"","addr":"경기도 안양시 동안구 비산동 1030-1번지","indutype":"일반휴게음식 - 서양음식","category":"restaurant"},{"name":"올빼미","tel":"","addr":"경기도 안양시 동안구 비산동 1030-1번지","indutype":"일반휴게음식 - 주점","category":"restaurant"}]},{"lat":"37.403584017","long":"126.95302894","imageIndex":4,"items":[{"name":"시골집","tel":"031-387-2574","addr":"경기도 안양시 동안구 비산동 1050-5번지","indutype":"일반휴게음식 - 일반한식","category":"restaurant"},{"name":"케그비어","tel":"031-905-5991","addr":"경기도 안양시 동안구 비산동 1050-5번지","indutype":"일반휴게음식 - 주점","category":"restaurant"},{"name":"포차이나","tel":"","addr":"경기도 안양시 동안구 비산동 1050-5번지","indutype":"일반휴게음식 - 중국식","category":"restaurant"}]},{"lat":"37.40660999","long":"126.94978534","imageIndex":4,"items":[{"name":"신가네순대국","tel":"031-382-8589","addr":"경기도 안양시 동안구 비산동 1018-18번지","indutype":"일반휴게음식 - 일반한식","category":"restaurant"}]},{"lat":"37.399967322","long":"126.94501277","imageIndex":4,"items":[{"name":"실내포장마차","tel":"031-387-5070","addr":"경기도 안양시 동안구 비산동 377-6번지","indutype":"일반휴게음식 - 주점","category":"restaurant"}]},{"lat":"37.409917158","long":"126.95084476","imageIndex":4,"items":[{"name":"안다미로","tel":"","addr":"경기도 안양시 동안구 비산동 162-6번지","indutype":"일반휴게음식 - 서양음식","category":"restaurant"}]},{"lat":"37.400409729","long":"126.93033047","imageIndex":4,"items":[{"name":"앨리스카페","tel":"031-442-2440","addr":"경기도 안양시 동안구 비산동 541-9번지","indutype":"일반휴게음식 - 서양음식","category":"restaurant"}]},{"lat":"37.404078185","long":"126.9498436","imageIndex":4,"items":[{"name":"야니","tel":"031-388-3046","addr":"경기도 안양시 동안구 비산동 1031-7번지","indutype":"일반휴게음식 - 일반한식","category":"restaurant"},{"name":"후루룩면선생","tel":"031-348-8999","addr":"경기도 안양시 동안구 비산동 1031-7번지","indutype":"일반휴게음식 - 스넥","category":"restaurant"}]},{"lat":"37.402690719","long":"126.95003658","imageIndex":4,"items":[{"name":"약선삼계탕","tel":"031-442-0272","addr":"경기도 안양시 동안구 비산동 1033번지","indutype":"일반휴게음식 - 일반한식","category":"restaurant"},{"name":"택이네 조개전골","tel":"031-383-3839","addr":"경기도 안양시 동안구 비산동 1033번지","indutype":"일반휴게음식 - 일반한식","category":"restaurant"}]},{"lat":"37.399527971","long":"126.93236418","imageIndex":4,"items":[{"name":"얌샘김밥 안양비산점","tel":"031-444-1119","addr":"경기도 안양시 동안구 비산동 1167번지 대광로제비앙","indutype":"일반휴게음식 - 일반한식","category":"restaurant"},{"name":"전라도한식뷔페","tel":"031-342-4177","addr":"경기도 안양시 동안구 비산동 1167번지 대광로제비앙","indutype":"일반휴게음식 - 일반한식","category":"restaurant"}]},{"lat":"37.397439191","long":"126.93503138","imageIndex":4,"items":[{"name":"엄마보쌈&국밥","tel":"031-445-2278","addr":"경기도 안양시 동안구 비산동 570-6번지","indutype":"일반휴게음식 - 일반한식","category":"restaurant"},{"name":"육향","tel":"031-441-8592","addr":"경기도 안양시 동안구 비산동 570-6번지","indutype":"일반휴게음식 - 일반한식","category":"restaurant"}]},{"lat":"37.404997399","long":"126.95026085","imageIndex":4,"items":[{"name":"엄마손식당","tel":"031-425-0033","addr":"경기도 안양시 동안구 비산동 1030-4번지","indutype":"일반휴게음식 - 일반한식","category":"restaurant"},{"name":"함양박씨","tel":"","addr":"경기도 안양시 동안구 비산동 1030-4번지","indutype":"일반휴게음식 - 서양음식","category":"restaurant"}]},{"lat":"37.414161031","long":"126.95114681","imageIndex":4,"items":[{"name":"에디스커틀렛","tel":"031-476-1255","addr":"경기도 안양시 동안구 비산동 43-16번지","indutype":"일반휴게음식 - 일반한식","category":"restaurant"}]},{"lat":"37.396611072","long":"126.93645507","imageIndex":4,"items":[{"name":"영덕서왔니더!","tel":"070-7078-5588","addr":"경기도 안양시 동안구 비산동 566-13번지","indutype":"일반휴게음식 - 일반한식","category":"restaurant"}]},{"lat":"37.40835754","long":"126.9488918","imageIndex":4,"items":[{"name":"예두부","tel":"031-384-1002","addr":"경기도 안양시 동안구 비산동 1015-3번지","indutype":"일반휴게음식 - 일반한식","category":"restaurant"}]},{"lat":"37.399830906","long":"126.94248308","imageIndex":4,"items":[{"name":"옛날우동짜장이야기","tel":"070-7715-8089","addr":"경기도 안양시 동안구 비산동 1165번지","indutype":"일반휴게음식 - 일반한식","category":"restaurant"}]},{"lat":"37.397744914","long":"126.93395823","imageIndex":4,"items":[{"name":"옛날청국장","tel":"031-443-5300","addr":"경기도 안양시 동안구 비산동 570-1번지","indutype":"일반휴게음식 - 일반한식","category":"restaurant"}]},{"lat":"37.397664125","long":"126.9344778","imageIndex":4,"items":[{"name":"오노레(honore)","tel":"031-465-1777","addr":"경기도 안양시 동안구 비산동 570-4번지","indutype":"일반휴게음식 - 서양음식","category":"restaurant"}]},{"lat":"37.413827998","long":"126.95192646","imageIndex":4,"items":[{"name":"올라쿠치나","tel":"","addr":"경기도 안양시 동안구 비산동 36-1번지","indutype":"일반휴게음식 - 일반한식","category":"restaurant"}]},{"lat":"37.410106453","long":"126.95103665","imageIndex":4,"items":[{"name":"왕재","tel":"031-384-8182","addr":"경기도 안양시 동안구 비산동 161-2번지","indutype":"일반휴게음식 - 중국식","category":"restaurant"}]},{"lat":"37.403970386","long":"126.95056652","imageIndex":4,"items":[{"name":"요기요","tel":"032-439-9847","addr":"경기도 안양시 동안구 비산동 1038-32번지","indutype":"일반휴게음식 - 주점","category":"restaurant"}]},{"lat":"37.400193818","long":"126.93087278","imageIndex":4,"items":[{"name":"우리한우","tel":"031-466-4789","addr":"경기도 안양시 동안구 비산동 547-14번지","indutype":"일반휴게음식 - 일반한식","category":"restaurant"}]},{"lat":"37.40366296","long":"126.94817234","imageIndex":4,"items":[{"name":"운동장화로구이","tel":"031-385-7700","addr":"경기도 안양시 동안구 비산동 1026-1번지","indutype":"일반휴게음식 - 일반한식","category":"restaurant"}]},{"lat":"37.403581596","long":"126.94758509","imageIndex":4,"items":[{"name":"윌(Will)호프","tel":"031-386-5802","addr":"경기도 안양시 동안구 비산동 255-4번지","indutype":"일반휴게음식 - 주점","category":"restaurant"}]},{"lat":"37.406916864","long":"126.95098237","imageIndex":4,"items":[{"name":"육(  )짜배기","tel":"031-388-5654","addr":"경기도 안양시 동안구 비산동 1043번지","indutype":"일반휴게음식 - 일반한식","category":"restaurant"}]},{"lat":"37.40322302","long":"126.95163999","imageIndex":4,"items":[{"name":"은두꺼비찌개","tel":"031-381-4707","addr":"경기도 안양시 동안구 비산동 1037-4번지","indutype":"일반휴게음식 - 일반한식","category":"restaurant"}]},{"lat":"37.406862545","long":"126.95039508","imageIndex":4,"items":[{"name":"이가네바지락칼국수","tel":"031-381-0900","addr":"경기도 안양시 동안구 비산동 1029-13번지","indutype":"일반휴게음식 - 일반한식","category":"restaurant"}]},{"lat":"37.399029387","long":"126.9432291","imageIndex":4,"items":[{"name":"이디야커피(비산동점)","tel":"031-388-5505","addr":"경기도 안양시 동안구 비산동 421-87번지","indutype":"일반휴게음식 - 서양음식","category":"restaurant"}]},{"lat":"37.403745094","long":"126.95047632","imageIndex":4,"items":[{"name":"이서방양념치킨","tel":"031-388-2579","addr":"경기도 안양시 동안구 비산동 1032-6번지","indutype":"일반휴게음식 - 칵테일바","category":"restaurant"}]},{"lat":"37.402501644","long":"126.95034165","imageIndex":4,"items":[{"name":"인덕원양곱창","tel":"031-387-9956","addr":"경기도 안양시 동안구 비산동 1033-6번지","indutype":"일반휴게음식 - 일반한식","category":"restaurant"}]},{"lat":"37.414413744","long":"126.95214068","imageIndex":4,"items":[{"name":"인산마을","tel":"","addr":"경기도 안양시 동안구 비산동 39-1번지","indutype":"일반휴게음식 - 일반한식","category":"restaurant"}]},{"lat":"37.400553698","long":"126.94650311","imageIndex":4,"items":[{"name":"일식송수사","tel":"031-388-8307","addr":"경기도 안양시 동안구 비산동 360-8번지","indutype":"일반휴게음식 - 일식·회집","category":"restaurant"}]},{"lat":"37.403997301","long":"126.95030673","imageIndex":4,"items":[{"name":"정성보쌈","tel":"031-383-5953","addr":"경기도 안양시 동안구 비산동 1038-34번지","indutype":"일반휴게음식 - 일반한식","category":"restaurant"},{"name":"초대석치킨","tel":"031-384-6505","addr":"경기도 안양시 동안구 비산동 1038-34번지","indutype":"일반휴게음식 - 주점","category":"restaurant"}]},{"lat":"37.407276357","long":"126.94894905","imageIndex":4,"items":[{"name":"조선시대아구찜","tel":"031-385-5577","addr":"경기도 안양시 동안구 비산동 1019-3번지","indutype":"일반휴게음식 - 일반한식","category":"restaurant"}]},{"lat":"37.403773138","long":"126.95281422","imageIndex":4,"items":[{"name":"주거래처포차","tel":"031-381-0022","addr":"경기도 안양시 동안구 비산동 1049-7번지","indutype":"일반휴게음식 - 일반한식","category":"restaurant"}]},{"lat":"37.413827866","long":"126.95162147","imageIndex":4,"items":[{"name":"진가네돼지랑오리랑","tel":"031-385-5196","addr":"경기도 안양시 동안구 비산동 41-4번지","indutype":"일반휴게음식 - 일반한식","category":"restaurant"}]},{"lat":"37.40574521","long":"126.95020385","imageIndex":4,"items":[{"name":"찌개부대","tel":"031-385-7329","addr":"경기도 안양시 동안구 비산동 1030번지","indutype":"일반휴게음식 - 일반한식","category":"restaurant"}]},{"lat":"37.403385382","long":"126.95205777","imageIndex":4,"items":[{"name":"찌개지존","tel":"031-423-9298","addr":"경기도 안양시 동안구 비산동 1050번지 원평노블레스","indutype":"일반휴게음식 - 일반한식","category":"restaurant"},{"name":"칼포니 비산점","tel":"031-381-4986","addr":"경기도 안양시 동안구 비산동 1050번지 원평노블레스","indutype":"일반휴게음식 - 주점","category":"restaurant"}]},{"lat":"37.406690553","long":"126.94862193","imageIndex":4,"items":[{"name":"참새마을","tel":"031-384-9544","addr":"경기도 안양시 동안구 비산동 1019-26번지","indutype":"일반휴게음식 - 스넥","category":"restaurant"}]},{"lat":"37.400219671","long":"126.94514811","imageIndex":4,"items":[{"name":"참치철","tel":"031-381-2988","addr":"경기도 안양시 동안구 비산동 377-20번지","indutype":"일반휴게음식 - 일식·회집","category":"restaurant"}]},{"lat":"37.39766379","long":"126.93390183","imageIndex":4,"items":[{"name":"찹스빌","tel":"031-446-8090","addr":"경기도 안양시 동안구 비산동 570-12번지","indutype":"일반휴게음식 - 주점","category":"restaurant"},{"name":"카페알레그로","tel":"031-444-7535","addr":"경기도 안양시 동안구 비산동 570-12번지","indutype":"일반휴게음식 - 서양음식","category":"restaurant"}]},{"lat":"37.397278403","long":"126.93750477","imageIndex":4,"items":[{"name":"채상궁","tel":"031-387-3400","addr":"경기도 안양시 동안구 비산동 413-22번지","indutype":"일반휴게음식 - 일반한식","category":"restaurant"}]},{"lat":"37.40694366","long":"126.9504515","imageIndex":4,"items":[{"name":"처갓집양념치킨 비산점","tel":"031-387-1112","addr":"경기도 안양시 동안구 비산동 1029번지","indutype":"일반휴게음식 - 스넥","category":"restaurant"}]},{"lat":"37.398050992","long":"126.93350621","imageIndex":4,"items":[{"name":"청담족발","tel":"031-466-8292","addr":"경기도 안양시 동안구 비산동 571번지","indutype":"일반휴게음식 - 일반한식","category":"restaurant"}]},{"lat":"37.395220266","long":"126.9476477","imageIndex":4,"items":[{"name":"청도수산","tel":"031-383-2453","addr":"경기도 안양시 동안구 비산동 1102-9번지","indutype":"일반휴게음식 - 일식·회집","category":"restaurant"},{"name":"훌랄라치킨부흥점","tel":"031-383-8892","addr":"경기도 안양시 동안구 비산동 1102-9번지","indutype":"일반휴게음식 - 스넥","category":"restaurant"}]},{"lat":"37.404105437","long":"126.95034053","imageIndex":4,"items":[{"name":"청와대","tel":"031-387-7566","addr":"경기도 안양시 동안구 비산동 1038-35번지","indutype":"일반휴게음식 - 일반한식","category":"restaurant"}]},{"lat":"37.409078654","long":"126.93236653","imageIndex":4,"items":[{"name":"카페다올","tel":"031-446-1007","addr":"경기도 안양시 동안구 비산동 511-134번지","indutype":"일반휴게음식 - 서양음식","category":"restaurant"}]},{"lat":"37.406609929","long":"126.94964981","imageIndex":4,"items":[{"name":"카페로또","tel":"070-8269-4758","addr":"경기도 안양시 동안구 비산동 1018-22번지","indutype":"일반휴게음식 - 서양음식","category":"restaurant"}]},{"lat":"37.397195887","long":"126.93497513","imageIndex":4,"items":[{"name":"카페로와 (CAFE ROWA)","tel":"","addr":"경기도 안양시 동안구 비산동 570-8번지 대명맨션","indutype":"일반휴게음식 - 서양음식","category":"restaurant"}]},{"lat":"37.391806343","long":"126.94961511","imageIndex":4,"items":[{"name":"커플데이 평생점 (안양시니어클럽)","tel":"031-387-2850","addr":"경기도 안양시 동안구 비산동 1106번지","indutype":"일반휴게음식 - 서양음식","category":"restaurant"}]},{"lat":"37.404057181","long":"126.94356395","imageIndex":4,"items":[{"name":"커피나무","tel":"","addr":"경기도 안양시 동안구 비산동 322-4번지","indutype":"일반휴게음식 - 서양음식","category":"restaurant"},{"name":"폭군치킨","tel":"031-347-9978","addr":"경기도 안양시 동안구 비산동 322-4번지","indutype":"일반휴게음식 - 스넥","category":"restaurant"}]},{"lat":"37.405890385","long":"126.95253045","imageIndex":4,"items":[{"name":"커피야","tel":"070-7617-4005","addr":"경기도 안양시 동안구 비산동 1044-17번지","indutype":"일반휴게음식 - 서양음식","category":"restaurant"}]},{"lat":"37.403943451","long":"126.95078113","imageIndex":4,"items":[{"name":"커피여행","tel":"031-382-7676","addr":"경기도 안양시 동안구 비산동 1038-17번지","indutype":"일반휴게음식 - 서양음식","category":"restaurant"}]},{"lat":"37.40224969","long":"126.95108724","imageIndex":4,"items":[{"name":"커피트리앤초콜릿","tel":"031-388-9500","addr":"경기도 안양시 동안구 비산동 1034-11번지","indutype":"일반휴게음식 - 서양음식","category":"restaurant"}]},{"lat":"37.403970336","long":"126.95045357","imageIndex":4,"items":[{"name":"코다리와오리의만남 비산대박","tel":"031-386-3561","addr":"경기도 안양시 동안구 비산동 1038-33번지","indutype":"일반휴게음식 - 일반한식","category":"restaurant"}]},{"lat":"37.39713441","long":"126.93780981","imageIndex":4,"items":[{"name":"키즈퐁","tel":"031-381-9030","addr":"경기도 안양시 동안구 비산동 413-13번지","indutype":"일반휴게음식 - 일반한식","category":"restaurant"}]},{"lat":"37.41391772","long":"126.95105662","imageIndex":4,"items":[{"name":"타샤","tel":"031-385-6005","addr":"경기도 안양시 동안구 비산동 43-7번지","indutype":"일반휴게음식 - 일반한식","category":"restaurant"}]},{"lat":"37.408610423","long":"126.95022444","imageIndex":4,"items":[{"name":"타스(TAS)","tel":"031-384-3211","addr":"경기도 안양시 동안구 비산동 1017-7번지","indutype":"일반휴게음식 - 서양음식","category":"restaurant"}]},{"lat":"37.404411583","long":"126.94989984","imageIndex":4,"items":[{"name":"토플레소","tel":"031-385-1125","addr":"경기도 안양시 동안구 비산동 1031-10번지","indutype":"일반휴게음식 - 서양음식","category":"restaurant"},{"name":"회전초밥스시가","tel":"031-383-2510","addr":"경기도 안양시 동안구 비산동 1031-10번지","indutype":"일반휴게음식 - 일식·회집","category":"restaurant"}]},{"lat":"37.414053472","long":"126.95244591","imageIndex":4,"items":[{"name":"트윈커피","tel":"","addr":"경기도 안양시 동안구 비산동 36-13번지","indutype":"일반휴게음식 - 서양음식","category":"restaurant"}]},{"lat":"37.396417492","long":"126.94530913","imageIndex":4,"items":[{"name":"티 바이양 크레프리","tel":"031-381-0427","addr":"경기도 안양시 동안구 비산동 1102-4번지","indutype":"일반휴게음식 - 서양음식","category":"restaurant"}]},{"lat":"37.406799237","long":"126.94986427","imageIndex":4,"items":[{"name":"티바두마리치킨(비산,관양점)","tel":"031-388-9392","addr":"경기도 안양시 동안구 비산동 1018-19번지","indutype":"일반휴게음식 - 주점","category":"restaurant"}]},{"lat":"37.403529794","long":"126.95264497","imageIndex":4,"items":[{"name":"펍플","tel":"031-381-2320","addr":"경기도 안양시 동안구 비산동 1050-3번지","indutype":"일반휴게음식 - 주점","category":"restaurant"}]},{"lat":"37.392974155","long":"126.94234178","imageIndex":4,"items":[{"name":"포항물회","tel":"031-468-9937","addr":"경기도 안양시 동안구 비산동 580-12번지","indutype":"일반휴게음식 - 일반한식","category":"restaurant"}]},{"lat":"37.393222698","long":"126.95370208","imageIndex":4,"items":[{"name":"푸드그린","tel":"031-381-0500","addr":"경기도 안양시 동안구 비산동 1110-2번지","indutype":"일반휴게음식 - 일반한식","category":"restaurant"}]},{"lat":"37.400112878","long":"126.93112132","imageIndex":4,"items":[{"name":"하비닭곰탕","tel":"031-405-4404","addr":"경기도 안양시 동안구 비산동 547-27번지","indutype":"일반휴게음식 - 일반한식","category":"restaurant"}]},{"lat":"37.40183392","long":"126.93131168","imageIndex":4,"items":[{"name":"한솥도시락(대림대점)","tel":"031-464-0013","addr":"경기도 안양시 동안구 비산동 1162번지 임곡휴먼시아아파트","indutype":"일반휴게음식 - 일반한식","category":"restaurant"}]},{"lat":"37.397557283","long":"126.93672528","imageIndex":4,"items":[{"name":"한우촌뷔페식당","tel":"031-387-1146","addr":"경기도 안양시 동안구 비산동 412-7번지","indutype":"일반휴게음식 - 일반한식","category":"restaurant"}]},{"lat":"37.403635762","long":"126.94781094","imageIndex":4,"items":[{"name":"홍도해물","tel":"031-386-6679","addr":"경기도 안양시 동안구 비산동 255-1번지","indutype":"일반휴게음식 - 일반한식","category":"restaurant"}]},{"lat":"37.41441353","long":"126.95164366","imageIndex":4,"items":[{"name":"흑대장피알오","tel":"031-383-7555","addr":"경기도 안양시 동안구 비산동 44-4번지","indutype":"일반휴게음식 - 일반한식","category":"restaurant"}]},{"lat":"37.41025054","long":"126.95086712","imageIndex":4,"items":[{"name":"히왓리","tel":"031-381-9313","addr":"경기도 안양시 동안구 비산동 161-5번지","indutype":"일반휴게음식 - 서양음식","category":"restaurant"}]}]