[{"lat":"36.978608272","long":"126.92063608","imageIndex":16,"items":[{"name":"SM학원","tel":"031-686-8835","addr":"경기도 평택시 안중읍 현화리 833-2번지 세연프라자 604호","indutype":"학원 - 보습학원","category":"study"},{"name":"민뷰티아카데미학원","tel":"031-683-1525","addr":"경기도 평택시 안중읍 현화리 833-2번지 세연프라자 2층 201호","indutype":"학원 - 기능학원","category":"study"},{"name":"브리오어학원","tel":"031-682-0588","addr":"경기도 평택시 안중읍 현화리 833-2번지 세연프라자 5층 503호","indutype":"회원제형태 - 학원","category":"study"},{"name":"서평택간호직업학원","tel":"031-684-0040","addr":"경기도 평택시 안중읍 현화리 833-2번지 세연프라자 502호","indutype":"학원 - 기능학원","category":"study"},{"name":"안중대성학원","tel":"031-682-6050","addr":"경기도 평택시 안중읍 현화리 833-2번지 세연프라자 603호","indutype":"학원 - 보습학원","category":"study"},{"name":"안중세종학원","tel":"031-681-4461","addr":"경기도 평택시 안중읍 현화리 833-2번지 세연프라자 304호","indutype":"학원 - 보습학원","category":"study"},{"name":"안중태권도","tel":"031-683-4745","addr":"경기도 평택시 안중읍 현화리 833-2번지 세연프라자 602호","indutype":"학원 - 예·체능계학원","category":"study"},{"name":"안중태권도장(아이짐스포츠센터)","tel":"031-657-3787","addr":"경기도 평택시 안중읍 현화리 833-2번지 세연프라자 6층 202호","indutype":"학원 - 예·체능계학원","category":"study"},{"name":"엘에스논리속독수학학원","tel":"031-683-8219","addr":"경기도 평택시 안중읍 현화리 833-2번지 세현빌딩 401호","indutype":"학원 - 기타 교육기관","category":"study"},{"name":"온누리&해피어학원","tel":"031-682-6050","addr":"경기도 평택시 안중읍 현화리 833-2","indutype":"학원 - 보습학원","category":"study"},{"name":"와이지(YG)프리미엄독서실","tel":"031-681-1104","addr":"경기도 평택시 안중읍 현화리 833-2번지 세연프라자 403호","indutype":"학원 - 독서실","category":"study"},{"name":"유투엠안중캠퍼스학원","tel":"031-683-8219","addr":"경기도 평택시 안중읍 현화리 833-2번지 세연프라자 401호","indutype":"학원 - 보습학원","category":"study"},{"name":"진성어학원","tel":"031-684-3039","addr":"경기도 평택시 안중읍 현화리 833-2번지 세연프라자 702호","indutype":"회원제형태 - 학원","category":"study"},{"name":"현화독서실","tel":"031-683-2442","addr":"경기도 평택시 안중읍 현화리 833-2번지 세연프라자 204호","indutype":"학원 - 독서실","category":"study"},{"name":"화력중심홍익입시미술학원","tel":"031-681-1135","addr":"경기도 평택시 안중읍 현화리 833-2번지 세연프라자 4층 404호","indutype":"학원 - 예·체능계학원","category":"study"}]},{"lat":"36.975995333","long":"126.92088597","imageIndex":16,"items":[{"name":"경기유치원[아이행복]","tel":"031-681-8426","addr":"경기도 평택시 안중읍 현화리 368-3","indutype":"학원 - 유치원","category":"study"},{"name":"이든어린이집[아이행복]","tel":"031-681-8426","addr":"경기도 평택시 안중읍 현화리 368-3번지","indutype":"학원 - 유아원","category":"study"}]},{"lat":"36.984908056","long":"126.92251629","imageIndex":16,"items":[{"name":"고려챔피언태권도장","tel":"031-681-8820","addr":"경기도 평택시 안중읍 현화리 241번지 금강프라자 6층","indutype":"학원 - 예·체능계학원","category":"study"},{"name":"목동1등급영어수학학원","tel":"031-682-5780","addr":"경기도 평택시 안중읍 현화리 241번지 금강프라자빌딩 307호","indutype":"학원 - 보습학원","category":"study"},{"name":"버터영어,안중서울학원","tel":"031-683-8483","addr":"경기도 평택시 안중읍 현화리 241번지 금강프라자 306호","indutype":"회원제형태 - 학원","category":"study"},{"name":"수무용학원","tel":"031-683-8487","addr":"경기도 평택시 안중읍 현화리 241번지 금강프라자빌딩 2층 202호","indutype":"학원 - 예·체능계학원","category":"study"},{"name":"쎈수학러닝센터안중학원","tel":"031-683-7917","addr":"경기도 평택시 안중읍 현화리 241번지 금강프라자빌딩 402호","indutype":"학원 - 보습학원","category":"study"},{"name":"어린음악대현화원음악학원","tel":"031-681-0709","addr":"경기도 평택시 안중읍 현화리 241번지 304,305호","indutype":"학원 - 예·체능계학원","category":"study"},{"name":"해동검도","tel":"031-682-9674","addr":"경기도 평택시 안중읍 현화리 241번지 금강프라자빌딩 601호","indutype":"학원 - 예·체능계학원","category":"study"},{"name":"현아아트음악미술학원","tel":"031-683-8487","addr":"경기도 평택시 안중읍 현화리 241번지 201,202(일부)호","indutype":"학원 - 예·체능계학원","category":"study"},{"name":"현화컴퓨터학원","tel":"031-686-6866","addr":"경기도 평택시 안중읍 현화리 241번지 금강프라자 401호","indutype":"회원제형태 - 학원","category":"study"},{"name":"화랑연무관합기도","tel":"031-686-9552","addr":"경기도 평택시 안중읍 현화리 241번지 외2필지 4층 405호","indutype":"학원 - 예·체능계학원","category":"study"}]},{"lat":"36.987412244","long":"126.92135671","imageIndex":16,"items":[{"name":"국가대표 부부태권도장","tel":"031-682-4042","addr":"경기도 평택시 안중읍 현화리 301번지 2층","indutype":"학원 - 예·체능계학원","category":"study"}]},{"lat":"36.978886497","long":"126.91905218","imageIndex":16,"items":[{"name":"그리피스어학원","tel":"032-682-0594","addr":"경기도 평택시 안중읍 현화리 831 붐붐프라자 212","indutype":"회원제형태 - 학원","category":"study"},{"name":"더포스학원","tel":"031-684-1859","addr":"경기도 평택시 안중읍 현화리 831번지 207호","indutype":"학원 - 보습학원","category":"study"},{"name":"이니띠움2호점독서실","tel":"031-684-1345","addr":"경기도 평택시 안중읍 현화리 831번지 203-1호","indutype":"학원 - 독서실","category":"study"},{"name":"이니띠움독서실","tel":"031-684-1345","addr":"경기도 평택시 안중읍 현화리 831번지 2층 203호","indutype":"학원 - 독서실","category":"study"},{"name":"이지스터디학원","tel":"031-683-1231","addr":"경기도 평택시 안중읍 현화리 831번지 (2층207,208호)","indutype":"학원 - 보습학원","category":"study"},{"name":"이지스터디학원","tel":"070-8162-0484","addr":"경기도 평택시 안중읍 현화리 831번지 208호","indutype":"학원 - 보습학원","category":"study"},{"name":"피아노스토리학원","tel":"031-682-6802","addr":"경기도 평택시 안중읍 현화리 831번지 붐붐프라자 156호","indutype":"학원 - 예·체능계학원","category":"study"}]},{"lat":"36.987742908","long":"126.91746991","imageIndex":16,"items":[{"name":"꿈그린몬테소리어린이집[아이행복]","tel":"031-684-1764","addr":"경기도 평택시 안중읍 현화리 820-1번지 이화마을건영캐스빌 관리사무실","indutype":"학원 - 유아원","category":"study"},{"name":"라움음악학원","tel":"02-684-0085","addr":"경기도 평택시 안중읍 현화리 820-1번지 이화마을건영캐스빌 상가동 204호","indutype":"학원 - 예·체능계학원","category":"study"},{"name":"수학의길 수학교습소","tel":"031-683-8101","addr":"경기도 평택시 안중읍 현화리 820-1번지 이화마을건영캐스빌 상가동 107호 전부","indutype":"학원 - 보습학원","category":"study"},{"name":"한우리논술국어교습소","tel":"031-684-9657","addr":"경기도 평택시 안중읍 현화리 820-1번지 이화마을건영캐스빌 202호","indutype":"회원제형태 - 학원","category":"study"}]},{"lat":"36.980573825","long":"126.92240853","imageIndex":16,"items":[{"name":"꿈채우기 아뜰리에","tel":"031-682-9339","addr":"경기도 평택시 안중읍 현화리 841번지 서광미소마을 상가동 206호","indutype":"학원 - 예·체능계학원","category":"study"},{"name":"제이스터디수학교습소","tel":"031-000-0000","addr":"경기도 평택시 안중읍 현화리 841번지 서광미소마을 상가동 204호","indutype":"학원 - 보습학원","category":"study"}]},{"lat":"36.990240908","long":"126.90826738","imageIndex":16,"items":[{"name":"누리보듬어린이집[아이행복]","tel":"031-681-2354","addr":"경기도 평택시 안중읍 현화리 718-3번지","indutype":"학원 - 유아원","category":"study"}]},{"lat":"36.982938618","long":"126.92851615","imageIndex":16,"items":[{"name":"라이라이중국어학원","tel":"031-681-7582","addr":"경기도 평택시 안중읍 현화리 854-3번지 7층 동우빌딩","indutype":"회원제형태 - 학원","category":"study"}]},{"lat":"36.984773941","long":"126.92407769","imageIndex":16,"items":[{"name":"랭콘잉글리쉬안중어학원","tel":"031-684-0571","addr":"경기도 평택시 안중읍 현화리 250-5번지 4층","indutype":"회원제형태 - 학원","category":"study"}]},{"lat":"36.979024209","long":"126.9227471","imageIndex":16,"items":[{"name":"로운수학교습소","tel":"031-000-0008","addr":"경기도 평택시 안중읍 현화리 836-3번지 동흥빌딩 202호","indutype":"학원 - 보습학원","category":"study"},{"name":"이종인어학원","tel":"031-683-0559","addr":"경기도 평택시 안중읍 현화리 836-3번지 5층","indutype":"학원 - 외국어학원","category":"study"}]},{"lat":"36.980467728","long":"126.9254636","imageIndex":16,"items":[{"name":"명문음악학원","tel":"031-682-5214","addr":"경기도 평택시 안중읍 현화리 840-1번지 동신2차 아상가 204호","indutype":"학원 - 예·체능계학원","category":"study"}]},{"lat":"36.987589847","long":"126.91763857","imageIndex":16,"items":[{"name":"모던피아노","tel":"031-606-6111","addr":"경기도 평택시 안중읍 현화리 820-1번지 이화마을건영캐스빌 105동 306호","indutype":"학원 - 보습학원","category":"study"},{"name":"아이누리어린이집[아이행복]","tel":"031-683-0505","addr":"경기도 평택시 안중읍 현화리 820-1번지 이화마을건영캐스빌 105동 102호","indutype":"학원 - 유아원","category":"study"}]},{"lat":"36.981216446","long":"126.92674324","imageIndex":16,"items":[{"name":"발도르프음악예술학원","tel":"031-681-4990","addr":"경기도 평택시 안중읍 현화리 869-6번지 덕동빌딩 2층","indutype":"학원 - 예·체능계학원","category":"study"}]},{"lat":"36.982766712","long":"126.92740437","imageIndex":16,"items":[{"name":"베이비키즈어린이집[아이행복]","tel":"031-681-3562","addr":"경기도 평택시 안중읍 현화리 856-10번지","indutype":"학원 - 유아원","category":"study"}]},{"lat":"36.977993917","long":"126.91832314","imageIndex":16,"items":[{"name":"봄빛나래학원","tel":"070-7556-0704","addr":"경기도 평택시 안중읍 현화리 431-1번지 2층 201호","indutype":"학원 - 보습학원","category":"study"},{"name":"영재스파르타학원","tel":"031-683-7177","addr":"경기도 평택시 안중읍 현화리 431-1번지 302호","indutype":"회원제형태 - 학원","category":"study"}]},{"lat":"36.985044664","long":"126.92468395","imageIndex":16,"items":[{"name":"비케이(B.K)댄스스튜디오(DanceStudio)학원","tel":"","addr":"경기도 평택시 안중읍 현화리 70번지 주광빌딩 2층 일부","indutype":"학원 - 예·체능계학원","category":"study"}]},{"lat":"36.984718173","long":"126.92155053","imageIndex":16,"items":[{"name":"비트컴퓨터안중점학원","tel":"031-681-4511","addr":"경기도 평택시 안중읍 현화리 327번지 401호","indutype":"회원제형태 - 학원","category":"study"}]},{"lat":"36.981222238","long":"126.92187997","imageIndex":16,"items":[{"name":"빨간펜 수학의달인","tel":"031-682-7756","addr":"경기도 평택시 안중읍 현화리 841번지 서광미소마을 107동 1301호","indutype":"회원제형태 - 학원","category":"study"}]},{"lat":"36.98301771","long":"126.92538239","imageIndex":16,"items":[{"name":"샬롬스터디","tel":"","addr":"경기도 평택시 안중읍 현화리 861-1번지","indutype":"학원 - 기타 교육기관","category":"study"}]},{"lat":"36.982269659","long":"126.92513606","imageIndex":16,"items":[{"name":"선수학공부방","tel":"031-681-1999","addr":"경기도 평택시 안중읍 현화리 862-7번지 안일빌딩 202호","indutype":"학원 - 기타 교육기관","category":"study"},{"name":"예쁜소리음악교습소","tel":"031-683-7987","addr":"경기도 평택시 안중읍 현화리 862-7번지 안일빌딩 2층 일부","indutype":"학원 - 예·체능계학원","category":"study"}]},{"lat":"36.979385748","long":"126.92440896","imageIndex":16,"items":[{"name":"슈만음악학원","tel":"031-684-1945","addr":"경기도 평택시 안중읍 현화리 839-1 동신아름마을상가동 201호~202호","indutype":"회원제형태 - 학원","category":"study"}]},{"lat":"36.98410027","long":"126.92735813","imageIndex":16,"items":[{"name":"아고라","tel":"031-684-8385","addr":"경기도 평택시 안중읍 현화리 27번지","indutype":"학원 - 독서실","category":"study"}]},{"lat":"36.979484149","long":"126.92333065","imageIndex":16,"items":[{"name":"아기별어린이집[아이행복]","tel":"031-684-8887","addr":"경기도 평택시 안중읍 현화리 839-1번지 동신3차아름마을 301동 103호","indutype":"학원 - 유아원","category":"study"}]},{"lat":"36.979942647","long":"126.92178024","imageIndex":16,"items":[{"name":"아이두미술공작소","tel":"031-616-2188","addr":"경기도 평택시 안중읍 현화리 841번지 서광미소마을 105동 405호","indutype":"학원 - 기타 교육기관","category":"study"}]},{"lat":"36.97540861","long":"126.91941537","imageIndex":16,"items":[{"name":"아이러브어린이집[아이행복]","tel":"031-683-2046","addr":"경기도 평택시 안중읍 현화리 373-1번지","indutype":"학원 - 유아원","category":"study"}]},{"lat":"36.983746884","long":"126.92432585","imageIndex":16,"items":[{"name":"안일중학교","tel":"031-660-9801","addr":"경기도 평택시 안중읍 현화리 844-1번지 안일중학교","indutype":"학원 - 초중고교육기관","category":"study"}]},{"lat":"36.980909937","long":"126.92651892","imageIndex":16,"items":[{"name":"안일한솔플러스영어수학학원","tel":"031-684-0579","addr":"경기도 평택시 안중읍 현화리 869-12번지 2층","indutype":"학원 - 외국어학원","category":"study"}]},{"lat":"36.984774231","long":"126.92451574","imageIndex":16,"items":[{"name":"안중가성관합기도","tel":"031-686-5343","addr":"경기도 평택시 안중읍 현화리 71-3번지 창진빌딩 3층","indutype":"학원 - 예·체능계학원","category":"study"}]},{"lat":"36.978574171","long":"126.92348883","imageIndex":16,"items":[{"name":"안중검도관","tel":"031-8054-0777","addr":"경기도 평택시 안중읍 현화리 837-13번지 우성프라자 8층 802호","indutype":"학원 - 예·체능계학원","category":"study"},{"name":"월드바리스타커피학원","tel":"031-686-7782","addr":"경기도 평택시 안중읍 현화리 837-13번지 우성프라자 701호","indutype":"학원 - 기능학원","category":"study"}]},{"lat":"36.987079698","long":"126.92260387","imageIndex":16,"items":[{"name":"안중고등학교","tel":"031-683-3102","addr":"경기도 평택시 안중읍 현화리 315번지 안중고등학교","indutype":"학원 - 초중고교육기관","category":"study"},{"name":"안중중학교","tel":"031-683-3102","addr":"경기도 평택시 안중읍 현화리 315번지 안중고등학교","indutype":"학원 - 초중고교육기관","category":"study"}]},{"lat":"36.984744896","long":"126.92110122","imageIndex":16,"items":[{"name":"안중시사중국어학원","tel":"031-683-9881","addr":"경기도 평택시 안중읍 현화리 334-1번지 3층","indutype":"학원 - 외국어학원","category":"study"}]},{"lat":"36.984683144","long":"126.92304443","imageIndex":16,"items":[{"name":"안중에녹실용음악학원","tel":"031-683-0530","addr":"경기도 평택시 안중읍 현화리 242-1번지 2층","indutype":"학원 - 예·체능계학원","category":"study"}]},{"lat":"36.988131163","long":"126.9185815","imageIndex":16,"items":[{"name":"안중영재바둑","tel":"","addr":"경기도 평택시 안중읍 현화리 820-1번지 이화마을건영캐스빌 108동 102호","indutype":"학원 - 기타 교육기관","category":"study"}]},{"lat":"36.984746498","long":"126.92345996","imageIndex":16,"items":[{"name":"안중중앙에이플러스보습학원","tel":"031-681-0072","addr":"경기도 평택시 안중읍 현화리 249번지 IMAX빌딩 401호","indutype":"학원 - 보습학원","category":"study"}]},{"lat":"36.981274377","long":"126.91910572","imageIndex":16,"items":[{"name":"알고풀자 R수학","tel":"","addr":"경기도 평택시 안중읍 현화리 828-1번지 늘푸른마을 109동 106호","indutype":"학원 - 기타 교육기관","category":"study"}]},{"lat":"36.978764201","long":"126.92470161","imageIndex":16,"items":[{"name":"예사랑어린이집[아이행복]","tel":"031-684-4047","addr":"경기도 평택시 안중읍 현화리 839-1번지 동신3차아름마을 305동 102호","indutype":"학원 - 유아원","category":"study"}]},{"lat":"36.979406036","long":"126.91479495","imageIndex":16,"items":[{"name":"우주어린이집[아이행복]","tel":"031-686-7777","addr":"경기도 평택시 안중읍 현화리 488-15","indutype":"학원 - 유아원","category":"study"}]},{"lat":"36.9854364","long":"126.91779822","imageIndex":16,"items":[{"name":"윤선생서평택센터","tel":"031-681-6091","addr":"경기도 평택시 안중읍 현화리 822-1번지 화현마을우림필유 203호","indutype":"학원 - 외국어학원","category":"study"},{"name":"팩토수학안중센터학원","tel":"031-683-4435","addr":"경기도 평택시 안중읍 현화리 822-1번지 화현마을우림필유 상가동 206,207호","indutype":"학원 - 보습학원","category":"study"},{"name":"행복한아이어린이집[아이행복]","tel":"031-686-5399","addr":"경기도 평택시 안중읍 현화리 822-1번지 화현마을우림필유","indutype":"학원 - 유아원","category":"study"}]},{"lat":"36.982685709","long":"126.92755046","imageIndex":16,"items":[{"name":"이데아키즈어린이집[아이행복]","tel":"031-681-4575","addr":"경기도 평택시 안중읍 현화리 856-9번지","indutype":"학원 - 유아원","category":"study"}]},{"lat":"36.979303069","long":"126.92205047","imageIndex":16,"items":[{"name":"이독서실","tel":"031-111-1111","addr":"경기도 평택시 안중읍 현화리 835-12번지 6층","indutype":"학원 - 독서실","category":"study"},{"name":"최강영수학원","tel":"031-682-8595","addr":"경기도 평택시 안중읍 현화리 835-12번지 7층","indutype":"학원 - 보습학원","category":"study"}]},{"lat":"36.980435646","long":"126.91807334","imageIndex":16,"items":[{"name":"이룸안중학원","tel":"031-683-8187","addr":"경기도 평택시 안중읍 현화리 828-1번지 늘푸른마을 상가동 205,206호","indutype":"학원 - 보습학원","category":"study"}]},{"lat":"36.984829207","long":"126.92590847","imageIndex":16,"items":[{"name":"이아이이안중캠퍼스고려대학교국제어학원","tel":"031-684-0588","addr":"경기도 평택시 안중읍 현화리 47번지 401층","indutype":"학원 - 외국어학원","category":"study"}]},{"lat":"36.982938677","long":"126.91538616","imageIndex":16,"items":[{"name":"인성태권도","tel":"031-682-9966","addr":"경기도 평택시 안중읍 현화리 498번지 3층","indutype":"학원 - 예·체능계학원","category":"study"}]},{"lat":"36.978492856","long":"126.92316321","imageIndex":16,"items":[{"name":"잉글랜드합기플러스","tel":"031-683-9040","addr":"경기도 평택시 안중읍 현화리 837-2번지 훈융빌딩","indutype":"학원 - 예·체능계학원","category":"study"},{"name":"한국학원","tel":"0311-682-5368","addr":"경기도 평택시 안중읍 현화리 837-2번지 훈융빌딩 3층","indutype":"학원 - 보습학원","category":"study"}]},{"lat":"36.98354727","long":"126.92227062","imageIndex":16,"items":[{"name":"정다운어린이집[아이행복]","tel":"031-684-0168","addr":"경기도 평택시 안중읍 현화리 843-1번지 주공1단지 관리동내","indutype":"학원 - 유아원","category":"study"}]},{"lat":"36.978691205","long":"126.92333147","imageIndex":16,"items":[{"name":"정보람무용학원","tel":"031-681-9936","addr":"경기도 평택시 안중읍 현화리 837-1번지","indutype":"학원 - 예·체능계학원","category":"study"}]},{"lat":"36.983327335","long":"126.91702557","imageIndex":16,"items":[{"name":"주주어린이집[아이행복]","tel":"031-681-1630","addr":"경기도 평택시 안중읍 현화리 824-1번지 현대홈타운 302동 105호","indutype":"학원 - 유아원","category":"study"},{"name":"주주어린이집[아이행복]","tel":"031-681-1630","addr":"경기도 평택시 안중읍 현화리 824-1번지 현대홈타운 302동 105호","indutype":"학원 - 유아원","category":"study"}]},{"lat":"36.986604047","long":"126.92549108","imageIndex":16,"items":[{"name":"크레센도음악학원","tel":"031-681-0927","addr":"경기도 평택시 안중읍 현화리 277-4번지 2층","indutype":"학원 - 예·체능계학원","category":"study"}]},{"lat":"36.98132479","long":"126.92708008","imageIndex":16,"items":[{"name":"틔움수학학원","tel":"031-683-7875","addr":"경기도 평택시 안중읍 현화리 869-4번지 1층","indutype":"학원 - 보습학원","category":"study"}]},{"lat":"36.982494409","long":"126.9243496","imageIndex":16,"items":[{"name":"평택안일초등학교","tel":"031-686-5264","addr":"경기도 평택시 안중읍 현화리 845-1번지 안일초등학교","indutype":"학원 - 초중고교육기관","category":"study"},{"name":"평택안일초등학교병설유치원[아이행복]","tel":"031-686-5270","addr":"경기도 평택시 안중읍 현화리 845-1번지","indutype":"학원 - 유치원","category":"study"}]},{"lat":"36.981135436","long":"126.9268781","imageIndex":16,"items":[{"name":"한양스터디학원","tel":"031-684-7114","addr":"경기도 평택시 안중읍 현화리 869-7번지 2층","indutype":"학원 - 보습학원","category":"study"}]},{"lat":"36.98590653","long":"126.92002168","imageIndex":16,"items":[{"name":"현일초등학교","tel":"031-682-1931","addr":"경기도 평택시 안중읍 현화리 823-1번지 현일초등학교","indutype":"학원 - 초중고교육기관","category":"study"},{"name":"현일초등학교병설유치원[아이행복]","tel":"031-682-1968","addr":"경기도 평택시 안중읍 현화리 823-1번지","indutype":"학원 - 유치원","category":"study"}]},{"lat":"36.978858311","long":"126.91743491","imageIndex":16,"items":[{"name":"현화고등학교","tel":"031-612-5604","addr":"경기도 평택시 안중읍 현화리 830-1번지 현화고등학교","indutype":"학원 - 초중고교육기관","category":"study"},{"name":"현화고등학교_수업료","tel":"031-612-5604","addr":"경기도 평택시 안중읍 현화리 830-1번지 현화고등학교","indutype":"학원 - 초중고교육기관","category":"study"}]},{"lat":"36.98207711","long":"126.92021677","imageIndex":16,"items":[{"name":"현화중학교","tel":"031-615-5000","addr":"경기도 평택시 안중읍 현화리 827번지 현화중학교","indutype":"학원 - 초중고교육기관","category":"study"}]},{"lat":"36.982049219","long":"126.91899255","imageIndex":16,"items":[{"name":"현화초등학교","tel":"031-682-4906","addr":"경기도 평택시 안중읍 현화리 826-1번지 현화초등학교","indutype":"학원 - 초중고교육기관","category":"study"},{"name":"현화초등학교병설유치원[아이행복]","tel":"031-682-4904","addr":"경기도 평택시 안중읍 현화리 826-1번지","indutype":"학원 - 유치원","category":"study"}]},{"lat":"36.982379344","long":"126.92755077","imageIndex":16,"items":[{"name":"현화프라임유치원[아이행복]","tel":"031-686-9001","addr":"경기도 평택시 안중읍 현화리 857-1","indutype":"학원 - 유치원","category":"study"}]},{"lat":"36.981548904","long":"126.92529403","imageIndex":16,"items":[{"name":"현화해법영어수학학원","tel":"031-683-9810","addr":"경기도 평택시 안중읍 현화리 865-6번지","indutype":"학원 - 보습학원","category":"study"}]}]