[{"lat":"37.236605518","long":"127.02875638","imageIndex":16,"items":[{"name":"경희대정도태권도","tel":"031-225-7940","addr":"경기도 수원시 권선구 곡반정동 577-1번지 4층","indutype":"학원 - 예·체능계학원","category":"study"},{"name":"큰나무아트스쿨미술피아노학원","tel":"031-232-0789","addr":"경기도 수원시 권선구 곡반정동 577-1번지 3층","indutype":"학원 - 예·체능계학원","category":"study"},{"name":"필스터디영수전문학원","tel":"031-8013-7609","addr":"경기도 수원시 권선구 곡반정동 577-1번지 광명빌딩 2층","indutype":"학원 - 보습학원","category":"study"}]},{"lat":"37.244046992","long":"127.03322202","imageIndex":16,"items":[{"name":"곡반중학교","tel":"031-267-3142","addr":"경기도 수원시 권선구 곡반정동 519번지 곡반중학교","indutype":"학원 - 초중고교육기관","category":"study"}]},{"lat":"37.238966299","long":"127.02841909","imageIndex":16,"items":[{"name":"곡정태권도장","tel":"031-216-6363","addr":"경기도 수원시 권선구 곡반정동 564-2번지 2층","indutype":"학원 - 예·체능계학원","category":"study"}]},{"lat":"37.24415486","long":"127.03420259","imageIndex":16,"items":[{"name":"꽃별어린이집[아이행복]","tel":"031-215-0210","addr":"경기도 수원시 권선구 곡반정동 520-1번지 73","indutype":"학원 - 유아원","category":"study"}]},{"lat":"37.23902041","long":"127.02819372","imageIndex":16,"items":[{"name":"뉴파렛트미술학원","tel":"031-234-6503","addr":"경기도 수원시 권선구 곡반정동 564-1번지 302호","indutype":"학원 - 예·체능계학원","category":"study"},{"name":"아이비티타임즈영어학원","tel":"031-234-6504","addr":"경기도 수원시 권선구 곡반정동 564-1번지 4층 전체","indutype":"학원 - 보습학원","category":"study"},{"name":"용인대K타이거즈태권도","tel":"031-234-6501","addr":"경기도 수원시 권선구 곡반정동 564-1번지","indutype":"학원 - 예·체능계학원","category":"study"},{"name":"포르테음악학원","tel":"031-234-6502","addr":"경기도 수원시 권선구 곡반정동 564-1번지 301호","indutype":"학원 - 예·체능계학원","category":"study"}]},{"lat":"37.246074474","long":"127.03259167","imageIndex":16,"items":[{"name":"디사이플러학원","tel":"031-241-5889","addr":"경기도 수원시 권선구 곡반정동 503-1번지 3층 302호","indutype":"학원 - 보습학원","category":"study"},{"name":"알로실용음악학원","tel":"031-241-5889","addr":"경기도 수원시 권선구 곡반정동 503-1번지 301호","indutype":"회원제형태 - 학원","category":"study"}]},{"lat":"37.239046995","long":"127.03019973","imageIndex":16,"items":[{"name":"바디코치","tel":"070-4106-7497","addr":"경기도 수원시 권선구 곡반정동 556-2번지 하이디프라자 503호","indutype":"학원 - 예·체능계학원","category":"study"}]},{"lat":"37.235434706","long":"127.02619788","imageIndex":16,"items":[{"name":"빌러빗발레학원","tel":"031-237-5777","addr":"경기도 수원시 권선구 곡반정동 584-4번지 2층","indutype":"학원 - 예·체능계학원","category":"study"}]},{"lat":"37.23593937","long":"127.02575853","imageIndex":16,"items":[{"name":"샐영어전문어학원","tel":"031-231-9918","addr":"경기도 수원시 권선구 곡반정동 582-1번지 2층","indutype":"회원제형태 - 학원","category":"study"}]},{"lat":"37.235550993","long":"127.03016466","imageIndex":16,"items":[{"name":"수원어린이집[아이행복]","tel":"031-222-2748","addr":"경기도 수원시 권선구 곡반정동 307-2번지","indutype":"학원 - 유아원","category":"study"}]},{"lat":"37.238876256","long":"127.02813732","imageIndex":16,"items":[{"name":"아이파크독서실","tel":"031-237-3939","addr":"경기도 수원시 권선구 곡반정동 565-1번지 3층","indutype":"학원 - 독서실","category":"study"}]},{"lat":"37.235155706","long":"127.02450742","imageIndex":16,"items":[{"name":"아이플레이","tel":"070-7612-7254","addr":"경기도 수원시 권선구 곡반정동 583-4번지 102호","indutype":"학원 - 기타 교육기관","category":"study"}]},{"lat":"37.232966162","long":"127.02467583","imageIndex":16,"items":[{"name":"안룡초등학교","tel":"031-237-6893","addr":"경기도 수원시 권선구 곡반정동 606번지 안룡초등학교","indutype":"학원 - 초중고교육기관","category":"study"}]},{"lat":"37.240317498","long":"127.02999733","imageIndex":16,"items":[{"name":"알콩달콩어린이집[아이행복]","tel":"031-304-0602","addr":"경기도 수원시 권선구 곡반정동 548번지 권선신일유토빌 104동 101호","indutype":"학원 - 유아원","category":"study"}]},{"lat":"37.244876081","long":"127.03267009","imageIndex":16,"items":[{"name":"애니멀팜","tel":"","addr":"경기도 수원시 권선구 곡반정동 513-13번지","indutype":"학원 - 기타 교육기관","category":"study"}]},{"lat":"37.239326627","long":"127.02881366","imageIndex":16,"items":[{"name":"엠아이티수학학원","tel":"031-238-1555","addr":"경기도 수원시 권선구 곡반정동 558-2번지 301호","indutype":"학원 - 보습학원","category":"study"}]},{"lat":"37.235794941","long":"127.02708826","imageIndex":16,"items":[{"name":"열린중앙음악학원","tel":"031-239-9700","addr":"경기도 수원시 권선구 곡반정동 579번지 한솔아파트 204,205호","indutype":"학원 - 예·체능계학원","category":"study"}]},{"lat":"37.241993419","long":"127.02999793","imageIndex":16,"items":[{"name":"이자경수학곡반학원","tel":"031-236-8558","addr":"경기도 수원시 권선구 곡반정동 539-3번지 4층","indutype":"학원 - 보습학원","category":"study"}]},{"lat":"37.235073546","long":"127.029725","imageIndex":16,"items":[{"name":"이지유치원[아이행복]","tel":"031-223-2626","addr":"경기도 수원시 권선구 곡반정동 311-1번지","indutype":"학원 - 유치원","category":"study"}]},{"lat":"37.236794711","long":"127.02886914","imageIndex":16,"items":[{"name":"케이엔키즈영어학원","tel":"031-235-5688","addr":"경기도 수원시 권선구 곡반정동 576-9번지 3층","indutype":"학원 - 보습학원","category":"study"}]},{"lat":"37.236740619","long":"127.02900435","imageIndex":16,"items":[{"name":"큰나무아이들어린이집[아이행복]","tel":"031-267-1009","addr":"경기도 수원시 권선구 곡반정동 576-8번지","indutype":"학원 - 유아원","category":"study"}]},{"lat":"37.234767762","long":"127.02708793","imageIndex":16,"items":[{"name":"탑플러스학원","tel":"031-226-1933","addr":"경기도 수원시 권선구 곡반정동 593-4번지 2층","indutype":"학원 - 보습학원","category":"study"}]},{"lat":"37.23379512","long":"127.02464226","imageIndex":16,"items":[{"name":"통큰아이어린이집[아이행복]","tel":"031-234-2299","addr":"경기도 수원시 권선구 곡반정동 604-4번지","indutype":"학원 - 유아원","category":"study"}]},{"lat":"37.244938906","long":"127.03363939","imageIndex":16,"items":[{"name":"해법중국어권선점교습소","tel":"031-239-1109","addr":"경기도 수원시 권선구 곡반정동 509-9번지 1층 102호","indutype":"회원제형태 - 학원","category":"study"}]},{"lat":"37.233848797","long":"127.02664815","imageIndex":16,"items":[{"name":"행복유치원[아이행복]","tel":"031-232-3321","addr":"경기도 수원시 권선구 곡반정동 595-10번지","indutype":"학원 - 유치원","category":"study"}]}]