[{"lat":"37.003385839","long":"127.07412202","imageIndex":7,"items":[{"name":"25시 신 가락시장 도매유통마트","tel":"070-9866-6992","addr":"경기도 평택시 세교동 222-13번지","indutype":"유통업 영리 - 슈퍼마켓","category":"mart"}]},{"lat":"37.008661972","long":"127.08069976","imageIndex":7,"items":[{"name":"공단마트","tel":"031-655-5300","addr":"경기도 평택시 세교동 543-12번지","indutype":"유통업 영리 - 슈퍼마켓","category":"mart"}]},{"lat":"37.008797044","long":"127.08083473","imageIndex":7,"items":[{"name":"만물마-트","tel":"031-618-0349","addr":"경기도 평택시 세교동 543번지","indutype":"유통업 영리 - 슈퍼마켓","category":"mart"}]},{"lat":"37.003080939","long":"127.08574973","imageIndex":7,"items":[{"name":"부영공판장","tel":"031-657-3391","addr":"경기도 평택시 세교동 555번지 상가지하101호","indutype":"소매업 - 슈퍼","category":"mart"},{"name":"부영공판장","tel":"031-657-8294","addr":"경기도 평택시 세교동 555번지 부영1상가 지하층 101호","indutype":"유통업 영리 - 슈퍼마켓","category":"mart"},{"name":"부영그린유통","tel":"031-657-6533","addr":"경기도 평택시 세교동 555번지 부영아파트 114,115호","indutype":"유통업 영리 - 슈퍼마켓","category":"mart"},{"name":"엄마랑마트","tel":"031-654-2688","addr":"경기도 평택시 세교동 555번지 부영 상가 2동 1층 108호","indutype":"소매업 - 슈퍼","category":"mart"}]},{"lat":"37.00263624","long":"127.07691876","imageIndex":7,"items":[{"name":"성도마트","tel":"031-655-1067","addr":"경기도 평택시 세교동 191-10번지","indutype":"유통업 영리 - 슈퍼마켓","category":"mart"}]},{"lat":"37.001185118","long":"127.07755772","imageIndex":7,"items":[{"name":"세교상회","tel":"031-656-7366","addr":"경기도 평택시 세교동 180-11번지 세교상회","indutype":"유통업 영리 - 슈퍼마켓","category":"mart"}]},{"lat":"37.00040809","long":"127.0808374","imageIndex":7,"items":[{"name":"아이지에이마트","tel":"031-653-9766","addr":"경기도 평택시 세교동 562-12번지","indutype":"유통업 영리 - 슈퍼마켓","category":"mart"}]},{"lat":"37.004187377","long":"127.0748081","imageIndex":7,"items":[{"name":"은실슈퍼","tel":"031-652-1261","addr":"경기도 평택시 세교동 산115-1번지","indutype":"유통업 영리 - 슈퍼마켓","category":"mart"}]},{"lat":"37.00379716","long":"127.07922304","imageIndex":7,"items":[{"name":"평택두레생협 평택점","tel":"031-653-7512","addr":"경기도 평택시 세교동 185-65번지","indutype":"도소매업 - 슈퍼","category":"mart"},{"name":"평택두레소비자생활협동조합 평택점","tel":"031-665-2760","addr":"경기도 평택시 세교동 185-65번지","indutype":"유통업 영리 - 슈퍼마켓","category":"mart"}]},{"lat":"37.003995033","long":"127.07978498","imageIndex":7,"items":[{"name":"하나로마트(평택농협 세교지점)","tel":"","addr":"경기도 평택시 세교동 146-23번지","indutype":"소매업 - 슈퍼","category":"mart"}]}]