[{"lat":"37.309199467","long":"126.86807278","imageIndex":7,"items":[{"name":"(주)삼원색","tel":"031-417-8500","addr":"경기도 안산시 상록구 일동 632-1번지","indutype":"음료식품 - 기타음료식품","category":"food"}]},{"lat":"37.315229791","long":"126.8624666","imageIndex":7,"items":[{"name":"(주)신화유통","tel":"031-487-9559","addr":"경기도 안산시 상록구 일동 570-1번지 102호","indutype":"음료식품 - 정육점","category":"food"},{"name":"신화유통","tel":"031-407-1952","addr":"경기도 안산시 상록구 일동 570-1번지 1층","indutype":"음료식품 - 정육점","category":"food"},{"name":"한우와한돈","tel":"031-000-0000","addr":"경기도 안산시 상록구 일동 570-1번지 1층 102호","indutype":"음료식품 - 정육점","category":"food"},{"name":"한우와한돈","tel":"031-000-0000","addr":"경기도 안산시 상록구 일동 570-1번지 102호","indutype":"음료식품 - 정육점","category":"food"}]},{"lat":"37.310011269","long":"126.86884967","imageIndex":7,"items":[{"name":"M미트델리샵","tel":"","addr":"경기도 안산시 상록구 일동 632-13번지 원영빌딩 1층 101호","indutype":"음료식품 - 정육점","category":"food"},{"name":"오행잡화","tel":"031-416-3636","addr":"경기도 안산시 상록구 일동 632-13번지 원영빌딩 111호","indutype":"회원제형태 - 건강식품","category":"food"}]},{"lat":"37.317203289","long":"126.86268856","imageIndex":7,"items":[{"name":"거성유통","tel":"031-406-5515","addr":"경기도 안산시 상록구 일동 541-13번지 202호","indutype":"음료식품 - 기타음료식품","category":"food"}]},{"lat":"37.308761774","long":"126.87145758","imageIndex":7,"items":[{"name":"고창복분자","tel":"070-0000-0000","addr":"경기도 안산시 상록구 일동 614-7번지 퀸즈하임 5층 501호","indutype":"음료식품 - 농·축·수산품","category":"food"}]},{"lat":"37.311920521","long":"126.86804536","imageIndex":7,"items":[{"name":"내고향축산물도매센타","tel":"031-417-5110","addr":"경기도 안산시 상록구 일동 126-12번지 대호빌딩 101호","indutype":"음료식품 - 정육점","category":"food"}]},{"lat":"37.315673577","long":"126.86440613","imageIndex":7,"items":[{"name":"농부의 아침","tel":"031-407-5193","addr":"경기도 안산시 상록구 일동 575-1번지","indutype":"음료식품 - 정육점","category":"food"},{"name":"한누리축산물공판장","tel":"031-407-8303","addr":"경기도 안산시 상록구 일동 575-1번지","indutype":"음료식품 - 정육점","category":"food"},{"name":"해원축산 도소매 센터","tel":"031-419-9997","addr":"경기도 안산시 상록구 일동 575-1번지 103호","indutype":"음료식품 - 정육점","category":"food"}]},{"lat":"37.3156735766","long":"126.8644061317","imageIndex":7,"items":[{"name":"농부의 아침","tel":"031-407-5193","addr":"경기도 안산시 상록구 일동 575-1번지","indutype":"도매 및 소매업 - 식육,가공식품","category":"food"}]},{"lat":"37.3148681474","long":"126.8614294249","imageIndex":7,"items":[{"name":"농수산마트","tel":"031-417-1820","addr":"경기도 안산시 상록구 일동 567-7번지","indutype":"도매 및 소매업 - 식품","category":"food"}]},{"lat":"37.312534252","long":"126.86895799","imageIndex":7,"items":[{"name":"농업회사법인 자연앤푸드 주식회사","tel":"031-417-3455","addr":"경기도 안산시 상록구 일동 126-20번지 1층","indutype":"음료식품 - 미곡상","category":"food"}]},{"lat":"37.315726698","long":"126.86360507","imageIndex":7,"items":[{"name":"다올푸드","tel":"031-506-1882","addr":"경기도 안산시 상록구 일동 572-1번지 101동","indutype":"음료식품 - 정육점","category":"food"},{"name":"피앤케이 (P&K)유통","tel":"","addr":"경기도 안산시 상록구 일동 572-1번지 301호","indutype":"음료식품 - 농·축·수산품","category":"food"}]},{"lat":"37.31545455","long":"126.86204879","imageIndex":7,"items":[{"name":"대흥정육점","tel":"031-406-5531","addr":"경기도 안산시 상록구 일동 567-1번지","indutype":"음료식품 - 정육점","category":"food"}]},{"lat":"37.309037476","long":"126.86824227","imageIndex":7,"items":[{"name":"데일리 베이커리","tel":"031-501-0425","addr":"경기도 안산시 상록구 일동 632-2번지 원영빌딩 103호","indutype":"음료식품 - 제과점","category":"food"}]},{"lat":"37.310645218","long":"126.87173631","imageIndex":7,"items":[{"name":"디엔티","tel":"031-480-0809","addr":"경기도 안산시 상록구 일동 608-1번지 1층 103호","indutype":"음료식품 - 농·축·수산품","category":"food"}]},{"lat":"37.315503357","long":"126.86524125","imageIndex":7,"items":[{"name":"뚜레쥬르 안산크리스탈점","tel":"031-407-6447","addr":"경기도 안산시 상록구 일동 587-9번지 1층","indutype":"음료식품 - 제과점","category":"food"}]},{"lat":"37.3155092005","long":"126.8625450523","imageIndex":7,"items":[{"name":"럭키슈퍼렛일동점","tel":"031-409-3162","addr":"경기도 안산시 상록구 일동 573-6번지","indutype":"도매 및 소매업 - 식품잡화","category":"food"}]},{"lat":"37.314147736","long":"126.8617692","imageIndex":7,"items":[{"name":"만나떡집","tel":"031-418-0809","addr":"경기도 안산시 상록구 일동 569-6번지 1층","indutype":"음료식품 - 제과점","category":"food"}]},{"lat":"37.316511101","long":"126.8640436","imageIndex":7,"items":[{"name":"메가클로 경희감초당 한의원 한방건강","tel":"031-487-2800","addr":"경기도 안산시 상록구 일동 540-3번지 402호","indutype":"건강식품 - 기타건강식품","category":"food"}]},{"lat":"37.307201864","long":"126.87043383","imageIndex":7,"items":[{"name":"미니아이스크림","tel":"02-111-1111","addr":"경기도 안산시 상록구 일동 622-3번지 101호","indutype":"음료식품 - 제과점","category":"food"}]},{"lat":"37.315897133","long":"126.86296173","imageIndex":7,"items":[{"name":"미소반찬점","tel":"031-406-4005","addr":"경기도 안산시 상록구 일동 573-9번지 1호","indutype":"음료식품 - 기타음료식품","category":"food"},{"name":"아이스크림&떡","tel":"070-4036-3524","addr":"경기도 안산시 상록구 일동 573-9번지 102호","indutype":"음료식품 - 제과점","category":"food"},{"name":"옹기종기찬방","tel":"031-000-0000","addr":"경기도 안산시 상록구 일동 573-9번지 1층","indutype":"음료식품 - 기타음료식품","category":"food"}]},{"lat":"37.311783233","long":"126.86618431","imageIndex":7,"items":[{"name":"베지밀동안산대리점","tel":"031-419-7325","addr":"경기도 안산시 상록구 일동 601-17번지 유엔캐슬","indutype":"음료식품 - 기타음료식품","category":"food"}]},{"lat":"37.308176636","long":"126.87193236","imageIndex":7,"items":[{"name":"본푸드","tel":"031-520-8331","addr":"경기도 안산시 상록구 일동 616-2번지 101호","indutype":"음료식품 - 정육점","category":"food"}]},{"lat":"37.3074545787","long":"126.8708169052","imageIndex":7,"items":[{"name":"봄마트","tel":"","addr":"경기도 안산시 상록구 일동 617-10번지","indutype":"도매 및 소매업 - 식품,잡화","category":"food"}]},{"lat":"37.307426398","long":"126.86979048","imageIndex":7,"items":[{"name":"부광통상","tel":"031-406-5117","addr":"경기도 안산시 상록구 일동 622-8번지 1층 점포 3칸","indutype":"음료식품 - 기타음료식품","category":"food"}]},{"lat":"37.304754034","long":"126.86512549","imageIndex":7,"items":[{"name":"비락녹즙","tel":"031-430-0226","addr":"경기도 안산시 상록구 일동 666-15번지 201호","indutype":"건강식품 - 기타건강식품","category":"food"}]},{"lat":"37.316087331","long":"126.86379619","imageIndex":7,"items":[{"name":"비전명가일동점","tel":"031-418-1993","addr":"경기도 안산시 상록구 일동 574-3번지 103호","indutype":"건강식품 - 기타건강식품","category":"food"}]},{"lat":"37.315511459","long":"126.86446283","imageIndex":7,"items":[{"name":"빵명가","tel":"031-502-0437","addr":"경기도 안산시 상록구 일동 575-2번지 1층 하모니마트내","indutype":"음료식품 - 제과점","category":"food"}]},{"lat":"37.312841045","long":"126.86935227","imageIndex":7,"items":[{"name":"뿌리건강원","tel":"031-407-9203","addr":"경기도 안산시 상록구 일동 127-8번지 1층","indutype":"건강식품 - 기타건강식품","category":"food"}]},{"lat":"37.304151319","long":"126.86596126","imageIndex":7,"items":[{"name":"상록수떡방앗간","tel":"031-501-7789","addr":"경기도 안산시 상록구 일동 667-1번지","indutype":"음료식품 - 기타음료식품","category":"food"}]},{"lat":"37.311892692","long":"126.86734601","imageIndex":7,"items":[{"name":"서울성모의원","tel":"031-407-8359","addr":"경기도 안산시 상록구 일동 89-6번지 2층","indutype":"건강식품 - 기타건강식품","category":"food"}]},{"lat":"37.311368255","long":"126.86574512","imageIndex":7,"items":[{"name":"선희축산","tel":"031-2456-4202","addr":"경기도 안산시 상록구 일동 601-38번지 103호","indutype":"음료식품 - 정육점","category":"food"}]},{"lat":"37.314927085","long":"126.86556945","imageIndex":7,"items":[{"name":"성호정육점","tel":"031-408-3359","addr":"경기도 안산시 상록구 일동 586-1번지 102호","indutype":"음료식품 - 정육점","category":"food"}]},{"lat":"37.313725544","long":"126.86285295","imageIndex":7,"items":[{"name":"성훈장터","tel":"031-417-8944","addr":"경기도 안산시 상록구 일동 580-5번지","indutype":"음료식품 - 농·축·수산품","category":"food"}]},{"lat":"37.31595309","long":"126.86457484","imageIndex":7,"items":[{"name":"수미네반찬","tel":"031-502-3583","addr":"경기도 안산시 상록구 일동 539-4번지 1층","indutype":"음료식품 - 기타음료식품","category":"food"}]},{"lat":"37.315697919","long":"126.8621273","imageIndex":7,"items":[{"name":"신세계건강원","tel":"031-418-7809","addr":"경기도 안산시 상록구 일동 565-7번지 103호","indutype":"건강식품 - 기타건강식품","category":"food"}]},{"lat":"37.316144426","long":"126.86640204","imageIndex":7,"items":[{"name":"씨앤엠 (C&M)제이","tel":"02-512-4617","addr":"경기도 안산시 상록구 일동 590-2번지 신현대빌라 402호","indutype":"음료식품 - 기타음료식품","category":"food"}]},{"lat":"37.304592689","long":"126.86584767","imageIndex":7,"items":[{"name":"아망드슈가","tel":"031-407-6886","addr":"경기도 안산시 상록구 일동 666-6번지 103호","indutype":"음료식품 - 제과점","category":"food"}]},{"lat":"37.303538364","long":"126.86573679","imageIndex":7,"items":[{"name":"억흥중국식품","tel":"031-417-0947","addr":"경기도 안산시 상록구 일동 663-9번지 101호","indutype":"음료식품 - 기타음료식품","category":"food"}]},{"lat":"37.30814844","long":"126.87088337","imageIndex":7,"items":[{"name":"엄마손누룽지","tel":"070-8112-3181","addr":"경기도 안산시 상록구 일동 617-3번지 1층","indutype":"음료식품 - 기타음료식품","category":"food"}]},{"lat":"37.316258232","long":"126.86354769","imageIndex":7,"items":[{"name":"영미식품","tel":"031-406-1535","addr":"경기도 안산시 상록구 일동 574-1번지 1층","indutype":"음료식품 - 농·축·수산품","category":"food"}]},{"lat":"37.30348485","long":"126.86621061","imageIndex":7,"items":[{"name":"예닮떡집","tel":"031-000-0000","addr":"경기도 안산시 상록구 일동 667-8번지","indutype":"음료식품 - 제과점","category":"food"}]},{"lat":"37.315176384","long":"126.86301948","imageIndex":7,"items":[{"name":"예담떡시루","tel":"070-8944-7341","addr":"경기도 안산시 상록구 일동 572-7번지 1층 101호","indutype":"음료식품 - 제과점","category":"food"}]},{"lat":"37.306342021","long":"126.86701758","imageIndex":7,"items":[{"name":"오방계란","tel":"","addr":"경기도 안산시 상록구 일동 653-5번지 삼우아트빌라 304호","indutype":"음료식품 - 농·축·수산품","category":"food"}]},{"lat":"37.314003576","long":"126.86954199","imageIndex":7,"items":[{"name":"오행생식원","tel":"031-486-2228","addr":"경기도 안산시 상록구 일동 86번지 풍경채 지층","indutype":"건강식품 - 기타건강식품","category":"food"}]},{"lat":"37.314592248","long":"126.86431787","imageIndex":7,"items":[{"name":"우돈축산물도소매센타","tel":"031-381-7476","addr":"경기도 안산시 상록구 일동 585-9번지 103호","indutype":"음료식품 - 정육점","category":"food"}]},{"lat":"37.31639381","long":"126.86390844","imageIndex":7,"items":[{"name":"위드미트","tel":"031-407-8268","addr":"경기도 안산시 상록구 일동 540-8번지","indutype":"음료식품 - 정육점","category":"food"}]},{"lat":"37.314228693","long":"126.86165624","imageIndex":7,"items":[{"name":"유니드 정육식당","tel":"031-1670-8892","addr":"경기도 안산시 상록구 일동 569-7번지","indutype":"음료식품 - 정육점","category":"food"}]},{"lat":"37.309896104","long":"126.87059831","imageIndex":7,"items":[{"name":"일동고향방앗간","tel":"031-406-6621","addr":"경기도 안산시 상록구 일동 612-8번지","indutype":"음료식품 - 제과점","category":"food"}]},{"lat":"37.310783231","long":"126.86629893","imageIndex":7,"items":[{"name":"일동회직판장","tel":"031-408-7758","addr":"경기도 안산시 상록구 일동 118-13번지 1층 101-2호","indutype":"음료식품 - 농·축·수산품","category":"food"}]},{"lat":"37.31214539","long":"126.86770654","imageIndex":7,"items":[{"name":"일리떡방앗간","tel":"031-409-6560","addr":"경기도 안산시 상록구 일동 89-3번지 101호","indutype":"음료식품 - 제과점","category":"food"}]},{"lat":"37.316006372","long":"126.86390915","imageIndex":7,"items":[{"name":"전주반찬","tel":"031-409-2356","addr":"경기도 안산시 상록구 일동 574-4번지 1층 104호","indutype":"음료식품 - 기타음료식품","category":"food"}]},{"lat":"37.313311275","long":"126.86302293","imageIndex":7,"items":[{"name":"정인치과의원","tel":"031-438-8575","addr":"경기도 안산시 상록구 일동 581-8번지 정인치과","indutype":"건강식품 - 기타건강식품","category":"food"}]},{"lat":"37.310066336","long":"126.86974071","imageIndex":7,"items":[{"name":"제로마트정육점","tel":"031-419-4648","addr":"경기도 안산시 상록구 일동 631-1번지 제로마트","indutype":"음료식품 - 정육점","category":"food"}]},{"lat":"37.316177274","long":"126.86366065","imageIndex":7,"items":[{"name":"좋은 친구들","tel":"031-408-3778","addr":"경기도 안산시 상록구 일동 574-2번지 1층","indutype":"음료식품 - 미곡상","category":"food"},{"name":"좋은 친구들","tel":"031-408-3778","addr":"경기도 안산시 상록구 일동 574-2번지 1층","indutype":"음료식품 - 미곡상","category":"food"},{"name":"좋은사람들","tel":"031-408-3778","addr":"경기도 안산시 상록구 일동 574-2번지","indutype":"음료식품 - 농·축·수산품","category":"food"}]},{"lat":"37.313336669","long":"126.8694078","imageIndex":7,"items":[{"name":"주식회사 참좋은육가공","tel":"031-502-9963","addr":"경기도 안산시 상록구 일동 85-3번지 1층","indutype":"음료식품 - 정육점","category":"food"}]},{"lat":"37.317037881","long":"126.85999263","imageIndex":7,"items":[{"name":"지혜유통","tel":"031-505-1352","addr":"경기도 안산시 상록구 일동 551-3번지 302호","indutype":"음료식품 - 기타음료식품","category":"food"}]},{"lat":"37.31628907","long":"126.86681918","imageIndex":7,"items":[{"name":"진영유통","tel":"031-402-5719","addr":"경기도 안산시 상록구 일동 591-1번지","indutype":"음료식품 - 농·축·수산품","category":"food"}]},{"lat":"37.303815257","long":"126.86366088","imageIndex":7,"items":[{"name":"채식주의자","tel":"031-416-1222","addr":"경기도 안산시 상록구 일동 661-11번지 1층 101호","indutype":"음료식품 - 농·축·수산품","category":"food"}]},{"lat":"37.305674461","long":"126.86631945","imageIndex":7,"items":[{"name":"청솔건강원","tel":"031-417-9809","addr":"경기도 안산시 상록구 일동 653-11번지 102호","indutype":"건강식품 - 기타건강식품","category":"food"}]},{"lat":"37.31600883","long":"126.86601872","imageIndex":7,"items":[{"name":"청솔식품","tel":"032-832-4602","addr":"경기도 안산시 상록구 일동 589-3번지 12/4","indutype":"음료식품 - 기타음료식품","category":"food"}]},{"lat":"37.311312136","long":"126.8718818","imageIndex":7,"items":[{"name":"청해유통","tel":"031-111-1111","addr":"경기도 안산시 상록구 일동 603-4번지 정진빌라 301호","indutype":"음료식품 - 농·축·수산품","category":"food"}]},{"lat":"37.313536103","long":"126.86266153","imageIndex":7,"items":[{"name":"파리바게뜨사파이어점","tel":"031-406-8280","addr":"경기도 안산시 상록구 일동 580-7번지 1층","indutype":"음료식품 - 제과점","category":"food"}]},{"lat":"37.309642234","long":"126.86918873","imageIndex":7,"items":[{"name":"파리바게트 (일동점)","tel":"031-438-8293","addr":"경기도 안산시 상록구 일동 632-15번지 금신빌딩 1층 101호 ,102,111호","indutype":"음료식품 - 제과점","category":"food"}]},{"lat":"37.304924676","long":"126.86465143","imageIndex":7,"items":[{"name":"하나정육점","tel":"031-438-9245","addr":"경기도 안산시 상록구 일동 660-5번지 1층 103호","indutype":"음료식품 - 정육점","category":"food"}]},{"lat":"37.308948027","long":"126.86881771","imageIndex":7,"items":[{"name":"한우리축산","tel":"031-408-9523","addr":"경기도 안산시 상록구 일동 621-19번지 102호","indutype":"음료식품 - 정육점","category":"food"}]},{"lat":"37.309034046","long":"126.87323937","imageIndex":7,"items":[{"name":"행복한과자점","tel":"031-418-9730","addr":"경기도 안산시 상록구 일동 610-2번지","indutype":"음료식품 - 제과점","category":"food"}]},{"lat":"37.305366728","long":"126.86512437","imageIndex":7,"items":[{"name":"형제쌀상회","tel":"031-409-3382","addr":"경기도 안산시 상록구 일동 654-9번지 1층 103호","indutype":"음료식품 - 미곡상","category":"food"}]},{"lat":"37.311260224","long":"126.86582428","imageIndex":7,"items":[{"name":"호동건강원","tel":"031-419-7993","addr":"경기도 안산시 상록구 일동 601-37번지 1층","indutype":"건강식품 - 기타건강식품","category":"food"}]},{"lat":"37.315339935","long":"126.86418112","imageIndex":7,"items":[{"name":"홍삼애인","tel":"031-415-8918","addr":"경기도 안산시 상록구 일동 576-7번지 현대쉐르빌 101호","indutype":"건강식품 - 홍삼제품","category":"food"}]}]