[{"lat":"37.3009684","long":"127.66097003","imageIndex":7,"items":[{"name":"여강수산","tel":"031-885-1062","addr":"경기도 여주시 천송동 299-18번지","indutype":"음료식품 - 농·축·수산품","category":"food"}]},{"lat":"37.30013404","long":"127.65216544","imageIndex":7,"items":[{"name":"여성시여성단체협의희","tel":"031-000-0000","addr":"경기도 여주시 천송동 553번지 3층","indutype":"음료식품 - 기타음료식품","category":"food"}]},{"lat":"37.299826622","long":"127.6540012","imageIndex":7,"items":[{"name":"여주농특산물판매장","tel":"031-886-2772","addr":"경기도 여주시 천송동 544번지","indutype":"음료식품 - 농·축·수산품","category":"food"}]},{"lat":"37.302497655","long":"127.66141195","imageIndex":7,"items":[{"name":"여주동강청정김치","tel":"031-886-1171","addr":"경기도 여주시 천송동 242번지 C동 1층","indutype":"음료식품 - 기타음료식품","category":"food"}]},{"lat":"37.3085475102","long":"127.6703306796","imageIndex":7,"items":[{"name":"진상명품","tel":"031-885-1582","addr":"경기도 여주시 천송동 110번지","indutype":"음료식품 - 농·축·수산품","category":"food"}]},{"lat":"37.302914269","long":"127.64958388","imageIndex":7,"items":[{"name":"진짜맛있는건어물","tel":"031-8051-1251","addr":"경기도 여주시 천송동 495-4번지 1층","indutype":"음료식품 - 농·축·수산품","category":"food"}]},{"lat":"37.299439955","long":"127.65549791","imageIndex":7,"items":[{"name":"천송수산","tel":"031-885-1663","addr":"경기도 여주시 천송동 294-3번지","indutype":"음료식품 - 농·축·수산품","category":"food"}]},{"lat":"37.305102105","long":"127.65316689","imageIndex":7,"items":[{"name":"천주식품","tel":"031-883-9249","addr":"경기도 여주시 천송동 505-1번지","indutype":"음료식품 - 기타음료식품","category":"food"}]}]