[{"lat":"37.108676243","long":"127.02442642","imageIndex":17,"items":[{"name":"KJ","tel":"070-7545-8300","addr":"경기도 평택시 서탄면 마두리 59-4","indutype":"신변잡화 - 기타잡화","category":"other"},{"name":"모모북","tel":"070-7008-9996","addr":"경기도 평택시 서탄면 마두리 59-4번지 1층","indutype":"서적문구 - 일반서적","category":"other"}]},{"lat":"37.105982223","long":"127.02370566","imageIndex":17,"items":[{"name":"신화산업","tel":"031-666-9201","addr":"경기도 평택시 서탄면 마두리 64-263번지 1층","indutype":"유통업 영리 - 기타유통업","category":"other"}]},{"lat":"37.108622315","long":"127.02367264","imageIndex":17,"items":[{"name":"정테크","tel":"031-662-7743","addr":"경기도 평택시 서탄면 마두리 64-1번지 B동","indutype":"기타 - 기계공구","category":"other"}]},{"lat":"37.114037632","long":"127.02373037","imageIndex":17,"items":[{"name":"주식회사 수","tel":"031-695-6866","addr":"경기도 평택시 서탄면 마두리 14-40번지","indutype":"주방용구 - 주방용구","category":"other"}]},{"lat":"37.114200133","long":"127.02187397","imageIndex":17,"items":[{"name":"주식회사 큐픽스","tel":"031-664-0801","addr":"경기도 평택시 서탄면 마두리 14-13번지 2층","indutype":"서적문구 - 과학기자재","category":"other"}]},{"lat":"37.111731","long":"127.02336971","imageIndex":17,"items":[{"name":"주식회사 포시즌애견테마파크","tel":"031-663-5404","addr":"경기도 평택시 서탄면 마두리 45-2번지","indutype":"문화.취미 - 애완동물","category":"other"}]},{"lat":"37.110172106","long":"127.02378556","imageIndex":17,"items":[{"name":"태주정밀","tel":"031-366-1153","addr":"경기도 평택시 서탄면 마두리 43-27","indutype":"기타 - 기계공구","category":"other"}]},{"lat":"37.107811433","long":"127.02328991","imageIndex":17,"items":[{"name":"한승산업","tel":"031-664-7490","addr":"경기도 평택시 서탄면 마두리 75-1번지","indutype":"신변잡화 - 기타잡화","category":"other"}]}]