[{"lat":"38.166136036","long":"127.27286434","imageIndex":7,"items":[{"name":"금빛농원","tel":"031-531-5409","addr":"경기도 포천시 관인면 냉정리 318-5번지","indutype":"음료식품 - 농·축·수산품","category":"food"}]},{"lat":"38.171634165","long":"127.27558921","imageIndex":13,"items":[{"name":"냉정낚시터","tel":"031-533-1649","addr":"경기도 포천시 관인면 냉정리 232-17번지","indutype":"레저업소 - 기타레져업소","category":"leisure"}]},{"lat":"38.142941994","long":"127.2789502","imageIndex":13,"items":[{"name":"다래레져","tel":"070-4153-8078","addr":"경기도 포천시 관인면 냉정리 829-71번지","indutype":"레저업소 - 기타레져업소","category":"leisure"}]},{"lat":"38.146825084","long":"127.26708921","imageIndex":17,"items":[{"name":"도담이네 PUPPYS","tel":"031-900-1544","addr":"경기도 포천시 관인면 냉정리 798-1번지","indutype":"문화.취미 - 애완동물","category":"other"}]},{"lat":"38.172878056","long":"127.29041797","imageIndex":17,"items":[{"name":"철원비타민나무농원","tel":"033-455-2448","addr":"경기도 포천시 관인면 냉정리 5-39번지","indutype":"농업 - 비료,사료,종자","category":"other"}]},{"lat":"38.170185653","long":"127.27476218","imageIndex":4,"items":[{"name":"샘물매운탕","tel":"031-533-6880","addr":"경기도 포천시 관인면 냉정리 231-2번지","indutype":"일반휴게음식 - 일반한식","category":"restaurant"}]},{"lat":"38.171634165","long":"127.27558921","imageIndex":4,"items":[{"name":"해와달가든","tel":"031-531-1649","addr":"경기도 포천시 관인면 냉정리 232-17번지","indutype":"일반휴게음식 - 일반한식","category":"restaurant"}]},{"lat":"38.161887646","long":"127.27511931","imageIndex":5,"items":[{"name":"주식회사바로교육문화","tel":"02-512-8500","addr":"경기도 포천시 관인면 냉정리 339","indutype":"숙박업 - 여관/기타숙박업","category":"hotel"}]},{"lat":"38.17179574","long":"127.27584087","imageIndex":5,"items":[{"name":"해와달민박","tel":"031-533-5377","addr":"경기도 포천시 관인면 냉정리 232-16번지","indutype":"숙박업 - 여관/기타숙박업","category":"hotel"}]}]