[{"lat":"37.856409854","long":"126.78423469","imageIndex":5,"items":[{"name":"로얄여관","tel":"031-953-6634","addr":"경기도 파주시 문산읍 문산리 10-42번지 로얄빌딩","indutype":"숙박업 - 여관/기타숙박업","category":"hotel"}]},{"lat":"37.857330699","long":"126.78525466","imageIndex":5,"items":[{"name":"명신장여관","tel":"031-953-3053","addr":"경기도 파주시 문산읍 문산리 10-1번지","indutype":"숙박업 - 여관/기타숙박업","category":"hotel"},{"name":"선인장","tel":"031-953-9448","addr":"경기도 파주시 문산읍 문산리 10-1번지","indutype":"숙박업 - 여관/기타숙박업","category":"hotel"}]},{"lat":"37.857493853","long":"126.78578825","imageIndex":5,"items":[{"name":"반도여관","tel":"031-952-3257","addr":"경기도 파주시 문산읍 문산리 9-3번지","indutype":"숙박업 - 여관/기타숙박업","category":"hotel"}]},{"lat":"37.858302338","long":"126.78451319","imageIndex":5,"items":[{"name":"삼남모텔","tel":"031-952-2626","addr":"경기도 파주시 문산읍 문산리 61-78번지","indutype":"숙박업 - 여관/기타숙박업","category":"hotel"}]},{"lat":"37.859018933","long":"126.78714738","imageIndex":5,"items":[{"name":"성심모텔 (문산)","tel":"031-953-3135","addr":"경기도 파주시 문산읍 문산리 17-65번지","indutype":"숙박업 - 여관/기타숙박업","category":"hotel"}]},{"lat":"37.857747348","long":"126.78645793","imageIndex":5,"items":[{"name":"세종장","tel":"031-952-2541","addr":"경기도 파주시 문산읍 문산리 17-178번지","indutype":"숙박업 - 여관/기타숙박업","category":"hotel"}]},{"lat":"37.857492678","long":"126.78515191","imageIndex":5,"items":[{"name":"여주장","tel":"031-952-2191","addr":"경기도 파주시 문산읍 문산리 9-6번지","indutype":"숙박업 - 여관/기타숙박업","category":"hotel"}]},{"lat":"37.858690307","long":"126.78481885","imageIndex":5,"items":[{"name":"오슬로모텔","tel":"070-8146-2910","addr":"경기도 파주시 문산읍 문산리 73-30번지","indutype":"숙박업 - 여관/기타숙박업","category":"hotel"}]},{"lat":"37.859163082","long":"126.78714696","imageIndex":5,"items":[{"name":"우일여인숙","tel":"031-952-4466","addr":"경기도 파주시 문산읍 문산리 17-85","indutype":"숙박업 - 여관/기타숙박업","category":"hotel"}]},{"lat":"37.857629663","long":"126.78131075","imageIndex":5,"items":[{"name":"정든장","tel":"031-952-2136","addr":"경기도 파주시 문산읍 문산리 56-34번지","indutype":"숙박업 - 여관/기타숙박업","category":"hotel"}]},{"lat":"37.856494425","long":"126.78612071","imageIndex":5,"items":[{"name":"초원여관","tel":"070-4941-1104","addr":"경기도 파주시 문산읍 문산리 17-92번지","indutype":"숙박업 - 여관/기타숙박업","category":"hotel"}]},{"lat":"37.857886981","long":"126.78401443","imageIndex":5,"items":[{"name":"태평여관","tel":"031-952-3454","addr":"경기도 파주시 문산읍 문산리 60-2번지","indutype":"숙박업 - 여관/기타숙박업","category":"hotel"}]}]