[{"lat":"37.41614511","long":"127.2559162","imageIndex":17,"items":[{"name":"(주) 유진냉동플랜트","tel":"","addr":"경기도 광주시 송정동 113-3번지 1층","indutype":"용역 서비스 - 기타용역서비스","category":"other"},{"name":"주원 CCTV","tel":"070-5103-7486","addr":"경기도 광주시 송정동 113-3번지 1층","indutype":"전기제품 - 기타전기제품","category":"other"}]},{"lat":"37.41516537","long":"127.259008","imageIndex":17,"items":[{"name":"(주) 한국보증건설","tel":"031-762-0448","addr":"경기도 광주시 송정동 101-32번지 103호","indutype":"용역 서비스 - 기타용역서비스","category":"other"},{"name":"(주)웰텍코리아","tel":"031-798-6557","addr":"경기도 광주시 송정동 101-32번지","indutype":"기타 - 기타 전문점","category":"other"},{"name":"진도건설","tel":"070-8245-0487","addr":"경기도 광주시 송정동 101-32번지 9호","indutype":"용역 서비스 - 기타용역서비스","category":"other"}]},{"lat":"37.42767105","long":"127.2591184","imageIndex":17,"items":[{"name":"(주)그랜드제이알전기","tel":"031-769-8025","addr":"경기도 광주시 송정동 292번지","indutype":"전기제품 - 기타전기제품","category":"other"}]},{"lat":"37.43149664","long":"127.2608036","imageIndex":17,"items":[{"name":"(주)나이스스포츠","tel":"031-762-1872","addr":"경기도 광주시 송정동 446-5번지 대보름빌딩","indutype":"레져용품 - 스포츠·레져용품","category":"other"},{"name":"우리","tel":"031-797-0407","addr":"경기도 광주시 송정동 446-5번지 대보름빌딩","indutype":"건축자재 - 페인트","category":"other"}]},{"lat":"37.43300251","long":"127.2602551","imageIndex":17,"items":[{"name":"(주)대승공조","tel":"031-768-6111","addr":"경기도 광주시 송정동 435-3번지 1동","indutype":"전기제품 - 냉열기기","category":"other"}]},{"lat":"37.4215559","long":"127.2578888","imageIndex":17,"items":[{"name":"(주)대원고속","tel":"02-3436-6377","addr":"경기도 광주시 송정동 221번지","indutype":"여행 - 고속버스","category":"other"}]},{"lat":"37.41541438","long":"127.256343","imageIndex":17,"items":[{"name":"(주)더깨끗한세상","tel":"031-763-0927","addr":"경기도 광주시 송정동 113-61번지 1층","indutype":"용역 서비스 - 종합용역","category":"other"},{"name":"아모레(외판)","tel":"031-761-8023","addr":"경기도 광주시 송정동 113-61번지 보경빌딩 2층","indutype":"의류 - 정장","category":"other"}]},{"lat":"37.41894699","long":"127.2560273","imageIndex":17,"items":[{"name":"(주)수산양행","tel":"031-768-0128","addr":"경기도 광주시 송정동 126-9번지","indutype":"용역 서비스 - 종합용역","category":"other"}]},{"lat":"37.4272806","long":"127.2563378","imageIndex":17,"items":[{"name":"(주)일진소방방재","tel":"031-798-8179","addr":"경기도 광주시 송정동 337번지 로얄플라자 204호","indutype":"용역 서비스 - 기타용역서비스","category":"other"},{"name":"골프레전드","tel":"031-761-1033","addr":"경기도 광주시 송정동 337 로얄프라자센타113호~114호","indutype":"레져용품 - 골프용품 전문점","category":"other"},{"name":"공증인조병길사무소","tel":"031-798-8811","addr":"경기도 광주시 송정동 337번지 로얄프라자센터 110호","indutype":"용역 서비스 - 법률회계서비스(개인)","category":"other"},{"name":"닥터LED","tel":"031-797-1020","addr":"경기도 광주시 송정동 337-6 로얄프라자센타115동","indutype":"건축자재 - 조명기구","category":"other"},{"name":"법무사김대우사무소","tel":"031-798-9000","addr":"경기도 광주시 송정동 337번지 로얄플라자센타 114호 법무사사무실로얄프라자","indutype":"용역 서비스 - 법률회계서비스(개인)","category":"other"},{"name":"법무사임종수사무소","tel":"031-765-9900","addr":"경기도 광주시 송정동 337번지 로얄플라자 3층 303호","indutype":"용역 서비스 - 법률회계서비스(개인)","category":"other"},{"name":"변호사유지훈법률사무소","tel":"031-769-1700","addr":"경기도 광주시 송정동 337번지 로얄플라자 301호,302호","indutype":"용역 서비스 - 법률회계서비스(개인)","category":"other"},{"name":"변호사이상덕법률사무소","tel":"031-764-7700","addr":"경기도 광주시 송정동 337번지 로얄플라자센터 2층 205호","indutype":"용역 서비스 - 법률회계서비스(개인)","category":"other"},{"name":"복권명당(광주시청점)","tel":"031-797-8621","addr":"경기도 광주시 송정동 337번지 로얄플라자센타 115호","indutype":"신변잡화 - 기타잡화","category":"other"},{"name":"세무사전병훈사무소","tel":"031-763-2200","addr":"경기도 광주시 송정동 337번지 로얄플라자 403호","indutype":"용역 서비스 - 법률회계서비스(개인)","category":"other"},{"name":"인대인세무회계","tel":"031-798-5599","addr":"경기도 광주시 송정동 337 로얄프라자208호~209호","indutype":"용역 서비스 - 법률회계서비스(개인)","category":"other"},{"name":"정락형세무회계사무소","tel":"031-765-9601","addr":"경기도 광주시 송정동 337번지 로얄프라자 206호","indutype":"용역 서비스 - 법률회계서비스(개인)","category":"other"},{"name":"정성훈법무사사무소","tel":"031-768-3322","addr":"경기도 광주시 송정동 337번지 로얄프라자센터 112호","indutype":"용역 서비스 - 법률회계서비스(개인)","category":"other"},{"name":"주식회사너른고을여행사","tel":"031-767-5455","addr":"경기도 광주시 송정동 337번지 로얄프라자센터 205호","indutype":"여행 - 관광여행","category":"other"},{"name":"한성엔지니어링","tel":"031-768-0556","addr":"경기도 광주시 송정동 337번지","indutype":"건축자재 - 보일러·펌프·샷시","category":"other"},{"name":"허학관세무회계사무소","tel":"031-764-6168","addr":"경기도 광주시 송정동 337 로얄프라자센타2층 215","indutype":"용역 서비스 - 법률회계서비스(개인)","category":"other"}]},{"lat":"37.41802926","long":"127.2554255","imageIndex":17,"items":[{"name":"(주)클린광주","tel":"031-767-0765","addr":"경기도 광주시 송정동 122-5번지","indutype":"용역 서비스 - 종합용역","category":"other"},{"name":"광주건강 힐링(Cafe)","tel":"031-761-6704","addr":"경기도 광주시 송정동 122-5번지","indutype":"전기제품 - 기타전기제품","category":"other"}]},{"lat":"37.42330463","long":"127.253308","imageIndex":17,"items":[{"name":"(주)파코","tel":"031-766-1155","addr":"경기도 광주시 송정동 169-1번지 201호","indutype":"수리서비스 - 기타수리서비스","category":"other"}]},{"lat":"37.42669382","long":"127.2568668","imageIndex":17,"items":[{"name":"(주)하나월드","tel":"031-761-2686","addr":"경기도 광주시 송정동 331번지 (2층탑골빌딩)","indutype":"회원제형태 - 기타3","category":"other"},{"name":"E&C산업","tel":"031-767-7905","addr":"경기도 광주시 송정동 331번지","indutype":"건축자재 - 기타건축자재","category":"other"},{"name":"드림디포문구센터","tel":"031-769-1129","addr":"경기도 광주시 송정동 331번지 탑골빌딩 1층","indutype":"서적문구 - 문구용품","category":"other"},{"name":"법무사박건희","tel":"031-764-5833","addr":"경기도 광주시 송정동 331번지","indutype":"용역 서비스 - 법률회계서비스(개인)","category":"other"}]},{"lat":"37.4269467","long":"127.2565852","imageIndex":17,"items":[{"name":"(주)한국카이클경기동부총판","tel":"031-763-7300","addr":"경기도 광주시 송정동 336번지 601호","indutype":"레져용품 - 스포츠·레져용품","category":"other"}]},{"lat":"37.41539452","long":"127.2572014","imageIndex":17,"items":[{"name":"(주)한민미생물연구소","tel":"031-763-0171","addr":"경기도 광주시 송정동 113-69","indutype":"농업 - 비료,사료,종자","category":"other"},{"name":"하얀미소114","tel":"02-2633-6380","addr":"경기도 광주시 송정동 113-69","indutype":"기타 - 기계공구","category":"other"}]},{"lat":"37.41445044","long":"127.2604514","imageIndex":17,"items":[{"name":"21세기광고","tel":"031-766-3300","addr":"경기도 광주시 송정동 67-42번지 2층 1호","indutype":"건축자재 - 인테리어전문","category":"other"},{"name":"다인측량설계사무소","tel":"031-769-1919","addr":"경기도 광주시 송정동 67-42번지 4층","indutype":"용역 서비스 - 사무서비스","category":"other"},{"name":"조원디지털","tel":"02-404-2077","addr":"경기도 광주시 송정동 67-42번지","indutype":"사무통신 - 컴퓨터","category":"other"}]},{"lat":"37.41485939","long":"127.2629718","imageIndex":17,"items":[{"name":"3RD쥬얼리","tel":"070-8833-8446","addr":"경기도 광주시 송정동 90-4번지","indutype":"신변잡화 - 액세서리","category":"other"}]},{"lat":"37.41413884","long":"127.2587221","imageIndex":17,"items":[{"name":"8월의꽃","tel":"","addr":"경기도 광주시 송정동 100-111번지 1층","indutype":"문화.취미 - 화원","category":"other"},{"name":"연화","tel":"031-797-6511","addr":"경기도 광주시 송정동 100-111번지 1층","indutype":"문화.취미 - 화원","category":"other"}]},{"lat":"37.41547486","long":"127.2616975","imageIndex":17,"items":[{"name":"CC&M","tel":"031-762-7600","addr":"경기도 광주시 송정동 70-1번지","indutype":"레져용품 - 악기점","category":"other"},{"name":"유가통신","tel":"031-769-2888","addr":"경기도 광주시 송정동 70-1번지","indutype":"사무통신 - 통신기기","category":"other"}]},{"lat":"37.41605546","long":"127.2720355","imageIndex":17,"items":[{"name":"D. S간판","tel":"031-767-5528","addr":"경기도 광주시 송정동 12-3번지","indutype":"건축자재 - 인테리어전문","category":"other"}]},{"lat":"37.41519573","long":"127.2616175","imageIndex":17,"items":[{"name":"GS25광주경화점","tel":"","addr":"경기도 광주시 송정동 69-1번지","indutype":"유통업 영리 - 상품권전문판매","category":"other"},{"name":"GS25광주경화점","tel":"","addr":"경기도 광주시 송정동 69-1번지","indutype":"유통업 영리 - 편 의 점","category":"other"}]},{"lat":"37.42591531","long":"127.2500856","imageIndex":17,"items":[{"name":"GS25광주신시청점","tel":"","addr":"경기도 광주시 송정동 350-35번지 송정낙원포레시티 101동 B02호","indutype":"유통업 영리 - 편 의 점","category":"other"},{"name":"GS25광주신시청점","tel":"","addr":"경기도 광주시 송정동 350-35번지 송정낙원포레시티 101동 B02호","indutype":"유통업 영리 - 상품권전문판매","category":"other"}]},{"lat":"37.41536354","long":"127.2590313","imageIndex":17,"items":[{"name":"GS25송정타운점","tel":"","addr":"경기도 광주시 송정동 101-1번지","indutype":"유통업 영리 - 상품권전문판매","category":"other"},{"name":"GS25송정타운점","tel":"","addr":"경기도 광주시 송정동 101-1번지","indutype":"유통업 영리 - 편 의 점","category":"other"}]},{"lat":"37.42933203","long":"127.261813","imageIndex":17,"items":[{"name":"H. Queen","tel":"070-8743-3972","addr":"경기도 광주시 송정동 494번지 송정전원파크빌","indutype":"회원제형태 - 기타4","category":"other"}]},{"lat":"37.4270866","long":"127.2585628","imageIndex":17,"items":[{"name":"JJ에어컨","tel":"031-797-9033","addr":"경기도 광주시 송정동 295-3번지 토드빌라 2층 202호","indutype":"용역 서비스 - 기타용역서비스","category":"other"}]},{"lat":"37.41783637","long":"127.2571419","imageIndex":17,"items":[{"name":"KS건축사사무소","tel":"031-765-5097","addr":"경기도 광주시 송정동 130-23번지","indutype":"용역 서비스 - 사무서비스","category":"other"},{"name":"영앤쥬비","tel":"031-703-1240","addr":"경기도 광주시 송정동 130-23번지","indutype":"회원제형태 - 기타1","category":"other"}]},{"lat":"37.43111064","long":"127.260147","imageIndex":17,"items":[{"name":"K스포츠 광주점","tel":"031-767-6555","addr":"경기도 광주시 송정동 427-4번지 K골프백화점 2층","indutype":"레져용품 - 스포츠·레져용품","category":"other"}]},{"lat":"37.41666425","long":"127.2616677","imageIndex":17,"items":[{"name":"LGJ에어컨","tel":"02-744-6708","addr":"경기도 광주시 송정동 72-7번지 그린하우스 301호","indutype":"용역 서비스 - 기타용역서비스","category":"other"}]},{"lat":"37.41525542","long":"127.2548401","imageIndex":17,"items":[{"name":"LG컴앤컴","tel":"031-765-4911","addr":"경기도 광주시 송정동 587-4번지","indutype":"사무통신 - 컴퓨터","category":"other"},{"name":"성심목공인테리어","tel":"031-761-2814","addr":"경기도 광주시 송정동 587-4번지","indutype":"건축자재 - 인테리어전문","category":"other"}]},{"lat":"37.41597362","long":"127.2602307","imageIndex":17,"items":[{"name":"N컬쳐디자인","tel":"031-767-4033","addr":"경기도 광주시 송정동 57-5번지","indutype":"문화.취미 - 티켓","category":"other"},{"name":"엘르 학생복(ELLE)","tel":"031-762-8442","addr":"경기도 광주시 송정동 57-5번지 3층 301호","indutype":"의류 - 단체복","category":"other"}]},{"lat":"37.41553086","long":"127.2566484","imageIndex":17,"items":[{"name":"SH에너시스","tel":"031-763-8577","addr":"경기도 광주시 송정동 113-28번지 1층","indutype":"건축자재 - 보일러·펌프·샷시","category":"other"}]},{"lat":"37.4184791","long":"127.255732","imageIndex":17,"items":[{"name":"SR 솔루션","tel":"031-763-5568","addr":"경기도 광주시 송정동 123-1번지 송정동파라다이스아파트","indutype":"사무통신 - 사무용 OA기기","category":"other"}]},{"lat":"37.41577951","long":"127.2583323","imageIndex":17,"items":[{"name":"T&B PLAN (티앤비 플랜)","tel":"","addr":"경기도 광주시 송정동 103-15번지","indutype":"건축자재 - 인테리어전문","category":"other"}]},{"lat":"37.41620051","long":"127.2594747","imageIndex":17,"items":[{"name":"가람펫애견용품할인점","tel":"031-763-0079","addr":"경기도 광주시 송정동 58-9번지","indutype":"문화.취미 - 애완동물","category":"other"}]},{"lat":"37.42719767","long":"127.2571961","imageIndex":17,"items":[{"name":"가은세무회계","tel":"031-764-3448","addr":"경기도 광주시 송정동 334-13번지 현진빌딩 3층 11호","indutype":"용역 서비스 - 법률회계서비스(개인)","category":"other"}]},{"lat":"37.41723034","long":"127.2582356","imageIndex":17,"items":[{"name":"가전매장","tel":"031-764-8400","addr":"경기도 광주시 송정동 55번지 현대아파트","indutype":"전기제품 - 가전제품","category":"other"}]},{"lat":"37.41608967","long":"127.2565599","imageIndex":17,"items":[{"name":"가전판매장","tel":"031-761-3182","addr":"경기도 광주시 송정동 112-10번지 1층","indutype":"전기제품 - 가전제품","category":"other"},{"name":"행복통신","tel":"031-798-7011","addr":"경기도 광주시 송정동 112-10번지","indutype":"사무통신 - 통신기기","category":"other"}]},{"lat":"37.41647596","long":"127.2733361","imageIndex":17,"items":[{"name":"거평종합건축사사무소","tel":"031-767-9685","addr":"경기도 광주시 송정동 10-8번지","indutype":"용역 서비스 - 법률회계서비스(개인)","category":"other"},{"name":"광장건축사사무소","tel":"031-468-4981","addr":"경기도 광주시 송정동 10-8번지","indutype":"용역 서비스 - 법률회계서비스(개인)","category":"other"},{"name":"바네사","tel":"031-797-6490","addr":"경기도 광주시 송정동 10-8번지 102호","indutype":"의류 - 정장","category":"other"},{"name":"제이제이(JJ)","tel":"","addr":"경기도 광주시 송정동 10-8번지 126호","indutype":"의류 - 정장","category":"other"},{"name":"한일자동펌프","tel":"031-762-7173","addr":"경기도 광주시 송정동 10-8번지 1호","indutype":"건축자재 - 보일러·펌프·샷시","category":"other"}]},{"lat":"37.41716548","long":"127.2548691","imageIndex":17,"items":[{"name":"건 기획","tel":"031-769-7373","addr":"경기도 광주시 송정동 120-17번지 한산빌라 401호","indutype":"주방용구 - 주방용구","category":"other"}]},{"lat":"37.4170618","long":"127.2570037","imageIndex":17,"items":[{"name":"건축사사무소신건축","tel":"031-763-7070","addr":"경기도 광주시 송정동 110-3번지","indutype":"건축자재 - 인테리어전문","category":"other"},{"name":"디자인이유","tel":"031-763-8080","addr":"경기도 광주시 송정동 110-3번지 2층","indutype":"건축자재 - 인테리어전문","category":"other"},{"name":"범건축사사무소","tel":"031-763-7070","addr":"경기도 광주시 송정동 110-3번지","indutype":"용역 서비스 - 사무서비스","category":"other"},{"name":"법무사김상곤사무소","tel":"031-798-2700","addr":"경기도 광주시 송정동 110-3번지 대영빌딩 102호","indutype":"용역 서비스 - 법률회계서비스(개인)","category":"other"},{"name":"안홍균법무사사무실","tel":"031-762-3655","addr":"경기도 광주시 송정동 110-3번지","indutype":"용역 서비스 - 법률회계서비스(개인)","category":"other"}]},{"lat":"37.41921162","long":"127.2748144","imageIndex":17,"items":[{"name":"게이트맨열쇠","tel":"031-769-1394","addr":"경기도 광주시 송정동 574번지 금강펜테리움2단지 209동 302호","indutype":"회원제형태 - 기타4","category":"other"}]},{"lat":"37.41858291","long":"127.261889","imageIndex":17,"items":[{"name":"경기광주우체국","tel":"031-761-2001","addr":"경기도 광주시 송정동 53-7번지","indutype":"용역 서비스 - 공공요금대행서비스/소","category":"other"}]},{"lat":"37.41714469","long":"127.2561681","imageIndex":17,"items":[{"name":"경기광주지역자활센터","tel":"031-767-0768","addr":"경기도 광주시 송정동 120-8번지 광주시청","indutype":"용역 서비스 - 종합용역","category":"other"}]},{"lat":"37.41747663","long":"127.2568357","imageIndex":17,"items":[{"name":"경안인쇄사","tel":"031-761-2403","addr":"경기도 광주시 송정동 121-6번지 101호","indutype":"서적문구 - 출판 및 인쇄물","category":"other"},{"name":"잇츠플라워","tel":"070-8273-8444","addr":"경기도 광주시 송정동 121-6번지 외1필지","indutype":"문화.취미 - 화원","category":"other"}]},{"lat":"37.41763876","long":"127.2731143","imageIndex":17,"items":[{"name":"고은피부관리","tel":"031-797-1010","addr":"경기도 광주시 송정동 560번지 2층 203,204호","indutype":"회원제형태 - 기타4","category":"other"},{"name":"부흥사세탁소","tel":"031-769-0826","addr":"경기도 광주시 송정동 560번지 브라운스톤광주아파트 상가동 103호","indutype":"수리서비스 - 세탁소","category":"other"}]},{"lat":"37.42397425","long":"127.2519433","imageIndex":17,"items":[{"name":"골프마스터","tel":"031-798-2222","addr":"경기도 광주시 송정동 170-8번지 삼광골프연습장 1층 2호","indutype":"레져용품 - 골프용품 전문점","category":"other"}]},{"lat":"37.4282303","long":"127.2588265","imageIndex":17,"items":[{"name":"공간꾸밈","tel":"","addr":"경기도 광주시 송정동 394-6번지 삼성아트빌","indutype":"용역 서비스 - 기타용역서비스","category":"other"}]},{"lat":"37.41535957","long":"127.256693","imageIndex":17,"items":[{"name":"공예아트","tel":"031-797-5669","addr":"경기도 광주시 송정동 113-30번지 3층","indutype":"문화.취미 - 문화취미기타","category":"other"},{"name":"이마트24 송정점","tel":"031-781-6418","addr":"경기도 광주시 송정동 113-30번지","indutype":"유통업 영리 - 편 의 점","category":"other"}]},{"lat":"37.4144194","long":"127.258147","imageIndex":17,"items":[{"name":"광명상회","tel":"031-761-6526","addr":"경기도 광주시 송정동 101-46번지","indutype":"신변잡화 - 기타잡화","category":"other"}]},{"lat":"37.43124822","long":"127.2590289","imageIndex":17,"items":[{"name":"광주 행정사 합동사무소","tel":"031-763-4646","addr":"경기도 광주시 송정동 429-4번지 301호","indutype":"용역 서비스 - 법률회계서비스(개인)","category":"other"},{"name":"케이지공인중개사사무소","tel":"031-763-4646","addr":"경기도 광주시 송정동 429-4번지 명무빌딩 2층","indutype":"용역 서비스 - 부동산 중개·임대","category":"other"}]},{"lat":"37.41664451","long":"127.2541105","imageIndex":17,"items":[{"name":"광주보일러(수도설비,누수탐지,방수,집수리","tel":"031-798-7633","addr":"경기도 광주시 송정동 118-17번지","indutype":"건축자재 - 보일러·펌프·샷시","category":"other"},{"name":"열쇠나라","tel":"031-765-8213","addr":"경기도 광주시 송정동 118-17번지","indutype":"수리서비스 - 기타수리서비스","category":"other"}]},{"lat":"37.41527543","long":"127.2622503","imageIndex":17,"items":[{"name":"국화","tel":"031-761-0770","addr":"경기도 광주시 송정동 81-5번지","indutype":"의류 - 정장","category":"other"}]},{"lat":"37.42924943","long":"127.2583668","imageIndex":17,"items":[{"name":"굿샷비전스크린골프","tel":"031-798-8290","addr":"경기도 광주시 송정동 398-8번지","indutype":"회원제형태 - 레져업소","category":"other"}]},{"lat":"37.42363912","long":"127.2527782","imageIndex":17,"items":[{"name":"규장각","tel":"031-762-2491","addr":"경기도 광주시 송정동 170-1","indutype":"서적문구 - 출판 및 인쇄물","category":"other"}]},{"lat":"37.41696993","long":"127.2619738","imageIndex":17,"items":[{"name":"그린상사","tel":"031-797-8900","addr":"경기도 광주시 송정동 45-3번지 1층","indutype":"서적문구 - 출판 및 인쇄물","category":"other"},{"name":"미니스톱광주경화점","tel":"031-798-8062","addr":"경기도 광주시 송정동 45-3번지","indutype":"유통업 영리 - 편 의 점","category":"other"}]},{"lat":"37.41811621","long":"127.2568943","imageIndex":17,"items":[{"name":"그린종합광고","tel":"031-768-0005","addr":"경기도 광주시 송정동 130-11번지 1층 5호","indutype":"건축자재 - 인테리어전문","category":"other"},{"name":"대한상사","tel":"031-1899-6126","addr":"경기도 광주시 송정동 130-11번지","indutype":"기타 - 기계공구","category":"other"},{"name":"유영건축사사무소","tel":"031-765-1934","addr":"경기도 광주시 송정동 130-11번지","indutype":"건축자재 - 부동산 분양","category":"other"},{"name":"잉크테마","tel":"031-764-7722","addr":"경기도 광주시 송정동 130-11번지 1층","indutype":"사무통신 - 컴퓨터","category":"other"}]},{"lat":"37.41558155","long":"127.2540053","imageIndex":17,"items":[{"name":"그린프라자","tel":"031-765-4343","addr":"경기도 광주시 송정동 583-14번지","indutype":"전기제품 - 가전제품","category":"other"}]},{"lat":"37.41661623","long":"127.2546978","imageIndex":17,"items":[{"name":"김박사","tel":"","addr":"경기도 광주시 송정동 113-33번지 B3호","indutype":"용역 서비스 - 기타용역서비스","category":"other"}]},{"lat":"37.42816816","long":"127.258397","imageIndex":17,"items":[{"name":"김현일세무사사무소","tel":"031-768-7151","addr":"경기도 광주시 송정동 393-1번지","indutype":"용역 서비스 - 법률회계서비스(개인)","category":"other"},{"name":"장보고","tel":"031-797-5273","addr":"경기도 광주시 송정동 393-1번지 2층","indutype":"신변잡화 - 기타잡화","category":"other"},{"name":"크린토피아","tel":"031-762-3722","addr":"경기도 광주시 송정동 393-1번지 1층 맨왼쪽","indutype":"수리서비스 - 세탁소","category":"other"}]},{"lat":"37.42491426","long":"127.2505342","imageIndex":17,"items":[{"name":"꽃배달 서비스 아이조아 플라워","tel":"031-764-2521","addr":"경기도 광주시 송정동 350-87번지 송정낙원포레시티 302동 101호","indutype":"문화.취미 - 화원","category":"other"}]},{"lat":"37.42816943","long":"127.2578095","imageIndex":17,"items":[{"name":"꾸러기펫","tel":"031-769-0327","addr":"경기도 광주시 송정동 298-46번지 1층","indutype":"문화.취미 - 애완동물","category":"other"}]},{"lat":"37.41703901","long":"127.2713951","imageIndex":17,"items":[{"name":"나린아토","tel":"","addr":"경기도 광주시 송정동 575번지 송정우림필유 106동 703호","indutype":"의류 - 정장","category":"other"},{"name":"희망월드","tel":"070-7764-0219","addr":"경기도 광주시 송정동 575번지 송정우림필유 106동 404호","indutype":"회원제형태 - 기타1","category":"other"}]},{"lat":"37.41874764","long":"127.2565576","imageIndex":17,"items":[{"name":"나산화원","tel":"031-769-2255","addr":"경기도 광주시 송정동 128-1번지","indutype":"문화.취미 - 화원","category":"other"},{"name":"본디자인","tel":"031-762-1246","addr":"경기도 광주시 송정동 128-1번지","indutype":"용역 서비스 - 종합용역","category":"other"}]},{"lat":"37.41699791","long":"127.2573876","imageIndex":17,"items":[{"name":"나이스","tel":"","addr":"경기도 광주시 송정동 110-17번지 한라 202호","indutype":"용역 서비스 - 종합용역","category":"other"}]},{"lat":"37.43271783","long":"127.2543789","imageIndex":17,"items":[{"name":"나이스커텐","tel":"","addr":"경기도 광주시 송정동 367-7번지 송정동대주파크빌","indutype":"직물 - 카페트,커튼,천막,지물","category":"other"},{"name":"리애","tel":"070-9414-6966","addr":"경기도 광주시 송정동 367-7번지 송정동대주파크빌","indutype":"문화.취미 - 문화취미기타","category":"other"}]},{"lat":"37.43602876","long":"127.2648642","imageIndex":17,"items":[{"name":"뉴랜드골프샵","tel":"031-765-4951","addr":"경기도 광주시 송정동 474-1번지","indutype":"레져용품 - 스포츠·레져용품","category":"other"}]},{"lat":"37.41586715","long":"127.2716394","imageIndex":17,"items":[{"name":"다다인테리어","tel":"031-799-7599","addr":"경기도 광주시 송정동 12-8번지 101호","indutype":"건축자재 - 인테리어전문","category":"other"}]},{"lat":"37.41675438","long":"127.2532862","imageIndex":17,"items":[{"name":"다옴나무","tel":"","addr":"경기도 광주시 송정동 118-23번지 지하1층","indutype":"문화.취미 - 애완동물","category":"other"}]},{"lat":"37.42938507","long":"127.2581413","imageIndex":17,"items":[{"name":"다원인테리어","tel":"031-766-3672","addr":"경기도 광주시 송정동 398-12번지 1층 101호","indutype":"건축자재 - 인테리어전문","category":"other"}]},{"lat":"37.41708823","long":"127.2530614","imageIndex":17,"items":[{"name":"다홈하우징","tel":"031-761-1860","addr":"경기도 광주시 송정동 118-31번지","indutype":"건축자재 - 인테리어전문","category":"other"}]},{"lat":"37.4193386","long":"127.2582766","imageIndex":17,"items":[{"name":"담안건업","tel":"031-763-6993","addr":"경기도 광주시 송정동 141-2","indutype":"건축자재 - 보일러·펌프·샷시","category":"other"}]},{"lat":"37.4280822","long":"127.2564761","imageIndex":17,"items":[{"name":"대광측량토목설계공사","tel":"031-767-0211","addr":"경기도 광주시 송정동 382-10 382-45","indutype":"용역 서비스 - 사무서비스","category":"other"},{"name":"토마토사진관","tel":"031-762-4282","addr":"경기도 광주시 송정동 382-10번지 정양빌딩 2층 1호","indutype":"광학제품 - 사진관","category":"other"}]},{"lat":"37.41519756","long":"127.2566134","imageIndex":17,"items":[{"name":"대아","tel":"031-798-9001","addr":"경기도 광주시 송정동 592-1번지","indutype":"건축자재 - 조명기구","category":"other"}]},{"lat":"37.42808485","long":"127.2594248","imageIndex":17,"items":[{"name":"대우,SK보일러경기동부센터","tel":"031-7781-7034","addr":"경기도 광주시 송정동 409-5번지 102호","indutype":"건축자재 - 보일러·펌프·샷시","category":"other"}]},{"lat":"37.42838774","long":"127.2610076","imageIndex":17,"items":[{"name":"대유위니아서비스","tel":"031-262-0001","addr":"경기도 광주시 송정동 407-41번지 브론즈빌","indutype":"수리서비스 - 가정용품수리","category":"other"}]},{"lat":"37.41416695","long":"127.2582252","imageIndex":17,"items":[{"name":"대한씽크공장","tel":"031-767-3677","addr":"경기도 광주시 송정동 100-45번지","indutype":"주방용구 - 주방용구","category":"other"}]},{"lat":"37.4285299","long":"127.2619232","imageIndex":17,"items":[{"name":"대현유리","tel":"031-792-1435","addr":"경기도 광주시 송정동 494-17송정전원파크빌116-401 2/","indutype":"건축자재 - 유리","category":"other"}]},{"lat":"37.41794662","long":"127.2561482","imageIndex":17,"items":[{"name":"더블유앤씨(W&C)","tel":"070-7612-3031","addr":"경기도 광주시 송정동 122-2번지 1층 102호","indutype":"수리서비스 - 세탁소","category":"other"}]},{"lat":"37.41544867","long":"127.2613134","imageIndex":17,"items":[{"name":"데이지문구","tel":"031-761-6991","addr":"경기도 광주시 송정동 71-4번지","indutype":"서적문구 - 문구용품","category":"other"}]},{"lat":"37.41730507","long":"127.2570045","imageIndex":17,"items":[{"name":"데캉경기광주점","tel":"031-798-8097","addr":"경기도 광주시 송정동 121-1번지","indutype":"기타 - 기타 전문점","category":"other"},{"name":"우성행정사사무소","tel":"031-761-4998","addr":"경기도 광주시 송정동 121-1번지","indutype":"용역 서비스 - 법률회계서비스(개인)","category":"other"}]},{"lat":"37.41628181","long":"127.2551937","imageIndex":17,"items":[{"name":"도샤","tel":"031-761-8151","addr":"경기도 광주시 송정동 113-44번지","indutype":"신변잡화 - 기타잡화","category":"other"}]},{"lat":"37.41416551","long":"127.2588916","imageIndex":17,"items":[{"name":"동방인테리어","tel":"031-761-7887","addr":"경기도 광주시 송정동 100-110번지 2호","indutype":"건축자재 - 기타건축자재","category":"other"}]},{"lat":"37.4306659","long":"127.2616368","imageIndex":17,"items":[{"name":"동양유리공업","tel":"031-762-9400","addr":"경기도 광주시 송정동 424-1번지","indutype":"건축자재 - 유리","category":"other"}]},{"lat":"37.42931027","long":"127.2593951","imageIndex":17,"items":[{"name":"동양제면","tel":"031-764-3203","addr":"경기도 광주시 송정동 407-1번지","indutype":"직물 - 침구·수예점","category":"other"}]},{"lat":"37.41714143","long":"127.273892","imageIndex":17,"items":[{"name":"동일크리닝","tel":"031-767-0231","addr":"경기도 광주시 송정동 8-5번지","indutype":"수리서비스 - 세탁소","category":"other"},{"name":"송정 애견호텔","tel":"031-769-3175","addr":"경기도 광주시 송정동 8-5번지 4층","indutype":"문화.취미 - 애완동물","category":"other"}]},{"lat":"37.41650263","long":"127.2530369","imageIndex":17,"items":[{"name":"동행피부관리","tel":"031-764-3159","addr":"경기도 광주시 송정동 579-3번지","indutype":"회원제형태 - 기타4","category":"other"}]},{"lat":"37.43258677","long":"127.2608412","imageIndex":17,"items":[{"name":"동호우드","tel":"02-488-6310","addr":"경기도 광주시 송정동 446-1번지","indutype":"용역 서비스 - 기타용역서비스","category":"other"}]},{"lat":"37.42877507","long":"127.2568964","imageIndex":17,"items":[{"name":"드림광고기획","tel":"070-8624-6366","addr":"경기도 광주시 송정동 387-1번지 우리빌 2층 203호","indutype":"용역 서비스 - 종합용역","category":"other"}]},{"lat":"37.41675103","long":"127.2590586","imageIndex":17,"items":[{"name":"디에스공구(D.S TOOL)","tel":"02-2214-2400","addr":"경기도 광주시 송정동 55-7번지 삼보하이빌 104동 301호","indutype":"기타 - 기계공구","category":"other"}]},{"lat":"37.41413769","long":"127.259253","imageIndex":17,"items":[{"name":"디자인마끼","tel":"031-765-5257","addr":"경기도 광주시 송정동 100-116번지","indutype":"서적문구 - 출판 및 인쇄물","category":"other"},{"name":"제이에스(정석)기획","tel":"031-765-0288","addr":"경기도 광주시 송정동 100-116번지","indutype":"건축자재 - 인테리어전문","category":"other"},{"name":"포인트장식","tel":"031-767-7216","addr":"경기도 광주시 송정동 100-116번지","indutype":"직물 - 카페트,커튼,천막,지물","category":"other"},{"name":"하나컴퓨터통신/특별IBM","tel":"031-765-4843","addr":"경기도 광주시 송정동 100-116번지","indutype":"사무통신 - 컴퓨터","category":"other"},{"name":"하나컴퓨터통신/특별할부","tel":"031-1-1","addr":"경기도 광주시 송정동 100-116번지","indutype":"사무통신 - 컴퓨터","category":"other"}]},{"lat":"37.41635948","long":"127.2730532","imageIndex":17,"items":[{"name":"디자인마루","tel":"031-765-8758","addr":"경기도 광주시 송정동 10-9번지 1층","indutype":"서적문구 - 출판 및 인쇄물","category":"other"}]},{"lat":"37.42977928","long":"127.2591708","imageIndex":17,"items":[{"name":"라미뷰티플랫폼","tel":"02-761-9397","addr":"경기도 광주시 송정동 406-28번지 3층 301호","indutype":"의류 - 정장","category":"other"},{"name":"본 컴퍼니","tel":"","addr":"경기도 광주시 송정동 406-28번지 3층 301호","indutype":"신변잡화 - 기타잡화","category":"other"}]},{"lat":"37.41424894","long":"127.2578075","imageIndex":17,"items":[{"name":"라이카경안점","tel":"031-767-3211","addr":"경기도 광주시 송정동 100-11번지","indutype":"사무통신 - 사무용 OA기기","category":"other"},{"name":"상주종합부속","tel":"031-761-0909","addr":"경기도 광주시 송정동 100-11번지","indutype":"기타 - 기계공구","category":"other"}]},{"lat":"37.41734951","long":"127.2735199","imageIndex":17,"items":[{"name":"로샤 썬","tel":"070-2699-0807","addr":"경기도 광주시 송정동 560번지 브라운스톤광주아파트","indutype":"의류 - 내의판매","category":"other"}]},{"lat":"37.42522286","long":"127.2494507","imageIndex":17,"items":[{"name":"로앤다(RO&DA)","tel":"","addr":"경기도 광주시 송정동 350-68번지 송정낙원포레시티 110동 402호","indutype":"신변잡화 - 기타잡화","category":"other"}]},{"lat":"37.41539133","long":"127.2544791","imageIndex":17,"items":[{"name":"리가비즈","tel":"070-8610-1262","addr":"경기도 광주시 송정동 586-4번지","indutype":"의류 - 정장","category":"other"}]},{"lat":"37.41655622","long":"127.2736978","imageIndex":17,"items":[{"name":"리더스유산소스포츠","tel":"031-766-8220","addr":"경기도 광주시 송정동 11번지","indutype":"회원제형태 - 레져업소","category":"other"},{"name":"민스킨케어","tel":"031-763-2033","addr":"경기도 광주시 송정동 11-9동 202호","indutype":"회원제형태 - 기타4","category":"other"},{"name":"비담초 우리옷","tel":"031-000-0000","addr":"경기도 광주시 송정동 11번지 3층","indutype":"의류 - 정장","category":"other"}]},{"lat":"37.4171425767","long":"127.2529260341","imageIndex":17,"items":[{"name":"리애","tel":"070-8899-5315","addr":"경기도 광주시 송정동 118-61번지","indutype":"신변잡화 - 기타잡화","category":"other"}]},{"lat":"37.42822618","long":"127.2607246","imageIndex":17,"items":[{"name":"리치","tel":"","addr":"경기도 광주시 송정동 407-49번지 건우빌라","indutype":"의류 - 내의판매","category":"other"}]},{"lat":"37.41858162","long":"127.2745072","imageIndex":17,"items":[{"name":"리틀크라운","tel":"070-4190-2622","addr":"경기도 광주시 송정동 574번지 금강펜테리움2단지","indutype":"의류 - 정장","category":"other"}]},{"lat":"37.41816043","long":"127.2735116","imageIndex":17,"items":[{"name":"릴리쿠","tel":"070-4098-0988","addr":"경기도 광주시 송정동 560번지 브라운스톤광주아파트","indutype":"의류 - 아동의류","category":"other"}]},{"lat":"37.42832925","long":"127.2504438","imageIndex":17,"items":[{"name":"명건상사","tel":"070-7166-7189","addr":"경기도 광주시 송정동 356-5번지","indutype":"신변잡화 - 기타잡화","category":"other"}]},{"lat":"37.41544607","long":"127.2583651","imageIndex":17,"items":[{"name":"명성사진실","tel":"031-761-4985","addr":"경기도 광주시 송정동 103-36","indutype":"광학제품 - 사진관","category":"other"},{"name":"이다훈 스튜디오","tel":"031-000-0000","addr":"경기도 광주시 송정동 103-36번지","indutype":"광학제품 - 사진관","category":"other"}]},{"lat":"37.41738962","long":"127.2553895","imageIndex":17,"items":[{"name":"명인설비","tel":"031-762-7900","addr":"경기도 광주시 송정동 120-6번지","indutype":"용역 서비스 - 기타용역서비스","category":"other"}]},{"lat":"37.41414463","long":"127.2643136","imageIndex":17,"items":[{"name":"모두조이","tel":"070-7574-4833","addr":"경기도 광주시 송정동 93-80번지","indutype":"기타 - 기타 전문점","category":"other"}]},{"lat":"37.42552788","long":"127.2500843","imageIndex":17,"items":[{"name":"모이","tel":"031-764-0871","addr":"경기도 광주시 송정동 350-43번지 송정낙원 포레시티 107동 지1층 비01호","indutype":"신변잡화 - 기타잡화","category":"other"}]},{"lat":"37.41658408","long":"127.2528677","imageIndex":17,"items":[{"name":"무도코리아","tel":"031-797-7727","addr":"경기도 광주시 송정동 579-4번지 1층 102호","indutype":"의류 - 스포츠의류","category":"other"}]},{"lat":"37.41775008","long":"127.2756451","imageIndex":17,"items":[{"name":"미니스톱광주경안점","tel":"031-798-2325","addr":"경기도 광주시 송정동 6-1,4번지","indutype":"유통업 영리 - 편 의 점","category":"other"}]},{"lat":"37.4143669","long":"127.2574239","imageIndex":17,"items":[{"name":"밀목상회","tel":"031-761-2952","addr":"경기도 광주시 송정동 594-8번지","indutype":"건축자재 - 목재·석재·철물","category":"other"}]},{"lat":"37.41413696","long":"127.2595919","imageIndex":17,"items":[{"name":"바른교육","tel":"031-797-3409","addr":"경기도 광주시 송정동 100-6번지","indutype":"서적문구 - 문구용품","category":"other"}]},{"lat":"37.42711441","long":"127.2582014","imageIndex":17,"items":[{"name":"바이오메덱스","tel":"031-762-1836","addr":"경기도 광주시 송정동 297-3","indutype":"서적문구 - 과학기자재","category":"other"},{"name":"바이오메덱스/원격지","tel":"031-762-1836","addr":"경기도 광주시 송정동 297-3","indutype":"기타 - 기타 전문점","category":"other"}]},{"lat":"37.41703065","long":"127.2547218","imageIndex":17,"items":[{"name":"반희담협동조합","tel":"031-767-0768","addr":"경기도 광주시 송정동 115-21번지","indutype":"문화.취미 - 민예·공예품","category":"other"}]},{"lat":"37.41535912","long":"127.2610645","imageIndex":17,"items":[{"name":"법무사박명현사무소","tel":"031-768-1510","addr":"경기도 광주시 송정동 71-20","indutype":"용역 서비스 - 법률회계서비스(개인)","category":"other"}]},{"lat":"37.42494301","long":"127.258194","imageIndex":17,"items":[{"name":"법무사조현호사무소","tel":"031-766-8572","addr":"경기도 광주시 송정동 313-1번지 1층","indutype":"용역 서비스 - 법률회계서비스(개인)","category":"other"},{"name":"블루하드웨어","tel":"031-798-8031","addr":"경기도 광주시 송정동 313-1번지 외1필지","indutype":"건축자재 - 목재·석재·철물","category":"other"},{"name":"우리건축사사무소","tel":"031-797-8500","addr":"경기도 광주시 송정동 313-1번지","indutype":"용역 서비스 - 사무서비스","category":"other"},{"name":"한국부동산공인중개사사무소/김학천행정사","tel":"031-764-6570","addr":"경기도 광주시 송정동 313-1번지","indutype":"용역 서비스 - 부동산 중개·임대","category":"other"}]},{"lat":"37.41446998","long":"127.2597512","imageIndex":17,"items":[{"name":"벨로몬(VELOMON)","tel":"031-8028-8849","addr":"경기도 광주시 송정동 64-27번지 충일빌딩","indutype":"레져용품 - 스포츠·레져용품","category":"other"}]},{"lat":"37.41699878","long":"127.2527561","imageIndex":17,"items":[{"name":"벽걸이PRO","tel":"031-798-0188","addr":"경기도 광주시 송정동 118-7번지 2층 1호","indutype":"용역 서비스 - 기타용역서비스","category":"other"}]},{"lat":"37.41739064","long":"127.2752258","imageIndex":17,"items":[{"name":"보물창고","tel":"031-768-3831","addr":"경기도 광주시 송정동 6-9번지","indutype":"의류 - 정장","category":"other"}]},{"lat":"37.42885914","long":"127.2637998","imageIndex":17,"items":[{"name":"빛나세제,세척기","tel":"","addr":"경기도 광주시 송정동 413-19번지 태영하이츠빌","indutype":"신변잡화 - 기타잡화","category":"other"}]},{"lat":"37.41650212","long":"127.2616446","imageIndex":17,"items":[{"name":"삼색종합타일","tel":"031-797-3640","addr":"경기도 광주시 송정동 72-9번지","indutype":"건축자재 - 건축용 요업제품","category":"other"}]},{"lat":"37.41505889","long":"127.2582508","imageIndex":17,"items":[{"name":"삼성솔루션","tel":"","addr":"경기도 광주시 송정동 101-7번지","indutype":"사무통신 - 컴퓨터","category":"other"}]},{"lat":"37.41471991","long":"127.2566682","imageIndex":17,"items":[{"name":"새롬꽃화원","tel":"031-797-5933","addr":"경기도 광주시 송정동 592-6번지","indutype":"문화.취미 - 화원","category":"other"}]},{"lat":"37.41427676","long":"127.2615917","imageIndex":17,"items":[{"name":"새훈 건물관리","tel":"","addr":"경기도 광주시 송정동 67-12번지 301호","indutype":"용역 서비스 - 종합용역","category":"other"}]},{"lat":"37.42691836","long":"127.2571952","imageIndex":17,"items":[{"name":"서진종합건축사사무소","tel":"031-766-8181","addr":"경기도 광주시 송정동 334-4번지","indutype":"용역 서비스 - 사무서비스","category":"other"},{"name":"폼나광고","tel":"031-766-9776","addr":"경기도 광주시 송정동 334-4번지 상길빌딩","indutype":"건축자재 - 인테리어전문","category":"other"}]},{"lat":"37.42944542","long":"127.2593956","imageIndex":17,"items":[{"name":"선민철물설비공사","tel":"031-769-2960","addr":"경기도 광주시 송정동 406-11번지 대림빌딩 103호","indutype":"건축자재 - 인테리어전문","category":"other"},{"name":"세븐일레븐광주밀목점","tel":"","addr":"경기도 광주시 송정동 406-11번지","indutype":"유통업 영리 - 편 의 점","category":"other"}]},{"lat":"37.41572009","long":"127.2566377","imageIndex":17,"items":[{"name":"선인광고","tel":"031-765-1661","addr":"경기도 광주시 송정동 112-15번지","indutype":"서적문구 - 문구용품","category":"other"},{"name":"탑전기조명","tel":"031-764-5577","addr":"경기도 광주시 송정동 112-15번지","indutype":"건축자재 - 조명기구","category":"other"}]},{"lat":"37.4280588","long":"127.2589728","imageIndex":17,"items":[{"name":"성우하이테크.성우전자","tel":"02-442-3333","addr":"경기도 광주시 송정동 409번지 이경자빌딩 1층 102호","indutype":"전기제품 - 가전제품","category":"other"},{"name":"크린에이드(밀목좀)","tel":"031-761-2080","addr":"경기도 광주시 송정동 409번지 이경자빌딩 101호","indutype":"수리서비스 - 세탁소","category":"other"}]},{"lat":"37.41608303","long":"127.2554528","imageIndex":17,"items":[{"name":"세븐일레븐경기광주송정현대점","tel":"","addr":"경기도 광주시 송정동 113-47번지","indutype":"유통업 영리 - 편 의 점","category":"other"}]},{"lat":"37.4154762","long":"127.2610875","imageIndex":17,"items":[{"name":"세븐일레븐광주경화점","tel":"031-1577-0711","addr":"경기도 광주시 송정동 71-8번지","indutype":"유통업 영리 - 편 의 점","category":"other"}]},{"lat":"37.43013745","long":"127.2602001","imageIndex":17,"items":[{"name":"송정조명","tel":"031-767-8104","addr":"경기도 광주시 송정동 421-4번지 동진빌딩 101호","indutype":"건축자재 - 조명기구","category":"other"},{"name":"한국 아이지에이마트 광주점","tel":"031-768-0708","addr":"경기도 광주시 송정동 421-4번지 동진빌딩 A동 102호","indutype":"유통업 영리 - 편 의 점","category":"other"}]},{"lat":"37.41741807","long":"127.2547231","imageIndex":17,"items":[{"name":"수가에서","tel":"070-4193-8956","addr":"경기도 광주시 송정동 120-24번지 1층","indutype":"의류 - 기타의류","category":"other"}]},{"lat":"37.43311544","long":"127.2538266","imageIndex":17,"items":[{"name":"수작","tel":"","addr":"경기도 광주시 송정동 367-7번지 송정동대주파크빌","indutype":"서적문구 - 문구용품","category":"other"}]},{"lat":"37.42932554","long":"127.2606606","imageIndex":17,"items":[{"name":"스마트 라인","tel":"","addr":"경기도 광주시 송정동 406-23번지 효성베스트빌","indutype":"용역 서비스 - 소프트웨어","category":"other"}]},{"lat":"37.41891632","long":"127.2577217","imageIndex":17,"items":[{"name":"스무스투어 (주)","tel":"031-762-0015","addr":"경기도 광주시 송정동 139-15번지 현대빌딩 3층","indutype":"여행 - 관광여행","category":"other"}]},{"lat":"37.42877653","long":"127.2603875","imageIndex":17,"items":[{"name":"스토리G","tel":"031-711-5321","addr":"경기도 광주시 송정동 407-14번지 모닝빌 1층","indutype":"가구 - 일반가구","category":"other"}]},{"lat":"37.41488689","long":"127.2627573","imageIndex":17,"items":[{"name":"신세계에어컨","tel":"031-768-4979","addr":"경기도 광주시 송정동 90-6번지 1층","indutype":"용역 서비스 - 기타용역서비스","category":"other"},{"name":"조은인테리어","tel":"031-797-1051","addr":"경기도 광주시 송정동 90-6번지","indutype":"건축자재 - 인테리어전문","category":"other"}]},{"lat":"37.41514209","long":"127.2614253","imageIndex":17,"items":[{"name":"신아문구팬시","tel":"031-797-5737","addr":"경기도 광주시 송정동 68-9번지","indutype":"서적문구 - 문구용품","category":"other"},{"name":"와이비 커피랩(YB CoffeeLAB)","tel":"031-716-3336","addr":"경기도 광주시 송정동 68-9번지 1층","indutype":"문화.취미 - 문화취미기타","category":"other"}]},{"lat":"37.41652695","long":"127.2543134","imageIndex":17,"items":[{"name":"신일타임캡슐","tel":"031-767-1503","addr":"경기도 광주시 송정동 116-5번지 1층","indutype":"건축자재 - 목재·석재·철물","category":"other"},{"name":"효선전기조명","tel":"031-766-8338","addr":"경기도 광주시 송정동 116-5번지","indutype":"건축자재 - 조명기구","category":"other"}]},{"lat":"37.42952749","long":"127.2589439","imageIndex":17,"items":[{"name":"신한건축사사무소","tel":"031-798-5700","addr":"경기도 광주시 송정동 406-2번지","indutype":"용역 서비스 - 사무서비스","category":"other"}]},{"lat":"37.42828095","long":"127.2603971","imageIndex":17,"items":[{"name":"썬데이핑퐁클럽","tel":"","addr":"경기도 광주시 송정동 407-51번지 브론즈빌 3층 301호","indutype":"용역 서비스 - 종합용역","category":"other"}]},{"lat":"37.42861361","long":"127.2607259","imageIndex":17,"items":[{"name":"씨엠(CM)정보통신","tel":"031-8153-7481","addr":"경기도 광주시 송정동 407-40번지 103호 에코하임III","indutype":"사무통신 - 통신기기","category":"other"}]},{"lat":"37.41677534","long":"127.2518969","imageIndex":17,"items":[{"name":"씨유광주경안점","tel":"031-764-7122","addr":"경기도 광주시 송정동 577번지","indutype":"유통업 영리 - 편 의 점","category":"other"}]},{"lat":"37.41586167","long":"127.2619813","imageIndex":17,"items":[{"name":"씨유광주경화점","tel":"031-898-6568","addr":"경기도 광주시 송정동 70-4번지 1층","indutype":"유통업 영리 - 편 의 점","category":"other"},{"name":"크린토피아 경화여고점","tel":"031-798-7660","addr":"경기도 광주시 송정동 70-4번지 105호","indutype":"수리서비스 - 세탁소","category":"other"}]},{"lat":"37.42850112","long":"127.2585902","imageIndex":17,"items":[{"name":"씨유광주밀목점","tel":"031-8028-9304","addr":"경기도 광주시 송정동 395-13번지 태현빌딩 1층","indutype":"유통업 영리 - 편 의 점","category":"other"}]},{"lat":"37.41638695","long":"127.2565835","imageIndex":17,"items":[{"name":"씨유광주훼미리점","tel":"031-761-7077","addr":"경기도 광주시 송정동 111-10번지","indutype":"유통업 영리 - 편 의 점","category":"other"}]},{"lat":"37.41472825","long":"127.2611415","imageIndex":17,"items":[{"name":"아름다운꽃집","tel":"031-767-2988","addr":"경기도 광주시 송정동 507-36번지","indutype":"문화.취미 - 화원","category":"other"}]},{"lat":"37.41647048","long":"127.2717885","imageIndex":17,"items":[{"name":"아이다 전자담배 경기광주점","tel":"031-797-1097","addr":"경기도 광주시 송정동 575번지 송정우림필유 112-1","indutype":"기타 - 기타 전문점","category":"other"}]},{"lat":"37.42652918","long":"127.2580073","imageIndex":17,"items":[{"name":"아이언몰","tel":"031-764-0066","addr":"경기도 광주시 송정동 302-29번지","indutype":"건축자재 - 기타건축자재","category":"other"}]},{"lat":"37.4153893","long":"127.2596188","imageIndex":17,"items":[{"name":"아트퀸(경기광주센타)","tel":"","addr":"경기도 광주시 송정동 507-11번지 2층","indutype":"의류 - 내의판매","category":"other"}]},{"lat":"37.4288321","long":"127.2512589","imageIndex":17,"items":[{"name":"알드(A.L.D.)나노테크","tel":"","addr":"경기도 광주시 송정동 362-19번지 4층 401호","indutype":"건축자재 - 기타건축자재","category":"other"}]},{"lat":"37.41982059","long":"127.2764208","imageIndex":17,"items":[{"name":"알뜰장","tel":"031-386-4571","addr":"경기도 광주시 송정동 573번지 금강펜테리움1단지","indutype":"회원제형태 - 기타1","category":"other"}]},{"lat":"37.42683595","long":"127.2493091","imageIndex":17,"items":[{"name":"에듀바비성남수정지사","tel":"02-1522-0701","addr":"경기도 광주시 송정동 350-78번지 퀸스타운","indutype":"용역 서비스 - 사무서비스","category":"other"},{"name":"주식회사 네이슨랩","tel":"031-000-0000","addr":"경기도 광주시 송정동 350-78번지 퀸스타운 109동 401호","indutype":"용역 서비스 - 소프트웨어","category":"other"}]},{"lat":"37.42703106","long":"127.2550603","imageIndex":17,"items":[{"name":"예원어패럴","tel":"031-761-8926","addr":"경기도 광주시 송정동 340-1번지","indutype":"의류 - 정장","category":"other"}]},{"lat":"37.41608363","long":"127.2551704","imageIndex":17,"items":[{"name":"와이지 식기세척기","tel":"031-796-2554","addr":"경기도 광주시 송정동 113-48번지 1층","indutype":"주방용구 - 주방용구","category":"other"}]},{"lat":"37.41816602","long":"127.2750027","imageIndex":17,"items":[{"name":"원","tel":"","addr":"경기도 광주시 송정동 574번지 금강펜테리움2단지","indutype":"의류 - 정장","category":"other"}]},{"lat":"37.42650148","long":"127.249839","imageIndex":17,"items":[{"name":"원에어컨","tel":"031-797-0711","addr":"경기도 광주시 송정동 350-29번지 덕인맨션 102동 201호","indutype":"용역 서비스 - 기타용역서비스","category":"other"}]},{"lat":"37.41463875","long":"127.2567018","imageIndex":17,"items":[{"name":"원주류할인매장","tel":"031-765-7080","addr":"경기도 광주시 송정동 592-8번지","indutype":"기타 - 기타 전문점","category":"other"},{"name":"태준상회","tel":"031-797-2993","addr":"경기도 광주시 송정동 592-8번지","indutype":"신변잡화 - 기타잡화","category":"other"}]},{"lat":"37.42369146","long":"127.2578056","imageIndex":17,"items":[{"name":"월드하우징","tel":"031-765-0009","addr":"경기도 광주시 송정동 313-3,313-14","indutype":"건축자재 - 기타건축자재","category":"other"}]},{"lat":"37.41860842","long":"127.2584436","imageIndex":17,"items":[{"name":"웰슨 일렉트로닉스(WELSON Electronics)","tel":"031-769-0580","addr":"경기도 광주시 송정동 137-13번지 1층","indutype":"기타 - 기계공구","category":"other"}]},{"lat":"37.43044457","long":"127.2598396","imageIndex":17,"items":[{"name":"유니언스틸","tel":"","addr":"경기도 광주시 송정동 426-29번지 4층","indutype":"용역 서비스 - 종합용역","category":"other"}]},{"lat":"37.41683098","long":"127.2637016","imageIndex":17,"items":[{"name":"유유자적","tel":"","addr":"경기도 광주시 송정동 78-1번지 삼성그린빌2차","indutype":"문화.취미 - 민예·공예품","category":"other"}]},{"lat":"37.42910797","long":"127.2571122","imageIndex":17,"items":[{"name":"이대식세무회계사무소","tel":"031-765-2354","addr":"경기도 광주시 송정동 388-1번지","indutype":"용역 서비스 - 법률회계서비스(개인)","category":"other"},{"name":"주식회사 유아이메디텍","tel":"031-769-4456","addr":"경기도 광주시 송정동 388-1번지 502호","indutype":"서적문구 - 과학기자재","category":"other"}]},{"lat":"37.41725615","long":"127.2749429","imageIndex":17,"items":[{"name":"이엠이(EME)","tel":"","addr":"경기도 광주시 송정동 6-16번지","indutype":"레져용품 - 스포츠·레져용품","category":"other"}]},{"lat":"37.41647615","long":"127.2570017","imageIndex":17,"items":[{"name":"이종찬세무사사무소","tel":"031-763-9100","addr":"경기도 광주시 송정동 110-8번지","indutype":"용역 서비스 - 법률회계서비스(개인)","category":"other"}]},{"lat":"37.41479183","long":"127.2650049","imageIndex":17,"items":[{"name":"인천공항콜밴","tel":"02-356-8956","addr":"경기도 광주시 송정동 93-4번지 일승테크빌","indutype":"여행 - 기타교통수단","category":"other"}]},{"lat":"37.42624885","long":"127.2584809","imageIndex":17,"items":[{"name":"일심종합상사","tel":"031-765-1544","addr":"경기도 광주시 송정동 302-7","indutype":"건축자재 - 보일러·펌프·샷시","category":"other"}]},{"lat":"37.41488738","long":"127.2625314","imageIndex":17,"items":[{"name":"전국종합공사","tel":"031-633-2604","addr":"경기도 광주시 송정동 90-21","indutype":"건축자재 - 유리","category":"other"}]},{"lat":"37.41463773","long":"127.2571763","imageIndex":17,"items":[{"name":"정성크린","tel":"031-769-7718","addr":"경기도 광주시 송정동 594-4번지","indutype":"용역 서비스 - 종합용역","category":"other"}]},{"lat":"37.41683537","long":"127.2617022","imageIndex":17,"items":[{"name":"정우티앤씨 주식회사","tel":"031-8028-9300","addr":"경기도 광주시 송정동 72-4번지 행운빌 201호","indutype":"유통업 영리 - 기타유통업","category":"other"}]},{"lat":"37.41658771","long":"127.2717437","imageIndex":17,"items":[{"name":"제이모바일","tel":"070-7470-3080","addr":"경기도 광주시 송정동 575번지 송정우림필유 104동 1001호","indutype":"사무통신 - 통신기기","category":"other"}]},{"lat":"37.41569928","long":"127.2537233","imageIndex":17,"items":[{"name":"제일ENG","tel":"031-798-7730","addr":"경기도 광주시 송정동 583-4번지 1층 1호","indutype":"수리서비스 - 가정용품수리","category":"other"}]},{"lat":"37.41586235","long":"127.2533058","imageIndex":17,"items":[{"name":"제일페인트","tel":"031-765-7704","addr":"경기도 광주시 송정동 581-5번지","indutype":"건축자재 - 페인트","category":"other"}]},{"lat":"37.41519457","long":"127.2580028","imageIndex":17,"items":[{"name":"주식회사 신일애드","tel":"031-797-7683","addr":"경기도 광주시 송정동 101-15번지","indutype":"용역 서비스 - 종합용역","category":"other"}]},{"lat":"37.41417266","long":"127.2597502","imageIndex":17,"items":[{"name":"주식회사디지털에이치피 광주지점","tel":"031-767-9229","addr":"경기도 광주시 송정동 100-113번지","indutype":"사무통신 - 컴퓨터","category":"other"}]},{"lat":"37.41555803","long":"127.2607489","imageIndex":17,"items":[{"name":"준수골재철물","tel":"031-798-9155","addr":"경기도 광주시 송정동 71-2","indutype":"건축자재 - 목재·석재·철물","category":"other"}]},{"lat":"37.4153934","long":"127.257721","imageIndex":17,"items":[{"name":"지건프로젝트(Gsun Project)","tel":"","addr":"경기도 광주시 송정동 101-12번지 1층 103호","indutype":"광학제품 - 사진관","category":"other"}]},{"lat":"37.4143116","long":"127.2579998","imageIndex":17,"items":[{"name":"지에스펫","tel":"031-764-1915","addr":"경기도 광주시 송정동 100-93번지 203호","indutype":"문화.취미 - 애완동물","category":"other"},{"name":"플러스상사","tel":"031-788-8234","addr":"경기도 광주시 송정동 100-93번지 송정동,성원타운 201동 201호","indutype":"건축자재 - 보일러·펌프·샷시","category":"other"}]},{"lat":"37.41808375","long":"127.2552223","imageIndex":17,"items":[{"name":"지은공사","tel":"","addr":"경기도 광주시 송정동 122-33번지 황제빌라 402호","indutype":"용역 서비스 - 기타용역서비스","category":"other"}]},{"lat":"37.41619596","long":"127.2615644","imageIndex":17,"items":[{"name":"지인인테리어","tel":"031-699-3580","addr":"경기도 광주시 송정동 72-13번지","indutype":"건축자재 - 인테리어전문","category":"other"}]},{"lat":"37.41744619","long":"127.2745821","imageIndex":17,"items":[{"name":"진영전기조명","tel":"031-762-1257","addr":"경기도 광주시 송정동 8-7번지 102호","indutype":"전기제품 - 기타전기제품","category":"other"}]},{"lat":"37.42771828","long":"127.258113","imageIndex":17,"items":[{"name":"최기조행정사사무소","tel":"031-8028-4118","addr":"경기도 광주시 송정동 392-1번지 설우빌딩 2층","indutype":"용역 서비스 - 법률회계서비스(개인)","category":"other"},{"name":"퍼센스","tel":"031-797-8888","addr":"경기도 광주시 송정동 392-1번지 설우빌딩 104호","indutype":"가구 - 일반가구","category":"other"},{"name":"현종합장식","tel":"031-761-0482","addr":"경기도 광주시 송정동 392-1번지","indutype":"건축자재 - 인테리어전문","category":"other"}]},{"lat":"37.42847156","long":"127.2597538","imageIndex":17,"items":[{"name":"캐리어에어컨경기광주센타","tel":"031-791-8282","addr":"경기도 광주시 송정동 407-32번지","indutype":"전기제품 - 가전제품","category":"other"}]},{"lat":"37.42838543","long":"127.2579232","imageIndex":17,"items":[{"name":"캠핑여우비","tel":"031-764-9077","addr":"경기도 광주시 송정동 298-44번지","indutype":"용역 서비스 - 종합용역","category":"other"}]},{"lat":"37.42966401","long":"127.2583117","imageIndex":17,"items":[{"name":"컴앤컴","tel":"031-763-9416","addr":"경기도 광주시 송정동 399-6번지","indutype":"서적문구 - 출판 및 인쇄물","category":"other"},{"name":"컴앤컴그래픽스주식회사","tel":"031-763-9416","addr":"경기도 광주시 송정동 399-6번지","indutype":"건축자재 - 인테리어전문","category":"other"}]},{"lat":"37.41752518","long":"127.2551979","imageIndex":17,"items":[{"name":"코리아 에어컨","tel":"031-1588-3366","addr":"경기도 광주시 송정동 122-16번지 문화주택 301호","indutype":"용역 서비스 - 기타용역서비스","category":"other"}]},{"lat":"37.41669215","long":"127.2528906","imageIndex":17,"items":[{"name":"코원테크","tel":"031-633-6308","addr":"경기도 광주시 송정동 579-2번지","indutype":"용역 서비스 - 기타용역서비스","category":"other"}]},{"lat":"37.42946864","long":"127.2611469","imageIndex":17,"items":[{"name":"코지유니온(Cozy Union)","tel":"070-4135-4308","addr":"경기도 광주시 송정동 494번지 송정전원파크빌","indutype":"가구 - 일반가구","category":"other"}]},{"lat":"37.42519463","long":"127.2500268","imageIndex":17,"items":[{"name":"크린위드","tel":"031-798-8525","addr":"경기도 광주시 송정동 350-45번지 송정낙원포레시티 108동 지하1층","indutype":"수리서비스 - 세탁소","category":"other"}]},{"lat":"37.41699779","long":"127.2736655","imageIndex":17,"items":[{"name":"크린토피아송정경안천로점","tel":"031-764-1962","addr":"경기도 광주시 송정동 8-6번지","indutype":"수리서비스 - 세탁소","category":"other"}]},{"lat":"37.41780444","long":"127.2552214","imageIndex":17,"items":[{"name":"크린하우스","tel":"031-766-8922","addr":"경기도 광주시 송정동 122-24번지 외1필지","indutype":"수리서비스 - 세탁소","category":"other"}]},{"lat":"37.41486618","long":"127.2598655","imageIndex":17,"items":[{"name":"태송가구","tel":"070-8177-0075","addr":"경기도 광주시 송정동 67-24번지 2층","indutype":"가구 - 일반가구","category":"other"}]},{"lat":"37.41433302","long":"127.2605866","imageIndex":17,"items":[{"name":"태진알미늄","tel":"031-764-5717","addr":"경기도 광주시 송정동 67-4번지 1층","indutype":"건축자재 - 목재·석재·철물","category":"other"}]},{"lat":"37.42613776","long":"127.2514195","imageIndex":17,"items":[{"name":"토슈","tel":"","addr":"경기도 광주시 송정동 350-55번지 송정낙원포레시티 204동 202호","indutype":"신변잡화 - 신발","category":"other"}]},{"lat":"37.41680585","long":"127.2545064","imageIndex":17,"items":[{"name":"티와이(TY)냉동","tel":"031-111-1111","addr":"경기도 광주시 송정동 116-10번지 목상빌라 2층 202호","indutype":"용역 서비스 - 기타용역서비스","category":"other"}]},{"lat":"37.43105807","long":"127.2635815","imageIndex":17,"items":[{"name":"폴리진","tel":"","addr":"경기도 광주시 송정동 413-99번지 로하스빌","indutype":"신변잡화 - 가방","category":"other"}]},{"lat":"37.41433941","long":"127.2576384","imageIndex":17,"items":[{"name":"플러스e","tel":"031-767-8035","addr":"경기도 광주시 송정동 100-94번지","indutype":"사무통신 - 기타 사무용품","category":"other"}]},{"lat":"37.415503","long":"127.2570323","imageIndex":17,"items":[{"name":"피엘글라스","tel":"031-797-6770","addr":"경기도 광주시 송정동 113-1번지 2층 202호","indutype":"용역 서비스 - 기타용역서비스","category":"other"}]},{"lat":"37.41619648","long":"127.2571702","imageIndex":17,"items":[{"name":"하우스터디 광주송정센터 모임공간","tel":"031-769-7790","addr":"경기도 광주시 송정동 111-1번지","indutype":"용역 서비스 - 사무서비스","category":"other"}]},{"lat":"37.41428058","long":"127.2598409","imageIndex":17,"items":[{"name":"한결상사(노루표페인트)","tel":"031-767-7781","addr":"경기도 광주시 송정동 64-24번지","indutype":"건축자재 - 페인트","category":"other"}]},{"lat":"37.41888881","long":"127.2579475","imageIndex":17,"items":[{"name":"한국정화기술(주)","tel":"031-797-5620","addr":"경기도 광주시 송정동 139-9번지 2층","indutype":"용역 서비스 - 종합용역","category":"other"}]},{"lat":"37.41700448","long":"127.254315","imageIndex":17,"items":[{"name":"한국콘텐츠뱅크(Korea contents,CO.LTD)","tel":"02-780-3797","addr":"경기도 광주시 송정동 116-2 블루스카이맨숀 402 1/","indutype":"회원제형태 - 기타4","category":"other"},{"name":"한신종합공사","tel":"031-797-3205","addr":"경기도 광주시 송정동 116-2번지 블루스카이맨션 102호","indutype":"용역 서비스 - 기타용역서비스","category":"other"}]},{"lat":"37.41625606","long":"127.2629202","imageIndex":17,"items":[{"name":"한성유통","tel":"031-768-9903","addr":"경기도 광주시 송정동 77-7 4/","indutype":"회원제형태 - 기타4","category":"other"}]},{"lat":"37.41591705","long":"127.2572258","imageIndex":17,"items":[{"name":"현대광고나염","tel":"031-764-1787","addr":"경기도 광주시 송정동 112-4번지","indutype":"용역 서비스 - 종합용역","category":"other"}]},{"lat":"37.41472807","long":"127.2570636","imageIndex":17,"items":[{"name":"현대세탁소","tel":"031-762-3193","addr":"경기도 광주시 송정동 594-5번지","indutype":"수리서비스 - 세탁소","category":"other"},{"name":"형제유리","tel":"031-760-2361","addr":"경기도 광주시 송정동 594-5번지","indutype":"건축자재 - 유리","category":"other"}]},{"lat":"37.41636116","long":"127.2560073","imageIndex":17,"items":[{"name":"황제빌딩","tel":"","addr":"경기도 광주시 송정동 113-67번지","indutype":"용역 서비스 - 부동산 중개·임대","category":"other"}]},{"lat":"37.41541784","long":"127.2547277","imageIndex":17,"items":[{"name":"후레쉬워터정수기","tel":"031-791-4461","addr":"경기도 광주시 송정동 586-1번지","indutype":"주방용구 - 정수기","category":"other"}]},{"lat":"37.42819159","long":"127.2600579","imageIndex":17,"items":[{"name":"휴식(XHUESIK)","tel":"","addr":"경기도 광주시 송정동 410-1번지 삼성하이빌 302호","indutype":"문화.취미 - 화원","category":"other"}]}]