[{"lat":"37.663573704","long":"126.83600653","imageIndex":0,"items":[{"name":"09오토파츠","tel":"031-969-4123","addr":"경기도 고양시 덕양구 주교동 564-3번지","indutype":"자동차정비 유지 - 자동차부품","category":"car"}]},{"lat":"37.660998527","long":"126.83713428","imageIndex":0,"items":[{"name":"100도","tel":"031-962-8938","addr":"경기도 고양시 덕양구 주교동 577-39번지","indutype":"자동차정비 유지 - 자동차부품","category":"car"}]},{"lat":"37.657852773","long":"126.82989969","imageIndex":0,"items":[{"name":"ACE 원당점","tel":"031-968-3534","addr":"경기도 고양시 덕양구 주교동","indutype":"자동차정비 유지 - 자동차정비","category":"car"}]},{"lat":"37.660546463","long":"126.83601331","imageIndex":0,"items":[{"name":"ARC","tel":"031-966-2208","addr":"경기도 고양시 덕양구 주교동 577-10번지","indutype":"자동차정비 유지 - 자동차정비","category":"car"}]},{"lat":"37.662044917","long":"126.83803862","imageIndex":0,"items":[{"name":"경민세차장","tel":"070-8239-3327","addr":"경기도 고양시 덕양구 주교동 568-9번지","indutype":"자동차정비 유지 - 세차장","category":"car"},{"name":"경민카서비스","tel":"031-965-8257","addr":"경기도 고양시 덕양구 주교동 568-9번지","indutype":"자동차정비 유지 - 자동차정비","category":"car"}]},{"lat":"37.658045212","long":"126.83212045","imageIndex":0,"items":[{"name":"노상1권역 공영주차장/성지상사","tel":"02-2625-3838","addr":"경기도 고양시 덕양구 주교동 600번지","indutype":"자동차정비 유지 - 주차장","category":"car"}]},{"lat":"37.657686477","long":"126.83326587","imageIndex":0,"items":[{"name":"달인모터스","tel":"031-962-8052","addr":"경기도 고양시 덕양구 주교동 599-26번지","indutype":"자동차정비 유지 - 자동차부품","category":"car"},{"name":"달인손세차","tel":"","addr":"경기도 고양시 덕양구 주교동 599-26번지","indutype":"자동차정비 유지 - 세차장","category":"car"}]},{"lat":"37.657906432","long":"126.82962758","imageIndex":0,"items":[{"name":"대송카","tel":"031-966-5522","addr":"경기도 고양시 덕양구 주교동 252-6번지","indutype":"자동차정비 유지 - 카인테리어","category":"car"}]},{"lat":"37.658853386","long":"126.83653841","imageIndex":0,"items":[{"name":"대원상사","tel":"031-966-3106","addr":"경기도 고양시 덕양구 주교동 618-3번지","indutype":"자동차정비 유지 - 자동차부품","category":"car"}]},{"lat":"37.656968728","long":"126.82915379","imageIndex":0,"items":[{"name":"동아차유리","tel":"031-965-5637","addr":"경기도 고양시 덕양구 주교동 197-2번지","indutype":"자동차정비 유지 - 자동차부품","category":"car"}]},{"lat":"37.662576597","long":"126.83811678","imageIndex":0,"items":[{"name":"동일카인테리어","tel":"031-963-0006","addr":"경기도 고양시 덕양구 주교동 568-3번지","indutype":"자동차정비 유지 - 카인테리어","category":"car"}]},{"lat":"37.666714042","long":"126.83317733","imageIndex":0,"items":[{"name":"레드 모터스","tel":"031-111-1111","addr":"경기도 고양시 덕양구 주교동 378-1번지","indutype":"자동차정비 유지 - 자동차부품","category":"car"}]},{"lat":"37.660466353","long":"126.83670481","imageIndex":0,"items":[{"name":"마스타","tel":"031-964-5882","addr":"경기도 고양시 덕양구 주교동 577-26번지","indutype":"자동차정비 유지 - 자동차정비","category":"car"},{"name":"한국지엠원당바로써비스","tel":"031-969-8255","addr":"경기도 고양시 덕양구 주교동 577-26번지","indutype":"자동차정비 유지 - 자동차정비","category":"car"}]},{"lat":"37.65507459","long":"126.82773034","imageIndex":0,"items":[{"name":"모든모터스","tel":"031-964-8059","addr":"경기도 고양시 덕양구 주교동 190-5번지","indutype":"자동차정비 유지 - 자동차정비","category":"car"}]},{"lat":"37.659409865","long":"126.83504122","imageIndex":0,"items":[{"name":"미래종합운수","tel":"031-965-9669","addr":"경기도 고양시 덕양구 주교동 584-1번지","indutype":"자동차정비 유지 - 견인서비스","category":"car"}]},{"lat":"37.664386488","long":"126.83736476","imageIndex":0,"items":[{"name":"세아세차","tel":"","addr":"경기도 고양시 덕양구 주교동 558번지 대당빌라","indutype":"자동차정비 유지 - 세차장","category":"car"}]},{"lat":"37.659157821","long":"126.83520045","imageIndex":0,"items":[{"name":"송포카센타","tel":"031-966-5835","addr":"경기도 고양시 덕양구 주교동 584-10번지","indutype":"자동차정비 유지 - 자동차정비","category":"car"},{"name":"스피드메이트","tel":"031-968-0366","addr":"경기도 고양시 덕양구 주교동 584-10번지","indutype":"자동차정비 유지 - 자동차정비","category":"car"},{"name":"차나라","tel":"031-962-4445","addr":"경기도 고양시 덕양구 주교동 584-10번지","indutype":"자동차정비 유지 - 카인테리어","category":"car"}]},{"lat":"37.656046182","long":"126.83289564","imageIndex":0,"items":[{"name":"스피드메이트덕양원당점","tel":"031-966-0303","addr":"경기도 고양시 덕양구 주교동 608번지","indutype":"자동차정비 유지 - 자동차정비","category":"car"},{"name":"효성전기","tel":"031-964-3772","addr":"경기도 고양시 덕양구 주교동 608번지","indutype":"자동차판매 - 이륜차판매","category":"car"}]},{"lat":"37.659661182","long":"126.83437201","imageIndex":0,"items":[{"name":"신영공조부품","tel":"031-969-7778","addr":"경기도 고양시 덕양구 주교동 583-10번지","indutype":"자동차정비 유지 - 자동차부품","category":"car"}]},{"lat":"37.658241814","long":"126.8373104","imageIndex":0,"items":[{"name":"신창카센타","tel":"031-965-5242","addr":"경기도 고양시 덕양구 주교동","indutype":"자동차정비 유지 - 카인테리어","category":"car"}]},{"lat":"37.65801619","long":"126.83703892","imageIndex":0,"items":[{"name":"신현대카케어센타","tel":"031-964-5882","addr":"경기도 고양시 덕양구 주교동 620-8번지","indutype":"자동차정비 유지 - 자동차정비","category":"car"},{"name":"천일오토","tel":"031-967-1995","addr":"경기도 고양시 덕양구 주교동 620-8번지","indutype":"자동차정비 유지 - 자동차정비","category":"car"}]},{"lat":"37.657273819","long":"126.8345134","imageIndex":0,"items":[{"name":"쌍용서비스프라자덕양코너","tel":"031-964-5582","addr":"경기도 고양시 덕양구 주교동 612-6번지","indutype":"자동차정비 유지 - 자동차정비","category":"car"}]},{"lat":"37.655829755","long":"126.83276014","imageIndex":0,"items":[{"name":"애견&세차","tel":"031-965-0651","addr":"경기도 고양시 덕양구 주교동 608-5번지","indutype":"자동차정비 유지 - 세차장","category":"car"}]},{"lat":"37.655913782","long":"126.83481111","imageIndex":0,"items":[{"name":"원당세차장","tel":"031-968-9534","addr":"경기도 고양시 덕양구 주교동 610-5번지","indutype":"자동차정비 유지 - 세차장","category":"car"}]},{"lat":"37.661160956","long":"126.83731525","imageIndex":0,"items":[{"name":"웰폼출장세차","tel":"031-967-6911","addr":"경기도 고양시 덕양구 주교동 569-7번지","indutype":"자동차정비 유지 - 세차장","category":"car"}]},{"lat":"37.658295621","long":"126.83083928","imageIndex":0,"items":[{"name":"주교점현대자동차","tel":"031-962-1343","addr":"경기도 고양시 덕양구 주교동 594-12번지","indutype":"자동차정비 유지 - 자동차정비","category":"car"}]},{"lat":"37.657020607","long":"126.82768044","imageIndex":0,"items":[{"name":"진주모터스","tel":"031-971-9343","addr":"경기도 고양시 덕양구 주교동 215번지","indutype":"자동차정비 유지 - 자동차시트·타이어","category":"car"}]},{"lat":"37.65702043","long":"126.83373202","imageIndex":0,"items":[{"name":"철다리주차장","tel":"031-818-8667","addr":"경기도 고양시 덕양구 주교동","indutype":"자동차정비 유지 - 주차장","category":"car"}]},{"lat":"37.656407253","long":"126.83337078","imageIndex":0,"items":[{"name":"출장밧데리","tel":"","addr":"경기도 고양시 덕양구 주교동 611-9번지","indutype":"자동차정비 유지 - 자동차부품","category":"car"}]},{"lat":"37.653967211","long":"126.82229353","imageIndex":0,"items":[{"name":"충남자동차공업사","tel":"031-967-1196","addr":"경기도 고양시 덕양구 주교동 990번지","indutype":"자동차정비 유지 - 자동차정비","category":"car"}]},{"lat":"37.662405762","long":"126.83836649","imageIndex":0,"items":[{"name":"카올","tel":"031-967-1244","addr":"경기도 고양시 덕양구 주교동 568-14번지","indutype":"자동차정비 유지 - 자동차부품","category":"car"}]},{"lat":"37.657632066","long":"126.82687438","imageIndex":0,"items":[{"name":"타이어프로원당점","tel":"031-962-9442","addr":"경기도 고양시 덕양구 주교동 218-7번지","indutype":"자동차정비 유지 - 자동차시트·타이어","category":"car"}]},{"lat":"37.660575722","long":"126.82520147","imageIndex":0,"items":[{"name":"태진전자2","tel":"031-971-1566","addr":"경기도 고양시 덕양구 주교동 529-25번지","indutype":"자동차정비 유지 - 자동차부품","category":"car"},{"name":"한국타이어신화판매(주)","tel":"031-966-7722","addr":"경기도 고양시 덕양구 주교동 529-25번지","indutype":"자동차정비 유지 - 자동차시트·타이어","category":"car"}]},{"lat":"37.658020664","long":"126.83384308","imageIndex":0,"items":[{"name":"토탈오일교환전문점","tel":"031-968-6191","addr":"경기도 고양시 덕양구 주교동 599-8번지","indutype":"자동차정비 유지 - 윤활유 전문 판매","category":"car"}]},{"lat":"37.663693404","long":"126.83151817","imageIndex":0,"items":[{"name":"한일정비고","tel":"","addr":"경기도 고양시 덕양구 주교동 303-5번지 그린힐타운","indutype":"자동차정비 유지 - 자동차시트·타이어","category":"car"}]}]