[{"lat":"37.00980372","long":"127.27304578","imageIndex":17,"items":[{"name":"경기도장애인협회안성시지회","tel":"031-671-0015","addr":"경기도 안성시 구포동 38번지","indutype":"사무통신 - 기타 사무용품","category":"other"}]},{"lat":"37.01088394","long":"127.27351027","imageIndex":17,"items":[{"name":"디자인클립","tel":"031-671-0411","addr":"경기도 안성시 구포동 7번지","indutype":"건축자재 - 인테리어전문","category":"other"}]},{"lat":"37.008742793","long":"127.27201958","imageIndex":17,"items":[{"name":"바이걸","tel":"031-675-4219","addr":"경기도 안성시 구포동 117번지 1층 101호","indutype":"의류 - 정장","category":"other"}]},{"lat":"37.009607708","long":"127.27206758","imageIndex":17,"items":[{"name":"세븐일레븐안성초등점","tel":"","addr":"경기도 안성시 구포동 73번지","indutype":"유통업 영리 - 편 의 점","category":"other"},{"name":"세븐일레븐안성초등점","tel":"031-1577-0711","addr":"경기도 안성시 구포동 73번지","indutype":"유통업 영리 - 편 의 점","category":"other"}]},{"lat":"37.01049945","long":"127.27220555","imageIndex":17,"items":[{"name":"세중정보","tel":"031-676-4708","addr":"경기도 안성시 구포동 23번지","indutype":"사무통신 - 컴퓨터","category":"other"}]},{"lat":"37.012886897","long":"127.27237128","imageIndex":17,"items":[{"name":"슬기공방","tel":"031-000-0000","addr":"경기도 안성시 구포동 174-25번지","indutype":"문화.취미 - 문화취미기타","category":"other"}]},{"lat":"37.010472163","long":"127.27231781","imageIndex":17,"items":[{"name":"예스플러스안성구포점","tel":"031-673-4004","addr":"경기도 안성시 구포동 23-1번지","indutype":"서적문구 - 문구용품","category":"other"}]},{"lat":"37.010244496","long":"127.27337317","imageIndex":17,"items":[{"name":"우리측량설계사무소","tel":"031-671-0106","addr":"경기도 안성시 구포동 15-1번지 1층","indutype":"용역 서비스 - 사무서비스","category":"other"}]},{"lat":"37.008554284","long":"127.27170432","imageIndex":17,"items":[{"name":"전자담배","tel":"031-672-9996","addr":"경기도 안성시 구포동 119-2번지","indutype":"기타 - 기타 전문점","category":"other"}]},{"lat":"37.010578016","long":"127.27331818","imageIndex":17,"items":[{"name":"주식회사원무역","tel":"031-674-7395","addr":"경기도 안성시 구포동 10-1번지","indutype":"유통업 영리 - 기타유통업","category":"other"}]},{"lat":"37.010408527","long":"127.27256478","imageIndex":17,"items":[{"name":"평안","tel":"031-677-3697","addr":"경기도 안성시 구포동 21번지 3층 302호","indutype":"서적문구 - 일반서적","category":"other"}]}]