[{"lat":"37.360117344","long":"127.05705201","imageIndex":4,"items":[{"name":"(주)그린프로방스(강산애)","tel":"031-262-8090","addr":"경기도 용인시 수지구 고기동 222번지","indutype":"일반휴게음식 - 일반한식","category":"restaurant"},{"name":"슈파인커피컴퍼니(Supine coffee company)","tel":"031-264-9835","addr":"경기도 용인시 수지구 고기동 222번지 2층","indutype":"일반휴게음식 - 서양음식","category":"restaurant"},{"name":"행가집(주)농협안심한우 고기동점","tel":"031-264-2727","addr":"경기도 용인시 수지구 고기동 222번지","indutype":"일반휴게음식 - 일반한식","category":"restaurant"}]},{"lat":"37.360396157","long":"127.05813584","imageIndex":4,"items":[{"name":"1819(일팔일구)","tel":"031-262-1819","addr":"경기도 용인시 수지구 고기동 220-11번지 1-2층","indutype":"일반휴게음식 - 일반한식","category":"restaurant"}]},{"lat":"37.358336595","long":"127.06841726","imageIndex":4,"items":[{"name":"Prizm 프리즘","tel":"031-261-1070","addr":"경기도 용인시 수지구 고기동 102-2번지","indutype":"일반휴게음식 - 일반한식","category":"restaurant"}]},{"lat":"37.358370358","long":"127.05486098","imageIndex":4,"items":[{"name":"가야","tel":"031-263-6665","addr":"경기도 용인시 수지구 고기동 214-1번지","indutype":"일반휴게음식 - 일반한식","category":"restaurant"}]},{"lat":"37.359644329","long":"127.04605745","imageIndex":4,"items":[{"name":"개울가에핀야생화꽃집","tel":"031-265-0085","addr":"경기도 용인시 수지구 고기동 470번지","indutype":"일반휴게음식 - 일반한식","category":"restaurant"}]},{"lat":"37.363336265","long":"127.05177142","imageIndex":4,"items":[{"name":"고기리금잔디","tel":"031-261-4449","addr":"경기도 용인시 수지구 고기동 478-9번지","indutype":"일반휴게음식 - 일반한식","category":"restaurant"}]},{"lat":"37.355672162","long":"127.04230785","imageIndex":4,"items":[{"name":"고기리농원","tel":"031-262-6733","addr":"경기도 용인시 수지구 고기동 626-4번지","indutype":"일반휴게음식 - 일반한식","category":"restaurant"}]},{"lat":"37.359086345","long":"127.04425111","imageIndex":4,"items":[{"name":"고기리막국수 주식회사","tel":"031-263-1107","addr":"경기도 용인시 수지구 고기동 439-1번지","indutype":"일반휴게음식 - 일반한식","category":"restaurant"}]},{"lat":"37.354893572","long":"127.05221742","imageIndex":4,"items":[{"name":"고기리숯가마식당","tel":"031-272-1744","addr":"경기도 용인시 수지구 고기동 269-6","indutype":"일반휴게음식 - 일반한식","category":"restaurant"}]},{"lat":"37.358778829","long":"127.06707442","imageIndex":4,"items":[{"name":"고기리쉼터","tel":"031-263-5573","addr":"경기도 용인시 수지구 고기동 109-1번지","indutype":"일반휴게음식 - 일반한식","category":"restaurant"}]},{"lat":"37.35489388","long":"127.05147248","imageIndex":4,"items":[{"name":"광교산장","tel":"031-261-4555","addr":"경기도 용인시 수지구 고기동 268-1번지","indutype":"일반휴게음식 - 일반한식","category":"restaurant"}]},{"lat":"37.358865966","long":"127.05474844","imageIndex":4,"items":[{"name":"귀래정","tel":"031-263-8266","addr":"경기도 용인시 수지구 고기동 755-11번지","indutype":"일반휴게음식 - 일반한식","category":"restaurant"}]},{"lat":"37.359730939","long":"127.05474904","imageIndex":4,"items":[{"name":"나드리김밥국수","tel":"031-272-3391","addr":"경기도 용인시 수지구 고기동 224-1번지 1층 2호","indutype":"일반휴게음식 - 일반한식","category":"restaurant"}]},{"lat":"37.359951929","long":"127.04246812","imageIndex":4,"items":[{"name":"나무수작카페","tel":"031-266-9237","addr":"경기도 용인시 수지구 고기동 445-1번지","indutype":"일반휴게음식 - 서양음식","category":"restaurant"}]},{"lat":"37.357253903","long":"127.0529978","imageIndex":4,"items":[{"name":"나인패치","tel":"031-896-1979","addr":"경기도 용인시 수지구 고기동 249-6번지","indutype":"일반휴게음식 - 일반한식","category":"restaurant"}]},{"lat":"37.359419752","long":"127.04416099","imageIndex":4,"items":[{"name":"남수원","tel":"031-262-5322","addr":"경기도 용인시 수지구 고기동 449-2번지","indutype":"일반휴게음식 - 일반한식","category":"restaurant"}]},{"lat":"37.359005206","long":"127.04438651","imageIndex":4,"items":[{"name":"다닐목","tel":"031-261-1711","addr":"경기도 용인시 수지구 고기동 450번지 1층","indutype":"일반휴게음식 - 일반한식","category":"restaurant"}]},{"lat":"37.361865759","long":"127.0292734","imageIndex":4,"items":[{"name":"대왕골","tel":"031-276-8334","addr":"경기도 용인시 수지구 고기동 741번지","indutype":"일반휴게음식 - 일반한식","category":"restaurant"}]},{"lat":"37.351478967","long":"127.07002526","imageIndex":4,"items":[{"name":"더 아티산(The Artisan)","tel":"","addr":"경기도 용인시 수지구 고기동 17-8번지","indutype":"일반휴게음식 - 일반한식","category":"restaurant"}]},{"lat":"37.357281639","long":"127.05130471","imageIndex":4,"items":[{"name":"돌담집","tel":"031-261-4096","addr":"경기도 용인시 수지구 고기동 243-1번지","indutype":"일반휴게음식 - 일반한식","category":"restaurant"}]},{"lat":"37.359863378","long":"127.06060747","imageIndex":4,"items":[{"name":"들꽃가마솥곰탕","tel":"031-262-3770","addr":"경기도 용인시 수지구 고기동 196-4번지 1층","indutype":"일반휴게음식 - 일반한식","category":"restaurant"}]},{"lat":"37.357392727","long":"127.04341491","imageIndex":4,"items":[{"name":"뜰사랑3관","tel":"031-1111-1111","addr":"경기도 용인시 수지구 고기동 411-1번지 A동","indutype":"일반휴게음식 - 일반한식","category":"restaurant"}]},{"lat":"37.354315935","long":"127.07216101","imageIndex":4,"items":[{"name":"러벤코티","tel":"031-272-8877","addr":"경기도 용인시 수지구 고기동 44-8번지 1층 한백골프클럽내식당","indutype":"일반휴게음식 - 일반한식","category":"restaurant"},{"name":"테로세","tel":"031-261-1964","addr":"경기도 용인시 수지구 고기동 44-8번지 1층","indutype":"일반휴게음식 - 서양음식","category":"restaurant"}]},{"lat":"37.360503032","long":"127.03775009","imageIndex":4,"items":[{"name":"리움(Leeum)","tel":"031-896-0831","addr":"경기도 용인시 수지구 고기동 600번지","indutype":"일반휴게음식 - 일반한식","category":"restaurant"}]},{"lat":"37.359004043","long":"127.04758091","imageIndex":4,"items":[{"name":"멜린다(Melinda Gourmet)","tel":"031-272-0473","addr":"경기도 용인시 수지구 고기동 473번지","indutype":"일반휴게음식 - 서양음식","category":"restaurant"}]},{"lat":"37.359366598","long":"127.04147449","imageIndex":4,"items":[{"name":"모노캠프(MONO CAMP)","tel":"031-265-2224","addr":"경기도 용인시 수지구 고기동 587번지","indutype":"일반휴게음식 - 일반한식","category":"restaurant"},{"name":"진진","tel":"031-265-9339","addr":"경기도 용인시 수지구 고기동 587번지","indutype":"일반휴게음식 - 중국식","category":"restaurant"}]},{"lat":"37.360225299","long":"127.0574133","imageIndex":4,"items":[{"name":"모소밤부","tel":"031-548-2648","addr":"경기도 용인시 수지구 고기동 222-2번지 1층","indutype":"일반휴게음식 - 서양음식","category":"restaurant"}]},{"lat":"37.35742555","long":"127.05191432","imageIndex":4,"items":[{"name":"무릉도원","tel":"031-264-4001","addr":"경기도 용인시 수지구 고기동 245-1번지 외3필지","indutype":"일반휴게음식 - 일반한식","category":"restaurant"}]},{"lat":"37.356948814","long":"127.04993873","imageIndex":4,"items":[{"name":"별다섯커피공장/(주)별다섯","tel":"031-263-1796","addr":"경기도 용인시 수지구 고기동 240-5번지","indutype":"일반휴게음식 - 서양음식","category":"restaurant"}]},{"lat":"37.359953131","long":"127.03869801","imageIndex":4,"items":[{"name":"산골","tel":"031-261-0146","addr":"경기도 용인시 수지구 고기동 596-3번지 외3필지","indutype":"일반휴게음식 - 일반한식","category":"restaurant"}]},{"lat":"37.359700471","long":"127.06207475","imageIndex":4,"items":[{"name":"삼촌네 떡카페","tel":"031-264-0045","addr":"경기도 용인시 수지구 고기동 188-2번지 지하1층","indutype":"일반휴게음식 - 서양음식","category":"restaurant"}]},{"lat":"37.359307169","long":"127.05541472","imageIndex":4,"items":[{"name":"선한우","tel":"031-263-5555","addr":"경기도 용인시 수지구 고기동 216-12번지","indutype":"일반휴게음식 - 일반한식","category":"restaurant"}]},{"lat":"37.354731491","long":"127.07027647","imageIndex":4,"items":[{"name":"소가네","tel":"031-265-5957","addr":"경기도 용인시 수지구 고기동 40-1번지","indutype":"일반휴게음식 - 일반한식","category":"restaurant"}]},{"lat":"37.358337301","long":"127.06713048","imageIndex":4,"items":[{"name":"손의터식당","tel":"031-263-5258","addr":"경기도 용인시 수지구 고기동 112번지 1층 일부","indutype":"일반휴게음식 - 일반한식","category":"restaurant"}]},{"lat":"37.360368957","long":"127.05849703","imageIndex":4,"items":[{"name":"수리울","tel":"031-276-7533","addr":"경기도 용인시 수지구 고기동 220-1 1층,2층","indutype":"일반휴게음식 - 일반한식","category":"restaurant"},{"name":"토방","tel":"031-263-2870","addr":"경기도 용인시 수지구 고기동 220-1번지","indutype":"일반휴게음식 - 일반한식","category":"restaurant"}]},{"lat":"37.359365592","long":"127.04444315","imageIndex":4,"items":[{"name":"수피아","tel":"031-757-5757","addr":"경기도 용인시 수지구 고기동 451-4번지","indutype":"일반휴게음식 - 일반한식","category":"restaurant"}]},{"lat":"37.358561282","long":"127.05080888","imageIndex":4,"items":[{"name":"시골집","tel":"031-263-5611","addr":"경기도 용인시 수지구 고기동 산133","indutype":"일반휴게음식 - 일반한식","category":"restaurant"}]},{"lat":"37.354723437","long":"127.04961002","imageIndex":4,"items":[{"name":"아래아","tel":"031-3918-7100","addr":"경기도 용인시 수지구 고기동 259-13번지 1층","indutype":"일반휴게음식 - 일반한식","category":"restaurant"}]},{"lat":"37.360342301","long":"127.05769558","imageIndex":4,"items":[{"name":"아로스토(arrosto)","tel":"031-262-2200","addr":"경기도 용인시 수지구 고기동 220번지 지하1층","indutype":"일반휴게음식 - 서양음식","category":"restaurant"}]},{"lat":"37.3579743","long":"127.053969","imageIndex":4,"items":[{"name":"에어토랩:EROTO LAB/주식회사 에어보브","tel":"044-865-2011","addr":"경기도 용인시 수지구 고기동 248-3번지","indutype":"일반휴게음식 - 서양음식","category":"restaurant"}]},{"lat":"37.357974085","long":"127.05446564","imageIndex":4,"items":[{"name":"연탄갈비","tel":"031-263-5980","addr":"경기도 용인시 수지구 고기동 214-4번지","indutype":"일반휴게음식 - 일반한식","category":"restaurant"},{"name":"연탄갈비","tel":"031-263-5980","addr":"경기도 용인시 수지구 고기동 214-4번지","indutype":"일반휴게음식 - 일반한식","category":"restaurant"}]},{"lat":"37.36042265","long":"127.05927593","imageIndex":4,"items":[{"name":"열두화덕","tel":"031-263-1260","addr":"경기도 용인시 수지구 고기동 194번지 2층","indutype":"일반휴게음식 - 일반한식","category":"restaurant"}]},{"lat":"37.360286567","long":"127.06119476","imageIndex":4,"items":[{"name":"우리밥집","tel":"070-7719-0885","addr":"경기도 용인시 수지구 고기동 192-1번지 101,102호","indutype":"일반휴게음식 - 일반한식","category":"restaurant"}]},{"lat":"37.360395004","long":"127.06055144","imageIndex":4,"items":[{"name":"우리집","tel":"031-272-0885","addr":"경기도 용인시 수지구 고기동 192번지","indutype":"일반휴게음식 - 일반한식","category":"restaurant"}]},{"lat":"37.360281173","long":"127.05332716","imageIndex":4,"items":[{"name":"일박이일가든","tel":"031-262-5253","addr":"경기도 용인시 수지구 고기동 225-3번지","indutype":"일반휴게음식 - 일반한식","category":"restaurant"}]},{"lat":"37.358003251","long":"127.04930729","imageIndex":4,"items":[{"name":"장수식당","tel":"031-263-0057","addr":"경기도 용인시 수지구 고기동 235-1번지","indutype":"일반휴게음식 - 일반한식","category":"restaurant"}]},{"lat":"37.358973903","long":"127.05516616","imageIndex":4,"items":[{"name":"장수촌","tel":"031-262-7711","addr":"경기도 용인시 수지구 고기동 216-2번지","indutype":"일반휴게음식 - 일반한식","category":"restaurant"}]},{"lat":"37.354418582","long":"127.0456707","imageIndex":4,"items":[{"name":"주식회사산의아침","tel":"031-265-2200","addr":"경기도 용인시 수지구 고기동 379","indutype":"일반휴게음식 - 일반한식","category":"restaurant"}]},{"lat":"37.359502917","long":"127.06072007","imageIndex":4,"items":[{"name":"카르페디엠","tel":"02-276-3420","addr":"경기도 용인시 수지구 고기동 196-1번지","indutype":"일반휴게음식 - 스넥","category":"restaurant"}]},{"lat":"37.356257257","long":"127.04396737","imageIndex":4,"items":[{"name":"카페그라운드(주)","tel":"070-0000-0000","addr":"경기도 용인시 수지구 고기동 400-5번지","indutype":"일반휴게음식 - 서양음식","category":"restaurant"}]},{"lat":"37.356452512","long":"127.07013128","imageIndex":4,"items":[{"name":"커피루툼","tel":"031-265-4141","addr":"경기도 용인시 수지구 고기동 141-1","indutype":"일반휴게음식 - 서양음식","category":"restaurant"}]},{"lat":"37.353668402","long":"127.07008365","imageIndex":4,"items":[{"name":"코벤트가든","tel":"031-261-0504","addr":"경기도 용인시 수지구 고기동 30-77번지","indutype":"일반휴게음식 - 일반한식","category":"restaurant"}]},{"lat":"37.359037414","long":"127.05416161","imageIndex":4,"items":[{"name":"쿠부스 주식회사","tel":"031-265-6488","addr":"경기도 용인시 수지구 고기동 215-1번지 1층","indutype":"일반휴게음식 - 서양음식","category":"restaurant"}]},{"lat":"37.357786368","long":"127.05090998","imageIndex":4,"items":[{"name":"쿡(cook)치킨","tel":"031-262-6532","addr":"경기도 용인시 수지구 고기동 244-5번지 지하1층","indutype":"일반휴게음식 - 스넥","category":"restaurant"}]},{"lat":"37.360009412","long":"127.05663429","imageIndex":4,"items":[{"name":"테라스478","tel":"031-266-5758","addr":"경기도 용인시 수지구 고기동 223-3번지","indutype":"일반휴게음식 - 서양음식","category":"restaurant"}]},{"lat":"37.359703429","long":"127.05583264","imageIndex":4,"items":[{"name":"파인하우스","tel":"031-263-4444","addr":"경기도 용인시 수지구 고기동 216-5번지","indutype":"일반휴게음식 - 서양음식","category":"restaurant"}]},{"lat":"37.357453437","long":"127.0498036","imageIndex":4,"items":[{"name":"프리모","tel":"","addr":"경기도 용인시 수지구 고기동 235-4번지 1층","indutype":"일반휴게음식 - 서양음식","category":"restaurant"}]},{"lat":"37.360639348","long":"127.03355107","imageIndex":4,"items":[{"name":"플레이스690","tel":"070-4112-0690","addr":"경기도 용인시 수지구 고기동 690-8번지","indutype":"일반휴게음식 - 서양음식","category":"restaurant"}]},{"lat":"37.359925082","long":"127.041915","imageIndex":4,"items":[{"name":"하늘애마음애","tel":"031-266-2232","addr":"경기도 용인시 수지구 고기동 445-12번지","indutype":"일반휴게음식 - 일반한식","category":"restaurant"}]},{"lat":"37.356974483","long":"127.05324593","imageIndex":4,"items":[{"name":"해밀","tel":"031-285-5321","addr":"경기도 용인시 수지구 고기동 251-6번지 외5필지","indutype":"일반휴게음식 - 일반한식","category":"restaurant"}]},{"lat":"37.360395436","long":"127.0596597","imageIndex":4,"items":[{"name":"허브앤바움","tel":"","addr":"경기도 용인시 수지구 고기동 194-1번지","indutype":"일반휴게음식 - 서양음식","category":"restaurant"}]},{"lat":"37.361478407","long":"127.02888948","imageIndex":4,"items":[{"name":"허브향기","tel":"031-266-0664","addr":"경기도 용인시 수지구 고기동 739-2번지","indutype":"일반휴게음식 - 일반한식","category":"restaurant"}]},{"lat":"37.358064697","long":"127.05328052","imageIndex":4,"items":[{"name":"홍대의coffee","tel":"","addr":"경기도 용인시 수지구 고기동 214번지 1층","indutype":"일반휴게음식 - 서양음식","category":"restaurant"}]},{"lat":"37.360368122","long":"127.06024664","imageIndex":4,"items":[{"name":"화수분","tel":"031-264-7799","addr":"경기도 용인시 수지구 고기동 194-2번지","indutype":"일반휴게음식 - 일반한식","category":"restaurant"}]},{"lat":"37.359892403","long":"127.0563633","imageIndex":4,"items":[{"name":"황토방펜션가든","tel":"031-262-0883","addr":"경기도 용인시 수지구 고기동 223번지","indutype":"일반휴게음식 - 일반한식","category":"restaurant"}]},{"lat":"37.358365601","long":"127.06474884","imageIndex":4,"items":[{"name":"흐르는 송어처럼","tel":"031-262-3235","addr":"경기도 용인시 수지구 고기동 208-7번지 1,2층","indutype":"일반휴게음식 - 일반한식","category":"restaurant"},{"name":"흐르는 송어처럼/골드앤골드주식회사","tel":"031-262-3235","addr":"경기도 용인시 수지구 고기동 208-7번지","indutype":"일반휴게음식 - 일반한식","category":"restaurant"},{"name":"흐르는송어처럼/골드앤골드주식회사","tel":"031-262-3235","addr":"경기도 용인시 수지구 고기동 208-7번지","indutype":"일반휴게음식 - 일반한식","category":"restaurant"}]}]