[{"lat":"37.682573063","long":"126.70296494","imageIndex":4,"items":[{"name":"가마고개","tel":"031-923-9472","addr":"경기도 고양시 일산서구 구산동 1163-5번지","indutype":"일반휴게음식 - 일반한식","category":"restaurant"}]},{"lat":"37.68276056","long":"126.70229534","imageIndex":4,"items":[{"name":"고향부페","tel":"031-923-9700","addr":"경기도 고양시 일산서구 구산동 576-3번지","indutype":"일반휴게음식 - 일반한식","category":"restaurant"},{"name":"구산생고기김치찌개","tel":"","addr":"경기도 고양시 일산서구 구산동 576-3번지","indutype":"일반휴게음식 - 일반한식","category":"restaurant"},{"name":"아우내순대국","tel":"031-923-8878","addr":"경기도 고양시 일산서구 구산동 576-3번지","indutype":"일반휴게음식 - 일반한식","category":"restaurant"},{"name":"제일만두","tel":"031-921-0508","addr":"경기도 고양시 일산서구 구산동 576-3번지","indutype":"일반휴게음식 - 스넥","category":"restaurant"}]},{"lat":"37.682539787","long":"126.70405337","imageIndex":4,"items":[{"name":"구산정청국장집","tel":"031-923-2535","addr":"경기도 고양시 일산서구 구산동 1162-16번지","indutype":"일반휴게음식 - 일반한식","category":"restaurant"}]},{"lat":"37.694343583","long":"126.71173867","imageIndex":4,"items":[{"name":"대복반점","tel":"031-923-1272","addr":"경기도 고양시 일산서구 구산동 9-2번지","indutype":"일반휴게음식 - 중국식","category":"restaurant"}]},{"lat":"37.68309449","long":"126.70252072","imageIndex":4,"items":[{"name":"덕이네백반김치찜전문점","tel":"031-922-8722","addr":"경기도 고양시 일산서구 구산동 1133-18번지","indutype":"일반휴게음식 - 일반한식","category":"restaurant"}]},{"lat":"37.694961478","long":"126.71021692","imageIndex":4,"items":[{"name":"맛샘식당","tel":"031-923-2355","addr":"경기도 고양시 일산서구 구산동 240-3번지","indutype":"일반휴게음식 - 일반한식","category":"restaurant"}]},{"lat":"37.683375896","long":"126.68277134","imageIndex":4,"items":[{"name":"먹고보자","tel":"031-923-3339","addr":"경기도 고양시 일산서구 구산동 1522-1번지","indutype":"일반휴게음식 - 일반한식","category":"restaurant"}]},{"lat":"37.685764471","long":"126.68649091","imageIndex":4,"items":[{"name":"멕시칼리","tel":"02-1111-1111","addr":"경기도 고양시 일산서구 구산동 1492-1번지","indutype":"일반휴게음식 - 일반한식","category":"restaurant"},{"name":"멕시칼리(MEXICALI)","tel":"","addr":"경기도 고양시 일산서구 구산동 1492-1번지","indutype":"일반휴게음식 - 일반한식","category":"restaurant"}]},{"lat":"37.691293385","long":"126.70257836","imageIndex":4,"items":[{"name":"별미밥상","tel":"031-923-4562","addr":"경기도 고양시 일산서구 구산동 920-3번지","indutype":"일반휴게음식 - 일반한식","category":"restaurant"}]},{"lat":"37.694289636","long":"126.70457314","imageIndex":4,"items":[{"name":"쌍돼지민물매운탕","tel":"031-923-1871","addr":"경기도 고양시 일산서구 구산동 366-1번지","indutype":"일반휴게음식 - 일반한식","category":"restaurant"}]},{"lat":"37.682074372","long":"126.6947481","imageIndex":4,"items":[{"name":"여울","tel":"031-923-0058","addr":"경기도 고양시 일산서구 구산동 870번지","indutype":"일반휴게음식 - 일반한식","category":"restaurant"}]},{"lat":"37.683900661","long":"126.68027503","imageIndex":4,"items":[{"name":"옛날집","tel":"031-919-5999","addr":"경기도 고양시 일산서구 구산동 1464-4번지","indutype":"일반휴게음식 - 일반한식","category":"restaurant"}]},{"lat":"37.683156922","long":"126.70227107","imageIndex":4,"items":[{"name":"오늘은면발땡기는날","tel":"031-912-8666","addr":"경기도 고양시 일산서구 구산동 1133번지","indutype":"일반휴게음식 - 일반한식","category":"restaurant"}]},{"lat":"37.683234079","long":"126.68363352","imageIndex":4,"items":[{"name":"자유로한식부페","tel":"031-922-5255","addr":"경기도 고양시 일산서구 구산동 1522-8번지","indutype":"일반휴게음식 - 일반한식","category":"restaurant"}]},{"lat":"37.684241035","long":"126.67954801","imageIndex":4,"items":[{"name":"크래프트비어펍(Craft beer pub)","tel":"031-923-9291","addr":"경기도 고양시 일산서구 구산동 1464번지","indutype":"일반휴게음식 - 일반한식","category":"restaurant"}]},{"lat":"37.693315834","long":"126.70427091","imageIndex":4,"items":[{"name":"하나식당","tel":"031-925-5078","addr":"경기도 고양시 일산서구 구산동 376-1번지","indutype":"일반휴게음식 - 일반한식","category":"restaurant"}]},{"lat":"37.682599399","long":"126.70269276","imageIndex":4,"items":[{"name":"한마음한식뷔페 BK FOOD","tel":"031-923-8382","addr":"경기도 고양시 일산서구 구산동 1163-6번지","indutype":"일반휴게음식 - 일반한식","category":"restaurant"}]}]