[{"lat":"37.707046244","long":"127.04879833","imageIndex":17,"items":[{"name":"(주)경기개발","tel":"031-871-2238","addr":"경기도 의정부시 호원동 463-11번지 2층","indutype":"용역 서비스 - 기타용역서비스","category":"other"}]},{"lat":"37.723570674","long":"127.04663073","imageIndex":17,"items":[{"name":"(주)그린월드","tel":"031-875-8226","addr":"경기도 의정부시 호원동 50-17번지 유타상가 5층 503호","indutype":"여행 - 관광여행","category":"other"},{"name":"The Knitting","tel":"031-873-2021","addr":"경기도 의정부시 호원동 50-17번지 유타 상가 203호","indutype":"문화.취미 - 문화취미기타","category":"other"},{"name":"레아","tel":"02-1600-5441","addr":"경기도 의정부시 호원동 50-17번지 유타상가103호","indutype":"의류 - 정장","category":"other"},{"name":"레아","tel":"031-1600-5441","addr":"경기도 의정부시 호원동 50-17번지 유타 상가 103호","indutype":"의류 - 정장","category":"other"},{"name":"애드비전","tel":"031-829-2115","addr":"경기도 의정부시 호원동 50-17번지 4층402호,유타 상가","indutype":"용역 서비스 - 종합용역","category":"other"},{"name":"코코래빗회룡역점","tel":"031-874-0523","addr":"경기도 의정부시 호원동 50-17번지 유타상가103-1호","indutype":"서적문구 - 문구용품","category":"other"}]},{"lat":"37.707903114","long":"127.04626997","imageIndex":17,"items":[{"name":"(주)디에스엘이디","tel":"031-879-1437","addr":"경기도 의정부시 호원동 119-42번지","indutype":"건축자재 - 조명기구","category":"other"}]},{"lat":"37.695074153","long":"127.04421025","imageIndex":17,"items":[{"name":"(주)무지개씽크","tel":"031-876-0993","addr":"경기도 의정부시 호원동 202-11번지","indutype":"주방용구 - 주방용구","category":"other"}]},{"lat":"37.711208984","long":"127.04801838","imageIndex":17,"items":[{"name":"(주)베트남천년국제결혼","tel":"031-822-7911","addr":"경기도 의정부시 호원동 455-5번지 307호","indutype":"용역 서비스 - 혼례서비스","category":"other"},{"name":"경기호원신문","tel":"031-878-4125","addr":"경기도 의정부시 호원동 455-5번지 213호","indutype":"서적문구 - 정기간행물","category":"other"},{"name":"굿샵 호원점","tel":"031-877-9993","addr":"경기도 의정부시 호원동 455-5번지 브랜드상설매장 111호","indutype":"유통업 영리 - 편 의 점","category":"other"},{"name":"대양모피","tel":"031-877-6322","addr":"경기도 의정부시 호원동 455-5번지 305호","indutype":"직물 - 옷감·직물","category":"other"},{"name":"디자인잼","tel":"070-7590-4309","addr":"경기도 의정부시 호원동 455-5번지 브랜드상설매장 207호","indutype":"용역 서비스 - 종합용역","category":"other"},{"name":"루디아","tel":"031-879-1151","addr":"경기도 의정부시 호원동 455-5번지 112-1호 브랜드상설매장","indutype":"의류 - 정장","category":"other"},{"name":"마이더스유통","tel":"031-873-1127","addr":"경기도 의정부시 호원동 455-5번지 브랜드상설매장 104호","indutype":"의류 - 정장","category":"other"},{"name":"별애별","tel":"","addr":"경기도 의정부시 호원동 455-5번지 2층 208호","indutype":"의류 - 정장","category":"other"},{"name":"아이EYE.CCTV","tel":"070-8229-0416","addr":"경기도 의정부시 호원동 455-5번지 브랜드상성매장 B동 208-2호","indutype":"광학제품 - 기타광학제품","category":"other"},{"name":"원더로드","tel":"","addr":"경기도 의정부시 호원동 455-5번지 1층 110호","indutype":"레져용품 - 스포츠·레져용품","category":"other"},{"name":"유광일법무사사무소","tel":"031-829-4900","addr":"경기도 의정부시 호원동 455-5번지 3층 303호 브랜드상설매장","indutype":"용역 서비스 - 법률회계서비스(개인)","category":"other"},{"name":"클라이머홀릭","tel":"031-879-0877","addr":"경기도 의정부시 호원동 455-5번지 B동 114호","indutype":"레져용품 - 스포츠·레져용품","category":"other"}]},{"lat":"37.706542825","long":"127.04582691","imageIndex":17,"items":[{"name":"(주)비에이치벅스헌터","tel":"031-829-8891","addr":"경기도 의정부시 호원동 119-62번지","indutype":"용역 서비스 - 종합용역","category":"other"}]},{"lat":"37.718102772","long":"127.04407559","imageIndex":17,"items":[{"name":"(주)세훈종합건재","tel":"","addr":"경기도 의정부시 호원동 281-69번지","indutype":"건축자재 - 기타건축자재","category":"other"}]},{"lat":"37.715930654","long":"127.04632002","imageIndex":17,"items":[{"name":"(주)신성컬렉션 회룡지점","tel":"031-829-8621","addr":"경기도 의정부시 호원동 50-5번지 회룡역","indutype":"신변잡화 - 제화","category":"other"},{"name":"신영희컬렉션 회룡역점","tel":"070-4922-1261","addr":"경기도 의정부시 호원동 50-5번지 3층","indutype":"의류 - 정장","category":"other"},{"name":"토탈서비스","tel":"031-879-3888","addr":"경기도 의정부시 호원동 50-5번지","indutype":"수리서비스 - 기타수리서비스","category":"other"},{"name":"플라워피아","tel":"031-876-0079","addr":"경기도 의정부시 호원동 50-5","indutype":"문화.취미 - 화원","category":"other"}]},{"lat":"37.710155042","long":"127.04754144","imageIndex":17,"items":[{"name":"(주)예담","tel":"031-878-7845","addr":"경기도 의정부시 호원동 454-23 3,4 층(1,2층일부)","indutype":"직물 - 침구·수예점","category":"other"},{"name":"예담액자","tel":"031-836-7845","addr":"경기도 의정부시 호원동 454-23번지","indutype":"문화.취미 - 화방·표구점","category":"other"}]},{"lat":"37.706938119","long":"127.04882094","imageIndex":17,"items":[{"name":"(주)제이에이치커뮤니케이션","tel":"031-876-9574","addr":"경기도 의정부시 호원동 463-12번지 서울빌딩 4층","indutype":"용역 서비스 - 종합용역","category":"other"},{"name":"핸디맨닥터의정부점","tel":"031-825-0455","addr":"경기도 의정부시 호원동 463-12번지 서울빌딩 1층 2호","indutype":"건축자재 - 인테리어전문","category":"other"}]},{"lat":"37.709352879","long":"127.04834613","imageIndex":17,"items":[{"name":"(주)코코넛","tel":"070-7746-7746","addr":"경기도 의정부시 호원동 459번지 신일엘리시움 2층 224호","indutype":"레져용품 - 스포츠·레져용품","category":"other"},{"name":"나무정원","tel":"031-879-2838","addr":"경기도 의정부시 호원동 459번지 신일엘리시움 상가 207호","indutype":"회원제형태 - 기타4","category":"other"},{"name":"바흐의 여인","tel":"","addr":"경기도 의정부시 호원동 459번지 신일엘리시움 1층 118호","indutype":"의류 - 정장","category":"other"},{"name":"스마일자전거","tel":"031-878-5028","addr":"경기도 의정부시 호원동 459번지 124호 , 신일엘리시움상가","indutype":"레져용품 - 스포츠·레져용품","category":"other"},{"name":"주식회사 블루마블","tel":"031-837-2816","addr":"경기도 의정부시 호원동 459번지 신일엘리시움 1902호","indutype":"서적문구 - 문구용품","category":"other"},{"name":"크린토피아 코인워시 망월사역점","tel":"031-875-4571","addr":"경기도 의정부시 호원동 459번지 신일엘리시움 196호","indutype":"수리서비스 - 세탁소","category":"other"}]},{"lat":"37.707073188","long":"127.04901381","imageIndex":17,"items":[{"name":"(주)화이어캅스경기북","tel":"031-877-6119","addr":"경기도 의정부시 호원동 462-23번지","indutype":"용역 서비스 - 기타용역서비스","category":"other"}]},{"lat":"37.725650913","long":"127.04918413","imageIndex":17,"items":[{"name":"1.2.3상회","tel":"031-873-4992","addr":"경기도 의정부시 호원동 423번지","indutype":"신변잡화 - 기타잡화","category":"other"},{"name":"OK노래영상제작실","tel":"031-871-6192","addr":"경기도 의정부시 호원동 423번지 지하1층","indutype":"용역 서비스 - 종합용역","category":"other"}]},{"lat":"37.714354107","long":"127.04595617","imageIndex":17,"items":[{"name":"21세기 요양복지센터","tel":"031-837-3800","addr":"경기도 의정부시 호원동 275-2번지","indutype":"기타의료기관 - 기타의료기관 및 기타","category":"other"},{"name":"모엘르플라워","tel":"070-4042-2829","addr":"경기도 의정부시 호원동 275-2번지","indutype":"문화.취미 - 화원","category":"other"},{"name":"우정철물건재","tel":"031-872-9916","addr":"경기도 의정부시 호원동 275-2번지","indutype":"기타 - 기계공구","category":"other"}]},{"lat":"37.728373529","long":"127.04456905","imageIndex":17,"items":[{"name":"365스마트","tel":"031-875-3651","addr":"경기도 의정부시 호원동 341-48번지 좌측상가","indutype":"건축자재 - 보일러·펌프·샷시","category":"other"},{"name":"순한사","tel":"031-877-2525","addr":"경기도 의정부시 호원동 341-48번지","indutype":"회원제형태 - 기타4","category":"other"},{"name":"희망드림","tel":"070-8285-9813","addr":"경기도 의정부시 호원동 341-48번지","indutype":"신변잡화 - 기념품점","category":"other"}]},{"lat":"37.706209411","long":"127.04598548","imageIndex":17,"items":[{"name":"DS전광","tel":"031-879-1437","addr":"경기도 의정부시 호원동 226-144 , 226-146","indutype":"용역 서비스 - 종합용역","category":"other"}]},{"lat":"37.707939115","long":"127.04637205","imageIndex":17,"items":[{"name":"GS25신한대점","tel":"","addr":"경기도 의정부시 호원동 119-40번지 모아쉐르빌 1층","indutype":"유통업 영리 - 편 의 점","category":"other"}]},{"lat":"37.707821254","long":"127.04832252","imageIndex":17,"items":[{"name":"GS25의정대로점","tel":"","addr":"경기도 의정부시 호원동 460-20번지 1층","indutype":"유통업 영리 - 편 의 점","category":"other"}]},{"lat":"37.726789801","long":"127.03860164","imageIndex":17,"items":[{"name":"GS25의정범골점","tel":"","addr":"경기도 의정부시 호원동 401-1번지 1층 101호,102호","indutype":"유통업 영리 - 편 의 점","category":"other"},{"name":"연세휘트니스","tel":"031-871-8896","addr":"경기도 의정부시 호원동 401-1,4층","indutype":"회원제형태 - 레져업소","category":"other"},{"name":"태영인테리어","tel":"031-873-4124","addr":"경기도 의정부시 호원동 401-1 신도6차상가 107","indutype":"직물 - 카페트,커튼,천막,지물","category":"other"}]},{"lat":"37.706100833","long":"127.04723282","imageIndex":17,"items":[{"name":"GS25의정은빛점","tel":"","addr":"경기도 의정부시 호원동 226-1번지 1층 101~102호 (31차 진산은빛마을)","indutype":"유통업 영리 - 편 의 점","category":"other"}]},{"lat":"37.724821947","long":"127.04939913","imageIndex":17,"items":[{"name":"GS25의정한주점","tel":"","addr":"경기도 의정부시 호원동 424번지 한주5차@ 상가동 102,103호","indutype":"유통업 영리 - 편 의 점","category":"other"},{"name":"이오크린","tel":"031-323-6016","addr":"경기도 의정부시 호원동 424번지 한주5차아파트","indutype":"신변잡화 - 기타잡화","category":"other"}]},{"lat":"37.71210103","long":"127.04776942","imageIndex":17,"items":[{"name":"GS25호원가나안점","tel":"","addr":"경기도 의정부시 호원동 455번지 로뎀프라자 105호","indutype":"유통업 영리 - 편 의 점","category":"other"},{"name":"심청이 주간복지센터 (1)","tel":"031-878-5696","addr":"경기도 의정부시 호원동 455번지 로뎀프라자 4층 401호","indutype":"기타의료기관 - 기타의료기관 및 기타","category":"other"},{"name":"심청이주간복지센터","tel":"031-878-5696","addr":"경기도 의정부시 호원동 455번지 로뎀프라자 4층 401호","indutype":"기타의료기관 - 기타의료기관 및 기타","category":"other"}]},{"lat":"37.72962578","long":"127.04479662","imageIndex":17,"items":[{"name":"GS25호원두산점","tel":"","addr":"경기도 의정부시 호원동 347-1번지 호원두산@ 상가동 101,103~104호","indutype":"유통업 영리 - 편 의 점","category":"other"}]},{"lat":"37.730293334","long":"127.04234675","imageIndex":17,"items":[{"name":"GS25호원풍림점","tel":"","addr":"경기도 의정부시 호원동 351-7번지 풍림@상가 101호","indutype":"유통업 영리 - 편 의 점","category":"other"}]},{"lat":"37.724489277","long":"127.04762944","imageIndex":17,"items":[{"name":"GS25회룡광장점","tel":"","addr":"경기도 의정부시 호원동 427-1번지 1층","indutype":"유통업 영리 - 편 의 점","category":"other"}]},{"lat":"37.724516968","long":"127.04584863","imageIndex":17,"items":[{"name":"GS25회룡역점","tel":"","addr":"경기도 의정부시 호원동 51-2번지 하나프라자 104호","indutype":"유통업 영리 - 편 의 점","category":"other"},{"name":"라이솔트","tel":"031-837-4641","addr":"경기도 의정부시 호원동 51-2번지 하나프라자 503호","indutype":"문화.취미 - 티켓","category":"other"},{"name":"르베르쏘산후조리원","tel":"031-836-3001","addr":"경기도 의정부시 호원동 51-2번지 하나프라자","indutype":"기타의료기관 - 산후조리원","category":"other"},{"name":"모데스티(Modesty)","tel":"031-875-2009","addr":"경기도 의정부시 호원동 51-2번지 6층607","indutype":"회원제형태 - 서적","category":"other"},{"name":"바디핏","tel":"031-877-7631","addr":"경기도 의정부시 호원동 51-2번지 하나프라자 8층","indutype":"회원제형태 - 레져업소","category":"other"},{"name":"애기랑","tel":"031-872-2727","addr":"경기도 의정부시 호원동 51-2번지 하나프라자 506호","indutype":"광학제품 - 사진관","category":"other"},{"name":"주식회사 이자르 의정부점","tel":"031-836-3001","addr":"경기도 의정부시 호원동 51-2번지 하나프라자 7층","indutype":"기타의료기관 - 산후조리원","category":"other"},{"name":"하나프라자","tel":"031-836-6331","addr":"경기도 의정부시 호원동 51-2번지 8층","indutype":"회원제형태 - 기타1","category":"other"}]},{"lat":"37.727290843","long":"127.04870873","imageIndex":17,"items":[{"name":"J.S유통","tel":"","addr":"경기도 의정부시 호원동 416-1번지","indutype":"의류 - 내의판매","category":"other"}]},{"lat":"37.708127507","long":"127.04851549","imageIndex":17,"items":[{"name":"L&BFlower","tel":"031-878-4882","addr":"경기도 의정부시 호원동 460-13번지 엘리시아","indutype":"문화.취미 - 화원","category":"other"}]},{"lat":"37.728573522","long":"127.03918101","imageIndex":17,"items":[{"name":"LG가나인테리어","tel":"031-837-1817","addr":"경기도 의정부시 호원동 366-27번지 2층","indutype":"직물 - 카페트,커튼,천막,지물","category":"other"}]},{"lat":"37.716506402","long":"127.04861136","imageIndex":17,"items":[{"name":"MS종합상사","tel":"031-875-0341","addr":"경기도 의정부시 호원동 440-10일진해피빌105-303","indutype":"기타 - 기타 전문점","category":"other"}]},{"lat":"37.721544144","long":"127.04490549","imageIndex":17,"items":[{"name":"OK에어컨","tel":"031-873-4555","addr":"경기도 의정부시 호원동 311-16,2 6/4","indutype":"회원제형태 - 기타4","category":"other"}]},{"lat":"37.715597135","long":"127.04676214","imageIndex":17,"items":[{"name":"S.G 인테리어","tel":"031-855-8539","addr":"경기도 의정부시 호원동 448-1 신도@ 상가동 112호,113호","indutype":"기타 - 기계공구","category":"other"},{"name":"신화공조","tel":"031-876-1357","addr":"경기도 의정부시 호원동 448-1번지 상가동124호,125호","indutype":"건축자재 - 기타건축자재","category":"other"}]},{"lat":"37.720741216","long":"127.04782","imageIndex":17,"items":[{"name":"가나통신","tel":"070-8254-9106","addr":"경기도 의정부시 호원동 432-7번지 한주프라자 106호","indutype":"사무통신 - 통신기기","category":"other"},{"name":"세진과학","tel":"031-871-9697","addr":"경기도 의정부시 호원동 432-7번지 한주프라자상가 1층 109호","indutype":"서적문구 - 과학기자재","category":"other"},{"name":"씨유의정부한주점","tel":"031-837-1206","addr":"경기도 의정부시 호원동 432-7번지 1층 101호","indutype":"유통업 영리 - 편 의 점","category":"other"}]},{"lat":"37.728679353","long":"127.04596447","imageIndex":17,"items":[{"name":"가람솔","tel":"070-8285-5433","addr":"경기도 의정부시 호원동 4-17번지 102호","indutype":"용역 서비스 - 종합용역","category":"other"}]},{"lat":"37.726436272","long":"127.04512378","imageIndex":17,"items":[{"name":"가람요양원","tel":"031-838-8817","addr":"경기도 의정부시 호원동 332번지 서왕프라자 제3층 제3호일부","indutype":"기타의료기관 - 기타의료기관 및 기타","category":"other"},{"name":"크린토피아호원점","tel":"031-876-9136","addr":"경기도 의정부시 호원동 332번지 서왕프라자 1층 110호","indutype":"수리서비스 - 세탁소","category":"other"}]},{"lat":"37.719489229","long":"127.04690054","imageIndex":17,"items":[{"name":"가족행복요양원","tel":"031-837-1500","addr":"경기도 의정부시 호원동 435-2번지 5층","indutype":"기타의료기관 - 기타의료기관 및 기타","category":"other"},{"name":"심청이요양원1","tel":"031-871-5696","addr":"경기도 의정부시 호원동 435-2번지 3층","indutype":"기타의료기관 - 기타의료기관 및 기타","category":"other"},{"name":"심청이요양원2","tel":"031-871-5696","addr":"경기도 의정부시 호원동 435-2번지 4층","indutype":"기타의료기관 - 기타의료기관 및 기타","category":"other"}]},{"lat":"37.71292981","long":"127.04804211","imageIndex":17,"items":[{"name":"강아지","tel":"031-855-1559","addr":"경기도 의정부시 호원동 453-1번지 럭키마트내","indutype":"문화.취미 - 애완동물","category":"other"},{"name":"여성크로커다일호원점","tel":"031-877-3877","addr":"경기도 의정부시 호원동 453-1번지 럭키마트 1층","indutype":"의류 - 정장","category":"other"},{"name":"테라스 크린","tel":"031-837-8442","addr":"경기도 의정부시 호원동 453-1번지","indutype":"수리서비스 - 세탁소","category":"other"}]},{"lat":"37.712822073","long":"127.04704403","imageIndex":17,"items":[{"name":"건양페인트","tel":"031-872-6720","addr":"경기도 의정부시 호원동 454-3","indutype":"건축자재 - 페인트","category":"other"},{"name":"더 모스트 모바일(The Most Mobile)","tel":"031-829-6578","addr":"경기도 의정부시 호원동 454-3번지 1층","indutype":"사무통신 - 통신기기","category":"other"},{"name":"폰마스터","tel":"031-837-6070","addr":"경기도 의정부시 호원동 454-3번지","indutype":"사무통신 - 통신기기","category":"other"}]},{"lat":"37.706848089","long":"127.04865079","imageIndex":17,"items":[{"name":"건영색연필","tel":"031-836-6264","addr":"경기도 의정부시 호원동 463-13번지","indutype":"서적문구 - 문구용품","category":"other"},{"name":"예쁜걸","tel":"02-915-1096","addr":"경기도 의정부시 호원동 463-13번지","indutype":"의류 - 정장","category":"other"},{"name":"주연인테리어","tel":"031-874-4327","addr":"경기도 의정부시 호원동 463-13번지","indutype":"용역 서비스 - 기타용역서비스","category":"other"}]},{"lat":"37.70599165","long":"127.04998838","imageIndex":17,"items":[{"name":"건영세탁소","tel":"031-876-1128","addr":"경기도 의정부시 호원동 121 건영상가-103","indutype":"수리서비스 - 세탁소","category":"other"}]},{"lat":"37.727733965","long":"127.04423973","imageIndex":17,"items":[{"name":"경기종합상사","tel":"031-871-9221","addr":"경기도 의정부시 호원동 340-22번지","indutype":"서적문구 - 과학기자재","category":"other"}]},{"lat":"37.729375585","long":"127.03848945","imageIndex":17,"items":[{"name":"공단지게차","tel":"031-963-0808","addr":"경기도 의정부시 호원동 367-11번지 1층","indutype":"기타 - 기계공구","category":"other"},{"name":"동두천지게차","tel":"031-000-0000","addr":"경기도 의정부시 호원동 367-11번지","indutype":"기타 - 기계공구","category":"other"},{"name":"천보건설기계","tel":"031-859-5715","addr":"경기도 의정부시 호원동 367-11번지","indutype":"기타 - 기타 전문점","category":"other"},{"name":"천보건설기계","tel":"031-863-9922","addr":"경기도 의정부시 호원동 367-11번지","indutype":"기타 - 기계공구","category":"other"},{"name":"퍼피바스데이","tel":"031-877-8342","addr":"경기도 의정부시 호원동 367-11번지 1층우측","indutype":"문화.취미 - 애완동물","category":"other"},{"name":"하나지게차","tel":"031-861-1111","addr":"경기도 의정부시 호원동 367-11번지","indutype":"기타 - 기계공구","category":"other"},{"name":"하나지게차","tel":"","addr":"경기도 의정부시 호원동 367-11번지","indutype":"기타 - 기계공구","category":"other"}]},{"lat":"37.707659825","long":"127.04634921","imageIndex":17,"items":[{"name":"관우 에스앤씨(관우 SnC)","tel":"031-876-8131","addr":"경기도 의정부시 호원동 119-43번지 한솔리치빌 701호","indutype":"레져용품 - 스포츠·레져용품","category":"other"}]},{"lat":"37.706542989","long":"127.04537331","imageIndex":17,"items":[{"name":"구기이엔씨주식회사","tel":"031-878-9924","addr":"경기도 의정부시 호원동 119-165번지 1층 104호","indutype":"기타 - 기타 전문점","category":"other"}]},{"lat":"37.728130003","long":"127.04531758","imageIndex":17,"items":[{"name":"그레이스","tel":"031-826-9656","addr":"경기도 의정부시 호원동 341-6번지 102호","indutype":"의류 - 정장","category":"other"},{"name":"정현인테리어","tel":"031-874-8215","addr":"경기도 의정부시 호원동 341-6번지 103호","indutype":"건축자재 - 인테리어전문","category":"other"}]},{"lat":"37.701379528","long":"127.04793305","imageIndex":17,"items":[{"name":"금강패널","tel":"031-829-5204","addr":"경기도 의정부시 호원동 144-8","indutype":"건축자재 - 기타건축자재","category":"other"},{"name":"월드PVC종합상사","tel":"031-826-5156","addr":"경기도 의정부시 호원동 144-8번지","indutype":"건축자재 - 기타건축자재","category":"other"}]},{"lat":"37.709073824","long":"127.04771089","imageIndex":17,"items":[{"name":"금화골드","tel":"031-826-8285","addr":"경기도 의정부시 호원동 454-29번지","indutype":"신변잡화 - 귀금속","category":"other"}]},{"lat":"37.71629061","long":"127.04746573","imageIndex":17,"items":[{"name":"기프트앤돌","tel":"031-000-0000","addr":"경기도 의정부시 호원동 442-3번지 대경프라자 6층 601호","indutype":"서적문구 - 완구점","category":"other"},{"name":"명문골프스쿨","tel":"031-871-5400","addr":"경기도 의정부시 호원동 442-3번지 지층","indutype":"레져용품 - 골프용품 전문점","category":"other"},{"name":"씨유의정부호원점","tel":"031-875-3044","addr":"경기도 의정부시 호원동 442-3번지","indutype":"유통업 영리 - 편 의 점","category":"other"},{"name":"프리티","tel":"031-837-2340","addr":"경기도 의정부시 호원동 442-3번지 대겨일딩 1층 104호","indutype":"의류 - 정장","category":"other"}]},{"lat":"37.728762823","long":"127.03885214","imageIndex":17,"items":[{"name":"길스포츠","tel":"031-836-4811","addr":"경기도 의정부시 호원동 366-35번지 2층","indutype":"레져용품 - 스포츠·레져용품","category":"other"}]},{"lat":"37.71168679","long":"127.04723615","imageIndex":17,"items":[{"name":"깔고덮고","tel":"031-874-2840","addr":"경기도 의정부시 호원동 454-13번지","indutype":"직물 - 침구·수예점","category":"other"},{"name":"해피독","tel":"02-000-0000","addr":"경기도 의정부시 호원동 454-13번지","indutype":"문화.취미 - 애완동물","category":"other"}]},{"lat":"37.722076014","long":"127.04404377","imageIndex":17,"items":[{"name":"꽃과나무","tel":"031-876-5117","addr":"경기도 의정부시 호원동 309-8번지 외1필지상가 101호","indutype":"문화.취미 - 화원","category":"other"}]},{"lat":"37.720211561","long":"127.04248885","imageIndex":17,"items":[{"name":"나라스포츠","tel":"031-873-2534","addr":"경기도 의정부시 호원동 281-21번지","indutype":"레져용품 - 스포츠·레져용품","category":"other"}]},{"lat":"37.708353013","long":"127.04782386","imageIndex":17,"items":[{"name":"나래아트앤빈","tel":"070-7620-1627","addr":"경기도 의정부시 호원동 464-1번지 6층","indutype":"문화.취미 - 문화취미기타","category":"other"},{"name":"미모아뷰티라인","tel":"031-855-8158","addr":"경기도 의정부시 호원동 464-1번지","indutype":"회원제형태 - 기타4","category":"other"}]},{"lat":"37.722906671","long":"127.03859978","imageIndex":17,"items":[{"name":"나의부엌","tel":"","addr":"경기도 의정부시 호원동 300-25번지","indutype":"주방용구 - 주방용구","category":"other"}]},{"lat":"37.693299216","long":"127.04432265","imageIndex":17,"items":[{"name":"남선금속","tel":"031-826-8325","addr":"경기도 의정부시 호원동 198-16번지","indutype":"건축자재 - 기타건축자재","category":"other"}]},{"lat":"37.728047775","long":"127.04838024","imageIndex":17,"items":[{"name":"네파 의정부 회룡점","tel":"","addr":"경기도 의정부시 호원동 415-2번지","indutype":"레져용품 - 스포츠·레져용품","category":"other"},{"name":"링스 의정부호원점","tel":"","addr":"경기도 의정부시 호원동 415-2번지","indutype":"레져용품 - 스포츠·레져용품","category":"other"},{"name":"주식회사에스피원","tel":"031-826-0201","addr":"경기도 의정부시 호원동 415-2번지 1층","indutype":"레져용품 - 스포츠·레져용품","category":"other"},{"name":"핑 의정부점","tel":"031-876-5583","addr":"경기도 의정부시 호원동 415-2번지","indutype":"레져용품 - 스포츠·레져용품","category":"other"}]},{"lat":"37.723240135","long":"127.03823697","imageIndex":17,"items":[{"name":"노벨사인","tel":"031-874-7474","addr":"경기도 의정부시 호원동 304-2번지","indutype":"건축자재 - 인테리어전문","category":"other"}]},{"lat":"37.726317317","long":"127.04995588","imageIndex":17,"items":[{"name":"노보(NOVO)디자인","tel":"031-824-9266","addr":"경기도 의정부시 호원동 418-3번지","indutype":"건축자재 - 인테리어전문","category":"other"},{"name":"마린","tel":"031-829-0133","addr":"경기도 의정부시 호원동 418-3번지 106호","indutype":"의류 - 정장","category":"other"},{"name":"어두컴컴","tel":"031-841-3005","addr":"경기도 의정부시 호원동 418-3번지 104호","indutype":"수리서비스 - 사무·통신기기수리","category":"other"}]},{"lat":"37.720795526","long":"127.04715084","imageIndex":17,"items":[{"name":"노블실버홈","tel":"031-837-5055","addr":"경기도 의정부시 호원동 434-3번지 4-5층","indutype":"기타의료기관 - 기타의료기관 및 기타","category":"other"}]},{"lat":"37.730986169","long":"127.0449562","imageIndex":17,"items":[{"name":"늑대와여우컴퓨터 (호원점)","tel":"031-836-2938","addr":"경기도 의정부시 호원동 353-83번지 1층 102호","indutype":"수리서비스 - 사무·통신기기수리","category":"other"}]},{"lat":"37.714903383","long":"127.04679575","imageIndex":17,"items":[{"name":"늘사랑광고기획","tel":"031-825-0112","addr":"경기도 의정부시 호원동 448-3번지 2층","indutype":"용역 서비스 - 종합용역","category":"other"},{"name":"시온애드","tel":"031-877-9624","addr":"경기도 의정부시 호원동 448-3번지 2층","indutype":"건축자재 - 인테리어전문","category":"other"},{"name":"월드종합주방","tel":"02-985-3000","addr":"경기도 의정부시 호원동 448-3번지 가동,나동","indutype":"주방용구 - 주방용구","category":"other"},{"name":"이안인테리어","tel":"031-877-2660","addr":"경기도 의정부시 호원동 448-3번지","indutype":"가구 - 일반가구","category":"other"},{"name":"주식회사시온애드","tel":"031-877-9624","addr":"경기도 의정부시 호원동 448-3번지 2층","indutype":"건축자재 - 인테리어전문","category":"other"}]},{"lat":"37.707379515","long":"127.049014","imageIndex":17,"items":[{"name":"니나노공방","tel":"031-823-2075","addr":"경기도 의정부시 호원동 462-13번지","indutype":"문화.취미 - 문화취미기타","category":"other"},{"name":"비니댄스스튜디오","tel":"02-949-9346","addr":"경기도 의정부시 호원동 462-13번지 지하층","indutype":"회원제형태 - 레져업소","category":"other"}]},{"lat":"37.728346351","long":"127.04498874","imageIndex":17,"items":[{"name":"니팅세상","tel":"","addr":"경기도 의정부시 호원동 342-14번지 1층","indutype":"문화.취미 - 문화취미기타","category":"other"},{"name":"장원교육의정부지점","tel":"031-876-8740","addr":"경기도 의정부시 호원동 342-14번지","indutype":"회원제형태 - 서적","category":"other"},{"name":"제로스포츠","tel":"031-8083-0069","addr":"경기도 의정부시 호원동 342-14번지 지층","indutype":"레져용품 - 스포츠·레져용품","category":"other"}]},{"lat":"37.711047057","long":"127.04737186","imageIndex":17,"items":[{"name":"다이소 망월사역점","tel":"031-877-7928","addr":"경기도 의정부시 호원동 454-18번지","indutype":"신변잡화 - 기타잡화","category":"other"}]},{"lat":"37.718957651","long":"127.04693425","imageIndex":17,"items":[{"name":"닥터에어컨","tel":"031-874-2070","addr":"경기도 의정부시 호원동 440 1충","indutype":"전기제품 - 가전제품","category":"other"},{"name":"유피아노","tel":"031-876-1155","addr":"경기도 의정부시 호원동 440번지","indutype":"레져용품 - 피아노대리점","category":"other"},{"name":"주식회사공보기계","tel":"031-873-5100","addr":"경기도 의정부시 호원동 440번지","indutype":"기타 - 기계공구","category":"other"},{"name":"지.비 머시너리(G.B MACHINERY)","tel":"031-873-5100","addr":"경기도 의정부시 호원동 440번지 1층 일부","indutype":"기타 - 기계공구","category":"other"}]},{"lat":"37.730906629","long":"127.04037325","imageIndex":17,"items":[{"name":"달콤나무","tel":"02-1111-1111","addr":"경기도 의정부시 호원동 357-4번지 2층","indutype":"문화.취미 - 문화취미기타","category":"other"}]},{"lat":"37.694767698","long":"127.04457291","imageIndex":17,"items":[{"name":"대광장식","tel":"070-4151-4643","addr":"경기도 의정부시 호원동 202-30번지","indutype":"직물 - 카페트,커튼,천막,지물","category":"other"},{"name":"세종풍력","tel":"031-873-3081","addr":"경기도 의정부시 호원동 202-30번지 1층","indutype":"건축자재 - 기타건축자재","category":"other"},{"name":"유한포장상사","tel":"031-872-8409","addr":"경기도 의정부시 호원동 202-30번지","indutype":"서적문구 - 전문서적","category":"other"},{"name":"파워클럽","tel":"031-875-3146","addr":"경기도 의정부시 호원동 202-30번지","indutype":"신변잡화 - 기타잡화","category":"other"}]},{"lat":"37.721462193","long":"127.04726466","imageIndex":17,"items":[{"name":"대동목재합판","tel":"02-952-0568","addr":"경기도 의정부시 호원동 434","indutype":"건축자재 - 건축용 요업제품","category":"other"},{"name":"스타골프존","tel":"031-873-0879","addr":"경기도 의정부시 호원동 434번지","indutype":"회원제형태 - 레져업소","category":"other"}]},{"lat":"37.728490227","long":"127.04576018","imageIndex":17,"items":[{"name":"대륜E&S의정부5고객센터","tel":"031-872-9200","addr":"경기도 의정부시 호원동 343번지 304호","indutype":"용역 서비스 - 기타용역서비스","category":"other"},{"name":"옷빨","tel":"031-1111-1111","addr":"경기도 의정부시 호원동 343번지 1층","indutype":"의류 - 정장","category":"other"}]},{"lat":"37.729240434","long":"127.03851207","imageIndex":17,"items":[{"name":"대림건재","tel":"031-873-6178","addr":"경기도 의정부시 호원동 366-4번지","indutype":"기타의료기관 - 기타의료기관 및 기타","category":"other"}]},{"lat":"37.710767418","long":"127.04826761","imageIndex":17,"items":[{"name":"대명힐링우드","tel":"031-871-7575","addr":"경기도 의정부시 호원동 458-18번지","indutype":"건축자재 - 기타건축자재","category":"other"}]},{"lat":"37.708605535","long":"127.04715493","imageIndex":17,"items":[{"name":"대신기획","tel":"031-874-4696","addr":"경기도 의정부시 호원동 119-137번지","indutype":"서적문구 - 출판 및 인쇄물","category":"other"}]},{"lat":"37.694073984","long":"127.04449315","imageIndex":17,"items":[{"name":"대원합판","tel":"031-873-2298","addr":"경기도 의정부시 호원동 200-32번지","indutype":"건축자재 - 기타건축자재","category":"other"}]},{"lat":"37.695100828","long":"127.04520804","imageIndex":17,"items":[{"name":"대일공조닥트","tel":"031-872-9973","addr":"경기도 의정부시 호원동 186-1번지","indutype":"용역 서비스 - 기타용역서비스","category":"other"}]},{"lat":"37.694821529","long":"127.04520788","imageIndex":17,"items":[{"name":"대진통상","tel":"02-900-6667","addr":"경기도 의정부시 호원동 189-1번지","indutype":"직물 - 침구·수예점","category":"other"}]},{"lat":"37.702569928","long":"127.0448721","imageIndex":17,"items":[{"name":"대한불교관음종천불사","tel":"031-876-6066","addr":"경기도 의정부시 호원동 산108-13번지","indutype":"회원제형태 - 기타4","category":"other"}]},{"lat":"37.704657182","long":"127.02132047","imageIndex":17,"items":[{"name":"대한불교조계종 망월사","tel":"031-873-7744","addr":"경기도 의정부시 호원동 413번지","indutype":"신변잡화 - 기념품점","category":"other"}]},{"lat":"37.713290808","long":"127.0464092","imageIndex":17,"items":[{"name":"대호전기","tel":"031-872-3414","addr":"경기도 의정부시 호원동 85-29번지 DH빌딩 104호","indutype":"수리서비스 - 가정용품수리","category":"other"},{"name":"세븐일레븐의정부호원원룸점","tel":"","addr":"경기도 의정부시 호원동 85-29번지 1층","indutype":"유통업 영리 - 편 의 점","category":"other"}]},{"lat":"37.725957403","long":"127.04876463","imageIndex":17,"items":[{"name":"더데이","tel":"031-872-1008","addr":"경기도 의정부시 호원동 417-2번지 다남빌딩 1층 더데이","indutype":"수리서비스 - 세탁소","category":"other"}]},{"lat":"37.707460708","long":"127.04874189","imageIndex":17,"items":[{"name":"더데일리팻샵","tel":"070-8666-4178","addr":"경기도 의정부시 호원동 463-4번지 1층","indutype":"문화.취미 - 애완동물","category":"other"},{"name":"현기획","tel":"031-214-3114","addr":"경기도 의정부시 호원동 463-4번지 207호","indutype":"유통업 영리 - 기타유통업","category":"other"}]},{"lat":"37.714381297","long":"127.04551388","imageIndex":17,"items":[{"name":"더룸","tel":"031-873-4497","addr":"경기도 의정부시 호원동 274-55번지 외2필지(지하)","indutype":"가구 - 일반가구","category":"other"}]},{"lat":"37.707407623","long":"127.04616762","imageIndex":17,"items":[{"name":"더블유뮤즈(W muse)","tel":"070-2018-2044","addr":"경기도 의정부시 호원동 119-3번지 진산아트빌16차 B동 101호","indutype":"회원제형태 - 기타4","category":"other"},{"name":"파랑새","tel":"070-8659-8554","addr":"경기도 의정부시 호원동 119-3번지 진산아트빌 B동 101호","indutype":"전기제품 - 가전제품","category":"other"}]},{"lat":"37.72837327","long":"127.04529503","imageIndex":17,"items":[{"name":"더쉬즈","tel":"031-821-3050","addr":"경기도 의정부시 호원동 342-16번지 1층","indutype":"의류 - 기타의류","category":"other"}]},{"lat":"37.716984959","long":"127.0458216","imageIndex":17,"items":[{"name":"덕우벤딩","tel":"031-875-1004","addr":"경기도 의정부시 호원동 277-11번지","indutype":"건축자재 - 기타건축자재","category":"other"}]},{"lat":"37.726353696","long":"127.04909382","imageIndex":17,"items":[{"name":"도원(트라이)","tel":"031-877-5686","addr":"경기도 의정부시 호원동 418번지 거원프라자 105호","indutype":"의류 - 내의판매","category":"other"},{"name":"씨유의정부승기점","tel":"031-837-4136","addr":"경기도 의정부시 호원동 418번지 거원프라자 1층 102호","indutype":"유통업 영리 - 편 의 점","category":"other"},{"name":"체리샴푸","tel":"031-852-7053","addr":"경기도 의정부시 호원동 418번지 거원프라자 103호","indutype":"서적문구 - 완구점","category":"other"}]},{"lat":"37.695434152","long":"127.04529894","imageIndex":17,"items":[{"name":"동명냉동산업","tel":"031-872-9933","addr":"경기도 의정부시 호원동 182-4번지","indutype":"수리서비스 - 기타수리서비스","category":"other"}]},{"lat":"37.712183446","long":"127.04412902","imageIndex":17,"items":[{"name":"동서교역","tel":"031-875-3736","addr":"경기도 의정부시 호원동 246-1","indutype":"유통업 영리 - 기타유통업","category":"other"}]},{"lat":"37.69612824","long":"127.04432422","imageIndex":17,"items":[{"name":"동일창호유리","tel":"031-855-6266","addr":"경기도 의정부시 호원동 204-2번지","indutype":"건축자재 - 보일러·펌프·샷시","category":"other"},{"name":"중앙판넬","tel":"02-3494-4061","addr":"경기도 의정부시 호원동 204-2번지","indutype":"건축자재 - 기타건축자재","category":"other"}]},{"lat":"37.727374257","long":"127.0422658","imageIndex":17,"items":[{"name":"둘리문구사","tel":"031-872-7760","addr":"경기도 의정부시 호원동 322-5 뉴삼익2차상가 102","indutype":"서적문구 - 문구용품","category":"other"}]},{"lat":"37.728679588","long":"127.04531789","imageIndex":17,"items":[{"name":"디애나","tel":"070-7574-6625","addr":"경기도 의정부시 호원동 342-6번지","indutype":"의류 - 정장","category":"other"},{"name":"종합가전","tel":"031-875-3654","addr":"경기도 의정부시 호원동 342-6번지","indutype":"전기제품 - 가전제품","category":"other"}]},{"lat":"37.730708284","long":"127.04079287","imageIndex":17,"items":[{"name":"디엔제이 (D et J)","tel":"031-878-9116","addr":"경기도 의정부시 호원동 357-1번지 도원 상가 1층","indutype":"의류 - 정장","category":"other"},{"name":"이엔더 디자인(E. N the design)","tel":"031-843-0430","addr":"경기도 의정부시 호원동 357-1번지 1층 3호","indutype":"건축자재 - 인테리어전문","category":"other"},{"name":"특공무술본부체육관","tel":"031-837-7888","addr":"경기도 의정부시 호원동 357-1번지 3층","indutype":"회원제형태 - 레져업소","category":"other"}]},{"lat":"37.722742896","long":"127.04354506","imageIndex":17,"items":[{"name":"딜리디자인","tel":"031-876-6227","addr":"경기도 의정부시 호원동 309-66번지 드림캐슬 A동 B202호","indutype":"건축자재 - 인테리어전문","category":"other"}]},{"lat":"37.724265296","long":"127.04418109","imageIndex":17,"items":[{"name":"또수기뽀수기","tel":"","addr":"경기도 의정부시 호원동 314-5","indutype":"의류 - 내의판매","category":"other"}]},{"lat":"37.715569644","long":"127.047987","imageIndex":17,"items":[{"name":"라뮤제(Iamujer)","tel":"031-837-1845","addr":"경기도 의정부시 호원동 447-16번지 로뎀하이츠빌","indutype":"의류 - 기타의류","category":"other"}]},{"lat":"37.730266716","long":"127.04109893","imageIndex":17,"items":[{"name":"라온제나","tel":"031-000-0000","addr":"경기도 의정부시 호원동 357-26번지 2층","indutype":"가구 - 일반가구","category":"other"}]},{"lat":"37.720048262","long":"127.04570994","imageIndex":17,"items":[{"name":"라인","tel":"031-874-4333","addr":"경기도 의정부시 호원동 286-12번지 101호,102호","indutype":"사무통신 - 기타 사무용품","category":"other"}]},{"lat":"37.712463154","long":"127.04293837","imageIndex":17,"items":[{"name":"라인스킨","tel":"070-8784-0220","addr":"경기도 의정부시 호원동 249-33번지 1층","indutype":"신변잡화 - 액세서리","category":"other"}]},{"lat":"37.728627614","long":"127.03906761","imageIndex":17,"items":[{"name":"라피네플라워&가든","tel":"070-8613-2089","addr":"경기도 의정부시 호원동 366-26번지","indutype":"문화.취미 - 화원","category":"other"},{"name":"플라워스토리","tel":"031-821-3602","addr":"경기도 의정부시 호원동 366-26번지 좌측 1층 점포","indutype":"문화.취미 - 화원","category":"other"}]},{"lat":"37.723185494","long":"127.04013117","imageIndex":17,"items":[{"name":"러브타올","tel":"031-875-1014","addr":"경기도 의정부시 호원동 308-64번지 1층","indutype":"직물 - 옷감·직물","category":"other"}]},{"lat":"37.71326326","long":"127.04779281","imageIndex":17,"items":[{"name":"럭키숙녀복","tel":"031-111-1111","addr":"경기도 의정부시 호원동 453번지","indutype":"의류 - 정장","category":"other"}]},{"lat":"37.704181709","long":"127.04743579","imageIndex":17,"items":[{"name":"레브 플라워(Lev flower)","tel":"","addr":"경기도 의정부시 호원동 468-4번지 108호","indutype":"문화.취미 - 화원","category":"other"},{"name":"씨유의정부르네상스점","tel":"080-080-3663","addr":"경기도 의정부시 호원동 468-4번지 르네상스시티 1층 4호,5호","indutype":"유통업 영리 - 편 의 점","category":"other"},{"name":"오월의공기","tel":"031-1234-1111","addr":"경기도 의정부시 호원동 468-4번지 103호","indutype":"의류 - 정장","category":"other"}]},{"lat":"37.694271978","long":"127.04510553","imageIndex":17,"items":[{"name":"로고스상사","tel":"031-875-1032","addr":"경기도 의정부시 호원동 189-9번지 1호","indutype":"주방용구 - 정수기","category":"other"},{"name":"성신풍력","tel":"031-826-5123","addr":"경기도 의정부시 호원동 189-9","indutype":"기타 - 기계공구","category":"other"}]},{"lat":"37.728986328","long":"127.04414968","imageIndex":17,"items":[{"name":"루디아옷방","tel":"02-999-6336","addr":"경기도 의정부시 호원동 345-18번지","indutype":"의류 - 정장","category":"other"}]},{"lat":"37.705076649","long":"127.03865926","imageIndex":17,"items":[{"name":"리멤버 파스텔","tel":"031-111-1111","addr":"경기도 의정부시 호원동 229-259번지","indutype":"광학제품 - 사진관","category":"other"}]},{"lat":"37.703964881","long":"127.04898921","imageIndex":17,"items":[{"name":"마이수","tel":"031-877-3787","addr":"경기도 의정부시 호원동 467번지 아이파크호원동 상가동 202호","indutype":"문화.취미 - 문화취미기타","category":"other"},{"name":"씨유호원현대점","tel":"080-080-3663","addr":"경기도 의정부시 호원동 467번지 아이파크호원동 상가동 108호","indutype":"유통업 영리 - 편 의 점","category":"other"},{"name":"핑크퍼피","tel":"031-837-3327","addr":"경기도 의정부시 호원동 467번지 아이파크호원동 상가동 1층 102호","indutype":"문화.취미 - 애완동물","category":"other"},{"name":"현대세탁소","tel":"031-837-6650","addr":"경기도 의정부시 호원동 467번지 아이파크 상가동 103호","indutype":"수리서비스 - 세탁소","category":"other"}]},{"lat":"37.727463796","long":"127.04389928","imageIndex":17,"items":[{"name":"맘산후조리원","tel":"031-879-8434","addr":"경기도 의정부시 호원동 327-7번지 온누리빌딩 3층","indutype":"기타의료기관 - 산후조리원","category":"other"},{"name":"블럭스쿨","tel":"031-826-7978","addr":"경기도 의정부시 호원동 327-7번지 온누리빌딩 120호","indutype":"서적문구 - 완구점","category":"other"},{"name":"토이토핑 슬라임의정부점","tel":"031-887-3357","addr":"경기도 의정부시 호원동 327-7번지 501호","indutype":"서적문구 - 완구점","category":"other"}]},{"lat":"37.721571322","long":"127.04448584","imageIndex":17,"items":[{"name":"매직크린","tel":"031-875-1212","addr":"경기도 의정부시 호원동 309-18번지 1층","indutype":"수리서비스 - 세탁소","category":"other"}]},{"lat":"37.707352733","long":"127.04837893","imageIndex":17,"items":[{"name":"멋내고뽐내고","tel":"","addr":"경기도 의정부시 호원동 463-6번지","indutype":"의류 - 정장","category":"other"}]},{"lat":"37.728066834","long":"127.04560112","imageIndex":17,"items":[{"name":"멍블리","tel":"031-876-1005","addr":"경기도 의정부시 호원동 6-14번지 1층","indutype":"문화.취미 - 애완동물","category":"other"},{"name":"블레스톡스터디까페","tel":"031-874-9603","addr":"경기도 의정부시 호원동 6-14번지 2층","indutype":"용역 서비스 - 사무서비스","category":"other"}]},{"lat":"37.711515595","long":"127.04727007","imageIndex":17,"items":[{"name":"메인","tel":"031-836-0297","addr":"경기도 의정부시 호원동 454-14번지","indutype":"의류 - 정장","category":"other"}]},{"lat":"37.70743417","long":"127.04746042","imageIndex":17,"items":[{"name":"명성 엔지니어링","tel":"031-877-5772","addr":"경기도 의정부시 호원동 119-132번지","indutype":"수리서비스 - 기타수리서비스","category":"other"}]},{"lat":"37.708181652","long":"127.04828872","imageIndex":17,"items":[{"name":"모다","tel":"","addr":"경기도 의정부시 호원동 460-23번지 1층 105호","indutype":"신변잡화 - 제화","category":"other"},{"name":"우리정보통신","tel":"031-876-9016","addr":"경기도 의정부시 호원동 460-23번지","indutype":"사무통신 - 통신기기","category":"other"}]},{"lat":"37.71312842","long":"127.04698751","imageIndex":17,"items":[{"name":"모바일플러스","tel":"031-826-4625","addr":"경기도 의정부시 호원동 454번지 1층","indutype":"사무통신 - 통신기기","category":"other"},{"name":"베니라이프","tel":"031-836-3337","addr":"경기도 의정부시 호원동 454번지","indutype":"의류 - 내의판매","category":"other"}]},{"lat":"37.724823483","long":"127.04532703","imageIndex":17,"items":[{"name":"모빌닷컴","tel":"031-1111-1111","addr":"경기도 의정부시 호원동 316-28번지","indutype":"레져용품 - 스포츠·레져용품","category":"other"}]},{"lat":"37.72482413","long":"127.04348948","imageIndex":17,"items":[{"name":"모이비엔","tel":"02-0000-0000","addr":"경기도 의정부시 호원동 318-9번지","indutype":"의류 - 정장","category":"other"}]},{"lat":"37.721796473","long":"127.0447355","imageIndex":17,"items":[{"name":"모카애견","tel":"031-838-0130","addr":"경기도 의정부시 호원동 311-10번지 101호","indutype":"문화.취미 - 애완동물","category":"other"}]},{"lat":"37.701632051","long":"127.04726418","imageIndex":17,"items":[{"name":"무송기업","tel":"031-837-7421","addr":"경기도 의정부시 호원동 468-12번지","indutype":"건축자재 - 기타건축자재","category":"other"},{"name":"위즈컴","tel":"031-877-6700","addr":"경기도 의정부시 호원동 468-12번지","indutype":"용역 서비스 - 종합용역","category":"other"}]},{"lat":"37.730149965","long":"127.03993047","imageIndex":17,"items":[{"name":"무토(MUTO)","tel":"070-4202-7787","addr":"경기도 의정부시 호원동 364-5번지","indutype":"의류 - 정장","category":"other"}]},{"lat":"37.72207581","long":"127.04462223","imageIndex":17,"items":[{"name":"무한통신","tel":"031-875-1500","addr":"경기도 의정부시 호원동 311-18 ,19진원빌딩 104","indutype":"사무통신 - 통신기기","category":"other"},{"name":"바느질하는여우","tel":"","addr":"경기도 의정부시 호원동 311-18번지 진원빌딩 4층","indutype":"직물 - 침구·수예점","category":"other"}]},{"lat":"37.73104134","long":"127.04171189","imageIndex":17,"items":[{"name":"미래도배장판","tel":"031-878-0678","addr":"경기도 의정부시 호원동 351-1번지 삼익 상가 101호","indutype":"직물 - 카페트,커튼,천막,지물","category":"other"},{"name":"삼익세탁소","tel":"031-876-2468","addr":"경기도 의정부시 호원동 351-1.206","indutype":"수리서비스 - 세탁소","category":"other"}]},{"lat":"37.707380498","long":"127.04642843","imageIndex":17,"items":[{"name":"미성건업","tel":"031-878-3840","addr":"경기도 의정부시 호원동 119-13번지","indutype":"건축자재 - 보일러·펌프·샷시","category":"other"}]},{"lat":"37.729435932","long":"127.04657746","imageIndex":17,"items":[{"name":"미쓰 쌈박","tel":"070-8160-5796","addr":"경기도 의정부시 호원동 2-23번지 한솔엠파트 102동 201호","indutype":"의류 - 기타의류","category":"other"}]},{"lat":"37.71365936","long":"127.04863229","imageIndex":17,"items":[{"name":"미연당","tel":"031-875-2683","addr":"경기도 의정부시 호원동 450-2번지 유원아파트","indutype":"신변잡화 - 시계","category":"other"},{"name":"애드박스","tel":"031-876-1011","addr":"경기도 의정부시 호원동 450-2번지 유원 상가 1층","indutype":"용역 서비스 - 종합용역","category":"other"}]},{"lat":"37.719236948","long":"127.04693442","imageIndex":17,"items":[{"name":"미용산업","tel":"031-872-6470","addr":"경기도 의정부시 호원동 435-3번지 지하1층","indutype":"주방용구 - 주방용구","category":"other"},{"name":"아이비도서","tel":"031-873-1233","addr":"경기도 의정부시 호원동 435-3번지","indutype":"서적문구 - 일반서적","category":"other"}]},{"lat":"37.728734354","long":"127.04329878","imageIndex":17,"items":[{"name":"밍키즈","tel":"031-877-3266","addr":"경기도 의정부시 호원동 326-1번지","indutype":"의류 - 아동의류","category":"other"},{"name":"셀프빨래방","tel":"070-8659-7708","addr":"경기도 의정부시 호원동 326-1번지 101호","indutype":"수리서비스 - 세탁소","category":"other"}]},{"lat":"37.711516628","long":"127.04443486","imageIndex":17,"items":[{"name":"바이오테크놀로지","tel":"031-876-2150","addr":"경기도 의정부시 호원동 240-21번지 진원M 2동 302호","indutype":"기타 - 기타 전문점","category":"other"}]},{"lat":"37.7141828","long":"127.04629631","imageIndex":17,"items":[{"name":"반죽이네","tel":"031-875-4142","addr":"경기도 의정부시 호원동 85-3번지","indutype":"문화.취미 - 문화취미기타","category":"other"}]},{"lat":"37.730987654","long":"127.04056614","imageIndex":17,"items":[{"name":"범골종합벽지","tel":"031-873-1478","addr":"경기도 의정부시 호원동 357-50번지","indutype":"직물 - 카페트,커튼,천막,지물","category":"other"}]},{"lat":"37.729348137","long":"127.03985066","imageIndex":17,"items":[{"name":"범골헬스대중탕","tel":"031-876-5560","addr":"경기도 의정부시 호원동 360-3번지","indutype":"회원제형태 - 기타4","category":"other"}]},{"lat":"37.728931753","long":"127.04560162","imageIndex":17,"items":[{"name":"범호벽지","tel":"031-872-9894","addr":"경기도 의정부시 호원동 344번지","indutype":"직물 - 카페트,커튼,천막,지물","category":"other"},{"name":"카라","tel":"031-875-0482","addr":"경기도 의정부시 호원동 344번지","indutype":"의류 - 정장","category":"other"}]},{"lat":"37.727184499","long":"127.04389913","imageIndex":17,"items":[{"name":"봄날사진관","tel":"031-829-1221","addr":"경기도 의정부시 호원동 327-12번지 502호","indutype":"광학제품 - 사진관","category":"other"}]},{"lat":"37.708299144","long":"127.04732486","imageIndex":17,"items":[{"name":"부광문화사","tel":"031-877-3906","addr":"경기도 의정부시 호원동 119-34번지 1층","indutype":"서적문구 - 출판 및 인쇄물","category":"other"}]},{"lat":"37.706434249","long":"127.04707426","imageIndex":17,"items":[{"name":"비젼 텍","tel":"031-877-3850","addr":"경기도 의정부시 호원동 130-27번지","indutype":"의류 - 정장","category":"other"}]},{"lat":"37.727130139","long":"127.04476119","imageIndex":17,"items":[{"name":"비티엘코리아 주식회사","tel":"070-4210-6060","addr":"경기도 의정부시 호원동 327-1번지 신원아파트 2층 201호","indutype":"레져용품 - 스포츠·레져용품","category":"other"}]},{"lat":"37.702991744","long":"127.04923807","imageIndex":17,"items":[{"name":"빗나라월드","tel":"070-8281-4083","addr":"경기도 의정부시 호원동 467번지 아이파크호원동 209동 1302호","indutype":"신변잡화 - 기타잡화","category":"other"}]},{"lat":"37.727240009","long":"127.03948663","imageIndex":17,"items":[{"name":"사랑가득요양원","tel":"031-876-0109","addr":"경기도 의정부시 호원동 376-5번지","indutype":"기타의료기관 - 기타의료기관 및 기타","category":"other"}]},{"lat":"37.712686928","long":"127.04704395","imageIndex":17,"items":[{"name":"사뿐구두","tel":"070-8162-8265","addr":"경기도 의정부시 호원동 454-5번지 우측","indutype":"신변잡화 - 신발","category":"other"}]},{"lat":"37.713679751","long":"127.04204307","imageIndex":17,"items":[{"name":"삼성성호시스템","tel":"","addr":"경기도 의정부시 호원동 251-2번지 산내들빌라트 102동 401호","indutype":"용역 서비스 - 기타용역서비스","category":"other"}]},{"lat":"37.71940784","long":"127.04770578","imageIndex":17,"items":[{"name":"삼춘컴퓨터","tel":"031-873-7114","addr":"경기도 의정부시 호원동 436-1번지 한주1차아파트","indutype":"사무통신 - 컴퓨터","category":"other"}]},{"lat":"37.728373597","long":"127.04437621","imageIndex":17,"items":[{"name":"생그린","tel":"031-873-4063","addr":"경기도 의정부시 호원동 341-45번지","indutype":"신변잡화 - 기타잡화","category":"other"}]},{"lat":"37.692767272","long":"127.04537679","imageIndex":17,"items":[{"name":"서울물류창고","tel":"02-955-2888","addr":"경기도 의정부시 호원동 173-1","indutype":"용역 서비스 - 보관및 창고업","category":"other"}]},{"lat":"37.719877072","long":"127.04573253","imageIndex":17,"items":[{"name":"세븐일레븐의정부선민로점","tel":"031-1577-0711","addr":"경기도 의정부시 호원동 286-24번지 101호","indutype":"유통업 영리 - 편 의 점","category":"other"}]},{"lat":"37.723014022","long":"127.04103849","imageIndex":17,"items":[{"name":"세븐일레븐호원개나리점","tel":"","addr":"경기도 의정부시 호원동 308-45번지 상가 103,104호","indutype":"유통업 영리 - 편 의 점","category":"other"}]},{"lat":"37.727041502","long":"127.04042802","imageIndex":17,"items":[{"name":"센스이불","tel":"031-796-2554","addr":"경기도 의정부시 호원동 339-13번지 103호","indutype":"직물 - 침구·수예점","category":"other"},{"name":"제이엠네트웍스","tel":"070-8810-0715","addr":"경기도 의정부시 호원동 339-13번지 202호","indutype":"기타 - 기계공구","category":"other"}]},{"lat":"37.728373331","long":"127.04512488","imageIndex":17,"items":[{"name":"소나무 중고 서점","tel":"031-876-7548","addr":"경기도 의정부시 호원동 342-15번지 지층","indutype":"서적문구 - 일반서적","category":"other"}]},{"lat":"37.746822767","long":"127.0507631","imageIndex":17,"items":[{"name":"소중함","tel":"031-823-0702","addr":"경기도 의정부시 호원동 6-25번지 은성빌딩 1층","indutype":"신변잡화 - 기타잡화","category":"other"}]},{"lat":"37.723570808","long":"127.04626776","imageIndex":17,"items":[{"name":"수플러스노래영상제작실","tel":"031-877-4363","addr":"경기도 의정부시 호원동 312-5번지 202호","indutype":"용역 서비스 - 종합용역","category":"other"}]},{"lat":"37.726848599","long":"127.05065949","imageIndex":17,"items":[{"name":"신도덕용세탁소","tel":"031-873-2571","addr":"경기도 의정부시 호원동 421 신도4차 202","indutype":"수리서비스 - 세탁소","category":"other"}]},{"lat":"37.707074016","long":"127.04684784","imageIndex":17,"items":[{"name":"신우실업","tel":"031-875-5306","addr":"경기도 의정부시 호원동 119-180번지","indutype":"신변잡화 - 기타잡화","category":"other"}]},{"lat":"37.708460427","long":"127.04962705","imageIndex":17,"items":[{"name":"신일세탁소","tel":"031-837-0770","addr":"경기도 의정부시 호원동 461","indutype":"수리서비스 - 세탁소","category":"other"}]},{"lat":"37.707659251","long":"127.04788015","imageIndex":17,"items":[{"name":"신한 복사","tel":"031-878-2340","addr":"경기도 의정부시 호원동 464-9번지","indutype":"사무통신 - 기타 사무용품","category":"other"},{"name":"코어스타","tel":"070-8728-0017","addr":"경기도 의정부시 호원동 464-9번지","indutype":"신변잡화 - 기타잡화","category":"other"}]},{"lat":"37.70963305","long":"127.04602149","imageIndex":17,"items":[{"name":"신한컨벤션","tel":"031-829-0646","addr":"경기도 의정부시 호원동 117-1번지","indutype":"용역 서비스 - 혼례서비스","category":"other"}]},{"lat":"37.712408899","long":"127.04351673","imageIndex":17,"items":[{"name":"신화사","tel":"031-871-0676","addr":"경기도 의정부시 호원동 249-12번지","indutype":"신변잡화 - 기념품점","category":"other"}]},{"lat":"37.708686221","long":"127.04820964","imageIndex":17,"items":[{"name":"신흥공인중개사사무소","tel":"031-873-0100","addr":"경기도 의정부시 호원동 460번지","indutype":"용역 서비스 - 부동산 중개·임대","category":"other"},{"name":"씨유의정부신한대점","tel":"031-873-3773","addr":"경기도 의정부시 호원동 460번지","indutype":"유통업 영리 - 편 의 점","category":"other"}]},{"lat":"37.716876238","long":"127.04745474","imageIndex":17,"items":[{"name":"심청이주간복지센터 (2)","tel":"031-878-5696","addr":"경기도 의정부시 호원동 442-2번지 명보빌딩 2층","indutype":"기타의료기관 - 기타의료기관 및 기타","category":"other"}]},{"lat":"37.728013293","long":"127.04414914","imageIndex":17,"items":[{"name":"쌍용자전거총판","tel":"031-873-7138","addr":"경기도 의정부시 호원동 340-16번지","indutype":"수리서비스 - 레져용품수리","category":"other"}]},{"lat":"37.704272583","long":"127.04532665","imageIndex":17,"items":[{"name":"씨스페이스의정부호원점","tel":"031-855-3355","addr":"경기도 의정부시 호원동 226-115번지 상가 제1호","indutype":"유통업 영리 - 편 의 점","category":"other"}]},{"lat":"37.723456814","long":"127.03670581","imageIndex":17,"items":[{"name":"씨앤씨(C&C)","tel":"031-878-6965","addr":"경기도 의정부시 호원동 301번지","indutype":"의류 - 정장","category":"other"}]},{"lat":"37.709327516","long":"127.04379856","imageIndex":17,"items":[{"name":"씨유신한대학교점","tel":"031-875-2264","addr":"경기도 의정부시 호원동 117 신흥대학에벤에셀관1층","indutype":"유통업 영리 - 편 의 점","category":"other"},{"name":"의정부 영상미디어센터","tel":"031-8082-8542","addr":"경기도 의정부시 호원동 산101-1번지 신한대학교 도서관 1층","indutype":"광학제품 - 카메라","category":"other"}]},{"lat":"37.706938044","long":"127.04901373","imageIndex":17,"items":[{"name":"씨유의정부건영점","tel":"031-878-8205","addr":"경기도 의정부시 호원동 462-35번지 1층","indutype":"유통업 영리 - 편 의 점","category":"other"}]},{"lat":"37.728130418","long":"127.04414921","imageIndex":17,"items":[{"name":"씨유의정부범골점","tel":"031-879-1114","addr":"경기도 의정부시 호원동 340-1번지 1층","indutype":"유통업 영리 - 편 의 점","category":"other"}]},{"lat":"37.712624604","long":"127.04501387","imageIndex":17,"items":[{"name":"씨유의정부서영점","tel":"031-876-2214","addr":"경기도 의정부시 호원동 247-49번지 정웅빌딩 101호","indutype":"유통업 영리 - 편 의 점","category":"other"}]},{"lat":"37.722102469","long":"127.04565441","imageIndex":17,"items":[{"name":"씨유의정부신일유토빌점","tel":"031-878-8205","addr":"경기도 의정부시 호원동 55-4번지 신일유토빌상가1동 1층 102호, 103호","indutype":"유통업 영리 - 편 의 점","category":"other"}]},{"lat":"37.707182769","long":"127.04510151","imageIndex":17,"items":[{"name":"씨유의정부원도봉산점","tel":"031-837-1444","addr":"경기도 의정부시 호원동 119-52번지","indutype":"유통업 영리 - 편 의 점","category":"other"}]},{"lat":"37.727265774","long":"127.0433547","imageIndex":17,"items":[{"name":"씨유의정부호원가든점","tel":"031-878-0024","addr":"경기도 의정부시 호원동 327-6번지 (105~113호)","indutype":"유통업 영리 - 편 의 점","category":"other"},{"name":"제이 앤 제이 인테리어","tel":"","addr":"경기도 의정부시 호원동 327-6번지 109호","indutype":"건축자재 - 인테리어전문","category":"other"}]},{"lat":"37.729096264","long":"127.03856872","imageIndex":17,"items":[{"name":"씨유의정부호원중앙점","tel":"031-837-0542","addr":"경기도 의정부시 호원동 366-18번지 1층","indutype":"유통업 영리 - 편 의 점","category":"other"}]},{"lat":"37.706904188","long":"127.04304878","imageIndex":17,"items":[{"name":"아라칸레져","tel":"031-826-6335","addr":"경기도 의정부시 호원동 119-265번지","indutype":"레져용품 - 스포츠·레져용품","category":"other"}]},{"lat":"37.69991143","long":"127.04668486","imageIndex":17,"items":[{"name":"아름꽃다운","tel":"031-837-7731","addr":"경기도 의정부시 호원동 146-7번지","indutype":"문화.취미 - 화원","category":"other"}]},{"lat":"37.700821747","long":"127.04574424","imageIndex":17,"items":[{"name":"아름다운기획","tel":"031-876-4130","addr":"경기도 의정부시 호원동 222-2번지","indutype":"용역 서비스 - 종합용역","category":"other"}]},{"lat":"37.707244552","long":"127.04854897","imageIndex":17,"items":[{"name":"아우토반 (비젠)","tel":"070-7542-3352","addr":"경기도 의정부시 호원동 463-18번지 영지빌딩 4층","indutype":"의류 - 정장","category":"other"}]},{"lat":"37.723463772","long":"127.04322786","imageIndex":17,"items":[{"name":"아이엠","tel":"031-875-4771","addr":"경기도 의정부시 호원동 313-37번지 쌍용스윗닷홈 101동 1310호","indutype":"회원제형태 - 기타4","category":"other"}]},{"lat":"37.726652268","long":"127.04577046","imageIndex":17,"items":[{"name":"아이작쥬얼리","tel":"031-879-9424","addr":"경기도 의정부시 호원동 332-1번지","indutype":"신변잡화 - 액세서리","category":"other"}]},{"lat":"37.721986204","long":"127.04321572","imageIndex":17,"items":[{"name":"아지애견","tel":"031-877-7949","addr":"경기도 의정부시 호원동 309-24번지 1층","indutype":"문화.취미 - 애완동물","category":"other"}]},{"lat":"37.72454468","long":"127.0439317","imageIndex":17,"items":[{"name":"아트종합인테리어","tel":"031-871-5060","addr":"경기도 의정부시 호원동 317-21 1층","indutype":"건축자재 - 인테리어전문","category":"other"},{"name":"현대철물","tel":"031-872-4585","addr":"경기도 의정부시 호원동 317-21번지 1층 왼쪽 1층","indutype":"기타 - 기계공구","category":"other"}]},{"lat":"37.702434411","long":"127.04590392","imageIndex":17,"items":[{"name":"아티스트예도","tel":"02-4891-4911","addr":"경기도 의정부시 호원동 223-1번지 한빛타운 3동 6층 601호","indutype":"용역 서비스 - 종합용역","category":"other"}]},{"lat":"37.727345019","long":"127.0484025","imageIndex":17,"items":[{"name":"알파문구칠성점","tel":"031-846-3244","addr":"경기도 의정부시 호원동 416번지","indutype":"서적문구 - 문구용품","category":"other"},{"name":"칠성문구사","tel":"031-846-3244","addr":"경기도 의정부시 호원동 416번지","indutype":"서적문구 - 문구용품","category":"other"}]},{"lat":"37.715073902","long":"127.04854243","imageIndex":17,"items":[{"name":"알파스포츠","tel":"031-878-7729","addr":"경기도 의정부시 호원동 446번지 1층","indutype":"레져용품 - 스포츠·레져용품","category":"other"}]},{"lat":"37.723985374","long":"127.04592772","imageIndex":17,"items":[{"name":"애드모아","tel":"031-829-7799","addr":"경기도 의정부시 호원동 50-3번지 용범빌딩 1층 112호","indutype":"용역 서비스 - 종합용역","category":"other"},{"name":"킹덤비스","tel":"","addr":"경기도 의정부시 호원동 50-3번지 용범빌딩 2층 204호","indutype":"수리서비스 - 사무·통신기기수리","category":"other"},{"name":"현보골드","tel":"031-876-2881","addr":"경기도 의정부시 호원동 50-3번지 용범빌딩 103호","indutype":"신변잡화 - 귀금속","category":"other"}]},{"lat":"37.707632896","long":"127.04607703","imageIndex":17,"items":[{"name":"앤","tel":"031-877-8462","addr":"경기도 의정부시 호원동 119-49번지","indutype":"의류 - 정장","category":"other"}]},{"lat":"37.712326515","long":"127.04712312","imageIndex":17,"items":[{"name":"야베스홈인테리어","tel":"031-877-1664","addr":"경기도 의정부시 호원동 454-8번지 1층 102호","indutype":"건축자재 - 인테리어전문","category":"other"}]},{"lat":"37.694659562","long":"127.04462954","imageIndex":17,"items":[{"name":"어닝","tel":"031-871-8633","addr":"경기도 의정부시 호원동 200-45","indutype":"기타 - 기타 전문점","category":"other"}]},{"lat":"37.70395549","long":"127.04995308","imageIndex":17,"items":[{"name":"에스엠리테일","tel":"031-837-6009","addr":"경기도 의정부시 호원동 467번지 아이파크호원동 204동 1002호","indutype":"의류 - 정장","category":"other"}]},{"lat":"37.729435873","long":"127.04673627","imageIndex":17,"items":[{"name":"에이앤에이치정보","tel":"031-837-1647","addr":"경기도 의정부시 호원동 2-24번지 한솔엠파트 101동 201호","indutype":"사무통신 - 컴퓨터","category":"other"}]},{"lat":"37.725931535","long":"127.0456793","imageIndex":17,"items":[{"name":"에프비(F.B)스퀘어","tel":"031-837-5554","addr":"경기도 의정부시 호원동 10-42번지 1층","indutype":"의류 - 정장","category":"other"},{"name":"피플스튜디오","tel":"031-878-5254","addr":"경기도 의정부시 호원동 10-42번지 나현빌딩 2층","indutype":"광학제품 - 사진관","category":"other"}]},{"lat":"37.72386962","long":"127.04199172","imageIndex":17,"items":[{"name":"에프씨가구(FC furniture)","tel":"02-2269-7888","addr":"경기도 의정부시 호원동 308-139번지 회룡역풍림아이원 204동 702호","indutype":"가구 - 일반가구","category":"other"}]},{"lat":"37.713795379","long":"127.04631877","imageIndex":17,"items":[{"name":"에프엠웰딩(FM Welding)","tel":"","addr":"경기도 의정부시 호원동 85-10번지 현대오피스텔 4층 404호","indutype":"수리서비스 - 기타수리서비스","category":"other"}]},{"lat":"37.706516615","long":"127.04351352","imageIndex":17,"items":[{"name":"엘세븐","tel":"02-2606-2331","addr":"경기도 의정부시 호원동 229-166","indutype":"서적문구 - 문구용품","category":"other"}]},{"lat":"37.703415062","long":"127.04957853","imageIndex":17,"items":[{"name":"연희 STYLE","tel":"","addr":"경기도 의정부시 호원동 467번지 아이파크호원동 207동 1502호","indutype":"의류 - 내의판매","category":"other"}]},{"lat":"37.712408965","long":"127.04332394","imageIndex":17,"items":[{"name":"영신사","tel":"031-874-7829","addr":"경기도 의정부시 호원동 249-1번지","indutype":"기타 - 기타 전문점","category":"other"}]},{"lat":"37.719769117","long":"127.04529012","imageIndex":17,"items":[{"name":"영인건업","tel":"031-871-2625","addr":"경기도 의정부시 호원동 284-1번지","indutype":"기타 - 기타 전문점","category":"other"}]},{"lat":"37.706073359","long":"127.04840083","imageIndex":17,"items":[{"name":"예뻐옷방","tel":"031-837-1102","addr":"경기도 의정부시 호원동 466번지 외1필지 아르쥬 1층 108호","indutype":"의류 - 정장","category":"other"},{"name":"페인트 팩토리(PAINT FACTORY)","tel":"031-824-7777","addr":"경기도 의정부시 호원동 466번지 아르쥬빌딩 1층 105호","indutype":"건축자재 - 페인트","category":"other"}]},{"lat":"37.710073604","long":"127.04845998","imageIndex":17,"items":[{"name":"오르체스","tel":"031-855-0518","addr":"경기도 의정부시 호원동 458-9번지","indutype":"의류 - 정장","category":"other"}]},{"lat":"37.721877687","long":"127.04437259","imageIndex":17,"items":[{"name":"오브제213","tel":"031-871-8300","addr":"경기도 의정부시 호원동 309-39번지 1층 104호","indutype":"신변잡화 - 기타잡화","category":"other"}]},{"lat":"37.730546332","long":"127.04010082","imageIndex":17,"items":[{"name":"오호물","tel":"031-875-8240","addr":"경기도 의정부시 호원동 357-12 2","indutype":"건축자재 - 인테리어전문","category":"other"}]},{"lat":"37.728878308","long":"127.04387738","imageIndex":17,"items":[{"name":"올리브","tel":"031-826-9506","addr":"경기도 의정부시 호원동 345-32번지 나래빌딩 1층 101호","indutype":"의류 - 정장","category":"other"}]},{"lat":"37.713209784","long":"127.04623904","imageIndex":17,"items":[{"name":"우리집청소","tel":"","addr":"경기도 의정부시 호원동 85-30번지 태진오피스텔 301호","indutype":"용역 서비스 - 종합용역","category":"other"}]},{"lat":"37.728905242","long":"127.04414964","imageIndex":17,"items":[{"name":"우주종합설비공사","tel":"031-871-4664","addr":"경기도 의정부시 호원동 345-19번지","indutype":"건축자재 - 보일러·펌프·샷시","category":"other"}]},{"lat":"37.70674024","long":"127.04795897","imageIndex":17,"items":[{"name":"원진전기조명","tel":"031-837-0399","addr":"경기도 의정부시 호원동 464-18번지","indutype":"건축자재 - 조명기구","category":"other"}]},{"lat":"37.728156719","long":"127.04617969","imageIndex":17,"items":[{"name":"원큐","tel":"","addr":"경기도 의정부시 호원동 5-12번지 1층","indutype":"레져용품 - 스포츠·레져용품","category":"other"}]},{"lat":"37.706848386","long":"127.04787966","imageIndex":17,"items":[{"name":"웰빙할인마트","tel":"031-872-4300","addr":"경기도 의정부시 호원동 464-17번지","indutype":"유통업 영리 - 연 쇄 점","category":"other"}]},{"lat":"37.712795574","long":"127.0456037","imageIndex":17,"items":[{"name":"위드미 호원안말점","tel":"031-111-1111","addr":"경기도 의정부시 호원동 86-10번지","indutype":"유통업 영리 - 편 의 점","category":"other"}]},{"lat":"37.727706553","long":"127.04531733","imageIndex":17,"items":[{"name":"위드미 회룡점","tel":"","addr":"경기도 의정부시 호원동 6-11번지 1층","indutype":"유통업 영리 - 편 의 점","category":"other"}]},{"lat":"37.728149906","long":"127.03971395","imageIndex":17,"items":[{"name":"유니크","tel":"031-859-5817","addr":"경기도 의정부시 호원동 375번지 호원가든빌라 401동 203호","indutype":"전기제품 - 냉열기기","category":"other"}]},{"lat":"37.703380146","long":"127.04665288","imageIndex":17,"items":[{"name":"유성샷다","tel":"031-872-1443","addr":"경기도 의정부시 호원동 226-29번지 호원쉐르빌 1층","indutype":"건축자재 - 기타건축자재","category":"other"}]},{"lat":"37.726210047","long":"127.04778928","imageIndex":17,"items":[{"name":"유스킨케어","tel":"031-829-3305","addr":"경기도 의정부시 호원동 414-7번지 5층","indutype":"회원제형태 - 기타4","category":"other"}]},{"lat":"37.708741621","long":"127.04456939","imageIndex":17,"items":[{"name":"유엔아이미디어","tel":"031-826-9847","addr":"경기도 의정부시 호원동 119-151번지 경기북부벤쳐센터 106호","indutype":"용역 서비스 - 소프트웨어","category":"other"},{"name":"주식회사 한울아이티","tel":"031-875-8222","addr":"경기도 의정부시 호원동 119-151번지 101호","indutype":"사무통신 - 컴퓨터","category":"other"},{"name":"주식회사헤르메시스","tel":"031-837-7102","addr":"경기도 의정부시 호원동 119-151번지 205호 , 경기중소기업종합지원센터북부지소","indutype":"용역 서비스 - 소프트웨어","category":"other"}]},{"lat":"37.72924054","long":"127.03816042","imageIndex":17,"items":[{"name":"은아의 옷방","tel":"031-000-0000","addr":"경기도 의정부시 호원동 367-1번지 뉴그린빌라 1층 102호","indutype":"의류 - 정장","category":"other"}]},{"lat":"37.712957465","long":"127.04637499","imageIndex":17,"items":[{"name":"은하수","tel":"031-000-0000","addr":"경기도 의정부시 호원동 86-1번지 1층","indutype":"의류 - 정장","category":"other"}]},{"lat":"37.714408053","long":"127.04626242","imageIndex":17,"items":[{"name":"은혜문구점","tel":"031-878-2142","addr":"경기도 의정부시 호원동 258-6번지","indutype":"서적문구 - 문구용품","category":"other"}]},{"lat":"37.705073054","long":"127.04901257","imageIndex":17,"items":[{"name":"의정부MTB","tel":"031-829-0066","addr":"경기도 의정부시 호원동 466-16번지","indutype":"레져용품 - 스포츠·레져용품","category":"other"}]},{"lat":"37.720984715","long":"127.04718498","imageIndex":17,"items":[{"name":"이레네뷰티","tel":"031-321-9478","addr":"경기도 의정부시 호원동 434-2번지 3층","indutype":"직물 - 침구·수예점","category":"other"}]},{"lat":"37.728797222","long":"127.04387733","imageIndex":17,"items":[{"name":"이레전기철물","tel":"031-875-3436","addr":"경기도 의정부시 호원동 326-27번지","indutype":"건축자재 - 목재·석재·철물","category":"other"}]},{"lat":"37.723958179","long":"127.04638142","imageIndex":17,"items":[{"name":"이미지미디어","tel":"031-855-6788","addr":"경기도 의정부시 호원동 50-2번지 회룡타운 508호","indutype":"용역 서비스 - 종합용역","category":"other"},{"name":"주식회사에이치제이","tel":"031-877-8200","addr":"경기도 의정부시 호원동 50-2번지 회룡타운 101호","indutype":"사무통신 - 통신기기","category":"other"},{"name":"토닥스터디카페","tel":"070-7358-0904","addr":"경기도 의정부시 호원동 50-2번지 회룡타운 3층 305호","indutype":"용역 서비스 - 사무서비스","category":"other"}]},{"lat":"37.711128152","long":"127.04734923","imageIndex":17,"items":[{"name":"이엠아이전기","tel":"031-837-2008","addr":"경기도 의정부시 호원동 454-17번지","indutype":"건축자재 - 조명기구","category":"other"}]},{"lat":"37.728373637","long":"127.04426278","imageIndex":17,"items":[{"name":"이즈솔루션","tel":"031-879-1006","addr":"경기도 의정부시 호원동 341-32번지","indutype":"사무통신 - 사무용 OA기기","category":"other"}]},{"lat":"37.705380435","long":"127.04623448","imageIndex":17,"items":[{"name":"이지공사","tel":"031-871-9923","addr":"경기도 의정부시 호원동 226-8번지 12/6","indutype":"용역 서비스 - 기타용역서비스","category":"other"}]},{"lat":"37.710875862","long":"127.04740578","imageIndex":17,"items":[{"name":"일오삼토탈인테리어","tel":"031-877-0153","addr":"경기도 의정부시 호원동 454-21번지","indutype":"직물 - 카페트,커튼,천막,지물","category":"other"}]},{"lat":"37.728988132","long":"127.03862538","imageIndex":17,"items":[{"name":"일창디자인","tel":"02-407-4495","addr":"경기도 의정부시 호원동 366-20번지 1층","indutype":"건축자재 - 인테리어전문","category":"other"}]},{"lat":"37.710326233","long":"127.04751886","imageIndex":17,"items":[{"name":"장수건재","tel":"031-872-2022","addr":"경기도 의정부시 호원동 454-22번지","indutype":"건축자재 - 기타건축자재","category":"other"}]},{"lat":"37.725209705","long":"127.04851462","imageIndex":17,"items":[{"name":"정금당","tel":"031-879-0997","addr":"경기도 의정부시 호원동 425번지 한승프라자 105호","indutype":"신변잡화 - 시계","category":"other"},{"name":"호원문고","tel":"031-829-1879","addr":"경기도 의정부시 호원동 425번지 한승프라자 128동 129호","indutype":"서적문구 - 일반서적","category":"other"}]},{"lat":"37.706965006","long":"127.04918385","imageIndex":17,"items":[{"name":"제이 에스 엠","tel":"070-8777-2116","addr":"경기도 의정부시 호원동 462-33번지 1층","indutype":"의류 - 정장","category":"other"}]},{"lat":"37.728652982","long":"127.04412681","imageIndex":17,"items":[{"name":"제이제이 가든스튜디오","tel":"","addr":"경기도 의정부시 호원동 326-12번지 4층","indutype":"문화.취미 - 화원","category":"other"}]},{"lat":"37.707127684","long":"127.04787983","imageIndex":17,"items":[{"name":"제일상사","tel":"031-875-2050","addr":"경기도 의정부시 호원동 464-14번지","indutype":"기타 - 기계공구","category":"other"}]},{"lat":"37.71287657","long":"127.04585325","imageIndex":17,"items":[{"name":"젝스인터내셔널","tel":"031-829-2205","addr":"경기도 의정부시 호원동 86-7번지 202호","indutype":"회원제형태 - 기타4","category":"other"}]},{"lat":"37.729681309","long":"127.04042935","imageIndex":17,"items":[{"name":"조선일보남의정부지국","tel":"031-871-4423","addr":"경기도 의정부시 호원동 360-2번지","indutype":"서적문구 - 정기간행물","category":"other"}]},{"lat":"37.727709353","long":"127.03665103","imageIndex":17,"items":[{"name":"주식회사 변소","tel":"031-829-9494","addr":"경기도 의정부시 호원동 381-7번지","indutype":"건축자재 - 건축용 요업제품","category":"other"}]},{"lat":"37.710488216","long":"127.04801795","imageIndex":17,"items":[{"name":"주식회사 브이탑코퍼레이션","tel":"02-825-8253","addr":"경기도 의정부시 호원동 458-19번지 정은펠리체 B층 203호","indutype":"사무통신 - 통신기기","category":"other"}]},{"lat":"37.728129472","long":"127.04676953","imageIndex":17,"items":[{"name":"주식회사 오앤오(O.N.O CO.,LTD)","tel":"070-4327-3107","addr":"경기도 의정부시 호원동 5-21번지 2층","indutype":"신변잡화 - 기타잡화","category":"other"}]},{"lat":"37.725876436","long":"127.04845832","imageIndex":17,"items":[{"name":"주식회사미소텔레콤","tel":"031-872-4018","addr":"경기도 의정부시 호원동 417-3번지 전원빌딩 101호","indutype":"사무통신 - 통신기기","category":"other"}]},{"lat":"37.707848604","long":"127.04748335","imageIndex":17,"items":[{"name":"주식회사베스트렌트카","tel":"031-1544-8207","addr":"경기도 의정부시 호원동 119-15번지","indutype":"여행 - 렌터카","category":"other"},{"name":"호원유리상회","tel":"031-873-5611","addr":"경기도 의정부시 호원동 119-15번지","indutype":"건축자재 - 유리","category":"other"}]},{"lat":"37.695461487","long":"127.04443723","imageIndex":17,"items":[{"name":"주식회사상봉기업","tel":"031-871-7131","addr":"경기도 의정부시 호원동 202-1번지","indutype":"건축자재 - 유리","category":"other"}]},{"lat":"37.725985112","long":"127.04698378","imageIndex":17,"items":[{"name":"주식회사아디아쥬얼리","tel":"031-837-9114","addr":"경기도 의정부시 호원동 10-36번지 201호","indutype":"신변잡화 - 귀금속","category":"other"}]},{"lat":"37.728372969","long":"127.0461231","imageIndex":17,"items":[{"name":"주은물산","tel":"070-8841-1999","addr":"경기도 의정부시 호원동 5번지 1층","indutype":"신변잡화 - 기타잡화","category":"other"}]},{"lat":"37.725291057","long":"127.04782275","imageIndex":17,"items":[{"name":"주주어패럴","tel":"031-873-0383","addr":"경기도 의정부시 호원동 426번지 회룡프라자 (1층101-2호,0번지","indutype":"의류 - 정장","category":"other"},{"name":"하늘곰스튜디오","tel":"031-855-0160","addr":"경기도 의정부시 호원동 426번지 회룡프라자 306호","indutype":"광학제품 - 사진관","category":"other"},{"name":"핫요가웰리스","tel":"031-851-0867","addr":"경기도 의정부시 호원동 426번지 회룡프라자 305호","indutype":"회원제형태 - 레져업소","category":"other"}]},{"lat":"37.724039649","long":"127.04532659","imageIndex":17,"items":[{"name":"줌마렐라","tel":"031-826-9806","addr":"경기도 의정부시 호원동 312-1번지 1동 101호","indutype":"의류 - 정장","category":"other"}]},{"lat":"37.704631808","long":"127.04843397","imageIndex":17,"items":[{"name":"지니골프","tel":"070-4249-7502","addr":"경기도 의정부시 호원동 467번지 아이파크호원동 203동 901호","indutype":"의류 - 정장","category":"other"}]},{"lat":"37.705271521","long":"127.04835498","imageIndex":17,"items":[{"name":"지엠(GM) 타일도기","tel":"031-838-5325","addr":"경기도 의정부시 호원동 466-12번지 1층 101호","indutype":"건축자재 - 건축용 요업제품","category":"other"}]},{"lat":"37.70856964","long":"127.04676934","imageIndex":17,"items":[{"name":"차오름공간","tel":"031-823-1290","addr":"경기도 의정부시 호원동 119-138번지 신일스카이빌 202호","indutype":"용역 서비스 - 사무서비스","category":"other"}]},{"lat":"37.704065251","long":"127.04563271","imageIndex":17,"items":[{"name":"착한도배장판마루페인트커튼블라인드탄성코","tel":"","addr":"경기도 의정부시 호원동 226-275번지 가동 502호","indutype":"건축자재 - 인테리어전문","category":"other"}]},{"lat":"37.727555657","long":"127.03846589","imageIndex":17,"items":[{"name":"착한에어컨설치소","tel":"","addr":"경기도 의정부시 호원동 378-1번지 호원노블리안 A동 601호","indutype":"용역 서비스 - 기타용역서비스","category":"other"}]},{"lat":"37.693605217","long":"127.04524121","imageIndex":17,"items":[{"name":"찬지광고","tel":"031-875-8782","addr":"경기도 의정부시 호원동 194-4번지","indutype":"건축자재 - 인테리어전문","category":"other"}]},{"lat":"37.729679679","long":"127.04523905","imageIndex":17,"items":[{"name":"창의과학연구회","tel":"031-000-0000","addr":"경기도 의정부시 호원동 347-1번지 호원두산아파트 102동 1902호","indutype":"서적문구 - 과학기자재","category":"other"}]},{"lat":"37.727987965","long":"127.0389652","imageIndex":17,"items":[{"name":"창호창호이창호","tel":"","addr":"경기도 의정부시 호원동 377-20번지","indutype":"용역 서비스 - 기타용역서비스","category":"other"}]},{"lat":"37.702191189","long":"127.04580172","imageIndex":17,"items":[{"name":"채민시스템","tel":"","addr":"경기도 의정부시 호원동 223-72번지 한빛타운 라동 201호","indutype":"전기제품 - 냉열기기","category":"other"}]},{"lat":"37.70373147","long":"127.04678916","imageIndex":17,"items":[{"name":"청원아쿠아","tel":"031-000-0000","addr":"경기도 의정부시 호원동 226-256번지 라벨르빌 B동 502호","indutype":"용역 서비스 - 종합용역","category":"other"}]},{"lat":"37.711587099","long":"127.04876711","imageIndex":17,"items":[{"name":"카트카인테리어","tel":"031-826-8246","addr":"경기도 의정부시 호원동 456-3호원신일A101-904","indutype":"회원제형태 - 기타4","category":"other"}]},{"lat":"37.695939349","long":"127.04342838","imageIndex":17,"items":[{"name":"코맥스전자","tel":"031-841-5006","addr":"경기도 의정부시 호원동 204-5번지 1호","indutype":"사무통신 - 통신기기","category":"other"}]},{"lat":"37.70443309","long":"127.04972658","imageIndex":17,"items":[{"name":"코콤수원센터","tel":"031-323-0222","addr":"경기도 의정부시 호원동 467번지 아이파크호원동 202동 1502호","indutype":"수리서비스 - 가정용품수리","category":"other"}]},{"lat":"37.729067509","long":"127.04387748","imageIndex":17,"items":[{"name":"쿠방","tel":"031-7656-9398","addr":"경기도 의정부시 호원동 345-8번지","indutype":"문화.취미 - 민예·공예품","category":"other"}]},{"lat":"37.730157668","long":"127.04387808","imageIndex":17,"items":[{"name":"쿠방","tel":"031-837-9398","addr":"경기도 의정부시 호원동 351-6번지 호원빌딩 2층","indutype":"문화.취미 - 문화취미기타","category":"other"},{"name":"펫마트","tel":"031-855-8580","addr":"경기도 의정부시 호원동 351-6번지 호원빌딩","indutype":"문화.취미 - 애완동물","category":"other"}]},{"lat":"37.710714011","long":"127.04654379","imageIndex":17,"items":[{"name":"크로스핏 이가","tel":"031-5022-4846","addr":"경기도 의정부시 호원동 114-2번지 양우내안애팰리스 B101호","indutype":"회원제형태 - 레져업소","category":"other"}]},{"lat":"37.730600275","long":"127.04046385","imageIndex":17,"items":[{"name":"크린매니저","tel":"031-829-3853","addr":"경기도 의정부시 호원동 357-5번지 에비뉴빌","indutype":"수리서비스 - 세탁소","category":"other"}]},{"lat":"37.728348365","long":"127.03890866","imageIndex":17,"items":[{"name":"크린스피드","tel":"031-871-3255","addr":"경기도 의정부시 호원동 377-8번지","indutype":"수리서비스 - 세탁소","category":"other"},{"name":"티나","tel":"070-8666-4178","addr":"경기도 의정부시 호원동 377-8번지 103호","indutype":"의류 - 정장","category":"other"}]},{"lat":"37.729510838","long":"127.03812652","imageIndex":17,"items":[{"name":"크린토피아 코인워시 의정부롯데캐슬점","tel":"031-875-8300","addr":"경기도 의정부시 호원동 367-53번지 103,104호","indutype":"수리서비스 - 세탁소","category":"other"}]},{"lat":"37.708019648","long":"127.04784634","imageIndex":17,"items":[{"name":"타임(TIME)","tel":"031-875-1613","addr":"경기도 의정부시 호원동 464-5번지","indutype":"의류 - 정장","category":"other"},{"name":"효선부띠끄","tel":"","addr":"경기도 의정부시 호원동 464-5번지","indutype":"의류 - 맞춤복점","category":"other"}]},{"lat":"37.706434133","long":"127.04738044","imageIndex":17,"items":[{"name":"태경상회","tel":"0310-5092-0789","addr":"경기도 의정부시 호원동 130-23번지","indutype":"신변잡화 - 기타잡화","category":"other"}]},{"lat":"37.726436071","long":"127.04567959","imageIndex":17,"items":[{"name":"토브","tel":"031-111-1111","addr":"경기도 의정부시 호원동 332-5번지 진원빌라 제상가 1층 103호","indutype":"신변잡화 - 기타잡화","category":"other"}]},{"lat":"37.708875591","long":"127.04776748","imageIndex":17,"items":[{"name":"통신히어로","tel":"031-873-5557","addr":"경기도 의정부시 호원동 454-32번지","indutype":"사무통신 - 통신기기","category":"other"}]},{"lat":"37.728372915","long":"127.04627056","imageIndex":17,"items":[{"name":"퍼피앤견","tel":"031-836-0279","addr":"경기도 의정부시 호원동 5-7번지","indutype":"문화.취미 - 애완동물","category":"other"}]},{"lat":"37.694911626","long":"127.04520793","imageIndex":17,"items":[{"name":"평안상회","tel":"031-875-4240","addr":"경기도 의정부시 호원동 187-5번지","indutype":"신변잡화 - 기타잡화","category":"other"}]},{"lat":"37.716020133","long":"127.04796459","imageIndex":17,"items":[{"name":"포톤테라피샵","tel":"031-872-0905","addr":"경기도 의정부시 호원동 447-13번지 로뎀하이츠빌 마동 601호","indutype":"의류 - 정장","category":"other"}]},{"lat":"37.704487945","long":"127.04767411","imageIndex":17,"items":[{"name":"푸드탱크(FoodTank)","tel":"02-6340-5385","addr":"경기도 의정부시 호원동 468-16번지 재이에스홈타운C 2동 301호","indutype":"신변잡화 - 액세서리","category":"other"}]},{"lat":"37.708965701","long":"127.04773351","imageIndex":17,"items":[{"name":"프롬From","tel":"031-999-8888","addr":"경기도 의정부시 호원동 454-30번지 1층","indutype":"의류 - 정장","category":"other"}]},{"lat":"37.70398326","long":"127.04805936","imageIndex":17,"items":[{"name":"플라플로(FLAFLO)","tel":"","addr":"경기도 의정부시 호원동 467-4번지 예다음 A동 602호","indutype":"의류 - 정장","category":"other"}]},{"lat":"37.715505932","long":"127.04964282","imageIndex":17,"items":[{"name":"피오레","tel":"070-3578-0214","addr":"경기도 의정부시 호원동 445-40번지 승원빌라 A동 203호","indutype":"회원제형태 - 기타1","category":"other"}]},{"lat":"37.727851435","long":"127.04324158","imageIndex":17,"items":[{"name":"피플즈","tel":"031-871-4654","addr":"경기도 의정부시 호원동 326-6번지","indutype":"의류 - 정장","category":"other"}]},{"lat":"37.724238535","long":"127.04340976","imageIndex":17,"items":[{"name":"필라이트","tel":"031-829-7771","addr":"경기도 의정부시 호원동 313-8번지 2층","indutype":"광학제품 - 사진관","category":"other"}]},{"lat":"37.722157072","long":"127.04412321","imageIndex":17,"items":[{"name":"필인테리어","tel":"031-879-0482","addr":"경기도 의정부시 호원동 309-30번지 , 1-2층","indutype":"건축자재 - 인테리어전문","category":"other"}]},{"lat":"37.728372865","long":"127.04640668","imageIndex":17,"items":[{"name":"하나블라인드","tel":"031-875-9002","addr":"경기도 의정부시 호원동 5-8번지 지하1층","indutype":"직물 - 옷감·직물","category":"other"}]},{"lat":"37.709659479","long":"127.04763186","imageIndex":17,"items":[{"name":"한곡천막앵글","tel":"031-829-0094","addr":"경기도 의정부시 호원동 454-26번지","indutype":"직물 - 카페트,커튼,천막,지물","category":"other"}]},{"lat":"37.727904287","long":"127.04662193","imageIndex":17,"items":[{"name":"한샘키친 리버사이드대리점","tel":"","addr":"경기도 의정부시 호원동 6-25번지","indutype":"건축자재 - 인테리어전문","category":"other"}]},{"lat":"37.708182168","long":"127.04692787","imageIndex":17,"items":[{"name":"한일신용유통","tel":"031-878-2343","addr":"경기도 의정부시 호원동 119-31번지","indutype":"서적문구 - 문구용품","category":"other"}]},{"lat":"37.707739703","long":"127.0495132","imageIndex":17,"items":[{"name":"해담 수족관","tel":"070-4144-8212","addr":"경기도 의정부시 호원동 462-4번지","indutype":"문화.취미 - 수족관","category":"other"}]},{"lat":"37.725542843","long":"127.04907063","imageIndex":17,"items":[{"name":"해바라기화원","tel":"031-875-0540","addr":"경기도 의정부시 호원동 423-5번지 홍성빌딩 1층","indutype":"문화.취미 - 화원","category":"other"}]},{"lat":"37.721841898","long":"127.04365799","imageIndex":17,"items":[{"name":"핸드인아트","tel":"","addr":"경기도 의정부시 호원동 309-33번지 해오름하우스 A동 102호","indutype":"문화.취미 - 문화취미기타","category":"other"},{"name":"행복한컴퓨터","tel":"031-837-6780","addr":"경기도 의정부시 호원동 309-33번지 해오름하우스 A동 102호","indutype":"사무통신 - 컴퓨터","category":"other"}]},{"lat":"37.701659493","long":"127.04615294","imageIndex":17,"items":[{"name":"행복의샘요양원","tel":"031-873-8295","addr":"경기도 의정부시 호원동 223-45번지","indutype":"기타의료기관 - 기타의료기관 및 기타","category":"other"}]},{"lat":"37.712597672","long":"127.04474167","imageIndex":17,"items":[{"name":"혜훈상회","tel":"070-7690-8515","addr":"경기도 의정부시 호원동 250-37번지","indutype":"의류 - 정장","category":"other"}]},{"lat":"37.725903721","long":"127.04778909","imageIndex":17,"items":[{"name":"호원사랑마루요양원","tel":"031-877-1141","addr":"경기도 의정부시 호원동 414-9번지 준원프라자 5층","indutype":"기타의료기관 - 기타의료기관 및 기타","category":"other"}]},{"lat":"37.708767476","long":"127.04776741","imageIndex":17,"items":[{"name":"호원정보통신","tel":"031-837-7011","addr":"경기도 의정부시 호원동 454-33번지 1층","indutype":"사무통신 - 통신기기","category":"other"}]},{"lat":"37.713326071","long":"127.04846197","imageIndex":17,"items":[{"name":"호현유통","tel":"031-877-7717","addr":"경기도 의정부시 호원동 452번지","indutype":"주방용구 - 주방용구","category":"other"}]},{"lat":"37.723959392","long":"127.0429559","imageIndex":17,"items":[{"name":"회룡건재","tel":"031-977-6579","addr":"경기도 의정부시 호원동 308-139번지 회룡역풍림아이원 205동 1303호","indutype":"건축자재 - 기타건축자재","category":"other"}]},{"lat":"37.728877819","long":"127.04526128","imageIndex":17,"items":[{"name":"힐스템 의정부센타","tel":"031-875-0321","addr":"경기도 의정부시 호원동 341-12번지 1층","indutype":"전기제품 - 기타전기제품","category":"other"}]}]