[{"lat":"37.211544869","long":"126.87526518","imageIndex":4,"items":[{"name":"남비봉뷔페","tel":"031-000-0000","addr":"경기도 화성시 비봉면 자안리 294-1번지","indutype":"일반휴게음식 - 서양음식","category":"restaurant"}]},{"lat":"37.202965703","long":"126.87407434","imageIndex":4,"items":[{"name":"다정한식뷔페","tel":"031-000-0000","addr":"경기도 화성시 비봉면 자안리 505-8번지 2층 203호","indutype":"일반휴게음식 - 일반한식","category":"restaurant"}]},{"lat":"37.197525349","long":"126.87585195","imageIndex":4,"items":[{"name":"맥코윈치킨","tel":"031-355-4433","addr":"경기도 화성시 비봉면 자안리 786번지 1층","indutype":"일반휴게음식 - 스넥","category":"restaurant"}]},{"lat":"37.197714507","long":"126.87579532","imageIndex":4,"items":[{"name":"방아다리식당","tel":"031-356-7836","addr":"경기도 화성시 비봉면 자안리 783번지","indutype":"일반휴게음식 - 일반한식","category":"restaurant"}]},{"lat":"37.198128924","long":"126.87573831","imageIndex":4,"items":[{"name":"방아다리칼국수","tel":"031-356-9523","addr":"경기도 화성시 비봉면 자안리 664-1번지 1층","indutype":"일반휴게음식 - 일반한식","category":"restaurant"}]},{"lat":"37.198219305","long":"126.87599722","imageIndex":4,"items":[{"name":"보미한식부페","tel":"031-355-7548","addr":"경기도 화성시 비봉면 자안리 663-2번지","indutype":"일반휴게음식 - 일반한식","category":"restaurant"}]},{"lat":"37.205351513","long":"126.87230173","imageIndex":4,"items":[{"name":"쉐리","tel":"031-355-6217","addr":"경기도 화성시 비봉면 자안리 528번지 2층 일부","indutype":"일반휴게음식 - 서양음식","category":"restaurant"},{"name":"아정뷔페","tel":"031-111-1111","addr":"경기도 화성시 비봉면 자안리 528번지 2층","indutype":"일반휴게음식 - 일반한식","category":"restaurant"}]},{"lat":"37.197156635","long":"126.87651712","imageIndex":4,"items":[{"name":"일품청국장","tel":"031-356-2170","addr":"경기도 화성시 비봉면 자안리 800번지","indutype":"일반휴게음식 - 일반한식","category":"restaurant"}]},{"lat":"37.197660686","long":"126.87602068","imageIndex":4,"items":[{"name":"자안식당","tel":"031-356-6140","addr":"경기도 화성시 비봉면 자안리 784번지","indutype":"일반휴게음식 - 일반한식","category":"restaurant"}]},{"lat":"37.20460426","long":"126.87285498","imageIndex":4,"items":[{"name":"전주식당","tel":"031-366-9886","addr":"경기도 화성시 비봉면 자안리 517-2번지","indutype":"일반휴게음식 - 일반한식","category":"restaurant"}]},{"lat":"37.199656552","long":"126.87193983","imageIndex":4,"items":[{"name":"정가네한식부페","tel":"031-355-1612","addr":"경기도 화성시 비봉면 자안리 760-6번지","indutype":"일반휴게음식 - 일반한식","category":"restaurant"}]},{"lat":"37.197191372","long":"126.8753006","imageIndex":4,"items":[{"name":"중국성","tel":"031-356-3650","addr":"경기도 화성시 비봉면 자안리 792-2번지","indutype":"일반휴게음식 - 중국식","category":"restaurant"}]},{"lat":"37.197632784","long":"126.87520975","imageIndex":4,"items":[{"name":"최부자송탄부대찌개","tel":"031-355-2811","addr":"경기도 화성시 비봉면 자안리 781-3 자안프라자 5","indutype":"일반휴게음식 - 일반한식","category":"restaurant"}]},{"lat":"37.196885311","long":"126.87557144","imageIndex":4,"items":[{"name":"한식부페맛집","tel":"","addr":"경기도 화성시 비봉면 자안리 793-14번지 1층","indutype":"일반휴게음식 - 일반한식","category":"restaurant"}]},{"lat":"37.19719176","long":"126.87566103","imageIndex":4,"items":[{"name":"한잔해","tel":"031-357-7672","addr":"경기도 화성시 비봉면 자안리 793-2번지 1층","indutype":"일반휴게음식 - 일반한식","category":"restaurant"}]}]