[{"lat":"37.80628647","long":"127.20879957","imageIndex":17,"items":[{"name":"(주)고려지엠아이","tel":"031-533-6223","addr":"경기도 포천시 내촌면 진목리 938","indutype":"건축자재 - 유리","category":"other"}]},{"lat":"37.800539164","long":"127.21846896","imageIndex":17,"items":[{"name":"(주)씨에스플라즈마","tel":"032-219-7976","addr":"경기도 포천시 내촌면 진목리 47-3","indutype":"기타 - 기계공구","category":"other"}]},{"lat":"37.803924017","long":"127.21499282","imageIndex":17,"items":[{"name":"(주)한미전기","tel":"031-534-5588","addr":"경기도 포천시 내촌면 진목리 427-1","indutype":"전기제품 - 기타전기제품","category":"other"}]},{"lat":"37.803735126","long":"127.21977271","imageIndex":17,"items":[{"name":"SKY(스카이)산업","tel":"031-533-6797","addr":"경기도 포천시 내촌면 진목리 104번지","indutype":"신변잡화 - 가방","category":"other"}]},{"lat":"37.796533797","long":"127.21132711","imageIndex":17,"items":[{"name":"고산종합포장","tel":"031-534-1864","addr":"경기도 포천시 내촌면 진목리 562-1번지","indutype":"유통업 영리 - 기타유통업","category":"other"}]},{"lat":"37.787043029","long":"127.20836019","imageIndex":17,"items":[{"name":"금정","tel":"070-8226-9796","addr":"경기도 포천시 내촌면 진목리 738-1번지 나동","indutype":"가구 - 일반가구","category":"other"}]},{"lat":"37.794345271","long":"127.21088953","imageIndex":17,"items":[{"name":"내촌중고생활용품","tel":"031-534-8933","addr":"경기도 포천시 내촌면 진목리 615-2번지","indutype":"신변잡화 - 기타잡화","category":"other"}]},{"lat":"37.794673534","long":"127.21375155","imageIndex":17,"items":[{"name":"누림","tel":"031-534-3237","addr":"경기도 포천시 내촌면 진목리 600번지 GIG기업내 누림가구","indutype":"가구 - 일반가구","category":"other"}]},{"lat":"37.789681979","long":"127.20883296","imageIndex":17,"items":[{"name":"다원수출포장","tel":"031-533-9003","addr":"경기도 포천시 내촌면 진목리 794번지","indutype":"유통업 영리 - 기타유통업","category":"other"}]},{"lat":"37.806288745","long":"127.20749372","imageIndex":17,"items":[{"name":"대성기계","tel":"031-531-9888","addr":"경기도 포천시 내촌면 진목리 926-1번지","indutype":"기타 - 기계공구","category":"other"}]},{"lat":"37.812201231","long":"127.21132572","imageIndex":17,"items":[{"name":"대한컨테이너","tel":"031-534-2238","addr":"경기도 포천시 내촌면 진목리 210-7번지","indutype":"건축자재 - 기타건축자재","category":"other"}]},{"lat":"37.80365102","long":"127.22140757","imageIndex":17,"items":[{"name":"동신요업","tel":"031-534-4674","addr":"경기도 포천시 내촌면 진목리 114-6","indutype":"기타 - 기타 전문점","category":"other"}]},{"lat":"37.804568297","long":"127.21241707","imageIndex":17,"items":[{"name":"두웰 스폰지","tel":"031-532-0313","addr":"경기도 포천시 내촌면 진목리 390-4번지","indutype":"직물 - 기타직물","category":"other"}]},{"lat":"37.801257122","long":"127.21999256","imageIndex":17,"items":[{"name":"미도 안전공구 철물","tel":"031-543-2017","addr":"경기도 포천시 내촌면 진목리 58번지 1층","indutype":"건축자재 - 목재·석재·철물","category":"other"}]},{"lat":"37.80334144","long":"127.21329928","imageIndex":17,"items":[{"name":"미술석재","tel":"031-531-4572","addr":"경기도 포천시 내촌면 진목리 461-1","indutype":"문화.취미 - 민예·공예품","category":"other"}]},{"lat":"37.817119492","long":"127.2118279","imageIndex":17,"items":[{"name":"셀룩스LED조명","tel":"031-532-4809","addr":"경기도 포천시 내촌면 진목리 239-17번지","indutype":"건축자재 - 조명기구","category":"other"}]},{"lat":"37.815532791","long":"127.21241398","imageIndex":17,"items":[{"name":"스타펫","tel":"02-977-3328","addr":"경기도 포천시 내촌면 진목리 225번지","indutype":"문화.취미 - 애완동물","category":"other"}]},{"lat":"37.81081017","long":"127.21335454","imageIndex":17,"items":[{"name":"승지사","tel":"031-533-2908","addr":"경기도 포천시 내촌면 진목리 350-1번지","indutype":"기타 - 기계공구","category":"other"}]},{"lat":"37.806648687","long":"127.20774453","imageIndex":17,"items":[{"name":"씨유내촌로드점","tel":"031-532-3818","addr":"경기도 포천시 내촌면 진목리 926-2번지","indutype":"유통업 영리 - 편 의 점","category":"other"}]},{"lat":"37.817281701","long":"127.21180565","imageIndex":17,"items":[{"name":"에스엘테크","tel":"031-533-0888","addr":"경기도 포천시 내촌면 진목리 239-5번지","indutype":"기타 - 기계공구","category":"other"}]},{"lat":"37.795541857","long":"127.21183524","imageIndex":17,"items":[{"name":"에프앤씨주식회사","tel":"031-532-9546","addr":"경기도 포천시 내촌면 진목리 570-2번지","indutype":"가구 - 일반가구","category":"other"}]},{"lat":"37.803234218","long":"127.21279936","imageIndex":17,"items":[{"name":"엠장갑","tel":"031-840-6214","addr":"경기도 포천시 내촌면 진목리 459-5번지","indutype":"의류 - 기타의류","category":"other"}]},{"lat":"37.801953586","long":"127.21352244","imageIndex":17,"items":[{"name":"영보공예","tel":"031-529-9588","addr":"경기도 포천시 내촌면 진목리 464-1","indutype":"문화.취미 - 민예·공예품","category":"other"}]},{"lat":"37.79443172","long":"127.21294476","imageIndex":17,"items":[{"name":"제동장비기계","tel":"031-533-6612","addr":"경기도 포천시 내촌면 진목리 609-12번지","indutype":"기타 - 기계공구","category":"other"}]},{"lat":"37.808867835","long":"127.21127093","imageIndex":17,"items":[{"name":"주식회사 모노화학","tel":"031-532-0895","addr":"경기도 포천시 내촌면 진목리 350-15","indutype":"유통업 영리 - 기타유통업","category":"other"}]},{"lat":"37.786904406","long":"127.21034647","imageIndex":17,"items":[{"name":"주식회사 이엘티(EL.T Co.,Ltd.)","tel":"031-111-1111","addr":"경기도 포천시 내촌면 진목리 744번지 가동","indutype":"건축자재 - 인테리어전문","category":"other"}]},{"lat":"37.785035899","long":"127.20721943","imageIndex":17,"items":[{"name":"주식회사 해비치","tel":"031-536-5342","addr":"경기도 포천시 내촌면 진목리 715번지 1층","indutype":"가구 - 일반가구","category":"other"}]},{"lat":"37.805839043","long":"127.20704962","imageIndex":17,"items":[{"name":"주식회사이노랩","tel":"031-533-2593","addr":"경기도 포천시 내촌면 진목리 923번지","indutype":"서적문구 - 과학기자재","category":"other"}]},{"lat":"37.803429337","long":"127.21452586","imageIndex":17,"items":[{"name":"큐원에코텍","tel":"031-528-8622","addr":"경기도 포천시 내촌면 진목리 427-3번지","indutype":"기타 - 기계공구","category":"other"}]},{"lat":"37.803727144","long":"127.20916718","imageIndex":17,"items":[{"name":"크라운휀스빌드","tel":"031-531-1336","addr":"경기도 포천시 내촌면 진목리 904-2번지","indutype":"건축자재 - 기타건축자재","category":"other"}]},{"lat":"37.814012119","long":"127.21636175","imageIndex":17,"items":[{"name":"한내레미콘 주식회사","tel":"031-533-0930","addr":"경기도 포천시 내촌면 진목리 산11","indutype":"건축자재 - 기타건축자재","category":"other"}]},{"lat":"37.789096377","long":"127.21391734","imageIndex":17,"items":[{"name":"한솔플라텍","tel":"031-534-0872","addr":"경기도 포천시 내촌면 진목리 660-12번지 나동","indutype":"유통업 영리 - 기타유통업","category":"other"}]},{"lat":"37.813284601","long":"127.21005685","imageIndex":17,"items":[{"name":"해솔촌명품포도농장","tel":"070-8957-2980","addr":"경기도 포천시 내촌면 진목리 264번지","indutype":"회원제형태 - 기타4","category":"other"}]},{"lat":"37.806565662","long":"127.20885713","imageIndex":17,"items":[{"name":"해피트리","tel":"70-4218-2647","addr":"경기도 포천시 내촌면 진목리 926-7번지","indutype":"가구 - 일반가구","category":"other"}]}]