[{"lat":"37.841909382","long":"126.79170746","imageIndex":17,"items":[{"name":"(주)덕인","tel":"031-954-3014","addr":"경기도 파주시 파주읍 봉서리 602번지","indutype":"의류 - 정장","category":"other"}]},{"lat":"37.835911207","long":"126.7928719","imageIndex":17,"items":[{"name":"88마켓","tel":"","addr":"경기도 파주시 파주읍 봉서리 110-8번지","indutype":"의류 - 정장","category":"other"}]},{"lat":"37.845247657","long":"126.79440193","imageIndex":17,"items":[{"name":"E shop 우화","tel":"","addr":"경기도 파주시 파주읍 봉서리 434-6번지","indutype":"문화.취미 - 화원","category":"other"}]},{"lat":"37.841024956","long":"126.79086929","imageIndex":17,"items":[{"name":"대진건설도료","tel":"031-948-1283","addr":"경기도 파주시 파주읍 봉서리 938번지","indutype":"건축자재 - 페인트","category":"other"}]},{"lat":"37.845777644","long":"126.79864959","imageIndex":17,"items":[{"name":"대진기계미장","tel":"031-954-9545","addr":"경기도 파주시 파주읍 봉서리 242-5","indutype":"용역 서비스 - 기타용역서비스","category":"other"}]},{"lat":"37.841520368","long":"126.79081107","imageIndex":17,"items":[{"name":"덕인무역","tel":"031-954-3012","addr":"경기도 파주시 파주읍 봉서리 937-1번지","indutype":"의류 - 기타의류","category":"other"}]},{"lat":"37.848773989","long":"126.79140384","imageIndex":17,"items":[{"name":"모뉴엘","tel":"031-954-9661","addr":"경기도 파주시 파주읍 봉서리 405-2번지","indutype":"사무통신 - 기타 사무용품","category":"other"}]},{"lat":"37.847444275","long":"126.78845361","imageIndex":17,"items":[{"name":"문산철물","tel":"031-953-7838","addr":"경기도 파주시 파주읍 봉서리 471-5","indutype":"건축자재 - 목재·석재·철물","category":"other"}]},{"lat":"37.846581504","long":"126.78962634","imageIndex":17,"items":[{"name":"부영가구","tel":"031-952-1301","addr":"경기도 파주시 파주읍 봉서리 459-3번지","indutype":"주방용구 - 주방용구","category":"other"}]},{"lat":"37.849108679","long":"126.79215277","imageIndex":17,"items":[{"name":"비비 엘이디(BB LED)조명","tel":"031-953-9779","addr":"경기도 파주시 파주읍 봉서리 401-18번지","indutype":"건축자재 - 조명기구","category":"other"}]},{"lat":"37.851214403","long":"126.79583949","imageIndex":17,"items":[{"name":"삼원냉동","tel":"070-7700-8448","addr":"경기도 파주시 파주읍 봉서리 312-4","indutype":"전기제품 - 냉열기기","category":"other"}]},{"lat":"37.852439737","long":"126.80106277","imageIndex":17,"items":[{"name":"상아퍼니처","tel":"070-4062-5689","addr":"경기도 파주시 파주읍 봉서리 292-9번지","indutype":"건축자재 - 기타건축자재","category":"other"}]},{"lat":"37.845216523","long":"126.79209567","imageIndex":17,"items":[{"name":"세븐일레븐파주봉서점","tel":"031-1577-0711","addr":"경기도 파주시 파주읍 봉서리 836번지","indutype":"유통업 영리 - 편 의 점","category":"other"}]},{"lat":"37.841826604","long":"126.79076475","imageIndex":17,"items":[{"name":"씨유파주봉서점","tel":"080-080-3663","addr":"경기도 파주시 파주읍 봉서리 937번지","indutype":"유통업 영리 - 편 의 점","category":"other"}]},{"lat":"37.842303997","long":"126.79070658","imageIndex":17,"items":[{"name":"영틴 가구랑 인테리어","tel":"031-952-6999","addr":"경기도 파주시 파주읍 봉서리 936-2번지","indutype":"가구 - 일반가구","category":"other"}]},{"lat":"37.845555939","long":"126.79045868","imageIndex":17,"items":[{"name":"이마트24 파주통일로점","tel":"070-7167-1545","addr":"경기도 파주시 파주읍 봉서리 455-12번지","indutype":"유통업 영리 - 편 의 점","category":"other"}]},{"lat":"37.845473071","long":"126.79450355","imageIndex":17,"items":[{"name":"전진출장용접","tel":"","addr":"경기도 파주시 파주읍 봉서리 434-1번지","indutype":"용역 서비스 - 기타용역서비스","category":"other"}]},{"lat":"37.84771441","long":"126.7883733","imageIndex":17,"items":[{"name":"지산아이티","tel":"031-952-0981","addr":"경기도 파주시 파주읍 봉서리 345-1번지","indutype":"농업 - 농기계","category":"other"}]},{"lat":"37.843550301","long":"126.79748555","imageIndex":17,"items":[{"name":"쿠쿠매트","tel":"031-943-4159","addr":"경기도 파주시 파주읍 봉서리 247-7번지","indutype":"신변잡화 - 기타잡화","category":"other"}]},{"lat":"37.846715222","long":"126.78884201","imageIndex":17,"items":[{"name":"태성상사","tel":"031-954-2900","addr":"경기도 파주시 파주읍 봉서리 472-1번지","indutype":"건축자재 - 기타건축자재","category":"other"}]},{"lat":"37.842105832","long":"126.79072987","imageIndex":17,"items":[{"name":"파주문산재활용","tel":"031-947-5777","addr":"경기도 파주시 파주읍 봉서리 936번지","indutype":"신변잡화 - 기타잡화","category":"other"}]},{"lat":"37.845242941","long":"126.79175476","imageIndex":17,"items":[{"name":"퍼퓸","tel":"","addr":"경기도 파주시 파주읍 봉서리 832-4번지","indutype":"의류 - 정장","category":"other"}]},{"lat":"37.852829002","long":"126.8021525","imageIndex":17,"items":[{"name":"편의점24","tel":"031-000-0000","addr":"경기도 파주시 파주읍 봉서리 291-3번지","indutype":"유통업 영리 - 편 의 점","category":"other"}]},{"lat":"37.844944324","long":"126.79609561","imageIndex":17,"items":[{"name":"하늘컴퓨터","tel":"031-953-2377","addr":"경기도 파주시 파주읍 봉서리 256-7번지","indutype":"사무통신 - 컴퓨터","category":"other"}]},{"lat":"37.847853073","long":"126.79031575","imageIndex":17,"items":[{"name":"한사랑요양병원장례식장","tel":"031-953-7900","addr":"경기도 파주시 파주읍 봉서리 349번지","indutype":"용역 서비스 - 가례서비스업","category":"other"}]},{"lat":"37.842105832","long":"126.79072987","imageIndex":0,"items":[{"name":"CC자동차인테리어","tel":"031-954-3779","addr":"경기도 파주시 파주읍 봉서리 936번지","indutype":"자동차정비 유지 - 자동차부품","category":"car"}]},{"lat":"37.849526851","long":"126.79425354","imageIndex":0,"items":[{"name":"문산지점서비스(GM)","tel":"031-954-8255","addr":"경기도 파주시 파주읍 봉서리 389-1번지","indutype":"자동차정비 유지 - 자동차정비","category":"car"}]},{"lat":"37.850055654","long":"126.79270681","imageIndex":0,"items":[{"name":"삼성이동공업사","tel":"031-953-7176","addr":"경기도 파주시 파주읍 봉서리 376-1번지","indutype":"자동차정비 유지 - 자동차정비","category":"car"}]},{"lat":"37.849472311","long":"126.793981","imageIndex":0,"items":[{"name":"신세계성원자동차매매상사","tel":"031-954-9545","addr":"경기도 파주시 파주읍 봉서리 389-5번지","indutype":"자동차판매 - 중고자동차판매","category":"car"}]},{"lat":"37.849271923","long":"126.79275448","imageIndex":0,"items":[{"name":"인영자동차정비 주식회사","tel":"031-954-3611","addr":"경기도 파주시 파주읍 봉서리 393","indutype":"자동차정비 유지 - 자동차정비","category":"car"}]},{"lat":"37.846410471","long":"126.78970637","imageIndex":0,"items":[{"name":"자타자","tel":"031-954-9954","addr":"경기도 파주시 파주읍 봉서리 461-3번지","indutype":"자동차정비 유지 - 자동차부품","category":"car"}]},{"lat":"37.846994263","long":"126.78870487","imageIndex":0,"items":[{"name":"제이엔티(JNT)모터스","tel":"031-954-0519","addr":"경기도 파주시 파주읍 봉서리 472-5번지","indutype":"자동차정비 유지 - 자동차정비","category":"car"}]},{"lat":"37.846715222","long":"126.78884201","imageIndex":0,"items":[{"name":"주식회사 타이어문산총판","tel":"031-954-2339","addr":"경기도 파주시 파주읍 봉서리 472-1번지","indutype":"자동차정비 유지 - 자동차시트·타이어","category":"car"}]},{"lat":"37.846887554","long":"126.78947776","imageIndex":0,"items":[{"name":"휠.타이어싸게잘해주는집","tel":"031-954-6302","addr":"경기도 파주시 파주읍 봉서리 457-3번지","indutype":"자동차정비 유지 - 자동차시트·타이어","category":"car"}]},{"lat":"37.849472311","long":"126.793981","imageIndex":4,"items":[{"name":"강원도 진국추어탕","tel":"031-953-3671","addr":"경기도 파주시 파주읍 봉서리 389-5번지","indutype":"일반휴게음식 - 일반한식","category":"restaurant"}]},{"lat":"37.849526851","long":"126.79425354","imageIndex":4,"items":[{"name":"건빵사격카페","tel":"031-953-7779","addr":"경기도 파주시 파주읍 봉서리 389-1번지","indutype":"일반휴게음식 - 서양음식","category":"restaurant"}]},{"lat":"37.848387973","long":"126.79217754","imageIndex":4,"items":[{"name":"까망돼지파주","tel":"031-952-3387","addr":"경기도 파주시 파주읍 봉서리 395번지","indutype":"일반휴게음식 - 일반한식","category":"restaurant"}]},{"lat":"37.84541483","long":"126.79215192","imageIndex":4,"items":[{"name":"도우사철탕","tel":"031-953-7447","addr":"경기도 파주시 파주읍 봉서리 421-26번지","indutype":"일반휴게음식 - 일반한식","category":"restaurant"}]},{"lat":"37.849241964","long":"126.79111845","imageIndex":4,"items":[{"name":"맛나반점","tel":"031-952-7737","addr":"경기도 파주시 파주읍 봉서리 404-2번지","indutype":"일반휴게음식 - 중국식","category":"restaurant"}]},{"lat":"37.852436945","long":"126.79429079","imageIndex":4,"items":[{"name":"문산밤나무골","tel":"031-952-5240","addr":"경기도 파주시 파주읍 봉서리 327-1번지","indutype":"일반휴게음식 - 일반한식","category":"restaurant"}]},{"lat":"37.845330541","long":"126.79036843","imageIndex":4,"items":[{"name":"문산짬뽕","tel":"031-953-2277","addr":"경기도 파주시 파주읍 봉서리 465-2번지","indutype":"일반휴게음식 - 중국식","category":"restaurant"}]},{"lat":"37.841826604","long":"126.79076475","imageIndex":4,"items":[{"name":"봉서리 한식분식","tel":"031-953-1608","addr":"경기도 파주시 파주읍 봉서리 937번지","indutype":"일반휴게음식 - 일반한식","category":"restaurant"}]},{"lat":"37.840718482","long":"126.79584611","imageIndex":4,"items":[{"name":"봉서리댁의 부엌 호미재","tel":"031-111-1111","addr":"경기도 파주시 파주읍 봉서리 588-16번지","indutype":"일반휴게음식 - 서양음식","category":"restaurant"}]},{"lat":"37.849577059","long":"126.78711809","imageIndex":4,"items":[{"name":"어육도","tel":"","addr":"경기도 파주시 파주읍 봉서리 340-42번지","indutype":"일반휴게음식 - 일반한식","category":"restaurant"}]},{"lat":"37.853742371","long":"126.79376443","imageIndex":4,"items":[{"name":"영욱이네농장","tel":"031-954-0259","addr":"경기도 파주시 파주읍 봉서리 329","indutype":"일반휴게음식 - 일반한식","category":"restaurant"}]},{"lat":"37.845968045","long":"126.78917365","imageIndex":4,"items":[{"name":"오두산 막국수","tel":"031-952-5232","addr":"경기도 파주시 파주읍 봉서리 474-9번지","indutype":"일반휴게음식 - 일반한식","category":"restaurant"}]},{"lat":"37.853107574","long":"126.80173134","imageIndex":4,"items":[{"name":"오뚜기식당","tel":"031-952-2247","addr":"경기도 파주시 파주읍 봉서리 291-30번지","indutype":"일반휴게음식 - 일반한식","category":"restaurant"}]},{"lat":"37.835689221","long":"126.79470147","imageIndex":4,"items":[{"name":"옥이네사철탕","tel":"031-954-5977","addr":"경기도 파주시 파주읍 봉서리 1042번지","indutype":"일반휴게음식 - 일반한식","category":"restaurant"}]},{"lat":"37.848665326","long":"126.79109738","imageIndex":4,"items":[{"name":"육대장 파주문산","tel":"031-952-6650","addr":"경기도 파주시 파주읍 봉서리 405-9번지","indutype":"일반휴게음식 - 일반한식","category":"restaurant"}]},{"lat":"37.848748041","long":"126.79200609","imageIndex":4,"items":[{"name":"으뜸착한낙지/주식회사 송원","tel":"031-952-7200","addr":"경기도 파주시 파주읍 봉서리 405-1번지","indutype":"일반휴게음식 - 일반한식","category":"restaurant"}]},{"lat":"37.840139479","long":"126.79448447","imageIndex":4,"items":[{"name":"파주맛고을","tel":"031-953-7857","addr":"경기도 파주시 파주읍 봉서리 959번지","indutype":"일반휴게음식 - 일반한식","category":"restaurant"}]},{"lat":"37.847853073","long":"126.79031575","imageIndex":4,"items":[{"name":"한사랑식당","tel":"031-953-7900","addr":"경기도 파주시 파주읍 봉서리 349번지","indutype":"일반휴게음식 - 일반한식","category":"restaurant"}]},{"lat":"37.849159037","long":"126.79009612","imageIndex":7,"items":[{"name":"공원매점","tel":"031-953-2021","addr":"경기도 파주시 파주읍 봉서리 358-4","indutype":"음료식품 - 기타음료식품","category":"food"}]},{"lat":"37.851888864","long":"126.79008827","imageIndex":7,"items":[{"name":"따봉매점","tel":"031-953-3540","addr":"경기도 파주시 파주읍 봉서리 336번지","indutype":"음료식품 - 기타음료식품","category":"food"}]},{"lat":"37.848383759","long":"126.8000399","imageIndex":7,"items":[{"name":"봉서산농원","tel":"070-7520-8402","addr":"경기도 파주시 파주읍 봉서리 273-1번지","indutype":"건강식품 - 기타건강식품","category":"food"}]},{"lat":"37.841664233","long":"126.800899","imageIndex":16,"items":[{"name":"문산신나는어린이집[아이행복]","tel":"031-954-3252","addr":"경기도 파주시 파주읍 봉서리 231번지","indutype":"학원 - 유아원","category":"study"},{"name":"신나는유치원[아이행복]","tel":"031-954-1114","addr":"경기도 파주시 파주읍 봉서리 231","indutype":"학원 - 유치원","category":"study"}]},{"lat":"37.848831012","long":"126.7930625","imageIndex":16,"items":[{"name":"뽀뽀뽀 어린이집[아이행복]","tel":"031-954-1900","addr":"경기도 파주시 파주읍 봉서리 394번지","indutype":"학원 - 유아원","category":"study"},{"name":"뽀뽀뽀유치원[아이행복]","tel":"031-954-1900","addr":"경기도 파주시 파주읍 봉서리 394","indutype":"학원 - 유치원","category":"study"}]},{"lat":"37.849609361","long":"126.79506","imageIndex":16,"items":[{"name":"아이엠어린이집[아이행복]","tel":"031-954-7567","addr":"경기도 파주시 파주읍 봉서리 382-3번지","indutype":"학원 - 유아원","category":"study"}]},{"lat":"37.8493573","long":"126.79517433","imageIndex":16,"items":[{"name":"이피에스어린이집[아이행복]","tel":"031-954-7567","addr":"경기도 파주시 파주읍 봉서리 384번지","indutype":"학원 - 유아원","category":"study"}]},{"lat":"37.835855403","long":"126.79698433","imageIndex":9,"items":[{"name":"성창종합가스","tel":"031-954-4884","addr":"경기도 파주시 파주읍 봉서리 59-3번지","indutype":"연료판매점 - LPG 취급점","category":"oil"}]},{"lat":"37.849468197","long":"126.79167454","imageIndex":9,"items":[{"name":"첨단주유소","tel":"031-954-5145","addr":"경기도 파주시 파주읍 봉서리 401-8번지","indutype":"연료판매점 - 주유소","category":"oil"}]},{"lat":"37.845443987","long":"126.79334477","imageIndex":9,"items":[{"name":"희망에너지","tel":"031-904-6904","addr":"경기도 파주시 파주읍 봉서리 431-13번지","indutype":"연료판매점 - 유류판매","category":"oil"}]},{"lat":"37.852829002","long":"126.8021525","imageIndex":5,"items":[{"name":"중휴림","tel":"031-954-6267","addr":"경기도 파주시 파주읍 봉서리 291-3번지","indutype":"숙박업 - 여관/기타숙박업","category":"hotel"}]}]