[{"lat":"36.968688872","long":"126.92271302","imageIndex":4,"items":[{"name":"그옛날토종닭","tel":"031-656-9828","addr":"경기도 평택시 현덕면 화양리 27-2번지","indutype":"음식점 - 한식","category":"restaurant"},{"name":"그옛날토종닭","tel":"031-681-3919","addr":"경기도 평택시 현덕면 화양리 27-2번지","indutype":"일반휴게음식 - 일반한식","category":"restaurant"}]},{"lat":"36.970437498","long":"126.92351974","imageIndex":4,"items":[{"name":"오리섬","tel":"031-683-8211","addr":"경기도 평택시 현덕면 화양리 30-21번지","indutype":"일반휴게음식 - 일반한식","category":"restaurant"}]},{"lat":"36.972436758","long":"126.92185559","imageIndex":4,"items":[{"name":"우리집들깨손칼국수","tel":"031-681-9888","addr":"경기도 평택시 현덕면 화양리 54-121번지","indutype":"일반휴게음식 - 일반한식","category":"restaurant"}]},{"lat":"36.9680482","long":"126.92137737","imageIndex":4,"items":[{"name":"참소머리국밥","tel":"031-686-5555","addr":"경기도 평택시 현덕면 화양리 26-9번지","indutype":"음식점 - 한식","category":"restaurant"},{"name":"참소머리국밥","tel":"031-681-0041","addr":"경기도 평택시 현덕면 화양리 26-9번지","indutype":"일반휴게음식 - 일반한식","category":"restaurant"}]},{"lat":"36.969490286","long":"126.92191486","imageIndex":4,"items":[{"name":"참솔마루","tel":"","addr":"경기도 평택시 현덕면 화양리 31번지","indutype":"음식점 - 한식","category":"restaurant"}]},{"lat":"36.965631814","long":"126.91921269","imageIndex":4,"items":[{"name":"카페드쉐인","tel":"031-1111-1111","addr":"경기도 평택시 현덕면 화양리 1-3번지 현덕우체국 나동 1층","indutype":"일반휴게음식 - 서양음식","category":"restaurant"}]},{"lat":"36.965749017","long":"126.9193024","imageIndex":4,"items":[{"name":"카페드쉐인","tel":"031-683-6777","addr":"경기도 평택시 현덕면 화양리 1-35번지 1층","indutype":"음식점 - 커피","category":"restaurant"}]},{"lat":"36.969852486","long":"126.9245535","imageIndex":13,"items":[{"name":"뉴대명렌트카","tel":"031-682-5885","addr":"경기도 평택시 현덕면 화양리 29번지 샤르빌 303호","indutype":"보건위생 - 기타대인서비스","category":"beauty"}]},{"lat":"36.972436758","long":"126.92185559","imageIndex":13,"items":[{"name":"프라헤어","tel":"031-686-8696","addr":"경기도 평택시 현덕면 화양리 54-121번지 2층","indutype":"보건위생 - 미용원","category":"beauty"}]},{"lat":"36.972436758","long":"126.92185559","imageIndex":13,"items":[{"name":"더플레이스","tel":"070-7723-8259","addr":"경기도 평택시 현덕면 화양리 54-121번지","indutype":"레저업소 - 기타레져업소","category":"leisure"}]},{"lat":"36.972220462","long":"126.92179967","imageIndex":17,"items":[{"name":"리에또 공방","tel":"031-684-0114","addr":"경기도 평택시 현덕면 화양리 54-120번지 1층","indutype":"문화.취미 - 문화취미기타","category":"other"}]},{"lat":"36.966328235","long":"126.91055408","imageIndex":17,"items":[{"name":"석정종합설비","tel":"031-681-8398","addr":"경기도 평택시 현덕면 화양리 687번지","indutype":"회원제형태 - 기타4","category":"other"}]}]