[{"lat":"37.194220415","long":"127.07372647","imageIndex":16,"items":[{"name":"(COVE)한예종무용영재교육학원","tel":"","addr":"경기도 화성시 반송동 220-1번지 훼미리빌딩 504호","indutype":"학원 - 예·체능계학원","category":"study"},{"name":"대뇌혁명학원","tel":"031-613-2625","addr":"경기도 화성시 반송동 220-1번지 훼미리빌딩 603호","indutype":"학원 - 보습학원","category":"study"},{"name":"더올교육학원","tel":"031-8043-5340","addr":"경기도 화성시 반송동 220-1번지 훼미리프라자 207호","indutype":"학원 - 보습학원","category":"study"},{"name":"동탄G1230","tel":"031-613-5939","addr":"경기도 화성시 반송동 220-1번지 훼미리빌딩 403호","indutype":"학원 - 보습학원","category":"study"},{"name":"동탄외대어학원2관입시전략연구소학원","tel":"031-8015-0584","addr":"경기도 화성시 반송동 220-1번지 훼미리빌딩 203,204","indutype":"학원 - 외국어학원","category":"study"},{"name":"숙명메종드피아노학원","tel":"031-613-5856","addr":"경기도 화성시 반송동 220-1번지 훼미리빌딩 605호","indutype":"학원 - 예·체능계학원","category":"study"},{"name":"써니즈영어학원","tel":"031-8003-2983","addr":"경기도 화성시 반송동 220-1번지 훼미리빌딩 401호일부,402호","indutype":"학원 - 외국어학원","category":"study"},{"name":"에스디에이치(SDH)학원","tel":"031-613-5351","addr":"경기도 화성시 반송동 220-1번지 훼미리프라자 303호~304호","indutype":"학원 - 보습학원","category":"study"},{"name":"에스디에이치학원/(주)디딤에듀 나루점","tel":"031-613-5351","addr":"경기도 화성시 반송동 220-1번지 304호 303호,304호","indutype":"학원 - 보습학원","category":"study"},{"name":"연국악교습소","tel":"031-613-9952","addr":"경기도 화성시 반송동 220-1번지 훼미리빌딩 302호","indutype":"학원 - 예·체능계학원","category":"study"},{"name":"용인대특전합기도","tel":"031-613-6474","addr":"경기도 화성시 반송동 220-1번지 훼미리프라자 507호","indutype":"학원 - 예·체능계학원","category":"study"},{"name":"울림실용음악학원","tel":"031-8015-5525","addr":"경기도 화성시 반송동 220-1번지 훼미리프라자 401호","indutype":"회원제형태 - 학원","category":"study"},{"name":"중고등영어멘토랭학원","tel":"031-613-8806","addr":"경기도 화성시 반송동 220-1번지 훼미리빌딩 405호","indutype":"학원 - 보습학원","category":"study"},{"name":"탑독서실","tel":"031-8015-4944","addr":"경기도 화성시 반송동 220-1번지 훼미리빌딩 602호 601","indutype":"학원 - 독서실","category":"study"},{"name":"튼튼영어마스터클럽화성반송점학원","tel":"031-8015-0570","addr":"경기도 화성시 반송동 220-1번지 훼미리빌딩 301호","indutype":"학원 - 외국어학원","category":"study"},{"name":"호우와자명미술학원","tel":"031-613-5091","addr":"경기도 화성시 반송동 220-1번지 훼미리빌딩 204호","indutype":"학원 - 예·체능계학원","category":"study"}]},{"lat":"37.201024381","long":"127.07182921","imageIndex":16,"items":[{"name":"(주)동탄씨앤씨미술학원","tel":"031-8003-3865","addr":"경기도 화성시 반송동 104-3번지 동탄미래도프라자","indutype":"학원 - 예·체능계학원","category":"study"},{"name":"동탄행정고시학원","tel":"031-8003-2626","addr":"경기도 화성시 반송동 104-3번지 동탄미래도프라자 703호","indutype":"회원제형태 - 학원","category":"study"},{"name":"스마트부동산아카데미학원","tel":"031-8003-8902","addr":"경기도 화성시 반송동 104-3번지 동탄미래도프라자 703호","indutype":"학원 - 기능학원","category":"study"}]},{"lat":"37.207163893","long":"127.06563906","imageIndex":16,"items":[{"name":"?음악학원","tel":"031-613-7950","addr":"경기도 화성시 반송동 42-8번지 PARKPLAZA 506호","indutype":"학원 - 예·체능계학원","category":"study"},{"name":"미술재미학원","tel":"031-8003-1334","addr":"경기도 화성시 반송동 42-8번지 PARK PLAZA 401호","indutype":"학원 - 예·체능계학원","category":"study"},{"name":"이즈미술학원","tel":"031-8003-0613","addr":"경기도 화성시 반송동 42-8번지 PARK PLAZA 301호","indutype":"학원 - 예·체능계학원","category":"study"},{"name":"이해법수학","tel":"031-613-6090","addr":"경기도 화성시 반송동 42-8번지 파크프라자빌딩 505호","indutype":"학원 - 보습학원","category":"study"},{"name":"차오름수학학원","tel":"031-613-6090","addr":"경기도 화성시 반송동 42-8번지 파크프라자 404호","indutype":"회원제형태 - 학원","category":"study"},{"name":"최강동탄경희대태권도장","tel":"031-613-3688","addr":"경기도 화성시 반송동 42-8번지","indutype":"학원 - 예·체능계학원","category":"study"},{"name":"탑클라스학원","tel":"031-613-3390","addr":"경기도 화성시 반송동 42-8번지 PARK PLAZA 403호","indutype":"학원 - 보습학원","category":"study"},{"name":"티엘씨어학원","tel":"031-613-0061","addr":"경기도 화성시 반송동 42-8 파크프라자 5층503,504호","indutype":"회원제형태 - 학원","category":"study"}]},{"lat":"37.204556352","long":"127.07200139","imageIndex":16,"items":[{"name":"ABC미술학원","tel":"070-8899-8880","addr":"경기도 화성시 반송동 93-1번지 풍성위버폴리스 209호","indutype":"학원 - 예·체능계학원","category":"study"},{"name":"뉴에듀케이션아더와이즈(NEW EDUCATION OTH","tel":"070-8283-4747","addr":"경기도 화성시 반송동 93-1번지 위버폴리스 A동 1704호","indutype":"회원제형태 - 학원","category":"study"}]},{"lat":"37.193833236","long":"127.07327559","imageIndex":16,"items":[{"name":"BBC체형교정발레학원","tel":"031-613-6452","addr":"경기도 화성시 반송동 220-4번지 모닝타운 206호","indutype":"학원 - 예·체능계학원","category":"study"},{"name":"에이오비씨에듀케이션학원","tel":"031-8003-8574","addr":"경기도 화성시 반송동 220-4번지 모닝타운 208호","indutype":"학원 - 보습학원","category":"study"}]},{"lat":"37.20602482","long":"127.07238573","imageIndex":16,"items":[{"name":"BK영어전문학원","tel":"070-8888-2158","addr":"경기도 화성시 반송동 88-13번지 아이프라자 5층 508호","indutype":"학원 - 외국어학원","category":"study"},{"name":"로뎀스트링음악학원","tel":"031-613-7639","addr":"경기도 화성시 반송동 88-13번지 아이프라자 705호","indutype":"학원 - 예·체능계학원","category":"study"},{"name":"마이에듀(주)","tel":"031-8003-5650","addr":"경기도 화성시 반송동 88-13번지 아이프라자 801동 807호","indutype":"회원제형태 - 학원","category":"study"},{"name":"메싸수학과학학원","tel":"031-8003-0174","addr":"경기도 화성시 반송동 88-13번지 아이프라자 상가동 407호","indutype":"학원 - 보습학원","category":"study"},{"name":"상상공작소","tel":"031-613-0853","addr":"경기도 화성시 반송동 88-13번지 아이프라자 708호","indutype":"학원 - 예·체능계학원","category":"study"},{"name":"스터디플래닛동탄북광장센터독서실","tel":"031-8077-2677","addr":"경기도 화성시 반송동 88-13번지 아이프라 807호,808호,809호","indutype":"학원 - 독서실","category":"study"},{"name":"이앤엠 수학학원","tel":"031-111-1111","addr":"경기도 화성시 반송동 88-13번지 아이프라자 309호","indutype":"학원 - 보습학원","category":"study"},{"name":"주식회사 비엔","tel":"031-8003-5650","addr":"경기도 화성시 반송동 88-13번지 아이프라자 제상가동 8층 801호 내지 807호","indutype":"학원 - 보습학원","category":"study"},{"name":"트리즈수학학원/주식회사 트리즈에듀","tel":"031-613-8765","addr":"경기도 화성시 반송동 88-13번지 아이프라자 906~909호","indutype":"학원 - 보습학원","category":"study"},{"name":"퍼스트영어학원","tel":"031-613-7954","addr":"경기도 화성시 반송동 88-13번지 아이프라자 301호","indutype":"학원 - 외국어학원","category":"study"}]},{"lat":"37.200384931","long":"127.07133301","imageIndex":16,"items":[{"name":"BLC영재교육학원","tel":"031-8003-0477","addr":"경기도 화성시 반송동 104-13번지 드림프라자 603호","indutype":"학원 - 보습학원","category":"study"},{"name":"강의하는아이들동탄학원","tel":"031-613-0985","addr":"경기도 화성시 반송동 104-13번지 드림프라자 7층 702호","indutype":"학원 - 보습학원","category":"study"},{"name":"더퍼스트펭귄수학과학학원","tel":"031-613-1116","addr":"경기도 화성시 반송동 104-13번지 드림프라자 903호","indutype":"학원 - 보습학원","category":"study"},{"name":"메이플어학원","tel":"031-8003-0510","addr":"경기도 화성시 반송동 104-13드림프라자901.902호","indutype":"회원제형태 - 학원","category":"study"},{"name":"바투국어논술전문학원","tel":"031-8015-1146","addr":"경기도 화성시 반송동 104-13번지 드림프라자 904호","indutype":"학원 - 보습학원","category":"study"},{"name":"아담리즈 놀이수학 동탄센터","tel":"031-613-7997","addr":"경기도 화성시 반송동 104-13번지 드림프라자 503호","indutype":"학원 - 보습학원","category":"study"},{"name":"아이런중국어학원동탄남광장학원","tel":"031-8015-1819","addr":"경기도 화성시 반송동 104-13번지 드림프라자 604호","indutype":"학원 - 외국어학원","category":"study"},{"name":"영어종결자학원","tel":"031-8058-2828","addr":"경기도 화성시 반송동 104-13번지 드림프라자 304호","indutype":"학원 - 외국어학원","category":"study"},{"name":"정인학원","tel":"031-8003-9995","addr":"경기도 화성시 반송동 104-13번지 드림프라자 801호","indutype":"학원 - 보습학원","category":"study"},{"name":"지혜의숲학원","tel":"031-613-8236","addr":"경기도 화성시 반송동 104-13번지 드림프라자 401호","indutype":"학원 - 보습학원","category":"study"},{"name":"책읽기와글쓰기리딩엠동탄반송학원","tel":"031-8003-3999","addr":"경기도 화성시 반송동 104-13번지 드림프라자 504호","indutype":"학원 - 보습학원","category":"study"},{"name":"큐리딩업영재학원","tel":"031-613-8214","addr":"경기도 화성시 반송동 104-13번지 드림프라자 703호","indutype":"학원 - 보습학원","category":"study"},{"name":"필수학학원","tel":"031-8003-1270","addr":"경기도 화성시 반송동 104-13번지 드림프라자 701호","indutype":"회원제형태 - 학원","category":"study"}]},{"lat":"37.199717288","long":"127.0728305","imageIndex":16,"items":[{"name":"CMA학원","tel":"070-4100-1570","addr":"경기도 화성시 반송동 107-6번지 거산프라자 502호","indutype":"학원 - 보습학원","category":"study"},{"name":"MTA태권도","tel":"031-613-6612","addr":"경기도 화성시 반송동 107-6번지 거산프라자 8층","indutype":"학원 - 예·체능계학원","category":"study"},{"name":"MTA태권도","tel":"031-613-6612","addr":"경기도 화성시 반송동 107-6번지 거산프라자 8층 801호,802호,803호,804호","indutype":"학원 - 예·체능계학원","category":"study"},{"name":"꾸메땅학습코칭동탄학원","tel":"031-613-3171","addr":"경기도 화성시 반송동 107-6번지 거산프라자 601호","indutype":"학원 - 보습학원","category":"study"},{"name":"로봇영재교육학원","tel":"031-8003-8833","addr":"경기도 화성시 반송동 107-6번지 거산프라자 501호","indutype":"회원제형태 - 학원","category":"study"},{"name":"목우미술학원","tel":"031-613-3666","addr":"경기도 화성시 반송동 107-6번지 거산프라자 401호","indutype":"학원 - 예·체능계학원","category":"study"},{"name":"사탐의맥학원","tel":"031-613-2532","addr":"경기도 화성시 반송동 107-6번지 거산프라자 503호","indutype":"회원제형태 - 학원","category":"study"},{"name":"이투스수학다은학원","tel":"031-613-3378","addr":"경기도 화성시 반송동 107-6번지 거산프라자 6층 602호","indutype":"학원 - 보습학원","category":"study"},{"name":"코딩앤플레이동탄센터로점학원","tel":"031-309-2820","addr":"경기도 화성시 반송동 107-6번지 거산프라자 5층 04호","indutype":"학원 - 기타 교육기관","category":"study"},{"name":"코스믹댄스학원","tel":"031-613-1314","addr":"경기도 화성시 반송동 107-6번지 거산프라자 603,604호","indutype":"학원 - 예·체능계학원","category":"study"},{"name":"힘수학학원","tel":"031-8003-2121","addr":"경기도 화성시 반송동 107-6번지 거산프라자 701~704호","indutype":"학원 - 보습학원","category":"study"}]},{"lat":"37.199528801","long":"127.07158004","imageIndex":16,"items":[{"name":"DTEDTM학원","tel":"031-613-5309","addr":"경기도 화성시 반송동 107-8번지 제일프라자 705호","indutype":"학원 - 보습학원","category":"study"},{"name":"김영식수학학원","tel":"031-613-2568","addr":"경기도 화성시 반송동 107-8번지 제일프라자 804호","indutype":"학원 - 보습학원","category":"study"},{"name":"동탄윤선생","tel":"031-613-0540","addr":"경기도 화성시 반송동 107-8번지 제일프라자 703호","indutype":"학원 - 학습지 교육","category":"study"},{"name":"동탄해법중국어교습소","tel":"031-613-1115","addr":"경기도 화성시 반송동 107-8번지 제일프라자 704호","indutype":"학원 - 외국어학원","category":"study"},{"name":"맥스플러스학원","tel":"031-8003-5235","addr":"경기도 화성시 반송동 107-8번지 제일프라자 505호","indutype":"학원 - 보습학원","category":"study"},{"name":"멘토 협동조합","tel":"031-8003-1390","addr":"경기도 화성시 반송동 107-8번지 제일프라자 705호","indutype":"학원 - 보습학원","category":"study"},{"name":"수리음악학원","tel":"031-613-2170","addr":"경기도 화성시 반송동 107-8번지 제일프라자 701호","indutype":"학원 - 예·체능계학원","category":"study"},{"name":"시범다은플레이팩토 팩토사이언스학원","tel":"","addr":"경기도 화성시 반송동 107-8번지 제일프라자 5층 504호","indutype":"학원 - 보습학원","category":"study"},{"name":"엠베스트SE동탄남광장캠퍼스학원","tel":"031-8003-0409","addr":"경기도 화성시 반송동 107-8번지 401,402,403호","indutype":"학원 - 보습학원","category":"study"},{"name":"와이즈리더영어독서전문학원","tel":"031-8003-0519","addr":"경기도 화성시 반송동 107-8번지 제일프라자 706호 707호","indutype":"회원제형태 - 학원","category":"study"},{"name":"유니팝미술학원","tel":"031-8003-2271","addr":"경기도 화성시 반송동 107-8번지 제일프라자 702호","indutype":"학원 - 예·체능계학원","category":"study"},{"name":"윤선생영어교실 동탄센타","tel":"031-613-0540","addr":"경기도 화성시 반송동 107-8번지 제일프라자 704호","indutype":"학원 - 학습지 교육","category":"study"},{"name":"제이씨에이영수다은학원","tel":"031-8050-2693","addr":"경기도 화성시 반송동 107-8번지 제일프라자 501동 502호","indutype":"회원제형태 - 학원","category":"study"},{"name":"제일경희태권도","tel":"031-8003-7989","addr":"경기도 화성시 반송동 107-8번지 제일프라자 407호","indutype":"학원 - 예·체능계학원","category":"study"},{"name":"청담학원","tel":"070-7605-1445","addr":"경기도 화성시 반송동 107-8번지 제일프라자 302호","indutype":"학원 - 보습학원","category":"study"},{"name":"최상위관리형독서실","tel":"031-8055-8577","addr":"경기도 화성시 반송동 107-8번지 제일프라자 906,907호","indutype":"학원 - 독서실","category":"study"},{"name":"코딩랩학원","tel":"031-613-1122","addr":"경기도 화성시 반송동 107-8번지 제일프라자 805호","indutype":"학원 - 보습학원","category":"study"},{"name":"크나우슈퍼와이학원","tel":"031-613-3599","addr":"경기도 화성시 반송동 107-8 제일프라자 505호~506호","indutype":"회원제형태 - 학원","category":"study"},{"name":"탐탐드로잉미술학원","tel":"031-000-0000","addr":"경기도 화성시 반송동 107-8번지 제일프라자 904,905호","indutype":"학원 - 예·체능계학원","category":"study"}]},{"lat":"37.206970531","long":"127.0730287","imageIndex":16,"items":[{"name":"EEC영어교습소","tel":"031-8050-4645","addr":"경기도 화성시 반송동 86-1번지 아인슈타인프라자 802호","indutype":"회원제형태 - 학원","category":"study"},{"name":"YJ수학교습소","tel":"031-8015-0815","addr":"경기도 화성시 반송동 86-1번지 아인슈타인프라자 505호","indutype":"학원 - 보습학원","category":"study"},{"name":"공감수학교습소","tel":"","addr":"경기도 화성시 반송동 86-1번지 아인슈타인프라자 801호","indutype":"학원 - 보습학원","category":"study"},{"name":"뉴턴의 사과과학교습소","tel":"031-8015-0906","addr":"경기도 화성시 반송동 86-1번지 아인슈타인프라자 605호","indutype":"학원 - 보습학원","category":"study"},{"name":"다다름작업실미술교습소","tel":"031-1111-1111","addr":"경기도 화성시 반송동 86-1번지 아인슈타인프라자 606호","indutype":"학원 - 예·체능계학원","category":"study"},{"name":"대치영재민샘교구수학교습소","tel":"031-613-2508","addr":"경기도 화성시 반송동 86-1번지 아인슈타인프라자 305호","indutype":"학원 - 보습학원","category":"study"},{"name":"디딤돌미술교습소","tel":"","addr":"경기도 화성시 반송동 86-1번지 아인슈타인프라자 209호","indutype":"학원 - 예·체능계학원","category":"study"},{"name":"리틀필즈창의수학교습소","tel":"031-8003-4586","addr":"경기도 화성시 반송동 86-1번지 아인슈타인프라자 306호","indutype":"회원제형태 - 학원","category":"study"},{"name":"박희철기타교습소","tel":"031-613-0188","addr":"경기도 화성시 반송동 86-1번지 아인슈타인프라자 308호","indutype":"회원제형태 - 학원","category":"study"},{"name":"서선생국어학원","tel":"031-8003-9591","addr":"경기도 화성시 반송동 86-1번지 아인슈타인프라자 1002호","indutype":"학원 - 보습학원","category":"study"},{"name":"성미연국어논술교습소","tel":"041-833-2669","addr":"경기도 화성시 반송동 86-1번지 아인슈타인프라자 604호","indutype":"회원제형태 - 학원","category":"study"},{"name":"시온뮤직","tel":"031-613-0267","addr":"경기도 화성시 반송동 86-1번지 아인슈타인프라자 707호","indutype":"회원제형태 - 학원","category":"study"},{"name":"아카데미창논술교습소","tel":"031-613-3778","addr":"경기도 화성시 반송동 86-1번지 아인슈타인프라자 301호","indutype":"학원 - 보습학원","category":"study"},{"name":"안녕피아노","tel":"070-9863-4454","addr":"경기도 화성시 반송동 86-1번지 아인슈타인프라자 407호","indutype":"학원 - 예·체능계학원","category":"study"},{"name":"예당서예교습소","tel":"031-8003-4955","addr":"경기도 화성시 반송동 86-1아인슈타인프라자6층603호","indutype":"학원 - 예·체능계학원","category":"study"},{"name":"와이비엠이씨씨(YBMECC)동탄어학원","tel":"031-8003-5040","addr":"경기도 화성시 반송동 86-1번지 아인슈타인프라자 9층901-909호","indutype":"학원 - 외국어학원","category":"study"},{"name":"용인대드림합기도","tel":"031-613-1263","addr":"경기도 화성시 반송동 86-1 아인슈타인프라자 501-502","indutype":"학원 - 예·체능계학원","category":"study"},{"name":"준기타교습소","tel":"031-8003-9233","addr":"경기도 화성시 반송동 86-1번지 아인슈타인프라자 704호","indutype":"회원제형태 - 학원","category":"study"},{"name":"준잉글리시영어교습소","tel":"031-8015-0906","addr":"경기도 화성시 반송동 86-1번지 아인슈타인프라자 605호","indutype":"학원 - 외국어학원","category":"study"},{"name":"추쌤수학교습소","tel":"031-8003-1170","addr":"경기도 화성시 반송동 86-1번지 아인슈타인프라자 1004호","indutype":"회원제형태 - 학원","category":"study"},{"name":"토마틀성악교습소","tel":"031-613-5795","addr":"경기도 화성시 반송동 86-1번지 아인슈타인프라자 403호","indutype":"학원 - 예·체능계학원","category":"study"},{"name":"해법중국어동탄예당중국어교습소","tel":"031-613-1828","addr":"경기도 화성시 반송동 86-1번지 아인슈타인프라자 803호","indutype":"학원 - 외국어학원","category":"study"}]},{"lat":"37.206583231","long":"127.07278051","imageIndex":16,"items":[{"name":"ENE학원","tel":"031-613-7224","addr":"경기도 화성시 반송동 88-1번지 동탄제일프라자 704호","indutype":"학원 - 보습학원","category":"study"},{"name":"SAMA실용음악학원","tel":"031-613-0327","addr":"경기도 화성시 반송동 88-1번지 동탄제일프라자 701호","indutype":"회원제형태 - 학원","category":"study"},{"name":"공간샘 동탄점","tel":"031-000-0000","addr":"경기도 화성시 반송동 88-1번지 동탄제일프라자 4층 405호","indutype":"학원 - 독서실","category":"study"},{"name":"로잔발레학원","tel":"031-613-6227","addr":"경기도 화성시 반송동 88-1번지 동탄제일프라자 705호","indutype":"학원 - 예·체능계학원","category":"study"},{"name":"미래중국어학원","tel":"031-8003-8669","addr":"경기도 화성시 반송동 88-1번지 동탄제일프라자 702호","indutype":"회원제형태 - 학원","category":"study"},{"name":"세영C&T아카데미","tel":"031-523-3072","addr":"경기도 화성시 반송동 88-1번지 동탄제일프라자 8층 805호","indutype":"학원 - 보습학원","category":"study"},{"name":"씨이엠(CEM)학원","tel":"031-613-5297","addr":"경기도 화성시 반송동 88-1번지 동탄제일프라자 8층 803호","indutype":"학원 - 보습학원","category":"study"},{"name":"씨이엠(CEM)학원","tel":"031-613-5297","addr":"경기도 화성시 반송동 88-1번지 제일프라자 803호","indutype":"학원 - 보습학원","category":"study"},{"name":"와이매쓰 수학학원","tel":"031-8003-6160","addr":"경기도 화성시 반송동 88-1번지 동탄제일프라자 703호","indutype":"학원 - 보습학원","category":"study"},{"name":"와이즈영어학원","tel":"031-8003-5595","addr":"경기도 화성시 반송동 88-1번지 동탄제일프라자 801호","indutype":"회원제형태 - 학원","category":"study"},{"name":"위너스영수사관학원","tel":"031-8003-6160","addr":"경기도 화성시 반송동 88-1번지 동탄제일프라자 703호","indutype":"학원 - 보습학원","category":"study"},{"name":"위너스영수사관학원","tel":"031-8003-6160","addr":"경기도 화성시 반송동 88-1번지 제일프라자 703호","indutype":"학원 - 기타 교육기관","category":"study"},{"name":"일리수학학원","tel":"031-613-7224","addr":"경기도 화성시 반송동 88-1번지 동탄제일프라자 704호","indutype":"학원 - 보습학원","category":"study"}]},{"lat":"37.201412037","long":"127.07146911","imageIndex":16,"items":[{"name":"FTK동탄어학원","tel":"031-8003-0532","addr":"경기도 화성시 반송동 103-10번지 원영빌딩 601,602,603호","indutype":"회원제형태 - 학원","category":"study"},{"name":"동탄간호학원","tel":"031-613-3398","addr":"경기도 화성시 반송동 103-10번지 원영빌딩 902호","indutype":"회원제형태 - 학원","category":"study"},{"name":"레마논술","tel":"031-222-9688","addr":"경기도 화성시 반송동 103-10번지 원영빌딩 503호","indutype":"학원 - 기타 교육기관","category":"study"},{"name":"잉글리쉬에비뉴어학원","tel":"031-8003-1365","addr":"경기도 화성시 반송동 103-10번지 원영빌딩 403호","indutype":"회원제형태 - 학원","category":"study"},{"name":"종로엠스쿨동탄학원","tel":"031-663-9966","addr":"경기도 화성시 반송동 103-10번지 원영빌딩 801호","indutype":"학원 - 보습학원","category":"study"},{"name":"하이젝더플레이스학원","tel":"031-8015-3603","addr":"경기도 화성시 반송동 103-10번지 원영빌딩 502호","indutype":"학원 - 보습학원","category":"study"},{"name":"화성이얼싼중국어통역학원","tel":"031-613-1546","addr":"경기도 화성시 반송동 103-10번지 원영빌딩 802호","indutype":"회원제형태 - 학원","category":"study"}]},{"lat":"37.207159669","long":"127.07316405","imageIndex":16,"items":[{"name":"GMS학원","tel":"031-8003-0073","addr":"경기도 화성시 반송동 86-2번지 화성동탄센터타워 9층 901,902호","indutype":"학원 - 보습학원","category":"study"},{"name":"꽃피는국악학원","tel":"031-8003-0983","addr":"경기도 화성시 반송동 86-2번지 화성동탄센터타워 904호","indutype":"학원 - 예·체능계학원","category":"study"},{"name":"내친구바둑학원","tel":"031-8003-4888","addr":"경기도 화성시 반송동 86-2번지 화성동탄센터타워 604호","indutype":"학원 - 기타 교육기관","category":"study"},{"name":"달라라아트미술학원","tel":"070-4922-1261","addr":"경기도 화성시 반송동 86-2번지 동탄센터타워 301호","indutype":"학원 - 예·체능계학원","category":"study"},{"name":"대입몬스터학원/(주)엠코드교육","tel":"031-8055-7379","addr":"경기도 화성시 반송동 86-2번지 화성동탄센터타워 1002호 1001호,1002호","indutype":"학원 - 보습학원","category":"study"},{"name":"대한논리속독동탄학원","tel":"031-8015-5686","addr":"경기도 화성시 반송동 86-2번지 화성동탄센터타워 401호","indutype":"학원 - 기타 교육기관","category":"study"},{"name":"동탄지엠에스학원","tel":"031-8003-3607","addr":"경기도 화성시 반송동 86-2번지 화성동탄센터타워 901호","indutype":"학원 - 보습학원","category":"study"},{"name":"반송용인대태권도합기도","tel":"031-613-6790","addr":"경기도 화성시 반송동 86-2번지 센터타워 602호","indutype":"학원 - 예·체능계학원","category":"study"},{"name":"북킨쉽영어독서어학원","tel":"031-8015-1055","addr":"경기도 화성시 반송동 86-2번지 화성동탄센터타워 801호","indutype":"학원 - 외국어학원","category":"study"},{"name":"삼부영어학원","tel":"","addr":"경기도 화성시 반송동 86-2번지 화성동탄센터타워 4층 401호","indutype":"학원 - 외국어학원","category":"study"},{"name":"수학파트너학원","tel":"031-8015-2223","addr":"경기도 화성시 반송동 86-2번지 화성동탄 센터타워 703,704호","indutype":"학원 - 보습학원","category":"study"},{"name":"싸이매스학원","tel":"031-613-5075","addr":"경기도 화성시 반송동 86-2번지 화성동탄센터타워 402. 403.404호 402 403","indutype":"학원 - 보습학원","category":"study"},{"name":"에스디에이치어학원","tel":"031-8015-5352","addr":"경기도 화성시 반송동 86-2번지 센터타워 1001호,1002호","indutype":"회원제형태 - 학원","category":"study"},{"name":"예당와이티어학원","tel":"031-8003-5040","addr":"경기도 화성시 반송동 86-2 동탄센타타워 302,303,304호","indutype":"학원 - 외국어학원","category":"study"},{"name":"이즈학원","tel":"031-8003-9090","addr":"경기도 화성시 반송동 86-2번지 화성동탄센터타워 701호","indutype":"학원 - 보습학원","category":"study"},{"name":"자라다남아미술학원","tel":"070-4213-8609","addr":"경기도 화성시 반송동 86-2번지 동탄센터타워 903호","indutype":"학원 - 예·체능계학원","category":"study"},{"name":"제이씨에이한빛예당학원","tel":"","addr":"경기도 화성시 반송동 86-2번지 화성동탄센터타워 상가동 6층 603호","indutype":"학원 - 외국어학원","category":"study"},{"name":"지오엠 (GOM)수학학원","tel":"031-613-8201","addr":"경기도 화성시 반송동 86-2번지 화성동탄센터타워 701호","indutype":"학원 - 보습학원","category":"study"},{"name":"지오엠 (GOM)수학학원","tel":"031-613-8201","addr":"경기도 화성시 반송동 86-2번지 화성동탄센터타워 701호","indutype":"학원 - 보습학원","category":"study"},{"name":"한빛뮤즈음악학원","tel":"031-8003-8049","addr":"경기도 화성시 반송동 86-2번지 센터타워 601호","indutype":"학원 - 예·체능계학원","category":"study"}]},{"lat":"37.201637485","long":"127.07114265","imageIndex":16,"items":[{"name":"H매쓰수학전문학원","tel":"031-613-9369","addr":"경기도 화성시 반송동 103-1번지 동탄스카이뷰빌딩 403호","indutype":"학원 - 보습학원","category":"study"},{"name":"대치이원수학학원","tel":"031-8003-0109","addr":"경기도 화성시 반송동 103-1번지 동탄스카이뷰빌딩 501호","indutype":"학원 - 보습학원","category":"study"},{"name":"알앤씨학원","tel":"031-831-5547","addr":"경기도 화성시 반송동 103-1번지 동탄스카이뷰빌딩 403호","indutype":"학원 - 보습학원","category":"study"},{"name":"혜윰과학전문학원","tel":"031-8003-7751","addr":"경기도 화성시 반송동 103-1번지 동탄스카이뷰빌딩 401호","indutype":"회원제형태 - 학원","category":"study"}]},{"lat":"37.19125333","long":"127.07804854","imageIndex":16,"items":[{"name":"I 예뻐 어린이집[아이행복]","tel":"031-613-2184","addr":"경기도 화성시 반송동 212번지 나루마을월드메르디앙반도유보라 644동 102호","indutype":"학원 - 유아원","category":"study"}]},{"lat":"37.20591653","long":"127.07266725","imageIndex":16,"items":[{"name":"MBC아카데미아트스쿨학원","tel":"031-8003-8288","addr":"경기도 화성시 반송동 88-12번지 리더스프라자 801,802,803,804,805호","indutype":"학원 - 예·체능계학원","category":"study"},{"name":"곽윤근수학전문학원","tel":"031-8015-0707","addr":"경기도 화성시 반송동 88-12번지 리더스프라자 701호","indutype":"학원 - 보습학원","category":"study"},{"name":"대제학학원","tel":"031-613-5392","addr":"경기도 화성시 반송동 88-12번지 리더스프라자 7층 705호","indutype":"학원 - 보습학원","category":"study"},{"name":"동탄TG교육그룹학원","tel":"031-831-3773","addr":"경기도 화성시 반송동 88-12번지 리더스프라자 701호,702호","indutype":"학원 - 보습학원","category":"study"},{"name":"동탄지구촌교회","tel":"031-8003-8253","addr":"경기도 화성시 반송동 88-12번지 리더스프라자 9층 901호","indutype":"학원 - 기타 교육기관","category":"study"},{"name":"브레인과학교육원학원","tel":"031-8003-4014","addr":"경기도 화성시 반송동 88-12번지 리더스프라자 7층 703호","indutype":"회원제형태 - 학원","category":"study"},{"name":"인생뮤직학원","tel":"","addr":"경기도 화성시 반송동 88-12번지 리더스프라자 705호","indutype":"학원 - 예·체능계학원","category":"study"},{"name":"장앤박보습학원","tel":"070-8003-5648","addr":"경기도 화성시 반송동 88-12번지 리더스프라자 404호","indutype":"학원 - 보습학원","category":"study"},{"name":"지상수학클리닉학원","tel":"031-000-0000","addr":"경기도 화성시 반송동 88-12번지 리더스프라자 701,702호","indutype":"학원 - 보습학원","category":"study"},{"name":"파이널멀티짐","tel":"070-8802-1230","addr":"경기도 화성시 반송동 88-12번지 리더스프라자 2충201호,202호","indutype":"학원 - 예·체능계학원","category":"study"}]},{"lat":"37.196578963","long":"127.07727664","imageIndex":16,"items":[{"name":"PPEA어학원","tel":"031-8015-0211","addr":"경기도 화성시 반송동 130-5번지 정일플러스 3층,4층","indutype":"회원제형태 - 학원","category":"study"},{"name":"키즈키즈어학원","tel":"031-8015-0211","addr":"경기도 화성시 반송동 130-5번지 정일플러스 301호","indutype":"학원 - 외국어학원","category":"study"}]},{"lat":"37.205302851","long":"127.07430006","imageIndex":16,"items":[{"name":"X텐 실내 양궁장","tel":"031-8003-7957","addr":"경기도 화성시 반송동 90-7번지 2층","indutype":"학원 - 기타 교육기관","category":"study"}]},{"lat":"37.202075878","long":"127.06000275","imageIndex":16,"items":[{"name":"감성마켓/캘리수다","tel":"070-4100-6606","addr":"경기도 화성시 반송동 69-1번지 1층","indutype":"학원 - 기능학원","category":"study"}]},{"lat":"37.202132415","long":"127.07224699","imageIndex":16,"items":[{"name":"감자유학 화성동탄","tel":"031-613-0399","addr":"경기도 화성시 반송동 93-8번지 서해더블루 3층 313호","indutype":"학원 - 유학원","category":"study"},{"name":"김상욱기타교습소","tel":"","addr":"경기도 화성시 반송동 93-8번지 서해더블루 3층 318호","indutype":"학원 - 예·체능계학원","category":"study"},{"name":"아뜰리에파랑미술교습소","tel":"070-4151-3052","addr":"경기도 화성시 반송동 93-8번지 서해더블루 상가동 218호","indutype":"학원 - 예·체능계학원","category":"study"},{"name":"양샘국어교습소","tel":"031-613-2758","addr":"경기도 화성시 반송동 93-8번지 서해더블루 312호","indutype":"학원 - 보습학원","category":"study"}]},{"lat":"37.193191316","long":"127.07685659","imageIndex":16,"items":[{"name":"강남대학교시립반송보듬이나눔이어린이집[","tel":"031-8003-7952","addr":"경기도 화성시 반송동 214번지","indutype":"학원 - 유아원","category":"study"}]},{"lat":"37.19960962","long":"127.0720532","imageIndex":16,"items":[{"name":"강승희요리실용전문학교","tel":"031-613-2033","addr":"경기도 화성시 반송동 107-7번지 아시아프라자 602,603호","indutype":"학원 - 기능학원","category":"study"},{"name":"노르웨이숲학원","tel":"031-613-3863","addr":"경기도 화성시 반송동 107-7번지 아시아프라자 203~206호","indutype":"학원 - 예·체능계학원","category":"study"},{"name":"더하이츠동탄학원","tel":"031-8003-0007","addr":"경기도 화성시 반송동 107-7번지 아시아프라자 8층 801호","indutype":"학원 - 보습학원","category":"study"},{"name":"동탄요리제과제빵학원","tel":"031-613-3234","addr":"경기도 화성시 반송동 107-7번지 201,202호","indutype":"학원 - 기능학원","category":"study"},{"name":"동탄플래뮤미술학원","tel":"031-8015-3535","addr":"경기도 화성시 반송동 107-7번지 아시아프라자 4층 407호","indutype":"학원 - 예·체능계학원","category":"study"},{"name":"메타인지연세수학학원","tel":"031-613-2786","addr":"경기도 화성시 반송동 107-7번지 아시아프라자 404호","indutype":"학원 - 보습학원","category":"study"},{"name":"바르다훈수학전문학원","tel":"031-8003-0972","addr":"경기도 화성시 반송동 107-7번지 아시아프라자 502호","indutype":"회원제형태 - 학원","category":"study"},{"name":"음악줄넘기 전문 점핑클럽","tel":"","addr":"경기도 화성시 반송동 107-7번지 아시아프라자 2층 207호,207-1호","indutype":"학원 - 예·체능계학원","category":"study"},{"name":"주식회사 선투연","tel":"","addr":"경기도 화성시 반송동 107-7번지 아시아프라자 7층 752호","indutype":"학원 - 기타 교육기관","category":"study"},{"name":"주식회사 씨엠에스동탄교육원","tel":"031-8003-4664","addr":"경기도 화성시 반송동 107-7번지 아시아프라자 402호","indutype":"학원 - 보습학원","category":"study"},{"name":"트러스트 에듀","tel":"031-613-7191","addr":"경기도 화성시 반송동 107-7번지 아시아프라자 801호","indutype":"학원 - 보습학원","category":"study"}]},{"lat":"37.20163731","long":"127.07144678","imageIndex":16,"items":[{"name":"개런티영어 Guarantee English","tel":"031-3720-0978","addr":"경기도 화성시 반송동 103-2번지 천년프라자 702호","indutype":"학원 - 외국어학원","category":"study"},{"name":"늘품수학교습소","tel":"031-613-0741","addr":"경기도 화성시 반송동 103-2번지 천년프라자 2층 203호","indutype":"학원 - 보습학원","category":"study"},{"name":"드림온수학전문학원","tel":"031-8003-1322","addr":"경기도 화성시 반송동 103-2번지 천년프라자 502호","indutype":"학원 - 보습학원","category":"study"},{"name":"리틀신윤복장영실과학학원","tel":"031-613-3360","addr":"경기도 화성시 반송동 103-2번지 천년프라자 703호","indutype":"학원 - 보습학원","category":"study"},{"name":"베를린음악학원","tel":"031-8003-6067","addr":"경기도 화성시 반송동 103-2번지 천년프라자 303호","indutype":"학원 - 예·체능계학원","category":"study"},{"name":"신동탄간호학원","tel":"031-8003-2456","addr":"경기도 화성시 반송동 103-2번지 천년프라자 4층 401호","indutype":"학원 - 기능학원","category":"study"},{"name":"애니원미술학원","tel":"031-8003-0935","addr":"경기도 화성시 반송동 103-2번지 천년프라자 802호","indutype":"학원 - 예·체능계학원","category":"study"},{"name":"이지댄스학원","tel":"031-613-104","addr":"경기도 화성시 반송동 103-2번지 천년프라자 402,403호","indutype":"학원 - 예·체능계학원","category":"study"},{"name":"코데쉬발레스튜디오학원","tel":"","addr":"경기도 화성시 반송동 103-2번지 천년프라자 202호","indutype":"학원 - 예·체능계학원","category":"study"}]},{"lat":"37.19338303","long":"127.07274582","imageIndex":16,"items":[{"name":"거북이와토끼수학학원","tel":"031-613-2265","addr":"경기도 화성시 반송동 220-7번지 능동(현대)프라자303","indutype":"학원 - 보습학원","category":"study"},{"name":"마고수학전문학원","tel":"070-8811-4502","addr":"경기도 화성시 반송동 220-7번지 능동프라자 503호","indutype":"학원 - 보습학원","category":"study"},{"name":"변화의시작학원","tel":"031-805-1009","addr":"경기도 화성시 반송동 220-7번지 현대프라자 5층 502호","indutype":"학원 - 보습학원","category":"study"},{"name":"비욘드잉글리쉬학원","tel":"031-8050-3333","addr":"경기도 화성시 반송동 220-7번지 능동프라자 302호","indutype":"학원 - 외국어학원","category":"study"},{"name":"소망중국어일본어학원","tel":"031-803-8866","addr":"경기도 화성시 반송동 220-7번지 능동프라자 501호","indutype":"학원 - 외국어학원","category":"study"},{"name":"신수연수학과학김샘동탄캠퍼스학원","tel":"031-8003-3872","addr":"경기도 화성시 반송동 220-7번지 능동프라자 6층","indutype":"회원제형태 - 학원","category":"study"},{"name":"위드학원","tel":"031-308-1916","addr":"경기도 화성시 반송동 220-7번지 능동프라자 302호 현대프라자","indutype":"회원제형태 - 학원","category":"study"},{"name":"포인트학원","tel":"031-8015-3757","addr":"경기도 화성시 반송동 220-7번지 현대프라자 503호","indutype":"학원 - 보습학원","category":"study"}]},{"lat":"37.198221377","long":"127.0731445","imageIndex":16,"items":[{"name":"경남피아노교습소","tel":"031-613-0380","addr":"경기도 화성시 반송동 132 솔빛마을경남아너스빌상가 201","indutype":"학원 - 예·체능계학원","category":"study"},{"name":"새한빛어린이집[아이행복]","tel":"031-8003-9870","addr":"경기도 화성시 반송동 132번지 솔빛마을경남아너스","indutype":"학원 - 유아원","category":"study"}]},{"lat":"37.201412213","long":"127.07116498","imageIndex":16,"items":[{"name":"경희대 반송 태권도장","tel":"031-613-2201","addr":"경기도 화성시 반송동 103-11 엔터프라임빌딩1003호~1004호","indutype":"학원 - 예·체능계학원","category":"study"},{"name":"더수음악학원","tel":"031-613-2297","addr":"경기도 화성시 반송동 103-11번지 엔터프라임빌딩 603호","indutype":"학원 - 예·체능계학원","category":"study"},{"name":"동탄펜톤미술학원","tel":"031-613-2252","addr":"경기도 화성시 반송동 103-11번지 엔터프라임빌딩 901,902호","indutype":"학원 - 예·체능계학원","category":"study"},{"name":"성공학원","tel":"031-000-0000","addr":"경기도 화성시 반송동 103-11번지 엔터프라임빌딩 304호","indutype":"학원 - 보습학원","category":"study"},{"name":"성공학원","tel":"031-000-0000","addr":"경기도 화성시 반송동 103-11번지 엔터프라임빌딩 304호","indutype":"학원 - 보습학원","category":"study"},{"name":"송현국어학원","tel":"031-399-7979","addr":"경기도 화성시 반송동 103-11번지 엔터프라임빌딩 304호","indutype":"학원 - 보습학원","category":"study"},{"name":"에프쇼팽음악학원","tel":"031-613-0588","addr":"경기도 화성시 반송동 103-11번지 엔터프라임 701호,702호 일부","indutype":"학원 - 예·체능계학원","category":"study"},{"name":"주식회사비제이엘잉글리쉬(BJL Englishlnc.","tel":"031-613-5110","addr":"경기도 화성시 반송동 103-11번지 엔터프라임빌딩 601동 602호","indutype":"회원제형태 - 학원","category":"study"},{"name":"최강샘의과수원학원","tel":"031-613-6134","addr":"경기도 화성시 반송동 103-11번지 엔터프라임 703동 704호","indutype":"학원 - 보습학원","category":"study"},{"name":"최강수학과학학원","tel":"031-613-0120","addr":"경기도 화성시 반송동 103-11번지 엔터프라임빌딩 501호","indutype":"학원 - 보습학원","category":"study"}]},{"lat":"37.194138772","long":"127.0746387","imageIndex":16,"items":[{"name":"경희대상무태권도장","tel":"031-613-5520","addr":"경기도 화성시 반송동 218-2 가희프라자II604호~605호","indutype":"학원 - 예·체능계학원","category":"study"},{"name":"경희대상무특공무술","tel":"031-613-5520","addr":"경기도 화성시 반송동 218-2번지 가희프라자2차 505,506호","indutype":"학원 - 예·체능계학원","category":"study"},{"name":"수학분석공략학원","tel":"031-8015-4562","addr":"경기도 화성시 반송동 218-2번지 가희프라자 301호","indutype":"학원 - 보습학원","category":"study"},{"name":"어썸 커뮤니티","tel":"031-613-0018","addr":"경기도 화성시 반송동 218-2번지 가희프라자2 6층 604,605호","indutype":"학원 - 독서실","category":"study"},{"name":"자호수학전문학원","tel":"031-8003-4533","addr":"경기도 화성시 반송동 218-2번지 6층 601~602호","indutype":"학원 - 보습학원","category":"study"},{"name":"제이씨에이영수학원","tel":"031-8015-2693","addr":"경기도 화성시 반송동 218-2번지 가희프라자 503,504호","indutype":"학원 - 보습학원","category":"study"},{"name":"주식회사 프라미스에듀","tel":"031-613-9505","addr":"경기도 화성시 반송동 218-2번지 가희프라자 501,502호","indutype":"학원 - 보습학원","category":"study"},{"name":"필리아음익학원","tel":"031-613-0036","addr":"경기도 화성시 반송동 218-2번지 가희프라자2 507호","indutype":"학원 - 예·체능계학원","category":"study"}]},{"lat":"37.193775383","long":"127.07939133","imageIndex":16,"items":[{"name":"경희대한울태권도장","tel":"031-8015-3571","addr":"경기도 화성시 반송동 224번지 나루마을월드메르디앙반도유보라 201,202호","indutype":"학원 - 예·체능계학원","category":"study"},{"name":"쇼팽피아노교습소","tel":"031-613-7805","addr":"경기도 화성시 반송동 224번지 상가동 지하1층 비107호","indutype":"학원 - 예·체능계학원","category":"study"}]},{"lat":"37.207303553","long":"127.07363731","imageIndex":16,"items":[{"name":"고업영어학원","tel":"031-8015-5576","addr":"경기도 화성시 반송동 86-4번지 위너스타빌딩 9층 914호","indutype":"학원 - 외국어학원","category":"study"},{"name":"더시크릿수학학원","tel":"031-8003-7472","addr":"경기도 화성시 반송동 86-4번지 위너스타 604호","indutype":"학원 - 보습학원","category":"study"},{"name":"동탄정상1관어학원/(주)엠에이치홀딩스","tel":"","addr":"경기도 화성시 반송동 86-4번지 위너스타 901~911호","indutype":"학원 - 보습학원","category":"study"},{"name":"동탄정상1관어학원/주식회사 엠에이치홀딩","tel":"","addr":"경기도 화성시 반송동 86-4번지 801~805호,901~911호,위너스타","indutype":"학원 - 보습학원","category":"study"},{"name":"땡이의미술여행학원","tel":"031-613-0273","addr":"경기도 화성시 반송동 86-4번지 위너스타 611호","indutype":"학원 - 예·체능계학원","category":"study"},{"name":"로보티즈키즈랩 경기남부점","tel":"031-8077-9630","addr":"경기도 화성시 반송동 86-4번지 위너스타 9층 915호","indutype":"학원 - 학습지 교육","category":"study"},{"name":"바른수학학원","tel":"031-265-5759","addr":"경기도 화성시 반송동 86-4번지 위너스타 6층 609호","indutype":"학원 - 보습학원","category":"study"},{"name":"수잔잉글리쉬학원","tel":"070-7005-2659","addr":"경기도 화성시 반송동 86-4번지 위너스타 9층 916,917호","indutype":"학원 - 보습학원","category":"study"},{"name":"수학사랑수학교습소","tel":"","addr":"경기도 화성시 반송동 86-4번지 위너스타 1002호","indutype":"학원 - 보습학원","category":"study"},{"name":"아이다움어학원","tel":"031-8003-0039","addr":"경기도 화성시 반송동 86-4번지 위너스타 605호","indutype":"학원 - 외국어학원","category":"study"},{"name":"아이언태권도","tel":"031-613-5488","addr":"경기도 화성시 반송동 86-4번지 위너스타 603호","indutype":"학원 - 예·체능계학원","category":"study"},{"name":"연세스타수학학원","tel":"031-613-8726","addr":"경기도 화성시 반송동 86-4번지 위너스타 606호","indutype":"학원 - 보습학원","category":"study"},{"name":"예당아트음악학원","tel":"031-8003-4343","addr":"경기도 화성시 반송동 86-4번지 위너스타빌딩 610호","indutype":"학원 - 예·체능계학원","category":"study"},{"name":"예당열린학원","tel":"031-613-6742","addr":"경기도 화성시 반송동 86-4번지 위너스타 607호","indutype":"회원제형태 - 학원","category":"study"},{"name":"올플랜학원","tel":"","addr":"경기도 화성시 반송동 86-4번지 위너스타 502호 일부","indutype":"학원 - 보습학원","category":"study"},{"name":"위너스과학교습소","tel":"031-613-9826","addr":"경기도 화성시 반송동 86-4번지 위너스타 5층 508호","indutype":"학원 - 보습학원","category":"study"},{"name":"이정표수학과학전문학원","tel":"031-8003-0909","addr":"경기도 화성시 반송동 86-4번지 위너스타 606-2호","indutype":"학원 - 보습학원","category":"study"},{"name":"주식회사 엠에이치홀딩스","tel":"","addr":"경기도 화성시 반송동 86-4번지 위너스타 901동 911호","indutype":"학원 - 보습학원","category":"study"},{"name":"창의융합과학학원","tel":"031-8077-9630","addr":"경기도 화성시 반송동 86-4번지 위너스타 9층 915호","indutype":"학원 - 기타 교육기관","category":"study"},{"name":"창작공작소미술학원","tel":"031-297-6425","addr":"경기도 화성시 반송동 86-4번지 위너스타 9층 913호","indutype":"학원 - 예·체능계학원","category":"study"},{"name":"키즈스피치예시바학원_수원동탄센터","tel":"031-803-0116","addr":"경기도 화성시 반송동 86-4번지 위너스타 10층 1008호,1009호","indutype":"학원 - 기능학원","category":"study"},{"name":"파고다차이랑중국어동탄예당캠퍼스학원","tel":"031-8003-1718","addr":"경기도 화성시 반송동 86-4번지 위너스타 608호","indutype":"학원 - 외국어학원","category":"study"}]},{"lat":"37.199943344","long":"127.07146778","imageIndex":16,"items":[{"name":"교육그룹강한학원","tel":"031-8003-6035","addr":"경기도 화성시 반송동 107-1번지 센터프라자 207호~208호","indutype":"학원 - 보습학원","category":"study"},{"name":"국어다움","tel":"031-613-8585","addr":"경기도 화성시 반송동 107-1번지 쎈타프라자 8층 801호","indutype":"학원 - 보습학원","category":"study"},{"name":"김학선수학학원","tel":"031-613-0097","addr":"경기도 화성시 반송동 107-1번지 센터프라자 705호","indutype":"학원 - 보습학원","category":"study"},{"name":"동탄아이디엠씨무용교육학원","tel":"031-613-6142","addr":"경기도 화성시 반송동 107-1번지 쎈타프라자 901~903호","indutype":"학원 - 예·체능계학원","category":"study"},{"name":"동탄아이티씨학원","tel":"070-8658-9387","addr":"경기도 화성시 반송동 107-1번지 쎈타프라자 606호","indutype":"회원제형태 - 학원","category":"study"},{"name":"동탄최상학원","tel":"031-613-4811","addr":"경기도 화성시 반송동 107-1번지 쎈타프라자 802호","indutype":"학원 - 보습학원","category":"study"},{"name":"말하는스피치","tel":"031-8003-7552","addr":"경기도 화성시 반송동 107-1번지 센터프라자 502호","indutype":"회원제형태 - 학원","category":"study"},{"name":"맥켄지어학원","tel":"031-8003-2137","addr":"경기도 화성시 반송동 107-1번지 쎈타프라자 506호 센터프라자","indutype":"학원 - 외국어학원","category":"study"},{"name":"브레인동탄학원","tel":"031-8003-9393","addr":"경기도 화성시 반송동 107-1번지 센타프라자 805호","indutype":"회원제형태 - 학원","category":"study"},{"name":"설연고공부방법습관학원","tel":"031-285-9266","addr":"경기도 화성시 반송동 107-1번지 쎈타프라자 706호","indutype":"학원 - 보습학원","category":"study"},{"name":"아트인네이처미술학원","tel":"031-8015-9196","addr":"경기도 화성시 반송동 107-1번지 쎈타프라자 9층 904호","indutype":"학원 - 예·체능계학원","category":"study"},{"name":"에스시(SC)영어학원","tel":"070-3018-5510","addr":"경기도 화성시 반송동 107-1번지 쎈타프라자 7층 4호","indutype":"학원 - 보습학원","category":"study"},{"name":"에스엠(SM)창의교육센터학원","tel":"031-8003-1282","addr":"경기도 화성시 반송동 107-1번지 쎈타프라자 4층 402호","indutype":"학원 - 보습학원","category":"study"},{"name":"올인영어수학학원","tel":"031-8003-6012","addr":"경기도 화성시 반송동 107-1번지 쎈타프라자 803호","indutype":"학원 - 보습학원","category":"study"},{"name":"이산국어논술학원","tel":"031-8015-0897","addr":"경기도 화성시 반송동 107-1쎈타프라자401호","indutype":"학원 - 보습학원","category":"study"},{"name":"이산학원","tel":"031-8015-0897","addr":"경기도 화성시 반송동 107-1번지 센터프라자 6층 605호","indutype":"학원 - 보습학원","category":"study"},{"name":"자호수학전문학원","tel":"031-8003-4533","addr":"경기도 화성시 반송동 107-1번지 쎈타프라자 706호","indutype":"학원 - 보습학원","category":"study"},{"name":"주니어음악학원","tel":"031-613-6330","addr":"경기도 화성시 반송동 107-1번지 쎈타프라자 601호","indutype":"학원 - 예·체능계학원","category":"study"},{"name":"클로버미술학원","tel":"031-613-0633","addr":"경기도 화성시 반송동 107-1번지 쎈타프라자 10층 센터프라자","indutype":"학원 - 예·체능계학원","category":"study"},{"name":"탑영수전문학원","tel":"031-8015-3677","addr":"경기도 화성시 반송동 107-1번지 쎈타프라자 303호","indutype":"학원 - 보습학원","category":"study"},{"name":"피엘디 폴 스토리","tel":"","addr":"경기도 화성시 반송동 107-1번지 센터프라자 301호","indutype":"학원 - 예·체능계학원","category":"study"}]},{"lat":"37.19630115","long":"127.07483222","imageIndex":16,"items":[{"name":"국가대표솔빛태권도","tel":"031-613-7890","addr":"경기도 화성시 반송동 134번지 (3층) 301,302,304","indutype":"학원 - 예·체능계학원","category":"study"},{"name":"숙명플러스음악학원","tel":"031-8050-4320","addr":"경기도 화성시 반송동 134번지 동탄솔빛마을신도브래뉴 상가동 203호,204호","indutype":"학원 - 예·체능계학원","category":"study"}]},{"lat":"37.211661201","long":"127.06346852","imageIndex":16,"items":[{"name":"굿맘아이솔어린이집[아이행복]","tel":"031-613-7113","addr":"경기도 화성시 반송동 1-2번지 1층","indutype":"학원 - 유아원","category":"study"}]},{"lat":"37.194327854","long":"127.07486414","imageIndex":16,"items":[{"name":"귀큰여우창작소동탄센타학원","tel":"031-8015-5568","addr":"경기도 화성시 반송동 218-1번지 계림개발 601호","indutype":"학원 - 예·체능계학원","category":"study"},{"name":"아이엠발레학원","tel":"031-8015-0101","addr":"경기도 화성시 반송동 218-1번지 계림개발 401호","indutype":"학원 - 예·체능계학원","category":"study"},{"name":"케이에이지이영재교육학술원학원","tel":"031-8015-0058","addr":"경기도 화성시 반송동 218-1번지 계림개발 602호","indutype":"회원제형태 - 학원","category":"study"}]},{"lat":"37.207273974","long":"127.06183159","imageIndex":16,"items":[{"name":"그라찌아바리스타학원","tel":"031-8015-9173","addr":"경기도 화성시 반송동 49-12번지","indutype":"회원제형태 - 학원","category":"study"}]},{"lat":"37.192661998","long":"127.07308304","imageIndex":16,"items":[{"name":"그림이좋은아이들학원","tel":"031-8003-7035","addr":"경기도 화성시 반송동 216-2번지 샹그릴라 502호","indutype":"학원 - 예·체능계학원","category":"study"},{"name":"새명문음악학원","tel":"031-613-0069","addr":"경기도 화성시 반송동 216-2번지 샹그릴라 5층 503호","indutype":"학원 - 예·체능계학원","category":"study"},{"name":"시매쓰동탄1센터학원","tel":"031-8003-1031","addr":"경기도 화성시 반송동 216-2번지 샹그릴라 403,404호","indutype":"학원 - 보습학원","category":"study"},{"name":"이투스수학나루학원","tel":"031-603-2293","addr":"경기도 화성시 반송동 216-2번지 샹그릴라 601호","indutype":"학원 - 보습학원","category":"study"},{"name":"지(G)배우수업","tel":"031-8015-8003","addr":"경기도 화성시 반송동 216-2번지 상그릴라 401호","indutype":"학원 - 예·체능계학원","category":"study"},{"name":"청아학원","tel":"031-8003-8885","addr":"경기도 화성시 반송동 216-2번지 샹그릴라 504호","indutype":"학원 - 보습학원","category":"study"},{"name":"한수위 학원","tel":"031-8015-5538","addr":"경기도 화성시 반송동 216-2번지 샹그릴라 501호","indutype":"학원 - 보습학원","category":"study"}]},{"lat":"37.20322037","long":"127.05964315","imageIndex":16,"items":[{"name":"글로벌독서실","tel":"031-613-8403","addr":"경기도 화성시 반송동 61-1번지 5층","indutype":"학원 - 독서실","category":"study"},{"name":"블루엣발레학원","tel":"070-4140-2325","addr":"경기도 화성시 반송동 61-1번지 2층","indutype":"학원 - 예·체능계학원","category":"study"},{"name":"제이(JEY)어학원","tel":"031-613-6641","addr":"경기도 화성시 반송동 61-1번지 401호","indutype":"회원제형태 - 학원","category":"study"}]},{"lat":"37.187968873","long":"127.07086006","imageIndex":16,"items":[{"name":"금반숲어린이집[아이행복]","tel":"031-8003-2011","addr":"경기도 화성시 반송동 188-4번지","indutype":"학원 - 유아원","category":"study"}]},{"lat":"37.194775971","long":"127.07871655","imageIndex":16,"items":[{"name":"꼬맹이어린이집[아이행복]","tel":"031-372-3949","addr":"경기도 화성시 반송동 224번지 나루마을월드메르디앙반도유보라 634동 101호","indutype":"학원 - 유아원","category":"study"}]},{"lat":"37.205301013","long":"127.06119924","imageIndex":16,"items":[{"name":"꿈꾸는 미술관","tel":"","addr":"경기도 화성시 반송동 58-6번지 1층 일부","indutype":"학원 - 예·체능계학원","category":"study"},{"name":"예손어린이집[아이행복]","tel":"031-8003-7111","addr":"경기도 화성시 반송동 58-6번지","indutype":"학원 - 유아원","category":"study"}]},{"lat":"37.193472518","long":"127.07378209","imageIndex":16,"items":[{"name":"꿈꾸는연세성악피아노학원","tel":"031-613-0853","addr":"경기도 화성시 반송동 217-4번지 엔타워 203호","indutype":"학원 - 예·체능계학원","category":"study"},{"name":"지명유도관","tel":"031-8015-0036","addr":"경기도 화성시 반송동 217-4번지 엔타워 201호","indutype":"학원 - 예·체능계학원","category":"study"}]},{"lat":"37.191022266","long":"127.07281122","imageIndex":16,"items":[{"name":"꿈에그린해법영어","tel":"031-352-4966","addr":"경기도 화성시 반송동 200번지 동탄나루마을한화꿈에그린2차단지내상가102호","indutype":"회원제형태 - 학원","category":"study"}]},{"lat":"37.191442384","long":"127.07830776","imageIndex":16,"items":[{"name":"나루점해법수학교습소","tel":"031-236-2090","addr":"경기도 화성시 반송동 212번지 동탄나루마을월드메르디앙반도유보라 상가동 206호","indutype":"학원 - 보습학원","category":"study"},{"name":"뮤직엔음악교습소","tel":"","addr":"경기도 화성시 반송동 212번지 동탄나루마을월드메르디앙반도유보라 상가동 204호","indutype":"학원 - 예·체능계학원","category":"study"},{"name":"숲속미루어린이집[아이행복]","tel":"031-613-7784","addr":"경기도 화성시 반송동 212번지 동탄나루마을월드메르디앙반도유보라 관리동","indutype":"학원 - 유아원","category":"study"}]},{"lat":"37.193649208","long":"127.07943625","imageIndex":16,"items":[{"name":"나루토리어린이집[아이행복]","tel":"031-613-3072","addr":"경기도 화성시 반송동 224번지 동탄나루마을월드메르디앙반도유보라 632동 102호","indutype":"학원 - 유아원","category":"study"}]},{"lat":"37.210300744","long":"127.06325339","imageIndex":16,"items":[{"name":"나리예어린이집[아이행복]","tel":"031-613-9990","addr":"경기도 화성시 반송동 36-13번지","indutype":"학원 - 유아원","category":"study"}]},{"lat":"37.193661608","long":"127.07399626","imageIndex":16,"items":[{"name":"네오알앤씨학원","tel":"031-8055-8757","addr":"경기도 화성시 반송동 217-3번지 동유프라자 201호","indutype":"학원 - 보습학원","category":"study"},{"name":"동탄J프라임학원","tel":"031-8003-0003","addr":"경기도 화성시 반송동 217-3번지 동우프라자 502호 동유프라자","indutype":"학원 - 보습학원","category":"study"},{"name":"예원발레학원","tel":"031-613-8085","addr":"경기도 화성시 반송동 217-3번지 동유프라자 402호","indutype":"학원 - 예·체능계학원","category":"study"},{"name":"위너스영어교습소","tel":"070-4208-0673","addr":"경기도 화성시 반송동 217-3번지 동유프라자 202호","indutype":"회원제형태 - 학원","category":"study"}]},{"lat":"37.19402232","long":"127.07350103","imageIndex":16,"items":[{"name":"노르웨이숲가우디미술학원","tel":"031-613-3863","addr":"경기도 화성시 반송동 220-3번지 삼성미즈빌딩 6층","indutype":"학원 - 예·체능계학원","category":"study"},{"name":"스파르타관리형독서실","tel":"031-613-8865","addr":"경기도 화성시 반송동 220-3번지 삼성미즈빌딩 3층","indutype":"학원 - 독서실","category":"study"}]},{"lat":"37.202216829","long":"127.06632209","imageIndex":16,"items":[{"name":"노리하우스어린이집[아이행복]","tel":"031-8050-9336","addr":"경기도 화성시 반송동 80번지 시범다은마을월드메르디앙반도유보라 336동 102호","indutype":"학원 - 유아원","category":"study"},{"name":"조이스영어공부방","tel":"","addr":"경기도 화성시 반송동 80번지 동탄시범다은마을월드메르디앙반도유보라 336동 304호","indutype":"학원 - 기타 교육기관","category":"study"}]},{"lat":"37.192779233","long":"127.0729142","imageIndex":16,"items":[{"name":"다담수학학원","tel":"031-8003-7008","addr":"경기도 화성시 반송동 216-1번지 신성프라자 402호","indutype":"학원 - 보습학원","category":"study"},{"name":"와이앤제이(Y&J)학원","tel":"031-8003-9670","addr":"경기도 화성시 반송동 216-1번지 신성프라자","indutype":"학원 - 보습학원","category":"study"},{"name":"이자경수학전문학원","tel":"031-252-8558","addr":"경기도 화성시 반송동 216-1번지 신성프라자 503동 4호","indutype":"학원 - 보습학원","category":"study"},{"name":"이해학원","tel":"031-8003-0829","addr":"경기도 화성시 반송동 216-1번지 신성프라자 303호","indutype":"학원 - 보습학원","category":"study"},{"name":"이혜연어학원","tel":"031-8015-3552","addr":"경기도 화성시 반송동 216-1번지 신성프라자 501,502호","indutype":"회원제형태 - 학원","category":"study"}]},{"lat":"37.21019282","long":"127.06285902","imageIndex":16,"items":[{"name":"다솜아이어린이집[아이행복]","tel":"031-8003-7171","addr":"경기도 화성시 반송동 37-3번지 1층","indutype":"학원 - 유아원","category":"study"}]},{"lat":"37.19661179","long":"127.06738742","imageIndex":16,"items":[{"name":"다인어린이집[아이행복]","tel":"031-8058-3032","addr":"경기도 화성시 반송동 141번지 새강마을6단지 관리동","indutype":"학원 - 유아원","category":"study"}]},{"lat":"37.201637133","long":"127.07175091","imageIndex":16,"items":[{"name":"닥터브레인어학원","tel":"031-8003-4466","addr":"경기도 화성시 반송동 103-3 디앤씨빌딩4층401,402,403,404","indutype":"회원제형태 - 학원","category":"study"},{"name":"동탄TG교육그룹독서실","tel":"031-831-3779","addr":"경기도 화성시 반송동 103-3번지 디앤씨빌딩 802호 일부","indutype":"학원 - 독서실","category":"study"},{"name":"삼성레지던스","tel":"031-8003-6633","addr":"경기도 화성시 반송동 103-3번지 디앤씨빌딩 1001호","indutype":"학원 - 독서실","category":"study"},{"name":"프라미스영어학원 남광장지점","tel":"031-8003-0504","addr":"경기도 화성시 반송동 103-3번지 디앤씨빌딩 501호","indutype":"학원 - 보습학원","category":"study"}]},{"lat":"37.19308534","long":"127.07333121","imageIndex":16,"items":[{"name":"닥터정이클래스어학원","tel":"031-8003-0579","addr":"경기도 화성시 반송동 217-6번지 거택프라자 501호","indutype":"회원제형태 - 학원","category":"study"},{"name":"동탄나루마을작심독서실","tel":"031-613-9010","addr":"경기도 화성시 반송동 217-6번지 거택프라자 502호 일부","indutype":"학원 - 독서실","category":"study"},{"name":"생각하는황소학원","tel":"031-8003-3333","addr":"경기도 화성시 반송동 217-6번지 거택프라자 6층","indutype":"학원 - 보습학원","category":"study"},{"name":"테라피수학학원","tel":"031-8003-3334","addr":"경기도 화성시 반송동 217-6번지 거택프라자 601호","indutype":"학원 - 보습학원","category":"study"}]},{"lat":"37.193581125","long":"127.07297126","imageIndex":16,"items":[{"name":"더바른수학전문학원","tel":"031-8003-3356","addr":"경기도 화성시 반송동 220-5번지 인창프라자 502호","indutype":"학원 - 보습학원","category":"study"},{"name":"동탄검도관","tel":"031-8003-5515","addr":"경기도 화성시 반송동 220-5번지 인창프라자 7층 701호","indutype":"학원 - 예·체능계학원","category":"study"},{"name":"동탄나인실용음악학원","tel":"031-8003-7833","addr":"경기도 화성시 반송동 220-5번지 인창프라자 403호","indutype":"회원제형태 - 학원","category":"study"},{"name":"동탄아이비랭귀지스쿨","tel":"031-8003-0501","addr":"경기도 화성시 반송동 220-5,인창프라자601호~602호","indutype":"회원제형태 - 학원","category":"study"},{"name":"동탄예스셈수학학원","tel":"031-613-7972","addr":"경기도 화성시 반송동 220-5번지 인창프라자 501호","indutype":"학원 - 보습학원","category":"study"},{"name":"박정하미술학원","tel":"031-8003-8123","addr":"경기도 화성시 반송동 220-5번지 인창프라자 703호","indutype":"회원제형태 - 학원","category":"study"},{"name":"솔빛아카블학원","tel":"031-8015-5241","addr":"경기도 화성시 반송동 220-5번지 인창프라자 304호","indutype":"학원 - 보습학원","category":"study"},{"name":"아이스펀지어학원","tel":"031-8003-1279","addr":"경기도 화성시 반송동 220-5번지 인창프라자 3층 302,303,306호","indutype":"학원 - 외국어학원","category":"study"},{"name":"오샘국어전문학원","tel":"031-000-0000","addr":"경기도 화성시 반송동 220-5번지 인창프라자 6층 604호","indutype":"학원 - 보습학원","category":"study"},{"name":"용인대백호태권도","tel":"031-8003-3698","addr":"경기도 화성시 반송동 220-5번지 인창프라자 301호","indutype":"학원 - 예·체능계학원","category":"study"},{"name":"조엘피아노우쿨전문음악학원","tel":"070-4366-1519","addr":"경기도 화성시 반송동 220-5번지 인창프라자 702호","indutype":"학원 - 예·체능계학원","category":"study"},{"name":"프리스콜레학원","tel":"031-613-7034","addr":"경기도 화성시 반송동 220-5번지 인창프라자 5층 503호","indutype":"학원 - 보습학원","category":"study"},{"name":"프린스턴어학원","tel":"031-8003-0584","addr":"경기도 화성시 반송동 220-5번지 인창프라자 206호","indutype":"학원 - 외국어학원","category":"study"},{"name":"황은영국어전문학원","tel":"031-257-1072","addr":"경기도 화성시 반송동 220-5번지 인창프라자 502호","indutype":"학원 - 보습학원","category":"study"}]},{"lat":"37.194751717","long":"127.07424507","imageIndex":16,"items":[{"name":"더불어숲나루관학원","tel":"031-613-2631","addr":"경기도 화성시 반송동 219-1번지 성우프라자 304호","indutype":"학원 - 보습학원","category":"study"},{"name":"솔빛미술학원","tel":"031-613-4993","addr":"경기도 화성시 반송동 219-1번지 성우프라자 5층 504호","indutype":"학원 - 예·체능계학원","category":"study"},{"name":"솔빛음악학원","tel":"031-613-7037","addr":"경기도 화성시 반송동 219-1번지 성우프라자 501호","indutype":"학원 - 예·체능계학원","category":"study"},{"name":"수학공간학원","tel":"031-8015-5399","addr":"경기도 화성시 반송동 219-1번지 성우프라자 503호","indutype":"학원 - 보습학원","category":"study"},{"name":"아이벡스영어학원","tel":"031-613-8116","addr":"경기도 화성시 반송동 219-1번지 성우프라자 5층 505호","indutype":"학원 - 보습학원","category":"study"},{"name":"초롱바움슐레","tel":"031-461-8437","addr":"경기도 화성시 반송동 219-1번지 성우프라자 401호","indutype":"학원 - 예·체능계학원","category":"study"},{"name":"태권도 EDEN","tel":"031-613-1541","addr":"경기도 화성시 반송동 219-1번지 성우프라자 304호","indutype":"학원 - 예·체능계학원","category":"study"},{"name":"트리즈나루수학학원","tel":"031-613-4848","addr":"경기도 화성시 반송동 219-1번지 성우프라자 502호","indutype":"학원 - 보습학원","category":"study"},{"name":"하루하루크는아이들미술학원","tel":"031-613-0646","addr":"경기도 화성시 반송동 219-1번지 성우프라자 302호","indutype":"학원 - 예·체능계학원","category":"study"}]},{"lat":"37.192723805","long":"127.07518924","imageIndex":16,"items":[{"name":"동탄MTA태권도","tel":"031-613-0051","addr":"경기도 화성시 반송동 215번지 3-8블럭신도브레뉴A단지상가305호-308호","indutype":"학원 - 예·체능계학원","category":"study"},{"name":"브래뉴음악학원","tel":"031-8003-3535","addr":"경기도 화성시 반송동 215번지 신도브래뉴 상가 303~304호","indutype":"학원 - 예·체능계학원","category":"study"},{"name":"스토리아트미술학원","tel":"031-8015-4586","addr":"경기도 화성시 반송동 215번지 나루마을신도브래뉴 상가 106호","indutype":"학원 - 예·체능계학원","category":"study"}]},{"lat":"37.20313851","long":"127.0612201","imageIndex":16,"items":[{"name":"동탄i어린이집[아이행복]","tel":"031-8003-2205","addr":"경기도 화성시 반송동 63-5번지","indutype":"학원 - 유아원","category":"study"}]},{"lat":"37.196939463","long":"127.07714183","imageIndex":16,"items":[{"name":"동탄꿈의 유치원[아이행복]","tel":"031-613-2011","addr":"경기도 화성시 반송동 120-6","indutype":"학원 - 유치원","category":"study"}]},{"lat":"37.19477102","long":"127.07208257","imageIndex":16,"items":[{"name":"동탄노리숲어린이집[아이행복]","tel":"031-613-7150","addr":"경기도 화성시 반송동 135번지 솔빛마을쌍용예가아파트 443층 102호","indutype":"학원 - 유아원","category":"study"},{"name":"솔빛사랑어린이집[아이행복]","tel":"031-8003-2970","addr":"경기도 화성시 반송동 135번지 솔빛마을쌍용예가아파트 1층 관리동","indutype":"학원 - 유아원","category":"study"}]},{"lat":"37.206494576","long":"127.07027963","imageIndex":16,"items":[{"name":"동탄모짜르테움음악학원","tel":"031-613-0151","addr":"경기도 화성시 반송동 85 상가 101호","indutype":"학원 - 예·체능계학원","category":"study"},{"name":"성원어린이집[아이행복]","tel":"031-613-3883","addr":"경기도 화성시 반송동 85번지 동탄시범한빛마을동탄아이파크","indutype":"학원 - 유아원","category":"study"}]},{"lat":"37.200438798","long":"127.07167098","imageIndex":16,"items":[{"name":"동탄뮤직스토리음악학원","tel":"031-8003-5759","addr":"경기도 화성시 반송동 104-12번지 동탄프라자 401호,403,404호","indutype":"학원 - 예·체능계학원","category":"study"},{"name":"동탄엘씨학원","tel":"031-613-4444","addr":"경기도 화성시 반송동 104-12번지 동탄프라자 701호, 703호","indutype":"회원제형태 - 학원","category":"study"},{"name":"딸기봐봐학원","tel":"070-8132-8426","addr":"경기도 화성시 반송동 104-12번지 동탄프라자 801호 ,802호,803호","indutype":"학원 - 외국어학원","category":"study"},{"name":"바짝독서실","tel":"031-8003-5070","addr":"경기도 화성시 반송동 104-12번지 동탄프라자 1001,1002,1003호","indutype":"학원 - 독서실","category":"study"},{"name":"소마수학학원","tel":"031-613-2587","addr":"경기도 화성시 반송동 104-12번지 동탄프라자 503호,504호","indutype":"학원 - 보습학원","category":"study"},{"name":"썬아트미술학원","tel":"031-8003-7538","addr":"경기도 화성시 반송동 104-12번지 동탄프라자 803호","indutype":"학원 - 예·체능계학원","category":"study"},{"name":"알앤씨과학교습소","tel":"031-613-5862","addr":"경기도 화성시 반송동 104-12번지 동탄프라자 903호","indutype":"학원 - 보습학원","category":"study"},{"name":"용인대정진무도관","tel":"031-8003-8355","addr":"경기도 화성시 반송동 104-12번지 동탄프라자 604호","indutype":"학원 - 예·체능계학원","category":"study"},{"name":"이아이이동탄고려국제어학원","tel":"031-613-0576","addr":"경기도 화성시 반송동 104-12번지 601호,603호","indutype":"학원 - 외국어학원","category":"study"},{"name":"이유에듀원학원","tel":"","addr":"경기도 화성시 반송동 104-12번지 동탄프라자 901호일부,903호일부","indutype":"학원 - 보습학원","category":"study"},{"name":"이지알(EGR) 어학원","tel":"031-8015-2910","addr":"경기도 화성시 반송동 104-12번지 동탄프라자 704호","indutype":"학원 - 외국어학원","category":"study"},{"name":"청어람수학전문학원","tel":"031-613-8209","addr":"경기도 화성시 반송동 104-12번지 동탄프라자 501호,502호","indutype":"학원 - 보습학원","category":"study"},{"name":"프린스턴로보그램학원","tel":"031-8015-4871","addr":"경기도 화성시 반송동 104-12번지 동탄프라자 602호","indutype":"학원 - 기타 교육기관","category":"study"},{"name":"화성동탄요미요미학원","tel":"031-613-5955","addr":"경기도 화성시 반송동 104-12번지 동탄프라자 9층 902,901일부호","indutype":"학원 - 예·체능계학원","category":"study"}]},{"lat":"37.193274424","long":"127.07355665","imageIndex":16,"items":[{"name":"동탄반송스즈키바이올린학원","tel":"031-8003-2226","addr":"경기도 화성시 반송동 217-5번지 금탑프라자 303호","indutype":"학원 - 예·체능계학원","category":"study"},{"name":"동탄유캔수학학원","tel":"031-8003-1325","addr":"경기도 화성시 반송동 217-5번지 금탑프라자","indutype":"회원제형태 - 학원","category":"study"},{"name":"매싸과학교습소","tel":"","addr":"경기도 화성시 반송동 217-5번지 금탑프라자 304호","indutype":"학원 - 보습학원","category":"study"},{"name":"북경청어람해법중국어학원","tel":"031-613-0388","addr":"경기도 화성시 반송동 217-5번지 금탑프라자 301호","indutype":"학원 - 보습학원","category":"study"},{"name":"수학신수학교습소","tel":"031-613-2904","addr":"경기도 화성시 반송동 217-5번지 금탑프라자 504호","indutype":"학원 - 보습학원","category":"study"},{"name":"아인클랑음악학원","tel":"031-613-8575","addr":"경기도 화성시 반송동 217-5번지 금탑프라자 501호","indutype":"학원 - 예·체능계학원","category":"study"},{"name":"용인대백상태권도","tel":"031-613-8253","addr":"경기도 화성시 반송동 217-5 금탑프라자 502","indutype":"학원 - 예·체능계학원","category":"study"},{"name":"자비국어교습소","tel":"","addr":"경기도 화성시 반송동 217-5번지 금탑프라자","indutype":"학원 - 보습학원","category":"study"},{"name":"하우스터디동탄센터독서실","tel":"031-613-9961","addr":"경기도 화성시 반송동 217-5번지 금탑프라자 602호","indutype":"학원 - 독서실","category":"study"},{"name":"해리홍영어학원","tel":"031-8015-0333","addr":"경기도 화성시 반송동 217-5번지 금탑프라자 503호","indutype":"회원제형태 - 학원","category":"study"}]},{"lat":"37.207299228","long":"127.06530123","imageIndex":16,"items":[{"name":"동탄센트럴음악학원","tel":"031-8003-5136","addr":"경기도 화성시 반송동 42-7번지 동탄P&P메디칼프라자 302호","indutype":"학원 - 예·체능계학원","category":"study"}]},{"lat":"37.207499534","long":"127.06122346","imageIndex":16,"items":[{"name":"동탄숲속어린이집[아이행복]","tel":"031-8003-4629","addr":"경기도 화성시 반송동 49-16번지 1층","indutype":"학원 - 유아원","category":"study"}]},{"lat":"37.210994486","long":"127.0633666","imageIndex":16,"items":[{"name":"동탄아이자람어린이집[아이행복]","tel":"031-613-0056","addr":"경기도 화성시 반송동 4-2번지","indutype":"학원 - 유아원","category":"study"}]},{"lat":"37.20674307","long":"127.06038927","imageIndex":16,"items":[{"name":"동탄예쁜아이어린이집[아이행복]","tel":"031-8003-5483","addr":"경기도 화성시 반송동 51-5번지 1층","indutype":"학원 - 유아원","category":"study"}]},{"lat":"37.205051387","long":"127.07291427","imageIndex":16,"items":[{"name":"동탄위드피아노학원","tel":"070-8114-5529","addr":"경기도 화성시 반송동 91-8번지","indutype":"회원제형태 - 학원","category":"study"},{"name":"에듀코치개별지도동탄학원","tel":"031-8003-2770","addr":"경기도 화성시 반송동 91-8번지 삼현빌딩 804호 일부","indutype":"학원 - 보습학원","category":"study"}]},{"lat":"37.194499487","long":"127.07414347","imageIndex":16,"items":[{"name":"동탄퀼른음악학원","tel":"031-613-6654","addr":"경기도 화성시 반송동 219-3번지 정림프라자 403호","indutype":"학원 - 예·체능계학원","category":"study"},{"name":"새싹바둑교습소","tel":"031-613-1917","addr":"경기도 화성시 반송동 219-3번지 정림프라자 502호","indutype":"학원 - 기타 교육기관","category":"study"},{"name":"수학쉼터학원","tel":"031-613-7209","addr":"경기도 화성시 반송동 219-3번지 정림프라자 503호","indutype":"학원 - 보습학원","category":"study"},{"name":"씨앤씨수학학원","tel":"031-8015-5979","addr":"경기도 화성시 반송동 219-3번지 정림프라자 501호","indutype":"학원 - 보습학원","category":"study"},{"name":"영수발전소","tel":"031-8003-3910","addr":"경기도 화성시 반송동 219-3번지 정림프라자 401호","indutype":"학원 - 보습학원","category":"study"},{"name":"왓슬영어도서관어학원","tel":"031-8003-1330","addr":"경기도 화성시 반송동 219-3번지 정림프라자 303호","indutype":"학원 - 외국어학원","category":"study"},{"name":"패라곤영어학원","tel":"031-613-7138","addr":"경기도 화성시 반송동 219-3번지 정림프라자 4층 402호","indutype":"학원 - 보습학원","category":"study"},{"name":"함께하는수학3관학원","tel":"031-8003-2006","addr":"경기도 화성시 반송동 219-3번지 정림프라자 601,602호","indutype":"학원 - 보습학원","category":"study"}]},{"lat":"37.206409549","long":"127.06067064","imageIndex":16,"items":[{"name":"동탄프라임유치원","tel":"031-8015-1234","addr":"경기도 화성시 반송동 55번지","indutype":"학원 - 유치원","category":"study"},{"name":"동탄프라임유치원[아이행복]","tel":"031-8015-1234","addr":"경기도 화성시 반송동 55번지","indutype":"학원 - 유치원","category":"study"}]},{"lat":"37.207634124","long":"127.06236133","imageIndex":16,"items":[{"name":"동탄하바패밀리어린이집[아이행복]","tel":"031-613-7923","addr":"경기도 화성시 반송동 47-6번지","indutype":"학원 - 유아원","category":"study"}]},{"lat":"37.202715561","long":"127.06011588","imageIndex":16,"items":[{"name":"동탄햇살가득어린이집[아이행복]","tel":"070-4623-1477","addr":"경기도 화성시 반송동 65-11번지 1층","indutype":"학원 - 유아원","category":"study"}]},{"lat":"37.193859702","long":"127.07422171","imageIndex":16,"items":[{"name":"드림온수학전문나루관학원","tel":"031-8077-2640","addr":"경기도 화성시 반송동 217-1번지 리첸프라자 404호","indutype":"학원 - 보습학원","category":"study"},{"name":"리드101 반송 영어학원","tel":"031-8043-4101","addr":"경기도 화성시 반송동 217-1번지 리첸프라자 406호","indutype":"회원제형태 - 학원","category":"study"},{"name":"마고수학2관학원","tel":"070-8811-4502","addr":"경기도 화성시 반송동 217-1번지 리첸프라자 403호","indutype":"학원 - 보습학원","category":"study"},{"name":"미술을삼킨악어","tel":"031-8003-9443","addr":"경기도 화성시 반송동 217-1번지 (반송동.리젠프라자407호,반송동217-1)","indutype":"학원 - 예·체능계학원","category":"study"},{"name":"보컬패밀리실용음악학원","tel":"031-613-3533","addr":"경기도 화성시 반송동 217-1번지 리첸프라자 301호","indutype":"학원 - 예·체능계학원","category":"study"},{"name":"수학을 말하다학원","tel":"031-613-0639","addr":"경기도 화성시 반송동 217-1번지 리첸프라자 504호","indutype":"학원 - 보습학원","category":"study"},{"name":"스폴어학원","tel":"031-613-9404","addr":"경기도 화성시 반송동 217-1번지 리첸프라자 6층 504호","indutype":"학원 - 외국어학원","category":"study"},{"name":"아마빌레음악학원","tel":"031-8003-8982","addr":"경기도 화성시 반송동 217-1번지 2리첸프라자 601호","indutype":"학원 - 예·체능계학원","category":"study"},{"name":"애니메이커미술학원","tel":"031-613-6184","addr":"경기도 화성시 반송동 217-1번지 리첸프라자 602호 603호","indutype":"회원제형태 - 학원","category":"study"},{"name":"예솔음악학원","tel":"031-613-8580","addr":"경기도 화성시 반송동 217-1번지 리첸프라자 5층 506호","indutype":"학원 - 예·체능계학원","category":"study"},{"name":"월드바리스타학원","tel":"031-8015-5665","addr":"경기도 화성시 반송동 217-1번지 리첸프라자","indutype":"회원제형태 - 학원","category":"study"},{"name":"위닝잉글리쉬학원","tel":"070-4106-1877","addr":"경기도 화성시 반송동 217-1번지 리첸프라자 505호","indutype":"회원제형태 - 학원","category":"study"},{"name":"이혜연특목고등학원","tel":"031-8015-3772","addr":"경기도 화성시 반송동 217-1번지 리첸프라자 405호","indutype":"학원 - 보습학원","category":"study"},{"name":"페타수학전문입시학원","tel":"031-8003-6677","addr":"경기도 화성시 반송동 217-1번지 리첸프라자 4층 401호 402호","indutype":"학원 - 보습학원","category":"study"}]},{"lat":"37.204078446","long":"127.07260923","imageIndex":16,"items":[{"name":"디랩학원/주식회사 디랩 동탄아카데미","tel":"031-613-6201","addr":"경기도 화성시 반송동 93-3번지 동탄파라곤 101동 2층 41호,42호","indutype":"학원 - 컴퓨터학원","category":"study"},{"name":"바오밥공부방","tel":"031-8015-0964","addr":"경기도 화성시 반송동 93-3 동탄파라곤102-4004","indutype":"회원제형태 - 학원","category":"study"},{"name":"에콜J드라마스피치학원","tel":"031-8003-0072","addr":"경기도 화성시 반송동 93-3번지 동탄파라곤 102동229호일부,230호.231호.232호","indutype":"학원 - 예·체능계학원","category":"study"},{"name":"파라곤SH학원","tel":"031-8003-2437","addr":"경기도 화성시 반송동 93-3번지 동탄파라곤 214~215호","indutype":"학원 - 보습학원","category":"study"}]},{"lat":"37.205637486","long":"127.07219387","imageIndex":16,"items":[{"name":"디자인호우와자명미술학원","tel":"031-613-5091","addr":"경기도 화성시 반송동 91-1번지 아인슈타인타워 901호 902호","indutype":"학원 - 예·체능계학원","category":"study"},{"name":"렘브란트의풍차","tel":"031-8015-2008","addr":"경기도 화성시 반송동 91-1번지 아인슈타인타워 801호","indutype":"학원 - 예·체능계학원","category":"study"},{"name":"스카이비상학원","tel":"031-8003-6928","addr":"경기도 화성시 반송동 91-1번지 아인슈타인타워 301,304호","indutype":"학원 - 보습학원","category":"study"},{"name":"인싸이트 심리평가연구소","tel":"031-613-2831","addr":"경기도 화성시 반송동 91-1번지 아인슈타인타워 6층 601호","indutype":"학원 - 기타 교육기관","category":"study"}]},{"lat":"37.192305508","long":"127.06611107","imageIndex":16,"items":[{"name":"라온어린이집[아이행복]","tel":"031-8003-8832","addr":"경기도 화성시 반송동 150-10번지 1층","indutype":"학원 - 유아원","category":"study"}]},{"lat":"37.195300113","long":"127.07627296","imageIndex":16,"items":[{"name":"러브아이어린이집[아이행복]","tel":"031-613-4512","addr":"경기도 화성시 반송동 222번지 동탄나루마을한화꿈에그린우림필유 603동 102호","indutype":"학원 - 유아원","category":"study"}]},{"lat":"37.206717993","long":"127.07344526","imageIndex":16,"items":[{"name":"레마댄스학원","tel":"031-613-0696","addr":"경기도 화성시 반송동 87-7번지 네오프라자 802호","indutype":"학원 - 예·체능계학원","category":"study"},{"name":"수력발전소수학학원","tel":"031-8003-0012","addr":"경기도 화성시 반송동 87-7번지 네오프라자 801호","indutype":"학원 - 보습학원","category":"study"},{"name":"아가월드에듀","tel":"031-613-0193","addr":"경기도 화성시 반송동 87-7번지 네오프라자 803호","indutype":"학원 - 학습지 교육","category":"study"},{"name":"엑터스타트레이닝센터 연기학원","tel":"031-8003-0118","addr":"경기도 화성시 반송동 87-7번지 네오프라자 801호","indutype":"학원 - 예·체능계학원","category":"study"},{"name":"영현원룸텔","tel":"031-8003-5933","addr":"경기도 화성시 반송동 87-7번지 네오프라자 9층901호,902호,903호,904호","indutype":"학원 - 독서실","category":"study"},{"name":"온더데스크 동탄독서실","tel":"031-613-0902","addr":"경기도 화성시 반송동 87-7번지 네오프라자 10층 1001호 일부호","indutype":"학원 - 독서실","category":"study"}]},{"lat":"37.201859791","long":"127.05966466","imageIndex":16,"items":[{"name":"로이발레학원","tel":"031-613-1186","addr":"경기도 화성시 반송동 61-10번지 정메디프라자 402호","indutype":"학원 - 예·체능계학원","category":"study"},{"name":"이화뮤직스쿨 음악학원","tel":"070-8621-9101","addr":"경기도 화성시 반송동 61-10번지 정메디프라자 401호","indutype":"학원 - 예·체능계학원","category":"study"},{"name":"제이엠씨줄넘기","tel":"031-8015-5959","addr":"경기도 화성시 반송동 61-10번지 정메디프라자 301,302호","indutype":"학원 - 예·체능계학원","category":"study"}]},{"lat":"37.200465672","long":"127.07194134","imageIndex":16,"items":[{"name":"멘토르7독서실","tel":"031-8015-7376","addr":"경기도 화성시 반송동 104-11번지 월드프라자 801동 804호","indutype":"학원 - 독서실","category":"study"},{"name":"에스와이(SY)댄스학원","tel":"031-8003-0827","addr":"경기도 화성시 반송동 104-11번지 월드프라자 704호","indutype":"학원 - 예·체능계학원","category":"study"}]},{"lat":"37.210742126","long":"127.06350158","imageIndex":16,"items":[{"name":"명품클래식어린이집[아이행복]","tel":"031-8003-8327","addr":"경기도 화성시 반송동 4-11번지","indutype":"학원 - 유아원","category":"study"}]},{"lat":"37.205439026","long":"127.07258796","imageIndex":16,"items":[{"name":"모던실용음악학원","tel":"031-613-0014","addr":"경기도 화성시 반송동 91-2번지 로하스애비뉴 502호","indutype":"학원 - 예·체능계학원","category":"study"},{"name":"생각제곱학원","tel":"031-614-0074","addr":"경기도 화성시 반송동 91-2 로하스에비뉴504호,505호","indutype":"회원제형태 - 학원","category":"study"}]},{"lat":"37.205409209","long":"127.06105288","imageIndex":16,"items":[{"name":"모두의미술학원","tel":"070-9678-7376","addr":"경기도 화성시 반송동 58-8번지 101호","indutype":"학원 - 예·체능계학원","category":"study"}]},{"lat":"37.209163436","long":"127.06706014","imageIndex":16,"items":[{"name":"뮤엠영어동탄석우초영어교습소","tel":"031-613-0573","addr":"경기도 화성시 반송동 18-6번지 101호","indutype":"학원 - 외국어학원","category":"study"}]},{"lat":"37.200194918","long":"127.07269577","imageIndex":16,"items":[{"name":"미술로생각하기미술학원","tel":"031-8050-2200","addr":"경기도 화성시 반송동 107-4번지 연세프라자 1001호","indutype":"학원 - 예·체능계학원","category":"study"},{"name":"에듀포티40","tel":"","addr":"경기도 화성시 반송동 107-4번지 연세프라자 5층 516호","indutype":"학원 - 기타 교육기관","category":"study"}]},{"lat":"37.202715495","long":"127.06025105","imageIndex":16,"items":[{"name":"민피아노학원","tel":"070-7764-2348","addr":"경기도 화성시 반송동 65-10번지 1동","indutype":"학원 - 예·체능계학원","category":"study"}]},{"lat":"37.199915183","long":"127.07339388","imageIndex":16,"items":[{"name":"바움뮤직피아노교습소","tel":"070-7749-2239","addr":"경기도 화성시 반송동 106-7번지 서해더블루 205호","indutype":"학원 - 예·체능계학원","category":"study"},{"name":"안스클래스 미술교습소","tel":"","addr":"경기도 화성시 반송동 106-7번지 서해더블루 213호","indutype":"학원 - 예·체능계학원","category":"study"},{"name":"와이케이(YK)수학교습소","tel":"","addr":"경기도 화성시 반송동 106-7번지 서해더블루 2층 212호","indutype":"학원 - 보습학원","category":"study"}]},{"lat":"37.193550909","long":"127.07816344","imageIndex":16,"items":[{"name":"반석초등학교병설유치원[아이행복]","tel":"031-613-2690","addr":"경기도 화성시 반송동 223번지","indutype":"학원 - 유치원","category":"study"}]},{"lat":"37.209498907","long":"127.06308377","imageIndex":16,"items":[{"name":"반송딸기'S어린이집[아이행복]","tel":"031-613-7905","addr":"경기도 화성시 반송동 39-9번지","indutype":"학원 - 유아원","category":"study"}]},{"lat":"37.211499112","long":"127.06327688","imageIndex":16,"items":[{"name":"반송아기사랑어린이집[아이행복]","tel":"070-4235-3470","addr":"경기도 화성시 반송동 1-4번지","indutype":"학원 - 유아원","category":"study"}]},{"lat":"37.190663395","long":"127.07014167","imageIndex":16,"items":[{"name":"반송초등학교","tel":"031-613-3924","addr":"경기도 화성시 반송동 199번지 반송초등학교","indutype":"학원 - 초중고교육기관","category":"study"}]},{"lat":"37.193112877","long":"127.07247526","imageIndex":16,"items":[{"name":"베블렌수학학원","tel":"031-8003-0055","addr":"경기도 화성시 반송동 221-2번지 서건프라자 503호","indutype":"회원제형태 - 학원","category":"study"},{"name":"엠에이씨학원","tel":"031-8015-1455","addr":"경기도 화성시 반송동 221-2번지 서건프라자 502호","indutype":"학원 - 보습학원","category":"study"},{"name":"이용수국어논술학원","tel":"031-652-8580","addr":"경기도 화성시 반송동 221-2번지 서건프라자 6층 603호","indutype":"학원 - 보습학원","category":"study"},{"name":"프라미스동탄영어학원 나루지점","tel":"031-8003-0542","addr":"경기도 화성시 반송동 221-2번지 서건프라자 502호","indutype":"학원 - 보습학원","category":"study"}]},{"lat":"37.20002733","long":"127.0662752","imageIndex":16,"items":[{"name":"비엔나피아노교습소","tel":"031-8015-0097","addr":"경기도 화성시 반송동 79번지 동탄시범다은마을우남퍼스트빌 상가동 102호","indutype":"학원 - 예·체능계학원","category":"study"}]},{"lat":"37.206158598","long":"127.07469514","imageIndex":16,"items":[{"name":"상상공작소미술학원","tel":"031-613-0908","addr":"경기도 화성시 반송동 90-2번지 서해더블루 2층 214호,215호,216호,217호","indutype":"학원 - 예·체능계학원","category":"study"}]},{"lat":"37.206853081","long":"127.07355804","imageIndex":16,"items":[{"name":"상상플러스학원","tel":"","addr":"경기도 화성시 반송동 87-1번지 가희프라자 303호","indutype":"학원 - 보습학원","category":"study"},{"name":"상상학원","tel":"031-8003-3231","addr":"경기도 화성시 반송동 87-1번지 가희프라자 301호","indutype":"학원 - 보습학원","category":"study"},{"name":"제일학원","tel":"031-8000-3787","addr":"경기도 화성시 반송동 87-1번지 가희프라자 601호","indutype":"학원 - 보습학원","category":"study"},{"name":"최용훈국어전문동탄반송학원","tel":"031-613-3731","addr":"경기도 화성시 반송동 87-1번지 가희프라자 302호","indutype":"학원 - 보습학원","category":"study"},{"name":"헤르메스국어논술학원","tel":"031-8015-5302","addr":"경기도 화성시 반송동 87-1번지 가희프라자 203호","indutype":"학원 - 보습학원","category":"study"}]},{"lat":"37.210470909","long":"127.06524751","imageIndex":16,"items":[{"name":"생각통통어린이집[아이행복]","tel":"031-613-4611","addr":"경기도 화성시 반송동 10-9번지 상가 1층","indutype":"학원 - 유아원","category":"study"}]},{"lat":"37.20896471","long":"127.06797246","imageIndex":16,"items":[{"name":"석우초등학교병설유치원[아이행복]","tel":"031-613-3213","addr":"경기도 화성시 반송동 20번지","indutype":"학원 - 유치원","category":"study"}]},{"lat":"37.201940262","long":"127.06094884","imageIndex":16,"items":[{"name":"설리번어린이집[아이행복]","tel":"031-8003-3822","addr":"경기도 화성시 반송동 68-12번지","indutype":"학원 - 유아원","category":"study"},{"name":"푸르니어린이집[아이행복]","tel":"031-8003-0131","addr":"경기도 화성시 반송동 68-12번지","indutype":"학원 - 유아원","category":"study"}]},{"lat":"37.205159724","long":"127.07255391","imageIndex":16,"items":[{"name":"섬머솔트","tel":"031-8015-3911","addr":"경기도 화성시 반송동 91-9번지 금정프라자 2층 203호","indutype":"학원 - 예·체능계학원","category":"study"},{"name":"참조은고시텔","tel":"031-8003-3213","addr":"경기도 화성시 반송동 91-9번지 5층 501호, 502호, 503호","indutype":"학원 - 독서실","category":"study"},{"name":"플레이어스 실용음악학원","tel":"031-8003-1716","addr":"경기도 화성시 반송동 91-9번지 금정프라자 803호","indutype":"학원 - 예·체능계학원","category":"study"}]},{"lat":"37.200997683","long":"127.07125472","imageIndex":16,"items":[{"name":"성지학원","tel":"031-613-1150","addr":"경기도 화성시 반송동 104-1번지 8층 일부","indutype":"학원 - 보습학원","category":"study"},{"name":"스터디플래닛동탄센터독서실","tel":"031-831-5519","addr":"경기도 화성시 반송동 104-1번지 9층","indutype":"학원 - 독서실","category":"study"},{"name":"와이키즈동탄학원","tel":"031-8003-0017","addr":"경기도 화성시 반송동 104-1번지 에이치원메디칼빌딩 9층","indutype":"학원 - 보습학원","category":"study"}]},{"lat":"37.196632884","long":"127.07750196","imageIndex":16,"items":[{"name":"세종발레아카데미 주식회사","tel":"031-8015-2944","addr":"경기도 화성시 반송동 130-1번지 3층","indutype":"학원 - 예·체능계학원","category":"study"}]},{"lat":"37.208219531","long":"127.06289125","imageIndex":16,"items":[{"name":"센트럴검도관","tel":"031-8003-5656","addr":"경기도 화성시 반송동 43-6번지 골드프라자 503호","indutype":"회원제형태 - 학원","category":"study"},{"name":"케이앤스포츠아카데미(KN Sports Academy)","tel":"031-8015-1517","addr":"경기도 화성시 반송동 43-6번지 골드프라자 6층 601호","indutype":"학원 - 기타 교육기관","category":"study"}]},{"lat":"37.209271518","long":"127.06713909","imageIndex":16,"items":[{"name":"소미아트센터","tel":"031-000-0000","addr":"경기도 화성시 반송동 18-5번지 1층 101,102호","indutype":"학원 - 예·체능계학원","category":"study"},{"name":"심선생피아노교실","tel":"031-613-1029","addr":"경기도 화성시 반송동 18-5번지 201호","indutype":"학원 - 예·체능계학원","category":"study"}]},{"lat":"37.193439068","long":"127.06931068","imageIndex":16,"items":[{"name":"솔빛리듬음악학원","tel":"031-613-0993","addr":"경기도 화성시 반송동 159번지 상가동 2층 204,205호","indutype":"학원 - 예·체능계학원","category":"study"}]},{"lat":"37.200793176","long":"127.06634342","imageIndex":16,"items":[{"name":"솔빛몬테소리어린이집[아이행복]","tel":"031-8050-8316","addr":"경기도 화성시 반송동 79번지 동탄시범다은마을우남퍼스트빌 355동 102호","indutype":"학원 - 유아원","category":"study"}]},{"lat":"37.19454629","long":"127.07117006","imageIndex":16,"items":[{"name":"솔빛사임당어린이집[아이행복]","tel":"031-613-1543","addr":"경기도 화성시 반송동 135번지 동탄솔빛마을쌍용예가 449동 103호","indutype":"학원 - 유아원","category":"study"}]},{"lat":"37.196249699","long":"127.07039442","imageIndex":16,"items":[{"name":"솔빛유치원[아이행복]","tel":"031-610-7800","addr":"경기도 화성시 반송동 139-3번지","indutype":"학원 - 유치원","category":"study"}]},{"lat":"37.195915175","long":"127.0723652","imageIndex":16,"items":[{"name":"솔빛중학교","tel":"031-613-1862","addr":"경기도 화성시 반송동 136번지 솔빛중학교","indutype":"학원 - 초중고교육기관","category":"study"}]},{"lat":"37.202688757","long":"127.05964276","imageIndex":16,"items":[{"name":"송원특수체육아동발달센터","tel":"031-8003-1161","addr":"경기도 화성시 반송동 61-4번지 다경프라자 302호","indutype":"학원 - 예·체능계학원","category":"study"}]},{"lat":"37.20938861","long":"127.06721805","imageIndex":16,"items":[{"name":"수학영재로창의수학교습소","tel":"","addr":"경기도 화성시 반송동 18-4번지 1층 일부호","indutype":"학원 - 보습학원","category":"study"}]},{"lat":"37.205826293","long":"127.07289246","imageIndex":16,"items":[{"name":"쉐르빌고시텔","tel":"031-8003-0300","addr":"경기도 화성시 반송동 88-11번지 씨티플러스 701동 703호","indutype":"학원 - 독서실","category":"study"}]},{"lat":"37.197886039","long":"127.07636557","imageIndex":16,"items":[{"name":"스몰트영재교육학원","tel":"031-8015-2079","addr":"경기도 화성시 반송동 115-10번지","indutype":"학원 - 기타 교육기관","category":"study"}]},{"lat":"37.210496671","long":"127.06761328","imageIndex":16,"items":[{"name":"슬기어린이집[아이행복]","tel":"031-8003-1428","addr":"경기도 화성시 반송동 13-9번지 1층","indutype":"학원 - 유아원","category":"study"}]},{"lat":"37.199993829","long":"127.07739263","imageIndex":16,"items":[{"name":"시립반송어린이집[아이행복]","tel":"031-8015-5290","addr":"경기도 화성시 반송동 108번지 동탄복합문화센터 1층","indutype":"학원 - 유아원","category":"study"}]},{"lat":"37.195087224","long":"127.07062991","imageIndex":16,"items":[{"name":"쌍용지혜샘어린이집[아이행복]","tel":"031-613-4009","addr":"경기도 화성시 반송동 135번지 동탄솔빛마을쌍용예가 450동 102호","indutype":"학원 - 유아원","category":"study"}]},{"lat":"37.207071375","long":"127.07004358","imageIndex":16,"items":[{"name":"아기까꿍어린이집[아이행복]","tel":"031-613-5117","addr":"경기도 화성시 반송동 시범한빛마을 동탄현대아이파크225-104","indutype":"학원 - 유아원","category":"study"}]},{"lat":"37.210497749","long":"127.06560803","imageIndex":16,"items":[{"name":"아기햇살어린이집[아이행복]","tel":"031-8003-8349","addr":"경기도 화성시 반송동 10-4번지","indutype":"학원 - 유아원","category":"study"}]},{"lat":"37.207260917","long":"127.06946923","imageIndex":16,"items":[{"name":"아이토마토어린이집[아이행복]","tel":"031-613-3047","addr":"경기도 화성시 반송동 85번지 동탄시범한빛마을동탄아이파크 226동 101호","indutype":"학원 - 유아원","category":"study"}]},{"lat":"37.202886627","long":"127.06038635","imageIndex":16,"items":[{"name":"아트빌에코비 어린이집[아이행복]","tel":"031-8015-2332","addr":"경기도 화성시 반송동 65-4번지 1층","indutype":"학원 - 유아원","category":"study"}]},{"lat":"37.205499213","long":"127.06125571","imageIndex":16,"items":[{"name":"애플매쓰PBL학원","tel":"031-613-9766","addr":"경기도 화성시 반송동 58-2번지","indutype":"학원 - 보습학원","category":"study"}]},{"lat":"37.205274081","long":"127.06099645","imageIndex":16,"items":[{"name":"애플매쓰에스디엘학원","tel":"031-613-9766","addr":"경기도 화성시 반송동 58-7번지","indutype":"회원제형태 - 학원","category":"study"}]},{"lat":"37.207605899","long":"127.06469317","imageIndex":16,"items":[{"name":"앤스잉글리쉬","tel":"070-7782-5493","addr":"경기도 화성시 반송동 42-5번지 하나로오피스텔 402호","indutype":"학원 - 외국어학원","category":"study"}]},{"lat":"37.201539829","long":"127.06856308","imageIndex":16,"items":[{"name":"앨리스어린이집[아이행복]","tel":"031-613-4185","addr":"경기도 화성시 반송동 100번지 시범다은마을삼성래미안 307동 102호","indutype":"학원 - 유아원","category":"study"}]},{"lat":"37.203127665","long":"127.06483595","imageIndex":16,"items":[{"name":"앵두어린이집[아이행복]","tel":"031-8050-5666","addr":"경기도 화성시 반송동 80번지 시범다은마을월드메르디앙반도유보라 344동 101호","indutype":"학원 - 유아원","category":"study"}]},{"lat":"37.198858386","long":"127.07760553","imageIndex":16,"items":[{"name":"어울림 꿈의 공작소","tel":"","addr":"경기도 화성시 반송동 112-8번지 302호","indutype":"학원 - 기타 교육기관","category":"study"}]},{"lat":"37.204685316","long":"127.06698876","imageIndex":16,"items":[{"name":"어울림영유아놀이스쿨어린이집[아이행복]","tel":"031-8050-1164","addr":"경기도 화성시 반송동 한빛시범마을 금호어울림241-103","indutype":"학원 - 유아원","category":"study"}]},{"lat":"37.202799584","long":"127.07156048","imageIndex":16,"items":[{"name":"엘이교육","tel":"","addr":"경기도 화성시 반송동 93-10번지 동탄제일에스테이트 A동 14층 1412호","indutype":"학원 - 기타 교육기관","category":"study"},{"name":"이종민영어교습소","tel":"031-8015-8069","addr":"경기도 화성시 반송동 93-10번지 동탄지웰에스테이트 124호","indutype":"학원 - 외국어학원","category":"study"},{"name":"풀카운트","tel":"031-8015-0556","addr":"경기도 화성시 반송동 93-10번지 동탄지웰에스테이트 상가 203,204호","indutype":"학원 - 예·체능계학원","category":"study"},{"name":"하늘","tel":"031-8003-5477","addr":"경기도 화성시 반송동 93-10번지 동탄 지웰에스테이트 2층 206호,207호","indutype":"학원 - 예·체능계학원","category":"study"}]},{"lat":"37.207857591","long":"127.06583114","imageIndex":16,"items":[{"name":"엠솔수학","tel":"031-8003-1884","addr":"경기도 화성시 반송동 26-7번지 2층","indutype":"회원제형태 - 학원","category":"study"}]},{"lat":"37.207443553","long":"127.06499719","imageIndex":16,"items":[{"name":"연필소리화실","tel":"070-8875-2310","addr":"경기도 화성시 반송동 42-6번지 센트럴프라자 502호","indutype":"학원 - 예·체능계학원","category":"study"},{"name":"제센제시영어학원","tel":"031-8015-8068","addr":"경기도 화성시 반송동 42-6번지 센트럴프라자 503호","indutype":"학원 - 보습학원","category":"study"},{"name":"캠브리지영어학원","tel":"031-613-0405","addr":"경기도 화성시 반송동 42-6번지 센트럴프라자 501호","indutype":"학원 - 외국어학원","category":"study"}]},{"lat":"37.201078048","long":"127.0725051","imageIndex":16,"items":[{"name":"오아시스뷰티학원","tel":"031-211-2027","addr":"경기도 화성시 반송동 104-6번지 프라임빌딩 602호","indutype":"학원 - 기능학원","category":"study"}]},{"lat":"37.188221856","long":"127.06964397","imageIndex":16,"items":[{"name":"오즈의마법사유치원[아이행복]","tel":"031-8003-5713","addr":"경기도 화성시 반송동 175-1","indutype":"학원 - 유치원","category":"study"}]},{"lat":"37.202136581","long":"127.0647225","imageIndex":16,"items":[{"name":"오직큐진로교육협동조합","tel":"031-8050-5968","addr":"경기도 화성시 반송동 80번지 동탄시범다은마을월드메르디앙반도유보라 341동 1701호","indutype":"학원 - 기타 교육기관","category":"study"}]},{"lat":"37.206634973","long":"127.06033287","imageIndex":16,"items":[{"name":"원스터디 수학 공부방","tel":"","addr":"경기도 화성시 반송동 51-6번지 201호","indutype":"학원 - 기타 교육기관","category":"study"}]},{"lat":"37.200969418","long":"127.07336107","imageIndex":16,"items":[{"name":"이앤피 에듀(ENP EDU)","tel":"","addr":"경기도 화성시 반송동 106-3번지 돌모루프라자 6층 611호","indutype":"학원 - 외국어학원","category":"study"}]},{"lat":"37.198157651","long":"127.07423701","imageIndex":16,"items":[{"name":"이에스티(EST)","tel":"031-613-9305","addr":"경기도 화성시 반송동 132번지 솔빛마을경남아너스빌아파트 407동 404호","indutype":"학원 - 기타 교육기관","category":"study"}]},{"lat":"37.210388318","long":"127.06803001","imageIndex":16,"items":[{"name":"이엔에듀학원","tel":"031-613-8020","addr":"경기도 화성시 반송동 14-2번지 101호,102호","indutype":"학원 - 보습학원","category":"study"}]},{"lat":"37.209604767","long":"127.06738721","imageIndex":16,"items":[{"name":"이엠비학원","tel":"031-8015-3357","addr":"경기도 화성시 반송동 18-2번지 102동 103호","indutype":"회원제형태 - 학원","category":"study"}]},{"lat":"37.196389269","long":"127.0780311","imageIndex":16,"items":[{"name":"이음","tel":"","addr":"경기도 화성시 반송동 129-2번지 1층","indutype":"학원 - 기능학원","category":"study"}]},{"lat":"37.194723154","long":"127.07674546","imageIndex":16,"items":[{"name":"자연어린이집[아이행복]","tel":"031-613-7964","addr":"경기도 화성시 반송동 222번지 동탄나루마을한화꿈에그린우림필유 관리동","indutype":"학원 - 유아원","category":"study"}]},{"lat":"37.203559146","long":"127.06675126","imageIndex":16,"items":[{"name":"자운생활건강","tel":"","addr":"경기도 화성시 반송동 80번지 동탄시범다은마을월드메르디앙반도유보라 348동 2302호","indutype":"학원 - 기타 교육기관","category":"study"}]},{"lat":"37.204927563","long":"127.06887016","imageIndex":16,"items":[{"name":"정해준","tel":"","addr":"경기도 화성시 반송동 96번지 메타폴리스 A동 6202호","indutype":"학원 - 기타 교육기관","category":"study"}]},{"lat":"37.204465813","long":"127.07274477","imageIndex":16,"items":[{"name":"주식회사 동탄메타에듀","tel":"031-613-4600","addr":"경기도 화성시 반송동 93-2번지 동탄SRGOLDPLAZA 501호","indutype":"학원 - 외국어학원","category":"study"}]},{"lat":"37.201940113","long":"127.06125297","imageIndex":16,"items":[{"name":"지이케이(ZEK)","tel":"","addr":"경기도 화성시 반송동 68-10번지 202호","indutype":"학원 - 기타 교육기관","category":"study"}]},{"lat":"37.208020663","long":"127.06414152","imageIndex":16,"items":[{"name":"참조은원룸텔","tel":"031-8015-3882","addr":"경기도 화성시 반송동 42-3번지 하나로프라자 6층","indutype":"학원 - 독서실","category":"study"}]},{"lat":"37.195496694","long":"127.07888622","imageIndex":16,"items":[{"name":"처음식생활교육센터","tel":"","addr":"경기도 화성시 반송동 131-13번지","indutype":"학원 - 기타 교육기관","category":"study"}]},{"lat":"37.208423646","long":"127.06877182","imageIndex":16,"items":[{"name":"케이씨씨 (KCC)푸른숲어린이집[아이행복]","tel":"031-613-3004","addr":"경기도 화성시 반송동 19번지 동탄시범한빛마을케이씨씨스위첸 216동 103호","indutype":"학원 - 유아원","category":"study"}]},{"lat":"37.199997132","long":"127.07194091","imageIndex":16,"items":[{"name":"토토리빙텔","tel":"031-613-1322","addr":"경기도 화성시 반송동 107-2번지 워터밸리 404호","indutype":"학원 - 독서실","category":"study"}]},{"lat":"37.202271275","long":"127.06560122","imageIndex":16,"items":[{"name":"토토어린이집[아이행복]","tel":"031-8004-1433","addr":"경기도 화성시 반송동 80번지 다은마을월드메르디앙반도유보라 335동 104호","indutype":"학원 - 유아원","category":"study"}]},{"lat":"37.201471495","long":"127.06141031","imageIndex":16,"items":[{"name":"튼튼어린이체육교실","tel":"","addr":"경기도 화성시 반송동 74번지 우림필유타운하우스 103동 201호","indutype":"학원 - 기타 교육기관","category":"study"}]},{"lat":"37.208966938","long":"127.06378179","imageIndex":16,"items":[{"name":"티파니영어교습소","tel":"031-8003-3757","addr":"경기도 화성시 반송동 34-9번지 102호","indutype":"학원 - 외국어학원","category":"study"}]},{"lat":"37.202742186","long":"127.06094945","imageIndex":16,"items":[{"name":"폴리어린이집[아이행복]","tel":"031-8003-1966","addr":"경기도 화성시 반송동 64-11번지 1층","indutype":"학원 - 유아원","category":"study"}]},{"lat":"37.206528323","long":"127.07419983","imageIndex":16,"items":[{"name":"푸른날개학원","tel":"031-613-4820","addr":"경기도 화성시 반송동 87-4번지 지성프라자 701호","indutype":"학원 - 보습학원","category":"study"}]},{"lat":"37.210271773","long":"127.06694843","imageIndex":16,"items":[{"name":"푸른하늘어린이집[아이행복]","tel":"031-8003-6288","addr":"경기도 화성시 반송동 15-12번지 1층","indutype":"학원 - 유아원","category":"study"}]},{"lat":"37.191473425","long":"127.07171916","imageIndex":16,"items":[{"name":"품으로어린이집[아이행복]","tel":"031-8050-1257","addr":"경기도 화성시 반송동 200번지 동탄나루마을한화꿈에그린아파트 626동 101호","indutype":"학원 - 유아원","category":"study"}]},{"lat":"37.20646595","long":"127.07302823","imageIndex":16,"items":[{"name":"하나비댄스학원","tel":"070-5020-5323","addr":"경기도 화성시 반송동 88-2번지 펄프라자 505호~506호","indutype":"학원 - 예·체능계학원","category":"study"}]},{"lat":"37.200810336","long":"127.06793166","imageIndex":16,"items":[{"name":"하늘꿈어린이집[아이행복]","tel":"031-613-2959","addr":"경기도 화성시 반송동 100번지 동탄시범다은마을삼성래미안 312동 101호","indutype":"학원 - 유아원","category":"study"}]},{"lat":"37.206357692","long":"127.07325343","imageIndex":16,"items":[{"name":"하이빌 고시텔","tel":"031-8015-1400","addr":"경기도 화성시 반송동 88-3번지 중앙프라자 9층","indutype":"학원 - 독서실","category":"study"}]},{"lat":"37.198723123","long":"127.07777435","imageIndex":16,"items":[{"name":"하하하어린이집[아이행복]","tel":"031-813-8874","addr":"경기도 화성시 반송동 112-4번지","indutype":"학원 - 유아원","category":"study"}]},{"lat":"37.205109438","long":"127.06580633","imageIndex":16,"items":[{"name":"학동초등학교[아이행복]","tel":"031-613-0410","addr":"경기도 화성시 반송동 81번지","indutype":"학원 - 유치원","category":"study"}]},{"lat":"37.196470944","long":"127.07710759","imageIndex":16,"items":[{"name":"한국 치매예방연합회 경기남부지역본부","tel":"031-8003-9078","addr":"경기도 화성시 반송동 130-4번지 세교프라자 4층 2호","indutype":"학원 - 기타 교육기관","category":"study"}]},{"lat":"37.206280637","long":"127.06608893","imageIndex":16,"items":[{"name":"한글공부방","tel":"070-7612-3124","addr":"경기도 화성시 반송동 82 한빛마을금호어울림 245-103 5/5","indutype":"회원제형태 - 학원","category":"study"}]},{"lat":"37.200164051","long":"127.06327911","imageIndex":16,"items":[{"name":"한솔플러스다은수학교습소","tel":"031-8055-8588","addr":"경기도 화성시 반송동 75번지 동탄시범다은마을풍성신미주 105호","indutype":"학원 - 보습학원","category":"study"}]},{"lat":"37.199459615","long":"127.06638736","imageIndex":16,"items":[{"name":"해법수학다은금곡점","tel":"031-8050-7787","addr":"경기도 화성시 반송동 79번지 동탄시범다은마을우남퍼스트빌 351동 102호","indutype":"학원 - 기타 교육기관","category":"study"}]},{"lat":"37.20365885","long":"127.06564743","imageIndex":16,"items":[{"name":"해법수학시범월드","tel":"031-8058-9383","addr":"경기도 화성시 반송동 80번지 다은마을월드메르디앙반도유보라 346동 601호","indutype":"회원제형태 - 학원","category":"study"}]},{"lat":"37.201024538","long":"127.07155887","imageIndex":16,"items":[{"name":"해피 댄스스포츠","tel":"031-8003-1105","addr":"경기도 화성시 반송동 104-2번지 한솔프라자 802호","indutype":"학원 - 예·체능계학원","category":"study"}]},{"lat":"37.206557009","long":"127.07139491","imageIndex":16,"items":[{"name":"해피키즈어린이집[아이행복]","tel":"070-4671-5632","addr":"경기도 화성시 반송동 85번지 현대아이파크 223동 101호","indutype":"학원 - 유아원","category":"study"}]},{"lat":"37.202388345","long":"127.06572522","imageIndex":16,"items":[{"name":"행복한리더로어린이집[아이행복]","tel":"031-8003-3365","addr":"경기도 화성시 반송동 80 시범다은마을월드메르디앙반도유보라관리동1층","indutype":"학원 - 유아원","category":"study"}]},{"lat":"37.202874971","long":"127.06560172","imageIndex":16,"items":[{"name":"행복한어린이집[아이행복]","tel":"","addr":"경기도 화성시 반송동 80번지 다은마을월드메르디앙반도유보라 334동 106호","indutype":"학원 - 유아원","category":"study"}]},{"lat":"37.18675272","long":"127.07041975","imageIndex":16,"items":[{"name":"행진 진로교육협동조합","tel":"031-000-0000","addr":"경기도 화성시 반송동 177-15번지 1호","indutype":"학원 - 기타 교육기관","category":"study"}]},{"lat":"37.208605302","long":"127.06611339","imageIndex":16,"items":[{"name":"홍익아트플레이학원","tel":"031-613-3263","addr":"경기도 화성시 반송동 24-8번지 1층","indutype":"학원 - 예·체능계학원","category":"study"}]},{"lat":"37.203939263","long":"127.06355247","imageIndex":16,"items":[{"name":"화성시동탄청소년문화의집","tel":"031-350-4395","addr":"경기도 화성시 반송동 59번지","indutype":"학원 - 기타 교육기관","category":"study"}]},{"lat":"37.192827857","long":"127.06658454","imageIndex":16,"items":[{"name":"환희유치원[아이행복]","tel":"031-8003-9596","addr":"경기도 화성시 반송동 152번지","indutype":"학원 - 유치원","category":"study"}]}]