[{"lat":"37.156860718","long":"126.69764675","imageIndex":7,"items":[{"name":"궁평바다낚시터","tel":"031-357-8277","addr":"경기도 화성시 서신면 매화리 831-9번지","indutype":"음료식품 - 기타음료식품","category":"food"}]},{"lat":"37.166964261","long":"126.70948431","imageIndex":7,"items":[{"name":"늘봄양봉원","tel":"031-357-8855","addr":"경기도 화성시 서신면 매화리 272번지","indutype":"음료식품 - 농·축·수산품","category":"food"}]},{"lat":"37.168883213","long":"126.70576135","imageIndex":7,"items":[{"name":"매화떡방아간","tel":"031-357-0115","addr":"경기도 화성시 서신면 매화리 341-1","indutype":"음료식품 - 제과점","category":"food"}]},{"lat":"37.167129571","long":"126.6999811","imageIndex":7,"items":[{"name":"일월수산","tel":"031-355-7338","addr":"경기도 화성시 서신면 매화리 753-6번지 어대수산 A동 1호","indutype":"음료식품 - 농·축·수산품","category":"food"}]},{"lat":"37.167997742","long":"126.70478527","imageIndex":7,"items":[{"name":"장성미곡상회","tel":"061-393-2310","addr":"경기도 화성시 서신면 매화리 322-19번지","indutype":"음료식품 - 미곡상","category":"food"}]},{"lat":"37.167832048","long":"126.70698144","imageIndex":7,"items":[{"name":"장수건강원","tel":"031-000-0000","addr":"경기도 화성시 서신면 매화리 304-4번지","indutype":"건강식품 - 기타건강식품","category":"food"}]},{"lat":"37.16818463","long":"126.70745295","imageIndex":7,"items":[{"name":"정희건강원","tel":"031-239-3826","addr":"경기도 화성시 서신면 매화리 330-2번지","indutype":"건강식품 - 기타건강식품","category":"food"}]},{"lat":"37.16768968","long":"126.70770258","imageIndex":7,"items":[{"name":"주식회사 알마스캐비아","tel":"02-3471-5211","addr":"경기도 화성시 서신면 매화리 301-1번지 2층","indutype":"음료식품 - 기타음료식품","category":"food"}]},{"lat":"37.167775749","long":"126.69897646","imageIndex":7,"items":[{"name":"처갓집농수산물","tel":"","addr":"경기도 화성시 서신면 매화리 759-104번지","indutype":"음료식품 - 농·축·수산품","category":"food"}]},{"lat":"37.168464748","long":"126.70417544","imageIndex":7,"items":[{"name":"통큰축산","tel":"031-357-3526","addr":"경기도 화성시 서신면 매화리 383번지","indutype":"음료식품 - 정육점","category":"food"}]},{"lat":"37.167406959","long":"126.70634133","imageIndex":7,"items":[{"name":"풍년떡방아간","tel":"031-356-0592","addr":"경기도 화성시 서신면 매화리 308번지","indutype":"음료식품 - 제과점","category":"food"}]},{"lat":"37.162744316","long":"126.6975668","imageIndex":7,"items":[{"name":"형제상회","tel":"031-413-1052","addr":"경기도 화성시 서신면 매화리 789-3번지","indutype":"음료식품 - 미곡상","category":"food"}]}]