[{"lat":"37.69579299","long":"126.70407956","imageIndex":7,"items":[{"name":"(주)밀리언스","tel":"031-971-0803","addr":"경기도 고양시 일산서구 구산동 351번지","indutype":"음료식품 - 기타음료식품","category":"food"},{"name":"피슈F&C","tel":"031-915-3352","addr":"경기도 고양시 일산서구 구산동 351번지","indutype":"음료식품 - 기타음료식품","category":"food"}]},{"lat":"37.691932222","long":"126.70224698","imageIndex":7,"items":[{"name":"(주)불새컴퍼니","tel":"031-921-0183","addr":"경기도 고양시 일산서구 구산동 450-3번지","indutype":"음료식품 - 농·축·수산품","category":"food"}]},{"lat":"37.693044428","long":"126.70382982","imageIndex":7,"items":[{"name":"(주)페루인터내셔날트레이딩","tel":"031-905-4411","addr":"경기도 고양시 일산서구 구산동 380-15번지","indutype":"음료식품 - 기타음료식품","category":"food"}]},{"lat":"37.677819203","long":"126.68694408","imageIndex":7,"items":[{"name":"153팜","tel":"","addr":"경기도 고양시 일산서구 구산동 1739번지","indutype":"음료식품 - 농·축·수산품","category":"food"}]},{"lat":"37.695682113","long":"126.70299152","imageIndex":7,"items":[{"name":"KOOPJA","tel":"070-7561-4504","addr":"경기도 고양시 일산서구 구산동 336번지","indutype":"음료식품 - 기타음료식품","category":"food"}]},{"lat":"37.69709315","long":"126.70876854","imageIndex":7,"items":[{"name":"고기 Dream","tel":"","addr":"경기도 고양시 일산서구 구산동 277-3번지","indutype":"음료식품 - 정육점","category":"food"},{"name":"주식회사화승물류","tel":"031-901-1877","addr":"경기도 고양시 일산서구 구산동 277-3번지","indutype":"음료식품 - 기타음료식품","category":"food"}]},{"lat":"37.690065738","long":"126.71243565","imageIndex":7,"items":[{"name":"광동제약(주)","tel":"031-923-8687","addr":"경기도 고양시 일산서구 구산동 26-4번지","indutype":"음료식품 - 기타음료식품","category":"food"}]},{"lat":"37.695044082","long":"126.71082887","imageIndex":7,"items":[{"name":"구산 떡 방앗간","tel":"031-923-7750","addr":"경기도 고양시 일산서구 구산동","indutype":"음료식품 - 제과점","category":"food"}]},{"lat":"37.677595002","long":"126.70110326","imageIndex":7,"items":[{"name":"노루뫼농장","tel":"070-7787-0571","addr":"경기도 고양시 일산서구 구산동","indutype":"음료식품 - 농·축·수산품","category":"food"}]},{"lat":"37.684213014","long":"126.70660875","imageIndex":7,"items":[{"name":"농업회사법인 덕강 주식회사","tel":"031-923-2888","addr":"경기도 고양시 일산서구 구산동 1118번지","indutype":"음료식품 - 농·축·수산품","category":"food"}]},{"lat":"37.681817135","long":"126.68944378","imageIndex":7,"items":[{"name":"농업회사법인 벼리 주식회사","tel":"","addr":"경기도 고양시 일산서구 구산동 1654번지","indutype":"음료식품 - 농·축·수산품","category":"food"}]},{"lat":"37.687732255","long":"126.70166307","imageIndex":7,"items":[{"name":"농업회사법인 황금귀뚤이 주식회사","tel":"","addr":"경기도 고양시 일산서구 구산동 904번지","indutype":"음료식품 - 농·축·수산품","category":"food"},{"name":"황금귀뚜라미농장","tel":"","addr":"경기도 고양시 일산서구 구산동 904번지","indutype":"음료식품 - 농·축·수산품","category":"food"}]},{"lat":"37.696292095","long":"126.70549487","imageIndex":7,"items":[{"name":"두레수산","tel":"031-921-4825","addr":"경기도 고양시 일산서구 구산동 296-1번지","indutype":"음료식품 - 농·축·수산품","category":"food"}]},{"lat":"37.682297076","long":"126.70426974","imageIndex":7,"items":[{"name":"마음푸드","tel":"031-923-5806","addr":"경기도 고양시 일산서구 구산동 1161번지","indutype":"음료식품 - 기타음료식품","category":"food"}]},{"lat":"37.697766115","long":"126.70766602","imageIndex":7,"items":[{"name":"무지개수산","tel":"031-912-8779","addr":"경기도 고양시 일산서구 구산동 284-5번지","indutype":"음료식품 - 농·축·수산품","category":"food"}]},{"lat":"37.678237942","long":"126.69538744","imageIndex":7,"items":[{"name":"박필농원","tel":"070-4922-1261","addr":"경기도 고양시 일산서구 구산동","indutype":"음료식품 - 농·축·수산품","category":"food"}]},{"lat":"37.684351663","long":"126.6804658","imageIndex":7,"items":[{"name":"버섯사랑영농조합법인","tel":"031-914-0988","addr":"경기도 고양시 일산서구 구산동 1463번지","indutype":"음료식품 - 농·축·수산품","category":"food"}]},{"lat":"37.681483781","long":"126.70688034","imageIndex":7,"items":[{"name":"성연딸기","tel":"02-0000-0000","addr":"경기도 고양시 일산서구 구산동 1177번지","indutype":"음료식품 - 농·축·수산품","category":"food"}]},{"lat":"37.656630812","long":"126.83220302","imageIndex":7,"items":[{"name":"세모스쿠알렌고양","tel":"031-64-3535","addr":"경기도 고양시 일산서구 구산동","indutype":"건강식품 - 기타건강식품","category":"food"}]},{"lat":"37.68668069","long":"126.6821336","imageIndex":7,"items":[{"name":"송포농산","tel":"031-923-2901","addr":"경기도 고양시 일산서구 구산동 1421번지","indutype":"음료식품 - 제과점","category":"food"}]},{"lat":"37.694434562","long":"126.70487869","imageIndex":7,"items":[{"name":"신성푸드","tel":"","addr":"경기도 고양시 일산서구 구산동 364-3번지","indutype":"음료식품 - 기타음료식품","category":"food"}]},{"lat":"37.685291066","long":"126.68466769","imageIndex":7,"items":[{"name":"에스비상사","tel":"070-8244-1033","addr":"경기도 고양시 일산서구 구산동 1487번지","indutype":"음료식품 - 농·축·수산품","category":"food"}]},{"lat":"37.697151212","long":"126.71037839","imageIndex":7,"items":[{"name":"와우컴퍼니","tel":"070-8628-3441","addr":"경기도 고양시 일산서구 구산동 255-4번지","indutype":"음료식품 - 기타음료식품","category":"food"}]},{"lat":"37.68670952","long":"126.692915","imageIndex":7,"items":[{"name":"우성상회","tel":"031-911-2687","addr":"경기도 고양시 일산서구 구산동 736-2번지","indutype":"음료식품 - 기타음료식품","category":"food"}]},{"lat":"37.682795493","long":"126.70541272","imageIndex":7,"items":[{"name":"장갑순백설기와인절미","tel":"031-923-0455","addr":"경기도 고양시 일산서구 구산동 1139-3번지","indutype":"음료식품 - 제과점","category":"food"}]},{"lat":"37.682277463","long":"126.68975926","imageIndex":7,"items":[{"name":"제이아이수산","tel":"031-979-9909","addr":"경기도 고양시 일산서구 구산동 1652번지","indutype":"음료식품 - 농·축·수산품","category":"food"}]},{"lat":"37.692485563","long":"126.70019259","imageIndex":7,"items":[{"name":"제이크라상","tel":"031-915-3410","addr":"경기도 고양시 일산서구 구산동 427번지","indutype":"음료식품 - 제과점","category":"food"}]},{"lat":"37.698260787","long":"126.71094097","imageIndex":7,"items":[{"name":"주식회사 베어컨테이너","tel":"031-911-9503","addr":"경기도 고양시 일산서구 구산동 260-22번지","indutype":"음료식품 - 농·축·수산품","category":"food"}]},{"lat":"37.692349141","long":"126.70322036","imageIndex":7,"items":[{"name":"주식회사 위드베이비","tel":"031-904-0034","addr":"경기도 고양시 일산서구 구산동 917-1번지","indutype":"음료식품 - 기타음료식품","category":"food"}]},{"lat":"37.692044009","long":"126.70016037","imageIndex":7,"items":[{"name":"지원트레이딩","tel":"","addr":"경기도 고양시 일산서구 구산동 444번지","indutype":"음료식품 - 기타음료식품","category":"food"}]},{"lat":"37.698819292","long":"126.71090477","imageIndex":7,"items":[{"name":"카야코리아","tel":"","addr":"경기도 고양시 일산서구 구산동 260-8번지","indutype":"음료식품 - 기타음료식품","category":"food"}]},{"lat":"37.685212335","long":"126.70275026","imageIndex":7,"items":[{"name":"해달별 고양가와지 볍씨 체험교육농장","tel":"031-911-7094","addr":"경기도 고양시 일산서구 구산동","indutype":"음료식품 - 농·축·수산품","category":"food"}]},{"lat":"37.681878118","long":"126.70249162","imageIndex":7,"items":[{"name":"혜아BNF","tel":"031-921-3245","addr":"경기도 고양시 일산서구 구산동 1167-1번지","indutype":"음료식품 - 기타음료식품","category":"food"}]},{"lat":"37.678295344","long":"126.69322207","imageIndex":7,"items":[{"name":"홍순화(노승대)표고버섯농장","tel":"031-925-6084","addr":"경기도 고양시 일산서구 구산동 1798번지","indutype":"음료식품 - 농·축·수산품","category":"food"}]}]