[{"lat":"37.42691371","long":"127.3086113","imageIndex":7,"items":[{"name":"경희토마토농장","tel":"","addr":"경기도 광주시 초월읍 무갑리 712번지","indutype":"음료식품 - 농·축·수산품","category":"food"}]},{"lat":"37.41944751","long":"127.3108855","imageIndex":7,"items":[{"name":"도강골휴게소","tel":"031-762-8024","addr":"경기도 광주시 초월읍 무갑리 538-1번지","indutype":"음료식품 - 기타음료식품","category":"food"}]},{"lat":"37.42461551","long":"127.3053596","imageIndex":7,"items":[{"name":"떠끼뽀끼","tel":"031-767-4516","addr":"경기도 광주시 초월읍 무갑리 680번지","indutype":"음료식품 - 기타음료식품","category":"food"}]},{"lat":"37.42106235","long":"127.3236688","imageIndex":7,"items":[{"name":"무갑리새마을회","tel":"031-111-1111","addr":"경기도 광주시 초월읍 무갑리 309","indutype":"음료식품 - 기타음료식품","category":"food"}]},{"lat":"37.42497388","long":"127.3096428","imageIndex":7,"items":[{"name":"문준식 토마토농장","tel":"031-762-2430","addr":"경기도 광주시 초월읍 무갑리 719-3번지","indutype":"음료식품 - 농·축·수산품","category":"food"}]},{"lat":"37.42686506","long":"127.3100007","imageIndex":7,"items":[{"name":"부자농장","tel":"031-762-2384","addr":"경기도 광주시 초월읍 무갑리 626-1","indutype":"음료식품 - 농·축·수산품","category":"food"}]},{"lat":"37.42575619","long":"127.3102448","imageIndex":7,"items":[{"name":"사거리휴게소","tel":"031-763-7665","addr":"경기도 광주시 초월읍 무갑리 625-3번지","indutype":"음료식품 - 기타음료식품","category":"food"}]},{"lat":"37.42561697","long":"127.3048326","imageIndex":7,"items":[{"name":"서경유통","tel":"031-761-7967","addr":"경기도 광주시 초월읍 무갑리 678-1번지","indutype":"음료식품 - 기타음료식품","category":"food"}]},{"lat":"37.42016558","long":"127.3187509","imageIndex":7,"items":[{"name":"아기랑","tel":"031-528-6263","addr":"경기도 광주시 초월읍 무갑리 473번지","indutype":"음료식품 - 기타음료식품","category":"food"}]},{"lat":"37.42747762","long":"127.3065574","imageIndex":7,"items":[{"name":"아영농장","tel":"070-7778-2052","addr":"경기도 광주시 초월읍 무갑리 700","indutype":"음료식품 - 농·축·수산품","category":"food"}]},{"lat":"37.41752846","long":"127.3405531","imageIndex":7,"items":[{"name":"엘림버섯농장","tel":"","addr":"경기도 광주시 초월읍 무갑리 29-1번지","indutype":"음료식품 - 농·축·수산품","category":"food"}]},{"lat":"37.42575246","long":"127.3046976","imageIndex":7,"items":[{"name":"해송","tel":"031-767-0308","addr":"경기도 광주시 초월읍 무갑리 678번지","indutype":"음료식품 - 기타음료식품","category":"food"}]}]