[{"lat":"37.812786732","long":"127.15203601","imageIndex":17,"items":[{"name":"(주)온수텍","tel":"031-534-5607","addr":"경기도 포천시 소흘읍 초가팔리 173-4번지","indutype":"건축자재 - 기타건축자재","category":"other"}]},{"lat":"37.82192462","long":"127.15019172","imageIndex":17,"items":[{"name":"GS25포천상운","tel":"","addr":"경기도 포천시 소흘읍 초가팔리 279-2번지","indutype":"편의점 - 편의점","category":"other"},{"name":"GS25포천상운점","tel":"","addr":"경기도 포천시 소흘읍 초가팔리 279-2번지","indutype":"유통업 영리 - 편 의 점","category":"other"}]},{"lat":"37.818394807","long":"127.1557838","imageIndex":17,"items":[{"name":"NJ","tel":"031-543-6660","addr":"경기도 포천시 소흘읍 초가팔리 462","indutype":"주방용구 - 주방용구","category":"other"}]},{"lat":"37.813480477","long":"127.15897618","imageIndex":17,"items":[{"name":"SM테크","tel":"","addr":"경기도 포천시 소흘읍 초가팔리 53-7번지","indutype":"가구 - 일반가구","category":"other"}]},{"lat":"37.817731083","long":"127.14625384","imageIndex":17,"items":[{"name":"그린골프클럽","tel":"031-542-0752","addr":"경기도 포천시 소흘읍 초가팔리 368번지 외","indutype":"회원제형태 - 레져업소","category":"other"},{"name":"그린스크린골프","tel":"031-542-4080","addr":"경기도 포천시 소흘읍 초가팔리 368번지 1층","indutype":"레져용품 - 골프용품 전문점","category":"other"}]},{"lat":"37.819755934","long":"127.14810901","imageIndex":17,"items":[{"name":"롯데슈퍼999","tel":"543-2520","addr":"경기도 포천시 소흘읍 초가팔리 336번지 포천상운아파트","indutype":"소매업 - 잡화","category":"other"},{"name":"선우공인중개사사무소","tel":"536-3332","addr":"경기도 포천시 소흘읍 초가팔리 336번지 포천상운아파트","indutype":"부동산 - 부동산중개업","category":"other"},{"name":"소라아트","tel":"543-8612","addr":"경기도 포천시 소흘읍 초가팔리 336번지 포천상운아파트 2층207","indutype":"서비스 - 공방","category":"other"},{"name":"컴퓨터플러스","tel":"542-7070","addr":"경기도 포천시 소흘읍 초가팔리 336번지 포천상운아파트 117호","indutype":"소매업 - 컴퓨터주변기기외","category":"other"}]},{"lat":"37.815591282","long":"127.15700455","imageIndex":17,"items":[{"name":"부흥사","tel":"031-543-0300","addr":"경기도 포천시 소흘읍 초가팔리 20-7번지","indutype":"전기제품 - 기타전기제품","category":"other"}]},{"lat":"37.81178585","long":"127.15269265","imageIndex":17,"items":[{"name":"삼우기계","tel":"031-541-3463","addr":"경기도 포천시 소흘읍 초가팔리 147-1","indutype":"기타 - 기계공구","category":"other"}]},{"lat":"37.816032067","long":"127.15049801","imageIndex":17,"items":[{"name":"세라믹솔","tel":"031-543-2624","addr":"경기도 포천시 소흘읍 초가팔리 226-14번지 1","indutype":"문화.취미 - 민예·공예품","category":"other"}]},{"lat":"37.813725902","long":"127.15733001","imageIndex":17,"items":[{"name":"스마트퍼니처","tel":"070-8882-8608","addr":"경기도 포천시 소흘읍 초가팔리 43-3번지","indutype":"가구 - 일반가구","category":"other"}]},{"lat":"37.813453472","long":"127.15200328","imageIndex":17,"items":[{"name":"신광기계","tel":"031-544-7035","addr":"경기도 포천시 소흘읍 초가팔리 156-37번지","indutype":"기타 - 기계공구","category":"other"}]},{"lat":"37.811837012","long":"127.15495263","imageIndex":17,"items":[{"name":"신대동공사","tel":"031-829-2277","addr":"경기도 포천시 소흘읍 초가팔리 89-1번지","indutype":"기타 - 기타 전문점","category":"other"}]},{"lat":"37.821475325","long":"127.14924815","imageIndex":17,"items":[{"name":"씨유포천상운점","tel":"031-543-2281","addr":"경기도 포천시 소흘읍 초가팔리 283-3번지 1층","indutype":"유통업 영리 - 편 의 점","category":"other"}]},{"lat":"37.816232453","long":"127.14874945","imageIndex":17,"items":[{"name":"온리원","tel":"070-0000-0000","addr":"경기도 포천시 소흘읍 초가팔리 242-1번지","indutype":"직물 - 옷감·직물","category":"other"}]},{"lat":"37.812867732","long":"127.15905439","imageIndex":17,"items":[{"name":"외풍차단 미세방충망 미래샷시","tel":"02-3666-8100","addr":"경기도 포천시 소흘읍 초가팔리 57-2번지","indutype":"건축자재 - 기타건축자재","category":"other"}]},{"lat":"37.813364224","long":"127.15133307","imageIndex":17,"items":[{"name":"우리창호","tel":"031-535-9677","addr":"경기도 포천시 소흘읍 초가팔리 172번지","indutype":"건축자재 - 기타건축자재","category":"other"},{"name":"원형정공","tel":"031-542-4623","addr":"경기도 포천시 소흘읍 초가팔리 172번지","indutype":"기타 - 기계공구","category":"other"}]},{"lat":"37.809893756","long":"127.15277968","imageIndex":17,"items":[{"name":"주식회사케이에스케미칼(KS chemical)","tel":"031-544-7441","addr":"경기도 포천시 소흘읍 초가팔리 134-2번지","indutype":"건축자재 - 페인트","category":"other"}]},{"lat":"37.81409219","long":"127.15275409","imageIndex":17,"items":[{"name":"친환경에너지제로하우스제조업 협동조합","tel":"031-534-5607","addr":"경기도 포천시 소흘읍 초가팔리 156번지","indutype":"건축자재 - 인테리어전문","category":"other"}]},{"lat":"37.816338416","long":"127.1504759","imageIndex":17,"items":[{"name":"키즈우드","tel":"031-543-4820","addr":"경기도 포천시 소흘읍 초가팔리 235-1번지","indutype":"가구 - 일반가구","category":"other"}]},{"lat":"37.818092702","long":"127.15250097","imageIndex":17,"items":[{"name":"태화섬유","tel":"02-2264-2215","addr":"경기도 포천시 소흘읍 초가팔리 212-2번지","indutype":"유통업 영리 - 기타유통업","category":"other"}]},{"lat":"37.824005623","long":"127.15033216","imageIndex":17,"items":[{"name":"현천식품","tel":"031-542-4052","addr":"경기도 포천시 소흘읍 초가팔리 294번지","indutype":"유통업 영리 - 기타유통업","category":"other"}]}]