[{"lat":"37.527898228","long":"126.78757286","imageIndex":7,"items":[{"name":"OJ MART","tel":"032-677-8022","addr":"경기도 부천시 오정동 552-2번지","indutype":"음료식품 - 기타음료식품","category":"food"}]},{"lat":"37.528788277","long":"126.78651818","imageIndex":7,"items":[{"name":"결성보신원","tel":"032-671-7764","addr":"경기도 부천시 오정동 544-23번지","indutype":"건강식품 - 기타건강식품","category":"food"}]},{"lat":"37.525759897","long":"126.78593867","imageIndex":7,"items":[{"name":"고향청과","tel":"032-681-8655","addr":"경기도 부천시 오정동 570-15번지","indutype":"음료식품 - 농·축·수산품","category":"food"},{"name":"오정축산","tel":"032-681-8248","addr":"경기도 부천시 오정동 570-15번지 1층","indutype":"음료식품 - 정육점","category":"food"}]},{"lat":"37.527008211","long":"126.78374036","imageIndex":7,"items":[{"name":"까레몽과자점","tel":"032-671-3618","addr":"경기도 부천시 오정동 578-3번지","indutype":"음료식품 - 제과점","category":"food"}]},{"lat":"37.532896417","long":"126.79129203","imageIndex":7,"items":[{"name":"농업회사법인 주식회사 비씨에프","tel":"032-671-0184","addr":"경기도 부천시 오정동 67-9번지 지층","indutype":"음료식품 - 농·축·수산품","category":"food"}]},{"lat":"37.525894483","long":"126.78563284","imageIndex":7,"items":[{"name":"농협쌀직판장","tel":"032-676-3303","addr":"경기도 부천시 오정동 582-30번지 1층","indutype":"음료식품 - 미곡상","category":"food"},{"name":"두부마을","tel":"032-675-5390","addr":"경기도 부천시 오정동 582-30번지","indutype":"음료식품 - 기타음료식품","category":"food"}]},{"lat":"37.529039432","long":"126.78590655","imageIndex":7,"items":[{"name":"명품한우","tel":"032-259-6887","addr":"경기도 부천시 오정동 555번지 낙원빌딩 1층 3호","indutype":"음료식품 - 정육점","category":"food"}]},{"lat":"37.530781959","long":"126.78299395","imageIndex":7,"items":[{"name":"몽당","tel":"","addr":"경기도 부천시 오정동 717번지 오정생활휴먼시아1단지아파트","indutype":"음료식품 - 기타음료식품","category":"food"}]},{"lat":"37.529787247","long":"126.78590438","imageIndex":7,"items":[{"name":"베스킨라빈스31","tel":"032-677-0880","addr":"경기도 부천시 오정동 725번지 오정프라자 108호","indutype":"음료식품 - 제과점","category":"food"}]},{"lat":"37.526956267","long":"126.78488311","imageIndex":7,"items":[{"name":"복댕이네과일야채","tel":"070-8278-2057","addr":"경기도 부천시 오정동 579-11번지 1층","indutype":"음료식품 - 농·축·수산품","category":"food"}]},{"lat":"37.532340337","long":"126.77335014","imageIndex":7,"items":[{"name":"부천시 영농","tel":"","addr":"경기도 부천시 오정동 443-4","indutype":"음료식품 - 농·축·수산품","category":"food"}]},{"lat":"37.528400672","long":"126.77680138","imageIndex":7,"items":[{"name":"부천시수퍼마켓협동조합","tel":"032-665-0282","addr":"경기도 부천시 오정동 808-6번지","indutype":"음료식품 - 기타음료식품","category":"food"}]},{"lat":"37.532754645","long":"126.78762678","imageIndex":7,"items":[{"name":"부천얼음","tel":"","addr":"경기도 부천시 오정동 732번지 오정생활휴먼시아3단지아파트","indutype":"음료식품 - 기타음료식품","category":"food"}]},{"lat":"37.528339007","long":"126.78718695","imageIndex":7,"items":[{"name":"사계절아이스","tel":"","addr":"경기도 부천시 오정동 553-6번지 더샵하우스 104동 1층 101호","indutype":"음료식품 - 기타음료식품","category":"food"}]},{"lat":"37.529671654","long":"126.7867419","imageIndex":7,"items":[{"name":"산새청과","tel":"032-671-1201","addr":"경기도 부천시 오정동 192-6번지 우암빌딩 103호","indutype":"음료식품 - 농·축·수산품","category":"food"}]},{"lat":"37.527378169","long":"126.79914747","imageIndex":7,"items":[{"name":"승아네 할머니야채","tel":"032-673-7277","addr":"경기도 부천시 오정동 135-7번지 동양빌라 가동 4층 401호","indutype":"음료식품 - 농·축·수산품","category":"food"}]},{"lat":"37.526505775","long":"126.78488442","imageIndex":7,"items":[{"name":"시골흑염소","tel":"032-676-4050","addr":"경기도 부천시 오정동 580-6번지","indutype":"건강식품 - 기타건강식품","category":"food"}]},{"lat":"37.526841741","long":"126.78629755","imageIndex":7,"items":[{"name":"시장방앗간","tel":"032-671-9897","addr":"경기도 부천시 오정동 572번지 지하층","indutype":"음료식품 - 기타음료식품","category":"food"},{"name":"오정청과","tel":"032-678-9025","addr":"경기도 부천시 오정동 572번지 오정종합시장 지층 49호","indutype":"음료식품 - 농·축·수산품","category":"food"},{"name":"우리떡집","tel":"","addr":"경기도 부천시 오정동 572번지 오정종합시장1층7,8호,53,54호","indutype":"음료식품 - 제과점","category":"food"},{"name":"진부각","tel":"","addr":"경기도 부천시 오정동 572번지 지층 15,16,60호","indutype":"음료식품 - 기타음료식품","category":"food"},{"name":"총각네고기백화점","tel":"032-678-1595","addr":"경기도 부천시 오정동 572번지 오정종합시장 105,106,122,150호","indutype":"음료식품 - 정육점","category":"food"},{"name":"콩나라쌀나라","tel":"032-682-1468","addr":"경기도 부천시 오정동 572번지 오정종합시장 지층 1호","indutype":"음료식품 - 기타음료식품","category":"food"},{"name":"현미랑누룽지","tel":"032-678-0061","addr":"경기도 부천시 오정동 572번지 오정종합시장 1층 127호","indutype":"음료식품 - 기타음료식품","category":"food"}]},{"lat":"37.529864954","long":"126.7840714","imageIndex":7,"items":[{"name":"신화유통","tel":"031-970-3238","addr":"경기도 부천시 오정동 373번지 창보아파트","indutype":"음료식품 - 기타음료식품","category":"food"}]},{"lat":"37.527539447","long":"126.79862663","imageIndex":7,"items":[{"name":"아이스크림 전문점","tel":"032-000-0000","addr":"경기도 부천시 오정동 134-1번지 대흥아파트","indutype":"음료식품 - 기타음료식품","category":"food"}]},{"lat":"37.529897417","long":"126.78702408","imageIndex":7,"items":[{"name":"아이스크림할인점","tel":"031-646-1671","addr":"경기도 부천시 오정동 177-9번지 1층 107호","indutype":"음료식품 - 기타음료식품","category":"food"}]},{"lat":"37.526453404","long":"126.78580091","imageIndex":7,"items":[{"name":"예원축산유통","tel":"032-684-8987","addr":"경기도 부천시 오정동 571번지","indutype":"음료식품 - 정육점","category":"food"}]},{"lat":"37.526309351","long":"126.78585789","imageIndex":7,"items":[{"name":"오만이네","tel":"032-328-6428","addr":"경기도 부천시 오정동 571-1번지","indutype":"음료식품 - 농·축·수산품","category":"food"},{"name":"중부야채","tel":"032-679-9932","addr":"경기도 부천시 오정동 571-1번지","indutype":"음료식품 - 농·축·수산품","category":"food"}]},{"lat":"37.525255035","long":"126.78577044","imageIndex":7,"items":[{"name":"오정농축산","tel":"032-677-1088","addr":"경기도 부천시 오정동 583-11번지 1층","indutype":"음료식품 - 정육점","category":"food"}]},{"lat":"37.528841146","long":"126.79590793","imageIndex":7,"items":[{"name":"오정레포츠센터 매점","tel":"02-900-1544","addr":"경기도 부천시 오정동 782번지","indutype":"음료식품 - 기타음료식품","category":"food"}]},{"lat":"37.526371858","long":"126.78555226","imageIndex":7,"items":[{"name":"오정반찬","tel":"032-672-5580","addr":"경기도 부천시 오정동 581-7번지","indutype":"음료식품 - 기타음료식품","category":"food"},{"name":"종로떡방앗간","tel":"032-676-4577","addr":"경기도 부천시 오정동 581-7번지","indutype":"음료식품 - 제과점","category":"food"},{"name":"풍미닭집","tel":"032-681-5898","addr":"경기도 부천시 오정동 581-7번지","indutype":"음료식품 - 정육점","category":"food"}]},{"lat":"37.524372736","long":"126.786135","imageIndex":7,"items":[{"name":"우리돈","tel":"032-679-8922","addr":"경기도 부천시 오정동 566번지 1층","indutype":"음료식품 - 정육점","category":"food"}]},{"lat":"37.526095189","long":"126.78698978","imageIndex":7,"items":[{"name":"이안푸드","tel":"032-672-8498","addr":"경기도 부천시 오정동 570-8번지 중앙빌라 102호","indutype":"음료식품 - 정육점","category":"food"}]},{"lat":"37.526871781","long":"126.78305068","imageIndex":7,"items":[{"name":"자연보감","tel":"032-677-6625","addr":"경기도 부천시 오정동 593-1번지 2층","indutype":"건강식품 - 기타건강식품","category":"food"}]},{"lat":"37.527588538","long":"126.78574105","imageIndex":7,"items":[{"name":"자연품은 곰","tel":"","addr":"경기도 부천시 오정동 574-8번지","indutype":"음료식품 - 농·축·수산품","category":"food"}]},{"lat":"37.529506819","long":"126.78529428","imageIndex":7,"items":[{"name":"잔치떡방앗간","tel":"032-683-7337","addr":"경기도 부천시 오정동 216-1번지 썬프라자 102호","indutype":"음료식품 - 제과점","category":"food"}]},{"lat":"37.527667813","long":"126.7847566","imageIndex":7,"items":[{"name":"장안","tel":"032-351-5345","addr":"경기도 부천시 오정동 575-19번지 연회주택 4동 201호","indutype":"음료식품 - 농·축·수산품","category":"food"}]},{"lat":"37.526614561","long":"126.78524611","imageIndex":7,"items":[{"name":"점핑다이어트","tel":"","addr":"경기도 부천시 오정동 580번지 오거리타운 3층 301호","indutype":"건강식품 - 기타건강식품","category":"food"},{"name":"점핑다이어트","tel":"","addr":"경기도 부천시 오정동 580번지 3층 301호","indutype":"건강식품 - 기타건강식품","category":"food"}]},{"lat":"37.526786497","long":"126.78565288","imageIndex":7,"items":[{"name":"제비가물고온 박씨네떡방","tel":"032-673-6310","addr":"경기도 부천시 오정동 573-15번지 1층 일부","indutype":"음료식품 - 제과점","category":"food"}]},{"lat":"37.531005212","long":"126.78679462","imageIndex":7,"items":[{"name":"제이앤비유통","tel":"032-111-1111","addr":"경기도 부천시 오정동 726번지 오정생활휴먼시아2단지아파트","indutype":"음료식품 - 미곡상","category":"food"}]},{"lat":"37.527173941","long":"126.78566307","imageIndex":7,"items":[{"name":"제주한라축산","tel":"","addr":"경기도 부천시 오정동 573-2번지 1층","indutype":"음료식품 - 정육점","category":"food"}]},{"lat":"37.5295108","long":"126.78746641","imageIndex":7,"items":[{"name":"종합축산","tel":"031-111-1111","addr":"경기도 부천시 오정동 192-16번지 오정드림타운 102호","indutype":"음료식품 - 정육점","category":"food"}]},{"lat":"37.530702832","long":"126.78896766","imageIndex":7,"items":[{"name":"진양축산","tel":"032-681-6689","addr":"경기도 부천시 오정동 111-14번지 진양빌딩 1층","indutype":"음료식품 - 정육점","category":"food"}]},{"lat":"37.5272331","long":"126.78354738","imageIndex":7,"items":[{"name":"착한찹쌀꽈배기","tel":"032-575-4511","addr":"경기도 부천시 오정동 577-2번지 1층","indutype":"음료식품 - 기타음료식품","category":"food"}]},{"lat":"37.527038315","long":"126.78540326","imageIndex":7,"items":[{"name":"천지푸드","tel":"032-671-2177","addr":"경기도 부천시 오정동 573-4번지 1층","indutype":"음료식품 - 기타음료식품","category":"food"}]},{"lat":"37.529482034","long":"126.78651618","imageIndex":7,"items":[{"name":"파리바게뜨부천오정점","tel":"032-675-5820","addr":"경기도 부천시 오정동 543번지 신오빌딩 101호","indutype":"음료식품 - 제과점","category":"food"}]},{"lat":"37.529229157","long":"126.78618883","imageIndex":7,"items":[{"name":"파파미트 (도드람한돈)","tel":"032-678-6050","addr":"경기도 부천시 오정동 543-1번지 1층 일부","indutype":"음료식품 - 정육점","category":"food"}]},{"lat":"37.52542672","long":"126.78604145","imageIndex":7,"items":[{"name":"평창축산","tel":"032-678-0221","addr":"경기도 부천시 오정동 569번지","indutype":"음료식품 - 정육점","category":"food"}]},{"lat":"37.525894941","long":"126.78588172","imageIndex":7,"items":[{"name":"한성떡방아간","tel":"032-683-7244","addr":"경기도 부천시 오정동 570번지","indutype":"음료식품 - 제과점","category":"food"}]},{"lat":"37.526038328","long":"126.78546273","imageIndex":7,"items":[{"name":"형제건어물","tel":"032-671-9351","addr":"경기도 부천시 오정동 581-12번지 대운연립","indutype":"음료식품 - 농·축·수산품","category":"food"}]},{"lat":"37.526174245","long":"126.78588091","imageIndex":7,"items":[{"name":"형제수산","tel":"032-674-6498","addr":"경기도 부천시 오정동 571-10번지 1층상가","indutype":"음료식품 - 농·축·수산품","category":"food"}]},{"lat":"37.533120693","long":"126.7857929","imageIndex":7,"items":[{"name":"화일씨아이씨","tel":"","addr":"경기도 부천시 오정동 747-2번지 101호","indutype":"음료식품 - 농·축·수산품","category":"food"}]},{"lat":"37.527618711","long":"126.78257334","imageIndex":7,"items":[{"name":"황가네청과","tel":"032-675-9944","addr":"경기도 부천시 오정동 208-4번지","indutype":"음료식품 - 농·축·수산품","category":"food"}]},{"lat":"37.526947966","long":"126.78526777","imageIndex":7,"items":[{"name":"효도건강원","tel":"032-681-1070","addr":"경기도 부천시 오정동 573-19번지 1층","indutype":"건강식품 - 기타건강식품","category":"food"}]}]