[{"lat":"37.022937898","long":"127.11130333","imageIndex":17,"items":[{"name":"(주) 노블리프트","tel":"031-666-6353","addr":"경기도 평택시 칠원동 249-2번지","indutype":"기타 - 기계공구","category":"other"},{"name":"(주)중부전기","tel":"031-655-0334","addr":"경기도 평택시 칠원동 249-2번지","indutype":"용역 서비스 - 기타용역서비스","category":"other"}]},{"lat":"37.028543436","long":"127.09983677","imageIndex":17,"items":[{"name":"SB클래스컴포","tel":"031-651-2758","addr":"경기도 평택시 칠원동 87번지","indutype":"가구 - 기타가구","category":"other"},{"name":"고궁종합주방","tel":"031-651-7497","addr":"경기도 평택시 칠원동 87번지","indutype":"주방용구 - 주방용구","category":"other"}]},{"lat":"37.031408433","long":"127.10031244","imageIndex":17,"items":[{"name":"㈜천지개발","tel":"031-666-9006","addr":"경기도 평택시 칠원동 39-9번지","indutype":"서비스업 - 건설","category":"other"}]},{"lat":"37.024098688","long":"127.11302438","imageIndex":17,"items":[{"name":"공감토목측량","tel":"031-611-1560","addr":"경기도 평택시 칠원동 207-4번지","indutype":"서비스업 - 측량, 설계","category":"other"},{"name":"공감토목측량","tel":"031-662-8914","addr":"경기도 평택시 칠원동 207-4번지","indutype":"용역 서비스 - 사무서비스","category":"other"},{"name":"오너골프&투어","tel":"02-1661-6537","addr":"경기도 평택시 칠원동 207-4번지 어은회관 1층 104호","indutype":"여행 - 관광여행","category":"other"}]},{"lat":"37.02965945","long":"127.10142284","imageIndex":17,"items":[{"name":"데이앤데이","tel":"031-654-5557","addr":"경기도 평택시 칠원동 98-1번지","indutype":"소매업 - 편의점","category":"other"},{"name":"데이앤데이 에벤에셀","tel":"031-653-6445","addr":"경기도 평택시 칠원동 98-1번지","indutype":"유통업 영리 - 편 의 점","category":"other"},{"name":"데이앤데이(day&day)","tel":"031-658-1491","addr":"경기도 평택시 칠원동 98-1번지","indutype":"유통업 영리 - 편 의 점","category":"other"}]},{"lat":"37.030515898","long":"127.10089572","imageIndex":17,"items":[{"name":"씨유평택갈원점","tel":"031-664-4641","addr":"경기도 평택시 칠원동 34-2번지 1층","indutype":"유통업 영리 - 편 의 점","category":"other"}]},{"lat":"37.031768562","long":"127.10067255","imageIndex":17,"items":[{"name":"영지마트","tel":"","addr":"경기도 평택시 칠원동 49-1번지","indutype":"소매업 - 정육","category":"other"}]},{"lat":"37.025712031","long":"127.11255471","imageIndex":17,"items":[{"name":"워터링크","tel":"031-662-0274","addr":"경기도 평택시 칠원동 212번지","indutype":"주방용구 - 주방용구","category":"other"}]},{"lat":"37.027547813","long":"127.10514002","imageIndex":17,"items":[{"name":"한국줄눈공사","tel":"031-000-0000","addr":"경기도 평택시 칠원동 559번지 동문굿모닝힐맘시티 204동 1403호","indutype":"용역 서비스 - 기타용역서비스","category":"other"}]},{"lat":"37.030515898","long":"127.10089572","imageIndex":4,"items":[{"name":"그때그고기","tel":"031-664-3210","addr":"경기도 평택시 칠원동 34-2번지","indutype":"일반휴게음식 - 주점","category":"restaurant"},{"name":"큰두레박","tel":"031-668-3335","addr":"경기도 평택시 칠원동 34-2번지 창성빌딩 1호","indutype":"일반휴게음식 - 일반한식","category":"restaurant"}]},{"lat":"37.031408433","long":"127.10031244","imageIndex":4,"items":[{"name":"꼬마만두군","tel":"031-611-7431","addr":"경기도 평택시 칠원동 39-9번지","indutype":"일반휴게음식 - 스넥","category":"restaurant"},{"name":"꼬마만두군","tel":"031-667-6787","addr":"경기도 평택시 칠원동 39-9번지","indutype":"음식점 - 분식","category":"restaurant"},{"name":"박군치킨동광칠원점","tel":"031-663-4731","addr":"경기도 평택시 칠원동 39-9번지 1층","indutype":"일반휴게음식 - 스넥","category":"restaurant"},{"name":"장가개","tel":"031-656-1923","addr":"경기도 평택시 칠원동 39-9번지","indutype":"일반휴게음식 - 중국식","category":"restaurant"},{"name":"핑계있는날","tel":"031-668-7003","addr":"경기도 평택시 칠원동 39-9번지 2층","indutype":"일반휴게음식 - 주점","category":"restaurant"}]},{"lat":"37.033076445","long":"127.09903331","imageIndex":4,"items":[{"name":"대동아찜","tel":"031-611-7447","addr":"경기도 평택시 칠원동 73-4번지","indutype":"일반휴게음식 - 일반한식","category":"restaurant"},{"name":"대동아찜","tel":"031-611-7431","addr":"경기도 평택시 칠원동 73-4번지","indutype":"음식점 - 한식","category":"restaurant"}]},{"lat":"37.029767559","long":"127.10144546","imageIndex":4,"items":[{"name":"리치리치","tel":"031-654-5557","addr":"경기도 평택시 칠원동 97번지 외1필지","indutype":"일반휴게음식 - 서양음식","category":"restaurant"},{"name":"리치리치","tel":"031-611-7447","addr":"경기도 평택시 칠원동 97번지","indutype":"음식점 - 피자","category":"restaurant"}]},{"lat":"37.032182987","long":"127.10075176","imageIndex":4,"items":[{"name":"리치킨호프","tel":"031-666-9624","addr":"경기도 평택시 칠원동 56-1번지","indutype":"일반휴게음식 - 주점","category":"restaurant"}]},{"lat":"37.029155106","long":"127.10111875","imageIndex":4,"items":[{"name":"백삼다시일(103-1)","tel":"","addr":"경기도 평택시 칠원동 103-1번지 1층","indutype":"일반휴게음식 - 서양음식","category":"restaurant"}]},{"lat":"37.032985772","long":"127.09973002","imageIndex":4,"items":[{"name":"병천아우네순대","tel":"031-611-8885","addr":"경기도 평택시 칠원동 70-1번지","indutype":"음식점 - 한식","category":"restaurant"},{"name":"병천아우네순대","tel":"031-665-0101","addr":"경기도 평택시 칠원동 70-1번지","indutype":"일반휴게음식 - 일반한식","category":"restaurant"}]},{"lat":"37.030993989","long":"127.10025572","imageIndex":4,"items":[{"name":"부영숯불갈비","tel":"031-665-1898","addr":"경기도 평택시 칠원동 38-8번지","indutype":"음식점 - 한식","category":"restaurant"},{"name":"부영숯불갈비","tel":"031-655-1825","addr":"경기도 평택시 칠원동 38-8번지 외3필지 B동","indutype":"일반휴게음식 - 일반한식","category":"restaurant"}]},{"lat":"37.032877535","long":"127.09986475","imageIndex":4,"items":[{"name":"수계정","tel":"","addr":"경기도 평택시 칠원동 70-11번지","indutype":"음식점 - 한식","category":"restaurant"},{"name":"수계정","tel":"031-666-9006","addr":"경기도 평택시 칠원동 70-11번지 1층","indutype":"일반휴게음식 - 일반한식","category":"restaurant"}]},{"lat":"37.031768562","long":"127.10067255","imageIndex":4,"items":[{"name":"스모프치킨피자","tel":"031-668-8892","addr":"경기도 평택시 칠원동 49-1번지 동광윈프라자 104호","indutype":"일반휴게음식 - 주점","category":"restaurant"},{"name":"탑","tel":"031-662-3656","addr":"경기도 평택시 칠원동 49-1번지 동광윈프라자 102호","indutype":"일반휴게음식 - 주점","category":"restaurant"}]},{"lat":"37.030795617","long":"127.10042405","imageIndex":4,"items":[{"name":"쌍용골","tel":"031-666-3331","addr":"경기도 평택시 칠원동 38-3번지","indutype":"음식점 - 한식","category":"restaurant"},{"name":"쌍용골","tel":"031-668-1300","addr":"경기도 평택시 칠원동 38-3번지","indutype":"일반휴게음식 - 일반한식","category":"restaurant"}]},{"lat":"37.032129514","long":"127.10003239","imageIndex":4,"items":[{"name":"옛날토종닭","tel":"031-652-1372","addr":"경기도 평택시 칠원동 62-2번지 외1필지 1층","indutype":"일반휴게음식 - 일반한식","category":"restaurant"}]},{"lat":"37.031904275","long":"127.09999839","imageIndex":4,"items":[{"name":"원미맛집","tel":"031-662-1219","addr":"경기도 평택시 칠원동 60-1번지","indutype":"일반휴게음식 - 일반한식","category":"restaurant"},{"name":"원미맛집","tel":"031-662-3020","addr":"경기도 평택시 칠원동 60-1번지","indutype":"음식점 - 한식","category":"restaurant"}]},{"lat":"37.021934268","long":"127.10503136","imageIndex":4,"items":[{"name":"이비가짬뽕평택칠원동","tel":"031-611-8831","addr":"경기도 평택시 칠원동 440번지","indutype":"일반휴게음식 - 중국식","category":"restaurant"},{"name":"이비가짬뽕평택칠원점","tel":"","addr":"경기도 평택시 칠원동 440번지","indutype":"음식점 - 중식","category":"restaurant"}]},{"lat":"37.029461216","long":"127.10142258","imageIndex":4,"items":[{"name":"청룡식당","tel":"031-665-1898","addr":"경기도 평택시 칠원동 98-3번지","indutype":"일반휴게음식 - 일반한식","category":"restaurant"},{"name":"청용식당","tel":"","addr":"경기도 평택시 칠원동 98-3번지","indutype":"음식점 - 한식","category":"restaurant"}]},{"lat":"37.031105836","long":"127.10650469","imageIndex":4,"items":[{"name":"청석골","tel":"031-667-0042","addr":"경기도 평택시 칠원동 144-1번지","indutype":"일반휴게음식 - 일반한식","category":"restaurant"}]},{"lat":"37.032047846","long":"127.10072911","imageIndex":4,"items":[{"name":"칠원골박가네한식","tel":"031-664-6334","addr":"경기도 평택시 칠원동 57번지","indutype":"일반휴게음식 - 일반한식","category":"restaurant"}]},{"lat":"37.032688559","long":"127.09956106","imageIndex":4,"items":[{"name":"칠원커피","tel":"","addr":"경기도 평택시 칠원동 77-2번지","indutype":"음식점 - 커피","category":"restaurant"},{"name":"칠원커피","tel":"031-667-7155","addr":"경기도 평택시 칠원동 77-2번지","indutype":"일반휴게음식 - 서양음식","category":"restaurant"}]},{"lat":"37.030155612","long":"127.10072668","imageIndex":4,"items":[{"name":"황금한식부페","tel":"031-666-4810","addr":"경기도 평택시 칠원동 94-1번지","indutype":"일반휴게음식 - 일반한식","category":"restaurant"}]},{"lat":"37.031768562","long":"127.10067255","imageIndex":16,"items":[{"name":"글로리아음악학원","tel":"031-652-6553","addr":"경기도 평택시 칠원동 49-1번지 동광윈프라자 401.402호","indutype":"학원 - 예·체능계학원","category":"study"},{"name":"솔빛EMK학원","tel":"031-664-6753","addr":"경기도 평택시 칠원동 49-1번지 동광윈프라자 301호","indutype":"회원제형태 - 학원","category":"study"},{"name":"알파영수단과학원","tel":"031-664-6753","addr":"경기도 평택시 칠원동 49-1번지 동광윈프라자 301,302호 전부","indutype":"학원 - 보습학원","category":"study"}]},{"lat":"37.031849203","long":"127.10122337","imageIndex":16,"items":[{"name":"도성호키태권도","tel":"031-668-5703","addr":"경기도 평택시 칠원동 499-1동광(아)상가303호~304호","indutype":"학원 - 예·체능계학원","category":"study"}]},{"lat":"37.026106516","long":"127.10466608","imageIndex":16,"items":[{"name":"용인대 새빛 태권도장","tel":"","addr":"경기도 평택시 칠원동 555번지 상가D동 5층 504-508호","indutype":"학원 - 예·체능계학원","category":"study"}]},{"lat":"37.025908992","long":"127.1038342","imageIndex":16,"items":[{"name":"용인대무궁화태권도","tel":"031-111-1111","addr":"경기도 평택시 칠원동 549번지 맘스스퀘어 B동 507-509호","indutype":"학원 - 예·체능계학원","category":"study"}]},{"lat":"37.032073702","long":"127.10214526","imageIndex":16,"items":[{"name":"이쌤수학교습소","tel":"031-665-0849","addr":"경기도 평택시 칠원동 499번지 상가동 203,204호","indutype":"학원 - 보습학원","category":"study"}]},{"lat":"37.028381473","long":"127.0995556","imageIndex":16,"items":[{"name":"자람어린이집[아이행복]","tel":"031-664-5567","addr":"경기도 평택시 칠원동 84-1번지","indutype":"학원 - 유아원","category":"study"}]},{"lat":"37.024853766","long":"127.10497907","imageIndex":16,"items":[{"name":"평택새빛초등학교","tel":"031-665-9093","addr":"경기도 평택시 칠원동 산 36-34번지","indutype":"학원 - 초중고교육기관","category":"study"}]},{"lat":"37.022937898","long":"127.11130333","imageIndex":0,"items":[{"name":"노블","tel":"031-666-6353","addr":"경기도 평택시 칠원동 249-2번지","indutype":"자동차판매 - 기타운송","category":"car"}]},{"lat":"37.030489052","long":"127.10067091","imageIndex":0,"items":[{"name":"동광자동차공업사","tel":"031-666-5182","addr":"경기도 평택시 칠원동 38-6번지","indutype":"자동차정비 유지 - 자동차정비","category":"car"},{"name":"쌍용모터스","tel":"031-668-0858","addr":"경기도 평택시 칠원동 38-6번지","indutype":"자동차정비 유지 - 자동차부품","category":"car"}]},{"lat":"37.032824147","long":"127.09903299","imageIndex":0,"items":[{"name":"때빼고광내고","tel":"031-611-7412","addr":"경기도 평택시 칠원동 76-1번지","indutype":"자동차정비 유지 - 세차장","category":"car"}]},{"lat":"37.021934268","long":"127.10503136","imageIndex":0,"items":[{"name":"모빌원","tel":"031-667-2946","addr":"경기도 평택시 칠원동 440번지","indutype":"자동차정비 유지 - 자동차정비","category":"car"}]},{"lat":"37.028967165","long":"127.09955634","imageIndex":0,"items":[{"name":"상일자동차서비스","tel":"031-656-5140","addr":"경기도 평택시 칠원동 85-1외1필지 (85-9)","indutype":"자동차정비 유지 - 자동차정비","category":"car"}]},{"lat":"37.032237779","long":"127.09986394","imageIndex":0,"items":[{"name":"셀세모칠원점","tel":"031-611-5500","addr":"경기도 평택시 칠원동 78-2번지","indutype":"자동차정비 유지 - 세차장","category":"car"}]},{"lat":"37.028877214","long":"127.09936517","imageIndex":0,"items":[{"name":"주안자동차서비스","tel":"031-666-5843","addr":"경기도 평택시 칠원동 85-9번지 세양빌딩 101호","indutype":"자동차정비 유지 - 자동차정비","category":"car"},{"name":"주안자동차서비스","tel":"","addr":"경기도 평택시 칠원동 85-9번지","indutype":"서비스업 - 자동차정비","category":"car"}]},{"lat":"37.028823442","long":"127.09900547","imageIndex":0,"items":[{"name":"평택자동차검사소","tel":"031-663-9119","addr":"경기도 평택시 칠원동 85-5번지","indutype":"자동차정비 유지 - 자동차정비","category":"car"},{"name":"평택자동차검사소","tel":"031-663-9119","addr":"경기도 평택시 칠원동 85-5번지","indutype":"자동차정비 유지 - 자동차정비","category":"car"},{"name":"피애이코리아(주) 평택자동차검사소","tel":"031-663-9119","addr":"경기도 평택시 칠원동 85-5번지","indutype":"자동차정비 유지 - 가타자동차서비스","category":"car"}]},{"lat":"37.031408433","long":"127.10031244","imageIndex":13,"items":[{"name":"덕헤어라인","tel":"031-618-0101","addr":"경기도 평택시 칠원동 39-9번지 칠원프라자 105호","indutype":"서비스업 - 미용","category":"beauty"},{"name":"덕헤어라인","tel":"031-667-6787","addr":"경기도 평택시 칠원동 39-9번지 칠원프라자 105호","indutype":"보건위생 - 미용원","category":"beauty"}]},{"lat":"37.031768562","long":"127.10067255","imageIndex":13,"items":[{"name":"빨강여우","tel":"031-665-5939","addr":"경기도 평택시 칠원동 49-1번지 동광윈프라자 203호","indutype":"보건위생 - 미용원","category":"beauty"}]},{"lat":"37.031714748","long":"127.10036903","imageIndex":13,"items":[{"name":"아르테","tel":"031-1111-1111","addr":"경기도 평택시 칠원동 59-5번지 JS프라자 301호","indutype":"보건위생 - 미용원","category":"beauty"}]},{"lat":"37.031183056","long":"127.10044702","imageIndex":13,"items":[{"name":"수 당구클럽","tel":"031-000-0000","addr":"경기도 평택시 칠원동 39-5번지","indutype":"레저업소 - 당 구 장","category":"leisure"}]},{"lat":"37.030515898","long":"127.10089572","imageIndex":13,"items":[{"name":"열린노래연습장","tel":"031-611-4349","addr":"경기도 평택시 칠원동 34-2번지 창성빌딩 2층","indutype":"레저업소 - 노 래 방","category":"leisure"}]},{"lat":"37.031768562","long":"127.10067255","imageIndex":13,"items":[{"name":"우리당구장","tel":"","addr":"경기도 평택시 칠원동 49-1번지 동광윈프라자 4층","indutype":"레저업소 - 당 구 장","category":"leisure"}]},{"lat":"37.029210608","long":"127.09936559","imageIndex":13,"items":[{"name":"캘러웨이 스크린골프연습장","tel":"031-653-0007","addr":"경기도 평택시 칠원동 85-2번지","indutype":"레저업소 - 스크린골프","category":"leisure"}]},{"lat":"37.031904275","long":"127.09999839","imageIndex":13,"items":[{"name":"황금노래연습장","tel":"031-654-7954","addr":"경기도 평택시 칠원동 60-1번지","indutype":"레저업소 - 노 래 방","category":"leisure"}]},{"lat":"37.030795617","long":"127.10042405","imageIndex":7,"items":[{"name":"쌍용마트","tel":"031-666-3788","addr":"경기도 평택시 칠원동 38-3번지","indutype":"유통업 영리 - 슈퍼마켓","category":"mart"}]},{"lat":"37.031768562","long":"127.10067255","imageIndex":7,"items":[{"name":"영지할인마트","tel":"031-665-9565","addr":"경기도 평택시 칠원동 49-1번지 동광윈프라자 1층105~107호","indutype":"유통업 영리 - 슈퍼마켓","category":"mart"}]},{"lat":"37.029768773","long":"127.09997319","imageIndex":7,"items":[{"name":"아라수산 (주)","tel":"031-655-7505","addr":"경기도 평택시 칠원동 82-3번지 A동","indutype":"음료식품 - 기타음료식품","category":"food"}]},{"lat":"37.025712031","long":"127.11255471","imageIndex":7,"items":[{"name":"으뜸식자재 협동조합","tel":"031-665-8139","addr":"경기도 평택시 칠원동 212번지","indutype":"음료식품 - 기타음료식품","category":"food"}]}]