[{"lat":"37.132997538","long":"126.82992001","imageIndex":0,"items":[{"name":"글로엠주식회사","tel":"031-351-9434","addr":"경기도 화성시 장안면 석포리 559-2번지 외4","indutype":"자동차정비 유지 - 가타자동차서비스","category":"car"}]},{"lat":"37.137474226","long":"126.83513196","imageIndex":0,"items":[{"name":"대승중기","tel":"031-237-0626","addr":"경기도 화성시 장안면 석포리 614-4번지","indutype":"자동차정비 유지 - 중장비수리","category":"car"}]},{"lat":"37.130529373","long":"126.84327237","imageIndex":0,"items":[{"name":"더트리톤","tel":"031-351-5470","addr":"경기도 화성시 장안면 석포리 330-11번지","indutype":"자동차정비 유지 - 자동차부품","category":"car"}]},{"lat":"37.129918667","long":"126.84477037","imageIndex":0,"items":[{"name":"버들자동차공업사","tel":"031-358-0536","addr":"경기도 화성시 장안면 석포리 318-25번지","indutype":"자동차정비 유지 - 자동차정비","category":"car"}]},{"lat":"37.140583818","long":"126.81763472","imageIndex":0,"items":[{"name":"석포카센타","tel":"031-351-9018","addr":"경기도 화성시 장안면 석포리 785-179번지","indutype":"자동차정비 유지 - 자동차정비","category":"car"}]},{"lat":"37.115979835","long":"126.84508064","imageIndex":0,"items":[{"name":"신신 부품 상사","tel":"","addr":"경기도 화성시 장안면 석포리 37-1번지","indutype":"자동차정비 유지 - 자동차부품","category":"car"}]},{"lat":"37.139805873","long":"126.84011275","imageIndex":0,"items":[{"name":"오토카센타&타이어전문점","tel":"031-358-2266","addr":"경기도 화성시 장안면 석포리 681-31번지","indutype":"자동차정비 유지 - 자동차시트·타이어","category":"car"}]},{"lat":"37.136194038","long":"126.84111088","imageIndex":0,"items":[{"name":"이형카공업사","tel":"031-358-8297","addr":"경기도 화성시 장안면 석포리 675-3","indutype":"자동차정비 유지 - 자동차정비","category":"car"}]},{"lat":"37.11408536","long":"126.84338565","imageIndex":0,"items":[{"name":"주식회사 국민특장","tel":"031-1111-1111","addr":"경기도 화성시 장안면 석포리 1040-11번지","indutype":"자동차판매 - 기타운송","category":"car"}]},{"lat":"37.140332089","long":"126.8179955","imageIndex":0,"items":[{"name":"주식회사 이스턴특장","tel":"","addr":"경기도 화성시 장안면 석포리 785-180번지","indutype":"자동차판매 - 기타운송","category":"car"}]}]