[{"lat":"37.143140218","long":"126.877575","imageIndex":17,"items":[{"name":"C.S콤푸텍","tel":"02-2213-1812","addr":"경기도 화성시 팔탄면 덕천리 244-9번지","indutype":"기타 - 기계공구","category":"other"}]},{"lat":"37.141663958","long":"126.87896183","imageIndex":17,"items":[{"name":"경진냉열시스템","tel":"031-8059-0179","addr":"경기도 화성시 팔탄면 덕천리 256-1번지 1층","indutype":"전기제품 - 냉열기기","category":"other"}]},{"lat":"37.142752625","long":"126.87744057","imageIndex":17,"items":[{"name":"동일ENG","tel":"031-353-2576","addr":"경기도 화성시 팔탄면 덕천리 240번지","indutype":"기타 - 기계공구","category":"other"}]},{"lat":"37.142971972","long":"126.87197007","imageIndex":17,"items":[{"name":"세븐일레븐화성팔탄덕천점","tel":"031-1577-0711","addr":"경기도 화성시 팔탄면 덕천리 360-8번지","indutype":"유통업 영리 - 편 의 점","category":"other"}]},{"lat":"37.152666413","long":"126.87960803","imageIndex":17,"items":[{"name":"엑스퍼트 그룹(Expert Group)","tel":"031-1111-1111","addr":"경기도 화성시 팔탄면 덕천리 67-9번지","indutype":"레져용품 - 스포츠·레져용품","category":"other"}]},{"lat":"37.140225057","long":"126.87313407","imageIndex":17,"items":[{"name":"태양공업","tel":"031-413-0949","addr":"경기도 화성시 팔탄면 덕천리 312-4번지","indutype":"기타 - 기계공구","category":"other"}]},{"lat":"37.151357738","long":"126.87755018","imageIndex":17,"items":[{"name":"하나크린텍(주)","tel":"031-351-5518","addr":"경기도 화성시 팔탄면 덕천리 65-5","indutype":"전기제품 - 기타전기제품","category":"other"}]},{"lat":"37.142000879","long":"126.87382887","imageIndex":17,"items":[{"name":"한일지하수개발","tel":"031-352-6788","addr":"경기도 화성시 팔탄면 덕천리 206","indutype":"용역 서비스 - 기타용역서비스","category":"other"}]},{"lat":"37.143693106","long":"126.87223896","imageIndex":17,"items":[{"name":"화성스톱","tel":"031-353-7883","addr":"경기도 화성시 팔탄면 덕천리 186-2번지","indutype":"유통업 영리 - 편 의 점","category":"other"}]},{"lat":"37.141496957","long":"126.86637878","imageIndex":9,"items":[{"name":"SK가스. 대성건업","tel":"031-353-3043","addr":"경기도 화성시 팔탄면 덕천리 377-5번지 1층","indutype":"연료판매점 - LPG 취급점","category":"oil"}]},{"lat":"37.142197705","long":"126.87254543","imageIndex":7,"items":[{"name":"꿀벌백화점","tel":"031-351-3982","addr":"경기도 화성시 팔탄면 덕천리 354-2번지","indutype":"건강식품 - 기타건강식품","category":"food"}]},{"lat":"37.146081495","long":"126.87279765","imageIndex":7,"items":[{"name":"엔와이인터내셔널","tel":"031-8043-4199","addr":"경기도 화성시 팔탄면 덕천리 155번지 1층 102호","indutype":"음료식품 - 주류 판매점","category":"food"}]},{"lat":"37.143891287","long":"126.8721936","imageIndex":4,"items":[{"name":"낙원","tel":"031-353-2906","addr":"경기도 화성시 팔탄면 덕천리 186-1번지","indutype":"일반휴게음식 - 일반한식","category":"restaurant"}]},{"lat":"37.14633216","long":"126.87132269","imageIndex":4,"items":[{"name":"덕천리 닭개장","tel":"031-353-0012","addr":"경기도 화성시 팔탄면 덕천리 112번지 1층","indutype":"일반휴게음식 - 일반한식","category":"restaurant"}]},{"lat":"37.142193595","long":"126.87708133","imageIndex":4,"items":[{"name":"만석골","tel":"031-354-7143","addr":"경기도 화성시 팔탄면 덕천리 234번지","indutype":"일반휴게음식 - 일반한식","category":"restaurant"}]},{"lat":"37.146892288","long":"126.87266119","imageIndex":4,"items":[{"name":"아지트 인 낙원","tel":"031-353-5781","addr":"경기도 화성시 팔탄면 덕천리 118-2번지","indutype":"일반휴게음식 - 일반한식","category":"restaurant"}]},{"lat":"37.144944987","long":"126.87171905","imageIndex":4,"items":[{"name":"애견동반카페예뜰","tel":"031-354-8243","addr":"경기도 화성시 팔탄면 덕천리 163-5번지 1층","indutype":"일반휴게음식 - 서양음식","category":"restaurant"},{"name":"예뜰치킨","tel":"031-354-8243","addr":"경기도 화성시 팔탄면 덕천리 163-5번지","indutype":"일반휴게음식 - 스넥","category":"restaurant"}]},{"lat":"37.146079743","long":"126.87121057","imageIndex":4,"items":[{"name":"족발.보쌈.육개장","tel":"031-266-7541","addr":"경기도 화성시 팔탄면 덕천리 113-11번지","indutype":"일반휴게음식 - 일반한식","category":"restaurant"},{"name":"한우 가마솥 설렁탕","tel":"031-359-9719","addr":"경기도 화성시 팔탄면 덕천리 113-11번지 1층","indutype":"일반휴게음식 - 일반한식","category":"restaurant"}]},{"lat":"37.147000041","long":"126.87232332","imageIndex":4,"items":[{"name":"킹퓨전포차","tel":"031-353-1607","addr":"경기도 화성시 팔탄면 덕천리 117-1번지 1층","indutype":"일반휴게음식 - 주점","category":"restaurant"}]},{"lat":"37.142643013","long":"126.86788494","imageIndex":4,"items":[{"name":"호수돈까스","tel":"031-8059-3392","addr":"경기도 화성시 팔탄면 덕천리 375-20번지","indutype":"일반휴게음식 - 서양음식","category":"restaurant"}]},{"lat":"37.142225932","long":"126.87363715","imageIndex":7,"items":[{"name":"덕천할인마트","tel":"031-487-2800","addr":"경기도 화성시 팔탄면 덕천리 208번지","indutype":"유통업 영리 - 슈퍼마켓","category":"mart"}]}]