[{"lat":"37.954273268","long":"127.23335621","imageIndex":17,"items":[{"name":"(주)쎌포","tel":"031-536-7224","addr":"경기도 포천시 신북면 신평리 196-4번지","indutype":"건축자재 - 기타건축자재","category":"other"}]},{"lat":"37.942103509","long":"127.21818788","imageIndex":17,"items":[{"name":"(주)포즈","tel":"031-877-1240","addr":"경기도 포천시 신북면 신평리 339-5번지","indutype":"레져용품 - 골프용품 전문점","category":"other"},{"name":"세경이앤씨 (E&C)","tel":"","addr":"경기도 포천시 신북면 신평리 339-5번지","indutype":"신변잡화 - 기타잡화","category":"other"}]},{"lat":"37.94891202","long":"127.22910713","imageIndex":17,"items":[{"name":"ALMODINA HALALFOOD","tel":"-","addr":"경기도 포천시 신북면 신평리 170-2번지","indutype":"소매업 - 잡화","category":"other"}]},{"lat":"37.947518239","long":"127.22295927","imageIndex":17,"items":[{"name":"GS25경복대점","tel":"02-2006-2118","addr":"경기도 포천시 신북면 신평리 131","indutype":"유통업 영리 - 편 의 점","category":"other"}]},{"lat":"37.95838183","long":"127.22852173","imageIndex":17,"items":[{"name":"GS25장자산단점","tel":"031-532-0401","addr":"경기도 포천시 신북면 신평리 674번지 외 6필지","indutype":"편의점 - 편의점","category":"other"},{"name":"GS25장자산단점","tel":"","addr":"경기도 포천시 신북면 신평리 674번지 1층","indutype":"유통업 영리 - 편 의 점","category":"other"},{"name":"gs25 장자산단점","tel":"031-532-0401","addr":"경기도 포천시 신북면 신평리 674번지","indutype":"소매업 - 편의점","category":"other"}]},{"lat":"37.958022749","long":"127.22784929","imageIndex":17,"items":[{"name":"GS25장자산단점","tel":"","addr":"경기도 포천시 신북면 신평리 220번지","indutype":"유통업 영리 - 편 의 점","category":"other"}]},{"lat":"37.949574964","long":"127.23104331","imageIndex":17,"items":[{"name":"GS25포천신평공단점","tel":"","addr":"경기도 포천시 신북면 신평리 185-6번지","indutype":"유통업 영리 - 편 의 점","category":"other"},{"name":"GS25포천신평공단점","tel":"031-531-0396","addr":"경기도 포천시 신북면 신평리 185-6번지","indutype":"편의점 - 편의점","category":"other"}]},{"lat":"37.944130085","long":"127.22332459","imageIndex":17,"items":[{"name":"J노래연습장","tel":"531-3130","addr":"경기도 포천시 신북면 신평리 110번지 KJ빌딩 202호","indutype":"서비스 - 노래연습장","category":"other"}]},{"lat":"37.952210424","long":"127.22857112","imageIndex":17,"items":[{"name":"광성산업","tel":"031-531-6859","addr":"경기도 포천시 신북면 신평리 202-2번지","indutype":"기타 - 기계공구","category":"other"}]},{"lat":"37.936995864","long":"127.20252042","imageIndex":17,"items":[{"name":"동아아크릴","tel":"02-2274-2507","addr":"경기도 포천시 신북면 신평리 481-15","indutype":"용역 서비스 - 종합용역","category":"other"}]},{"lat":"37.948021335","long":"127.22846729","imageIndex":17,"items":[{"name":"성심자원","tel":"031-535-7904","addr":"경기도 포천시 신북면 신평리 29-5번지 29","indutype":"신변잡화 - 기타잡화","category":"other"}]},{"lat":"37.959043905","long":"127.22621385","imageIndex":17,"items":[{"name":"세명","tel":"031-533-8237","addr":"경기도 포천시 신북면 신평리 224번지 1층","indutype":"직물 - 침구·수예점","category":"other"}]},{"lat":"37.941658798","long":"127.21996125","imageIndex":17,"items":[{"name":"승건산업가스","tel":"","addr":"경기도 포천시 신북면 신평리 314-1번지","indutype":"제조업 - 가스","category":"other"},{"name":"승진산업가스","tel":"","addr":"경기도 포천시 신북면 신평리 314-1번지","indutype":"가스 - 가스","category":"other"}]},{"lat":"37.950019841","long":"127.22926981","imageIndex":17,"items":[{"name":"신평휴게소","tel":"532-0164","addr":"경기도 포천시 신북면 신평리 166-1번지","indutype":"소매업 - 잡화","category":"other"}]},{"lat":"37.950741056","long":"127.22902172","imageIndex":17,"items":[{"name":"씨스페이스 신북점","tel":"031-532-2623","addr":"경기도 포천시 신북면 신평리 159-11번지","indutype":"유통업 영리 - 편 의 점","category":"other"}]},{"lat":"37.939155501","long":"127.21927135","imageIndex":17,"items":[{"name":"아이앤씨 주식회사","tel":"031-745-1116","addr":"경기도 포천시 신북면 신평리 359-2번지 다,라동","indutype":"직물 - 옷감·직물","category":"other"}]},{"lat":"37.94515843","long":"127.22263368","imageIndex":17,"items":[{"name":"윌로펌프서비스","tel":"031-111-1111","addr":"경기도 포천시 신북면 신평리 121-9번지 1층 103호","indutype":"건축자재 - 보일러·펌프·샷시","category":"other"}]},{"lat":"37.95498682","long":"127.22299293","imageIndex":17,"items":[{"name":"정우FNC","tel":"031-532-7350","addr":"경기도 포천시 신북면 신평리 264-21","indutype":"직물 - 기타직물","category":"other"},{"name":"효성인더스트리","tel":"","addr":"경기도 포천시 신북면 신평리 264-21번지","indutype":"직물 - 기타직물","category":"other"}]},{"lat":"37.95282053","long":"127.22988143","imageIndex":17,"items":[{"name":"제일섬유","tel":"031-531-6623","addr":"경기도 포천시 신북면 신평리 200-6, 206-3","indutype":"직물 - 옷감·직물","category":"other"}]},{"lat":"37.937461501","long":"127.21941426","imageIndex":17,"items":[{"name":"주성건업","tel":"031-532-6655","addr":"경기도 포천시 신북면 신평리 602-4번지","indutype":"건축자재 - 기타건축자재","category":"other"}]},{"lat":"37.939822412","long":"127.2141883","imageIndex":17,"items":[{"name":"주식회사 알파히트플랫폼","tel":"031-8089-7315","addr":"경기도 포천시 신북면 신평리 408번지","indutype":"전기제품 - 기타전기제품","category":"other"}]},{"lat":"37.944185693","long":"127.22249427","imageIndex":17,"items":[{"name":"큐마트","tel":"531-9468","addr":"경기도 포천시 신북면 신평리 305-13번지","indutype":"소매업 - 잡화","category":"other"}]},{"lat":"37.927858319","long":"127.21904488","imageIndex":17,"items":[{"name":"포천농축산주식회사","tel":"533-8880","addr":"경기도 포천시 신북면 신평리 647-8번지","indutype":"도소매 - 축산물가공","category":"other"}]}]