[{"lat":"37.273766079","long":"126.95476081","imageIndex":13,"items":[{"name":"345헤어살롱","tel":"031-291-3800","addr":"경기도 수원시 권선구 금곡동 1117-6번지 2층 203호","indutype":"보건위생 - 미용원","category":"beauty"},{"name":"리테일호매실","tel":"031-296-1235","addr":"경기도 수원시 권선구 금곡동 1117-6번지 503호 504호","indutype":"보건위생 - 화장품","category":"beauty"}]},{"lat":"37.274928109","long":"126.95403847","imageIndex":13,"items":[{"name":"BARBARA HAIR","tel":"031-227-7027","addr":"경기도 수원시 권선구 금곡동 1114-1번지 리더스빌딩 203호","indutype":"보건위생 - 미용원","category":"beauty"},{"name":"박승철헤어스투디오 호매실점","tel":"031-298-1003","addr":"경기도 수원시 권선구 금곡동 1114-1번지 리더스빌딩 2층 202호","indutype":"보건위생 - 미용원","category":"beauty"}]},{"lat":"37.273378169","long":"126.9536223","imageIndex":13,"items":[{"name":"K헤어","tel":"031-297-7311","addr":"경기도 수원시 권선구 금곡동 1118-6번지 거성빌딩 110호","indutype":"보건위생 - 미용원","category":"beauty"},{"name":"스페이스월드(SPACE WORLD)","tel":"031-228-7455","addr":"경기도 수원시 권선구 금곡동 1118-6번지 거설빌딩 1동 202-203호","indutype":"보건위생 - 기타대인서비스","category":"beauty"},{"name":"이연헤어","tel":"031-296-3555","addr":"경기도 수원시 권선구 금곡동 1118-6번지 거성빌딩 1층 104호","indutype":"보건위생 - 미용원","category":"beauty"}]},{"lat":"37.275180082","long":"126.95328287","imageIndex":13,"items":[{"name":"N5헤어룸","tel":"031-227-7586","addr":"경기도 수원시 권선구 금곡동 1109번지 GOOD프라임빌딩 2층 202호","indutype":"보건위생 - 미용원","category":"beauty"},{"name":"쥬빌라티케어","tel":"031-292-8480","addr":"경기도 수원시 권선구 금곡동 1109번지 GOOD프라임빌딩 301,302호","indutype":"보건위생 - 화장품","category":"beauty"}]},{"lat":"37.269512442","long":"126.95286945","imageIndex":13,"items":[{"name":"가위손헤어테크","tel":"031-293-6399","addr":"경기도 수원시 권선구 금곡동 262-10번지 신미주상가","indutype":"보건위생 - 미용원","category":"beauty"}]},{"lat":"37.27387733","long":"126.94198629","imageIndex":13,"items":[{"name":"고운자태 바른척추교정원","tel":"031-292-1671","addr":"경기도 수원시 권선구 금곡동 1085-2번지 우성메디피아 2층 201-2호","indutype":"보건위생 - 기타대인서비스","category":"beauty"},{"name":"미다듬헤어","tel":"031-295-7634","addr":"경기도 수원시 권선구 금곡동 1085-2번지 201-1호","indutype":"보건위생 - 미용원","category":"beauty"}]},{"lat":"37.274233842","long":"126.95290015","imageIndex":13,"items":[{"name":"굿모닝보청기 서수원센터","tel":"031-293-9988","addr":"경기도 수원시 권선구 금곡동 1113-4번지 해피라움 204호","indutype":"보건위생 - 의료용품","category":"beauty"},{"name":"네일부터1일","tel":"","addr":"경기도 수원시 권선구 금곡동 1113-4번지 해피라움 2층 214호","indutype":"보건위생 - 피부미용실","category":"beauty"},{"name":"다비치안경호매실홈플러스앞점","tel":"031-296-3579","addr":"경기도 수원시 권선구 금곡동 1113-4번지 해피라움 205-206호,114호","indutype":"보건위생 - 안경","category":"beauty"},{"name":"몰디브태닝","tel":"031-293-1212","addr":"경기도 수원시 권선구 금곡동 1113-4번지 해피라움 304호","indutype":"보건위생 - 피부미용실","category":"beauty"},{"name":"킹덤헤어샵","tel":"031-246-9887","addr":"경기도 수원시 권선구 금곡동 1113-4번지 해피라움 2층 207호","indutype":"보건위생 - 미용원","category":"beauty"},{"name":"하온심리상담센터","tel":"031-227-2248","addr":"경기도 수원시 권선구 금곡동 1113-4번지 해피라움 409호","indutype":"보건위생 - 기타대인서비스","category":"beauty"}]},{"lat":"37.269179341","long":"126.95353484","imageIndex":13,"items":[{"name":"꽃씨미용실","tel":"031-297-6106","addr":"경기도 수원시 권선구 금곡동 245-68번지","indutype":"보건위생 - 미용원","category":"beauty"}]},{"lat":"37.278568485","long":"126.95458862","imageIndex":13,"items":[{"name":"끌레오헤어칼라","tel":"031-227-4649","addr":"경기도 수원시 권선구 금곡동 47-6번지","indutype":"보건위생 - 미용원","category":"beauty"}]},{"lat":"37.272705533","long":"126.94109653","imageIndex":13,"items":[{"name":"나이스가이 호매실점","tel":"031-297-1577","addr":"경기도 수원시 권선구 금곡동 1083번지 폴리프라자 1층 113호","indutype":"보건위생 - 미용원","category":"beauty"},{"name":"네일또와","tel":"031-227-4179","addr":"경기도 수원시 권선구 금곡동 1083번지 폴리프라자 102호","indutype":"보건위생 - 피부미용실","category":"beauty"},{"name":"라인스킨케어","tel":"031-298-5623","addr":"경기도 수원시 권선구 금곡동 1083번지 308호","indutype":"보건위생 - 피부미용실","category":"beauty"},{"name":"민블리뷰티샵","tel":"031-278-5339","addr":"경기도 수원시 권선구 금곡동 1083번지 플리프라자 304호","indutype":"보건위생 - 피부미용실","category":"beauty"},{"name":"세리살롱","tel":"031-292-0529","addr":"경기도 수원시 권선구 금곡동 1083번지 폴리프라자 101호","indutype":"보건위생 - 미용원","category":"beauty"}]},{"lat":"37.275542165","long":"126.93809503","imageIndex":13,"items":[{"name":"내츄럴 휴 화장품","tel":"","addr":"경기도 수원시 권선구 금곡동 1078번지 수원모아미래도센트럴타운1단지 상가동 129호","indutype":"보건위생 - 화장품","category":"beauty"},{"name":"담이헤어","tel":"031-000-0000","addr":"경기도 수원시 권선구 금곡동 1078번지 수원모아미래도센트럴타운1단지 상가동 B107호","indutype":"보건위생 - 미용원","category":"beauty"},{"name":"더뷰(view)","tel":"031-292-9550","addr":"경기도 수원시 권선구 금곡동 1078번지 수원모아미래도센트럴타운1단지 상가동제비 126호","indutype":"보건위생 - 미용원","category":"beauty"},{"name":"연애","tel":"","addr":"경기도 수원시 권선구 금곡동 1078번지 수원모아미래도센트럴타운1단지 상가동 B122호","indutype":"보건위생 - 미용원","category":"beauty"},{"name":"오늘은","tel":"031-296-3002","addr":"경기도 수원시 권선구 금곡동 1078번지 수원모아미래도센트럴타운1단지 상가동 B130호","indutype":"보건위생 - 미용원","category":"beauty"},{"name":"제이엔제이헤어(J&J헤어)","tel":"031-293-8942","addr":"경기도 수원시 권선구 금곡동 1078번지 수원모아미래도센트럴타운1단지 B114호","indutype":"보건위생 - 미용원","category":"beauty"}]},{"lat":"37.27548934","long":"126.9403952","imageIndex":13,"items":[{"name":"네일, 더예쁨","tel":"031-294-4147","addr":"경기도 수원시 권선구 금곡동 1077번지 수원모아미래도센트럴타운2단지 지층 B211호","indutype":"보건위생 - 피부미용실","category":"beauty"},{"name":"눈안경","tel":"031-295-3077","addr":"경기도 수원시 권선구 금곡동 1077번지 수원모아미래도센트럴타운2단지 상가동 B220호,B221호","indutype":"보건위생 - 안경","category":"beauty"},{"name":"더엘(THE.L)","tel":"031-227-1478","addr":"경기도 수원시 권선구 금곡동 1077번지 수원모아미래도센트럴타운2단지 상가동 B225호","indutype":"보건위생 - 미용원","category":"beauty"},{"name":"민헤어 (MIn hair)","tel":"031-291-5888","addr":"경기도 수원시 권선구 금곡동 1077번지 수원모아미래도센트럴타운2단지 B동 212호","indutype":"보건위생 - 미용원","category":"beauty"},{"name":"살롱유(SALON U)","tel":"031-298-8885","addr":"경기도 수원시 권선구 금곡동 1077번지 수원모아미래도센트럴타운2단지 상가동 B207호","indutype":"보건위생 - 미용원","category":"beauty"}]},{"lat":"37.27218334","long":"126.94187491","imageIndex":13,"items":[{"name":"네일두","tel":"031-292-9873","addr":"경기도 수원시 권선구 금곡동 1086-2번지 101호","indutype":"보건위생 - 피부미용실","category":"beauty"}]},{"lat":"37.274072226","long":"126.95426452","imageIndex":13,"items":[{"name":"네일바이써니","tel":"031-292-9094","addr":"경기도 수원시 권선구 금곡동 1117번지 우성메디피아2 1층 126호","indutype":"보건위생 - 피부미용실","category":"beauty"},{"name":"모모살롱(momosalon)","tel":"031-298-8823","addr":"경기도 수원시 권선구 금곡동 1117번지 호매실우성메디피아2 123호","indutype":"보건위생 - 피부미용실","category":"beauty"},{"name":"살롱드라이","tel":"031-278-2520","addr":"경기도 수원시 권선구 금곡동 1117번지 202호","indutype":"보건위생 - 미용원","category":"beauty"},{"name":"햇살가득상담센터","tel":"031-293-9120","addr":"경기도 수원시 권선구 금곡동 1117번지 302호","indutype":"보건위생 - 기타대인서비스","category":"beauty"},{"name":"햇살가득한발달상담센터","tel":"031-298-9120","addr":"경기도 수원시 권선구 금곡동 1117번지 302호","indutype":"보건위생 - 기타대인서비스","category":"beauty"}]},{"lat":"37.273567613","long":"126.95417465","imageIndex":13,"items":[{"name":"네일빛나는밤","tel":"031-295-1217","addr":"경기도 수원시 권선구 금곡동 1117-4번지 HY프라자 1층 109호","indutype":"보건위생 - 피부미용실","category":"beauty"}]},{"lat":"37.273404778","long":"126.95261883","imageIndex":13,"items":[{"name":"다온 안경원","tel":"031-278-7718","addr":"경기도 수원시 권선구 금곡동 1118번지","indutype":"보건위생 - 안경","category":"beauty"},{"name":"동인비 서수원지사","tel":"070-8229-5186","addr":"경기도 수원시 권선구 금곡동 1118번지 2층 212호 E-SPACECITY 1","indutype":"보건위생 - 화장품","category":"beauty"},{"name":"마법의손길","tel":"031-225-7988","addr":"경기도 수원시 권선구 금곡동 1118번지 2층203호,E-SPACECITY 1","indutype":"보건위생 - 피부미용실","category":"beauty"},{"name":"마법의손길","tel":"","addr":"경기도 수원시 권선구 금곡동 1118번지 e-SPACE CITY-l, 203호","indutype":"보건위생 - 피부미용실","category":"beauty"},{"name":"스타일맨(styleM)","tel":"","addr":"경기도 수원시 권선구 금곡동 1118번지 E-SPACECITY 1층 107호","indutype":"보건위생 - 미용원","category":"beauty"},{"name":"오제이헤어","tel":"031-293-5656","addr":"경기도 수원시 권선구 금곡동 1118번지 e-SPACE CITY-1 314호","indutype":"보건위생 - 미용원","category":"beauty"},{"name":"헤어팡팡 호매실점","tel":"031-292-4244","addr":"경기도 수원시 권선구 금곡동 1118번지 e-SPACE CITY-1 204호","indutype":"보건위생 - 미용원","category":"beauty"}]},{"lat":"37.270766265","long":"126.95628477","imageIndex":13,"items":[{"name":"다헤어(Dahair)","tel":"031-258-8883","addr":"경기도 수원시 권선구 금곡동 243번지 동성아파트 상가동 102호","indutype":"보건위생 - 미용원","category":"beauty"}]},{"lat":"37.273210483","long":"126.94181771","imageIndex":13,"items":[{"name":"라브리지","tel":"031-295-0102","addr":"경기도 수원시 권선구 금곡동 1085번지 2층 208~209호","indutype":"보건위생 - 미용원","category":"beauty"},{"name":"민에스테틱","tel":"070-7729-6051","addr":"경기도 수원시 권선구 금곡동 1085번지 비즈웍스 4층 420호","indutype":"보건위생 - 피부미용실","category":"beauty"},{"name":"바라봄안경","tel":"031-295-1085","addr":"경기도 수원시 권선구 금곡동 1085번지 비즈웍스 115호","indutype":"보건위생 - 안경","category":"beauty"},{"name":"아이원언어발달센터(서수원점)","tel":"031-295-3538","addr":"경기도 수원시 권선구 금곡동 1085번지 비즈웍스 5층 531,532,533호","indutype":"보건위생 - 기타대인서비스","category":"beauty"},{"name":"오렌지H","tel":"031-223-5214","addr":"경기도 수원시 권선구 금곡동 1085번지 비즈웍스 1250호","indutype":"보건위생 - 피부미용실","category":"beauty"},{"name":"제이미스타일","tel":"031-295-1813","addr":"경기도 수원시 권선구 금곡동 1085번지 224~225호","indutype":"보건위생 - 미용원","category":"beauty"},{"name":"주앤유","tel":"02-1234-1234","addr":"경기도 수원시 권선구 금곡동 1085번지 비즈웍스 325호","indutype":"보건위생 - 피부미용실","category":"beauty"},{"name":"코코네일","tel":"031-227-4182","addr":"경기도 수원시 권선구 금곡동 1085번지 비즈웍스 4층 406호","indutype":"보건위생 - 피부미용실","category":"beauty"},{"name":"코코스킨앤바디","tel":"031-291-6263","addr":"경기도 수원시 권선구 금곡동 1085번지 비즈웍스 318호","indutype":"보건위생 - 피부미용실","category":"beauty"}]},{"lat":"37.268819009","long":"126.95372674","imageIndex":13,"items":[{"name":"러블리네일#","tel":"","addr":"경기도 수원시 권선구 금곡동 245-34번지 2층","indutype":"보건위생 - 피부미용실","category":"beauty"},{"name":"러블리피부샵","tel":"031-291-0893","addr":"경기도 수원시 권선구 금곡동 245-34번지 2층","indutype":"보건위생 - 피부미용실","category":"beauty"}]},{"lat":"37.268793709","long":"126.9385405","imageIndex":13,"items":[{"name":"로맨틱가이","tel":"031-000-0000","addr":"경기도 수원시 권선구 금곡동 778-12번지","indutype":"보건위생 - 미용원","category":"beauty"}]},{"lat":"37.27309918","long":"126.95442299","imageIndex":13,"items":[{"name":"로엠303","tel":"070-7543-4789","addr":"경기도 수원시 권선구 금곡동 1124번지 광일프라자 208호","indutype":"보건위생 - 미용원","category":"beauty"}]},{"lat":"37.272740559","long":"126.95901203","imageIndex":13,"items":[{"name":"루1821","tel":"031-296-4096","addr":"경기도 수원시 권선구 금곡동 1129-2번지 1층 107호","indutype":"보건위생 - 미용원","category":"beauty"}]},{"lat":"37.278316004","long":"126.95411521","imageIndex":13,"items":[{"name":"루시헤어","tel":"031-000-0000","addr":"경기도 수원시 권선구 금곡동 77-8번지 102호","indutype":"보건위생 - 미용원","category":"beauty"}]},{"lat":"37.272705849","long":"126.94170537","imageIndex":13,"items":[{"name":"리안헤어 호매실점","tel":"031-297-7012","addr":"경기도 수원시 권선구 금곡동 1086번지 304호","indutype":"보건위생 - 미용원","category":"beauty"},{"name":"헨느네일","tel":"031-278-4101","addr":"경기도 수원시 권선구 금곡동 1086번지 센트럴프라자아파트 403호","indutype":"보건위생 - 피부미용실","category":"beauty"}]},{"lat":"37.273958734","long":"126.94259507","imageIndex":13,"items":[{"name":"린헤어","tel":"031-267-0670","addr":"경기도 수원시 권선구 금곡동 1085-3번지 호매실택지개발지구준주거2블록2롯트이수프라자3층304호","indutype":"보건위생 - 미용원","category":"beauty"},{"name":"아리따움","tel":"031-291-1230","addr":"경기도 수원시 권선구 금곡동 1085-3번지 4층 408호","indutype":"보건위생 - 화장품","category":"beauty"},{"name":"아리따움 수원금곡점","tel":"034-291-0785","addr":"경기도 수원시 권선구 금곡동 1085-3번지 106-2호","indutype":"보건위생 - 화장품","category":"beauty"}]},{"lat":"37.274017323","long":"126.95225762","imageIndex":13,"items":[{"name":"마법의손","tel":"031-292-3639","addr":"경기도 수원시 권선구 금곡동 1113-5번지 2층 206호","indutype":"보건위생 - 피부미용실","category":"beauty"}]},{"lat":"37.269793706","long":"126.95770593","imageIndex":13,"items":[{"name":"맨즈클럽","tel":"031-227-7045","addr":"경기도 수원시 권선구 금곡동 240-27번지","indutype":"보건위생 - 미용원","category":"beauty"}]},{"lat":"37.272371292","long":"126.95942941","imageIndex":13,"items":[{"name":"메디칼의료기","tel":"031-0000-0000","addr":"경기도 수원시 권선구 금곡동 1142번지 성광프라자 109호","indutype":"보건위생 - 의료용품","category":"beauty"}]},{"lat":"37.27306686","long":"126.94287765","imageIndex":13,"items":[{"name":"메신저","tel":"031-277-9719","addr":"경기도 수원시 권선구 금곡동 1088-2번지 리치빌딩 110호","indutype":"보건위생 - 미용재료","category":"beauty"}]},{"lat":"37.273648208","long":"126.95297946","imageIndex":13,"items":[{"name":"명품뷰티김인선","tel":"070-8112-6221","addr":"경기도 수원시 권선구 금곡동 1118-1번지 세종타운721 422호","indutype":"보건위생 - 화장품","category":"beauty"},{"name":"보그헤어","tel":"031-298-8828","addr":"경기도 수원시 권선구 금곡동 1118-1번지 세종타운 721동 201호","indutype":"보건위생 - 미용원","category":"beauty"},{"name":"커틸다헤어살롱","tel":"031-291-4341","addr":"경기도 수원시 권선구 금곡동 1118-1번지 세종타운721 2층 205호","indutype":"보건위생 - 미용원","category":"beauty"},{"name":"헬스키","tel":"031-256-7017","addr":"경기도 수원시 권선구 금곡동 1118-1번지 세종타운721 7층 719호","indutype":"보건위생 - 화장품","category":"beauty"}]},{"lat":"37.27507256","long":"126.95473743","imageIndex":13,"items":[{"name":"모유사랑","tel":"031-892-6780","addr":"경기도 수원시 권선구 금곡동 1115-4번지 딜라이트2 210호","indutype":"보건위생 - 기타대인서비스","category":"beauty"},{"name":"프롬뷰티크(From Beautique)","tel":"","addr":"경기도 수원시 권선구 금곡동 1115-4번지 딜라이트2 1층 126호","indutype":"보건위생 - 피부미용실","category":"beauty"}]},{"lat":"37.272595989","long":"126.95792975","imageIndex":13,"items":[{"name":"미용,하나","tel":"031-293-6050","addr":"경기도 수원시 권선구 금곡동 1130-1번지 1층","indutype":"보건위생 - 미용원","category":"beauty"},{"name":"햅번","tel":"031-246-2727","addr":"경기도 수원시 권선구 금곡동 1130-1번지 1층","indutype":"보건위생 - 화장품","category":"beauty"}]},{"lat":"37.272183962","long":"126.94309257","imageIndex":13,"items":[{"name":"바오살롱","tel":"","addr":"경기도 수원시 권선구 금곡동 1091-3번지 1층 102호","indutype":"보건위생 - 미용원","category":"beauty"}]},{"lat":"37.273373221","long":"126.94289996","imageIndex":13,"items":[{"name":"비아이하우스(Bi HOUSE)","tel":"031-295-4096","addr":"경기도 수원시 권선구 금곡동 1088-1번지 일담타워 109호","indutype":"보건위생 - 미용원","category":"beauty"},{"name":"일층미용실","tel":"070-8817-5576","addr":"경기도 수원시 권선구 금곡동 1088-1번지 일담타워 1층 106호","indutype":"보건위생 - 미용원","category":"beauty"}]},{"lat":"37.269317009","long":"126.93984786","imageIndex":13,"items":[{"name":"샤이니헤어","tel":"031-297-7233","addr":"경기도 수원시 권선구 금곡동 1100번지 칠보마을6단지 상가동 1층 102호","indutype":"보건위생 - 미용원","category":"beauty"},{"name":"올네이션 경기중부지사","tel":"070-7862-1619","addr":"경기도 수원시 권선구 금곡동 1100번지 칠보마을6단지 607동 1603호","indutype":"보건위생 - 화장품","category":"beauty"}]},{"lat":"37.274765737","long":"126.95358757","imageIndex":13,"items":[{"name":"샵(#)816Hair","tel":"031-548-2237","addr":"경기도 수원시 권선구 금곡동 1114번지 딜라이트타워 1층 115호","indutype":"보건위생 - 미용원","category":"beauty"},{"name":"수샵 (SU:SHOP)","tel":"031-294-4847","addr":"경기도 수원시 권선구 금곡동 1114번지 208호","indutype":"보건위생 - 미용원","category":"beauty"},{"name":"주식회사 유락컴퍼니","tel":"031-0000-0000","addr":"경기도 수원시 권선구 금곡동 1114번지 1동 717호","indutype":"보건위생 - 안경","category":"beauty"}]},{"lat":"37.272317299","long":"126.93959732","imageIndex":13,"items":[{"name":"샵(#)헤어감성","tel":"031-278-5157","addr":"경기도 수원시 권선구 금곡동 1081번지 가상가동 105호","indutype":"보건위생 - 미용원","category":"beauty"},{"name":"에벤에셀","tel":"070-7519-5614","addr":"경기도 수원시 권선구 금곡동 1081번지 수원호매실휴먼시아5단지 516동 1604호","indutype":"보건위생 - 화장품","category":"beauty"},{"name":"컷트클럽","tel":"031-297-2979","addr":"경기도 수원시 권선구 금곡동 1081번지 수원호매실휴먼시아5단지아파트 나동 103호","indutype":"보건위생 - 미용원","category":"beauty"}]},{"lat":"37.268406297","long":"126.9385972","imageIndex":13,"items":[{"name":"솔로몬독서실","tel":"031-293-5314","addr":"경기도 수원시 권선구 금곡동 779-8번지","indutype":"보건위생 - 기타대인서비스","category":"beauty"}]},{"lat":"37.269343244","long":"126.93837092","imageIndex":13,"items":[{"name":"수힐링","tel":"070-4355-1355","addr":"경기도 수원시 권선구 금곡동 757-12번지 2층","indutype":"보건위생 - 화장품","category":"beauty"}]},{"lat":"37.273786836","long":"126.94123095","imageIndex":13,"items":[{"name":"신기한토르마린(찜질방)","tel":"031-278-4408","addr":"경기도 수원시 권선구 금곡동 1082번지 405호","indutype":"보건위생 - 사우나","category":"beauty"},{"name":"와우보청기","tel":"070-4457-5084","addr":"경기도 수원시 권선구 금곡동 1082번지 304호","indutype":"보건위생 - 의료용품","category":"beauty"},{"name":"펌앤컷헤어샵","tel":"031-295-3998","addr":"경기도 수원시 권선구 금곡동 1082번지 1층 115호","indutype":"보건위생 - 미용원","category":"beauty"}]},{"lat":"37.273264828","long":"126.94237013","imageIndex":13,"items":[{"name":"싸롱드제이(SALON DE J)","tel":"031-292-0078","addr":"경기도 수원시 권선구 금곡동 1088번지 1층","indutype":"보건위생 - 미용원","category":"beauty"}]},{"lat":"37.273208108","long":"126.95642983","imageIndex":13,"items":[{"name":"아름다운얼굴","tel":"031-292-3207","addr":"경기도 수원시 권선구 금곡동 1125-3번지 1층 111호","indutype":"보건위생 - 화장품","category":"beauty"}]},{"lat":"37.273318261","long":"126.9411524","imageIndex":13,"items":[{"name":"아마레헤어","tel":"031-291-4284","addr":"경기도 수원시 권선구 금곡동 1082-1번지 206호","indutype":"보건위생 - 미용원","category":"beauty"}]},{"lat":"37.273814782","long":"126.94301235","imageIndex":13,"items":[{"name":"아이데코 안경원","tel":"031-293-6006","addr":"경기도 수원시 권선구 금곡동 1085-4번지 유동타워 1층 108,109호","indutype":"보건위생 - 안경","category":"beauty"},{"name":"이민헤어혼 호매실점","tel":"031-278-3688","addr":"경기도 수원시 권선구 금곡동 1085-4번지 유동타워 2층 204호","indutype":"보건위생 - 미용원","category":"beauty"}]},{"lat":"37.2704849","long":"126.95134676","imageIndex":13,"items":[{"name":"아인스","tel":"","addr":"경기도 수원시 권선구 금곡동 1147번지 호반베르디움더센트럴 209동 102호","indutype":"보건위생 - 화장품","category":"beauty"},{"name":"올가스킨","tel":"","addr":"경기도 수원시 권선구 금곡동 1147번지 호반베르디움더센트럴 310동 2층 207호","indutype":"보건위생 - 피부미용실","category":"beauty"},{"name":"헤어스타일N","tel":"031-362-6000","addr":"경기도 수원시 권선구 금곡동 1147번지 호반베르디움더센트럴 310동 102호","indutype":"보건위생 - 미용원","category":"beauty"}]},{"lat":"37.271795997","long":"126.94206689","imageIndex":13,"items":[{"name":"에프터눈","tel":"","addr":"경기도 수원시 권선구 금곡동 1087번지 202호","indutype":"보건위생 - 미용원","category":"beauty"}]},{"lat":"37.272706093","long":"126.9421789","imageIndex":13,"items":[{"name":"엔오스타일헤어(11호점)","tel":"031-227-7585","addr":"경기도 수원시 권선구 금곡동 1089번지 건우프라자 203호","indutype":"보건위생 - 미용원","category":"beauty"},{"name":"엔오스타일헤어(11호점)","tel":"031-227-7585","addr":"경기도 수원시 권선구 금곡동 1089번지 건우프라자 203호","indutype":"보건위생 - 화장품","category":"beauty"}]},{"lat":"37.270072951","long":"126.9575141","imageIndex":13,"items":[{"name":"염색체험방","tel":"031-308-4288","addr":"경기도 수원시 권선구 금곡동 243-3번지 상가 1층","indutype":"보건위생 - 화장품","category":"beauty"}]},{"lat":"37.268955132","long":"126.95611677","imageIndex":13,"items":[{"name":"오채헤어뉴스","tel":"031-291-4351","addr":"경기도 수원시 권선구 금곡동 242-34번지 1층","indutype":"보건위생 - 미용원","category":"beauty"}]},{"lat":"37.272735463","long":"126.94692554","imageIndex":13,"items":[{"name":"올맨","tel":"031-227-4460","addr":"경기도 수원시 권선구 금곡동 1095번지 휴먼시아8단지 상가동 107호","indutype":"보건위생 - 미용원","category":"beauty"}]},{"lat":"37.277621705","long":"126.95289791","imageIndex":13,"items":[{"name":"이은희헤어샵","tel":"031-298-6383","addr":"경기도 수원시 권선구 금곡동 104-3번지 거산 상가 103호","indutype":"보건위생 - 미용원","category":"beauty"}]},{"lat":"37.269739571","long":"126.9575143","imageIndex":13,"items":[{"name":"중앙안경","tel":"031-291-4411","addr":"경기도 수원시 권선구 금곡동 241-3번지","indutype":"보건위생 - 안경","category":"beauty"},{"name":"희앤헤어","tel":"031-292-0460","addr":"경기도 수원시 권선구 금곡동 241-3번지","indutype":"보건위생 - 미용원","category":"beauty"}]},{"lat":"37.270071326","long":"126.95345534","imageIndex":13,"items":[{"name":"청옥목욕탕","tel":"031-295-5274","addr":"경기도 수원시 권선구 금곡동 245-3번지","indutype":"보건위생 - 사우나","category":"beauty"}]},{"lat":"37.269514427","long":"126.93834823","imageIndex":13,"items":[{"name":"커플헤어룩","tel":"031-294-9911","addr":"경기도 수원시 권선구 금곡동 757-11번지 남미빌딩 103호","indutype":"보건위생 - 미용원","category":"beauty"}]},{"lat":"37.26998308","long":"126.95812296","imageIndex":13,"items":[{"name":"컷트클럽","tel":"031-297-2481","addr":"경기도 수원시 권선구 금곡동 240-17번지","indutype":"보건위생 - 미용원","category":"beauty"}]},{"lat":"37.27090247","long":"126.95903565","imageIndex":13,"items":[{"name":"퀸스헤어","tel":"031-292-3339","addr":"경기도 수원시 권선구 금곡동 1138-1번지 102호","indutype":"보건위생 - 미용원","category":"beauty"}]},{"lat":"37.275152209","long":"126.93365298","imageIndex":13,"items":[{"name":"키즈더마","tel":"031-294-7502","addr":"경기도 수원시 권선구 금곡동 520번지 엘지빌리지 종합상가 319호","indutype":"보건위생 - 화장품","category":"beauty"},{"name":"프린세스 헤어","tel":"031-251-8852","addr":"경기도 수원시 권선구 금곡동 520번지 LG빌리지 종합상가 116호","indutype":"보건위생 - 미용원","category":"beauty"}]},{"lat":"37.272011842","long":"126.94128877","imageIndex":13,"items":[{"name":"토리헤어","tel":"031-291-0021","addr":"경기도 수원시 권선구 금곡동 1083-2번지 호매실주공프라자 203호,204호","indutype":"보건위생 - 미용원","category":"beauty"}]},{"lat":"37.272679206","long":"126.94246079","imageIndex":13,"items":[{"name":"퓨어 아로마","tel":"031-295-2004","addr":"경기도 수원시 권선구 금곡동 1089-1번지 3층 301호","indutype":"보건위생 - 화장품","category":"beauty"}]},{"lat":"37.272793107","long":"126.93642872","imageIndex":13,"items":[{"name":"행복한안경","tel":"031-297-0047","addr":"경기도 수원시 권선구 금곡동 530 LG상가128","indutype":"보건위생 - 안경","category":"beauty"}]},{"lat":"37.272625425","long":"126.9430133","imageIndex":13,"items":[{"name":"헤네스","tel":"031-294-4945","addr":"경기도 수원시 권선구 금곡동 1089-3번지 1층","indutype":"보건위생 - 미용원","category":"beauty"}]},{"lat":"37.273684862","long":"126.95445644","imageIndex":13,"items":[{"name":"헤어 오도어","tel":"","addr":"경기도 수원시 권선구 금곡동 1117-5번지 102호","indutype":"보건위생 - 미용원","category":"beauty"}]},{"lat":"37.273288635","long":"126.95500916","imageIndex":13,"items":[{"name":"헤어메이드104","tel":"031-291-3858","addr":"경기도 수원시 권선구 금곡동 1124-2번지 CM타워 3층 306호","indutype":"보건위생 - 미용원","category":"beauty"}]},{"lat":"37.271262243","long":"126.95734427","imageIndex":13,"items":[{"name":"헤어클로제","tel":"031-298-5315","addr":"경기도 수원시 권선구 금곡동 1135-3번지","indutype":"보건위생 - 미용원","category":"beauty"}]},{"lat":"37.271289399","long":"126.95767121","imageIndex":13,"items":[{"name":"화보리헤어36.5","tel":"031-294-2950","addr":"경기도 수원시 권선구 금곡동 1135-6번지 102호","indutype":"보건위생 - 미용원","category":"beauty"}]},{"lat":"37.272426542","long":"126.94172814","imageIndex":13,"items":[{"name":"화보리헤어36.5(호매실점)","tel":"031-269-3006","addr":"경기도 수원시 권선구 금곡동 1086-1번지 센트럴프라자B 201호","indutype":"보건위생 - 미용원","category":"beauty"}]},{"lat":"37.273073733","long":"126.95845938","imageIndex":13,"items":[{"name":"힐링","tel":"031-000-0000","addr":"경기도 수원시 권선구 금곡동 1129번지 301호","indutype":"보건위생 - 미용재료","category":"beauty"}]}]