[{"lat":"37.279214151","long":"127.10015731","imageIndex":13,"items":[{"name":"(주)메디이노","tel":"02-422-5199","addr":"경기도 용인시 기흥구 신갈동 400번지 (2층지하1층)","indutype":"보건위생 - 의료용품","category":"beauty"}]},{"lat":"37.27429752","long":"127.10724293","imageIndex":13,"items":[{"name":"J헤어","tel":"031-9999-9999","addr":"경기도 용인시 기흥구 신갈동 40-31번지 해님종합설비 1층 2호","indutype":"보건위생 - 미용원","category":"beauty"}]},{"lat":"37.272765795","long":"127.10721827","imageIndex":13,"items":[{"name":"e-예찬치과기공소","tel":"031-282-2829","addr":"경기도 용인시 기흥구 신갈동 53번지","indutype":"보건위생 - 의료용품","category":"beauty"}]},{"lat":"37.289846224","long":"127.11060247","imageIndex":13,"items":[{"name":"가위소리","tel":"031-286-3329","addr":"경기도 용인시 기흥구 신갈동 681번지 녹원마을새천년그린빌 상가동 101-1호","indutype":"보건위생 - 미용원","category":"beauty"}]},{"lat":"37.273235905","long":"127.10541495","imageIndex":13,"items":[{"name":"가위소리헤어모드 미용실","tel":"031-283-1341","addr":"경기도 용인시 기흥구 신갈동 57-13번지 1층","indutype":"보건위생 - 미용원","category":"beauty"}]},{"lat":"37.275234836","long":"127.10696235","imageIndex":13,"items":[{"name":"강문정헤어센스","tel":"031-282-2467","addr":"경기도 용인시 기흥구 신갈동 17-16","indutype":"보건위생 - 미용원","category":"beauty"}]},{"lat":"37.274796908","long":"127.11297133","imageIndex":13,"items":[{"name":"권모발","tel":"031-282-3802","addr":"경기도 용인시 기흥구 신갈동 66-8번지 3층","indutype":"보건위생 - 미용재료","category":"beauty"},{"name":"세븐","tel":"031-282-2676","addr":"경기도 용인시 기흥구 신갈동 66-8번지 2층","indutype":"보건위생 - 화장품","category":"beauty"}]},{"lat":"37.273818514","long":"127.1088884","imageIndex":13,"items":[{"name":"규은헤어","tel":"031-283-0067","addr":"경기도 용인시 기흥구 신갈동 50번지","indutype":"보건위생 - 미용원","category":"beauty"}]},{"lat":"37.288710399","long":"127.11118726","imageIndex":13,"items":[{"name":"금밭헤어","tel":"031-283-4004","addr":"경기도 용인시 기흥구 신갈동 722번지 월드프라자 107호","indutype":"보건위생 - 미용원","category":"beauty"}]},{"lat":"37.277539387","long":"127.10929953","imageIndex":13,"items":[{"name":"김영빈헤어갤러리","tel":"031-282-1009","addr":"경기도 용인시 기흥구 신갈동 31-2번지 1층 일부","indutype":"보건위생 - 미용원","category":"beauty"}]},{"lat":"37.272791817","long":"127.10835705","imageIndex":13,"items":[{"name":"나나이코스메틱 주식회사","tel":"031-693-9788","addr":"경기도 용인시 기흥구 신갈동 51-10번지 3층","indutype":"보건위생 - 화장품","category":"beauty"}]},{"lat":"37.271990962","long":"127.10716082","imageIndex":13,"items":[{"name":"누가베스트하우스(신갈점)","tel":"031-286-7583","addr":"경기도 용인시 기흥구 신갈동 61-6번지 2층","indutype":"보건위생 - 의료용품","category":"beauty"}]},{"lat":"37.272099669","long":"127.10649577","imageIndex":13,"items":[{"name":"뉴톤보청기용인지사","tel":"031-309-6030","addr":"경기도 용인시 기흥구 신갈동 60-12번지 1층 2호","indutype":"보건위생 - 의료용품","category":"beauty"},{"name":"안경볼래(신갈)","tel":"031-282-1017","addr":"경기도 용인시 기흥구 신갈동 60-12번지 1층","indutype":"보건위생 - 안경","category":"beauty"}]},{"lat":"37.275791741","long":"127.10891372","imageIndex":13,"items":[{"name":"다영(    )헤어","tel":"031-286-3320","addr":"경기도 용인시 기흥구 신갈동 47-16번지 1층 일부호","indutype":"보건위생 - 미용원","category":"beauty"}]},{"lat":"37.272235305","long":"127.1059435","imageIndex":13,"items":[{"name":"대명(DM)","tel":"031-282-3351","addr":"경기도 용인시 기흥구 신갈동 60-19번지 한울고시텔 지하층 9호","indutype":"보건위생 - 화장품","category":"beauty"}]},{"lat":"37.271018604","long":"127.10630262","imageIndex":13,"items":[{"name":"대아미용실","tel":"031-282-8216","addr":"경기도 용인시 기흥구 신갈동 69-2번지","indutype":"보건위생 - 미용원","category":"beauty"}]},{"lat":"37.271153393","long":"127.10671996","imageIndex":13,"items":[{"name":"독일지멘스보청기용인점","tel":"031-282-1588","addr":"경기도 용인시 기흥구 신갈동 69-15번지","indutype":"보건위생 - 의료용품","category":"beauty"},{"name":"서독안경원","tel":"031-283-6500","addr":"경기도 용인시 기흥구 신갈동 69-15번지","indutype":"보건위생 - 안경","category":"beauty"}]},{"lat":"37.288268721","long":"127.11137834","imageIndex":13,"items":[{"name":"듀헤어살롱","tel":"031-274-1021","addr":"경기도 용인시 기흥구 신갈동 725번지 새천년프라자 108호","indutype":"보건위생 - 미용원","category":"beauty"},{"name":"로즈마리헤어","tel":"031-275-0181","addr":"경기도 용인시 기흥구 신갈동 725번지 새천년프라자 103호","indutype":"보건위생 - 미용원","category":"beauty"}]},{"lat":"37.280205854","long":"127.10993473","imageIndex":13,"items":[{"name":"란헤어샵","tel":"031-282-3392","addr":"경기도 용인시 기흥구 신갈동 116-2번지 드림랜드상가 106동 B7층","indutype":"보건위생 - 미용원","category":"beauty"}]},{"lat":"37.271461698","long":"127.10446548","imageIndex":13,"items":[{"name":"럭셔리뷰티 신갈점","tel":"031-281-7480","addr":"경기도 용인시 기흥구 신갈동 469-10번지 3층","indutype":"보건위생 - 화장품","category":"beauty"},{"name":"에스더헤어","tel":"031-281-0608","addr":"경기도 용인시 기흥구 신갈동 469-10번지 2층","indutype":"보건위생 - 미용원","category":"beauty"}]},{"lat":"37.278126072","long":"127.10816153","imageIndex":13,"items":[{"name":"로뎀헤어","tel":"031-286-7533","addr":"경기도 용인시 기흥구 신갈동 14-17번지 106호","indutype":"보건위생 - 미용원","category":"beauty"},{"name":"피부미용","tel":"031-284-0546","addr":"경기도 용인시 기흥구 신갈동 14-17번지 103호","indutype":"보건위생 - 피부미용실","category":"beauty"}]},{"lat":"37.277792813","long":"127.10802576","imageIndex":13,"items":[{"name":"루비헤어","tel":"031-111-1111","addr":"경기도 용인시 기흥구 신갈동 14-20번지 아이들보습학원 102호","indutype":"보건위생 - 미용원","category":"beauty"}]},{"lat":"37.287962794","long":"127.12037693","imageIndex":13,"items":[{"name":"매직헤어","tel":"031-275-0998","addr":"경기도 용인시 기흥구 신갈동 697번지 녹원마을새천년그린빌 상가동 102호","indutype":"보건위생 - 미용원","category":"beauty"},{"name":"미용실세지","tel":"031-693-5914","addr":"경기도 용인시 기흥구 신갈동 697 녹원마을새천년그린빌나상가 104호","indutype":"보건위생 - 미용원","category":"beauty"}]},{"lat":"37.277567406","long":"127.10819458","imageIndex":13,"items":[{"name":"머리날개헤어","tel":"031-281-5688","addr":"경기도 용인시 기흥구 신갈동 28-9번지 수일타운 103호","indutype":"보건위생 - 미용원","category":"beauty"}]},{"lat":"37.276431146","long":"127.10927542","imageIndex":13,"items":[{"name":"머리사랑","tel":"031-308-4025","addr":"경기도 용인시 기흥구 신갈동 32-3번지","indutype":"보건위생 - 미용원","category":"beauty"}]},{"lat":"37.273380049","long":"127.10543769","imageIndex":13,"items":[{"name":"머리창조","tel":"031-281-1237","addr":"경기도 용인시 기흥구 신갈동 57-12번지","indutype":"보건위생 - 미용원","category":"beauty"}]},{"lat":"37.288962044","long":"127.1118868","imageIndex":13,"items":[{"name":"멜로우","tel":"031-281-8833","addr":"경기도 용인시 기흥구 신갈동 714번지 센타프라자 105호","indutype":"보건위생 - 피부미용실","category":"beauty"},{"name":"블루클럽(새천년점)","tel":"031-285-2838","addr":"경기도 용인시 기흥구 신갈동 714번지 센터프라자 110호","indutype":"보건위생 - 미용원","category":"beauty"},{"name":"에코헤어","tel":"031-274-5069","addr":"경기도 용인시 기흥구 신갈동 714번지 센타프라자 2층 203호","indutype":"보건위생 - 미용원","category":"beauty"}]},{"lat":"37.274544934","long":"127.11263271","imageIndex":13,"items":[{"name":"멜로우네일","tel":"031-281-8832","addr":"경기도 용인시 기흥구 신갈동 66-5번지 1층","indutype":"보건위생 - 피부미용실","category":"beauty"}]},{"lat":"37.274540499","long":"127.10758151","imageIndex":13,"items":[{"name":"무지개미용실","tel":"031-286-7100","addr":"경기도 용인시 기흥구 신갈동 44-15번지","indutype":"보건위생 - 미용원","category":"beauty"}]},{"lat":"37.271262803","long":"127.10524316","imageIndex":13,"items":[{"name":"미가","tel":"031-223-5214","addr":"경기도 용인시 기흥구 신갈동 71-2번지","indutype":"보건위생 - 화장품","category":"beauty"}]},{"lat":"37.273296512","long":"127.10822246","imageIndex":13,"items":[{"name":"미스미스타헤어","tel":"031-286-4110","addr":"경기도 용인시 기흥구 신갈동 52-16번지 1층","indutype":"보건위생 - 미용원","category":"beauty"}]},{"lat":"37.279486146","long":"127.09808293","imageIndex":13,"items":[{"name":"박경화스킨케어","tel":"031-285-1918","addr":"경기도 용인시 기흥구 신갈동 402-2번지","indutype":"보건위생 - 화장품","category":"beauty"}]},{"lat":"37.272178948","long":"127.10854786","imageIndex":13,"items":[{"name":"박준뷰티랩(신갈롯데점)","tel":"031-302-2548","addr":"경기도 용인시 기흥구 신갈동 63번지 롯데캐슬스카이 2층","indutype":"보건위생 - 미용원","category":"beauty"},{"name":"쓰리팩토리(3Factory)기흥역점","tel":"031-282-1030","addr":"경기도 용인시 기흥구 신갈동 63번지 롯데스카이몰 1층 27,28호","indutype":"보건위생 - 안경","category":"beauty"}]},{"lat":"37.277043823","long":"127.10929883","imageIndex":13,"items":[{"name":"사임당 용인기흥지사","tel":"031-286-9353","addr":"경기도 용인시 기흥구 신갈동 31-4번지","indutype":"보건위생 - 화장품","category":"beauty"},{"name":"준미용실","tel":"031-285-6944","addr":"경기도 용인시 기흥구 신갈동 31-4번지 정훈빌딩 상가 1층 6호","indutype":"보건위생 - 미용원","category":"beauty"}]},{"lat":"37.273211953","long":"127.10179571","imageIndex":13,"items":[{"name":"살롱드 반해","tel":"","addr":"경기도 용인시 기흥구 신갈동 736번지 신흥덕롯데캐슬레이시티 201동 지하2층 212호","indutype":"보건위생 - 미용원","category":"beauty"}]},{"lat":"37.271100109","long":"127.10582921","imageIndex":13,"items":[{"name":"삼성진화장품","tel":"031-281-0099","addr":"경기도 용인시 기흥구 신갈동 70-9번지 외환은행 602호","indutype":"보건위생 - 화장품","category":"beauty"}]},{"lat":"37.277631535","long":"127.10699947","imageIndex":13,"items":[{"name":"상도메디칼","tel":"070-4922-1261","addr":"경기도 용인시 기흥구 신갈동 17-3번지 제이마트 102호","indutype":"보건위생 - 의료용품","category":"beauty"},{"name":"짱헤어","tel":"031-286-8689","addr":"경기도 용인시 기흥구 신갈동 17-3번지 제이마트 101호","indutype":"보건위생 - 미용원","category":"beauty"}]},{"lat":"37.277602662","long":"127.10907411","imageIndex":13,"items":[{"name":"샤론미용실","tel":"031-281-9093","addr":"경기도 용인시 기흥구 신갈동 31-1번지","indutype":"보건위생 - 미용원","category":"beauty"}]},{"lat":"37.281956665","long":"127.10676863","imageIndex":13,"items":[{"name":"서현헤어","tel":"","addr":"경기도 용인시 기흥구 신갈동 159번지 갈현마을현대홈타운 상가동 102호","indutype":"보건위생 - 미용원","category":"beauty"}]},{"lat":"37.289821493","long":"127.11774094","imageIndex":13,"items":[{"name":"수헤어샵","tel":"031-282-6876","addr":"경기도 용인시 기흥구 신갈동 691 산양마을푸르지오상가 103","indutype":"보건위생 - 미용원","category":"beauty"},{"name":"올가스킨","tel":"031-285-1530","addr":"경기도 용인시 기흥구 신갈동 691번지 상가동 102호","indutype":"보건위생 - 화장품","category":"beauty"}]},{"lat":"37.288403409","long":"127.111886","imageIndex":13,"items":[{"name":"스타일바이에이치(style by H)","tel":"031-285-7217","addr":"경기도 용인시 기흥구 신갈동 717번지 햇살프라자 104호","indutype":"보건위생 - 미용원","category":"beauty"}]},{"lat":"37.277602985","long":"127.1087133","imageIndex":13,"items":[{"name":"스티미용실","tel":"031-286-2306","addr":"경기도 용인시 기흥구 신갈동 30-1번지 1층","indutype":"보건위생 - 미용원","category":"beauty"}]},{"lat":"37.288574603","long":"127.11188624","imageIndex":13,"items":[{"name":"시야안경원","tel":"031-275-5617","addr":"경기도 용인시 기흥구 신갈동 716번지 드림빌딩 104호","indutype":"보건위생 - 안경","category":"beauty"}]},{"lat":"37.276017642","long":"127.10819242","imageIndex":13,"items":[{"name":"아씨머리방","tel":"031-282-2067","addr":"경기도 용인시 기흥구 신갈동 34-5번지 102호","indutype":"보건위생 - 미용원","category":"beauty"}]},{"lat":"37.270965317","long":"127.10541187","imageIndex":13,"items":[{"name":"에이블치과기공소","tel":"031-284-6466","addr":"경기도 용인시 기흥구 신갈동 71-5번지 효경빌딩 4층","indutype":"보건위생 - 의료용품","category":"beauty"}]},{"lat":"37.273909591","long":"127.10779486","imageIndex":13,"items":[{"name":"오늘헤어","tel":"031-275-1119","addr":"경기도 용인시 기흥구 신갈동 52-25번지 한일기업사 1층 101호","indutype":"보건위생 - 미용원","category":"beauty"}]},{"lat":"37.273818119","long":"127.10932812","imageIndex":13,"items":[{"name":"우리헤어샵","tel":"031-283-1263","addr":"경기도 용인시 기흥구 신갈동 50-3번지 1층","indutype":"보건위생 - 미용원","category":"beauty"}]},{"lat":"37.279126531","long":"127.1078021","imageIndex":13,"items":[{"name":"위드테크","tel":"031-284-2512","addr":"경기도 용인시 기흥구 신갈동 2-1번지 상가나동1,2호","indutype":"보건위생 - 의료용품","category":"beauty"}]},{"lat":"37.272658935","long":"127.10577496","imageIndex":13,"items":[{"name":"유니베라신갈대리점","tel":"031-283-4585","addr":"경기도 용인시 기흥구 신갈동 56-1번지 남양알로에 202호","indutype":"보건위생 - 화장품","category":"beauty"}]},{"lat":"37.273043358","long":"127.10919173","imageIndex":13,"items":[{"name":"유니엘헤어살롱","tel":"031-381-6114","addr":"경기도 용인시 기흥구 신갈동 50-9번지 204호","indutype":"보건위생 - 미용원","category":"beauty"}]},{"lat":"37.273402218","long":"127.11090601","imageIndex":13,"items":[{"name":"유한종합의료기","tel":"031-285-3006","addr":"경기도 용인시 기흥구 신갈동 65-7번지","indutype":"보건위생 - 의료용품","category":"beauty"}]},{"lat":"37.277602763","long":"127.10896136","imageIndex":13,"items":[{"name":"은광이발관","tel":"031-283-5981","addr":"경기도 용인시 기흥구 신갈동 31번지","indutype":"보건위생 - 이용원","category":"beauty"}]},{"lat":"37.273653757","long":"127.10143549","imageIndex":13,"items":[{"name":"이도경 미용실","tel":"031-282-4162","addr":"경기도 용인시 기흥구 신갈동 429-24번지","indutype":"보건위생 - 미용원","category":"beauty"}]},{"lat":"37.273574893","long":"127.1092714","imageIndex":13,"items":[{"name":"주식회사 365구급대","tel":"070-4649-1101","addr":"경기도 용인시 기흥구 신갈동 50-5번지 동신빌딩 3층 301호","indutype":"보건위생 - 기타대인서비스","category":"beauty"}]},{"lat":"37.27601851","long":"127.10721148","imageIndex":13,"items":[{"name":"준홍미용실","tel":"031-281-2042","addr":"경기도 용인시 기흥구 신갈동 34-9번지 피자플러스 상가 1층 103호","indutype":"보건위생 - 미용원","category":"beauty"}]},{"lat":"37.273097592","long":"127.10900014","imageIndex":13,"items":[{"name":"지오미용실","tel":"031-285-2030","addr":"경기도 용인시 기흥구 신갈동 50-10번지","indutype":"보건위생 - 미용원","category":"beauty"}]},{"lat":"37.274990301","long":"127.10838267","imageIndex":13,"items":[{"name":"진(Jin)헤어","tel":"","addr":"경기도 용인시 기흥구 신갈동 45번지 유정타운 103호","indutype":"보건위생 - 미용원","category":"beauty"}]},{"lat":"37.274513767","long":"127.10724323","imageIndex":13,"items":[{"name":"진언어학습심리상담소","tel":"031-284-2488","addr":"경기도 용인시 기흥구 신갈동 40-14번지 좋은생각 1층 102호","indutype":"보건위생 - 기타대인서비스","category":"beauty"}]},{"lat":"37.27662927","long":"127.10938845","imageIndex":13,"items":[{"name":"체형척추운동원","tel":"031-284-3011","addr":"경기도 용인시 기흥구 신갈동 32-2번지 신갈중부교회","indutype":"보건위생 - 기타대인서비스","category":"beauty"}]},{"lat":"37.272071855","long":"127.10738643","imageIndex":13,"items":[{"name":"펠리아헤어","tel":"031-281-5677","addr":"경기도 용인시 기흥구 신갈동 62번지 롯데마트신갈점 지하층 2층","indutype":"보건위생 - 미용원","category":"beauty"}]},{"lat":"37.27307372","long":"127.10541473","imageIndex":13,"items":[{"name":"하이인터네셔널","tel":"031-859-7104","addr":"경기도 용인시 기흥구 신갈동 57-14번지","indutype":"보건위생 - 화장품","category":"beauty"}]},{"lat":"37.274071525","long":"127.10807696","imageIndex":13,"items":[{"name":"향기헤어샵","tel":"031-284-6362","addr":"경기도 용인시 기흥구 신갈동 44-11번지 1층","indutype":"보건위생 - 미용원","category":"beauty"}]},{"lat":"37.275235733","long":"127.10593631","imageIndex":13,"items":[{"name":"헤나뷰티샵","tel":"","addr":"경기도 용인시 기흥구 신갈동 17-21번지","indutype":"보건위생 - 미용원","category":"beauty"}]},{"lat":"37.272739693","long":"127.10615841","imageIndex":13,"items":[{"name":"헤어공감","tel":"031-282-1544","addr":"경기도 용인시 기흥구 신갈동 56-3번지 1층","indutype":"보건위생 - 미용원","category":"beauty"}]},{"lat":"37.273992767","long":"127.10541597","imageIndex":13,"items":[{"name":"헤어이발관","tel":"031-282-8968","addr":"경기도 용인시 기흥구 신갈동 57-3번지","indutype":"보건위생 - 이용원","category":"beauty"}]},{"lat":"37.273596394","long":"127.10532524","imageIndex":13,"items":[{"name":"헤어포인트","tel":"031-281-8834","addr":"경기도 용인시 기흥구 신갈동 57-7번지 1층","indutype":"보건위생 - 미용원","category":"beauty"},{"name":"황토보석사우나","tel":"031-282-3319","addr":"경기도 용인시 기흥구 신갈동 57-7번지","indutype":"보건위생 - 사우나","category":"beauty"}]},{"lat":"37.288262883","long":"127.10785989","imageIndex":13,"items":[{"name":"화광","tel":"031-897-9514","addr":"경기도 용인시 기흥구 신갈동 673번지 405호","indutype":"보건위생 - 의료용품","category":"beauty"}]},{"lat":"37.270820772","long":"127.10585138","imageIndex":13,"items":[{"name":"효자발","tel":"031-284-5168","addr":"경기도 용인시 기흥구 신갈동 70-7번지 이레빌딩 401호","indutype":"보건위생 - 화장품","category":"beauty"}]},{"lat":"37.2712349","long":"127.10624655","imageIndex":13,"items":[{"name":"힐링","tel":"070-9144-0385","addr":"경기도 용인시 기흥구 신갈동 69-1번지 4층","indutype":"보건위생 - 기타대인서비스","category":"beauty"}]}]