[{"lat":"37.320284986","long":"127.02325693","imageIndex":4,"items":[{"name":"감나무농원","tel":"","addr":"경기도 수원시 장안구 하광교동 22-1번지 1층","indutype":"일반휴게음식 - 일반한식","category":"restaurant"}]},{"lat":"37.317870916","long":"127.0189242","imageIndex":4,"items":[{"name":"고향농원","tel":"031-239-0246","addr":"경기도 수원시 장안구 하광교동 51번지","indutype":"일반휴게음식 - 일반한식","category":"restaurant"}]},{"lat":"37.315870649","long":"127.01892378","imageIndex":4,"items":[{"name":"광교보리밥","tel":"031-247-8755","addr":"경기도 수원시 장안구 하광교동 107-8번지","indutype":"일반휴게음식 - 일반한식","category":"restaurant"}]},{"lat":"37.301424832","long":"127.03172238","imageIndex":4,"items":[{"name":"광교콩지팥지","tel":"031-245-5077","addr":"경기도 수원시 장안구 하광교동 403-1번지","indutype":"일반휴게음식 - 일반한식","category":"restaurant"},{"name":"바람난 장어","tel":"031-246-5666","addr":"경기도 수원시 장안구 하광교동 403-1번지 지하1,지상1층","indutype":"일반휴게음식 - 일반한식","category":"restaurant"},{"name":"한그릇뚝딱","tel":"031-257-8200","addr":"경기도 수원시 장안구 하광교동 403-1번지 다복빌딩 3층","indutype":"일반휴게음식 - 일반한식","category":"restaurant"}]},{"lat":"37.301262667","long":"127.03164336","imageIndex":4,"items":[{"name":"낭만떡볶이","tel":"031-258-8848","addr":"경기도 수원시 장안구 하광교동 403-13번지","indutype":"일반휴게음식 - 일반한식","category":"restaurant"},{"name":"베이스캠프","tel":"031-248-5815","addr":"경기도 수원시 장안구 하광교동 403-13번지","indutype":"일반휴게음식 - 일반한식","category":"restaurant"},{"name":"커피투고","tel":"031-248-0151","addr":"경기도 수원시 장안구 하광교동 403-13번지 2층","indutype":"일반휴게음식 - 서양음식","category":"restaurant"}]},{"lat":"37.318564917","long":"127.01725468","imageIndex":4,"items":[{"name":"논두렁","tel":"031-245-9476","addr":"경기도 수원시 장안구 하광교동 63-1번지","indutype":"일반휴게음식 - 일반한식","category":"restaurant"}]},{"lat":"37.30111855","long":"127.03145157","imageIndex":4,"items":[{"name":"뜰","tel":"070-4499-2447","addr":"경기도 수원시 장안구 하광교동 403-11번지 1층","indutype":"일반휴게음식 - 서양음식","category":"restaurant"},{"name":"양평해장국","tel":"031-255-5578","addr":"경기도 수원시 장안구 하광교동 403-11번지","indutype":"일반휴게음식 - 일반한식","category":"restaurant"}]},{"lat":"37.309345846","long":"127.02716821","imageIndex":4,"items":[{"name":"문암골","tel":"031-255-4895","addr":"경기도 수원시 장안구 하광교동 310","indutype":"일반휴게음식 - 일반한식","category":"restaurant"}]},{"lat":"37.299515567","long":"127.02772898","imageIndex":4,"items":[{"name":"소담골","tel":"031-247-3222","addr":"경기도 수원시 장안구 하광교동 444-6번지 1층","indutype":"일반휴게음식 - 일반한식","category":"restaurant"}]},{"lat":"37.300209143","long":"127.02872175","imageIndex":4,"items":[{"name":"아람회관","tel":"031-256-2098","addr":"경기도 수원시 장안구 하광교동 406-9번지","indutype":"일반휴게음식 - 일반한식","category":"restaurant"}]},{"lat":"37.315312002","long":"127.01902519","imageIndex":4,"items":[{"name":"자선농원","tel":"031-247-6093","addr":"경기도 수원시 장안구 하광교동 107-5 ,107-9","indutype":"일반휴게음식 - 일반한식","category":"restaurant"}]},{"lat":"37.315618303","long":"127.01936369","imageIndex":4,"items":[{"name":"전원농원","tel":"031-252-4332","addr":"경기도 수원시 장안구 하광교동 106-1번지","indutype":"일반휴게음식 - 일반한식","category":"restaurant"}]},{"lat":"37.301514838","long":"127.03211718","imageIndex":4,"items":[{"name":"착한낙지","tel":"031-245-3400","addr":"경기도 수원시 장안구 하광교동 403-16번지","indutype":"일반휴게음식 - 일반한식","category":"restaurant"}]},{"lat":"37.319231716","long":"127.01689379","imageIndex":4,"items":[{"name":"청화대농원","tel":"031-248-2826","addr":"경기도 수원시 장안구 하광교동 64-1번지 1층","indutype":"일반휴게음식 - 일반한식","category":"restaurant"}]},{"lat":"37.308426377","long":"127.02916448","imageIndex":4,"items":[{"name":"토담집","tel":"031-255-3902","addr":"경기도 수원시 장안구 하광교동 332번지","indutype":"일반휴게음식 - 일반한식","category":"restaurant"}]},{"lat":"37.311733364","long":"127.0280827","imageIndex":4,"items":[{"name":"한솔식당","tel":"031-254-7738","addr":"경기도 수원시 장안구 하광교동 산53-4번지","indutype":"일반휴게음식 - 일반한식","category":"restaurant"}]}]