[{"lat":"37.584151377","long":"127.21050713","imageIndex":13,"items":[{"name":"(주)빌더스개발","tel":"031-111-1111","addr":"경기도 남양주시 와부읍 덕소리 518-10번지 현진빌딩 202호","indutype":"레저업소 - 기타레져업소","category":"leisure"}]},{"lat":"37.586950528","long":"127.21214526","imageIndex":13,"items":[{"name":"J2당구장","tel":"031-576-5200","addr":"경기도 남양주시 와부읍 덕소리 465-1번지 3층","indutype":"레저업소 - 당 구 장","category":"leisure"}]},{"lat":"37.585678283","long":"127.21319462","imageIndex":13,"items":[{"name":"SBS노래연습장","tel":"031-521-2976","addr":"경기도 남양주시 와부읍 덕소리 111-6번지 지층","indutype":"레저업소 - 노 래 방","category":"leisure"}]},{"lat":"37.58483729","long":"127.20984106","imageIndex":13,"items":[{"name":"나이스골프","tel":"031-577-5528","addr":"경기도 남양주시 와부읍 덕소리 567-3번지 레일스타빌딩 406호 405호,406호","indutype":"레저업소 - 골프연습장","category":"leisure"},{"name":"래일스타#PCN","tel":"070-3494-3474","addr":"경기도 남양주시 와부읍 덕소리 567-3번지 레일스타빌딩 3층 1-3호","indutype":"레저업소 - 기타레져업소","category":"leisure"},{"name":"바다노래방","tel":"031-577-9953","addr":"경기도 남양주시 와부읍 덕소리 567-3번지 레일스타 504동 505호","indutype":"레저업소 - 노 래 방","category":"leisure"}]},{"lat":"37.585365196","long":"127.21695253","imageIndex":13,"items":[{"name":"남양주시청/와부체육문화센터","tel":"031-560-1264","addr":"경기도 남양주시 와부읍 덕소리 117-1번지 와부체육문화센터","indutype":"레저업소 - 기타레져업소","category":"leisure"}]},{"lat":"37.586677961","long":"127.21342387","imageIndex":13,"items":[{"name":"다모테 당구클럽","tel":"031-900-2388","addr":"경기도 남양주시 와부읍 덕소리 480-13번지 지층","indutype":"레저업소 - 당 구 장","category":"leisure"}]},{"lat":"37.584563668","long":"127.211731","imageIndex":13,"items":[{"name":"덕소#PCN","tel":"070-8637-8282","addr":"경기도 남양주시 와부읍 덕소리 511-7번지 지하1층","indutype":"레저업소 - 기타레져업소","category":"leisure"},{"name":"매니아당구클럽","tel":"","addr":"경기도 남양주시 와부읍 덕소리 511-7번지 3층 301호","indutype":"레저업소 - 당 구 장","category":"leisure"}]},{"lat":"37.591481748","long":"127.22245019","imageIndex":13,"items":[{"name":"덕소불가마 주식회사","tel":"031-521-3333","addr":"경기도 남양주시 와부읍 덕소리 50번지 IVY Spa 401호","indutype":"레저업소 - 헬스클럽","category":"leisure"},{"name":"아이비골프연습장","tel":"031-577-0611","addr":"경기도 남양주시 와부읍 덕소리 50번지 아이비타워 2층 204호 2","indutype":"레저업소 - 골프연습장","category":"leisure"}]},{"lat":"37.587561661","long":"127.21300744","imageIndex":13,"items":[{"name":"덕소스포츠크리닉선테","tel":"031-521-6545","addr":"경기도 남양주시 와부읍 덕소리 483번지 선플렉스본관 701호","indutype":"레저업소 - 헬스클럽","category":"leisure"},{"name":"비엠레포츠(주)","tel":"031-521-2323","addr":"경기도 남양주시 와부읍 덕소리 483번지 선플렉스 5층","indutype":"레저업소 - 기타레져업소","category":"leisure"},{"name":"에이비씨(ABC) 롤러장","tel":"031-000-0000","addr":"경기도 남양주시 와부읍 덕소리 483번지 지하1층","indutype":"레저업소 - 기타레져업소","category":"leisure"}]},{"lat":"37.588031716","long":"127.21213696","imageIndex":13,"items":[{"name":"덕소주짓수","tel":"031-576-1637","addr":"경기도 남양주시 와부읍 덕소리 461-4번지","indutype":"레저업소 - 헬스클럽","category":"leisure"}]},{"lat":"37.588345422","long":"127.21805931","imageIndex":13,"items":[{"name":"디긋","tel":"031-521-5272","addr":"경기도 남양주시 와부읍 덕소리 163-4번지 풍림빌딩 지하1층","indutype":"레저업소 - 기타레져업소","category":"leisure"}]},{"lat":"37.584754312","long":"127.21091638","imageIndex":13,"items":[{"name":"레츠팟 덕소점","tel":"031-576-0753","addr":"경기도 남양주시 와부읍 덕소리 513번지 2층 일부호","indutype":"레저업소 - 기타레져업소","category":"leisure"},{"name":"제니스","tel":"070-7617-9849","addr":"경기도 남양주시 와부읍 덕소리 513번지 2층","indutype":"레저업소 - 기타레져업소","category":"leisure"}]},{"lat":"37.584590317","long":"127.21194618","imageIndex":13,"items":[{"name":"비원피시방","tel":"070-2544-0078","addr":"경기도 남양주시 와부읍 덕소리 511-8번지 지하1층","indutype":"레저업소 - 기타레져업소","category":"leisure"}]},{"lat":"37.587039701","long":"127.21266632","imageIndex":13,"items":[{"name":"빌리아드아카데미","tel":"031-576-1322","addr":"경기도 남양주시 와부읍 덕소리 481-1번지","indutype":"레저업소 - 당 구 장","category":"leisure"}]},{"lat":"37.589473042","long":"127.2221952","imageIndex":13,"items":[{"name":"스포비즈","tel":"031-515-4255","addr":"경기도 남양주시 와부읍 덕소리 613번지 남양주덕소동부센트레빌 111동 404호","indutype":"레저업소 - 수 영 장","category":"leisure"}]},{"lat":"37.584340303","long":"127.21066615","imageIndex":13,"items":[{"name":"앗싸노래연습장","tel":"031-577-2201","addr":"경기도 남양주시 와부읍 덕소리 518-7번지","indutype":"레저업소 - 노 래 방","category":"leisure"}]},{"lat":"37.587314492","long":"127.21011964","imageIndex":13,"items":[{"name":"에코노래연습장","tel":"031-510-3370","addr":"경기도 남양주시 와부읍 덕소리 462-15번지","indutype":"레저업소 - 노 래 방","category":"leisure"}]},{"lat":"37.584619505","long":"127.21072354","imageIndex":13,"items":[{"name":"와부당구장","tel":"031-577-6681","addr":"경기도 남양주시 와부읍 덕소리 514-1","indutype":"레저업소 - 당 구 장","category":"leisure"},{"name":"피지에이(PGA)골프스쿨","tel":"031-576-5966","addr":"경기도 남양주시 와부읍 덕소리 514-1번지","indutype":"레저업소 - 골프연습장","category":"leisure"}]},{"lat":"37.588897299","long":"127.21680414","imageIndex":13,"items":[{"name":"유경노래방","tel":"031-577-2571","addr":"경기도 남양주시 와부읍 덕소리 193-6번지 유경빌딩 2층","indutype":"레저업소 - 노 래 방","category":"leisure"}]},{"lat":"37.584422027","long":"127.21030409","imageIndex":13,"items":[{"name":"윤빌리어드","tel":"","addr":"경기도 남양주시 와부읍 덕소리 517-2번지 3층 세훈빌딩","indutype":"레저업소 - 당 구 장","category":"leisure"}]},{"lat":"37.589427043","long":"127.21781334","imageIndex":13,"items":[{"name":"일광당구클럽","tel":"031-569-4588","addr":"경기도 남양주시 와부읍 덕소리 168-3번지 훼밀리프라자 3층 301호","indutype":"레저업소 - 당 구 장","category":"leisure"},{"name":"제노PC방","tel":"","addr":"경기도 남양주시 와부읍 덕소리 168-3번지 훼밀리프라자 201호","indutype":"레저업소 - 기타레져업소","category":"leisure"}]},{"lat":"37.585977074","long":"127.21236897","imageIndex":13,"items":[{"name":"조이점핑클럽 덕소점","tel":"031-577-1011","addr":"경기도 남양주시 와부읍 덕소리 474-8번지 4층","indutype":"레저업소 - 기타레져업소","category":"leisure"}]},{"lat":"37.588257136","long":"127.21706271","imageIndex":13,"items":[{"name":"준당구클럽","tel":"031-577-3949","addr":"경기도 남양주시 와부읍 덕소리 141-92번지 2층","indutype":"레저업소 - 당 구 장","category":"leisure"}]},{"lat":"37.587618204","long":"127.21664197","imageIndex":13,"items":[{"name":"차차차노래연습장","tel":"031-577-7632","addr":"경기도 남양주시 와부읍 덕소리 141-24번지 (외1지하1층)","indutype":"레저업소 - 노 래 방","category":"leisure"}]},{"lat":"37.587178527","long":"127.21564438","imageIndex":13,"items":[{"name":"코지당구장","tel":"031-571-7282","addr":"경기도 남양주시 와부읍 덕소리 141-64번지 2층","indutype":"레저업소 - 당 구 장","category":"leisure"}]},{"lat":"37.58728507","long":"127.2114782","imageIndex":13,"items":[{"name":"킹 필라테스","tel":"02-2226-1913","addr":"경기도 남양주시 와부읍 덕소리 462-50번지 세양아르비채리버 2층 206호","indutype":"레저업소 - 헬스클럽","category":"leisure"}]},{"lat":"37.585400411","long":"127.21238999","imageIndex":13,"items":[{"name":"탈렌트노래연습장","tel":"031-111-1111","addr":"경기도 남양주시 와부읍 덕소리 112-1번지 동산빌딩상가 B-101호","indutype":"레저업소 - 노 래 방","category":"leisure"}]},{"lat":"37.585422785","long":"127.20992193","imageIndex":13,"items":[{"name":"프라이빗 필라테스","tel":"031-577-4313","addr":"경기도 남양주시 와부읍 덕소리 600-14번지 2층 1-202호(세양청마루)","indutype":"레저업소 - 헬스클럽","category":"leisure"}]},{"lat":"37.586065642","long":"127.21322967","imageIndex":13,"items":[{"name":"프로당구클럽","tel":"070-4213-3949","addr":"경기도 남양주시 와부읍 덕소리 476-3번지 일신프라자 6층 607-611호","indutype":"레저업소 - 당 구 장","category":"leisure"}]},{"lat":"37.586449636","long":"127.21514414","imageIndex":13,"items":[{"name":"필라테스 그릿","tel":"031-521-4034","addr":"경기도 남양주시 와부읍 덕소리 497-9번지 덕소MIN빌딩 2층","indutype":"레저업소 - 헬스클럽","category":"leisure"}]},{"lat":"37.588338942","long":"127.21666667","imageIndex":13,"items":[{"name":"핏걸 덕소점","tel":"","addr":"경기도 남양주시 와부읍 덕소리 196-25번지 마이다스빌딩 503호","indutype":"레저업소 - 헬스클럽","category":"leisure"}]},{"lat":"37.584091046","long":"127.20894459","imageIndex":13,"items":[{"name":"하태","tel":"","addr":"경기도 남양주시 와부읍 덕소리 560-1번지 (주)유진건업 205호","indutype":"레저업소 - 헬스클럽","category":"leisure"}]}]