[{"lat":"37.47254455","long":"126.8539883","imageIndex":4,"items":[{"name":"(주) 강지우밥상","tel":"02-2688-5882","addr":"경기도 광명시 광명동 334-23번지 2층 202호","indutype":"일반휴게음식 - 일반한식","category":"restaurant"},{"name":"자금성","tel":"02-2683-2071","addr":"경기도 광명시 광명동 334-23번지 1층","indutype":"일반휴게음식 - 중국식","category":"restaurant"}]},{"lat":"37.46527005","long":"126.8512672","imageIndex":4,"items":[{"name":"(주)맛드림","tel":"031-474-9270","addr":"경기도 광명시 광명동 495-1번지 광명시중앙도서관 5층","indutype":"일반휴게음식 - 위탁급식업","category":"restaurant"},{"name":"맛드림","tel":"02-2611-9279","addr":"경기도 광명시 광명동 495-1번지 5층","indutype":"일반휴게음식 - 위탁급식업","category":"restaurant"},{"name":"보나카페5호점/광명장애인보호작업장","tel":"02-2616-3813","addr":"경기도 광명시 광명동 495-1번지","indutype":"일반휴게음식 - 서양음식","category":"restaurant"}]},{"lat":"37.47660212","long":"126.8564561","imageIndex":4,"items":[{"name":"11번가","tel":"02-2688-5324","addr":"경기도 광명시 광명동 158-460번지 1층","indutype":"일반휴게음식 - 주점","category":"restaurant"}]},{"lat":"37.4728757","long":"126.8522354","imageIndex":4,"items":[{"name":"1박2일","tel":"02-3666-9409","addr":"경기도 광명시 광명동 337-40번지 1층 105호","indutype":"일반휴게음식 - 주점","category":"restaurant"},{"name":"라인호프","tel":"02-2683-8605","addr":"경기도 광명시 광명동 337-40번지 104호","indutype":"일반휴게음식 - 일반한식","category":"restaurant"}]},{"lat":"37.47143186","long":"126.8504861","imageIndex":4,"items":[{"name":"365차","tel":"070-8260-3322","addr":"경기도 광명시 광명동 374-9번지 경기빌딩 1층","indutype":"일반휴게음식 - 서양음식","category":"restaurant"},{"name":"광명치킨","tel":"02-2611-2868","addr":"경기도 광명시 광명동 374-9번지 1층","indutype":"일반휴게음식 - 스넥","category":"restaurant"},{"name":"이화황제의만찬","tel":"02-838-0201","addr":"경기도 광명시 광명동 374-9번지 경기빌딩 1층","indutype":"일반휴게음식 - 일반한식","category":"restaurant"}]},{"lat":"37.4789847","long":"126.8524266","imageIndex":4,"items":[{"name":"52베이커리&카페","tel":"02-2615-4107","addr":"경기도 광명시 광명동 158-842번지","indutype":"일반휴게음식 - 서양음식","category":"restaurant"}]},{"lat":"37.47612948","long":"126.8462145","imageIndex":4,"items":[{"name":"6070 번지없는주막","tel":"02-2683-4888","addr":"경기도 광명시 광명동 233-1 105~106호","indutype":"일반휴게음식 - 일반한식","category":"restaurant"}]},{"lat":"37.47754002","long":"126.8571552","imageIndex":4,"items":[{"name":"69커피호프","tel":"02-6929-1571","addr":"경기도 광명시 광명동 158-409번지 2층","indutype":"일반휴게음식 - 주점","category":"restaurant"},{"name":"69커피호프","tel":"070-3218-8599","addr":"경기도 광명시 광명동 158-409번지 2층","indutype":"일반휴게음식 - 주점","category":"restaurant"},{"name":"구이제작소","tel":"02-2611-4369","addr":"경기도 광명시 광명동 158-409번지 1층","indutype":"일반휴게음식 - 일반한식","category":"restaurant"},{"name":"착한김밥","tel":"02-2617-5626","addr":"경기도 광명시 광명동 158-409번지 1층 일부","indutype":"일반휴게음식 - 스넥","category":"restaurant"}]},{"lat":"37.48345874","long":"126.8564879","imageIndex":4,"items":[{"name":"7번가피자광명점","tel":"02-2612-7776","addr":"경기도 광명시 광명동 92-1번지 1층","indutype":"일반휴게음식 - 서양음식","category":"restaurant"}]},{"lat":"37.48034414","long":"126.8515986","imageIndex":4,"items":[{"name":"88청춘","tel":"02-222-2222","addr":"경기도 광명시 광명동 158-1053번지 1층","indutype":"일반휴게음식 - 주점","category":"restaurant"},{"name":"오리마을","tel":"02-2613-6170","addr":"경기도 광명시 광명동 158-1053번지","indutype":"일반휴게음식 - 일반한식","category":"restaurant"}]},{"lat":"37.47348408","long":"126.8488993","imageIndex":4,"items":[{"name":"BHC치킨","tel":"02-2681-0092","addr":"경기도 광명시 광명동 352-14번지 로얄프라자 1층 103호","indutype":"일반휴게음식 - 주점","category":"restaurant"}]},{"lat":"37.46723883","long":"126.8478721","imageIndex":4,"items":[{"name":"가마솥보신탕","tel":"02-2060-2446","addr":"경기도 광명시 광명동 442-6번지","indutype":"일반휴게음식 - 일반한식","category":"restaurant"}]},{"lat":"37.47409455","long":"126.8472136","imageIndex":4,"items":[{"name":"가미정","tel":"02-854-2862","addr":"경기도 광명시 광명동 246-41번지","indutype":"일반휴게음식 - 일반한식","category":"restaurant"}]},{"lat":"37.4825382","long":"126.8552687","imageIndex":4,"items":[{"name":"가수최윤정라이브카페","tel":"02-2066-7661","addr":"경기도 광명시 광명동 100-1번지 1층 101호","indutype":"일반휴게음식 - 일반한식","category":"restaurant"}]},{"lat":"37.47840021","long":"126.8533436","imageIndex":4,"items":[{"name":"가장맛있는족발광명사거리역점","tel":"02-2612-3989","addr":"경기도 광명시 광명동 158-799번지 102호.103호","indutype":"일반휴게음식 - 일반한식","category":"restaurant"},{"name":"에이치투펍","tel":"02-1111-1111","addr":"경기도 광명시 광명동 158-799번지 4층","indutype":"일반휴게음식 - 주점","category":"restaurant"},{"name":"잇츠찜이야기","tel":"02-2613-7722","addr":"경기도 광명시 광명동 158-799번지 2층","indutype":"일반휴게음식 - 일반한식","category":"restaurant"},{"name":"천희양꼬치","tel":"02-2060-2678","addr":"경기도 광명시 광명동 158-799번지 두성노빌리아오피스텔 104호","indutype":"일반휴게음식 - 중국식","category":"restaurant"},{"name":"초원양꼬치","tel":"02-2060-2678","addr":"경기도 광명시 광명동 158-799번지 두성노빌리아오피스텔 101호","indutype":"일반휴게음식 - 일반한식","category":"restaurant"}]},{"lat":"37.48528956","long":"126.8579542","imageIndex":4,"items":[{"name":"갈무리","tel":"02-2613-1780","addr":"경기도 광명시 광명동 45-16번지 1층","indutype":"일반휴게음식 - 스넥","category":"restaurant"}]},{"lat":"37.4839006","long":"126.8567923","imageIndex":4,"items":[{"name":"갈비명가서서갈비( 광명점)","tel":"02-2614-9284","addr":"경기도 광명시 광명동 57-5번지","indutype":"일반휴게음식 - 일반한식","category":"restaurant"}]},{"lat":"37.48087503","long":"126.8582341","imageIndex":4,"items":[{"name":"갈치이야기","tel":"02-2618-1833","addr":"경기도 광명시 광명동 113-10번지 범영빌딩 1층 102호","indutype":"일반휴게음식 - 일반한식","category":"restaurant"},{"name":"광명양꼬치","tel":"","addr":"경기도 광명시 광명동 113-10번지 범영빌딩 1층","indutype":"일반휴게음식 - 일반한식","category":"restaurant"}]},{"lat":"37.48056642","long":"126.8492917","imageIndex":4,"items":[{"name":"감성쓰","tel":"","addr":"경기도 광명시 광명동 185-3번지 1층","indutype":"일반휴게음식 - 주점","category":"restaurant"},{"name":"광명화로갈비","tel":"02-2612-8292","addr":"경기도 광명시 광명동 185-3번지 1층 일부","indutype":"일반휴게음식 - 일반한식","category":"restaurant"}]},{"lat":"37.47790568","long":"126.8541472","imageIndex":4,"items":[{"name":"강고집돈가","tel":"02-2066-4567","addr":"경기도 광명시 광명동 158-787번지 1층 1호, 1층 2호","indutype":"일반휴게음식 - 일반한식","category":"restaurant"}]},{"lat":"37.48001555","long":"126.8553754","imageIndex":4,"items":[{"name":"강화빈대떡","tel":"02-2685-5910","addr":"경기도 광명시 광명동 158-65번지 1층","indutype":"일반휴게음식 - 일반한식","category":"restaurant"}]},{"lat":"37.47987985","long":"126.8549347","imageIndex":4,"items":[{"name":"개미식당","tel":"","addr":"경기도 광명시 광명동 158-79번지 3층","indutype":"일반휴게음식 - 일반한식","category":"restaurant"},{"name":"마루","tel":"02-2060-7852","addr":"경기도 광명시 광명동 158-79번지 2층","indutype":"일반휴게음식 - 서양음식","category":"restaurant"},{"name":"왕돈까스왕냉면","tel":"02-2686-3095","addr":"경기도 광명시 광명동 158-79번지","indutype":"일반휴게음식 - 일반한식","category":"restaurant"}]},{"lat":"37.47290435","long":"126.8535128","imageIndex":4,"items":[{"name":"건강한밥상","tel":"02-2615-0099","addr":"경기도 광명시 광명동 334-5번지","indutype":"일반휴게음식 - 일반한식","category":"restaurant"}]},{"lat":"37.48160175","long":"126.855734","imageIndex":4,"items":[{"name":"게이트원","tel":"","addr":"경기도 광명시 광명동 102-13번지 1층","indutype":"일반휴게음식 - 서양음식","category":"restaurant"}]},{"lat":"37.47906649","long":"126.8529804","imageIndex":4,"items":[{"name":"경기족발","tel":"02-2060-2725","addr":"경기도 광명시 광명동 158-1353번지 대영빌딩 1층","indutype":"일반휴게음식 - 일반한식","category":"restaurant"},{"name":"역시","tel":"02-2685-2725","addr":"경기도 광명시 광명동 158-1353번지 대영빌딩 1층","indutype":"일반휴게음식 - 일반한식","category":"restaurant"}]},{"lat":"37.47392855","long":"126.8512045","imageIndex":4,"items":[{"name":"경란이네","tel":"031-2684-9007","addr":"경기도 광명시 광명동 290-52번지 새마을시장 B동 116호","indutype":"일반휴게음식 - 일반한식","category":"restaurant"},{"name":"군산아구찜.꽃게탕","tel":"02-2686-2320","addr":"경기도 광명시 광명동 290-52번지 새마을상가 B동 106호","indutype":"일반휴게음식 - 일반한식","category":"restaurant"},{"name":"김밥짱","tel":"02-2614-3352","addr":"경기도 광명시 광명동 290-52번지 B동 104호","indutype":"일반휴게음식 - 스넥","category":"restaurant"},{"name":"누이실내포차","tel":"02-2611-2184","addr":"경기도 광명시 광명동 290-52번지 제1층 B동 7호","indutype":"일반휴게음식 - 일반한식","category":"restaurant"},{"name":"대포통닭","tel":"02-994-7933","addr":"경기도 광명시 광명동 290-52번지 B동 1층 11호","indutype":"일반휴게음식 - 스넥","category":"restaurant"},{"name":"맛나분식","tel":"02-2618-6024","addr":"경기도 광명시 광명동 290-52번지 1층 104호","indutype":"일반휴게음식 - 스넥","category":"restaurant"},{"name":"미연이네","tel":"02-000-0000","addr":"경기도 광명시 광명동 290-52번지 15호","indutype":"일반휴게음식 - 일반한식","category":"restaurant"},{"name":"민들레영토","tel":"02-2686-4490","addr":"경기도 광명시 광명동 290-52번지","indutype":"일반휴게음식 - 일반한식","category":"restaurant"},{"name":"민물추어탕","tel":"02-2685-2360","addr":"경기도 광명시 광명동 290-52.1층비-108","indutype":"일반휴게음식 - 일반한식","category":"restaurant"},{"name":"수목원정","tel":"02-2617-1002","addr":"경기도 광명시 광명동 290-52번지 B동 110호","indutype":"일반휴게음식 - 일반한식","category":"restaurant"},{"name":"시골막걸리","tel":"031-2619-7708","addr":"경기도 광명시 광명동 290-52번지 112호","indutype":"일반휴게음식 - 일반한식","category":"restaurant"},{"name":"영자의전성시대","tel":"02-926-1702","addr":"경기도 광명시 광명동 290-52번지 B동 1층 114호","indutype":"일반휴게음식 - 일반한식","category":"restaurant"},{"name":"옥이네야채곱창","tel":"","addr":"경기도 광명시 광명동 290-52번지 110호 109호,110호","indutype":"일반휴게음식 - 일반한식","category":"restaurant"},{"name":"장수감자탕","tel":"02-2683-8605","addr":"경기도 광명시 광명동 290-52번지 1층 106호","indutype":"일반휴게음식 - 일반한식","category":"restaurant"},{"name":"주댕호프","tel":"02-2611-4252","addr":"경기도 광명시 광명동 290-52번지 B동 1층 1호","indutype":"일반휴게음식 - 일반한식","category":"restaurant"},{"name":"피자스쿨(광명새마을시장점)","tel":"02-2688-5252","addr":"경기도 광명시 광명동 290-52번지 피자스쿨 B102호 광명새마을시장점","indutype":"일반휴게음식 - 서양음식","category":"restaurant"},{"name":"한돈짜장면","tel":"02-2625-1824","addr":"경기도 광명시 광명동 290-52번지 B동 113호","indutype":"일반휴게음식 - 중국식","category":"restaurant"},{"name":"홍가네","tel":"02-2684-4627","addr":"경기도 광명시 광명동 290-52번지","indutype":"일반휴게음식 - 일반한식","category":"restaurant"},{"name":"환희식당","tel":"02-555-5555","addr":"경기도 광명시 광명동 290-52번지 1동호내 1층 3호","indutype":"일반휴게음식 - 일반한식","category":"restaurant"},{"name":"황소곱창","tel":"02-2688-6247","addr":"경기도 광명시 광명동 290-52번지","indutype":"일반휴게음식 - 일반한식","category":"restaurant"}]},{"lat":"37.47751264","long":"126.8568726","imageIndex":4,"items":[{"name":"계경순대국 광명4동점","tel":"02-2060-7545","addr":"경기도 광명시 광명동 158-1287번지","indutype":"일반휴게음식 - 일반한식","category":"restaurant"}]},{"lat":"37.47673345","long":"126.8534034","imageIndex":4,"items":[{"name":"계림중화요리","tel":"02-2685-4132","addr":"경기도 광명시 광명동 158-771번지","indutype":"일반휴게음식 - 중국식","category":"restaurant"},{"name":"은성해바라기","tel":"02-2689-1123","addr":"경기도 광명시 광명동 158-771번지","indutype":"일반휴게음식 - 일반한식","category":"restaurant"}]},{"lat":"37.48490009","long":"126.8562929","imageIndex":4,"items":[{"name":"고구려","tel":"02-2060-0567","addr":"경기도 광명시 광명동 51-3번지 1층","indutype":"일반휴게음식 - 중국식","category":"restaurant"}]},{"lat":"37.48026156","long":"126.8504342","imageIndex":4,"items":[{"name":"고구려짬뽕10101(광명점)","tel":"","addr":"경기도 광명시 광명동 158-1416번지 1층","indutype":"일반휴게음식 - 중국식","category":"restaurant"},{"name":"신의주찹쌀순대(광명사거리점)","tel":"02-2060-8255","addr":"경기도 광명시 광명동 158-1416번지 1층","indutype":"일반휴게음식 - 일반한식","category":"restaurant"}]},{"lat":"37.4789909","long":"126.8573785","imageIndex":4,"items":[{"name":"고구미네","tel":"031-2060-3355","addr":"경기도 광명시 광명동 156-7번지 1층","indutype":"일반휴게음식 - 일반한식","category":"restaurant"}]},{"lat":"37.47806953","long":"126.8554809","imageIndex":4,"items":[{"name":"고기마루","tel":"02-2619-7717","addr":"경기도 광명시 광명동 158-1140번지","indutype":"일반휴게음식 - 일반한식","category":"restaurant"}]},{"lat":"37.47292777","long":"126.8506865","imageIndex":4,"items":[{"name":"고산흑염소","tel":"031-2617-5450","addr":"경기도 광명시 광명동 346-6번지 1층","indutype":"일반휴게음식 - 일반한식","category":"restaurant"},{"name":"윤초밥참치","tel":"02-2617-8388","addr":"경기도 광명시 광명동 346-6번지 1층","indutype":"일반휴게음식 - 일반한식","category":"restaurant"}]},{"lat":"37.4827327","long":"126.8595646","imageIndex":4,"items":[{"name":"고센새참","tel":"","addr":"경기도 광명시 광명동 64-13번지 지층 3호","indutype":"일반휴게음식 - 일반한식","category":"restaurant"}]},{"lat":"37.47965449","long":"126.8548447","imageIndex":4,"items":[{"name":"고정우네","tel":"02-2686-5929","addr":"경기도 광명시 광명동 158-81번지 현대아이타워 101호","indutype":"일반휴게음식 - 스넥","category":"restaurant"}]},{"lat":"37.48107254","long":"126.8576571","imageIndex":4,"items":[{"name":"고향맛","tel":"02-2616-6969","addr":"경기도 광명시 광명동 110-20번지","indutype":"일반휴게음식 - 일반한식","category":"restaurant"}]},{"lat":"37.48062423","long":"126.8522085","imageIndex":4,"items":[{"name":"고향참숯불고기","tel":"02-2617-6688","addr":"경기도 광명시 광명동 158-181번지 1층","indutype":"일반휴게음식 - 일반한식","category":"restaurant"}]},{"lat":"37.47151334","long":"126.8507912","imageIndex":4,"items":[{"name":"고홍바다장어","tel":"02-2615-9548","addr":"경기도 광명시 광명동 374-73번지 1층","indutype":"일반휴게음식 - 일반한식","category":"restaurant"}]},{"lat":"37.47251303","long":"126.8504613","imageIndex":4,"items":[{"name":"고흥아구찜탕갈비탕","tel":"02-2688-5980","addr":"경기도 광명시 광명동 346-31번지 1층","indutype":"일반휴게음식 - 일반한식","category":"restaurant"}]},{"lat":"37.48959553","long":"126.8648207","imageIndex":4,"items":[{"name":"골목즉석떡볶이","tel":"02-885-7814","addr":"경기도 광명시 광명동 6-1번지 보은연립 1층","indutype":"일반휴게음식 - 스넥","category":"restaurant"},{"name":"신다빈","tel":"02-2616-8090","addr":"경기도 광명시 광명동 6-1번지","indutype":"일반휴게음식 - 중국식","category":"restaurant"},{"name":"토종순대","tel":"02-2682-1734","addr":"경기도 광명시 광명동 6-1번지 1층","indutype":"일반휴게음식 - 일반한식","category":"restaurant"},{"name":"피자마루","tel":"02-2682-1082","addr":"경기도 광명시 광명동 6-1번지","indutype":"일반휴게음식 - 서양음식","category":"restaurant"}]},{"lat":"37.47379286","long":"126.8507865","imageIndex":4,"items":[{"name":"골목집","tel":"02-2689-2221","addr":"경기도 광명시 광명동 679-71번지","indutype":"일반휴게음식 - 일반한식","category":"restaurant"}]},{"lat":"37.4790396","long":"126.8530936","imageIndex":4,"items":[{"name":"골목집식당","tel":"02-2681-1400","addr":"경기도 광명시 광명동 158-823번지 1층","indutype":"일반휴게음식 - 일반한식","category":"restaurant"}]},{"lat":"37.47393638","long":"126.8502888","imageIndex":4,"items":[{"name":"골목포차","tel":"02-2685-9292","addr":"경기도 광명시 광명동 290-80번지 1층","indutype":"일반휴게음식 - 일반한식","category":"restaurant"},{"name":"광명둥지식당","tel":"02-2614-2908","addr":"경기도 광명시 광명동 290-80번지","indutype":"일반휴게음식 - 일반한식","category":"restaurant"}]},{"lat":"37.47612939","long":"126.8530994","imageIndex":4,"items":[{"name":"곱분이곱창(광명사거리역점)","tel":"","addr":"경기도 광명시 광명동 295-4번지 1층 일부","indutype":"일반휴게음식 - 일반한식","category":"restaurant"},{"name":"교촌치킨 광명1호점","tel":"02-2615-9114","addr":"경기도 광명시 광명동 295-4번지 1층","indutype":"일반휴게음식 - 일반한식","category":"restaurant"},{"name":"임실엔치즈피자","tel":"02-2684-3800","addr":"경기도 광명시 광명동 295-4번지","indutype":"일반휴게음식 - 서양음식","category":"restaurant"},{"name":"청진해장국","tel":"02-2684-5945","addr":"경기도 광명시 광명동 295-4번지 1층","indutype":"일반휴게음식 - 일반한식","category":"restaurant"}]},{"lat":"37.47867921","long":"126.8530943","imageIndex":4,"items":[{"name":"곱창고광명사거리역점","tel":"02-2689-1628","addr":"경기도 광명시 광명동 158-817번지","indutype":"일반휴게음식 - 일반한식","category":"restaurant"},{"name":"춘자비어광명사거리역점","tel":"","addr":"경기도 광명시 광명동 158-817번지 1층","indutype":"일반휴게음식 - 주점","category":"restaurant"}]},{"lat":"37.47832195","long":"126.8555935","imageIndex":4,"items":[{"name":"곱창폭식 (광명점)","tel":"02-1111-1111","addr":"경기도 광명시 광명동 158-559번지","indutype":"일반휴게음식 - 일반한식","category":"restaurant"}]},{"lat":"37.47801718","long":"126.8497379","imageIndex":4,"items":[{"name":"과자굽는쀼","tel":"031-2613-1948","addr":"경기도 광명시 광명동 176-15번지 1층","indutype":"일반휴게음식 - 서양음식","category":"restaurant"}]},{"lat":"37.4776496","long":"126.858342","imageIndex":4,"items":[{"name":"광명3,4동점굽네치킨","tel":"02-2616-9295","addr":"경기도 광명시 광명동 158-321번지 청산빌라 101호","indutype":"일반휴게음식 - 스넥","category":"restaurant"},{"name":"미화양꼬치","tel":"02-2688-7431","addr":"경기도 광명시 광명동 158-321번지 청산빌라 102호","indutype":"일반휴게음식 - 일반한식","category":"restaurant"}]},{"lat":"37.48087347","long":"126.8498451","imageIndex":4,"items":[{"name":"광명가마골","tel":"02-2688-7765","addr":"경기도 광명시 광명동 158-1407번지 1층","indutype":"일반휴게음식 - 일반한식","category":"restaurant"}]},{"lat":"37.47784619","long":"126.8570189","imageIndex":4,"items":[{"name":"광명곱창구이전문","tel":"02-2689-8774","addr":"경기도 광명시 광명동 158-975","indutype":"일반휴게음식 - 일반한식","category":"restaurant"}]},{"lat":"37.46760151","long":"126.8496235","imageIndex":4,"items":[{"name":"광명국밥","tel":"02-2615-1367","addr":"경기도 광명시 광명동 747-7번지 청구아트빌라 1층 3호","indutype":"일반휴게음식 - 일반한식","category":"restaurant"}]},{"lat":"37.49010064","long":"126.8652947","imageIndex":4,"items":[{"name":"광명꽃돼지","tel":"","addr":"경기도 광명시 광명동 5-39번지 1층 일부","indutype":"일반휴게음식 - 일반한식","category":"restaurant"},{"name":"광복토담","tel":"02-2625-6511","addr":"경기도 광명시 광명동 5-39번지 1층","indutype":"일반휴게음식 - 일반한식","category":"restaurant"}]},{"lat":"37.47840687","long":"126.8587024","imageIndex":4,"items":[{"name":"광명맛집","tel":"02-2688-4709","addr":"경기도 광명시 광명동 126-66번지 1층","indutype":"일반휴게음식 - 일반한식","category":"restaurant"}]},{"lat":"37.46824237","long":"126.8505152","imageIndex":4,"items":[{"name":"광명민속","tel":"02-2612-6623","addr":"경기도 광명시 광명동 742-7번지 1층","indutype":"일반휴게음식 - 일반한식","category":"restaurant"}]},{"lat":"37.47996222","long":"126.8559634","imageIndex":4,"items":[{"name":"광명별미냉면","tel":"02-000-0000","addr":"경기도 광명시 광명동 158-49번지 1층","indutype":"일반휴게음식 - 일반한식","category":"restaurant"}]},{"lat":"37.47387672","long":"126.8529569","imageIndex":4,"items":[{"name":"광명복집","tel":"02-2683-0077","addr":"경기도 광명시 광명동 337-18번지 1층","indutype":"일반휴게음식 - 일반한식","category":"restaurant"}]},{"lat":"37.47982393","long":"126.8534538","imageIndex":4,"items":[{"name":"광명비빔국수","tel":"02-3666-1288","addr":"경기도 광명시 광명동 158-193번지","indutype":"일반휴게음식 - 일반한식","category":"restaurant"}]},{"lat":"37.47921156","long":"126.8537037","imageIndex":4,"items":[{"name":"광명사거리역새마을식당","tel":"02-2617-3900","addr":"경기도 광명시 광명동 158-807번지 1층","indutype":"일반휴게음식 - 일반한식","category":"restaurant"},{"name":"비어마켓낭만가","tel":"02-2687-5224","addr":"경기도 광명시 광명동 158-807번지 3층","indutype":"일반휴게음식 - 주점","category":"restaurant"}]},{"lat":"37.47884663","long":"126.8572883","imageIndex":4,"items":[{"name":"광명서서갈비","tel":"02-2689-2468","addr":"경기도 광명시 광명동 150-4번지 1층","indutype":"일반휴게음식 - 일반한식","category":"restaurant"}]},{"lat":"37.47295725","long":"126.852597","imageIndex":4,"items":[{"name":"광명솥뚜껑삼겹살","tel":"02-2683-8388","addr":"경기도 광명시 광명동 337-38번지 문영시티빌라","indutype":"일반휴게음식 - 일반한식","category":"restaurant"},{"name":"치킨뱅이","tel":"02-2613-2145","addr":"경기도 광명시 광명동 337-38번지 문영시티빌라 104호","indutype":"일반휴게음식 - 스넥","category":"restaurant"}]},{"lat":"37.48237626","long":"126.8554612","imageIndex":4,"items":[{"name":"광명식당","tel":"02-2060-1740","addr":"경기도 광명시 광명동 101-4번지","indutype":"일반휴게음식 - 일반한식","category":"restaurant"}]},{"lat":"37.46946304","long":"126.853904","imageIndex":4,"items":[{"name":"광명어시장","tel":"02-2060-3442","addr":"경기도 광명시 광명동 720-11번지 한성빌딩 104호","indutype":"일반휴게음식 - 일식·회집","category":"restaurant"}]},{"lat":"37.48356702","long":"126.8566234","imageIndex":4,"items":[{"name":"광명영양탕","tel":"02-2612-1259","addr":"경기도 광명시 광명동 57-9번지 1층","indutype":"일반휴게음식 - 일반한식","category":"restaurant"}]},{"lat":"37.47873416","long":"126.8468196","imageIndex":4,"items":[{"name":"광명장애인보호작업장/보나카페4호점","tel":"070-4510-3669","addr":"경기도 광명시 광명동 164-2번지","indutype":"일반휴게음식 - 서양음식","category":"restaurant"},{"name":"보나카페1호점","tel":"02-2615-3813","addr":"경기도 광명시 광명동 164-2번지 광명장애인종합복지관","indutype":"일반휴게음식 - 스넥","category":"restaurant"}]},{"lat":"37.48084716","long":"126.8503991","imageIndex":4,"items":[{"name":"광명종합사회복지관(카페도담도담)","tel":"02-2067-4045","addr":"경기도 광명시 광명동 158-970","indutype":"일반휴게음식 - 서양음식","category":"restaurant"}]},{"lat":"37.47937608","long":"126.8555688","imageIndex":4,"items":[{"name":"광명크로앙스","tel":"02-2067-8181","addr":"경기도 광명시 광명동 150-19번지 크로앙스 6023호","indutype":"일반휴게음식 - 일반한식","category":"restaurant"},{"name":"군스포(Gun'S pho)","tel":"02-3955-2535","addr":"경기도 광명시 광명동 150-19번지 크로앙스 6층 6005호","indutype":"일반휴게음식 - 서양음식","category":"restaurant"},{"name":"그린지위치카페","tel":"02-2067-8632","addr":"경기도 광명시 광명동 150-19번지 크로앙스 6층 6032호","indutype":"일반휴게음식 - 칵테일바","category":"restaurant"},{"name":"돌판덮밥","tel":"02-2067-8628","addr":"경기도 광명시 광명동 150-19번지 크로앙스 6층 6028호","indutype":"일반휴게음식 - 일반한식","category":"restaurant"},{"name":"뚝불고기","tel":"02-2067-8634","addr":"경기도 광명시 광명동 150-19번지 크로앙스 6009호","indutype":"일반휴게음식 - 일반한식","category":"restaurant"},{"name":"미오르","tel":"02-2067-8631","addr":"경기도 광명시 광명동 150-19번지 크로앙스 6층 6031호","indutype":"일반휴게음식 - 칵테일바","category":"restaurant"},{"name":"뽕뜨락피자","tel":"02-2067-8612","addr":"경기도 광명시 광명동 150-19번지 크로앙스 6층 6012호","indutype":"일반휴게음식 - 서양음식","category":"restaurant"},{"name":"일본식돈까스","tel":"02-2067-8606","addr":"경기도 광명시 광명동 150-19번지 크로앙스 6층 6006호","indutype":"일반휴게음식 - 서양음식","category":"restaurant"},{"name":"장안막국수,모밀","tel":"02-2067-8603","addr":"경기도 광명시 광명동 150-19번지 크로앙스 6022호","indutype":"일반휴게음식 - 일반한식","category":"restaurant"},{"name":"찌게정식","tel":"02-2067-8602","addr":"경기도 광명시 광명동 150-19번지 크로앙스 6층 6002호","indutype":"일반휴게음식 - 일반한식","category":"restaurant"},{"name":"크로앙스","tel":"02-2067-8626","addr":"경기도 광명시 광명동 150-19번지 크로앙스 6층 6026호","indutype":"일반휴게음식 - 일반한식","category":"restaurant"},{"name":"탭플레이롯데시네마광명점","tel":"02-000-0000","addr":"경기도 광명시 광명동 150-19번지 크로앙스 7층","indutype":"일반휴게음식 - 서양음식","category":"restaurant"}]},{"lat":"37.47471394","long":"126.8524013","imageIndex":4,"items":[{"name":"광명타코붐","tel":"","addr":"경기도 광명시 광명동 290-20번지 1층","indutype":"일반휴게음식 - 서양음식","category":"restaurant"},{"name":"이노카츠","tel":"02-6498-8253","addr":"경기도 광명시 광명동 290-20번지 2층","indutype":"일반휴게음식 - 일식·회집","category":"restaurant"}]},{"lat":"37.47340796","long":"126.8527657","imageIndex":4,"items":[{"name":"광명토종순대국","tel":"02-2618-3806","addr":"경기도 광명시 광명동 337-28번지 1층","indutype":"일반휴게음식 - 일반한식","category":"restaurant"},{"name":"제주향","tel":"02-2066-1177","addr":"경기도 광명시 광명동 337-28번지","indutype":"일반휴게음식 - 일반한식","category":"restaurant"}]},{"lat":"37.47809894","long":"126.8574028","imageIndex":4,"items":[{"name":"광명포차","tel":"02-2619-2322","addr":"경기도 광명시 광명동 158-381번지 1층","indutype":"일반휴게음식 - 칵테일바","category":"restaurant"}]},{"lat":"37.47929592","long":"126.8563152","imageIndex":4,"items":[{"name":"광명할머니왕족발","tel":"02-2683-7035","addr":"경기도 광명시 광명동 158-19번지 1층","indutype":"일반휴게음식 - 일반한식","category":"restaurant"},{"name":"애솔촌찌개마을","tel":"070-8836-2958","addr":"경기도 광명시 광명동 158-19번지","indutype":"일반휴게음식 - 일반한식","category":"restaurant"}]},{"lat":"37.47267889","long":"126.8533436","imageIndex":4,"items":[{"name":"광명홍천화로구이","tel":"02-2060-5573","addr":"경기도 광명시 광명동 333-15번지 송원하이츠빌라 1층","indutype":"일반휴게음식 - 일반한식","category":"restaurant"}]},{"lat":"37.47610173","long":"126.852602","imageIndex":4,"items":[{"name":"광명화로갈비","tel":"02-2611-9292","addr":"경기도 광명시 광명동 294-2번지 1층","indutype":"일반휴게음식 - 일반한식","category":"restaurant"},{"name":"통영굴밥광명점","tel":"02-2688-2682","addr":"경기도 광명시 광명동 294-2번지 2층","indutype":"일반휴게음식 - 일반한식","category":"restaurant"}]},{"lat":"37.47354675","long":"126.8485939","imageIndex":4,"items":[{"name":"광명힐링캠프","tel":"02-2060-9266","addr":"경기도 광명시 광명동 352-21번지 ,2,3층","indutype":"일반휴게음식 - 일반한식","category":"restaurant"},{"name":"신촌설렁탕","tel":"02-2687-3311","addr":"경기도 광명시 광명동 352-21번지 1층","indutype":"일반휴게음식 - 일반한식","category":"restaurant"}]},{"lat":"37.48998386","long":"126.8656002","imageIndex":4,"items":[{"name":"광복회관","tel":"02-2686-2679","addr":"경기도 광명시 광명동 5-37번지","indutype":"일반휴게음식 - 일반한식","category":"restaurant"},{"name":"우리카페","tel":"02-2612-7922","addr":"경기도 광명시 광명동 5-37번지 1층","indutype":"일반휴게음식 - 서양음식","category":"restaurant"}]},{"lat":"37.4750747","long":"126.8526832","imageIndex":4,"items":[{"name":"광어9900포장전문","tel":"02-2611-5988","addr":"경기도 광명시 광명동 295-13번지 1층","indutype":"일반휴게음식 - 일반한식","category":"restaurant"}]},{"lat":"37.48187264","long":"126.8562084","imageIndex":4,"items":[{"name":"광이정","tel":"02-2682-8026","addr":"경기도 광명시 광명동 104-11번지 승화빌라 1층","indutype":"일반휴게음식 - 일반한식","category":"restaurant"}]},{"lat":"37.47379655","long":"126.8467055","imageIndex":4,"items":[{"name":"광화로숯불왕갈비","tel":"02-2684-5686","addr":"경기도 광명시 광명동 244-19번지","indutype":"일반휴게음식 - 일반한식","category":"restaurant"}]},{"lat":"37.47356733","long":"126.8505722","imageIndex":4,"items":[{"name":"교동족발","tel":"02-2625-6514","addr":"경기도 광명시 광명동 346-51번지 1층","indutype":"일반휴게음식 - 일반한식","category":"restaurant"},{"name":"새마을분식","tel":"02-2686-3833","addr":"경기도 광명시 광명동 346-51번지","indutype":"일반휴게음식 - 일반한식","category":"restaurant"},{"name":"소풍 같은 인생","tel":"","addr":"경기도 광명시 광명동 346-51번지 2층 전부호","indutype":"일반휴게음식 - 일반한식","category":"restaurant"}]},{"lat":"37.47923597","long":"126.8588477","imageIndex":4,"items":[{"name":"구름1024","tel":"02-2687-7077","addr":"경기도 광명시 광명동 151-1번지 1층 101호","indutype":"일반휴게음식 - 서양음식","category":"restaurant"},{"name":"신자매","tel":"02-2687-7077","addr":"경기도 광명시 광명동 151-1번지 1층 101호","indutype":"일반휴게음식 - 서양음식","category":"restaurant"}]},{"lat":"37.47287404","long":"126.8509354","imageIndex":4,"items":[{"name":"구름산협동조합","tel":"031-2616-6900","addr":"경기도 광명시 광명동 346-46번지 현대타운 301호","indutype":"일반휴게음식 - 일반한식","category":"restaurant"},{"name":"불타는청춘","tel":"031-111-1111","addr":"경기도 광명시 광명동 346-46번지 현대타운 107호","indutype":"일반휴게음식 - 일반한식","category":"restaurant"},{"name":"쉐프의 고기생각","tel":"","addr":"경기도 광명시 광명동 346-46번지 현대타운 1층 108호","indutype":"일반휴게음식 - 일반한식","category":"restaurant"},{"name":"욜로펍","tel":"02-2066-8886","addr":"경기도 광명시 광명동 346-46번지 현대타운 1층 103호","indutype":"일반휴게음식 - 서양음식","category":"restaurant"},{"name":"유창족발","tel":"02-2616-6877","addr":"경기도 광명시 광명동 346-46번지 현대타운 109호","indutype":"일반휴게음식 - 일반한식","category":"restaurant"},{"name":"케이콜라보김밥광명새마을시장점","tel":"","addr":"경기도 광명시 광명동 346-46번지 현대타운 1층 106호","indutype":"일반휴게음식 - 스넥","category":"restaurant"},{"name":"토프레소 광명점","tel":"02-2066-5484","addr":"경기도 광명시 광명동 346-46번지 광명현대타운 104호","indutype":"일반휴게음식 - 서양음식","category":"restaurant"},{"name":"헐라씨 (Her Lassi)","tel":"02-2682-5151","addr":"경기도 광명시 광명동 346-46번지 현대타운 102호","indutype":"일반휴게음식 - 서양음식","category":"restaurant"}]},{"lat":"37.48409813","long":"126.8562379","imageIndex":4,"items":[{"name":"구백일통야간매점","tel":"02-2612-3335","addr":"경기도 광명시 광명동 56-2번지 1층","indutype":"일반휴게음식 - 일반한식","category":"restaurant"},{"name":"김가스시","tel":"02-2686-2212","addr":"경기도 광명시 광명동 56-2번지 1층","indutype":"일반휴게음식 - 일식·회집","category":"restaurant"}]},{"lat":"37.48046227","long":"126.8596255","imageIndex":4,"items":[{"name":"구어조은닭","tel":"02-2625-9592","addr":"경기도 광명시 광명동 123-10번지 102호","indutype":"일반휴게음식 - 주점","category":"restaurant"}]},{"lat":"37.47329603","long":"126.8497927","imageIndex":4,"items":[{"name":"국민학교","tel":"02-2688-5947","addr":"경기도 광명시 광명동 348-11번지 1층","indutype":"일반휴게음식 - 일반한식","category":"restaurant"},{"name":"불독냉면","tel":"02-2614-0223","addr":"경기도 광명시 광명동 348-11번지 1층","indutype":"일반휴게음식 - 일반한식","category":"restaurant"}]},{"lat":"37.46915586","long":"126.8532376","imageIndex":4,"items":[{"name":"국수나무광명점","tel":"02-2683-9373","addr":"경기도 광명시 광명동 724-3번지 1층","indutype":"일반휴게음식 - 일반한식","category":"restaurant"}]},{"lat":"37.47332284","long":"126.8496231","imageIndex":4,"items":[{"name":"국시가","tel":"02-2688-1310","addr":"경기도 광명시 광명동 349-1번지 1층","indutype":"일반휴게음식 - 일반한식","category":"restaurant"},{"name":"빈대떡집","tel":"02-2625-7799","addr":"경기도 광명시 광명동 349-1번지 1층","indutype":"일반휴게음식 - 일반한식","category":"restaurant"},{"name":"훈이네식당","tel":"02-2613-1192","addr":"경기도 광명시 광명동 349-1번지 1층","indutype":"일반휴게음식 - 일반한식","category":"restaurant"}]},{"lat":"37.47829523","long":"126.8558423","imageIndex":4,"items":[{"name":"국풍설렁탕","tel":"02-2060-1983","addr":"경기도 광명시 광명동 158-570번지 1층","indutype":"일반휴게음식 - 일반한식","category":"restaurant"}]},{"lat":"37.47465389","long":"126.8477664","imageIndex":4,"items":[{"name":"국풍설렁탕직영잠","tel":"","addr":"경기도 광명시 광명동 247-11번지 청운빌딩 102호","indutype":"일반휴게음식 - 일반한식","category":"restaurant"},{"name":"청용다방","tel":"02-2616-0068","addr":"경기도 광명시 광명동 247-11번지 청운빌딩 지층","indutype":"일반휴게음식 - 서양음식","category":"restaurant"}]},{"lat":"37.48045891","long":"126.8497668","imageIndex":4,"items":[{"name":"군산아구찜","tel":"02-2625-0776","addr":"경기도 광명시 광명동 158-922번지 효성빌딩 1층","indutype":"일반휴게음식 - 일반한식","category":"restaurant"},{"name":"만복식당","tel":"02-2614-0071","addr":"경기도 광명시 광명동 158-922번지 효성빌딩","indutype":"일반휴게음식 - 일반한식","category":"restaurant"},{"name":"탐라할망(디디치킨)","tel":"02-2688-7272","addr":"경기도 광명시 광명동 158-922번지 효성빌딩 1층","indutype":"일반휴게음식 - 스넥","category":"restaurant"},{"name":"한성각","tel":"02-2685-5190","addr":"경기도 광명시 광명동 158-922번지","indutype":"일반휴게음식 - 중국식","category":"restaurant"}]},{"lat":"37.4733493","long":"126.8491822","imageIndex":4,"items":[{"name":"굽자나광명점","tel":"02-2060-8292","addr":"경기도 광명시 광명동 350-8번지 1층","indutype":"일반휴게음식 - 일반한식","category":"restaurant"},{"name":"본초불닭발","tel":"02-6409-7999","addr":"경기도 광명시 광명동 350-8번지 1층","indutype":"일반휴게음식 - 일반한식","category":"restaurant"},{"name":"카페루이","tel":"","addr":"경기도 광명시 광명동 350-8번지 1층","indutype":"일반휴게음식 - 서양음식","category":"restaurant"}]},{"lat":"37.48143046","long":"126.8556552","imageIndex":4,"items":[{"name":"굿앤굿피자","tel":"02-000-0000","addr":"경기도 광명시 광명동 141-1번지 1층 일부호","indutype":"일반휴게음식 - 서양음식","category":"restaurant"},{"name":"비비닭강정치킨","tel":"02-2611-4390","addr":"경기도 광명시 광명동 141-1번지","indutype":"일반휴게음식 - 스넥","category":"restaurant"}]},{"lat":"37.48168281","long":"126.8557113","imageIndex":4,"items":[{"name":"귀빈","tel":"02-2066-6482","addr":"경기도 광명시 광명동 102-12번지","indutype":"일반휴게음식 - 일반한식","category":"restaurant"}]},{"lat":"37.47704529","long":"126.8578232","imageIndex":4,"items":[{"name":"그랑데뷰","tel":"02-6397-3938","addr":"경기도 광명시 광명동 158-429번지","indutype":"일반휴게음식 - 일반한식","category":"restaurant"}]},{"lat":"37.48292742","long":"126.8567038","imageIndex":4,"items":[{"name":"그랑데뷰","tel":"02-2611-7225","addr":"경기도 광명시 광명동 91-21번지 1층","indutype":"일반휴게음식 - 주점","category":"restaurant"}]},{"lat":"37.48637546","long":"126.8618416","imageIndex":4,"items":[{"name":"그랑데뷰","tel":"02-2616-6117","addr":"경기도 광명시 광명동 11-130번지","indutype":"일반휴게음식 - 칵테일바","category":"restaurant"}]},{"lat":"37.47939969","long":"126.8528441","imageIndex":4,"items":[{"name":"금산황기닭곰탕한계","tel":"02-3144-1303","addr":"경기도 광명시 광명동 158-832번지 1층","indutype":"일반휴게음식 - 일반한식","category":"restaurant"}]},{"lat":"37.49154384","long":"126.8666828","imageIndex":4,"items":[{"name":"길모퉁이","tel":"02-2060-2595","addr":"경기도 광명시 광명동 4-20번지 제일연립","indutype":"일반휴게음식 - 스넥","category":"restaurant"}]},{"lat":"37.46893015","long":"126.8528763","imageIndex":4,"items":[{"name":"김가김밥","tel":"02-2685-6091","addr":"경기도 광명시 광명동 724-6번지 1층","indutype":"일반휴게음식 - 일반한식","category":"restaurant"}]},{"lat":"37.47929154","long":"126.8528217","imageIndex":4,"items":[{"name":"김근배초밥참치","tel":"02-2679-6605","addr":"경기도 광명시 광명동 158-833번지 101호","indutype":"일반휴게음식 - 일반한식","category":"restaurant"},{"name":"코샤맘","tel":"","addr":"경기도 광명시 광명동 158-833번지 2층","indutype":"일반휴게음식 - 일반한식","category":"restaurant"}]},{"lat":"37.47976131","long":"126.8538157","imageIndex":4,"items":[{"name":"김명태 (광명점)","tel":"02-2611-3140","addr":"경기도 광명시 광명동 158-189번지 솔목타워 1층","indutype":"일반휴게음식 - 일반한식","category":"restaurant"}]},{"lat":"37.48073551","long":"126.8547069","imageIndex":4,"items":[{"name":"김미진당진아귀동태찜탕","tel":"02-2619-5600","addr":"경기도 광명시 광명동 158-91번지","indutype":"일반휴게음식 - 일반한식","category":"restaurant"}]},{"lat":"37.47765722","long":"126.8572115","imageIndex":4,"items":[{"name":"김밥사랑","tel":"02-2688-0207","addr":"경기도 광명시 광명동 158-408번지","indutype":"일반휴게음식 - 일반한식","category":"restaurant"},{"name":"오프닝","tel":"02-2625-9379","addr":"경기도 광명시 광명동 158-408번지 1층","indutype":"일반휴게음식 - 일반한식","category":"restaurant"}]},{"lat":"37.46862413","long":"126.8531256","imageIndex":4,"items":[{"name":"김밥사랑","tel":"02-2613-8129","addr":"경기도 광명시 광명동 725-6번지","indutype":"일반휴게음식 - 일반한식","category":"restaurant"}]},{"lat":"37.47423546","long":"126.8516561","imageIndex":4,"items":[{"name":"김밥천국","tel":"02-2618-0777","addr":"경기도 광명시 광명동 290-14번지 동진프라자 1층 3호","indutype":"일반휴게음식 - 스넥","category":"restaurant"},{"name":"카페루앤비광명6동점","tel":"031-000-0000","addr":"경기도 광명시 광명동 290-14번지 동진프라자 1층 4호","indutype":"일반휴게음식 - 서양음식","category":"restaurant"},{"name":"호치킨 (광명새마을)","tel":"02-2068-9292","addr":"경기도 광명시 광명동 290-14번지 동진프라자 1층 5호","indutype":"일반휴게음식 - 스넥","category":"restaurant"}]},{"lat":"37.47826285","long":"126.8588157","imageIndex":4,"items":[{"name":"김밥천국광명점","tel":"02-2625-0120","addr":"경기도 광명시 광명동 126-18번지 1층","indutype":"일반휴게음식 - 일반한식","category":"restaurant"}]},{"lat":"37.46840856","long":"126.8536574","imageIndex":4,"items":[{"name":"김밥하우스","tel":"02-2625-4005","addr":"경기도 광명시 광명동 728-2번지 1층","indutype":"일반휴게음식 - 스넥","category":"restaurant"},{"name":"우리가족밥상","tel":"02-2616-0045","addr":"경기도 광명시 광명동 728-2번지 1층","indutype":"일반휴게음식 - 일반한식","category":"restaurant"}]},{"lat":"37.48040689","long":"126.8513497","imageIndex":4,"items":[{"name":"김종용누룽지통닭 광명사거리역점","tel":"02-2612-9282","addr":"경기도 광명시 광명동 158-1051번지 1층","indutype":"일반휴게음식 - 일반한식","category":"restaurant"}]},{"lat":"37.47857102","long":"126.853038","imageIndex":4,"items":[{"name":"김해본가뒷고기","tel":"02-2689-8938","addr":"경기도 광명시 광명동 158-818번지 1층","indutype":"일반휴게음식 - 일반한식","category":"restaurant"},{"name":"사거리포차","tel":"02-2611-1118","addr":"경기도 광명시 광명동 158-818번지 2층","indutype":"일반휴게음식 - 주점","category":"restaurant"},{"name":"어시장","tel":"02-2060-8549","addr":"경기도 광명시 광명동 158-818번지 1층","indutype":"일반휴게음식 - 일반한식","category":"restaurant"},{"name":"투다리","tel":"02-2686-5397","addr":"경기도 광명시 광명동 158-818번지 1층 일부","indutype":"일반휴게음식 - 일반한식","category":"restaurant"},{"name":"화로숯불닭갈비","tel":"070-8823-7605","addr":"경기도 광명시 광명동 158-818번지 1층","indutype":"일반휴게음식 - 일반한식","category":"restaurant"},{"name":"훌랄라숯불바베큐","tel":"02-6081-9292","addr":"경기도 광명시 광명동 158-818번지 1층","indutype":"일반휴게음식 - 스넥","category":"restaurant"}]},{"lat":"37.47329076","long":"126.8527094","imageIndex":4,"items":[{"name":"깨구리","tel":"070-4325-8006","addr":"경기도 광명시 광명동 337-31번지","indutype":"일반휴게음식 - 일반한식","category":"restaurant"}]},{"lat":"37.47387316","long":"126.8501759","imageIndex":4,"items":[{"name":"꼬꼬닭","tel":"02-2681-7812","addr":"경기도 광명시 광명동 347-1번지","indutype":"일반휴게음식 - 스넥","category":"restaurant"},{"name":"순대랑곱창","tel":"02-2683-8605","addr":"경기도 광명시 광명동 347-1번지 1층","indutype":"일반휴게음식 - 일반한식","category":"restaurant"}]},{"lat":"37.47821376","long":"126.8555372","imageIndex":4,"items":[{"name":"꿀떨어지는밤","tel":"02-3666-8852","addr":"경기도 광명시 광명동 158-560번지 1층","indutype":"일반휴게음식 - 일반한식","category":"restaurant"},{"name":"마산아구찜해물탕","tel":"02-2683-8870","addr":"경기도 광명시 광명동 158-560번지 1층","indutype":"일반휴게음식 - 일반한식","category":"restaurant"},{"name":"안심한우정육식당","tel":"02-2066-9417","addr":"경기도 광명시 광명동 158-560번지","indutype":"일반휴게음식 - 일반한식","category":"restaurant"}]},{"lat":"37.48012698","long":"126.8508754","imageIndex":4,"items":[{"name":"나누리민속주점","tel":"02-2625-2575","addr":"경기도 광명시 광명동 158-915 1층","indutype":"일반휴게음식 - 일반한식","category":"restaurant"},{"name":"도가니삼계탕","tel":"02-2684-6841","addr":"경기도 광명시 광명동 158-915번지 1층 일부","indutype":"일반휴게음식 - 일반한식","category":"restaurant"}]},{"lat":"37.48220617","long":"126.8563434","imageIndex":4,"items":[{"name":"나루터","tel":"02-2625-9535","addr":"경기도 광명시 광명동 104-18번지 1층","indutype":"일반휴게음식 - 일반한식","category":"restaurant"}]},{"lat":"37.48021108","long":"126.8532382","imageIndex":4,"items":[{"name":"남궁","tel":"02-2681-3636","addr":"경기도 광명시 광명동 158-135번지 1층","indutype":"일반휴게음식 - 중국식","category":"restaurant"}]},{"lat":"37.47362937","long":"126.8497694","imageIndex":4,"items":[{"name":"남도전통순대","tel":"02-2684-3840","addr":"경기도 광명시 광명동 348-28번지","indutype":"일반휴게음식 - 일반한식","category":"restaurant"},{"name":"토리톤","tel":"02-2066-1892","addr":"경기도 광명시 광명동 348-28번지 1층","indutype":"일반휴게음식 - 일반한식","category":"restaurant"}]},{"lat":"37.48017808","long":"126.8556577","imageIndex":4,"items":[{"name":"남매분식","tel":"","addr":"경기도 광명시 광명동 158-58번지","indutype":"일반휴게음식 - 스넥","category":"restaurant"},{"name":"소문난가마솥순대","tel":"02-2684-0256","addr":"경기도 광명시 광명동 158-58번지","indutype":"일반휴게음식 - 일반한식","category":"restaurant"}]},{"lat":"37.4771301","long":"126.8535722","imageIndex":4,"items":[{"name":"남원추어탕","tel":"02-2683-8777","addr":"경기도 광명시 광명동 158-774번지","indutype":"일반휴게음식 - 일반한식","category":"restaurant"},{"name":"소피아마카롱","tel":"070-1111-1111","addr":"경기도 광명시 광명동 158-774번지 1층 코너","indutype":"일반휴게음식 - 서양음식","category":"restaurant"},{"name":"스시톡톡","tel":"031-2741-9196","addr":"경기도 광명시 광명동 158-774번지 1층","indutype":"일반휴게음식 - 일식·회집","category":"restaurant"}]},{"lat":"37.47402779","long":"126.8513061","imageIndex":4,"items":[{"name":"내고향삼겹살흑돈","tel":"02-2619-5567","addr":"경기도 광명시 광명동 290-52번지 A동 1층 103호","indutype":"일반휴게음식 - 일반한식","category":"restaurant"},{"name":"누리울림","tel":"","addr":"경기도 광명시 광명동 290-52번지 A동 11호","indutype":"일반휴게음식 - 일반한식","category":"restaurant"},{"name":"땅끝회센타","tel":"070-8627-7355","addr":"경기도 광명시 광명동 290-52번지 A동 101호","indutype":"일반휴게음식 - 일반한식","category":"restaurant"},{"name":"수림","tel":"","addr":"경기도 광명시 광명동 290-52번지 A동 1층 108호","indutype":"일반휴게음식 - 일반한식","category":"restaurant"},{"name":"술먹는돼지","tel":"02-2616-5674","addr":"경기도 광명시 광명동 290-52번지 A동 107호","indutype":"일반휴게음식 - 일반한식","category":"restaurant"},{"name":"장수분식","tel":"02-830-8802","addr":"경기도 광명시 광명동 290-52번지 A동 102호","indutype":"일반휴게음식 - 일반한식","category":"restaurant"},{"name":"장터추어탕","tel":"0000-0000-0000","addr":"경기도 광명시 광명동 290-52번지 A동 105호","indutype":"일반휴게음식 - 일반한식","category":"restaurant"},{"name":"호남식당","tel":"02-2687-2374","addr":"경기도 광명시 광명동 290-52번지 A동 115호","indutype":"일반휴게음식 - 일반한식","category":"restaurant"}]},{"lat":"37.4799588","long":"126.8532387","imageIndex":4,"items":[{"name":"내리는비가술이라면","tel":"02-2618-9479","addr":"경기도 광명시 광명동 158-195번지 광명리더스빌딩 2층 205호","indutype":"일반휴게음식 - 일반한식","category":"restaurant"},{"name":"노란집고창힘센장어","tel":"02-2066-3352","addr":"경기도 광명시 광명동 158-195번지 광명리더스빌딩 104호","indutype":"일반휴게음식 - 일반한식","category":"restaurant"},{"name":"데뮤어(Demure)","tel":"02-2616-4681","addr":"경기도 광명시 광명동 158-195번지 광명리더스빌딩 1층 103호","indutype":"일반휴게음식 - 서양음식","category":"restaurant"},{"name":"못난이뽈찜아구찜","tel":"02-2618-1077","addr":"경기도 광명시 광명동 158-195번지 광명리더스빌딩 204호","indutype":"일반휴게음식 - 일반한식","category":"restaurant"},{"name":"무교동낙지","tel":"02-2687-5999","addr":"경기도 광명시 광명동 158-195번지 광명리더스빌딩 2층 203호","indutype":"일반휴게음식 - 일반한식","category":"restaurant"},{"name":"부리나참숯바베큐치킨","tel":"031-503-8018","addr":"경기도 광명시 광명동 158-195번지 광명리더스빌딩 105호","indutype":"일반휴게음식 - 스넥","category":"restaurant"},{"name":"송정해변막국수","tel":"02-2618-6698","addr":"경기도 광명시 광명동 158-195번지","indutype":"일반휴게음식 - 일반한식","category":"restaurant"},{"name":"애플","tel":"02-899-1128","addr":"경기도 광명시 광명동 158-195번지 광명리더스빌딩 201호","indutype":"일반휴게음식 - 주점","category":"restaurant"},{"name":"양꼬치소년","tel":"02-2611-1323","addr":"경기도 광명시 광명동 158-195번지 광명리더스빌딩 1층 107호","indutype":"일반휴게음식 - 일반한식","category":"restaurant"},{"name":"옛뜰쌈밥","tel":"02-2682-9277","addr":"경기도 광명시 광명동 158-195번지 광명리더스빌딩 202호","indutype":"일반휴게음식 - 일반한식","category":"restaurant"},{"name":"원조설악추어탕","tel":"02-2688-7400","addr":"경기도 광명시 광명동 158-195번지 광명리더스빌딩 206동 207호","indutype":"일반휴게음식 - 일반한식","category":"restaurant"},{"name":"응급실국물떡볶이광명사거리점","tel":"02-2687-8119","addr":"경기도 광명시 광명동 158-195번지 광명리더스빌딩 1층 109호","indutype":"일반휴게음식 - 스넥","category":"restaurant"}]},{"lat":"37.48123617","long":"126.8588439","imageIndex":4,"items":[{"name":"네네치킨","tel":"02-2618-4479","addr":"경기도 광명시 광명동 116-15번지 1층","indutype":"일반휴게음식 - 스넥","category":"restaurant"}]},{"lat":"37.47934531","long":"126.8525955","imageIndex":4,"items":[{"name":"네네치킨(광명사거리점)","tel":"02-2682-9292","addr":"경기도 광명시 광명동 158-846번지","indutype":"일반휴게음식 - 스넥","category":"restaurant"},{"name":"데일리포차","tel":"02-2687-4567","addr":"경기도 광명시 광명동 158-846번지 1층","indutype":"일반휴게음식 - 일반한식","category":"restaurant"},{"name":"싸다구포차","tel":"031-3177-0557","addr":"경기도 광명시 광명동 158-846번지 상가 1층","indutype":"일반휴게음식 - 주점","category":"restaurant"},{"name":"화순포차","tel":"","addr":"경기도 광명시 광명동 158-846번지 1층","indutype":"일반휴게음식 - 일반한식","category":"restaurant"}]},{"lat":"37.4798193","long":"126.8569586","imageIndex":4,"items":[{"name":"네자매식당","tel":"02-2611-8730","addr":"경기도 광명시 광명동 158-11번지 1층","indutype":"일반휴게음식 - 일반한식","category":"restaurant"}]},{"lat":"37.47334792","long":"126.8481308","imageIndex":4,"items":[{"name":"노가리7080","tel":"02-2066-2799","addr":"경기도 광명시 광명동 353-4번지 101호 102","indutype":"일반휴게음식 - 일반한식","category":"restaurant"}]},{"lat":"37.4780158","long":"126.8557411","imageIndex":4,"items":[{"name":"노네임","tel":"02-2687-2558","addr":"경기도 광명시 광명동 158-568번지 1층","indutype":"일반휴게음식 - 주점","category":"restaurant"},{"name":"삼합홍어랑돼지랑","tel":"02-2686-7733","addr":"경기도 광명시 광명동 158-568번지","indutype":"일반휴게음식 - 일반한식","category":"restaurant"}]},{"lat":"37.47931906","long":"126.8532061","imageIndex":4,"items":[{"name":"노리터","tel":"02-000-0000","addr":"경기도 광명시 광명동 158-826번지 1층 일부","indutype":"일반휴게음식 - 일반한식","category":"restaurant"},{"name":"바다매운탕","tel":"02-2686-9882","addr":"경기도 광명시 광명동 158-826번지","indutype":"일반휴게음식 - 일반한식","category":"restaurant"}]},{"lat":"37.48909907","long":"126.8640414","imageIndex":4,"items":[{"name":"놀러와","tel":"02-2686-3931","addr":"경기도 광명시 광명동 6-83번지 1층","indutype":"일반휴게음식 - 일반한식","category":"restaurant"}]},{"lat":"37.47732333","long":"126.8567938","imageIndex":4,"items":[{"name":"뉴타운","tel":"02-2060-2199","addr":"경기도 광명시 광명동 158-472번지 1층 2호","indutype":"일반휴게음식 - 일반한식","category":"restaurant"},{"name":"맛쟁이해물칼국수","tel":"02-2613-1337","addr":"경기도 광명시 광명동 158-472번지 1층","indutype":"일반휴게음식 - 일반한식","category":"restaurant"}]},{"lat":"37.47771376","long":"126.8592351","imageIndex":4,"items":[{"name":"늘봄즉석떡볶이","tel":"02-2681-3331","addr":"경기도 광명시 광명동 158-1246번지 승화빌딩 1층","indutype":"일반휴게음식 - 일반한식","category":"restaurant"}]},{"lat":"37.47782086","long":"126.8583982","imageIndex":4,"items":[{"name":"늘푸른초원갈비","tel":"02-2689-5188","addr":"경기도 광명시 광명동 158-308번지 1층","indutype":"일반휴게음식 - 일반한식","category":"restaurant"},{"name":"두리랑","tel":"02-2066-8078","addr":"경기도 광명시 광명동 158-308번지 1층","indutype":"일반휴게음식 - 주점","category":"restaurant"}]},{"lat":"37.46837994","long":"126.8524027","imageIndex":4,"items":[{"name":"다누리","tel":"02-2614-7993","addr":"경기도 광명시 광명동 725-1번지 1층","indutype":"일반휴게음식 - 일반한식","category":"restaurant"}]},{"lat":"37.47946314","long":"126.8531492","imageIndex":4,"items":[{"name":"다님","tel":"070-7614-3579","addr":"경기도 광명시 광명동 158-1349번지 1층","indutype":"일반휴게음식 - 일식·회집","category":"restaurant"},{"name":"미정국수0410광명사거리역점","tel":"02-6489-0410","addr":"경기도 광명시 광명동 158-1349번지 1층 일부호","indutype":"일반휴게음식 - 스넥","category":"restaurant"}]},{"lat":"37.48423482","long":"126.8574814","imageIndex":4,"items":[{"name":"다락","tel":"031-354-7857","addr":"경기도 광명시 광명동 58-1번지 1층","indutype":"일반휴게음식 - 일반한식","category":"restaurant"},{"name":"방축골","tel":"02-2688-7789","addr":"경기도 광명시 광명동 58-1번지 1층","indutype":"일반휴게음식 - 일반한식","category":"restaurant"}]},{"lat":"37.48056836","long":"126.8507954","imageIndex":4,"items":[{"name":"다모아김밥촌","tel":"02-2616-0063","addr":"경기도 광명시 광명동 158-1102번지 1층","indutype":"일반휴게음식 - 일반한식","category":"restaurant"},{"name":"대한옥설렁탕","tel":"02-2066-6833","addr":"경기도 광명시 광명동 158-1102번지 1층","indutype":"일반휴게음식 - 일반한식","category":"restaurant"}]},{"lat":"37.47767781","long":"126.8593143","imageIndex":4,"items":[{"name":"다비어","tel":"031-503-8018","addr":"경기도 광명시 광명동 158-1185번지 2층","indutype":"일반휴게음식 - 주점","category":"restaurant"},{"name":"보고파","tel":"02-2615-9868","addr":"경기도 광명시 광명동 158-1185번지 지층","indutype":"일반휴게음식 - 일반한식","category":"restaurant"}]},{"lat":"37.4814044","long":"126.8564354","imageIndex":4,"items":[{"name":"다영원","tel":"02-2617-1877","addr":"경기도 광명시 광명동 105-9번지 2층","indutype":"일반휴게음식 - 일반한식","category":"restaurant"},{"name":"치킨시대","tel":"02-2066-7292","addr":"경기도 광명시 광명동 105-9번지 1층","indutype":"일반휴게음식 - 스넥","category":"restaurant"}]},{"lat":"37.47043205","long":"126.8507142","imageIndex":4,"items":[{"name":"다온커피","tel":"070-7365-0492","addr":"경기도 광명시 광명동 374-146번지","indutype":"일반휴게음식 - 서양음식","category":"restaurant"}]},{"lat":"37.48562463","long":"126.8593443","imageIndex":4,"items":[{"name":"다이아몬드","tel":"02-2612-2087","addr":"경기도 광명시 광명동 12-194번지 1층","indutype":"일반휴게음식 - 일반한식","category":"restaurant"}]},{"lat":"37.47807483","long":"126.8597883","imageIndex":4,"items":[{"name":"다현","tel":"02-2060-5858","addr":"경기도 광명시 광명동 38-12번지 2층","indutype":"일반휴게음식 - 중국식","category":"restaurant"},{"name":"선화호프","tel":"02-2619-1818","addr":"경기도 광명시 광명동 38-12번지 지층","indutype":"일반휴게음식 - 주점","category":"restaurant"}]},{"lat":"37.47445552","long":"126.8476537","imageIndex":4,"items":[{"name":"달님포차","tel":"02-2612-1072","addr":"경기도 광명시 광명동 247-23번지 102호","indutype":"일반휴게음식 - 일반한식","category":"restaurant"}]},{"lat":"37.47762859","long":"126.8488455","imageIndex":4,"items":[{"name":"달달한오후","tel":"031-939-0177","addr":"경기도 광명시 광명동 213-4번지 1층","indutype":"일반휴게음식 - 서양음식","category":"restaurant"}]},{"lat":"37.47776506","long":"126.8569852","imageIndex":4,"items":[{"name":"달봉비어","tel":"02-2616-0442","addr":"경기도 광명시 광명동 158-480번지","indutype":"일반휴게음식 - 주점","category":"restaurant"}]},{"lat":"37.46776455","long":"126.8502901","imageIndex":4,"items":[{"name":"달빛갈매기","tel":"02-2613-8165","addr":"경기도 광명시 광명동 743-2번지 1층","indutype":"일반휴게음식 - 일반한식","category":"restaurant"},{"name":"호치킨하우스","tel":"02-2685-9295","addr":"경기도 광명시 광명동 743-2번지 1층","indutype":"일반휴게음식 - 주점","category":"restaurant"}]},{"lat":"37.47742838","long":"126.8616776","imageIndex":4,"items":[{"name":"달지롱","tel":"","addr":"경기도 광명시 광명동 33-70번지 1층","indutype":"일반휴게음식 - 서양음식","category":"restaurant"},{"name":"유로코피자개봉광명점","tel":"","addr":"경기도 광명시 광명동 33-70번지 1층 일부","indutype":"일반휴게음식 - 서양음식","category":"restaurant"}]},{"lat":"37.48068422","long":"126.8569343","imageIndex":4,"items":[{"name":"닭강정","tel":"02-696-6879","addr":"경기도 광명시 광명동 136-17번지 1층","indutype":"일반휴게음식 - 일반한식","category":"restaurant"}]},{"lat":"37.47696308","long":"126.8569076","imageIndex":4,"items":[{"name":"대가한우","tel":"02-2688-9285","addr":"경기도 광명시 광명동 158-434번지 1층","indutype":"일반휴게음식 - 일반한식","category":"restaurant"}]},{"lat":"37.48365719","long":"126.8566797","imageIndex":4,"items":[{"name":"대경외식","tel":"02-2618-3399","addr":"경기도 광명시 광명동 57-8번지 1층 일부호","indutype":"일반휴게음식 - 일반한식","category":"restaurant"},{"name":"청해해물","tel":"02-2060-0735","addr":"경기도 광명시 광명동 57-8번지 1층 102호","indutype":"일반휴게음식 - 일반한식","category":"restaurant"}]},{"lat":"37.46781934","long":"126.8508552","imageIndex":4,"items":[{"name":"대박꼬치","tel":"02-2684-7791","addr":"경기도 광명시 광명동 743-4번지 동신빌라 다동 101호","indutype":"일반휴게음식 - 스넥","category":"restaurant"}]},{"lat":"37.47476868","long":"126.8529325","imageIndex":4,"items":[{"name":"대박마포숯불갈비","tel":"02-2619-1402","addr":"경기도 광명시 광명동 297-37번지 1층","indutype":"일반휴게음식 - 일반한식","category":"restaurant"},{"name":"마포숯불갈비","tel":"02-2619-1402","addr":"경기도 광명시 광명동 297-37번지","indutype":"일반휴게음식 - 일반한식","category":"restaurant"}]},{"lat":"37.48270507","long":"126.8590672","imageIndex":4,"items":[{"name":"대박옛날통닭","tel":"02-000-0000","addr":"경기도 광명시 광명동 85-14번지","indutype":"일반휴게음식 - 스넥","category":"restaurant"}]},{"lat":"37.47967843","long":"126.8524026","imageIndex":4,"items":[{"name":"대박이회","tel":"02-2682-4304","addr":"경기도 광명시 광명동 158-850번지","indutype":"일반휴게음식 - 일식·회집","category":"restaurant"},{"name":"콩집와플","tel":"02-2060-9946","addr":"경기도 광명시 광명동 158-850번지 1층 지하","indutype":"일반휴게음식 - 서양음식","category":"restaurant"}]},{"lat":"37.47518219","long":"126.8521855","imageIndex":4,"items":[{"name":"대성갈비","tel":"02-683-3326","addr":"경기도 광명시 광명동 293-32번지","indutype":"일반휴게음식 - 일반한식","category":"restaurant"}]},{"lat":"37.47879355","long":"126.8580911","imageIndex":4,"items":[{"name":"대성곱창","tel":"02-2613-4602","addr":"경기도 광명시 광명동 152-8번지","indutype":"일반휴게음식 - 일반한식","category":"restaurant"}]},{"lat":"37.47801748","long":"126.8570977","imageIndex":4,"items":[{"name":"대성닭강정","tel":"02-2681-9979","addr":"경기도 광명시 광명동 158-484번지 1층","indutype":"일반휴게음식 - 스넥","category":"restaurant"}]},{"lat":"37.47828969","long":"126.8586574","imageIndex":4,"items":[{"name":"대왕","tel":"02-2618-0230","addr":"경기도 광명시 광명동 126-19번지 지층","indutype":"일반휴게음식 - 일반한식","category":"restaurant"}]},{"lat":"37.47926521","long":"126.8533757","imageIndex":4,"items":[{"name":"대왕곱창구이","tel":"02-2689-1365","addr":"경기도 광명시 광명동 158-811번지","indutype":"일반휴게음식 - 일반한식","category":"restaurant"}]},{"lat":"37.47868459","long":"126.8574017","imageIndex":4,"items":[{"name":"더 착한커피 광명사거리점","tel":"02-2618-9111","addr":"경기도 광명시 광명동 150-2번지","indutype":"일반휴게음식 - 서양음식","category":"restaurant"}]},{"lat":"37.47815277","long":"126.8572105","imageIndex":4,"items":[{"name":"더꼬치다","tel":"","addr":"경기도 광명시 광명동 158-485번지 1층 102호","indutype":"일반휴게음식 - 일반한식","category":"restaurant"}]},{"lat":"37.48520708","long":"126.8568237","imageIndex":4,"items":[{"name":"더드림","tel":"031-2684-0033","addr":"경기도 광명시 광명동 50-1번지","indutype":"일반휴게음식 - 일반한식","category":"restaurant"}]},{"lat":"37.47815387","long":"126.850936","imageIndex":4,"items":[{"name":"더빙맥","tel":"02-6325-0055","addr":"경기도 광명시 광명동 189-32번지 1층","indutype":"일반휴게음식 - 주점","category":"restaurant"}]},{"lat":"37.47234626","long":"126.8539322","imageIndex":4,"items":[{"name":"덕이네돼지뽈집","tel":"02-2060-0095","addr":"경기도 광명시 광명동 333-3번지 1층","indutype":"일반휴게음식 - 일반한식","category":"restaurant"},{"name":"풍성한뽈살","tel":"02-2060-0095","addr":"경기도 광명시 광명동 333-3번지 102호","indutype":"일반휴게음식 - 일반한식","category":"restaurant"}]},{"lat":"37.48384574","long":"126.856148","imageIndex":4,"items":[{"name":"도문양꼬치","tel":"070-7583-6808","addr":"경기도 광명시 광명동 56-4번지 1층 2호","indutype":"일반휴게음식 - 서양음식","category":"restaurant"},{"name":"호향주꾸미","tel":"02-2613-2268","addr":"경기도 광명시 광명동 56-4번지 1층 2호","indutype":"일반휴게음식 - 일반한식","category":"restaurant"},{"name":"호향쭈꾸미","tel":"02-3613-5566","addr":"경기도 광명시 광명동 56-4번지 1층 2호","indutype":"일반휴게음식 - 일반한식","category":"restaurant"}]},{"lat":"37.47367982","long":"126.847011","imageIndex":4,"items":[{"name":"돈먹쇠","tel":"070-4320-5993","addr":"경기도 광명시 광명동 243-5번지","indutype":"일반휴게음식 - 일반한식","category":"restaurant"},{"name":"연정두루치기","tel":"02-2060-6337","addr":"경기도 광명시 광명동 243-5번지","indutype":"일반휴게음식 - 일반한식","category":"restaurant"},{"name":"청개구리","tel":"02-2642-6650","addr":"경기도 광명시 광명동 243-5번지","indutype":"일반휴게음식 - 주점","category":"restaurant"}]},{"lat":"37.47382337","long":"126.8465472","imageIndex":4,"items":[{"name":"돈우네(광명점)","tel":"02-2613-7900","addr":"경기도 광명시 광명동 244-20번지 원림빌딩","indutype":"일반휴게음식 - 일반한식","category":"restaurant"},{"name":"옹심이네","tel":"02-2618-3737","addr":"경기도 광명시 광명동 244-20번지 원림빌딩 1층","indutype":"일반휴게음식 - 일반한식","category":"restaurant"}]},{"lat":"37.47870904","long":"126.8553214","imageIndex":4,"items":[{"name":"돈우정","tel":"031-503-8018","addr":"경기도 광명시 광명동 158-1070번지","indutype":"일반휴게음식 - 일반한식","category":"restaurant"}]},{"lat":"37.48031733","long":"126.8517682","imageIndex":4,"items":[{"name":"돌핀","tel":"02-2689-1431","addr":"경기도 광명시 광명동 158-219번지 2층","indutype":"일반휴게음식 - 일반한식","category":"restaurant"}]},{"lat":"37.47712672","long":"126.8580943","imageIndex":4,"items":[{"name":"동네","tel":"02-1111-1111","addr":"경기도 광명시 광명동 158-349번지 1층","indutype":"일반휴게음식 - 일반한식","category":"restaurant"}]},{"lat":"37.47573661","long":"126.8489286","imageIndex":4,"items":[{"name":"동네커피집","tel":"070-8870-0162","addr":"경기도 광명시 광명동 274-2번지 101호","indutype":"일반휴게음식 - 서양음식","category":"restaurant"}]},{"lat":"37.46773735","long":"126.8501545","imageIndex":4,"items":[{"name":"동네커피집","tel":"070-4195-7985","addr":"경기도 광명시 광명동 743-1번지 풍은빌딩 1층","indutype":"일반휴게음식 - 서양음식","category":"restaurant"},{"name":"수경이네식당","tel":"02-2687-5522","addr":"경기도 광명시 광명동 743-1번지 1층","indutype":"일반휴게음식 - 일반한식","category":"restaurant"}]},{"lat":"37.48109943","long":"126.857544","imageIndex":4,"items":[{"name":"동림양꼬치","tel":"070-4845-7779","addr":"경기도 광명시 광명동 110-9번지 1층","indutype":"일반휴게음식 - 일반한식","category":"restaurant"}]},{"lat":"37.48173711","long":"126.8559034","imageIndex":4,"items":[{"name":"동방교자왕","tel":"02-2060-9293","addr":"경기도 광명시 광명동 102-14번지","indutype":"일반휴게음식 - 일반한식","category":"restaurant"},{"name":"청솔","tel":"02-2687-0154","addr":"경기도 광명시 광명동 102-14번지 2층","indutype":"일반휴게음식 - 스넥","category":"restaurant"}]},{"lat":"37.4776839","long":"126.8569288","imageIndex":4,"items":[{"name":"동방꼬치","tel":"031-949-5835","addr":"경기도 광명시 광명동 158-477번지 세흥빌딩 1층","indutype":"일반휴게음식 - 중국식","category":"restaurant"},{"name":"우리포차","tel":"","addr":"경기도 광명시 광명동 158-477번지 세흥빌딩 101호","indutype":"일반휴게음식 - 주점","category":"restaurant"},{"name":"황금돼지무한리필","tel":"02-2616-5003","addr":"경기도 광명시 광명동 158-477번지 세흥빌딩 1층 일부","indutype":"일반휴게음식 - 일반한식","category":"restaurant"}]},{"lat":"37.46790925","long":"126.850708","imageIndex":4,"items":[{"name":"동방반점","tel":"02-2685-8277","addr":"경기도 광명시 광명동 743-3.1층4","indutype":"일반휴게음식 - 중국식","category":"restaurant"}]},{"lat":"37.48015236","long":"126.8567092","imageIndex":4,"items":[{"name":"동해수산","tel":"02-2689-5838","addr":"경기도 광명시 광명동 136-12번지","indutype":"일반휴게음식 - 일반한식","category":"restaurant"}]},{"lat":"37.469734","long":"126.8544347","imageIndex":4,"items":[{"name":"돼지네회집","tel":"02-2066-5098","addr":"경기도 광명시 광명동 720-7번지 광명7동 행정복지센터(에덴빌딩2층) 108호","indutype":"일반휴게음식 - 일반한식","category":"restaurant"},{"name":"비비큐체인점","tel":"02-2614-3080","addr":"경기도 광명시 광명동 720-7번지 에덴빌딩 1층","indutype":"일반휴게음식 - 스넥","category":"restaurant"},{"name":"짜짜루","tel":"02-2687-5777","addr":"경기도 광명시 광명동 720-7번지 에덴프라자 1층 108호","indutype":"일반휴게음식 - 중국식","category":"restaurant"},{"name":"코너빈","tel":"02-0000-0000","addr":"경기도 광명시 광명동 720-7번지 에덴프라자 106호,107호","indutype":"일반휴게음식 - 일반한식","category":"restaurant"}]},{"lat":"37.47648897","long":"126.8524542","imageIndex":4,"items":[{"name":"두꺼비설렁탕장수식당","tel":"031-747-3133","addr":"경기도 광명시 광명동 288-1번지 1층","indutype":"일반휴게음식 - 일반한식","category":"restaurant"},{"name":"토방","tel":"02-2617-8934","addr":"경기도 광명시 광명동 288-1번지","indutype":"일반휴게음식 - 칵테일바","category":"restaurant"}]},{"lat":"37.48096055","long":"126.8545369","imageIndex":4,"items":[{"name":"두리식당","tel":"02-2625-9970","addr":"경기도 광명시 광명동 143-7번지","indutype":"일반휴게음식 - 일반한식","category":"restaurant"}]},{"lat":"37.4842896","long":"126.8580692","imageIndex":4,"items":[{"name":"두리아숯불바베큐","tel":"02-2612-0093","addr":"경기도 광명시 광명동 60-19번지","indutype":"일반휴게음식 - 주점","category":"restaurant"},{"name":"만원의행복광명점","tel":"02-2684-9996","addr":"경기도 광명시 광명동 60-19번지","indutype":"일반휴게음식 - 일반한식","category":"restaurant"}]},{"lat":"37.48165598","long":"126.8558696","imageIndex":4,"items":[{"name":"두만강초두부","tel":"02-2618-1116","addr":"경기도 광명시 광명동 102-16번지 2층","indutype":"일반휴게음식 - 일반한식","category":"restaurant"},{"name":"아귀가손맛났네","tel":"02-2681-2644","addr":"경기도 광명시 광명동 102-16번지 1층","indutype":"일반휴게음식 - 일반한식","category":"restaurant"}]},{"lat":"37.48007316","long":"126.8510678","imageIndex":4,"items":[{"name":"두메골마늘보쌈","tel":"031-503-8018","addr":"경기도 광명시 광명동 158-859번지","indutype":"일반휴게음식 - 일반한식","category":"restaurant"},{"name":"천사의섬","tel":"02-2681-0073","addr":"경기도 광명시 광명동 158-859번지 2층","indutype":"일반휴게음식 - 일반한식","category":"restaurant"}]},{"lat":"37.47954364","long":"126.8526855","imageIndex":4,"items":[{"name":"두울","tel":"02-2612-6796","addr":"경기도 광명시 광명동 158-848번지 지하1층","indutype":"일반휴게음식 - 일반한식","category":"restaurant"}]},{"lat":"37.47793591","long":"126.8496024","imageIndex":4,"items":[{"name":"두찜광명1호점","tel":"02-2612-2229","addr":"경기도 광명시 광명동 176-20번지 1층 왼쪽일부호","indutype":"일반휴게음식 - 일반한식","category":"restaurant"},{"name":"피자투어광명5동점","tel":"02-2688-7155","addr":"경기도 광명시 광명동 176-20번지","indutype":"일반휴게음식 - 서양음식","category":"restaurant"}]},{"lat":"37.47751791","long":"126.8612026","imageIndex":4,"items":[{"name":"드립하우스","tel":"02-2611-3360","addr":"경기도 광명시 광명동 33-66번지 1층","indutype":"일반휴게음식 - 일반한식","category":"restaurant"}]},{"lat":"37.48046078","long":"126.8512139","imageIndex":4,"items":[{"name":"디딤돌","tel":"02-2612-3336","addr":"경기도 광명시 광명동 158-1085번지","indutype":"일반휴게음식 - 일반한식","category":"restaurant"}]},{"lat":"37.47429142","long":"126.8531483","imageIndex":4,"items":[{"name":"딜리버리킹","tel":"070-2699-0807","addr":"경기도 광명시 광명동 297-42번지 1층 일부호","indutype":"일반휴게음식 - 일반한식","category":"restaurant"}]},{"lat":"37.47615296","long":"126.8575423","imageIndex":4,"items":[{"name":"따순둥","tel":"02-2688-4656","addr":"경기도 광명시 광명동 41-174번지 1층","indutype":"일반휴게음식 - 일반한식","category":"restaurant"}]},{"lat":"37.48431738","long":"126.8586797","imageIndex":4,"items":[{"name":"딱좋아","tel":"02-2685-0322","addr":"경기도 광명시 광명동 61-5번지 103호","indutype":"일반휴게음식 - 일반한식","category":"restaurant"},{"name":"모여라포차","tel":"02-2689-0369","addr":"경기도 광명시 광명동 61-5번지 1층","indutype":"일반휴게음식 - 주점","category":"restaurant"}]},{"lat":"37.4764622","long":"126.8526578","imageIndex":4,"items":[{"name":"떡깨비","tel":"02-6494-0080","addr":"경기도 광명시 광명동 288-175번지 1층 일부","indutype":"일반휴게음식 - 스넥","category":"restaurant"},{"name":"배달의 쌀국수","tel":"02-1111-1111","addr":"경기도 광명시 광명동 288-175번지","indutype":"일반휴게음식 - 일반한식","category":"restaurant"}]},{"lat":"37.48056997","long":"126.8592861","imageIndex":4,"items":[{"name":"떡볶이하우스","tel":"02-6012-3156","addr":"경기도 광명시 광명동 122-8번지 1층","indutype":"일반휴게음식 - 일반한식","category":"restaurant"},{"name":"라온푸드","tel":"02-000-0000","addr":"경기도 광명시 광명동 122-8번지 1층 3호","indutype":"일반휴게음식 - 스넥","category":"restaurant"}]},{"lat":"37.48876524","long":"126.8636463","imageIndex":4,"items":[{"name":"또와막창","tel":"02-2688-1232","addr":"경기도 광명시 광명동 6-98번지 1층","indutype":"일반휴게음식 - 일반한식","category":"restaurant"}]},{"lat":"37.48340489","long":"126.8566576","imageIndex":4,"items":[{"name":"또와유포장마차","tel":"02-2682-1688","addr":"경기도 광명시 광명동 92-12번지","indutype":"일반휴게음식 - 일반한식","category":"restaurant"}]},{"lat":"37.47353944","long":"126.8499053","imageIndex":4,"items":[{"name":"뚱땡이네","tel":"02-2686-9291","addr":"경기도 광명시 광명동 348-9번지","indutype":"일반휴게음식 - 일반한식","category":"restaurant"},{"name":"만나비빔밥","tel":"","addr":"경기도 광명시 광명동 348-9번지","indutype":"일반휴게음식 - 일반한식","category":"restaurant"},{"name":"전라도집","tel":"02-2686-5236","addr":"경기도 광명시 광명동 348-9번지 1층","indutype":"일반휴게음식 - 일반한식","category":"restaurant"}]},{"lat":"37.47926908","long":"126.8564622","imageIndex":4,"items":[{"name":"뚱보냉면","tel":"02-2682-6792","addr":"경기도 광명시 광명동 158-18번지","indutype":"일반휴게음식 - 스넥","category":"restaurant"},{"name":"한우리","tel":"02-2616-3232","addr":"경기도 광명시 광명동 158-18번지 1층","indutype":"일반휴게음식 - 일반한식","category":"restaurant"}]},{"lat":"37.48098376","long":"126.8587313","imageIndex":4,"items":[{"name":"뜨락","tel":"02-685-0766","addr":"경기도 광명시 광명동 116-12번지","indutype":"일반휴게음식 - 일반한식","category":"restaurant"}]},{"lat":"37.47837176","long":"126.8594599","imageIndex":4,"items":[{"name":"라온제나","tel":"","addr":"경기도 광명시 광명동 35-14번지","indutype":"일반휴게음식 - 일반한식","category":"restaurant"}]},{"lat":"37.47846023","long":"126.8581257","imageIndex":4,"items":[{"name":"라이브광장","tel":"02-2612-3892","addr":"경기도 광명시 광명동 149-6번지 3층","indutype":"일반휴게음식 - 칵테일바","category":"restaurant"}]},{"lat":"37.49073999","long":"126.8649882","imageIndex":4,"items":[{"name":"레드몬스터 (광명점)","tel":"02-3666-9903","addr":"경기도 광명시 광명동 5-80번지 광복시장 1층","indutype":"일반휴게음식 - 스넥","category":"restaurant"}]},{"lat":"37.47762621","long":"126.8613493","imageIndex":4,"items":[{"name":"레이지룸","tel":"070-7420-4823","addr":"경기도 광명시 광명동 33-78번지 1층","indutype":"일반휴게음식 - 서양음식","category":"restaurant"}]},{"lat":"37.478151","long":"126.855786","imageIndex":4,"items":[{"name":"레츠고","tel":"031-2060-6511","addr":"경기도 광명시 광명동 158-569번지","indutype":"일반휴게음식 - 일반한식","category":"restaurant"}]},{"lat":"37.46781886","long":"126.8504821","imageIndex":4,"items":[{"name":"로데오","tel":"02-2613-4280","addr":"경기도 광명시 광명동 743-9번지 뉴월드빌딩 1층 103호","indutype":"일반휴게음식 - 일반한식","category":"restaurant"},{"name":"비엠에프","tel":"02-2688-1777","addr":"경기도 광명시 광명동 743-9번지 뉴월드빌딩 (1층7,8호)","indutype":"일반휴게음식 - 일반한식","category":"restaurant"},{"name":"사계절추어탕","tel":"02-2683-2525","addr":"경기도 광명시 광명동 743-9번지 뉴월드빌딩 1층 10호","indutype":"일반휴게음식 - 일반한식","category":"restaurant"},{"name":"술시","tel":"","addr":"경기도 광명시 광명동 743-9번지 뉴월드빌딩 1층 2호","indutype":"일반휴게음식 - 주점","category":"restaurant"},{"name":"아지트","tel":"02-2688-0280","addr":"경기도 광명시 광명동 743-9번지 뉴월드빌딩 1층 6호","indutype":"일반휴게음식 - 일반한식","category":"restaurant"}]},{"lat":"37.47504692","long":"126.8520954","imageIndex":4,"items":[{"name":"로뎀나무","tel":"02-2616-1194","addr":"경기도 광명시 광명동 293-31번지 1층","indutype":"일반휴게음식 - 칵테일바","category":"restaurant"}]},{"lat":"37.47324023","long":"126.8484589","imageIndex":4,"items":[{"name":"로빈스커피","tel":"02-2615-3234","addr":"경기도 광명시 광명동 352-38번지","indutype":"일반휴게음식 - 서양음식","category":"restaurant"}]},{"lat":"37.47931944","long":"126.8535113","imageIndex":4,"items":[{"name":"로쉬치킨","tel":"02-2060-5589","addr":"경기도 광명시 광명동 158-810번지 1층","indutype":"일반휴게음식 - 칵테일바","category":"restaurant"}]},{"lat":"37.47893213","long":"126.8536025","imageIndex":4,"items":[{"name":"로스타임","tel":"02-2612-5454","addr":"경기도 광명시 광명동 158-804번지 대명센스빌 1층","indutype":"일반휴게음식 - 칵테일바","category":"restaurant"},{"name":"뻥쟁이","tel":"031-503-8018","addr":"경기도 광명시 광명동 158-804번지 대명센스빌 1층 102호","indutype":"일반휴게음식 - 일반한식","category":"restaurant"},{"name":"우리정","tel":"02-2684-5888","addr":"경기도 광명시 광명동 158-804번지 대명센스빌 2층","indutype":"일반휴게음식 - 일반한식","category":"restaurant"}]},{"lat":"37.47826615","long":"126.854203","imageIndex":4,"items":[{"name":"롯데리아광명점","tel":"02-2066-7172","addr":"경기도 광명시 광명동 158-520번지","indutype":"일반휴게음식 - 스넥","category":"restaurant"},{"name":"본죽","tel":"02-2685-6233","addr":"경기도 광명시 광명동 158-520번지 대명프라자 1층","indutype":"일반휴게음식 - 일반한식","category":"restaurant"}]},{"lat":"37.47801874","long":"126.8581265","imageIndex":4,"items":[{"name":"루앤비딜리버리/주식회사 루앤비","tel":"031-000-0000","addr":"경기도 광명시 광명동 158-375번지 2층 202호","indutype":"일반휴게음식 - 서양음식","category":"restaurant"},{"name":"리엠피레","tel":"02-2060-7772","addr":"경기도 광명시 광명동 158-375번지 3층","indutype":"일반휴게음식 - 서양음식","category":"restaurant"},{"name":"명품","tel":"02-6408-1869","addr":"경기도 광명시 광명동 158-375번지 1층 102호","indutype":"일반휴게음식 - 일반한식","category":"restaurant"}]},{"lat":"37.47642977","long":"126.8484636","imageIndex":4,"items":[{"name":"린다","tel":"070-4641-1347","addr":"경기도 광명시 광명동 270-14번지","indutype":"일반휴게음식 - 서양음식","category":"restaurant"}]},{"lat":"37.48056705","long":"126.8569006","imageIndex":4,"items":[{"name":"마니보쌈","tel":"02-2688-9295","addr":"경기도 광명시 광명동 136-16번지 1층","indutype":"일반휴게음식 - 일반한식","category":"restaurant"},{"name":"목포곱창","tel":"02-2689-5155","addr":"경기도 광명시 광명동 136-16번지","indutype":"일반휴게음식 - 일반한식","category":"restaurant"}]},{"lat":"37.47921086","long":"126.8531497","imageIndex":4,"items":[{"name":"마리에로즈","tel":"070-4150-1008","addr":"경기도 광명시 광명동 158-825번지 3층","indutype":"일반휴게음식 - 서양음식","category":"restaurant"},{"name":"통큰갈비(광명사거리)","tel":"02-2618-8292","addr":"경기도 광명시 광명동 158-825번지 1층","indutype":"일반휴게음식 - 일반한식","category":"restaurant"}]},{"lat":"37.48612282","long":"126.8615368","imageIndex":4,"items":[{"name":"마사지카페","tel":"02-6013-7670","addr":"경기도 광명시 광명동 17-6번지 1층","indutype":"일반휴게음식 - 서양음식","category":"restaurant"}]},{"lat":"37.47467808","long":"126.852537","imageIndex":4,"items":[{"name":"마산아구찜해물탕","tel":"02-2060-9994","addr":"경기도 광명시 광명동 293-17번지 1층","indutype":"일반휴게음식 - 일반한식","category":"restaurant"}]},{"lat":"37.47915702","long":"126.8533194","imageIndex":4,"items":[{"name":"마왕족발 광명점","tel":"02-884-3737","addr":"경기도 광명시 광명동 158-812번지 1층","indutype":"일반휴게음식 - 일반한식","category":"restaurant"},{"name":"만나고쪽갈비광명사거리점","tel":"02-2066-6092","addr":"경기도 광명시 광명동 158-812번지 1층","indutype":"일반휴게음식 - 일반한식","category":"restaurant"},{"name":"아맛나슈퍼광명사거리점","tel":"02-2066-3684","addr":"경기도 광명시 광명동 158-812번지 2층","indutype":"일반휴게음식 - 일반한식","category":"restaurant"},{"name":"윤정포차","tel":"02-2609-8909","addr":"경기도 광명시 광명동 158-812번지","indutype":"일반휴게음식 - 일반한식","category":"restaurant"}]},{"lat":"37.48459736","long":"126.8592332","imageIndex":4,"items":[{"name":"마이빈","tel":"02-6013-6737","addr":"경기도 광명시 광명동 39-21번지 1층","indutype":"일반휴게음식 - 스넥","category":"restaurant"}]},{"lat":"37.47796034","long":"126.8546219","imageIndex":4,"items":[{"name":"마이산가든","tel":"02-2688-2112","addr":"경기도 광명시 광명동 158-536번지 1층","indutype":"일반휴게음식 - 일반한식","category":"restaurant"}]},{"lat":"37.47931786","long":"126.8522677","imageIndex":4,"items":[{"name":"마포빈대떡","tel":"02-2060-2227","addr":"경기도 광명시 광명동 158-889번지","indutype":"일반휴게음식 - 일반한식","category":"restaurant"},{"name":"방과후포차","tel":"070-4845-7779","addr":"경기도 광명시 광명동 158-889번지","indutype":"일반휴게음식 - 일반한식","category":"restaurant"},{"name":"일팔 브라더곱창 (광명본점)","tel":"02-2684-9990","addr":"경기도 광명시 광명동 158-889번지 1층 1-4호","indutype":"일반휴게음식 - 일반한식","category":"restaurant"},{"name":"짝태랑문어랑","tel":"02-2625-1236","addr":"경기도 광명시 광명동 158-889번지 1층","indutype":"일반휴게음식 - 일반한식","category":"restaurant"}]},{"lat":"37.47898573","long":"126.8532406","imageIndex":4,"items":[{"name":"마포왕갈비","tel":"02-2619-8377","addr":"경기도 광명시 광명동 158-814번지","indutype":"일반휴게음식 - 일반한식","category":"restaurant"},{"name":"싸다돼지마을","tel":"02-2066-7556","addr":"경기도 광명시 광명동 158-814번지","indutype":"일반휴게음식 - 일반한식","category":"restaurant"},{"name":"야끼도리","tel":"02-333-1685","addr":"경기도 광명시 광명동 158-814번지 2층","indutype":"일반휴게음식 - 일반한식","category":"restaurant"}]},{"lat":"37.46752007","long":"126.8493523","imageIndex":4,"items":[{"name":"마포집","tel":"02-2625-8163","addr":"경기도 광명시 광명동 747-5번지 1층","indutype":"일반휴게음식 - 일반한식","category":"restaurant"}]},{"lat":"37.47507356","long":"126.8517901","imageIndex":4,"items":[{"name":"만남호프","tel":"02-6497-1690","addr":"경기도 광명시 광명동 288-133번지 1층","indutype":"일반휴게음식 - 주점","category":"restaurant"}]},{"lat":"37.47417922","long":"126.8499605","imageIndex":4,"items":[{"name":"만리향","tel":"02-2686-0074","addr":"경기도 광명시 광명동 267-8번지 1층","indutype":"일반휴게음식 - 중국식","category":"restaurant"},{"name":"이숙영홍성한우정육식당","tel":"031-311-4721","addr":"경기도 광명시 광명동 267-8번지 1층","indutype":"일반휴게음식 - 일반한식","category":"restaurant"}]},{"lat":"37.47317886","long":"126.849759","imageIndex":4,"items":[{"name":"만선수산","tel":"02-2683-9009","addr":"경기도 광명시 광명동 348-12번지 1층","indutype":"일반휴게음식 - 일반한식","category":"restaurant"},{"name":"아지트호프","tel":"111-1111-111","addr":"경기도 광명시 광명동 348-12번지 2층","indutype":"일반휴게음식 - 주점","category":"restaurant"}]},{"lat":"37.47973968","long":"126.8581571","imageIndex":4,"items":[{"name":"만흥가냉면","tel":"02-6402-1228","addr":"경기도 광명시 광명동 130-12번지 양지빌딩 1층","indutype":"일반휴게음식 - 일반한식","category":"restaurant"}]},{"lat":"37.48268242","long":"126.8553136","imageIndex":4,"items":[{"name":"맘스키친","tel":"02-111-1111","addr":"경기도 광명시 광명동 97-2번지 1층","indutype":"일반휴게음식 - 일반한식","category":"restaurant"},{"name":"야화","tel":"02-2060-2235","addr":"경기도 광명시 광명동 97-2번지","indutype":"일반휴게음식 - 주점","category":"restaurant"}]},{"lat":"37.47878982","long":"126.8550725","imageIndex":4,"items":[{"name":"맘스터치 광명사거리점","tel":"02-3666-8088","addr":"경기도 광명시 광명동 158-510번지 2층","indutype":"일반휴게음식 - 서양음식","category":"restaurant"},{"name":"맘스터치광명사거리점/(주) 에이치앤에스컬","tel":"02-3666-8088","addr":"경기도 광명시 광명동 158-510번지 2층","indutype":"일반휴게음식 - 서양음식","category":"restaurant"}]},{"lat":"37.47012362","long":"126.8490983","imageIndex":4,"items":[{"name":"맛고을","tel":"02-2060-2571","addr":"경기도 광명시 광명동 751-1번지 1층","indutype":"일반휴게음식 - 일반한식","category":"restaurant"}]},{"lat":"37.47751777","long":"126.8537636","imageIndex":4,"items":[{"name":"맛닭꼬(광명사거리역점)","tel":"02-2682-3392","addr":"경기도 광명시 광명동 158-780번지 103,104호","indutype":"일반휴게음식 - 주점","category":"restaurant"},{"name":"사거리철판순대곱창","tel":"","addr":"경기도 광명시 광명동 158-780번지 1층","indutype":"일반휴게음식 - 일반한식","category":"restaurant"},{"name":"수유리우동집(광명사거리점)","tel":"02-2615-2313","addr":"경기도 광명시 광명동 158-780번지 1층","indutype":"일반휴게음식 - 일반한식","category":"restaurant"},{"name":"카페루앤비","tel":"02-6015-1690","addr":"경기도 광명시 광명동 158-780번지 1층102","indutype":"일반휴게음식 - 서양음식","category":"restaurant"},{"name":"코리아숯불바베큐","tel":"02-2689-8788","addr":"경기도 광명시 광명동 158-780번지 103호,104호","indutype":"일반휴게음식 - 스넥","category":"restaurant"}]},{"lat":"37.46809936","long":"126.8514085","imageIndex":4,"items":[{"name":"맛닭꼬(광명점)","tel":"02-2684-5592","addr":"경기도 광명시 광명동 738-2번지 1층","indutype":"일반휴게음식 - 스넥","category":"restaurant"},{"name":"봉평메밀촌","tel":"02-2611-4948","addr":"경기도 광명시 광명동 738-2번지 1층 일부","indutype":"일반휴게음식 - 일반한식","category":"restaurant"}]},{"lat":"37.47637811","long":"126.8574627","imageIndex":4,"items":[{"name":"맛있는 엄마밥집","tel":"02-2687-0494","addr":"경기도 광명시 광명동 43-34번지","indutype":"일반휴게음식 - 일반한식","category":"restaurant"}]},{"lat":"37.48762561","long":"126.8599849","imageIndex":4,"items":[{"name":"머그프리","tel":"070-8834-0181","addr":"경기도 광명시 광명동 7-43번지","indutype":"일반휴게음식 - 서양음식","category":"restaurant"}]},{"lat":"37.48178943","long":"126.8545126","imageIndex":4,"items":[{"name":"면사무소","tel":"02-2688-8015","addr":"경기도 광명시 광명동 144-1번지","indutype":"일반휴게음식 - 중국식","category":"restaurant"}]},{"lat":"37.48112543","long":"126.8495959","imageIndex":4,"items":[{"name":"면장집","tel":"","addr":"경기도 광명시 광명동 159-5번지 1층","indutype":"일반휴게음식 - 일반한식","category":"restaurant"},{"name":"화정한돈갈비","tel":"02-2617-0990","addr":"경기도 광명시 광명동 159-5번지","indutype":"일반휴게음식 - 일반한식","category":"restaurant"}]},{"lat":"37.47904399","long":"126.8565983","imageIndex":4,"items":[{"name":"명동만두","tel":"02-2686-7966","addr":"경기도 광명시 광명동 150-12번지 1층","indutype":"일반휴게음식 - 일반한식","category":"restaurant"}]},{"lat":"37.46840714","long":"126.8525383","imageIndex":4,"items":[{"name":"명동칼국수","tel":"02-2686-3665","addr":"경기도 광명시 광명동 725-2번지 1층","indutype":"일반휴게음식 - 일반한식","category":"restaurant"}]},{"lat":"37.48281758","long":"126.8553246","imageIndex":4,"items":[{"name":"명동칼국수","tel":"02-2686-2823","addr":"경기도 광명시 광명동 97-1번지 1층","indutype":"일반휴게음식 - 일반한식","category":"restaurant"},{"name":"태양","tel":"02-2614-2225","addr":"경기도 광명시 광명동 97-1번지","indutype":"일반휴게음식 - 일반한식","category":"restaurant"}]},{"lat":"37.47948368","long":"126.8551503","imageIndex":4,"items":[{"name":"명랑핫도그","tel":"070-8851-7000","addr":"경기도 광명시 광명동 150-17번지 1층 110호","indutype":"일반휴게음식 - 서양음식","category":"restaurant"},{"name":"서울마님죽2호점","tel":"02-2616-8977","addr":"경기도 광명시 광명동 150-17번지 광명시장제1층 131호","indutype":"일반휴게음식 - 일반한식","category":"restaurant"},{"name":"옛추억","tel":"02-2613-0053","addr":"경기도 광명시 광명동 150-17번지 201호","indutype":"일반휴게음식 - 일반한식","category":"restaurant"},{"name":"이디야광명사거리역점","tel":"02-2619-1025","addr":"경기도 광명시 광명동 150-17번지 가호 201호","indutype":"일반휴게음식 - 서양음식","category":"restaurant"},{"name":"줄줄이한식부페","tel":"02-2683-6756","addr":"경기도 광명시 광명동 150-17번지 2층","indutype":"일반휴게음식 - 일반한식","category":"restaurant"},{"name":"한순자네","tel":"02-2611-5166","addr":"경기도 광명시 광명동 150-17번지","indutype":"일반휴게음식 - 일반한식","category":"restaurant"}]},{"lat":"37.48004417","long":"126.8566529","imageIndex":4,"items":[{"name":"명성족발","tel":"","addr":"경기도 광명시 광명동 136-11번지 1층","indutype":"일반휴게음식 - 일반한식","category":"restaurant"},{"name":"천하일미 닭강정","tel":"02-3666-6333","addr":"경기도 광명시 광명동 136-11번지 1층 일부","indutype":"일반휴게음식 - 일반한식","category":"restaurant"}]},{"lat":"37.48126886","long":"126.8561191","imageIndex":4,"items":[{"name":"명인당 수제 고로케","tel":"02-2688-1145","addr":"경기도 광명시 광명동 140-1번지 1층","indutype":"일반휴게음식 - 스넥","category":"restaurant"},{"name":"옛날마차","tel":"02-2619-8969","addr":"경기도 광명시 광명동 140-1번지","indutype":"일반휴게음식 - 일반한식","category":"restaurant"},{"name":"허흑오리","tel":"02-2616-8816","addr":"경기도 광명시 광명동 140-1번지 1층 괌염동","indutype":"일반휴게음식 - 일반한식","category":"restaurant"}]},{"lat":"37.47345811","long":"126.8497133","imageIndex":4,"items":[{"name":"명태골","tel":"02-2683-8605","addr":"경기도 광명시 광명동 349번지 1층","indutype":"일반휴게음식 - 일반한식","category":"restaurant"},{"name":"우리식당","tel":"02-000-0000","addr":"경기도 광명시 광명동 349번지 1층","indutype":"일반휴게음식 - 일반한식","category":"restaurant"},{"name":"원조순대국","tel":"02-2686-6823","addr":"경기도 광명시 광명동 349번지","indutype":"일반휴게음식 - 일반한식","category":"restaurant"},{"name":"호남식당","tel":"02-2618-0892","addr":"경기도 광명시 광명동 349번지 1층","indutype":"일반휴게음식 - 일반한식","category":"restaurant"}]},{"lat":"37.47367843","long":"126.8529008","imageIndex":4,"items":[{"name":"명태나라","tel":"02-2693-7765","addr":"경기도 광명시 광명동 337-21번지 청운빌라 1층","indutype":"일반휴게음식 - 일반한식","category":"restaurant"}]},{"lat":"37.48976656","long":"126.8646847","imageIndex":4,"items":[{"name":"명태랑고기랑","tel":"02-897-7300","addr":"경기도 광명시 광명동 6-19번지 1층","indutype":"일반휴게음식 - 일반한식","category":"restaurant"},{"name":"선진수산","tel":"02-2066-8880","addr":"경기도 광명시 광명동 6-19번지 삼성빌라 1층","indutype":"일반휴게음식 - 일반한식","category":"restaurant"},{"name":"쌀쌀맞은닭","tel":"02-2625-3040","addr":"경기도 광명시 광명동 6-19번지 1층","indutype":"일반휴게음식 - 주점","category":"restaurant"}]},{"lat":"37.4740169","long":"126.8498478","imageIndex":4,"items":[{"name":"명포차","tel":"070-8115-3305","addr":"경기도 광명시 광명동 263-38번지","indutype":"일반휴게음식 - 주점","category":"restaurant"},{"name":"전주식당","tel":"02-2615-4788","addr":"경기도 광명시 광명동 263-38번지 1층","indutype":"일반휴게음식 - 일반한식","category":"restaurant"}]},{"lat":"37.47365786","long":"126.8508999","imageIndex":4,"items":[{"name":"명품명가족발","tel":"02-2688-5090","addr":"경기도 광명시 광명동 346-1번지 1층","indutype":"일반휴게음식 - 일반한식","category":"restaurant"},{"name":"시장안통닭","tel":"02-2060-9995","addr":"경기도 광명시 광명동 346-1번지","indutype":"일반휴게음식 - 스넥","category":"restaurant"}]},{"lat":"37.47989994","long":"126.8565966","imageIndex":4,"items":[{"name":"명품짜장","tel":"02-2066-8424","addr":"경기도 광명시 광명동 158-24번지 1층","indutype":"일반휴게음식 - 중국식","category":"restaurant"},{"name":"쌍둥이만두","tel":"02-2618-8096","addr":"경기도 광명시 광명동 158-24번지 1층","indutype":"일반휴게음식 - 스넥","category":"restaurant"}]},{"lat":"37.46896463","long":"126.8516554","imageIndex":4,"items":[{"name":"무교동낚지(광명역분점)","tel":"02-2617-5267","addr":"경기도 광명시 광명동 419-6번지","indutype":"일반휴게음식 - 일반한식","category":"restaurant"}]},{"lat":"37.47862721","long":"126.8547337","imageIndex":4,"items":[{"name":"무아지경","tel":"02-2060-6123","addr":"경기도 광명시 광명동 158-528번지 1층","indutype":"일반휴게음식 - 일반한식","category":"restaurant"}]},{"lat":"37.47271381","long":"126.8524618","imageIndex":4,"items":[{"name":"무진","tel":"02-000-0000","addr":"경기도 광명시 광명동 337-58번지 문영시티빌라 1층 104호","indutype":"일반휴게음식 - 일반한식","category":"restaurant"},{"name":"빛나리","tel":"02-2060-3771","addr":"경기도 광명시 광명동 337-58문영시티빌1층3","indutype":"일반휴게음식 - 주점","category":"restaurant"},{"name":"술먹는하마","tel":"02-2688-7469","addr":"경기도 광명시 광명동 337-58번지 문영시티빌라","indutype":"일반휴게음식 - 주점","category":"restaurant"},{"name":"엠바","tel":"","addr":"경기도 광명시 광명동 337-58번지 문영시티빌라 1층 105호","indutype":"일반휴게음식 - 주점","category":"restaurant"},{"name":"차칸포차","tel":"02-2685-1158","addr":"경기도 광명시 광명동 337-58번지 문영시티빌라 1층 102호","indutype":"일반휴게음식 - 일반한식","category":"restaurant"}]},{"lat":"37.46868503","long":"126.8514299","imageIndex":4,"items":[{"name":"무진장갈비","tel":"02-2686-7957","addr":"경기도 광명시 광명동 739-5번지 1층","indutype":"일반휴게음식 - 일반한식","category":"restaurant"}]},{"lat":"37.47915167","long":"126.8562363","imageIndex":4,"items":[{"name":"무침프로젝트홍어무침 광명시장점","tel":"02-2060-5563","addr":"경기도 광명시 광명동 150-16번지 1층","indutype":"일반휴게음식 - 일반한식","category":"restaurant"}]},{"lat":"37.4842351","long":"126.8577075","imageIndex":4,"items":[{"name":"뭉탱이","tel":"02-2688-7726","addr":"경기도 광명시 광명동 59-17번지 1층","indutype":"일반휴게음식 - 일반한식","category":"restaurant"}]},{"lat":"37.47651512","long":"126.8517646","imageIndex":4,"items":[{"name":"미가돈까스","tel":"02-2060-1173","addr":"경기도 광명시 광명동 288-19번지","indutype":"일반휴게음식 - 서양음식","category":"restaurant"}]},{"lat":"37.47901325","long":"126.853625","imageIndex":4,"items":[{"name":"미고","tel":"02-2060-2236","addr":"경기도 광명시 광명동 158-805번지 1층","indutype":"일반휴게음식 - 일반한식","category":"restaurant"}]},{"lat":"37.47804492","long":"126.8502918","imageIndex":4,"items":[{"name":"미니가맥","tel":"031-111-1111","addr":"경기도 광명시 광명동 209-2번지 1층","indutype":"일반휴게음식 - 주점","category":"restaurant"}]},{"lat":"37.47996111","long":"126.8550702","imageIndex":4,"items":[{"name":"미래네식당","tel":"","addr":"경기도 광명시 광명동 158-77번지 1층 일부","indutype":"일반휴게음식 - 일반한식","category":"restaurant"}]},{"lat":"37.48243001","long":"126.8552123","imageIndex":4,"items":[{"name":"미소","tel":"02-000-0000","addr":"경기도 광명시 광명동 100-2번지 1층 101호","indutype":"일반휴게음식 - 일반한식","category":"restaurant"}]},{"lat":"37.46754031","long":"126.8510705","imageIndex":4,"items":[{"name":"미소면","tel":"02-2681-1721","addr":"경기도 광명시 광명동 737-6번지 토미하우스 1층","indutype":"일반휴게음식 - 스넥","category":"restaurant"}]},{"lat":"37.47912932","long":"126.8527881","imageIndex":4,"items":[{"name":"미수기","tel":"","addr":"경기도 광명시 광명동 158-835번지 101호","indutype":"일반휴게음식 - 일반한식","category":"restaurant"},{"name":"비바","tel":"","addr":"경기도 광명시 광명동 158-835번지 102호","indutype":"일반휴게음식 - 칵테일바","category":"restaurant"}]},{"lat":"37.48115115","long":"126.8556558","imageIndex":4,"items":[{"name":"미스고순대국","tel":"02-2688-2900","addr":"경기도 광명시 광명동 141-11번지 1층","indutype":"일반휴게음식 - 일반한식","category":"restaurant"}]},{"lat":"37.48151207","long":"126.8560734","imageIndex":4,"items":[{"name":"미스터짱닭치킨","tel":"02-2688-3443","addr":"경기도 광명시 광명동 104-8번지","indutype":"일반휴게음식 - 스넥","category":"restaurant"},{"name":"분이네알탕탕","tel":"070-9974-7083","addr":"경기도 광명시 광명동 104-8번지 1층","indutype":"일반휴게음식 - 일반한식","category":"restaurant"}]},{"lat":"37.47737718","long":"126.8566242","imageIndex":4,"items":[{"name":"민물매운탕","tel":"02-2616-8767","addr":"경기도 광명시 광명동 158-471번지 1층","indutype":"일반휴게음식 - 일반한식","category":"restaurant"}]},{"lat":"37.47171246","long":"126.8514916","imageIndex":4,"items":[{"name":"민정생맥주","tel":"02-2060-7664","addr":"경기도 광명시 광명동 324-24번지 1층","indutype":"일반휴게음식 - 주점","category":"restaurant"},{"name":"스타트호프","tel":"02-2611-3734","addr":"경기도 광명시 광명동 324-24번지 1층","indutype":"일반휴게음식 - 주점","category":"restaurant"}]},{"lat":"37.48504427","long":"126.8563152","imageIndex":4,"items":[{"name":"바다해수산","tel":"02-2683-8355","addr":"경기도 광명시 광명동 51-10번지 1층","indutype":"일반휴게음식 - 일반한식","category":"restaurant"},{"name":"황제꼼장어","tel":"02-2625-8592","addr":"경기도 광명시 광명동 51-10번지","indutype":"일반휴게음식 - 일반한식","category":"restaurant"}]},{"lat":"37.4811517","long":"126.8560967","imageIndex":4,"items":[{"name":"바람부리명태찜","tel":"02-2060-8497","addr":"경기도 광명시 광명동 140-2번지 1층 일부","indutype":"일반휴게음식 - 일반한식","category":"restaurant"}]},{"lat":"37.48990209","long":"126.8650123","imageIndex":4,"items":[{"name":"바비또밥버거","tel":"02-2060-8877","addr":"경기도 광명시 광명동 5-41번지","indutype":"일반휴게음식 - 스넥","category":"restaurant"},{"name":"별난만두카페","tel":"02-2688-0700","addr":"경기도 광명시 광명동 5-41번지 1층","indutype":"일반휴게음식 - 일반한식","category":"restaurant"},{"name":"장충동이가족발","tel":"02-2614-8831","addr":"경기도 광명시 광명동 5-41번지","indutype":"일반휴게음식 - 일반한식","category":"restaurant"},{"name":"초원갈비","tel":"02-685-0057","addr":"경기도 광명시 광명동 5-41번지","indutype":"일반휴게음식 - 일반한식","category":"restaurant"}]},{"lat":"37.48051609","long":"126.8594332","imageIndex":4,"items":[{"name":"바사칸 동네치킨 (광명사거리점)","tel":"02-2066-9282","addr":"경기도 광명시 광명동 122-7번지 1층 일부 코너","indutype":"일반휴게음식 - 스넥","category":"restaurant"}]},{"lat":"37.47456976","long":"126.852379","imageIndex":4,"items":[{"name":"바우네나주곰탕","tel":"02-2613-1690","addr":"경기도 광명시 광명동 290-34번지 1층","indutype":"일반휴게음식 - 일반한식","category":"restaurant"},{"name":"이디야커피 광명사거리점","tel":"02-2684-4002","addr":"경기도 광명시 광명동 290-34번지","indutype":"일반휴게음식 - 서양음식","category":"restaurant"}]},{"lat":"37.47767784","long":"126.8521014","imageIndex":4,"items":[{"name":"바푸리숯불김밥광명사거리점","tel":"02-2685-5335","addr":"경기도 광명시 광명동 200-6번지 한진아파트","indutype":"일반휴게음식 - 스넥","category":"restaurant"},{"name":"종로분식","tel":"02-2069-5247","addr":"경기도 광명시 광명동 200-6번지 한진상가 2동 2108호","indutype":"일반휴게음식 - 스넥","category":"restaurant"}]},{"lat":"37.48037612","long":"126.8555103","imageIndex":4,"items":[{"name":"박보성수제돈까스","tel":"","addr":"경기도 광명시 광명동 158-1306번지 1층 일부호","indutype":"일반휴게음식 - 일반한식","category":"restaurant"}]},{"lat":"37.46782371","long":"126.8542915","imageIndex":4,"items":[{"name":"박지훈커피랩","tel":"02-6439-4999","addr":"경기도 광명시 광명동 730-15번지 우덕빌라 1층 101호","indutype":"일반휴게음식 - 서양음식","category":"restaurant"}]},{"lat":"37.48392808","long":"126.8571541","imageIndex":4,"items":[{"name":"밥집","tel":"02-2060-5590","addr":"경기도 광명시 광명동 58-13번지 1층","indutype":"일반휴게음식 - 일반한식","category":"restaurant"}]},{"lat":"37.48412613","long":"126.857018","imageIndex":4,"items":[{"name":"밥집","tel":"02-2060-5590","addr":"경기도 광명시 광명동 57-10번지 1층","indutype":"일반휴게음식 - 일반한식","category":"restaurant"},{"name":"부산횟집","tel":"02-2611-5857","addr":"경기도 광명시 광명동 57-10번지","indutype":"일반휴게음식 - 일식·회집","category":"restaurant"}]},{"lat":"37.47482252","long":"126.8527628","imageIndex":4,"items":[{"name":"밥통령","tel":"","addr":"경기도 광명시 광명동 295-39번지 1층","indutype":"일반휴게음식 - 일반한식","category":"restaurant"},{"name":"사랑방","tel":"02-2685-1886","addr":"경기도 광명시 광명동 295-39번지","indutype":"일반휴게음식 - 주점","category":"restaurant"}]},{"lat":"37.47940043","long":"126.853432","imageIndex":4,"items":[{"name":"백남옥 달인손만두","tel":"02-2688-2383","addr":"경기도 광명시 광명동 158-809번지 1층","indutype":"일반휴게음식 - 일반한식","category":"restaurant"},{"name":"빽다방 광명사거리역점","tel":"02-2611-0112","addr":"경기도 광명시 광명동 158-809번지 1층","indutype":"일반휴게음식 - 서양음식","category":"restaurant"},{"name":"포마토김밥","tel":"031-449-2265","addr":"경기도 광명시 광명동 158-809번지 1층","indutype":"일반휴게음식 - 일반한식","category":"restaurant"}]},{"lat":"37.47681847","long":"126.8565461","imageIndex":4,"items":[{"name":"백두산명태집","tel":"02-2614-8881","addr":"경기도 광명시 광명동 158-464번지 1층 전체","indutype":"일반휴게음식 - 일반한식","category":"restaurant"}]},{"lat":"37.48060029","long":"126.8546506","imageIndex":4,"items":[{"name":"백옥양꼬치","tel":"02-2066-1370","addr":"경기도 광명시 광명동 158-90번지 1층","indutype":"일반휴게음식 - 일반한식","category":"restaurant"},{"name":"스시와","tel":"02-6053-6779","addr":"경기도 광명시 광명동 158-90번지 1층","indutype":"일반휴게음식 - 일반한식","category":"restaurant"}]},{"lat":"37.48465685","long":"126.856316","imageIndex":4,"items":[{"name":"베제라에스프레소광명점","tel":"02-2610-5869","addr":"경기도 광명시 광명동 51-5번지 1층","indutype":"일반휴게음식 - 서양음식","category":"restaurant"}]},{"lat":"37.48087146","long":"126.8482962","imageIndex":4,"items":[{"name":"별난버섯집","tel":"02-2682-8253","addr":"경기도 광명시 광명동 163-6번지 1층","indutype":"일반휴게음식 - 일반한식","category":"restaurant"}]},{"lat":"37.48012426","long":"126.85585","imageIndex":4,"items":[{"name":"별미식당","tel":"02-2617-8767","addr":"경기도 광명시 광명동 158-57번지 1층","indutype":"일반휴게음식 - 일반한식","category":"restaurant"},{"name":"죽선생","tel":"031-000-0000","addr":"경기도 광명시 광명동 158-57번지 1층 일부호","indutype":"일반휴게음식 - 일반한식","category":"restaurant"},{"name":"짜장중독","tel":"02-2688-9991","addr":"경기도 광명시 광명동 158-57번지 1층","indutype":"일반휴게음식 - 일반한식","category":"restaurant"}]},{"lat":"37.47387862","long":"126.8544604","imageIndex":4,"items":[{"name":"별미식당","tel":"02-2679-6605","addr":"경기도 광명시 광명동 301-47번지 1층 101호","indutype":"일반휴게음식 - 일반한식","category":"restaurant"}]},{"lat":"37.4802331","long":"126.8564264","imageIndex":4,"items":[{"name":"별미집","tel":"02-2685-7776","addr":"경기도 광명시 광명동 158-1149 1층","indutype":"일반휴게음식 - 스넥","category":"restaurant"},{"name":"엄마손밥상","tel":"02-2688-3304","addr":"경기도 광명시 광명동 158-1149번지","indutype":"일반휴게음식 - 일반한식","category":"restaurant"}]},{"lat":"37.47957028","long":"126.8523802","imageIndex":4,"items":[{"name":"별분식","tel":"02-2687-9012","addr":"경기도 광명시 광명동 158-869번지 1층","indutype":"일반휴게음식 - 스넥","category":"restaurant"}]},{"lat":"37.48309872","long":"126.8567939","imageIndex":4,"items":[{"name":"보쌈명가","tel":"02-2685-3636","addr":"경기도 광명시 광명동 91-12번지 1층","indutype":"일반휴게음식 - 일반한식","category":"restaurant"}]},{"lat":"37.47560279","long":"126.8499576","imageIndex":4,"items":[{"name":"보약갈비","tel":"02-2060-2236","addr":"경기도 광명시 광명동 277-12번지 1층 일부호","indutype":"일반휴게음식 - 일반한식","category":"restaurant"}]},{"lat":"37.47412801","long":"126.8521764","imageIndex":4,"items":[{"name":"복","tel":"02-2685-7357","addr":"경기도 광명시 광명동 290-35번지 지하1층","indutype":"일반휴게음식 - 주점","category":"restaurant"}]},{"lat":"37.48209803","long":"126.856321","imageIndex":4,"items":[{"name":"복림문반점","tel":"02-2688-6888","addr":"경기도 광명시 광명동 104-13번지 1층","indutype":"일반휴게음식 - 중국식","category":"restaurant"}]},{"lat":"37.48015586","long":"126.8523225","imageIndex":4,"items":[{"name":"본가춘천닭갈비","tel":"02-2066-6999","addr":"경기도 광명시 광명동 158-1312번지","indutype":"일반휴게음식 - 일반한식","category":"restaurant"}]},{"lat":"37.48020777","long":"126.8506492","imageIndex":4,"items":[{"name":"본도시락(광명사거리역점)","tel":"02-2688-4282","addr":"경기도 광명시 광명동 158-1417번지 1층 102호","indutype":"일반휴게음식 - 일반한식","category":"restaurant"},{"name":"이태원펍","tel":"","addr":"경기도 광명시 광명동 158-1417번지 1층","indutype":"일반휴게음식 - 일반한식","category":"restaurant"},{"name":"풍천민물장어","tel":"02-2613-0592","addr":"경기도 광명시 광명동 158-1417번지 1층","indutype":"일반휴게음식 - 일반한식","category":"restaurant"}]},{"lat":"37.48187143","long":"126.8552361","imageIndex":4,"items":[{"name":"본스치킨광명사거리역점","tel":"02-6959-8282","addr":"경기도 광명시 광명동 101-8번지 1층","indutype":"일반휴게음식 - 스넥","category":"restaurant"}]},{"lat":"37.48476494","long":"126.8562932","imageIndex":4,"items":[{"name":"본죽광명점","tel":"02-2611-6288","addr":"경기도 광명시 광명동 51-4 지상1층","indutype":"일반휴게음식 - 일반한식","category":"restaurant"},{"name":"통닭가","tel":"02-2612-3215","addr":"경기도 광명시 광명동 51-4번지 1층","indutype":"일반휴게음식 - 일반한식","category":"restaurant"}]},{"lat":"37.47895503","long":"126.8575142","imageIndex":4,"items":[{"name":"본초불닭발 (광명사거리점)","tel":"02-2060-1992","addr":"경기도 광명시 광명동 156-6번지 1층","indutype":"일반휴게음식 - 일반한식","category":"restaurant"},{"name":"핫오리","tel":"02-6012-6969","addr":"경기도 광명시 광명동 156-6번지 1층 별미식당","indutype":"일반휴게음식 - 일반한식","category":"restaurant"}]},{"lat":"37.48048589","long":"126.8568442","imageIndex":4,"items":[{"name":"봉자네순대국","tel":"02-2616-8228","addr":"경기도 광명시 광명동 136-15번지","indutype":"일반휴게음식 - 일반한식","category":"restaurant"}]},{"lat":"37.48079072","long":"126.8485677","imageIndex":4,"items":[{"name":"부덕이한방오리닭칼","tel":"02-2688-7881","addr":"경기도 광명시 광명동 163-1번지 1층","indutype":"일반휴게음식 - 일반한식","category":"restaurant"}]},{"lat":"37.47837636","long":"126.855876","imageIndex":4,"items":[{"name":"부어치킨 사거리역점","tel":"070-7529-8843","addr":"경기도 광명시 광명동 158-571번지 1층","indutype":"일반휴게음식 - 스넥","category":"restaurant"},{"name":"소도","tel":"02-2684-4495","addr":"경기도 광명시 광명동 158-571번지","indutype":"일반휴게음식 - 일반한식","category":"restaurant"}]},{"lat":"37.47787391","long":"126.8504278","imageIndex":4,"items":[{"name":"부엌","tel":"031-111-1111","addr":"경기도 광명시 광명동 208-6번지 1층 우측","indutype":"일반휴게음식 - 서양음식","category":"restaurant"}]},{"lat":"37.47276994","long":"126.8541009","imageIndex":4,"items":[{"name":"부일식당","tel":"02-2684-9414","addr":"경기도 광명시 광명동 334-14번지 1층","indutype":"일반휴게음식 - 일반한식","category":"restaurant"},{"name":"오뚜기식당","tel":"02-2611-5580","addr":"경기도 광명시 광명동 334-14번지 2층","indutype":"일반휴게음식 - 일반한식","category":"restaurant"}]},{"lat":"37.4782091","long":"126.8590645","imageIndex":4,"items":[{"name":"북앤빅뱅(광명점)","tel":"02-2611-0160","addr":"경기도 광명시 광명동 37-1번지 2층 1호","indutype":"일반휴게음식 - 서양음식","category":"restaurant"}]},{"lat":"37.47792734","long":"126.857064","imageIndex":4,"items":[{"name":"불난닭발","tel":"02-2689-2266","addr":"경기도 광명시 광명동 158-481번지 1층","indutype":"일반휴게음식 - 일반한식","category":"restaurant"},{"name":"태영생막창","tel":"02-2688-4416","addr":"경기도 광명시 광명동 158-481번지 1층","indutype":"일반휴게음식 - 일반한식","category":"restaurant"}]},{"lat":"37.48048762","long":"126.8510669","imageIndex":4,"items":[{"name":"불닭발동대문엽기떡볶이(광명점)","tel":"02-2619-8592","addr":"경기도 광명시 광명동 158-1086번지 1층","indutype":"일반휴게음식 - 일반한식","category":"restaurant"},{"name":"이모네두루치기","tel":"02-2060-7226","addr":"경기도 광명시 광명동 158-1086번지","indutype":"일반휴게음식 - 일반한식","category":"restaurant"}]},{"lat":"37.47604546","long":"126.8508724","imageIndex":4,"items":[{"name":"불스떡볶이","tel":"02-2625-5895","addr":"경기도 광명시 광명동 276-7번지 성원빌라 1층 102호","indutype":"일반휴게음식 - 스넥","category":"restaurant"}]},{"lat":"37.48934272","long":"126.8643689","imageIndex":4,"items":[{"name":"브라더양꼬치","tel":"02-2066-5535","addr":"경기도 광명시 광명동 6-4번지 1층","indutype":"일반휴게음식 - 중국식","category":"restaurant"},{"name":"핫썬치킨","tel":"02-2682-7715","addr":"경기도 광명시 광명동 6-4번지 1층","indutype":"일반휴게음식 - 서양음식","category":"restaurant"}]},{"lat":"37.47843014","long":"126.8556498","imageIndex":4,"items":[{"name":"브라더오뎅 광명사거리역점","tel":"02-2612-5054","addr":"경기도 광명시 광명동 158-558번지","indutype":"일반휴게음식 - 일반한식","category":"restaurant"},{"name":"영","tel":"02-2689-2268","addr":"경기도 광명시 광명동 158-558번지 2층","indutype":"일반휴게음식 - 일반한식","category":"restaurant"}]},{"lat":"37.46832563","long":"126.8522106","imageIndex":4,"items":[{"name":"브라운하우스(광명)","tel":"02-2682-5671","addr":"경기도 광명시 광명동 725번지","indutype":"일반휴게음식 - 스넥","category":"restaurant"}]},{"lat":"37.4776531","long":"126.8612362","imageIndex":4,"items":[{"name":"블루빈","tel":"02-2687-1874","addr":"경기도 광명시 광명동 33-52번지 2층","indutype":"일반휴게음식 - 일반한식","category":"restaurant"}]},{"lat":"37.47840057","long":"126.8536262","imageIndex":4,"items":[{"name":"블루조커피(BLUE JOE COFFEE)","tel":"02-2688-6232","addr":"경기도 광명시 광명동 158-797번지","indutype":"일반휴게음식 - 서양음식","category":"restaurant"}]},{"lat":"37.47588001","long":"126.8483517","imageIndex":4,"items":[{"name":"비스트로광오","tel":"02-2688-0535","addr":"경기도 광명시 광명동 268-8번지 101호","indutype":"일반휴게음식 - 서양음식","category":"restaurant"}]},{"lat":"37.47785267","long":"126.8549839","imageIndex":4,"items":[{"name":"비어나라","tel":"02-2682-4991","addr":"경기도 광명시 광명동 158-550번지","indutype":"일반휴게음식 - 주점","category":"restaurant"}]},{"lat":"37.48801653","long":"126.8629014","imageIndex":4,"items":[{"name":"비어월드","tel":"02-2625-4288","addr":"경기도 광명시 광명동 9-47번지 1층","indutype":"일반휴게음식 - 주점","category":"restaurant"}]},{"lat":"37.47851161","long":"126.8559549","imageIndex":4,"items":[{"name":"비어캐슬","tel":"02-2688-4018","addr":"경기도 광명시 광명동 158-500번지 1층","indutype":"일반휴게음식 - 주점","category":"restaurant"},{"name":"신림동또순이원조순대","tel":"02-2060-4525","addr":"경기도 광명시 광명동 158-500번지 1층","indutype":"일반휴게음식 - 일반한식","category":"restaurant"},{"name":"어부네생선구이","tel":"02-2681-4035","addr":"경기도 광명시 광명동 158-500번지 1층","indutype":"일반휴게음식 - 일반한식","category":"restaurant"}]},{"lat":"37.47871339","long":"126.8588487","imageIndex":4,"items":[{"name":"비어클럽","tel":"","addr":"경기도 광명시 광명동 126-23번지 금반석시티빌라 103호","indutype":"일반휴게음식 - 일반한식","category":"restaurant"}]},{"lat":"37.47679318","long":"126.8579593","imageIndex":4,"items":[{"name":"비어페스트","tel":"02-2616-3552","addr":"경기도 광명시 광명동 158-373번지 1층 101호","indutype":"일반휴게음식 - 주점","category":"restaurant"}]},{"lat":"37.48001916","long":"126.8582923","imageIndex":4,"items":[{"name":"비에이치씨","tel":"02-2683-4500","addr":"경기도 광명시 광명동 129-9번지 1층","indutype":"일반휴게음식 - 스넥","category":"restaurant"}]},{"lat":"37.47598516","long":"126.8530431","imageIndex":4,"items":[{"name":"비에치씨치킨","tel":"02-2614-9892","addr":"경기도 광명시 광명동 295-10번지","indutype":"일반휴게음식 - 일반한식","category":"restaurant"}]},{"lat":"37.4717393","long":"126.8513446","imageIndex":4,"items":[{"name":"비타민","tel":"02-2060-9885","addr":"경기도 광명시 광명동 324-7번지","indutype":"일반휴게음식 - 주점","category":"restaurant"}]},{"lat":"37.4790659","long":"126.8525169","imageIndex":4,"items":[{"name":"빅세일","tel":"02-111-1111","addr":"경기도 광명시 광명동 158-1297번지 1층","indutype":"일반휴게음식 - 일반한식","category":"restaurant"}]},{"lat":"37.48107355","long":"126.8584824","imageIndex":4,"items":[{"name":"빅앤스몰","tel":"02-2611-1809","addr":"경기도 광명시 광명동 113-7번지 1층","indutype":"일반휴게음식 - 서양음식","category":"restaurant"},{"name":"스타","tel":"02-2688-9773","addr":"경기도 광명시 광명동 113-7번지","indutype":"일반휴게음식 - 일반한식","category":"restaurant"}]},{"lat":"37.48037737","long":"126.8565166","imageIndex":4,"items":[{"name":"빈대떡신사","tel":"02-2611-0870","addr":"경기도 광명시 광명동 138-18번지 1층","indutype":"일반휴게음식 - 일반한식","category":"restaurant"}]},{"lat":"37.47996197","long":"126.8557599","imageIndex":4,"items":[{"name":"빵실이네","tel":"02-2625-8252","addr":"경기도 광명시 광명동 158-55번지 1층 107호,108호","indutype":"일반휴게음식 - 일반한식","category":"restaurant"},{"name":"장터해장국","tel":"02-2625-8004","addr":"경기도 광명시 광명동 158-55번지","indutype":"일반휴게음식 - 일반한식","category":"restaurant"},{"name":"전주식당","tel":"02-2616-6588","addr":"경기도 광명시 광명동 158-55번지","indutype":"일반휴게음식 - 일반한식","category":"restaurant"}]},{"lat":"37.48992961","long":"126.8654307","imageIndex":4,"items":[{"name":"뼈다귀 감자탕","tel":"031-503-8018","addr":"경기도 광명시 광명동 5-40번지 1층","indutype":"일반휴게음식 - 일반한식","category":"restaurant"}]},{"lat":"37.48940599","long":"126.8645384","imageIndex":4,"items":[{"name":"뽀삭뽀삭","tel":"02-2615-8716","addr":"경기도 광명시 광명동 6-111번지 1층","indutype":"일반휴게음식 - 스넥","category":"restaurant"},{"name":"카페루","tel":"02-2682-8818","addr":"경기도 광명시 광명동 6-111번지 1층","indutype":"일반휴게음식 - 서양음식","category":"restaurant"},{"name":"훗닭시즌투(광복현대점)","tel":"02-2682-9258","addr":"경기도 광명시 광명동 6-111번지 1층","indutype":"일반휴게음식 - 스넥","category":"restaurant"}]},{"lat":"37.47940218","long":"126.8548226","imageIndex":4,"items":[{"name":"사거리식당","tel":"02-2766-2756","addr":"경기도 광명시 광명동 158-85번지 5층","indutype":"일반휴게음식 - 일반한식","category":"restaurant"}]},{"lat":"37.47998346","long":"126.8513732","imageIndex":4,"items":[{"name":"사계절양꼬치","tel":"","addr":"경기도 광명시 광명동 158-857번지 1층 101호","indutype":"일반휴게음식 - 중국식","category":"restaurant"},{"name":"주주마당","tel":"02-2683-4504","addr":"경기도 광명시 광명동 158-857번지 1층 2호","indutype":"일반휴게음식 - 일반한식","category":"restaurant"},{"name":"택이네조개전골","tel":"02-2688-8952","addr":"경기도 광명시 광명동 158-857번지 1층","indutype":"일반휴게음식 - 일반한식","category":"restaurant"}]},{"lat":"37.48021342","long":"126.8550923","imageIndex":4,"items":[{"name":"사이공본가(광명사거리점)","tel":"02-2066-0420","addr":"경기도 광명시 광명동 158-73번지","indutype":"일반휴게음식 - 스넥","category":"restaurant"}]},{"lat":"37.46746487","long":"126.8484821","imageIndex":4,"items":[{"name":"사쿠","tel":"","addr":"경기도 광명시 광명동 747-1번지 대왕하이츠빌라 101,102호","indutype":"일반휴게음식 - 일반한식","category":"restaurant"}]},{"lat":"37.48117921","long":"126.8564811","imageIndex":4,"items":[{"name":"산호호프","tel":"02-2616-8545","addr":"경기도 광명시 광명동 139-1번지 2층","indutype":"일반휴게음식 - 일반한식","category":"restaurant"}]},{"lat":"37.47457049","long":"126.8529555","imageIndex":4,"items":[{"name":"삼다도","tel":"031-563-0091","addr":"경기도 광명시 광명동 296-3번지","indutype":"일반휴게음식 - 일반한식","category":"restaurant"}]},{"lat":"37.48012374","long":"126.8554317","imageIndex":4,"items":[{"name":"삼대왕족발","tel":"02-2613-4918","addr":"경기도 광명시 광명동 158-66번지","indutype":"일반휴게음식 - 일반한식","category":"restaurant"}]},{"lat":"37.47343272","long":"126.8509907","imageIndex":4,"items":[{"name":"삼미감자탕","tel":"02-2686-9063","addr":"경기도 광명시 광명동 346-9번지 2층","indutype":"일반휴게음식 - 일반한식","category":"restaurant"},{"name":"하이트왕족발","tel":"02-2686-8580","addr":"경기도 광명시 광명동 346-9번지","indutype":"일반휴게음식 - 일반한식","category":"restaurant"}]},{"lat":"37.47376149","long":"126.8544607","imageIndex":4,"items":[{"name":"삼미식당","tel":"02-2617-9552","addr":"경기도 광명시 광명동 301-26번지 1층","indutype":"일반휴게음식 - 일반한식","category":"restaurant"}]},{"lat":"37.48104282","long":"126.8554864","imageIndex":4,"items":[{"name":"삼성생선구이","tel":"02-2616-1091","addr":"경기도 광명시 광명동 141-6번지","indutype":"일반휴게음식 - 일반한식","category":"restaurant"},{"name":"은행나무갈매기","tel":"02-2066-3901","addr":"경기도 광명시 광명동 141-6번지 2층","indutype":"일반휴게음식 - 일반한식","category":"restaurant"},{"name":"춘향골남원추어탕","tel":"02-2625-5795","addr":"경기도 광명시 광명동 141-6번지 1층","indutype":"일반휴게음식 - 일반한식","category":"restaurant"}]},{"lat":"37.48009364","long":"126.8529897","imageIndex":4,"items":[{"name":"새우꺾기2호점","tel":"070-7781-9513","addr":"경기도 광명시 광명동 158-199번지","indutype":"일반휴게음식 - 일반한식","category":"restaurant"}]},{"lat":"37.48015574","long":"126.8522321","imageIndex":4,"items":[{"name":"새우뱅이포차","tel":"02-2689-1386","addr":"경기도 광명시 광명동 158-208번지 1,2층","indutype":"일반휴게음식 - 일반한식","category":"restaurant"}]},{"lat":"37.47896079","long":"126.8549026","imageIndex":4,"items":[{"name":"생방송","tel":"02-2619-4743","addr":"경기도 광명시 광명동 158-512번지 1층 3호","indutype":"일반휴게음식 - 주점","category":"restaurant"}]},{"lat":"37.47523695","long":"126.8527394","imageIndex":4,"items":[{"name":"생생고기","tel":"02-2066-2920","addr":"경기도 광명시 광명동 295-8번지 삼일빌딩","indutype":"일반휴게음식 - 일반한식","category":"restaurant"},{"name":"엉터리생고기","tel":"02-2066-8920","addr":"경기도 광명시 광명동 295-8번지","indutype":"일반휴게음식 - 일반한식","category":"restaurant"}]},{"lat":"37.4787897","long":"126.8549821","imageIndex":4,"items":[{"name":"생선조아","tel":"02-2681-8772","addr":"경기도 광명시 광명동 158-1134번지 1층","indutype":"일반휴게음식 - 일반한식","category":"restaurant"}]},{"lat":"37.48043124","long":"126.8563695","imageIndex":4,"items":[{"name":"서당골","tel":"02-2613-8006","addr":"경기도 광명시 광명동 138-8번지 102호","indutype":"일반휴게음식 - 일반한식","category":"restaurant"},{"name":"오감만족족발","tel":"02-2612-3226","addr":"경기도 광명시 광명동 138-8번지 1층","indutype":"일반휴게음식 - 일반한식","category":"restaurant"},{"name":"작은둥지","tel":"","addr":"경기도 광명시 광명동 138-8번지 1층 104호","indutype":"일반휴게음식 - 스넥","category":"restaurant"},{"name":"작은둥지","tel":"02-2613-7431","addr":"경기도 광명시 광명동 138-8번지 104호","indutype":"일반휴게음식 - 일반한식","category":"restaurant"}]},{"lat":"37.47953933","long":"126.8564277","imageIndex":4,"items":[{"name":"서울마님죽","tel":"02-2616-4404","addr":"경기도 광명시 광명동 158-21번지","indutype":"일반휴게음식 - 일반한식","category":"restaurant"}]},{"lat":"37.48120522","long":"126.8486008","imageIndex":4,"items":[{"name":"서해박속낙지전문점","tel":"02-2682-7211","addr":"경기도 광명시 광명동 159-42번지","indutype":"일반휴게음식 - 일반한식","category":"restaurant"}]},{"lat":"37.48209933","long":"126.8573725","imageIndex":4,"items":[{"name":"선매떡볶이","tel":"02-1111-1111","addr":"경기도 광명시 광명동 103-12번지 1층","indutype":"일반휴게음식 - 스넥","category":"restaurant"}]},{"lat":"37.48381944","long":"126.856736","imageIndex":4,"items":[{"name":"설가네나주곰탕(광명점)","tel":"02-2612-0088","addr":"경기도 광명시 광명동 57-6번지","indutype":"일반휴게음식 - 일반한식","category":"restaurant"}]},{"lat":"37.47859889","long":"126.8537049","imageIndex":4,"items":[{"name":"설꼬방","tel":"02-2614-8787","addr":"경기도 광명시 광명동 158-795번지 2층","indutype":"일반휴게음식 - 서양음식","category":"restaurant"},{"name":"써브웨이광명사거리역점","tel":"02-2682-2111","addr":"경기도 광명시 광명동 158-795번지 C&A빌딩 1층","indutype":"일반휴게음식 - 서양음식","category":"restaurant"}]},{"lat":"37.4816022","long":"126.8560958","imageIndex":4,"items":[{"name":"설중매","tel":"070-8185-9133","addr":"경기도 광명시 광명동 104-16번지 2층","indutype":"일반휴게음식 - 일반한식","category":"restaurant"},{"name":"해주냉면","tel":"02-2612-8377","addr":"경기도 광명시 광명동 104-16번지 1층","indutype":"일반휴게음식 - 일반한식","category":"restaurant"}]},{"lat":"37.47407066","long":"126.8496216","imageIndex":4,"items":[{"name":"섬","tel":"02-2684-7420","addr":"경기도 광명시 광명동 263-24번지","indutype":"일반휴게음식 - 일반한식","category":"restaurant"}]},{"lat":"37.47590779","long":"126.8489282","imageIndex":4,"items":[{"name":"성지","tel":"02-2615-2646","addr":"경기도 광명시 광명동 273-51번지","indutype":"일반휴게음식 - 스넥","category":"restaurant"}]},{"lat":"37.48012498","long":"126.8564266","imageIndex":4,"items":[{"name":"섹시한떡볶이앤꼬마김밥","tel":"02-925-8009","addr":"경기도 광명시 광명동 158-36번지 1층","indutype":"일반휴게음식 - 일반한식","category":"restaurant"}]},{"lat":"37.48001223","long":"126.8527411","imageIndex":4,"items":[{"name":"소문난만복네","tel":"02-2060-0650","addr":"경기도 광명시 광명동 158-201번지 1층","indutype":"일반휴게음식 - 일반한식","category":"restaurant"},{"name":"오비베어","tel":"02-2625-1152","addr":"경기도 광명시 광명동 158-201번지 1층","indutype":"일반휴게음식 - 주점","category":"restaurant"}]},{"lat":"37.4816563","long":"126.8561297","imageIndex":4,"items":[{"name":"소백양샤브샤브","tel":"070-8150-1588","addr":"경기도 광명시 광명동 104-9번지 1층","indutype":"일반휴게음식 - 일반한식","category":"restaurant"},{"name":"힘센양","tel":"02-865-6588","addr":"경기도 광명시 광명동 104-9번지 1층","indutype":"일반휴게음식 - 중국식","category":"restaurant"}]},{"lat":"37.48042965","long":"126.8550919","imageIndex":4,"items":[{"name":"소보로전문점 소보롱","tel":"02-2682-0044","addr":"경기도 광명시 광명동 158-70번지 1층","indutype":"일반휴게음식 - 일반한식","category":"restaurant"},{"name":"소보롱","tel":"02-2682-0044","addr":"경기도 광명시 광명동 158-70번지","indutype":"일반휴게음식 - 일반한식","category":"restaurant"}]},{"lat":"37.48026055","long":"126.8567655","imageIndex":4,"items":[{"name":"소프트치킨","tel":"02-2688-5698","addr":"경기도 광명시 광명동 136-13번지 1층","indutype":"일반휴게음식 - 스넥","category":"restaurant"}]},{"lat":"37.47884738","long":"126.8578988","imageIndex":4,"items":[{"name":"송담정","tel":"","addr":"경기도 광명시 광명동 155-6번지 성일빌라 1층","indutype":"일반휴게음식 - 일반한식","category":"restaurant"}]},{"lat":"37.47412452","long":"126.8494632","imageIndex":4,"items":[{"name":"송엘림치킨","tel":"070-7018-5392","addr":"경기도 광명시 광명동 263-34번지 1층","indutype":"일반휴게음식 - 스넥","category":"restaurant"},{"name":"이레왕만두찐빵","tel":"02-2611-4383","addr":"경기도 광명시 광명동 263-34번지","indutype":"일반휴게음식 - 스넥","category":"restaurant"}]},{"lat":"37.48145825","long":"126.8562657","imageIndex":4,"items":[{"name":"송원","tel":"02-2688-1825","addr":"경기도 광명시 광명동 104-7번지","indutype":"일반휴게음식 - 일반한식","category":"restaurant"}]},{"lat":"37.4810703","long":"126.8558481","imageIndex":4,"items":[{"name":"송희네부침개","tel":"02-2684-4598","addr":"경기도 광명시 광명동 140-16번지 1층","indutype":"일반휴게음식 - 일반한식","category":"restaurant"}]},{"lat":"37.47995985","long":"126.854064","imageIndex":4,"items":[{"name":"수원참숯화로구이","tel":"02-2613-6288","addr":"경기도 광명시 광명동 158-109번지 1층","indutype":"일반휴게음식 - 일반한식","category":"restaurant"}]},{"lat":"37.47910183","long":"126.8524264","imageIndex":4,"items":[{"name":"수작","tel":"","addr":"경기도 광명시 광명동 158-843번지 1층","indutype":"일반휴게음식 - 일반한식","category":"restaurant"},{"name":"신짱과 후쿠마루","tel":"02-0000-0000","addr":"경기도 광명시 광명동 158-843번지 1층","indutype":"일반휴게음식 - 일식·회집","category":"restaurant"},{"name":"알콜로","tel":"02-1111-1111","addr":"경기도 광명시 광명동 158-843번지 1층","indutype":"일반휴게음식 - 주점","category":"restaurant"}]},{"lat":"37.47337473","long":"126.8479612","imageIndex":4,"items":[{"name":"숙이고추장숯불갈비","tel":"02-2618-0540","addr":"경기도 광명시 광명동 353-3번지 1층","indutype":"일반휴게음식 - 일반한식","category":"restaurant"},{"name":"싱싱회센타","tel":"02-2688-9883","addr":"경기도 광명시 광명동 353-3번지 1층","indutype":"일반휴게음식 - 일반한식","category":"restaurant"}]},{"lat":"37.47737773","long":"126.8570651","imageIndex":4,"items":[{"name":"순","tel":"02-2617-8555","addr":"경기도 광명시 광명동 158-422번지 지하","indutype":"일반휴게음식 - 일반한식","category":"restaurant"}]},{"lat":"37.47757374","long":"126.8552897","imageIndex":4,"items":[{"name":"술이야","tel":"02-2066-5885","addr":"경기도 광명시 광명동 158-647번지 금강빌라 1층","indutype":"일반휴게음식 - 일반한식","category":"restaurant"}]},{"lat":"37.47401976","long":"126.8520748","imageIndex":4,"items":[{"name":"스카이","tel":"02-2685-2469","addr":"경기도 광명시 광명동 290-64번지 2층","indutype":"일반휴게음식 - 일반한식","category":"restaurant"}]},{"lat":"37.47715203","long":"126.8567037","imageIndex":4,"items":[{"name":"슬로우카페 담","tel":"070-7841-7014","addr":"경기도 광명시 광명동 158-469번지 1층","indutype":"일반휴게음식 - 서양음식","category":"restaurant"}]},{"lat":"37.47371071","long":"126.8499614","imageIndex":4,"items":[{"name":"시골선지해장국","tel":"02-2619-4156","addr":"경기도 광명시 광명동 348-8번지 1층","indutype":"일반휴게음식 - 일반한식","category":"restaurant"},{"name":"이모해장국","tel":"031-559-5356","addr":"경기도 광명시 광명동 348-8번지 1층","indutype":"일반휴게음식 - 일반한식","category":"restaurant"}]},{"lat":"37.4761567","long":"126.8533141","imageIndex":4,"items":[{"name":"시골집","tel":"02-2687-7077","addr":"경기도 광명시 광명동 196-13번지","indutype":"일반휴게음식 - 일반한식","category":"restaurant"}]},{"lat":"37.47631786","long":"126.8525111","imageIndex":4,"items":[{"name":"시골포장마차","tel":"031-2611-8810","addr":"경기도 광명시 광명동 288-180번지 장수빌라","indutype":"일반휴게음식 - 칵테일바","category":"restaurant"}]},{"lat":"37.4799854","long":"126.8528995","imageIndex":4,"items":[{"name":"신경성양꼬치","tel":"02-2687-8889","addr":"경기도 광명시 광명동 158-200번지 1층","indutype":"일반휴게음식 - 중국식","category":"restaurant"},{"name":"참살이","tel":"02-2685-6363","addr":"경기도 광명시 광명동 158-200번지 1층","indutype":"일반휴게음식 - 일반한식","category":"restaurant"}]},{"lat":"37.47462416","long":"126.8526502","imageIndex":4,"items":[{"name":"신라타운","tel":"02-2687-3799","addr":"경기도 광명시 광명동 290-66번지 1층","indutype":"일반휴게음식 - 일반한식","category":"restaurant"}]},{"lat":"37.47531741","long":"126.8522418","imageIndex":4,"items":[{"name":"신전떡볶이","tel":"02-2688-8157","addr":"경기도 광명시 광명동 293-36번지 1층","indutype":"일반휴게음식 - 스넥","category":"restaurant"},{"name":"정든칼국수","tel":"070-1111-1111","addr":"경기도 광명시 광명동 293-36번지","indutype":"일반휴게음식 - 일반한식","category":"restaurant"}]},{"lat":"37.46754723","long":"126.849454","imageIndex":4,"items":[{"name":"실크로드","tel":"031-2619-4024","addr":"경기도 광명시 광명동 747-6번지 지층","indutype":"일반휴게음식 - 칵테일바","category":"restaurant"}]},{"lat":"37.47909441","long":"126.8536813","imageIndex":4,"items":[{"name":"심야식당달빛","tel":"031-7670-4745","addr":"경기도 광명시 광명동 158-806번지 연빌딩 4층","indutype":"일반휴게음식 - 일반한식","category":"restaurant"},{"name":"오사카부루스","tel":"031-503-8018","addr":"경기도 광명시 광명동 158-806번지 2층","indutype":"일반휴게음식 - 일반한식","category":"restaurant"},{"name":"제이바","tel":"02-1234-1234","addr":"경기도 광명시 광명동 158-806번지 7층","indutype":"일반휴게음식 - 서양음식","category":"restaurant"}]},{"lat":"37.46840541","long":"126.8511818","imageIndex":4,"items":[{"name":"썬호프","tel":"02-2060-5585","addr":"경기도 광명시 광명동 739-10번지 1층","indutype":"일반휴게음식 - 일반한식","category":"restaurant"},{"name":"옥이네카페","tel":"02-2625-7728","addr":"경기도 광명시 광명동 739-10번지 1층","indutype":"일반휴게음식 - 서양음식","category":"restaurant"}]},{"lat":"37.47209946","long":"126.8511517","imageIndex":4,"items":[{"name":"쎄븐식당","tel":"02-2682-6742","addr":"경기도 광명시 광명동 374-10번지 지층","indutype":"일반휴게음식 - 서양음식","category":"restaurant"},{"name":"통오징어칼국수","tel":"02-2060-0992","addr":"경기도 광명시 광명동 374-10번지 1층","indutype":"일반휴게음식 - 일반한식","category":"restaurant"}]},{"lat":"37.46820618","long":"126.8504022","imageIndex":4,"items":[{"name":"아구와해물","tel":"02-836-3392","addr":"경기도 광명시 광명동 742-8번지 그린빌리지 1층","indutype":"일반휴게음식 - 일반한식","category":"restaurant"}]},{"lat":"37.48079241","long":"126.8569906","imageIndex":4,"items":[{"name":"아들내미 떡볶이","tel":"02-6368-5876","addr":"경기도 광명시 광명동 136-18번지 1층 3호","indutype":"일반휴게음식 - 스넥","category":"restaurant"}]},{"lat":"37.48048839","long":"126.8588793","imageIndex":4,"items":[{"name":"아뜰리에커피앤샐러드","tel":"032-555-5555","addr":"경기도 광명시 광명동 128-15번지 1층","indutype":"일반휴게음식 - 서양음식","category":"restaurant"},{"name":"피자뚜베","tel":"02-2689-3082","addr":"경기도 광명시 광명동 128-15번지 1층","indutype":"일반휴게음식 - 스넥","category":"restaurant"}]},{"lat":"37.47978971","long":"126.854901","imageIndex":4,"items":[{"name":"아리바다","tel":"02-2682-8833","addr":"경기도 광명시 광명동 158-80번지 1층","indutype":"일반휴게음식 - 일반한식","category":"restaurant"}]},{"lat":"37.47432103","long":"126.8481514","imageIndex":4,"items":[{"name":"아이러브커피","tel":"02-2685-1522","addr":"경기도 광명시 광명동 259-28번지","indutype":"일반휴게음식 - 서양음식","category":"restaurant"}]},{"lat":"37.48031804","long":"126.8595692","imageIndex":4,"items":[{"name":"안성","tel":"02-268-3434","addr":"경기도 광명시 광명동 126-1번지 1층","indutype":"일반휴게음식 - 일반한식","category":"restaurant"}]},{"lat":"37.48428981","long":"126.8582388","imageIndex":4,"items":[{"name":"앙마갈비","tel":"02-6265-5022","addr":"경기도 광명시 광명동 60-1번지 1층","indutype":"일반휴게음식 - 일반한식","category":"restaurant"}]},{"lat":"37.49023656","long":"126.8659615","imageIndex":4,"items":[{"name":"앤쿡","tel":"02-2619-1195","addr":"경기도 광명시 광명동 5-32번지 3층 101호","indutype":"일반휴게음식 - 서양음식","category":"restaurant"},{"name":"옹고집숯불갈비","tel":"02-2687-5339","addr":"경기도 광명시 광명동 5-32번지 1층","indutype":"일반휴게음식 - 일반한식","category":"restaurant"}]},{"lat":"37.48362419","long":"126.8591559","imageIndex":4,"items":[{"name":"야미가 광명점","tel":"02-2686-1818","addr":"경기도 광명시 광명동 63-1번지","indutype":"일반휴게음식 - 일반한식","category":"restaurant"}]},{"lat":"37.47876044","long":"126.8532072","imageIndex":4,"items":[{"name":"야후불닭발","tel":"02-2616-3466","addr":"경기도 광명시 광명동 158-816번지","indutype":"일반휴게음식 - 일반한식","category":"restaurant"},{"name":"유명한막회","tel":"02-2687-0808","addr":"경기도 광명시 광명동 158-816번지 1층","indutype":"일반휴게음식 - 일식·회집","category":"restaurant"}]},{"lat":"37.48268267","long":"126.8555171","imageIndex":4,"items":[{"name":"약속","tel":"02-2066-7759","addr":"경기도 광명시 광명동 101-13번지 1층","indutype":"일반휴게음식 - 주점","category":"restaurant"}]},{"lat":"37.477624","long":"126.8595179","imageIndex":4,"items":[{"name":"양꼬치는여기야","tel":"02-2612-5989","addr":"경기도 광명시 광명동 158-240번지","indutype":"일반휴게음식 - 일반한식","category":"restaurant"},{"name":"처갓집치킨","tel":"02-2614-1605","addr":"경기도 광명시 광명동 158-240번지 1층","indutype":"일반휴게음식 - 주점","category":"restaurant"}]},{"lat":"37.47984605","long":"126.8567324","imageIndex":4,"items":[{"name":"양지곰탕","tel":"02-2686-2020","addr":"경기도 광명시 광명동 158-13번지 1층","indutype":"일반휴게음식 - 일반한식","category":"restaurant"}]},{"lat":"37.48023659","long":"126.8520397","imageIndex":4,"items":[{"name":"양지순대곱창","tel":"02-2684-3999","addr":"경기도 광명시 광명동 158-209번지 1층","indutype":"일반휴게음식 - 일반한식","category":"restaurant"}]},{"lat":"37.47923775","long":"126.8530366","imageIndex":4,"items":[{"name":"양평해장국","tel":"02-2616-8484","addr":"경기도 광명시 광명동 158-977번지 1층","indutype":"일반휴게음식 - 일반한식","category":"restaurant"}]},{"lat":"37.47782144","long":"126.8588731","imageIndex":4,"items":[{"name":"어반","tel":"02-2682-0371","addr":"경기도 광명시 광명동 158-304번지 해연빌딩 2층","indutype":"일반휴게음식 - 서양음식","category":"restaurant"}]},{"lat":"37.47687768","long":"126.8534596","imageIndex":4,"items":[{"name":"어심","tel":"02-2611-3709","addr":"경기도 광명시 광명동 158-772번지 1층","indutype":"일반휴게음식 - 일반한식","category":"restaurant"}]},{"lat":"37.47987153","long":"126.8554887","imageIndex":4,"items":[{"name":"어울림","tel":"02-000-0000","addr":"경기도 광명시 광명동 158-61번지","indutype":"일반휴게음식 - 일반한식","category":"restaurant"}]},{"lat":"37.47318254","long":"126.8526304","imageIndex":4,"items":[{"name":"어쭈구리","tel":"02-2613-9217","addr":"경기도 광명시 광명동 337-33번지","indutype":"일반휴게음식 - 주점","category":"restaurant"}]},{"lat":"37.47817975","long":"126.8500428","imageIndex":4,"items":[{"name":"언덕반점","tel":"02-2613-6661","addr":"경기도 광명시 광명동 177-2번지 수진연립 1층","indutype":"일반휴게음식 - 중국식","category":"restaurant"}]},{"lat":"37.4728235","long":"126.8537051","imageIndex":4,"items":[{"name":"엄마네 백반","tel":"070-8737-4397","addr":"경기도 광명시 광명동 334-18번지","indutype":"일반휴게음식 - 일반한식","category":"restaurant"}]},{"lat":"37.47779218","long":"126.8499305","imageIndex":4,"items":[{"name":"엄마손김밥","tel":"02-2688-6920","addr":"경기도 광명시 광명동 208-19번지 1층","indutype":"일반휴게음식 - 일반한식","category":"restaurant"}]},{"lat":"37.48420759","long":"126.8573231","imageIndex":4,"items":[{"name":"엄마손보쌈","tel":"02-2688-3360","addr":"경기도 광명시 광명동 58-15번지 1층","indutype":"일반휴게음식 - 일반한식","category":"restaurant"},{"name":"예인","tel":"031-2617-3500","addr":"경기도 광명시 광명동 58-15 2층","indutype":"일반휴게음식 - 칵테일바","category":"restaurant"}]},{"lat":"37.48045749","long":"126.8557363","imageIndex":4,"items":[{"name":"엄마전","tel":"02-2619-7001","addr":"경기도 광명시 광명동 158-29번지 1층","indutype":"일반휴게음식 - 일반한식","category":"restaurant"}]},{"lat":"37.47501732","long":"126.8500944","imageIndex":4,"items":[{"name":"에덴식당","tel":"02-2684-6893","addr":"경기도 광명시 광명동 281-13번지","indutype":"일반휴게음식 - 일반한식","category":"restaurant"}]},{"lat":"37.4909029","long":"126.8656211","imageIndex":4,"items":[{"name":"엑스떡볶이","tel":"","addr":"경기도 광명시 광명동 4-27번지 1층","indutype":"일반휴게음식 - 일반한식","category":"restaurant"}]},{"lat":"37.48559739","long":"126.8591747","imageIndex":4,"items":[{"name":"엔젤호프","tel":"02-2612-8480","addr":"경기도 광명시 광명동 12-22번지 1층","indutype":"일반휴게음식 - 주점","category":"restaurant"}]},{"lat":"37.47732477","long":"126.8579583","imageIndex":4,"items":[{"name":"엠브이피","tel":"02-2616-4925","addr":"경기도 광명시 광명동 158-415번지 1층","indutype":"일반휴게음식 - 칵테일바","category":"restaurant"},{"name":"푸짐한집","tel":"02-2685-3174","addr":"경기도 광명시 광명동 158-415번지 1층","indutype":"일반휴게음식 - 일반한식","category":"restaurant"}]},{"lat":"37.47295922","long":"126.854157","imageIndex":4,"items":[{"name":"여기는곰사장네고기집","tel":"","addr":"경기도 광명시 광명동 335-2번지 금반석시티빌 1층 103,104호","indutype":"일반휴게음식 - 일반한식","category":"restaurant"},{"name":"이안","tel":"031-418-7249","addr":"경기도 광명시 광명동 335-2번지 금반석시티빌 101,102호","indutype":"일반휴게음식 - 일반한식","category":"restaurant"}]},{"lat":"37.48051604","long":"126.8521522","imageIndex":4,"items":[{"name":"연아푸드","tel":"","addr":"경기도 광명시 광명동 158-180번지 1층 일부호","indutype":"일반휴게음식 - 일반한식","category":"restaurant"}]},{"lat":"37.47345552","long":"126.8477349","imageIndex":4,"items":[{"name":"연탄불고기","tel":"02-2618-0082","addr":"경기도 광명시 광명동 242-3번지","indutype":"일반휴게음식 - 일반한식","category":"restaurant"}]},{"lat":"37.48376524","long":"126.856623","imageIndex":4,"items":[{"name":"예랑","tel":"02-2618-6660","addr":"경기도 광명시 광명동 57-11번지 2층","indutype":"일반휴게음식 - 일반한식","category":"restaurant"},{"name":"오래숯불갈비부페","tel":"02-2616-1285","addr":"경기도 광명시 광명동 57-11번지","indutype":"일반휴게음식 - 일반한식","category":"restaurant"}]},{"lat":"37.47359903","long":"126.8472372","imageIndex":4,"items":[{"name":"예명관","tel":"02-2687-5683","addr":"경기도 광명시 광명동 243-9번지","indutype":"일반휴게음식 - 중국식","category":"restaurant"}]},{"lat":"37.48038004","long":"126.8514855","imageIndex":4,"items":[{"name":"옛고을","tel":"02-2611-6736","addr":"경기도 광명시 광명동 158-1052번지 1층","indutype":"일반휴게음식 - 일반한식","category":"restaurant"}]},{"lat":"37.47934965","long":"126.8560437","imageIndex":4,"items":[{"name":"옛날뚱보냉면","tel":"02-2619-9056","addr":"경기도 광명시 광명동 150-50번지 1층","indutype":"일반휴게음식 - 일반한식","category":"restaurant"}]},{"lat":"37.46843158","long":"126.8505148","imageIndex":4,"items":[{"name":"옛날통닭또봉이","tel":"02-2685-9288","addr":"경기도 광명시 광명동 742-4번지 우일빌라 2동 102호","indutype":"일반휴게음식 - 일반한식","category":"restaurant"}]},{"lat":"37.47803853","long":"126.8595736","imageIndex":4,"items":[{"name":"옛진미칼국수","tel":"02-2683-1429","addr":"경기도 광명시 광명동 38-1번지","indutype":"일반휴게음식 - 일반한식","category":"restaurant"},{"name":"탐나","tel":"02-2614-0708","addr":"경기도 광명시 광명동 38-1번지 1층","indutype":"일반휴게음식 - 일반한식","category":"restaurant"},{"name":"통큰대포삼겹","tel":"031-111-1111","addr":"경기도 광명시 광명동 38-1번지 1층","indutype":"일반휴게음식 - 일반한식","category":"restaurant"},{"name":"피자스쿨","tel":"02-2625-4777","addr":"경기도 광명시 광명동 38-1번지","indutype":"일반휴게음식 - 서양음식","category":"restaurant"}]},{"lat":"37.48745719","long":"126.8622919","imageIndex":4,"items":[{"name":"오건실내포차","tel":"031-2611-5599","addr":"경기도 광명시 광명동 10-64번지 1층 101호","indutype":"일반휴게음식 - 주점","category":"restaurant"}]},{"lat":"37.47410214","long":"126.8530921","imageIndex":4,"items":[{"name":"오늘은김밥","tel":"02-2682-7266","addr":"경기도 광명시 광명동 299-7번지","indutype":"일반휴게음식 - 스넥","category":"restaurant"}]},{"lat":"37.48614925","long":"126.8610393","imageIndex":4,"items":[{"name":"오늘의분식","tel":"02-2619-8649","addr":"경기도 광명시 광명동 11-93번지","indutype":"일반휴게음식 - 스넥","category":"restaurant"}]},{"lat":"37.48004628","long":"126.8511809","imageIndex":4,"items":[{"name":"오대감왕족발","tel":"02-747-8874","addr":"경기도 광명시 광명동 158-858번지 1층","indutype":"일반휴게음식 - 일반한식","category":"restaurant"}]},{"lat":"37.47398688","long":"126.8545733","imageIndex":4,"items":[{"name":"오두막포차","tel":"02-2066-6205","addr":"경기도 광명시 광명동 302-2번지 1호","indutype":"일반휴게음식 - 일반한식","category":"restaurant"}]},{"lat":"37.47951689","long":"126.8529004","imageIndex":4,"items":[{"name":"오뚜기돈까스","tel":"02-2616-1316","addr":"경기도 광명시 광명동 158-830번지","indutype":"일반휴게음식 - 서양음식","category":"restaurant"},{"name":"찌개지존","tel":"02-2618-0909","addr":"경기도 광명시 광명동 158-830번지 101호","indutype":"일반휴게음식 - 일반한식","category":"restaurant"},{"name":"황소숯불꼼장어구이","tel":"02-2611-3933","addr":"경기도 광명시 광명동 158-830번지 102호","indutype":"일반휴게음식 - 일반한식","category":"restaurant"}]},{"lat":"37.4842071","long":"126.8569274","imageIndex":4,"items":[{"name":"오뚜기식당","tel":"070-8964-6170","addr":"경기도 광명시 광명동 57-2번지 1층","indutype":"일반휴게음식 - 일반한식","category":"restaurant"},{"name":"우리순대국감자탕","tel":"070-8966-7120","addr":"경기도 광명시 광명동 57-2번지 1층 4호","indutype":"일반휴게음식 - 일반한식","category":"restaurant"},{"name":"지인","tel":"02-2611-2135","addr":"경기도 광명시 광명동 57-2번지 1층","indutype":"일반휴게음식 - 주점","category":"restaurant"}]},{"lat":"37.47729558","long":"126.856206","imageIndex":4,"items":[{"name":"오렌지분식","tel":"070-5214-0920","addr":"경기도 광명시 광명동 158-621번지 1층 일부호","indutype":"일반휴게음식 - 스넥","category":"restaurant"}]},{"lat":"37.4802379","long":"126.8530686","imageIndex":4,"items":[{"name":"오렌지퓨전호프","tel":"02-2682-0789","addr":"경기도 광명시 광명동 158-1377번지 1층","indutype":"일반휴게음식 - 주점","category":"restaurant"}]},{"lat":"37.48087197","long":"126.8557581","imageIndex":4,"items":[{"name":"오복식당","tel":"02-2684-1382","addr":"경기도 광명시 광명동 140-10번지","indutype":"일반휴게음식 - 일반한식","category":"restaurant"},{"name":"원조광명할머니빈대떡","tel":"02-2625-4884","addr":"경기도 광명시 광명동 140-10번지 1층","indutype":"일반휴게음식 - 일반한식","category":"restaurant"}]},{"lat":"37.47290838","long":"126.8496239","imageIndex":4,"items":[{"name":"오부장치킨","tel":"02-6052-9995","addr":"경기도 광명시 광명동 348-14번지 1층","indutype":"일반휴게음식 - 스넥","category":"restaurant"}]},{"lat":"37.47373795","long":"126.850131","imageIndex":4,"items":[{"name":"오빠야회센타","tel":"02-2684-6980","addr":"경기도 광명시 광명동 348-29번지 101호","indutype":"일반휴게음식 - 일반한식","category":"restaurant"}]},{"lat":"37.47787516","long":"126.8586016","imageIndex":4,"items":[{"name":"오성초밥","tel":"02-2616-5550","addr":"경기도 광명시 광명동 158-306번지 1층","indutype":"일반휴게음식 - 일식·회집","category":"restaurant"},{"name":"페리카나치킨","tel":"02-2688-7025","addr":"경기도 광명시 광명동 158-306번지","indutype":"일반휴게음식 - 칵테일바","category":"restaurant"}]},{"lat":"37.4749033","long":"126.8525139","imageIndex":4,"items":[{"name":"오케이 통기타 라이브 토탈뮤직","tel":"031-503-8018","addr":"경기도 광명시 광명동 290-19번지 2층","indutype":"일반휴게음식 - 주점","category":"restaurant"},{"name":"이명진참치","tel":"02-555-5555","addr":"경기도 광명시 광명동 290-19번지 1층","indutype":"일반휴게음식 - 일반한식","category":"restaurant"}]},{"lat":"37.47893393","long":"126.8550383","imageIndex":4,"items":[{"name":"오케이비어","tel":"02-2611-5480","addr":"경기도 광명시 광명동 158-509번지 2층","indutype":"일반휴게음식 - 일반한식","category":"restaurant"}]},{"lat":"37.47968041","long":"126.8539628","imageIndex":4,"items":[{"name":"오토상스시","tel":"070-8261-4761","addr":"경기도 광명시 광명동 158-188번지 2층","indutype":"일반휴게음식 - 서양음식","category":"restaurant"},{"name":"킹콩부대찌개광명사거리역점","tel":"02-2060-3639","addr":"경기도 광명시 광명동 158-188번지 2층","indutype":"일반휴게음식 - 일반한식","category":"restaurant"}]},{"lat":"37.47490766","long":"126.8559846","imageIndex":4,"items":[{"name":"옥돌","tel":"02-2060-0028","addr":"경기도 광명시 광명동 42-112번지 2층","indutype":"일반휴게음식 - 스넥","category":"restaurant"}]},{"lat":"37.48053813","long":"126.8553743","imageIndex":4,"items":[{"name":"옥이네순대국","tel":"02-2611-7661","addr":"경기도 광명시 광명동 158-1375번지","indutype":"일반휴게음식 - 일반한식","category":"restaurant"}]},{"lat":"37.47974133","long":"126.8522668","imageIndex":4,"items":[{"name":"와규명장","tel":"","addr":"경기도 광명시 광명동 158-851번지","indutype":"일반휴게음식 - 일반한식","category":"restaurant"}]},{"lat":"37.48018303","long":"126.8524355","imageIndex":4,"items":[{"name":"와다닥춘천숯불닭갈비","tel":"02-2060-8880","addr":"경기도 광명시 광명동 158-205번지 1층","indutype":"일반휴게음식 - 일반한식","category":"restaurant"}]},{"lat":"37.47398635","long":"126.8471573","imageIndex":4,"items":[{"name":"와이키키","tel":"02-6848-5088","addr":"경기도 광명시 광명동 246-42번지 1층","indutype":"일반휴게음식 - 일반한식","category":"restaurant"},{"name":"황금돼지","tel":"02-2613-7479","addr":"경기도 광명시 광명동 246-42번지 1층","indutype":"일반휴게음식 - 일반한식","category":"restaurant"}]},{"lat":"37.47590403","long":"126.8530094","imageIndex":4,"items":[{"name":"왕큰할매순대","tel":"02-2060-0709","addr":"경기도 광명시 광명동 295-11번지","indutype":"일반휴게음식 - 일반한식","category":"restaurant"}]},{"lat":"37.47671175","long":"126.8576768","imageIndex":4,"items":[{"name":"요녀석","tel":"031-111-1111","addr":"경기도 광명시 광명동 158-440번지 대영아트빌 102호","indutype":"일반휴게음식 - 일반한식","category":"restaurant"}]},{"lat":"37.47812363","long":"126.8555148","imageIndex":4,"items":[{"name":"욜로양꼬치","tel":"02-2686-6663","addr":"경기도 광명시 광명동 158-561번지 1층","indutype":"일반휴게음식 - 중국식","category":"restaurant"}]},{"lat":"37.48229513","long":"126.8554274","imageIndex":4,"items":[{"name":"우드몬스터(Wood Monster)","tel":"070-7614-3579","addr":"경기도 광명시 광명동 101-5번지 지하1층 및 지상1층","indutype":"일반휴게음식 - 서양음식","category":"restaurant"}]},{"lat":"37.485707","long":"126.8604069","imageIndex":4,"items":[{"name":"우리끼리","tel":"02-2617-7571","addr":"경기도 광명시 광명동 21-14번지 유진연립 1층","indutype":"일반휴게음식 - 주점","category":"restaurant"}]},{"lat":"37.47879278","long":"126.857458","imageIndex":4,"items":[{"name":"우리할매순대국","tel":"070-7646-8698","addr":"경기도 광명시 광명동 150-1번지","indutype":"일반휴게음식 - 일반한식","category":"restaurant"}]},{"lat":"37.48398994","long":"126.8561816","imageIndex":4,"items":[{"name":"우리회포차 2호점","tel":"02-2633-6363","addr":"경기도 광명시 광명동 56-3번지 1층","indutype":"일반휴게음식 - 일반한식","category":"restaurant"},{"name":"청짜장","tel":"02-2682-5973","addr":"경기도 광명시 광명동 56-3번지 1층","indutype":"일반휴게음식 - 중국식","category":"restaurant"}]},{"lat":"37.4833241","long":"126.8569065","imageIndex":4,"items":[{"name":"원님숯불갈비","tel":"02-2066-9283","addr":"경기도 광명시 광명동 91-14번지 1층","indutype":"일반휴게음식 - 일반한식","category":"restaurant"}]},{"lat":"37.47884854","long":"126.8588485","imageIndex":4,"items":[{"name":"원앙전집","tel":"02-2689-5242","addr":"경기도 광명시 광명동 126-69번지 1층 2호","indutype":"일반휴게음식 - 일반한식","category":"restaurant"}]},{"lat":"37.48515232","long":"126.8562585","imageIndex":4,"items":[{"name":"원조골뱅이","tel":"02-2060-7705","addr":"경기도 광명시 광명동 51-1번지 1층","indutype":"일반휴게음식 - 일반한식","category":"restaurant"}]},{"lat":"37.48020618","long":"126.8565169","imageIndex":4,"items":[{"name":"원조할머니빈때떡","tel":"02-2618-6176","addr":"경기도 광명시 광명동 158-25번지","indutype":"일반휴게음식 - 스넥","category":"restaurant"}]},{"lat":"37.47651707","long":"126.8532908","imageIndex":4,"items":[{"name":"원할머니보쌈","tel":"02-2685-1775","addr":"경기도 광명시 광명동 158-769번지 1층","indutype":"일반휴게음식 - 일반한식","category":"restaurant"}]},{"lat":"37.4727949","long":"126.8524617","imageIndex":4,"items":[{"name":"위엔","tel":"02-2614-1746","addr":"경기도 광명시 광명동 337-58번지 문영시티빌라 103동 105호","indutype":"일반휴게음식 - 일반한식","category":"restaurant"}]},{"lat":"37.48092731","long":"126.8567868","imageIndex":4,"items":[{"name":"유명 순대국","tel":"","addr":"경기도 광명시 광명동 138-21번지 1층","indutype":"일반휴게음식 - 일반한식","category":"restaurant"}]},{"lat":"37.47887757","long":"126.8532069","imageIndex":4,"items":[{"name":"유명한막회","tel":"02-2613-4412","addr":"경기도 광명시 광명동 158-815번지","indutype":"일반휴게음식 - 일식·회집","category":"restaurant"},{"name":"진태양푼이","tel":"02-2685-1075","addr":"경기도 광명시 광명동 158-815번지 ,1,2층","indutype":"일반휴게음식 - 일반한식","category":"restaurant"}]},{"lat":"37.4800661","long":"126.8525941","imageIndex":4,"items":[{"name":"유쾌한등갈비","tel":"02-2611-8804","addr":"경기도 광명시 광명동 158-204번지 1층","indutype":"일반휴게음식 - 일반한식","category":"restaurant"}]},{"lat":"37.47853913","long":"126.8563506","imageIndex":4,"items":[{"name":"육쌈냉면","tel":"02-2625-6363","addr":"경기도 광명시 광명동 158-495번지 2층","indutype":"일반휴게음식 - 일반한식","category":"restaurant"}]},{"lat":"37.48024094","long":"126.855488","imageIndex":4,"items":[{"name":"육회랑밥이랑","tel":"","addr":"경기도 광명시 광명동 158-67번지 1층","indutype":"일반휴게음식 - 일반한식","category":"restaurant"}]},{"lat":"37.48032438","long":"126.8502419","imageIndex":4,"items":[{"name":"윤성이의청춘곱창","tel":"02-2060-7484","addr":"경기도 광명시 광명동 158-919번지 1층","indutype":"일반휴게음식 - 일반한식","category":"restaurant"}]},{"lat":"37.48237743","long":"126.8563996","imageIndex":4,"items":[{"name":"은미네가정식백반","tel":"02-2616-6118","addr":"경기도 광명시 광명동 103-7번지 1층","indutype":"일반휴게음식 - 일반한식","category":"restaurant"}]},{"lat":"37.47340422","long":"126.849849","imageIndex":4,"items":[{"name":"은행나무집","tel":"02-000-0000","addr":"경기도 광명시 광명동 348-10번지","indutype":"일반휴게음식 - 일반한식","category":"restaurant"}]},{"lat":"37.47826869","long":"126.856238","imageIndex":4,"items":[{"name":"음악곱창집","tel":"02-2613-6369","addr":"경기도 광명시 광명동 158-585번지 1층","indutype":"일반휴게음식 - 일반한식","category":"restaurant"}]},{"lat":"37.47968476","long":"126.8574563","imageIndex":4,"items":[{"name":"이가네","tel":"02-2619-9738","addr":"경기도 광명시 광명동 157-1번지 1층","indutype":"일반휴게음식 - 일반한식","category":"restaurant"}]},{"lat":"37.47184607","long":"126.8502931","imageIndex":4,"items":[{"name":"이가네생고기","tel":"02-2625-8005","addr":"경기도 광명시 광명동 374-46번지 1층","indutype":"일반휴게음식 - 일반한식","category":"restaurant"}]},{"lat":"37.4681809","long":"126.8517587","imageIndex":4,"items":[{"name":"이디야 광문초교사거리점","tel":"02-2066-6876","addr":"경기도 광명시 광명동 738-4번지 1층 3,4호","indutype":"일반휴게음식 - 서양음식","category":"restaurant"}]},{"lat":"37.48048487","long":"126.8560189","imageIndex":4,"items":[{"name":"이모네","tel":"02-2060-2352","addr":"경기도 광명시 광명동 139-22번지","indutype":"일반휴게음식 - 일반한식","category":"restaurant"},{"name":"짱구식당","tel":"02-2689-3782","addr":"경기도 광명시 광명동 139-22번지 1층","indutype":"일반휴게음식 - 일반한식","category":"restaurant"}]},{"lat":"37.47310024","long":"126.851681","imageIndex":4,"items":[{"name":"이모네곱창","tel":"02-2688-9680","addr":"경기도 광명시 광명동 343-4번지 1층","indutype":"일반휴게음식 - 일반한식","category":"restaurant"}]},{"lat":"37.4803492","long":"126.8556008","imageIndex":4,"items":[{"name":"이모네빈대떡","tel":"02-2613-4771","addr":"경기도 광명시 광명동 158-31번지 1층","indutype":"일반휴게음식 - 일반한식","category":"restaurant"}]},{"lat":"37.4683511","long":"126.8509897","imageIndex":4,"items":[{"name":"이삭토스트","tel":"02-2689-5563","addr":"경기도 광명시 광명동 739-11번지 1층","indutype":"일반휴게음식 - 스넥","category":"restaurant"}]},{"lat":"37.47867971","long":"126.85349","imageIndex":4,"items":[{"name":"이얼싼마라탕","tel":"02-2682-8877","addr":"경기도 광명시 광명동 158-802번지 하나빌딩 2층 201호","indutype":"일반휴게음식 - 중국식","category":"restaurant"}]},{"lat":"37.47899144","long":"126.8578194","imageIndex":4,"items":[{"name":"이향각양꼬치","tel":"02-2688-9666","addr":"경기도 광명시 광명동 155-8번지 1층","indutype":"일반휴게음식 - 일반한식","category":"restaurant"}]},{"lat":"37.48448779","long":"126.8580462","imageIndex":4,"items":[{"name":"이화숯불갈비","tel":"02-2615-6715","addr":"경기도 광명시 광명동 45-9번지 1층","indutype":"일반휴게음식 - 일반한식","category":"restaurant"}]},{"lat":"37.47923702","long":"126.85246","imageIndex":4,"items":[{"name":"인생포차","tel":"031-111-1111","addr":"경기도 광명시 광명동 158-844번지 1층","indutype":"일반휴게음식 - 일반한식","category":"restaurant"},{"name":"키스야초밥 전문점","tel":"02-2060-9980","addr":"경기도 광명시 광명동 158-844번지 1층","indutype":"일반휴게음식 - 일반한식","category":"restaurant"}]},{"lat":"37.47626401","long":"126.8526808","imageIndex":4,"items":[{"name":"인정국물떡볶이","tel":"02-2688-0601","addr":"경기도 광명시 광명동 295-23번지 1층 4호","indutype":"일반휴게음식 - 스넥","category":"restaurant"},{"name":"카페863","tel":"","addr":"경기도 광명시 광명동 295-23번지 1층 3호","indutype":"일반휴게음식 - 서양음식","category":"restaurant"}]},{"lat":"37.4797886","long":"126.8540191","imageIndex":4,"items":[{"name":"일공공참치","tel":"02-2625-7491","addr":"경기도 광명시 광명동 158-187번지 1층","indutype":"일반휴게음식 - 일식·회집","category":"restaurant"},{"name":"홍천화로구이2","tel":"02-2613-3242","addr":"경기도 광명시 광명동 158-187번지 1층","indutype":"일반휴게음식 - 일반한식","category":"restaurant"}]},{"lat":"37.48148517","long":"126.8561752","imageIndex":4,"items":[{"name":"일구칠구동태매운탕꾸꾸미","tel":"02-2066-1979","addr":"경기도 광명시 광명동 104-17번지 1층","indutype":"일반휴게음식 - 일반한식","category":"restaurant"}]},{"lat":"37.47873596","long":"126.8552309","imageIndex":4,"items":[{"name":"일송정","tel":"02-2625-1078","addr":"경기도 광명시 광명동 158-507번지 일송정","indutype":"일반휴게음식 - 일반한식","category":"restaurant"}]},{"lat":"37.47329556","long":"126.849431","imageIndex":4,"items":[{"name":"자가제빵선명희피자광명점","tel":"02-2681-8282","addr":"경기도 광명시 광명동 350-13번지 1층","indutype":"일반휴게음식 - 서양음식","category":"restaurant"}]},{"lat":"37.48073677","long":"126.8557131","imageIndex":4,"items":[{"name":"자매빈대떡","tel":"02-2060-3031","addr":"경기도 광명시 광명동 140-9번지 1층","indutype":"일반휴게음식 - 일반한식","category":"restaurant"}]},{"lat":"37.47448332","long":"126.8482415","imageIndex":4,"items":[{"name":"자매식당","tel":"02-2616-7773","addr":"경기도 광명시 광명동 262-8번지 103호","indutype":"일반휴게음식 - 일반한식","category":"restaurant"}]},{"lat":"37.48028847","long":"126.8503437","imageIndex":4,"items":[{"name":"자연수산시장","tel":"02-2616-0988","addr":"경기도 광명시 광명동 158-916번지 1층","indutype":"일반휴게음식 - 일반한식","category":"restaurant"}]},{"lat":"37.47504675","long":"126.8519597","imageIndex":4,"items":[{"name":"잘될거야","tel":"","addr":"경기도 광명시 광명동 293-30번지","indutype":"일반휴게음식 - 서양음식","category":"restaurant"}]},{"lat":"37.4790171","long":"126.8567114","imageIndex":4,"items":[{"name":"장바구니카페콩","tel":"02-2617-7111","addr":"경기도 광명시 광명동 150-52번지 1층","indutype":"일반휴게음식 - 서양음식","category":"restaurant"}]},{"lat":"37.4807904","long":"126.8553739","imageIndex":4,"items":[{"name":"장보고장어와보쌈","tel":"02-2685-5728","addr":"경기도 광명시 광명동 141-9번지","indutype":"일반휴게음식 - 일반한식","category":"restaurant"},{"name":"진도식당","tel":"02-2615-5426","addr":"경기도 광명시 광명동 141-9번지","indutype":"일반휴게음식 - 일반한식","category":"restaurant"}]},{"lat":"37.47776212","long":"126.8546223","imageIndex":4,"items":[{"name":"장어나라","tel":"02-2625-0067","addr":"경기도 광명시 광명동 158-663번지 지층","indutype":"일반휴게음식 - 일반한식","category":"restaurant"}]},{"lat":"37.47440172","long":"126.8548777","imageIndex":4,"items":[{"name":"장충앤제이피","tel":"02-2685-8684","addr":"경기도 광명시 광명동 298-17번지 삼화주택 1층 104호","indutype":"일반휴게음식 - 일반한식","category":"restaurant"}]},{"lat":"37.47420524","long":"126.8491804","imageIndex":4,"items":[{"name":"장터포차","tel":"001-0000-0000","addr":"경기도 광명시 광명동 263-29번지 1층","indutype":"일반휴게음식 - 일반한식","category":"restaurant"}]},{"lat":"37.47848403","long":"126.8555141","imageIndex":4,"items":[{"name":"전라도반상","tel":"02-2617-7456","addr":"경기도 광명시 광명동 158-556번지 1층","indutype":"일반휴게음식 - 일반한식","category":"restaurant"}]},{"lat":"37.47776333","long":"126.8555946","imageIndex":4,"items":[{"name":"전라도밥상","tel":"02-2618-4435","addr":"경기도 광명시 광명동 158-1232번지 1층","indutype":"일반휴게음식 - 일반한식","category":"restaurant"}]},{"lat":"37.47751577","long":"126.8594276","imageIndex":4,"items":[{"name":"전주집","tel":"02-2614-5959","addr":"경기도 광명시 광명동 158-1162번지","indutype":"일반휴게음식 - 일반한식","category":"restaurant"}]},{"lat":"37.48184719","long":"126.857486","imageIndex":4,"items":[{"name":"정가네","tel":"02-2687-7729","addr":"경기도 광명시 광명동 109-18번지 1층","indutype":"일반휴게음식 - 일반한식","category":"restaurant"}]},{"lat":"37.48048309","long":"126.8545944","imageIndex":4,"items":[{"name":"정상운참치","tel":"02-2685-3676","addr":"경기도 광명시 광명동 158-89번지","indutype":"일반휴게음식 - 일반한식","category":"restaurant"}]},{"lat":"37.47876083","long":"126.8535124","imageIndex":4,"items":[{"name":"정원갈비","tel":"02-2614-6011","addr":"경기도 광명시 광명동 158-803번지","indutype":"일반휴게음식 - 일반한식","category":"restaurant"}]},{"lat":"37.48426229","long":"126.8578431","imageIndex":4,"items":[{"name":"정원생고기","tel":"02-2615-6637","addr":"경기도 광명시 광명동 59-1번지","indutype":"일반휴게음식 - 일반한식","category":"restaurant"}]},{"lat":"37.48287326","long":"126.8566247","imageIndex":4,"items":[{"name":"정인면옥평양냉면","tel":"02-2683-2612","addr":"경기도 광명시 광명동 91-10번지 1층","indutype":"일반휴게음식 - 일반한식","category":"restaurant"}]},{"lat":"37.48032227","long":"126.85568","imageIndex":4,"items":[{"name":"정일품 마장동정육식당","tel":"02-2685-6148","addr":"경기도 광명시 광명동 158-1278번지 1층","indutype":"일반휴게음식 - 일반한식","category":"restaurant"}]},{"lat":"37.47593121","long":"126.846181","imageIndex":4,"items":[{"name":"제이샵","tel":"02-000-0000","addr":"경기도 광명시 광명동 233-3번지 현월프라자 102호","indutype":"일반휴게음식 - 서양음식","category":"restaurant"},{"name":"청기와쭈삼불","tel":"02-2066-9889","addr":"경기도 광명시 광명동 233-3번지 현월프라자 102호","indutype":"일반휴게음식 - 일반한식","category":"restaurant"}]},{"lat":"37.47937326","long":"126.853319","imageIndex":4,"items":[{"name":"조마루감자탕","tel":"02-2615-5935","addr":"경기도 광명시 광명동 158-827번지 ,1,2층","indutype":"일반휴게음식 - 일반한식","category":"restaurant"}]},{"lat":"37.47976472","long":"126.8565404","imageIndex":4,"items":[{"name":"주가네족발","tel":"02-2066-0993","addr":"경기도 광명시 광명동 158-23번지 1층","indutype":"일반휴게음식 - 일반한식","category":"restaurant"}]},{"lat":"37.48434485","long":"126.8590415","imageIndex":4,"items":[{"name":"주나","tel":"02-2613-3500","addr":"경기도 광명시 광명동 61-1번지","indutype":"일반휴게음식 - 일반한식","category":"restaurant"}]},{"lat":"37.4807135","long":"126.8587658","imageIndex":4,"items":[{"name":"주땡","tel":"02-2689-8600","addr":"경기도 광명시 광명동 116-9번지 1층 1호","indutype":"일반휴게음식 - 일반한식","category":"restaurant"}]},{"lat":"37.48368076","long":"126.8612362","imageIndex":4,"items":[{"name":"주식회사한여름에프앤지/롯데리아기흥휴게","tel":"031-275-4242","addr":"경기도 광명시 광명동 71-20번지 1층","indutype":"일반휴게음식 - 서양음식","category":"restaurant"}]},{"lat":"37.48843144","long":"126.8632851","imageIndex":4,"items":[{"name":"죽이야기","tel":"02-2060-5995","addr":"경기도 광명시 광명동 9-44번지 1층","indutype":"일반휴게음식 - 일반한식","category":"restaurant"}]},{"lat":"37.48337867","long":"126.8573134","imageIndex":4,"items":[{"name":"지오돈까스","tel":"02-2688-8791","addr":"경기도 광명시 광명동 59-10번지 1층","indutype":"일반휴게음식 - 일반한식","category":"restaurant"}]},{"lat":"37.47310184","long":"126.8529358","imageIndex":4,"items":[{"name":"지프라기동태한마리","tel":"02-2617-4427","addr":"경기도 광명시 광명동 337-72번지 동남마을빌라 1층 102호","indutype":"일반휴게음식 - 일반한식","category":"restaurant"}]},{"lat":"37.47392759","long":"126.8504584","imageIndex":4,"items":[{"name":"진경소머리국밥","tel":"02-2686-6888","addr":"경기도 광명시 광명동 290-86번지 1층","indutype":"일반휴게음식 - 일반한식","category":"restaurant"}]},{"lat":"37.48301758","long":"126.8567601","imageIndex":4,"items":[{"name":"진도생선병어생삼겹살","tel":"02-2615-9233","addr":"경기도 광명시 광명동 91-11번지 1층","indutype":"일반휴게음식 - 일반한식","category":"restaurant"}]},{"lat":"37.48034978","long":"126.8560644","imageIndex":4,"items":[{"name":"진미보쌈","tel":"02-2688-2536","addr":"경기도 광명시 광명동 158-1274번지","indutype":"일반휴게음식 - 일반한식","category":"restaurant"}]},{"lat":"37.47504117","long":"126.8476525","imageIndex":4,"items":[{"name":"진아베트남쌀국수","tel":"02-6489-2212","addr":"경기도 광명시 광명동 247-2번지 청원빌딩 1층 101,102호","indutype":"일반휴게음식 - 서양음식","category":"restaurant"}]},{"lat":"37.47315197","long":"126.8498721","imageIndex":4,"items":[{"name":"진안마이산식당","tel":"022-2625-8387","addr":"경기도 광명시 광명동 348-7번지 1층","indutype":"일반휴게음식 - 일반한식","category":"restaurant"}]},{"lat":"37.47356697","long":"126.8502896","imageIndex":4,"items":[{"name":"진이네전집","tel":"","addr":"경기도 광명시 광명동 347-7번지 1층","indutype":"일반휴게음식 - 일반한식","category":"restaurant"},{"name":"천명손칼국수","tel":"02-2619-5959","addr":"경기도 광명시 광명동 347-7번지 1층","indutype":"일반휴게음식 - 일반한식","category":"restaurant"}]},{"lat":"37.48120607","long":"126.8563453","imageIndex":4,"items":[{"name":"진화쿵부마라탕","tel":"031-503-8018","addr":"경기도 광명시 광명동 139-15번지 2층","indutype":"일반휴게음식 - 일반한식","category":"restaurant"}]},{"lat":"37.47824114","long":"126.8558198","imageIndex":4,"items":[{"name":"짝태엔노가리","tel":"070-4289-7899","addr":"경기도 광명시 광명동 158-1443번지 1층","indutype":"일반휴게음식 - 일반한식","category":"restaurant"}]},{"lat":"37.47287648","long":"126.8528458","imageIndex":4,"items":[{"name":"짬뽕의신","tel":"02-0000-0000","addr":"경기도 광명시 광명동 337-57번지 문영시티빌라 1층 1호","indutype":"일반휴게음식 - 중국식","category":"restaurant"}]},{"lat":"37.46968533","long":"126.8515748","imageIndex":4,"items":[{"name":"차향가산야초","tel":"061-794-0595","addr":"경기도 광명시 광명동 320-30번지","indutype":"일반휴게음식 - 서양음식","category":"restaurant"}]},{"lat":"37.48031845","long":"126.8526501","imageIndex":4,"items":[{"name":"착한식당","tel":"02-744-0369","addr":"경기도 광명시 광명동 158-1409번지 1층","indutype":"일반휴게음식 - 일반한식","category":"restaurant"}]},{"lat":"37.46076816","long":"126.8467326","imageIndex":4,"items":[{"name":"착한한우","tel":"02-2619-7878","addr":"경기도 광명시 광명동 550-3번지 1층","indutype":"일반휴게음식 - 일반한식","category":"restaurant"}]},{"lat":"37.47385171","long":"126.8475419","imageIndex":4,"items":[{"name":"참고을영양탕","tel":"070-1111-1111","addr":"경기도 광명시 광명동 246-56번지 1층 2호, 3호","indutype":"일반휴게음식 - 일반한식","category":"restaurant"}]},{"lat":"37.46804508","long":"126.851239","imageIndex":4,"items":[{"name":"참풍년집정육식당","tel":"02-2616-1060","addr":"경기도 광명시 광명동 738-1번지","indutype":"일반휴게음식 - 일반한식","category":"restaurant"}]},{"lat":"37.47990276","long":"126.8516786","imageIndex":4,"items":[{"name":"채상궁(광명점)","tel":"02-2687-7770","addr":"경기도 광명시 광명동 158-855번지 2층","indutype":"일반휴게음식 - 일반한식","category":"restaurant"}]},{"lat":"37.47743152","long":"126.8568502","imageIndex":4,"items":[{"name":"천가문양꼬치","tel":"02-2682-2226","addr":"경기도 광명시 광명동 158-473번지 한마음아트빌 1층 101호","indutype":"일반휴게음식 - 중국식","category":"restaurant"}]},{"lat":"37.47707125","long":"126.8569526","imageIndex":4,"items":[{"name":"천해","tel":"02-2685-8838","addr":"경기도 광명시 광명동 158-433번지 1층","indutype":"일반휴게음식 - 일반한식","category":"restaurant"}]},{"lat":"37.48434461","long":"126.8588492","imageIndex":4,"items":[{"name":"철판구이전문점","tel":"02-802-7338","addr":"경기도 광명시 광명동 61-4번지 1층","indutype":"일반휴게음식 - 일반한식","category":"restaurant"}]},{"lat":"37.48112394","long":"126.8555089","imageIndex":4,"items":[{"name":"춘자네부대찌개","tel":"","addr":"경기도 광명시 광명동 141-5번지","indutype":"일반휴게음식 - 일반한식","category":"restaurant"}]},{"lat":"37.47774069","long":"126.8591559","imageIndex":4,"items":[{"name":"춘천닭갈비","tel":"02-2612-3495","addr":"경기도 광명시 광명동 158-301번지 2층","indutype":"일반휴게음식 - 일반한식","category":"restaurant"},{"name":"콩심전주종가콩나물국밥","tel":"02-2611-9532","addr":"경기도 광명시 광명동 158-301번지 1층","indutype":"일반휴게음식 - 일반한식","category":"restaurant"}]},{"lat":"37.47857152","long":"126.8534337","imageIndex":4,"items":[{"name":"치르치르(광명사거리점)","tel":"02-2686-2100","addr":"경기도 광명시 광명동 158-801번지","indutype":"일반휴게음식 - 일반한식","category":"restaurant"}]},{"lat":"37.47856912","long":"126.8587586","imageIndex":4,"items":[{"name":"치즈먹는갈매기","tel":"02-2612-4567","addr":"경기도 광명시 광명동 126-22번지 1층","indutype":"일반휴게음식 - 일반한식","category":"restaurant"}]},{"lat":"37.47681881","long":"126.8568174","imageIndex":4,"items":[{"name":"친구네","tel":"02-2066-6505","addr":"경기도 광명시 광명동 158-449번지","indutype":"일반휴게음식 - 일반한식","category":"restaurant"},{"name":"카페루앤비 광명4동점","tel":"02-2616-3579","addr":"경기도 광명시 광명동 158-449번지 1층 일부","indutype":"일반휴게음식 - 서양음식","category":"restaurant"}]},{"lat":"37.47815783","long":"126.854045","imageIndex":4,"items":[{"name":"카레우동 사거리","tel":"02-2611-1827","addr":"경기도 광명시 광명동 158-521번지 1층 101호","indutype":"일반휴게음식 - 일반한식","category":"restaurant"},{"name":"화수분","tel":"02-3273-7008","addr":"경기도 광명시 광명동 158-521번지 2층","indutype":"일반휴게음식 - 일반한식","category":"restaurant"}]},{"lat":"37.4789626","long":"126.8563497","imageIndex":4,"items":[{"name":"카페루앤비","tel":"02-2619-1690","addr":"경기도 광명시 광명동 150-14번지","indutype":"일반휴게음식 - 서양음식","category":"restaurant"}]},{"lat":"37.48404476","long":"126.8567921","imageIndex":4,"items":[{"name":"카페루앤비","tel":"02-2615-4153","addr":"경기도 광명시 광명동 57-3번지 승화빌딩 1층","indutype":"일반휴게음식 - 서양음식","category":"restaurant"}]},{"lat":"37.48648419","long":"126.8623502","imageIndex":4,"items":[{"name":"카페몽","tel":"02-2060-5836","addr":"경기도 광명시 광명동 11-84번지 1층","indutype":"일반휴게음식 - 일반한식","category":"restaurant"}]},{"lat":"37.46882164","long":"126.8525713","imageIndex":4,"items":[{"name":"카페잇광명점","tel":"02-2066-2232","addr":"경기도 광명시 광명동 724-8번지","indutype":"일반휴게음식 - 서양음식","category":"restaurant"}]},{"lat":"37.47429111","long":"126.8528995","imageIndex":4,"items":[{"name":"카페트루","tel":"02-000-0000","addr":"경기도 광명시 광명동 296-8번지 1층 6호","indutype":"일반휴게음식 - 서양음식","category":"restaurant"}]},{"lat":"37.46948813","long":"126.8523778","imageIndex":4,"items":[{"name":"카페한","tel":"02-2688-6249","addr":"경기도 광명시 광명동 780번지 광명시돔경륜장 2층","indutype":"일반휴게음식 - 서양음식","category":"restaurant"}]},{"lat":"37.47762749","long":"126.8550409","imageIndex":4,"items":[{"name":"캔카페광명사거리점","tel":"031-111-1111","addr":"경기도 광명시 광명동 158-1315번지 1층","indutype":"일반휴게음식 - 서양음식","category":"restaurant"}]},{"lat":"37.47004048","long":"126.8545472","imageIndex":4,"items":[{"name":"캠프커피","tel":"02-2625-6002","addr":"경기도 광명시 광명동 719번지 타워펠리스 101호","indutype":"일반휴게음식 - 서양음식","category":"restaurant"}]},{"lat":"37.47871141","long":"126.8572321","imageIndex":4,"items":[{"name":"커피씨","tel":"02-2625-7111","addr":"경기도 광명시 광명동 150-3번지 1층","indutype":"일반휴게음식 - 서양음식","category":"restaurant"}]},{"lat":"37.47290192","long":"126.8516023","imageIndex":4,"items":[{"name":"커피에 반하다 광명새마을시장점","tel":"070-8944-0600","addr":"경기도 광명시 광명동 340-6번지 1층","indutype":"일반휴게음식 - 서양음식","category":"restaurant"},{"name":"화통삼광명사거리역점","tel":"02-2686-2255","addr":"경기도 광명시 광명동 340-6번지 1층","indutype":"일반휴게음식 - 일반한식","category":"restaurant"}]},{"lat":"37.47792766","long":"126.857324","imageIndex":4,"items":[{"name":"커피에반하다(광명사거리점)","tel":"02-2060-0546","addr":"경기도 광명시 광명동 158-394번지 1층","indutype":"일반휴게음식 - 서양음식","category":"restaurant"}]},{"lat":"37.48053896","long":"126.8560414","imageIndex":4,"items":[{"name":"커피콩","tel":"031-111-1111","addr":"경기도 광명시 광명동 139-9번지","indutype":"일반휴게음식 - 서양음식","category":"restaurant"}]},{"lat":"37.47860199","long":"126.8561808","imageIndex":4,"items":[{"name":"커핀그루나루광명사거리역라운지","tel":"02-2682-9505","addr":"경기도 광명시 광명동 158-498번지 ,2-3층","indutype":"일반휴게음식 - 서양음식","category":"restaurant"}]},{"lat":"37.46809757","long":"126.8500181","imageIndex":4,"items":[{"name":"콩짜장","tel":"02-2685-5161","addr":"경기도 광명시 광명동 742-11번지","indutype":"일반휴게음식 - 중국식","category":"restaurant"}]},{"lat":"37.46715369","long":"126.8517043","imageIndex":4,"items":[{"name":"쿰앤쿰","tel":"070-2689-4676","addr":"경기도 광명시 광명동 736-6번지 광문아트빌라 101,102호","indutype":"일반휴게음식 - 서양음식","category":"restaurant"}]},{"lat":"37.47776142","long":"126.8614056","imageIndex":4,"items":[{"name":"퀸스피자","tel":"02-6053-9922","addr":"경기도 광명시 광명동 33-77번지 1층","indutype":"일반휴게음식 - 서양음식","category":"restaurant"}]},{"lat":"37.47446273","long":"126.8532383","imageIndex":4,"items":[{"name":"탁사발","tel":"02-898-4893","addr":"경기도 광명시 광명동 297-34번지 1층","indutype":"일반휴게음식 - 일반한식","category":"restaurant"}]},{"lat":"37.4786555","long":"126.8557398","imageIndex":4,"items":[{"name":"탐앤탐스 광명사거리점","tel":"02-2682-4565","addr":"경기도 광명시 광명동 158-501번지 장현빌딩 2층","indutype":"일반휴게음식 - 서양음식","category":"restaurant"}]},{"lat":"37.4803777","long":"126.8567879","imageIndex":4,"items":[{"name":"탕탕탕","tel":"02-2611-9654","addr":"경기도 광명시 광명동 136-14번지 1층","indutype":"일반휴게음식 - 중국식","category":"restaurant"}]},{"lat":"37.48345774","long":"126.8556852","imageIndex":4,"items":[{"name":"태백애물닭갈비","tel":"02-687-2619","addr":"경기도 광명시 광명동 94-3번지 1층","indutype":"일반휴게음식 - 일반한식","category":"restaurant"}]},{"lat":"37.47671028","long":"126.8564898","imageIndex":4,"items":[{"name":"탱가통닭","tel":"02-2619-6001","addr":"경기도 광명시 광명동 158-461번지 1층","indutype":"일반휴게음식 - 일반한식","category":"restaurant"}]},{"lat":"37.47651343","long":"126.8575981","imageIndex":4,"items":[{"name":"테트리스찜닭","tel":"031-000-0000","addr":"경기도 광명시 광명동 158-1282번지","indutype":"일반휴게음식 - 일반한식","category":"restaurant"}]},{"lat":"37.47307377","long":"126.8521219","imageIndex":4,"items":[{"name":"토마토김밥","tel":"02-2687-8382","addr":"경기도 광명시 광명동 342-18번지 1층","indutype":"일반휴게음식 - 일반한식","category":"restaurant"},{"name":"해자우리","tel":"02-2618-9953","addr":"경기도 광명시 광명동 342-18번지 1층","indutype":"일반휴게음식 - 일반한식","category":"restaurant"}]},{"lat":"37.46804325","long":"126.8498147","imageIndex":4,"items":[{"name":"토종순대국","tel":"02-2618-4836","addr":"경기도 광명시 광명동 742-12번지 원광빌딩 1층 일부호","indutype":"일반휴게음식 - 일반한식","category":"restaurant"},{"name":"홍천화로구이","tel":"02-2060-6009","addr":"경기도 광명시 광명동 742-12번지","indutype":"일반휴게음식 - 일반한식","category":"restaurant"}]},{"lat":"37.48256637","long":"126.8561844","imageIndex":4,"items":[{"name":"토프레소","tel":"02-2614-2336","addr":"경기도 광명시 광명동 102-1번지","indutype":"일반휴게음식 - 서양음식","category":"restaurant"}]},{"lat":"37.4801539","long":"126.8507963","imageIndex":4,"items":[{"name":"통통불닭발","tel":"02-2682-3021","addr":"경기도 광명시 광명동 158-1142번지","indutype":"일반휴게음식 - 스넥","category":"restaurant"}]},{"lat":"37.47878905","long":"126.854462","imageIndex":4,"items":[{"name":"투썸플레이스 광명사거리역점","tel":"02-890-2560","addr":"경기도 광명시 광명동 158-514번지 해솔빌딩 1층 102호","indutype":"일반휴게음식 - 서양음식","category":"restaurant"}]},{"lat":"37.47948951","long":"126.8526291","imageIndex":4,"items":[{"name":"티와이펍","tel":"02-2066-9994","addr":"경기도 광명시 광명동 158-847번지 1층","indutype":"일반휴게음식 - 주점","category":"restaurant"}]},{"lat":"37.47788022","long":"126.8554022","imageIndex":4,"items":[{"name":"팔색조","tel":"","addr":"경기도 광명시 광명동 158-563번지 우형빌딩","indutype":"일반휴게음식 - 서양음식","category":"restaurant"},{"name":"피그사냥","tel":"02-2615-6027","addr":"경기도 광명시 광명동 158-563번지","indutype":"일반휴게음식 - 일반한식","category":"restaurant"}]},{"lat":"37.48440461","long":"126.8563504","imageIndex":4,"items":[{"name":"펀비어킹","tel":"02-2625-5525","addr":"경기도 광명시 광명동 51-7번지","indutype":"일반휴게음식 - 주점","category":"restaurant"}]},{"lat":"37.48107158","long":"126.856877","imageIndex":4,"items":[{"name":"페리카나","tel":"","addr":"경기도 광명시 광명동 138-1번지","indutype":"일반휴게음식 - 일반한식","category":"restaurant"},{"name":"한마당","tel":"02-2683-0884","addr":"경기도 광명시 광명동 138-1번지 2층","indutype":"일반휴게음식 - 일반한식","category":"restaurant"}]},{"lat":"37.47320564","long":"126.8495668","imageIndex":4,"items":[{"name":"페리카나치킨","tel":"02-2681-4280","addr":"경기도 광명시 광명동 348-20번지","indutype":"일반휴게음식 - 스넥","category":"restaurant"}]},{"lat":"37.47771345","long":"126.8589863","imageIndex":4,"items":[{"name":"평양메밀수제메밀냉면전문","tel":"02-6408-8006","addr":"경기도 광명시 광명동 158-303번지 1층","indutype":"일반휴게음식 - 일반한식","category":"restaurant"}]},{"lat":"37.48137808","long":"126.8570121","imageIndex":4,"items":[{"name":"풍미곱창구이","tel":"02-2687-9295","addr":"경기도 광명시 광명동 106-6번지","indutype":"일반휴게음식 - 일반한식","category":"restaurant"}]},{"lat":"37.4831528","long":"126.8568164","imageIndex":4,"items":[{"name":"풍성식당","tel":"02-2060-5008","addr":"경기도 광명시 광명동 91-13번지 1층","indutype":"일반휴게음식 - 일반한식","category":"restaurant"}]},{"lat":"37.4731827","long":"126.845825","imageIndex":4,"items":[{"name":"피자꾼광명점","tel":"031-3666-0011","addr":"경기도 광명시 광명동 785번지 광명해모로이연 209동 1층 102호","indutype":"일반휴게음식 - 서양음식","category":"restaurant"}]},{"lat":"37.47773411","long":"126.8538423","imageIndex":4,"items":[{"name":"피자런","tel":"02-000-0000","addr":"경기도 광명시 광명동 158-784번지 1층","indutype":"일반휴게음식 - 서양음식","category":"restaurant"}]},{"lat":"37.49012831","long":"126.8658487","imageIndex":4,"items":[{"name":"하노이키친","tel":"02-6449-6006","addr":"경기도 광명시 광명동 5-33번지 1층","indutype":"일반휴게음식 - 서양음식","category":"restaurant"}]},{"lat":"37.47504154","long":"126.8479351","imageIndex":4,"items":[{"name":"한미치킨","tel":"02-2611-1233","addr":"경기도 광명시 광명동 259-8번지 103호","indutype":"일반휴게음식 - 스넥","category":"restaurant"}]},{"lat":"37.47643535","long":"126.8527935","imageIndex":4,"items":[{"name":"한방전주콩나물국밥","tel":"02-2066-9954","addr":"경기도 광명시 광명동 295-22번지","indutype":"일반휴게음식 - 일반한식","category":"restaurant"}]},{"lat":"37.48115319","long":"126.8572951","imageIndex":4,"items":[{"name":"한방촌전주콩나물국밥","tel":"02-2688-6993","addr":"경기도 광명시 광명동 109-19번지 1층","indutype":"일반휴게음식 - 일반한식","category":"restaurant"}]},{"lat":"37.47217993","long":"126.8506768","imageIndex":4,"items":[{"name":"한솥도시락","tel":"02-2066-9885","addr":"경기도 광명시 광명동 374-40번지 1층","indutype":"일반휴게음식 - 일반한식","category":"restaurant"}]},{"lat":"37.47862662","long":"126.8542589","imageIndex":4,"items":[{"name":"한스델리 광명사거리점","tel":"02-2060-2922","addr":"경기도 광명시 광명동 158-1347번지 2층","indutype":"일반휴게음식 - 일반한식","category":"restaurant"}]},{"lat":"37.48018267","long":"126.8521529","imageIndex":4,"items":[{"name":"할매순대국","tel":"02-2066-8780","addr":"경기도 광명시 광명동 158-1414번지","indutype":"일반휴게음식 - 일반한식","category":"restaurant"}]},{"lat":"37.47373367","long":"126.8468526","imageIndex":4,"items":[{"name":"해모로뼈다귀해장국","tel":"02-2688-3936","addr":"경기도 광명시 광명동 244-18번지","indutype":"일반휴게음식 - 일반한식","category":"restaurant"}]},{"lat":"37.47357357","long":"126.8484356","imageIndex":4,"items":[{"name":"해모로숯불구이","tel":"02-2686-9229","addr":"경기도 광명시 광명동 352-20번지","indutype":"일반휴게음식 - 일반한식","category":"restaurant"}]},{"lat":"37.47328891","long":"126.8512624","imageIndex":4,"items":[{"name":"해적아구찜","tel":"02-2689-0673","addr":"경기도 광명시 광명동 340-5번지 지하층","indutype":"일반휴게음식 - 일반한식","category":"restaurant"}]},{"lat":"37.4832069","long":"126.8568502","imageIndex":4,"items":[{"name":"행복맛푸드","tel":"02-2060-8985","addr":"경기도 광명시 광명동 91-16번지 1층","indutype":"일반휴게음식 - 일반한식","category":"restaurant"},{"name":"행복맛푸드","tel":"02-2060-8985","addr":"경기도 광명시 광명동 91-16번지","indutype":"일반휴게음식 - 일반한식","category":"restaurant"}]},{"lat":"37.478095","long":"126.8542373","imageIndex":4,"items":[{"name":"행복한밥상수림","tel":"02-2612-8998","addr":"경기도 광명시 광명동 158-1412번지 1층","indutype":"일반휴게음식 - 일반한식","category":"restaurant"}]},{"lat":"37.47484945","long":"126.8526836","imageIndex":4,"items":[{"name":"행복한식당","tel":"02-2683-6780","addr":"경기도 광명시 광명동 295-17번지","indutype":"일반휴게음식 - 일반한식","category":"restaurant"}]},{"lat":"37.48096315","long":"126.849517","imageIndex":4,"items":[{"name":"현빈옆집커피","tel":"02-2611-9497","addr":"경기도 광명시 광명동 159-20번지 1층","indutype":"일반휴게음식 - 서양음식","category":"restaurant"}]},{"lat":"37.48046153","long":"126.859015","imageIndex":4,"items":[{"name":"호세야바베큐","tel":"031-2060-8605","addr":"경기도 광명시 광명동 128-1번지 1층 지상 1층 일부","indutype":"일반휴게음식 - 일반한식","category":"restaurant"}]},{"lat":"37.47162261","long":"126.851684","imageIndex":4,"items":[{"name":"호야네떡볶이","tel":"02-6052-7409","addr":"경기도 광명시 광명동 324-30번지 쌍투스빌라 1층 102호","indutype":"일반휴게음식 - 일반한식","category":"restaurant"}]},{"lat":"37.47976817","long":"126.8521198","imageIndex":4,"items":[{"name":"호천생갈비","tel":"02-2614-8292","addr":"경기도 광명시 광명동 158-852번지 1층","indutype":"일반휴게음식 - 일반한식","category":"restaurant"}]},{"lat":"37.48431714","long":"126.8584875","imageIndex":4,"items":[{"name":"호프꼬꼬","tel":"02-2060-5600","addr":"경기도 광명시 광명동 61-6번지 1층 102호","indutype":"일반휴게음식 - 일반한식","category":"restaurant"}]},{"lat":"37.48420632","long":"126.8562943","imageIndex":4,"items":[{"name":"홍대칼국수와족발 광명점","tel":"070-1111-1111","addr":"경기도 광명시 광명동 56-1번지","indutype":"일반휴게음식 - 일반한식","category":"restaurant"}]},{"lat":"37.48051266","long":"126.8566293","imageIndex":4,"items":[{"name":"홍두께","tel":"02-2625-6235","addr":"경기도 광명시 광명동 138-6번지","indutype":"일반휴게음식 - 주점","category":"restaurant"}]},{"lat":"37.47904063","long":"126.8539076","imageIndex":4,"items":[{"name":"홍콩반점0410 광명사거리역점","tel":"02-2611-0410","addr":"경기도 광명시 광명동 158-791번지 2층","indutype":"일반휴게음식 - 중국식","category":"restaurant"}]},{"lat":"37.47934594","long":"126.8530929","imageIndex":4,"items":[{"name":"화난포차","tel":"","addr":"경기도 광명시 광명동 158-1338번지 1호","indutype":"일반휴게음식 - 일반한식","category":"restaurant"}]},{"lat":"37.47307501","long":"126.8530942","imageIndex":4,"items":[{"name":"황금밥상","tel":"02-0000-0000","addr":"경기도 광명시 광명동 337-71번지 동남마을빌라 103호 102호, 103호","indutype":"일반휴게음식 - 일반한식","category":"restaurant"}]},{"lat":"37.47998675","long":"126.8539622","imageIndex":4,"items":[{"name":"황제호프","tel":"02-2611-2479","addr":"경기도 광명시 광명동 158-110번지 1층","indutype":"일반휴게음식 - 주점","category":"restaurant"}]},{"lat":"37.48562567","long":"126.8602036","imageIndex":4,"items":[{"name":"회가수산","tel":"02-2611-2994","addr":"경기도 광명시 광명동 21-15번지 유진연립","indutype":"일반휴게음식 - 일반한식","category":"restaurant"}]},{"lat":"37.47943114","long":"126.8563714","imageIndex":4,"items":[{"name":"회랑조개랑","tel":"02-2682-3214","addr":"경기도 광명시 광명동 158-20번지 1층","indutype":"일반휴게음식 - 칵테일바","category":"restaurant"}]},{"lat":"37.48137757","long":"126.8565937","imageIndex":4,"items":[{"name":"횡성생고기","tel":"070-8816-1183","addr":"경기도 광명시 광명동 105-8번지 1층","indutype":"일반휴게음식 - 일반한식","category":"restaurant"}]},{"lat":"37.47748941","long":"126.8599816","imageIndex":4,"items":[{"name":"횡성생고기","tel":"02-2614-3709","addr":"경기도 광명시 광명동 158-237번지 1층","indutype":"일반휴게음식 - 일반한식","category":"restaurant"}]},{"lat":"37.49012575","long":"126.8636551","imageIndex":4,"items":[{"name":"희주네분식","tel":"","addr":"경기도 광명시 광명동 6-42번지 정우맨션 201호","indutype":"일반휴게음식 - 스넥","category":"restaurant"}]},{"lat":"37.47762763","long":"126.855154","imageIndex":4,"items":[{"name":"히카리연어","tel":"","addr":"경기도 광명시 광명동 158-660번지 1층","indutype":"일반휴게음식 - 일식·회집","category":"restaurant"}]}]