[{"lat":"37.011943842","long":"127.36295287","imageIndex":4,"items":[{"name":"달감 카페","tel":"03-111-1111","addr":"경기도 안성시 금광면 삼흥리 823-3번지","indutype":"일반휴게음식 - 서양음식","category":"restaurant"}]},{"lat":"37.017499692","long":"127.37294616","imageIndex":4,"items":[{"name":"맛짱손두부","tel":"031-674-5553","addr":"경기도 안성시 금광면 삼흥리 220-2번지","indutype":"일반휴게음식 - 일반한식","category":"restaurant"}]},{"lat":"37.028304504","long":"127.37833682","imageIndex":4,"items":[{"name":"삼성웰스토리(주)안성베네스트","tel":"031-670-0763","addr":"경기도 안성시 금광면 삼흥리 산1번지 안성베네스트골프클럽","indutype":"일반휴게음식 - 위탁급식업","category":"restaurant"}]},{"lat":"37.016388936","long":"127.36791798","imageIndex":4,"items":[{"name":"신차령산맥","tel":"031-673-6396","addr":"경기도 안성시 금광면 삼흥리 299번지","indutype":"일반휴게음식 - 일반한식","category":"restaurant"}]},{"lat":"37.011943842","long":"127.36295287","imageIndex":7,"items":[{"name":"마켓25슈퍼","tel":"031-673-9161","addr":"경기도 안성시 금광면 삼흥리 823-3번지","indutype":"유통업 영리 - 슈퍼마켓","category":"mart"}]},{"lat":"37.028304504","long":"127.37833682","imageIndex":13,"items":[{"name":"삼성물산(주)안성베네스트골프클럽","tel":"031-670-0720","addr":"경기도 안성시 금광면 삼흥리 산1번지","indutype":"레저업소 - 골프경기장","category":"leisure"}]},{"lat":"37.01869127","long":"127.36047885","imageIndex":8,"items":[{"name":"의료법인평강의료재단","tel":"031-673-6116","addr":"경기도 안성시 금광면 삼흥리 738번지","indutype":"병원 - 병원","category":"medical"}]},{"lat":"37.018611865","long":"127.37459215","imageIndex":17,"items":[{"name":"청수골","tel":"031-671-0588","addr":"경기도 안성시 금광면 삼흥리 74-3번지","indutype":"문화.취미 - 민예·공예품","category":"other"},{"name":"청수골상회","tel":"031-671-0588","addr":"경기도 안성시 금광면 삼흥리 74-3","indutype":"레져용품 - 골프용품 전문점","category":"other"}]}]