[{"lat":"37.226100459","long":"127.02367102","imageIndex":17,"items":[{"name":"(주)대한샤링레이저","tel":"031-267-0788","addr":"경기도 화성시 반정동 448-6번지","indutype":"용역 서비스 - 기타용역서비스","category":"other"},{"name":"동명상사","tel":"031-237-3421","addr":"경기도 화성시 반정동 448-6번지","indutype":"기타 - 기계공구","category":"other"},{"name":"동아유압","tel":"031-221-4018","addr":"경기도 화성시 반정동 448-6번지","indutype":"기타 - 기타 전문점","category":"other"}]},{"lat":"37.22201822","long":"127.0265881","imageIndex":17,"items":[{"name":"(주)디에스세라믹","tel":"031-234-6842","addr":"경기도 화성시 반정동 504-1번지","indutype":"건축자재 - 건축용 요업제품","category":"other"}]},{"lat":"37.234133721","long":"127.03992308","imageIndex":17,"items":[{"name":"(주)아인산업","tel":"031-224-1631","addr":"경기도 화성시 반정동 115-15번지","indutype":"기타 - 기타 전문점","category":"other"}]},{"lat":"37.221522777","long":"127.02594572","imageIndex":17,"items":[{"name":"(주)태원스틸","tel":"031-223-5633","addr":"경기도 화성시 반정동 507-5번지","indutype":"건축자재 - 기타건축자재","category":"other"},{"name":"드림Enc","tel":"031-291-2300","addr":"경기도 화성시 반정동 507-5번지 A동 2호","indutype":"전기제품 - 냉열기기","category":"other"},{"name":"주홍글씨","tel":"031-225-7742","addr":"경기도 화성시 반정동 507-5번지 A동 1호","indutype":"용역 서비스 - 종합용역","category":"other"}]},{"lat":"37.246738376","long":"127.04238629","imageIndex":17,"items":[{"name":"GS25반정삼성점","tel":"","addr":"경기도 화성시 반정동 606-5번지","indutype":"유통업 영리 - 편 의 점","category":"other"},{"name":"수선1번가","tel":"031-205-3582","addr":"경기도 화성시 반정동 606-5번지 201호","indutype":"수리서비스 - 세탁소","category":"other"}]},{"lat":"37.233494337","long":"127.03878461","imageIndex":17,"items":[{"name":"GS25화성반정로점","tel":"","addr":"경기도 화성시 반정동 140-2번지","indutype":"유통업 영리 - 편 의 점","category":"other"}]},{"lat":"37.232961233","long":"127.04341584","imageIndex":17,"items":[{"name":"KOREA SYSTEM TECHNOLOGY","tel":"031-236-5862","addr":"경기도 화성시 반정동 134-3번지","indutype":"기타 - 기계공구","category":"other"},{"name":"네오프로토","tel":"031-267-2857","addr":"경기도 화성시 반정동 134-3번지","indutype":"기타 - 기계공구","category":"other"}]},{"lat":"37.23477343","long":"127.04000228","imageIndex":17,"items":[{"name":"강한다육","tel":"031-239-6934","addr":"경기도 화성시 반정동 49-17번지","indutype":"문화.취미 - 화원","category":"other"}]},{"lat":"37.221243445","long":"127.02600197","imageIndex":17,"items":[{"name":"거흥상사","tel":"031-222-0901","addr":"경기도 화성시 반정동 507-10번지","indutype":"건축자재 - 기타건축자재","category":"other"}]},{"lat":"37.232711311","long":"127.03577548","imageIndex":17,"items":[{"name":"경기원예","tel":"031-222-2997","addr":"경기도 화성시 반정동 259번지","indutype":"문화.취미 - 화원","category":"other"}]},{"lat":"37.22546969","long":"127.02391874","imageIndex":17,"items":[{"name":"금강유리(주)","tel":"031-237-4456","addr":"경기도 화성시 반정동 448-9번지","indutype":"건축자재 - 유리","category":"other"}]},{"lat":"37.245603483","long":"127.04114593","imageIndex":17,"items":[{"name":"꽃떼 (CCOTTE)","tel":"031-203-9556","addr":"경기도 화성시 반정동 610번지 1층 102호","indutype":"문화.취미 - 화원","category":"other"}]},{"lat":"37.224739623","long":"127.02516924","imageIndex":17,"items":[{"name":"낚시물류창고","tel":"031-221-3077","addr":"경기도 화성시 반정동 454-3번지","indutype":"레져용품 - 스포츠·레져용품","category":"other"}]},{"lat":"37.22957801","long":"127.02606086","imageIndex":17,"items":[{"name":"다나샷시유리공사","tel":"031-238-4560","addr":"경기도 화성시 반정동 319-3번지 H동","indutype":"건축자재 - 보일러·펌프·샷시","category":"other"}]},{"lat":"37.233881799","long":"127.03872845","imageIndex":17,"items":[{"name":"대동샤링","tel":"031-267-4941","addr":"경기도 화성시 반정동 112-10번지","indutype":"건축자재 - 기타건축자재","category":"other"}]},{"lat":"37.231162498","long":"127.03209","imageIndex":17,"items":[{"name":"대성꽃농원","tel":"031-898-6171","addr":"경기도 화성시 반정동 254-7번지","indutype":"문화.취미 - 화원","category":"other"},{"name":"대성꽃농원","tel":"031-222-6116","addr":"경기도 화성시 반정동 254-7번지","indutype":"문화.취미 - 화원","category":"other"},{"name":"대신난식물원","tel":"031-204-2913","addr":"경기도 화성시 반정동 254-7번지","indutype":"문화.취미 - 화원","category":"other"},{"name":"샹그릴라꽃도매","tel":"031-221-6369","addr":"경기도 화성시 반정동 254-7번지","indutype":"문화.취미 - 화원","category":"other"},{"name":"성일화훼","tel":"031-224-8336","addr":"경기도 화성시 반정동 254-7번지","indutype":"문화.취미 - 화원","category":"other"},{"name":"아리랑꽃농원","tel":"031-222-8388","addr":"경기도 화성시 반정동 254-7번지","indutype":"문화.취미 - 화원","category":"other"},{"name":"한창꽃조경","tel":"031-226-6748","addr":"경기도 화성시 반정동 254-7번지","indutype":"문화.취미 - 화원","category":"other"},{"name":"형제꽃도매","tel":"031-235-4362","addr":"경기도 화성시 반정동 254-7번지","indutype":"문화.취미 - 화원","category":"other"},{"name":"혜지식물원","tel":"031-236-5656","addr":"경기도 화성시 반정동 254-7번지","indutype":"문화.취미 - 화원","category":"other"}]},{"lat":"37.221684563","long":"127.02791752","imageIndex":17,"items":[{"name":"대영조경","tel":"031-4695-3918","addr":"경기도 화성시 반정동 509-27번지","indutype":"건축자재 - 인테리어전문","category":"other"}]},{"lat":"37.230217205","long":"127.02867532","imageIndex":17,"items":[{"name":"대우금속샤링","tel":"031-238-5752","addr":"경기도 화성시 반정동 337-1번지","indutype":"기타 - 기계공구","category":"other"}]},{"lat":"37.233746712","long":"127.03850301","imageIndex":17,"items":[{"name":"대우샷다공업사","tel":"031-234-3662","addr":"경기도 화성시 반정동 112-11번지","indutype":"건축자재 - 기타건축자재","category":"other"}]},{"lat":"37.246486432","long":"127.04133798","imageIndex":17,"items":[{"name":"데일리테이블","tel":"031-203-0769","addr":"경기도 화성시 반정동 607-2번지 1층","indutype":"문화.취미 - 화원","category":"other"}]},{"lat":"37.235413007","long":"127.04049844","imageIndex":17,"items":[{"name":"두성인터내셔널","tel":"031-238-1340","addr":"경기도 화성시 반정동 49-10번지 태림빌라 나동","indutype":"신변잡화 - 기타잡화","category":"other"}]},{"lat":"37.246269903","long":"127.04219445","imageIndex":17,"items":[{"name":"뜨개정원","tel":"031-000-0000","addr":"경기도 화성시 반정동 609-2번지 마리안느 101호","indutype":"직물 - 침구·수예점","category":"other"}]},{"lat":"37.230244468","long":"127.02758229","imageIndex":17,"items":[{"name":"라인채널상사","tel":"031-223-5214","addr":"경기도 화성시 반정동 313-5번지","indutype":"건축자재 - 인테리어전문","category":"other"}]},{"lat":"37.2341336","long":"127.04030623","imageIndex":17,"items":[{"name":"마린테크노","tel":"031-233-7002","addr":"경기도 화성시 반정동 115-30번지","indutype":"레져용품 - 스포츠·레져용품","category":"other"}]},{"lat":"37.234548454","long":"127.03908938","imageIndex":17,"items":[{"name":"맘비코리아","tel":"031-217-2360","addr":"경기도 화성시 반정동 111번지 101호","indutype":"의류 - 아동의류","category":"other"}]},{"lat":"37.247153225","long":"127.04124815","imageIndex":17,"items":[{"name":"멍&냥","tel":"031-234-8306","addr":"경기도 화성시 반정동 605번지 1층 102호","indutype":"문화.취미 - 애완동물","category":"other"},{"name":"제니","tel":"","addr":"경기도 화성시 반정동 605번지 101호","indutype":"의류 - 정장","category":"other"}]},{"lat":"37.246270337","long":"127.04086449","imageIndex":17,"items":[{"name":"명공방","tel":"","addr":"경기도 화성시 반정동 605-6번지 103호","indutype":"가구 - 일반가구","category":"other"}]},{"lat":"37.229523736","long":"127.02712006","imageIndex":17,"items":[{"name":"명진 와이어컷팅","tel":"031-222-3793","addr":"경기도 화성시 반정동 378-2번지 1층","indutype":"기타 - 기계공구","category":"other"},{"name":"씨유화성반정점","tel":"031-222-5132","addr":"경기도 화성시 반정동 378-2번지","indutype":"유통업 영리 - 편 의 점","category":"other"}]},{"lat":"37.22241449","long":"127.02750087","imageIndex":17,"items":[{"name":"무지개꽃농원","tel":"031-222-9333","addr":"경기도 화성시 반정동 499-1","indutype":"문화.취미 - 화원","category":"other"}]},{"lat":"37.224215552","long":"127.03195211","imageIndex":17,"items":[{"name":"반석유통","tel":"031-8058-0414","addr":"경기도 화성시 반정동 374-3번지","indutype":"유통업 영리 - 기타유통업","category":"other"}]},{"lat":"37.236522934","long":"127.03486432","imageIndex":17,"items":[{"name":"발해창호","tel":"031-274-2162","addr":"경기도 화성시 반정동 71-1번지","indutype":"기타 - 기타 전문점","category":"other"}]},{"lat":"37.234413299","long":"127.03908931","imageIndex":17,"items":[{"name":"백두상사","tel":"031-254-6221","addr":"경기도 화성시 반정동 112-4번지","indutype":"직물 - 카페트,커튼,천막,지물","category":"other"}]},{"lat":"37.230019684","long":"127.02519333","imageIndex":17,"items":[{"name":"성일상사","tel":"031-235-3272","addr":"경기도 화성시 반정동 327-2번지","indutype":"직물 - 카페트,커튼,천막,지물","category":"other"}]},{"lat":"37.245819857","long":"127.04075156","imageIndex":17,"items":[{"name":"세븐일레븐화성반정래미안점","tel":"","addr":"경기도 화성시 반정동 605-9번지","indutype":"유통업 영리 - 편 의 점","category":"other"}]},{"lat":"37.234467131","long":"127.03983309","imageIndex":17,"items":[{"name":"세븐일레븐화성반정점","tel":"","addr":"경기도 화성시 반정동 51-2번지","indutype":"유통업 영리 - 편 의 점","category":"other"}]},{"lat":"37.229631913","long":"127.02686092","imageIndex":17,"items":[{"name":"송경연마","tel":"031-232-2959","addr":"경기도 화성시 반정동 319-2번지","indutype":"기타 - 기계공구","category":"other"}]},{"lat":"37.230244587","long":"127.0270076","imageIndex":17,"items":[{"name":"수산중공업 경기대리점","tel":"031-222-7010","addr":"경기도 화성시 반정동 313-12번지","indutype":"기타 - 기계공구","category":"other"}]},{"lat":"37.245882796","long":"127.04116861","imageIndex":17,"items":[{"name":"스카이 개슬","tel":"070-8327-4292","addr":"경기도 화성시 반정동 607-6번지 1층 102호","indutype":"문화.취미 - 애완동물","category":"other"}]},{"lat":"37.229911027","long":"127.02786389","imageIndex":17,"items":[{"name":"신우통상","tel":"031-253-1561","addr":"경기도 화성시 반정동 377-2번지","indutype":"건축자재 - 기타건축자재","category":"other"}]},{"lat":"37.230325486","long":"127.02794291","imageIndex":17,"items":[{"name":"심우정밀/원격지","tel":"031-237-1358","addr":"경기도 화성시 반정동 313-8번지","indutype":"기타 - 기타 전문점","category":"other"}]},{"lat":"37.246738684","long":"127.04145081","imageIndex":17,"items":[{"name":"씨유반정삼성점","tel":"031-373-5248","addr":"경기도 화성시 반정동 607번지","indutype":"유통업 영리 - 편 의 점","category":"other"}]},{"lat":"37.246855682","long":"127.04186789","imageIndex":17,"items":[{"name":"아띠랑스","tel":"02-2281-1923","addr":"경기도 화성시 반정동 606-2번지 102호","indutype":"의류 - 정장","category":"other"},{"name":"에듀프라임 수원권선 광교지사","tel":"031-216-8035","addr":"경기도 화성시 반정동 606-2번지 402호","indutype":"서적문구 - 일반서적","category":"other"}]},{"lat":"37.230461142","long":"127.02545263","imageIndex":17,"items":[{"name":"아주정공","tel":"031-222-5809","addr":"경기도 화성시 반정동 328-9번지 1층","indutype":"전기제품 - 기타전기제품","category":"other"}]},{"lat":"37.227467762","long":"127.03402667","imageIndex":17,"items":[{"name":"에이스벤딩","tel":"031-222-8604","addr":"경기도 화성시 반정동 300-4번지","indutype":"건축자재 - 기타건축자재","category":"other"}]},{"lat":"37.233493937","long":"127.04008053","imageIndex":17,"items":[{"name":"에이스테크","tel":"","addr":"경기도 화성시 반정동 138-2번지","indutype":"기타 - 기계공구","category":"other"}]},{"lat":"37.233737989","long":"127.03753388","imageIndex":17,"items":[{"name":"영환난원.영화화원","tel":"031-267-0202","addr":"경기도 화성시 반정동 111-1번지","indutype":"문화.취미 - 화원","category":"other"}]},{"lat":"37.236467908","long":"127.03825636","imageIndex":17,"items":[{"name":"유아랑 이벤트&기획(유아랑 체육교실)","tel":"031-8013-0011","addr":"경기도 화성시 반정동 76-6번지 나동","indutype":"용역 서비스 - 종합용역","category":"other"}]},{"lat":"37.221801949","long":"127.0267007","imageIndex":17,"items":[{"name":"이강종합목재","tel":"031-234-1588","addr":"경기도 화성시 반정동 504-2번지","indutype":"건축자재 - 목재·석재·철물","category":"other"}]},{"lat":"37.246018181","long":"127.04044735","imageIndex":17,"items":[{"name":"이음소장","tel":"","addr":"경기도 화성시 반정동 604-9번지","indutype":"가구 - 기타가구","category":"other"}]},{"lat":"37.230488293","long":"127.02481034","imageIndex":17,"items":[{"name":"재인공조","tel":"070-8750-8740","addr":"경기도 화성시 반정동 328-13번지","indutype":"용역 서비스 - 기타용역서비스","category":"other"},{"name":"팔도중고종합주방","tel":"031-225-8959","addr":"경기도 화성시 반정동 328-13번지","indutype":"주방용구 - 주방용구","category":"other"}]},{"lat":"37.222495818","long":"127.02634037","imageIndex":17,"items":[{"name":"제이주방","tel":"031-111-1111","addr":"경기도 화성시 반정동 503-2번지 2층","indutype":"주방용구 - 주방용구","category":"other"}]},{"lat":"37.234322595","long":"127.041005","imageIndex":17,"items":[{"name":"주식회사 삼원","tel":"031-238-0016","addr":"경기도 화성시 반정동 118-1번지","indutype":"기타 - 기계공구","category":"other"}]},{"lat":"37.224883973","long":"127.02416646","imageIndex":17,"items":[{"name":"주식회사 현진내장공사","tel":"031-224-1712","addr":"경기도 화성시 반정동 455-26번지","indutype":"건축자재 - 인테리어전문","category":"other"}]},{"lat":"37.233710711","long":"127.03836777","imageIndex":17,"items":[{"name":"주식회사미트","tel":"031-273-3660","addr":"경기도 화성시 반정동 107-4번지","indutype":"용역 서비스 - 사무서비스","category":"other"}]},{"lat":"37.230883642","long":"127.03014045","imageIndex":17,"items":[{"name":"주식회사세운종합공구","tel":"031-233-1442","addr":"경기도 화성시 반정동 254-17번지","indutype":"기타 - 기계공구","category":"other"}]},{"lat":"37.226269413","long":"127.03392477","imageIndex":17,"items":[{"name":"주신전광","tel":"031-429-0859","addr":"경기도 화성시 반정동 417-3번지","indutype":"건축자재 - 인테리어전문","category":"other"}]},{"lat":"37.246378454","long":"127.04088709","imageIndex":17,"items":[{"name":"지지 (JiJi)","tel":"031-202-0148","addr":"경기도 화성시 반정동 605-5번지 1층 101호","indutype":"서적문구 - 완구점","category":"other"}]},{"lat":"37.234908062","long":"127.04163636","imageIndex":17,"items":[{"name":"청산기획","tel":"031-221-1933","addr":"경기도 화성시 반정동 117-4번지","indutype":"용역 서비스 - 종합용역","category":"other"}]},{"lat":"37.230379986","long":"127.02577939","imageIndex":17,"items":[{"name":"칸막이나라","tel":"","addr":"경기도 화성시 반정동 327-7번지","indutype":"건축자재 - 인테리어전문","category":"other"}]},{"lat":"37.24676546","long":"127.04222852","imageIndex":17,"items":[{"name":"커스토미","tel":"02-2291-4691","addr":"경기도 화성시 반정동 606-4번지 301호","indutype":"신변잡화 - 가방","category":"other"}]},{"lat":"37.229794099","long":"127.02686097","imageIndex":17,"items":[{"name":"케이앤씨텍","tel":"031-238-0574","addr":"경기도 화성시 반정동 320-2번지","indutype":"건축자재 - 기타건축자재","category":"other"}]},{"lat":"37.24596359","long":"127.04208158","imageIndex":17,"items":[{"name":"크린토피아 화성반정동점","tel":"031-204-9988","addr":"경기도 화성시 반정동 609-4번지 101호","indutype":"수리서비스 - 세탁소","category":"other"}]},{"lat":"37.245459318","long":"127.04114585","imageIndex":17,"items":[{"name":"킥플코리아","tel":"031-202-0087","addr":"경기도 화성시 반정동 610-1번지 1층 103호","indutype":"레져용품 - 스포츠·레져용품","category":"other"},{"name":"휠앤킥수원점","tel":"031-202-0087","addr":"경기도 화성시 반정동 610-1번지 102,103","indutype":"레져용품 - 스포츠·레져용품","category":"other"}]},{"lat":"37.222775168","long":"127.02619398","imageIndex":17,"items":[{"name":"플래닛","tel":"031-223-3360","addr":"경기도 화성시 반정동 502-3번지","indutype":"가구 - 일반가구","category":"other"}]},{"lat":"37.246324514","long":"127.04050386","imageIndex":17,"items":[{"name":"피나타리에","tel":"","addr":"경기도 화성시 반정동 604-7번지 1층 피나타리에","indutype":"문화.취미 - 문화취미기타","category":"other"}]},{"lat":"37.228719555","long":"127.0363935","imageIndex":17,"items":[{"name":"피아이씨 (PIC)","tel":"","addr":"경기도 화성시 반정동 295-13번지 외1필지","indutype":"기타 - 기계공구","category":"other"}]},{"lat":"37.226017138","long":"127.03386833","imageIndex":17,"items":[{"name":"하이열냉난방","tel":"031-251-8285","addr":"경기도 화성시 반정동 428-1번지","indutype":"전기제품 - 냉열기기","category":"other"}]},{"lat":"37.230407242","long":"127.02458495","imageIndex":17,"items":[{"name":"한국부속","tel":"031-233-1340","addr":"경기도 화성시 반정동 328-1번지","indutype":"건축자재 - 목재·석재·철물","category":"other"},{"name":"한영정밀","tel":"031-226-0787","addr":"경기도 화성시 반정동 328-1번지","indutype":"기타 - 기계공구","category":"other"}]},{"lat":"37.2220454","long":"127.02583321","imageIndex":17,"items":[{"name":"한국스포츠","tel":"031-238-7095","addr":"경기도 화성시 반정동 506-6번지","indutype":"레져용품 - 골프용품 전문점","category":"other"}]},{"lat":"37.229244687","long":"127.02575651","imageIndex":17,"items":[{"name":"한솔정공","tel":"031-222-2931","addr":"경기도 화성시 반정동 380-2번지","indutype":"기타 - 기계공구","category":"other"}]},{"lat":"37.225163318","long":"127.02403133","imageIndex":17,"items":[{"name":"한일석재","tel":"031-238-3465","addr":"경기도 화성시 반정동 448-10, 455-26, 455-9","indutype":"건축자재 - 목재·석재·철물","category":"other"}]},{"lat":"37.224072789","long":"127.0255296","imageIndex":17,"items":[{"name":"화성농원","tel":"031-222-2997","addr":"경기도 화성시 반정동 454-6,7,8","indutype":"문화.취미 - 화원","category":"other"}]},{"lat":"37.230406313","long":"127.02917119","imageIndex":17,"items":[{"name":"화성연마","tel":"031-222-7097","addr":"경기도 화성시 반정동 337-9번지","indutype":"기타 - 기계공구","category":"other"}]}]