[{"lat":"37.47767784","long":"126.8521014","imageIndex":8,"items":[{"name":"100세약국","tel":"02-2619-0081","addr":"경기도 광명시 광명동 200-6번지 한진상가 A동 1108호","indutype":"약국 - 약국","category":"medical"},{"name":"우리피부과의원","tel":"02-2613-0652","addr":"경기도 광명시 광명동 200-6번지 광명한진타운 상가 1201호","indutype":"의원 - 의원","category":"medical"}]},{"lat":"37.47940218","long":"126.8548226","imageIndex":8,"items":[{"name":"365편안한내과","tel":"02-2093-3495","addr":"경기도 광명시 광명동 158-85번지 2층","indutype":"의원 - 의원","category":"medical"},{"name":"이피부과","tel":"02-2684-7981","addr":"경기도 광명시 광명동 158-85번지","indutype":"의원 - 의원","category":"medical"}]},{"lat":"37.46879577","long":"126.853487","imageIndex":8,"items":[{"name":"가족사랑소아과의원","tel":"02-2611-3100","addr":"경기도 광명시 광명동 725-8번지 청송빌딩 3층","indutype":"의원 - 의원","category":"medical"},{"name":"건강치과","tel":"02-2614-6350","addr":"경기도 광명시 광명동 725-8번지 청송빌딩 2층","indutype":"병원 - 치과병원","category":"medical"},{"name":"성재약국","tel":"02-2614-1786","addr":"경기도 광명시 광명동 725-8번지","indutype":"약국 - 약국","category":"medical"}]},{"lat":"37.47798287","long":"126.8582623","imageIndex":8,"items":[{"name":"강내과","tel":"02-2611-3777","addr":"경기도 광명시 광명동 158-374번지 명성빌딩 3층","indutype":"의원 - 의원","category":"medical"},{"name":"명성약국","tel":"02-2612-2415","addr":"경기도 광명시 광명동 158-374번지","indutype":"약국 - 약국","category":"medical"}]},{"lat":"37.47271257","long":"126.8514896","imageIndex":8,"items":[{"name":"건강한약국","tel":"02-2681-7077","addr":"경기도 광명시 광명동 339-1번지","indutype":"약국 - 약국","category":"medical"},{"name":"광명연합의원","tel":"02-2611-7535","addr":"경기도 광명시 광명동 339-1번지","indutype":"의원 - 의원","category":"medical"},{"name":"광명연합의원","tel":"02-2688-7570","addr":"경기도 광명시 광명동 339-1번지","indutype":"의원 - 의원","category":"medical"}]},{"lat":"37.47985201","long":"126.8542903","imageIndex":8,"items":[{"name":"경희바로잡는한의원","tel":"02-2644-8575","addr":"경기도 광명시 광명동 158-86번지 광명빌딩 5층","indutype":"의원 - 한의원","category":"medical"},{"name":"광명서울안과","tel":"02-2625-9009","addr":"경기도 광명시 광명동 158-86번지 광명빌딩 4층","indutype":"의원 - 의원","category":"medical"},{"name":"기운찬판도라약국","tel":"02-2060-6672","addr":"경기도 광명시 광명동 158-86번지 광명빌딩 1층","indutype":"약국 - 약국","category":"medical"},{"name":"코스모성형외과","tel":"02-2619-8008","addr":"경기도 광명시 광명동 158-86번지 광명빌딩 3층","indutype":"의원 - 의원","category":"medical"}]},{"lat":"37.47482153","long":"126.8519828","imageIndex":8,"items":[{"name":"경희솔한의원","tel":"02-2066-1075","addr":"경기도 광명시 광명동 289-29번지 2층","indutype":"의원 - 한의원","category":"medical"}]},{"lat":"37.47328891","long":"126.8512624","imageIndex":8,"items":[{"name":"경희용한의원","tel":"","addr":"경기도 광명시 광명동 340-5번지 3층","indutype":"의원 - 한의원","category":"medical"},{"name":"곽이비인후과","tel":"02-2619-1181","addr":"경기도 광명시 광명동 340-5번지","indutype":"의원 - 의원","category":"medical"},{"name":"광명이사랑치과","tel":"02-2616-2275","addr":"경기도 광명시 광명동 340-5번지 4층","indutype":"의원 - 치과의원","category":"medical"}]},{"lat":"37.47304543","long":"126.8510933","imageIndex":8,"items":[{"name":"경희자연한의원","tel":"02-2625-7775","addr":"경기도 광명시 광명동 346-48번지 동원빌딩 2층","indutype":"의원 - 한의원","category":"medical"},{"name":"수치과의원","tel":"02-2682-0028","addr":"경기도 광명시 광명동 346-48번지","indutype":"의원 - 치과의원","category":"medical"}]},{"lat":"37.47837736","long":"126.8566787","imageIndex":8,"items":[{"name":"경희한사랑한의원","tel":"02-2060-1079","addr":"경기도 광명시 광명동 158-491번지 누가빌딩 3층","indutype":"의원 - 한의원","category":"medical"},{"name":"광명정신과의원","tel":"02-2688-3435","addr":"경기도 광명시 광명동 158-491번지 5층","indutype":"의원 - 의원","category":"medical"},{"name":"성모안과","tel":"02-2618-7703","addr":"경기도 광명시 광명동 158-491번지","indutype":"의원 - 의원","category":"medical"},{"name":"연세소아과의원","tel":"02-2681-8768","addr":"경기도 광명시 광명동 158-491번지 누가빌딩","indutype":"의원 - 의원","category":"medical"},{"name":"예인약국","tel":"02-3666-7582","addr":"경기도 광명시 광명동 158-491번지 1층","indutype":"약국 - 약국","category":"medical"},{"name":"정우진내과","tel":"02-682-0964","addr":"경기도 광명시 광명동 158-491번지","indutype":"의원 - 의원","category":"medical"},{"name":"최치과의원","tel":"02-2687-8942","addr":"경기도 광명시 광명동 158-491번지 누가빌딩 5층","indutype":"의원 - 치과의원","category":"medical"},{"name":"태일산마취통증의학과의원","tel":"02-2689-6149","addr":"경기도 광명시 광명동 158-491번지 누가빌딩 4층","indutype":"의원 - 의원","category":"medical"}]},{"lat":"37.47965449","long":"126.8548447","imageIndex":8,"items":[{"name":"광명 신세계 약국","tel":"02-2688-7331","addr":"경기도 광명시 광명동 158-81번지 현대아이타워 1층 106호","indutype":"약국 - 약국","category":"medical"},{"name":"광명이비인후과의원","tel":"02-2066-5075","addr":"경기도 광명시 광명동 158-81번지 현대아이타워 302호","indutype":"의원 - 의원","category":"medical"},{"name":"명인치과의원","tel":"02-2617-2275","addr":"경기도 광명시 광명동 158-81번지 현대아이타워 3층 301호","indutype":"의원 - 치과의원","category":"medical"},{"name":"위드유의원/위드유의료소비자생활협동조합","tel":"02-2636-0091","addr":"경기도 광명시 광명동 158-81번지 현대아이타워 11층","indutype":"의원 - 의원","category":"medical"},{"name":"텐텐경희한의원","tel":"02-2612-1010","addr":"경기도 광명시 광명동 158-81번지 현대아이타워 3층 303호~304호","indutype":"의원 - 한의원","category":"medical"},{"name":"편한마음정신겅강의학과","tel":"02-2614-7600","addr":"경기도 광명시 광명동 158-81번지 현대아이타워 401호","indutype":"의원 - 의원","category":"medical"},{"name":"프라임비뇨기과","tel":"02-2689-7755","addr":"경기도 광명시 광명동 158-81번지 현대아이타워 502호","indutype":"의원 - 의원","category":"medical"}]},{"lat":"37.49023656","long":"126.8659615","imageIndex":8,"items":[{"name":"광명미플러스치과의원","tel":"02-2066-1774","addr":"경기도 광명시 광명동 5-32번지 두성빌딩 2층","indutype":"의원 - 치과의원","category":"medical"}]},{"lat":"37.477624","long":"126.8595179","imageIndex":8,"items":[{"name":"광명사랑약국","tel":"02-2688-8812","addr":"경기도 광명시 광명동 158-240번지","indutype":"약국 - 약국","category":"medical"}]},{"lat":"37.48087503","long":"126.8582341","imageIndex":8,"items":[{"name":"광명시장 한의원","tel":"02-2681-0684","addr":"경기도 광명시 광명동 113-10번지 2층","indutype":"의원 - 한의원","category":"medical"}]},{"lat":"37.47842844","long":"126.8542932","imageIndex":8,"items":[{"name":"광명연세안과의원","tel":"031-2618-7318","addr":"경기도 광명시 광명동 158-517번지","indutype":"의원 - 의원","category":"medical"},{"name":"광명탑한의원","tel":"02-2066-7731","addr":"경기도 광명시 광명동 158-517번지 3층","indutype":"의원 - 한의원","category":"medical"},{"name":"미치과의원","tel":"02-2618-2855","addr":"경기도 광명시 광명동 158-517번지","indutype":"의원 - 치과의원","category":"medical"},{"name":"연세가정의학과의원","tel":"02-2684-7484","addr":"경기도 광명시 광명동 158-517번지 2층 2호","indutype":"의원 - 의원","category":"medical"},{"name":"푸른약국","tel":"02-2683-6579","addr":"경기도 광명시 광명동 158-517번지","indutype":"약국 - 약국","category":"medical"}]},{"lat":"37.48826009","long":"126.8631497","imageIndex":8,"items":[{"name":"광명의원","tel":"02-2615-8275","addr":"경기도 광명시 광명동 9-28번지","indutype":"병원 - 병원","category":"medical"},{"name":"광명종로약국","tel":"02-2682-8477","addr":"경기도 광명시 광명동 9-28번지","indutype":"약국 - 약국","category":"medical"}]},{"lat":"37.47865584","long":"126.8560112","imageIndex":8,"items":[{"name":"광명이편한치과","tel":"02-2617-2888","addr":"경기도 광명시 광명동 158-499번지 3층","indutype":"의원 - 치과의원","category":"medical"}]},{"lat":"37.48134933","long":"126.8556215","imageIndex":8,"items":[{"name":"광명제일한의원","tel":"02-2625-1797","addr":"경기도 광명시 광명동 141-2번지 1층","indutype":"의원 - 한의원","category":"medical"}]},{"lat":"37.47901645","long":"126.85618","imageIndex":8,"items":[{"name":"광명치과의원","tel":"02-2615-2875","addr":"경기도 광명시 광명동 150-15번지","indutype":"의원 - 치과의원","category":"medical"}]},{"lat":"37.47373966","long":"126.8514536","imageIndex":8,"items":[{"name":"광명훼미리약국","tel":"02-2617-7205","addr":"경기도 광명시 광명동 342-1번지 1층","indutype":"약국 - 약국","category":"medical"}]},{"lat":"37.46871444","long":"126.853295","imageIndex":8,"items":[{"name":"권한의원","tel":"02-2618-1310","addr":"경기도 광명시 광명동 725-7번지","indutype":"의원 - 한의원","category":"medical"}]},{"lat":"37.48209758","long":"126.8559592","imageIndex":8,"items":[{"name":"김병희 희한의원","tel":"02-6013-8275","addr":"경기도 광명시 광명동 102-17번지 2층","indutype":"의원 - 한의원","category":"medical"}]},{"lat":"37.47815341","long":"126.8577306","imageIndex":8,"items":[{"name":"김상윤재활의학과의원","tel":"02-2060-2585","addr":"경기도 광명시 광명동 158-378번지 인터스프라자빌딩 4층","indutype":"의원 - 의원","category":"medical"},{"name":"라인치과","tel":"02-2688-5628","addr":"경기도 광명시 광명동 158-378번지 5층","indutype":"의원 - 치과의원","category":"medical"},{"name":"행복한약국","tel":"02-2613-8276","addr":"경기도 광명시 광명동 158-378번지 인터스프라자 1층 101호","indutype":"약국 - 약국","category":"medical"}]},{"lat":"37.48465685","long":"126.856316","imageIndex":8,"items":[{"name":"김약국","tel":"02-2618-8288","addr":"경기도 광명시 광명동 51-5번지 1층","indutype":"약국 - 약국","category":"medical"}]},{"lat":"37.47859477","long":"126.857628","imageIndex":8,"items":[{"name":"김희치과의원","tel":"02-687-6507","addr":"경기도 광명시 광명동 149-11번지","indutype":"의원 - 치과의원","category":"medical"}]},{"lat":"37.47934965","long":"126.8560437","imageIndex":8,"items":[{"name":"나나약국","tel":"02-2612-1004","addr":"경기도 광명시 광명동 150-50번지","indutype":"약국 - 약국","category":"medical"}]},{"lat":"37.47423546","long":"126.8516561","imageIndex":8,"items":[{"name":"남성지소아과","tel":"02-2685-1204","addr":"경기도 광명시 광명동 290-14번지 동진프라자 3층 4호","indutype":"의원 - 의원","category":"medical"},{"name":"노순태내과의원","tel":"02-2619-7055","addr":"경기도 광명시 광명동 290-14번지 동진프라자 403호","indutype":"의원 - 의원","category":"medical"},{"name":"동진약국","tel":"02-2617-8312","addr":"경기도 광명시 광명동 290-14번지 동진프라자 401호","indutype":"약국 - 약국","category":"medical"},{"name":"삼층약국","tel":"02-2681-8729","addr":"경기도 광명시 광명동 290-14번지 동진프라자 301호","indutype":"약국 - 약국","category":"medical"},{"name":"성애한의원","tel":"02-2617-0475","addr":"경기도 광명시 광명동 290-14번지 동진 302호","indutype":"의원 - 한의원","category":"medical"}]},{"lat":"37.47643595","long":"126.8532683","imageIndex":8,"items":[{"name":"뉴광명동물메디컬센터","tel":"02-2060-7588","addr":"경기도 광명시 광명동 158-1428번지","indutype":"기타의료기관 - 동물병원","category":"medical"}]},{"lat":"37.47878905","long":"126.854462","imageIndex":8,"items":[{"name":"다나은내과","tel":"02-6295-8255","addr":"경기도 광명시 광명동 158-514번지 해솔타워 4층 403호","indutype":"의원 - 의원","category":"medical"},{"name":"서울선치과의원","tel":"02-890-2525","addr":"경기도 광명시 광명동 158-514번지","indutype":"의원 - 치과의원","category":"medical"},{"name":"에스플러스의원","tel":"02-872-0991","addr":"경기도 광명시 광명동 158-514번지 해솔빌딩 6층 603호","indutype":"의원 - 의원","category":"medical"},{"name":"코끼리이비인후과","tel":"02-890-2520","addr":"경기도 광명시 광명동 158-514번지 5층 502호","indutype":"의원 - 의원","category":"medical"}]},{"lat":"37.47893581","long":"126.856542","imageIndex":8,"items":[{"name":"다정약국","tel":"02-2060-3371","addr":"경기도 광명시 광명동 150-11번지","indutype":"약국 - 약국","category":"medical"},{"name":"삼성닥터스원비뇨기과","tel":"02-2682-5555","addr":"경기도 광명시 광명동 150-11번지","indutype":"의원 - 의원","category":"medical"}]},{"lat":"37.47734451","long":"126.8593714","imageIndex":8,"items":[{"name":"대원당한의원","tel":"02-2616-0013","addr":"경기도 광명시 광명동 158-276번지","indutype":"의원 - 한의원","category":"medical"}]},{"lat":"37.47374051","long":"126.8521206","imageIndex":8,"items":[{"name":"대창한의원","tel":"02-2686-9317","addr":"경기도 광명시 광명동 344번지 1층","indutype":"의원 - 한의원","category":"medical"}]},{"lat":"37.47767781","long":"126.8593143","imageIndex":8,"items":[{"name":"동산한약방","tel":"02-2612-5254","addr":"경기도 광명시 광명동 158-1185번지","indutype":"약국 - 한약방","category":"medical"}]},{"lat":"37.4727949","long":"126.8524617","imageIndex":8,"items":[{"name":"동춘한약방","tel":"02-2625-5973","addr":"경기도 광명시 광명동 337-58번지 문영시티빌라 103동 101호","indutype":"약국 - 한약방","category":"medical"}]},{"lat":"37.47896079","long":"126.8549026","imageIndex":8,"items":[{"name":"마음찬 정신건강의학과의원","tel":"02-2611-1190","addr":"경기도 광명시 광명동 158-512번지 3층","indutype":"의원 - 의원","category":"medical"},{"name":"바로한의원","tel":"02-2618-7588","addr":"경기도 광명시 광명동 158-512번지 광천빌딩 4층","indutype":"의원 - 한의원","category":"medical"},{"name":"생생의원","tel":"02-2060-6600","addr":"경기도 광명시 광명동 158-512번지 2층","indutype":"의원 - 의원","category":"medical"}]},{"lat":"37.47915122","long":"126.8558745","imageIndex":8,"items":[{"name":"맑은미소치과의원(광명)","tel":"02-6291-2828","addr":"경기도 광명시 광명동 150-47번지 2층","indutype":"의원 - 치과의원","category":"medical"}]},{"lat":"37.46832563","long":"126.8522106","imageIndex":8,"items":[{"name":"명내과의원","tel":"02-2625-3535","addr":"경기도 광명시 광명동 725번지 상보빌딩 3층","indutype":"의원 - 의원","category":"medical"},{"name":"명신약국","tel":"02-2625-1220","addr":"경기도 광명시 광명동 725번지 상보빌딩 301호","indutype":"약국 - 약국","category":"medical"},{"name":"한사랑치과의원","tel":"02-2618-6650","addr":"경기도 광명시 광명동 725번지 상보빌딩 2층 1호","indutype":"의원 - 치과의원","category":"medical"}]},{"lat":"37.47039427","long":"126.8564682","imageIndex":8,"items":[{"name":"물오른 약초","tel":"070-7848-5653","addr":"경기도 광명시 광명동 717-3번지 상우1차아파트","indutype":"약국 - 한약방","category":"medical"}]},{"lat":"37.48160175","long":"126.855734","imageIndex":8,"items":[{"name":"미서울치과의원","tel":"02-2616-7572","addr":"경기도 광명시 광명동 102-13번지 2층","indutype":"의원 - 치과의원","category":"medical"}]},{"lat":"37.48843144","long":"126.8632851","imageIndex":8,"items":[{"name":"민치과","tel":"02-2617-2875","addr":"경기도 광명시 광명동 9-44번지","indutype":"의원 - 치과의원","category":"medical"}]},{"lat":"37.47379158","long":"126.8497917","imageIndex":8,"items":[{"name":"바우약국","tel":"02-2685-4535","addr":"경기도 광명시 광명동 348-38번지","indutype":"약국 - 약국","category":"medical"}]},{"lat":"37.48026752","long":"126.8551262","imageIndex":8,"items":[{"name":"밝은약국","tel":"02-2612-4100","addr":"경기도 광명시 광명동 158-72번지","indutype":"약국 - 약국","category":"medical"},{"name":"참벗마취통증의학과의원","tel":"02-2682-4300","addr":"경기도 광명시 광명동 158-72번지","indutype":"의원 - 의원","category":"medical"}]},{"lat":"37.48070924","long":"126.8553175","imageIndex":8,"items":[{"name":"밝은의료소비자생활협동조합","tel":"02-2066-2875","addr":"경기도 광명시 광명동 141-10번지 대원빌딩 4층 401호","indutype":"의원 - 치과의원","category":"medical"}]},{"lat":"37.46879447","long":"126.8524584","imageIndex":8,"items":[{"name":"백화점약국","tel":"02-2681-1775","addr":"경기도 광명시 광명동 724-13번지 1층","indutype":"약국 - 약국","category":"medical"}]},{"lat":"37.47831944","long":"126.8535924","imageIndex":8,"items":[{"name":"본한의원","tel":"02-2066-9922","addr":"경기도 광명시 광명동 158-798번지 2층","indutype":"의원 - 한의원","category":"medical"}]},{"lat":"37.47828969","long":"126.8586574","imageIndex":8,"items":[{"name":"봄빛약국","tel":"02-2683-9128","addr":"경기도 광명시 광명동 126-19번지","indutype":"약국 - 약국","category":"medical"},{"name":"이신형내과의원","tel":"02-2681-6717","addr":"경기도 광명시 광명동 126-19번지","indutype":"의원 - 의원","category":"medical"}]},{"lat":"37.47217993","long":"126.8506768","imageIndex":8,"items":[{"name":"부원약국","tel":"02-2615-4260","addr":"경기도 광명시 광명동 374-40번지","indutype":"약국 - 약국","category":"medical"}]},{"lat":"37.48176324","long":"126.8551797","imageIndex":8,"items":[{"name":"사랑심는치과의원","tel":"02-3666-2275","addr":"경기도 광명시 광명동 101-9번지 3층","indutype":"의원 - 치과의원","category":"medical"},{"name":"요한한의원","tel":"02-681-2148","addr":"경기도 광명시 광명동 101-9번지","indutype":"의원 - 한의원","category":"medical"}]},{"lat":"37.48256637","long":"126.8561844","imageIndex":8,"items":[{"name":"삼일약국","tel":"02-2689-8947","addr":"경기도 광명시 광명동 102-1번지 더프라임타워 1층 102호","indutype":"약국 - 약국","category":"medical"}]},{"lat":"37.47840463","long":"126.8568709","imageIndex":8,"items":[{"name":"새부전약국","tel":"02-2617-0600","addr":"경기도 광명시 광명동 158-490번지","indutype":"약국 - 약국","category":"medical"},{"name":"열린성모이비인후과","tel":"02-2613-1235","addr":"경기도 광명시 광명동 158-490번지 2층","indutype":"의원 - 의원","category":"medical"}]},{"lat":"37.47957028","long":"126.8523802","imageIndex":8,"items":[{"name":"새우정약국","tel":"02-2682-8258","addr":"경기도 광명시 광명동 158-869번지","indutype":"약국 - 약국","category":"medical"}]},{"lat":"37.4786555","long":"126.8557398","imageIndex":8,"items":[{"name":"서울감동치과의원","tel":"02-6295-8275","addr":"경기도 광명시 광명동 158-501번지 장현빌딩 3층 301호","indutype":"의원 - 치과의원","category":"medical"},{"name":"서울에스엔(SN)치과","tel":"02-6332-2828","addr":"경기도 광명시 광명동 158-501번지 장현빌딩 301호","indutype":"의원 - 치과의원","category":"medical"},{"name":"윤인수치과의원","tel":"02-2686-3681","addr":"경기도 광명시 광명동 158-501번지","indutype":"의원 - 치과의원","category":"medical"}]},{"lat":"37.48126119","long":"126.8572045","imageIndex":8,"items":[{"name":"서울경희한의원","tel":"02-2060-3695","addr":"경기도 광명시 광명동 109-9번지 2층","indutype":"의원 - 한의원","category":"medical"}]},{"lat":"37.47356837","long":"126.8513748","imageIndex":8,"items":[{"name":"서울내과의원","tel":"02-2689-8977","addr":"경기도 광명시 광명동 342-12번지 2층","indutype":"의원 - 의원","category":"medical"},{"name":"현대의원","tel":"02-2614-5360","addr":"경기도 광명시 광명동 342-12번지","indutype":"의원 - 의원","category":"medical"}]},{"lat":"37.47320846","long":"126.8517599","imageIndex":8,"items":[{"name":"서울센터치과","tel":"02-6275-2828","addr":"경기도 광명시 광명동 342-7번지","indutype":"의원 - 치과의원","category":"medical"}]},{"lat":"37.48270987","long":"126.8556527","imageIndex":8,"items":[{"name":"서울한의원","tel":"02-2614-9814","addr":"경기도 광명시 광명동 101-1번지","indutype":"의원 - 한의원","category":"medical"}]},{"lat":"37.48284585","long":"126.8563195","imageIndex":8,"items":[{"name":"성지외과의원","tel":"02-2615-6553","addr":"경기도 광명시 광명동 92-7번지 광명2동우체국 3층","indutype":"의원 - 의원","category":"medical"}]},{"lat":"37.4805961","long":"126.8585399","imageIndex":8,"items":[{"name":"성한약국","tel":"02-2614-0273","addr":"경기도 광명시 광명동 129-14번지","indutype":"약국 - 약국","category":"medical"}]},{"lat":"37.46871296","long":"126.8521307","imageIndex":8,"items":[{"name":"소나무한의원","tel":"02-2619-6541","addr":"경기도 광명시 광명동 724-9번지 우진빌딩 302호","indutype":"의원 - 한의원","category":"medical"},{"name":"우리들내과의원","tel":"02-2685-4606","addr":"경기도 광명시 광명동 724-9번지","indutype":"의원 - 의원","category":"medical"},{"name":"정다운이비인후과","tel":"02-2611-7582","addr":"경기도 광명시 광명동 724-9번지 301호","indutype":"의원 - 의원","category":"medical"},{"name":"한빛약국","tel":"02-2619-5143","addr":"경기도 광명시 광명동 724-9번지 2층","indutype":"약국 - 약국","category":"medical"}]},{"lat":"37.47898737","long":"126.8545408","imageIndex":8,"items":[{"name":"수약국","tel":"02-2066-6930","addr":"경기도 광명시 광명동 158-513번지 광명빌딩 2층 202호","indutype":"약국 - 약국","category":"medical"},{"name":"신피부비뇨기과의원","tel":"02-2685-6170","addr":"경기도 광명시 광명동 158-513번지","indutype":"의원 - 의원","category":"medical"},{"name":"연세자연치과의원","tel":"02-2682-7522","addr":"경기도 광명시 광명동 158-513번지 광명빌딩 3층 307호","indutype":"의원 - 치과의원","category":"medical"},{"name":"화담한의원","tel":"02-2684-8275","addr":"경기도 광명시 광명동 158-513번지 광명빌딩 205호","indutype":"의원 - 한의원","category":"medical"}]},{"lat":"37.4771301","long":"126.8535722","imageIndex":8,"items":[{"name":"신우초한약국","tel":"02-2683-2987","addr":"경기도 광명시 광명동 158-774번지","indutype":"약국 - 한약방","category":"medical"}]},{"lat":"37.47509729","long":"126.8563234","imageIndex":8,"items":[{"name":"십자약국","tel":"02-2612-2036","addr":"경기도 광명시 광명동 42-110번지","indutype":"약국 - 약국","category":"medical"}]},{"lat":"37.48048309","long":"126.8545944","imageIndex":8,"items":[{"name":"예인한의원","tel":"02-2684-0531","addr":"경기도 광명시 광명동 158-89번지 2층","indutype":"의원 - 한의원","category":"medical"}]},{"lat":"37.47379241","long":"126.8504361","imageIndex":8,"items":[{"name":"오약국","tel":"02-2689-4773","addr":"경기도 광명시 광명동 347-4번지","indutype":"약국 - 약국","category":"medical"}]},{"lat":"37.47887295","long":"126.8567117","imageIndex":8,"items":[{"name":"우리들의원","tel":"02-2617-3406","addr":"경기도 광명시 광명동 150-10번지","indutype":"의원 - 의원","category":"medical"}]},{"lat":"37.47287404","long":"126.8509354","imageIndex":8,"items":[{"name":"우리신경외과의원","tel":"02-6335-0870","addr":"경기도 광명시 광명동 346-46번지 6층 2호 601","indutype":"의원 - 의원","category":"medical"},{"name":"윤도윤치과의원","tel":"02-2616-5656","addr":"경기도 광명시 광명동 346-46번지 광명현대타운","indutype":"의원 - 치과의원","category":"medical"}]},{"lat":"37.47835077","long":"126.8570406","imageIndex":8,"items":[{"name":"웰치과의원","tel":"02-2612-2278","addr":"경기도 광명시 광명동 158-487번지","indutype":"의원 - 치과의원","category":"medical"}]},{"lat":"37.47851777","long":"126.8536825","imageIndex":8,"items":[{"name":"유은한의원","tel":"02-2615-8575","addr":"경기도 광명시 광명동 158-796번지 대교빌딩 2층","indutype":"의원 - 한의원","category":"medical"}]},{"lat":"37.47923895","long":"126.8539863","imageIndex":8,"items":[{"name":"이명호이비인후과의원","tel":"02-2616-9935","addr":"경기도 광명시 광명동 158-789번지","indutype":"의원 - 의원","category":"medical"},{"name":"중앙치과의원","tel":"02-2613-5520","addr":"경기도 광명시 광명동 158-789번지","indutype":"의원 - 치과의원","category":"medical"}]},{"lat":"37.47826615","long":"126.854203","imageIndex":8,"items":[{"name":"이앤치과","tel":"02-2684-7528","addr":"경기도 광명시 광명동 158-520번지 대명프라자 2층","indutype":"의원 - 치과의원","category":"medical"},{"name":"이앤치과","tel":"02-2684-7528","addr":"경기도 광명시 광명동 158-520번지 2층","indutype":"의원 - 치과의원","category":"medical"}]},{"lat":"37.48132369","long":"126.8567408","imageIndex":8,"items":[{"name":"인성약국","tel":"02-2686-2059","addr":"경기도 광명시 광명동 106-16번지","indutype":"약국 - 약국","category":"medical"},{"name":"해동한약방","tel":"02-681-4138","addr":"경기도 광명시 광명동 106-16번지","indutype":"약국 - 한약방","category":"medical"}]},{"lat":"37.47540536","long":"126.8505685","imageIndex":8,"items":[{"name":"자생약국","tel":"02-2615-5051","addr":"경기도 광명시 광명동 282-14번지","indutype":"약국 - 약국","category":"medical"}]},{"lat":"37.4717928","long":"126.8509036","imageIndex":8,"items":[{"name":"장수약국","tel":"02-2686-8677","addr":"경기도 광명시 광명동 374-71번지","indutype":"약국 - 약국","category":"medical"}]},{"lat":"37.47834728","long":"126.8542368","imageIndex":8,"items":[{"name":"장정형외과의원","tel":"02-2615-9181","addr":"경기도 광명시 광명동 158-518번지","indutype":"의원 - 의원","category":"medical"}]},{"lat":"37.47904063","long":"126.8539076","imageIndex":8,"items":[{"name":"조은부부치과의원","tel":"02-2614-1275","addr":"경기도 광명시 광명동 158-791번지 3층","indutype":"의원 - 치과의원","category":"medical"}]},{"lat":"37.47392855","long":"126.8512045","imageIndex":8,"items":[{"name":"중앙약국","tel":"02-2683-9982","addr":"경기도 광명시 광명동 290-52번지","indutype":"약국 - 약국","category":"medical"}]},{"lat":"37.47739968","long":"126.8602871","imageIndex":8,"items":[{"name":"참좋은동물병원","tel":"02-2683-5638","addr":"경기도 광명시 광명동 158-235번지 1층","indutype":"기타의료기관 - 동물병원","category":"medical"}]},{"lat":"37.48501672","long":"126.8558969","imageIndex":8,"items":[{"name":"탑요양병원","tel":"02-3666-1119","addr":"경기도 광명시 광명동 52-1번지","indutype":"병원 - 병원","category":"medical"}]},{"lat":"37.47878982","long":"126.8550725","imageIndex":8,"items":[{"name":"파티마산부인과","tel":"02-2678-0929","addr":"경기도 광명시 광명동 158-510번지 4층 5층","indutype":"의원 - 의원","category":"medical"}]},{"lat":"37.47837951","long":"126.8584311","imageIndex":8,"items":[{"name":"편안마취통증의원","tel":"02-688-4321","addr":"경기도 광명시 광명동 149-2번지 금반석시티타워 601호","indutype":"의원 - 의원","category":"medical"}]},{"lat":"37.47737354","long":"126.8537074","imageIndex":8,"items":[{"name":"하늘토백제한의원","tel":"02-2688-7700","addr":"경기도 광명시 광명동 158-777번지","indutype":"의원 - 한의원","category":"medical"}]},{"lat":"37.47871141","long":"126.8572321","imageIndex":8,"items":[{"name":"할아버지한의원","tel":"02-2688-1119","addr":"경기도 광명시 광명동 150-3번지 2층","indutype":"의원 - 한의원","category":"medical"}]},{"lat":"37.48890056","long":"126.863793","imageIndex":8,"items":[{"name":"행복한동물병원","tel":"02-2625-7575","addr":"경기도 광명시 광명동 6-87번지","indutype":"기타의료기관 - 동물병원","category":"medical"}]},{"lat":"37.4681809","long":"126.8517587","imageIndex":8,"items":[{"name":"혜민약국","tel":"02-2613-5785","addr":"경기도 광명시 광명동 738-4번지","indutype":"약국 - 약국","category":"medical"}]}]