[{"lat":"37.31787969","long":"127.3489176","imageIndex":0,"items":[{"name":"RVLand(알브이랜드)","tel":"070-4226-8002","addr":"경기도 광주시 도척면 진우리 816-2번지","indutype":"자동차정비 유지 - 자동차부품","category":"car"}]},{"lat":"37.33412297","long":"127.3338831","imageIndex":0,"items":[{"name":"곤지암폐차산업","tel":"031-764-1472","addr":"경기도 광주시 도척면 진우리 16-1번지","indutype":"자동차정비 유지 - 가타자동차서비스","category":"car"}]},{"lat":"37.33604417","long":"127.3363627","imageIndex":0,"items":[{"name":"씨에스맴버스(CS members)","tel":"031-762-7090","addr":"경기도 광주시 도척면 진우리 25번지","indutype":"자동차정비 유지 - 자동차부품","category":"car"}]},{"lat":"37.33451183","long":"127.3365816","imageIndex":0,"items":[{"name":"알엘피코리아(RLP KOREA)","tel":"","addr":"경기도 광주시 도척면 진우리 35-2번지","indutype":"자동차정비 유지 - 자동차부품","category":"car"}]},{"lat":"37.32759469","long":"127.3324215","imageIndex":0,"items":[{"name":"엠에이치디자인(MH design)","tel":"031-797-7142","addr":"경기도 광주시 도척면 진우리 105번지 1층","indutype":"자동차정비 유지 - 카인테리어","category":"car"},{"name":"주식회사 미오토","tel":"031-1800-8701","addr":"경기도 광주시 도척면 진우리 105번지","indutype":"자동차판매 - 수입자동차","category":"car"}]},{"lat":"37.33526031","long":"127.3331433","imageIndex":0,"items":[{"name":"주식회사에스제이엠","tel":"031-573-9545","addr":"경기도 광주시 도척면 진우리 76-54","indutype":"자동차정비 유지 - 세차장","category":"car"}]},{"lat":"37.32242921","long":"127.3365846","imageIndex":0,"items":[{"name":"카매니저 자동차공업사","tel":"031-762-5621","addr":"경기도 광주시 도척면 진우리 475-1","indutype":"자동차정비 유지 - 자동차정비","category":"car"}]},{"lat":"37.32401517","long":"127.3365239","imageIndex":0,"items":[{"name":"한국타이어도척점","tel":"031-763-9003","addr":"경기도 광주시 도척면 진우리 206-1번지","indutype":"자동차정비 유지 - 자동차시트·타이어","category":"car"}]}]