[{"lat":"37.751377108","long":"127.03790994","imageIndex":7,"items":[{"name":"(주)가능종합상가할인마트","tel":"031-875-2429","addr":"경기도 의정부시 가능동 619번지 3층 관리사무실","indutype":"유통업 영리 - 슈퍼마켓","category":"mart"}]},{"lat":"37.747179082","long":"127.03645564","imageIndex":7,"items":[{"name":"153마트","tel":"031-871-1839","addr":"경기도 의정부시 가능동 666-19번지","indutype":"유통업 영리 - 슈퍼마켓","category":"mart"}]},{"lat":"37.750681037","long":"127.04504678","imageIndex":7,"items":[{"name":"A ONE 마트","tel":"031-840-8900","addr":"경기도 의정부시 가능동 16-1번지 외 17동 7호","indutype":"유통업 영리 - 슈퍼마켓","category":"mart"}]},{"lat":"37.750008749","long":"127.03401737","imageIndex":7,"items":[{"name":"강남슈퍼","tel":"031-873-0965","addr":"경기도 의정부시 가능동 672-22번지","indutype":"유통업 영리 - 슈퍼마켓","category":"mart"}]},{"lat":"37.74398309","long":"127.02657199","imageIndex":7,"items":[{"name":"경기하이퍼","tel":"031-873-0384","addr":"경기도 의정부시 가능동 696-15번지","indutype":"유통업 영리 - 슈퍼마켓","category":"mart"}]},{"lat":"37.750900464","long":"127.0348801","imageIndex":7,"items":[{"name":"광적슈퍼","tel":"031-875-0326","addr":"경기도 의정부시 가능동 603-31번지","indutype":"유통업 영리 - 슈퍼마켓","category":"mart"}]},{"lat":"37.750817705","long":"127.04054215","imageIndex":7,"items":[{"name":"김포슈퍼","tel":"031-872-9912","addr":"경기도 의정부시 가능동 632-4번지","indutype":"유통업 영리 - 슈퍼마켓","category":"mart"}]},{"lat":"37.74787067","long":"127.04329784","imageIndex":7,"items":[{"name":"까치마트","tel":"031-872-4994","addr":"경기도 의정부시 가능동 643-15번지","indutype":"유통업 영리 - 슈퍼마켓","category":"mart"}]},{"lat":"37.750960153","long":"127.0455462","imageIndex":7,"items":[{"name":"대복슈퍼","tel":"031-844-9339","addr":"경기도 의정부시 가능동 15-238번지","indutype":"유통업 영리 - 슈퍼마켓","category":"mart"}]},{"lat":"37.742819323","long":"127.03326554","imageIndex":7,"items":[{"name":"대우슈퍼","tel":"031-872-9146","addr":"경기도 의정부시 가능동 227-7번지","indutype":"유통업 영리 - 슈퍼마켓","category":"mart"}]},{"lat":"37.751429066","long":"127.04437773","imageIndex":7,"items":[{"name":"대중슈퍼","tel":"031-842-4545","addr":"경기도 의정부시 가능동 20-3번지","indutype":"유통업 영리 - 슈퍼마켓","category":"mart"}]},{"lat":"37.753288512","long":"127.03290671","imageIndex":7,"items":[{"name":"동호마트","tel":"031-872-7266","addr":"경기도 의정부시 가능동 362-162번지","indutype":"유통업 영리 - 슈퍼마켓","category":"mart"}]},{"lat":"37.747044563","long":"127.03418632","imageIndex":7,"items":[{"name":"레몬마트","tel":"031-871-6262","addr":"경기도 의정부시 가능동 677-2번지 1층 지하층","indutype":"유통업 영리 - 슈퍼마켓","category":"mart"}]},{"lat":"37.741875765","long":"127.02148853","imageIndex":7,"items":[{"name":"만물슈퍼","tel":"031-826-0099","addr":"경기도 의정부시 가능동 591-94번지 1층","indutype":"유통업 영리 - 슈퍼마켓","category":"mart"}]},{"lat":"37.750176182","long":"127.04593154","imageIndex":7,"items":[{"name":"매일유통","tel":"031-846-2208","addr":"경기도 의정부시 가능동 207-22번지","indutype":"유통업 영리 - 슈퍼마켓","category":"mart"}]},{"lat":"37.743953558","long":"127.03681725","imageIndex":7,"items":[{"name":"법성슈퍼","tel":"031-872-7551","addr":"경기도 의정부시 가능동 731-23 12/1","indutype":"유통업 영리 - 슈퍼마켓","category":"mart"}]},{"lat":"37.745343107","long":"127.02860336","imageIndex":7,"items":[{"name":"삼동알뜰마트","tel":"031-872-1022","addr":"경기도 의정부시 가능동 691-22번지","indutype":"유통업 영리 - 슈퍼마켓","category":"mart"}]},{"lat":"37.743540776","long":"127.03046344","imageIndex":7,"items":[{"name":"신세계마트","tel":"070-8600-7582","addr":"경기도 의정부시 가능동 707-26번지 1층","indutype":"유통업 영리 - 슈퍼마켓","category":"mart"}]},{"lat":"37.74595477","long":"127.03279029","imageIndex":7,"items":[{"name":"아씨마트","tel":"031-876-6120","addr":"경기도 의정부시 가능동 722-10번지","indutype":"유통업 영리 - 슈퍼마켓","category":"mart"}]},{"lat":"37.746737675","long":"127.03623986","imageIndex":7,"items":[{"name":"아이스박스","tel":"02-879-0900","addr":"경기도 의정부시 가능동 667-24번지 102호","indutype":"유통업 영리 - 슈퍼마켓","category":"mart"}]},{"lat":"37.742739236","long":"127.02910167","imageIndex":7,"items":[{"name":"안골농수산물장터","tel":"02-984-6953","addr":"경기도 의정부시 가능동 701-35번지 1층","indutype":"유통업 영리 - 슈퍼마켓","category":"mart"}]},{"lat":"37.745594955","long":"127.0304642","imageIndex":7,"items":[{"name":"안성상회","tel":"","addr":"경기도 의정부시 가능동 712-10번지","indutype":"유통업 영리 - 슈퍼마켓","category":"mart"}]},{"lat":"37.745874411","long":"127.02977219","imageIndex":7,"items":[{"name":"알뜰복지매장","tel":"031-878-4864","addr":"경기도 의정부시 가능동 711-15번지","indutype":"유통업 영리 - 슈퍼마켓","category":"mart"}]},{"lat":"37.748069764","long":"127.04063153","imageIndex":7,"items":[{"name":"오뚜기마트","tel":"031-829-0876","addr":"경기도 의정부시 가능동 650번지 1층","indutype":"유통업 영리 - 슈퍼마켓","category":"mart"}]},{"lat":"37.747375604","long":"127.04193601","imageIndex":7,"items":[{"name":"오렌지마트","tel":"031-829-6168","addr":"경기도 의정부시 가능동 647-2번지","indutype":"유통업 영리 - 슈퍼마켓","category":"mart"}]},{"lat":"37.745593343","long":"127.03665915","imageIndex":7,"items":[{"name":"올챙이마트","tel":"031-871-0811","addr":"경기도 의정부시 가능동 727-23번지 1층일부","indutype":"유통업 영리 - 슈퍼마켓","category":"mart"}]},{"lat":"37.752286358","long":"127.04023652","imageIndex":7,"items":[{"name":"우리동네편의점","tel":"031-875-0904","addr":"경기도 의정부시 가능동 626-27번지","indutype":"유통업 영리 - 슈퍼마켓","category":"mart"}]},{"lat":"37.743234901","long":"127.02846648","imageIndex":7,"items":[{"name":"우리동네할인마트","tel":"031-837-7244","addr":"경기도 의정부시 가능동 700-8번지","indutype":"유통업 영리 - 슈퍼마켓","category":"mart"}]},{"lat":"37.752791941","long":"127.03676455","imageIndex":7,"items":[{"name":"우리슈퍼","tel":"031-824-8228","addr":"경기도 의정부시 가능동 610-13번지","indutype":"유통업 영리 - 슈퍼마켓","category":"mart"}]},{"lat":"37.74448772","long":"127.02609562","imageIndex":7,"items":[{"name":"유진마트","tel":"031-872-5812","addr":"경기도 의정부시 가능동 696번지","indutype":"유통업 영리 - 슈퍼마켓","category":"mart"}]},{"lat":"37.747928297","long":"127.03102104","imageIndex":7,"items":[{"name":"이레마트","tel":"031-878-3371","addr":"경기도 의정부시 가능동 683-18번지 1층","indutype":"유통업 영리 - 슈퍼마켓","category":"mart"}]},{"lat":"37.742342938","long":"127.02854559","imageIndex":7,"items":[{"name":"이수할인마트","tel":"031-872-2257","addr":"경기도 의정부시 가능동 231-100번지","indutype":"유통업 영리 - 슈퍼마켓","category":"mart"}]},{"lat":"37.750734342","long":"127.04710059","imageIndex":7,"items":[{"name":"주사랑마트","tel":"031-842-5504","addr":"경기도 의정부시 가능동 15-153번지","indutype":"유통업 영리 - 슈퍼마켓","category":"mart"}]},{"lat":"37.755460036","long":"127.03201113","imageIndex":7,"items":[{"name":"진로할인마트","tel":"031-871-8070","addr":"경기도 의정부시 가능동 368번지","indutype":"유통업 영리 - 슈퍼마켓","category":"mart"}]},{"lat":"37.742349903","long":"127.03665768","imageIndex":7,"items":[{"name":"천그린마트","tel":"031-873-1145","addr":"경기도 의정부시 가능동 743-19번지 진산아트빌 101호","indutype":"유통업 영리 - 슈퍼마켓","category":"mart"}]},{"lat":"37.742623464","long":"127.02207869","imageIndex":7,"items":[{"name":"충남슈퍼","tel":"031-873-3113","addr":"경기도 의정부시 가능동 586-17번지","indutype":"유통업 영리 - 슈퍼마켓","category":"mart"}]},{"lat":"37.748954653","long":"127.0339375","imageIndex":7,"items":[{"name":"태진슈퍼","tel":"031-872-4902","addr":"경기도 의정부시 가능동 675번지","indutype":"유통업 영리 - 슈퍼마켓","category":"mart"}]},{"lat":"37.752124991","long":"127.03760392","imageIndex":7,"items":[{"name":"현이네수퍼","tel":"031-874-1095","addr":"경기도 의정부시 가능동 621-4번지","indutype":"유통업 영리 - 슈퍼마켓","category":"mart"}]},{"lat":"37.754041933","long":"127.04409551","imageIndex":7,"items":[{"name":"형제슈퍼","tel":"031-848-6497","addr":"경기도 의정부시 가능동 77-6번지","indutype":"유통업 영리 - 슈퍼마켓","category":"mart"}]},{"lat":"37.755459883","long":"127.0326239","imageIndex":7,"items":[{"name":"홈마트","tel":"031-873-7603","addr":"경기도 의정부시 가능동 365-10번지 101호","indutype":"유통업 영리 - 슈퍼마켓","category":"mart"}]},{"lat":"37.752987749","long":"127.04428782","imageIndex":7,"items":[{"name":"환희마트","tel":"031-847-3574","addr":"경기도 의정부시 가능동 22-66번지 1층","indutype":"유통업 영리 - 슈퍼마켓","category":"mart"}]},{"lat":"37.747874039","long":"127.03184931","imageIndex":7,"items":[{"name":"후래쉬한미마트","tel":"031-874-0551","addr":"경기도 의정부시 가능동 683-46번지","indutype":"유통업 영리 - 슈퍼마켓","category":"mart"}]}]