[{"lat":"37.298246293","long":"127.59999813","imageIndex":9,"items":[{"name":"(주)썬라이즈 오일 서여주IC 주유소","tel":"031-881-5052","addr":"경기도 여주시 능서면 번도리 887-33번지","indutype":"연료판매점 - SK주유소","category":"oil"}]},{"lat":"37.300019784","long":"127.58400777","imageIndex":9,"items":[{"name":"청룡종합가스","tel":"031-884-4402","addr":"경기도 여주시 능서면 번도리 206번지","indutype":"연료판매점 - LPG 취급점","category":"oil"}]},{"lat":"37.304050163","long":"127.57603052","imageIndex":16,"items":[{"name":"(주)여광자동차운전전문학원","tel":"031-884-3524","addr":"경기도 여주시 능서면 번도리 384-1번지","indutype":"학원 - 기능학원","category":"study"}]},{"lat":"37.301410445","long":"127.57783766","imageIndex":16,"items":[{"name":"여주자연농원","tel":"031-882-4815","addr":"경기도 여주시 능서면 번도리 424-2번지","indutype":"학원 - 기타 교육기관","category":"study"}]},{"lat":"37.307854955","long":"127.57736786","imageIndex":16,"items":[{"name":"예원어린이집[아이행복]","tel":"031-883-3713","addr":"경기도 여주시 능서면 번도리 333-5번지","indutype":"학원 - 유아원","category":"study"},{"name":"예원어린이집[아이행복]","tel":"031-883-5365","addr":"경기도 여주시 능서면 번도리 333-5번지","indutype":"학원 - 유아원","category":"study"}]},{"lat":"37.307684043","long":"127.57731016","imageIndex":4,"items":[{"name":"CAFE LOVIN카페러빈","tel":"","addr":"경기도 여주시 능서면 번도리 333-6번지 2층","indutype":"일반휴게음식 - 서양음식","category":"restaurant"}]},{"lat":"37.298270362","long":"127.6005848","imageIndex":4,"items":[{"name":"고래,숨","tel":"","addr":"경기도 여주시 능서면 번도리 887-35번지","indutype":"일반휴게음식 - 서양음식","category":"restaurant"},{"name":"맛집건강한 밥상","tel":"","addr":"경기도 여주시 능서면 번도리 887-35번지 1층","indutype":"일반휴게음식 - 일반한식","category":"restaurant"},{"name":"평양자장면","tel":"031-882-8284","addr":"경기도 여주시 능서면 번도리 887-35번지","indutype":"일반휴게음식 - 일반한식","category":"restaurant"}]},{"lat":"37.3016299520","long":"127.5990323400","imageIndex":4,"items":[{"name":"구능촌","tel":"031-882-4893","addr":"경기도 여주시 능서면 번도리 910번지","indutype":"일반휴게음식 - 일반한식","category":"restaurant"}]},{"lat":"37.299101672","long":"127.57269965","imageIndex":4,"items":[{"name":"능서단골집","tel":"031-886-6699","addr":"경기도 여주시 능서면 번도리 498-3번지 1층","indutype":"일반휴게음식 - 일반한식","category":"restaurant"}]},{"lat":"37.299164459","long":"127.596588","imageIndex":4,"items":[{"name":"능서식당","tel":"031-882-9849","addr":"경기도 여주시 능서면 번도리 918-86번지","indutype":"일반휴게음식 - 일반한식","category":"restaurant"}]},{"lat":"37.299659519","long":"127.57286176","imageIndex":4,"items":[{"name":"능서참숯돈갈비","tel":"031-882-4338","addr":"경기도 여주시 능서면 번도리 499-12번지","indutype":"일반휴게음식 - 일반한식","category":"restaurant"},{"name":"명당만두","tel":"031-884-8244","addr":"경기도 여주시 능서면 번도리 499-12번지 능서회관","indutype":"일반휴게음식 - 일반한식","category":"restaurant"},{"name":"정든식당","tel":"031-882-0598","addr":"경기도 여주시 능서면 번도리 499-12번지","indutype":"일반휴게음식 - 일반한식","category":"restaurant"}]},{"lat":"37.297860201","long":"127.59794243","imageIndex":4,"items":[{"name":"돈스","tel":"031-883-6588","addr":"경기도 여주시 능서면 번도리 918-27번지","indutype":"일반휴게음식 - 일반한식","category":"restaurant"}]},{"lat":"37.299019421","long":"127.57480811","imageIndex":4,"items":[{"name":"멕시카나","tel":"031-881-5535","addr":"경기도 여주시 능서면 번도리 486번지","indutype":"일반휴게음식 - 주점","category":"restaurant"}]},{"lat":"37.29937978","long":"127.57294988","imageIndex":4,"items":[{"name":"명가네민물매운탕","tel":"031-884-6712","addr":"경기도 여주시 능서면 번도리 499-18번지","indutype":"일반휴게음식 - 일반한식","category":"restaurant"}]},{"lat":"37.299136896","long":"127.57286909","imageIndex":4,"items":[{"name":"보리수 다방","tel":"031-882-4311","addr":"경기도 여주시 능서면 번도리 498-1번지","indutype":"일반휴게음식 - 서양음식","category":"restaurant"}]},{"lat":"37.299079794","long":"127.57350026","imageIndex":4,"items":[{"name":"부흥식당","tel":"031-882-4342","addr":"경기도 여주시 능서면 번도리 494-2번지","indutype":"일반휴게음식 - 일반한식","category":"restaurant"}]},{"lat":"37.299051025","long":"127.57386095","imageIndex":4,"items":[{"name":"세미식당","tel":"","addr":"경기도 여주시 능서면 번도리 493-1번지","indutype":"일반휴게음식 - 일반한식","category":"restaurant"}]},{"lat":"37.299434762","long":"127.57275856","imageIndex":4,"items":[{"name":"양지식당","tel":"031-883-7030","addr":"경기도 여주시 능서면 번도리 499-14번지","indutype":"일반휴게음식 - 일반한식","category":"restaurant"}]},{"lat":"37.297190246","long":"127.59858001","imageIndex":4,"items":[{"name":"여주함흥냉면","tel":"031-886-8682","addr":"경기도 여주시 능서면 번도리 918-173번지","indutype":"일반휴게음식 - 일반한식","category":"restaurant"}]},{"lat":"37.3004698566","long":"127.5729806601","imageIndex":4,"items":[{"name":"이서방양념치킨","tel":"031-882-4329","addr":"경기도 여주시 능서면 번도리 509-1번지","indutype":"일반휴게음식 - 일반한식","category":"restaurant"}]},{"lat":"37.299107585","long":"127.57334257","imageIndex":4,"items":[{"name":"제일식당","tel":"031-884-1817","addr":"경기도 여주시 능서면 번도리 499-29번지","indutype":"일반휴게음식 - 중국식","category":"restaurant"}]},{"lat":"37.298747916","long":"127.59700203","imageIndex":4,"items":[{"name":"짬뽕일번지","tel":"031-883-7717","addr":"경기도 여주시 능서면 번도리 918-74번지","indutype":"일반휴게음식 - 중국식","category":"restaurant"}]},{"lat":"37.299021274","long":"127.57442465","imageIndex":4,"items":[{"name":"탕아탕아매운탕","tel":"031-883-6711","addr":"경기도 여주시 능서면 번도리 487-7번지","indutype":"일반휴게음식 - 일반한식","category":"restaurant"}]},{"lat":"37.298774061","long":"127.58813738","imageIndex":4,"items":[{"name":"토속촌","tel":"031-884-5008","addr":"경기도 여주시 능서면 번도리 170번지","indutype":"일반휴게음식 - 일반한식","category":"restaurant"}]},{"lat":"37.298636845","long":"127.60294489","imageIndex":13,"items":[{"name":"TUP스크린골프","tel":"031-884-6053","addr":"경기도 여주시 능서면 번도리 899-16번지","indutype":"레저업소 - 스크린골프","category":"leisure"}]},{"lat":"37.299355303","long":"127.5724196","imageIndex":13,"items":[{"name":"능서당구장","tel":"02-0000-0000","addr":"경기도 여주시 능서면 번도리 499-28번지","indutype":"레저업소 - 당 구 장","category":"leisure"}]},{"lat":"37.299659519","long":"127.57286176","imageIndex":13,"items":[{"name":"수 노래연습장","tel":"031-881-4314","addr":"경기도 여주시 능서면 번도리 499-12번지 2층","indutype":"레저업소 - 노 래 방","category":"leisure"}]},{"lat":"37.299192964","long":"127.57245221","imageIndex":7,"items":[{"name":"가족농원","tel":"031-1111-111","addr":"경기도 여주시 능서면 번도리 499-33번지","indutype":"음료식품 - 농·축·수산품","category":"food"},{"name":"여주장수나라","tel":"031-000-0000","addr":"경기도 여주시 능서면 번도리 499-33번지 1층","indutype":"건강식품 - 기타건강식품","category":"food"}]},{"lat":"37.298246293","long":"127.59999813","imageIndex":7,"items":[{"name":"두루(주)","tel":"031-886-1419","addr":"경기도 여주시 능서면 번도리 887-33번지","indutype":"음료식품 - 정육점","category":"food"}]},{"lat":"37.30360838","long":"127.5816442","imageIndex":7,"items":[{"name":"블루마린 캠핑장","tel":"031-8089-8009","addr":"경기도 여주시 능서면 번도리 239-1번지","indutype":"음료식품 - 기타음료식품","category":"food"}]},{"lat":"37.301410445","long":"127.57783766","imageIndex":7,"items":[{"name":"여주자연농원","tel":"031-882-4815","addr":"경기도 여주시 능서면 번도리 424-2번지","indutype":"음료식품 - 농·축·수산품","category":"food"}]},{"lat":"37.302411292","long":"127.58689104","imageIndex":7,"items":[{"name":"이례농산","tel":"031-884-4872","addr":"경기도 여주시 능서면 번도리 74-1번지","indutype":"음료식품 - 미곡상","category":"food"}]},{"lat":"37.298574313","long":"127.60461359","imageIndex":5,"items":[{"name":"갤럭시모텔","tel":"031-881-4206","addr":"경기도 여주시 능서면 번도리 899-11번지","indutype":"숙박업 - 여관/기타숙박업","category":"hotel"}]},{"lat":"37.299302025","long":"127.58522033","imageIndex":17,"items":[{"name":"경기농기계","tel":"031-884-8949","addr":"경기도 여주시 능서면 번도리 516-5번지","indutype":"수리서비스 - 기타수리서비스","category":"other"}]},{"lat":"37.299634064","long":"127.57253449","imageIndex":17,"items":[{"name":"광고뱅크","tel":"031-883-8355","addr":"경기도 여주시 능서면 번도리 512-3번지","indutype":"용역 서비스 - 종합용역","category":"other"}]},{"lat":"37.299324119","long":"127.57514877","imageIndex":17,"items":[{"name":"능서꽃화원","tel":"031-884-4388","addr":"경기도 여주시 능서면 번도리 485번지","indutype":"문화.취미 - 화원","category":"other"}]},{"lat":"37.299134422","long":"127.57524884","imageIndex":17,"items":[{"name":"능서농협 영농자재센타","tel":"031-882-4376","addr":"경기도 여주시 능서면 번도리 485번지 능서농협미곡종합처리장","indutype":"농업 - 비료,사료,종자","category":"other"}]},{"lat":"37.299435717","long":"127.56691627","imageIndex":17,"items":[{"name":"능서농협농기계 종합지원센타","tel":"031-882-3320","addr":"경기도 여주시 능서면 번도리 861-14번지 1층","indutype":"수리서비스 - 기타수리서비스","category":"other"}]},{"lat":"37.300161785","long":"127.57333925","imageIndex":17,"items":[{"name":"능서면사무소","tel":"031-887-3862","addr":"경기도 여주시 능서면 번도리 502-3번지 1층 능서면사무소","indutype":"용역 서비스 - 사무서비스","category":"other"}]},{"lat":"37.301470626","long":"127.58944406","imageIndex":17,"items":[{"name":"대성씽크","tel":"031-884-3344","addr":"경기도 여주시 능서면 번도리 103-2번지","indutype":"주방용구 - 주방용구","category":"other"}]},{"lat":"37.300608817","long":"127.58880576","imageIndex":17,"items":[{"name":"땀의보석(Sweat jewel)","tel":"031-882-5041","addr":"경기도 여주시 능서면 번도리 98번지","indutype":"회원제형태 - 기타1","category":"other"}]},{"lat":"37.300136596","long":"127.57108333","imageIndex":17,"items":[{"name":"문도방","tel":"031-882-4955","addr":"경기도 여주시 능서면 번도리 409-11번지","indutype":"문화.취미 - 민예·공예품","category":"other"}]},{"lat":"37.298270362","long":"127.6005848","imageIndex":17,"items":[{"name":"삼익피아노여주점","tel":"031-881-3700","addr":"경기도 여주시 능서면 번도리 887-35번지","indutype":"레져용품 - 악기점","category":"other"}]},{"lat":"37.29885827","long":"127.58750644","imageIndex":17,"items":[{"name":"세븐일레븐여주중부대로점","tel":"","addr":"경기도 여주시 능서면 번도리 171-4번지","indutype":"유통업 영리 - 편 의 점","category":"other"},{"name":"세븐일레븐중부대로점","tel":"031-1577-0711","addr":"경기도 여주시 능서면 번도리 171-4번지","indutype":"유통업 영리 - 편 의 점","category":"other"}]},{"lat":"37.2987454242","long":"127.5974982638","imageIndex":17,"items":[{"name":"신용종합설비","tel":"031-884-4920","addr":"경기도 여주시 능서면 번도리 918-100번지","indutype":"건축자재 - 보일러·펌프·샷시","category":"other"}]},{"lat":"37.298049803","long":"127.59786497","imageIndex":17,"items":[{"name":"씨유여주번도리점","tel":"031-882-0043","addr":"경기도 여주시 능서면 번도리 918-164번지 1층","indutype":"유통업 영리 - 편 의 점","category":"other"}]},{"lat":"37.297381663","long":"127.59814167","imageIndex":17,"items":[{"name":"참솔인테리어","tel":"031-881-2704","addr":"경기도 여주시 능서면 번도리 918-32번지","indutype":"건축자재 - 인테리어전문","category":"other"}]},{"lat":"37.300078401","long":"127.59580568","imageIndex":17,"items":[{"name":"코리아텐트","tel":"031-881-6704","addr":"경기도 여주시 능서면 번도리 918-221번지","indutype":"건축자재 - 기타건축자재","category":"other"}]},{"lat":"37.300799808","long":"127.58844632","imageIndex":17,"items":[{"name":"헬리오넷","tel":"031-881-4291","addr":"경기도 여주시 능서면 번도리 94-1번지","indutype":"전기제품 - 기타전기제품","category":"other"}]},{"lat":"37.297636814","long":"127.59936173","imageIndex":0,"items":[{"name":"광터타이어","tel":"031-883-3392","addr":"경기도 여주시 능서면 번도리 918-40번지","indutype":"자동차정비 유지 - 자동차시트·타이어","category":"car"},{"name":"명일타이어","tel":"031-000-0000","addr":"경기도 여주시 능서면 번도리 918-40번지","indutype":"자동차정비 유지 - 자동차시트·타이어","category":"car"}]},{"lat":"37.299521135","long":"127.56789814","imageIndex":0,"items":[{"name":"능서자동차공업","tel":"031-884-6300","addr":"경기도 여주시 능서면 번도리 861-11번지","indutype":"자동차정비 유지 - 자동차정비","category":"car"}]},{"lat":"37.298665843","long":"127.60433236","imageIndex":0,"items":[{"name":"동아상사","tel":"031-883-6923","addr":"경기도 여주시 능서면 번도리 899-12번지","indutype":"자동차정비 유지 - 자동차부품","category":"car"}]},{"lat":"37.299187317","long":"127.5717529","imageIndex":0,"items":[{"name":"성실자동차공업사","tel":"031-636-6815","addr":"경기도 여주시 능서면 번도리 514-3번지","indutype":"자동차정비 유지 - 자동차정비","category":"car"}]},{"lat":"37.299495344","long":"127.56763854","imageIndex":0,"items":[{"name":"유로자동차정비","tel":"031-882-4971","addr":"경기도 여주시 능서면 번도리 861-11번지","indutype":"자동차정비 유지 - 자동차정비","category":"car"}]},{"lat":"37.299941743","long":"127.59249997","imageIndex":0,"items":[{"name":"중부상사","tel":"031-882-4479","addr":"경기도 여주시 능서면 번도리 126번지","indutype":"자동차정비 유지 - 자동차부품","category":"car"}]},{"lat":"37.2991033","long":"127.57236131","imageIndex":8,"items":[{"name":"능서한의원","tel":"031-883-1775","addr":"경기도 여주시 능서면 번도리 499-31번지","indutype":"의원 - 한의원","category":"medical"}]},{"lat":"37.299136896","long":"127.57286909","imageIndex":7,"items":[{"name":"제일마트","tel":"","addr":"경기도 여주시 능서면 번도리 498-1번지","indutype":"유통업 영리 - 슈퍼마켓","category":"mart"}]}]