[{"lat":"37.058065334","long":"126.85627488","imageIndex":0,"items":[{"name":"(주)고려특장차","tel":"031-351-2863","addr":"경기도 화성시 장안면 장안리 107-4번지","indutype":"자동차판매 - 기타운송","category":"car"}]},{"lat":"37.045155496","long":"126.85099398","imageIndex":0,"items":[{"name":"윙엔탑특장","tel":"031-358-2100","addr":"경기도 화성시 장안면 장안리 684번지 다동","indutype":"자동차정비 유지 - 자동차부품","category":"car"}]},{"lat":"37.052840923","long":"126.8576902","imageIndex":0,"items":[{"name":"화성출장밧데리","tel":"031-358-0084","addr":"경기도 화성시 장안면 장안리 287번지 장명빌라 402호","indutype":"자동차정비 유지 - 자동차부품","category":"car"}]},{"lat":"37.054376418","long":"126.86846866","imageIndex":17,"items":[{"name":"(주)동아이엔씨","tel":"031-351-5531","addr":"경기도 화성시 장안면 장안리 17-6번지 101호","indutype":"용역 서비스 - 기타용역서비스","category":"other"},{"name":"동아진흥","tel":"031-351-5532","addr":"경기도 화성시 장안면 장안리 17-6번지","indutype":"농업 - 농기계","category":"other"}]},{"lat":"37.049958947","long":"126.85161394","imageIndex":17,"items":[{"name":"(주)삼전황토","tel":"031-358-9022","addr":"경기도 화성시 장안면 장안리 585-1","indutype":"건축자재 - 기타건축자재","category":"other"}]},{"lat":"37.045515257","long":"126.85047617","imageIndex":17,"items":[{"name":"대성기업","tel":"031-353-3380","addr":"경기도 화성시 장안면 장안리 684-1","indutype":"건축자재 - 목재·석재·철물","category":"other"}]},{"lat":"37.052840923","long":"126.8576902","imageIndex":17,"items":[{"name":"버블커피","tel":"031-358-1569","addr":"경기도 화성시 장안면 장안리 287번지 장명빌라 204호","indutype":"회원제형태 - 기타4","category":"other"}]},{"lat":"37.057596575","long":"126.85610714","imageIndex":17,"items":[{"name":"서광산업","tel":"031-351-6634","addr":"경기도 화성시 장안면 장안리 107-10번지","indutype":"가구 - 일반가구","category":"other"}]},{"lat":"37.034210374","long":"126.83952916","imageIndex":17,"items":[{"name":"에이치컴퍼니","tel":"031-358-6369","addr":"경기도 화성시 장안면 장안리 1516-3번지","indutype":"용역 서비스 - 기타용역서비스","category":"other"}]},{"lat":"37.036955417","long":"126.84380563","imageIndex":17,"items":[{"name":"청수나인","tel":"031-352-1673","addr":"경기도 화성시 장안면 장안리 1075-37번지","indutype":"전기제품 - 기타전기제품","category":"other"}]},{"lat":"37.037042122","long":"126.85511265","imageIndex":17,"items":[{"name":"태양이엔지","tel":"031-354-8895","addr":"경기도 화성시 장안면 장안리 900-10","indutype":"수리서비스 - 가정용품수리","category":"other"}]},{"lat":"37.059286329","long":"126.85271973","imageIndex":17,"items":[{"name":"화성하늘공원 수목장림","tel":"031-351-9443","addr":"경기도 화성시 장안면 장안리 154-4번지 ,154-5","indutype":"용역 서비스 - 가례서비스업","category":"other"}]},{"lat":"37.055320181","long":"126.86640963","imageIndex":13,"items":[{"name":"당골낚시터","tel":"031-351-2881","addr":"경기도 화성시 장안면 장안리 35 외5필지(37,39,40,41,61-1)","indutype":"레저업소 - 기타레져업소","category":"leisure"}]},{"lat":"37.041678609","long":"126.8519451","imageIndex":7,"items":[{"name":"동서상회","tel":"031-358-1147","addr":"경기도 화성시 장안면 장안리 713번지","indutype":"음료식품 - 기타음료식품","category":"food"}]},{"lat":"37.042929243","long":"126.85050382","imageIndex":7,"items":[{"name":"산여울","tel":"","addr":"경기도 화성시 장안면 장안리 703번지","indutype":"음료식품 - 농·축·수산품","category":"food"}]},{"lat":"37.040036712","long":"126.84355192","imageIndex":7,"items":[{"name":"성운블루베리농원","tel":"031-352-1673","addr":"경기도 화성시 장안면 장안리 1394-10번지","indutype":"음료식품 - 농·축·수산품","category":"food"}]},{"lat":"37.028266756","long":"126.85591635","imageIndex":7,"items":[{"name":"써니사과농장","tel":"070-7594-7223","addr":"경기도 화성시 장안면 장안리 2640번지","indutype":"음료식품 - 농·축·수산품","category":"food"},{"name":"온수골사과농장","tel":"031-358-1566","addr":"경기도 화성시 장안면 장안리 2640번지","indutype":"음료식품 - 농·축·수산품","category":"food"}]},{"lat":"37.050401377","long":"126.86727281","imageIndex":7,"items":[{"name":"장안씨푸드","tel":"031-351-5662","addr":"경기도 화성시 장안면 장안리 388-1번지","indutype":"음료식품 - 농·축·수산품","category":"food"}]},{"lat":"37.032709212","long":"126.84897325","imageIndex":7,"items":[{"name":"화성블루베리","tel":"031-358-3353","addr":"경기도 화성시 장안면 장안리 1023-1번지","indutype":"음료식품 - 농·축·수산품","category":"food"}]},{"lat":"37.049123592","long":"126.8466918","imageIndex":7,"items":[{"name":"벧엘마트","tel":"","addr":"경기도 화성시 장안면 장안리 595번지","indutype":"유통업 영리 - 슈퍼마켓","category":"mart"}]},{"lat":"37.040536917","long":"126.8540493","imageIndex":7,"items":[{"name":"장안슈퍼","tel":"031-358-1134","addr":"경기도 화성시 장안면 장안리 772-3번지","indutype":"유통업 영리 - 슈퍼마켓","category":"mart"}]},{"lat":"37.056123145","long":"126.85235496","imageIndex":16,"items":[{"name":"장명초등학교병설유치원[아이행복]","tel":"031-3581-155","addr":"경기도 화성시 장안면 장안리 152번지 장명초등학교","indutype":"학원 - 유치원","category":"study"}]},{"lat":"37.051677093","long":"126.85650077","imageIndex":4,"items":[{"name":"장수촌","tel":"031-351-4168","addr":"경기도 화성시 장안면 장안리 284-24번지 1층","indutype":"일반휴게음식 - 일반한식","category":"restaurant"}]},{"lat":"37.040536917","long":"126.8540493","imageIndex":4,"items":[{"name":"장안식당","tel":"031-358-1134","addr":"경기도 화성시 장안면 장안리 772-3번지 1층","indutype":"일반휴게음식 - 일반한식","category":"restaurant"}]},{"lat":"37.040680918","long":"126.85391413","imageIndex":4,"items":[{"name":"장안치킨","tel":"031-358-9282","addr":"경기도 화성시 장안면 장안리 772-1","indutype":"일반휴게음식 - 주점","category":"restaurant"}]},{"lat":"37.055650472","long":"126.84914053","imageIndex":4,"items":[{"name":"행복농원","tel":"031-351-5396","addr":"경기도 화성시 장안면 장안리 182","indutype":"일반휴게음식 - 일반한식","category":"restaurant"}]}]