[{"lat":"36.988352602","long":"126.8443562","imageIndex":13,"items":[{"name":"3.4당구클럽","tel":"031-681-9134","addr":"경기도 평택시 포승읍 도곡리 1121-7번지","indutype":"레저업소 - 당 구 장","category":"leisure"}]},{"lat":"36.990771594","long":"126.84747394","imageIndex":13,"items":[{"name":"88복싱클럽","tel":"031-684-8287","addr":"경기도 평택시 포승읍 도곡리 1109번지 포승삼부르네상스2단지 2층","indutype":"레저업소 - 헬스클럽","category":"leisure"}]},{"lat":"36.98760521","long":"126.84472842","imageIndex":13,"items":[{"name":"IAM PC CAFE","tel":"","addr":"경기도 평택시 포승읍 도곡리 1122-1번지 504동 506호","indutype":"레저업소 - 기타레져업소","category":"leisure"}]},{"lat":"36.989795254","long":"126.84506087","imageIndex":13,"items":[{"name":"VIP노래연습장","tel":"031-681-5999","addr":"경기도 평택시 포승읍 도곡리 1139-5번지 광덕아트빌 1층","indutype":"레저업소 - 노 래 방","category":"leisure"}]},{"lat":"36.987049991","long":"126.84733549","imageIndex":13,"items":[{"name":"가나노래연습장","tel":"031-682-9830","addr":"경기도 평택시 포승읍 도곡리 1154-3번지 1층 가나노래연습장","indutype":"레저업소 - 노 래 방","category":"leisure"}]},{"lat":"36.986741943","long":"126.84605562","imageIndex":13,"items":[{"name":"공단노래연습장","tel":"031-682-0820","addr":"경기도 평택시 포승읍 도곡리 1144-12번지 2층","indutype":"레저업소 - 노 래 방","category":"leisure"}]},{"lat":"36.989684451","long":"126.84306166","imageIndex":13,"items":[{"name":"공단스크린골프존","tel":"031-684-7123","addr":"경기도 평택시 포승읍 도곡리 1117-6번지","indutype":"레저업소 - 스크린골프","category":"leisure"}]},{"lat":"36.988712188","long":"126.84372642","imageIndex":13,"items":[{"name":"노블실내골프연습장","tel":"070-4122-9666","addr":"경기도 평택시 포승읍 도곡리 1121-2번지 카라타워 6층","indutype":"레저업소 - 골프연습장","category":"leisure"},{"name":"노블휘트니스","tel":"031-684-9905","addr":"경기도 평택시 포승읍 도곡리 1121-2번지 카라타워 7층","indutype":"레저업소 - 헬스클럽","category":"leisure"},{"name":"드림당구클럽","tel":"031-681-5945","addr":"경기도 평택시 포승읍 도곡리 1121-2번지","indutype":"레저업소 - 당 구 장","category":"leisure"}]},{"lat":"36.988460145","long":"126.8439179","imageIndex":13,"items":[{"name":"드림당구타운","tel":"031-682-3979","addr":"경기도 평택시 포승읍 도곡리 1121-3번지 2층","indutype":"레저업소 - 당 구 장","category":"leisure"}]},{"lat":"36.994073145","long":"126.85027558","imageIndex":13,"items":[{"name":"등대노래방","tel":"031-681-3477","addr":"경기도 평택시 포승읍 도곡리 234-15번지 2층","indutype":"레저업소 - 노 래 방","category":"leisure"}]},{"lat":"36.988270243","long":"126.84341283","imageIndex":13,"items":[{"name":"디와이짐(DYGYM)","tel":"031-686-5321","addr":"경기도 평택시 포승읍 도곡리 1120-8번지 202호","indutype":"레저업소 - 헬스클럽","category":"leisure"},{"name":"에이원기구필라테스","tel":"031-682-0602","addr":"경기도 평택시 포승읍 도곡리 1120-8번지 3층 302호","indutype":"레저업소 - 헬스클럽","category":"leisure"}]},{"lat":"36.984992097","long":"126.8447226","imageIndex":13,"items":[{"name":"리얼야구존 포승점","tel":"031-684-4448","addr":"경기도 평택시 포승읍 도곡리 1126-3번지 포승프라자 302호","indutype":"레저업소 - 기타레져업소","category":"leisure"},{"name":"마린볼링센터","tel":"031-684-0977","addr":"경기도 평택시 포승읍 도곡리 1126-3번지 401호,402호,403호","indutype":"레저업소 - 볼 링 장","category":"leisure"}]},{"lat":"36.989181525","long":"126.84430954","imageIndex":13,"items":[{"name":"부킹노래연습장","tel":"031-681-9529","addr":"경기도 평택시 포승읍 도곡리 1143-3번지 거기빌딩","indutype":"레저업소 - 노 래 방","category":"leisure"}]},{"lat":"36.990156739","long":"126.84585766","imageIndex":13,"items":[{"name":"비바탁구클럽","tel":"031-684-4331","addr":"경기도 평택시 포승읍 도곡리 1138-1번지 신포승빌딩 401호","indutype":"레저업소 - 기타레져업소","category":"leisure"},{"name":"차이나타운 당구클럽","tel":"","addr":"경기도 평택시 포승읍 도곡리 1138-1번지 신포승빌딩 402호","indutype":"레저업소 - 당 구 장","category":"leisure"}]},{"lat":"36.994242301","long":"126.84869132","imageIndex":13,"items":[{"name":"삼거리노래연습장","tel":"031-682-1966","addr":"경기도 평택시 포승읍 도곡리 220-3","indutype":"레저업소 - 노 래 방","category":"leisure"}]},{"lat":"36.990154077","long":"126.84385821","imageIndex":13,"items":[{"name":"생생노래연습장","tel":"031-683-0126","addr":"경기도 평택시 포승읍 도곡리 1130-15번지 서해빌 1층","indutype":"레저업소 - 노 래 방","category":"leisure"}]},{"lat":"36.989877809","long":"126.84616152","imageIndex":13,"items":[{"name":"샨티요가(SHANTI YOGA)","tel":"","addr":"경기도 평택시 포승읍 도곡리 1138-18번지 경인빌딩 2층","indutype":"레저업소 - 헬스클럽","category":"leisure"}]},{"lat":"36.992209946","long":"126.85910857","imageIndex":13,"items":[{"name":"서평택 골프클럽","tel":"031-681-0077","addr":"경기도 평택시 포승읍 도곡리 148-3번지","indutype":"레저업소 - 골프연습장","category":"leisure"},{"name":"서평택골프클럽","tel":"031-681-0077","addr":"경기도 평택시 포승읍 도곡리 148-3번지","indutype":"레저업소 - 골프경기장","category":"leisure"},{"name":"진스크린골프","tel":"","addr":"경기도 평택시 포승읍 도곡리 148-3번지 2층 서평택골프클럽","indutype":"레저업소 - 스크린골프","category":"leisure"}]},{"lat":"36.989549925","long":"126.84353372","imageIndex":13,"items":[{"name":"스타노래연습장","tel":"031-682-0506","addr":"경기도 평택시 포승읍 도곡리 1117-4번지 2층","indutype":"레저업소 - 노 래 방","category":"leisure"},{"name":"아이비 PC방","tel":"","addr":"경기도 평택시 포승읍 도곡리 1117-4번지 2층","indutype":"레저업소 - 기타레져업소","category":"leisure"}]},{"lat":"36.994100466","long":"126.8505002","imageIndex":13,"items":[{"name":"씽씽노래연습장","tel":"031-683-7276","addr":"경기도 평택시 포승읍 도곡리 231","indutype":"레저업소 - 노 래 방","category":"leisure"}]},{"lat":"36.988991293","long":"126.84355735","imageIndex":13,"items":[{"name":"아맘당구클럽","tel":"031-684-8455","addr":"경기도 평택시 포승읍 도곡리 1121-1번지 203호 204호","indutype":"레저업소 - 당 구 장","category":"leisure"},{"name":"크라우드PC포승3호","tel":"","addr":"경기도 평택시 포승읍 도곡리 1121-1번지 카임하우스 202호 201호,202호","indutype":"레저업소 - 기타레져업소","category":"leisure"}]},{"lat":"36.986265073","long":"126.84658452","imageIndex":13,"items":[{"name":"아이온 피시방","tel":"031-681-4020","addr":"경기도 평택시 포승읍 도곡리 1156-9번지 세종빌라 상가 1층","indutype":"레저업소 - 기타레져업소","category":"leisure"}]},{"lat":"36.989405377","long":"126.8432532","imageIndex":13,"items":[{"name":"오렌지당구클럽","tel":"031-684-7549","addr":"경기도 평택시 포승읍 도곡리 1117-5번지 태영프라자 3층 301호 301호~303호","indutype":"레저업소 - 당 구 장","category":"leisure"},{"name":"크라우드 PC 포승2호","tel":"070-9228-3921","addr":"경기도 평택시 포승읍 도곡리 1117-5번지 태영프라자 4층 401 ,403,404호","indutype":"레저업소 - 기타레져업소","category":"leisure"}]},{"lat":"36.985272503","long":"126.84553073","imageIndex":13,"items":[{"name":"올레당구장","tel":"03-684-1330","addr":"경기도 평택시 포승읍 도곡리 1126-6번지","indutype":"레저업소 - 당 구 장","category":"leisure"}]},{"lat":"36.984432656","long":"126.8738821","imageIndex":13,"items":[{"name":"월드당구장","tel":"031-681-3998","addr":"경기도 평택시 포승읍 도곡리 887번지 2층","indutype":"레저업소 - 당 구 장","category":"leisure"},{"name":"월드당구장","tel":"031-681-3998","addr":"경기도 평택시 포승읍 도곡리 887번지","indutype":"레저업소 - 당 구 장","category":"leisure"}]},{"lat":"36.989099753","long":"126.84380424","imageIndex":13,"items":[{"name":"크라우드PC포승점","tel":"070-9228-3921","addr":"경기도 평택시 포승읍 도곡리 1121-10번지 2층","indutype":"레저업소 - 기타레져업소","category":"leisure"},{"name":"플러스당구장","tel":"031-682-3949","addr":"경기도 평택시 포승읍 도곡리 1121-10번지 2층","indutype":"레저업소 - 당 구 장","category":"leisure"}]},{"lat":"36.987404961","long":"126.86477878","imageIndex":13,"items":[{"name":"팡팡노래연습장","tel":"031-683-8876","addr":"경기도 평택시 포승읍 도곡리 748-1번지 A동 지하1층","indutype":"레저업소 - 노 래 방","category":"leisure"}]},{"lat":"36.986660148","long":"126.84552787","imageIndex":13,"items":[{"name":"피에스타 PC방 (평택포승점)","tel":"","addr":"경기도 평택시 포승읍 도곡리 1122-5번지 202호","indutype":"레저업소 - 기타레져업소","category":"leisure"}]},{"lat":"36.9904627","long":"126.84555374","imageIndex":13,"items":[{"name":"황진이노래연습장","tel":"031-681-7885","addr":"경기도 평택시 포승읍 도곡리 1137-8","indutype":"레저업소 - 노 래 방","category":"leisure"}]}]