[{"lat":"37.434021393","long":"126.99807994","imageIndex":16,"items":[{"name":"경희대체육관","tel":"02-503-3953","addr":"경기도 과천시 부림동 46번지","indutype":"학원 - 예·체능계학원","category":"study"},{"name":"나무미술교습소","tel":"","addr":"경기도 과천시 부림동 46번지 과천시대빌딩 305호","indutype":"학원 - 예·체능계학원","category":"study"},{"name":"한음음악학원","tel":"02-504-5135","addr":"경기도 과천시 부림동 46번지 시대빌딩 3층 303호","indutype":"학원 - 예·체능계학원","category":"study"}]},{"lat":"37.43391326","long":"126.99777488","imageIndex":16,"items":[{"name":"과천시여성비전센터","tel":"02-3679-2079","addr":"경기도 과천시 부림동 44번지 가족여성프라자","indutype":"학원 - 기타 교육기관","category":"study"}]},{"lat":"37.438796589","long":"126.99571802","imageIndex":16,"items":[{"name":"과천조은어린이집[아이행복]","tel":"","addr":"경기도 과천시 부림동 13-11번지","indutype":"학원 - 유아원","category":"study"}]},{"lat":"37.428804061","long":"126.99080431","imageIndex":16,"items":[{"name":"과천한맥보습학원","tel":"02-507-1728","addr":"경기도 과천시 부림동 47-1번지 3층","indutype":"교육서비스업 - 보습학원","category":"study"}]},{"lat":"37.433606937","long":"126.99822685","imageIndex":16,"items":[{"name":"과천한맥보습학원","tel":"02-507-1728","addr":"경기도 과천시 부림동 47-1번지 3층","indutype":"학원 - 기타 교육기관","category":"study"}]},{"lat":"37.433796229","long":"127.00131142","imageIndex":16,"items":[{"name":"관문초등학교","tel":"031-9811-5213","addr":"경기도 과천시 부림동 48번지 관문초등학교","indutype":"학원 - 초중고교육기관","category":"study"},{"name":"시립 부림어린이집[아이행복]","tel":"02-507-6110","addr":"경기도 과천시 부림동 48번지","indutype":"학원 - 유아원","category":"study"}]},{"lat":"37.43846329","long":"126.9970288","imageIndex":16,"items":[{"name":"맨발어린이집[아이행복]","tel":"02-507-5862","addr":"경기도 과천시 부림동 21-1번지","indutype":"학원 - 유아원","category":"study"},{"name":"우리튼튼어린이집[아이행복]","tel":"02-507-5862","addr":"경기도 과천시 부림동 21-1번지","indutype":"학원 - 유아원","category":"study"}]},{"lat":"37.435463037","long":"126.99916456","imageIndex":16,"items":[{"name":"미미네뮤직음악교습소","tel":"02-504-2018","addr":"경기도 과천시 부림동 41번지 복합상가 마동 복합상가 라동 208호","indutype":"학원 - 예·체능계학원","category":"study"},{"name":"이지영어교습소","tel":"02-503-5505","addr":"경기도 과천시 부림동 41복합상가라동206호","indutype":"회원제형태 - 학원","category":"study"}]},{"lat":"37.437634461","long":"126.99939044","imageIndex":16,"items":[{"name":"야호어린이집[아이행복]","tel":"02-503-0493","addr":"경기도 과천시 부림동 39-10번지","indutype":"학원 - 유아원","category":"study"}]},{"lat":"37.434273668","long":"126.99794433","imageIndex":16,"items":[{"name":"운주검도관","tel":"02-502-0599","addr":"경기도 과천시 부림동 42번지 지층","indutype":"학원 - 예·체능계학원","category":"study"}]},{"lat":"37.437246897","long":"126.99628313","imageIndex":16,"items":[{"name":"튼튼어린이집[아이행복]","tel":"02-503-3535","addr":"경기도 과천시 부림동 26-4번지","indutype":"학원 - 유아원","category":"study"}]},{"lat":"37.42424543","long":"127.00916331","imageIndex":16,"items":[{"name":"프랜스어학원","tel":"02-507-7667","addr":"경기도 과천시 부림동 36-3 선진빌딩 2.3층","indutype":"교육서비스업 - 외국어학원","category":"study"}]},{"lat":"37.437967788","long":"126.99813618","imageIndex":16,"items":[{"name":"프랜스어학원","tel":"02-507-7667","addr":"경기도 과천시 부림동 36-3 선진빌딩 2.3층","indutype":"회원제형태 - 학원","category":"study"}]}]