[{"lat":"37.580589759","long":"127.22199933","imageIndex":0,"items":[{"name":"도심모터스","tel":"031-577-8292","addr":"경기도 남양주시 와부읍 도곡리 1030","indutype":"자동차정비 유지 - 자동차정비","category":"car"}]},{"lat":"37.577898034","long":"127.22563666","imageIndex":0,"items":[{"name":"동성세차장","tel":"031-577-4718","addr":"경기도 남양주시 와부읍 도곡리 1058-3번지 동성프라자","indutype":"자동차정비 유지 - 세차장","category":"car"}]},{"lat":"37.588618291","long":"127.2310806","imageIndex":0,"items":[{"name":"마스터가라지","tel":"070-7626-4515","addr":"경기도 남양주시 와부읍 도곡리 848-2번지","indutype":"자동차판매 - 이륜차판매","category":"car"},{"name":"프로디지커스텀","tel":"031-521-5356","addr":"경기도 남양주시 와부읍 도곡리 848-2번지","indutype":"자동차판매 - 이륜차판매","category":"car"},{"name":"프로디지커스텀파츠","tel":"031-521-5356","addr":"경기도 남양주시 와부읍 도곡리 848-2번지","indutype":"자동차판매 - 이륜차판매","category":"car"}]},{"lat":"37.579541227","long":"127.24230576","imageIndex":0,"items":[{"name":"매일상사","tel":"02-2213-3381","addr":"경기도 남양주시 와부읍 도곡리 245번지 외 1필지","indutype":"자동차정비 유지 - 자동차부품","category":"car"}]},{"lat":"37.576842567","long":"127.22633538","imageIndex":0,"items":[{"name":"블루카(BlueCar)","tel":"031-521-6868","addr":"경기도 남양주시 와부읍 도곡리 1067-5번지","indutype":"자동차정비 유지 - 카인테리어","category":"car"},{"name":"에스엠 오디오","tel":"031-576-1976","addr":"경기도 남양주시 와부읍 도곡리 1067-5번지","indutype":"자동차정비 유지 - 자동차부품","category":"car"},{"name":"팔당카","tel":"031-577-8300","addr":"경기도 남양주시 와부읍 도곡리 1067-5번지","indutype":"자동차정비 유지 - 자동차정비","category":"car"}]},{"lat":"37.57890207","long":"127.223534","imageIndex":0,"items":[{"name":"새순카센타","tel":"031-577-3378","addr":"경기도 남양주시 와부읍 도곡리 1042-8번지","indutype":"자동차정비 유지 - 자동차정비","category":"car"}]},{"lat":"37.578867024","long":"127.22300182","imageIndex":0,"items":[{"name":"솔로몬카센타","tel":"031-521-1082","addr":"경기도 남양주시 와부읍 도곡리 1042-11","indutype":"자동차정비 유지 - 자동차정비","category":"car"}]},{"lat":"37.579510308","long":"127.22589052","imageIndex":0,"items":[{"name":"카스토리(Sohun art painting 1998)","tel":"031-576-5750","addr":"경기도 남양주시 와부읍 도곡리 1049-2번지 (외1필지제1호1층)","indutype":"자동차정비 유지 - 카인테리어","category":"car"}]},{"lat":"37.576119726","long":"127.22741997","imageIndex":0,"items":[{"name":"타이어T월드","tel":"031-576-2270","addr":"경기도 남양주시 와부읍 도곡리 568-22번지 1층","indutype":"자동차정비 유지 - 자동차시트·타이어","category":"car"}]}]