[{"lat":"37.477932709","long":"126.77499766","imageIndex":7,"items":[{"name":"(주)비욘드어스(BEYOND EARTH)","tel":"032-667-1328","addr":"경기도 부천시 심곡본동 622-16번지 1층","indutype":"음료식품 - 기타음료식품","category":"food"}]},{"lat":"37.480376152","long":"126.77590601","imageIndex":7,"items":[{"name":"(주)엠엘유통","tel":"031-764-7833","addr":"경기도 부천시 심곡본동 607-2번지 골든타운","indutype":"음료식품 - 기타음료식품","category":"food"}]},{"lat":"37.4810669","long":"126.77904697","imageIndex":7,"items":[{"name":"88고추외 농산물","tel":"032-651-6667","addr":"경기도 부천시 심곡본동 658-10번지","indutype":"음료식품 - 농·축·수산품","category":"food"},{"name":"경인상회","tel":"032-651-8989","addr":"경기도 부천시 심곡본동 658-10번지","indutype":"음료식품 - 농·축·수산품","category":"food"},{"name":"나눔상회","tel":"032-657-5133","addr":"경기도 부천시 심곡본동 658-10번지 외 2필지","indutype":"음료식품 - 농·축·수산품","category":"food"},{"name":"싱싱과일","tel":"032-348-5449","addr":"경기도 부천시 심곡본동 658-10번지","indutype":"음료식품 - 농·축·수산품","category":"food"},{"name":"월드축산도매센터","tel":"070-8621-3432","addr":"경기도 부천시 심곡본동 658-10번지 1층","indutype":"음료식품 - 정육점","category":"food"}]},{"lat":"37.481073116","long":"126.77757718","imageIndex":7,"items":[{"name":"YES(예스)마트","tel":"032-651-6242","addr":"경기도 부천시 심곡본동 602-10번지","indutype":"음료식품 - 기타음료식품","category":"food"}]},{"lat":"37.481233997","long":"126.78165814","imageIndex":7,"items":[{"name":"가가라 식품","tel":"070-4150-5894","addr":"경기도 부천시 심곡본동 678-24번지","indutype":"음료식품 - 기타음료식품","category":"food"}]},{"lat":"37.480238717","long":"126.77943384","imageIndex":7,"items":[{"name":"감초당건강원","tel":"032-665-5440","addr":"경기도 부천시 심곡본동 650번지 현대푸른빌","indutype":"건강식품 - 기타건강식품","category":"food"}]},{"lat":"37.478651718","long":"126.7835764","imageIndex":7,"items":[{"name":"감칠마마","tel":"032-3325-1836","addr":"경기도 부천시 심곡본동 562-390번지","indutype":"음료식품 - 기타음료식품","category":"food"},{"name":"화푸드(화닭발)","tel":"032-656-5999","addr":"경기도 부천시 심곡본동 562-390번지","indutype":"음료식품 - 기타음료식품","category":"food"}]},{"lat":"37.484371382","long":"126.77790647","imageIndex":7,"items":[{"name":"강경상회","tel":"032-651-1640","addr":"경기도 부천시 심곡본동 536-1번지 B110-1호","indutype":"음료식품 - 농·축·수산품","category":"food"},{"name":"오빠네견과류","tel":"02-111-1111","addr":"경기도 부천시 심곡본동 536-1번지 1층 일부점포 1칸","indutype":"음료식품 - 농·축·수산품","category":"food"}]},{"lat":"37.481850246","long":"126.77877329","imageIndex":7,"items":[{"name":"강원상회","tel":"032-652-5218","addr":"경기도 부천시 심곡본동 660-2번지 청과물시장 5호","indutype":"음료식품 - 농·축·수산품","category":"food"},{"name":"한솔농산물","tel":"","addr":"경기도 부천시 심곡본동 660-2번지 1층 1호","indutype":"음료식품 - 농·축·수산품","category":"food"},{"name":"한우마을","tel":"032-611-8532","addr":"경기도 부천시 심곡본동 660-2번지","indutype":"음료식품 - 정육점","category":"food"}]},{"lat":"37.483869618","long":"126.7793778","imageIndex":7,"items":[{"name":"개구리반찬","tel":"032-613-8275","addr":"경기도 부천시 심곡본동 538-2번지 1층","indutype":"음료식품 - 기타음료식품","category":"food"},{"name":"꽃미남옛날과자","tel":"032-655-8320","addr":"경기도 부천시 심곡본동 538-2번지","indutype":"음료식품 - 제과점","category":"food"},{"name":"한일유통","tel":"032-656-5912","addr":"경기도 부천시 심곡본동 538-2번지 1층","indutype":"음료식품 - 농·축·수산품","category":"food"}]},{"lat":"37.481319819","long":"126.77938539","imageIndex":7,"items":[{"name":"거창상회","tel":"032-652-7743","addr":"경기도 부천시 심곡본동 657번지","indutype":"음료식품 - 기타음료식품","category":"food"},{"name":"남해상회","tel":"032-662-3497","addr":"경기도 부천시 심곡본동 657번지","indutype":"음료식품 - 농·축·수산품","category":"food"},{"name":"대우축산물","tel":"032-668-7837","addr":"경기도 부천시 심곡본동 657번지","indutype":"음료식품 - 정육점","category":"food"}]},{"lat":"37.483537256","long":"126.77991018","imageIndex":7,"items":[{"name":"건강지킴이건강원","tel":"032-657-5688","addr":"경기도 부천시 심곡본동 542-3번지","indutype":"음료식품 - 기타음료식품","category":"food"}]},{"lat":"37.484149336","long":"126.77487702","imageIndex":7,"items":[{"name":"건강한농장","tel":"032-000-0000","addr":"경기도 부천시 심곡본동 527번지 케이씨씨엠파이어타워 A동 1601호","indutype":"건강식품 - 기타건강식품","category":"food"},{"name":"참된건강랜드","tel":"","addr":"경기도 부천시 심곡본동 527번지 KCC엠파이어타워 2층","indutype":"건강식품 - 기타건강식품","category":"food"}]},{"lat":"37.477596468","long":"126.7829916","imageIndex":7,"items":[{"name":"건어물","tel":"032-662-4120","addr":"경기도 부천시 심곡본동 562-455번지","indutype":"음료식품 - 농·축·수산품","category":"food"}]},{"lat":"37.480623203","long":"126.77788379","imageIndex":7,"items":[{"name":"건영민속과자","tel":"032-652-2999","addr":"경기도 부천시 심곡본동 654-2번지","indutype":"음료식품 - 기타음료식품","category":"food"}]},{"lat":"37.483870003","long":"126.77958131","imageIndex":7,"items":[{"name":"경기축산","tel":"032-613-1923","addr":"경기도 부천시 심곡본동 538-12번지","indutype":"음료식품 - 정육점","category":"food"},{"name":"삼화인삼","tel":"032-664-7870","addr":"경기도 부천시 심곡본동 538-12번지","indutype":"건강식품 - 인삼제품","category":"food"},{"name":"영진고추기름집","tel":"032-667-1948","addr":"경기도 부천시 심곡본동 538-12번지","indutype":"음료식품 - 기타음료식품","category":"food"},{"name":"우리정육점","tel":"032-668-0305","addr":"경기도 부천시 심곡본동 538-12번지","indutype":"음료식품 - 정육점","category":"food"}]},{"lat":"37.483457062","long":"126.78038529","imageIndex":7,"items":[{"name":"경동건강원","tel":"032-656-9926","addr":"경기도 부천시 심곡본동 542-13번지","indutype":"건강식품 - 기타건강식품","category":"food"}]},{"lat":"37.483431011","long":"126.78090545","imageIndex":7,"items":[{"name":"경일상회","tel":"032-656-3892","addr":"경기도 부천시 심곡본동 545번지","indutype":"음료식품 - 농·축·수산품","category":"food"},{"name":"멸치삼촌김언니","tel":"032-651-7955","addr":"경기도 부천시 심곡본동 545번지","indutype":"음료식품 - 농·축·수산품","category":"food"},{"name":"민속떡방앗간","tel":"032-613-3322","addr":"경기도 부천시 심곡본동 545번지","indutype":"음료식품 - 제과점","category":"food"},{"name":"부천명과","tel":"032-614-0311","addr":"경기도 부천시 심곡본동 545 외10필지 118호","indutype":"음료식품 - 제과점","category":"food"},{"name":"유진이네","tel":"","addr":"경기도 부천시 심곡본동 545번지 아이쇼핑 1층 1호","indutype":"음료식품 - 기타음료식품","category":"food"}]},{"lat":"37.484539979","long":"126.77654919","imageIndex":7,"items":[{"name":"고향떡집","tel":"032-661-1134","addr":"경기도 부천시 심곡본동 531번지 1층","indutype":"음료식품 - 제과점","category":"food"},{"name":"김포쌀상회","tel":"032-667-6053","addr":"경기도 부천시 심곡본동 531번지","indutype":"음료식품 - 미곡상","category":"food"},{"name":"여수반찬집","tel":"031-652-9625","addr":"경기도 부천시 심곡본동 531번지 부천역사쇼핑몰 1층 2호","indutype":"음료식품 - 기타음료식품","category":"food"},{"name":"한우한돈 꼬마흑돼지","tel":"032-661-5757","addr":"경기도 부천시 심곡본동 531번지 1층 14호","indutype":"음료식품 - 정육점","category":"food"}]},{"lat":"37.481957356","long":"126.77824158","imageIndex":7,"items":[{"name":"공주청과","tel":"032-663-6496","addr":"경기도 부천시 심곡본동 660-1번지","indutype":"음료식품 - 농·축·수산품","category":"food"},{"name":"반월상회","tel":"032-665-4808","addr":"경기도 부천시 심곡본동 660-1번지","indutype":"음료식품 - 농·축·수산품","category":"food"}]},{"lat":"37.48370855","long":"126.77996621","imageIndex":7,"items":[{"name":"과일세상","tel":"032-613-7475","addr":"경기도 부천시 심곡본동 543-3번지 1층","indutype":"음료식품 - 농·축·수산품","category":"food"}]},{"lat":"37.483122093","long":"126.78435477","imageIndex":7,"items":[{"name":"과일야채","tel":"032-0000-0000","addr":"경기도 부천시 심곡본동 552-14번지 1층","indutype":"음료식품 - 농·축·수산품","category":"food"}]},{"lat":"37.479097655","long":"126.78113308","imageIndex":7,"items":[{"name":"구가네","tel":"070-2543-6902","addr":"경기도 부천시 심곡본동 689-12번지","indutype":"음료식품 - 농·축·수산품","category":"food"}]},{"lat":"37.483626629","long":"126.7795255","imageIndex":7,"items":[{"name":"구구팔팔 약초사랑","tel":"070-1111-1111","addr":"경기도 부천시 심곡본동 541-20번지 1층 일부","indutype":"음료식품 - 농·축·수산품","category":"food"},{"name":"궁전떡집","tel":"032-667-0090","addr":"경기도 부천시 심곡본동 541-20번지","indutype":"음료식품 - 제과점","category":"food"},{"name":"신진수산","tel":"032-651-3435","addr":"경기도 부천시 심곡본동 541-20번지","indutype":"음료식품 - 농·축·수산품","category":"food"},{"name":"쌍둥이네농산물","tel":"070-7718-2287","addr":"경기도 부천시 심곡본동 541-20번지","indutype":"음료식품 - 농·축·수산품","category":"food"},{"name":"촌놈떡갈비","tel":"","addr":"경기도 부천시 심곡본동 541-20번지 1층","indutype":"음료식품 - 기타음료식품","category":"food"}]},{"lat":"37.483850334","long":"126.77871078","imageIndex":7,"items":[{"name":"규봉상회","tel":"032-657-4553","addr":"경기도 부천시 심곡본동 539-1번지","indutype":"음료식품 - 기타음료식품","category":"food"},{"name":"천일건어물","tel":"032-652-7857","addr":"경기도 부천시 심곡본동 539-1번지","indutype":"음료식품 - 농·축·수산품","category":"food"}]},{"lat":"37.479071453","long":"126.78157407","imageIndex":7,"items":[{"name":"극동방앗간","tel":"032-668-1870","addr":"경기도 부천시 심곡본동 723-11번지 1층","indutype":"음료식품 - 제과점","category":"food"}]},{"lat":"37.484066486","long":"126.77866491","imageIndex":7,"items":[{"name":"김밥나라","tel":"032-655-6119","addr":"경기도 부천시 심곡본동 537-8번지","indutype":"음료식품 - 기타음료식품","category":"food"}]},{"lat":"37.477536949","long":"126.77534933","imageIndex":7,"items":[{"name":"나래유통","tel":"032-664-9008","addr":"경기도 부천시 심곡본동 623-1","indutype":"음료식품 - 정육점","category":"food"}]},{"lat":"37.480760349","long":"126.77893482","imageIndex":7,"items":[{"name":"낙원떡집","tel":"032-611-8227","addr":"경기도 부천시 심곡본동 655-24번지 1층","indutype":"음료식품 - 제과점","category":"food"}]},{"lat":"37.484263629","long":"126.778099","imageIndex":7,"items":[{"name":"낙원떡집","tel":"032-668-3437","addr":"경기도 부천시 심곡본동 536-4번지","indutype":"음료식품 - 제과점","category":"food"},{"name":"농협쌀직판장","tel":"032-667-3382","addr":"경기도 부천시 심곡본동 536-4번지","indutype":"음료식품 - 미곡상","category":"food"},{"name":"장수상회","tel":"032-655-9883","addr":"경기도 부천시 심곡본동 536-4번지","indutype":"음료식품 - 농·축·수산품","category":"food"}]},{"lat":"37.484460748","long":"126.77752178","imageIndex":7,"items":[{"name":"남도반찬","tel":"","addr":"경기도 부천시 심곡본동 536-10번지 1층 일부","indutype":"음료식품 - 기타음료식품","category":"food"},{"name":"옛날칼국수","tel":"032-666-5797","addr":"경기도 부천시 심곡본동 536-10번지","indutype":"음료식품 - 기타음료식품","category":"food"},{"name":"태평선식","tel":"032-656-2677","addr":"경기도 부천시 심곡본동 536-10번지","indutype":"건강식품 - 기타건강식품","category":"food"}]},{"lat":"37.480621789","long":"126.78190868","imageIndex":7,"items":[{"name":"녹용건강원","tel":"032-663-7175","addr":"경기도 부천시 심곡본동 730-11번지 지하1층","indutype":"건강식품 - 기타건강식품","category":"food"}]},{"lat":"37.478428514","long":"126.77513182","imageIndex":7,"items":[{"name":"녹즙부천소사특판","tel":"032-661-5808","addr":"경기도 부천시 심곡본동 621-9번지 102호","indutype":"음료식품 - 기타음료식품","category":"food"}]},{"lat":"37.476264787","long":"126.77443746","imageIndex":7,"items":[{"name":"농사꾼 유통","tel":"032-221-8566","addr":"경기도 부천시 심곡본동 807-5번지 1층","indutype":"음료식품 - 기타음료식품","category":"food"}]},{"lat":"37.479965718","long":"126.77801012","imageIndex":7,"items":[{"name":"농촌과어촌의만남","tel":"070-4024-2171","addr":"경기도 부천시 심곡본동 647-10번지 동서파크뷰 A동 101호","indutype":"음료식품 - 농·축·수산품","category":"food"}]},{"lat":"37.480010151","long":"126.78246446","imageIndex":7,"items":[{"name":"농협쌀직판장","tel":"032-651-1141","addr":"경기도 부천시 심곡본동 727-6번지 삼성하이츠빌 상가 101호","indutype":"음료식품 - 미곡상","category":"food"}]},{"lat":"37.484209957","long":"126.77830268","imageIndex":7,"items":[{"name":"다남웰빙(천기초)","tel":"032-611-7007","addr":"경기도 부천시 심곡본동 536-6번지 1층 일부","indutype":"건강식품 - 기타건강식품","category":"food"},{"name":"다사랑함초코리아","tel":"032-667-7004","addr":"경기도 부천시 심곡본동 536-6번지 1층","indutype":"음료식품 - 기타음료식품","category":"food"},{"name":"별난강정","tel":"032-328-6428","addr":"경기도 부천시 심곡본동 536-6번지 자유시장","indutype":"음료식품 - 기타음료식품","category":"food"},{"name":"형제상회","tel":"032-663-6594","addr":"경기도 부천시 심곡본동 536-6번지","indutype":"음료식품 - 농·축·수산품","category":"food"}]},{"lat":"37.483653445","long":"126.77941236","imageIndex":7,"items":[{"name":"대광수산","tel":"032-655-9239","addr":"경기도 부천시 심곡본동 541-17번지","indutype":"음료식품 - 농·축·수산품","category":"food"}]},{"lat":"37.481598655","long":"126.77913583","imageIndex":7,"items":[{"name":"대길축산","tel":"032-666-2240","addr":"경기도 부천시 심곡본동 660-5번지 1층","indutype":"음료식품 - 정육점","category":"food"}]},{"lat":"37.483483879","long":"126.78027214","imageIndex":7,"items":[{"name":"대도수산","tel":"032-611-3592","addr":"경기도 부천시 심곡본동 542-12번지","indutype":"음료식품 - 농·축·수산품","category":"food"}]},{"lat":"37.482147937","long":"126.7789646","imageIndex":7,"items":[{"name":"대림청과","tel":"032-656-8980","addr":"경기도 부천시 심곡본동 664-3번지 동관리치빌 1층 101호","indutype":"음료식품 - 농·축·수산품","category":"food"}]},{"lat":"37.476549901","long":"126.77278603","imageIndex":7,"items":[{"name":"대박","tel":"070-8197-7008","addr":"경기도 부천시 심곡본동 803번지 대진빌라 나동 106호","indutype":"음료식품 - 농·축·수산품","category":"food"}]},{"lat":"37.478680159","long":"126.77480319","imageIndex":7,"items":[{"name":"대박복권방","tel":"032-000-0000","addr":"경기도 부천시 심곡본동 585-1번지 흥일빌딩 1층","indutype":"음료식품 - 기타음료식품","category":"food"}]},{"lat":"37.481266273","long":"126.77965689","imageIndex":7,"items":[{"name":"대성상회","tel":"032-655-9339","addr":"경기도 부천시 심곡본동 657-18번지","indutype":"음료식품 - 기타음료식품","category":"food"}]},{"lat":"37.481461382","long":"126.77801695","imageIndex":7,"items":[{"name":"대성유통","tel":"032-651-2185","addr":"경기도 부천시 심곡본동 659번지 가동 1층","indutype":"음료식품 - 기타음료식품","category":"food"}]},{"lat":"37.47973275","long":"126.77868916","imageIndex":7,"items":[{"name":"동진하이퍼","tel":"032-668-3880","addr":"경기도 부천시 심곡본동 648-11번지 1층","indutype":"음료식품 - 기타음료식품","category":"food"}]},{"lat":"37.483849969","long":"126.77851857","imageIndex":7,"items":[{"name":"돼지네야채","tel":"032-653-0139","addr":"경기도 부천시 심곡본동 539번지","indutype":"음료식품 - 농·축·수산품","category":"food"},{"name":"시장방앗간","tel":"032-656-1647","addr":"경기도 부천시 심곡본동 539","indutype":"음료식품 - 제과점","category":"food"},{"name":"화정상회","tel":"032-612-1185","addr":"경기도 부천시 심곡본동 539","indutype":"음료식품 - 미곡상","category":"food"}]},{"lat":"37.481037551","long":"126.77782602","imageIndex":7,"items":[{"name":"디저트카페 힐링 베베","tel":"","addr":"경기도 부천시 심곡본동 655번지 1층 일부호","indutype":"음료식품 - 제과점","category":"food"}]},{"lat":"37.484341804","long":"126.7765724","imageIndex":7,"items":[{"name":"떡짓는마을","tel":"032-664-9090","addr":"경기도 부천시 심곡본동 533번지 1층","indutype":"음료식품 - 제과점","category":"food"},{"name":"혁이네정육점","tel":"070-7374-7079","addr":"경기도 부천시 심곡본동 533번지","indutype":"음료식품 - 정육점","category":"food"}]},{"lat":"37.483377855","long":"126.77663184","imageIndex":7,"items":[{"name":"뚜레쥬르심곡본점","tel":"032-661-6925","addr":"경기도 부천시 심곡본동 588-1번지 부천라비앙로제 1층 113호","indutype":"음료식품 - 제과점","category":"food"}]},{"lat":"37.483564072","long":"126.77979704","imageIndex":7,"items":[{"name":"명야채","tel":"032-661-1735","addr":"경기도 부천시 심곡본동 542","indutype":"음료식품 - 농·축·수산품","category":"food"}]},{"lat":"37.479014375","long":"126.7752431","imageIndex":7,"items":[{"name":"명진농산물","tel":"032-612-0533","addr":"경기도 부천시 심곡본동 608-13번지","indutype":"음료식품 - 농·축·수산품","category":"food"}]},{"lat":"37.482820224","long":"126.78191351","imageIndex":7,"items":[{"name":"미애로피부크리닉","tel":"032-665-8275","addr":"경기도 부천시 심곡본동 674번지 2층","indutype":"건강식품 - 기타건강식품","category":"food"},{"name":"파리바게뜨 부천심곡","tel":"032-668-6008","addr":"경기도 부천시 심곡본동 674번지 1층","indutype":"음료식품 - 제과점","category":"food"}]},{"lat":"37.480819224","long":"126.78148978","imageIndex":7,"items":[{"name":"미친꽈배기","tel":"","addr":"경기도 부천시 심곡본동 687-6번지 예인쉐르빌 2동 101호","indutype":"음료식품 - 기타음료식품","category":"food"}]},{"lat":"37.483897545","long":"126.77985258","imageIndex":7,"items":[{"name":"민속고추방앗간","tel":"032-657-0620","addr":"경기도 부천시 심곡본동 543번지","indutype":"음료식품 - 기타음료식품","category":"food"},{"name":"서산식품","tel":"032-663-4687","addr":"경기도 부천시 심곡본동 543번지 서산식품","indutype":"음료식품 - 기타음료식품","category":"food"}]},{"lat":"37.477735232","long":"126.77538264","imageIndex":7,"items":[{"name":"민지네방앗간","tel":"032-651-0318","addr":"경기도 부천시 심곡본동 622-10번지","indutype":"음료식품 - 제과점","category":"food"}]},{"lat":"37.484259436","long":"126.77590557","imageIndex":7,"items":[{"name":"믿음종합상사","tel":"032-111-1111","addr":"경기도 부천시 심곡본동 532-3번지 드림홈타운 701호","indutype":"음료식품 - 농·축·수산품","category":"food"}]},{"lat":"37.482179106","long":"126.77640933","imageIndex":7,"items":[{"name":"발칙한디저트","tel":"","addr":"경기도 부천시 심곡본동 593-13번지","indutype":"음료식품 - 기타음료식품","category":"food"}]},{"lat":"37.475678925","long":"126.7743262","imageIndex":7,"items":[{"name":"부국축산","tel":"032-661-0290","addr":"경기도 부천시 심곡본동 811번지","indutype":"음료식품 - 정육점","category":"food"}]},{"lat":"37.481013376","long":"126.77932978","imageIndex":7,"items":[{"name":"부부방앗간","tel":"032-661-0202","addr":"경기도 부천시 심곡본동 657-7번지","indutype":"음료식품 - 제과점","category":"food"}]},{"lat":"37.483709658","long":"126.78055413","imageIndex":7,"items":[{"name":"부산상회","tel":"032-671-1507","addr":"경기도 부천시 심곡본동 543-19번지","indutype":"음료식품 - 기타음료식품","category":"food"}]},{"lat":"37.481760833","long":"126.77913535","imageIndex":7,"items":[{"name":"부산상회","tel":"032-651-0808","addr":"경기도 부천시 심곡본동 660-7번지 1층","indutype":"음료식품 - 농·축·수산품","category":"food"}]},{"lat":"37.478461087","long":"126.77802594","imageIndex":7,"items":[{"name":"부자방앗간","tel":"032-651-5407","addr":"경기도 부천시 심곡본동 642-19번지 1층 지상 1층","indutype":"음료식품 - 기타음료식품","category":"food"}]},{"lat":"37.477988482","long":"126.78062761","imageIndex":7,"items":[{"name":"부천건강생활","tel":"","addr":"경기도 부천시 심곡본동 709-2번지 2층","indutype":"건강식품 - 기타건강식품","category":"food"}]},{"lat":"37.484592758","long":"126.77588195","imageIndex":7,"items":[{"name":"부천기름집","tel":"032-652-7705","addr":"경기도 부천시 심곡본동 532-1번지 장안연립 상가 5호","indutype":"음료식품 - 기타음료식품","category":"food"}]},{"lat":"37.484487195","long":"126.77721643","imageIndex":7,"items":[{"name":"부천닭총판매장","tel":"032-664-8822","addr":"경기도 부천시 심곡본동 536-7번지","indutype":"음료식품 - 정육점","category":"food"},{"name":"장수식품","tel":"032-656-4572","addr":"경기도 부천시 심곡본동 536-7번지 1층","indutype":"음료식품 - 농·축·수산품","category":"food"}]},{"lat":"37.483710593","long":"126.78105161","imageIndex":7,"items":[{"name":"부천수산","tel":"032-651-4033","addr":"경기도 부천시 심곡본동 544-2번지","indutype":"음료식품 - 농·축·수산품","category":"food"},{"name":"영은건강센타","tel":"","addr":"경기도 부천시 심곡본동 544-2번지 107호","indutype":"건강식품 - 인삼제품","category":"food"},{"name":"오산상회","tel":"032-664-1333","addr":"경기도 부천시 심곡본동 544-2번지 102호","indutype":"음료식품 - 농·축·수산품","category":"food"},{"name":"한양떡집","tel":"032-665-1286","addr":"경기도 부천시 심곡본동 544-2번지 103호","indutype":"음료식품 - 제과점","category":"food"}]},{"lat":"37.483071995","long":"126.7768815","imageIndex":7,"items":[{"name":"부천한우세상","tel":"032-612-3392","addr":"경기도 부천시 심곡본동 589-2번지","indutype":"음료식품 - 정육점","category":"food"}]},{"lat":"37.480904516","long":"126.78865747","imageIndex":7,"items":[{"name":"부천혜림직업재활시설","tel":"032-611-7994","addr":"경기도 부천시 심곡본동 523-99번지","indutype":"음료식품 - 제과점","category":"food"}]},{"lat":"37.482121508","long":"126.78901579","imageIndex":7,"items":[{"name":"부천혜림학교학교기업혜림커피로스팅팩토리","tel":"070-5168-2102","addr":"경기도 부천시 심곡본동 523-59번지","indutype":"음료식품 - 기타음료식품","category":"food"}]},{"lat":"37.481683237","long":"126.77624124","imageIndex":7,"items":[{"name":"비타과일","tel":"","addr":"경기도 부천시 심곡본동 599-14번지 현대파크빌 201호","indutype":"음료식품 - 농·축·수산품","category":"food"}]},{"lat":"37.483959246","long":"126.77912879","imageIndex":7,"items":[{"name":"삼영젓갈","tel":"032-653-3549","addr":"경기도 부천시 심곡본동 537-27번지","indutype":"음료식품 - 기타음료식품","category":"food"},{"name":"진원정육점","tel":"032-651-5700","addr":"경기도 부천시 심곡본동 537-27번지","indutype":"음료식품 - 정육점","category":"food"}]},{"lat":"37.483483772","long":"126.78021561","imageIndex":7,"items":[{"name":"삼총사축산","tel":"032-611-9530","addr":"경기도 부천시 심곡본동 542-11번지 1층","indutype":"음료식품 - 정육점","category":"food"}]},{"lat":"37.483764292","long":"126.78085924","imageIndex":7,"items":[{"name":"새두부","tel":"032-651-4334","addr":"경기도 부천시 심곡본동 543-24번지","indutype":"음료식품 - 기타음료식품","category":"food"}]},{"lat":"37.481794748","long":"126.77801595","imageIndex":7,"items":[{"name":"서울종합청과","tel":"032-663-9778","addr":"경기도 부천시 심곡본동 660번지","indutype":"음료식품 - 농·축·수산품","category":"food"}]},{"lat":"37.48221017","long":"126.77852348","imageIndex":7,"items":[{"name":"서울청과","tel":"032-611-8558","addr":"경기도 부천시 심곡본동 664-2번지","indutype":"음료식품 - 농·축·수산품","category":"food"}]},{"lat":"37.479982445","long":"126.77733173","imageIndex":7,"items":[{"name":"성원","tel":"032-654-6262","addr":"경기도 부천시 심곡본동 605-8번지","indutype":"음료식품 - 미곡상","category":"food"},{"name":"성주산건강마을","tel":"032-663-7082","addr":"경기도 부천시 심곡본동 605-8번지","indutype":"건강식품 - 기타건강식품","category":"food"}]},{"lat":"37.484154735","long":"126.7776923","imageIndex":7,"items":[{"name":"성원축산","tel":"032-666-3635","addr":"경기도 부천시 심곡본동 535-9번지 1층 일부","indutype":"음료식품 - 정육점","category":"food"},{"name":"유향","tel":"032-662-1405","addr":"경기도 부천시 심곡본동 535-9번지","indutype":"건강식품 - 기타건강식품","category":"food"}]},{"lat":"37.480123462","long":"126.77569196","imageIndex":7,"items":[{"name":"성진농산","tel":"032-668-5925","addr":"경기도 부천시 심곡본동 607-7번지 두리하이츠 304호","indutype":"음료식품 - 농·축·수산품","category":"food"}]},{"lat":"37.483511463","long":"126.77582869","imageIndex":7,"items":[{"name":"세계주류백화점(부천)","tel":"032-651-7373","addr":"경기도 부천시 심곡본동 561번지 1층","indutype":"음료식품 - 기타음료식품","category":"food"}]},{"lat":"37.481568919","long":"126.77771136","imageIndex":7,"items":[{"name":"소담베이커리","tel":"032-611-0353","addr":"경기도 부천시 심곡본동 597-13번지","indutype":"음료식품 - 제과점","category":"food"},{"name":"충남상회","tel":"032-656-1692","addr":"경기도 부천시 심곡본동 597-13번지 충남상회","indutype":"음료식품 - 농·축·수산품","category":"food"}]},{"lat":"37.482568708","long":"126.78232127","imageIndex":7,"items":[{"name":"수건강증진원","tel":"032-665-4955","addr":"경기도 부천시 심곡본동 736-14번지 1층 일부","indutype":"건강식품 - 기타건강식품","category":"food"}]},{"lat":"37.480343531","long":"126.77769243","imageIndex":7,"items":[{"name":"수기박사","tel":"032-657-7333","addr":"경기도 부천시 심곡본동 653-13번지","indutype":"건강식품 - 기타건강식품","category":"food"},{"name":"항아리속김치","tel":"032-655-4977","addr":"경기도 부천시 심곡본동 653-13번지","indutype":"음료식품 - 기타음료식품","category":"food"}]},{"lat":"37.484424967","long":"126.77765757","imageIndex":7,"items":[{"name":"시루떡","tel":"032-655-7792","addr":"경기도 부천시 심곡본동 536-11번지 1층 일부","indutype":"음료식품 - 제과점","category":"food"},{"name":"푸디스웰빙","tel":"032-000-0000","addr":"경기도 부천시 심곡본동 536-11번지 1층","indutype":"음료식품 - 기타음료식품","category":"food"}]},{"lat":"37.482179739","long":"126.78149707","imageIndex":7,"items":[{"name":"시루마을","tel":"032-666-9743","addr":"경기도 부천시 심곡본동 677-5번지 1층","indutype":"음료식품 - 제과점","category":"food"}]},{"lat":"37.481762883","long":"126.78022072","imageIndex":7,"items":[{"name":"시민상회","tel":"032-651-4248","addr":"경기도 부천시 심곡본동 682","indutype":"음료식품 - 기타음료식품","category":"food"}]},{"lat":"37.482290464","long":"126.77810491","imageIndex":7,"items":[{"name":"신광상회","tel":"032-663-6650","addr":"경기도 부천시 심곡본동 664번지","indutype":"음료식품 - 농·축·수산품","category":"food"}]},{"lat":"37.484120738","long":"126.7787665","imageIndex":7,"items":[{"name":"신성에프엔비(부천)","tel":"032-612-0689","addr":"경기도 부천시 심곡본동 537-1번지 1층","indutype":"음료식품 - 농·축·수산품","category":"food"}]},{"lat":"37.482043126","long":"126.78071735","imageIndex":7,"items":[{"name":"신앙촌상회","tel":"070-8928-1141","addr":"경기도 부천시 심곡본동 679-4번지 지층","indutype":"음료식품 - 기타음료식품","category":"food"}]},{"lat":"37.479570572","long":"126.77868965","imageIndex":7,"items":[{"name":"심곡소사흑염소","tel":"032-651-9404","addr":"경기도 부천시 심곡본동 648-3번지","indutype":"건강식품 - 기타건강식품","category":"food"}]},{"lat":"37.480068424","long":"126.77518337","imageIndex":7,"items":[{"name":"쌀눈쌀누룽지","tel":"070-4963-6234","addr":"경기도 부천시 심곡본동 579-13번지","indutype":"음료식품 - 기타음료식품","category":"food"}]},{"lat":"37.481121537","long":"126.77935207","imageIndex":7,"items":[{"name":"쌍용중국식품","tel":"070-7355-7673","addr":"경기도 부천시 심곡본동 657-6번지 103호","indutype":"음료식품 - 기타음료식품","category":"food"},{"name":"영일쌀상회","tel":"032-662-9932","addr":"경기도 부천시 심곡본동 657-6번지","indutype":"음료식품 - 미곡상","category":"food"}]},{"lat":"37.483405508","long":"126.78171958","imageIndex":7,"items":[{"name":"야채랑과일","tel":"032-652-8887","addr":"경기도 부천시 심곡본동 545-10번지 1층 32호","indutype":"음료식품 - 농·축·수산품","category":"food"},{"name":"중앙상회","tel":"032-651-5624","addr":"경기도 부천시 심곡본동 545-10번지 545외10필지내제1층 70호","indutype":"음료식품 - 농·축·수산품","category":"food"}]},{"lat":"37.484261775","long":"126.77712665","imageIndex":7,"items":[{"name":"야채백화점","tel":"032-661-4237","addr":"경기도 부천시 심곡본동 535번지 현대빌딩 1층","indutype":"음료식품 - 농·축·수산품","category":"food"}]},{"lat":"37.482538245","long":"126.78048977","imageIndex":7,"items":[{"name":"양만수산","tel":"032-668-1114","addr":"경기도 부천시 심곡본동 670-15번지","indutype":"음료식품 - 농·축·수산품","category":"food"}]},{"lat":"37.48393065","long":"126.77830351","imageIndex":7,"items":[{"name":"어사또","tel":"070-7359-8125","addr":"경기도 부천시 심곡본동 535-18번지 1층","indutype":"음료식품 - 농·축·수산품","category":"food"},{"name":"진짜맛있는찬","tel":"031-000-0000","addr":"경기도 부천시 심곡본동 535-18번지 1층","indutype":"음료식품 - 농·축·수산품","category":"food"}]},{"lat":"37.483733634","long":"126.77893726","imageIndex":7,"items":[{"name":"엄마수산","tel":"032-000-0000","addr":"경기도 부천시 심곡본동 539-14번지","indutype":"음료식품 - 농·축·수산품","category":"food"}]},{"lat":"37.481008813","long":"126.78169273","imageIndex":7,"items":[{"name":"오!윤더치앤빈","tel":"","addr":"경기도 부천시 심곡본동 687-4번지 2층","indutype":"음료식품 - 기타음료식품","category":"food"}]},{"lat":"37.483905465","long":"126.77927593","imageIndex":7,"items":[{"name":"오복떡집","tel":"032-667-0537","addr":"경기도 부천시 심곡본동 538-1번지","indutype":"음료식품 - 제과점","category":"food"}]},{"lat":"37.484371123","long":"126.77777079","imageIndex":7,"items":[{"name":"옥돌구이김","tel":"032-652-8062","addr":"경기도 부천시 심곡본동 536-12번지","indutype":"음료식품 - 농·축·수산품","category":"food"},{"name":"옥화식품","tel":"032-652-8062","addr":"경기도 부천시 심곡본동 536-12번지","indutype":"음료식품 - 기타음료식품","category":"food"}]},{"lat":"37.480267582","long":"126.78040605","imageIndex":7,"items":[{"name":"온누리유통","tel":"032-612-7910","addr":"경기도 부천시 심곡본동 686-15번지","indutype":"음료식품 - 농·축·수산품","category":"food"}]},{"lat":"37.476571451","long":"126.77460611","imageIndex":7,"items":[{"name":"왕궁방앗간","tel":"032-663-5578","addr":"경기도 부천시 심곡본동 806-7번지","indutype":"음료식품 - 제과점","category":"food"}]},{"lat":"37.481483257","long":"126.78005196","imageIndex":7,"items":[{"name":"왕재환전소 중국식품","tel":"032-665-5588","addr":"경기도 부천시 심곡본동 682-2번지 1층","indutype":"음료식품 - 기타음료식품","category":"food"}]},{"lat":"37.478625554","long":"126.77452072","imageIndex":7,"items":[{"name":"우리강산산야초","tel":"070-8970-4016","addr":"경기도 부천시 심곡본동 585-14번지","indutype":"음료식품 - 농·축·수산품","category":"food"}]},{"lat":"37.477959149","long":"126.77469233","imageIndex":7,"items":[{"name":"우리동네정육백화점","tel":"032-654-9934","addr":"경기도 부천시 심곡본동 585-12번지 1층","indutype":"음료식품 - 정육점","category":"food"}]},{"lat":"37.482733683","long":"126.78382451","imageIndex":7,"items":[{"name":"우리중국식품","tel":"","addr":"경기도 부천시 심곡본동 738-20번지 1층 102호 일부","indutype":"음료식품 - 기타음료식품","category":"food"}]},{"lat":"37.48393007","long":"126.77799824","imageIndex":7,"items":[{"name":"우성수산","tel":"032-328-6428","addr":"경기도 부천시 심곡본동 535-14번지","indutype":"음료식품 - 농·축·수산품","category":"food"},{"name":"제천농장건강원","tel":"032-611-9341","addr":"경기도 부천시 심곡본동 535-14번지 1층 일부","indutype":"음료식품 - 농·축·수산품","category":"food"}]},{"lat":"37.483984538","long":"126.7782129","imageIndex":7,"items":[{"name":"우처녀돈총각","tel":"","addr":"경기도 부천시 심곡본동 535-25번지 101호","indutype":"음료식품 - 정육점","category":"food"}]},{"lat":"37.481510616","long":"126.77549556","imageIndex":7,"items":[{"name":"웰빙건강원","tel":"032-202-7333","addr":"경기도 부천시 심곡본동 578-28번지 1층","indutype":"건강식품 - 기타건강식품","category":"food"}]},{"lat":"37.483264805","long":"126.78357422","imageIndex":7,"items":[{"name":"웰빙유통","tel":"032-663-0943","addr":"경기도 부천시 심곡본동 552번지 데카에셋프라자 502호","indutype":"건강식품 - 인삼제품","category":"food"}]},{"lat":"37.484541103","long":"126.77713712","imageIndex":7,"items":[{"name":"율라네","tel":"","addr":"경기도 부천시 심곡본동 536번지 B동 125호","indutype":"음료식품 - 기타음료식품","category":"food"},{"name":"홍해정육점","tel":"032-653-0900","addr":"경기도 부천시 심곡본동 536번지","indutype":"음료식품 - 정육점","category":"food"}]},{"lat":"37.483509906","long":"126.77974067","imageIndex":7,"items":[{"name":"은행청과","tel":"032-663-0519","addr":"경기도 부천시 심곡본동 542-1번지 1층 104호","indutype":"음료식품 - 농·축·수산품","category":"food"},{"name":"한라회포장","tel":"","addr":"경기도 부천시 심곡본동 542-1번지","indutype":"음료식품 - 기타음료식품","category":"food"}]},{"lat":"37.483876161","long":"126.77807755","imageIndex":7,"items":[{"name":"의리정육점","tel":"","addr":"경기도 부천시 심곡본동 535-13번지 토미오피스텔 102호","indutype":"음료식품 - 정육점","category":"food"}]},{"lat":"37.483455441","long":"126.77952601","imageIndex":7,"items":[{"name":"이가네축산","tel":"","addr":"경기도 부천시 심곡본동 541-24번지 103호","indutype":"음료식품 - 정육점","category":"food"}]},{"lat":"37.482317884","long":"126.78310213","imageIndex":7,"items":[{"name":"자연가득","tel":"032-1522-3281","addr":"경기도 부천시 심곡본동 740번지 1층 좌측","indutype":"음료식품 - 농·축·수산품","category":"food"}]},{"lat":"37.478176128","long":"126.77507606","imageIndex":7,"items":[{"name":"자연건강원","tel":"032-613-0078","addr":"경기도 부천시 심곡본동 622-4번지 1층","indutype":"건강식품 - 기타건강식품","category":"food"}]},{"lat":"37.483453908","long":"126.78351714","imageIndex":7,"items":[{"name":"자연그대로","tel":"031-222-2222","addr":"경기도 부천시 심곡본동 553-1번지 1층 일부","indutype":"음료식품 - 기타음료식품","category":"food"},{"name":"한가네 청과","tel":"070-1111-1111","addr":"경기도 부천시 심곡본동 553-1번지 1층","indutype":"음료식품 - 농·축·수산품","category":"food"},{"name":"한가네 청과","tel":"031-111-1111","addr":"경기도 부천시 심곡본동 553-1번지","indutype":"음료식품 - 농·축·수산품","category":"food"}]},{"lat":"37.482759474","long":"126.78315737","imageIndex":7,"items":[{"name":"정관장경기부천역점(신)","tel":"032-666-0399","addr":"경기도 부천시 심곡본동 738번지","indutype":"건강식품 - 홍삼제품","category":"food"},{"name":"정관장부천역점","tel":"032-666-0399","addr":"경기도 부천시 심곡본동 738번지","indutype":"건강식품 - 홍삼제품","category":"food"}]},{"lat":"37.479628592","long":"126.77604394","imageIndex":7,"items":[{"name":"정식품소사대리점","tel":"031-662-2626","addr":"경기도 부천시 심곡본동 609번지","indutype":"음료식품 - 기타음료식품","category":"food"}]},{"lat":"37.483682203","long":"126.78032809","imageIndex":7,"items":[{"name":"제일떡집","tel":"032-653-0751","addr":"경기도 부천시 심곡본동 543-12번지","indutype":"음료식품 - 제과점","category":"food"}]},{"lat":"37.47843071","long":"126.77627367","imageIndex":7,"items":[{"name":"제일축산","tel":"032-664-6929","addr":"경기도 부천시 심곡본동 613-7번지 유성빌라","indutype":"음료식품 - 정육점","category":"food"}]},{"lat":"37.481736322","long":"126.78046953","imageIndex":7,"items":[{"name":"제주은갈치","tel":"070-7520-8044","addr":"경기도 부천시 심곡본동 682-5번지","indutype":"음료식품 - 농·축·수산품","category":"food"}]},{"lat":"37.483711378","long":"126.78146994","imageIndex":7,"items":[{"name":"종로떡집","tel":"032-664-5573","addr":"경기도 부천시 심곡본동 544-5번지 1층","indutype":"음료식품 - 제과점","category":"food"},{"name":"축산사랑","tel":"032-656-5633","addr":"경기도 부천시 심곡본동 544-5번지","indutype":"음료식품 - 정육점","category":"food"}]},{"lat":"37.484342194","long":"126.77677591","imageIndex":7,"items":[{"name":"중국식품","tel":"","addr":"경기도 부천시 심곡본동 533-1번지 1층 일부","indutype":"음료식품 - 기타음료식품","category":"food"}]},{"lat":"37.479989741","long":"126.78118697","imageIndex":7,"items":[{"name":"중국식품","tel":"070-7848-9304","addr":"경기도 부천시 심곡본동 688-20번지","indutype":"음료식품 - 기타음료식품","category":"food"}]},{"lat":"37.484540606","long":"126.77687707","imageIndex":7,"items":[{"name":"진광방앗간","tel":"031-664-3256","addr":"경기도 부천시 심곡본동 531-1번지","indutype":"음료식품 - 제과점","category":"food"}]},{"lat":"37.478209476","long":"126.77837716","imageIndex":7,"items":[{"name":"착한베이커리","tel":"032-656-0404","addr":"경기도 부천시 심곡본동 639-24번지 1층","indutype":"음료식품 - 제과점","category":"food"}]},{"lat":"37.48370887","long":"126.7801358","imageIndex":7,"items":[{"name":"참한우촌","tel":"032-613-0868","addr":"경기도 부천시 심곡본동 543-10번지 1층","indutype":"음료식품 - 정육점","category":"food"}]},{"lat":"37.484460532","long":"126.77740872","imageIndex":7,"items":[{"name":"창덕식품","tel":"032-663-0082","addr":"경기도 부천시 심곡본동 536-9번지","indutype":"음료식품 - 기타음료식품","category":"food"}]},{"lat":"37.483656003","long":"126.78076911","imageIndex":7,"items":[{"name":"청주고추상회","tel":"032-655-5277","addr":"경기도 부천시 심곡본동 543-21번지","indutype":"음료식품 - 기타음료식품","category":"food"}]},{"lat":"37.48368199","long":"126.78021502","imageIndex":7,"items":[{"name":"초록 맛 반찬","tel":"032-667-2888","addr":"경기도 부천시 심곡본동 543-11번지 1층","indutype":"음료식품 - 기타음료식품","category":"food"}]},{"lat":"37.479846621","long":"126.78174137","imageIndex":7,"items":[{"name":"총각네축산물전문점","tel":"032-661-3570","addr":"경기도 부천시 심곡본동 723-1번지","indutype":"음료식품 - 정육점","category":"food"}]},{"lat":"37.484147253","long":"126.77849507","imageIndex":7,"items":[{"name":"충남상회","tel":"032-665-9258","addr":"경기도 부천시 심곡본동 537-2번지","indutype":"음료식품 - 정육점","category":"food"}]},{"lat":"37.48370729","long":"126.77929914","imageIndex":7,"items":[{"name":"충북상회","tel":"032-651-3227","addr":"경기도 부천시 심곡본동 541-3번지","indutype":"음료식품 - 농·축·수산품","category":"food"}]},{"lat":"37.478454803","long":"126.77474735","imageIndex":7,"items":[{"name":"친정엄마반찬","tel":"031-653-7616","addr":"경기도 부천시 심곡본동 585-3번지 정원홈타운 1층 102호","indutype":"음료식품 - 기타음료식품","category":"food"}]},{"lat":"37.483120061","long":"126.77846423","imageIndex":7,"items":[{"name":"킴스에스테틱","tel":"032-611-0079","addr":"경기도 부천시 심곡본동 667-3번지 부곡빌딩 6층","indutype":"건강식품 - 기타건강식품","category":"food"}]},{"lat":"37.478927252","long":"126.78155189","imageIndex":7,"items":[{"name":"테크노","tel":"032-612-3018","addr":"경기도 부천시 심곡본동 712번지 지층","indutype":"음료식품 - 농·축·수산품","category":"food"}]},{"lat":"37.482259393","long":"126.77599076","imageIndex":7,"items":[{"name":"통큰정육점","tel":"032-613-8245","addr":"경기도 부천시 심곡본동 593-7번지 오성빌딩 1층","indutype":"음료식품 - 정육점","category":"food"}]},{"lat":"37.480315241","long":"126.78179652","imageIndex":7,"items":[{"name":"투유디저트","tel":"032-613-8275","addr":"경기도 부천시 심곡본동 729-1번지 1층 일부","indutype":"음료식품 - 제과점","category":"food"}]},{"lat":"37.478262654","long":"126.77791348","imageIndex":7,"items":[{"name":"파리바게뜨부천심곡본동점","tel":"032-611-8284","addr":"경기도 부천시 심곡본동 639-12번지 1층","indutype":"음료식품 - 제과점","category":"food"}]},{"lat":"37.477406111","long":"126.77759949","imageIndex":7,"items":[{"name":"파스퇴르 부천남부대리점","tel":"032-655-6553","addr":"경기도 부천시 심곡본동 627-16 1층9/3","indutype":"음료식품 - 기타음료식품","category":"food"}]},{"lat":"37.477210536","long":"126.77899064","imageIndex":7,"items":[{"name":"파주방앗간","tel":"031-664-8595","addr":"경기도 부천시 심곡본동 703-14번지","indutype":"음료식품 - 기타음료식품","category":"food"}]},{"lat":"37.482263756","long":"126.77827458","imageIndex":7,"items":[{"name":"평화상회","tel":"032-327-8645","addr":"경기도 부천시 심곡본동 664-1번지","indutype":"음료식품 - 농·축·수산품","category":"food"}]},{"lat":"37.480987825","long":"126.77538409","imageIndex":7,"items":[{"name":"풍년방앗간","tel":"032-654-5093","addr":"경기도 부천시 심곡본동 578-25번지","indutype":"음료식품 - 기타음료식품","category":"food"}]},{"lat":"37.482987076","long":"126.77960655","imageIndex":7,"items":[{"name":"프랑세즈","tel":"032-668-1381","addr":"경기도 부천시 심곡본동 668-2번지","indutype":"음료식품 - 제과점","category":"food"}]},{"lat":"37.482623507","long":"126.77793432","imageIndex":7,"items":[{"name":"하늘축산물도매센타","tel":"032-663-7722","addr":"경기도 부천시 심곡본동 591-10번지 1층","indutype":"음료식품 - 정육점","category":"food"}]},{"lat":"37.478872557","long":"126.78121288","imageIndex":7,"items":[{"name":"한아름정육점","tel":"032-612-1424","addr":"경기도 부천시 심곡본동 698-3번지","indutype":"음료식품 - 정육점","category":"food"}]},{"lat":"37.483095377","long":"126.78452444","imageIndex":7,"items":[{"name":"한우리 단팥빵","tel":"031-233-0369","addr":"경기도 부천시 심곡본동 554번지 1층","indutype":"음료식품 - 제과점","category":"food"}]},{"lat":"37.480739642","long":"126.77752165","imageIndex":7,"items":[{"name":"해적수산","tel":"032-348-9119","addr":"경기도 부천시 심곡본동 602-6번지","indutype":"음료식품 - 농·축·수산품","category":"food"}]},{"lat":"37.483458467","long":"126.77638286","imageIndex":7,"items":[{"name":"해향","tel":"032-664-4555","addr":"경기도 부천시 심곡본동 588외3필지라비앙로제117","indutype":"음료식품 - 농·축·수산품","category":"food"}]},{"lat":"37.484128072","long":"126.77788458","imageIndex":7,"items":[{"name":"행복수산","tel":"032-9939-2983","addr":"경기도 부천시 심곡본동 535-10번지 1층 점포전부","indutype":"음료식품 - 농·축·수산품","category":"food"}]},{"lat":"37.484181377","long":"126.7774887","imageIndex":7,"items":[{"name":"현대식품","tel":"032-667-0023","addr":"경기도 부천시 심곡본동 535-5번지","indutype":"음료식품 - 기타음료식품","category":"food"}]},{"lat":"37.481345842","long":"126.77885393","imageIndex":7,"items":[{"name":"호남상회","tel":"032-652-0823","addr":"경기도 부천시 심곡본동 659-5,외2필지대창스페이스A동101호,102호","indutype":"음료식품 - 기타음료식품","category":"food"}]},{"lat":"37.483707076","long":"126.77918607","imageIndex":7,"items":[{"name":"홍운중국식품점","tel":"","addr":"경기도 부천시 심곡본동 541번지 제1호","indutype":"음료식품 - 기타음료식품","category":"food"}]},{"lat":"37.474624395","long":"126.77413722","imageIndex":7,"items":[{"name":"홍이네 과일가게","tel":"031-111-1111","addr":"경기도 부천시 심곡본동 814번지","indutype":"음료식품 - 농·축·수산품","category":"food"}]},{"lat":"37.484290358","long":"126.77794063","imageIndex":7,"items":[{"name":"활어회마트","tel":"032-651-1110","addr":"경기도 부천시 심곡본동 536-2번지 1층","indutype":"음료식품 - 농·축·수산품","category":"food"}]},{"lat":"37.483571778","long":"126.77910733","imageIndex":7,"items":[{"name":"훈이네땅콩","tel":"070-5043-6724","addr":"경기도 부천시 심곡본동 541-1번지 106-1호","indutype":"음료식품 - 기타음료식품","category":"food"}]},{"lat":"37.48345512","long":"126.77935642","imageIndex":7,"items":[{"name":"휴 건강프라자","tel":"032-665-6625","addr":"경기도 부천시 심곡본동 541-15번지 1층","indutype":"건강식품 - 기타건강식품","category":"food"}]}]