[{"lat":"37.46774605","long":"127.2039789","imageIndex":4,"items":[{"name":"감나무집","tel":"031-743-4399","addr":"경기도 광주시 남한산성면 검복리 56-7번지","indutype":"일반휴게음식 - 일반한식","category":"restaurant"}]},{"lat":"37.46727063","long":"127.2027342","imageIndex":4,"items":[{"name":"네스트카페(nest cafe)","tel":"031-749-6778","addr":"경기도 광주시 남한산성면 검복리 45-33번지 1층","indutype":"일반휴게음식 - 서양음식","category":"restaurant"}]},{"lat":"37.46682913","long":"127.1973412","imageIndex":4,"items":[{"name":"대원가든","tel":"031-46-0654","addr":"경기도 광주시 남한산성면 검복리 285-1번지","indutype":"일반휴게음식 - 일반한식","category":"restaurant"}]},{"lat":"37.46677457","long":"127.1976462","imageIndex":4,"items":[{"name":"람촌","tel":"031-746-5226","addr":"경기도 광주시 남한산성면 검복리 276번지","indutype":"일반휴게음식 - 일반한식","category":"restaurant"}]},{"lat":"37.46729866","long":"127.2021465","imageIndex":4,"items":[{"name":"르방","tel":"031-749-4007","addr":"경기도 광주시 남한산성면 검복리 45-6번지","indutype":"일반휴게음식 - 서양음식","category":"restaurant"}]},{"lat":"37.46499069","long":"127.208233","imageIndex":4,"items":[{"name":"만수촌","tel":"031-749-1537","addr":"경기도 광주시 남한산성면 검복리 118-2번지","indutype":"일반휴게음식 - 일반한식","category":"restaurant"}]},{"lat":"37.46793464","long":"127.1934781","imageIndex":4,"items":[{"name":"메종드포레","tel":"031-743-6625","addr":"경기도 광주시 남한산성면 검복리 302번지","indutype":"일반휴게음식 - 서양음식","category":"restaurant"}]},{"lat":"37.46690832","long":"127.2038637","imageIndex":4,"items":[{"name":"병풍산산장","tel":"031-745-1716","addr":"경기도 광주시 남한산성면 검복리 42번지","indutype":"일반휴게음식 - 일반한식","category":"restaurant"}]},{"lat":"37.4677725","long":"127.2043181","imageIndex":4,"items":[{"name":"양지산장","tel":"031-745-8798","addr":"경기도 광주시 남한산성면 검복리 62-1번지","indutype":"일반휴게음식 - 일반한식","category":"restaurant"}]},{"lat":"37.46671324","long":"127.2072882","imageIndex":4,"items":[{"name":"엘","tel":"031-746-2888","addr":"경기도 광주시 남한산성면 검복리 107-1번지","indutype":"일반휴게음식 - 서양음식","category":"restaurant"}]},{"lat":"37.46730124","long":"127.205922","imageIndex":4,"items":[{"name":"우묵골","tel":"031-746-8187","addr":"경기도 광주시 남한산성면 검복리 94-2번지","indutype":"일반휴게음식 - 일반한식","category":"restaurant"}]},{"lat":"37.46869107","long":"127.1937287","imageIndex":4,"items":[{"name":"카페 산","tel":"031-732-1630","addr":"경기도 광주시 남한산성면 검복리 297-7번지 1층","indutype":"일반휴게음식 - 서양음식","category":"restaurant"}]},{"lat":"37.46730023","long":"127.2065098","imageIndex":4,"items":[{"name":"카페512","tel":"","addr":"경기도 광주시 남한산성면 검복리 93-1번지 1,2층","indutype":"일반휴게음식 - 서양음식","category":"restaurant"}]},{"lat":"37.47349111","long":"127.2005916","imageIndex":4,"items":[{"name":"큰골집","tel":"031-733-8815","addr":"경기도 광주시 남한산성면 검복리 10번지 1층","indutype":"일반휴게음식 - 일반한식","category":"restaurant"}]}]