[{"lat":"37.35009545","long":"127.3411312","imageIndex":5,"items":[{"name":"GG모텔","tel":"031-764-6156","addr":"경기도 광주시 곤지암읍 곤지암리 435-28번지","indutype":"숙박업 - 여관/기타숙박업","category":"hotel"}]},{"lat":"37.34998116","long":"127.3401375","imageIndex":5,"items":[{"name":"꿈의궁전","tel":"031-797-6050","addr":"경기도 광주시 곤지암읍 곤지암리 443-9번지","indutype":"숙박업 - 여관/기타숙박업","category":"hotel"},{"name":"꿈의궁전","tel":"031-797-6050","addr":"경기도 광주시 곤지암읍 곤지암리 443-9번지","indutype":"숙박업 - 여관/기타숙박업","category":"hotel"}]},{"lat":"37.35020667","long":"127.3400482","imageIndex":5,"items":[{"name":"꿈의궁전별관","tel":"031-763-1642","addr":"경기도 광주시 곤지암읍 곤지암리 435-7번지","indutype":"숙박업 - 여관/기타숙박업","category":"hotel"}]},{"lat":"37.34876073","long":"127.3446916","imageIndex":5,"items":[{"name":"미도장","tel":"031-761-3223","addr":"경기도 광주시 곤지암읍 곤지암리 343-12번지","indutype":"숙박업 - 여관/기타숙박업","category":"hotel"}]},{"lat":"37.35003602","long":"127.3398556","imageIndex":5,"items":[{"name":"엠모텔","tel":"031-798-6972","addr":"경기도 광주시 곤지암읍 곤지암리 443-2번지","indutype":"숙박업 - 여관/기타숙박업","category":"hotel"},{"name":"엠모텔","tel":"031-798-6972","addr":"경기도 광주시 곤지암읍 곤지암리 443-2번지","indutype":"숙박업 - 여관/기타숙박업","category":"hotel"}]},{"lat":"37.34859646","long":"127.3454132","imageIndex":5,"items":[{"name":"필모텔","tel":"031-761-2048","addr":"경기도 광주시 곤지암읍 곤지암리 340-2번지","indutype":"숙박업 - 여관/기타숙박업","category":"hotel"}]},{"lat":"37.34328886","long":"127.351799","imageIndex":5,"items":[{"name":"호텔야자곤지암점","tel":"","addr":"경기도 광주시 곤지암읍 곤지암리 220-4번지","indutype":"숙박업 - 여관/기타숙박업","category":"hotel"}]},{"lat":"37.35004059","long":"127.3414131","imageIndex":5,"items":[{"name":"휘가로모텔","tel":"031-764-8779","addr":"경기도 광주시 곤지암읍 곤지암리 435-32번지","indutype":"숙박업 - 여관/기타숙박업","category":"hotel"}]},{"lat":"37.34559671","long":"127.3482999","imageIndex":5,"items":[{"name":"힐탑파크","tel":"031-761-7614","addr":"경기도 광주시 곤지암읍 곤지암리 332-1번지 185동 3호","indutype":"숙박업 - 여관/기타숙박업","category":"hotel"}]}]