[{"lat":"37.250991421","long":"126.92682203","imageIndex":16,"items":[{"name":"다사랑어린이집[아이행복]","tel":"031-294-6967","addr":"경기도 화성시 매송면 원평리 85-2번지","indutype":"학원 - 유아원","category":"study"},{"name":"다사랑어린이집[아이행복]","tel":"031-293-6967","addr":"경기도 화성시 매송면 원평리 85-2번지 다사랑어린이집","indutype":"학원 - 유아원","category":"study"}]},{"lat":"37.249180738","long":"126.9274325","imageIndex":16,"items":[{"name":"세광피아노학원","tel":"031-291-4177","addr":"경기도 화성시 매송면 원평리 65-14번지","indutype":"학원 - 예·체능계학원","category":"study"},{"name":"옥스포드속셈학원","tel":"031-294-9757","addr":"경기도 화성시 매송면 원평리 65-14번지","indutype":"학원 - 예·체능계학원","category":"study"}]},{"lat":"37.249018394","long":"126.92718469","imageIndex":16,"items":[{"name":"에이레네보습학원","tel":"031-294-6758","addr":"경기도 화성시 매송면 원평리 64-5번지 302호","indutype":"학원 - 보습학원","category":"study"}]},{"lat":"37.249018423","long":"126.92722978","imageIndex":16,"items":[{"name":"용인대 매송 태권도장","tel":"031-294-0394","addr":"경기도 화성시 매송면 원평리 64-19번지","indutype":"학원 - 예·체능계학원","category":"study"},{"name":"이레피아노학원","tel":"031-294-6758","addr":"경기도 화성시 매송면 원평리 64-19번지 2층","indutype":"학원 - 예·체능계학원","category":"study"}]},{"lat":"37.246487534","long":"126.91560084","imageIndex":16,"items":[{"name":"주식회사 마인","tel":"031-410-1154","addr":"경기도 화성시 매송면 원평리 286-2","indutype":"학원 - 기타 교육기관","category":"study"}]},{"lat":"37.246128115","long":"126.93043356","imageIndex":16,"items":[{"name":"처음사랑이해법수학학원","tel":"031-291-5546","addr":"경기도 화성시 매송면 원평리 17-10번지","indutype":"학원 - 보습학원","category":"study"}]},{"lat":"37.250289492","long":"126.92819785","imageIndex":16,"items":[{"name":"천사나라어린이집[아이행복]","tel":"031-291-1014","addr":"경기도 화성시 매송면 원평리 77-3번지 장미빌라 B동 101호","indutype":"학원 - 유아원","category":"study"}]},{"lat":"37.24918116","long":"126.9280975","imageIndex":16,"items":[{"name":"화성매송초등학교[아이행복]","tel":"031-294-8388","addr":"경기도 화성시 매송면 원평리 67-1번지","indutype":"학원 - 유치원","category":"study"}]}]