[{"lat":"37.753813018","long":"126.90835877","imageIndex":17,"items":[{"name":"(주)전통등연구회","tel":"031-941-9138","addr":"경기도 파주시 광탄면 영장리 44","indutype":"문화.취미 - 민예·공예품","category":"other"}]},{"lat":"37.774036585","long":"126.90491656","imageIndex":17,"items":[{"name":"18시편의점","tel":"031-946-9218","addr":"경기도 파주시 광탄면 영장리 231번지","indutype":"유통업 영리 - 편 의 점","category":"other"}]},{"lat":"37.75706875","long":"126.91255332","imageIndex":17,"items":[{"name":"농서의류함","tel":"031-943-5989","addr":"경기도 파주시 광탄면 영장리 92번지","indutype":"신변잡화 - 기타잡화","category":"other"}]},{"lat":"37.768897535","long":"126.90064453","imageIndex":17,"items":[{"name":"들꽃요양원","tel":"031-947-4334","addr":"경기도 파주시 광탄면 영장리 332-3번지","indutype":"기타의료기관 - 기타의료기관 및 기타","category":"other"}]},{"lat":"37.76500875","long":"126.90455395","imageIndex":17,"items":[{"name":"뚜거몰","tel":"031-000-0000","addr":"경기도 파주시 광탄면 영장리 355-1번지","indutype":"전기제품 - 가전제품","category":"other"}]},{"lat":"37.76200895","long":"126.90500051","imageIndex":17,"items":[{"name":"미니스톱 파주영장점","tel":"031-1577-9621","addr":"경기도 파주시 광탄면 영장리 165-4번지","indutype":"유통업 영리 - 편 의 점","category":"other"}]},{"lat":"37.757227318","long":"126.9079686","imageIndex":17,"items":[{"name":"보광편의점","tel":"031-8071-0972","addr":"경기도 파주시 광탄면 영장리 85-5번지","indutype":"유통업 영리 - 편 의 점","category":"other"}]},{"lat":"37.765088979","long":"126.90353243","imageIndex":17,"items":[{"name":"세븐일레븐파주광탄영장점","tel":"031-1577-0711","addr":"경기도 파주시 광탄면 영장리 357-2번지","indutype":"유통업 영리 - 편 의 점","category":"other"}]},{"lat":"37.773700295","long":"126.90144379","imageIndex":17,"items":[{"name":"슈퍼 사루 디자인","tel":"031-949-3486","addr":"경기도 파주시 광탄면 영장리 289-1번지","indutype":"건축자재 - 인테리어전문","category":"other"}]},{"lat":"37.765227127","long":"126.90716394","imageIndex":17,"items":[{"name":"예목몰","tel":"031-948-1566","addr":"경기도 파주시 광탄면 영장리 186-1번지","indutype":"용역 서비스 - 가례서비스업","category":"other"}]},{"lat":"37.756866626","long":"126.90758324","imageIndex":17,"items":[{"name":"원니스","tel":"","addr":"경기도 파주시 광탄면 영장리 83번지","indutype":"직물 - 카페트,커튼,천막,지물","category":"other"},{"name":"주식회사 한성컴퍼니","tel":"031-947-8551","addr":"경기도 파주시 광탄면 영장리 83번지","indutype":"의류 - 아동의류","category":"other"}]},{"lat":"37.756506957","long":"126.90846882","imageIndex":17,"items":[{"name":"이즈아이","tel":"032-947-1221","addr":"경기도 파주시 광탄면 영장리 86-23번지","indutype":"가구 - 일반가구","category":"other"}]},{"lat":"37.763846267","long":"126.90424907","imageIndex":17,"items":[{"name":"정코퍼레이션","tel":"031-941-0666","addr":"경기도 파주시 광탄면 영장리 179-50번지","indutype":"기타 - 기계공구","category":"other"}]},{"lat":"37.764116874","long":"126.90463457","imageIndex":17,"items":[{"name":"제이투모로우","tel":"070-4150-1896","addr":"경기도 파주시 광탄면 영장리 179-19번지","indutype":"신변잡화 - 가방","category":"other"}]},{"lat":"37.756373076","long":"126.91005767","imageIndex":17,"items":[{"name":"태은산업","tel":"031-948-0022","addr":"경기도 파주시 광탄면 영장리 88-14번지","indutype":"가구 - 일반가구","category":"other"}]},{"lat":"37.756755605","long":"126.90405422","imageIndex":17,"items":[{"name":"파이널스타디움 주식회사","tel":"031-945-7717","addr":"경기도 파주시 광탄면 영장리 68-2번지","indutype":"레져용품 - 스포츠·레져용품","category":"other"}]}]